timestamp,timestamp_sample,device_id,magnetometer_ga[0],magnetometer_ga[1],magnetometer_ga[2],calibration_count
3268000,3264000,197388,0.011738754,-0.21862462,0.43377897,0
3396000,3335636,197388,0.008519081,-0.21514972,0.42938918,0
3408000,3408000,197388,0.0027137452,-0.21149588,0.42485708,0
3536000,3478545,197388,0.010215499,-0.21695213,0.42849964,0
3548000,3548000,197388,0.0068642152,-0.21714018,0.42641777,0
3672000,3616800,197388,0.010352366,-0.21558712,0.4284501,0
3696000,3688000,197388,0.004248805,-0.21280852,0.43029422,0
3816000,3759600,197388,0.010400672,-0.21641324,0.4277672,0
3840000,3832000,197388,0.010596368,-0.21455666,0.4325439,0
3960000,3904400,197388,0.009737204,-0.2174042,0.42970124,0
3984000,3976000,197388,0.009912585,-0.21650779,0.4298908,0
4092000,4043555,197388,0.012112221,-0.21660168,0.42993042,0
4128000,4114666,197388,0.013101417,-0.21233192,0.42845666,0
4236000,4187111,197388,0.012735022,-0.21634033,0.42880216,0
4272000,4258666,197388,0.009420486,-0.21482852,0.4287103,0
4368000,4325500,197388,0.008660037,-0.21637124,0.43012106,0
4416000,4398000,197388,0.0115068015,-0.21972458,0.4258505,0
4512000,4469500,197388,0.011902383,-0.21589135,0.42894536,0
4560000,4542000,197388,0.007941922,-0.21533176,0.43002975,0
4656000,4613500,197388,0.010008511,-0.21645895,0.42622995,0
4704000,4685000,197388,0.008546854,-0.21677688,0.42886597,0
4800000,4757000,197388,0.011029849,-0.21648943,0.43124306,0
4848000,4828000,197388,0.013149675,-0.21556348,0.4299863,0
4928000,4895428,197388,0.011334349,-0.21551737,0.4287576,0
4992000,4967200,197388,0.006784869,-0.21643507,0.43231183,0
5072000,5038857,197388,0.008093225,-0.2160596,0.42629376,0
5136000,5110400,197388,0.0086748265,-0.21666653,0.42733136,0
5208000,5177333,197388,0.0116702,-0.2178191,0.4308908,0
5268000,5244000,197388,0.010569965,-0.21678452,0.42822,0
5352000,5315428,197388,0.009580612,-0.21692151,0.42687514,0
5408000,5386400,197388,0.01180888,-0.21511689,0.43049058,0
5496000,5458857,197388,0.011762791,-0.2145631,0.42996466,0
5556000,5531200,197388,0.011522638,-0.21623766,0.42859077,0
5640000,5603428,197388,0.010891083,-0.2166082,0.42916822,0
5696000,5674400,197388,0.011256083,-0.21392468,0.4322358,0
5772000,5742000,197388,0.0071250154,-0.21504043,0.4289478,0
5844000,5813333,197388,0.008494717,-0.21591304,0.43063447,0
5916000,5885333,197388,0.00958997,-0.21687871,0.42730138,0
5976000,5952000,197388,0.011862024,-0.21553738,0.4289147,0
6056000,6022285,197388,0.008282311,-0.21596651,0.4280493,0
6108000,6090000,197388,0.011814568,-0.21671677,0.42869115,0
6200000,6160000,197388,0.010332704,-0.21414521,0.42816654,0
6240000,6226666,197388,0.0068997582,-0.21649474,0.42926025,0
6336000,6294000,197388,0.009656973,-0.21352865,0.42874196,0
6384000,6366000,197388,0.0104115475,-0.21522817,0.43106467,0
6480000,6436000,197388,0.009532323,-0.2148757,0.42801827,0
6516000,6502666,197388,0.010267489,-0.21812217,0.42841548,0
6624000,6574666,197388,0.011241027,-0.21634835,0.42847988,0
6648000,6642000,197388,0.008506927,-0.21855068,0.43323782,0
6768000,6713200,197388,0.010326109,-0.2149864,0.42880335,0
6780000,6780000,197388,0.007859035,-0.22236054,0.4294084,0
6912000,6852000,197388,0.0091767805,-0.21726772,0.42982146,0
6924000,6924000,197388,0.014360544,-0.21837004,0.43048793,0
7056000,6995272,197388,0.008856584,-0.21670622,0.42951038,0
7068000,7068000,197388,0.012047743,-0.21782072,0.43293226,0
7200000,7138909,197388,0.011872712,-0.21486875,0.42867276,0
7212000,7212000,197388,0.013918895,-0.21055228,0.42608076,0
7344000,7283272,197388,0.009856101,-0.21491064,0.4301377,0
7356000,7356000,197388,0.0134664215,-0.21067563,0.42463028,0
7488000,7427636,197388,0.008456024,-0.21498531,0.43100318,0
7500000,7500000,197388,0.0077659977,-0.21228777,0.43044734,0
7632000,7572000,197388,0.010632702,-0.21512112,0.43353748,0
7640000,7640000,197388,0.009827698,-0.22427265,0.42592895,0
7760000,7708400,197388,0.009933776,-0.2142436,0.42971382,0
7776000,7776000,197388,0.007749418,-0.21226458,0.4249292,0
7904000,7847272,197388,0.013089223,-0.21582836,0.42791623,0
7920000,7920000,197388,0.002627011,-0.21893582,0.42190802,0
8048000,7990545,197388,0.009144651,-0.21521036,0.42944813,0
8064000,8064000,197388,0.01074228,-0.22177769,0.43071702,0
8196000,8135272,197388,0.011345528,-0.21727964,0.42870632,0
8208000,8208000,197388,0.01570259,-0.21453927,0.4251783,0
8340000,8278181,197388,0.009690316,-0.21761912,0.42908055,0
8352000,8352000,197388,0.0052573266,-0.21683578,0.43067116,0
8480000,8422545,197388,0.0075039784,-0.21536396,0.4287713,0
8496000,8496000,197388,0.008354677,-0.2127605,0.43134633,0
8624000,8566909,197388,0.009770025,-0.21575746,0.42830053,0
8640000,8640000,197388,0.00881642,-0.21049894,0.42353833,0
8768000,8710909,197388,0.008934699,-0.21530865,0.4300177,0
8784000,8784000,197388,0.009315834,-0.22102162,0.42581376,0
8916000,8854909,197388,0.009252684,-0.21745442,0.42814443,0
8928000,8928000,197388,0.013807964,-0.21965677,0.4263726,0
9060000,8998909,197388,0.009461338,-0.21424429,0.4286575,0
9072000,9072000,197388,0.010638615,-0.21985558,0.42537773,0
9200000,9142181,197388,0.008211136,-0.2144115,0.42799348,0
9216000,9216000,197388,0.011338661,-0.21635838,0.4317666,0
9348000,9287272,197388,0.009045491,-0.21728456,0.42980903,0
9360000,9360000,197388,0.008410247,-0.21594785,0.427607,0
9492000,9430181,197388,0.009856775,-0.21605642,0.42921424,0
9504000,9504000,197388,0.0075927693,-0.21843134,0.4270133,0
9636000,9576000,197388,0.009361048,-0.21635793,0.43034932,0
9648000,9648000,197388,0.004099391,-0.21267514,0.42960298,0
9776000,9718181,197388,0.0069587375,-0.21670888,0.4303357,0
9792000,9792000,197388,0.007931109,-0.20990852,0.42164233,0
9924000,9863272,197388,0.010841096,-0.21569261,0.42850146,0
9936000,9936000,197388,0.009137221,-0.2152877,0.42614627,0
10068000,10008000,197388,0.009385389,-0.2156311,0.42631269,0
10080000,10080000,197388,0.009090688,-0.21961771,0.43034086,0
10208000,10151272,197388,0.009048829,-0.21858871,0.43105677,0
10224000,10224000,197388,0.008744879,-0.21985887,0.42847654,0
10352000,10294181,197388,0.009711669,-0.2145676,0.42842278,0
10368000,10368000,197388,0.012234588,-0.21588172,0.4298599,0
10496000,10437818,197388,0.00939418,-0.21636686,0.43067166,0
10512000,10512000,197388,0.010318276,-0.21240799,0.42573944,0
10640000,10582909,197388,0.010326668,-0.21410966,0.42961594,0
10656000,10656000,197388,0.012401652,-0.21705043,0.42542174,0
10784000,10726909,197388,0.0090051135,-0.21594213,0.42879063,0
10800000,10800000,197388,0.0046344297,-0.2197254,0.43494776,0
10932000,10870909,197388,0.009950218,-0.21425828,0.43062028,0
10944000,10944000,197388,0.0069899526,-0.21459505,0.4348427,0
11072000,11014545,197388,0.008621249,-0.21579608,0.42798114,0
11088000,11088000,197388,0.007932492,-0.21861628,0.43428868,0
11220000,11159636,197388,0.008997373,-0.21531844,0.42897606,0
11232000,11232000,197388,0.012414922,-0.21370581,0.4274548,0
11360000,11302909,197388,0.009446939,-0.21704917,0.43124542,0
11372000,11372000,197388,0.0075762123,-0.21994048,0.42327523,0
11496000,11440800,197388,0.009202681,-0.21698585,0.43069682,0
11520000,11512000,197388,0.013972556,-0.21459562,0.42902666,0
11640000,11584400,197388,0.009091982,-0.21621704,0.4296146,0
11664000,11656000,197388,0.0104443375,-0.212069,0.43273306,0
11784000,11728400,197388,0.00919416,-0.21669967,0.42819005,0
11808000,11800000,197388,0.008443854,-0.21638083,0.43020314,0
11912000,11866666,197388,0.0072582876,-0.2149533,0.4292325,0
11940000,11934000,197388,0.013919951,-0.21674824,0.4266372,0
12056000,12004800,197388,0.00912531,-0.2144755,0.4299589,0
12072000,12072000,197388,0.007698201,-0.21115062,0.42961368,0
12200000,12143272,197388,0.009994189,-0.2152944,0.4272869,0
12216000,12216000,197388,0.0047616363,-0.20755473,0.4311612,0
12348000,12287272,197388,0.008402842,-0.2155394,0.4285234,0
12360000,12360000,197388,0.009083634,-0.21734974,0.42223367,0
12488000,12430909,197388,0.010474645,-0.21794608,0.42930883,0
12504000,12504000,197388,0.0037972124,-0.22030762,0.42872402,0
12636000,12574545,197388,0.009739732,-0.21834199,0.42894208,0
12648000,12648000,197388,0.012176097,-0.21413982,0.42755336,0
12780000,12719272,197388,0.010735055,-0.21555851,0.42782515,0
12792000,12792000,197388,0.013932921,-0.21851276,0.4245472,0
12924000,12862545,197388,0.0096336,-0.21626306,0.4287498,0
12936000,12936000,197388,0.012623851,-0.21337263,0.4262542,0
13064000,13006545,197388,0.008602196,-0.216248,0.42769876,0
13080000,13080000,197388,0.005921521,-0.21340752,0.42840385,0
13212000,13151272,197388,0.008033385,-0.21460673,0.4305449,0
13224000,13224000,197388,0.012069772,-0.22282352,0.42681795,0
13352000,13295272,197388,0.010813228,-0.2156862,0.42698002,0
13368000,13368000,197388,0.011553577,-0.216384,0.4315438,0
13500000,13439272,197388,0.007920369,-0.21685681,0.4291888,0
13512000,13512000,197388,0.012132491,-0.21428782,0.43350455,0
13644000,13583636,197388,0.010340861,-0.21758832,0.4320044,0
13656000,13656000,197388,0.0035152293,-0.21214668,0.4317962,0
13788000,13726909,197388,0.009249262,-0.21722972,0.42972314,0
13800000,13800000,197388,0.0047227335,-0.21355309,0.43050012,0
13932000,13870545,197388,0.008842686,-0.21724185,0.42936933,0
13944000,13944000,197388,0.013136451,-0.2081464,0.43353572,0
14076000,14014909,197388,0.0094173895,-0.21607685,0.42867598,0
14088000,14088000,197388,0.01606946,-0.21492966,0.43688115,0
14216000,14158909,197388,0.0107734725,-0.21756428,0.42852017,0
14232000,14232000,197388,0.013306979,-0.2134179,0.4355269,0
14360000,14302181,197388,0.01021509,-0.21562512,0.43008277,0
14376000,14376000,197388,0.016228693,-0.21813956,0.4256123,0
14504000,14446545,197388,0.009323433,-0.21472248,0.4270369,0
14520000,14520000,197388,0.007470807,-0.21415028,0.42268097,0
14652000,14592000,197388,0.009851845,-0.21635531,0.43044496,0
14664000,14664000,197388,0.008326905,-0.20816107,0.42964628,0
14792000,14734909,197388,0.009562489,-0.2151353,0.42960286,0
14804000,14804000,197388,0.00821076,-0.21375561,0.4277537,0
14928000,14872400,197388,0.009587718,-0.21703215,0.42933074,0
14952000,14944000,197388,0.012221854,-0.21595624,0.42562374,0
15068000,15016000,197388,0.011083401,-0.21594742,0.43111774,0
15096000,15088000,197388,0.010268755,-0.209766,0.4312069,0
15204000,15155111,197388,0.007390614,-0.21592794,0.43047515,0
15240000,15226666,197388,0.011151647,-0.21283567,0.43129,0
15344000,15298666,197388,0.009892117,-0.21573444,0.42994297,0
15372000,15366000,197388,0.009978517,-0.21531253,0.4304083,0
15488000,15436800,197388,0.010404156,-0.21557902,0.43063614,0
15504000,15504000,197388,0.01590507,-0.20934588,0.43283904,0
15636000,15574909,197388,0.012125259,-0.21524456,0.4307737,0
15648000,15648000,197388,0.0037119098,-0.21434313,0.43166143,0
15776000,15718545,197388,0.010826533,-0.21589707,0.42948622,0
15792000,15792000,197388,0.009427723,-0.21201669,0.43030137,0
15920000,15862181,197388,0.010416405,-0.21561146,0.43048856,0
15936000,15936000,197388,0.00827152,-0.21860294,0.4271462,0
16064000,16006181,197388,0.009339356,-0.21650922,0.4292783,0
16080000,16080000,197388,0.008069024,-0.21748778,0.4347531,0
16208000,16150181,197388,0.011699262,-0.21622936,0.42935416,0
16224000,16224000,197388,0.008251165,-0.21323058,0.4310948,0
16356000,16295272,197388,0.011269493,-0.21584295,0.4305351,0
16368000,16368000,197388,0.012218915,-0.2159241,0.42978355,0
16496000,16438909,197388,0.009877749,-0.21470775,0.43144795,0
16512000,16512000,197388,0.008171901,-0.21593122,0.42854548,0
16644000,16583272,197388,0.01033842,-0.21849006,0.4287561,0
16656000,16656000,197388,0.005978441,-0.22283179,0.42907187,0
16784000,16727636,197388,0.00847675,-0.21718061,0.42740673,0
16800000,16800000,197388,0.014393478,-0.213668,0.42650247,0
16928000,16870545,197388,0.009763921,-0.21645577,0.42934436,0
16944000,16944000,197388,0.008350644,-0.21564457,0.43480244,0
17072000,17015272,197388,0.010060879,-0.21551846,0.4297874,0
17088000,17088000,197388,0.011703894,-0.21562771,0.42874596,0
17216000,17158545,197388,0.009694999,-0.2148272,0.42906198,0
17228000,17228000,197388,0.0049326904,-0.20555812,0.42712083,0
17352000,17298000,197388,0.009435448,-0.21634685,0.4292507,0
17376000,17370000,197388,0.012477873,-0.21012975,0.43591052,0
17496000,17441600,197388,0.008914589,-0.21621254,0.42929125,0
17520000,17512000,197388,0.010397155,-0.21537374,0.43331033,0
17624000,17578666,197388,0.008523674,-0.21620473,0.431129,0
17652000,17646000,197388,0.011379524,-0.21243179,0.4258405,0
17768000,17716000,197388,0.009059982,-0.21665893,0.4300383,0
17784000,17784000,197388,0.01264876,-0.2185591,0.42733017,0
17916000,17855272,197388,0.009736953,-0.21603774,0.4286227,0
17928000,17928000,197388,0.0068692258,-0.21143271,0.42474493,0
18056000,17998909,197388,0.009479554,-0.21715191,0.43043125,0
18072000,18072000,197388,0.008371952,-0.22123753,0.43280408,0
18200000,18142545,197388,0.009013442,-0.21577649,0.43076587,0
18216000,18216000,197388,0.008613758,-0.21566156,0.43033674,0
18348000,18286909,197388,0.008650424,-0.21520536,0.4291458,0
18360000,18360000,197388,0.0140942065,-0.21685034,0.42944142,0
18492000,18431272,197388,0.010337013,-0.21466172,0.431789,0
18504000,18504000,197388,0.016395915,-0.21267557,0.42697266,0
18636000,18574545,197388,0.008818418,-0.21610074,0.4294047,0
18648000,18648000,197388,0.007521036,-0.21841453,0.43328023,0
18780000,18718545,197388,0.009083343,-0.21593235,0.42792192,0
18792000,18792000,197388,0.010355856,-0.21727782,0.43114275,0
18920000,18863272,197388,0.010047086,-0.21399368,0.4300205,0
18936000,18936000,197388,0.008384048,-0.21717803,0.42997402,0
19068000,19007636,197388,0.01035361,-0.21583746,0.42960915,0
19080000,19080000,197388,0.0077617182,-0.2125326,0.42941716,0
19208000,19150909,197388,0.010561106,-0.21732423,0.4294999,0
19224000,19224000,197388,0.007880192,-0.21328422,0.4328706,0
19356000,19295272,197388,0.010329897,-0.21681418,0.4276182,0
19368000,19368000,197388,0.016776027,-0.218237,0.4298638,0
19500000,19438909,197388,0.009639518,-0.21415108,0.42881912,0
19512000,19512000,197388,0.0109215025,-0.21142821,0.4269259,0
19644000,19582909,197388,0.008970045,-0.21518712,0.43010038,0
19656000,19656000,197388,0.008809677,-0.21602444,0.42683557,0
19784000,19725818,197388,0.009527641,-0.21529147,0.4289889,0
19800000,19800000,197388,0.010248953,-0.21334067,0.42572737,0
19932000,19870545,197388,0.009744412,-0.21574199,0.4294666,0
19944000,19944000,197388,0.012601786,-0.21726307,0.43328452,0
20072000,20014545,197388,0.008333994,-0.21434072,0.4288096,0
20088000,20088000,197388,0.010945981,-0.22141507,0.42968726,0
20220000,20159272,197388,0.007912012,-0.21638441,0.43076324,0
20232000,20232000,197388,0.006821548,-0.20953691,0.43563694,0
20364000,20304000,197388,0.010561054,-0.21591239,0.42918584,0
20376000,20376000,197388,0.009352365,-0.21258995,0.43033335,0
20504000,20447636,197388,0.00937527,-0.216206,0.42955318,0
20520000,20520000,197388,0.015123475,-0.21739091,0.4290927,0
20652000,20590545,197388,0.008471902,-0.21316479,0.42894572,0
20664000,20664000,197388,0.013278761,-0.21738204,0.43066278,0
20796000,20733818,197388,0.008107746,-0.21582806,0.42972982,0
20808000,20808000,197388,0.007610666,-0.2159054,0.4273273,0
20940000,20878909,197388,0.009695771,-0.2161336,0.43067893,0
20952000,20952000,197388,0.0072822683,-0.21228334,0.42319548,0
21084000,21023636,197388,0.010077382,-0.21343935,0.4281877,0
21096000,21096000,197388,0.011395425,-0.21616808,0.43096706,0
21228000,21168000,197388,0.0105833085,-0.21309027,0.43036437,0
21240000,21240000,197388,0.010665474,-0.21514148,0.4290723,0
21368000,21311272,197388,0.009842279,-0.2141153,0.42974347,0
21384000,21384000,197388,0.0009807645,-0.2141985,0.4277539,0
21516000,21455272,197388,0.010208176,-0.21547587,0.42742193,0
21528000,21528000,197388,0.0030280566,-0.21887337,0.43344873,0
21660000,21598909,197388,0.009131468,-0.21611011,0.42895168,0
21672000,21672000,197388,0.013868058,-0.21175335,0.428629,0
21804000,21743636,197388,0.009388229,-0.21533473,0.43064725,0
21816000,21816000,197388,0.0087450035,-0.21357612,0.422747,0
21948000,21888000,197388,0.008888927,-0.21506408,0.42856973,0
21960000,21960000,197388,0.006789034,-0.21408385,0.43347538,0
22092000,22032000,197388,0.008190555,-0.21419005,0.43080106,0
22104000,22104000,197388,0.002216568,-0.21645835,0.43017587,0
22236000,22175636,197388,0.010945407,-0.2143085,0.42851654,0
22248000,22248000,197388,0.015955554,-0.21635044,0.43241367,0
22376000,22318545,197388,0.007875256,-0.21446784,0.4295426,0
22392000,22392000,197388,0.008277254,-0.21622847,0.4293586,0
22524000,22462909,197388,0.010333923,-0.21509807,0.4295241,0
22536000,22536000,197388,0.011072325,-0.21285497,0.43506762,0
22664000,22607636,197388,0.010737031,-0.21506213,0.42922446,0
22680000,22680000,197388,0.0058867736,-0.22234266,0.42479262,0
22812000,22750909,197388,0.0104689,-0.21389565,0.42925698,0
22824000,22824000,197388,0.0095738415,-0.21272992,0.4252898,0
22956000,22896000,197388,0.008618526,-0.2155304,0.42861456,0
22968000,22968000,197388,0.007900747,-0.21878973,0.43169516,0
23096000,23038909,197388,0.008980197,-0.21533212,0.4306496,0
23112000,23112000,197388,0.007231261,-0.21639489,0.43352163,0
23240000,23182545,197388,0.008603351,-0.21510527,0.42870072,0
23256000,23256000,197388,0.0074908254,-0.21286659,0.42286113,0
23388000,23326545,197388,0.0086997,-0.21502231,0.42840365,0
23400000,23400000,197388,0.00976634,-0.22136104,0.42642054,0
23528000,23470909,197388,0.0086521385,-0.21427019,0.43164775,0
23544000,23544000,197388,0.005618155,-0.21654688,0.42340887,0
23676000,23614909,197388,0.007216341,-0.21582945,0.4314652,0
23688000,23688000,197388,0.01066758,-0.21249503,0.4279219,0
23816000,23758545,197388,0.0079405885,-0.21410988,0.42934775,0
23832000,23832000,197388,0.009618764,-0.22148396,0.43011674,0
23960000,23902545,197388,0.008920294,-0.21735333,0.43036497,0
23976000,23976000,197388,0.014543193,-0.21573274,0.42486095,0
24104000,24047272,197388,0.009657781,-0.21380556,0.42834896,0
24120000,24120000,197388,0.0057006855,-0.21806258,0.42889917,0
24248000,24190545,197388,0.008202787,-0.21702337,0.42826414,0
24264000,24264000,197388,0.0078017004,-0.21845926,0.4303738,0
24396000,24333090,197388,0.009821848,-0.21469724,0.4279496,0
24408000,24408000,197388,0.010207792,-0.21292554,0.42816773,0
24540000,24480000,197388,0.010744564,-0.21514352,0.4294895,0
24552000,24552000,197388,0.0087646255,-0.2151548,0.42599446,0
24684000,24622545,197388,0.009961654,-0.21455996,0.43046507,0
24696000,24696000,197388,0.007444761,-0.21449432,0.42599988,0
24828000,24766545,197388,0.009938711,-0.21564049,0.42961892,0
24840000,24840000,197388,0.009291858,-0.21738954,0.42698678,0
24968000,24910909,197388,0.010470822,-0.21408784,0.43023032,0
24984000,24984000,197388,0.013284967,-0.21685633,0.42744648,0
25116000,25054909,197388,0.0080821905,-0.21486853,0.43009964,0
25128000,25128000,197388,0.009941854,-0.21985443,0.42971343,0
25260000,25200000,197388,0.010803288,-0.21379423,0.428825,0
25272000,25272000,197388,0.009833676,-0.21342184,0.43152836,0
25404000,25343272,197388,0.010413526,-0.21526913,0.4303266,0
25416000,25416000,197388,0.010400823,-0.21211174,0.43189734,0
25544000,25486909,197388,0.008788861,-0.21633409,0.4303143,0
25560000,25560000,197388,0.008371692,-0.21152295,0.43245023,0
25692000,25630909,197388,0.009395804,-0.2144913,0.42823285,0
25704000,25704000,197388,0.009863524,-0.21398914,0.42312655,0
25836000,25775636,197388,0.009514871,-0.213998,0.42997384,0
25848000,25848000,197388,0.014445057,-0.22115967,0.4291323,0
25980000,25920000,197388,0.008024184,-0.21521543,0.43032297,0
25992000,25992000,197388,0.006589285,-0.2186233,0.43132186,0
26124000,26064000,197388,0.0087511735,-0.21599993,0.42913747,0
26136000,26136000,197388,0.0052928193,-0.21514535,0.43055972,0
26264000,26206545,197388,0.0106157735,-0.2148897,0.4289639,0
26280000,26280000,197388,0.011684357,-0.20847453,0.42899334,0
26408000,26350545,197388,0.008395857,-0.21443956,0.4280525,0
26424000,26424000,197388,0.010730329,-0.21179399,0.43358776,0
26552000,26494545,197388,0.009816185,-0.21342663,0.42701393,0
26568000,26568000,197388,0.008242018,-0.21602403,0.42184404,0
26696000,26637818,197388,0.010764534,-0.21523975,0.42888913,0
26712000,26712000,197388,0.006370826,-0.21444906,0.43143588,0
26840000,26782909,197388,0.009483593,-0.21422705,0.42903784,0
26856000,26856000,197388,0.014077679,-0.20915435,0.4310796,0
26988000,26926545,197388,0.008647433,-0.21466896,0.42726502,0
27000000,27000000,197388,0.008410815,-0.20670387,0.43612367,0
27132000,27071272,197388,0.00813451,-0.21410553,0.42800325,0
27144000,27144000,197388,0.0074624442,-0.2221464,0.4298244,0
27276000,27216000,197388,0.0089799175,-0.21510184,0.4307527,0
27288000,27288000,197388,0.0137363495,-0.21786274,0.4374326,0
27416000,27358909,197388,0.009768137,-0.21529207,0.42812136,0
27432000,27432000,197388,0.0029254414,-0.21309437,0.42250225,0
27564000,27504000,197388,0.008659306,-0.21512815,0.42712268,0
27576000,27576000,197388,0.0057662963,-0.21169369,0.42622328,0
27704000,27646909,197388,0.008454269,-0.21809196,0.42829722,0
27720000,27720000,197388,0.008847845,-0.21853216,0.4285611,0
27852000,27791272,197388,0.009686279,-0.21509986,0.43026426,0
27864000,27864000,197388,0.01749871,-0.22071247,0.4293881,0
27992000,27935272,197388,0.011563545,-0.21543539,0.4294969,0
28008000,28008000,197388,-0.0017658031,-0.21284844,0.43030417,0
28136000,28078909,197388,0.009329461,-0.21621421,0.43231696,0
28152000,28152000,197388,0.007989375,-0.20996925,0.43103302,0
28280000,28222545,197388,0.011631322,-0.2163402,0.4291868,0
28296000,28296000,197388,0.012454714,-0.21231408,0.42686462,0
28424000,28366545,197388,0.01047412,-0.214557,0.430525,0
28440000,28440000,197388,0.011708912,-0.21528506,0.42794845,0
28568000,28510181,197388,0.008983575,-0.21556672,0.4291782,0
28584000,28584000,197388,0.0048079723,-0.21286274,0.43184468,0
28712000,28654909,197388,0.011635386,-0.21539709,0.43008217,0
28728000,28728000,197388,0.010006015,-0.21367398,0.42831656,0
28856000,28798545,197388,0.008976916,-0.21754825,0.42935753,0
28872000,28872000,197388,0.007047258,-0.21359408,0.4247161,0
29000000,28941818,197388,0.010853723,-0.21591939,0.42928052,0
29016000,29016000,197388,0.008945816,-0.21225514,0.4295965,0
29144000,29086545,197388,0.009831113,-0.21533698,0.429405,0
29160000,29160000,197388,0.010203301,-0.2216414,0.42785352,0
29292000,29230545,197388,0.009194933,-0.2151612,0.42992133,0
29304000,29304000,197388,0.006875544,-0.21624947,0.43124446,0
29436000,29374545,197388,0.010984736,-0.21592028,0.4311097,0
29448000,29448000,197388,0.015229761,-0.21375312,0.43618903,0
29576000,29518181,197388,0.008882344,-0.21551941,0.43147525,0
29592000,29592000,197388,0.007988844,-0.21435738,0.43767837,0
29720000,29662545,197388,0.010786258,-0.2148394,0.42935348,0
29736000,29736000,197388,0.009520513,-0.2145185,0.42847964,0
29868000,29806909,197388,0.009078564,-0.21510749,0.4292601,0
29880000,29880000,197388,0.014318632,-0.21312945,0.4364868,0
30012000,29950545,197388,0.008246553,-0.21522377,0.43005377,0
30024000,30024000,197388,0.011971201,-0.21605308,0.43472084,0
30152000,30094909,197388,0.008506007,-0.21563771,0.43085143,0
30168000,30168000,197388,0.0061454964,-0.2177074,0.43359265,0
30300000,30240000,197388,0.010386107,-0.2146105,0.4279608,0
30312000,30312000,197388,0.0010450676,-0.21450292,0.42774072,0
30444000,30384000,197388,0.008482687,-0.21623504,0.42996708,0
30456000,30456000,197388,0.014665038,-0.22397679,0.42998943,0
30588000,30526909,197388,0.009484163,-0.2159343,0.42903876,0
30600000,30600000,197388,0.008192951,-0.21343504,0.430574,0
30732000,30671636,197388,0.00844679,-0.21454999,0.42690796,0
30744000,30744000,197388,0.0057067047,-0.21904278,0.43227854,0
30876000,30815636,197388,0.011069606,-0.21443944,0.4320997,0
30888000,30888000,197388,0.007922944,-0.2129843,0.43097273,0
31020000,30959636,197388,0.009880668,-0.21626146,0.43054578,0
31032000,31032000,197388,0.016051171,-0.21434517,0.4315601,0
31164000,31102909,197388,0.010049965,-0.21499264,0.42886943,0
31176000,31176000,197388,0.0064244973,-0.21843565,0.42619494,0
31304000,31246545,197388,0.008427864,-0.21473603,0.42739072,0
31320000,31320000,197388,0.010185271,-0.22104487,0.42236722,0
31448000,31389818,197388,0.010333437,-0.21518177,0.4299811,0
31464000,31464000,197388,0.0054107285,-0.21876138,0.42713514,0
31592000,31534545,197388,0.008385082,-0.21438916,0.4301812,0
31608000,31608000,197388,0.008642119,-0.21146801,0.42924398,0
31740000,31678545,197388,0.010198845,-0.2142701,0.43029782,0
31748000,31748000,197388,0.011474648,-0.21589477,0.43159524,0
31872000,31816800,197388,0.010545303,-0.21437612,0.42870092,0
31896000,31888000,197388,0.012450386,-0.21525508,0.4315505,0
32000000,31954666,197388,0.008283123,-0.21546127,0.42825994,0
32040000,32026666,197388,0.007523833,-0.21728365,0.43282604,0
32136000,32093500,197388,0.010400301,-0.21464097,0.4303058,0
32184000,32164000,197388,0.008939137,-0.21630572,0.42997193,0
32268000,32231428,197388,0.009563742,-0.21623747,0.4291131,0
32328000,32303200,197388,0.012557313,-0.21522616,0.4285414,0
32412000,32375428,197388,0.009523036,-0.214036,0.42806032,0
32472000,32447200,197388,0.011543761,-0.21694322,0.427875,0
32556000,32519428,197388,0.011358859,-0.2143692,0.43036258,0
32616000,32591200,197388,0.007801667,-0.21910203,0.42906544,0
32700000,32662857,197388,0.006692839,-0.21309505,0.4285861,0
32748000,32730000,197388,0.011744772,-0.21713972,0.42952812,0
32840000,32800000,197388,0.010788219,-0.21476546,0.42997283,0
32880000,32866666,197388,0.0066767205,-0.20998542,0.42928052,0
32988000,32939111,197388,0.008442418,-0.2152594,0.43021125,0
33024000,33010666,197388,0.005659907,-0.21916267,0.43072268,0
33132000,33083111,197388,0.008566132,-0.21457686,0.4313498,0
33156000,33150000,197388,0.008483054,-0.21602821,0.43147397,0
33272000,33220800,197388,0.0089302985,-0.21620081,0.4282054,0
33288000,33288000,197388,0.013642663,-0.21410258,0.4288645,0
33420000,33358909,197388,0.009524171,-0.21675414,0.43135002,0
33432000,33432000,197388,0.0093804505,-0.21230106,0.430805,0
33560000,33503272,197388,0.008748998,-0.21423821,0.4301171,0
33576000,33576000,197388,0.01243638,-0.21043018,0.42747566,0
33704000,33646909,197388,0.0093333945,-0.21548526,0.42931384,0
33720000,33720000,197388,0.01772744,-0.21844214,0.4259868,0
33852000,33792000,197388,0.008612806,-0.21531218,0.4308356,0
33860000,33860000,197388,0.010692578,-0.2127466,0.43004534,0
33984000,33929200,197388,0.008840247,-0.21496284,0.4285829,0
34008000,34000000,197388,0.0112384595,-0.21543273,0.43068665,0
34112000,34066666,197388,0.008604677,-0.21439286,0.43134972,0
34140000,34134000,197388,0.009194859,-0.20825478,0.43046415,0
34260000,34205200,197388,0.010918216,-0.213867,0.42974672,0
34272000,34272000,197388,0.009116608,-0.20999876,0.42860734,0
34404000,34342909,197388,0.011195005,-0.21528241,0.42968443,0
34416000,34416000,197388,0.013915637,-0.21010539,0.42434263,0
34544000,34486181,197388,0.008941638,-0.21590135,0.43058535,0
34560000,34560000,197388,0.013889082,-0.21253113,0.4311486,0
34692000,34632000,197388,0.010754713,-0.21750554,0.43005085,0
34704000,34704000,197388,0.0048173,-0.21411183,0.43087888,0
34836000,34776000,197388,0.010924833,-0.2155821,0.42969212,0
34848000,34848000,197388,0.005608889,-0.22205122,0.42410666,0
34976000,34919636,197388,0.006599902,-0.2153932,0.4286445,0
34992000,34992000,197388,0.008460344,-0.21248226,0.42775762,0
35120000,35062545,197388,0.009423591,-0.21569817,0.42887893,0
35136000,35136000,197388,0.010930881,-0.21511127,0.43447074,0
35268000,35207272,197388,0.009437516,-0.21398343,0.42933175,0
35280000,35280000,197388,0.0058132242,-0.21230859,0.42823744,0
35408000,35350545,197388,0.010135632,-0.21559276,0.42948335,0
35424000,35424000,197388,0.008892004,-0.21484634,0.42766628,0
35552000,35494545,197388,0.0094753755,-0.21474645,0.42782363,0
35568000,35568000,197388,0.0072531602,-0.21473786,0.4291829,0
35696000,35638909,197388,0.009353997,-0.21327905,0.43018717,0
35712000,35712000,197388,0.007902163,-0.21559565,0.4274209,0
35840000,35782181,197388,0.011121658,-0.21550155,0.42931947,0
35856000,35856000,197388,0.010647052,-0.2175082,0.41787055,0
35984000,35926909,197388,0.00956983,-0.21527576,0.42939648,0
36000000,36000000,197388,0.0069777216,-0.21735972,0.42848554,0
36128000,36070181,197388,0.009436809,-0.21596517,0.42985266,0
36144000,36144000,197388,0.006437422,-0.21407455,0.42483,0
36272000,36214909,197388,0.009014571,-0.21438378,0.429563,0
36288000,36288000,197388,0.0077545065,-0.21346356,0.4350731,0
36416000,36358545,197388,0.01050591,-0.21441616,0.43149552,0
36432000,36432000,197388,0.0015732507,-0.21746747,0.4313102,0
36560000,36502181,197388,0.009111034,-0.21708211,0.4290707,0
36576000,36576000,197388,0.009116728,-0.2173637,0.43265402,0
36704000,36647272,197388,0.008966531,-0.214833,0.4292607,0
36720000,36720000,197388,0.0018343676,-0.20779271,0.43132025,0
36848000,36789818,197388,0.010308083,-0.2148156,0.4281637,0
36864000,36864000,197388,0.0133354375,-0.21456072,0.4300836,0
36992000,36933818,197388,0.009291217,-0.21418503,0.42838085,0
37008000,37008000,197388,0.010526019,-0.21098112,0.43353158,0
37136000,37078181,197388,0.008554168,-0.21380135,0.42924508,0
37152000,37152000,197388,0.0027795583,-0.21793678,0.43244848,0
37280000,37222545,197388,0.009581751,-0.2152777,0.42822644,0
37296000,37296000,197388,0.007038301,-0.21365137,0.42629638,0
37424000,37366181,197388,0.00913952,-0.21569437,0.4280294,0
37440000,37440000,197388,0.0171065,-0.20643266,0.42803454,0
37568000,37510545,197388,0.009820272,-0.21355684,0.4298571,0
37584000,37584000,197388,0.01437701,-0.21260782,0.42841366,0
37712000,37654909,197388,0.011149538,-0.21544956,0.42954308,0
37728000,37728000,197388,0.009145181,-0.21345212,0.42364916,0
37856000,37798181,197388,0.008810854,-0.21604265,0.43072012,0
37872000,37872000,197388,0.008419484,-0.21802159,0.4290167,0
38004000,37943636,197388,0.010503338,-0.21681327,0.42774427,0
38016000,38016000,197388,0.0032425737,-0.21750948,0.44074586,0
38148000,38087636,197388,0.009103373,-0.21486114,0.429851,0
38160000,38160000,197388,0.019975314,-0.21023998,0.4287122,0
38288000,38230545,197388,0.010425875,-0.21457861,0.42976284,0
38304000,38304000,197388,0.007222122,-0.21606793,0.44107634,0
38436000,38376000,197388,0.009798159,-0.21571748,0.4299512,0
38448000,38448000,197388,0.012140231,-0.21730705,0.4293678,0
38580000,38520000,197388,0.011924731,-0.21448442,0.42955682,0
38592000,38592000,197388,0.012588669,-0.21654578,0.43201965,0
38724000,38664000,197388,0.010045365,-0.21723874,0.42786232,0
38736000,38736000,197388,0.009285733,-0.2118634,0.437004,0
38868000,38808000,197388,0.010038381,-0.21516594,0.42911953,0
38880000,38880000,197388,0.009058068,-0.22165966,0.4373272,0
39008000,38949454,197388,0.009076989,-0.21534447,0.42986837,0
39024000,39024000,197388,0.004205911,-0.2124904,0.4322111,0
39152000,39094545,197388,0.01047807,-0.21513681,0.42890334,0
39168000,39168000,197388,0.009709344,-0.21544959,0.43026778,0
39296000,39239272,197388,0.009995619,-0.21601447,0.42721272,0
39312000,39312000,197388,0.003938346,-0.2151616,0.43133327,0
39440000,39382545,197388,0.008959951,-0.21546416,0.42843634,0
39452000,39452000,197388,0.014640086,-0.21627355,0.42592686,0
39576000,39520800,197388,0.01221561,-0.21666518,0.42892343,0
39600000,39592000,197388,0.005982584,-0.21072204,0.4275223,0
39704000,39659111,197388,0.009711164,-0.21330634,0.4312074,0
39732000,39726000,197388,0.014458345,-0.21859509,0.42722708,0
39848000,39796800,197388,0.010150713,-0.21581005,0.4284157,0
39864000,39864000,197388,0.013835038,-0.21825513,0.4296951,0
39996000,39934909,197388,0.009844468,-0.21503136,0.4278276,0
40008000,40008000,197388,0.004425352,-0.20995967,0.42715895,0
40140000,40078909,197388,0.009351617,-0.21612939,0.43125385,0
40152000,40152000,197388,0.0112396525,-0.21050626,0.4269863,0
40280000,40222545,197388,0.0108379675,-0.21595514,0.42961156,0
40296000,40296000,197388,0.019150821,-0.22756371,0.42541188,0
40428000,40366181,197388,0.009657705,-0.21739395,0.4296438,0
40440000,40440000,197388,0.0076866923,-0.21053992,0.43703726,0
40572000,40511636,197388,0.007685308,-0.21534793,0.42969185,0
40584000,40584000,197388,0.007961794,-0.21630251,0.43140185,0
40712000,40654181,197388,0.009368683,-0.21275581,0.42940155,0
40728000,40728000,197388,0.0069184443,-0.21287847,0.4325005,0
40856000,40798181,197388,0.010649416,-0.21500167,0.42847297,0
40872000,40872000,197388,0.0070549967,-0.22126047,0.4334236,0
41004000,40942181,197388,0.009268445,-0.21611674,0.42961955,0
41016000,41016000,197388,0.007204249,-0.21812278,0.42832375,0
41144000,41086181,197388,0.010771584,-0.21554193,0.42994547,0
41160000,41160000,197388,0.013778233,-0.21609767,0.42686698,0
41288000,41230545,197388,0.010810913,-0.21443889,0.42952776,0
41304000,41304000,197388,0.009106934,-0.21910283,0.42846638,0
41436000,41375636,197388,0.010452926,-0.21540488,0.430616,0
41448000,41448000,197388,0.013294666,-0.22503339,0.4248797,0
41580000,41518909,197388,0.0075839367,-0.21647194,0.43038803,0
41592000,41592000,197388,0.009648578,-0.21982583,0.42949945,0
41724000,41663636,197388,0.00824207,-0.21506068,0.43027255,0
41736000,41736000,197388,0.005496492,-0.2168581,0.42805946,0
41864000,41806545,197388,0.008954247,-0.21660618,0.43131244,0
41880000,41880000,197388,0.015014894,-0.21921875,0.4329566,0
42012000,41951272,197388,0.010532009,-0.21586551,0.43177494,0
42024000,42024000,197388,0.011759675,-0.205694,0.43082026,0
42156000,42094909,197388,0.009793957,-0.21441334,0.4294935,0
42168000,42168000,197388,0.017239502,-0.21699557,0.43219465,0
42300000,42239636,197388,0.009165292,-0.21844609,0.42970738,0
42312000,42312000,197388,0.012383201,-0.22149901,0.42981014,0
42444000,42384000,197388,0.010280657,-0.21506605,0.4306601,0
42456000,42456000,197388,0.007139243,-0.21471688,0.42690578,0
42584000,42526909,197388,0.008755252,-0.21479204,0.43055072,0
42600000,42600000,197388,0.0120022,-0.2144298,0.4273805,0
42728000,42670909,197388,0.011445644,-0.21609256,0.42936382,0
42744000,42744000,197388,0.009532191,-0.20783114,0.43441272,0
42872000,42814545,197388,0.011376983,-0.21582474,0.43153322,0
42888000,42888000,197388,0.007793887,-0.21563318,0.42832354,0
43016000,42958545,197388,0.0115381135,-0.2170934,0.42802903,0
43032000,43032000,197388,0.015842106,-0.21576601,0.42837426,0
43160000,43102909,197388,0.009623802,-0.21539609,0.42834187,0
43176000,43176000,197388,0.0046391366,-0.2188887,0.42350888,0
43304000,43247272,197388,0.009671668,-0.21453752,0.42876118,0
43320000,43320000,197388,0.01702852,-0.21792841,0.4256649,0
43452000,43391272,197388,0.008456289,-0.21286747,0.42844638,0
43464000,43464000,197388,0.004176347,-0.21507499,0.4398613,0
43592000,43533818,197388,0.01049339,-0.21471886,0.42953643,0
43608000,43608000,197388,0.01496449,-0.20965928,0.43243098,0
43736000,43678909,197388,0.008028711,-0.21431395,0.42819515,0
43748000,43748000,197388,0.015731523,-0.20922951,0.43098325,0
43872000,43817200,197388,0.0103412885,-0.21357767,0.42985693,0
43896000,43888000,197388,0.002611238,-0.20542783,0.43027014,0
44004000,43955111,197388,0.011104114,-0.21483782,0.43159056,0
44028000,44022000,197388,0.011371715,-0.21289778,0.4314912,0
44144000,44093200,197388,0.0074758693,-0.21500349,0.4278759,0
44160000,44160000,197388,0.010400405,-0.21938312,0.4265464,0
44292000,44231272,197388,0.008475721,-0.21627371,0.43000746,0
44304000,44304000,197388,0.0058657536,-0.21509592,0.42680964,0
44436000,44375272,197388,0.008855315,-0.2167953,0.4310008,0
44448000,44448000,197388,0.011592774,-0.21272738,0.432343,0
44580000,44518909,197388,0.00979002,-0.21482043,0.42865866,0
44592000,44592000,197388,0.00937604,-0.2195781,0.4300848,0
44720000,44662909,197388,0.010425421,-0.21507858,0.43340126,0
44736000,44736000,197388,0.010840694,-0.21251044,0.4317103,0
44864000,44806909,197388,0.010099103,-0.21510677,0.43145835,0
44880000,44880000,197388,0.009666581,-0.20743646,0.4291302,0
45012000,44950909,197388,0.008759238,-0.21466841,0.42978847,0
45020000,45020000,197388,0.010244987,-0.22193772,0.42984387,0
45144000,45088800,197388,0.011047573,-0.21666224,0.42812046,0
45168000,45160000,197388,0.0062237866,-0.2170065,0.43303698,0
45272000,45226666,197388,0.008193172,-0.21591869,0.42839852,0
45312000,45298666,197388,0.008264106,-0.21525745,0.4269906,0
45416000,45370666,197388,0.009270663,-0.2141421,0.42709845,0
45456000,45442666,197388,0.0061357855,-0.2138417,0.42759234,0
45564000,45514222,197388,0.008709951,-0.21576488,0.43090424,0
45600000,45586666,197388,0.008665404,-0.2202912,0.43033808,0
45696000,45653500,197388,0.009352163,-0.21429479,0.42951128,0
45744000,45725000,197388,0.011213973,-0.2170881,0.43046182,0
45840000,45797000,197388,0.009607371,-0.2157353,0.42960817,0
45888000,45868000,197388,0.009902651,-0.21448015,0.4307943,0
45972000,45934857,197388,0.009006839,-0.21713307,0.4296485,0
46032000,46006400,197388,0.01129208,-0.21477357,0.4305508,0
46112000,46078285,197388,0.010129465,-0.21662776,0.42929032,0
46160000,46145000,197388,0.008567005,-0.21703419,0.43097335,0
46260000,46217500,197388,0.010543068,-0.21397842,0.4295295,0
46304000,46289000,197388,0.010917265,-0.217207,0.4335717,0
46404000,46361000,197388,0.011140079,-0.21462722,0.4277623,0
46448000,46432000,197388,0.009084191,-0.21602553,0.42922074,0
46536000,46499428,197388,0.009542479,-0.21480586,0.4311921,0
46596000,46572000,197388,0.010140321,-0.21403173,0.4288667,0
46680000,46643428,197388,0.009327512,-0.21430823,0.43123487,0
46736000,46714400,197388,0.010516218,-0.21233861,0.43255422,0
46812000,46781333,197388,0.010291083,-0.21599679,0.4302648,0
46880000,46852000,197388,0.007880183,-0.21507034,0.42639622,0
46952000,46924000,197388,0.0064344155,-0.21535943,0.42998263,0
47016000,46991200,197388,0.009139074,-0.21249305,0.42877117,0
47096000,47062285,197388,0.0087871505,-0.21575229,0.42976293,0
47160000,47134400,197388,0.009122088,-0.21678758,0.429775,0
47232000,47201333,197388,0.007809674,-0.21317762,0.42906272,0
47304000,47273333,197388,0.009582984,-0.21465157,0.43086764,0
47376000,47345333,197388,0.008833619,-0.21862859,0.4314515,0
47448000,47416666,197388,0.0094969785,-0.2148984,0.42924017,0
47520000,47488666,197388,0.01065775,-0.216013,0.4318647,0
47592000,47560666,197388,0.008463148,-0.21524493,0.4303251,0
47664000,47632666,197388,0.00988346,-0.21513484,0.4308294,0
47736000,47704666,197388,0.0098527,-0.21560632,0.42977387,0
47808000,47776666,197388,0.008811459,-0.21840641,0.43240032,0
47880000,47848666,197388,0.0076537468,-0.21730113,0.43012828,0
47952000,47920666,197388,0.008656873,-0.2163456,0.43021104,0
48024000,47993333,197388,0.009266358,-0.21469176,0.4321985,0
48096000,48064666,197388,0.00728174,-0.21496056,0.43033075,0
48168000,48136000,197388,0.010555608,-0.21535115,0.42959183,0
48240000,48208666,197388,0.011116474,-0.21501778,0.433334,0
48312000,48280666,197388,0.007178325,-0.21723247,0.42879996,0
48384000,48352666,197388,0.009491284,-0.21762131,0.42772245,0
48444000,48420000,197388,0.010191219,-0.21554433,0.4289991,0
48528000,48492000,197388,0.009582855,-0.21504465,0.4276284,0
48584000,48563200,197388,0.008475927,-0.21750413,0.42864966,0
48672000,48635428,197388,0.008749425,-0.21407464,0.43037015,0
48732000,48708000,197388,0.010130656,-0.21467352,0.43096638,0
48816000,48780000,197388,0.012476941,-0.21598709,0.43048286,0
48872000,48850400,197388,0.008124395,-0.21564019,0.42867514,0
48960000,48922857,197388,0.009834876,-0.21436387,0.42986983,0
49020000,48994400,197388,0.00919916,-0.21527329,0.42699486,0
49104000,49066857,197388,0.010355743,-0.21445014,0.42843488,0
49160000,49136800,197388,0.009333596,-0.21441877,0.43103638,0
49232000,49204666,197388,0.011975115,-0.21740246,0.43120357,0
49304000,49276000,197388,0.009424437,-0.21604386,0.427878,0
49368000,49343200,197388,0.0093239285,-0.21472529,0.4331964,0
49440000,49410000,197388,0.011459297,-0.2150335,0.42952716,0
49512000,49480666,197388,0.012320325,-0.21357177,0.42934972,0
49584000,49552000,197388,0.00900222,-0.21759735,0.42872068,0
49644000,49620000,197388,0.008192816,-0.21460687,0.43090126,0
49728000,49692000,197388,0.0096096415,-0.21402356,0.4291881,0
49788000,49764000,197388,0.007149152,-0.21684492,0.42859766,0
49872000,49836000,197388,0.011430768,-0.2158724,0.4294657,0
49932000,49907200,197388,0.011885199,-0.21477962,0.42828208,0
50016000,49979428,197388,0.008280357,-0.2177992,0.42887092,0
50076000,50052000,197388,0.011021054,-0.21324563,0.4295403,0
50160000,50123428,197388,0.009315809,-0.21454825,0.43172923,0
50220000,50195200,197388,0.009945965,-0.21884942,0.42928466,0
50304000,50267428,197388,0.010395258,-0.21958657,0.42798004,0
50364000,50340000,197388,0.01007356,-0.21361475,0.42850414,0
50448000,50411428,197388,0.01032408,-0.2160098,0.42996743,0
50508000,50482400,197388,0.010540861,-0.21843937,0.42948362,0
50592000,50554285,197388,0.0099103665,-0.21476848,0.43147832,0
50640000,50621000,197388,0.008805105,-0.21394408,0.42767936,0
50736000,50693000,197388,0.011900548,-0.21571063,0.4290948,0
50784000,50765000,197388,0.009730403,-0.21530294,0.4307959,0
50880000,50836500,197388,0.009570374,-0.21731511,0.42922786,0
50916000,50904000,197388,0.010826232,-0.21301013,0.42861766,0
51024000,50976000,197388,0.009374385,-0.21396716,0.42939484,0
51060000,51046666,197388,0.006066707,-0.21228336,0.4286626,0
51168000,51118222,197388,0.010533822,-0.21466835,0.43036577,0
51192000,51186000,197388,0.010739478,-0.21462782,0.43120998,0
51312000,51258000,197388,0.009170109,-0.21482053,0.42758486,0
51336000,51330000,197388,0.012235918,-0.21371254,0.43109894,0
51456000,51400800,197388,0.008994174,-0.21707873,0.42987305,0
51468000,51468000,197388,0.0030151415,-0.21687178,0.4296517,0
51600000,51539636,197388,0.010030438,-0.21517637,0.42822263,0
51612000,51612000,197388,0.0039128787,-0.21343692,0.42909336,0
51744000,51682909,197388,0.009999846,-0.21513374,0.4304934,0
51752000,51752000,197388,0.008717993,-0.21241944,0.42654872,0
51872000,51820400,197388,0.010875625,-0.21577938,0.4292787,0
51888000,51888000,197388,0.014236175,-0.21356623,0.43095794,0
52016000,51959272,197388,0.009596047,-0.21727125,0.4308174,0
52032000,52032000,197388,0.009021882,-0.21123691,0.43107888,0
52164000,52102545,197388,0.009307014,-0.21526432,0.4303517,0
52176000,52176000,197388,0.011470326,-0.21473283,0.43269646,0
52304000,52246909,197388,0.009475147,-0.21556677,0.42939565,0
52320000,52320000,197388,0.010480603,-0.21678147,0.42809895,0
52448000,52390181,197388,0.008457377,-0.2167959,0.43030113,0
52464000,52464000,197388,0.0070042037,-0.21269102,0.42638588,0
52592000,52533090,197388,0.011367198,-0.2141659,0.43081293,0
52608000,52608000,197388,0.0033651642,-0.21255845,0.42586985,0
52740000,52678909,197388,0.009449224,-0.21403292,0.42861372,0
52752000,52752000,197388,0.0093795,-0.21602339,0.42845201,0
52884000,52823636,197388,0.009771088,-0.21610634,0.42862213,0
52896000,52896000,197388,0.0071023307,-0.2140089,0.42695847,0
53024000,52966545,197388,0.011106857,-0.21557137,0.42845774,0
53040000,53040000,197388,0.014231222,-0.21450333,0.43211594,0
53172000,53111636,197388,0.009492384,-0.21577004,0.42898214,0
53184000,53184000,197388,0.008784866,-0.21491833,0.4279973,0
53312000,53254545,197388,0.0076588606,-0.2167508,0.42993975,0
53328000,53328000,197388,0.009924992,-0.21701749,0.42435813,0
53460000,53398909,197388,0.0108849695,-0.21457241,0.42993456,0
53472000,53472000,197388,0.012250936,-0.21470854,0.4354173,0
53604000,53542545,197388,0.007842625,-0.2153239,0.42985037,0
53616000,53616000,197388,0.008311437,-0.21757725,0.42885634,0
53744000,53686545,197388,0.009290037,-0.21685709,0.42824265,0
53760000,53760000,197388,0.009573003,-0.21616006,0.4328748,0
53888000,53831272,197388,0.008859352,-0.21662426,0.43001622,0
53904000,53904000,197388,0.01173863,-0.22397305,0.4289989,0
54036000,53975272,197388,0.008687266,-0.21680783,0.43035978,0
54048000,54048000,197388,0.008265655,-0.21995547,0.43605354,0
54176000,54118545,197388,0.00962808,-0.21262725,0.4312739,0
54192000,54192000,197388,0.011155692,-0.21526875,0.43167496,0
54320000,54262545,197388,0.008918792,-0.21513169,0.43138635,0
54336000,54336000,197388,0.013470077,-0.21325576,0.430205,0
54468000,54406909,197388,0.008278027,-0.21435258,0.4289765,0
54480000,54480000,197388,0.015166294,-0.2174893,0.4302881,0
54612000,54550545,197388,0.008602011,-0.21590303,0.42972267,0
54624000,54624000,197388,0.011261667,-0.20689137,0.4251936,0
54752000,54694909,197388,0.010831584,-0.21549137,0.42946917,0
54768000,54768000,197388,0.011948869,-0.21696013,0.42743954,0
54896000,54839636,197388,0.010734049,-0.2145992,0.4302794,0
54912000,54912000,197388,0.010313689,-0.21824172,0.43224058,0
55040000,54983636,197388,0.009649559,-0.21569337,0.4284248,0
55056000,55056000,197388,0.008243966,-0.21160518,0.42746207,0
55184000,55126181,197388,0.007904226,-0.21684305,0.42937097,0
55200000,55200000,197388,0.0056966185,-0.2186028,0.43006352,0
55328000,55270545,197388,0.008866393,-0.21555828,0.42933288,0
55344000,55344000,197388,0.0062708287,-0.20833607,0.42698106,0
55472000,55414181,197388,0.008858989,-0.21441911,0.42910337,0
55488000,55488000,197388,0.017550746,-0.2265165,0.4286047,0
55616000,55558909,197388,0.009421929,-0.21590298,0.42819792,0
55632000,55632000,197388,0.0048885765,-0.2130159,0.4356514,0
55764000,55702909,197388,0.009256189,-0.21615298,0.42704186,0
55776000,55776000,197388,0.013480417,-0.21539503,0.43338335,0
55904000,55846909,197388,0.0099920295,-0.21657746,0.42817658,0
55920000,55920000,197388,0.0074256086,-0.21547727,0.43818521,0
56052000,55991272,197388,0.009795345,-0.21512608,0.42935356,0
56064000,56064000,197388,0.018289443,-0.21548927,0.43461162,0
56196000,56135636,197388,0.01147502,-0.21634603,0.4289586,0
56208000,56208000,197388,0.012879821,-0.21338284,0.42637223,0
56336000,56278909,197388,0.008512945,-0.21456473,0.43200594,0
56352000,56352000,197388,0.014617227,-0.22510868,0.431405,0
56484000,56422909,197388,0.010499711,-0.21573819,0.4296638,0
56496000,56496000,197388,0.008850187,-0.21802434,0.42652282,0
56624000,56565818,197388,0.0100659095,-0.215368,0.42921844,0
56640000,56640000,197388,0.0054588867,-0.21863818,0.42987072,0
56772000,56711636,197388,0.010711447,-0.21528678,0.4280877,0
56784000,56784000,197388,0.010749877,-0.22054487,0.4361407,0
56916000,56854909,197388,0.0098961815,-0.21657273,0.4296062,0
56928000,56928000,197388,0.0065666153,-0.22122648,0.43017164,0
57060000,56999636,197388,0.0077409185,-0.21674864,0.43093848,0
57072000,57072000,197388,0.010090359,-0.21994145,0.42962605,0
57204000,57143636,197388,0.010056132,-0.21643202,0.42780575,0
57216000,57216000,197388,0.0039474494,-0.20825276,0.42555973,0
57344000,57286909,197388,0.008473377,-0.21779473,0.43067434,0
57360000,57360000,197388,0.010782783,-0.21254116,0.4275138,0
57488000,57430181,197388,0.009534626,-0.21669663,0.4295162,0
57504000,57504000,197388,0.010878664,-0.21225747,0.42783636,0
57632000,57574181,197388,0.010542099,-0.21533236,0.42793125,0
57648000,57648000,197388,0.0050233123,-0.21269129,0.43217468,0
57776000,57718181,197388,0.0096024275,-0.21482351,0.43034682,0
57792000,57792000,197388,0.010247009,-0.21284708,0.43381155,0
57920000,57861818,197388,0.0068971477,-0.21548443,0.43030286,0
57936000,57936000,197388,-0.0010417481,-0.22254974,0.42540666,0
58064000,58007272,197388,-0.011003306,-0.21477458,0.43046016,0
58080000,58080000,197388,-0.019973265,-0.21723661,0.4283265,0
58212000,58151636,197388,-0.019041108,-0.21313,0.43060336,0
58224000,58224000,197388,-0.013089774,-0.20958667,0.43188682,0
58356000,58296000,197388,-0.00637359,-0.21408662,0.4305471,0
58368000,58368000,197388,0.006246416,-0.22079234,0.42638868,0
58496000,58437818,197388,0.004597008,-0.21598633,0.4294386,0
58512000,58512000,197388,0.009480535,-0.21663871,0.43688944,0
58644000,58583636,197388,0.011728807,-0.21746005,0.42838773,0
58656000,58656000,197388,0.01829557,-0.21485256,0.43000233,0
58784000,58727636,197388,0.014202323,-0.21453527,0.43031862,0
58800000,58800000,197388,0.010766234,-0.20980395,0.42926684,0
58932000,58871636,197388,0.013117875,-0.21513832,0.4281003,0
58940000,58940000,197388,0.013106333,-0.21605681,0.4361489,0
59064000,59008400,197388,0.01639702,-0.21819709,0.42814586,0
59088000,59080000,197388,0.015139222,-0.21538064,0.42703855,0
59192000,59147111,197388,0.01898843,-0.21774602,0.42777783,0
59232000,59218666,197388,0.016065221,-0.21990854,0.42468295,0
59336000,59290666,197388,0.016930323,-0.21593535,0.42926612,0
59364000,59358000,197388,0.016545542,-0.2186987,0.43326828,0
59480000,59428800,197388,0.018095931,-0.21778284,0.4265705,0
59496000,59496000,197388,0.023114005,-0.22464347,0.4332528,0
59624000,59566545,197388,0.01719215,-0.21645069,0.4294994,0
59640000,59640000,197388,0.021963505,-0.21621099,0.4304319,0
59772000,59710909,197388,0.01765799,-0.21604297,0.4276492,0
59784000,59784000,197388,0.016587794,-0.21651372,0.42323053,0
59916000,59854545,197388,0.015072925,-0.21705723,0.43079364,0
59928000,59928000,197388,0.010467733,-0.21730594,0.4230991,0
60060000,60000000,197388,0.01610096,-0.21631569,0.43114543,0
60072000,60072000,197388,0.010896599,-0.21981892,0.43059912,0
60200000,60142545,197388,0.013751297,-0.21504566,0.42855605,0
60216000,60216000,197388,0.01562839,-0.21554783,0.42595974,0
60348000,60287272,197388,0.013745346,-0.21616177,0.42961496,0
60360000,60360000,197388,0.015115013,-0.21499322,0.43490514,0
60488000,60430545,197388,0.012120818,-0.21597998,0.43029782,0
60504000,60504000,197388,0.015788417,-0.21131635,0.43202195,0
60636000,60575272,197388,0.013112285,-0.21519668,0.42918852,0
60648000,60648000,197388,0.010420586,-0.21532908,0.43111697,0
60780000,60718909,197388,0.011783496,-0.21499832,0.43068835,0
60792000,60792000,197388,0.017401239,-0.21700794,0.43356603,0
60920000,60862545,197388,0.01364364,-0.2157295,0.43059,0
60936000,60936000,197388,0.018171424,-0.21479267,0.43685064,0
61064000,61006545,197388,0.01141228,-0.21670866,0.43244243,0
61080000,61080000,197388,0.013763719,-0.21821566,0.42740408,0
61208000,61150181,197388,0.009531417,-0.21645443,0.43081993,0
61224000,61224000,197388,0.008181339,-0.21407893,0.43279338,0
61356000,61294909,197388,0.009140635,-0.21490781,0.42826438,0
61368000,61368000,197388,0.008393923,-0.2107704,0.4346128,0
61500000,61439636,197388,0.009003062,-0.21450761,0.42923364,0
61512000,61512000,197388,0.005181158,-0.2154842,0.42239347,0
61640000,61581454,197388,0.010014231,-0.21561441,0.4302702,0
61656000,61656000,197388,0.008882859,-0.2155705,0.42200676,0
61784000,61725454,197388,0.007491383,-0.2159981,0.42739055,0
61800000,61800000,197388,0.009095578,-0.22155428,0.42959026,0
61932000,61871272,197388,0.008261611,-0.21610579,0.42865646,0
61944000,61944000,197388,0.008679325,-0.22169402,0.43166575,0
62076000,62014545,197388,0.009681541,-0.2154301,0.42947203,0
62088000,62088000,197388,0.0145116765,-0.21631388,0.43086368,0
62220000,62160000,197388,0.0077176257,-0.21724653,0.4290979,0
62232000,62232000,197388,0.011365325,-0.21861352,0.43409628,0
62360000,62301818,197388,0.007704952,-0.21547006,0.4309153,0
62376000,62376000,197388,0.010834373,-0.21590525,0.4320111,0
62508000,62446545,197388,0.008148804,-0.21585798,0.42969793,0
62520000,62520000,197388,0.018075366,-0.21885692,0.43248013,0
62652000,62591272,197388,0.009467762,-0.217004,0.42915,0
62664000,62664000,197388,0.0097131375,-0.21560596,0.43133765,0
62796000,62734909,197388,0.009996015,-0.21521905,0.42844692,0
62808000,62808000,197388,0.011920151,-0.22071016,0.43405345,0
62940000,62879636,197388,0.012618747,-0.21383084,0.43120667,0
62952000,62952000,197388,0.009186334,-0.22017272,0.42823073,0
63084000,63022545,197388,0.011685714,-0.21642129,0.4304847,0
63096000,63096000,197388,0.002232313,-0.2119539,0.4334385,0
63228000,63166909,197388,0.010309239,-0.21456759,0.42834538,0
63240000,63240000,197388,0.015932836,-0.20999509,0.42732558,0
63372000,63310909,197388,0.010139515,-0.21724653,0.42928082,0
63384000,63384000,197388,0.012433346,-0.2232683,0.43290338,0
63516000,63454909,197388,0.012488195,-0.21735649,0.43063763,0
63528000,63528000,197388,0.009628394,-0.21123959,0.43052337,0
63660000,63600000,197388,0.012320234,-0.21626309,0.42824897,0
63672000,63672000,197388,0.011393805,-0.22139746,0.4287192,0
63804000,63744000,197388,0.011804786,-0.2185883,0.42699572,0
63816000,63816000,197388,0.009159824,-0.2147192,0.42846537,0
63944000,63886545,197388,0.010450411,-0.21760778,0.42849708,0
63960000,63960000,197388,0.010615211,-0.21917889,0.43195504,0
64092000,64031636,197388,0.012396085,-0.21589956,0.42900175,0
64104000,64104000,197388,0.005789874,-0.21632832,0.42220813,0
64236000,64174909,197388,0.010764144,-0.21839522,0.4277868,0
64248000,64248000,197388,0.007820249,-0.21302941,0.423796,0
64376000,64318181,197388,0.010859814,-0.21608566,0.42909068,0
64392000,64392000,197388,0.011607309,-0.22274366,0.42404863,0
64524000,64462181,197388,0.010662631,-0.21547306,0.43138826,0
64536000,64536000,197388,0.011137301,-0.21564868,0.4270639,0
64664000,64606545,197388,0.009766379,-0.21717045,0.42769927,0
64680000,64680000,197388,0.012251144,-0.2178064,0.4314415,0
64812000,64750909,197388,0.008735717,-0.21760814,0.4279394,0
64824000,64824000,197388,0.0071474197,-0.21646614,0.43341538,0
64952000,64894545,197388,0.009178391,-0.21717906,0.42854276,0
64968000,64968000,197388,0.007510347,-0.21857066,0.44039893,0
65100000,65038909,197388,0.0108947335,-0.21541707,0.4283033,0
65112000,65112000,197388,0.017651208,-0.22173898,0.42963374,0
65244000,65183272,197388,0.010076838,-0.21797428,0.42784604,0
65256000,65256000,197388,0.0017846477,-0.21153007,0.42425022,0
65388000,65326909,197388,0.009500105,-0.21952526,0.42822355,0
65400000,65400000,197388,0.009628736,-0.2184621,0.42900434,0
65532000,65470909,197388,0.007531264,-0.21611977,0.4298591,0
65544000,65544000,197388,0.010797946,-0.21511737,0.43113422,0
65672000,65615272,197388,0.00614869,-0.2158007,0.42861533,0
65688000,65688000,197388,0.008668443,-0.21991214,0.43079662,0
65820000,65759272,197388,0.009354623,-0.21573503,0.42906898,0
65832000,65832000,197388,0.013548074,-0.21565111,0.42247748,0
65964000,65904000,197388,0.010579159,-0.21547678,0.43054122,0
65976000,65976000,197388,0.0071587455,-0.21548156,0.43132994,0
66104000,66046181,197388,0.0070930133,-0.21578,0.43023095,0
66120000,66120000,197388,0.00675829,-0.2117745,0.42644304,0
66252000,66190909,197388,0.007744313,-0.21699022,0.43004882,0
66264000,66264000,197388,0.003922609,-0.21616639,0.42901447,0
66396000,66334909,197388,0.007278373,-0.21603598,0.42970604,0
66408000,66408000,197388,0.006457401,-0.21715729,0.43801475,0
66540000,66479636,197388,0.009597979,-0.21562332,0.43158975,0
66552000,66552000,197388,0.009916375,-0.20757638,0.42813554,0
66684000,66624000,197388,0.008651914,-0.21597765,0.42926186,0
66696000,66696000,197388,0.00987264,-0.21842688,0.4299469,0
66828000,66766909,197388,0.009138101,-0.2171006,0.42842433,0
66840000,66840000,197388,0.012551769,-0.21252175,0.42808306,0
66968000,66910545,197388,0.009889075,-0.2162105,0.42907616,0
66984000,66984000,197388,0.012928798,-0.21037273,0.42727298,0
67116000,67056000,197388,0.008418694,-0.21567248,0.42988715,0
67128000,67128000,197388,0.006193825,-0.21233714,0.43324426,0
67260000,67200000,197388,0.0069791256,-0.21580088,0.42786613,0
67272000,67272000,197388,0.0058679115,-0.20834604,0.42785445,0
67400000,67342909,197388,0.011963911,-0.21605515,0.4307674,0
67412000,67412000,197388,0.009951599,-0.21450855,0.42662233,0
67536000,67481200,197388,0.012337881,-0.21518548,0.42787552,0
67548000,67548000,197388,0.007777443,-0.22162448,0.43010125,0
67680000,67618545,197388,0.008128406,-0.21437332,0.4287443,0
67692000,67692000,197388,0.009679775,-0.21175636,0.4259941,0
67820000,67762181,197388,0.010222156,-0.21422073,0.42840153,0
67832000,67832000,197388,0.0071335547,-0.21259335,0.42415926,0
67956000,67902000,197388,0.008919794,-0.21634339,0.43011624,0
67980000,67974000,197388,0.011302711,-0.21735843,0.43149045,0
68100000,68045600,197388,0.009599223,-0.21731508,0.4291686,0
68124000,68118000,197388,0.010442155,-0.21512792,0.42988706,0
68240000,68188800,197388,0.010431784,-0.21280093,0.42906585,0
68256000,68256000,197388,0.007789606,-0.21453373,0.4298109,0
68384000,68327272,197388,0.009156439,-0.2141676,0.429886,0
68396000,68396000,197388,0.005763703,-0.21761447,0.4322805,0
68520000,68464800,197388,0.008788189,-0.21605375,0.42962232,0
68544000,68536000,197388,0.010875842,-0.20892116,0.4289899,0
68652000,68603555,197388,0.009897553,-0.215594,0.42984015,0
68688000,68674666,197388,0.013306636,-0.21605095,0.43037176,0
68796000,68747111,197388,0.00815195,-0.21561578,0.42914572,0
68820000,68814000,197388,0.010695308,-0.21729526,0.429537,0
68940000,68885200,197388,0.010975221,-0.21719952,0.42885765,0
68952000,68952000,197388,0.016279485,-0.22091039,0.42540923,0
69080000,69022545,197388,0.011752801,-0.21564989,0.42969283,0
69096000,69096000,197388,0.0079843225,-0.21479169,0.43014097,0
69228000,69166545,197388,0.009841933,-0.21716344,0.43066263,0
69240000,69240000,197388,0.0074604247,-0.21288575,0.42066106,0
69372000,69310181,197388,0.009533879,-0.21646054,0.43048438,0
69384000,69384000,197388,0.00934787,-0.21942495,0.42140093,0
69516000,69455272,197388,0.009466091,-0.21484634,0.43011978,0
69528000,69528000,197388,0.012482099,-0.2149072,0.42929026,0
69660000,69598909,197388,0.009913931,-0.21690106,0.4302941,0
69672000,69672000,197388,0.0050515807,-0.22406632,0.42742926,0
69800000,69741454,197388,0.0129908165,-0.21630976,0.43094185,0
69816000,69816000,197388,0.0069969413,-0.21028365,0.42968294,0
69948000,69886181,197388,0.012160324,-0.21846026,0.42989767,0
69960000,69960000,197388,0.010485329,-0.21706438,0.43439704,0
70092000,70030545,197388,0.011148194,-0.21731642,0.4290242,0
70104000,70104000,197388,0.004357248,-0.21496703,0.42406622,0
70236000,70174545,197388,0.009427036,-0.21489485,0.42940614,0
70248000,70248000,197388,0.019483961,-0.21801226,0.43589032,0
70380000,70319272,197388,0.012484729,-0.21972728,0.43070123,0
70392000,70392000,197388,0.013102346,-0.21901324,0.43330497,0
70524000,70463636,197388,0.011796227,-0.21741855,0.43159702,0
70536000,70536000,197388,0.01116779,-0.22319251,0.42868018,0
70668000,70608000,197388,0.011342734,-0.21636558,0.43016586,0
70680000,70680000,197388,0.014649251,-0.217356,0.42765808,0
70812000,70750909,197388,0.012682231,-0.21511658,0.42802435,0
70824000,70824000,197388,-0.000104976585,-0.21326517,0.42537716,0
70956000,70896000,197388,0.012969889,-0.21616057,0.43018335,0
70968000,70968000,197388,0.010554387,-0.21595031,0.42792445,0
71096000,71038909,197388,0.0108902715,-0.21634214,0.428882,0
71112000,71112000,197388,0.015012912,-0.21882567,0.43019632,0
71244000,71182545,197388,0.013459889,-0.21808818,0.42910972,0
71256000,71256000,197388,0.009853041,-0.21618013,0.42770517,0
71384000,71326909,197388,0.011991523,-0.21641953,0.42968297,0
71400000,71400000,197388,0.0078175105,-0.21491441,0.43016642,0
71528000,71470545,197388,0.010913712,-0.2160994,0.429017,0
71540000,71540000,197388,0.008579078,-0.21692516,0.42950997,0
71660000,71608400,197388,0.010874691,-0.21353972,0.42966196,0
71676000,71676000,197388,0.013450289,-0.21857344,0.4251149,0
71808000,71747636,197388,0.00870298,-0.21530122,0.42770144,0
71820000,71820000,197388,0.010753861,-0.22032529,0.4312373,0
71952000,71891272,197388,0.009960305,-0.21506548,0.4302774,0
71964000,71964000,197388,0.009578194,-0.21639523,0.43471912,0
72096000,72034545,197388,0.011291523,-0.21445407,0.42924827,0
72108000,72108000,197388,0.017151738,-0.21831238,0.4284762,0
72240000,72179272,197388,0.011401989,-0.21430153,0.4291616,0
72252000,72252000,197388,0.0081202425,-0.21473666,0.42988852,0
72384000,72322909,197388,0.009491357,-0.21394536,0.42987275,0
72392000,72392000,197388,0.0072127627,-0.21902797,0.4292027,0
72516000,72460800,197388,0.010869651,-0.21472064,0.43045646,0
72528000,72528000,197388,0.012355075,-0.21204631,0.4252556,0
72656000,72598909,197388,0.010831912,-0.21594879,0.43010527,0
72672000,72672000,197388,0.009182997,-0.20715463,0.43956327,0
72800000,72743272,197388,0.00900848,-0.21521024,0.4302224,0
72816000,72816000,197388,0.01254394,-0.21469356,0.43093666,0
72944000,72886909,197388,0.0103122825,-0.21405272,0.4289072,0
