timestamp,roll,pitch,yaw,thrust_body[0],thrust_body[1],thrust_body[2],reset_integral
4640000,0.1287183,0.14694406,0.0006454587,0.0,0.0,-0.001,0
4644000,0.1287313,0.14686833,0.00066173077,0.0,0.0,-0.001,0
4660000,0.12866183,0.14624412,0.00065505505,0.0,0.0,-0.001,0
4676000,0.1285391,0.14570904,0.0006187558,0.0,0.0,-0.001,0
4700000,0.12835042,0.14489222,0.0005941391,0.0,0.0,-0.001,0
4720000,0.12820402,0.14432733,0.0005866289,0.0,0.0,-0.001,0
4740000,0.12817273,0.14404441,0.0005069375,0.0,0.0,-0.001,0
4760000,0.12812041,0.14378293,0.00057035685,0.0,0.0,-0.001,0
4776000,0.12813897,0.14354356,0.00053197145,0.0,0.0,-0.001,0
4796000,0.12813331,0.14336963,0.0005111098,0.0,0.0,-0.001,0
4820000,0.12816763,0.14321856,0.00043851137,0.0,0.0,-0.001,0
4840000,0.12782992,0.1432322,0.00062668324,0.0,0.0,-0.001,0
4856000,0.12778427,0.14304549,0.0005912185,0.0,0.0,-0.001,0
4876000,0.12766002,0.1426242,0.0006638169,0.0,0.0,-0.001,0
4900000,0.12727551,0.14209402,0.00060373545,0.0,0.0,-0.001,0
4916000,0.12719768,0.14190274,0.00074476004,0.0,0.0,-0.001,0
4940000,0.12689078,0.14134483,0.0007606149,0.0,0.0,-0.001,0
4960000,0.12663288,0.14090303,0.00074225664,0.0,0.0,-0.001,0
4980000,0.12642464,0.14077324,0.0008916259,0.0,0.0,-0.001,0
5000000,0.12577814,0.14063637,0.00071388483,0.0,0.0,-0.001,0
5020000,0.12546232,0.14070228,0.0008440614,0.0,0.0,-0.001,0
5036000,0.12511668,0.14046188,0.0007998347,0.0,0.0,-0.001,0
5056000,0.1243778,0.14028385,0.0005749464,0.0,0.0,-0.001,0
5080000,0.12355558,0.14018014,0.00057035685,0.0,0.0,-0.001,0
5100000,0.12308811,0.14014718,0.0005303025,0.0,0.0,-0.001,0
5120000,0.122370385,0.1401938,0.00049859285,0.0,0.0,-0.001,0
5136000,0.1220618,0.14008242,0.0005031824,0.0,0.0,-0.001,0
5156000,0.1216759,0.1398193,0.00042808056,0.0,0.0,-0.001,0
5176000,0.12128836,0.13982087,0.0004944205,0.0,0.0,-0.001,0
5200000,0.120889224,0.13948813,0.00050610304,0.0,0.0,-0.001,0
5220000,0.12061357,0.13935646,0.00034964085,0.0,0.0,-0.001,0
5236000,0.12025231,0.13917828,0.00040262938,0.0,0.0,-0.001,0
5260000,0.11973869,0.13903047,0.0004339218,0.0,0.0,-0.001,0
5276000,0.11937638,0.13906965,0.0005482435,0.0,0.0,-0.001,0
5296000,0.11905881,0.139302,0.000572443,0.0,0.0,-0.001,0
5316000,0.1186754,0.13913171,0.00055783987,0.0,0.0,-0.001,0
5340000,0.11838875,0.13903941,0.00066131353,0.0,0.0,-0.001,0
5356000,0.11824954,0.13910446,0.00068092346,0.0,0.0,-0.001,0
5376000,0.118060485,0.1391996,0.0005682707,0.0,0.0,-0.001,0
5400000,0.11782199,0.13938747,0.0005995631,0.0,0.0,-0.001,0
5420000,0.117570125,0.13949451,0.0006529689,0.0,0.0,-0.001,0
5440000,0.11751748,0.13955693,0.00053071976,0.0,0.0,-0.001,0
5460000,0.11731565,0.13943048,0.00054448843,0.0,0.0,-0.001,0
5476000,0.11690644,0.13956733,0.00076812506,0.0,0.0,-0.001,0
5500000,0.116711944,0.13943829,0.00067967176,0.0,0.0,-0.001,0
5516000,0.116377205,0.13932925,0.00072807074,0.0,0.0,-0.001,0
5540000,0.11602141,0.13910861,0.00057703257,0.0,0.0,-0.001,0
5556000,0.11610125,0.1393467,0.00071054697,0.0,0.0,-0.001,0
5580000,0.11568245,0.13929333,0.0007735491,0.0,0.0,-0.001,0
5596000,0.11559057,0.13931292,0.00068467855,0.0,0.0,-0.001,0
5620000,0.11533533,0.13921444,0.0007802248,0.0,0.0,-0.001,0
5640000,0.11513164,0.1391483,0.0006375313,0.0,0.0,-0.001,0
5660000,0.11526331,0.13909063,0.00071138144,0.0,0.0,-0.001,0
5680000,0.11542806,0.13907616,0.00063169,0.0,0.0,-0.001,0
5696000,0.11553625,0.13890387,0.00063711405,0.0,0.0,-0.001,0
5716000,0.11568014,0.1385954,0.0006984472,0.0,0.0,-0.001,0
5740000,0.11561004,0.13836208,0.00063210726,0.0,0.0,-0.001,0
5760000,0.11557073,0.13819301,0.00061541796,0.0,0.0,-0.001,0
5776000,0.11566887,0.13804333,0.00059247017,0.0,0.0,-0.001,0
5796000,0.11579118,0.13805291,0.00064378977,0.0,0.0,-0.001,0
5816000,0.115820765,0.1380382,0.00061041117,0.0,0.0,-0.001,0
5836000,0.115979016,0.1378711,0.00048023462,0.0,0.0,-0.001,0
5856000,0.11601337,0.13779604,0.0005144477,0.0,0.0,-0.001,0
5876000,0.116358995,0.13751882,0.00046020746,0.0,0.0,-0.001,0
5900000,0.1166106,0.1370609,0.00039219856,0.0,0.0,-0.001,0
5920000,0.116986655,0.13717796,0.00045728683,0.0,0.0,-0.001,0
5940000,0.11712532,0.13715899,0.00041806698,0.0,0.0,-0.001,0
5960000,0.117284454,0.13698933,0.000459373,0.0,0.0,-0.001,0
5980000,0.11744501,0.13705164,0.0003221035,0.0,0.0,-0.001,0
5996000,0.11769279,0.13704717,0.00041931868,0.0,0.0,-0.001,0
6016000,0.11787033,0.13680887,0.0004889965,0.0,0.0,-0.001,0
6040000,0.1175392,0.13718879,0.00054615736,0.0,0.0,-0.001,0
6060000,0.11742513,0.13740373,0.0006212592,0.0,0.0,-0.001,0
6076000,0.11735485,0.13738744,0.0005899668,0.0,0.0,-0.001,0
6100000,0.117413804,0.13700801,0.00066006184,0.0,0.0,-0.001,0
6120000,0.11750312,0.1368723,0.0005273819,0.0,0.0,-0.001,0
6140000,0.11761447,0.13675965,0.000536561,0.0,0.0,-0.001,0
6156000,0.11799258,0.13673814,0.0005081892,0.0,0.0,-0.001,0
6176000,0.11812626,0.1366635,0.0005632639,0.0,0.0,-0.001,0
6196000,0.118090525,0.13657254,0.0006066561,0.0,0.0,-0.001,0
6216000,0.118088454,0.1366227,0.0005824566,0.0,0.0,-0.001,0
6236000,0.11806584,0.13664311,0.0005791187,0.0,0.0,-0.001,0
6256000,0.11787975,0.13645753,0.00059330463,0.0,0.0,-0.001,0
6276000,0.117963545,0.13647984,0.00066548586,0.0,0.0,-0.001,0
6300000,0.11785196,0.13645904,0.0006392002,0.0,0.0,-0.001,0
6320000,0.1178583,0.13629791,0.0005040169,0.0,0.0,-0.001,0
6340000,0.11801174,0.13617188,0.0004902482,0.0,0.0,-0.001,0
6360000,0.11794309,0.13615231,0.00047397614,0.0,0.0,-0.001,0
6380000,0.11782019,0.13602327,0.00050777197,0.0,0.0,-0.001,0
6400000,0.11760056,0.13621248,0.00046730042,0.0,0.0,-0.001,0
6420000,0.11749458,0.13624993,0.000441432,0.0,0.0,-0.001,0
6436000,0.11724693,0.13612562,0.00042182207,0.0,0.0,-0.001,0
6456000,0.11702189,0.13632903,0.0004990101,0.0,0.0,-0.001,0
6480000,0.11675888,0.13637182,0.00052154064,0.0,0.0,-0.001,0
6500000,0.11673785,0.13639337,0.00047314167,0.0,0.0,-0.001,0
6520000,0.11674581,0.13667333,0.0005248785,0.0,0.0,-0.001,0
6540000,0.11659835,0.13661571,0.0005044341,0.0,0.0,-0.001,0
6556000,0.116516024,0.13643375,0.00052821636,0.0,0.0,-0.001,0
6580000,0.116336316,0.13629925,0.00055742264,0.0,0.0,-0.001,0
6600000,0.11626943,0.13661316,0.0005415678,0.0,0.0,-0.001,0
6620000,0.11609617,0.13654594,0.00056660175,0.0,0.0,-0.001,0
6640000,0.115979105,0.13641866,0.00055867434,0.0,0.0,-0.001,0
6660000,0.115967005,0.13613622,0.0005348921,0.0,0.0,-0.001,0
6680000,0.11586054,0.13604736,0.0005816221,0.0,0.0,-0.001,0
6700000,0.11577677,0.13607365,0.0006362796,0.0,0.0,-0.001,0
6720000,0.11552229,0.1362168,0.00057953596,0.0,0.0,-0.001,0
6740000,0.11547148,0.13616571,0.0005198717,0.0,0.0,-0.001,0
6760000,0.11497561,0.1362026,0.00054240227,0.0,0.0,-0.001,0
6780000,0.114759184,0.13625018,0.00051027536,0.0,0.0,-0.001,0
6800000,0.11472997,0.1361319,0.0005478263,0.0,0.0,-0.001,0
6816000,0.11448464,0.13634306,0.00048941374,0.0,0.0,-0.001,0
6840000,0.114430524,0.13647896,0.00052654743,0.0,0.0,-0.001,0
6860000,0.11400455,0.13658488,0.00053572655,0.0,0.0,-0.001,0
6880000,0.113965906,0.13656203,0.00046896935,0.0,0.0,-0.001,0
6896000,0.113897756,0.1366471,0.00048732758,0.0,0.0,-0.001,0
6920000,0.11363242,0.1367623,0.00047898293,0.0,0.0,-0.001,0
6940000,0.1133667,0.13680871,0.0004297495,0.0,0.0,-0.001,0
6960000,0.11339308,0.13683173,0.00042182207,0.0,0.0,-0.001,0
6980000,0.11325587,0.13688147,0.00040012598,0.0,0.0,-0.001,0
7000000,0.113120064,0.13705572,0.0005123615,0.0,0.0,-0.001,0
7020000,0.11308201,0.13707863,0.00061792135,0.0,0.0,-0.001,0
7040000,0.11285076,0.13710102,0.0005803704,0.0,0.0,-0.001,0
7060000,0.11278006,0.13699476,0.0006158352,0.0,0.0,-0.001,0
7076000,0.11247999,0.13701317,0.0006162524,0.0,0.0,-0.001,0
7096000,0.11266194,0.13711533,0.0005398989,0.0,0.0,-0.001,0
7116000,0.11264012,0.13764296,0.00060999393,0.0,0.0,-0.001,0
7136000,0.11262739,0.13773826,0.0005315542,0.0,0.0,-0.001,0
7156000,0.112675756,0.13792296,0.00069469213,0.0,0.0,-0.001,0
7176000,0.11269709,0.13778858,0.0005866289,0.0,0.0,-0.001,0
7196000,0.11274908,0.1379217,0.0006133318,0.0,0.0,-0.001,0
7216000,0.11251798,0.13814129,0.00055742264,0.0,0.0,-0.001,0
7236000,0.11250429,0.1380522,0.0007184744,0.0,0.0,-0.001,0
7260000,0.11270323,0.13811608,0.00069344044,0.0,0.0,-0.001,0
7276000,0.11293884,0.13816592,0.00067925453,0.0,0.0,-0.001,0
7300000,0.112849444,0.13812445,0.0008544922,0.0,0.0,-0.001,0
7320000,0.112758115,0.1377553,0.0006592274,0.0,0.0,-0.001,0
7340000,0.11266401,0.13793558,0.0008248687,0.0,0.0,-0.001,0
7360000,0.112793,0.13816221,0.00061917305,0.0,0.0,-0.001,0
7380000,0.11311046,0.1378156,0.0006517172,0.0,0.0,-0.001,0
7400000,0.11310775,0.1378276,0.0006033182,0.0,0.0,-0.001,0
7420000,0.11345953,0.13783333,0.0006533861,0.0,0.0,-0.001,0
7440000,0.11324819,0.13790809,0.0006366968,0.0,0.0,-0.001,0
7456000,0.11302105,0.13803138,0.0006212592,0.0,0.0,-0.001,0
7480000,0.112792954,0.1380806,0.00062584877,0.0,0.0,-0.001,0
7496000,0.11262017,0.13784793,0.0005970597,0.0,0.0,-0.001,0
7516000,0.11242891,0.13756062,0.00057411194,0.0,0.0,-0.001,0
7540000,0.11264919,0.13785428,0.0005390644,0.0,0.0,-0.001,0
7560000,0.112978145,0.1379354,0.00050902367,0.0,0.0,-0.001,0
7580000,0.113384895,0.13818923,0.00054740906,0.0,0.0,-0.001,0
7600000,0.11358102,0.13819982,0.00045228004,0.0,0.0,-0.001,0
7620000,0.113885574,0.13850555,0.00037676096,0.0,0.0,-0.001,0
7640000,0.1139431,0.13850336,0.00045269728,0.0,0.0,-0.001,0
7660000,0.11394014,0.13885309,0.00042808056,0.0,0.0,-0.001,0
7676000,0.11395541,0.13883038,0.00039595366,0.0,0.0,-0.001,0
7700000,0.114525564,0.13893634,0.0004543662,0.0,0.0,-0.001,0
7720000,0.11467234,0.13869824,0.00050902367,0.0,0.0,-0.001,0
7740000,0.1146797,0.13858041,0.00048691034,0.0,0.0,-0.001,0
7760000,0.11479345,0.13846473,0.00048148632,0.0,0.0,-0.001,0
7776000,0.1148859,0.13849616,0.00055783987,0.0,0.0,-0.001,0
7800000,0.115048364,0.13837454,0.00049984455,0.0,0.0,-0.001,0
7820000,0.11545037,0.13842209,0.0004685521,0.0,0.0,-0.001,0
7840000,0.11561917,0.13824958,0.0005223751,0.0,0.0,-0.001,0
7860000,0.11569839,0.13796669,0.00040346384,0.0,0.0,-0.001,0
7880000,0.11582256,0.1377147,0.00046730042,0.0,0.0,-0.001,0
7900000,0.115978196,0.1378917,0.00032669306,0.0,0.0,-0.001,0
7920000,0.116019264,0.137929,0.00048565865,0.0,0.0,-0.001,0
7940000,0.116021544,0.13776971,0.0005607605,0.0,0.0,-0.001,0
7956000,0.11604234,0.13769951,0.0005686879,0.0,0.0,-0.001,0
7980000,0.116233975,0.13782631,0.0006133318,0.0,0.0,-0.001,0
8000000,0.11605537,0.137573,0.0004389286,0.0,0.0,-0.001,0
8020000,0.11609231,0.13734771,0.00026077032,0.0,0.0,-0.001,0
8040000,0.11601388,0.13728306,0.0004364252,0.0,0.0,-0.001,0
8060000,0.115946755,0.13732766,0.00025367737,0.0,0.0,-0.001,0
8076000,0.116109654,0.13718137,0.00024658442,0.0,0.0,-0.001,0
8100000,0.11612624,0.13712093,0.0003079176,0.0,0.0,-0.001,0
8120000,0.1160193,0.13727318,0.00043809414,0.0,0.0,-0.001,0
8140000,0.11596924,0.13726597,0.00036674738,0.0,0.0,-0.001,0
8160000,0.11602871,0.13721435,0.00045394897,0.0,0.0,-0.001,0
8180000,0.116248935,0.13710597,0.0004401803,0.0,0.0,-0.001,0
8196000,0.11634862,0.13709486,0.00044059753,0.0,0.0,-0.001,0
8216000,0.116436765,0.13703251,0.00053197145,0.0,0.0,-0.001,0
8236000,0.11644358,0.13682604,0.00059622526,0.0,0.0,-0.001,0
8260000,0.116390385,0.1366623,0.00055116415,0.0,0.0,-0.001,0
8280000,0.11644988,0.13652976,0.0005707741,0.0,0.0,-0.001,0
8300000,0.11636803,0.13643005,0.0008173585,0.0,0.0,-0.001,0
8316000,0.116302975,0.1361639,0.0007914901,0.0,0.0,-0.001,0
8340000,0.116441645,0.13609755,0.0008286238,0.0,0.0,-0.001,0
8356000,0.11624113,0.13617948,0.0007994175,0.0,0.0,-0.001,0
8376000,0.116134286,0.13625118,0.0006145835,0.0,0.0,-0.001,0
8396000,0.11624326,0.13596544,0.00070136786,0.0,0.0,-0.001,0
8416000,0.11619702,0.13580413,0.0005791187,0.0,0.0,-0.001,0
8436000,0.11630096,0.13567021,0.0005119443,0.0,0.0,-0.001,0
8456000,0.116384454,0.13565491,0.00050234795,0.0,0.0,-0.001,0
8480000,0.11636474,0.13562624,0.00045603514,0.0,0.0,-0.001,0
8500000,0.1164257,0.13564236,0.00039219856,0.0,0.0,-0.001,0
8516000,0.11627797,0.13537487,0.000274539,0.0,0.0,-0.001,0
8536000,0.11594431,0.13517466,0.00043016672,0.0,0.0,-0.001,0
8556000,0.11572313,0.13502683,0.00038844347,0.0,0.0,-0.001,0
8580000,0.11551739,0.13507603,0.00028955936,0.0,0.0,-0.001,0
8600000,0.11531193,0.13514246,0.0004284978,0.0,0.0,-0.001,0
8620000,0.1153384,0.13532102,0.000346303,0.0,0.0,-0.001,0
8636000,0.115399025,0.1351821,0.0003091693,0.0,0.0,-0.001,0
8656000,0.115237,0.13509512,0.00044602156,0.0,0.0,-0.001,0
8676000,0.11520293,0.13500777,0.00039678812,0.0,0.0,-0.001,0
8696000,0.1151766,0.13494177,0.00048190355,0.0,0.0,-0.001,0
8716000,0.115129314,0.13476871,0.00040972233,0.0,0.0,-0.001,0
8736000,0.11510901,0.13481289,0.00046688318,0.0,0.0,-0.001,0
8756000,0.114889495,0.13466509,0.00045603514,0.0,0.0,-0.001,0
8780000,0.114719376,0.1346184,0.0004965067,0.0,0.0,-0.001,0
8796000,0.114569806,0.13468559,0.0004439354,0.0,0.0,-0.001,0
8820000,0.1144489,0.13476245,0.00045728683,0.0,0.0,-0.001,0
8840000,0.114581786,0.13503006,0.00049734116,0.0,0.0,-0.001,0
8856000,0.11450802,0.13522482,0.0004977584,0.0,0.0,-0.001,0
8876000,0.11446693,0.13535956,0.0004464388,0.0,0.0,-0.001,0
8900000,0.11444241,0.13531813,0.00051653385,0.0,0.0,-0.001,0
8916000,0.1145005,0.13518173,0.00045228004,0.0,0.0,-0.001,0
8936000,0.11446855,0.13526136,0.0004798174,0.0,0.0,-0.001,0
8956000,0.11447024,0.1352025,0.000513196,0.0,0.0,-0.001,0
8976000,0.11441381,0.13507034,0.00047647953,0.0,0.0,-0.001,0
8996000,0.11454995,0.1348928,0.0004914999,0.0,0.0,-0.001,0
9016000,0.11433995,0.13518149,0.0005674362,0.0,0.0,-0.001,0
9040000,0.11436366,0.13499093,0.0005686879,0.0,0.0,-0.001,0
9060000,0.11422742,0.13475628,0.00062793493,0.0,0.0,-0.001,0
9076000,0.114295185,0.13480055,0.0006454587,0.0,0.0,-0.001,0
9100000,0.11381562,0.13485159,0.0005970597,0.0,0.0,-0.001,0
9116000,0.11398663,0.13486059,0.000620842,0.0,0.0,-0.001,0
9136000,0.11404027,0.1348548,0.00056117773,0.0,0.0,-0.001,0
9160000,0.113964394,0.13467506,0.0005298853,0.0,0.0,-0.001,0
9180000,0.11369881,0.13477549,0.0005557537,0.0,0.0,-0.001,0
9200000,0.11378866,0.13454081,0.0005507469,0.0,0.0,-0.001,0
9220000,0.113977484,0.13424258,0.0005674362,0.0,0.0,-0.001,0
9236000,0.11391385,0.13428706,0.0005156994,0.0,0.0,-0.001,0
9260000,0.11391135,0.1340709,0.00049108267,0.0,0.0,-0.001,0
9276000,0.11382781,0.13406684,0.00047898293,0.0,0.0,-0.001,0
9296000,0.11388098,0.13384417,0.00051903725,0.0,0.0,-0.001,0
9320000,0.11384483,0.1334829,0.0005528331,0.0,0.0,-0.001,0
9340000,0.11399283,0.13368472,0.00048607588,0.0,0.0,-0.001,0
9356000,0.11405945,0.13387704,0.00050485134,0.0,0.0,-0.001,0
9380000,0.11393111,0.13426599,0.0004914999,0.0,0.0,-0.001,0
9400000,0.11389904,0.13412908,0.00050902367,0.0,0.0,-0.001,0
9416000,0.11392152,0.13403308,0.000554502,0.0,0.0,-0.001,0
9440000,0.11373316,0.134088,0.00044977665,0.0,0.0,-0.001,0
9460000,0.113519326,0.13404387,0.00044685602,0.0,0.0,-0.001,0
9480000,0.113273196,0.13427371,0.00045394897,0.0,0.0,-0.001,0
9500000,0.11310436,0.13429485,0.00043809414,0.0,0.0,-0.001,0
9516000,0.11313054,0.13416237,0.00040388107,0.0,0.0,-0.001,0
9540000,0.11312655,0.13419183,0.00048941374,0.0,0.0,-0.001,0
9556000,0.11313239,0.13436247,0.00047188997,0.0,0.0,-0.001,0
9580000,0.11322456,0.13466352,0.00047898293,0.0,0.0,-0.001,0
9600000,0.11319674,0.13439503,0.00043976307,0.0,0.0,-0.001,0
9616000,0.11307956,0.13408032,0.00044059753,0.0,0.0,-0.001,0
9636000,0.11298997,0.1337138,0.00038719177,0.0,0.0,-0.001,0
9660000,0.11290888,0.13375105,0.00041264296,0.0,0.0,-0.001,0
9676000,0.11287368,0.13370588,0.00045895576,0.0,0.0,-0.001,0
9700000,0.112639144,0.13354428,0.00043475628,0.0,0.0,-0.001,0
9716000,0.11264639,0.13360454,0.0004581213,0.0,0.0,-0.001,0
9736000,0.11261362,0.13333084,0.0003901124,0.0,0.0,-0.001,0
9756000,0.11233004,0.13335842,0.0003091693,0.0,0.0,-0.001,0
9780000,0.112156,0.13338932,0.00031667948,0.0,0.0,-0.001,0
9796000,0.112005584,0.13343477,0.00026285648,0.0,0.0,-0.001,0
9820000,0.11181902,0.13333781,0.0002782941,0.0,0.0,-0.001,0
9840000,0.11203635,0.13300437,0.00037759542,0.0,0.0,-0.001,0
9856000,0.11209194,0.13299939,0.00036466122,0.0,0.0,-0.001,0
9876000,0.11232875,0.13262711,0.0003400445,0.0,0.0,-0.001,0
9900000,0.11239869,0.1324156,0.00032252073,0.0,0.0,-0.001,0
9916000,0.11231398,0.1322889,0.0003529787,0.0,0.0,-0.001,0
9940000,0.112292305,0.13214284,0.0004451871,0.0,0.0,-0.001,0
9956000,0.112260394,0.13228162,0.0004618764,0.0,0.0,-0.001,0
9976000,0.11220308,0.1323705,0.0004798174,0.0,0.0,-0.001,0
9996000,0.112136416,0.13250388,0.0004698038,0.0,0.0,-0.001,0
10016000,0.112140045,0.13232073,0.0004889965,0.0,0.0,-0.001,0
10036000,0.112116545,0.13236544,0.00042515993,0.0,0.0,-0.001,0
10056000,0.112025924,0.13230433,0.00050860643,0.0,0.0,-0.001,0
10076000,0.1120182,0.13230555,0.00050985813,0.0,0.0,-0.001,0
10096000,0.11169409,0.13210317,0.0005123615,0.0,0.0,-0.001,0
10116000,0.11155824,0.13201755,0.00059080124,0.0,0.0,-0.001,0
10136000,0.11111564,0.13220508,0.00044727325,0.0,0.0,-0.001,0
10156000,0.11120914,0.13236962,0.00051403046,0.0,0.0,-0.001,0
10176000,0.11106211,0.13226192,0.0004944205,0.0,0.0,-0.001,0
10196000,0.11089039,0.13233879,0.00049734116,0.0,0.0,-0.001,0
10216000,0.1109548,0.13249157,0.0004885793,0.0,0.0,-0.001,0
10236000,0.11092486,0.13248892,0.00049233437,0.0,0.0,-0.001,0
10256000,0.110883534,0.13261592,0.00048315525,0.0,0.0,-0.001,0
10280000,0.11098231,0.13269338,0.00050735474,0.0,0.0,-0.001,0
10300000,0.11096262,0.13281304,0.0005065203,0.0,0.0,-0.001,0
10320000,0.11092612,0.13274837,0.0005019307,0.0,0.0,-0.001,0
10336000,0.11097766,0.13267137,0.00048941374,0.0,0.0,-0.001,0
10360000,0.11116976,0.1329818,0.00046813488,0.0,0.0,-0.001,0
10380000,0.11129812,0.1328571,0.0004710555,0.0,0.0,-0.001,0
10400000,0.111224115,0.13257879,0.0004965067,0.0,0.0,-0.001,0
10416000,0.11129847,0.1325592,0.0004823208,0.0,0.0,-0.001,0
10436000,0.111254975,0.13255116,0.00046688318,0.0,0.0,-0.001,0
10460000,0.111319885,0.13254368,0.0005916357,0.0,0.0,-0.001,0
10480000,0.11092859,0.13252291,0.000513196,0.0,0.0,-0.001,0
10500000,0.111126974,0.1321192,0.00062584877,0.0,0.0,-0.001,0
10516000,0.111017324,0.13194752,0.0006003976,0.0,0.0,-0.001,0
10540000,0.11111597,0.13175309,0.0005503297,0.0,0.0,-0.001,0
10556000,0.11096892,0.13185744,0.00054490566,0.0,0.0,-0.001,0
10580000,0.11131418,0.13196465,0.00052446127,0.0,0.0,-0.001,0
10596000,0.11142529,0.13202178,0.00053447485,0.0,0.0,-0.001,0
10616000,0.111279756,0.13189884,0.00051027536,0.0,0.0,-0.001,0
10636000,0.111241944,0.13168794,0.00053447485,0.0,0.0,-0.001,0
10660000,0.11098897,0.13178907,0.0005348921,0.0,0.0,-0.001,0
10680000,0.110698104,0.13181382,0.0004965067,0.0,0.0,-0.001,0
10700000,0.110723495,0.13153614,0.0005248785,0.0,0.0,-0.001,0
10720000,0.11084965,0.13178673,0.0005144477,0.0,0.0,-0.001,0
10736000,0.110881224,0.1317154,0.0005198717,0.0,0.0,-0.001,0
10756000,0.11086164,0.13163322,0.0005978942,0.0,0.0,-0.001,0
10780000,0.1107969,0.13176271,0.00061166286,0.0,0.0,-0.001,0
10796000,0.11065773,0.1319867,0.0005348921,0.0,0.0,-0.001,0
10820000,0.11039724,0.13207456,0.0005799532,0.0,0.0,-0.001,0
10836000,0.110355735,0.132245,0.00059080124,0.0,0.0,-0.001,0
10856000,0.11024822,0.13208506,0.00049358606,0.0,0.0,-0.001,0
10880000,0.11057362,0.13212755,0.00043475628,0.0,0.0,-0.001,0
10900000,0.11050473,0.13183855,0.000423491,0.0,0.0,-0.001,0
10920000,0.110167176,0.13155241,0.00043350458,0.0,0.0,-0.001,0
10940000,0.10997017,0.1313321,0.00035256147,0.0,0.0,-0.001,0
10956000,0.10982691,0.13124661,0.00034296513,0.0,0.0,-0.001,0
10976000,0.109688595,0.13088748,0.0004222393,0.0,0.0,-0.001,0
11000000,0.10971529,0.13085423,0.000441432,0.0,0.0,-0.001,0
11020000,0.10953337,0.13090746,0.00040638447,0.0,0.0,-0.001,0
11036000,0.109378435,0.13088909,0.00031542778,0.0,0.0,-0.001,0
11060000,0.10912566,0.13103934,0.00035506487,0.0,0.0,-0.001,0
11076000,0.10917277,0.13119039,0.00041389465,0.0,0.0,-0.001,0
11096000,0.109048195,0.13116014,0.00039803982,0.0,0.0,-0.001,0
11116000,0.10911977,0.13114825,0.00037425756,0.0,0.0,-0.001,0
11140000,0.10931165,0.13123788,0.00043976307,0.0,0.0,-0.001,0
11156000,0.109335184,0.13120984,0.00047397614,0.0,0.0,-0.001,0
11180000,0.10907309,0.1314755,0.00040221214,0.0,0.0,-0.001,0
11196000,0.10899308,0.1317171,0.0003951192,0.0,0.0,-0.001,0
11220000,0.10895076,0.1311542,0.00043725967,0.0,0.0,-0.001,0
11236000,0.10900484,0.13100557,0.00041264296,0.0,0.0,-0.001,0
11260000,0.10927899,0.13084567,0.0004351735,0.0,0.0,-0.001,0
11276000,0.109448664,0.13085212,0.00037050247,0.0,0.0,-0.001,0
11296000,0.1096664,0.13090226,0.00045520067,0.0,0.0,-0.001,0
11316000,0.10978603,0.13085967,0.0005966425,0.0,0.0,-0.001,0
11336000,0.10953345,0.13077877,0.00049316883,0.0,0.0,-0.001,0
11356000,0.10957204,0.13066728,0.00054615736,0.0,0.0,-0.001,0
11376000,0.10956557,0.13029349,0.00051027536,0.0,0.0,-0.001,0
11396000,0.10970069,0.129927,0.00060623884,0.0,0.0,-0.001,0
11416000,0.10962171,0.12991682,0.0005336404,0.0,0.0,-0.001,0
11436000,0.109614536,0.12979633,0.00056159496,0.0,0.0,-0.001,0
11456000,0.10957064,0.12974337,0.00047439337,0.0,0.0,-0.001,0
11476000,0.109651476,0.12933263,0.0004389286,0.0,0.0,-0.001,0
11496000,0.10946528,0.12939103,0.0004310012,0.0,0.0,-0.001,0
11516000,0.10945875,0.12913246,0.00045979023,0.0,0.0,-0.001,0
11536000,0.10948081,0.12904604,0.00045895576,0.0,0.0,-0.001,0
11556000,0.10928024,0.129231,0.00046771765,0.0,0.0,-0.001,0
11576000,0.10921564,0.12903747,0.00043559074,0.0,0.0,-0.001,0
11596000,0.109172285,0.12935667,0.00054991245,0.0,0.0,-0.001,0
11616000,0.109252945,0.1293707,0.00048607588,0.0,0.0,-0.001,0
11636000,0.10927912,0.12958474,0.00055867434,0.0,0.0,-0.001,0
11660000,0.10949431,0.12965198,0.0005682707,0.0,0.0,-0.001,0
11676000,0.10954269,0.12954435,0.00057536364,0.0,0.0,-0.001,0
11700000,0.1096164,0.12952717,0.00052654743,0.0,0.0,-0.001,0
11720000,0.10966254,0.12992176,0.0005106926,0.0,0.0,-0.001,0
11740000,0.109834366,0.12996803,0.0005837083,0.0,0.0,-0.001,0
11756000,0.109857224,0.12988353,0.00055116415,0.0,0.0,-0.001,0
11780000,0.10963889,0.12990257,0.00051277876,0.0,0.0,-0.001,0
11800000,0.10966721,0.13009547,0.0005031824,0.0,0.0,-0.001,0
11820000,0.1093774,0.1297276,0.00049191713,0.0,0.0,-0.001,0
11840000,0.10933672,0.12978296,0.00049734116,0.0,0.0,-0.001,0
11860000,0.10920431,0.1297116,0.00049734116,0.0,0.0,-0.001,0
11880000,0.10933977,0.12954089,0.0004965067,0.0,0.0,-0.001,0
11900000,0.10953277,0.12938026,0.0004093051,0.0,0.0,-0.001,0
11916000,0.10965954,0.12942222,0.0004310012,0.0,0.0,-0.001,0
11940000,0.10971926,0.12923266,0.00045478344,0.0,0.0,-0.001,0
11956000,0.10977218,0.12937428,0.0004184842,0.0,0.0,-0.001,0
11980000,0.10942755,0.12879178,0.00043016672,0.0,0.0,-0.001,0
11996000,0.109507844,0.12851824,0.00040346384,0.0,0.0,-0.001,0
12020000,0.10969077,0.1283808,0.00047272444,0.0,0.0,-0.001,0
12036000,0.10980719,0.12850042,0.00047773123,0.0,0.0,-0.001,0
12060000,0.10977797,0.12845854,0.0005482435,0.0,0.0,-0.001,0
12076000,0.10977445,0.12826301,0.00056284666,0.0,0.0,-0.001,0
12100000,0.10980905,0.12818334,0.0005286336,0.0,0.0,-0.001,0
12116000,0.10991855,0.12833607,0.00052279234,0.0,0.0,-0.001,0
12140000,0.10980692,0.12832323,0.00050485134,0.0,0.0,-0.001,0
12156000,0.10966353,0.12827812,0.0005290508,0.0,0.0,-0.001,0
12180000,0.109593324,0.1283097,0.00044894218,0.0,0.0,-0.001,0
12196000,0.10960596,0.12795773,0.00044894218,0.0,0.0,-0.001,0
12220000,0.10949599,0.12777647,0.0004864931,0.0,0.0,-0.001,0
12236000,0.10942477,0.12777367,0.0004130602,0.0,0.0,-0.001,0
12260000,0.10924137,0.12764192,0.00045353174,0.0,0.0,-0.001,0
12280000,0.1091595,0.12771828,0.00043475628,0.0,0.0,-0.001,0
12300000,0.10909413,0.12770256,0.0003375411,0.0,0.0,-0.001,0
12320000,0.109098114,0.12750839,0.00039762259,0.0,0.0,-0.001,0
12340000,0.10905116,0.127743,0.00035256147,0.0,0.0,-0.001,0
12356000,0.10882108,0.1277718,0.0004030466,0.0,0.0,-0.001,0
12380000,0.108783245,0.12783587,0.0003863573,0.0,0.0,-0.001,0
12396000,0.10881418,0.12798382,0.0003721714,0.0,0.0,-0.001,0
12420000,0.10876455,0.12824674,0.00040221214,0.0,0.0,-0.001,0
12440000,0.1086597,0.12824117,0.00041472912,0.0,0.0,-0.001,0
12460000,0.10865458,0.12833813,0.00039345026,0.0,0.0,-0.001,0
12480000,0.108690985,0.12856784,0.00043141842,0.0,0.0,-0.001,0
12500000,0.10871715,0.12859902,0.00045228004,0.0,0.0,-0.001,0
12516000,0.1087398,0.1288042,0.0004606247,0.0,0.0,-0.001,0
12540000,0.108702414,0.12869169,0.0004852414,0.0,0.0,-0.001,0
12556000,0.10875115,0.1288937,0.00042432547,0.0,0.0,-0.001,0
12580000,0.108678445,0.12878159,0.00042682886,0.0,0.0,-0.001,0
12596000,0.10852408,0.12884155,0.0003863573,0.0,0.0,-0.001,0
12616000,0.10850811,0.12885393,0.0004735589,0.0,0.0,-0.001,0
12636000,0.108456254,0.12879601,0.0003951192,0.0,0.0,-0.001,0
12656000,0.1084189,0.12909576,0.0004209876,0.0,0.0,-0.001,0
12676000,0.10849652,0.12924515,0.0003951192,0.0,0.0,-0.001,0
12696000,0.10863303,0.12932009,0.00041097403,0.0,0.0,-0.001,0
12716000,0.10898983,0.12895204,0.00038552284,0.0,0.0,-0.001,0
12736000,0.1090029,0.12880291,0.0004810691,0.0,0.0,-0.001,0
12760000,0.10912556,0.12868983,0.00046396255,0.0,0.0,-0.001,0
12780000,0.10920218,0.12875955,0.0005219579,0.0,0.0,-0.001,0
12800000,0.10908333,0.12873171,0.00052779913,0.0,0.0,-0.001,0
12816000,0.10899124,0.12853101,0.0005219579,0.0,0.0,-0.001,0
12840000,0.109054506,0.128341,0.000536561,0.0,0.0,-0.001,0
12860000,0.10913337,0.12823372,0.00048691034,0.0,0.0,-0.001,0
12880000,0.10928638,0.12813506,0.00053948164,0.0,0.0,-0.001,0
12896000,0.10951282,0.12814213,0.0005507469,0.0,0.0,-0.001,0
12916000,0.109492555,0.12836574,0.00067174435,0.0,0.0,-0.001,0
12940000,0.10985813,0.1281224,0.00056117773,0.0,0.0,-0.001,0
12956000,0.109794445,0.12790073,0.00061291456,0.0,0.0,-0.001,0
12976000,0.10979498,0.1280525,0.0005182028,0.0,0.0,-0.001,0
12996000,0.109846205,0.12794422,0.0005194545,0.0,0.0,-0.001,0
13020000,0.10960431,0.12778327,0.00062417984,0.0,0.0,-0.001,0
13036000,0.10953602,0.12777202,0.00063836575,0.0,0.0,-0.001,0
13060000,0.109412305,0.12788275,0.0005232096,0.0,0.0,-0.001,0
13080000,0.10941491,0.12791874,0.00048983097,0.0,0.0,-0.001,0
13096000,0.10924594,0.12797756,0.0005323887,0.0,0.0,-0.001,0
13116000,0.10907713,0.12778908,0.0004798174,0.0,0.0,-0.001,0
13136000,0.10890952,0.12765375,0.0004927516,0.0,0.0,-0.001,0
13156000,0.10874698,0.12758222,0.00046271086,0.0,0.0,-0.001,0
13176000,0.108769864,0.1278029,0.00046604872,0.0,0.0,-0.001,0
13200000,0.10880346,0.12749715,0.00042808056,0.0,0.0,-0.001,0
13220000,0.1088574,0.1276011,0.00037050247,0.0,0.0,-0.001,0
13240000,0.109081514,0.12762474,0.00042515993,0.0,0.0,-0.001,0
13260000,0.109191254,0.12738247,0.00037175417,0.0,0.0,-0.001,0
13280000,0.10930298,0.1271872,0.00042682886,0.0,0.0,-0.001,0
13300000,0.10908217,0.12720348,0.00043058395,0.0,0.0,-0.001,0
13316000,0.10895313,0.12726703,0.0004297495,0.0,0.0,-0.001,0
13340000,0.10892168,0.12765367,0.00044059753,0.0,0.0,-0.001,0
13356000,0.10884745,0.12750801,0.0004606247,0.0,0.0,-0.001,0
13380000,0.108769625,0.12727672,0.0004994273,0.0,0.0,-0.001,0
13400000,0.10880759,0.12718137,0.00047397614,0.0,0.0,-0.001,0
13420000,0.10893819,0.12713446,0.00053948164,0.0,0.0,-0.001,0
13436000,0.108909264,0.12705338,0.0004927516,0.0,0.0,-0.001,0
13460000,0.10904277,0.12684828,0.0005774498,0.0,0.0,-0.001,0
13476000,0.109037146,0.12701644,0.00051903725,0.0,0.0,-0.001,0
13500000,0.10901701,0.12698007,0.00057286024,0.0,0.0,-0.001,0
13520000,0.10903982,0.1269458,0.0005123615,0.0,0.0,-0.001,0
13540000,0.10926918,0.12693965,0.00045728683,0.0,0.0,-0.001,0
13560000,0.10921014,0.12700026,0.0004685521,0.0,0.0,-0.001,0
13580000,0.10926085,0.12666796,0.00036507845,0.0,0.0,-0.001,0
13600000,0.109242626,0.12645505,0.00048398972,0.0,0.0,-0.001,0
13620000,0.10910879,0.12659219,0.00059372187,0.0,0.0,-0.001,0
13636000,0.10890061,0.12667415,0.00049608946,0.0,0.0,-0.001,0
13656000,0.108851515,0.12652552,0.00046521425,0.0,0.0,-0.001,0
13676000,0.10865236,0.12652704,0.00052946806,0.0,0.0,-0.001,0
13700000,0.108301826,0.12652673,0.0004698038,0.0,0.0,-0.001,0
13716000,0.10795212,0.12673768,0.00048398972,0.0,0.0,-0.001,0
13736000,0.10779953,0.1269057,0.00041639805,0.0,0.0,-0.001,0
13760000,0.10767771,0.12685573,0.0003888607,0.0,0.0,-0.001,0
13780000,0.10739173,0.12682603,0.00034838915,0.0,0.0,-0.001,0
13796000,0.10712792,0.12669913,0.00038093328,0.0,0.0,-0.001,0
13820000,0.10680794,0.1266753,0.0003629923,0.0,0.0,-0.001,0
13840000,0.10671408,0.12688264,0.00041639805,0.0,0.0,-0.001,0
13856000,0.10651892,0.12675188,0.00043225288,0.0,0.0,-0.001,0
13880000,0.106406555,0.12684621,0.00038844347,0.0,0.0,-0.001,0
13900000,0.10628892,0.1269157,0.0002720356,0.0,0.0,-0.001,0
13920000,0.106314346,0.12687066,0.00037801266,0.0,0.0,-0.001,0
13940000,0.10625108,0.12677234,0.00031751394,0.0,0.0,-0.001,0
13956000,0.10639593,0.1268375,0.00035464764,0.0,0.0,-0.001,0
13980000,0.10646652,0.12677024,0.00039428473,0.0,0.0,-0.001,0
14000000,0.106799066,0.1266909,0.00041931868,0.0,0.0,-0.001,0
14020000,0.10697784,0.12661688,0.00040012598,0.0,0.0,-0.001,0
14036000,0.10706738,0.12667063,0.00051903725,0.0,0.0,-0.001,0
14056000,0.10707397,0.12666872,0.00047063828,0.0,0.0,-0.001,0
14076000,0.10726103,0.12645753,0.000536561,0.0,0.0,-0.001,0
14096000,0.1077251,0.12648095,0.000477314,0.0,0.0,-0.001,0
14116000,0.10812475,0.12650672,0.0005336404,0.0,0.0,-0.001,0
14136000,0.10803198,0.12637916,0.00047397614,0.0,0.0,-0.001,0
14156000,0.10802613,0.12647079,0.00049191713,0.0,0.0,-0.001,0
14176000,0.10810518,0.12631705,0.0005027652,0.0,0.0,-0.001,0
14196000,0.1082744,0.12603399,0.000602901,0.0,0.0,-0.001,0
14216000,0.1079997,0.12619798,0.00050985813,0.0,0.0,-0.001,0
14236000,0.10792677,0.12614037,0.00056535006,0.0,0.0,-0.001,0
14256000,0.10825114,0.12608144,0.00051903725,0.0,0.0,-0.001,0
14276000,0.108098835,0.12580596,0.0006066561,0.0,0.0,-0.001,0
14296000,0.108212374,0.12573521,0.0004977584,0.0,0.0,-0.001,0
14316000,0.10794011,0.12580374,0.00068718195,0.0,0.0,-0.001,0
14336000,0.10804452,0.12580416,0.00052946806,0.0,0.0,-0.001,0
14360000,0.10784088,0.12571672,0.0004914999,0.0,0.0,-0.001,0
14380000,0.10784774,0.1256814,0.0005657673,0.0,0.0,-0.001,0
14400000,0.10748745,0.1257193,0.0004956722,0.0,0.0,-0.001,0
14420000,0.10740675,0.1255843,0.0005478263,0.0,0.0,-0.001,0
14440000,0.107737206,0.12554413,0.0005353093,0.0,0.0,-0.001,0
14456000,0.10765221,0.12520352,0.00049859285,0.0,0.0,-0.001,0
14476000,0.10781706,0.12500612,0.0006337762,0.0,0.0,-0.001,0
14496000,0.10756544,0.12466035,0.00054073334,0.0,0.0,-0.001,0
14516000,0.107615635,0.12456682,0.00059872866,0.0,0.0,-0.001,0
14536000,0.1077605,0.12435152,0.0005052686,0.0,0.0,-0.001,0
14556000,0.10768149,0.124450155,0.00053948164,0.0,0.0,-0.001,0
14580000,0.10743517,0.12418748,0.00056159496,0.0,0.0,-0.001,0
14600000,0.107367545,0.12407406,0.0004556179,0.0,0.0,-0.001,0
14616000,0.10736198,0.124319434,0.0004531145,0.0,0.0,-0.001,0
14636000,0.10751235,0.124231756,0.00048440695,0.0,0.0,-0.001,0
14660000,0.10732636,0.12409036,0.00045144558,0.0,0.0,-0.001,0
14676000,0.10744295,0.12384824,0.000441432,0.0,0.0,-0.001,0
14696000,0.10741244,0.124054104,0.00039929152,0.0,0.0,-0.001,0
14720000,0.10730402,0.123815015,0.00043433905,0.0,0.0,-0.001,0
14740000,0.107228145,0.12352855,0.0004143119,0.0,0.0,-0.001,0
14760000,0.10726838,0.12331998,0.00043433905,0.0,0.0,-0.001,0
14780000,0.107327715,0.12319583,0.0003951192,0.0,0.0,-0.001,0
14796000,0.1072239,0.12315637,0.0004017949,0.0,0.0,-0.001,0
14820000,0.10709896,0.123268254,0.00041264296,0.0,0.0,-0.001,0
14840000,0.10709365,0.12342704,0.00041347742,0.0,0.0,-0.001,0
14860000,0.10697674,0.123697124,0.00036883354,0.0,0.0,-0.001,0
14876000,0.106944315,0.123709254,0.00044435263,0.0,0.0,-0.001,0
14896000,0.106890656,0.123489805,0.00041764975,0.0,0.0,-0.001,0
14920000,0.1066328,0.12367889,0.00044101477,0.0,0.0,-0.001,0
14940000,0.10671088,0.12358593,0.00034797192,0.0,0.0,-0.001,0
14960000,0.106769346,0.12344481,0.0004259944,0.0,0.0,-0.001,0
14976000,0.106707804,0.12336064,0.0004351735,0.0,0.0,-0.001,0
14996000,0.106958315,0.12358184,0.0004042983,0.0,0.0,-0.001,0
15020000,0.10697517,0.12374231,0.00042515993,0.0,0.0,-0.001,0
15036000,0.10679914,0.123688236,0.0005040169,0.0,0.0,-0.001,0
15056000,0.10649648,0.12375983,0.00046271086,0.0,0.0,-0.001,0
15076000,0.10662223,0.12420805,0.0004977584,0.0,0.0,-0.001,0
15100000,0.10678006,0.124296494,0.0005386472,0.0,0.0,-0.001,0
15116000,0.106586225,0.12415675,0.0005019307,0.0,0.0,-0.001,0
15140000,0.10648502,0.124105126,0.0004748106,0.0,0.0,-0.001,0
15156000,0.1063954,0.12412244,0.0004643798,0.0,0.0,-0.001,0
15180000,0.10668314,0.12428228,0.00049984455,0.0,0.0,-0.001,0
15196000,0.106596656,0.12415733,0.00053822994,0.0,0.0,-0.001,0
15216000,0.10667458,0.12411176,0.00047188997,0.0,0.0,-0.001,0
15236000,0.10678519,0.12404868,0.00045228004,0.0,0.0,-0.001,0
15260000,0.10679587,0.123984225,0.00044894218,0.0,0.0,-0.001,0
15280000,0.10689895,0.12359786,0.0003913641,0.0,0.0,-0.001,0
15300000,0.10702409,0.1232701,0.00041139126,0.0,0.0,-0.001,0
15316000,0.10701364,0.123120934,0.00044852495,0.0,0.0,-0.001,0
15336000,0.1071298,0.12297371,0.00042641163,0.0,0.0,-0.001,0
15360000,0.106899425,0.122635044,0.00043433905,0.0,0.0,-0.001,0
15380000,0.10666143,0.12240235,0.0004914999,0.0,0.0,-0.001,0
15400000,0.106621005,0.12215422,0.00042307377,0.0,0.0,-0.001,0
15420000,0.10668237,0.122299656,0.00044476986,0.0,0.0,-0.001,0
15440000,0.10648372,0.12237641,0.0004389286,0.0,0.0,-0.001,0
15460000,0.10641454,0.12216869,0.00046938658,0.0,0.0,-0.001,0
15480000,0.10656521,0.12209977,0.00043475628,0.0,0.0,-0.001,0
15500000,0.106621936,0.12194951,0.00051528215,0.0,0.0,-0.001,0
15520000,0.10640747,0.12183428,0.00047397614,0.0,0.0,-0.001,0
15540000,0.10613765,0.121863864,0.00047439337,0.0,0.0,-0.001,0
15560000,0.10595943,0.1217603,0.0004426837,0.0,0.0,-0.001,0
15580000,0.10610245,0.12172251,0.00043976307,0.0,0.0,-0.001,0
15596000,0.106022984,0.12146256,0.0005649328,0.0,0.0,-0.001,0
15620000,0.10572261,0.121088825,0.0004944205,0.0,0.0,-0.001,0
15640000,0.10561426,0.120734,0.0004810691,0.0,0.0,-0.001,0
15660000,0.105669536,0.120353945,0.00058329105,0.0,0.0,-0.001,0
15680000,0.10543738,0.119928285,0.0004531145,0.0,0.0,-0.001,0
15700000,0.105258256,0.11969966,0.0005015135,0.0,0.0,-0.001,0
15720000,0.10519944,0.11945662,0.00047898293,0.0,0.0,-0.001,0
15740000,0.104940794,0.119254984,0.00043475628,0.0,0.0,-0.001,0
15760000,0.10498834,0.11901962,0.00039595366,0.0,0.0,-0.001,0
15780000,0.1050647,0.11881145,0.00038719177,0.0,0.0,-0.001,0
15800000,0.104904786,0.118964255,0.00038719177,0.0,0.0,-0.001,0
15820000,0.104911156,0.11886937,0.0003450513,0.0,0.0,-0.001,0
15840000,0.10497973,0.11871737,0.00040888786,0.0,0.0,-0.001,0
15860000,0.10500658,0.11829749,0.0003579855,0.0,0.0,-0.001,0
15876000,0.105087265,0.11834051,0.0003709197,0.0,0.0,-0.001,0
15900000,0.104788095,0.11818536,0.00032168627,0.0,0.0,-0.001,0
15920000,0.1047695,0.11817037,0.0004197359,0.0,0.0,-0.001,0
15940000,0.10480167,0.118080586,0.00038927794,0.0,0.0,-0.001,0
15960000,0.104644775,0.11790474,0.00044059753,0.0,0.0,-0.001,0
15980000,0.10452926,0.11791653,0.0004568696,0.0,0.0,-0.001,0
16000000,0.104473144,0.11791279,0.00042432547,0.0,0.0,-0.001,0
16020000,0.104402244,0.117796406,0.00036549568,0.0,0.0,-0.001,0
16040000,0.10449616,0.11751346,0.00043267012,0.0,0.0,-0.001,0
16060000,0.104547046,0.117361784,0.00039428473,0.0,0.0,-0.001,0
16080000,0.10475996,0.11719876,0.00040388107,0.0,0.0,-0.001,0
16100000,0.10481246,0.11716309,0.00039094687,0.0,0.0,-0.001,0
16120000,0.10488799,0.11694372,0.00039345026,0.0,0.0,-0.001,0
16140000,0.104876965,0.1168848,0.0004351735,0.0,0.0,-0.001,0
16160000,0.10491586,0.11671972,0.00040513277,0.0,0.0,-0.001,0
16176000,0.10490639,0.116424285,0.0004364252,0.0,0.0,-0.001,0
16196000,0.104964286,0.116229154,0.00040888786,0.0,0.0,-0.001,0
16220000,0.10484799,0.11601915,0.0003400445,0.0,0.0,-0.001,0
16236000,0.104852475,0.11583938,0.0004143119,0.0,0.0,-0.001,0
16256000,0.10489854,0.11548217,0.00040888786,0.0,0.0,-0.001,0
16276000,0.10520979,0.115582064,0.00044602156,0.0,0.0,-0.001,0
16300000,0.10534909,0.115504466,0.0004506111,0.0,0.0,-0.001,0
16316000,0.10523528,0.11551973,0.0004464388,0.0,0.0,-0.001,0
16340000,0.10490905,0.11562665,0.0004339218,0.0,0.0,-0.001,0
16360000,0.10532557,0.115343474,0.0003901124,0.0,0.0,-0.001,0
16380000,0.10534469,0.115443856,0.0004556179,0.0,0.0,-0.001,0
16396000,0.10547857,0.11553815,0.00049233437,0.0,0.0,-0.001,0
16420000,0.105572574,0.11533925,0.00044727325,0.0,0.0,-0.001,0
16440000,0.10555516,0.115432985,0.00042307377,0.0,0.0,-0.001,0
16456000,0.10571217,0.11551975,0.00045144558,0.0,0.0,-0.001,0
16480000,0.10547167,0.11546819,0.00041806698,0.0,0.0,-0.001,0
16500000,0.105607,0.11538936,0.00046813488,0.0,0.0,-0.001,0
16520000,0.10543607,0.11500181,0.00041681528,0.0,0.0,-0.001,0
16540000,0.105368055,0.11501864,0.00044894218,0.0,0.0,-0.001,0
16556000,0.105274126,0.114993505,0.00046604872,0.0,0.0,-0.001,0
16580000,0.10507298,0.11478629,0.0004994273,0.0,0.0,-0.001,0
16600000,0.10509755,0.11483259,0.0004030466,0.0,0.0,-0.001,0
16620000,0.10533382,0.114786185,0.00038343668,0.0,0.0,-0.001,0
16640000,0.10543843,0.114741,0.0004143119,0.0,0.0,-0.001,0
16660000,0.10555718,0.11432934,0.00040847063,0.0,0.0,-0.001,0
16680000,0.10544513,0.11432939,0.0004118085,0.0,0.0,-0.001,0
16700000,0.10525266,0.11442391,0.00039553642,0.0,0.0,-0.001,0
16720000,0.10537049,0.11444426,0.00038969517,0.0,0.0,-0.001,0
16736000,0.10528028,0.114505105,0.0003913641,0.0,0.0,-0.001,0
16760000,0.10517019,0.114726946,0.00038427114,0.0,0.0,-0.001,0
16776000,0.10505925,0.114774145,0.00038719177,0.0,0.0,-0.001,0
16796000,0.10512496,0.11466661,0.0003529787,0.0,0.0,-0.001,0
16820000,0.10511206,0.114524715,0.0003362894,0.0,0.0,-0.001,0
16840000,0.10529597,0.11459461,0.00037550926,0.0,0.0,-0.001,0
16860000,0.10545719,0.114776626,0.00036633015,0.0,0.0,-0.001,0
16880000,0.105369344,0.11446668,0.00046688318,0.0,0.0,-0.001,0
16900000,0.10543436,0.11420607,0.00044435263,0.0,0.0,-0.001,0
16916000,0.105395734,0.11424143,0.00046104193,0.0,0.0,-0.001,0
16936000,0.1054403,0.11429751,0.00042307377,0.0,0.0,-0.001,0
16956000,0.10557632,0.11413449,0.00045853853,0.0,0.0,-0.001,0
16976000,0.10568243,0.11388851,0.00043851137,0.0,0.0,-0.001,0
16996000,0.105611086,0.11396771,0.0004810691,0.0,0.0,-0.001,0
17016000,0.10568989,0.113877475,0.00042808056,0.0,0.0,-0.001,0
17040000,0.10605716,0.11390252,0.00041681528,0.0,0.0,-0.001,0
17056000,0.10597729,0.11389897,0.00039887428,0.0,0.0,-0.001,0
17080000,0.10612027,0.11390013,0.00039762259,0.0,0.0,-0.001,0
17100000,0.10617914,0.113811605,0.0004222393,0.0,0.0,-0.001,0
17120000,0.10617282,0.11349471,0.00037884712,0.0,0.0,-0.001,0
17140000,0.1062821,0.11370146,0.00042641163,0.0,0.0,-0.001,0
17156000,0.10631697,0.11368364,0.00039553642,0.0,0.0,-0.001,0
17180000,0.106367975,0.11351685,0.0004143119,0.0,0.0,-0.001,0
17200000,0.10635897,0.11353173,0.00040596724,0.0,0.0,-0.001,0
17220000,0.10629376,0.11341393,0.00045269728,0.0,0.0,-0.001,0
17236000,0.10622669,0.11346105,0.00043976307,0.0,0.0,-0.001,0
17260000,0.10622811,0.113324896,0.00042057037,0.0,0.0,-0.001,0
17276000,0.10623376,0.113145545,0.000369668,0.0,0.0,-0.001,0
17300000,0.10618022,0.11309356,0.0004643798,0.0,0.0,-0.001,0
17316000,0.105959274,0.11297548,0.0003838539,0.0,0.0,-0.001,0
17336000,0.105969906,0.11290648,0.00036925077,0.0,0.0,-0.001,0
17356000,0.105809584,0.112745985,0.00040596724,0.0,0.0,-0.001,0
17380000,0.105747014,0.11298302,0.0003041625,0.0,0.0,-0.001,0
17396000,0.10576375,0.11312342,0.00037425756,0.0,0.0,-0.001,0
17416000,0.10579124,0.11314426,0.00036758184,0.0,0.0,-0.001,0
17436000,0.105717726,0.113257736,0.00040763617,0.0,0.0,-0.001,0
17460000,0.10580037,0.11290068,0.0004080534,0.0,0.0,-0.001,0
17476000,0.10600022,0.11271495,0.00038301945,0.0,0.0,-0.001,0
17496000,0.10603181,0.11267235,0.0004259944,0.0,0.0,-0.001,0
17516000,0.10612478,0.112694725,0.00042057037,0.0,0.0,-0.001,0
17536000,0.106429316,0.112756535,0.00040262938,0.0,0.0,-0.001,0
17560000,0.10627784,0.11270147,0.00040471554,0.0,0.0,-0.001,0
17580000,0.10618183,0.11276341,0.0004118085,0.0,0.0,-0.001,0
17600000,0.106271796,0.11268787,0.00043433905,0.0,0.0,-0.001,0
17620000,0.10595931,0.112600565,0.00044226646,0.0,0.0,-0.001,0
17636000,0.10565581,0.112446405,0.0004464388,0.0,0.0,-0.001,0
17660000,0.105374016,0.112494946,0.00043267012,0.0,0.0,-0.001,0
17676000,0.10526693,0.112531364,0.00040721893,0.0,0.0,-0.001,0
17696000,0.10501809,0.112539865,0.0004197359,0.0,0.0,-0.001,0
17720000,0.10478265,0.11255393,0.0004017949,0.0,0.0,-0.001,0
17736000,0.10476018,0.11257602,0.00041097403,0.0,0.0,-0.001,0
17756000,0.104541995,0.112812795,0.00048691034,0.0,0.0,-0.001,0
17780000,0.104483895,0.112589166,0.00042307377,0.0,0.0,-0.001,0
17800000,0.104290545,0.112313785,0.00041764975,0.0,0.0,-0.001,0
17820000,0.104165494,0.11233663,0.00045228004,0.0,0.0,-0.001,0
17836000,0.10418373,0.112264074,0.00042140484,0.0,0.0,-0.001,0
17860000,0.10407537,0.11216834,0.0004439354,0.0,0.0,-0.001,0
17876000,0.10407862,0.11228339,0.0004581213,0.0,0.0,-0.001,0
17900000,0.103940174,0.11219022,0.00045728683,0.0,0.0,-0.001,0
17916000,0.10399366,0.111960724,0.0004297495,0.0,0.0,-0.001,0
17936000,0.104056835,0.11182088,0.0003926158,0.0,0.0,-0.001,0
17956000,0.10405011,0.11162002,0.00045102835,0.0,0.0,-0.001,0
17980000,0.10405937,0.11145985,0.0004093051,0.0,0.0,-0.001,0
17996000,0.10385002,0.11130821,0.0003938675,0.0,0.0,-0.001,0
18020000,0.1035427,0.11125827,0.00037300587,0.0,0.0,-0.001,0
18040000,0.103439175,0.11117314,0.0003784299,0.0,0.0,-0.001,0
18060000,0.103212774,0.11101672,0.00034213066,0.0,0.0,-0.001,0
18076000,0.103257045,0.11094525,0.0003709197,0.0,0.0,-0.001,0
18096000,0.103183374,0.110652275,0.00034463406,0.0,0.0,-0.001,0
18116000,0.10315399,0.11041555,0.00042682886,0.0,0.0,-0.001,0
18136000,0.10329028,0.11045344,0.00036090612,0.0,0.0,-0.001,0
18156000,0.10333526,0.11046164,0.00041264296,0.0,0.0,-0.001,0
18180000,0.10345018,0.11055661,0.00034713745,0.0,0.0,-0.001,0
18196000,0.10359099,0.11076007,0.00038844347,0.0,0.0,-0.001,0
18220000,0.10369913,0.110725105,0.00034838915,0.0,0.0,-0.001,0
18240000,0.10353619,0.11065465,0.00038135052,0.0,0.0,-0.001,0
18260000,0.10338702,0.11065934,0.00036257505,0.0,0.0,-0.001,0
18280000,0.103322364,0.110673845,0.00036633015,0.0,0.0,-0.001,0
18300000,0.10331446,0.1106483,0.00039595366,0.0,0.0,-0.001,0
18316000,0.103257194,0.110424615,0.00036674738,0.0,0.0,-0.001,0
18336000,0.10368907,0.110399805,0.0003579855,0.0,0.0,-0.001,0
18360000,0.103559315,0.11030161,0.00038552284,0.0,0.0,-0.001,0
18380000,0.10360056,0.11017711,0.00035881996,0.0,0.0,-0.001,0
18396000,0.1035684,0.11007628,0.00034463406,0.0,0.0,-0.001,0
18416000,0.103345826,0.11005257,0.00037926435,0.0,0.0,-0.001,0
18436000,0.103086114,0.109947614,0.00041931868,0.0,0.0,-0.001,0
18456000,0.102909654,0.109890446,0.00040346384,0.0,0.0,-0.001,0
18480000,0.10261116,0.10961658,0.0004389286,0.0,0.0,-0.001,0
18496000,0.10254042,0.10968873,0.0004247427,0.0,0.0,-0.001,0
18516000,0.1026381,0.109629005,0.0004568696,0.0,0.0,-0.001,0
18540000,0.102356516,0.109872796,0.00042432547,0.0,0.0,-0.001,0
18556000,0.10233697,0.10987772,0.0004852414,0.0,0.0,-0.001,0
18580000,0.102415115,0.1100294,0.00047940016,0.0,0.0,-0.001,0
18596000,0.10235207,0.110020585,0.0005398989,0.0,0.0,-0.001,0
18616000,0.10243503,0.10977061,0.0004476905,0.0,0.0,-0.001,0
18640000,0.10261894,0.109756574,0.00040221214,0.0,0.0,-0.001,0
18656000,0.10262952,0.10989506,0.000423491,0.0,0.0,-0.001,0
18676000,0.102865525,0.109775536,0.0004965067,0.0,0.0,-0.001,0
18696000,0.10281873,0.10958168,0.00041472912,0.0,0.0,-0.001,0
18716000,0.10298823,0.10936026,0.0004197359,0.0,0.0,-0.001,0
18740000,0.10310562,0.10931072,0.00037175417,0.0,0.0,-0.001,0
18760000,0.1030611,0.10931912,0.0003863573,0.0,0.0,-0.001,0
18776000,0.1028866,0.1092072,0.0003567338,0.0,0.0,-0.001,0
18796000,0.10309768,0.10902229,0.00039219856,0.0,0.0,-0.001,0
18820000,0.103210226,0.1090519,0.00033420324,0.0,0.0,-0.001,0
18840000,0.10331035,0.10893367,0.00035715103,0.0,0.0,-0.001,0
18860000,0.10339952,0.10858324,0.00033169985,0.0,0.0,-0.001,0
18876000,0.103485465,0.10844301,0.00032293797,0.0,0.0,-0.001,0
18900000,0.10351976,0.108243406,0.00039595366,0.0,0.0,-0.001,0
18920000,0.103623025,0.10827926,0.00039762259,0.0,0.0,-0.001,0
18940000,0.103596814,0.108090974,0.00034755468,0.0,0.0,-0.001,0
18956000,0.10365703,0.10803791,0.00028914213,0.0,0.0,-0.001,0
18976000,0.10372423,0.108296245,0.00042015314,0.0,0.0,-0.001,0
18996000,0.10368058,0.10801436,0.0004310012,0.0,0.0,-0.001,0
19016000,0.10361324,0.1082479,0.0003963709,0.0,0.0,-0.001,0
19036000,0.103524685,0.10818438,0.00035506487,0.0,0.0,-0.001,0
19060000,0.10372205,0.107889704,0.00036674738,0.0,0.0,-0.001,0
19076000,0.1038693,0.107839175,0.00041139126,0.0,0.0,-0.001,0
19096000,0.10364188,0.10769937,0.00038093328,0.0,0.0,-0.001,0
19116000,0.10357935,0.107720554,0.0004259944,0.0,0.0,-0.001,0
19140000,0.10361628,0.10768411,0.0003604889,0.0,0.0,-0.001,0
19160000,0.103560045,0.10767868,0.0003746748,0.0,0.0,-0.001,0
19176000,0.10355643,0.1078075,0.0003542304,0.0,0.0,-0.001,0
19196000,0.10368161,0.10787701,0.00038051605,0.0,0.0,-0.001,0
19216000,0.1036438,0.10763566,0.00039762259,0.0,0.0,-0.001,0
19240000,0.103408724,0.10783122,0.00036883354,0.0,0.0,-0.001,0
19256000,0.103264265,0.107727595,0.00038844347,0.0,0.0,-0.001,0
19280000,0.10299537,0.10753441,0.0003579855,0.0,0.0,-0.001,0
19296000,0.10314901,0.10752637,0.00038677454,0.0,0.0,-0.001,0
19320000,0.103156075,0.10723433,0.00039178133,0.0,0.0,-0.001,0
19340000,0.103095636,0.106924415,0.00036883354,0.0,0.0,-0.001,0
19360000,0.10307468,0.10674731,0.0003838539,0.0,0.0,-0.001,0
19376000,0.10306509,0.10668003,0.0003542304,0.0,0.0,-0.001,0
19400000,0.10292397,0.10650876,0.00038677454,0.0,0.0,-0.001,0
19420000,0.10292933,0.10630093,0.00045728683,0.0,0.0,-0.001,0
19436000,0.10289255,0.10631818,0.0004042983,0.0,0.0,-0.001,0
19460000,0.10313273,0.106317684,0.00046730042,0.0,0.0,-0.001,0
19480000,0.10311755,0.10609949,0.00043350458,0.0,0.0,-0.001,0
19500000,0.10299097,0.106171384,0.00047773123,0.0,0.0,-0.001,0
19516000,0.102969065,0.10622463,0.0004618764,0.0,0.0,-0.001,0
19540000,0.102843426,0.10633109,0.00052404404,0.0,0.0,-0.001,0
19560000,0.10274403,0.10624514,0.0003863573,0.0,0.0,-0.001,0
19580000,0.10282291,0.10641091,0.0004197359,0.0,0.0,-0.001,0
19600000,0.10264717,0.10649261,0.00038802624,0.0,0.0,-0.001,0
19620000,0.102740884,0.10636247,0.0004643798,0.0,0.0,-0.001,0
19640000,0.10261133,0.10608052,0.00038176775,0.0,0.0,-0.001,0
19660000,0.10251806,0.106141984,0.00043141842,0.0,0.0,-0.001,0
19680000,0.10239644,0.10608491,0.00038093328,0.0,0.0,-0.001,0
19700000,0.10252893,0.10598895,0.00036340952,0.0,0.0,-0.001,0
19720000,0.102679096,0.10571881,0.00038301945,0.0,0.0,-0.001,0
19736000,0.10280079,0.105656885,0.0003617406,0.0,0.0,-0.001,0
19756000,0.10277502,0.10562337,0.00040096045,0.0,0.0,-0.001,0
19780000,0.10288096,0.10551429,0.00027245283,0.0,0.0,-0.001,0
19796000,0.10301217,0.10558205,0.00030332804,0.0,0.0,-0.001,0
19816000,0.10328362,0.10542621,0.00037884712,0.0,0.0,-0.001,0
19836000,0.10322702,0.105385736,0.0003684163,0.0,0.0,-0.001,0
19860000,0.103268914,0.105428085,0.00037676096,0.0,0.0,-0.001,0
19880000,0.10324834,0.105431765,0.0003579855,0.0,0.0,-0.001,0
19900000,0.10350275,0.10549379,0.00037759542,0.0,0.0,-0.001,0
19916000,0.10357609,0.105274335,0.00033795834,0.0,0.0,-0.001,0
19936000,0.10345188,0.10496863,0.0003684163,0.0,0.0,-0.001,0
19956000,0.10348198,0.105062954,0.0003863573,0.0,0.0,-0.001,0
19976000,0.103564665,0.10511192,0.00037384033,0.0,0.0,-0.001,0
20000000,0.10368131,0.104866445,0.0003492236,0.0,0.0,-0.001,0
20020000,0.10323817,0.104794756,0.00037509203,0.0,0.0,-0.001,0
20040000,0.10305641,0.10496728,0.00037884712,0.0,0.0,-0.001,0
20060000,0.103158034,0.104980364,0.000423491,0.0,0.0,-0.001,0
20080000,0.10302573,0.10475626,0.00038969517,0.0,0.0,-0.001,0
20100000,0.10272417,0.104722805,0.00031626225,0.0,0.0,-0.001,0
20116000,0.10264297,0.10458064,0.0004005432,0.0,0.0,-0.001,0
20136000,0.10288526,0.10456507,0.0003771782,0.0,0.0,-0.001,0
20156000,0.102855176,0.10449089,0.00037175417,0.0,0.0,-0.001,0
20180000,0.10279253,0.10432369,0.0004531145,0.0,0.0,-0.001,0
20196000,0.10285388,0.10421309,0.00031125546,0.0,0.0,-0.001,0
20220000,0.1024416,0.10398486,0.0003350377,0.0,0.0,-0.001,0
20240000,0.10224939,0.10370695,0.00034421682,0.0,0.0,-0.001,0
20260000,0.10199026,0.103746265,0.00040471554,0.0,0.0,-0.001,0
20276000,0.10199015,0.10364465,0.00033670664,0.0,0.0,-0.001,0
20300000,0.10178244,0.103553295,0.00036549568,0.0,0.0,-0.001,0
20320000,0.10171726,0.103198655,0.00034463406,0.0,0.0,-0.001,0
20340000,0.1016014,0.10325655,0.0003196001,0.0,0.0,-0.001,0
20360000,0.10153167,0.10357408,0.00033921003,0.0,0.0,-0.001,0
20380000,0.10163288,0.10337473,0.000328362,0.0,0.0,-0.001,0
20396000,0.101237334,0.10308929,0.00031626225,0.0,0.0,-0.001,0
20416000,0.10102675,0.10297263,0.00034588575,0.0,0.0,-0.001,0
20440000,0.10071692,0.10281793,0.0003183484,0.0,0.0,-0.001,0
20456000,0.10060252,0.10259419,0.00034672022,0.0,0.0,-0.001,0
20480000,0.10046676,0.10252641,0.00035756826,0.0,0.0,-0.001,0
20500000,0.100453496,0.10223271,0.00029248,0.0,0.0,-0.001,0
20516000,0.10043835,0.102228746,0.00038594007,0.0,0.0,-0.001,0
20536000,0.100204594,0.102199085,0.00034338236,0.0,0.0,-0.001,0
20556000,0.09976457,0.10215947,0.00035840273,0.0,0.0,-0.001,0
20580000,0.099840894,0.10224071,0.0003796816,0.0,0.0,-0.001,0
20600000,0.10001657,0.10247267,0.00037509203,0.0,0.0,-0.001,0
20616000,0.1001248,0.10246904,0.000369668,0.0,0.0,-0.001,0
20640000,0.10001841,0.102395184,0.00038218498,0.0,0.0,-0.001,0
20660000,0.099910855,0.1024229,0.0003629923,0.0,0.0,-0.001,0
20680000,0.09970534,0.10240473,0.0003387928,0.0,0.0,-0.001,0
20700000,0.099456206,0.10227663,0.00038677454,0.0,0.0,-0.001,0
20720000,0.09939718,0.10225353,0.00035005808,0.0,0.0,-0.001,0
20740000,0.09955947,0.101942316,0.00040847063,0.0,0.0,-0.001,0
20756000,0.099642985,0.10229897,0.00040888786,0.0,0.0,-0.001,0
20780000,0.09986462,0.1022567,0.00041598082,0.0,0.0,-0.001,0
20796000,0.09984246,0.10226886,0.00042265654,0.0,0.0,-0.001,0
20816000,0.099796765,0.10233282,0.00034880638,0.0,0.0,-0.001,0
20840000,0.09965095,0.102456324,0.00035506487,0.0,0.0,-0.001,0
20856000,0.09937373,0.10265778,0.00033211708,0.0,0.0,-0.001,0
20876000,0.099417835,0.102718845,0.00038468838,0.0,0.0,-0.001,0
20900000,0.099195965,0.10269171,0.00034463406,0.0,0.0,-0.001,0
20920000,0.099206425,0.102525435,0.00034588575,0.0,0.0,-0.001,0
20936000,0.09904949,0.102439776,0.00031667948,0.0,0.0,-0.001,0
20956000,0.099050194,0.102434844,0.000346303,0.0,0.0,-0.001,0
20980000,0.098893784,0.10239689,0.00033545494,0.0,0.0,-0.001,0
21000000,0.09890666,0.10203768,0.0003296137,0.0,0.0,-0.001,0
21020000,0.098990455,0.10178227,0.00032919645,0.0,0.0,-0.001,0
21036000,0.099118575,0.101611085,0.00037550926,0.0,0.0,-0.001,0
21060000,0.099237405,0.10155976,0.00031292439,0.0,0.0,-0.001,0
21076000,0.09928484,0.10137433,0.0002824664,0.0,0.0,-0.001,0
21100000,0.09960827,0.101253524,0.0002707839,0.0,0.0,-0.001,0
21120000,0.099609576,0.101243876,0.00033462048,0.0,0.0,-0.001,0
21136000,0.09959729,0.10112482,0.00033670664,0.0,0.0,-0.001,0
21156000,0.099867865,0.100821026,0.00030875206,0.0,0.0,-0.001,0
21176000,0.09981411,0.100447364,0.00032877922,0.0,0.0,-0.001,0
21200000,0.099669315,0.10029084,0.00036466122,0.0,0.0,-0.001,0
21220000,0.09952473,0.10046941,0.00037801266,0.0,0.0,-0.001,0
21240000,0.099452555,0.10083796,0.00032794476,0.0,0.0,-0.001,0
21260000,0.099192455,0.10092942,0.00032043457,0.0,0.0,-0.001,0
21276000,0.09903454,0.100896426,0.00039970875,0.0,0.0,-0.001,0
21296000,0.09893009,0.100895494,0.00036549568,0.0,0.0,-0.001,0
21316000,0.09899148,0.10096455,0.00036674738,0.0,0.0,-0.001,0
21340000,0.09884851,0.10111938,0.00038343668,0.0,0.0,-0.001,0
21360000,0.09895773,0.10124093,0.0003671646,0.0,0.0,-0.001,0
21380000,0.098941065,0.100982875,0.000369668,0.0,0.0,-0.001,0
21400000,0.098793626,0.100689664,0.0003604889,0.0,0.0,-0.001,0
21416000,0.09877377,0.100541286,0.0003362894,0.0,0.0,-0.001,0
21436000,0.09882558,0.100363314,0.000346303,0.0,0.0,-0.001,0
21460000,0.09903399,0.10031486,0.00033336878,0.0,0.0,-0.001,0
21476000,0.0990212,0.100494266,0.000310421,0.0,0.0,-0.001,0
21500000,0.099193834,0.10073729,0.00025200844,0.0,0.0,-0.001,0
21516000,0.09927479,0.10084016,0.0003004074,0.0,0.0,-0.001,0
21540000,0.09931967,0.10052903,0.00027954578,0.0,0.0,-0.001,0
21560000,0.09923003,0.10058946,0.0002991557,0.0,0.0,-0.001,0
21580000,0.09914902,0.100745685,0.00026744604,0.0,0.0,-0.001,0
21600000,0.099390164,0.10094907,0.00033837557,0.0,0.0,-0.001,0
21620000,0.09915637,0.10108219,0.00028580427,0.0,0.0,-0.001,0
21640000,0.099003606,0.10106472,0.00029039383,0.0,0.0,-0.001,0
21660000,0.09908349,0.101243354,0.00031793118,0.0,0.0,-0.001,0
21680000,0.09909915,0.101492636,0.00030082464,0.0,0.0,-0.001,0
21696000,0.09916886,0.1017918,0.00030249357,0.0,0.0,-0.001,0
21716000,0.09920817,0.10170717,0.00026786327,0.0,0.0,-0.001,0
21736000,0.09915922,0.10164149,0.000351727,0.0,0.0,-0.001,0
21760000,0.09888856,0.10181105,0.00035965443,0.0,0.0,-0.001,0
21780000,0.09883075,0.10162356,0.00042515993,0.0,0.0,-0.001,0
21800000,0.09893002,0.10180519,0.00036090612,0.0,0.0,-0.001,0
21820000,0.09899712,0.10208667,0.0004030466,0.0,0.0,-0.001,0
21840000,0.09901758,0.10200428,0.00036674738,0.0,0.0,-0.001,0
21860000,0.09881429,0.1021358,0.00036883354,0.0,0.0,-0.001,0
21880000,0.09886244,0.10210897,0.00038218498,0.0,0.0,-0.001,0
21900000,0.09880009,0.10189687,0.0004297495,0.0,0.0,-0.001,0
21920000,0.09863279,0.10187446,0.00033587217,0.0,0.0,-0.001,0
21940000,0.09860688,0.10193325,0.00035965443,0.0,0.0,-0.001,0
21960000,0.098631606,0.101830855,0.00034338236,0.0,0.0,-0.001,0
21980000,0.09887236,0.10186534,0.00040137768,0.0,0.0,-0.001,0
22000000,0.098797455,0.10204156,0.0003183484,0.0,0.0,-0.001,0
22020000,0.098512955,0.101731695,0.00029206276,0.0,0.0,-0.001,0
22040000,0.09875311,0.101720646,0.00031542778,0.0,0.0,-0.001,0
22060000,0.098336324,0.101922795,0.00026661158,0.0,0.0,-0.001,0
22080000,0.09825993,0.10164572,0.00028705597,0.0,0.0,-0.001,0
22100000,0.09826372,0.101602,0.00032252073,0.0,0.0,-0.001,0
22116000,0.09814364,0.10163117,0.00027495623,0.0,0.0,-0.001,0
22140000,0.098422654,0.10154299,0.0003208518,0.0,0.0,-0.001,0
22160000,0.098331705,0.101552084,0.0003170967,0.0,0.0,-0.001,0
22176000,0.09830402,0.101478755,0.00033420324,0.0,0.0,-0.001,0
22196000,0.09818787,0.10136126,0.00024366379,0.0,0.0,-0.001,0
22216000,0.09808403,0.10133218,0.00029248,0.0,0.0,-0.001,0
22236000,0.09806321,0.101236895,0.00023657084,0.0,0.0,-0.001,0
22260000,0.09811039,0.10124087,0.00029790401,0.0,0.0,-0.001,0
22276000,0.09808714,0.101327546,0.0002707839,0.0,0.0,-0.001,0
22296000,0.098167196,0.10120697,0.0003350377,0.0,0.0,-0.001,0
22316000,0.09796895,0.10115805,0.000274539,0.0,0.0,-0.001,0
22340000,0.09782259,0.10132697,0.00040012598,0.0,0.0,-0.001,0
22356000,0.09781426,0.10134594,0.0004376769,0.0,0.0,-0.001,0
22376000,0.09774203,0.101345144,0.00038969517,0.0,0.0,-0.001,0
22396000,0.097634695,0.10108882,0.0004259944,0.0,0.0,-0.001,0
22416000,0.09742997,0.10119396,0.00040388107,0.0,0.0,-0.001,0
22440000,0.09723741,0.10125751,0.00036799908,0.0,0.0,-0.001,0
22460000,0.09723893,0.10120494,0.00035130978,0.0,0.0,-0.001,0
22480000,0.09698847,0.10122402,0.0003296137,0.0,0.0,-0.001,0
22500000,0.09711492,0.10120366,0.00035130978,0.0,0.0,-0.001,0
22516000,0.09690271,0.10111995,0.00029289722,0.0,0.0,-0.001,0
22540000,0.09680901,0.101094045,0.00032794476,0.0,0.0,-0.001,0
22556000,0.09675814,0.10122369,0.00035089254,0.0,0.0,-0.001,0
22576000,0.096756086,0.101075135,0.00032502413,0.0,0.0,-0.001,0
22596000,0.09681274,0.10113446,0.00031626225,0.0,0.0,-0.001,0
22616000,0.09676366,0.10095014,0.00034672022,0.0,0.0,-0.001,0
22636000,0.09678935,0.10084087,0.00044810772,0.0,0.0,-0.001,0
22656000,0.09664988,0.100680195,0.00034296513,0.0,0.0,-0.001,0
22676000,0.096588805,0.100571245,0.00033086538,0.0,0.0,-0.001,0
22700000,0.09637489,0.10016909,0.00033420324,0.0,0.0,-0.001,0
22716000,0.09651376,0.100101076,0.00036758184,0.0,0.0,-0.001,0
22740000,0.09628347,0.100045845,0.00036549568,0.0,0.0,-0.001,0
22760000,0.09630765,0.09982034,0.00032126904,0.0,0.0,-0.001,0
22780000,0.09644459,0.099952675,0.00032168627,0.0,0.0,-0.001,0
22800000,0.09659509,0.10012912,0.00028914213,0.0,0.0,-0.001,0
22820000,0.09677878,0.10041998,0.0002949834,0.0,0.0,-0.001,0
22840000,0.09650129,0.100840315,0.0002782941,0.0,0.0,-0.001,0
22856000,0.09656644,0.100647375,0.00033211708,0.0,0.0,-0.001,0
22880000,0.09647912,0.10081672,0.0003246069,0.0,0.0,-0.001,0
22900000,0.096606866,0.10074973,0.00036257505,0.0,0.0,-0.001,0
22920000,0.096594766,0.100662746,0.000333786,0.0,0.0,-0.001,0
22940000,0.096461356,0.100628294,0.0003079176,0.0,0.0,-0.001,0
22956000,0.09640624,0.100912586,0.000346303,0.0,0.0,-0.001,0
22976000,0.09642726,0.10064231,0.00033587217,0.0,0.0,-0.001,0
22996000,0.09637767,0.100492336,0.00038927794,0.0,0.0,-0.001,0
23020000,0.09636453,0.10054038,0.00033545494,0.0,0.0,-0.001,0
23040000,0.09651661,0.10030431,0.00033545494,0.0,0.0,-0.001,0
23060000,0.096503325,0.10029492,0.00033336878,0.0,0.0,-0.001,0
23080000,0.09650301,0.10028728,0.00029164553,0.0,0.0,-0.001,0
23100000,0.0965191,0.10026624,0.00032877922,0.0,0.0,-0.001,0
23120000,0.09671528,0.1002074,0.00031501055,0.0,0.0,-0.001,0
23140000,0.096566804,0.10058154,0.00027996302,0.0,0.0,-0.001,0
23156000,0.096743174,0.10079846,0.0002837181,0.0,0.0,-0.001,0
23180000,0.096786425,0.100631066,0.0003233552,0.0,0.0,-0.001,0
23196000,0.096745096,0.10036568,0.00030624866,0.0,0.0,-0.001,0
23216000,0.09675066,0.100249074,0.00033169985,0.0,0.0,-0.001,0
23236000,0.0966512,0.10049442,0.0003271103,0.0,0.0,-0.001,0
23256000,0.09655063,0.10036828,0.00029999018,0.0,0.0,-0.001,0
23276000,0.09657184,0.10041911,0.00028288364,0.0,0.0,-0.001,0
23300000,0.096664146,0.100387886,0.00032752752,0.0,0.0,-0.001,0
23320000,0.096841514,0.1001233,0.00031501055,0.0,0.0,-0.001,0
23340000,0.09685361,0.10017623,0.00029248,0.0,0.0,-0.001,0
23356000,0.09688084,0.10042973,0.00029039383,0.0,0.0,-0.001,0
23380000,0.09686574,0.10078295,0.00022155046,0.0,0.0,-0.001,0
23400000,0.0966941,0.100741275,0.00035339594,0.0,0.0,-0.001,0
23420000,0.09691833,0.100652345,0.00024950504,0.0,0.0,-0.001,0
23436000,0.09679891,0.10079834,0.00031626225,0.0,0.0,-0.001,0
23460000,0.09681091,0.10065761,0.0003183484,0.0,0.0,-0.001,0
23480000,0.0968288,0.10084208,0.00033670664,0.0,0.0,-0.001,0
23500000,0.096608415,0.100637555,0.00031876564,0.0,0.0,-0.001,0
23520000,0.09680531,0.10039303,0.00030624866,0.0,0.0,-0.001,0
23540000,0.09670367,0.10008531,0.00030374527,0.0,0.0,-0.001,0
23556000,0.096705556,0.09994477,0.0003629923,0.0,0.0,-0.001,0
23580000,0.09644254,0.099906206,0.00034296513,0.0,0.0,-0.001,0
23596000,0.096536584,0.100005984,0.00028455257,0.0,0.0,-0.001,0
23620000,0.096635304,0.099949084,0.00033086538,0.0,0.0,-0.001,0
23640000,0.096425235,0.09975385,0.00031918287,0.0,0.0,-0.001,0
23660000,0.09672719,0.0996498,0.00032043457,0.0,0.0,-0.001,0
23680000,0.09667176,0.099544175,0.00031083822,0.0,0.0,-0.001,0
23696000,0.0965876,0.09937685,0.00028288364,0.0,0.0,-0.001,0
23716000,0.09662321,0.0995722,0.0002553463,0.0,0.0,-0.001,0
23736000,0.09646806,0.09961834,0.00029206276,0.0,0.0,-0.001,0
23756000,0.09654595,0.099818535,0.00028038025,0.0,0.0,-0.001,0
23780000,0.096417926,0.09981987,0.00027662516,0.0,0.0,-0.001,0
23800000,0.09649753,0.09987729,0.00032752752,0.0,0.0,-0.001,0
23816000,0.096537605,0.09992464,0.00032752752,0.0,0.0,-0.001,0
23840000,0.09663946,0.10008286,0.00030750036,0.0,0.0,-0.001,0
23860000,0.09654086,0.09993673,0.0002837181,0.0,0.0,-0.001,0
23880000,0.09645116,0.09997199,0.000351727,0.0,0.0,-0.001,0
23900000,0.096491024,0.09970221,0.0003029108,0.0,0.0,-0.001,0
23920000,0.09649214,0.09961498,0.00032377243,0.0,0.0,-0.001,0
23936000,0.096395135,0.099798806,0.00032418966,0.0,0.0,-0.001,0
23960000,0.09628591,0.09979843,0.0003091693,0.0,0.0,-0.001,0
23980000,0.09606824,0.099588886,0.00029414892,0.0,0.0,-0.001,0
23996000,0.09609618,0.099557206,0.00032544136,0.0,0.0,-0.001,0
24020000,0.096000314,0.09955001,0.00032293797,0.0,0.0,-0.001,0
24040000,0.09605164,0.09932754,0.00029581785,0.0,0.0,-0.001,0
24060000,0.09606456,0.09944866,0.0003617406,0.0,0.0,-0.001,0
