timestamp,timestamp_sample,gps_hvel[0],gps_hvel[1],gps_vvel,gps_hpos[0],gps_hpos[1],gps_vpos,ev_hvel[0],ev_hvel[1],ev_vvel,ev_hpos[0],ev_hpos[1],ev_vpos,rng_vpos,baro_vpos,aux_hvel[0],aux_hvel[1],aux_vvel,flow[0],flow[1],terr_flow[0],terr_flow[1],heading,mag_field[0],mag_field[1],mag_field[2],gravity[0],gravity[1],gravity[2],drag[0],drag[1],airspeed,beta,hagl,hagl_rate
3644000,3564000,0.13517632,0.13518374,0.2053005,1.0001314,1.0001314,51.0,0.0,0.0,0.0,0.0,0.0,0.0,0.0,62.249985,0.0,0.0,nan,0.0,0.0,0.0,0.0,0.0,0.0,0.0,0.0,1.100414,1.1004351,1.0000906,0.0,0.0,0.0,0.0,0.0,0.0
4148000,4068000,0.09496655,0.09496687,0.20400357,1.0000918,1.0000918,26.000025,0.0,0.0,0.0,0.0,0.0,0.0,0.0,37.250107,0.0,0.0,nan,0.0,0.0,0.0,0.0,0.0,0.0,0.0,0.0,1.2204714,1.2205119,1.0002146,0.0,0.0,0.0,0.0,0.0,0.0
4652000,4572000,0.09956926,0.09956948,0.20701146,1.0005435,1.0005435,3.2314754,0.0,0.0,0.0,0.0,0.0,0.0,0.0,13.541327,0.0,0.0,nan,0.0,0.0,0.0,0.0,0.0,0.0,0.0,0.0,1.084939,1.0849459,1.0000833,0.0,0.0,0.0,0.0,0.0,0.0
5148000,5068000,0.09537507,0.09537495,0.20987804,1.0003363,1.0003363,1.9815286,0.0,0.0,0.0,0.0,0.0,0.0,0.0,12.95193,0.0,0.0,nan,0.0,0.0,0.0,0.0,0.0,0.0,0.0,0.0,1.0746683,1.0746746,1.0000718,0.0,0.0,0.0,0.0,0.0,0.0
5652000,5572000,0.09233278,0.092332736,0.21148773,1.0001898,1.0001898,1.4654032,0.0,0.0,0.0,0.0,0.0,0.0,0.0,12.733783,0.0,0.0,nan,0.0,0.0,0.0,0.0,0.0,0.0,0.0,0.0,1.0686548,1.0686629,1.0000638,0.0,0.0,0.0,0.0,0.0,0.0
6148000,6068000,0.09171994,0.09171991,0.21105018,1.0001527,1.0001527,1.3814344,0.0,0.0,0.0,0.0,0.0,0.0,0.0,12.60986,0.0,0.0,nan,0.0,0.0,0.0,0.0,0.0,0.0,0.0,0.0,1.0632616,1.0632685,1.0000584,0.0,0.0,0.0,0.0,0.0,0.0
6652000,6572000,0.091376476,0.091376446,0.21042442,1.0001287,1.0001287,1.3157136,0.0,0.0,0.0,0.0,0.0,0.0,0.0,12.544595,0.0,0.0,nan,0.0,0.0,0.0,0.0,0.0,0.0,0.0,0.0,1.0624067,1.0624139,1.0000563,0.0,0.0,0.0,0.0,0.0,0.0
7148000,7068000,0.0911619,0.09116189,0.2097959,1.0001118,1.0001118,1.2700648,0.0,0.0,0.0,0.0,0.0,0.0,0.0,12.49543,0.0,0.0,nan,0.0,0.0,0.0,0.0,0.0,0.0,0.0,0.0,1.0610765,1.0610847,1.0000539,0.0,0.0,0.0,0.0,0.0,0.0
7652000,7572000,0.09090757,0.09090755,0.20873977,1.000089,1.000089,1.214764,0.0,0.0,0.0,0.0,0.0,0.0,0.0,12.4652195,0.0,0.0,nan,0.0,0.0,0.0,0.0,0.0,0.0,0.0,0.0,1.0608932,1.0609007,1.0000532,0.0,0.0,0.0,0.0,0.0,0.0
8148000,8068000,0.09082399,0.090823986,0.20833394,1.0000808,1.0000808,1.1940295,0.0,0.0,0.0,0.0,0.0,0.0,0.0,12.4423895,0.0,0.0,nan,0.0,0.0,0.0,0.0,0.0,0.0,0.0,0.0,1.0607489,1.0607555,1.0000527,0.0,0.0,0.0,0.0,0.0,0.0
8644000,8564000,0.09075665,0.09075665,0.20801643,1.0000739,1.0000739,1.1774051,0.0,0.0,0.0,0.0,0.0,0.0,0.0,12.421823,0.0,0.0,nan,0.0,0.0,0.0,0.0,0.0,0.0,0.0,0.0,1.0602788,1.0602844,1.0000511,0.0,0.0,0.0,0.0,0.0,0.0
9148000,9068000,0.090712555,0.09071257,0.2085705,1.0000685,1.0000685,1.1675036,0.0,0.0,0.0,0.0,0.0,0.0,0.0,12.965675,0.0,0.0,nan,0.0,0.0,0.0,0.0,0.0,0.0,0.0,0.0,1.0602124,1.0602177,1.0000502,0.0,0.0,0.0,0.0,0.0,0.0
9644000,9564000,0.09106298,0.091063045,0.20818372,1.000148,1.000148,1.319528,0.0,0.0,0.0,0.0,0.0,0.0,0.0,12.506511,0.0,0.0,nan,0.0,0.0,0.0,0.0,0.0,0.0,0.0,0.0,1.059933,1.0599377,1.0000495,0.0,0.0,0.0,0.0,0.0,0.0
10148000,10068000,0.090998836,0.090998866,0.20804568,1.0001361,1.0001361,1.2181581,0.0,0.0,0.0,0.0,0.0,0.0,0.0,12.446712,0.0,0.0,nan,0.0,0.0,0.0,0.0,0.0,0.0,0.0,0.0,1.0599179,1.0599217,1.0000482,0.0,0.0,0.0,0.0,0.0,0.0
10644000,10564000,0.09094235,0.09094229,0.20792995,1.0001254,1.0001254,1.1644751,0.0,0.0,0.0,0.0,0.0,0.0,0.0,12.417579,0.0,0.0,nan,0.0,0.0,0.0,0.0,0.0,0.0,0.0,0.0,1.0599105,1.0599141,1.0000476,0.0,0.0,0.0,0.0,0.0,0.0
11148000,11068000,0.090892166,0.09089205,0.20783052,1.0001159,1.0001159,1.1329497,0.0,0.0,0.0,0.0,0.0,0.0,0.0,12.402052,0.0,0.0,nan,0.0,0.0,0.0,0.0,0.0,0.0,0.0,0.0,1.0597622,1.0597665,1.0000464,0.0,0.0,0.0,0.0,0.0,0.0
11644000,11564000,0.09080444,0.090804294,0.20766577,1.0000993,1.0000992,1.0988802,0.0,0.0,0.0,0.0,0.0,0.0,0.0,12.385333,0.0,0.0,nan,0.0,0.0,0.0,0.0,0.0,0.0,0.0,0.0,1.0597812,1.0597851,1.0000458,0.0,0.0,0.0,0.0,0.0,0.0
12148000,12068000,0.09076566,0.09076551,0.20759301,1.000092,1.000092,1.088273,0.0,0.0,0.0,0.0,0.0,0.0,0.0,12.383272,0.0,0.0,nan,0.0,0.0,0.0,0.0,0.0,0.0,0.0,0.0,1.0596987,1.0597026,1.000045,0.0,0.0,0.0,0.0,0.0,0.0
12644000,12564000,0.09072982,0.090729676,0.2075251,1.0000855,1.0000855,1.0802765,0.0,0.0,0.0,0.0,0.0,0.0,0.0,12.383263,0.0,0.0,nan,0.0,0.0,0.0,0.0,0.0,0.0,0.0,0.0,1.0597149,1.0597197,1.0000446,0.0,0.0,0.0,0.0,0.0,0.0
13148000,13068000,0.09069571,0.09069561,0.20746386,1.0000795,1.0000795,1.0745314,0.0,0.0,0.0,0.0,0.0,0.0,0.0,12.3844595,0.0,0.0,nan,0.0,0.0,0.0,0.0,0.0,0.0,0.0,0.0,1.0596144,1.0596191,1.0000443,0.0,0.0,0.0,0.0,0.0,0.0
13652000,13572000,0.09063264,0.09063258,0.20734407,1.0000689,1.0000689,1.0655915,0.0,0.0,0.0,0.0,0.0,0.0,0.0,12.3819,0.0,0.0,nan,0.0,0.0,0.0,0.0,0.0,0.0,0.0,0.0,1.0596197,1.0596236,1.000044,0.0,0.0,0.0,0.0,0.0,0.0
14148000,14068000,0.0906129,0.09061285,0.20794815,1.0000647,1.0000647,1.0635289,0.0,0.0,0.0,0.0,0.0,0.0,0.0,12.384557,0.0,0.0,nan,0.0,0.0,0.0,0.0,0.0,0.0,0.0,0.0,1.0596216,1.0596254,1.0000436,0.0,0.0,0.0,0.0,0.0,0.0
14644000,14564000,0.09058435,0.09058426,0.20788775,1.0000604,1.0000604,1.0611806,0.0,0.0,0.0,0.0,0.0,0.0,0.0,12.386893,0.0,0.0,nan,0.0,0.0,0.0,0.0,0.0,0.0,0.0,0.0,1.0595216,1.0595249,1.0000427,0.0,0.0,0.0,0.0,0.0,0.0
15148000,15068000,0.090906575,0.090906344,0.20782956,1.0001354,1.0001354,1.0589497,0.0,0.0,0.0,0.0,0.0,0.0,0.0,12.389676,0.0,0.0,nan,0.0,0.0,0.0,0.0,0.0,0.0,0.0,0.0,1.0595242,1.0595278,1.0000416,0.0,0.0,0.0,0.0,0.0,0.0
15652000,15572000,0.09083907,0.09083887,0.2077185,1.0001179,1.0001178,1.0554845,0.0,0.0,0.0,0.0,0.0,0.0,0.0,12.389967,0.0,0.0,nan,0.0,0.0,0.0,0.0,0.0,0.0,0.0,0.0,1.0594386,1.0594425,1.0000404,0.0,0.0,0.0,0.0,0.0,0.0
16148000,16068000,0.090807095,0.090806894,0.20766544,1.0001099,1.0001099,1.0541322,0.0,0.0,0.0,0.0,0.0,0.0,0.0,12.391038,0.0,0.0,nan,0.0,0.0,0.0,0.0,0.0,0.0,0.0,0.0,1.0594469,1.0594507,1.0000387,0.0,0.0,0.0,0.0,0.0,0.0
16652000,16572000,0.09077634,0.09077609,0.20761786,1.0001025,1.0001025,1.0531976,0.0,0.0,0.0,0.0,0.0,0.0,0.0,12.394815,0.0,0.0,nan,0.0,0.0,0.0,0.0,0.0,0.0,0.0,0.0,1.0594645,1.059468,1.000038,0.0,0.0,0.0,0.0,0.0,0.0
17148000,17068000,0.09074638,0.090746105,0.20756643,1.0000956,1.0000956,1.0521811,0.0,0.0,0.0,0.0,0.0,0.0,0.0,12.3959675,0.0,0.0,nan,0.0,0.0,0.0,0.0,0.0,0.0,0.0,0.0,1.0594131,1.0594181,1.000038,0.0,0.0,0.0,0.0,0.0,0.0
17644000,17564000,0.090689436,0.0906892,0.20746972,1.0000833,1.0000833,1.0507269,0.0,0.0,0.0,0.0,0.0,0.0,0.0,12.395824,0.0,0.0,nan,0.0,0.0,0.0,0.0,0.0,0.0,0.0,0.0,1.0594399,1.059446,1.0000377,0.0,0.0,0.0,0.0,0.0,0.0
18148000,18068000,0.09066221,0.09066205,0.20741996,1.0000777,1.0000777,1.0500379,0.0,0.0,0.0,0.0,0.0,0.0,0.0,12.398871,0.0,0.0,nan,0.0,0.0,0.0,0.0,0.0,0.0,0.0,0.0,1.0593855,1.0593935,1.0000364,0.0,0.0,0.0,0.0,0.0,0.0
18644000,18564000,0.090635195,0.090635106,0.20737103,1.0000726,1.0000726,1.0494277,0.0,0.0,0.0,0.0,0.0,0.0,0.0,12.39932,0.0,0.0,nan,0.0,0.0,0.0,0.0,0.0,0.0,0.0,0.0,1.0593908,1.0594007,1.0000358,0.0,0.0,0.0,0.0,0.0,0.0
19148000,19068000,0.09060899,0.09060893,0.20732689,1.0000678,1.0000678,1.0488878,0.0,0.0,0.0,0.0,0.0,0.0,0.0,12.401272,0.0,0.0,nan,0.0,0.0,0.0,0.0,0.0,0.0,0.0,0.0,1.0594105,1.0594211,1.0000353,0.0,0.0,0.0,0.0,0.0,0.0
19652000,19572000,0.090567224,0.09056719,0.2078811,1.0000597,1.0000597,1.0495648,0.0,0.0,0.0,0.0,0.0,0.0,0.0,12.399976,0.0,0.0,nan,0.0,0.0,0.0,0.0,0.0,0.0,0.0,0.0,1.059365,1.059377,1.0000345,0.0,0.0,0.0,0.0,0.0,0.0
20148000,20068000,0.09087193,0.09087186,0.20782995,1.0001326,1.0001326,1.0491493,0.0,0.0,0.0,0.0,0.0,0.0,0.0,12.401688,0.0,0.0,nan,0.0,0.0,0.0,0.0,0.0,0.0,0.0,0.0,1.059377,1.0593897,1.0000341,0.0,0.0,0.0,0.0,0.0,0.0
20652000,20572000,0.09084253,0.09084249,0.207784,1.000124,1.000124,1.0489626,0.0,0.0,0.0,0.0,0.0,0.0,0.0,12.404056,0.0,0.0,nan,0.0,0.0,0.0,0.0,0.0,0.0,0.0,0.0,1.0593228,1.0593371,1.0000324,0.0,0.0,0.0,0.0,0.0,0.0
21148000,21068000,0.09081361,0.090813585,0.207733,1.0001159,1.0001159,1.0486109,0.0,0.0,0.0,0.0,0.0,0.0,0.0,12.404173,0.0,0.0,nan,0.0,0.0,0.0,0.0,0.0,0.0,0.0,0.0,1.0593327,1.0593485,1.0000323,0.0,0.0,0.0,0.0,0.0,0.0
21652000,21572000,0.090757556,0.0907575,0.20763615,1.0001012,1.0001012,1.0481708,0.0,0.0,0.0,0.0,0.0,0.0,0.0,12.403398,0.0,0.0,nan,0.0,0.0,0.0,0.0,0.0,0.0,0.0,0.0,1.0593551,1.0593715,1.0000324,0.0,0.0,0.0,0.0,0.0,0.0
22148000,22068000,0.090730496,0.09073041,0.20758581,1.0000947,1.0000947,1.0478878,0.0,0.0,0.0,0.0,0.0,0.0,0.0,12.404351,0.0,0.0,nan,0.0,0.0,0.0,0.0,0.0,0.0,0.0,0.0,1.0593103,1.059328,1.000033,0.0,0.0,0.0,0.0,0.0,0.0
22652000,22572000,0.09070372,0.09070364,0.20753552,1.0000885,1.0000885,1.0476222,0.0,0.0,0.0,0.0,0.0,0.0,0.0,12.405635,0.0,0.0,nan,0.0,0.0,0.0,0.0,0.0,0.0,0.0,0.0,1.0593293,1.0593473,1.0000325,0.0,0.0,0.0,0.0,0.0,0.0
23148000,23068000,0.0906774,0.09067731,0.20748992,1.0000826,1.0000826,1.0475551,0.0,0.0,0.0,0.0,0.0,0.0,0.0,12.406899,0.0,0.0,nan,0.0,0.0,0.0,0.0,0.0,0.0,0.0,0.0,1.0593004,1.0593182,1.0000322,0.0,0.0,0.0,0.0,0.0,0.0
23644000,23564000,0.09062626,0.09062618,0.20739105,1.0000721,1.0000721,1.0470991,0.0,0.0,0.0,0.0,0.0,0.0,0.0,12.404456,0.0,0.0,nan,0.0,0.0,0.0,0.0,0.0,0.0,0.0,0.0,1.0593319,1.0593499,1.000032,0.0,0.0,0.0,0.0,0.0,0.0
24148000,24068000,0.09060148,0.090601414,0.2073422,1.0000675,1.0000675,1.0468931,0.0,0.0,0.0,0.0,0.0,0.0,0.0,12.406039,0.0,0.0,nan,0.0,0.0,0.0,0.0,0.0,0.0,0.0,0.0,1.0593638,1.0593818,1.0000315,0.0,0.0,0.0,0.0,0.0,0.0
24652000,24572000,0.09058582,0.09058576,0.20795143,1.0000637,1.0000637,1.0481124,0.0,0.0,0.0,0.0,0.0,0.0,0.0,12.405866,0.0,0.0,nan,0.0,0.0,0.0,0.0,0.0,0.0,0.0,0.0,1.059324,1.0593421,1.0000305,0.0,0.0,0.0,0.0,0.0,0.0
25148000,25068000,0.09056148,0.09056141,0.20790383,1.0000595,1.0000595,1.0480871,0.0,0.0,0.0,0.0,0.0,0.0,0.0,12.40698,0.0,0.0,nan,0.0,0.0,0.0,0.0,0.0,0.0,0.0,0.0,1.0593363,1.0593545,1.0000305,0.0,0.0,0.0,0.0,0.0,0.0
25644000,25564000,0.090831995,0.09083187,0.2077985,1.0001231,1.0001231,1.0476813,0.0,0.0,0.0,0.0,0.0,0.0,0.0,12.406306,0.0,0.0,nan,0.0,0.0,0.0,0.0,0.0,0.0,0.0,0.0,1.0593019,1.0593213,1.000031,0.0,0.0,0.0,0.0,0.0,0.0
26148000,26068000,0.09080458,0.09080442,0.20774671,1.0001153,1.0001152,1.0474946,0.0,0.0,0.0,0.0,0.0,0.0,0.0,12.40583,0.0,0.0,nan,0.0,0.0,0.0,0.0,0.0,0.0,0.0,0.0,1.0593228,1.0593424,1.0000311,0.0,0.0,0.0,0.0,0.0,0.0
26652000,26572000,0.09077722,0.090777054,0.20769964,1.0001078,1.0001078,1.0474948,0.0,0.0,0.0,0.0,0.0,0.0,0.0,12.407534,0.0,0.0,nan,0.0,0.0,0.0,0.0,0.0,0.0,0.0,0.0,1.0593498,1.0593688,1.000031,0.0,0.0,0.0,0.0,0.0,0.0
27148000,27068000,0.09075049,0.090750374,0.20764789,1.0001007,1.0001007,1.0473158,0.0,0.0,0.0,0.0,0.0,0.0,0.0,12.407209,0.0,0.0,nan,0.0,0.0,0.0,0.0,0.0,0.0,0.0,0.0,1.0593305,1.0593488,1.0000308,0.0,0.0,0.0,0.0,0.0,0.0
27652000,27572000,0.09069826,0.09069819,0.20754927,1.0000881,1.0000881,1.0469688,0.0,0.0,0.0,0.0,0.0,0.0,0.0,12.406446,0.0,0.0,nan,0.0,0.0,0.0,0.0,0.0,0.0,0.0,0.0,1.0593675,1.0593861,1.0000308,0.0,0.0,0.0,0.0,0.0,0.0
28148000,28068000,0.09067248,0.09067242,0.20749857,1.0000824,1.0000824,1.0469846,0.0,0.0,0.0,0.0,0.0,0.0,0.0,12.407267,0.0,0.0,nan,0.0,0.0,0.0,0.0,0.0,0.0,0.0,0.0,1.0593604,1.0593786,1.0000312,0.0,0.0,0.0,0.0,0.0,0.0
28652000,28572000,0.09064742,0.09064738,0.207448,1.000077,1.000077,1.0468253,0.0,0.0,0.0,0.0,0.0,0.0,0.0,12.406935,0.0,0.0,nan,0.0,0.0,0.0,0.0,0.0,0.0,0.0,0.0,1.0594035,1.0594215,1.0000315,0.0,0.0,0.0,0.0,0.0,0.0
29148000,29068000,0.09062276,0.09062271,0.20739749,1.000072,1.000072,1.046668,0.0,0.0,0.0,0.0,0.0,0.0,0.0,12.407814,0.0,0.0,nan,0.0,0.0,0.0,0.0,0.0,0.0,0.0,0.0,1.0594376,1.0594562,1.000032,0.0,0.0,0.0,0.0,0.0,0.0
29652000,29572000,0.09058287,0.09058283,0.20796214,1.0000635,1.0000635,1.047781,0.0,0.0,0.0,0.0,0.0,0.0,0.0,12.405735,0.0,0.0,nan,0.0,0.0,0.0,0.0,0.0,0.0,0.0,0.0,1.0594177,1.0594363,1.0000322,0.0,0.0,0.0,0.0,0.0,0.0
30148000,30068000,0.09055907,0.090559006,0.20790839,1.0000595,1.0000595,1.0477992,0.0,0.0,0.0,0.0,0.0,0.0,0.0,12.406758,0.0,0.0,nan,0.0,0.0,0.0,0.0,0.0,0.0,0.0,0.0,1.0594392,1.0594581,1.0000328,0.0,0.0,0.0,0.0,0.0,0.0
30652000,30572000,0.09085535,0.09085517,0.20785461,1.0001311,1.0001311,1.0476329,0.0,0.0,0.0,0.0,0.0,0.0,0.0,12.407796,0.0,0.0,nan,0.0,0.0,0.0,0.0,0.0,0.0,0.0,0.0,1.059389,1.059409,1.0000329,0.0,0.0,0.0,0.0,0.0,0.0
31148000,31068000,0.090827905,0.090827696,0.20780087,1.0001228,1.0001228,1.047467,0.0,0.0,0.0,0.0,0.0,0.0,0.0,12.408263,0.0,0.0,nan,0.0,0.0,0.0,0.0,0.0,0.0,0.0,0.0,1.0593946,1.0594157,1.0000334,0.0,0.0,0.0,0.0,0.0,0.0
31644000,31564000,0.090774074,0.09077393,0.20769927,1.0001075,1.0001075,1.0473238,0.0,0.0,0.0,0.0,0.0,0.0,0.0,12.406616,0.0,0.0,nan,0.0,0.0,0.0,0.0,0.0,0.0,0.0,0.0,1.0594035,1.0594254,1.0000336,0.0,0.0,0.0,0.0,0.0,0.0
32148000,32068000,0.09074782,0.09074771,0.2076466,1.0001006,1.0001006,1.0471646,0.0,0.0,0.0,0.0,0.0,0.0,0.0,12.40763,0.0,0.0,nan,0.0,0.0,0.0,0.0,0.0,0.0,0.0,0.0,1.0593549,1.0593778,1.0000333,0.0,0.0,0.0,0.0,0.0,0.0
32644000,32564000,0.09072177,0.090721674,0.20759866,1.000094,1.000094,1.0470058,0.0,0.0,0.0,0.0,0.0,0.0,0.0,12.408075,0.0,0.0,nan,0.0,0.0,0.0,0.0,0.0,0.0,0.0,0.0,1.0593623,1.0593861,1.0000333,0.0,0.0,0.0,0.0,0.0,0.0
33148000,33068000,0.09069614,0.09069605,0.20754655,1.000088,1.000088,1.0470272,0.0,0.0,0.0,0.0,0.0,0.0,0.0,12.408538,0.0,0.0,nan,0.0,0.0,0.0,0.0,0.0,0.0,0.0,0.0,1.0593175,1.0593425,1.0000336,0.0,0.0,0.0,0.0,0.0,0.0
33652000,33572000,0.09064609,0.090646,0.20744388,1.0000769,1.0000769,1.04672,0.0,0.0,0.0,0.0,0.0,0.0,0.0,12.406587,0.0,0.0,nan,0.0,0.0,0.0,0.0,0.0,0.0,0.0,0.0,1.0593295,1.0593551,1.0000341,0.0,0.0,0.0,0.0,0.0,0.0
34148000,34068000,0.090621516,0.09062143,0.20739335,1.000072,1.0000719,1.046573,0.0,0.0,0.0,0.0,0.0,0.0,0.0,12.407308,0.0,0.0,nan,0.0,0.0,0.0,0.0,0.0,0.0,0.0,0.0,1.0593313,1.0593567,1.0000337,0.0,0.0,0.0,0.0,0.0,0.0
34652000,34572000,0.090597294,0.09059721,0.20734718,1.0000674,1.0000674,1.0466025,0.0,0.0,0.0,0.0,0.0,0.0,0.0,12.407766,0.0,0.0,nan,0.0,0.0,0.0,0.0,0.0,0.0,0.0,0.0,1.0592669,1.0592927,1.000033,0.0,0.0,0.0,0.0,0.0,0.0
35148000,35068000,0.090582065,0.09058198,0.20795582,1.0000634,1.0000634,1.0478703,0.0,0.0,0.0,0.0,0.0,0.0,0.0,12.4087105,0.0,0.0,nan,0.0,0.0,0.0,0.0,0.0,0.0,0.0,0.0,1.0592564,1.0592823,1.000033,0.0,0.0,0.0,0.0,0.0,0.0
35644000,35564000,0.0908534,0.09085327,0.20785241,1.000131,1.0001309,1.0477118,0.0,0.0,0.0,0.0,0.0,0.0,0.0,12.407498,0.0,0.0,nan,0.0,0.0,0.0,0.0,0.0,0.0,0.0,0.0,1.0591779,1.0592049,1.0000329,0.0,0.0,0.0,0.0,0.0,0.0
36148000,36068000,0.09082615,0.09082601,0.20779853,1.0001227,1.0001227,1.0475417,0.0,0.0,0.0,0.0,0.0,0.0,0.0,12.407658,0.0,0.0,nan,0.0,0.0,0.0,0.0,0.0,0.0,0.0,0.0,1.0591785,1.0592067,1.000033,0.0,0.0,0.0,0.0,0.0,0.0
36644000,36564000,0.09079929,0.09079914,0.20774496,1.0001148,1.0001148,1.047373,0.0,0.0,0.0,0.0,0.0,0.0,0.0,12.408583,0.0,0.0,nan,0.0,0.0,0.0,0.0,0.0,0.0,0.0,0.0,1.0591826,1.0592108,1.0000328,0.0,0.0,0.0,0.0,0.0,0.0
37148000,37068000,0.0907727,0.09077255,0.20769648,1.0001074,1.0001074,1.0473875,0.0,0.0,0.0,0.0,0.0,0.0,0.0,12.408111,0.0,0.0,nan,0.0,0.0,0.0,0.0,0.0,0.0,0.0,0.0,1.0591383,1.0591676,1.0000334,0.0,0.0,0.0,0.0,0.0,0.0
37652000,37572000,0.090720534,0.09072046,0.20759088,1.000094,1.000094,1.0470567,0.0,0.0,0.0,0.0,0.0,0.0,0.0,12.4077,0.0,0.0,nan,0.0,0.0,0.0,0.0,0.0,0.0,0.0,0.0,1.0591604,1.0591902,1.0000331,0.0,0.0,0.0,0.0,0.0,0.0
38148000,38068000,0.09069484,0.09069479,0.20754306,1.0000879,1.0000879,1.047073,0.0,0.0,0.0,0.0,0.0,0.0,0.0,12.408623,0.0,0.0,nan,0.0,0.0,0.0,0.0,0.0,0.0,0.0,0.0,1.0591455,1.0591761,1.0000328,0.0,0.0,0.0,0.0,0.0,0.0
38652000,38572000,0.09066957,0.09066951,0.20749108,1.0000821,1.0000821,1.0469114,0.0,0.0,0.0,0.0,0.0,0.0,0.0,12.408114,0.0,0.0,nan,0.0,0.0,0.0,0.0,0.0,0.0,0.0,0.0,1.059192,1.0592228,1.0000322,0.0,0.0,0.0,0.0,0.0,0.0
39148000,39068000,0.09064475,0.09064467,0.20743951,1.0000769,1.0000769,1.0467515,0.0,0.0,0.0,0.0,0.0,0.0,0.0,12.409616,0.0,0.0,nan,0.0,0.0,0.0,0.0,0.0,0.0,0.0,0.0,1.0592129,1.0592434,1.0000322,0.0,0.0,0.0,0.0,0.0,0.0
39652000,39572000,0.090596035,0.090596,0.20734185,1.0000672,1.0000672,1.0466139,0.0,0.0,0.0,0.0,0.0,0.0,0.0,12.406726,0.0,0.0,nan,0.0,0.0,0.0,0.0,0.0,0.0,0.0,0.0,1.0592762,1.0593072,1.0000318,0.0,0.0,0.0,0.0,0.0,0.0
40148000,40068000,0.09058085,0.09058084,0.20794901,1.0000634,1.0000634,1.0478737,0.0,0.0,0.0,0.0,0.0,0.0,0.0,12.407598,0.0,0.0,nan,0.0,0.0,0.0,0.0,0.0,0.0,0.0,0.0,1.0593356,1.0593671,1.0000317,0.0,0.0,0.0,0.0,0.0,0.0
40652000,40572000,0.09055722,0.0905572,0.20789984,1.0000594,1.0000594,1.0476979,0.0,0.0,0.0,0.0,0.0,0.0,0.0,12.4077425,0.0,0.0,nan,0.0,0.0,0.0,0.0,0.0,0.0,0.0,0.0,1.0593528,1.0593845,1.0000314,0.0,0.0,0.0,0.0,0.0,0.0
41148000,41068000,0.090851426,0.09085136,0.20784591,1.0001308,1.0001308,1.0477082,0.0,0.0,0.0,0.0,0.0,0.0,0.0,12.408361,0.0,0.0,nan,0.0,0.0,0.0,0.0,0.0,0.0,0.0,0.0,1.0593985,1.0594304,1.0000309,0.0,0.0,0.0,0.0,0.0,0.0
41644000,41564000,0.09079769,0.09079759,0.20773967,1.0001147,1.0001147,1.0473715,0.0,0.0,0.0,0.0,0.0,0.0,0.0,12.407734,0.0,0.0,nan,0.0,0.0,0.0,0.0,0.0,0.0,0.0,0.0,1.0593953,1.0594274,1.000031,0.0,0.0,0.0,0.0,0.0,0.0
42148000,42068000,0.09077147,0.09077138,0.20769167,1.0001074,1.0001074,1.0472062,0.0,0.0,0.0,0.0,0.0,0.0,0.0,12.407052,0.0,0.0,nan,0.0,0.0,0.0,0.0,0.0,0.0,0.0,0.0,1.059431,1.0594631,1.0000311,0.0,0.0,0.0,0.0,0.0,0.0
42652000,42572000,0.09074553,0.09074546,0.20763962,1.0001005,1.0001005,1.0472269,0.0,0.0,0.0,0.0,0.0,0.0,0.0,12.408561,0.0,0.0,nan,0.0,0.0,0.0,0.0,0.0,0.0,0.0,0.0,1.0594581,1.0594909,1.0000316,0.0,0.0,0.0,0.0,0.0,0.0
43148000,43068000,0.09071998,0.0907199,0.20758775,1.0000939,1.0000939,1.0470676,0.0,0.0,0.0,0.0,0.0,0.0,0.0,12.408105,0.0,0.0,nan,0.0,0.0,0.0,0.0,0.0,0.0,0.0,0.0,1.0594139,1.0594465,1.0000309,0.0,0.0,0.0,0.0,0.0,0.0
43652000,43572000,0.09066936,0.090669304,0.20748913,1.0000821,1.0000821,1.0469301,0.0,0.0,0.0,0.0,0.0,0.0,0.0,12.406871,0.0,0.0,nan,0.0,0.0,0.0,0.0,0.0,0.0,0.0,0.0,1.059425,1.0594578,1.0000311,0.0,0.0,0.0,0.0,0.0,0.0
44148000,44068000,0.09064462,0.09064459,0.20743811,1.0000769,1.0000769,1.0467739,0.0,0.0,0.0,0.0,0.0,0.0,0.0,12.40776,0.0,0.0,nan,0.0,0.0,0.0,0.0,0.0,0.0,0.0,0.0,1.0593847,1.0594174,1.0000305,0.0,0.0,0.0,0.0,0.0,0.0
44644000,44564000,0.09062009,0.09062006,0.20739155,1.0000719,1.0000719,1.0466187,0.0,0.0,0.0,0.0,0.0,0.0,0.0,12.408139,0.0,0.0,nan,0.0,0.0,0.0,0.0,0.0,0.0,0.0,0.0,1.0593976,1.0594305,1.00003,0.0,0.0,0.0,0.0,0.0,0.0
45148000,45068000,0.09059608,0.090596035,0.20734121,1.0000672,1.0000672,1.0466412,0.0,0.0,0.0,0.0,0.0,0.0,0.0,12.40902,0.0,0.0,nan,0.0,0.0,0.0,0.0,0.0,0.0,0.0,0.0,1.0594124,1.0594451,1.0000296,0.0,0.0,0.0,0.0,0.0,0.0
45644000,45564000,0.090557225,0.090557165,0.20789428,1.0000594,1.0000594,1.0477239,0.0,0.0,0.0,0.0,0.0,0.0,0.0,12.40677,0.0,0.0,nan,0.0,0.0,0.0,0.0,0.0,0.0,0.0,0.0,1.0593547,1.0593871,1.0000287,0.0,0.0,0.0,0.0,0.0,0.0
46148000,46068000,0.09085162,0.09085149,0.20784606,1.0001308,1.0001308,1.0477365,0.0,0.0,0.0,0.0,0.0,0.0,0.0,12.407643,0.0,0.0,nan,0.0,0.0,0.0,0.0,0.0,0.0,0.0,0.0,1.0593601,1.0593921,1.0000285,0.0,0.0,0.0,0.0,0.0,0.0
46644000,46564000,0.0908247,0.09082457,0.2077932,1.0001225,1.0001225,1.047567,0.0,0.0,0.0,0.0,0.0,0.0,0.0,12.408432,0.0,0.0,nan,0.0,0.0,0.0,0.0,0.0,0.0,0.0,0.0,1.0592991,1.0593314,1.0000287,0.0,0.0,0.0,0.0,0.0,0.0
47148000,47068000,0.0907977,0.09079754,0.2077413,1.0001147,1.0001147,1.0474064,0.0,0.0,0.0,0.0,0.0,0.0,0.0,12.407263,0.0,0.0,nan,0.0,0.0,0.0,0.0,0.0,0.0,0.0,0.0,1.0593077,1.0593392,1.0000277,0.0,0.0,0.0,0.0,0.0,0.0
47644000,47564000,0.09074558,0.090745494,0.20763886,1.0001005,1.0001005,1.0471027,0.0,0.0,0.0,0.0,0.0,0.0,0.0,12.406965,0.0,0.0,nan,0.0,0.0,0.0,0.0,0.0,0.0,0.0,0.0,1.0593091,1.0593394,1.000027,0.0,0.0,0.0,0.0,0.0,0.0
48148000,48068000,0.09071964,0.09071957,0.20759204,1.0000939,1.0000939,1.0469515,0.0,0.0,0.0,0.0,0.0,0.0,0.0,12.407973,0.0,0.0,nan,0.0,0.0,0.0,0.0,0.0,0.0,0.0,0.0,1.0592529,1.0592823,1.0000265,0.0,0.0,0.0,0.0,0.0,0.0
48644000,48564000,0.09069415,0.090694085,0.20754093,1.0000879,1.0000879,1.0469794,0.0,0.0,0.0,0.0,0.0,0.0,0.0,12.407547,0.0,0.0,nan,0.0,0.0,0.0,0.0,0.0,0.0,0.0,0.0,1.0592706,1.0592992,1.0000265,0.0,0.0,0.0,0.0,0.0,0.0
49148000,49068000,0.09066909,0.09066904,0.20749,1.0000821,1.0000821,1.0468285,0.0,0.0,0.0,0.0,0.0,0.0,0.0,12.408859,0.0,0.0,nan,0.0,0.0,0.0,0.0,0.0,0.0,0.0,0.0,1.0592504,1.0592781,1.0000263,0.0,0.0,0.0,0.0,0.0,0.0
49644000,49564000,0.09061987,0.09061983,0.20739351,1.0000719,1.0000719,1.0467097,0.0,0.0,0.0,0.0,0.0,0.0,0.0,12.406322,0.0,0.0,nan,0.0,0.0,0.0,0.0,0.0,0.0,0.0,0.0,1.0592763,1.0593034,1.0000265,0.0,0.0,0.0,0.0,0.0,0.0
50148000,50068000,0.090595804,0.09059573,0.20734352,1.0000672,1.0000672,1.0465637,0.0,0.0,0.0,0.0,0.0,0.0,0.0,12.407839,0.0,0.0,nan,0.0,0.0,0.0,0.0,0.0,0.0,0.0,0.0,1.0593112,1.0593374,1.000026,0.0,0.0,0.0,0.0,0.0,0.0
50644000,50564000,0.090580694,0.09058062,0.20795155,1.0000634,1.0000634,1.0478297,0.0,0.0,0.0,0.0,0.0,0.0,0.0,12.407425,0.0,0.0,nan,0.0,0.0,0.0,0.0,0.0,0.0,0.0,0.0,1.0592915,1.0593171,1.0000257,0.0,0.0,0.0,0.0,0.0,0.0
51148000,51068000,0.09056888,0.0905688,0.20793062,1.0000614,1.0000614,1.0477853,0.0,0.0,0.0,0.0,0.0,0.0,0.0,12.408309,0.0,0.0,nan,0.0,0.0,0.0,0.0,0.0,0.0,0.0,0.0,1.0593145,1.0593398,1.0000259,0.0,0.0,0.0,0.0,0.0,0.0
51652000,51572000,0.09082412,0.09082396,0.20779522,1.0001224,1.0001224,1.0474929,0.0,0.0,0.0,0.0,0.0,0.0,0.0,12.407935,0.0,0.0,nan,0.0,0.0,0.0,0.0,0.0,0.0,0.0,0.0,1.0592897,1.0593154,1.0000262,0.0,0.0,0.0,0.0,0.0,0.0
52148000,52068000,0.090797506,0.09079735,0.2077473,1.0001147,1.0001147,1.0475079,0.0,0.0,0.0,0.0,0.0,0.0,0.0,12.4069805,0.0,0.0,nan,0.0,0.0,0.0,0.0,0.0,0.0,0.0,0.0,1.0593084,1.0593339,1.0000262,0.0,0.0,0.0,0.0,0.0,0.0
52652000,52572000,0.09077112,0.090770975,0.2076951,1.0001073,1.0001073,1.0471644,0.0,0.0,0.0,0.0,0.0,0.0,0.0,12.408257,0.0,0.0,nan,0.0,0.0,0.0,0.0,0.0,0.0,0.0,0.0,1.059329,1.0593547,1.0000259,0.0,0.0,0.0,0.0,0.0,0.0
53148000,53068000,0.09074515,0.09074502,0.20764355,1.0001004,1.0001004,1.047189,0.0,0.0,0.0,0.0,0.0,0.0,0.0,12.407834,0.0,0.0,nan,0.0,0.0,0.0,0.0,0.0,0.0,0.0,0.0,1.0592959,1.0593213,1.0000261,0.0,0.0,0.0,0.0,0.0,0.0
53652000,53572000,0.09069404,0.09069386,0.2075449,1.0000879,1.0000879,1.0468777,0.0,0.0,0.0,0.0,0.0,0.0,0.0,12.408739,0.0,0.0,nan,0.0,0.0,0.0,0.0,0.0,0.0,0.0,0.0,1.0593216,1.0593468,1.0000259,0.0,0.0,0.0,0.0,0.0,0.0
54148000,54068000,0.09066899,0.09066879,0.20749366,1.0000821,1.0000821,1.0469015,0.0,0.0,0.0,0.0,0.0,0.0,0.0,12.407895,0.0,0.0,nan,0.0,0.0,0.0,0.0,0.0,0.0,0.0,0.0,1.0592965,1.0593208,1.0000259,0.0,0.0,0.0,0.0,0.0,0.0
54644000,54564000,0.090644315,0.09064411,0.20744298,1.0000768,1.0000768,1.0467507,0.0,0.0,0.0,0.0,0.0,0.0,0.0,12.407469,0.0,0.0,nan,0.0,0.0,0.0,0.0,0.0,0.0,0.0,0.0,1.059317,1.0593415,1.0000259,0.0,0.0,0.0,0.0,0.0,0.0
55148000,55068000,0.090619914,0.09061973,0.20739254,1.0000719,1.0000719,1.0466015,0.0,0.0,0.0,0.0,0.0,0.0,0.0,12.409261,0.0,0.0,nan,0.0,0.0,0.0,0.0,0.0,0.0,0.0,0.0,1.0593392,1.0593637,1.0000257,0.0,0.0,0.0,0.0,0.0,0.0
55652000,55572000,0.10011204,0.10011797,0.20867041,1.0006374,1.0006377,1.0496347,0.0,0.0,0.0,0.0,0.0,0.0,0.0,12.409135,0.0,0.0,nan,0.0,0.0,0.0,0.0,0.0,0.0,0.0,0.0,1.0594118,1.0594367,1.000026,0.0,0.0,0.0,0.0,0.0,0.0
56148000,56068000,0.1285573,0.12858203,0.21017759,1.0065613,1.006565,1.0539446,0.0,0.0,0.0,0.0,0.0,0.0,0.0,12.41482,0.0,0.0,nan,0.0,0.0,0.0,0.0,0.0,0.0,0.0,0.0,1.059539,1.0595642,1.0000257,0.0,0.0,0.0,0.0,0.0,0.0
56644000,56564000,0.17596601,0.17602241,0.21183936,1.0313064,1.0313257,1.059732,0.0,0.0,0.0,0.0,0.0,0.0,0.0,12.424627,0.0,0.0,nan,0.0,0.0,0.0,0.0,0.0,0.0,0.0,0.0,1.0596163,1.059642,1.000026,0.0,0.0,0.0,0.0,0.0,0.0
57148000,57068000,0.2422245,0.24232636,0.21356659,1.097364,1.0974271,1.067428,0.0,0.0,0.0,0.0,0.0,0.0,0.0,12.434594,0.0,0.0,nan,0.0,0.0,0.0,0.0,0.0,0.0,0.0,0.0,1.0596069,1.0596339,1.0000261,0.0,0.0,0.0,0.0,0.0,0.0
57644000,57564000,0.42907473,0.42933068,0.21692415,1.4850422,1.4854031,1.086349,0.0,0.0,0.0,0.0,0.0,0.0,0.0,12.443645,0.0,0.0,nan,0.0,0.0,0.0,0.0,0.0,0.0,0.0,0.0,1.0593832,1.0594177,1.0000257,0.0,0.0,0.0,0.0,0.0,0.0
58148000,58068000,0.547428,0.5478093,0.21844217,1.8869286,1.8876691,1.0978315,0.0,0.0,0.0,0.0,0.0,0.0,0.0,12.457096,0.0,0.0,nan,0.0,0.0,0.0,0.0,0.0,0.0,0.0,0.0,1.0581703,1.058291,1.0001,0.0,0.0,0.0,0.0,0.0,0.0
58652000,58572000,0.6832695,0.68374085,0.21955422,2.4824219,2.4838328,1.108746,0.0,0.0,0.0,0.0,0.0,0.0,0.0,12.471189,0.0,0.0,nan,0.0,0.0,0.0,0.0,0.0,0.0,0.0,0.0,1.0567476,1.056805,1.000031,0.0,0.0,0.0,0.0,0.0,0.0
59148000,59068000,0.82719505,0.8278897,0.22045518,3.3009422,3.3033776,1.1190345,0.0,0.0,0.0,0.0,0.0,0.0,0.0,12.488259,0.0,0.0,nan,0.0,0.0,0.0,0.0,0.0,0.0,0.0,0.0,1.0527234,1.0528206,1.0000719,0.0,0.0,0.0,0.0,0.0,0.0
59652000,59572000,1.0481895,1.0493702,0.22157007,5.5220475,5.527581,1.13739,0.0,0.0,0.0,0.0,0.0,0.0,0.0,12.484642,0.0,0.0,nan,0.0,0.0,0.0,0.0,0.0,0.0,0.0,0.0,1.0488757,1.0489843,1.0000772,0.0,0.0,0.0,0.0,0.0,0.0
60148000,60068000,1.1132473,1.1146313,0.2216932,6.7729135,6.7804756,1.1436298,0.0,0.0,0.0,0.0,0.0,0.0,0.0,12.496936,0.0,0.0,nan,0.0,0.0,0.0,0.0,0.0,0.0,0.0,0.0,1.0442076,1.0443014,1.0000533,0.0,0.0,0.0,0.0,0.0,0.0
60652000,60572000,1.1384819,1.1400145,0.22161491,7.9702983,7.980057,1.1482043,0.0,0.0,0.0,0.0,0.0,0.0,0.0,12.50478,0.0,0.0,nan,0.0,0.0,0.0,0.0,0.0,0.0,0.0,0.0,1.0362122,1.0362811,1.0000315,0.0,0.0,0.0,0.0,0.0,0.0
61148000,61068000,1.1255662,1.1271507,0.22157729,9.010771,9.022474,1.151314,0.0,0.0,0.0,0.0,0.0,0.0,0.0,12.512255,0.0,0.0,nan,0.0,0.0,0.0,0.0,0.0,0.0,0.0,0.0,1.0309063,1.0309607,1.000019,0.0,0.0,0.0,0.0,0.0,0.0
61652000,61572000,1.1032628,1.1050346,0.22103493,11.373084,11.390628,1.1559832,0.0,0.0,0.0,0.0,0.0,0.0,0.0,12.500066,0.0,0.0,nan,0.0,0.0,0.0,0.0,0.0,0.0,0.0,0.0,1.0236346,1.023676,1.0000125,0.0,0.0,0.0,0.0,0.0,0.0
62148000,62068000,1.0294913,1.0310973,0.2207743,11.802247,11.820258,1.1560993,0.0,0.0,0.0,0.0,0.0,0.0,0.0,12.50425,0.0,0.0,nan,0.0,0.0,0.0,0.0,0.0,0.0,0.0,0.0,1.0196301,1.0196604,1.0000081,0.0,0.0,0.0,0.0,0.0,0.0
62652000,62572000,0.94648945,0.94786215,0.22071539,12.005441,12.022816,1.1576942,0.0,0.0,0.0,0.0,0.0,0.0,0.0,12.511592,0.0,0.0,nan,0.0,0.0,0.0,0.0,0.0,0.0,0.0,0.0,1.0147774,1.0147966,1.0000075,0.0,0.0,0.0,0.0,0.0,0.0
63148000,63068000,0.86319554,0.86433685,0.22054744,12.02845,12.044659,1.1569381,0.0,0.0,0.0,0.0,0.0,0.0,0.0,12.514998,0.0,0.0,nan,0.0,0.0,0.0,0.0,0.0,0.0,0.0,0.0,1.0123527,1.012369,1.000008,0.0,0.0,0.0,0.0,0.0,0.0
63652000,63572000,0.7115873,0.7123159,0.22052209,11.719462,11.732192,1.1549783,0.0,0.0,0.0,0.0,0.0,0.0,0.0,12.500412,0.0,0.0,nan,0.0,0.0,0.0,0.0,0.0,0.0,0.0,0.0,1.0104377,1.0104504,1.0000073,0.0,0.0,0.0,0.0,0.0,0.0
64148000,64068000,0.6466955,0.64726377,0.22050388,11.46124,11.472207,1.1559482,0.0,0.0,0.0,0.0,0.0,0.0,0.0,12.504315,0.0,0.0,nan,0.0,0.0,0.0,0.0,0.0,0.0,0.0,0.0,1.0082178,1.0082256,1.0000055,0.0,0.0,0.0,0.0,0.0,0.0
64652000,64572000,0.5894855,0.58992326,0.2205191,11.169046,11.178362,1.1549898,0.0,0.0,0.0,0.0,0.0,0.0,0.0,12.508302,0.0,0.0,nan,0.0,0.0,0.0,0.0,0.0,0.0,0.0,0.0,1.0071987,1.007204,1.0000052,0.0,0.0,0.0,0.0,0.0,0.0
65148000,65068000,0.5395392,0.53987,0.22070727,10.860243,10.8680525,1.1540972,0.0,0.0,0.0,0.0,0.0,0.0,0.0,12.512407,0.0,0.0,nan,0.0,0.0,0.0,0.0,0.0,0.0,0.0,0.0,1.0059918,1.0059949,1.0000045,0.0,0.0,0.0,0.0,0.0,0.0
65644000,65564000,0.45899493,0.45917645,0.22083272,10.236485,10.241887,1.1545323,0.0,0.0,0.0,0.0,0.0,0.0,0.0,12.499184,0.0,0.0,nan,0.0,0.0,0.0,0.0,0.0,0.0,0.0,0.0,1.0054793,1.0054812,1.0000027,0.0,0.0,0.0,0.0,0.0,0.0
66148000,66068000,0.4269744,0.42710555,0.22090927,9.934859,9.939311,1.1539737,0.0,0.0,0.0,0.0,0.0,0.0,0.0,12.5019455,0.0,0.0,nan,0.0,0.0,0.0,0.0,0.0,0.0,0.0,0.0,1.0051059,1.0051075,1.0000025,0.0,0.0,0.0,0.0,0.0,0.0
66644000,66564000,0.3996193,0.39971218,0.22113349,9.645044,9.648679,1.1554372,0.0,0.0,0.0,0.0,0.0,0.0,0.0,12.509952,0.0,0.0,nan,0.0,0.0,0.0,0.0,0.0,0.0,0.0,0.0,1.0046161,1.0046173,1.0000021,0.0,0.0,0.0,0.0,0.0,0.0
67148000,67068000,0.4005547,0.40063387,0.22119993,10.135795,10.13932,1.1550213,0.0,0.0,0.0,0.0,0.0,0.0,0.0,12.514567,0.0,0.0,nan,0.0,0.0,0.0,0.0,0.0,0.0,0.0,0.0,1.0044724,1.0044736,1.0000024,0.0,0.0,0.0,0.0,0.0,0.0
67652000,67572000,0.35947695,0.35950878,0.2212965,9.542608,9.5448885,1.1543103,0.0,0.0,0.0,0.0,0.0,0.0,0.0,12.500123,0.0,0.0,nan,0.0,0.0,0.0,0.0,0.0,0.0,0.0,0.0,1.0042424,1.0042434,1.0000024,0.0,0.0,0.0,0.0,0.0,0.0
68148000,68068000,0.3438395,0.3438556,0.22148305,9.274467,9.27628,1.1559781,0.0,0.0,0.0,0.0,0.0,0.0,0.0,12.504702,0.0,0.0,nan,0.0,0.0,0.0,0.0,0.0,0.0,0.0,0.0,1.0042301,1.004231,1.0000024,0.0,0.0,0.0,0.0,0.0,0.0
68644000,68564000,0.3308859,0.33088976,0.22149889,9.0248165,9.026242,1.1556735,0.0,0.0,0.0,0.0,0.0,0.0,0.0,12.509349,0.0,0.0,nan,0.0,0.0,0.0,0.0,0.0,0.0,0.0,0.0,1.0042572,1.004258,1.0000025,0.0,0.0,0.0,0.0,0.0,0.0
69148000,69068000,0.32039464,0.3203892,0.22149856,8.793089,8.794206,1.1553379,0.0,0.0,0.0,0.0,0.0,0.0,0.0,12.516948,0.0,0.0,nan,0.0,0.0,0.0,0.0,0.0,0.0,0.0,0.0,1.00422,1.0042212,1.0000027,0.0,0.0,0.0,0.0,0.0,0.0
69644000,69564000,0.30568212,0.30566564,0.22161426,8.381119,8.381767,1.1565281,0.0,0.0,0.0,0.0,0.0,0.0,0.0,12.500131,0.0,0.0,nan,0.0,0.0,0.0,0.0,0.0,0.0,0.0,0.0,1.0043154,1.0043168,1.000003,0.0,0.0,0.0,0.0,0.0,0.0
70148000,70068000,0.3010034,0.30098408,0.2215834,8.199584,8.200062,1.1561247,0.0,0.0,0.0,0.0,0.0,0.0,0.0,12.505933,0.0,0.0,nan,0.0,0.0,0.0,0.0,0.0,0.0,0.0,0.0,1.0043517,1.0043532,1.0000032,0.0,0.0,0.0,0.0,0.0,0.0
70652000,70572000,0.29785508,0.29783404,0.22155811,8.033468,8.033806,1.1558022,0.0,0.0,0.0,0.0,0.0,0.0,0.0,12.50906,0.0,0.0,nan,0.0,0.0,0.0,0.0,0.0,0.0,0.0,0.0,1.0044953,1.0044968,1.0000035,0.0,0.0,0.0,0.0,0.0,0.0
71148000,71068000,0.2961458,0.2961242,0.221687,7.882179,7.8824015,1.1554779,0.0,0.0,0.0,0.0,0.0,0.0,0.0,12.5138035,0.0,0.0,nan,0.0,0.0,0.0,0.0,0.0,0.0,0.0,0.0,1.0046482,1.0046495,1.0000033,0.0,0.0,0.0,0.0,0.0,0.0
71644000,71564000,0.29652646,0.2965046,0.22160794,7.6220794,7.6221313,1.1566492,0.0,0.0,0.0,0.0,0.0,0.0,0.0,12.499152,0.0,0.0,nan,0.0,0.0,0.0,0.0,0.0,0.0,0.0,0.0,1.0047349,1.0047362,1.0000027,0.0,0.0,0.0,0.0,0.0,0.0
72148000,72068000,0.30828747,0.30826342,0.22156653,7.9669166,7.9669027,1.1562254,0.0,0.0,0.0,0.0,0.0,0.0,0.0,12.505703,0.0,0.0,nan,0.0,0.0,0.0,0.0,0.0,0.0,0.0,0.0,1.0049133,1.0049146,1.0000029,0.0,0.0,0.0,0.0,0.0,0.0
72652000,72572000,0.3107746,0.31075022,0.22152647,7.8579464,7.857873,1.1558033,0.0,0.0,0.0,0.0,0.0,0.0,0.0,12.5095625,0.0,0.0,nan,0.0,0.0,0.0,0.0,0.0,0.0,0.0,0.0,1.0050191,1.0050204,1.0000027,0.0,0.0,0.0,0.0,0.0,0.0
73148000,73068000,0.3141698,0.31414557,0.22164775,7.7629676,7.7628455,1.1554064,0.0,0.0,0.0,0.0,0.0,0.0,0.0,12.5142975,0.0,0.0,nan,0.0,0.0,0.0,0.0,0.0,0.0,0.0,0.0,1.0052006,1.0052023,1.0000031,0.0,0.0,0.0,0.0,0.0,0.0
73652000,73572000,0.32264203,0.32261872,0.22157648,7.6121945,7.612005,1.1565592,0.0,0.0,0.0,0.0,0.0,0.0,0.0,12.499647,0.0,0.0,nan,0.0,0.0,0.0,0.0,0.0,0.0,0.0,0.0,1.0053902,1.0053918,1.0000032,0.0,0.0,0.0,0.0,0.0,0.0
74148000,74068000,0.32384795,0.3238247,0.22153619,7.5521493,7.551935,1.1560942,0.0,0.0,0.0,0.0,0.0,0.0,0.0,12.502601,0.0,0.0,nan,0.0,0.0,0.0,0.0,0.0,0.0,0.0,0.0,1.0054843,1.0054865,1.0000037,0.0,0.0,0.0,0.0,0.0,0.0
74644000,74564000,0.33005646,0.3300348,0.22165823,7.5010533,7.5008206,1.1556572,0.0,0.0,0.0,0.0,0.0,0.0,0.0,12.5108595,0.0,0.0,nan,0.0,0.0,0.0,0.0,0.0,0.0,0.0,0.0,1.0056633,1.0056657,1.0000037,0.0,0.0,0.0,0.0,0.0,0.0
75148000,75068000,0.3363049,0.33628425,0.22161984,7.46164,7.461394,1.1571693,0.0,0.0,0.0,0.0,0.0,0.0,0.0,12.515508,0.0,0.0,nan,0.0,0.0,0.0,0.0,0.0,0.0,0.0,0.0,1.0057446,1.0057473,1.0000039,0.0,0.0,0.0,0.0,0.0,0.0
75644000,75564000,0.34917563,0.34915733,0.22153325,7.4115877,7.4113264,1.1561145,0.0,0.0,0.0,0.0,0.0,0.0,0.0,12.500613,0.0,0.0,nan,0.0,0.0,0.0,0.0,0.0,0.0,0.0,0.0,1.0059102,1.0059125,1.0000037,0.0,0.0,0.0,0.0,0.0,0.0
76148000,76068000,0.3563895,0.35637242,0.2217064,7.4156523,7.4153924,1.1563126,0.0,0.0,0.0,0.0,0.0,0.0,0.0,12.505003,0.0,0.0,nan,0.0,0.0,0.0,0.0,0.0,0.0,0.0,0.0,1.0060749,1.0060773,1.0000042,0.0,0.0,0.0,0.0,0.0,0.0
76644000,76564000,0.36245838,0.36244267,0.22160026,7.3936763,7.3934226,1.1569759,0.0,0.0,0.0,0.0,0.0,0.0,0.0,12.509519,0.0,0.0,nan,0.0,0.0,0.0,0.0,0.0,0.0,0.0,0.0,1.0061065,1.0061085,1.0000037,0.0,0.0,0.0,0.0,0.0,0.0
77148000,77068000,0.3690074,0.3689929,0.22155836,7.3943667,7.394119,1.1564311,0.0,0.0,0.0,0.0,0.0,0.0,0.0,12.516841,0.0,0.0,nan,0.0,0.0,0.0,0.0,0.0,0.0,0.0,0.0,1.0062463,1.0062499,1.0000056,0.0,0.0,0.0,0.0,0.0,0.0
77644000,77564000,0.39355186,0.39354104,0.21849984,7.8518414,7.8515778,1.1554654,0.0,0.0,0.0,0.0,0.0,0.0,0.0,12.497717,0.0,0.0,nan,0.0,0.0,0.0,0.0,0.0,0.0,0.0,0.0,1.0062389,1.0062411,1.000004,0.0,0.0,0.0,0.0,0.0,0.0
78148000,78068000,0.39718768,0.3971798,0.21705808,7.8671136,7.866865,1.1522388,0.0,0.0,0.0,0.0,0.0,0.0,0.0,12.501467,0.0,0.0,nan,0.0,0.0,0.0,0.0,0.0,0.0,0.0,0.0,1.006353,1.0063552,1.0000046,0.0,0.0,0.0,0.0,0.0,0.0
78644000,78564000,0.40059614,0.40059105,0.21610792,7.882179,7.881951,1.1484262,0.0,0.0,0.0,0.0,0.0,0.0,0.0,12.501269,0.0,0.0,nan,0.0,0.0,0.0,0.0,0.0,0.0,0.0,0.0,1.0064509,1.0064532,1.0000043,0.0,0.0,0.0,0.0,0.0,0.0
79148000,79068000,0.40380052,0.40379813,0.21569467,7.8966203,7.8964133,1.1445346,0.0,0.0,0.0,0.0,0.0,0.0,0.0,12.501495,0.0,0.0,nan,0.0,0.0,0.0,0.0,0.0,0.0,0.0,0.0,1.006392,1.0063939,1.0000033,0.0,0.0,0.0,0.0,0.0,0.0
79652000,79572000,0.40988925,0.40989178,0.21572585,7.9225574,7.922396,1.1392152,0.0,0.0,0.0,0.0,0.0,0.0,0.0,12.486576,0.0,0.0,nan,0.0,0.0,0.0,0.0,0.0,0.0,0.0,0.0,1.0064701,1.0064723,1.0000033,0.0,0.0,0.0,0.0,0.0,0.0
80148000,80068000,0.41313902,0.41314384,0.21669263,7.931711,7.931576,1.1365796,0.0,0.0,0.0,0.0,0.0,0.0,0.0,12.487347,0.0,0.0,nan,0.0,0.0,0.0,0.0,0.0,0.0,0.0,0.0,1.0063711,1.0063728,1.0000024,0.0,0.0,0.0,0.0,0.0,0.0
80644000,80564000,0.41443998,0.4144462,0.21584803,7.9414325,7.941323,1.1358957,0.0,0.0,0.0,0.0,0.0,0.0,0.0,12.490329,0.0,0.0,nan,0.0,0.0,0.0,0.0,0.0,0.0,0.0,0.0,1.0064204,1.006423,1.0000031,0.0,0.0,0.0,0.0,0.0,0.0
81148000,81068000,0.41404694,0.41405413,0.21521357,7.946578,7.946493,1.1338912,0.0,0.0,0.0,0.0,0.0,0.0,0.0,12.491998,0.0,0.0,nan,0.0,0.0,0.0,0.0,0.0,0.0,0.0,0.0,1.0064689,1.0064715,1.0000029,0.0,0.0,0.0,0.0,0.0,0.0
81652000,81572000,0.4125766,0.412585,0.21482094,7.942419,7.942379,1.1302751,0.0,0.0,0.0,0.0,0.0,0.0,0.0,12.479689,0.0,0.0,nan,0.0,0.0,0.0,0.0,0.0,0.0,0.0,0.0,1.0063392,1.0063418,1.0000031,0.0,0.0,0.0,0.0,0.0,0.0
82148000,82068000,0.41218278,0.41219196,0.21502042,7.9341855,7.9341674,1.1288592,0.0,0.0,0.0,0.0,0.0,0.0,0.0,12.480723,0.0,0.0,nan,0.0,0.0,0.0,0.0,0.0,0.0,0.0,0.0,1.0063678,1.0063701,1.0000026,0.0,0.0,0.0,0.0,0.0,0.0
82644000,82564000,0.43440723,0.43441948,0.21484223,8.443237,8.443235,1.1291221,0.0,0.0,0.0,0.0,0.0,0.0,0.0,12.483124,0.0,0.0,nan,0.0,0.0,0.0,0.0,0.0,0.0,0.0,0.0,1.0062184,1.00622,1.0000031,0.0,0.0,0.0,0.0,0.0,0.0
83148000,83068000,0.43456438,0.4345775,0.21405278,8.437456,8.4374695,1.1279907,0.0,0.0,0.0,0.0,0.0,0.0,0.0,12.487663,0.0,0.0,nan,0.0,0.0,0.0,0.0,0.0,0.0,0.0,0.0,1.0062419,1.0062433,1.0000031,0.0,0.0,0.0,0.0,0.0,0.0
83644000,83564000,0.43350536,0.43351942,0.2132474,8.414696,8.414739,1.126484,0.0,0.0,0.0,0.0,0.0,0.0,0.0,12.474611,0.0,0.0,nan,0.0,0.0,0.0,0.0,0.0,0.0,0.0,0.0,1.0062562,1.0062575,1.0000031,0.0,0.0,0.0,0.0,0.0,0.0
84148000,84068000,0.4323421,0.43235666,0.21324977,8.397642,8.397694,1.1250046,0.0,0.0,0.0,0.0,0.0,0.0,0.0,12.477049,0.0,0.0,nan,0.0,0.0,0.0,0.0,0.0,0.0,0.0,0.0,1.0061002,1.0061015,1.000003,0.0,0.0,0.0,0.0,0.0,0.0
84644000,84564000,0.43082067,0.43083566,0.21351668,8.3768635,8.376925,1.123718,0.0,0.0,0.0,0.0,0.0,0.0,0.0,12.479092,0.0,0.0,nan,0.0,0.0,0.0,0.0,0.0,0.0,0.0,0.0,1.0061097,1.0061109,1.0000029,0.0,0.0,0.0,0.0,0.0,0.0
85148000,85068000,0.42900708,0.42902243,0.21401045,8.352514,8.352583,1.1227443,0.0,0.0,0.0,0.0,0.0,0.0,0.0,12.48399,0.0,0.0,nan,0.0,0.0,0.0,0.0,0.0,0.0,0.0,0.0,1.0059536,1.0059547,1.0000027,0.0,0.0,0.0,0.0,0.0,0.0
85644000,85564000,0.4252662,0.42528313,0.21562722,8.314859,8.314943,1.1239945,0.0,0.0,0.0,0.0,0.0,0.0,0.0,12.473598,0.0,0.0,nan,0.0,0.0,0.0,0.0,0.0,0.0,0.0,0.0,1.0059624,1.0059636,1.0000026,0.0,0.0,0.0,0.0,0.0,0.0
86148000,86068000,0.42216572,0.42218354,0.21651262,8.260272,8.260359,1.1241937,0.0,0.0,0.0,0.0,0.0,0.0,0.0,12.477662,0.0,0.0,nan,0.0,0.0,0.0,0.0,0.0,0.0,0.0,0.0,1.0059774,1.0059783,1.0000026,0.0,0.0,0.0,0.0,0.0,0.0
86644000,86564000,0.41956693,0.41958505,0.21757576,8.224023,8.224116,1.1268445,0.0,0.0,0.0,0.0,0.0,0.0,0.0,12.467418,0.0,0.0,nan,0.0,0.0,0.0,0.0,0.0,0.0,0.0,0.0,1.0017687,1.0017688,1.0000007,0.0,0.0,0.0,0.0,0.0,0.0
87148000,87068000,0.09494544,0.0949461,0.21170881,1.0001107,1.0001107,1.0983691,0.0,0.0,0.0,0.0,0.0,0.0,0.0,12.452098,0.0,0.0,nan,0.0,0.0,0.0,0.0,0.0,0.0,0.0,0.0,1.0011839,1.001184,1.0000005,0.0,0.0,0.0,0.0,0.0,0.0
87644000,87564000,0.09410082,0.09410155,0.20848505,1.0003097,1.0003098,1.0779467,0.0,0.0,0.0,0.0,0.0,0.0,0.0,12.435196,0.0,0.0,nan,0.0,0.0,0.0,0.0,0.0,0.0,0.0,0.0,1.0013264,1.0013267,1.0000005,0.0,0.0,0.0,0.0,0.0,0.0
88148000,88068000,0.09201434,0.09201443,0.2087701,1.0002104,1.0002104,1.075288,0.0,0.0,0.0,0.0,0.0,0.0,0.0,12.431358,0.0,0.0,nan,0.0,0.0,0.0,0.0,0.0,0.0,0.0,0.0,1.0014867,1.0014869,1.0000005,0.0,0.0,0.0,0.0,0.0,0.0
88644000,88564000,0.091224045,0.09122407,0.2083454,1.0001519,1.0001519,1.0703393,0.0,0.0,0.0,0.0,0.0,0.0,0.0,12.427878,0.0,0.0,nan,0.0,0.0,0.0,0.0,0.0,0.0,0.0,0.0,1.0016576,1.001658,1.0000005,0.0,0.0,0.0,0.0,0.0,0.0
89148000,89068000,0.09094388,0.09094389,0.20810063,1.0001235,1.0001235,1.0664506,0.0,0.0,0.0,0.0,0.0,0.0,0.0,12.424831,0.0,0.0,nan,0.0,0.0,0.0,0.0,0.0,0.0,0.0,0.0,1.0018326,1.001833,1.0000006,0.0,0.0,0.0,0.0,0.0,0.0
