timestamp,timestamp_sample,gyro_device_id,gyro_bias[0],gyro_bias[1],gyro_bias[2],gyro_bias_limit,gyro_bias_variance[0],gyro_bias_variance[1],gyro_bias_variance[2],accel_device_id,accel_bias[0],accel_bias[1],accel_bias[2],accel_bias_limit,accel_bias_variance[0],accel_bias_variance[1],accel_bias_variance[2],mag_device_id,mag_bias[0],mag_bias[1],mag_bias[2],mag_bias_limit,mag_bias_variance[0],mag_bias_variance[1],mag_bias_variance[2],gyro_bias_valid,gyro_bias_stable,accel_bias_valid,accel_bias_stable,mag_bias_valid,mag_bias_stable
3284000,3284000,1310988,0.0,0.0,0.0,0.15,0.009960121,0.009960121,0.009960038,1310988,0.0,0.0,0.0,0.4,0.039840482,0.039840482,0.039840482,197388,0.0,0.0,0.0,0.5,0.0,0.0,0.0,1,0,1,0,1,0
3604000,3524000,1310988,-0.00013058868,-0.0003709731,1.9148865e-07,0.15,0.010154903,0.010158852,0.0032530848,1310988,-0.0016239404,0.001434064,-0.10154675,0.4,0.0409168,0.040921573,0.0044995984,197388,0.0,0.0,0.0,0.5,0.0,0.0,0.0,1,0,1,0,1,0
3652000,3572000,1310988,-0.00013190493,-0.00037469296,-1.7738942e-07,0.15,0.010359545,0.010363584,0.003290524,1310988,-0.0016402157,0.0014484458,-0.10256488,0.4,0.041741397,0.041746274,0.004590285,197388,0.0,0.0,0.0,0.5,0.0025000002,0.0025000002,0.0025000002,1,0,1,0,1,0
3708000,3628000,1310988,-0.00013327265,-0.0003787986,5.859039e-06,0.15,0.010590377,0.010594506,0.0033630228,1310988,-0.0016585909,0.001464286,-0.10370126,0.4,0.042671483,0.042676467,0.0046925712,197388,0.0,0.0,0.0,0.5,0.0025000002,0.0025000002,0.0025000002,1,0,1,0,1,0
3764000,3684000,1310988,-0.00013708869,-0.00038394053,-0.00014542775,0.15,0.010812542,0.0108167585,0.0034308466,1310988,-0.001670832,0.0014847917,-0.1047833,0.4,0.04356665,0.04357174,0.0047910176,197388,0.0,0.0,0.0,0.5,0.0025000002,0.0025000002,0.0025000002,1,0,1,0,1,0
3812000,3732000,1310988,-8.7814544e-05,-0.00050312135,-0.00015122151,0.15,0.010858419,0.01086264,0.0034888086,1310988,-0.0011272845,0.0018057486,-0.10581305,0.4,0.040911533,0.040916122,0.004835843,197388,0.0,0.0,0.0,0.5,0.0025000002,0.0025000002,0.0025000002,1,0,1,0,1,0
3876000,3796000,1310988,-8.8278415e-05,-0.00050825643,-0.00012334401,0.15,0.011090109,0.011094421,0.003557084,1310988,-0.0011400674,0.0018238362,-0.10693598,0.4,0.04178448,0.041789163,0.0049390336,197388,0.0,0.0,0.0,0.5,0.0025000002,0.0025000002,0.0025000002,1,0,1,0,1,0
3940000,3860000,1310988,-8.862941e-05,-0.0005130631,-9.339333e-05,0.15,0.011310537,0.011314938,0.0036171365,1310988,-0.0011522191,0.001840777,-0.10799351,0.4,0.042615,0.04261977,0.0050372095,197388,0.0,0.0,0.0,0.5,0.0025000002,0.0025000002,0.0025000002,1,0,1,0,1,0
3988000,3908000,1310988,-4.681445e-06,-0.0010889466,-0.00013313272,0.15,0.010390734,0.010394874,0.0036502623,1310988,0.0005091983,0.0021846697,-0.10877459,0.4,0.033887733,0.033890657,0.0050998023,197388,0.0,0.0,0.0,0.5,0.0025000002,0.0025000002,0.0025000002,1,0,1,0,1,0
4028000,3948000,1310988,-1.1428986e-05,-0.0012565682,-0.00013528409,0.15,0.010144259,0.01014831,0.0036903908,1310988,0.0005750428,0.002211882,-0.10980521,0.4,0.034187682,0.03419078,0.0050195693,197388,0.0,0.0,0.0,0.5,0.0025000002,0.0025000002,0.0025000002,1,0,1,0,1,0
4100000,4020000,1310988,-1.1648094e-05,-0.0012683177,-0.0001429578,0.15,0.010334774,0.010338909,0.0037372238,1310988,0.0005804916,0.002232756,-0.11083155,0.4,0.034829773,0.03483291,0.00511385,197388,0.0,0.0,0.0,0.5,0.0025000002,0.0025000002,0.0025000002,1,0,1,0,1,0
4180000,4100000,1310988,-8.690876e-06,-0.0012802508,2.127716e-05,0.15,0.010532699,0.010536923,0.0037792865,1310988,0.00058414624,0.0022490304,-0.11188562,0.4,0.035496842,0.035500016,0.0052117785,197388,0.0,0.0,0.0,0.5,0.0025000002,0.0025000002,0.0025000002,1,0,1,0,1,0
4196000,4116000,1310988,-0.00023624745,-0.002397493,0.00027818306,0.15,0.008042473,0.008045897,0.003754469,1310988,0.001013314,0.0022113603,-0.11209722,0.4,0.03525986,0.035263598,0.0052302075,197388,0.0,0.0,0.0,0.5,0.0025000002,0.0025000002,0.0025000002,1,0,1,0,1,0
4228000,4148000,1310988,-0.0003483433,-0.0027328655,0.00027954992,0.15,0.0073605985,0.007363843,0.0037803852,1310988,0.00080629904,0.0023150144,-0.11332186,0.4,0.035245012,0.0352485,0.004976762,197388,0.0,0.0,0.0,0.5,0.0025000002,0.0025000002,0.0025000002,1,0,1,0,1,0
4316000,4236000,1310988,-0.00034680174,-0.0027592264,0.0005413095,0.15,0.0074938224,0.0074971374,0.0038039612,1310988,0.0008108129,0.0023289726,-0.11434075,0.4,0.035883,0.035886526,0.0050668367,197388,0.0,0.0,0.0,0.5,0.0025000002,0.0025000002,0.0025000002,1,0,1,0,1,0
4404000,4324000,1310988,-0.00081650424,-0.0040361574,0.00020273885,0.15,0.0038718702,0.0038740828,0.0037519939,1310988,0.00014299041,0.0026562477,-0.11525089,0.4,0.035319567,0.03532189,0.0051486576,197388,0.0,0.0,0.0,0.5,0.0025000002,0.0025000002,0.0025000002,1,0,1,0,1,0
4436000,4356000,1310988,-0.0008399501,-0.0041917367,0.00020313472,0.15,0.0034178186,0.003419824,0.0037724103,1310988,-2.6525238e-05,0.0027155918,-0.116794996,0.4,0.035068635,0.03507084,0.004727748,197388,0.0,0.0,0.0,0.5,0.0025000002,0.0025000002,0.0025000002,1,0,1,0,1,0
4548000,4468000,1310988,-0.00083894364,-0.0042351154,0.0006503919,0.15,0.0034786966,0.0034807615,0.0036973322,1310988,-3.342882e-05,0.0027290967,-0.11782075,0.4,0.035693765,0.03569597,0.0048119044,197388,0.0,0.0,0.0,0.5,0.0025000002,0.0025000002,0.0025000002,1,0,1,0,1,0
4644000,4564000,1310988,-0.0010150421,-0.0050114463,0.00036019812,0.15,0.0012587904,0.0012596527,0.0036637406,1310988,-0.0007686812,0.002970851,-0.12000858,0.4,0.03414233,0.034144104,0.0043118675,197388,0.0,0.0,0.0,0.5,0.0025000002,0.0025000002,0.0025000002,1,0,1,0,1,0
4780000,4700000,1310988,-0.001026921,-0.005050003,0.00019060457,0.15,0.0012797008,0.0012805936,0.0035398288,1310988,-0.0007719644,0.002999502,-0.121014304,0.4,0.034711376,0.034713157,0.004383445,197388,0.0,0.0,0.0,0.5,0.0025000002,0.0025000002,0.0025000002,1,0,1,0,1,0
4852000,4772000,1310988,-0.001306283,-0.005368875,0.00040144497,0.15,0.00049401395,0.00049424585,0.003466296,1310988,-0.0011610746,0.0033891737,-0.122870125,0.4,0.033826206,0.03382843,0.003809441,197388,0.0,0.0,0.0,0.5,0.0025000002,0.0025000002,0.0025000002,1,0,1,0,1,0
5028000,4948000,1310988,-0.001674318,-0.00545703,0.0011788505,0.15,0.0002353443,0.0002352799,0.0033094494,1310988,-0.0012201535,0.0039331033,-0.12387082,0.4,0.033838514,0.033841185,0.0038707447,197388,0.0,0.0,0.0,0.5,0.0025000002,0.0025000002,0.0025000002,1,0,1,0,1,0
5060000,4980000,1310988,-0.0017167666,-0.0054449486,0.00064667844,0.15,0.0002244664,0.00022439433,0.003207911,1310988,-0.0012249216,0.0040223515,-0.12525463,0.4,0.033892218,0.03389512,0.0032938754,197388,0.0,0.0,0.0,0.5,0.0025000002,0.0025000002,0.0025000002,1,0,1,0,1,0
5268000,5188000,1310988,-0.0019311088,-0.005407036,0.00054286985,0.15,0.00011718192,0.00011699098,0.002913057,1310988,-0.0011314186,0.004403242,-0.12728757,0.4,0.034084976,0.034088366,0.0028146643,197388,0.0,0.0,0.0,0.5,0.0025000002,0.0025000002,0.0025000002,1,0,1,0,1,0
5476000,5396000,1310988,-0.0019839073,-0.0054699425,0.0009789047,0.15,6.843628e-05,6.822385e-05,0.002609144,1310988,-0.0012168706,0.004530365,-0.12900153,0.4,0.03429468,0.03429837,0.0023946092,197388,0.0,0.0,0.0,0.5,0.0025000002,0.0025000002,0.0025000002,1,0,1,0,1,0
5684000,5604000,1310988,-0.0018646971,-0.005520511,0.0016243425,0.15,4.3581556e-05,4.3386164e-05,0.0023099603,1310988,-0.0012851007,0.0043060384,-0.13041182,0.4,0.03448339,0.03448721,0.0020397922,197388,0.0,0.0,0.0,0.5,0.0025000002,0.0025000002,0.0025000002,1,0,1,0,1,0
5892000,5812000,1310988,-0.0017358853,-0.005536704,0.0010596588,0.15,2.9641013e-05,2.9469502e-05,0.0020309268,1310988,-0.0013128973,0.0039962875,-0.13161515,0.4,0.034640294,0.03464415,0.0017455044,197388,0.0,0.0,0.0,0.5,0.0025000002,0.0025000002,0.0025000002,1,0,1,0,1,0
6100000,6020000,1310988,-0.0016561158,-0.0055605057,0.0010558096,0.15,2.120365e-05,2.1049656e-05,0.0017789507,1310988,-0.0013551577,0.003798286,-0.13265023,0.4,0.03476588,0.03476978,0.0015032443,197388,0.0,0.0,0.0,0.5,0.0025000002,0.0025000002,0.0025000002,1,0,1,0,1,0
6396000,6316000,1310988,-0.0016303086,-0.0055870023,0.00090316805,0.15,1.5767417e-05,1.5634243e-05,0.0014883782,1310988,-0.0014083238,0.003724371,-0.13365395,0.4,0.03491357,0.034917515,0.0013059949,197388,0.0,0.0,0.0,0.5,0.0025000002,0.0025000002,0.0025000002,1,0,1,0,1,0
6724000,6644000,1310988,-0.0016076105,-0.0055389497,0.00092364737,0.15,9.554544e-06,9.433774e-06,0.0011915758,1310988,-0.0012343959,0.0036619003,-0.13474746,0.4,0.034997746,0.03500174,0.0010067009,197388,0.0,0.0,0.0,0.5,0.0025000002,0.0025000002,0.0025000002,1,0,1,0,1,0
7316000,7236000,1310988,-0.0014649807,-0.0054100053,0.0016454186,0.15,5.31059e-06,5.2190703e-06,0.00084345974,1310988,-0.0007008708,0.0032136806,-0.13551188,0.4,0.03509582,0.035099693,0.00080168067,197388,0.0,0.0,0.0,0.5,0.0025000002,0.0025000002,0.0025000002,1,0,1,0,1,0
8068000,7988000,1310988,-0.0012577401,-0.0054076766,0.000608828,0.15,3.2670623e-06,3.2151568e-06,0.00054136605,1310988,-0.0007218914,0.0023104919,-0.13582388,0.4,0.035147876,0.035151523,0.000780087,197388,0.0,0.0,0.0,0.5,0.0025000002,0.0025000002,0.0025000002,1,0,1,0,1,0
9068000,8988000,1310988,-0.0011907839,-0.005382646,0.00043402868,0.15,1.9837541e-06,1.94823e-06,0.00033862382,1310988,-0.00058342493,0.0019734167,-0.13593265,0.4,0.035155803,0.035159346,0.00078094495,197388,0.0,0.0,0.0,0.5,0.0025000002,0.0025000002,0.0025000002,1,0,1,0,1,0
10068000,9988000,1310988,-0.0012048684,-0.005376326,-0.00019441494,0.15,1.9130093e-06,1.8900994e-06,0.0002167983,1310988,-0.0006000999,0.001976515,-0.1359744,0.4,0.035165716,0.035169315,0.00078116375,197388,0.0,0.0,0.0,0.5,0.0025000002,0.0025000002,0.0025000002,1,0,1,0,1,0
11068000,10988000,1310988,-0.0011993689,-0.0053733382,-0.00020352102,0.15,1.8147051e-06,1.7992551e-06,0.00014633965,1310988,-0.00057656603,0.0019516407,-0.13589145,0.4,0.035166007,0.035169624,0.0007812315,197388,0.0,0.0,0.0,0.5,0.0025000002,0.0025000002,0.0025000002,1,0,1,0,1,0
12068000,11988000,1310988,-0.0011532309,-0.005384528,-2.8655806e-05,0.15,1.5297408e-06,1.5186714e-06,0.000103216466,1310988,-0.0005462893,0.0016932776,-0.13581288,0.4,0.035156272,0.03515987,0.0007812487,197388,0.0,0.0,0.0,0.5,0.0025000002,0.0025000002,0.0025000002,1,0,1,0,1,0
13068000,12988000,1310988,-0.0011318272,-0.0053970446,1.87856e-05,0.15,1.2610246e-06,1.2527414e-06,7.5580356e-05,1310988,-0.0005856891,0.001560025,-0.13561973,0.4,0.03514554,0.0351491,0.00078124687,197388,0.0,0.0,0.0,0.5,0.0025000002,0.0025000002,0.0025000002,1,0,1,0,1,0
14068000,13988000,1310988,-0.0011403899,-0.0053955675,-5.4568314e-05,0.15,8.848366e-07,8.786277e-07,5.6933648e-05,1310988,-0.0006425714,0.0016474086,-0.13493729,0.4,0.035129204,0.03513276,0.00078124634,197388,0.0,0.0,0.0,0.5,0.0025000002,0.0025000002,0.0025000002,1,0,1,0,1,0
15068000,14988000,1310988,-0.0011369202,-0.0053914455,0.00022406594,0.15,6.9965984e-07,6.9489914e-07,4.392997e-05,1310988,-0.00065106474,0.0017405876,-0.13411596,0.4,0.035120312,0.035123903,0.00078124576,197388,0.0,0.0,0.0,0.5,0.0025000002,0.0025000002,0.0025000002,1,0,1,0,1,0
15596000,15516000,1310988,-0.0011301178,-0.0054187314,0.00034749223,0.15,5.6516177e-07,5.610761e-07,3.825514e-05,1310988,-0.00090428087,0.0017492407,-0.13308045,0.4,0.035113156,0.035116885,0.00078124576,197388,0.0,0.0,0.0,0.5,0.0025000002,0.0025000002,0.0025000002,1,0,1,0,1,0
16596000,16516000,1310988,-0.0011324307,-0.0054224734,0.00036359456,0.15,4.725747e-07,4.6932715e-07,3.0481664e-05,1310988,-0.0010266434,0.0018412198,-0.13210037,0.4,0.035107642,0.035111587,0.00078124634,197388,0.0,0.0,0.0,0.5,0.0025000002,0.0025000002,0.0025000002,1,0,1,0,1,0
17196000,17116000,1310988,-0.001138376,-0.0054368856,0.00041036404,0.15,4.0561238e-07,4.0272613e-07,2.696507e-05,1310988,-0.0012608516,0.0019840037,-0.1308951,0.4,0.035103254,0.03510752,0.00078124576,197388,0.0,0.0,0.0,0.5,0.0025000002,0.0025000002,0.0025000002,1,0,1,0,1,0
18196000,18116000,1310988,-0.0011497936,-0.005439235,0.00041848308,0.15,3.5941423e-07,3.5702422e-07,2.2019572e-05,1310988,-0.0013855709,0.0021514923,-0.12997968,0.4,0.03509939,0.035104077,0.00078124925,197388,0.0,0.0,0.0,0.5,0.0025000002,0.0025000002,0.0025000002,1,0,1,0,1,0
18796000,18716000,1310988,-0.0011472576,-0.0054459423,0.00048980955,0.15,3.2313682e-07,3.2101985e-07,1.9469113e-05,1310988,-0.0015677196,0.0022505727,-0.12886462,0.4,0.035095815,0.035101064,0.00078124576,197388,0.0,0.0,0.0,0.5,0.0025000002,0.0025000002,0.0025000002,1,0,1,0,1,0
19596000,19516000,1310988,-0.0011560818,-0.005450805,0.00056380575,0.15,2.9669334e-07,2.948452e-07,1.6859376e-05,1310988,-0.0018006718,0.0024956672,-0.12730786,0.4,0.035092387,0.035098262,0.00078124576,197388,0.0,0.0,0.0,0.5,0.0025000002,0.0025000002,0.0025000002,1,0,1,0,1,0
20396000,20316000,1310988,-0.0011743741,-0.005454472,0.00056424714,0.15,2.7613154e-07,2.7452248e-07,1.4696454e-05,1310988,-0.0020616597,0.0028424612,-0.12552908,0.4,0.035088878,0.03509552,0.00078124576,197388,0.0,0.0,0.0,0.5,0.0025000002,0.0025000002,0.0025000002,1,0,1,0,1,0
21196000,21116000,1310988,-0.0011835739,-0.0054551116,0.00060592836,0.15,2.5977366e-07,2.5836687e-07,1.2889553e-05,1310988,-0.002319965,0.00313145,-0.12360664,0.4,0.035085488,0.035092946,0.00078124576,197388,0.0,0.0,0.0,0.5,0.0025000002,0.0025000002,0.0025000002,1,0,1,0,1,0
21996000,21916000,1310988,-0.0011930533,-0.0054515554,0.00056119706,0.15,2.464804e-07,2.4524374e-07,1.136883e-05,1310988,-0.002453649,0.0033270973,-0.12231269,0.4,0.03508242,0.035090614,0.00078124576,197388,0.0,0.0,0.0,0.5,0.0025000002,0.0025000002,0.0025000002,1,0,1,0,1,0
22796000,22716000,1310988,-0.0011997013,-0.005432098,0.000531635,0.15,2.3547626e-07,2.343786e-07,1.0080093e-05,1310988,-0.0024768475,0.003486798,-0.12064104,0.4,0.035079822,0.035088554,0.00078124576,197388,0.0,0.0,0.0,0.5,0.0025000002,0.0025000002,0.0025000002,1,0,1,0,1,0
23596000,23516000,1310988,-0.0011963148,-0.0054195654,0.0004937372,0.15,2.2621761e-07,2.252459e-07,8.980938e-06,1310988,-0.002575846,0.003567697,-0.11901511,0.4,0.035077676,0.035086837,0.00078124576,197388,0.0,0.0,0.0,0.5,0.0025000002,0.0025000002,0.0025000002,1,0,1,0,1,0
24396000,24316000,1310988,-0.0012061421,-0.0054157986,0.00046322326,0.15,2.1832098e-07,2.1746878e-07,8.0379095e-06,1310988,-0.0026941714,0.0037597553,-0.11747876,0.4,0.03507573,0.03508531,0.00078124576,197388,0.0,0.0,0.0,0.5,0.0025000002,0.0025000002,0.0025000002,1,0,1,0,1,0
25196000,25116000,1310988,-0.0012090731,-0.005408746,0.00048927753,0.15,2.1153711e-07,2.1078105e-07,7.2243824e-06,1310988,-0.0027475513,0.0038740544,-0.11628409,0.4,0.03507409,0.035083923,0.00078124576,197388,0.0,0.0,0.0,0.5,0.0025000002,0.0025000002,0.0025000002,1,0,1,0,1,0
25996000,25916000,1310988,-0.0012098061,-0.005390325,0.0005113423,0.15,2.0564534e-07,2.0498194e-07,6.4589976e-06,1310988,-0.0027542994,0.0040012724,-0.11437339,0.4,0.035072777,0.035082754,0.00078124576,197388,0.0,0.0,0.0,0.5,0.0025000002,0.0025000002,0.0025000002,1,0,1,0,1,0
26396000,26316000,1310988,-0.0012049241,-0.0053849863,0.0004912702,0.15,2.0301805e-07,2.0239261e-07,6.173151e-06,1310988,-0.0027939724,0.0040260144,-0.11328519,0.4,0.03507228,0.0350823,0.00078124576,197388,0.0,0.0,0.0,0.5,0.0025000002,0.0025000002,0.0025000002,1,0,1,0,1,0
26828000,26748000,1310988,-0.0012048957,-0.005378719,0.0004789732,0.15,2.0080263e-07,2.0021777e-07,5.852162e-06,1310988,-0.0028157409,0.004081738,-0.112286456,0.4,0.03507185,0.035081893,0.00078124576,197388,0.0,0.0,0.0,0.5,0.0025000002,0.0025000002,0.0025000002,1,0,1,0,1,0
27596000,27516000,1310988,-0.001200561,-0.0053622574,0.0004594474,0.15,1.9610113e-07,1.9558692e-07,5.3203726e-06,1310988,-0.0028033329,0.0041318065,-0.11064364,0.4,0.03507126,0.035081346,0.00078124576,197388,0.0,0.0,0.0,0.5,0.0025000002,0.0025000002,0.0025000002,1,0,1,0,1,0
27996000,27916000,1310988,-0.0011960735,-0.0053551085,0.0004648595,0.15,1.9410245e-07,1.9361933e-07,5.1008833e-06,1310988,-0.0028022362,0.0041457955,-0.10961623,0.4,0.035071105,0.035081193,0.00078124576,197388,0.0,0.0,0.0,0.5,0.0025000002,0.0025000002,0.0025000002,1,0,1,0,1,0
28396000,28316000,1310988,-0.0011939122,-0.0053494205,0.00044236597,0.15,1.9221557e-07,1.9176686e-07,4.8530374e-06,1310988,-0.0028121045,0.004167062,-0.108162746,0.4,0.035070978,0.03508107,0.00078124576,197388,0.0,0.0,0.0,0.5,0.0025000002,0.0025000002,0.0025000002,1,0,1,0,1,0
28796000,28716000,1310988,-0.0011885236,-0.005340847,0.00043927995,0.15,1.9046333e-07,1.9004068e-07,4.6595305e-06,1310988,-0.0027917512,0.0041773827,-0.10688376,0.4,0.035070866,0.03508096,0.00078124576,197388,0.0,0.0,0.0,0.5,0.0025000002,0.0025000002,0.0025000002,1,0,1,0,1,0
29196000,29116000,1310988,-0.0011831028,-0.0053317957,0.00043018855,0.15,1.8880905e-07,1.8841382e-07,4.4405374e-06,1310988,-0.0027572245,0.004186463,-0.10507297,0.4,0.03507079,0.0350809,0.00078124576,197388,0.0,0.0,0.0,0.5,0.0025000002,0.0025000002,0.0025000002,1,0,1,0,1,0
29996000,29916000,1310988,-0.0011762298,-0.005315799,0.0004399581,0.15,1.8581277e-07,1.8545997e-07,4.0751024e-06,1310988,-0.0027088446,0.004224604,-0.10380601,0.4,0.035070647,0.035080776,0.00078124576,197388,0.0,0.0,0.0,0.5,0.0025000002,0.0025000002,0.0025000002,1,0,1,0,1,0
30396000,30316000,1310988,-0.0011720965,-0.0053013824,0.0004006763,0.15,1.844458e-07,1.8411104e-07,3.892952e-06,1310988,-0.0026194213,0.0042474708,-0.102260076,0.4,0.035070535,0.035080694,0.00078124576,197388,0.0,0.0,0.0,0.5,0.0025000002,0.0025000002,0.0025000002,1,0,1,0,1,0
30796000,30716000,1310988,-0.0011667871,-0.005292214,0.000397275,0.15,1.8317276e-07,1.8284919e-07,3.7502346e-06,1310988,-0.002540971,0.004262641,-0.10106312,0.4,0.03507039,0.0350806,0.00078124576,197388,0.0,0.0,0.0,0.5,0.0025000002,0.0025000002,0.0025000002,1,0,1,0,1,0
31204000,31124000,1310988,-0.0011643287,-0.0052813166,0.00039730026,0.15,1.820298e-07,1.8171934e-07,3.5879214e-06,1310988,-0.0024698086,0.0043015704,-0.10006469,0.4,0.035070214,0.035080485,0.00078124576,197388,0.0,0.0,0.0,0.5,0.0025000002,0.0025000002,0.0025000002,1,0,1,0,1,0
31596000,31516000,1310988,-0.0011635949,-0.0052741407,0.00037206488,0.15,1.808418e-07,1.8053902e-07,3.4604855e-06,1310988,-0.0023871996,0.004332696,-0.09869029,0.4,0.035069995,0.03508035,0.00078124576,197388,0.0,0.0,0.0,0.5,0.0025000002,0.0025000002,0.0025000002,1,0,1,0,1,0
31996000,31916000,1310988,-0.0011651036,-0.0052649854,0.00037342974,0.15,1.7977568e-07,1.7948172e-07,3.3153049e-06,1310988,-0.0022790811,0.004392997,-0.097112484,0.4,0.03506973,0.03508019,0.00078124576,197388,0.0,0.0,0.0,0.5,0.0025000002,0.0025000002,0.0025000002,1,0,1,0,1,0
32396000,32316000,1310988,-0.0011653067,-0.00525566,0.00036279825,0.15,1.7877387e-07,1.7848717e-07,3.1788122e-06,1310988,-0.0021672393,0.0044511757,-0.0956677,0.4,0.03506942,0.035080016,0.00078124576,197388,0.0,0.0,0.0,0.5,0.0025000002,0.0025000002,0.0025000002,1,0,1,0,1,0
32796000,32716000,1310988,-0.0011654764,-0.005246883,0.0003508891,0.15,1.7783925e-07,1.7755552e-07,3.071672e-06,1310988,-0.002035681,0.004519704,-0.09407794,0.4,0.035069082,0.03507981,0.00078124576,197388,0.0,0.0,0.0,0.5,0.0025000002,0.0025000002,0.0025000002,1,0,1,0,1,0
33196000,33116000,1310988,-0.0011709251,-0.005238048,0.00032659053,0.15,1.7695179e-07,1.766728e-07,2.9492326e-06,1310988,-0.0018962778,0.004635778,-0.092063785,0.4,0.035068706,0.03507958,0.00078124576,197388,0.0,0.0,0.0,0.5,0.0025000002,0.0025000002,0.0025000002,1,0,1,0,1,0
33596000,33516000,1310988,-0.0011745404,-0.0052291914,0.00031808214,0.15,1.7611622e-07,1.758407e-07,2.833794e-06,1310988,-0.0017886602,0.004736849,-0.09083128,0.4,0.035068233,0.03507929,0.00078124576,197388,0.0,0.0,0.0,0.5,0.0025000002,0.0025000002,0.0025000002,1,0,1,0,1,0
33996000,33916000,1310988,-0.0011785624,-0.005225085,0.00033174807,0.15,1.7533539e-07,1.7506096e-07,2.7429746e-06,1310988,-0.0016018916,0.004866919,-0.088431284,0.4,0.035067685,0.035078935,0.00078124576,197388,0.0,0.0,0.0,0.5,0.0025000002,0.0025000002,0.0025000002,1,0,1,0,1,0
34396000,34316000,1310988,-0.0011833084,-0.005214279,0.000320214,0.15,1.7459246e-07,1.7432134e-07,2.6389332e-06,1310988,-0.0014671121,0.005008727,-0.08726331,0.4,0.03506706,0.03507851,0.00078124576,197388,0.0,0.0,0.0,0.5,0.0025000002,0.0025000002,0.0025000002,1,0,1,0,1,0
34796000,34716000,1310988,-0.0011846111,-0.0052077,0.000320966,0.15,1.7389209e-07,1.7362362e-07,2.5405584e-06,1310988,-0.0013310099,0.005101005,-0.08613609,0.4,0.035066318,0.035078008,0.00078124576,197388,0.0,0.0,0.0,0.5,0.0025000002,0.0025000002,0.0025000002,1,0,1,0,1,0
35596000,35516000,1310988,-0.0011937858,-0.0051876362,0.00028200453,0.15,1.7261716e-07,1.7235132e-07,2.3738417e-06,1310988,-0.0010746763,0.0053759194,-0.084566236,0.4,0.035064515,0.035076804,0.00078124576,197388,0.0,0.0,0.0,0.5,0.0025000002,0.0025000002,0.0025000002,1,0,1,0,1,0
35996000,35916000,1310988,-0.0011948649,-0.0051756995,0.00027080422,0.15,1.7203739e-07,1.7177193e-07,2.3035286e-06,1310988,-0.0008424229,0.005510533,-0.083389945,0.4,0.035063483,0.035076126,0.00078124576,197388,0.0,0.0,0.0,0.5,0.0025000002,0.0025000002,0.0025000002,1,0,1,0,1,0
36796000,36716000,1310988,-0.0012024272,-0.005153958,0.00020687556,0.15,1.7096505e-07,1.7070634e-07,2.1454555e-06,1310988,-0.0005422872,0.005797441,-0.0819849,0.4,0.03506126,0.035074662,0.00078124576,197388,0.0,0.0,0.0,0.5,0.0025000002,0.0025000002,0.0025000002,1,0,1,0,1,0
37596000,37516000,1310988,-0.0012118496,-0.0051346812,0.000198591,0.15,1.7001852e-07,1.6976645e-07,2.0145346e-06,1310988,-0.0003240592,0.0060982094,-0.08091997,0.4,0.03505898,0.03507321,0.00078124576,197388,0.0,0.0,0.0,0.5,0.0025000002,0.0025000002,0.0025000002,1,0,1,0,1,0
38396000,38316000,1310988,-0.0012167654,-0.005112484,0.00019696898,0.15,1.6917981e-07,1.6893696e-07,1.8950665e-06,1310988,-3.2720163e-05,0.006382458,-0.079385966,0.4,0.03505703,0.035072,0.00078124576,197388,0.0,0.0,0.0,0.5,0.0025000002,0.0025000002,0.0025000002,1,0,1,0,1,0
39196000,39116000,1310988,-0.0012202589,-0.0050997613,0.00018768258,0.15,1.6843704e-07,1.6820489e-07,1.7858509e-06,1310988,0.00019075007,0.0065613347,-0.077210136,0.4,0.03505547,0.03507107,0.00078124576,197388,0.0,0.0,0.0,0.5,0.0025000002,0.0025000002,0.0025000002,1,0,1,0,1,0
39996000,39916000,1310988,-0.0012245364,-0.005080857,0.00018657504,0.15,1.677787e-07,1.6755656e-07,1.6859086e-06,1310988,0.00034579955,0.0068090553,-0.075178474,0.4,0.03505418,0.035070304,0.00078124576,197388,0.0,0.0,0.0,0.5,0.0025000002,0.0025000002,0.0025000002,1,0,1,0,1,0
40404000,40324000,1310988,-0.0012294296,-0.0050749076,0.00018882149,0.15,1.6751498e-07,1.672995e-07,1.6348075e-06,1310988,0.0003759444,0.00689567,-0.07402826,0.4,0.03505361,0.03506995,0.00078124576,197388,0.0,0.0,0.0,0.5,0.0025000002,0.0025000002,0.0025000002,1,0,1,0,1,0
40796000,40716000,1310988,-0.0012324062,-0.0050669373,0.00017367792,0.15,1.6717455e-07,1.6696369e-07,1.5944034e-06,1310988,0.00040741835,0.0070019816,-0.07293506,0.4,0.035053052,0.035069577,0.00078124576,197388,0.0,0.0,0.0,0.5,0.0025000002,0.0025000002,0.0025000002,1,1,1,0,1,0
41196000,41116000,1310988,-0.0012367173,-0.0050602434,0.00015830288,0.15,1.6690873e-07,1.6670393e-07,1.547365e-06,1310988,0.00045611148,0.007103816,-0.071308985,0.4,0.03505249,0.0350692,0.00078124576,197388,0.0,0.0,0.0,0.5,0.0025000002,0.0025000002,0.0025000002,1,1,1,0,1,0
41596000,41516000,1310988,-0.0012379996,-0.005055586,0.00016154807,0.15,1.6665636e-07,1.6645774e-07,1.5024069e-06,1310988,0.0005042339,0.0071775457,-0.070119664,0.4,0.035051923,0.035068803,0.00078124576,197388,0.0,0.0,0.0,0.5,0.0025000002,0.0025000002,0.0025000002,1,1,1,0,1,0
41996000,41916000,1310988,-0.0012384948,-0.0050489735,0.00015456701,0.15,1.664188e-07,1.6622548e-07,1.4669833e-06,1310988,0.0005688709,0.0072785607,-0.06856477,0.4,0.03505138,0.035068408,0.00078124576,197388,0.0,0.0,0.0,0.5,0.0025000002,0.0025000002,0.0025000002,1,1,1,0,1,0
42396000,42316000,1310988,-0.0012380129,-0.0050451527,0.00016471039,0.15,1.6618861e-07,1.6600328e-07,1.425558e-06,1310988,0.0006416092,0.0073501673,-0.0669733,0.4,0.03505088,0.035068024,0.00078124576,197388,0.0,0.0,0.0,0.5,0.0025000002,0.0025000002,0.0025000002,1,1,1,0,1,0
42796000,42716000,1310988,-0.0012389094,-0.005039606,0.00015991075,0.15,1.659712e-07,1.657929e-07,1.3929365e-06,1310988,0.0006873168,0.007429712,-0.06540189,0.4,0.03505043,0.035067666,0.00078124576,197388,0.0,0.0,0.0,0.5,0.0025000002,0.0025000002,0.0025000002,1,1,1,0,1,0
43196000,43116000,1310988,-0.0012387357,-0.005034874,0.00016247161,0.15,1.6576077e-07,1.6559152e-07,1.3547111e-06,1310988,0.0007493361,0.0075060534,-0.06355849,0.4,0.03505,0.035067324,0.00078124576,197388,0.0,0.0,0.0,0.5,0.0025000002,0.0025000002,0.0025000002,1,1,1,0,1,0
43596000,43516000,1310988,-0.0012350207,-0.0050308835,0.00015022489,0.15,1.6556311e-07,1.6540162e-07,1.3246298e-06,1310988,0.00084440067,0.007592473,-0.061471168,0.4,0.035049614,0.035066992,0.00078124576,197388,0.0,0.0,0.0,0.5,0.0025000002,0.0025000002,0.0025000002,1,1,1,0,1,0
43996000,43916000,1310988,-0.0012313806,-0.0050297333,0.00014767922,0.15,1.6537163e-07,1.6521976e-07,1.2893149e-06,1310988,0.00092310755,0.007646955,-0.059661955,0.4,0.035049252,0.03506667,0.00078124576,197388,0.0,0.0,0.0,0.5,0.0025000002,0.0025000002,0.0025000002,1,1,1,0,1,0
44396000,44316000,1310988,-0.0012291123,-0.0050268,0.00013650108,0.15,1.6519006e-07,1.6504775e-07,1.2555365e-06,1310988,0.00097622495,0.007708583,-0.057915542,0.4,0.0350489,0.035066355,0.00078124576,197388,0.0,0.0,0.0,0.5,0.0025000002,0.0025000002,0.0025000002,1,1,1,0,1,0
44796000,44716000,1310988,-0.0012248529,-0.005024349,0.00013278783,0.15,1.6501942e-07,1.648849e-07,1.2290014e-06,1310988,0.0010445847,0.00777175,-0.056136902,0.4,0.035048597,0.03506605,0.00078124576,197388,0.0,0.0,0.0,0.5,0.0025000002,0.0025000002,0.0025000002,1,1,1,0,1,0
45196000,45116000,1310988,-0.001220982,-0.005023731,0.0001293286,0.15,1.6485451e-07,1.6472814e-07,1.1977348e-06,1310988,0.0011139954,0.007822461,-0.054090064,0.4,0.035048302,0.035065744,0.00078124576,197388,0.0,0.0,0.0,0.5,0.0025000002,0.0025000002,0.0025000002,1,1,1,0,1,0
45596000,45516000,1310988,-0.0012176135,-0.00502146,0.00011098664,0.15,1.6469771e-07,1.6457906e-07,1.1677604e-06,1310988,0.0011677721,0.007886129,-0.052321743,0.4,0.035048008,0.03506543,0.00078124576,197388,0.0,0.0,0.0,0.5,0.0025000002,0.0025000002,0.0025000002,1,1,1,0,1,0
45996000,45916000,1310988,-0.0012178717,-0.005019011,0.00010782819,0.15,1.6455057e-07,1.6443737e-07,1.1442515e-06,1310988,0.001184162,0.0079570655,-0.050541006,0.4,0.035047702,0.035065092,0.00078124576,197388,0.0,0.0,0.0,0.5,0.0025000002,0.0025000002,0.0025000002,1,1,1,0,1,0
46396000,46316000,1310988,-0.0012167867,-0.0050187167,0.00010658143,0.15,1.6440826e-07,1.6430047e-07,1.1164828e-06,1310988,0.0012041499,0.008010446,-0.048964806,0.4,0.035047382,0.035064727,0.00078124576,197388,0.0,0.0,0.0,0.5,0.0025000002,0.0025000002,0.0025000002,1,1,1,0,1,0
46796000,46716000,1310988,-0.0012162181,-0.0050132903,0.00010435528,0.15,1.6427406e-07,1.6417071e-07,1.0898265e-06,1310988,0.0012211918,0.008142451,-0.0470742,0.4,0.035047058,0.03506433,0.00078124576,197388,0.0,0.0,0.0,0.5,0.0025000002,0.0025000002,0.0025000002,1,1,1,0,1,0
47196000,47116000,1310988,-0.0012169487,-0.005013454,9.491224e-05,0.15,1.6414792e-07,1.6404687e-07,1.0689716e-06,1310988,0.0012164037,0.0082257325,-0.045353882,0.4,0.035046715,0.035063874,0.00078124576,197388,0.0,0.0,0.0,0.5,0.0025000002,0.0025000002,0.0025000002,1,1,1,0,1,0
47596000,47516000,1310988,-0.0012140573,-0.005010001,8.9259534e-05,0.15,1.6402633e-07,1.6392785e-07,1.044228e-06,1310988,0.0012591742,0.008332979,-0.04381443,0.4,0.03504634,0.035063364,0.00078124576,197388,0.0,0.0,0.0,0.5,0.0025000002,0.0025000002,0.0025000002,1,1,1,0,1,0
47996000,47916000,1310988,-0.0012150452,-0.0050078733,8.3115294e-05,0.15,1.6391392e-07,1.6381651e-07,1.0248668e-06,1310988,0.0012560295,0.008478053,-0.041818116,0.4,0.035045963,0.03506283,0.00078124576,197388,0.0,0.0,0.0,0.5,0.0025000002,0.0025000002,0.0025000002,1,1,1,0,1,0
48396000,48316000,1310988,-0.001210955,-0.0050055673,7.65673e-05,0.15,1.6380662e-07,1.6371034e-07,1.0018297e-06,1310988,0.0013101705,0.008562524,-0.04051957,0.4,0.03504558,0.03506226,0.00078124576,197388,0.0,0.0,0.0,0.5,0.0025000002,0.0025000002,0.0025000002,1,1,1,0,1,0
48796000,48716000,1310988,-0.0012112813,-0.0050077527,7.323267e-05,0.15,1.6370588e-07,1.6361011e-07,9.796753e-07,1310988,0.0012997056,0.008616458,-0.03933219,0.4,0.035045203,0.03506167,0.00078124576,197388,0.0,0.0,0.0,0.5,0.0025000002,0.0025000002,0.0025000002,1,1,1,0,1,0
49196000,49116000,1310988,-0.0012107302,-0.005003517,7.360515e-05,0.15,1.6361285e-07,1.6351669e-07,9.623835e-07,1310988,0.0013279988,0.008778019,-0.037586935,0.4,0.035044827,0.035061073,0.00078124576,197388,0.0,0.0,0.0,0.5,0.0025000002,0.0025000002,0.0025000002,1,1,1,0,1,0
49596000,49516000,1310988,-0.001211642,-0.0049994662,7.756252e-05,0.15,1.635242e-07,1.6342851e-07,9.417497e-07,1310988,0.0013367311,0.0089358445,-0.036030415,0.4,0.035044465,0.03506048,0.00078124576,197388,0.0,0.0,0.0,0.5,0.0025000002,0.0025000002,0.0025000002,1,1,1,0,1,0
49996000,49916000,1310988,-0.001211268,-0.004995082,7.5193464e-05,0.15,1.634409e-07,1.6334594e-07,9.2190595e-07,1310988,0.0013641729,0.009099786,-0.034288,0.4,0.035044122,0.035059925,0.00078124576,197388,0.0,0.0,0.0,0.5,0.0025000002,0.0025000002,0.0025000002,1,1,1,0,1,0
50396000,50316000,1310988,-0.0012109944,-0.004989594,7.427475e-05,0.15,1.6336301e-07,1.6326888e-07,9.064577e-07,1310988,0.001392302,0.009273206,-0.032438572,0.4,0.035043795,0.03505941,0.00078124576,197388,0.0,0.0,0.0,0.5,0.0025000002,0.0025000002,0.0025000002,1,1,1,0,1,0
50804000,50724000,1310988,-0.0012075212,-0.004986372,7.5648815e-05,0.15,1.6332935e-07,1.6323716e-07,8.8798896e-07,1310988,0.0014404459,0.009395551,-0.03073731,0.4,0.035043493,0.035058945,0.00078124576,197388,0.0,0.0,0.0,0.5,0.0025000002,0.0025000002,0.0025000002,1,1,1,0,1,0
51204000,51124000,1310988,-0.0012039526,-0.0049861986,7.16108e-05,0.15,1.6324329e-07,1.6315283e-07,8.701461e-07,1310988,0.0014814888,0.009487223,-0.029051058,0.4,0.035043236,0.03505853,0.00078124576,197388,0.0,0.0,0.0,0.5,0.0025000002,0.0025000002,0.0025000002,1,1,1,0,1,0
51596000,51516000,1310988,-0.001201967,-0.0049820812,6.5905864e-05,0.15,1.6312494e-07,1.6303551e-07,8.5624174e-07,1310988,0.0015224786,0.009616108,-0.027383938,0.4,0.035042997,0.035058126,0.00078124576,197388,0.0,0.0,0.0,0.5,0.0025000002,0.0025000002,0.0025000002,1,1,1,0,1,0
51996000,51916000,1310988,-0.0011978018,-0.004978561,6.337079e-05,0.15,1.630692e-07,1.6298164e-07,8.3957934e-07,1310988,0.001576586,0.009735654,-0.02566121,0.4,0.03504278,0.035057742,0.00078124576,197388,0.0,0.0,0.0,0.5,0.0025000002,0.0025000002,0.0025000002,1,1,1,0,1,0
52396000,52316000,1310988,-0.0011933388,-0.0049750786,6.192135e-05,0.15,1.6301446e-07,1.6292879e-07,8.235238e-07,1310988,0.0016357454,0.00987198,-0.023598842,0.4,0.035042588,0.035057385,0.00078124576,197388,0.0,0.0,0.0,0.5,0.0025000002,0.0025000002,0.0025000002,1,1,1,0,1,0
52796000,52716000,1310988,-0.0011892911,-0.004973608,5.2264215e-05,0.15,1.6296175e-07,1.6287736e-07,8.1110716e-07,1310988,0.0016842907,0.009967344,-0.021980662,0.4,0.0350424,0.035057034,0.00078124576,197388,0.0,0.0,0.0,0.5,0.0025000002,0.0025000002,0.0025000002,1,1,1,0,1,0
53196000,53116000,1310988,-0.0011812763,-0.0049691317,5.2645275e-05,0.15,1.6290954e-07,1.6282726e-07,7.96064e-07,1310988,0.0017664663,0.010081315,-0.020211892,0.4,0.035042234,0.035056703,0.00078124576,197388,0.0,0.0,0.0,0.5,0.0025000002,0.0025000002,0.0025000002,1,1,1,0,1,0
53596000,53516000,1310988,-0.0011769929,-0.004965439,5.1794992e-05,0.15,1.6285998e-07,1.627797e-07,7.844596e-07,1310988,0.0018168127,0.01019564,-0.018467749,0.4,0.035042074,0.03505639,0.00078124576,197388,0.0,0.0,0.0,0.5,0.0025000002,0.0025000002,0.0025000002,1,1,1,0,1,0
54004000,53924000,1310988,-0.0011711484,-0.004963808,4.750445e-05,0.15,1.628532e-07,1.627753e-07,7.7041875e-07,1310988,0.0018730189,0.010286397,-0.016796978,0.4,0.03504192,0.035056088,0.00078124576,197388,0.0,0.0,0.0,0.5,0.0025000002,0.0025000002,0.0025000002,1,1,1,0,1,0
54396000,54316000,1310988,-0.0011668362,-0.004957274,4.4361695e-05,0.15,1.6275018e-07,1.6267425e-07,7.5950345e-07,1310988,0.0019313396,0.010413348,-0.015036703,0.4,0.035041783,0.03505581,0.00078124576,197388,0.0,0.0,0.0,0.5,0.0025000002,0.0025000002,0.0025000002,1,1,1,0,1,0
54796000,54716000,1310988,-0.001163625,-0.004955031,5.005775e-05,0.15,1.6271042e-07,1.6263704e-07,7.462687e-07,1310988,0.0019683165,0.010498129,-0.013508058,0.4,0.035041653,0.035055563,0.00078124576,197388,0.0,0.0,0.0,0.5,0.0025000002,0.0025000002,0.0025000002,1,1,1,0,1,0
55196000,55116000,1310988,-0.0011599961,-0.004955011,4.9929207e-05,0.15,1.6267154e-07,1.6260039e-07,7.361161e-07,1310988,0.0020023163,0.010561223,-0.011940679,0.4,0.035041522,0.035055324,0.00078124576,197388,0.0,0.0,0.0,0.5,0.0025000002,0.0025000002,0.0025000002,1,1,1,0,1,0
55596000,55516000,1310988,-0.001156081,-0.004958255,4.4773114e-05,0.15,1.626325e-07,1.6256406e-07,7.2368977e-07,1310988,0.002028556,0.01059234,-0.010531931,0.4,0.035041388,0.035055097,0.00078124576,197388,0.0,0.0,0.0,0.5,0.0025000002,0.0025000002,0.0025000002,1,0,1,0,1,0
55996000,55916000,1310988,-0.0011536438,-0.004957377,3.954721e-05,0.15,1.625947e-07,1.625287e-07,7.116803e-07,1310988,0.002064301,0.010660941,-0.008897378,0.4,0.03504126,0.035054874,0.00078124576,197388,0.0,0.0,0.0,0.5,0.0025000002,0.0025000002,0.0025000002,1,0,1,0,1,0
56396000,56316000,1310988,-0.0011473111,-0.004959854,4.7508995e-05,0.15,1.6255946e-07,1.624949e-07,7.0251156e-07,1310988,0.0021142645,0.010698427,-0.0072447727,0.4,0.035041124,0.035054646,0.00078124576,197388,0.0,0.0,0.0,0.5,0.0025000002,0.0025000002,0.0025000002,1,0,1,0,1,0
56796000,56716000,1310988,-0.0011414324,-0.0049575726,4.6624515e-05,0.15,1.6252534e-07,1.62462e-07,6.912236e-07,1310988,0.0021870327,0.010760041,-0.0056909965,0.4,0.035040986,0.03505443,0.00078124576,197388,0.0,0.0,0.0,0.5,0.0025000002,0.0025000002,0.0025000002,1,0,1,0,1,0
57196000,57116000,1310988,-0.001135653,-0.0049534603,4.2068586e-05,0.15,1.6249335e-07,1.6243055e-07,6.8263506e-07,1310988,0.0022678687,0.01082181,-0.004255228,0.4,0.035040844,0.035054218,0.00078124576,197388,0.0,0.0,0.0,0.5,0.0025000002,0.0025000002,0.0025000002,1,0,1,0,1,0
57596000,57516000,1310988,-0.0011269154,-0.004951581,3.6626712e-05,0.15,1.6246138e-07,1.623994e-07,6.7201955e-07,1310988,0.002363981,0.010858695,-0.0027117927,0.4,0.035040688,0.035054006,0.00078124576,197388,0.0,0.0,0.0,0.5,0.0025000002,0.0025000002,0.0025000002,1,0,1,0,1,0
58004000,57924000,1310988,-0.0011224486,-0.004947819,3.280512e-05,0.15,1.624842e-07,1.6242151e-07,6.6403464e-07,1310988,0.002464924,0.010859717,-0.0017121369,0.4,0.035039973,0.03505325,0.00078124576,197388,0.0,0.0,0.0,0.5,0.0025000002,0.0025000002,0.0025000002,1,0,1,0,1,0
58396000,58316000,1310988,-0.0011180476,-0.0049425117,2.4382509e-05,0.15,1.6234098e-07,1.6226076e-07,6.5389725e-07,1310988,0.0028300083,0.010658039,-0.000772299,0.4,0.035028126,0.0350416,0.00078124576,197388,0.0,0.0,0.0,0.5,0.0025000002,0.0025000002,0.0025000002,1,0,1,0,1,0
59196000,59116000,1310988,-0.0011172034,-0.004945195,2.3347087e-05,0.15,1.6209607e-07,1.6200003e-07,6.3690857e-07,1310988,0.0025574574,0.010631653,0.0011937369,0.4,0.034944627,0.034959003,0.00078124576,197388,0.0,0.0,0.0,0.5,0.0025000002,0.0025000002,0.0025000002,1,0,1,0,1,0
59596000,59516000,1310988,-0.0011101795,-0.004949556,2.2976123e-05,0.15,1.6201881e-07,1.619292e-07,6.278267e-07,1310988,0.0021216872,0.010008705,0.0026875099,0.4,0.034916345,0.03493133,0.00078124576,197388,0.0,0.0,0.0,0.5,0.0025000002,0.0025000002,0.0025000002,1,0,1,0,1,0
59996000,59916000,1310988,-0.0011039381,-0.004955016,2.2756518e-05,0.15,1.6197208e-07,1.6189375e-07,6.210079e-07,1310988,0.0016815058,0.009565031,0.00408101,0.4,0.03489826,0.034913786,0.00078124576,197388,0.0,0.0,0.0,0.5,0.0025000002,0.0025000002,0.0025000002,1,0,1,0,1,0
60396000,60316000,1310988,-0.0011022099,-0.0049616806,1.173697e-05,0.15,1.6195393e-07,1.618891e-07,6.1243713e-07,1310988,0.0012968169,0.0094792675,0.0052123005,0.4,0.03488953,0.03490539,0.00078124576,197388,0.0,0.0,0.0,0.5,0.0025000002,0.0025000002,0.0025000002,1,0,1,0,1,0
60796000,60716000,1310988,-0.0010980283,-0.00496281,1.1481825e-05,0.15,1.6225185e-07,1.6219752e-07,6.098431e-07,1310988,0.0015382387,0.010607888,0.00664876,0.4,0.034703247,0.034717675,0.00078124576,197388,0.0,0.0,0.0,0.5,0.0025000002,0.0025000002,0.0025000002,1,0,1,0,1,0
61196000,61116000,1310988,-0.0010981472,-0.0049638334,1.1593558e-05,0.15,1.6357362e-07,1.6352398e-07,6.130236e-07,1310988,0.0028753856,0.010599599,0.008001253,0.4,0.032141343,0.032151002,0.00078124576,197388,0.0,0.0,0.0,0.5,0.0025000002,0.0025000002,0.0025000002,1,0,1,0,1,0
61596000,61516000,1310988,-0.0010987842,-0.0049639046,1.1238264e-05,0.15,1.6598999e-07,1.6594122e-07,6.1620847e-07,1310988,0.0031226424,0.009299675,0.009104493,0.4,0.027756821,0.027763022,0.00078124576,197388,0.0,0.0,0.0,0.5,0.0025000002,0.0025000002,0.0025000002,1,0,1,0,1,0
61996000,61916000,1310988,-0.0010993651,-0.0049641733,1.1106799e-05,0.15,1.6894774e-07,1.6889864e-07,6.1939403e-07,1310988,0.004535807,0.006353698,0.009962462,0.4,0.024027739,0.024033187,0.00078124576,197388,0.0,0.0,0.0,0.5,0.0025000002,0.0025000002,0.0025000002,1,0,1,0,1,0
62396000,62316000,1310988,-0.0010994448,-0.0049641114,1.133539e-05,0.15,1.7199568e-07,1.7194651e-07,6.225679e-07,1310988,0.007967752,0.007471853,0.011024843,0.4,0.021632263,0.021638129,0.00078124576,197388,0.0,0.0,0.0,0.5,0.0025000002,0.0025000002,0.0025000002,1,0,1,0,1,0
62796000,62716000,1310988,-0.0010990686,-0.004963674,1.178112e-05,0.15,1.7501998e-07,1.7497112e-07,6.2573525e-07,1310988,0.010083065,0.0045920988,0.01233117,0.4,0.020205598,0.020212071,0.00078124576,197388,0.0,0.0,0.0,0.5,0.0025000002,0.0025000002,0.0025000002,1,0,1,0,1,0
63204000,63124000,1310988,-0.0010989002,-0.0049635214,1.1497687e-05,0.15,1.7809354e-07,1.7804525e-07,6.289451e-07,1310988,0.010423838,0.0035396104,0.013478492,0.4,0.019344728,0.019351684,0.00078124576,197388,0.0,0.0,0.0,0.5,0.0025000002,0.0025000002,0.0025000002,1,0,1,0,1,0
63596000,63516000,1310988,-0.00109882,-0.0049632583,1.1912031e-05,0.15,1.8105307e-07,1.8100542e-07,6.320213e-07,1310988,0.010793465,0.0028773898,0.014649485,0.4,0.018817509,0.018824842,0.00078124576,197388,0.0,0.0,0.0,0.5,0.0025000002,0.0025000002,0.0025000002,1,0,1,0,1,0
63996000,63916000,1310988,-0.0010982796,-0.0049627842,1.202942e-05,0.15,1.8410698e-07,1.8405997e-07,6.3513056e-07,1310988,0.011516126,0.0014418615,0.015725415,0.4,0.018479038,0.018486708,0.00078124576,197388,0.0,0.0,0.0,0.5,0.0025000002,0.0025000002,0.0025000002,1,0,1,0,1,0
64396000,64316000,1310988,-0.0010975832,-0.004962672,1.1862753e-05,0.15,1.8719946e-07,1.8715303e-07,6.382163e-07,1310988,0.011479093,-0.00011111025,0.01688941,0.4,0.018255083,0.018263076,0.00078124576,197388,0.0,0.0,0.0,0.5,0.0025000002,0.0025000002,0.0025000002,1,0,1,0,1,0
64796000,64716000,1310988,-0.001097355,-0.00496228,1.2156148e-05,0.15,1.9033024e-07,1.9028431e-07,6.413004e-07,1310988,0.011846453,-0.0008121904,0.01785422,0.4,0.018102843,0.018111138,0.00078124576,197388,0.0,0.0,0.0,0.5,0.0025000002,0.0025000002,0.0025000002,1,0,1,0,1,0
65196000,65116000,1310988,-0.001097372,-0.004962554,1.2085702e-05,0.15,1.9349224e-07,1.9344667e-07,6.4433556e-07,1310988,0.010561634,-0.00067256624,0.018786486,0.4,0.017997447,0.01800604,0.00078124576,197388,0.0,0.0,0.0,0.5,0.0025000002,0.0025000002,0.0025000002,1,0,1,0,1,0
65596000,65516000,1310988,-0.0010973695,-0.004962467,1.1164295e-05,0.15,1.9667246e-07,1.96627e-07,6.473733e-07,1310988,0.010442895,-0.0011473849,0.020150814,0.4,0.017923368,0.017932246,0.00078124576,197388,0.0,0.0,0.0,0.5,0.0025000002,0.0025000002,0.0025000002,1,0,1,0,1,0
66396000,66316000,1310988,-0.001097861,-0.004962328,1.1046763e-05,0.15,2.030077e-07,2.029615e-07,6.5333126e-07,1310988,0.01013131,-0.0018345438,0.021508943,0.4,0.01783286,0.01784232,0.00078124576,197388,0.0,0.0,0.0,0.5,0.0025000002,0.0025000002,0.0025000002,1,0,1,0,1,0
67196000,67116000,1310988,-0.001098409,-0.004961702,1.1556355e-05,0.15,2.0912407e-07,2.0907586e-07,6.5915737e-07,1310988,0.009848364,-0.0019960513,0.022495627,0.4,0.017787213,0.017797139,0.00078124576,197388,0.0,0.0,0.0,0.5,0.0025000002,0.0025000002,0.0025000002,1,0,1,0,1,0
67996000,67916000,1310988,-0.0011000189,-0.0049626883,1.053785e-05,0.15,2.1473325e-07,2.1468193e-07,6.6476457e-07,1310988,0.010033664,-0.0022344473,0.02397384,0.4,0.01776518,0.017775385,0.00078124576,197388,0.0,0.0,0.0,0.5,0.0025000002,0.0025000002,0.0025000002,1,0,1,0,1,0
68996000,68916000,1310988,-0.0011019021,-0.0049680644,1.0513617e-05,0.15,2.2109863e-07,2.21043e-07,6.7159823e-07,1310988,0.010420419,-0.0023339677,0.024211518,0.4,0.017755067,0.017765408,0.0007812475,197388,0.0,0.0,0.0,0.5,0.0025000002,0.0025000002,0.0025000002,1,0,1,0,1,0
69996000,69916000,1310988,-0.0011054776,-0.004983532,9.480482e-06,0.15,2.2431708e-07,2.242523e-07,6.7812795e-07,1310988,0.010720534,-0.002377611,0.025246935,0.4,0.01774987,0.017760301,0.00078124576,197388,0.0,0.0,0.0,0.5,0.0025000002,0.0025000002,0.0025000002,1,0,1,0,1,0
70796000,70716000,1310988,-0.0011069917,-0.0049956,1.067203e-05,0.15,2.2560334e-07,2.2553023e-07,6.8313125e-07,1310988,0.010752272,-0.002355622,0.02414347,0.4,0.01774835,0.01775885,0.00078124576,197388,0.0,0.0,0.0,0.5,0.0025000002,0.0025000002,0.0025000002,1,0,1,0,1,0
71796000,71716000,1310988,-0.0011069623,-0.005004644,1.1783584e-05,0.15,2.2681117e-07,2.2672735e-07,6.8901403e-07,1310988,0.010677033,-0.002340929,0.02355565,0.4,0.017746225,0.017756827,0.0007812498,197388,0.0,0.0,0.0,0.5,0.0025000002,0.0025000002,0.0025000002,1,0,1,0,1,0
72396000,72316000,1310988,-0.0011087185,-0.0050129634,1.4173725e-05,0.15,2.2325666e-07,2.2315989e-07,6.924153e-07,1310988,0.0106039755,-0.0022951062,0.022326713,0.4,0.01774307,0.017753776,0.00078124576,197388,0.0,0.0,0.0,0.5,0.0025000002,0.0025000002,0.0025000002,1,0,1,0,1,0
73196000,73116000,1310988,-0.0011100447,-0.005030768,1.669714e-05,0.15,2.1999544e-07,2.1988478e-07,6.9646063e-07,1310988,0.010310482,-0.0022531743,0.02135051,0.4,0.017738897,0.017749712,0.00078124576,197388,0.0,0.0,0.0,0.5,0.0025000002,0.0025000002,0.0025000002,1,0,1,0,1,0
74196000,74116000,1310988,-0.0011110057,-0.005034718,2.1903119e-05,0.15,2.1782428e-07,2.177e-07,7.012974e-07,1310988,0.010306328,-0.0023499148,0.021496266,0.4,0.017731106,0.017741976,0.0007812486,197388,0.0,0.0,0.0,0.5,0.0025000002,0.0025000002,0.0025000002,1,0,1,0,1,0
74796000,74716000,1310988,-0.0011149807,-0.0050400523,2.2377315e-05,0.15,2.1186702e-07,2.1173044e-07,7.038054e-07,1310988,0.010422752,-0.002441624,0.020432029,0.4,0.017727694,0.017738566,0.00078124576,197388,0.0,0.0,0.0,0.5,0.0025000002,0.0025000002,0.0025000002,1,0,1,0,1,0
75796000,75716000,1310988,-0.0011297748,-0.0050430843,2.415197e-05,0.15,2.0863583e-07,2.0848815e-07,7.078366e-07,1310988,0.010432262,-0.002515395,0.020196732,0.4,0.017727304,0.017738132,0.0007812481,197388,0.0,0.0,0.0,0.5,0.0025000002,0.0025000002,0.0025000002,1,0,1,0,1,0
76796000,76716000,1310988,-0.0011383637,-0.0050471276,2.8485796e-05,0.15,1.9964554e-07,1.9948386e-07,7.1134076e-07,1310988,0.010379363,-0.002482627,0.018579548,0.4,0.017726101,0.017736834,0.00078124576,197388,0.0,0.0,0.0,0.5,0.0025000002,0.0025000002,0.0025000002,1,0,1,0,1,0
77596000,77516000,1310988,-0.0011443478,-0.005048301,2.800383e-05,0.15,1.9482249e-07,1.9465453e-07,7.134489e-07,1310988,0.011314502,-0.003413392,0.02014821,0.4,0.017357562,0.0173678,0.00078124576,197388,0.0,0.0,0.0,0.5,0.0025000002,0.0025000002,0.0025000002,1,0,1,0,1,0
77996000,77916000,1310988,-0.0011435745,-0.0050487546,2.7637714e-05,0.15,1.9411918e-07,1.9394943e-07,7.147333e-07,1310988,0.0126332445,-0.0035924125,0.023096269,0.4,0.01627463,0.016283583,0.00078124576,197388,0.0,0.0,0.0,0.5,0.0025000002,0.0025000002,0.0025000002,1,0,1,0,1,0
78396000,78316000,1310988,-0.0011428731,-0.0050448147,3.0043298e-05,0.15,1.9517627e-07,1.9500536e-07,7.155322e-07,1310988,0.010946705,-0.0039421744,0.02729469,0.4,0.014852507,0.0148601215,0.00078124576,197388,0.0,0.0,0.0,0.5,0.0025000002,0.0025000002,0.0025000002,1,0,1,0,1,0
78796000,78716000,1310988,-0.0011407018,-0.005045396,2.9116896e-05,0.15,1.9739177e-07,1.9722023e-07,7.166439e-07,1310988,0.013877212,-0.0025416827,0.032545228,0.4,0.013533168,0.013539938,0.00078124576,197388,0.0,0.0,0.0,0.5,0.0025000002,0.0025000002,0.0025000002,1,0,1,0,1,0
79196000,79116000,1310988,-0.0011400416,-0.0050444407,2.5734533e-05,0.15,2.0015521e-07,1.9998342e-07,7.1723156e-07,1310988,0.015595961,-0.0036322235,0.03927457,0.4,0.012490158,0.012496688,0.00078124576,197388,0.0,0.0,0.0,0.5,0.0025000002,0.0025000002,0.0025000002,1,0,1,0,1,0
79596000,79516000,1310988,-0.0011386968,-0.00504355,2.452613e-05,0.15,2.0313507e-07,2.0296322e-07,7.181645e-07,1310988,0.01740484,-0.002362815,0.046170756,0.4,0.011715914,0.011722648,0.00078124576,197388,0.0,0.0,0.0,0.5,0.0025000002,0.0025000002,0.0025000002,1,0,1,0,1,0
80396000,80316000,1310988,-0.0011347611,-0.0050391154,2.3452794e-05,0.15,2.0909584e-07,2.0892448e-07,7.192845e-07,1310988,0.017686391,-0.0022086862,0.04824471,0.4,0.011618044,0.011624668,0.00078124576,197388,0.0,0.0,0.0,0.5,0.0025000002,0.0025000002,0.0025000002,1,0,1,0,1,0
80796000,80716000,1310988,-0.0011331227,-0.005037042,2.5558164e-05,0.15,2.1198956e-07,2.1181866e-07,7.194336e-07,1310988,0.01887523,-0.0023249625,0.052671377,0.4,0.011213166,0.011219319,0.00078124576,197388,0.0,0.0,0.0,0.5,0.0025000002,0.0025000002,0.0025000002,1,0,1,0,1,0
81196000,81116000,1310988,-0.001132737,-0.0050348314,2.9245417e-05,0.15,2.1483064e-07,2.146603e-07,7.194645e-07,1310988,0.02031817,-0.0044373297,0.059074968,0.4,0.010529682,0.010535193,0.00078124576,197388,0.0,0.0,0.0,0.5,0.0025000002,0.0025000002,0.0025000002,1,0,1,0,1,0
81596000,81516000,1310988,-0.0011307036,-0.0050321235,2.8996048e-05,0.15,2.176389e-07,2.1746906e-07,7.1993855e-07,1310988,0.021541651,-0.0040359315,0.067279674,0.4,0.009719547,0.009724565,0.00078124576,197388,0.0,0.0,0.0,0.5,0.0025000002,0.0025000002,0.0025000002,1,0,1,0,1,0
81996000,81916000,1310988,-0.0011311509,-0.0050296676,2.5214804e-05,0.15,2.204267e-07,2.2025738e-07,7.197629e-07,1310988,0.023426812,-0.0070883143,0.07683683,0.4,0.008929485,0.008934358,0.00078124576,197388,0.0,0.0,0.0,0.5,0.0025000002,0.0025000002,0.0025000002,1,0,1,0,1,0
82996000,82916000,1310988,-0.0011376519,-0.0050275885,1.9790486e-05,0.15,2.2716031e-07,2.2699237e-07,7.194301e-07,1310988,0.023642575,-0.007471918,0.07734052,0.4,0.0089260675,0.00893095,0.0007812602,197388,0.0,0.0,0.0,0.5,0.0025000002,0.0025000002,0.0025000002,1,0,1,0,1,0
83196000,83116000,1310988,-0.0011413216,-0.00502766,1.8066743e-05,0.15,2.2788186e-07,2.2771412e-07,7.1915633e-07,1310988,0.024525696,-0.009252983,0.07883153,0.4,0.008790877,0.008795605,0.00078124576,197388,0.0,0.0,0.0,0.5,0.0025000002,0.0025000002,0.0025000002,1,0,1,0,1,0
83596000,83516000,1310988,-0.0011442936,-0.005025481,1.7461949e-05,0.15,2.3008212e-07,2.2991512e-07,7.185166e-07,1310988,0.024528077,-0.011499807,0.08145207,0.4,0.008454225,0.0084586395,0.00078124576,197388,0.0,0.0,0.0,0.5,0.0025000002,0.0025000002,0.0025000002,1,0,1,0,1,0
83996000,83916000,1310988,-0.0011474703,-0.0050252,1.5359861e-05,0.15,2.322424e-07,2.3207582e-07,7.1842226e-07,1310988,0.025883598,-0.014299296,0.08510076,0.4,0.007961552,0.007965646,0.00078124576,197388,0.0,0.0,0.0,0.5,0.0025000002,0.0025000002,0.0025000002,1,0,1,0,1,0
84396000,84316000,1310988,-0.0011485469,-0.005027068,1.3729074e-05,0.15,2.3442828e-07,2.3426226e-07,7.1755636e-07,1310988,0.028912358,-0.01574592,0.0893358,0.4,0.007401769,0.007405693,0.00078124576,197388,0.0,0.0,0.0,0.5,0.0025000002,0.0025000002,0.0025000002,1,0,1,0,1,0
84796000,84716000,1310988,-0.001152348,-0.0050279996,1.368864e-05,0.15,2.3667046e-07,2.3650446e-07,7.172741e-07,1310988,0.03140346,-0.019361507,0.09433008,0.4,0.006851478,0.0068554566,0.00078124576,197388,0.0,0.0,0.0,0.5,0.0025000002,0.0025000002,0.0025000002,1,0,1,0,1,0
85196000,85116000,1310988,-0.0011546413,-0.0050306465,1.3445096e-05,0.15,2.3896825e-07,2.3880216e-07,7.1618325e-07,1310988,0.035146102,-0.021795617,0.099535696,0.4,0.006354945,0.0063591856,0.00078124576,197388,0.0,0.0,0.0,0.5,0.0025000002,0.0025000002,0.0025000002,1,0,1,0,1,0
85604000,85524000,1310988,-0.0011570026,-0.00502927,9.703469e-06,0.15,2.413573e-07,2.411907e-07,7.1577847e-07,1310988,0.035914533,-0.024122087,0.10479354,0.4,0.005926122,0.0059307967,0.00078124576,197388,0.0,0.0,0.0,0.5,0.0025000002,0.0025000002,0.0025000002,1,1,1,0,1,0
85996000,85916000,1310988,-0.0011588401,-0.0050285193,1.0223822e-05,0.15,2.4363936e-07,2.434722e-07,7.1440184e-07,1310988,0.036887083,-0.025935544,0.109460905,0.4,0.0055728117,0.00557803,0.00078124576,197388,0.0,0.0,0.0,0.5,0.0025000002,0.0025000002,0.0025000002,1,1,1,0,1,0
86396000,86316000,1310988,-0.0011604496,-0.0050267116,1.2604858e-05,0.15,2.459635e-07,2.4579546e-07,7.1375e-07,1310988,0.0370581,-0.027425664,0.113638975,0.4,0.005283006,0.0052888175,0.00078124576,197388,0.0,0.0,0.0,0.5,0.0025000002,0.0025000002,0.0025000002,1,1,1,0,1,0
86796000,86716000,1310988,-0.0011622487,-0.005024102,9.692445e-06,0.15,2.482346e-07,2.480657e-07,7.122202e-07,1310988,0.036857225,-0.028795015,0.117667615,0.4,0.0050476305,0.0050540688,0.00078124576,197388,0.0,0.0,0.0,0.5,0.0025000002,0.0025000002,0.0025000002,1,1,1,0,1,0
87196000,87116000,1310988,-0.0011640834,-0.005024759,1.0994511e-05,0.15,2.5042144e-07,2.5025162e-07,7.105741e-07,1310988,0.03789126,-0.029941635,0.120555624,0.4,0.0048576808,0.0048647444,0.00078124576,197388,0.0,0.0,0.0,0.5,0.0025000002,0.0025000002,0.0025000002,1,1,1,0,1,0
87596000,87516000,1310988,-0.0011659428,-0.005023002,6.6102343e-06,0.15,2.52493e-07,2.5232148e-07,7.096478e-07,1310988,0.037803207,-0.030842947,0.12269952,0.4,0.0047050724,0.004712745,0.00078124576,197388,0.0,0.0,0.0,0.5,0.0025000002,0.0025000002,0.0025000002,1,1,1,0,1,0
87996000,87916000,1310988,-0.0011674447,-0.0050226105,3.3218555e-06,0.15,2.5441346e-07,2.542405e-07,7.0779265e-07,1310988,0.038006194,-0.031438082,0.123907834,0.4,0.00458319,0.0045914277,0.00078124576,197388,0.0,0.0,0.0,0.5,0.0025000002,0.0025000002,0.0025000002,1,1,1,0,1,0
88996000,88916000,1310988,-0.0011696464,-0.0050209383,6.7637266e-06,0.15,2.5926124e-07,2.590852e-07,7.0356975e-07,1310988,0.03764102,-0.031958643,0.1231925,0.4,0.0044103283,0.004419643,0.0007812492,197388,0.0,0.0,0.0,0.5,0.0025000002,0.0025000002,0.0025000002,1,1,1,0,1,0
89252000,89172000,1310988,-0.0011731129,-0.0050210743,3.7854873e-06,0.15,2.59368e-07,2.591892e-07,7.029215e-07,1310988,0.037593707,-0.032521375,0.12227843,0.4,0.004351116,0.0043608514,0.00078124576,197388,0.0,0.0,0.0,0.5,0.0025000002,0.0025000002,0.0025000002,1,1,1,0,1,0
