timestamp,timestamp_sample,gps_hvel[0],gps_hvel[1],gps_vvel,gps_hpos[0],gps_hpos[1],gps_vpos,ev_hvel[0],ev_hvel[1],ev_vvel,ev_hpos[0],ev_hpos[1],ev_vpos,rng_vpos,baro_vpos,aux_hvel[0],aux_hvel[1],aux_vvel,flow[0],flow[1],terr_flow[0],terr_flow[1],heading,mag_field[0],mag_field[1],mag_field[2],gravity[0],gravity[1],gravity[2],drag[0],drag[1],airspeed,beta,hagl,hagl_rate
3388000,3308000,0.0,0.0,0.0,0.0,0.0,0.0,0.0,0.0,0.0,0.0,0.0,0.0,0.0,112.42326,0.0,0.0,nan,0.0,0.0,0.0,0.0,0.0,0.0,0.0,0.0,1.9799451,1.980148,1.0008664,0.0,0.0,0.0,0.0,0.0,0.0
3396000,3316000,0.0,0.0,0.0,0.0,0.0,0.0,0.0,0.0,0.0,0.0,0.0,0.0,0.0,112.42326,0.0,0.0,nan,0.0,0.0,0.0,0.0,0.0,0.0,0.0,0.0,1.9826808,1.9829376,1.0008717,0.0,0.0,0.0,0.0,0.0,0.0
3404000,3324000,0.0,0.0,0.0,0.0,0.0,0.0,0.0,0.0,0.0,0.0,0.0,0.0,0.0,112.42326,0.0,0.0,nan,0.0,0.0,0.0,0.0,0.0,0.0,0.0,0.0,1.9847578,1.9850206,1.0008762,0.0,0.0,0.0,0.0,0.0,0.0
3412000,3332000,0.0,0.0,0.0,0.0,0.0,0.0,0.0,0.0,0.0,0.0,0.0,0.0,0.0,112.42326,0.0,0.0,nan,0.0,0.0,0.0,0.0,0.0,0.0,0.0,0.0,1.9884362,1.9885464,1.016374,0.0,0.0,0.0,0.0,0.0,0.0
3420000,3340000,0.0,0.0,0.0,0.0,0.0,0.0,0.0,0.0,0.0,0.0,0.0,0.0,0.0,112.42326,0.0,0.0,nan,0.0,0.0,0.0,0.0,0.0,0.0,0.0,0.0,1.989825,1.9899701,1.0142304,0.0,0.0,0.0,0.0,0.0,0.0
3428000,3348000,0.0,0.0,0.0,0.0,0.0,0.0,0.0,0.0,0.0,0.0,0.0,0.0,0.0,112.42326,0.0,0.0,nan,0.0,0.0,0.0,0.0,0.0,0.0,0.0,0.0,1.9916353,1.9918053,1.0125638,0.0,0.0,0.0,0.0,0.0,0.0
3436000,3356000,0.0,0.0,0.0,0.0,0.0,0.0,0.0,0.0,0.0,0.0,0.0,0.0,0.0,112.42326,0.0,0.0,nan,0.0,0.0,0.0,0.0,0.0,0.0,0.0,0.0,1.9938011,1.9939888,1.0112386,0.0,0.0,0.0,0.0,0.0,0.0
3444000,3364000,0.0,0.0,0.0,0.0,0.0,0.0,0.0,0.0,0.0,0.0,0.0,0.0,0.0,112.42326,0.0,0.0,nan,0.0,0.0,0.0,0.0,0.0,0.0,0.0,0.0,1.9962797,1.9964814,1.0101712,0.0,0.0,0.0,0.0,0.0,0.0
3452000,3372000,0.0,0.0,0.0,0.0,0.0,0.0,0.0,0.0,0.0,0.0,0.0,0.0,0.0,112.25,0.0,0.0,nan,0.0,0.0,0.0,0.0,0.0,0.0,0.0,0.0,1.9990443,1.9992573,1.0093063,0.0,0.0,0.0,0.0,0.0,0.0
3460000,3380000,0.0,0.0,0.0,0.0,0.0,0.0,0.0,0.0,0.0,0.0,0.0,0.0,0.0,112.25,0.0,0.0,nan,0.0,0.0,0.0,0.0,0.0,0.0,0.0,0.0,2.0020752,2.0022979,1.008606,0.0,0.0,0.0,0.0,0.0,0.0
3468000,3388000,0.0,0.0,0.0,0.0,0.0,0.0,0.0,0.0,0.0,0.0,0.0,0.0,0.0,112.25,0.0,0.0,nan,0.0,0.0,0.0,0.0,0.0,0.0,0.0,0.0,2.0053573,2.0055895,1.0080421,0.0,0.0,0.0,0.0,0.0,0.0
3476000,3396000,0.0,0.0,0.0,0.0,0.0,0.0,0.0,0.0,0.0,0.0,0.0,0.0,0.0,112.25,0.0,0.0,nan,0.0,0.0,0.0,0.0,0.0,0.0,0.0,0.0,2.0088797,2.0091214,1.0075921,0.0,0.0,0.0,0.0,0.0,0.0
3484000,3404000,0.0,0.0,0.0,0.0,0.0,0.0,0.0,0.0,0.0,0.0,0.0,0.0,0.0,112.25,0.0,0.0,nan,0.0,0.0,0.0,0.0,0.0,0.0,0.0,0.0,2.0126348,2.0128841,1.0072379,0.0,0.0,0.0,0.0,0.0,0.0
3492000,3412000,0.0,0.0,0.0,0.0,0.0,0.0,0.0,0.0,0.0,0.0,0.0,0.0,0.0,112.25,0.0,0.0,nan,0.0,0.0,0.0,0.0,0.0,0.0,0.0,0.0,2.0166147,2.0168705,1.0069642,0.0,0.0,0.0,0.0,0.0,0.0
3500000,3420000,0.0,0.0,0.0,0.0,0.0,0.0,0.0,0.0,0.0,0.0,0.0,0.0,0.0,112.25,0.0,0.0,nan,0.0,0.0,0.0,0.0,0.0,0.0,0.0,0.0,2.0208125,2.0210726,1.006758,0.0,0.0,0.0,0.0,0.0,0.0
3508000,3428000,0.0,0.0,0.0,0.0,0.0,0.0,0.0,0.0,0.0,0.0,0.0,0.0,0.0,112.25,0.0,0.0,nan,0.0,0.0,0.0,0.0,0.0,0.0,0.0,0.0,2.025222,2.0254867,1.0066061,0.0,0.0,0.0,0.0,0.0,0.0
3516000,3436000,0.0,0.0,0.0,0.0,0.0,0.0,0.0,0.0,0.0,0.0,0.0,0.0,0.0,112.25,0.0,0.0,nan,0.0,0.0,0.0,0.0,0.0,0.0,0.0,0.0,2.0298393,2.0301065,1.0064987,0.0,0.0,0.0,0.0,0.0,0.0
3524000,3444000,0.0,0.0,0.0,0.0,0.0,0.0,0.0,0.0,0.0,0.0,0.0,0.0,0.0,112.25,0.0,0.0,nan,0.0,0.0,0.0,0.0,0.0,0.0,0.0,0.0,2.0346599,2.0349288,1.0064251,0.0,0.0,0.0,0.0,0.0,0.0
3532000,3452000,0.0,0.0,0.0,0.0,0.0,0.0,0.0,0.0,0.0,0.0,0.0,0.0,0.0,112.25,0.0,0.0,nan,0.0,0.0,0.0,0.0,0.0,0.0,0.0,0.0,2.0396812,2.039949,1.0063789,0.0,0.0,0.0,0.0,0.0,0.0
3540000,3460000,0.0,0.0,0.0,0.0,0.0,0.0,0.0,0.0,0.0,0.0,0.0,0.0,0.0,112.25,0.0,0.0,nan,0.0,0.0,0.0,0.0,0.0,0.0,0.0,0.0,2.0449004,2.0451655,1.0063523,0.0,0.0,0.0,0.0,0.0,0.0
3548000,3468000,0.0,0.0,0.0,0.0,0.0,0.0,0.0,0.0,0.0,0.0,0.0,0.0,0.0,112.25,0.0,0.0,nan,0.0,0.0,0.0,0.0,0.0,0.0,0.0,0.0,2.0503159,2.050576,1.006339,0.0,0.0,0.0,0.0,0.0,0.0
3556000,3476000,0.0,0.0,0.0,0.0,0.0,0.0,0.0,0.0,0.0,0.0,0.0,0.0,0.0,112.25,0.0,0.0,nan,0.0,0.0,0.0,0.0,0.0,0.0,0.0,0.0,2.0559254,2.0561783,1.0063354,0.0,0.0,0.0,0.0,0.0,0.0
3564000,3484000,0.0,0.0,0.0,0.0,0.0,0.0,0.0,0.0,0.0,0.0,0.0,0.0,0.0,112.25,0.0,0.0,nan,0.0,0.0,0.0,0.0,0.0,0.0,0.0,0.0,2.061727,2.0619712,1.0063386,0.0,0.0,0.0,0.0,0.0,0.0
3572000,3492000,0.0,0.0,0.0,0.0,0.0,0.0,0.0,0.0,0.0,0.0,0.0,0.0,0.0,112.25,0.0,0.0,nan,0.0,0.0,0.0,0.0,0.0,0.0,0.0,0.0,2.0677211,2.067955,1.0063431,0.0,0.0,0.0,0.0,0.0,0.0
3580000,3500000,0.0,0.0,0.0,0.0,0.0,0.0,0.0,0.0,0.0,0.0,0.0,0.0,0.0,112.25,0.0,0.0,nan,0.0,0.0,0.0,0.0,0.0,0.0,0.0,0.0,2.0739045,2.074127,1.0063487,0.0,0.0,0.0,0.0,0.0,0.0
3588000,3508000,0.0,0.0,0.0,0.0,0.0,0.0,0.0,0.0,0.0,0.0,0.0,0.0,0.0,112.25,0.0,0.0,nan,0.0,0.0,0.0,0.0,0.0,0.0,0.0,0.0,2.0802798,2.0804887,1.0063541,0.0,0.0,0.0,0.0,0.0,0.0
3596000,3516000,0.13232005,0.13225448,0.2053005,1.0001292,1.0001291,51.0,0.0,0.0,0.0,0.0,0.0,0.0,0.0,112.25,0.0,0.0,nan,0.0,0.0,0.0,0.0,0.0,0.0,0.0,0.0,2.0868464,2.08704,1.0063566,0.0,0.0,0.0,0.0,0.0,0.0
3604000,3524000,0.13232005,0.13225448,0.2053005,1.0001292,1.0001291,51.0,0.0,0.0,0.0,0.0,0.0,0.0,0.0,112.25,0.0,0.0,nan,0.0,0.0,0.0,0.0,0.0,0.0,0.0,0.0,2.0936027,2.0937803,1.0063567,0.0,0.0,0.0,0.0,0.0,0.0
3612000,3532000,0.13232005,0.13225448,0.2053005,1.0001292,1.0001291,51.0,0.0,0.0,0.0,0.0,0.0,0.0,0.0,112.25,0.0,0.0,nan,0.0,0.0,0.0,0.0,0.0,0.0,0.0,0.0,1.0799029,1.0798331,1.0060124,0.0,0.0,0.0,0.0,0.0,0.0
3620000,3540000,0.13232005,0.13225448,0.2053005,1.0001292,1.0001291,51.0,0.0,0.0,0.0,0.0,0.0,0.0,0.0,112.25,0.0,0.0,nan,0.0,0.0,0.0,0.0,0.0,0.0,0.0,0.0,1.0828083,1.0827403,1.0060157,0.0,0.0,0.0,0.0,0.0,0.0
3628000,3548000,0.13232005,0.13225448,0.2053005,1.0001292,1.0001291,51.0,0.0,0.0,0.0,0.0,0.0,0.0,0.0,62.249985,0.0,0.0,nan,0.0,0.0,0.0,0.0,0.100126825,0.0,0.0,0.0,1.0858952,1.0858288,1.0060046,0.0,0.0,0.0,0.0,0.0,0.0
3636000,3556000,0.13232005,0.13225448,0.2053005,1.0001292,1.0001291,51.0,0.0,0.0,0.0,0.0,0.0,0.0,0.0,62.249985,0.0,0.0,nan,0.0,0.0,0.0,0.0,0.100126825,0.0,0.0,0.0,1.0859877,1.0859214,1.0060046,0.0,0.0,0.0,0.0,0.0,0.0
3644000,3564000,0.13232005,0.13225448,0.2053005,1.0001292,1.0001291,51.0,0.0,0.0,0.0,0.0,0.0,0.0,0.0,62.249985,0.0,0.0,nan,0.0,0.0,0.0,0.0,0.100126825,0.0,0.0,0.0,1.0862615,1.0861953,1.006005,0.0,0.0,0.0,0.0,0.0,0.0
3652000,3572000,0.13232005,0.13225448,0.2053005,1.0001292,1.0001291,51.0,0.0,0.0,0.0,0.0,0.0,0.0,0.0,62.249985,0.0,0.0,nan,0.0,0.0,0.0,0.0,0.100126825,0.0,0.0,0.0,1.0867165,1.0866506,1.0060055,0.0,0.0,0.0,0.0,0.0,0.0
3660000,3580000,0.13232005,0.13225448,0.2053005,1.0001292,1.0001291,51.0,0.0,0.0,0.0,0.0,0.0,0.0,0.0,62.249985,0.0,0.0,nan,0.0,0.0,0.0,0.0,0.100126825,0.0,0.0,0.0,1.0873528,1.0872871,1.006006,0.0,0.0,0.0,0.0,0.0,0.0
3668000,3588000,0.13232005,0.13225448,0.2053005,1.0001292,1.0001291,51.0,0.0,0.0,0.0,0.0,0.0,0.0,0.0,62.249985,0.0,0.0,nan,0.0,0.0,0.0,0.0,0.100126825,0.0,0.0,0.0,1.0881703,1.0881048,1.0060067,0.0,0.0,0.0,0.0,0.0,0.0
3676000,3596000,0.13232005,0.13225448,0.2053005,1.0001292,1.0001291,51.0,0.0,0.0,0.0,0.0,0.0,0.0,0.0,62.249985,0.0,0.0,nan,0.0,0.0,0.0,0.0,0.100126825,0.0,0.0,0.0,1.0891689,1.089104,1.0060077,0.0,0.0,0.0,0.0,0.0,0.0
3684000,3604000,0.13232005,0.13225448,0.2053005,1.0001292,1.0001291,51.0,0.0,0.0,0.0,0.0,0.0,0.0,0.0,62.249985,0.0,0.0,nan,0.0,0.0,0.0,0.0,0.100126825,0.0,0.0,0.0,1.090349,1.0902845,1.0060087,0.0,0.0,0.0,0.0,0.0,0.0
3692000,3612000,0.13232005,0.13225448,0.2053005,1.0001292,1.0001291,51.0,0.0,0.0,0.0,0.0,0.0,0.0,0.0,62.249985,0.0,0.0,nan,0.0,0.0,0.0,0.0,0.100126825,0.0,0.0,0.0,1.0917102,1.0916461,1.0060102,0.0,0.0,0.0,0.0,0.0,0.0
3700000,3620000,0.13232005,0.13225448,0.2053005,1.0001292,1.0001291,51.0,0.0,0.0,0.0,0.0,0.0,0.0,0.0,62.249985,0.0,0.0,nan,0.0,0.0,0.0,0.0,0.09912703,0.0,0.0,0.0,1.0932525,1.093189,1.0060116,0.0,0.0,0.0,0.0,0.0,0.0
3708000,3628000,0.13232005,0.13225448,0.2053005,1.0001292,1.0001291,51.0,0.0,0.0,0.0,0.0,0.0,0.0,0.0,62.249985,0.0,0.0,nan,0.0,0.0,0.0,0.0,0.09912703,0.0,0.0,0.0,1.0949763,1.0949134,1.0060133,0.0,0.0,0.0,0.0,0.0,0.0
3716000,3636000,0.13232005,0.13225448,0.2053005,1.0001292,1.0001291,51.0,0.0,0.0,0.0,0.0,0.0,0.0,0.0,62.249985,0.0,0.0,nan,0.0,0.0,0.0,0.0,0.09912703,0.0,0.0,0.0,1.0968812,1.0968188,1.0060151,0.0,0.0,0.0,0.0,0.0,0.0
3724000,3644000,0.13232005,0.13225448,0.2053005,1.0001292,1.0001291,51.0,0.0,0.0,0.0,0.0,0.0,0.0,0.0,62.249985,0.0,0.0,nan,0.0,0.0,0.0,0.0,0.09912703,0.0,0.0,0.0,1.0989674,1.0989057,1.006017,0.0,0.0,0.0,0.0,0.0,0.0
3732000,3652000,0.13232005,0.13225448,0.2053005,1.0001292,1.0001291,51.0,0.0,0.0,0.0,0.0,0.0,0.0,0.0,62.249985,0.0,0.0,nan,0.0,0.0,0.0,0.0,0.09912703,0.0,0.0,0.0,1.1012347,1.1011738,1.006019,0.0,0.0,0.0,0.0,0.0,0.0
3740000,3660000,0.13232005,0.13225448,0.2053005,1.0001292,1.0001291,51.0,0.0,0.0,0.0,0.0,0.0,0.0,0.0,62.249985,0.0,0.0,nan,0.0,0.0,0.0,0.0,0.09912703,0.0,0.0,0.0,1.1036834,1.103623,1.0060215,0.0,0.0,0.0,0.0,0.0,0.0
3748000,3668000,0.13232005,0.13225448,0.2053005,1.0001292,1.0001291,51.0,0.0,0.0,0.0,0.0,0.0,0.0,0.0,62.249985,0.0,0.0,nan,0.0,0.0,0.0,0.0,0.09912703,0.0,0.0,0.0,1.106313,1.1062537,1.006024,0.0,0.0,0.0,0.0,0.0,0.0
3756000,3676000,0.13232005,0.13225448,0.2053005,1.0001292,1.0001291,51.0,0.0,0.0,0.0,0.0,0.0,0.0,0.0,62.249985,0.0,0.0,nan,0.0,0.0,0.0,0.0,0.09912703,0.0,0.0,0.0,1.1091242,1.1090659,1.0060266,0.0,0.0,0.0,0.0,0.0,0.0
3764000,3684000,0.13232005,0.13225448,0.2053005,1.0001292,1.0001291,51.0,0.0,0.0,0.0,0.0,0.0,0.0,0.0,62.249985,0.0,0.0,nan,0.0,0.0,0.0,0.0,0.09834507,0.0,0.0,0.0,1.1121165,1.1120591,1.0060285,0.0,0.0,0.0,0.0,0.0,0.0
3772000,3692000,0.13232005,0.13225448,0.2053005,1.0001292,1.0001291,51.0,0.0,0.0,0.0,0.0,0.0,0.0,0.0,62.249985,0.0,0.0,nan,0.0,0.0,0.0,0.0,0.09834507,0.0,0.0,0.0,1.1152899,1.1152338,1.0060314,0.0,0.0,0.0,0.0,0.0,0.0
3780000,3700000,0.13232005,0.13225448,0.2053005,1.0001292,1.0001291,51.0,0.0,0.0,0.0,0.0,0.0,0.0,0.0,62.249985,0.0,0.0,nan,0.0,0.0,0.0,0.0,0.09834507,0.0,0.0,0.0,1.1186446,1.1185895,1.0060345,0.0,0.0,0.0,0.0,0.0,0.0
3788000,3708000,0.13232005,0.13225448,0.2053005,1.0001292,1.0001291,51.0,0.0,0.0,0.0,0.0,0.0,0.0,0.0,62.249985,0.0,0.0,nan,0.0,0.0,0.0,0.0,0.09834507,0.0,0.0,0.0,1.1147033,1.1146514,1.0060337,0.0,0.0,0.0,0.0,0.0,0.0
3796000,3716000,0.13232005,0.13225448,0.2053005,1.0001292,1.0001291,51.0,0.0,0.0,0.0,0.0,0.0,0.0,0.0,62.249985,0.0,0.0,nan,0.0,0.0,0.0,0.0,0.09834507,0.0,0.0,0.0,1.1183039,1.1182536,1.006037,0.0,0.0,0.0,0.0,0.0,0.0
3804000,3724000,0.13232005,0.13225448,0.2053005,1.0001292,1.0001291,51.0,0.0,0.0,0.0,0.0,0.0,0.0,0.0,62.249985,0.0,0.0,nan,0.0,0.0,0.0,0.0,0.09834507,0.0,0.0,0.0,1.1220852,1.1220362,1.0060403,0.0,0.0,0.0,0.0,0.0,0.0
3812000,3732000,0.13232005,0.13225448,0.2053005,1.0001292,1.0001291,51.0,0.0,0.0,0.0,0.0,0.0,0.0,0.0,45.58333,0.0,0.0,nan,0.0,0.0,0.0,0.0,0.09834507,0.0,0.0,0.0,1.1260467,1.1259991,1.0060441,0.0,0.0,0.0,0.0,0.0,0.0
3820000,3740000,0.13232005,0.13225448,0.2053005,1.0001292,1.0001291,51.0,0.0,0.0,0.0,0.0,0.0,0.0,0.0,45.58333,0.0,0.0,nan,0.0,0.0,0.0,0.0,0.09834507,0.0,0.0,0.0,1.1228945,1.1228507,1.0060437,0.0,0.0,0.0,0.0,0.0,0.0
3828000,3748000,0.13232005,0.13225448,0.2053005,1.0001292,1.0001291,51.0,0.0,0.0,0.0,0.0,0.0,0.0,0.0,45.58333,0.0,0.0,nan,0.0,0.0,0.0,0.0,0.09834507,0.0,0.0,0.0,1.1270747,1.1270323,1.0060475,0.0,0.0,0.0,0.0,0.0,0.0
3836000,3756000,0.13232005,0.13225448,0.2053005,1.0001292,1.0001291,51.0,0.0,0.0,0.0,0.0,0.0,0.0,0.0,45.58333,0.0,0.0,nan,0.0,0.0,0.0,0.0,0.09774101,0.0,0.0,0.0,1.1314337,1.1313931,1.0060517,0.0,0.0,0.0,0.0,0.0,0.0
3844000,3764000,0.13232005,0.13225448,0.2053005,1.0001292,1.0001291,51.0,0.0,0.0,0.0,0.0,0.0,0.0,0.0,45.58333,0.0,0.0,nan,0.0,0.0,0.0,0.0,0.09774101,0.0,0.0,0.0,1.1359718,1.1359328,1.0060561,0.0,0.0,0.0,0.0,0.0,0.0
3852000,3772000,0.13232005,0.13225448,0.2053005,1.0001292,1.0001291,51.0,0.0,0.0,0.0,0.0,0.0,0.0,0.0,45.58333,0.0,0.0,nan,0.0,0.0,0.0,0.0,0.09774101,0.0,0.0,0.0,1.1406888,1.1406515,1.0060607,0.0,0.0,0.0,0.0,0.0,0.0
3860000,3780000,0.13232005,0.13225448,0.2053005,1.0001292,1.0001291,51.0,0.0,0.0,0.0,0.0,0.0,0.0,0.0,45.58333,0.0,0.0,nan,0.0,0.0,0.0,0.0,0.09774101,0.0,0.0,0.0,1.1455845,1.1455493,1.0060655,0.0,0.0,0.0,0.0,0.0,0.0
3868000,3788000,0.13232005,0.13225448,0.2053005,1.0001292,1.0001291,51.0,0.0,0.0,0.0,0.0,0.0,0.0,0.0,45.58333,0.0,0.0,nan,0.0,0.0,0.0,0.0,0.09774101,0.0,0.0,0.0,1.1506593,1.1506261,1.0060706,0.0,0.0,0.0,0.0,0.0,0.0
3876000,3796000,0.13232005,0.13225448,0.2053005,1.0001292,1.0001291,51.0,0.0,0.0,0.0,0.0,0.0,0.0,0.0,45.58333,0.0,0.0,nan,0.0,0.0,0.0,0.0,0.09774101,0.0,0.0,0.0,1.1559131,1.1558818,1.0060757,0.0,0.0,0.0,0.0,0.0,0.0
3884000,3804000,0.13232005,0.13225448,0.2053005,1.0001292,1.0001291,51.0,0.0,0.0,0.0,0.0,0.0,0.0,0.0,45.58333,0.0,0.0,nan,0.0,0.0,0.0,0.0,0.09774101,0.0,0.0,0.0,1.1613458,1.1613166,1.0060811,0.0,0.0,0.0,0.0,0.0,0.0
3892000,3812000,0.13232005,0.13225448,0.2053005,1.0001292,1.0001291,51.0,0.0,0.0,0.0,0.0,0.0,0.0,0.0,45.58333,0.0,0.0,nan,0.0,0.0,0.0,0.0,0.09774101,0.0,0.0,0.0,1.1669575,1.1669304,1.0060866,0.0,0.0,0.0,0.0,0.0,0.0
3900000,3820000,0.13232005,0.13225448,0.2053005,1.0001292,1.0001291,51.0,0.0,0.0,0.0,0.0,0.0,0.0,0.0,45.58333,0.0,0.0,nan,0.0,0.0,0.0,0.0,0.09774101,0.0,0.0,0.0,1.1727481,1.1727234,1.0060922,0.0,0.0,0.0,0.0,0.0,0.0
3908000,3828000,0.13232005,0.13225448,0.2053005,1.0001292,1.0001291,51.0,0.0,0.0,0.0,0.0,0.0,0.0,0.0,45.58333,0.0,0.0,nan,0.0,0.0,0.0,0.0,0.09727018,0.0,0.0,0.0,1.1787175,1.1786953,1.006098,0.0,0.0,0.0,0.0,0.0,0.0
3916000,3836000,0.13232005,0.13225448,0.2053005,1.0001292,1.0001291,51.0,0.0,0.0,0.0,0.0,0.0,0.0,0.0,45.58333,0.0,0.0,nan,0.0,0.0,0.0,0.0,0.09727018,0.0,0.0,0.0,1.1848657,1.1848463,1.0061044,0.0,0.0,0.0,0.0,0.0,0.0
3924000,3844000,0.13232005,0.13225448,0.2053005,1.0001292,1.0001291,51.0,0.0,0.0,0.0,0.0,0.0,0.0,0.0,45.58333,0.0,0.0,nan,0.0,0.0,0.0,0.0,0.09727018,0.0,0.0,0.0,1.1911932,1.1911762,1.0061105,0.0,0.0,0.0,0.0,0.0,0.0
3932000,3852000,0.13232005,0.13225448,0.2053005,1.0001292,1.0001291,51.0,0.0,0.0,0.0,0.0,0.0,0.0,0.0,45.58333,0.0,0.0,nan,0.0,0.0,0.0,0.0,0.09727018,0.0,0.0,0.0,1.1976994,1.1976854,1.006117,0.0,0.0,0.0,0.0,0.0,0.0
3940000,3860000,0.13232005,0.13225448,0.2053005,1.0001292,1.0001291,51.0,0.0,0.0,0.0,0.0,0.0,0.0,0.0,45.58333,0.0,0.0,nan,0.0,0.0,0.0,0.0,0.09727018,0.0,0.0,0.0,1.2043846,1.2043734,1.0061237,0.0,0.0,0.0,0.0,0.0,0.0
3948000,3868000,0.13232005,0.13225448,0.2053005,1.0001292,1.0001291,51.0,0.0,0.0,0.0,0.0,0.0,0.0,0.0,45.58333,0.0,0.0,nan,0.0,0.0,0.0,0.0,0.09727018,0.0,0.0,0.0,1.2112486,1.2112405,1.0061306,0.0,0.0,0.0,0.0,0.0,0.0
3956000,3876000,0.13232005,0.13225448,0.2053005,1.0001292,1.0001291,51.0,0.0,0.0,0.0,0.0,0.0,0.0,0.0,45.58333,0.0,0.0,nan,0.0,0.0,0.0,0.0,0.09727018,0.0,0.0,0.0,1.2182918,1.2182866,1.0061375,0.0,0.0,0.0,0.0,0.0,0.0
3964000,3884000,0.13232005,0.13225448,0.2053005,1.0001292,1.0001291,51.0,0.0,0.0,0.0,0.0,0.0,0.0,0.0,45.58333,0.0,0.0,nan,0.0,0.0,0.0,0.0,0.09727018,0.0,0.0,0.0,1.2255137,1.2255118,1.0061448,0.0,0.0,0.0,0.0,0.0,0.0
3972000,3892000,0.13232005,0.13225448,0.2053005,1.0001292,1.0001291,51.0,0.0,0.0,0.0,0.0,0.0,0.0,0.0,45.58333,0.0,0.0,nan,0.0,0.0,0.0,0.0,0.09727018,0.0,0.0,0.0,1.2329147,1.2329159,1.0061522,0.0,0.0,0.0,0.0,0.0,0.0
3980000,3900000,0.13232005,0.13225448,0.2053005,1.0001292,1.0001291,51.0,0.0,0.0,0.0,0.0,0.0,0.0,0.0,45.58333,0.0,0.0,nan,0.0,0.0,0.0,0.0,0.096904874,0.0,0.0,0.0,1.2404943,1.2404989,1.00616,0.0,0.0,0.0,0.0,0.0,0.0
3988000,3908000,0.13232005,0.13225448,0.2053005,1.0001292,1.0001291,51.0,0.0,0.0,0.0,0.0,0.0,0.0,0.0,45.58337,0.0,0.0,nan,0.0,0.0,0.0,0.0,0.096904874,0.0,0.0,0.0,1.248253,1.2482609,1.0061679,0.0,0.0,0.0,0.0,0.0,0.0
3996000,3916000,0.09475163,0.09475204,0.2040036,1.0000952,1.0000952,26.000025,0.0,0.0,0.0,0.0,0.0,0.0,0.0,45.58337,0.0,0.0,nan,0.0,0.0,0.0,0.0,0.096904874,0.0,0.0,0.0,1.1688141,1.1688262,1.0061115,0.0,0.0,0.0,0.0,0.0,0.0
4004000,3924000,0.09475163,0.09475204,0.2040036,1.0000952,1.0000952,26.000025,0.0,0.0,0.0,0.0,0.0,0.0,0.0,45.58337,0.0,0.0,nan,0.0,0.0,0.0,0.0,0.096904874,0.0,0.0,0.0,1.1752082,1.1752232,1.0061178,0.0,0.0,0.0,0.0,0.0,0.0
4012000,3932000,0.09475163,0.09475204,0.2040036,1.0000952,1.0000952,26.000025,0.0,0.0,0.0,0.0,0.0,0.0,0.0,45.58337,0.0,0.0,nan,0.0,0.0,0.0,0.0,0.096904874,0.0,0.0,0.0,1.1817645,1.1817824,1.0061246,0.0,0.0,0.0,0.0,0.0,0.0
4020000,3940000,0.09475163,0.09475204,0.2040036,1.0000952,1.0000952,26.000025,0.0,0.0,0.0,0.0,0.0,0.0,0.0,45.58337,0.0,0.0,nan,0.0,0.0,0.0,0.0,0.096904874,0.0,0.0,0.0,1.1884829,1.1885035,1.0061314,0.0,0.0,0.0,0.0,0.0,0.0
4028000,3948000,0.09475163,0.09475204,0.2040036,1.0000952,1.0000952,26.000025,0.0,0.0,0.0,0.0,0.0,0.0,0.0,45.58337,0.0,0.0,nan,0.0,0.0,0.0,0.0,0.096904874,0.0,0.0,0.0,1.1851157,1.1851388,1.0061293,0.0,0.0,0.0,0.0,0.0,0.0
4036000,3956000,0.09475163,0.09475204,0.2040036,1.0000952,1.0000952,26.000025,0.0,0.0,0.0,0.0,0.0,0.0,0.0,45.58337,0.0,0.0,nan,0.0,0.0,0.0,0.0,0.096904874,0.0,0.0,0.0,1.1918173,1.1918434,1.0061361,0.0,0.0,0.0,0.0,0.0,0.0
4044000,3964000,0.09475163,0.09475204,0.2040036,1.0000952,1.0000952,26.000025,0.0,0.0,0.0,0.0,0.0,0.0,0.0,45.58337,0.0,0.0,nan,0.0,0.0,0.0,0.0,0.096904874,0.0,0.0,0.0,1.1986756,1.1987046,1.0061431,0.0,0.0,0.0,0.0,0.0,0.0
4052000,3972000,0.09475163,0.09475204,0.2040036,1.0000952,1.0000952,26.000025,0.0,0.0,0.0,0.0,0.0,0.0,0.0,37.250053,0.0,0.0,nan,0.0,0.0,0.0,0.0,0.096624576,0.0,0.0,0.0,1.2056903,1.2057222,1.0061505,0.0,0.0,0.0,0.0,0.0,0.0
4060000,3980000,0.09475163,0.09475204,0.2040036,1.0000952,1.0000952,26.000025,0.0,0.0,0.0,0.0,0.0,0.0,0.0,37.250053,0.0,0.0,nan,0.0,0.0,0.0,0.0,0.096624576,0.0,0.0,0.0,1.2128613,1.2128966,1.0061581,0.0,0.0,0.0,0.0,0.0,0.0
4068000,3988000,0.09475163,0.09475204,0.2040036,1.0000952,1.0000952,26.000025,0.0,0.0,0.0,0.0,0.0,0.0,0.0,37.250053,0.0,0.0,nan,0.0,0.0,0.0,0.0,0.096624576,0.0,0.0,0.0,1.220189,1.2202274,1.006166,0.0,0.0,0.0,0.0,0.0,0.0
4076000,3996000,0.09475163,0.09475204,0.2040036,1.0000952,1.0000952,26.000025,0.0,0.0,0.0,0.0,0.0,0.0,0.0,37.250053,0.0,0.0,nan,0.0,0.0,0.0,0.0,0.096624576,0.0,0.0,0.0,1.2276732,1.227715,1.0061736,0.0,0.0,0.0,0.0,0.0,0.0
4084000,4004000,0.09475163,0.09475204,0.2040036,1.0000952,1.0000952,26.000025,0.0,0.0,0.0,0.0,0.0,0.0,0.0,37.250053,0.0,0.0,nan,0.0,0.0,0.0,0.0,0.096624576,0.0,0.0,0.0,1.2353137,1.2353593,1.0061818,0.0,0.0,0.0,0.0,0.0,0.0
4092000,4012000,0.09475163,0.09475204,0.2040036,1.0000952,1.0000952,26.000025,0.0,0.0,0.0,0.0,0.0,0.0,0.0,37.250053,0.0,0.0,nan,0.0,0.0,0.0,0.0,0.096624576,0.0,0.0,0.0,1.2431111,1.2431599,1.0061901,0.0,0.0,0.0,0.0,0.0,0.0
4100000,4020000,0.09475163,0.09475204,0.2040036,1.0000952,1.0000952,26.000025,0.0,0.0,0.0,0.0,0.0,0.0,0.0,37.250053,0.0,0.0,nan,0.0,0.0,0.0,0.0,0.096624576,0.0,0.0,0.0,1.2510651,1.2511173,1.0061983,0.0,0.0,0.0,0.0,0.0,0.0
4108000,4028000,0.09475163,0.09475204,0.2040036,1.0000952,1.0000952,26.000025,0.0,0.0,0.0,0.0,0.0,0.0,0.0,37.250107,0.0,0.0,nan,0.0,0.0,0.0,0.0,0.096624576,0.0,0.0,0.0,1.2591754,1.2592313,1.0062069,0.0,0.0,0.0,0.0,0.0,0.0
4116000,4036000,0.09475163,0.09475204,0.2040036,1.0000952,1.0000952,26.000025,0.0,0.0,0.0,0.0,0.0,0.0,0.0,37.250107,0.0,0.0,nan,0.0,0.0,0.0,0.0,0.096624576,0.0,0.0,0.0,1.2674423,1.2675018,1.0062156,0.0,0.0,0.0,0.0,0.0,0.0
4124000,4044000,0.09475163,0.09475204,0.2040036,1.0000952,1.0000952,26.000025,0.0,0.0,0.0,0.0,0.0,0.0,0.0,37.250107,0.0,0.0,nan,0.0,0.0,0.0,0.0,0.09641379,0.0,0.0,0.0,1.2758654,1.275929,1.0062246,0.0,0.0,0.0,0.0,0.0,0.0
4132000,4052000,0.09475163,0.09475204,0.2040036,1.0000952,1.0000952,26.000025,0.0,0.0,0.0,0.0,0.0,0.0,0.0,37.250107,0.0,0.0,nan,0.0,0.0,0.0,0.0,0.09641379,0.0,0.0,0.0,1.2844455,1.2845128,1.0062337,0.0,0.0,0.0,0.0,0.0,0.0
4140000,4060000,0.09475163,0.09475204,0.2040036,1.0000952,1.0000952,26.000025,0.0,0.0,0.0,0.0,0.0,0.0,0.0,37.250107,0.0,0.0,nan,0.0,0.0,0.0,0.0,0.09641379,0.0,0.0,0.0,1.293182,1.2932531,1.0062429,0.0,0.0,0.0,0.0,0.0,0.0
4148000,4068000,0.09475163,0.09475204,0.2040036,1.0000952,1.0000952,26.000025,0.0,0.0,0.0,0.0,0.0,0.0,0.0,37.250107,0.0,0.0,nan,0.0,0.0,0.0,0.0,0.09641379,0.0,0.0,0.0,1.3020746,1.3021502,1.0062526,0.0,0.0,0.0,0.0,0.0,0.0
4156000,4076000,0.09475163,0.09475204,0.2040036,1.0000952,1.0000952,26.000025,0.0,0.0,0.0,0.0,0.0,0.0,0.0,37.250107,0.0,0.0,nan,0.0,0.0,0.0,0.0,0.09641379,0.0,0.0,0.0,1.3111241,1.3112038,1.0062622,0.0,0.0,0.0,0.0,0.0,0.0
4164000,4084000,0.09475163,0.09475204,0.2040036,1.0000952,1.0000952,26.000025,0.0,0.0,0.0,0.0,0.0,0.0,0.0,37.250107,0.0,0.0,nan,0.0,0.0,0.0,0.0,0.09641379,0.0,0.0,0.0,1.3203303,1.3204141,1.0062722,0.0,0.0,0.0,0.0,0.0,0.0
4172000,4092000,0.09475163,0.09475204,0.2040036,1.0000952,1.0000952,26.000025,0.0,0.0,0.0,0.0,0.0,0.0,0.0,20.471523,0.0,0.0,nan,0.0,0.0,0.0,0.0,0.09641379,0.0,0.0,0.0,1.3296928,1.3297807,1.006282,0.0,0.0,0.0,0.0,0.0,0.0
4180000,4100000,0.09475163,0.09475204,0.2040036,1.0000952,1.0000952,26.000025,0.0,0.0,0.0,0.0,0.0,0.0,0.0,20.471523,0.0,0.0,nan,0.0,0.0,0.0,0.0,0.09641379,0.0,0.0,0.0,1.3392121,1.3393041,1.0062921,0.0,0.0,0.0,0.0,0.0,0.0
4188000,4108000,0.09475163,0.09475204,0.2040036,1.0000952,1.0000952,26.000025,0.0,0.0,0.0,0.0,0.0,0.0,0.0,20.471523,0.0,0.0,nan,0.0,0.0,0.0,0.0,0.09641379,0.0,0.0,0.0,1.3488874,1.3489844,1.0063022,0.0,0.0,0.0,0.0,0.0,0.0
4196000,4116000,0.09475163,0.09475204,0.2040036,1.0000952,1.0000952,26.000025,0.0,0.0,0.0,0.0,0.0,0.0,0.0,20.471523,0.0,0.0,nan,0.0,0.0,0.0,0.0,0.09626024,0.0,0.0,0.0,1.3587188,1.358821,1.0063133,0.0,0.0,0.0,0.0,0.0,0.0
4204000,4124000,0.09475163,0.09475204,0.2040036,1.0000952,1.0000952,26.000025,0.0,0.0,0.0,0.0,0.0,0.0,0.0,20.471523,0.0,0.0,nan,0.0,0.0,0.0,0.0,0.09626024,0.0,0.0,0.0,1.2455262,1.2456008,1.0062037,0.0,0.0,0.0,0.0,0.0,0.0
4212000,4132000,0.09475163,0.09475204,0.2040036,1.0000952,1.0000952,26.000025,0.0,0.0,0.0,0.0,0.0,0.0,0.0,20.471523,0.0,0.0,nan,0.0,0.0,0.0,0.0,0.09626024,0.0,0.0,0.0,1.2526157,1.2526937,1.0062108,0.0,0.0,0.0,0.0,0.0,0.0
4220000,4140000,0.09475163,0.09475204,0.2040036,1.0000952,1.0000952,26.000025,0.0,0.0,0.0,0.0,0.0,0.0,0.0,20.471523,0.0,0.0,nan,0.0,0.0,0.0,0.0,0.09626024,0.0,0.0,0.0,1.2598245,1.2599055,1.0062181,0.0,0.0,0.0,0.0,0.0,0.0
4228000,4148000,0.09475163,0.09475204,0.2040036,1.0000952,1.0000952,26.000025,0.0,0.0,0.0,0.0,0.0,0.0,0.0,17.169733,0.0,0.0,nan,0.0,0.0,0.0,0.0,0.09626024,0.0,0.0,0.0,1.2671521,1.2672364,1.006226,0.0,0.0,0.0,0.0,0.0,0.0
4236000,4156000,0.09475163,0.09475204,0.2040036,1.0000952,1.0000952,26.000025,0.0,0.0,0.0,0.0,0.0,0.0,0.0,17.169733,0.0,0.0,nan,0.0,0.0,0.0,0.0,0.09626024,0.0,0.0,0.0,1.2501035,1.2501777,1.0062073,0.0,0.0,0.0,0.0,0.0,0.0
4244000,4164000,0.09475163,0.09475204,0.2040036,1.0000952,1.0000952,26.000025,0.0,0.0,0.0,0.0,0.0,0.0,0.0,17.169733,0.0,0.0,nan,0.0,0.0,0.0,0.0,0.09626024,0.0,0.0,0.0,1.2569346,1.2570119,1.0062144,0.0,0.0,0.0,0.0,0.0,0.0
4252000,4172000,0.09475163,0.09475204,0.2040036,1.0000952,1.0000952,26.000025,0.0,0.0,0.0,0.0,0.0,0.0,0.0,17.169733,0.0,0.0,nan,0.0,0.0,0.0,0.0,0.09626024,0.0,0.0,0.0,1.263874,1.2639542,1.0062217,0.0,0.0,0.0,0.0,0.0,0.0
4260000,4180000,0.09475163,0.09475204,0.2040036,1.0000952,1.0000952,26.000025,0.0,0.0,0.0,0.0,0.0,0.0,0.0,17.169733,0.0,0.0,nan,0.0,0.0,0.0,0.0,0.09626024,0.0,0.0,0.0,1.2709216,1.2710049,1.0062288,0.0,0.0,0.0,0.0,0.0,0.0
4268000,4188000,0.09475163,0.09475204,0.2040036,1.0000952,1.0000952,26.000025,0.0,0.0,0.0,0.0,0.0,0.0,0.0,17.169733,0.0,0.0,nan,0.0,0.0,0.0,0.0,0.09615391,0.0,0.0,0.0,1.2780772,1.2781639,1.006237,0.0,0.0,0.0,0.0,0.0,0.0
4276000,4196000,0.09475163,0.09475204,0.2040036,1.0000952,1.0000952,26.000025,0.0,0.0,0.0,0.0,0.0,0.0,0.0,17.169733,0.0,0.0,nan,0.0,0.0,0.0,0.0,0.09615391,0.0,0.0,0.0,1.2853411,1.2854309,1.0062447,0.0,0.0,0.0,0.0,0.0,0.0
4284000,4204000,0.09475163,0.09475204,0.2040036,1.0000952,1.0000952,26.000025,0.0,0.0,0.0,0.0,0.0,0.0,0.0,17.169733,0.0,0.0,nan,0.0,0.0,0.0,0.0,0.09615391,0.0,0.0,0.0,1.2927134,1.2928064,1.0062524,0.0,0.0,0.0,0.0,0.0,0.0
4292000,4212000,0.09475163,0.09475204,0.2040036,1.0000952,1.0000952,26.000025,0.0,0.0,0.0,0.0,0.0,0.0,0.0,15.760109,0.0,0.0,nan,0.0,0.0,0.0,0.0,0.09615391,0.0,0.0,0.0,1.3001941,1.3002901,1.0062602,0.0,0.0,0.0,0.0,0.0,0.0
4300000,4220000,0.09475163,0.09475204,0.2040036,1.0000952,1.0000952,26.000025,0.0,0.0,0.0,0.0,0.0,0.0,0.0,15.760109,0.0,0.0,nan,0.0,0.0,0.0,0.0,0.09615391,0.0,0.0,0.0,1.3077831,1.3078821,1.006268,0.0,0.0,0.0,0.0,0.0,0.0
4308000,4228000,0.09475163,0.09475204,0.2040036,1.0000952,1.0000952,26.000025,0.0,0.0,0.0,0.0,0.0,0.0,0.0,15.760109,0.0,0.0,nan,0.0,0.0,0.0,0.0,0.09615391,0.0,0.0,0.0,1.3154801,1.3155825,1.0062761,0.0,0.0,0.0,0.0,0.0,0.0
4316000,4236000,0.09475163,0.09475204,0.2040036,1.0000952,1.0000952,26.000025,0.0,0.0,0.0,0.0,0.0,0.0,0.0,15.760109,0.0,0.0,nan,0.0,0.0,0.0,0.0,0.09615391,0.0,0.0,0.0,1.3232853,1.3233913,1.0062838,0.0,0.0,0.0,0.0,0.0,0.0
4324000,4244000,0.09475163,0.09475204,0.2040036,1.0000952,1.0000952,26.000025,0.0,0.0,0.0,0.0,0.0,0.0,0.0,15.760109,0.0,0.0,nan,0.0,0.0,0.0,0.0,0.09615391,0.0,0.0,0.0,1.3311989,1.3313082,1.0062923,0.0,0.0,0.0,0.0,0.0,0.0
4332000,4252000,0.09475163,0.09475204,0.2040036,1.0000952,1.0000952,26.000025,0.0,0.0,0.0,0.0,0.0,0.0,0.0,15.760109,0.0,0.0,nan,0.0,0.0,0.0,0.0,0.09615391,0.0,0.0,0.0,1.3392205,1.339333,1.0063009,0.0,0.0,0.0,0.0,0.0,0.0
4340000,4260000,0.09475163,0.09475204,0.2040036,1.0000952,1.0000952,26.000025,0.0,0.0,0.0,0.0,0.0,0.0,0.0,15.760109,0.0,0.0,nan,0.0,0.0,0.0,0.0,0.09608674,0.0,0.0,0.0,1.3473501,1.3474668,1.0063095,0.0,0.0,0.0,0.0,0.0,0.0
4348000,4268000,0.09475163,0.09475204,0.2040036,1.0000952,1.0000952,26.000025,0.0,0.0,0.0,0.0,0.0,0.0,0.0,14.978399,0.0,0.0,nan,0.0,0.0,0.0,0.0,0.09608674,0.0,0.0,0.0,1.3555882,1.3557082,1.0063181,0.0,0.0,0.0,0.0,0.0,0.0
4356000,4276000,0.09475163,0.09475204,0.2040036,1.0000952,1.0000952,26.000025,0.0,0.0,0.0,0.0,0.0,0.0,0.0,14.978399,0.0,0.0,nan,0.0,0.0,0.0,0.0,0.09608674,0.0,0.0,0.0,1.3639349,1.3640577,1.0063272,0.0,0.0,0.0,0.0,0.0,0.0
4364000,4284000,0.09475163,0.09475204,0.2040036,1.0000952,1.0000952,26.000025,0.0,0.0,0.0,0.0,0.0,0.0,0.0,14.978399,0.0,0.0,nan,0.0,0.0,0.0,0.0,0.09608674,0.0,0.0,0.0,1.3723896,1.3725157,1.0063363,0.0,0.0,0.0,0.0,0.0,0.0
4372000,4292000,0.09475163,0.09475204,0.2040036,1.0000952,1.0000952,26.000025,0.0,0.0,0.0,0.0,0.0,0.0,0.0,14.978399,0.0,0.0,nan,0.0,0.0,0.0,0.0,0.09608674,0.0,0.0,0.0,1.3809528,1.3810819,1.0063452,0.0,0.0,0.0,0.0,0.0,0.0
4380000,4300000,0.09475163,0.09475204,0.2040036,1.0000952,1.0000952,26.000025,0.0,0.0,0.0,0.0,0.0,0.0,0.0,14.978399,0.0,0.0,nan,0.0,0.0,0.0,0.0,0.09608674,0.0,0.0,0.0,1.3896238,1.3897568,1.0063543,0.0,0.0,0.0,0.0,0.0,0.0
4388000,4308000,0.09475163,0.09475204,0.2040036,1.0000952,1.0000952,26.000025,0.0,0.0,0.0,0.0,0.0,0.0,0.0,14.978399,0.0,0.0,nan,0.0,0.0,0.0,0.0,0.09608674,0.0,0.0,0.0,1.398403,1.3985393,1.0063639,0.0,0.0,0.0,0.0,0.0,0.0
4396000,4316000,0.11151654,0.111515276,0.20701154,1.0007446,1.0007446,3.2314754,0.0,0.0,0.0,0.0,0.0,0.0,0.0,14.978399,0.0,0.0,nan,0.0,0.0,0.0,0.0,0.09608674,0.0,0.0,0.0,1.4072909,1.4074306,1.0063733,0.0,0.0,0.0,0.0,0.0,0.0
4404000,4324000,0.11151654,0.111515276,0.20701154,1.0007446,1.0007446,3.2314754,0.0,0.0,0.0,0.0,0.0,0.0,0.0,14.978399,0.0,0.0,nan,0.0,0.0,0.0,0.0,0.09601051,0.0,0.0,0.0,1.4162866,1.4164304,1.0063821,0.0,0.0,0.0,0.0,0.0,0.0
4412000,4332000,0.11151654,0.111515276,0.20701154,1.0007446,1.0007446,3.2314754,0.0,0.0,0.0,0.0,0.0,0.0,0.0,14.481504,0.0,0.0,nan,0.0,0.0,0.0,0.0,0.09601051,0.0,0.0,0.0,1.2103611,1.2103986,1.0061655,0.0,0.0,0.0,0.0,0.0,0.0
4420000,4340000,0.11151654,0.111515276,0.20701154,1.0007446,1.0007446,3.2314754,0.0,0.0,0.0,0.0,0.0,0.0,0.0,14.481504,0.0,0.0,nan,0.0,0.0,0.0,0.0,0.09601051,0.0,0.0,0.0,1.2147628,1.2148017,1.0061699,0.0,0.0,0.0,0.0,0.0,0.0
4428000,4348000,0.11151654,0.111515276,0.20701154,1.0007446,1.0007446,3.2314754,0.0,0.0,0.0,0.0,0.0,0.0,0.0,14.481504,0.0,0.0,nan,0.0,0.0,0.0,0.0,0.09601051,0.0,0.0,0.0,1.2192194,1.2192597,1.0061746,0.0,0.0,0.0,0.0,0.0,0.0
4436000,4356000,0.11151654,0.111515276,0.20701154,1.0007446,1.0007446,3.2314754,0.0,0.0,0.0,0.0,0.0,0.0,0.0,14.481504,0.0,0.0,nan,0.0,0.0,0.0,0.0,0.09601051,0.0,0.0,0.0,1.2237315,1.2237726,1.0061789,0.0,0.0,0.0,0.0,0.0,0.0
4444000,4364000,0.11151654,0.111515276,0.20701154,1.0007446,1.0007446,3.2314754,0.0,0.0,0.0,0.0,0.0,0.0,0.0,14.481504,0.0,0.0,nan,0.0,0.0,0.0,0.0,0.09601051,0.0,0.0,0.0,1.2033954,1.2034259,1.006157,0.0,0.0,0.0,0.0,0.0,0.0
4452000,4372000,0.11151654,0.111515276,0.20701154,1.0007446,1.0007446,3.2314754,0.0,0.0,0.0,0.0,0.0,0.0,0.0,14.481504,0.0,0.0,nan,0.0,0.0,0.0,0.0,0.09601051,0.0,0.0,0.0,1.2074357,1.207467,1.006161,0.0,0.0,0.0,0.0,0.0,0.0
4460000,4380000,0.11151654,0.111515276,0.20701154,1.0007446,1.0007446,3.2314754,0.0,0.0,0.0,0.0,0.0,0.0,0.0,14.481504,0.0,0.0,nan,0.0,0.0,0.0,0.0,0.09601051,0.0,0.0,0.0,1.2115239,1.2115561,1.0061653,0.0,0.0,0.0,0.0,0.0,0.0
4468000,4388000,0.11151654,0.111515276,0.20701154,1.0007446,1.0007446,3.2314754,0.0,0.0,0.0,0.0,0.0,0.0,0.0,14.13773,0.0,0.0,nan,0.0,0.0,0.0,0.0,0.09601051,0.0,0.0,0.0,1.2156606,1.2156937,1.0061697,0.0,0.0,0.0,0.0,0.0,0.0
4476000,4396000,0.11151654,0.111515276,0.20701154,1.0007446,1.0007446,3.2314754,0.0,0.0,0.0,0.0,0.0,0.0,0.0,14.13773,0.0,0.0,nan,0.0,0.0,0.0,0.0,0.09600183,0.0,0.0,0.0,1.2198455,1.2198797,1.0061737,0.0,0.0,0.0,0.0,0.0,0.0
4484000,4404000,0.11151654,0.111515276,0.20701154,1.0007446,1.0007446,3.2314754,0.0,0.0,0.0,0.0,0.0,0.0,0.0,14.13773,0.0,0.0,nan,0.0,0.0,0.0,0.0,0.09600183,0.0,0.0,0.0,1.2240789,1.2241138,1.0061779,0.0,0.0,0.0,0.0,0.0,0.0
4492000,4412000,0.11151654,0.111515276,0.20701154,1.0007446,1.0007446,3.2314754,0.0,0.0,0.0,0.0,0.0,0.0,0.0,14.13773,0.0,0.0,nan,0.0,0.0,0.0,0.0,0.09600183,0.0,0.0,0.0,1.2283605,1.2283964,1.0061822,0.0,0.0,0.0,0.0,0.0,0.0
4500000,4420000,0.11151654,0.111515276,0.20701154,1.0007446,1.0007446,3.2314754,0.0,0.0,0.0,0.0,0.0,0.0,0.0,14.13773,0.0,0.0,nan,0.0,0.0,0.0,0.0,0.09600183,0.0,0.0,0.0,1.2326903,1.2327275,1.0061864,0.0,0.0,0.0,0.0,0.0,0.0
4508000,4428000,0.11151654,0.111515276,0.20701154,1.0007446,1.0007446,3.2314754,0.0,0.0,0.0,0.0,0.0,0.0,0.0,14.13773,0.0,0.0,nan,0.0,0.0,0.0,0.0,0.09600183,0.0,0.0,0.0,1.2370684,1.2371067,1.0061905,0.0,0.0,0.0,0.0,0.0,0.0
4516000,4436000,0.11151654,0.111515276,0.20701154,1.0007446,1.0007446,3.2314754,0.0,0.0,0.0,0.0,0.0,0.0,0.0,14.13773,0.0,0.0,nan,0.0,0.0,0.0,0.0,0.09600183,0.0,0.0,0.0,1.2414949,1.2415345,1.0061951,0.0,0.0,0.0,0.0,0.0,0.0
4524000,4444000,0.11151654,0.111515276,0.20701154,1.0007446,1.0007446,3.2314754,0.0,0.0,0.0,0.0,0.0,0.0,0.0,14.13773,0.0,0.0,nan,0.0,0.0,0.0,0.0,0.09600183,0.0,0.0,0.0,1.2459698,1.2460102,1.0061992,0.0,0.0,0.0,0.0,0.0,0.0
4532000,4452000,0.11151654,0.111515276,0.20701154,1.0007446,1.0007446,3.2314754,0.0,0.0,0.0,0.0,0.0,0.0,0.0,13.885815,0.0,0.0,nan,0.0,0.0,0.0,0.0,0.09600183,0.0,0.0,0.0,1.2504928,1.2505343,1.0062037,0.0,0.0,0.0,0.0,0.0,0.0
4540000,4460000,0.11151654,0.111515276,0.20701154,1.0007446,1.0007446,3.2314754,0.0,0.0,0.0,0.0,0.0,0.0,0.0,13.885815,0.0,0.0,nan,0.0,0.0,0.0,0.0,0.09600183,0.0,0.0,0.0,1.2550641,1.2551064,1.0062085,0.0,0.0,0.0,0.0,0.0,0.0
4548000,4468000,0.11151654,0.111515276,0.20701154,1.0007446,1.0007446,3.2314754,0.0,0.0,0.0,0.0,0.0,0.0,0.0,13.885815,0.0,0.0,nan,0.0,0.0,0.0,0.0,0.09601447,0.0,0.0,0.0,1.2596836,1.2597272,1.0062134,0.0,0.0,0.0,0.0,0.0,0.0
4556000,4476000,0.11151654,0.111515276,0.20701154,1.0007446,1.0007446,3.2314754,0.0,0.0,0.0,0.0,0.0,0.0,0.0,13.885815,0.0,0.0,nan,0.0,0.0,0.0,0.0,0.09601447,0.0,0.0,0.0,1.2643515,1.2643964,1.006218,0.0,0.0,0.0,0.0,0.0,0.0
4564000,4484000,0.11151654,0.111515276,0.20701154,1.0007446,1.0007446,3.2314754,0.0,0.0,0.0,0.0,0.0,0.0,0.0,13.885815,0.0,0.0,nan,0.0,0.0,0.0,0.0,0.09601447,0.0,0.0,0.0,1.2690676,1.2691143,1.0062225,0.0,0.0,0.0,0.0,0.0,0.0
4572000,4492000,0.11151654,0.111515276,0.20701154,1.0007446,1.0007446,3.2314754,0.0,0.0,0.0,0.0,0.0,0.0,0.0,13.885815,0.0,0.0,nan,0.0,0.0,0.0,0.0,0.09601447,0.0,0.0,0.0,1.2738322,1.27388,1.0062271,0.0,0.0,0.0,0.0,0.0,0.0
4580000,4500000,0.11151654,0.111515276,0.20701154,1.0007446,1.0007446,3.2314754,0.0,0.0,0.0,0.0,0.0,0.0,0.0,13.885815,0.0,0.0,nan,0.0,0.0,0.0,0.0,0.09601447,0.0,0.0,0.0,1.278645,1.2786939,1.0062319,0.0,0.0,0.0,0.0,0.0,0.0
4588000,4508000,0.11151654,0.111515276,0.20701154,1.0007446,1.0007446,3.2314754,0.0,0.0,0.0,0.0,0.0,0.0,0.0,13.693262,0.0,0.0,nan,0.0,0.0,0.0,0.0,0.09601447,0.0,0.0,0.0,1.283506,1.2835563,1.0062369,0.0,0.0,0.0,0.0,0.0,0.0
4596000,4516000,0.11151654,0.111515276,0.20701154,1.0007446,1.0007446,3.2314754,0.0,0.0,0.0,0.0,0.0,0.0,0.0,13.693262,0.0,0.0,nan,0.0,0.0,0.0,0.0,0.09601447,0.0,0.0,0.0,1.2884157,1.288467,1.0062418,0.0,0.0,0.0,0.0,0.0,0.0
4604000,4524000,0.11151654,0.111515276,0.20701154,1.0007446,1.0007446,3.2314754,0.0,0.0,0.0,0.0,0.0,0.0,0.0,13.693262,0.0,0.0,nan,0.0,0.0,0.0,0.0,0.09601447,0.0,0.0,0.0,1.2933735,1.2934262,1.0062464,0.0,0.0,0.0,0.0,0.0,0.0
4612000,4532000,0.11151654,0.111515276,0.20701154,1.0007446,1.0007446,3.2314754,0.0,0.0,0.0,0.0,0.0,0.0,0.0,13.693262,0.0,0.0,nan,0.0,0.0,0.0,0.0,0.09601447,0.0,0.0,0.0,1.2983793,1.2984337,1.0062512,0.0,0.0,0.0,0.0,0.0,0.0
4620000,4540000,0.11151654,0.111515276,0.20701154,1.0007446,1.0007446,3.2314754,0.0,0.0,0.0,0.0,0.0,0.0,0.0,13.693262,0.0,0.0,nan,0.0,0.0,0.0,0.0,0.096043594,0.0,0.0,0.0,1.1305958,1.1305841,1.0060793,0.0,0.0,0.0,0.0,0.0,0.0
4628000,4548000,0.11151654,0.111515276,0.20701154,1.0007446,1.0007446,3.2314754,0.0,0.0,0.0,0.0,0.0,0.0,0.0,13.693262,0.0,0.0,nan,0.0,0.0,0.0,0.0,0.096043594,0.0,0.0,0.0,1.1325082,1.1324965,1.0060813,0.0,0.0,0.0,0.0,0.0,0.0
4636000,4556000,0.11151654,0.111515276,0.20701154,1.0007446,1.0007446,3.2314754,0.0,0.0,0.0,0.0,0.0,0.0,0.0,13.693262,0.0,0.0,nan,0.0,0.0,0.0,0.0,0.096043594,0.0,0.0,0.0,1.1344397,1.1344281,1.006083,0.0,0.0,0.0,0.0,0.0,0.0
4644000,4564000,0.11151654,0.111515276,0.20701154,1.0007446,1.0007446,3.2314754,0.0,0.0,0.0,0.0,0.0,0.0,0.0,13.541327,0.0,0.0,nan,0.0,0.0,0.0,0.0,0.096043594,0.0,0.0,0.0,1.1363904,1.136379,1.0060849,0.0,0.0,0.0,0.0,0.0,0.0
4652000,4572000,0.11151654,0.111515276,0.20701154,1.0007446,1.0007446,3.2314754,0.0,0.0,0.0,0.0,0.0,0.0,0.0,13.541327,0.0,0.0,nan,0.0,0.0,0.0,0.0,0.096043594,0.0,0.0,0.0,1.1275758,1.1275623,1.0060754,0.0,0.0,0.0,0.0,0.0,0.0
4660000,4580000,0.11151654,0.111515276,0.20701154,1.0007446,1.0007446,3.2314754,0.0,0.0,0.0,0.0,0.0,0.0,0.0,13.541327,0.0,0.0,nan,0.0,0.0,0.0,0.0,0.096043594,0.0,0.0,0.0,1.1293615,1.129348,1.0060775,0.0,0.0,0.0,0.0,0.0,0.0
4668000,4588000,0.11151654,0.111515276,0.20701154,1.0007446,1.0007446,3.2314754,0.0,0.0,0.0,0.0,0.0,0.0,0.0,13.541327,0.0,0.0,nan,0.0,0.0,0.0,0.0,0.096043594,0.0,0.0,0.0,1.1311648,1.1311511,1.0060792,0.0,0.0,0.0,0.0,0.0,0.0
4676000,4596000,0.11151654,0.111515276,0.20701154,1.0007446,1.0007446,3.2314754,0.0,0.0,0.0,0.0,0.0,0.0,0.0,13.541327,0.0,0.0,nan,0.0,0.0,0.0,0.0,0.096043594,0.0,0.0,0.0,1.1329851,1.1329714,1.006081,0.0,0.0,0.0,0.0,0.0,0.0
4684000,4604000,0.11151654,0.111515276,0.20701154,1.0007446,1.0007446,3.2314754,0.0,0.0,0.0,0.0,0.0,0.0,0.0,13.541327,0.0,0.0,nan,0.0,0.0,0.0,0.0,0.096043594,0.0,0.0,0.0,1.1348227,1.1348089,1.0060828,0.0,0.0,0.0,0.0,0.0,0.0
4692000,4612000,0.11151654,0.111515276,0.20701154,1.0007446,1.0007446,3.2314754,0.0,0.0,0.0,0.0,0.0,0.0,0.0,13.541327,0.0,0.0,nan,0.0,0.0,0.0,0.0,0.09608511,0.0,0.0,0.0,1.1366775,1.1366637,1.0060844,0.0,0.0,0.0,0.0,0.0,0.0
4700000,4620000,0.11151654,0.111515276,0.20701154,1.0007446,1.0007446,3.2314754,0.0,0.0,0.0,0.0,0.0,0.0,0.0,13.418316,0.0,0.0,nan,0.0,0.0,0.0,0.0,0.09608511,0.0,0.0,0.0,1.1385496,1.1385359,1.0060865,0.0,0.0,0.0,0.0,0.0,0.0
4708000,4628000,0.11151654,0.111515276,0.20701154,1.0007446,1.0007446,3.2314754,0.0,0.0,0.0,0.0,0.0,0.0,0.0,13.418316,0.0,0.0,nan,0.0,0.0,0.0,0.0,0.09608511,0.0,0.0,0.0,1.1404387,1.1404251,1.0060881,0.0,0.0,0.0,0.0,0.0,0.0
4716000,4636000,0.11151654,0.111515276,0.20701154,1.0007446,1.0007446,3.2314754,0.0,0.0,0.0,0.0,0.0,0.0,0.0,13.418316,0.0,0.0,nan,0.0,0.0,0.0,0.0,0.09608511,0.0,0.0,0.0,1.1423452,1.1423316,1.0060899,0.0,0.0,0.0,0.0,0.0,0.0
4724000,4644000,0.11151654,0.111515276,0.20701154,1.0007446,1.0007446,3.2314754,0.0,0.0,0.0,0.0,0.0,0.0,0.0,13.418316,0.0,0.0,nan,0.0,0.0,0.0,0.0,0.09608511,0.0,0.0,0.0,1.144269,1.1442553,1.006092,0.0,0.0,0.0,0.0,0.0,0.0
4732000,4652000,0.11151654,0.111515276,0.20701154,1.0007446,1.0007446,3.2314754,0.0,0.0,0.0,0.0,0.0,0.0,0.0,13.418316,0.0,0.0,nan,0.0,0.0,0.0,0.0,0.09608511,0.0,0.0,0.0,1.14621,1.1461961,1.0060939,0.0,0.0,0.0,0.0,0.0,0.0
4740000,4660000,0.11151654,0.111515276,0.20701154,1.0007446,1.0007446,3.2314754,0.0,0.0,0.0,0.0,0.0,0.0,0.0,13.418316,0.0,0.0,nan,0.0,0.0,0.0,0.0,0.09608511,0.0,0.0,0.0,1.1481683,1.1481544,1.0060954,0.0,0.0,0.0,0.0,0.0,0.0
4748000,4668000,0.11151654,0.111515276,0.20701154,1.0007446,1.0007446,3.2314754,0.0,0.0,0.0,0.0,0.0,0.0,0.0,13.418316,0.0,0.0,nan,0.0,0.0,0.0,0.0,0.09608511,0.0,0.0,0.0,1.1501437,1.1501299,1.0060973,0.0,0.0,0.0,0.0,0.0,0.0
4756000,4676000,0.11151654,0.111515276,0.20701154,1.0007446,1.0007446,3.2314754,0.0,0.0,0.0,0.0,0.0,0.0,0.0,13.316813,0.0,0.0,nan,0.0,0.0,0.0,0.0,0.09608511,0.0,0.0,0.0,1.1521366,1.1521226,1.0060992,0.0,0.0,0.0,0.0,0.0,0.0
4764000,4684000,0.11151654,0.111515276,0.20701154,1.0007446,1.0007446,3.2314754,0.0,0.0,0.0,0.0,0.0,0.0,0.0,13.316813,0.0,0.0,nan,0.0,0.0,0.0,0.0,0.09613533,0.0,0.0,0.0,1.1541466,1.1541325,1.0061009,0.0,0.0,0.0,0.0,0.0,0.0
4772000,4692000,0.11151654,0.111515276,0.20701154,1.0007446,1.0007446,3.2314754,0.0,0.0,0.0,0.0,0.0,0.0,0.0,13.316813,0.0,0.0,nan,0.0,0.0,0.0,0.0,0.09613533,0.0,0.0,0.0,1.1561738,1.1561596,1.0061026,0.0,0.0,0.0,0.0,0.0,0.0
4780000,4700000,0.11151654,0.111515276,0.20701154,1.0007446,1.0007446,3.2314754,0.0,0.0,0.0,0.0,0.0,0.0,0.0,13.316813,0.0,0.0,nan,0.0,0.0,0.0,0.0,0.09613533,0.0,0.0,0.0,1.1582183,1.1582041,1.0061046,0.0,0.0,0.0,0.0,0.0,0.0
4788000,4708000,0.11151654,0.111515276,0.20701154,1.0007446,1.0007446,3.2314754,0.0,0.0,0.0,0.0,0.0,0.0,0.0,13.316813,0.0,0.0,nan,0.0,0.0,0.0,0.0,0.09613533,0.0,0.0,0.0,1.16028,1.1602658,1.0061063,0.0,0.0,0.0,0.0,0.0,0.0
4796000,4716000,0.10226421,0.10226518,0.2098781,1.0005304,1.0005305,1.9815286,0.0,0.0,0.0,0.0,0.0,0.0,0.0,13.316813,0.0,0.0,nan,0.0,0.0,0.0,0.0,0.09613533,0.0,0.0,0.0,1.1623589,1.1623446,1.0061084,0.0,0.0,0.0,0.0,0.0,0.0
4804000,4724000,0.10226421,0.10226518,0.2098781,1.0005304,1.0005305,1.9815286,0.0,0.0,0.0,0.0,0.0,0.0,0.0,13.316813,0.0,0.0,nan,0.0,0.0,0.0,0.0,0.09613533,0.0,0.0,0.0,1.1644549,1.1644406,1.0061104,0.0,0.0,0.0,0.0,0.0,0.0
4812000,4732000,0.10226421,0.10226518,0.2098781,1.0005304,1.0005305,1.9815286,0.0,0.0,0.0,0.0,0.0,0.0,0.0,13.316813,0.0,0.0,nan,0.0,0.0,0.0,0.0,0.09613533,0.0,0.0,0.0,1.1665682,1.166554,1.0061127,0.0,0.0,0.0,0.0,0.0,0.0
4820000,4740000,0.10226421,0.10226518,0.2098781,1.0005304,1.0005305,1.9815286,0.0,0.0,0.0,0.0,0.0,0.0,0.0,13.23165,0.0,0.0,nan,0.0,0.0,0.0,0.0,0.09613533,0.0,0.0,0.0,1.1686988,1.1686845,1.0061146,0.0,0.0,0.0,0.0,0.0,0.0
4828000,4748000,0.10226421,0.10226518,0.2098781,1.0005304,1.0005305,1.9815286,0.0,0.0,0.0,0.0,0.0,0.0,0.0,13.23165,0.0,0.0,nan,0.0,0.0,0.0,0.0,0.09613533,0.0,0.0,0.0,1.0855267,1.0855001,1.0060314,0.0,0.0,0.0,0.0,0.0,0.0
4836000,4756000,0.10226421,0.10226518,0.2098781,1.0005304,1.0005305,1.9815286,0.0,0.0,0.0,0.0,0.0,0.0,0.0,13.23165,0.0,0.0,nan,0.0,0.0,0.0,0.0,0.096191004,0.0,0.0,0.0,1.0863705,1.0863436,1.0060322,0.0,0.0,0.0,0.0,0.0,0.0
4844000,4764000,0.10226421,0.10226518,0.2098781,1.0005304,1.0005305,1.9815286,0.0,0.0,0.0,0.0,0.0,0.0,0.0,13.23165,0.0,0.0,nan,0.0,0.0,0.0,0.0,0.096191004,0.0,0.0,0.0,1.0872213,1.0871946,1.006033,0.0,0.0,0.0,0.0,0.0,0.0
4852000,4772000,0.10226421,0.10226518,0.2098781,1.0005304,1.0005305,1.9815286,0.0,0.0,0.0,0.0,0.0,0.0,0.0,13.23165,0.0,0.0,nan,0.0,0.0,0.0,0.0,0.096191004,0.0,0.0,0.0,1.0880792,1.0880523,1.0060338,0.0,0.0,0.0,0.0,0.0,0.0
4860000,4780000,0.10226421,0.10226518,0.2098781,1.0005304,1.0005305,1.9815286,0.0,0.0,0.0,0.0,0.0,0.0,0.0,13.23165,0.0,0.0,nan,0.0,0.0,0.0,0.0,0.096191004,0.0,0.0,0.0,1.0849345,1.0849079,1.0060306,0.0,0.0,0.0,0.0,0.0,0.0
4868000,4788000,0.10226421,0.10226518,0.2098781,1.0005304,1.0005305,1.9815286,0.0,0.0,0.0,0.0,0.0,0.0,0.0,13.23165,0.0,0.0,nan,0.0,0.0,0.0,0.0,0.096191004,0.0,0.0,0.0,1.0857433,1.0857167,1.0060313,0.0,0.0,0.0,0.0,0.0,0.0
4876000,4796000,0.10226421,0.10226518,0.2098781,1.0005304,1.0005305,1.9815286,0.0,0.0,0.0,0.0,0.0,0.0,0.0,13.158957,0.0,0.0,nan,0.0,0.0,0.0,0.0,0.096191004,0.0,0.0,0.0,1.0865589,1.0865321,1.0060321,0.0,0.0,0.0,0.0,0.0,0.0
4884000,4804000,0.10226421,0.10226518,0.2098781,1.0005304,1.0005305,1.9815286,0.0,0.0,0.0,0.0,0.0,0.0,0.0,13.158957,0.0,0.0,nan,0.0,0.0,0.0,0.0,0.096191004,0.0,0.0,0.0,1.087381,1.0873541,1.0060328,0.0,0.0,0.0,0.0,0.0,0.0
4892000,4812000,0.10226421,0.10226518,0.2098781,1.0005304,1.0005305,1.9815286,0.0,0.0,0.0,0.0,0.0,0.0,0.0,13.158957,0.0,0.0,nan,0.0,0.0,0.0,0.0,0.096191004,0.0,0.0,0.0,1.0882097,1.0881828,1.0060337,0.0,0.0,0.0,0.0,0.0,0.0
4900000,4820000,0.10226421,0.10226518,0.2098781,1.0005304,1.0005305,1.9815286,0.0,0.0,0.0,0.0,0.0,0.0,0.0,13.158957,0.0,0.0,nan,0.0,0.0,0.0,0.0,0.096191004,0.0,0.0,0.0,1.089045,1.0890177,1.0060344,0.0,0.0,0.0,0.0,0.0,0.0
4908000,4828000,0.10226421,0.10226518,0.2098781,1.0005304,1.0005305,1.9815286,0.0,0.0,0.0,0.0,0.0,0.0,0.0,13.158957,0.0,0.0,nan,0.0,0.0,0.0,0.0,0.0962494,0.0,0.0,0.0,1.0898868,1.0898596,1.0060356,0.0,0.0,0.0,0.0,0.0,0.0
4916000,4836000,0.10226421,0.10226518,0.2098781,1.0005304,1.0005305,1.9815286,0.0,0.0,0.0,0.0,0.0,0.0,0.0,13.158957,0.0,0.0,nan,0.0,0.0,0.0,0.0,0.0962494,0.0,0.0,0.0,1.0907353,1.090708,1.0060364,0.0,0.0,0.0,0.0,0.0,0.0
4924000,4844000,0.10226421,0.10226518,0.2098781,1.0005304,1.0005305,1.9815286,0.0,0.0,0.0,0.0,0.0,0.0,0.0,13.158957,0.0,0.0,nan,0.0,0.0,0.0,0.0,0.0962494,0.0,0.0,0.0,1.0915902,1.0915629,1.0060372,0.0,0.0,0.0,0.0,0.0,0.0
4932000,4852000,0.10226421,0.10226518,0.2098781,1.0005304,1.0005305,1.9815286,0.0,0.0,0.0,0.0,0.0,0.0,0.0,13.158957,0.0,0.0,nan,0.0,0.0,0.0,0.0,0.0962494,0.0,0.0,0.0,1.0924518,1.0924244,1.0060382,0.0,0.0,0.0,0.0,0.0,0.0
4940000,4860000,0.10226421,0.10226518,0.2098781,1.0005304,1.0005305,1.9815286,0.0,0.0,0.0,0.0,0.0,0.0,0.0,13.09651,0.0,0.0,nan,0.0,0.0,0.0,0.0,0.0962494,0.0,0.0,0.0,1.0933201,1.0932924,1.006039,0.0,0.0,0.0,0.0,0.0,0.0
4948000,4868000,0.10226421,0.10226518,0.2098781,1.0005304,1.0005305,1.9815286,0.0,0.0,0.0,0.0,0.0,0.0,0.0,13.09651,0.0,0.0,nan,0.0,0.0,0.0,0.0,0.0962494,0.0,0.0,0.0,1.094195,1.0941671,1.00604,0.0,0.0,0.0,0.0,0.0,0.0
4956000,4876000,0.10226421,0.10226518,0.2098781,1.0005304,1.0005305,1.9815286,0.0,0.0,0.0,0.0,0.0,0.0,0.0,13.09651,0.0,0.0,nan,0.0,0.0,0.0,0.0,0.0962494,0.0,0.0,0.0,1.0950764,1.0950483,1.0060408,0.0,0.0,0.0,0.0,0.0,0.0
4964000,4884000,0.10226421,0.10226518,0.2098781,1.0005304,1.0005305,1.9815286,0.0,0.0,0.0,0.0,0.0,0.0,0.0,13.09651,0.0,0.0,nan,0.0,0.0,0.0,0.0,0.0962494,0.0,0.0,0.0,1.0959646,1.0959363,1.0060416,0.0,0.0,0.0,0.0,0.0,0.0
4972000,4892000,0.10226421,0.10226518,0.2098781,1.0005304,1.0005305,1.9815286,0.0,0.0,0.0,0.0,0.0,0.0,0.0,13.09651,0.0,0.0,nan,0.0,0.0,0.0,0.0,0.09625458,0.0,0.0,0.0,1.0968592,1.0968306,1.0060426,0.0,0.0,0.0,0.0,0.0,0.0
4980000,4900000,0.10226421,0.10226518,0.2098781,1.0005304,1.0005305,1.9815286,0.0,0.0,0.0,0.0,0.0,0.0,0.0,13.09651,0.0,0.0,nan,0.0,0.0,0.0,0.0,0.09625458,0.0,0.0,0.0,1.0977604,1.0977317,1.0060434,0.0,0.0,0.0,0.0,0.0,0.0
4988000,4908000,0.10226421,0.10226518,0.2098781,1.0005304,1.0005305,1.9815286,0.0,0.0,0.0,0.0,0.0,0.0,0.0,13.09651,0.0,0.0,nan,0.0,0.0,0.0,0.0,0.09625458,0.0,0.0,0.0,1.0986681,1.0986394,1.0060443,0.0,0.0,0.0,0.0,0.0,0.0
4996000,4916000,0.10226421,0.10226518,0.2098781,1.0005304,1.0005305,1.9815286,0.0,0.0,0.0,0.0,0.0,0.0,0.0,13.042137,0.0,0.0,nan,0.0,0.0,0.0,0.0,0.09625458,0.0,0.0,0.0,1.0995824,1.0995535,1.0060451,0.0,0.0,0.0,0.0,0.0,0.0
5004000,4924000,0.10226421,0.10226518,0.2098781,1.0005304,1.0005305,1.9815286,0.0,0.0,0.0,0.0,0.0,0.0,0.0,13.042137,0.0,0.0,nan,0.0,0.0,0.0,0.0,0.09625458,0.0,0.0,0.0,1.1005034,1.1004742,1.0060459,0.0,0.0,0.0,0.0,0.0,0.0
5012000,4932000,0.10226421,0.10226518,0.2098781,1.0005304,1.0005305,1.9815286,0.0,0.0,0.0,0.0,0.0,0.0,0.0,13.042137,0.0,0.0,nan,0.0,0.0,0.0,0.0,0.09625458,0.0,0.0,0.0,1.101431,1.1014017,1.0060468,0.0,0.0,0.0,0.0,0.0,0.0
5020000,4940000,0.10226421,0.10226518,0.2098781,1.0005304,1.0005305,1.9815286,0.0,0.0,0.0,0.0,0.0,0.0,0.0,13.042137,0.0,0.0,nan,0.0,0.0,0.0,0.0,0.09625458,0.0,0.0,0.0,1.1023653,1.1023357,1.0060475,0.0,0.0,0.0,0.0,0.0,0.0
5028000,4948000,0.10226421,0.10226518,0.2098781,1.0005304,1.0005305,1.9815286,0.0,0.0,0.0,0.0,0.0,0.0,0.0,13.042137,0.0,0.0,nan,0.0,0.0,0.0,0.0,0.09625458,0.0,0.0,0.0,1.1033062,1.1032763,1.0060482,0.0,0.0,0.0,0.0,0.0,0.0
5036000,4956000,0.10226421,0.10226518,0.2098781,1.0005304,1.0005305,1.9815286,0.0,0.0,0.0,0.0,0.0,0.0,0.0,13.042137,0.0,0.0,nan,0.0,0.0,0.0,0.0,0.09625458,0.0,0.0,0.0,1.0643772,1.0643498,1.0060099,0.0,0.0,0.0,0.0,0.0,0.0
5044000,4964000,0.10226421,0.10226518,0.2098781,1.0005304,1.0005305,1.9815286,0.0,0.0,0.0,0.0,0.0,0.0,0.0,13.042137,0.0,0.0,nan,0.0,0.0,0.0,0.0,0.0963145,0.0,0.0,0.0,1.0648,1.0647726,1.0060098,0.0,0.0,0.0,0.0,0.0,0.0
5052000,4972000,0.10226421,0.10226518,0.2098781,1.0005304,1.0005305,1.9815286,0.0,0.0,0.0,0.0,0.0,0.0,0.0,13.042137,0.0,0.0,nan,0.0,0.0,0.0,0.0,0.0963145,0.0,0.0,0.0,1.0652261,1.0651987,1.00601,0.0,0.0,0.0,0.0,0.0,0.0
5060000,4980000,0.10226421,0.10226518,0.2098781,1.0005304,1.0005305,1.9815286,0.0,0.0,0.0,0.0,0.0,0.0,0.0,12.994473,0.0,0.0,nan,0.0,0.0,0.0,0.0,0.0963145,0.0,0.0,0.0,1.0656552,1.0656276,1.0060107,0.0,0.0,0.0,0.0,0.0,0.0
5068000,4988000,0.10226421,0.10226518,0.2098781,1.0005304,1.0005305,1.9815286,0.0,0.0,0.0,0.0,0.0,0.0,0.0,12.994473,0.0,0.0,nan,0.0,0.0,0.0,0.0,0.0963145,0.0,0.0,0.0,1.0644398,1.0644126,1.0060093,0.0,0.0,0.0,0.0,0.0,0.0
5076000,4996000,0.10226421,0.10226518,0.2098781,1.0005304,1.0005305,1.9815286,0.0,0.0,0.0,0.0,0.0,0.0,0.0,12.994473,0.0,0.0,nan,0.0,0.0,0.0,0.0,0.0963145,0.0,0.0,0.0,1.0648526,1.0648255,1.0060096,0.0,0.0,0.0,0.0,0.0,0.0
5084000,5004000,0.10226421,0.10226518,0.2098781,1.0005304,1.0005305,1.9815286,0.0,0.0,0.0,0.0,0.0,0.0,0.0,12.994473,0.0,0.0,nan,0.0,0.0,0.0,0.0,0.0963145,0.0,0.0,0.0,1.0652684,1.0652412,1.0060098,0.0,0.0,0.0,0.0,0.0,0.0
5092000,5012000,0.10226421,0.10226518,0.2098781,1.0005304,1.0005305,1.9815286,0.0,0.0,0.0,0.0,0.0,0.0,0.0,12.994473,0.0,0.0,nan,0.0,0.0,0.0,0.0,0.0963145,0.0,0.0,0.0,1.0656872,1.06566,1.0060103,0.0,0.0,0.0,0.0,0.0,0.0
5100000,5020000,0.10226421,0.10226518,0.2098781,1.0005304,1.0005305,1.9815286,0.0,0.0,0.0,0.0,0.0,0.0,0.0,12.994473,0.0,0.0,nan,0.0,0.0,0.0,0.0,0.0963145,0.0,0.0,0.0,1.0661088,1.0660815,1.0060107,0.0,0.0,0.0,0.0,0.0,0.0
5108000,5028000,0.10226421,0.10226518,0.2098781,1.0005304,1.0005305,1.9815286,0.0,0.0,0.0,0.0,0.0,0.0,0.0,12.994473,0.0,0.0,nan,0.0,0.0,0.0,0.0,0.0963145,0.0,0.0,0.0,1.0665334,1.066506,1.0060109,0.0,0.0,0.0,0.0,0.0,0.0
5116000,5036000,0.10226421,0.10226518,0.2098781,1.0005304,1.0005305,1.9815286,0.0,0.0,0.0,0.0,0.0,0.0,0.0,12.95193,0.0,0.0,nan,0.0,0.0,0.0,0.0,0.096371256,0.0,0.0,0.0,1.066961,1.0669335,1.006011,0.0,0.0,0.0,0.0,0.0,0.0
5124000,5044000,0.10226421,0.10226518,0.2098781,1.0005304,1.0005305,1.9815286,0.0,0.0,0.0,0.0,0.0,0.0,0.0,12.95193,0.0,0.0,nan,0.0,0.0,0.0,0.0,0.096371256,0.0,0.0,0.0,1.0673916,1.067364,1.0060114,0.0,0.0,0.0,0.0,0.0,0.0
5132000,5052000,0.10226421,0.10226518,0.2098781,1.0005304,1.0005305,1.9815286,0.0,0.0,0.0,0.0,0.0,0.0,0.0,12.95193,0.0,0.0,nan,0.0,0.0,0.0,0.0,0.096371256,0.0,0.0,0.0,1.067825,1.0677972,1.0060117,0.0,0.0,0.0,0.0,0.0,0.0
5140000,5060000,0.10226421,0.10226518,0.2098781,1.0005304,1.0005305,1.9815286,0.0,0.0,0.0,0.0,0.0,0.0,0.0,12.95193,0.0,0.0,nan,0.0,0.0,0.0,0.0,0.096371256,0.0,0.0,0.0,1.0682613,1.0682335,1.0060121,0.0,0.0,0.0,0.0,0.0,0.0
5148000,5068000,0.10226421,0.10226518,0.2098781,1.0005304,1.0005305,1.9815286,0.0,0.0,0.0,0.0,0.0,0.0,0.0,12.95193,0.0,0.0,nan,0.0,0.0,0.0,0.0,0.096371256,0.0,0.0,0.0,1.0687006,1.0686728,1.0060123,0.0,0.0,0.0,0.0,0.0,0.0
5156000,5076000,0.10226421,0.10226518,0.2098781,1.0005304,1.0005305,1.9815286,0.0,0.0,0.0,0.0,0.0,0.0,0.0,12.95193,0.0,0.0,nan,0.0,0.0,0.0,0.0,0.096371256,0.0,0.0,0.0,1.0691427,1.0691149,1.0060127,0.0,0.0,0.0,0.0,0.0,0.0
5164000,5084000,0.10226421,0.10226518,0.2098781,1.0005304,1.0005305,1.9815286,0.0,0.0,0.0,0.0,0.0,0.0,0.0,12.95193,0.0,0.0,nan,0.0,0.0,0.0,0.0,0.096371256,0.0,0.0,0.0,1.0695878,1.06956,1.0060132,0.0,0.0,0.0,0.0,0.0,0.0
5172000,5092000,0.10226421,0.10226518,0.2098781,1.0005304,1.0005305,1.9815286,0.0,0.0,0.0,0.0,0.0,0.0,0.0,12.95193,0.0,0.0,nan,0.0,0.0,0.0,0.0,0.096371256,0.0,0.0,0.0,1.0700358,1.0700078,1.0060136,0.0,0.0,0.0,0.0,0.0,0.0
5180000,5100000,0.10226421,0.10226518,0.2098781,1.0005304,1.0005305,1.9815286,0.0,0.0,0.0,0.0,0.0,0.0,0.0,12.914359,0.0,0.0,nan,0.0,0.0,0.0,0.0,0.096371256,0.0,0.0,0.0,1.0704868,1.0704587,1.006014,0.0,0.0,0.0,0.0,0.0,0.0
5188000,5108000,0.10226421,0.10226518,0.2098781,1.0005304,1.0005305,1.9815286,0.0,0.0,0.0,0.0,0.0,0.0,0.0,12.914359,0.0,0.0,nan,0.0,0.0,0.0,0.0,0.0964234,0.0,0.0,0.0,1.0709407,1.0709125,1.0060143,0.0,0.0,0.0,0.0,0.0,0.0
5196000,5116000,0.09516657,0.095167674,0.2113123,1.0003078,1.0003078,1.6303074,0.0,0.0,0.0,0.0,0.0,0.0,0.0,12.914359,0.0,0.0,nan,0.0,0.0,0.0,0.0,0.0964234,0.0,0.0,0.0,1.0713975,1.0713693,1.0060147,0.0,0.0,0.0,0.0,0.0,0.0
5204000,5124000,0.09516657,0.095167674,0.2113123,1.0003078,1.0003078,1.6303074,0.0,0.0,0.0,0.0,0.0,0.0,0.0,12.914359,0.0,0.0,nan,0.0,0.0,0.0,0.0,0.0964234,0.0,0.0,0.0,1.0718573,1.071829,1.006015,0.0,0.0,0.0,0.0,0.0,0.0
5212000,5132000,0.09516657,0.095167674,0.2113123,1.0003078,1.0003078,1.6303074,0.0,0.0,0.0,0.0,0.0,0.0,0.0,12.914359,0.0,0.0,nan,0.0,0.0,0.0,0.0,0.0964234,0.0,0.0,0.0,1.0723199,1.0722915,1.0060154,0.0,0.0,0.0,0.0,0.0,0.0
5220000,5140000,0.09516657,0.095167674,0.2113123,1.0003078,1.0003078,1.6303074,0.0,0.0,0.0,0.0,0.0,0.0,0.0,12.914359,0.0,0.0,nan,0.0,0.0,0.0,0.0,0.0964234,0.0,0.0,0.0,1.0727856,1.072757,1.0060159,0.0,0.0,0.0,0.0,0.0,0.0
5228000,5148000,0.09516657,0.095167674,0.2113123,1.0003078,1.0003078,1.6303074,0.0,0.0,0.0,0.0,0.0,0.0,0.0,12.914359,0.0,0.0,nan,0.0,0.0,0.0,0.0,0.0964234,0.0,0.0,0.0,1.0732542,1.0732254,1.0060161,0.0,0.0,0.0,0.0,0.0,0.0
5236000,5156000,0.09516657,0.095167674,0.2113123,1.0003078,1.0003078,1.6303074,0.0,0.0,0.0,0.0,0.0,0.0,0.0,12.880646,0.0,0.0,nan,0.0,0.0,0.0,0.0,0.0964234,0.0,0.0,0.0,1.0737257,1.0736967,1.0060166,0.0,0.0,0.0,0.0,0.0,0.0
5244000,5164000,0.09516657,0.095167674,0.2113123,1.0003078,1.0003078,1.6303074,0.0,0.0,0.0,0.0,0.0,0.0,0.0,12.880646,0.0,0.0,nan,0.0,0.0,0.0,0.0,0.0964234,0.0,0.0,0.0,1.0539539,1.0539283,1.0059979,0.0,0.0,0.0,0.0,0.0,0.0
5252000,5172000,0.09516657,0.095167674,0.2113123,1.0003078,1.0003078,1.6303074,0.0,0.0,0.0,0.0,0.0,0.0,0.0,12.880646,0.0,0.0,nan,0.0,0.0,0.0,0.0,0.0964234,0.0,0.0,0.0,1.0541946,1.0541689,1.005998,0.0,0.0,0.0,0.0,0.0,0.0
5260000,5180000,0.09516657,0.095167674,0.2113123,1.0003078,1.0003078,1.6303074,0.0,0.0,0.0,0.0,0.0,0.0,0.0,12.880646,0.0,0.0,nan,0.0,0.0,0.0,0.0,0.096469775,0.0,0.0,0.0,1.0544366,1.0544113,1.0059984,0.0,0.0,0.0,0.0,0.0,0.0
5268000,5188000,0.09516657,0.095167674,0.2113123,1.0003078,1.0003078,1.6303074,0.0,0.0,0.0,0.0,0.0,0.0,0.0,12.880646,0.0,0.0,nan,0.0,0.0,0.0,0.0,0.096469775,0.0,0.0,0.0,1.0546805,1.054655,1.0059986,0.0,0.0,0.0,0.0,0.0,0.0
5276000,5196000,0.09516657,0.095167674,0.2113123,1.0003078,1.0003078,1.6303074,0.0,0.0,0.0,0.0,0.0,0.0,0.0,12.880646,0.0,0.0,nan,0.0,0.0,0.0,0.0,0.096469775,0.0,0.0,0.0,1.0541447,1.0541192,1.0059981,0.0,0.0,0.0,0.0,0.0,0.0
5284000,5204000,0.09516657,0.095167674,0.2113123,1.0003078,1.0003078,1.6303074,0.0,0.0,0.0,0.0,0.0,0.0,0.0,12.880646,0.0,0.0,nan,0.0,0.0,0.0,0.0,0.096469775,0.0,0.0,0.0,1.0543823,1.0543568,1.0059984,0.0,0.0,0.0,0.0,0.0,0.0
5292000,5212000,0.09516657,0.095167674,0.2113123,1.0003078,1.0003078,1.6303074,0.0,0.0,0.0,0.0,0.0,0.0,0.0,12.880646,0.0,0.0,nan,0.0,0.0,0.0,0.0,0.096469775,0.0,0.0,0.0,1.0546215,1.054596,1.0059985,0.0,0.0,0.0,0.0,0.0,0.0
5300000,5220000,0.09516657,0.095167674,0.2113123,1.0003078,1.0003078,1.6303074,0.0,0.0,0.0,0.0,0.0,0.0,0.0,12.849889,0.0,0.0,nan,0.0,0.0,0.0,0.0,0.096469775,0.0,0.0,0.0,1.0548621,1.0548364,1.0059986,0.0,0.0,0.0,0.0,0.0,0.0
5308000,5228000,0.09516657,0.095167674,0.2113123,1.0003078,1.0003078,1.6303074,0.0,0.0,0.0,0.0,0.0,0.0,0.0,12.849889,0.0,0.0,nan,0.0,0.0,0.0,0.0,0.096469775,0.0,0.0,0.0,1.0551041,1.0550785,1.0059988,0.0,0.0,0.0,0.0,0.0,0.0
5316000,5236000,0.09516657,0.095167674,0.2113123,1.0003078,1.0003078,1.6303074,0.0,0.0,0.0,0.0,0.0,0.0,0.0,12.849889,0.0,0.0,nan,0.0,0.0,0.0,0.0,0.096469775,0.0,0.0,0.0,1.0553479,1.0553222,1.0059988,0.0,0.0,0.0,0.0,0.0,0.0
5324000,5244000,0.09516657,0.095167674,0.2113123,1.0003078,1.0003078,1.6303074,0.0,0.0,0.0,0.0,0.0,0.0,0.0,12.849889,0.0,0.0,nan,0.0,0.0,0.0,0.0,0.09645548,0.0,0.0,0.0,1.0555928,1.0555673,1.0059992,0.0,0.0,0.0,0.0,0.0,0.0
5332000,5252000,0.09516657,0.095167674,0.2113123,1.0003078,1.0003078,1.6303074,0.0,0.0,0.0,0.0,0.0,0.0,0.0,12.849889,0.0,0.0,nan,0.0,0.0,0.0,0.0,0.09645548,0.0,0.0,0.0,1.0558394,1.0558138,1.0059994,0.0,0.0,0.0,0.0,0.0,0.0
5340000,5260000,0.09516657,0.095167674,0.2113123,1.0003078,1.0003078,1.6303074,0.0,0.0,0.0,0.0,0.0,0.0,0.0,12.849889,0.0,0.0,nan,0.0,0.0,0.0,0.0,0.09645548,0.0,0.0,0.0,1.0560876,1.0560619,1.0059997,0.0,0.0,0.0,0.0,0.0,0.0
5348000,5268000,0.09516657,0.095167674,0.2113123,1.0003078,1.0003078,1.6303074,0.0,0.0,0.0,0.0,0.0,0.0,0.0,12.849889,0.0,0.0,nan,0.0,0.0,0.0,0.0,0.09645548,0.0,0.0,0.0,1.0563371,1.0563114,1.0059998,0.0,0.0,0.0,0.0,0.0,0.0
5356000,5276000,0.09516657,0.095167674,0.2113123,1.0003078,1.0003078,1.6303074,0.0,0.0,0.0,0.0,0.0,0.0,0.0,12.822351,0.0,0.0,nan,0.0,0.0,0.0,0.0,0.09645548,0.0,0.0,0.0,1.0565884,1.0565624,1.006,0.0,0.0,0.0,0.0,0.0,0.0
5364000,5284000,0.09516657,0.095167674,0.2113123,1.0003078,1.0003078,1.6303074,0.0,0.0,0.0,0.0,0.0,0.0,0.0,12.822351,0.0,0.0,nan,0.0,0.0,0.0,0.0,0.09645548,0.0,0.0,0.0,1.0568409,1.0568149,1.0060003,0.0,0.0,0.0,0.0,0.0,0.0
5372000,5292000,0.09516657,0.095167674,0.2113123,1.0003078,1.0003078,1.6303074,0.0,0.0,0.0,0.0,0.0,0.0,0.0,12.822351,0.0,0.0,nan,0.0,0.0,0.0,0.0,0.09645548,0.0,0.0,0.0,1.0570949,1.0570691,1.0060005,0.0,0.0,0.0,0.0,0.0,0.0
5380000,5300000,0.09516657,0.095167674,0.2113123,1.0003078,1.0003078,1.6303074,0.0,0.0,0.0,0.0,0.0,0.0,0.0,12.822351,0.0,0.0,nan,0.0,0.0,0.0,0.0,0.09645548,0.0,0.0,0.0,1.0573505,1.0573245,1.0060008,0.0,0.0,0.0,0.0,0.0,0.0
5388000,5308000,0.09516657,0.095167674,0.2113123,1.0003078,1.0003078,1.6303074,0.0,0.0,0.0,0.0,0.0,0.0,0.0,12.822351,0.0,0.0,nan,0.0,0.0,0.0,0.0,0.09645548,0.0,0.0,0.0,1.0576077,1.0575815,1.0060008,0.0,0.0,0.0,0.0,0.0,0.0
5396000,5316000,0.09516657,0.095167674,0.2113123,1.0003078,1.0003078,1.6303074,0.0,0.0,0.0,0.0,0.0,0.0,0.0,12.822351,0.0,0.0,nan,0.0,0.0,0.0,0.0,0.096492335,0.0,0.0,0.0,1.057866,1.0578399,1.006001,0.0,0.0,0.0,0.0,0.0,0.0
5404000,5324000,0.09516657,0.095167674,0.2113123,1.0003078,1.0003078,1.6303074,0.0,0.0,0.0,0.0,0.0,0.0,0.0,12.822351,0.0,0.0,nan,0.0,0.0,0.0,0.0,0.096492335,0.0,0.0,0.0,1.0581262,1.0580999,1.0060012,0.0,0.0,0.0,0.0,0.0,0.0
5412000,5332000,0.09516657,0.095167674,0.2113123,1.0003078,1.0003078,1.6303074,0.0,0.0,0.0,0.0,0.0,0.0,0.0,12.822351,0.0,0.0,nan,0.0,0.0,0.0,0.0,0.096492335,0.0,0.0,0.0,1.0583879,1.0583614,1.0060015,0.0,0.0,0.0,0.0,0.0,0.0
5420000,5340000,0.09516657,0.095167674,0.2113123,1.0003078,1.0003078,1.6303074,0.0,0.0,0.0,0.0,0.0,0.0,0.0,12.797398,0.0,0.0,nan,0.0,0.0,0.0,0.0,0.096492335,0.0,0.0,0.0,1.058651,1.0586244,1.0060016,0.0,0.0,0.0,0.0,0.0,0.0
5428000,5348000,0.09516657,0.095167674,0.2113123,1.0003078,1.0003078,1.6303074,0.0,0.0,0.0,0.0,0.0,0.0,0.0,12.797398,0.0,0.0,nan,0.0,0.0,0.0,0.0,0.096492335,0.0,0.0,0.0,1.0589155,1.0588889,1.0060018,0.0,0.0,0.0,0.0,0.0,0.0
5436000,5356000,0.09516657,0.095167674,0.2113123,1.0003078,1.0003078,1.6303074,0.0,0.0,0.0,0.0,0.0,0.0,0.0,12.797398,0.0,0.0,nan,0.0,0.0,0.0,0.0,0.096492335,0.0,0.0,0.0,1.0591816,1.059155,1.0060022,0.0,0.0,0.0,0.0,0.0,0.0
5444000,5364000,0.09516657,0.095167674,0.2113123,1.0003078,1.0003078,1.6303074,0.0,0.0,0.0,0.0,0.0,0.0,0.0,12.797398,0.0,0.0,nan,0.0,0.0,0.0,0.0,0.096492335,0.0,0.0,0.0,1.0594492,1.0594225,1.0060023,0.0,0.0,0.0,0.0,0.0,0.0
5452000,5372000,0.09516657,0.095167674,0.2113123,1.0003078,1.0003078,1.6303074,0.0,0.0,0.0,0.0,0.0,0.0,0.0,12.797398,0.0,0.0,nan,0.0,0.0,0.0,0.0,0.096492335,0.0,0.0,0.0,1.0483334,1.0483091,1.005992,0.0,0.0,0.0,0.0,0.0,0.0
5460000,5380000,0.09516657,0.095167674,0.2113123,1.0003078,1.0003078,1.6303074,0.0,0.0,0.0,0.0,0.0,0.0,0.0,12.797398,0.0,0.0,nan,0.0,0.0,0.0,0.0,0.096492335,0.0,0.0,0.0,1.0484853,1.0484611,1.005992,0.0,0.0,0.0,0.0,0.0,0.0
5468000,5388000,0.09516657,0.095167674,0.2113123,1.0003078,1.0003078,1.6303074,0.0,0.0,0.0,0.0,0.0,0.0,0.0,12.797398,0.0,0.0,nan,0.0,0.0,0.0,0.0,0.09652179,0.0,0.0,0.0,1.0486379,1.0486137,1.0059924,0.0,0.0,0.0,0.0,0.0,0.0
5476000,5396000,0.09516657,0.095167674,0.2113123,1.0003078,1.0003078,1.6303074,0.0,0.0,0.0,0.0,0.0,0.0,0.0,12.774559,0.0,0.0,nan,0.0,0.0,0.0,0.0,0.09652179,0.0,0.0,0.0,1.0487915,1.0487673,1.0059925,0.0,0.0,0.0,0.0,0.0,0.0
5484000,5404000,0.09516657,0.095167674,0.2113123,1.0003078,1.0003078,1.6303074,0.0,0.0,0.0,0.0,0.0,0.0,0.0,12.774559,0.0,0.0,nan,0.0,0.0,0.0,0.0,0.09652179,0.0,0.0,0.0,1.0485252,1.048501,1.0059923,0.0,0.0,0.0,0.0,0.0,0.0
5492000,5412000,0.09516657,0.095167674,0.2113123,1.0003078,1.0003078,1.6303074,0.0,0.0,0.0,0.0,0.0,0.0,0.0,12.774559,0.0,0.0,nan,0.0,0.0,0.0,0.0,0.09652179,0.0,0.0,0.0,1.0486763,1.0486519,1.0059925,0.0,0.0,0.0,0.0,0.0,0.0
5500000,5420000,0.09516657,0.095167674,0.2113123,1.0003078,1.0003078,1.6303074,0.0,0.0,0.0,0.0,0.0,0.0,0.0,12.774559,0.0,0.0,nan,0.0,0.0,0.0,0.0,0.09652179,0.0,0.0,0.0,1.0488279,1.0488037,1.0059925,0.0,0.0,0.0,0.0,0.0,0.0
5508000,5428000,0.09516657,0.095167674,0.2113123,1.0003078,1.0003078,1.6303074,0.0,0.0,0.0,0.0,0.0,0.0,0.0,12.774559,0.0,0.0,nan,0.0,0.0,0.0,0.0,0.09652179,0.0,0.0,0.0,1.0489806,1.0489564,1.0059927,0.0,0.0,0.0,0.0,0.0,0.0
5516000,5436000,0.09516657,0.095167674,0.2113123,1.0003078,1.0003078,1.6303074,0.0,0.0,0.0,0.0,0.0,0.0,0.0,12.774559,0.0,0.0,nan,0.0,0.0,0.0,0.0,0.09652179,0.0,0.0,0.0,1.0491341,1.0491099,1.0059929,0.0,0.0,0.0,0.0,0.0,0.0
5524000,5444000,0.09516657,0.095167674,0.2113123,1.0003078,1.0003078,1.6303074,0.0,0.0,0.0,0.0,0.0,0.0,0.0,12.774559,0.0,0.0,nan,0.0,0.0,0.0,0.0,0.09652179,0.0,0.0,0.0,1.0492884,1.0492642,1.005993,0.0,0.0,0.0,0.0,0.0,0.0
5532000,5452000,0.09516657,0.095167674,0.2113123,1.0003078,1.0003078,1.6303074,0.0,0.0,0.0,0.0,0.0,0.0,0.0,12.774559,0.0,0.0,nan,0.0,0.0,0.0,0.0,0.09652179,0.0,0.0,0.0,1.0494437,1.0494194,1.0059931,0.0,0.0,0.0,0.0,0.0,0.0
5540000,5460000,0.09516657,0.095167674,0.2113123,1.0003078,1.0003078,1.6303074,0.0,0.0,0.0,0.0,0.0,0.0,0.0,12.753065,0.0,0.0,nan,0.0,0.0,0.0,0.0,0.09654365,0.0,0.0,0.0,1.0495998,1.0495754,1.0059935,0.0,0.0,0.0,0.0,0.0,0.0
5548000,5468000,0.09516657,0.095167674,0.2113123,1.0003078,1.0003078,1.6303074,0.0,0.0,0.0,0.0,0.0,0.0,0.0,12.753065,0.0,0.0,nan,0.0,0.0,0.0,0.0,0.09654365,0.0,0.0,0.0,1.0497568,1.0497324,1.0059937,0.0,0.0,0.0,0.0,0.0,0.0
5556000,5476000,0.09516657,0.095167674,0.2113123,1.0003078,1.0003078,1.6303074,0.0,0.0,0.0,0.0,0.0,0.0,0.0,12.753065,0.0,0.0,nan,0.0,0.0,0.0,0.0,0.09654365,0.0,0.0,0.0,1.0499145,1.0498902,1.0059937,0.0,0.0,0.0,0.0,0.0,0.0
5564000,5484000,0.09516657,0.095167674,0.2113123,1.0003078,1.0003078,1.6303074,0.0,0.0,0.0,0.0,0.0,0.0,0.0,12.753065,0.0,0.0,nan,0.0,0.0,0.0,0.0,0.09654365,0.0,0.0,0.0,1.0500731,1.050049,1.0059938,0.0,0.0,0.0,0.0,0.0,0.0
5572000,5492000,0.09516657,0.095167674,0.2113123,1.0003078,1.0003078,1.6303074,0.0,0.0,0.0,0.0,0.0,0.0,0.0,12.753065,0.0,0.0,nan,0.0,0.0,0.0,0.0,0.09654365,0.0,0.0,0.0,1.0502326,1.0502084,1.0059938,0.0,0.0,0.0,0.0,0.0,0.0
5580000,5500000,0.09516657,0.095167674,0.2113123,1.0003078,1.0003078,1.6303074,0.0,0.0,0.0,0.0,0.0,0.0,0.0,12.753065,0.0,0.0,nan,0.0,0.0,0.0,0.0,0.09654365,0.0,0.0,0.0,1.0503931,1.0503688,1.0059941,0.0,0.0,0.0,0.0,0.0,0.0
5588000,5508000,0.09516657,0.095167674,0.2113123,1.0003078,1.0003078,1.6303074,0.0,0.0,0.0,0.0,0.0,0.0,0.0,12.753065,0.0,0.0,nan,0.0,0.0,0.0,0.0,0.09654365,0.0,0.0,0.0,1.0505543,1.0505301,1.0059942,0.0,0.0,0.0,0.0,0.0,0.0
