timestamp,position[0],position[1],position[2],velocity[0],velocity[1],velocity[2],acceleration[0],acceleration[1],acceleration[2],jerk[0],jerk[1],jerk[2],yaw,yawspeed
3372000,nan,nan,nan,0.0,0.0,0.0,0.0,0.0,0.3,nan,nan,nan,0.00022547597,0.0
3396000,nan,nan,nan,0.0,0.0,0.0,0.0,0.0,0.3,nan,nan,nan,0.00026455865,0.0
3572000,nan,nan,nan,0.0,0.0,0.0,0.0,0.0,0.3,nan,nan,nan,1.617689,0.0
3772000,nan,nan,nan,0.0,0.0,0.0,0.0,0.0,0.3,nan,nan,nan,1.6246748,0.0
3972000,nan,nan,nan,0.0,0.0,0.0,0.0,0.0,0.3,nan,nan,nan,1.6268547,0.0
4172000,nan,nan,-0.0094139,0.0,0.0,0.0,0.0,0.0,nan,nan,nan,nan,1.626683,0.0
4372000,nan,nan,-0.041962475,0.0,0.0,0.0,0.0,0.0,nan,nan,nan,nan,1.6247783,0.0
4572000,nan,nan,-0.046290927,0.0,0.0,0.0,0.0,0.0,nan,nan,nan,nan,1.62471,0.0
4772000,nan,nan,-0.049279418,0.0,0.0,0.0,0.0,0.0,nan,nan,nan,nan,1.6247184,0.0
4972000,nan,nan,-0.04423457,0.0,0.0,0.0,0.0,0.0,nan,nan,nan,nan,1.6244959,0.0
5172000,nan,nan,-0.041043535,0.0,0.0,0.0,0.0,0.0,nan,nan,nan,nan,1.6239765,0.0
5372000,nan,nan,-0.038150925,0.0,0.0,0.0,0.0,0.0,nan,nan,nan,nan,1.6242765,0.0
5572000,nan,nan,-0.034459785,0.0,0.0,0.0,0.0,0.0,nan,nan,nan,nan,1.623218,0.0
5772000,nan,nan,-0.034100242,0.0,0.0,0.0,0.0,0.0,nan,nan,nan,nan,1.621653,0.0
5972000,nan,nan,-0.031616975,0.0,0.0,0.0,0.0,0.0,nan,nan,nan,nan,1.62204,0.0
6172000,nan,nan,-0.031648897,0.0,0.0,0.0,0.0,0.0,nan,nan,nan,nan,1.6221784,0.0
6372000,nan,nan,-0.03143043,0.0,0.0,0.0,0.0,0.0,nan,nan,nan,nan,1.6218511,0.0
6572000,nan,nan,-0.030255493,0.0,0.0,0.0,0.0,0.0,nan,nan,nan,nan,1.6223903,0.0
6772000,nan,nan,-0.02960401,0.0,0.0,0.0,0.0,0.0,nan,nan,nan,nan,1.621935,0.0
6972000,nan,nan,-0.029253023,0.0,0.0,0.0,0.0,0.0,nan,nan,nan,nan,1.622464,0.0
7172000,nan,nan,-0.028094912,0.0,0.0,0.0,0.0,0.0,nan,nan,nan,nan,1.6216954,0.0
7372000,nan,nan,-0.026048785,0.0,0.0,0.0,0.0,0.0,nan,nan,nan,nan,1.6198684,0.0
7572000,nan,nan,-0.024036972,0.0,0.0,0.0,0.0,0.0,nan,nan,nan,nan,1.6186975,0.0
7772000,nan,nan,-0.022610204,0.0,0.0,0.0,0.0,0.0,nan,nan,nan,nan,1.6194208,0.0
7972000,nan,nan,-0.022393461,0.0,0.0,0.0,0.0,0.0,nan,nan,nan,nan,1.6198097,0.0
8172000,nan,nan,-0.02262399,0.0,0.0,0.0,0.0,0.0,nan,nan,nan,nan,1.6211892,0.0
8372000,nan,nan,-0.023396488,0.0,0.0,0.0,0.0,0.0,nan,nan,nan,nan,1.6200628,0.0
8572000,nan,nan,-0.024839547,0.0,0.0,0.0,0.0,0.0,nan,nan,nan,nan,1.6205244,0.0
8772000,nan,nan,-0.026376868,0.0,0.0,0.0,0.0,0.0,nan,nan,nan,nan,1.6217095,0.0
8972000,0.00028926283,0.007464492,-0.058882803,3.4706798e-05,7.64619e-05,0.699488,0.0022072792,0.0049721003,-0.06399881,0.0,0.0,-4.0,1.6220832,0.0011839061
9172000,7.000121e-05,0.008052137,-0.056894045,4.3022716e-05,9.792829e-05,0.69948804,0.0027480125,0.0064452887,-0.06399776,0.0,0.0,-4.0,1.6213592,-0.0024825297
9372000,-2.715142e-05,0.008434551,-0.06045692,5.4402408e-05,0.00012337633,0.699488,0.0034956932,0.008241892,-0.063998625,0.0,0.0,-4.0,1.6211971,-0.0015032147
9572000,-0.00045724362,0.008915722,-0.06380916,6.763485e-05,0.00015518247,0.69948804,0.0043770075,0.010572553,-0.06399772,0.0,0.0,-4.0,1.6215771,0.0010279546
9772000,-0.0006348871,0.006443534,-0.06349432,8.482043e-05,0.00018650334,0.6994881,0.0055418015,0.012972593,-0.06399318,0.0,0.0,-4.0,1.6225164,0.0042919186
9972000,-0.0013338634,0.0042660935,-0.06202247,0.00010462692,0.00022640903,0.69948804,0.006913066,0.016202807,-0.06399518,0.0,0.0,-4.0,1.6239626,0.006736836
10172000,-0.0026619514,0.0037330277,-0.059509534,0.00012778956,0.00027677134,0.69948804,0.008559823,0.020621896,-0.0639959,0.0,0.0,-4.0,1.623869,0.0022148404
10372000,-0.004418448,0.0034226885,-0.056933727,0.00015550909,0.00033402393,0.69948804,0.010597467,0.026269794,-0.06399543,0.0,0.0,-4.0,1.6238699,0.0009166547
10572000,-0.005820871,0.0057525705,-0.05542574,0.00019031682,0.00039960165,0.6994881,0.013272524,0.034021616,-0.063992895,0.0,0.0,-4.0,1.6234124,-0.0017645633
10772000,-0.007501548,0.0076592104,-0.05464982,0.0002313859,0.00046078477,0.6994881,0.016621709,0.0437721,-0.06399367,0.0,0.0,-4.0,1.622849,-0.0031417855
10972000,-0.0074899117,0.008785118,-0.055333953,0.00028355228,0.00050424674,0.69948804,0.021251202,0.056144834,-0.06399713,0.0,0.0,-4.0,1.6229165,-0.00023168063
11172000,-0.007839105,0.009876826,-0.05510657,0.00034108857,0.00051195343,0.69948804,0.027025223,0.06399709,-0.06399709,0.0,4.0,-4.0,1.6237127,0.002875209
11372000,-0.0059261443,0.0075249723,-0.05397338,0.00040605027,0.0005118805,0.6994881,0.03489542,0.06399253,-0.06399253,0.0,4.0,-4.0,1.6238427,0.0011384793
11572000,-0.0046483,0.0054807384,-0.05135791,0.00046580037,0.00051192445,0.69948804,0.044786096,0.06399528,-0.06399528,0.0,4.0,-4.0,1.6236068,-6.010026e-05
11772000,-0.0021343553,0.004664571,-0.047999706,0.0005070236,0.0005118986,0.6994881,0.057748675,0.06399366,-0.06399366,0.0,4.0,-4.0,1.6229875,-0.0026298098
11972000,-0.00028838596,0.003989152,-0.04368842,0.0005119389,0.0005119389,0.69948804,0.06399618,0.06399618,-0.06399618,4.0,4.0,-4.0,1.6229016,-0.0011041738
12172000,0.0024101553,0.005151614,-0.04283836,0.000511887,0.000511887,0.6994881,0.06399294,0.06399294,-0.06399294,4.0,4.0,-4.0,1.6225822,-0.0019783932
12372000,0.0046503474,0.006040805,-0.040646542,0.0005119116,0.0005119116,0.6994881,0.063994475,0.063994475,-0.063994475,4.0,4.0,-4.0,1.6230211,0.0012659184
12572000,0.0069820457,0.006630907,-0.040898222,0.00051190745,0.00051190745,0.6994881,0.063994214,0.063994214,-0.063994214,4.0,4.0,-4.0,1.6234429,0.0019061848
12772000,0.008726354,0.0070510563,-0.039774906,0.0005119481,0.0005119481,0.69948804,0.063996755,0.063996755,-0.063996755,4.0,4.0,-4.0,1.6238909,0.0022620016
12972000,0.011325849,0.0059307297,-0.038027793,0.00051188836,0.00051188836,0.6994881,0.06399302,0.06399302,-0.06399302,4.0,4.0,-4.0,1.6228027,-0.003513083
13172000,0.013428096,0.0048140343,-0.03455874,0.0005119167,0.0005119167,0.69948804,0.063994795,0.063994795,-0.063994795,4.0,4.0,-4.0,1.62212,-0.003857431
13372000,0.015036981,0.0045135967,-0.033340793,0.000511939,0.000511939,0.69948804,0.06399619,0.06399619,-0.06399619,4.0,4.0,-4.0,1.6225579,6.623385e-05
13572000,0.01625638,0.0045099882,-0.02946775,0.00051195535,0.00051195535,0.69948804,0.06399721,0.06399721,-0.06399721,4.0,4.0,-4.0,1.6219958,-0.0021637117
13772000,0.01057848,0.004983259,-0.030376446,0.00051176175,0.00051176175,0.6994882,0.06398511,0.06398511,-0.06398511,4.0,4.0,-4.0,1.6218548,-0.0009642332
13972000,0.005760439,0.0057048304,-0.029928522,0.0005118367,0.0005118367,0.69948816,0.063989796,0.063989796,-0.063989796,4.0,4.0,-4.0,1.6227156,0.0031611556
14172000,0.006674821,0.0063100685,-0.028922418,0.000511929,0.000511929,0.69948804,0.06399556,0.06399556,-0.06399556,4.0,4.0,-4.0,1.6224825,2.193866e-05
14372000,0.00809423,0.0069686063,-0.025527816,0.0005119408,0.0005119408,0.69948804,0.0639963,0.0639963,-0.0639963,4.0,4.0,-4.0,1.621265,-0.0047714617
14572000,0.008302996,0.006867032,-0.024680533,0.0005119938,0.0005119938,0.699488,0.063999616,0.063999616,-0.063999616,4.0,4.0,-4.0,1.6200824,-0.006592835
14772000,0.008369573,0.007162205,-0.020805882,0.0005119712,0.0005119712,0.69948804,0.0639982,0.0639982,-0.0639982,4.0,4.0,-4.0,1.6199934,-0.0025393951
14972000,0.007881892,0.010859637,-0.020880934,0.00051184284,0.00051184284,0.69948816,0.063990176,0.063990176,-0.063990176,4.0,4.0,-4.0,1.620269,0.00013181429
15172000,0.007379837,0.014451118,-0.01927472,0.0005118612,0.0005118612,0.6994881,0.06399132,0.06399132,-0.06399132,4.0,4.0,-4.0,1.6198866,-0.0017036118
15372000,0.010263545,0.015129599,-0.02149172,0.0005118737,0.0005118737,0.6994881,0.063992105,0.063992105,-0.063992105,4.0,4.0,-4.0,1.6197704,-0.0008949999
15572000,0.012882578,0.01617961,-0.020706516,0.0005118947,0.0005118947,0.6994881,0.06399342,0.06399342,-0.06399342,4.0,4.0,-4.0,1.6194881,-0.001361274
15772000,0.011308455,0.01395818,-0.022864522,0.0005118993,0.0005118993,0.6994881,0.06399371,0.06399371,-0.06399371,4.0,4.0,-4.0,1.6186844,-0.0035387047
15972000,0.010107764,0.012549335,-0.021509105,0.00051195966,0.00051195966,0.69948804,0.06399748,0.06399748,-0.06399748,4.0,4.0,-4.0,1.6189226,-0.0005486303
16172000,0.009096185,0.011279163,-0.021096446,0.0005119582,0.0005119582,0.69948804,0.06399739,0.06399739,-0.06399739,4.0,4.0,-4.0,1.6188939,-0.00023367282
16372000,0.008667474,0.0111539,-0.018636452,0.0005119787,0.0005119787,0.699488,0.06399867,0.06399867,-0.06399867,4.0,4.0,-4.0,1.6187899,-0.00054671435
16572000,0.0080234315,0.011879616,-0.019194137,0.0005119557,0.0005119557,0.69948804,0.06399723,0.06399723,-0.06399723,4.0,4.0,-4.0,1.6182429,-0.0023894836
16772000,0.008182814,0.0131725855,-0.01679761,0.00051193533,0.00051193533,0.69948804,0.06399596,0.06399596,-0.06399596,4.0,4.0,-4.0,1.6181827,-0.00092898734
16972000,0.007598475,0.010938743,-0.017629612,0.0005119166,0.0005119166,0.69948804,0.06399479,0.06399479,-0.06399479,4.0,4.0,-4.0,1.618119,-0.00090391486
17172000,0.0077851596,0.0096760355,-0.015506094,0.00051196606,0.00051196606,0.69948804,0.06399788,0.06399788,-0.06399788,4.0,4.0,-4.0,1.6178882,-0.001137335
17372000,0.0072483765,0.008516877,-0.014811225,0.00051197084,0.00051197084,0.69948804,0.06399818,0.06399818,-0.06399818,4.0,4.0,-4.0,1.6177722,-0.00078052434
17572000,0.007679353,0.008130761,-0.011620576,0.0005119705,0.0005119705,0.69948804,0.063998155,0.063998155,-0.063998155,4.0,4.0,-4.0,1.6177746,-0.0005775741
17772000,0.006772318,0.0075741834,-0.011374221,0.0005119725,0.0005119725,0.69948804,0.06399828,0.06399828,-0.06399828,4.0,4.0,-4.0,1.6173674,-0.0019409755
17972000,0.006614154,0.0073844464,-0.00789237,0.0005119872,0.0005119872,0.699488,0.0639992,0.0639992,-0.0639992,4.0,4.0,-4.0,1.6169814,-0.002385517
18172000,0.004051912,0.007251183,-0.005968997,0.0005119191,0.0005119191,0.69948804,0.063994944,0.063994944,-0.063994944,4.0,4.0,-4.0,1.61704,-0.0006145613
18372000,0.0029119435,0.0078092795,-0.0015509963,0.0005119588,0.0005119588,0.69948804,0.063997425,0.063997425,-0.063997425,4.0,4.0,-4.0,1.6171602,0.00015833415
18572000,0.0022807713,0.008074013,-0.0009935683,0.0005119806,0.0005119806,0.699488,0.06399879,0.06399879,-0.06399879,4.0,4.0,-4.0,1.6167679,-0.0017445369
18772000,0.0028149507,0.008801614,0.0032632132,0.00051193126,0.00051193126,0.69948804,0.063995704,0.063995704,-0.063995704,4.0,4.0,-4.0,1.6160147,-0.0032642568
18972000,0.0062881755,0.00839102,0.0052526137,0.00051183876,0.00051183876,0.69948816,0.06398992,0.06398992,-0.06398992,4.0,4.0,-4.0,1.6161546,-0.00068952725
19172000,0.010460155,0.008459772,0.009227176,0.00051182444,0.00051182444,0.69948816,0.06398903,0.06398903,-0.06398903,4.0,4.0,-4.0,1.6158955,-0.0011752287
19372000,0.009125422,0.007978824,0.009006081,0.0005119588,0.0005119588,0.69948804,0.063997425,0.063997425,-0.063997425,4.0,4.0,-4.0,1.6157818,-0.0010006443
19572000,0.009231548,0.0082100835,0.012608285,0.00051193195,0.00051193195,0.69948804,0.06399575,0.06399575,-0.06399575,4.0,4.0,-4.0,1.6149781,-0.003832333
19772000,0.011519897,0.008096585,0.011769689,0.0005118757,0.0005118757,0.6994881,0.06399223,0.06399223,-0.06399223,4.0,4.0,-4.0,1.6145812,-0.0029234902
19972000,0.014928669,0.008522632,0.013654619,0.00051183783,0.00051183783,0.69948816,0.06398986,0.06398986,-0.06398986,4.0,4.0,-4.0,1.6145711,-0.0011701997
20172000,0.0146056935,0.008416152,0.011209312,0.00051198085,0.00051198085,0.699488,0.0639988,0.0639988,-0.0639988,4.0,4.0,-4.0,1.6143824,-0.0011784281
20372000,0.015957063,0.009014081,0.013419459,0.0005119012,0.0005119012,0.6994881,0.06399383,0.06399383,-0.06399383,4.0,4.0,-4.0,1.6144217,-6.918426e-05
20572000,0.012688995,0.0085762935,0.011435248,0.00051190075,0.00051190075,0.6994881,0.0639938,0.0639938,-0.0639938,4.0,4.0,-4.0,1.614425,-0.00013849844
20772000,0.011729012,0.008374847,0.013314792,0.000511978,0.000511978,0.699488,0.063998625,0.063998625,-0.063998625,4.0,4.0,-4.0,1.6139461,-0.001944413
20972000,0.009587394,0.007522378,0.010034354,0.000511939,0.000511939,0.69948804,0.06399619,0.06399619,-0.06399619,4.0,4.0,-4.0,1.613729,-0.0013762979
21172000,0.009258532,0.006700282,0.011980924,0.0005119582,0.0005119582,0.69948804,0.06399739,0.06399739,-0.06399739,4.0,4.0,-4.0,1.6138409,-9.830785e-07
21372000,0.0076471167,0.0059967493,0.0086832885,0.0005119457,0.0005119457,0.69948804,0.063996606,0.063996606,-0.063996606,4.0,4.0,-4.0,1.6134661,-0.0015493563
21572000,0.00745275,0.0048037046,0.0094387345,0.0005119377,0.0005119377,0.69948804,0.06399611,0.06399611,-0.06399611,4.0,4.0,-4.0,1.6136281,0.00040514598
21772000,0.0046252357,0.004542287,0.0068083727,0.0005119158,0.0005119158,0.69948804,0.063994735,0.063994735,-0.063994735,4.0,4.0,-4.0,1.6140026,0.001533945
21972000,0.0035943107,0.0035799756,0.008583889,0.00051193795,0.00051193795,0.69948804,0.06399612,0.06399612,-0.06399612,4.0,4.0,-4.0,1.6135871,-0.001045726
22172000,0.0022689528,0.0020138093,0.007932553,0.0005119036,0.0005119036,0.6994881,0.063993976,0.063993976,-0.063993976,4.0,4.0,-4.0,1.6137115,8.865001e-05
22372000,0.0022461643,-0.0007219867,0.010985792,0.000511865,0.000511865,0.6994881,0.06399156,0.06399156,-0.06399156,4.0,4.0,-4.0,1.6139066,0.000334517
22572000,0.0015792884,-0.0011779151,0.011058898,0.00051195105,0.00051195105,0.69948804,0.06399694,0.06399694,-0.06399694,4.0,4.0,-4.0,1.6135513,-0.0010080518
22772000,0.0017641276,-0.0031678134,0.014380918,0.0005118805,0.0005118805,0.6994881,0.06399253,0.06399253,-0.06399253,4.0,4.0,-4.0,1.613294,-0.0013992246
22972000,-0.00015554397,0.0025399,0.0113605885,0.0005117928,0.0005117928,0.6994882,0.06398705,0.06398705,-0.06398705,4.0,4.0,-4.0,1.6132816,-0.0007741455
23172000,-0.00081815314,0.005533089,0.012589985,0.0005119539,0.0005119539,0.69948804,0.06399712,0.06399712,-0.06399712,4.0,4.0,-4.0,1.6132784,-0.00012505558
23372000,0.0019620906,0.009788178,0.009608525,0.00051182613,0.00051182613,0.69948816,0.06398913,0.06398913,-0.06398913,4.0,4.0,-4.0,1.6134135,0.0005339792
23572000,0.004776749,0.011301525,0.011443862,0.00051189406,0.00051189406,0.6994881,0.06399338,0.06399338,-0.06399338,4.0,4.0,-4.0,1.6135049,0.0005075089
23772000,0.006995293,0.013769484,0.01006426,0.0005118887,0.0005118887,0.6994881,0.063993044,0.063993044,-0.063993044,4.0,4.0,-4.0,1.6137,0.001139414
23972000,0.009099438,0.014457192,0.0132687995,0.00051191496,0.00051191496,0.69948804,0.06399468,0.06399468,-0.06399468,4.0,4.0,-4.0,1.6136394,4.1819352e-05
24172000,0.0074326387,0.014515605,0.016319305,0.00051193865,0.00051193865,0.69948804,0.063996166,0.063996166,-0.063996166,4.0,4.0,-4.0,1.6132678,-0.0017131142
24372000,0.006820178,0.013251126,0.022968803,0.00051191624,0.00051191624,0.69948804,0.063994765,0.063994765,-0.063994765,4.0,4.0,-4.0,1.6133043,-0.00034979015
24572000,0.0042019514,0.010924586,0.019674327,0.000511857,0.000511857,0.6994881,0.06399106,0.06399106,-0.06399106,4.0,4.0,-4.0,1.6132221,-0.0007658987
24772000,0.003264579,0.007564907,0.020609831,0.0005118441,0.0005118441,0.69948816,0.06399026,0.06399026,-0.06399026,4.0,4.0,-4.0,1.6130234,-0.0010480138
24972000,0.0022494406,0.0067234514,0.019269867,0.0005119416,0.0005119416,0.69948804,0.06399635,0.06399635,-0.06399635,4.0,4.0,-4.0,1.6130848,-0.00015040333
25172000,0.0023549325,0.0044988235,0.022192186,0.00051186915,0.00051186915,0.6994881,0.06399182,0.06399182,-0.06399182,4.0,4.0,-4.0,1.6128757,-0.0009068006
25372000,0.0017922798,0.0028634742,0.024193298,0.00051189907,0.00051189907,0.6994881,0.06399369,0.06399369,-0.06399369,4.0,4.0,-4.0,1.6126809,-0.0010213451
25572000,0.0018699024,-0.00038692323,0.02942826,0.0005118315,0.0005118315,0.69948816,0.06398947,0.06398947,-0.06398947,4.0,4.0,-4.0,1.6126047,-0.00066195737
25772000,0.0013279391,0.0011379021,0.02952933,0.0005119763,0.0005119763,0.699488,0.06399852,0.06399852,-0.06399852,4.0,4.0,-4.0,1.6126045,-0.00024923778
25972000,0.0011388557,0.00013978274,0.033532318,0.00051189755,0.00051189755,0.6994881,0.063993596,0.063993596,-0.063993596,4.0,4.0,-4.0,1.6125045,-0.00063111406
26172000,0.0005461815,0.0044597797,0.030021109,0.0005118782,0.0005118782,0.6994881,0.06399239,0.06399239,-0.06399239,4.0,4.0,-4.0,1.6122457,-0.0010190457
26372000,-0.0002654012,0.0052869446,0.03243423,0.0005119416,0.0005119416,0.69948804,0.06399635,0.06399635,-0.06399635,4.0,4.0,-4.0,1.612567,0.00074740604
26572000,0.002560068,0.0067888675,0.029838338,0.00051188894,0.00051188894,0.6994881,0.06399306,0.06399306,-0.06399306,4.0,4.0,-4.0,1.6123078,-0.0006388039
26772000,0.004633861,0.0051525244,0.032225557,0.00051185663,0.00051185663,0.6994881,0.06399104,0.06399104,-0.06399104,4.0,4.0,-4.0,1.6121329,-0.0009619803
26972000,0.0050151804,0.0055474145,0.029472906,0.0005119575,0.0005119575,0.69948804,0.06399734,0.06399734,-0.06399734,4.0,4.0,-4.0,1.6121708,-0.0001442529
27172000,0.0043731146,0.0029934521,0.032181736,0.0005118203,0.0005118203,0.69948816,0.06398877,0.06398877,-0.06398877,4.0,4.0,-4.0,1.6119341,-0.0009771206
27372000,0.0036235482,0.0031769099,0.03315318,0.0005119426,0.0005119426,0.69948804,0.06399641,0.06399641,-0.06399641,4.0,4.0,-4.0,1.6120657,6.639517e-05
27572000,0.0019108454,0.0005786824,0.039176494,0.00051179336,0.00051179336,0.6994882,0.063987084,0.063987084,-0.063987084,4.0,4.0,-4.0,1.6119449,-0.00023917339
27772000,0.0010404309,0.0027067089,0.04004551,0.00051193556,0.00051193556,0.69948804,0.06399597,0.06399597,-0.06399597,4.0,4.0,-4.0,1.6122937,0.0013112769
27972000,-0.0011214492,0.0012000236,0.04664301,0.0005118092,0.0005118092,0.69948816,0.063988075,0.063988075,-0.063988075,4.0,4.0,-4.0,1.6124147,0.00071188726
28172000,-0.0009670637,0.0022130914,0.047333803,0.000511964,0.000511964,0.69948804,0.06399775,0.06399775,-0.06399775,4.0,4.0,-4.0,1.6122376,7.7701825e-06
28372000,-0.0025524122,-0.00025532965,0.054500826,0.00051179325,0.00051179325,0.6994882,0.06398708,0.06398708,-0.06398708,4.0,4.0,-4.0,1.6125867,0.0010402374
28572000,-0.003966018,-0.0011438631,0.052723162,0.00051186414,0.00051186414,0.6994881,0.06399151,0.06399151,-0.06399151,4.0,4.0,-4.0,1.6121149,-0.0015158609
28772000,-0.006898073,-0.0055084946,0.057087712,0.0005117066,0.0005117066,0.6994883,0.06398166,0.06398166,-0.06398166,4.0,4.0,-4.0,1.6121877,-9.381963e-05
28972000,-0.0070606726,-0.005294073,0.0556274,0.00051192474,0.00051192474,0.69948804,0.063995294,0.063995294,-0.063995294,4.0,4.0,-4.0,1.6121596,-0.00025576513
29172000,-0.009055268,-0.008856184,0.06107516,0.00051174,0.00051174,0.6994882,0.063983746,0.063983746,-0.063983746,4.0,4.0,-4.0,1.6121855,-8.528267e-05
29372000,-0.008615028,-0.0076392014,0.056653146,0.0005119662,0.0005119662,0.69948804,0.06399789,0.06399789,-0.06399789,4.0,4.0,-4.0,1.612033,-0.0006338991
29572000,-0.010043035,-0.01053232,0.05963543,0.0005117649,0.0005117649,0.6994882,0.0639853,0.0639853,-0.0639853,4.0,4.0,-4.0,1.6119593,-0.000756149
29772000,-0.012395698,-0.00901739,0.062179033,0.00051187346,0.00051187346,0.6994881,0.06399209,0.06399209,-0.06399209,4.0,4.0,-4.0,1.6118114,-0.00069814594
29972000,-0.015939316,-0.01187115,0.07096491,0.00051172293,0.00051172293,0.6994883,0.06398268,0.06398268,-0.06398268,4.0,4.0,-4.0,1.6117698,-0.0004909142
30172000,-0.015580457,-0.012169938,0.07564745,0.000511903,0.000511903,0.6994881,0.06399394,0.06399394,-0.06399394,4.0,4.0,-4.0,1.6117104,-0.0004034006
30372000,-0.016858762,-0.016668847,0.08556888,0.0005117135,0.0005117135,0.6994883,0.06398209,0.06398209,-0.06398209,4.0,4.0,-4.0,1.6118277,0.00044240343
30572000,-0.01566067,-0.012484085,0.08501149,0.00051190815,0.00051190815,0.6994881,0.06399426,0.06399426,-0.06399426,4.0,4.0,-4.0,1.6122949,0.0017773898
30772000,-0.01582644,-0.013368648,0.09122345,0.000511835,0.000511835,0.69948816,0.063989684,0.063989684,-0.063989684,4.0,4.0,-4.0,1.6123085,0.0007869769
30972000,-0.012422345,-0.010575529,0.09149675,0.00051189255,0.00051189255,0.6994881,0.06399328,0.06399328,-0.06399328,4.0,4.0,-4.0,1.6124436,0.0010283553
31172000,-0.011038837,-0.012584717,0.097560816,0.0005118111,0.0005118111,0.69948816,0.063988194,0.063988194,-0.063988194,4.0,4.0,-4.0,1.6124328,0.00013573928
31372000,-0.009083662,-0.008788154,0.09833433,0.00051191734,0.00051191734,0.69948804,0.06399483,0.06399483,-0.06399483,4.0,4.0,-4.0,1.6123074,-0.00025332381
31572000,-0.008161209,-0.01020415,0.10648839,0.0005118233,0.0005118233,0.69948816,0.063988954,0.063988954,-0.063988954,4.0,4.0,-4.0,1.6123439,1.105792e-05
31772000,-0.0066317786,-0.009650233,0.10596231,0.0005119208,0.0005119208,0.69948804,0.06399505,0.06399505,-0.06399505,4.0,4.0,-4.0,1.6124315,0.00028649456
31972000,-0.005639277,-0.013328081,0.112650335,0.0005117595,0.0005117595,0.6994882,0.06398497,0.06398497,-0.06398497,4.0,4.0,-4.0,1.6122358,-0.0007747058
32172000,-0.005976341,-0.011844716,0.10946788,0.0005119756,0.0005119756,0.699488,0.063998476,0.063998476,-0.063998476,4.0,4.0,-4.0,1.6123031,7.6344244e-05
32372000,-0.0061798864,-0.014859764,0.11411758,0.0005117769,0.0005117769,0.6994882,0.063986056,0.063986056,-0.063986056,4.0,4.0,-4.0,1.6123582,7.340379e-05
32572000,-0.005379859,-0.012833622,0.11036133,0.00051194726,0.00051194726,0.69948804,0.0639967,0.0639967,-0.0639967,4.0,4.0,-4.0,1.6120793,-0.0010497619
32772000,-0.0037081582,-0.01524548,0.11514045,0.0005117848,0.0005117848,0.6994882,0.06398655,0.06398655,-0.06398655,4.0,4.0,-4.0,1.6121186,-0.0001354627
32972000,-0.001839562,-0.0131151145,0.11033548,0.00051190576,0.00051190576,0.6994881,0.06399411,0.06399411,-0.06399411,4.0,4.0,-4.0,1.6123824,0.00089511444
33172000,0.0009011928,-0.01524578,0.11384218,0.0005117689,0.0005117689,0.6994882,0.06398556,0.06398556,-0.06398556,4.0,4.0,-4.0,1.6126671,0.0016716361
33372000,0.0001937593,-0.013237709,0.105178356,0.0005119903,0.0005119903,0.699488,0.06399939,0.06399939,-0.06399939,4.0,4.0,-4.0,1.6129398,0.001565668
33572000,0.0011349587,-0.015831245,0.1052596,0.0005117811,0.0005117811,0.6994882,0.06398632,0.06398632,-0.06398632,4.0,4.0,-4.0,1.6127074,-0.0002927034
33772000,0.0009610525,-0.013157576,0.100508004,0.00051196286,0.00051196286,0.69948804,0.06399768,0.06399768,-0.06399768,4.0,4.0,-4.0,1.6128242,0.00020043839
33972000,0.0027015838,-0.014965885,0.10403783,0.0005117874,0.0005117874,0.6994882,0.06398671,0.06398671,-0.06398671,4.0,4.0,-4.0,1.6124856,-0.0013800166
34172000,0.0026090532,-0.015947938,0.0921999,0.000511878,0.000511878,0.6994881,0.06399237,0.06399237,-0.06399237,4.0,4.0,-4.0,1.6124991,-0.00045247131
34372000,0.004723872,-0.020646442,0.09047004,0.000511693,0.000511693,0.6994883,0.06398081,0.06398081,-0.06398081,4.0,4.0,-4.0,1.612574,6.885497e-05
34572000,0.004591927,-0.018067244,0.083292454,0.00051194686,0.00051194686,0.69948804,0.06399668,0.06399668,-0.06399668,4.0,4.0,-4.0,1.6124899,-0.0005607859
34772000,0.0067860065,-0.019933604,0.08341754,0.00051176926,0.00051176926,0.6994882,0.06398558,0.06398558,-0.06398558,4.0,4.0,-4.0,1.6122959,-0.0009951222
34972000,0.009434104,-0.01926561,0.076952666,0.00051184604,0.00051184604,0.69948816,0.06399038,0.06399038,-0.06399038,4.0,4.0,-4.0,1.6125609,0.0007501398
35172000,0.0134757785,-0.023185601,0.07760469,0.0005116788,0.0005116788,0.6994883,0.06397992,0.06397992,-0.06397992,4.0,4.0,-4.0,1.6128613,0.0014671407
35372000,0.014960466,-0.021521127,0.07263064,0.00051190244,0.00051190244,0.6994881,0.0639939,0.0639939,-0.0639939,4.0,4.0,-4.0,1.6129464,0.00089359283
35572000,0.01811764,-0.024975624,0.074410245,0.0005116954,0.0005116954,0.6994883,0.06398096,0.06398096,-0.06398096,4.0,4.0,-4.0,1.6130317,0.00071528286
35772000,0.017104357,-0.022669924,0.070854,0.00051199883,0.00051199883,0.699488,0.06399993,0.06399993,-0.06399993,4.0,4.0,-4.0,1.6132258,0.001088262
35972000,0.018378904,-0.025616786,0.072593726,0.0005117392,0.0005117392,0.6994882,0.0639837,0.0639837,-0.0639837,4.0,4.0,-4.0,1.6134324,0.0011635664
36172000,0.019894633,-0.021243105,0.065385774,0.0005118699,0.0005118699,0.6994881,0.06399187,0.06399187,-0.06399187,4.0,4.0,-4.0,1.613535,0.0010859985
36372000,0.023418149,-0.022546293,0.064002514,0.00051173713,0.00051173713,0.6994882,0.06398357,0.06398357,-0.06398357,4.0,4.0,-4.0,1.6136827,0.0010099055
36572000,0.025506824,-0.018085934,0.057120677,0.0005118674,0.0005118674,0.6994881,0.06399171,0.06399171,-0.06399171,4.0,4.0,-4.0,1.6138377,0.0010333564
36772000,0.02890964,-0.019531667,0.05621797,0.00051174476,0.00051174476,0.6994882,0.063984044,0.063984044,-0.063984044,4.0,4.0,-4.0,1.6141543,0.0014278974
36972000,0.027502408,-0.016662097,0.051188543,0.00051197014,0.00051197014,0.69948804,0.06399813,0.06399813,-0.06399813,4.0,4.0,-4.0,1.6144005,0.0014266394
37172000,0.02806593,-0.019392496,0.051027283,0.0005117563,0.0005117563,0.6994882,0.06398477,0.06398477,-0.06398477,4.0,4.0,-4.0,1.614318,0.0002436758
37372000,0.025692517,-0.017077465,0.048010405,0.00051195,0.00051195,0.69948804,0.063996874,0.063996874,-0.063996874,4.0,4.0,-4.0,1.614536,0.0011068281
37572000,0.025794048,-0.019820457,0.049889326,0.0005117722,0.0005117722,0.6994882,0.06398576,0.06398576,-0.06398576,4.0,4.0,-4.0,1.614628,0.00072898035
37772000,0.021754153,-0.016928092,0.04645988,0.00051188003,0.00051188003,0.6994881,0.0639925,0.0639925,-0.0639925,4.0,4.0,-4.0,1.6143428,-0.00084652967
37972000,0.020468865,-0.019207349,0.04859923,0.000511791,0.000511791,0.6994882,0.063986935,0.063986935,-0.063986935,4.0,4.0,-4.0,1.6144015,4.97554e-05
38172000,0.018017186,-0.013382832,0.044697616,0.00051184697,0.00051184697,0.69948816,0.06399044,0.06399044,-0.06399044,4.0,4.0,-4.0,1.6146501,0.0011150525
38372000,0.017623348,-0.013047861,0.045975465,0.00051188405,0.00051188405,0.6994881,0.06399275,0.06399275,-0.06399275,4.0,4.0,-4.0,1.6145495,-0.00020311383
38572000,0.015699865,-0.008057881,0.04194269,0.0005118863,0.0005118863,0.6994881,0.063992895,0.063992895,-0.063992895,4.0,4.0,-4.0,1.6145908,0.00020552085
38772000,0.015705368,-0.008300537,0.04316564,0.00051186176,0.00051186176,0.6994881,0.06399136,0.06399136,-0.06399136,4.0,4.0,-4.0,1.6144192,-0.0007524782
38972000,0.016089482,-0.006036951,0.043213513,0.00051195215,0.00051195215,0.69948804,0.06399701,0.06399701,-0.06399701,4.0,4.0,-4.0,1.6144462,-0.00012718211
39172000,0.01797435,-0.0082488805,0.048142467,0.0005117854,0.0005117854,0.6994882,0.063986585,0.063986585,-0.063986585,4.0,4.0,-4.0,1.6145324,0.0004251789
39372000,0.017524738,-0.007919385,0.042723563,0.00051193434,0.00051193434,0.69948804,0.0639959,0.0639959,-0.0639959,4.0,4.0,-4.0,1.6146421,0.00054818543
39572000,0.01890328,-0.011309579,0.044539127,0.0005117551,0.0005117551,0.6994882,0.06398469,0.06398469,-0.06398469,4.0,4.0,-4.0,1.6148245,0.0009097552
39772000,0.017760234,-0.005551034,0.041969687,0.00051184034,0.00051184034,0.69948816,0.06399002,0.06399002,-0.06399002,4.0,4.0,-4.0,1.6146731,-0.00012073317
39972000,0.018394917,-0.0043300698,0.046111744,0.00051190885,0.00051190885,0.6994881,0.0639943,0.0639943,-0.0639943,4.0,4.0,-4.0,1.6145502,-0.000658504
40172000,0.018506765,-0.0013277503,0.044920933,0.0005119477,0.0005119477,0.69948804,0.06399673,0.06399673,-0.06399673,4.0,4.0,-4.0,1.6146276,0.00015816356
40372000,0.020169305,-0.0025085718,0.05065006,0.00051182875,0.00051182875,0.69948816,0.0639893,0.0639893,-0.0639893,4.0,4.0,-4.0,1.6148711,0.0010001537
40572000,0.017677208,-0.0013905833,0.05082574,0.00051192316,0.00051192316,0.69948804,0.0639952,0.0639952,-0.0639952,4.0,4.0,-4.0,1.6147643,7.3307696e-05
40772000,0.017112352,-0.0034034355,0.05876026,0.000511835,0.000511835,0.69948816,0.063989684,0.063989684,-0.063989684,4.0,4.0,-4.0,1.6149968,0.00092547794
40972000,0.015018105,-0.0008157276,0.06078118,0.00051194214,0.00051194214,0.69948804,0.06399638,0.06399638,-0.06399638,4.0,4.0,-4.0,1.6150904,0.000695568
41172000,0.014841291,-0.002388471,0.06927585,0.0005118364,0.0005118364,0.69948816,0.06398977,0.06398977,-0.06398977,4.0,4.0,-4.0,1.6152765,0.0010810695
41372000,0.011760568,-0.0008027864,0.06831883,0.0005119002,0.0005119002,0.6994881,0.06399376,0.06399376,-0.06399376,4.0,4.0,-4.0,1.6151917,0.00015488287
41572000,0.010276056,-0.0030608946,0.075648665,0.00051182887,0.00051182887,0.69948816,0.063989304,0.063989304,-0.063989304,4.0,4.0,-4.0,1.6152384,0.00029168438
41772000,0.008336325,-0.0034428765,0.07720946,0.00051189587,0.00051189587,0.6994881,0.06399349,0.06399349,-0.06399349,4.0,4.0,-4.0,1.6152323,0.00023493322
41972000,0.007288561,-0.007089116,0.086775884,0.00051178754,0.00051178754,0.6994882,0.06398672,0.06398672,-0.06398672,4.0,4.0,-4.0,1.6154464,0.0008599159
42172000,0.0060030436,-0.006257848,0.08655119,0.00051195413,0.00051195413,0.69948804,0.063997135,0.063997135,-0.063997135,4.0,4.0,-4.0,1.6152868,-0.00047927038
42372000,0.0051032715,-0.008199878,0.09466456,0.0005118508,0.0005118508,0.69948816,0.063990675,0.063990675,-0.063990675,4.0,4.0,-4.0,1.615052,-0.0011867348
42572000,0.0041953507,-0.007990249,0.09475229,0.00051194377,0.00051194377,0.69948804,0.06399649,0.06399649,-0.06399649,4.0,4.0,-4.0,1.6151252,-0.0001903774
42772000,0.0033028568,-0.010530268,0.103526756,0.00051183236,0.00051183236,0.69948816,0.06398952,0.06398952,-0.06398952,4.0,4.0,-4.0,1.615286,0.00047461814
42972000,0.0010255218,-0.009154944,0.10264209,0.0005119011,0.0005119011,0.6994881,0.06399382,0.06399382,-0.06399382,4.0,4.0,-4.0,1.6153504,0.00041762672
43172000,-0.0013588616,-0.010499376,0.11034742,0.0005118532,0.0005118532,0.69948816,0.063990824,0.063990824,-0.063990824,4.0,4.0,-4.0,1.6152058,-0.0005097948
43372000,-0.0037215594,-0.008700854,0.10799299,0.00051190564,0.00051190564,0.6994881,0.0639941,0.0639941,-0.0639941,4.0,4.0,-4.0,1.615313,0.0003881901
43572000,-0.0060438993,-0.009431817,0.11462365,0.00051187776,0.00051187776,0.6994881,0.06399236,0.06399236,-0.06399236,4.0,4.0,-4.0,1.6154468,0.00069506286
43772000,-0.004837571,-0.007205428,0.10972683,0.0005119383,0.0005119383,0.69948804,0.06399614,0.06399614,-0.06399614,4.0,4.0,-4.0,1.6155746,0.0007124315
43972000,-0.004681887,-0.007174654,0.11494511,0.0005119434,0.0005119434,0.69948804,0.063996464,0.063996464,-0.063996464,4.0,4.0,-4.0,1.6155471,0.0002316201
44172000,-0.0027005032,-0.0064782454,0.11175294,0.00051195605,0.00051195605,0.69948804,0.063997254,0.063997254,-0.063997254,4.0,4.0,-4.0,1.6157571,0.0007782131
44372000,-0.002662755,-0.007691533,0.11969493,0.0005119012,0.0005119012,0.6994881,0.06399383,0.06399383,-0.06399383,4.0,4.0,-4.0,1.6158179,0.00056306116
44572000,-0.0020197344,-0.006714642,0.117679544,0.00051198405,0.00051198405,0.699488,0.063999005,0.063999005,-0.063999005,4.0,4.0,-4.0,1.6160833,0.001110774
44772000,-0.002754939,-0.0072946395,0.125571,0.00051191077,0.00051191077,0.6994881,0.06399442,0.06399442,-0.06399442,4.0,4.0,-4.0,1.6161618,0.00070598675
44972000,-0.00075314497,-0.0060904147,0.12286926,0.0005119416,0.0005119416,0.69948804,0.06399635,0.06399635,-0.06399635,4.0,4.0,-4.0,1.616264,0.00055590767
45172000,-0.00035239453,-0.0066628545,0.12879415,0.0005119327,0.0005119327,0.69948804,0.06399579,0.06399579,-0.06399579,4.0,4.0,-4.0,1.6163899,0.0007475815
45372000,0.002026978,-0.006936533,0.124407314,0.00051192567,0.00051192567,0.69948804,0.063995354,0.063995354,-0.063995354,4.0,4.0,-4.0,1.6165652,0.00101958
45572000,0.0026556666,-0.008176449,0.1301561,0.00051192223,0.00051192223,0.69948804,0.06399514,0.06399514,-0.06399514,4.0,4.0,-4.0,1.6167483,0.0011552166
45772000,0.0049507967,-0.0074899956,0.12608208,0.0005119307,0.0005119307,0.69948804,0.06399567,0.06399567,-0.06399567,4.0,4.0,-4.0,1.6169664,0.0013058467
45972000,0.0057655657,-0.008295988,0.13145132,0.00051193184,0.00051193184,0.69948804,0.06399574,0.06399574,-0.06399574,4.0,4.0,-4.0,1.6170589,0.00092788343
46172000,0.0049549174,-0.0070455056,0.12724034,0.00051194953,0.00051194953,0.69948804,0.063996844,0.063996844,-0.063996844,4.0,4.0,-4.0,1.6170825,0.0003138872
46372000,0.003864955,-0.00719121,0.13360806,0.000511935,0.000511935,0.69948804,0.063995935,0.063995935,-0.063995935,4.0,4.0,-4.0,1.6171244,0.00021171816
46572000,0.0036607014,-0.007352408,0.1299499,0.00051197095,0.00051197095,0.69948804,0.063998185,0.063998185,-0.063998185,4.0,4.0,-4.0,1.6170896,0.0001073962
46772000,0.0035230368,-0.0085358005,0.13593172,0.0005119303,0.0005119303,0.69948804,0.063995644,0.063995644,-0.063995644,4.0,4.0,-4.0,1.6171851,0.00040938702
46972000,0.0039943256,-0.004595483,0.13027494,0.0005118557,0.0005118557,0.6994881,0.06399098,0.06399098,-0.06399098,4.0,4.0,-4.0,1.6172583,0.0005498913
47172000,0.00467657,-0.0025736014,0.13331486,0.0005119633,0.0005119633,0.69948804,0.06399771,0.06399771,-0.06399771,4.0,4.0,-4.0,1.6175265,0.0013379602
47372000,0.0047342028,-0.0025088347,0.12821959,0.0005119697,0.0005119697,0.69948804,0.0639981,0.0639981,-0.0639981,4.0,4.0,-4.0,1.617639,0.0009251545
47572000,0.0049557737,-0.0036163775,0.13254917,0.00051193533,0.00051193533,0.69948804,0.06399596,0.06399596,-0.06399596,4.0,4.0,-4.0,1.6176451,0.00033729186
47772000,0.007765692,-0.0016499165,0.12800598,0.00051187753,0.00051187753,0.6994881,0.063992344,0.063992344,-0.063992344,4.0,4.0,-4.0,1.6176482,0.0002412085
47972000,0.010040483,-0.0014735918,0.1323923,0.00051192066,0.00051192066,0.69948804,0.06399504,0.06399504,-0.06399504,4.0,4.0,-4.0,1.6177375,0.0004967146
48172000,0.010491784,-0.000475655,0.12506118,0.0005119854,0.0005119854,0.699488,0.06399909,0.06399909,-0.06399909,4.0,4.0,-4.0,1.6179823,0.0010162134
48372000,0.011010246,-0.0013176609,0.12823825,0.0005119307,0.0005119307,0.69948804,0.06399567,0.06399567,-0.06399567,4.0,4.0,-4.0,1.6180627,0.0005794654
48572000,0.015149688,-0.00063467614,0.124111265,0.0005118334,0.0005118334,0.69948816,0.06398959,0.06398959,-0.06398959,4.0,4.0,-4.0,1.6180866,0.0003224704
48772000,0.018759796,-0.0018493666,0.13001798,0.00051184435,0.00051184435,0.69948816,0.06399027,0.06399027,-0.06399027,4.0,4.0,-4.0,1.6181285,0.0004060408
48972000,0.020601664,-0.0062331646,0.1283263,0.0005117822,0.0005117822,0.6994882,0.06398638,0.06398638,-0.06398638,4.0,4.0,-4.0,1.6182687,0.0006707919
49172000,0.021965858,-0.011512907,0.13422923,0.00051177334,0.00051177334,0.6994882,0.06398583,0.06398583,-0.06398583,4.0,4.0,-4.0,1.61837,0.0006443868
49372000,0.022464545,-0.011898971,0.13015899,0.00051196263,0.00051196263,0.69948804,0.06399766,0.06399766,-0.06399766,4.0,4.0,-4.0,1.6184143,0.0002981219
49572000,0.023070104,-0.013773044,0.13606952,0.0005118768,0.0005118768,0.6994881,0.0639923,0.0639923,-0.0639923,4.0,4.0,-4.0,1.6184394,8.6528176e-05
49772000,0.021409972,-0.012576673,0.13243221,0.00051192543,0.00051192543,0.69948804,0.06399534,0.06399534,-0.06399534,4.0,4.0,-4.0,1.618335,-0.00038900162
49972000,0.019720402,-0.013848494,0.13850908,0.0005118682,0.0005118682,0.6994881,0.06399176,0.06399176,-0.06399176,4.0,4.0,-4.0,1.6183718,-9.892439e-05
50172000,0.017177954,-0.011754263,0.1337285,0.000511877,0.000511877,0.6994881,0.063992314,0.063992314,-0.063992314,4.0,4.0,-4.0,1.6182576,-0.00043268167
50372000,0.014345499,-0.012067101,0.1383642,0.0005118612,0.0005118612,0.6994881,0.06399132,0.06399132,-0.06399132,4.0,4.0,-4.0,1.6182176,-0.00016580244
50572000,0.010695763,-0.008549178,0.13216369,0.0005118152,0.0005118152,0.69948816,0.06398845,0.06398845,-0.06398845,4.0,4.0,-4.0,1.6181421,-0.0002247838
50772000,0.0065035513,-0.007934002,0.13611686,0.00051180983,0.00051180983,0.69948816,0.06398811,0.06398811,-0.06398811,4.0,4.0,-4.0,1.618089,-0.00022636121
50972000,0.0046235356,-0.0062814327,0.13169241,0.00051191635,0.00051191635,0.69948804,0.06399477,0.06399477,-0.06399477,4.0,4.0,-4.0,1.6180419,-0.00026315445
51172000,0.0019590547,-0.0070910794,0.13636677,0.0005118341,0.0005118341,0.69948816,0.06398963,0.06398963,-0.06398963,4.0,4.0,-4.0,1.6181216,0.0003418221
51372000,0.0011430768,-0.008887893,0.13239197,0.0005118895,0.0005118895,0.6994881,0.0639931,0.0639931,-0.0639931,4.0,4.0,-4.0,1.6182611,0.0006464532
51572000,-0.0007131629,-0.012085533,0.1374434,0.0005118062,0.0005118062,0.69948816,0.06398789,0.06398789,-0.06398789,4.0,4.0,-4.0,1.61821,-2.064172e-05
51772000,-0.0022687477,-0.01134066,0.13274568,0.0005119116,0.0005119116,0.6994881,0.063994475,0.063994475,-0.063994475,4.0,4.0,-4.0,1.6185694,0.0014671688
51972000,-0.005205598,-0.012441813,0.1376043,0.00051182206,0.00051182206,0.69948816,0.06398888,0.06398888,-0.06398888,4.0,4.0,-4.0,1.6186178,0.00076028594
52172000,-0.0054979366,-0.010961275,0.13179815,0.0005119501,0.0005119501,0.69948804,0.06399688,0.06399688,-0.06399688,4.0,4.0,-4.0,1.6185035,-0.00013503498
52372000,-0.0077004773,-0.011845675,0.1364854,0.0005118427,0.0005118427,0.69948816,0.06399017,0.06399017,-0.06399017,4.0,4.0,-4.0,1.6185896,0.00037402776
52572000,-0.007230212,-0.009801037,0.1292882,0.00051195046,0.00051195046,0.69948804,0.0639969,0.0639969,-0.0639969,4.0,4.0,-4.0,1.6187081,0.00060142094
52772000,-0.008851803,-0.01003649,0.1323675,0.0005118737,0.0005118737,0.6994881,0.063992105,0.063992105,-0.063992105,4.0,4.0,-4.0,1.6188952,0.0009298588
52972000,-0.008065865,-0.010018227,0.12703146,0.00051196414,0.00051196414,0.69948804,0.06399776,0.06399776,-0.06399776,4.0,4.0,-4.0,1.6190587,0.001001915
53172000,-0.009710933,-0.01154016,0.13229841,0.00051184697,0.00051184697,0.69948816,0.06399044,0.06399044,-0.06399044,4.0,4.0,-4.0,1.6191679,0.0006489561
53372000,-0.0059443666,-0.008668553,0.12672059,0.00051186676,0.00051186676,0.6994881,0.06399167,0.06399167,-0.06399167,4.0,4.0,-4.0,1.6192569,0.00062416744
53572000,-0.0053912485,-0.007685532,0.13218541,0.0005119451,0.0005119451,0.69948804,0.06399657,0.06399657,-0.06399657,4.0,4.0,-4.0,nan,0.0
53772000,-0.003764672,-0.0042982004,0.12516695,0.00051190326,-4.576181e-07,0.6994881,0.06399395,-2.861023e-05,-0.06399395,4.0,0.0,-4.0,nan,0.0
53972000,-0.004909428,-0.003166356,0.12989262,0.0005118944,-1.3874652e-06,0.6994881,0.0639934,-8.678436e-05,-0.0639934,4.0,0.0,-4.0,nan,0.0
54172000,-0.0030372513,-0.0015032968,0.124254934,0.0005119395,-2.8036022e-06,0.69948804,0.06399622,-0.00017547607,-0.06399622,4.0,0.0,-4.0,nan,0.0
54372000,-0.0034965866,-0.0012993366,0.1296974,0.0,-2.8643894e-06,0.6994881,0.0,-0.00017929077,-0.06399454,0.0,0.0,-4.0,nan,0.0
54572000,-0.0037104047,-0.0010410524,0.12164605,-4.2988482e-05,-0.0001600986,0.643412,-0.00026988983,-0.0009860992,-0.5,0.0,0.0,0.0,nan,0.0
54772000,-0.0037243245,-0.0010925172,0.12494566,-9.6757045e-05,-0.00035655338,0.54379994,-0.00026988983,-0.0009860992,-0.5,0.0,0.0,0.0,nan,0.0
54972000,-0.0037489058,-0.0011829324,0.11851688,-0.00015043381,-0.00055267266,0.44435802,-0.00026988983,-0.0009860992,-0.5,0.0,0.0,0.0,nan,0.0
55172000,-0.0037840968,-0.0013121128,0.1233145,-0.00020402412,-0.0007484761,0.34507623,-0.00026988983,-0.0009860992,-0.5,0.0,0.0,0.0,nan,0.0
55372000,-0.0038298767,-0.0014799811,0.11687563,-0.00025755967,-0.00094407937,0.24589589,-0.00026988983,-0.0009860992,-0.5,0.0,0.0,0.0,nan,0.0
55572000,-0.003886225,-0.0016864602,0.121270806,-0.0003110503,-0.0011395187,0.14679866,-0.00026988983,-0.0009860992,-0.5,0.0,0.0,0.0,nan,0.0
55772000,-0.0039531793,-0.0019316922,0.11527095,-0.00036454457,-0.0013349714,0.04769467,-0.00026988983,-0.0009860992,-0.5,0.0,0.0,0.0,nan,0.0
55972000,-0.004030759,-0.0022157475,0.11997345,-0.0004180535,-0.0015304775,-0.051436406,-0.00026988983,-0.0009860992,-0.5,0.0,0.0,0.0,nan,0.0
56172000,-0.0041188793,-0.0025383115,0.11294621,-0.000471523,-0.0017258397,-0.15049441,-0.00026988983,-0.0009860992,-0.5,0.0,0.0,0.0,nan,0.0
56372000,-0.0042174556,-0.002899082,0.116297185,-0.00052492245,-0.0019209456,-0.24942257,-0.00026988983,-0.0009860992,-0.5,0.0,0.0,0.0,nan,0.0
56572000,-0.004327309,-0.0033010596,0.108157374,-0.0005786541,-0.0021172648,-0.3489661,-0.00026988983,-0.0009860992,-0.5,0.0,0.0,0.0,nan,0.0
56772000,-0.0044484376,-0.0037442348,0.111700594,-0.0006326321,-0.002314484,-0.448966,-0.00026988983,-0.0009860992,-0.5,0.0,0.0,0.0,nan,0.0
56972000,-0.004580362,-0.004226853,0.10483113,-0.0006866101,-0.0025117032,-0.54896605,-0.00026988983,-0.0009860992,-0.5,0.0,0.0,0.0,nan,0.0
57172000,-0.0047186287,-0.0047326996,0.10880184,-0.000688815,-0.0025202336,-0.64896625,4.2438507e-05,0.00015306473,-0.5,0.0,0.0,0.0,nan,0.0
57372000,-0.0048551643,-0.0052322987,0.102547616,-0.00067490863,-0.002469753,-0.74896646,9.226799e-05,0.0003361702,-0.5,0.0,0.0,0.0,nan,0.0
57572000,-0.0049878745,-0.0057179783,0.10612387,-0.0006503439,-0.0023802896,-0.84896666,0.00014853477,0.00054073334,-0.5,0.0,0.0,0.0,nan,0.0
57772000,-0.005114503,-0.006181485,0.09849681,-0.00061385456,-0.0022472094,-0.94896686,0.00021100044,0.00077056885,-0.5,0.0,0.0,0.0,nan,0.0
57972000,-0.0052325185,-0.006613563,0.09421238,-0.0005639632,-0.0020650122,-1.0489669,0.00028192997,0.0010300875,-0.5,0.0,0.0,0.0,nan,0.0
58172000,-0.005339043,-0.0070036575,0.06778841,-0.00049841456,-0.0018254981,-1.1489668,0.0003681183,0.0013456345,-0.5,0.0,0.0,0.0,nan,0.0
58372000,-0.0054305447,-0.007338851,0.021549849,-0.00041271662,-0.0015121737,-1.2489667,0.00048571825,0.0017760992,-0.5,0.0,0.0,0.0,nan,0.0
58572000,-0.005501931,-0.0076004723,-0.069405645,-0.000292863,-0.001073696,-1.3489666,0.00073483586,0.0026897192,-0.5,0.0,0.0,0.0,nan,0.0
58772000,-0.0055431165,-0.007751523,-0.18699458,-0.00011556377,-0.00042422742,-1.3996801,0.0009071529,0.003323406,0.12792559,0.0,0.0,4.0,nan,0.0
58972000,-0.005567335,-0.007840435,-0.32103074,-0.0001205109,-0.0004431178,-1.3366945,4.8473477e-05,0.00017429888,0.2664492,0.0,0.0,-4.0,nan,0.0
59172000,-0.0055901934,-0.007924514,-0.4455414,-0.00010792957,-0.0003970711,-1.2901267,6.379187e-05,0.00023396313,0.2223855,0.0,0.0,-4.0,nan,0.0
59372000,-0.0056105037,-0.007999251,-0.5870648,-9.517118e-05,-0.0003502784,-1.2413648,6.379187e-05,0.00023396313,0.2592389,0.0,0.0,-4.0,nan,0.0
59572000,-0.005628262,-0.008064629,-0.7228961,-8.2412786e-05,-0.0003034857,-1.1898139,6.379187e-05,0.00023396313,0.25765142,0.0,0.0,-4.0,nan,0.0
59772000,-0.0056435596,-0.008120682,-0.87158597,-7.268491e-05,-0.00026084163,-1.134009,1.7032027e-05,-2.5853515e-05,0.29294395,0.0,0.0,-4.0,nan,0.0
59972000,-0.005657369,-0.008171061,-1.010209,-6.479053e-05,-0.00023831347,-1.076051,4.4599175e-05,0.00015479326,0.28708383,0.0,0.0,-4.0,nan,0.0
60172000,-0.0056694336,-0.008215557,-1.1562432,-5.5870692e-05,-0.00020666045,-1.015042,4.4599175e-05,0.00015826523,0.3163785,0.0,0.0,-4.0,nan,0.0
60372000,-0.0056797164,-0.0082537215,-1.2887356,-4.695086e-05,-0.00017500742,-0.9528873,4.4599175e-05,0.00015826523,0.30557021,0.0,0.0,-4.0,nan,0.0
60572000,-0.005688486,-0.008285801,-1.4250679,-4.2093798e-05,-0.00015167048,-0.8885577,1.8462539e-05,2.5555491e-05,0.33144653,0.0,0.0,-4.0,nan,0.0
60772000,-0.0056964215,-0.0083147865,-1.5458368,-3.7045887e-05,-0.0001363607,-0.8237769,2.7135015e-05,9.5039606e-05,0.31594855,0.0,0.0,-4.0,nan,0.0
60972000,-0.0057032886,-0.008340159,-1.6902996,-3.1618878e-05,-0.00011735278,-0.74186105,2.7135015e-05,9.5039606e-05,0.69179016,0.0,0.0,4.0,nan,0.0
61172000,-0.0057090707,-0.008361731,-1.8195071,-2.6191876e-05,-9.8344884e-05,-0.5243702,2.7135015e-05,9.5039606e-05,1.3742534,0.0,0.0,-4.0,nan,0.0
61372000,-0.005713767,-0.0083794985,-1.901018,-2.0764875e-05,-7.933699e-05,-0.31211308,2.7135015e-05,9.5039606e-05,0.7354093,0.0,0.0,-4.0,nan,0.0
61572000,-0.005717377,-0.008393429,-1.9525512,-1.5337875e-05,-5.9746373e-05,-0.22173429,2.7135015e-05,9.988248e-05,0.18424219,0.0,0.0,-4.0,nan,0.0
61772000,-0.0057202936,-0.008404168,-1.994195,-1.3946765e-05,-5.0798157e-05,-0.19748372,7.3984265e-06,2.5570393e-05,0.080514506,0.0,0.0,-4.0,1.6230744,0.000353181
61972000,-0.0057229344,-0.008413814,-2.0317614,-1.24670805e-05,-4.5684068e-05,-0.17858352,7.3984265e-06,2.5570393e-05,0.07135708,0.0,0.0,-4.0,1.6230744,0.00013639184
62172000,-0.0057253162,-0.008422442,-2.0657299,-1.139598e-05,-4.107566e-05,-0.16147509,5.8710575e-06,-6.042421e-06,0.06316138,0.0,0.0,-4.0,1.6230744,5.2671956e-05
62372000,-0.0057274764,-0.008430319,-2.096441,-1.0221768e-05,-3.7424907e-05,-0.1459921,5.8710575e-06,2.013892e-05,0.055780016,0.0,0.0,-4.0,1.6230744,2.0340913e-05
62572000,-0.0057294187,-0.008437401,-2.1242054,-9.306833e-06,-3.339712e-05,-0.13198245,4.630536e-06,2.013892e-05,0.049305048,0.0,0.0,-4.0,1.6230744,7.855276e-06
62772000,-0.005731187,-0.008443821,-2.1493032,-8.365824e-06,-3.0586827e-05,-0.11930825,4.7050416e-06,1.611188e-05,0.043565493,0.0,0.0,-4.0,1.6230744,3.0335593e-06
62972000,-0.0057327775,-0.008449619,-2.1719885,-7.595372e-06,-2.7364451e-05,-0.10784395,3.9748847e-06,1.611188e-05,0.038530257,0.0,0.0,-4.0,1.6230744,1.1715034e-06
63172000,-0.0057342183,-0.008454861,-2.192495,-6.800394e-06,-2.491102e-05,-0.09747495,3.9748847e-06,1.3772398e-05,0.034153245,0.0,0.0,-4.0,1.6230744,4.524125e-07
63372000,-0.005735517,-0.008459585,-2.2110276,-6.1887895e-06,-2.25942e-05,-0.088098146,3.4309924e-06,9.4249845e-06,0.030584335,0.0,0.0,-4.0,1.6230744,1.7471318e-07
63572000,-0.0057366905,-0.008463859,-2.2277749,-5.608895e-06,-2.0169782e-05,-0.07962258,2.361834e-06,1.2122095e-05,0.027941436,0.0,0.0,-4.0,1.6230744,6.747093e-08
63772000,-0.005737751,-0.0084677255,-2.2429087,-5.053766e-06,-1.8310851e-05,-0.07196036,-4.7683716e-07,1.08368695e-05,0.026191525,0.0,0.0,-4.0,1.6230744,2.6055998e-08
63972000,-0.0057387096,-0.008471218,-2.256584,-4.537292e-06,-1.6599923e-05,-0.06503778,2.6710331e-06,9.4510615e-06,0.025475264,0.0,0.0,-4.0,1.6230744,1.0062335e-08
64172000,-0.0057395785,-0.008474371,-2.2689426,-4.1419844e-06,-1.5078615e-05,-0.058768254,1.5422702e-06,5.6028366e-06,0.023434049,0.0,0.0,-4.0,1.6230744,3.885884e-09
64372000,-0.005740367,-0.008477232,-2.2801058,-3.7406865e-06,-1.3621558e-05,-0.053088646,1.4677644e-06,5.3197145e-06,0.019231543,0.0,0.0,-4.0,1.6230744,1.5006554e-09
64572000,-0.0057410793,-0.008479821,-2.2901921,-3.3774716e-06,-1.2302686e-05,-0.047956344,1.3932586e-06,5.055219e-06,0.015095532,0.0,0.0,-4.0,1.6230744,5.795248e-10
64772000,-0.005741722,-0.008482153,-2.2993054,-3.0501992e-06,-1.1113224e-05,-0.043320235,1.3299286e-06,4.8056245e-06,0.011239685,0.0,0.0,-4.0,1.6230744,2.2380153e-10
64972000,-0.0057423012,-0.008484262,-2.3075361,-2.754412e-06,-1.0038556e-05,-0.03913322,1.2591481e-06,4.5634806e-06,0.0073889047,0.0,0.0,-4.0,1.6230744,8.642793e-11
65172000,-0.0057428246,-0.008486168,-2.3149722,-2.487189e-06,-9.065558e-06,-0.03535089,1.2032688e-06,4.3436885e-06,0.003995247,0.0,0.0,-4.0,1.6230744,3.3376833e-11
65372000,-0.0057432973,-0.008487891,-2.3216906,-2.2461886e-06,-8.186383e-06,-0.031935725,1.1362135e-06,4.1387975e-06,0.0005418435,0.0,0.0,-4.0,1.6230744,1.2889504e-11
65572000,-0.005743724,-0.008489448,-2.3277595,-2.029139e-06,-7.394231e-06,-0.028849602,0.0,0.0,0.0,0.0,0.0,0.0,1.6230744,4.9776828e-12
65772000,-0.005744103,-0.008490824,-2.33313,-1.8358676e-06,-6.6917246e-06,-0.026107788,0.0,0.0,0.0,0.0,0.0,0.0,1.6230744,1.9222872e-12
65972000,-0.0057444465,-0.008492069,-2.3379943,-1.6613305e-06,-6.0580846e-06,-0.02363491,0.0,0.0,0.0,0.0,0.0,0.0,1.6230744,7.4235106e-13
66172000,-0.005744757,-0.0084932,-2.3423984,-1.5030042e-06,-5.4836946e-06,-0.02139473,0.0,0.0,0.0,0.0,0.0,0.0,1.6230744,2.8668197e-13
66372000,-0.0057450375,-0.008494221,-2.3463852,-1.3603823e-06,-4.9643545e-06,-0.019366264,0.0,0.0,0.0,0.0,0.0,0.0,1.6230744,1.1071116e-13
66572000,-0.0057452926,-0.008495151,-2.3499978,-1.2305591e-06,-4.4919075e-06,-0.017528534,0.0,0.0,0.0,0.0,0.0,0.0,1.6230744,4.275456e-14
66772000,-0.005745524,-0.008495993,-2.3532727,-1.1127594e-06,-4.0630516e-06,-0.015862465,0.0,0.0,0.0,0.0,0.0,0.0,1.6230744,1.6511005e-14
66972000,-0.005745733,-0.008496757,-2.3562407,-1.0063281e-06,-3.674086e-06,-0.014351845,0.0,0.0,0.0,0.0,0.0,0.0,1.6230744,6.3762387e-15
67172000,-0.005745922,-0.008497449,-2.3589284,-9.1009525e-07,-3.322173e-06,-0.012983322,0.0,0.0,0.0,0.0,0.0,0.0,1.6230744,2.462383e-15
67372000,-0.005746094,-0.008498075,-2.361363,-8.2268343e-07,-3.0027236e-06,-0.011743544,0.0,0.0,0.0,0.0,0.0,0.0,1.6230744,9.50926e-16
67572000,-0.00574625,-0.008498641,-2.3635678,-7.434308e-07,-2.714502e-06,-0.010621071,0.0,0.0,0.0,0.0,0.0,0.0,1.6230744,3.6722973e-16
67772000,-0.005746389,-0.008499153,-2.3655663,-6.724639e-07,-2.4534124e-06,-0.009602547,0.0,0.0,0.0,0.0,0.0,0.0,1.6230744,1.418172e-16
67972000,-0.005746516,-0.008499616,-2.367374,-6.0787085e-07,-2.217817e-06,-0.008682251,0.0,0.0,0.0,0.0,0.0,0.0,1.6230744,5.476713e-17
68172000,-0.005746631,-0.008500036,-2.3690104,-5.489603e-07,-2.0041068e-06,-0.007847786,0.0,0.0,0.0,0.0,0.0,0.0,1.6230744,2.1150032e-17
68372000,-0.005746734,-0.008500416,-2.3704932,-4.966173e-07,-1.8105417e-06,-0.007092476,0.0,0.0,0.0,0.0,0.0,0.0,1.6230744,8.167743e-18
68572000,-0.0057468293,-0.00850076,-2.3718383,-4.4800424e-07,-1.6347021e-06,-0.006406784,0.0,0.0,0.0,0.0,0.0,0.0,1.6230744,3.1542283e-18
68772000,-0.005746914,-0.008501071,-2.3730524,-4.0496457e-07,-1.4764976e-06,-0.0057878494,0.0,0.0,0.0,0.0,0.0,0.0,1.6230744,1.2181035e-18
68972000,-0.0057469914,-0.008501351,-2.3741496,-3.6522235e-07,-1.3337833e-06,-0.0052289963,0.0,0.0,0.0,0.0,0.0,0.0,1.6230744,4.7040857e-19
69172000,-0.0057470608,-0.008501603,-2.3751411,-3.3009533e-07,-1.2049207e-06,-0.004723549,0.0,0.0,0.0,0.0,0.0,0.0,1.6230744,1.8166295e-19
69372000,-0.0057471236,-0.008501832,-2.3760364,-2.9797505e-07,-1.0885386e-06,-0.004266739,0.0,0.0,0.0,0.0,0.0,0.0,1.6230744,7.015479e-20
69572000,-0.0057471795,-0.008502037,-2.3768458,-2.693254e-07,-9.832662e-07,-0.003853798,0.0,0.0,0.0,0.0,0.0,0.0,1.6230744,2.7092454e-20
69772000,-0.0057472317,-0.0085022235,-2.3775773,-2.4305137e-07,-8.8838993e-07,-0.003480911,0.0,0.0,0.0,0.0,0.0,0.0,1.6230744,1.0462595e-20
69972000,-0.005747277,-0.008502391,-2.378238,-2.1950251e-07,-8.02124e-07,-0.0031433103,0.0,0.0,0.0,0.0,0.0,0.0,1.6230744,4.0404566e-21
70172000,-0.0057473187,-0.008502543,-2.3788333,-1.9852696e-07,-7.256931e-07,-0.0028390884,0.0,0.0,0.0,0.0,0.0,0.0,1.6230744,1.5603484e-21
70372000,-0.005747356,-0.00850268,-2.3793716,-1.792623e-07,-6.55587e-07,-0.002565384,0.0,0.0,0.0,0.0,0.0,0.0,1.6230744,6.025771e-22
70572000,-0.005747391,-0.008502806,-2.3798578,-1.6181811e-07,-5.9138847e-07,-0.0023174286,0.0,0.0,0.0,0.0,0.0,0.0,1.6230744,2.327039e-22
70772000,-0.0057474207,-0.008502916,-2.3802972,-1.2580081e-07,-4.599438e-07,-0.0020933151,0.0,0.0,0.0,0.0,0.0,0.0,1.6230744,8.986585e-23
70972000,-0.005747444,-0.008503006,-2.3806937,-1.2624321e-07,-4.5982165e-07,-0.0018911362,0.0,0.0,0.0,0.0,0.0,0.0,1.6230744,3.4704493e-23
71172000,-0.0057474673,-0.008503095,-2.3810523,-1.2246052e-07,-4.4374505e-07,-0.0017080306,0.0,0.0,0.0,0.0,0.0,0.0,1.6230744,1.3402223e-23
71372000,-0.0057474906,-0.008503181,-2.381375,-1.10827e-07,-4.0000248e-07,-0.001543045,0.0,0.0,0.0,0.0,0.0,0.0,1.6230744,5.175685e-24
71572000,-0.0057475124,-0.008503255,-2.381667,-9.965134e-08,-3.62284e-07,-0.0013942719,0.0,0.0,0.0,0.0,0.0,0.0,1.6230744,1.9987517e-24
71772000,-0.005747533,-0.008503325,-2.3819308,-8.9189946e-08,-3.2648975e-07,-0.0012598038,0.0,0.0,0.0,0.0,0.0,0.0,1.6230744,7.7188023e-25
71972000,-0.005747551,-0.008503385,-2.382169,-7.98432e-08,-2.9563233e-07,-0.0011377335,0.0,0.0,0.0,0.0,0.0,0.0,1.6230744,2.980856e-25
72172000,-0.0057475655,-0.008503441,-2.3823843,-7.240225e-08,-2.677241e-07,-0.0010280609,0.0,0.0,0.0,0.0,0.0,0.0,1.6230744,1.1511502e-25
72372000,-0.0057475786,-0.008503493,-2.3825793,-6.5666256e-08,-2.4077718e-07,-0.0009288788,0.0,0.0,0.0,0.0,0.0,0.0,1.6230744,4.4455246e-26
72572000,-0.005747583,-0.0085035125,-2.3827555,-4.3968648e-13,-3.5034738e-13,-0.0008392334,0.0,0.0,0.0,0.0,0.0,0.0,1.6230744,1.7167777e-26
72772000,-0.005747583,-0.0085035125,-2.3829138,6.7421806e-13,7.635572e-13,-0.0007581711,0.0,0.0,0.0,0.0,0.0,0.0,1.6230744,6.629871e-27
72972000,-0.005747583,-0.0085035125,-2.383057,3.5006527e-13,-3.5035042e-13,-0.0006847381,0.0,0.0,0.0,0.0,0.0,0.0,1.6230744,2.560331e-27
73172000,-0.005747583,-0.0085035125,-2.3831868,-5.887584e-13,5.884733e-13,-0.0006189346,0.0,0.0,0.0,0.0,0.0,0.0,1.6230744,9.887515e-28
73372000,-0.005743584,-0.00853473,-2.3831875,0.00014367035,-0.0011714617,0.0056969346,0.0025804043,-0.02199924,0.224,0.0,0.0,4.0,1.6229142,-0.000821272
73572000,-0.0056632427,-0.00920901,-2.3722353,0.0006597511,-0.005571309,0.13049695,0.0025804043,-0.02199924,1.024,0.0,0.0,4.0,1.6229142,-0.00031715978
73772000,-0.005479685,-0.010763259,-2.3203928,0.0011758319,-0.009971157,0.40967253,0.0025804043,-0.02199924,1.5240145,0.0,0.0,-4.0,1.6229142,-0.0001224811
73972000,-0.005192911,-0.013197477,-2.2133114,0.0016919127,-0.014371004,0.63447547,0.0025804043,-0.02199924,0.7240145,0.0,0.0,-4.0,1.6229142,-4.7299895e-05
74172000,-0.00484645,-0.016141463,-2.0772653,0.0016029212,-0.013586228,0.7,0.0,0.0,0.0,0.0,0.0,0.0,1.6229142,-1.8266328e-05
74372000,-0.004547575,-0.018674785,-1.9372653,0.0013983237,-0.011852558,0.7,0.0,0.0,0.0,0.0,0.0,0.0,1.6229142,-7.054112e-06
74572000,-0.0042868634,-0.020884644,-1.7972655,0.0012201598,-0.010342397,0.7,0.0,0.0,0.0,0.0,0.0,0.0,1.6229142,-2.7241647e-06
74772000,-0.0040594344,-0.022812374,-1.6572658,0.0010646778,-0.009024499,0.7,0.0,0.0,0.0,0.0,0.0,0.0,1.6229142,-1.0520212e-06
74972000,-0.0038610399,-0.024494028,-1.5172657,0.00092903007,-0.007874713,0.7,0.0,0.0,0.0,0.0,0.0,0.0,1.6229142,-4.062707e-07
75172000,-0.0036879685,-0.025961025,-1.3772656,0.00081064564,-0.006871254,0.7,0.0,0.0,0.0,0.0,0.0,0.0,1.6229142,-1.568941e-07
75372000,-0.0035369827,-0.027240815,-1.2372655,0.0007073451,-0.0059956545,0.7,0.0,0.0,0.0,0.0,0.0,0.0,1.6229142,-6.058954e-08
75572000,-0.0034052655,-0.028357279,-1.0972656,0.0006172299,-0.0052318135,0.7,0.0,0.0,0.0,0.0,0.0,0.0,1.6229142,-2.339854e-08
75772000,-0.003290355,-0.029331286,-0.95726544,0.00053856656,-0.004565051,0.7,0.0,0.0,0.0,0.0,0.0,0.0,1.6229142,-9.036075e-09
75972000,-0.0031901046,-0.030181034,-0.81726545,0.00046996074,-0.0039835274,0.7,0.0,0.0,0.0,0.0,0.0,0.0,1.6229142,-3.489562e-09
76172000,-0.0031026413,-0.030922407,-0.67726547,0.00041007096,-0.0034758793,0.7,0.0,0.0,0.0,0.0,0.0,0.0,1.6229142,-1.3476028e-09
76372000,-0.0030263322,-0.03156923,-0.5372653,0.00035783448,-0.0030331067,0.7,0.0,0.0,0.0,0.0,0.0,0.0,1.6229142,-5.204188e-10
76572000,-0.0029597539,-0.03213357,-0.3972653,0.00031224676,-0.002646688,0.7,0.0,0.0,0.0,0.0,0.0,0.0,1.6229142,-2.0097592e-10
76772000,-0.0029016633,-0.03262596,-0.2572653,0.00027246823,-0.002309518,0.7,0.0,0.0,0.0,0.0,0.0,0.0,1.6229142,-7.761311e-11
76972000,-0.0028509803,-0.033055566,-0.11726529,0.00023777461,-0.0020154417,0.7,0.0,0.0,0.0,0.0,0.0,0.0,1.6229142,-2.9972722e-11
77172000,-0.0028067578,-0.033430405,0.022734713,0.00020749336,-0.0017587759,0.7,0.0,0.0,0.0,0.0,0.0,0.0,1.6229142,-1.15749e-11
77372000,-0.0027681717,-0.033757478,0.1627347,0.00018106894,-0.0015347851,0.7,0.0,0.0,0.0,0.0,0.0,0.0,1.6229142,-4.4700077e-12
77572000,-0.0027345046,-0.034042846,0.30273467,0.00015799544,-0.0013392078,0.7,0.0,0.0,0.0,0.0,0.0,0.0,1.6229142,-1.7262327e-12
77772000,-0.002705128,-0.03429184,0.44273472,0.00013788189,-0.0011687286,0.7,0.0,0.0,0.0,0.0,0.0,0.0,1.6229142,-6.6663846e-13
77972000,-0.0026794928,-0.034509126,0.58273464,0.00012033881,-0.0010200331,0.7,0.0,0.0,0.0,0.0,0.0,0.0,1.6229142,-2.5744318e-13
78172000,-0.0026571252,-0.034698725,0.7227345,0.000105031286,-0.00089027965,0.7,0.0,0.0,0.0,0.0,0.0,0.0,1.6229142,-9.941969e-14
78372000,-0.002637607,-0.034864165,0.8627345,9.162304e-05,-0.000776627,0.7,0.0,0.0,0.0,0.0,0.0,0.0,1.6229142,-3.8394015e-14
78572000,-0.0026206635,-0.035007793,1.0019814,8.000309e-05,-0.0006781279,0.7,0.0,0.0,0.0,0.0,0.0,0.0,1.6229142,-1.4827042e-14
78772000,-0.0026058864,-0.03513305,1.1410233,6.9891044e-05,-0.0005924149,0.7,0.0,0.0,0.0,0.0,0.0,0.0,1.6229142,-5.7259237e-15
78972000,-0.002592975,-0.035242487,1.2801065,6.106373e-05,-0.0005175934,0.7,0.0,0.0,0.0,0.0,0.0,0.0,1.6229142,-2.2112439e-15
79172000,-0.002581686,-0.035338182,1.4193197,5.33543e-05,-0.00045224308,0.7,0.0,0.0,0.0,0.0,0.0,0.0,1.6229142,-8.539407e-16
79372000,-0.002571831,-0.03542171,1.558486,4.6593756e-05,-0.0003949432,0.7,0.0,0.0,0.0,0.0,0.0,0.0,1.6229142,-3.2977581e-16
79572000,-0.0025632293,-0.035494626,1.6975605,4.0672145e-05,-0.00034474657,0.7,0.0,0.0,0.0,0.0,0.0,0.0,1.6229142,-1.273532e-16
79772000,-0.0025557233,-0.035558246,1.8364912,3.553209e-05,-0.00030117968,0.7,0.0,0.0,0.0,0.0,0.0,0.0,1.6229142,-4.9181393e-17
79972000,-0.0025491724,-0.035613768,1.9752991,3.1062194e-05,-0.00026329554,0.7,0.0,0.0,0.0,0.0,0.0,0.0,1.6229142,-1.8992925e-17
80172000,-0.00254346,-0.035662185,2.1138122,2.715093e-05,-0.00023014683,0.7,0.0,0.0,0.0,0.0,0.0,0.0,1.6229142,-7.33471e-18
80372000,-0.0025384787,-0.035704423,2.2520394,2.3744598e-05,-0.00020125994,0.7,0.0,0.0,0.0,0.0,0.0,0.0,1.6229142,-2.8325262e-18
80572000,-0.0025341264,-0.035741325,2.39007,2.078429e-05,-0.00017616156,0.7,0.0,0.0,0.0,0.0,0.0,0.0,1.6229142,-1.0938683e-18
80772000,-0.0025303264,-0.035773534,2.5279562,1.8158571e-05,-0.00015390456,0.7,0.0,0.0,0.0,0.0,0.0,0.0,1.6229142,-4.2243126e-19
80972000,-0.0025270018,-0.035801724,2.6658232,1.5868376e-05,-0.00013448883,0.7,0.0,0.0,0.0,0.0,0.0,0.0,1.6229142,-1.6313498e-19
81172000,-0.002524095,-0.035826363,2.8037443,1.3857353e-05,-0.0001174409,0.7,0.0,0.0,0.0,0.0,0.0,0.0,1.6229142,-6.299965e-20
81372000,-0.0025215473,-0.035847962,2.9419456,1.2125804e-05,-0.000102760714,0.7,0.0,0.0,0.0,0.0,0.0,0.0,1.6229142,-2.4329282e-20
81572000,-0.0025193112,-0.035866905,3.0805671,1.061634e-05,-8.99749e-05,0.7,0.0,0.0,0.0,0.0,0.0,0.0,1.6229142,-9.39551e-21
81772000,-0.0025173556,-0.03588348,3.2193825,9.275845e-06,-7.860959e-05,0.7,0.0,0.0,0.0,0.0,0.0,0.0,1.6229142,-3.6283684e-21
81972000,-0.0025156464,-0.035897966,3.3581977,8.102486e-06,-6.8665e-05,0.7,0.0,0.0,0.0,0.0,0.0,0.0,1.6229142,-1.4012074e-21
82172000,-0.0025141505,-0.035910647,3.4971514,7.096885e-06,-6.0141032e-05,0.7,0.0,0.0,0.0,0.0,0.0,0.0,1.6229142,-5.4111986e-22
82372000,-0.002512847,-0.03592167,3.635768,6.2013114e-06,-5.2564385e-05,0.7,0.0,0.0,0.0,0.0,0.0,0.0,1.6229142,-2.0897028e-22
82572000,-0.0025117109,-0.03593129,3.774128,5.417891e-06,-4.5934794e-05,0.7,0.0,0.0,0.0,0.0,0.0,0.0,1.6229142,-8.070038e-23
82772000,-0.002510721,-0.035939686,3.912343,4.692288e-06,-3.9778526e-05,0.7,0.0,0.0,0.0,0.0,0.0,0.0,1.6229142,-3.1164963e-23
82972000,-0.0025098552,-0.035947032,4.0505896,4.13418e-06,-3.5042925e-05,0.7,0.0,0.0,0.0,0.0,0.0,0.0,1.6229142,-1.203532e-23
83172000,-0.0025090994,-0.035953455,4.188945,3.5762212e-06,-3.0307314e-05,0.7,0.0,0.0,0.0,0.0,0.0,0.0,1.6229142,-4.647814e-24
83372000,-0.0025084356,-0.035959102,4.3273635,3.1312732e-06,-2.6518654e-05,0.7,0.0,0.0,0.0,0.0,0.0,0.0,1.6229142,-1.794898e-24
83572000,-0.002507857,-0.035963986,4.465822,2.73906e-06,-2.3203916e-05,0.7,0.0,0.0,0.0,0.0,0.0,0.0,1.6229142,-6.9315566e-25
83772000,-0.0025073516,-0.035968274,4.6040893,2.4036121e-06,-2.0362626e-05,0.7,0.0,0.0,0.0,0.0,0.0,0.0,1.6229142,-2.6768365e-25
83972000,-0.0025069101,-0.03597203,4.7419987,2.1251453e-06,-1.7994758e-05,0.7,0.0,0.0,0.0,0.0,0.0,0.0,1.6229142,-1.03374367e-25
84172000,-0.0025065253,-0.0359753,4.879595,1.8470602e-06,-1.5626845e-05,0.7,0.0,0.0,0.0,0.0,0.0,0.0,1.6229142,-3.992123e-26
84372000,-0.0025061881,-0.035978146,5.0169215,1.6225094e-06,-1.373276e-05,0.7,0.0,0.0,0.0,0.0,0.0,0.0,1.6229142,-1.5416826e-26
84572000,-0.0025058934,-0.03598064,5.1541147,1.3985338e-06,-1.1838609e-05,0.7,0.0,0.0,0.0,0.0,0.0,0.0,1.6229142,-5.9536873e-27
84772000,-0.0025056354,-0.035982832,5.2912626,1.2313828e-06,-1.0417896e-05,0.7,0.0,0.0,0.0,0.0,0.0,0.0,1.6229142,-2.2992017e-27
84972000,-0.0025054107,-0.035984743,5.428487,1.1200847e-06,-9.470739e-06,0.7,0.0,0.0,0.0,0.0,0.0,0.0,1.6229142,-8.879085e-28
85172000,-0.0025052126,-0.035986423,5.5658975,9.525031e-07,-8.050077e-06,0.7,0.0,0.0,0.0,0.0,0.0,0.0,1.6229142,-3.4289353e-28
85372000,-0.002505038,-0.035987906,5.70367,8.411279e-07,-7.102928e-06,0.7,0.0,0.0,0.0,0.0,0.0,0.0,1.6229142,-1.3241901e-28
85572000,-0.0025049737,-0.03598845,5.8419266,0.0,0.0,0.7,0.0,0.0,0.0,0.0,0.0,0.0,1.6229142,-5.1137725e-29
85772000,-0.0025049737,-0.03598845,5.980487,0.0,0.0,0.7,0.0,0.0,0.0,0.0,0.0,0.0,1.6229142,-1.9748421e-29
85972000,-0.0025049737,-0.03598845,6.119302,0.0,0.0,0.7,0.0,0.0,0.0,0.0,0.0,0.0,1.6229142,-7.6264674e-30
86172000,-0.0025049737,-0.03598845,6.25833,0.0,0.0,0.7,0.0,0.0,0.0,0.0,0.0,0.0,1.6229142,-2.9451979e-30
86372000,-0.0025049737,-0.03598845,6.397548,0.0,0.0,0.7,0.0,0.0,0.0,0.0,0.0,0.0,1.6229142,-1.13738e-30
86572000,0.004880413,-0.031093752,1.2868792,-0.00043092834,0.0,0.7,-0.027991228,0.0,0.0,4.0,0.0,0.0,1.6229142,0.0
86772000,0.0054080733,-0.03140156,1.2425253,-0.00044185965,0.0,0.7,-0.030516498,0.0,0.0,4.0,0.0,0.0,1.6229142,0.0
86972000,0.0031193828,-0.028578805,1.155864,-0.0005118855,0.0,0.7,-0.06399284,0.0,0.0,-4.0,0.0,0.0,1.6229142,0.0
87172000,0.003436609,-0.02692004,1.1083977,-0.0005119184,-8.107794e-06,0.7,-0.0639949,-0.00050880015,0.0,-4.0,0.0,0.0,1.6229142,0.0
