timestamp,unallocated_torque[0],unallocated_torque[1],unallocated_torque[2],unallocated_thrust[0],unallocated_thrust[1],unallocated_thrust[2],handled_motor_failure_mask,torque_setpoint_achieved,thrust_setpoint_achieved,actuator_saturation[0],actuator_saturation[1],actuator_saturation[2],actuator_saturation[3],actuator_saturation[4],actuator_saturation[5],actuator_saturation[6],actuator_saturation[7],actuator_saturation[8],actuator_saturation[9],actuator_saturation[10],actuator_saturation[11],actuator_saturation[12],actuator_saturation[13],actuator_saturation[14],actuator_saturation[15]
3388000,0.0003782765,0.001371923,-0.00022346692,0.0,0.0,0.0,0,0,1,-2,-2,-2,-2,2,2,2,2,2,2,2,2,2,2,2,2
3396000,-0.0002091589,0.00078341994,0.00010529892,0.0,0.0,0.0,0,1,1,-2,-2,-2,-2,2,2,2,2,2,2,2,2,2,2,2,2
3580000,-0.00056969887,0.00033341252,-5.6507477e-05,0.0,0.0,7.275958e-12,0,1,1,-2,-2,-2,-2,2,2,2,2,2,2,2,2,2,2,2,2
3788000,0.019910293,0.021398697,0.0002869186,0.0,0.0,1.1641532e-10,0,0,1,0,-2,0,-2,2,2,2,2,2,2,2,2,2,2,2,2
3988000,0.020561675,0.023151582,-0.0002914799,0.0,0.0,1.1641532e-10,0,0,1,0,-2,0,-2,2,2,2,2,2,2,2,2,2,2,2,2
4180000,0.019314548,0.022862189,0.00027937474,0.0,0.0,-8.1490725e-10,0,0,1,0,-2,0,-2,2,2,2,2,2,2,2,2,2,2,2,2
4388000,0.020670002,0.022089541,0.00020247922,0.0,0.0,1.1641532e-10,0,0,1,0,-2,0,-2,2,2,2,2,2,2,2,2,2,2,2,2
4588000,0.01956813,0.020758623,0.0006516012,0.0,0.0,-2.3283064e-10,0,0,1,0,-2,0,-2,2,2,2,2,2,2,2,2,2,2,2,2
4788000,0.019263143,0.020446427,0.000101135636,0.0,0.0,1.1641532e-10,0,0,1,0,-2,0,-2,2,2,2,2,2,2,2,2,2,2,2,2
4988000,0.01760639,0.019224755,0.00042987286,0.0,0.0,4.656613e-10,0,0,1,0,-2,0,-2,2,2,2,2,2,2,2,2,2,2,2,2
5188000,0.018175837,0.018807786,0.000111627465,0.0,0.0,1.1641532e-10,0,0,1,0,-2,0,-2,2,2,2,2,2,2,2,2,2,2,2,2
5388000,0.018084843,0.019628124,0.00020200145,0.0,0.0,1.1641532e-10,0,0,1,0,-2,0,-2,2,2,2,2,2,2,2,2,2,2,2,2
5588000,0.017673075,0.019790292,0.000491409,0.0,0.0,1.0477379e-09,0,0,1,0,-2,0,-2,2,2,2,2,2,2,2,2,2,2,2,2
5788000,0.01776784,0.019294212,0.00049893814,0.0,0.0,1.1641532e-10,0,0,1,0,-2,0,-2,2,2,2,2,2,2,2,2,2,2,2,2
5988000,0.018276567,0.019118465,0.00027547218,0.0,0.0,1.1641532e-10,0,0,1,0,-2,0,-2,2,2,2,2,2,2,2,2,2,2,2,2
6180000,0.017653607,0.01850179,0.00012919337,0.0,0.0,5.820766e-10,0,0,1,0,-2,0,-2,2,2,2,2,2,2,2,2,2,2,2,2
6388000,0.017075902,0.019382661,0.0012937542,0.0,0.0,2.3283064e-10,0,0,1,0,-2,0,-2,2,2,2,2,2,2,2,2,2,2,2,2
6588000,0.017633688,0.020303635,0.0006663585,0.0,0.0,-2.3283064e-10,0,0,1,0,-2,0,-2,2,2,2,2,2,2,2,2,2,2,2,2
6780000,0.016722906,0.019687105,0.00013689492,0.0,0.0,1.1641532e-10,0,0,1,0,-2,0,-2,2,2,2,2,2,2,2,2,2,2,2,2
6988000,0.01665289,0.018928658,1.3921817e-05,0.0,0.0,1.1641532e-10,0,0,1,0,-2,0,-2,2,2,2,2,2,2,2,2,2,2,2,2
7188000,0.016764114,0.019629389,0.0008491672,0.0,0.0,3.4924597e-10,0,0,1,0,-2,0,-2,2,2,2,2,2,2,2,2,2,2,2,2
7388000,0.016306803,0.019808546,0.00079169264,0.0,0.0,-2.3283064e-10,0,0,1,0,-2,0,-2,2,2,2,2,2,2,2,2,2,2,2,2
7588000,0.016901907,0.018371914,0.00048381483,0.0,0.0,5.820766e-10,0,0,1,0,-2,0,-2,2,2,2,2,2,2,2,2,2,2,2,2
7788000,0.017286876,0.019054826,0.0012440415,0.0,0.0,1.1641532e-10,0,0,1,0,-2,0,-2,2,2,2,2,2,2,2,2,2,2,2,2
7988000,0.016570834,0.018363852,0.0005537625,0.0,0.0,4.656613e-10,0,0,1,0,-2,0,-2,2,2,2,2,2,2,2,2,2,2,2,2
8180000,0.016913524,0.018815104,0.00032137937,0.0,0.0,1.0477379e-09,0,0,1,0,-2,0,-2,2,2,2,2,2,2,2,2,2,2,2,2
8380000,0.017967615,0.01867766,-0.00012476186,0.0,0.0,1.1641532e-10,0,0,1,0,-2,0,-2,2,2,2,2,2,2,2,2,2,2,2,2
8588000,0.0164771,0.018575182,0.00042045984,0.0,0.0,5.820766e-10,0,0,1,0,-2,0,-2,2,2,2,2,2,2,2,2,2,2,2,2
8788000,0.016964363,0.018693572,-8.3567626e-05,0.0,0.0,1.1641532e-10,0,0,1,0,-2,0,-2,2,2,2,2,2,2,2,2,2,2,2,2
8980000,0.017480591,0.018934123,-9.80483e-05,0.0,0.0,1.1641532e-10,0,0,1,0,-2,0,-2,2,2,2,2,2,2,2,2,2,2,2,2
9188000,0.01736014,0.018032439,0.0002648543,0.0,0.0,4.656613e-10,0,0,1,0,-2,0,-2,2,2,2,2,2,2,2,2,2,2,2,2
9388000,0.017010763,0.017998088,0.00034108426,0.0,0.0,1.1641532e-10,0,0,1,0,-2,0,-2,2,2,2,2,2,2,2,2,2,2,2,2
9588000,0.01688544,0.01692616,-9.08364e-05,0.0,0.0,-2.3283064e-10,0,0,1,0,-2,0,-2,2,2,2,2,2,2,2,2,2,2,2,2
9788000,0.01687785,0.018667161,0.000120207085,0.0,0.0,3.4924597e-10,0,0,1,0,-2,0,-2,2,2,2,2,2,2,2,2,2,2,2,2
9980000,0.017097699,0.018955579,0.00022592155,0.0,0.0,1.1641532e-10,0,0,1,0,-2,0,-2,2,2,2,2,2,2,2,2,2,2,2,2
10188000,0.016546853,0.018577266,-5.9837235e-05,0.0,0.0,-3.4924597e-10,0,0,1,0,-2,0,-2,2,2,2,2,2,2,2,2,2,2,2,2
10388000,0.016234344,0.017717348,6.231051e-05,0.0,0.0,5.820766e-10,0,0,1,0,-2,0,-2,2,2,2,2,2,2,2,2,2,2,2,2
10588000,0.017013997,0.018899776,-3.1696687e-05,0.0,0.0,5.820766e-10,0,0,1,0,-2,0,-2,2,2,2,2,2,2,2,2,2,2,2,2
10788000,0.01653668,0.019210042,0.00041297302,0.0,0.0,5.820766e-10,0,0,1,0,-2,0,-2,2,2,2,2,2,2,2,2,2,2,2,2
10988000,0.016934296,0.01883603,-0.0002882687,0.0,0.0,1.0477379e-09,0,0,1,0,-2,0,-2,2,2,2,2,2,2,2,2,2,2,2,2
11188000,0.017190898,0.019157702,0.0005039681,0.0,0.0,5.820766e-10,0,0,1,0,-2,0,-2,2,2,2,2,2,2,2,2,2,2,2,2
11388000,0.016950177,0.017521396,0.0006368459,0.0,0.0,1.1641532e-10,0,0,1,0,-2,0,-2,2,2,2,2,2,2,2,2,2,2,2,2
11588000,0.015885962,0.019290851,-0.0002522104,0.0,0.0,1.1641532e-10,0,0,1,0,-2,0,-2,2,2,2,2,2,2,2,2,2,2,2,2
11788000,0.016274007,0.018442739,-0.00011012527,0.0,0.0,-3.4924597e-10,0,0,1,0,-2,0,-2,2,2,2,2,2,2,2,2,2,2,2,2
11988000,0.017255345,0.01839263,0.00039176887,0.0,0.0,4.656613e-10,0,0,1,0,-2,0,-2,2,2,2,2,2,2,2,2,2,2,2,2
12188000,0.016294088,0.016310211,0.0002046827,0.0,0.0,4.656613e-10,0,0,1,0,-2,0,-2,2,2,2,2,2,2,2,2,2,2,2,2
12388000,0.016128687,0.018232942,0.000510647,0.0,0.0,1.1641532e-10,0,0,1,0,-2,0,-2,2,2,2,2,2,2,2,2,2,2,2,2
12588000,0.015397942,0.018385416,0.00014619764,0.0,0.0,1.1641532e-10,0,0,1,0,-2,0,-2,2,2,2,2,2,2,2,2,2,2,2,2
12780000,0.01650569,0.018841099,0.0003029379,0.0,0.0,1.1641532e-10,0,0,1,0,-2,0,-2,2,2,2,2,2,2,2,2,2,2,2,2
12980000,0.016822267,0.016583491,-0.00011942736,0.0,0.0,0.0,0,0,1,0,-2,0,-2,2,2,2,2,2,2,2,2,2,2,2,2
13180000,0.01655907,0.017007621,0.0005173931,0.0,0.0,1.1641532e-10,0,0,1,0,-2,0,-2,2,2,2,2,2,2,2,2,2,2,2,2
13388000,0.01600931,0.017409056,-0.00020948108,0.0,0.0,5.820766e-10,0,0,1,0,-2,0,-2,2,2,2,2,2,2,2,2,2,2,2,2
13588000,0.017137429,0.017236441,0.00063847157,0.0,0.0,1.1641532e-10,0,0,1,0,-2,0,-2,2,2,2,2,2,2,2,2,2,2,2,2
13788000,0.015272162,0.01753248,0.00026913104,0.0,0.0,1.1641532e-10,0,0,1,0,-2,0,-2,2,2,2,2,2,2,2,2,2,2,2,2
13988000,0.017104654,0.017822802,0.00019970407,0.0,0.0,-1.1641532e-10,0,0,1,0,-2,0,-2,2,2,2,2,2,2,2,2,2,2,2,2
14180000,0.015369658,0.017407568,-0.0004967899,0.0,0.0,1.1641532e-10,0,0,1,0,-2,0,-2,2,2,2,2,2,2,2,2,2,2,2,2
14388000,0.015271756,0.018361134,0.0005420739,0.0,0.0,-1.1641532e-10,0,0,1,0,-2,0,-2,2,2,2,2,2,2,2,2,2,2,2,2
14588000,0.016190529,0.017316347,0.00020918966,0.0,0.0,1.1641532e-10,0,0,1,0,-2,0,-2,2,2,2,2,2,2,2,2,2,2,2,2
14788000,0.015140515,0.01702544,5.020926e-05,0.0,0.0,1.1641532e-10,0,0,1,0,-2,0,-2,2,2,2,2,2,2,2,2,2,2,2,2
14980000,0.016001198,0.018797997,0.00030923804,0.0,0.0,1.1641532e-10,0,0,1,0,-2,0,-2,2,2,2,2,2,2,2,2,2,2,2,2
15188000,0.014874097,0.016361807,0.00029378993,0.0,0.0,-5.820766e-10,0,0,1,0,-2,0,-2,2,2,2,2,2,2,2,2,2,2,2,2
15388000,0.015686719,0.016359307,0.0010042976,0.0,0.0,1.0477379e-09,0,0,1,0,-2,0,-2,2,2,2,2,2,2,2,2,2,2,2,2
15588000,0.015192924,0.016124852,-0.00017602889,0.0,0.0,5.820766e-10,0,0,1,0,-2,0,-2,2,2,2,2,2,2,2,2,2,2,2,2
15788000,0.015625197,0.017147573,5.968422e-05,0.0,0.0,5.820766e-10,0,0,1,0,-2,0,-2,2,2,2,2,2,2,2,2,2,2,2,2
15988000,0.015278026,0.01636487,0.00038726887,0.0,0.0,-2.3283064e-10,0,0,1,0,-2,0,-2,2,2,2,2,2,2,2,2,2,2,2,2
16180000,0.016687516,0.016599884,0.00087643095,0.0,0.0,-3.4924597e-10,0,0,1,0,-2,0,-2,2,2,2,2,2,2,2,2,2,2,2,2
16388000,0.01659225,0.016549857,0.00067747524,0.0,0.0,1.1641532e-10,0,0,1,0,-2,0,-2,2,2,2,2,2,2,2,2,2,2,2,2
16588000,0.01580915,0.016512232,0.0004137686,0.0,0.0,1.1641532e-10,0,0,1,0,-2,0,-2,2,2,2,2,2,2,2,2,2,2,2,2
16788000,0.016932435,0.015627181,0.00034501756,0.0,0.0,-2.3283064e-10,0,0,1,0,-2,0,-2,2,2,2,2,2,2,2,2,2,2,2,2
16980000,0.015853576,0.017414384,0.00028797245,0.0,0.0,-2.3283064e-10,0,0,1,0,-2,0,-2,2,2,2,2,2,2,2,2,2,2,2,2
17188000,0.015938912,0.015793422,0.00028962726,0.0,0.0,1.1641532e-10,0,0,1,0,-2,0,-2,2,2,2,2,2,2,2,2,2,2,2,2
17388000,0.016192399,0.016504984,-0.00023226315,0.0,0.0,1.1641532e-10,0,0,1,0,-2,0,-2,2,2,2,2,2,2,2,2,2,2,2,2
17588000,0.016343543,0.014624487,0.00042398978,0.0,0.0,1.1641532e-10,0,0,1,0,-2,0,-2,2,2,2,2,2,2,2,2,2,2,2,2
17780000,0.015977906,0.014914716,0.00013682284,0.0,0.0,-2.3283064e-10,0,0,1,0,-2,0,-2,2,2,2,2,2,2,2,2,2,2,2,2
17988000,0.0142069515,0.01442403,-0.0008073729,0.0,0.0,1.1641532e-10,0,0,1,0,-2,0,-2,2,2,2,2,2,2,2,2,2,2,2,2
18188000,0.016042858,0.015682073,0.00022352056,0.0,0.0,-2.3283064e-10,0,0,1,0,-2,0,-2,2,2,2,2,2,2,2,2,2,2,2,2
18388000,0.015345606,0.015406078,-0.00010193664,0.0,0.0,1.1641532e-10,0,0,1,0,-2,0,-2,2,2,2,2,2,2,2,2,2,2,2,2
18588000,0.015019558,0.015108707,0.00073293125,0.0,0.0,1.1641532e-10,0,0,1,0,-2,0,-2,2,2,2,2,2,2,2,2,2,2,2,2
18780000,0.017111197,0.015286063,-0.00018619235,0.0,0.0,1.1641532e-10,0,0,1,0,-2,0,-2,2,2,2,2,2,2,2,2,2,2,2,2
18980000,0.014579942,0.013974531,0.0006972195,0.0,0.0,1.1641532e-10,0,0,1,0,-2,0,-2,2,2,2,2,2,2,2,2,2,2,2,2
19188000,0.016132364,0.0147329355,-2.9891893e-05,0.0,0.0,1.1641532e-10,0,0,1,0,-2,0,-2,2,2,2,2,2,2,2,2,2,2,2,2
19388000,0.01609215,0.01498364,0.0003378664,0.0,0.0,1.1641532e-10,0,0,1,0,-2,0,-2,2,2,2,2,2,2,2,2,2,2,2,2
19588000,0.01451216,0.0148221785,-1.4023946e-05,0.0,0.0,3.4924597e-10,0,0,1,0,-2,0,-2,2,2,2,2,2,2,2,2,2,2,2,2
19788000,0.01584736,0.014843615,6.1484454e-05,0.0,0.0,6.9849193e-10,0,0,1,0,-2,0,-2,2,2,2,2,2,2,2,2,2,2,2,2
19988000,0.015843984,0.012878651,0.00021188856,0.0,0.0,-2.3283064e-10,0,0,1,0,-2,0,-2,2,2,2,2,2,2,2,2,2,2,2,2
20180000,0.015251747,0.013252589,0.00074166723,0.0,0.0,1.1641532e-10,0,0,1,0,-2,0,-2,2,2,2,2,2,2,2,2,2,2,2,2
20388000,0.013318988,0.013055474,0.00045759525,0.0,0.0,1.1641532e-10,0,0,1,0,-2,0,-2,2,2,2,2,2,2,2,2,2,2,2,2
20588000,0.014534552,0.014639257,0.00052806665,0.0,0.0,5.820766e-10,0,0,1,0,-2,0,-2,2,2,2,2,2,2,2,2,2,2,2,2
20780000,0.014315153,0.014575848,0.00029605406,0.0,0.0,-1.1641532e-10,0,0,1,0,-2,0,-2,2,2,2,2,2,2,2,2,2,2,2,2
20988000,0.01457458,0.013680171,0.000579126,0.0,0.0,1.1641532e-10,0,0,1,0,-2,0,-2,2,2,2,2,2,2,2,2,2,2,2,2
21188000,0.014621178,0.013914646,0.000103672435,0.0,0.0,1.0477379e-09,0,0,1,0,-2,0,-2,2,2,2,2,2,2,2,2,2,2,2,2
21388000,0.013556895,0.012818894,0.000111632566,0.0,0.0,-1.1641532e-10,0,0,1,0,-2,0,-2,2,2,2,2,2,2,2,2,2,2,2,2
21588000,0.015560031,0.014610956,-0.00015110195,0.0,0.0,-8.1490725e-10,0,0,1,0,-2,0,-2,2,2,2,2,2,2,2,2,2,2,2,2
21788000,0.014977239,0.014767072,0.00052568986,0.0,0.0,1.1641532e-10,0,0,1,0,-2,0,-2,2,2,2,2,2,2,2,2,2,2,2,2
21980000,0.0142661575,0.014268174,0.0006827198,0.0,0.0,1.1641532e-10,0,0,1,0,-2,0,-2,2,2,2,2,2,2,2,2,2,2,2,2
22180000,0.014637709,0.013661373,0.00047535417,0.0,0.0,1.1641532e-10,0,0,1,0,-2,0,-2,2,2,2,2,2,2,2,2,2,2,2,2
22388000,0.014275468,0.012799469,0.0001661477,0.0,0.0,-2.3283064e-10,0,0,1,0,-2,0,-2,2,2,2,2,2,2,2,2,2,2,2,2
22588000,0.015419849,0.0150914425,-0.00015277075,0.0,0.0,5.820766e-10,0,0,1,0,-2,0,-2,2,2,2,2,2,2,2,2,2,2,2,2
22788000,0.014997362,0.0131726395,0.0008434024,0.0,0.0,5.820766e-10,0,0,1,0,-2,0,-2,2,2,2,2,2,2,2,2,2,2,2,2
22988000,0.014061784,0.013949139,0.000576745,0.0,0.0,5.820766e-10,0,0,1,0,-2,0,-2,2,2,2,2,2,2,2,2,2,2,2,2
23188000,0.014773726,0.013231243,0.0001748733,0.0,0.0,-2.3283064e-10,0,0,1,0,-2,0,-2,2,2,2,2,2,2,2,2,2,2,2,2
23380000,0.014701441,0.013220187,-0.0006203636,0.0,0.0,1.1641532e-10,0,0,1,0,-2,0,-2,2,2,2,2,2,2,2,2,2,2,2,2
23588000,0.015713375,0.013733759,0.00034904163,0.0,0.0,1.1641532e-10,0,0,1,0,-2,0,-2,2,2,2,2,2,2,2,2,2,2,2,2
23788000,0.0149188535,0.012942136,-0.00025598166,0.0,0.0,5.820766e-10,0,0,1,0,-2,0,-2,2,2,2,2,2,2,2,2,2,2,2,2
23988000,0.014319503,0.014018571,-4.078263e-05,0.0,0.0,1.1641532e-10,0,0,1,0,-2,0,-2,2,2,2,2,2,2,2,2,2,2,2,2
24188000,0.014368695,0.012872943,0.00024276957,0.0,0.0,5.820766e-10,0,0,1,0,-2,0,-2,2,2,2,2,2,2,2,2,2,2,2,2
24388000,0.013780833,0.012144277,5.8432574e-06,0.0,0.0,1.1641532e-10,0,0,1,0,-2,0,-2,2,2,2,2,2,2,2,2,2,2,2,2
24580000,0.014829247,0.013407838,-0.00020077756,0.0,0.0,1.1641532e-10,0,0,1,0,-2,0,-2,2,2,2,2,2,2,2,2,2,2,2,2
24780000,0.015251368,0.013594653,-4.489324e-07,0.0,0.0,1.1641532e-10,0,0,1,0,-2,0,-2,2,2,2,2,2,2,2,2,2,2,2,2
24988000,0.014022956,0.013333155,-0.00043551787,0.0,0.0,1.1641532e-10,0,0,1,0,-2,0,-2,2,2,2,2,2,2,2,2,2,2,2,2
25188000,0.014477005,0.013330782,0.00017731775,0.0,0.0,1.1641532e-10,0,0,1,0,-2,0,-2,2,2,2,2,2,2,2,2,2,2,2,2
25388000,0.013382701,0.014164423,0.0005226351,0.0,0.0,-2.3283064e-10,0,0,1,0,-2,0,-2,2,2,2,2,2,2,2,2,2,2,2,2
25580000,0.013087202,0.013124326,0.00012302316,0.0,0.0,1.1641532e-10,0,0,1,0,-2,0,-2,2,2,2,2,2,2,2,2,2,2,2,2
25788000,0.014223725,0.013307161,7.285114e-05,0.0,0.0,1.1641532e-10,0,0,1,0,-2,0,-2,2,2,2,2,2,2,2,2,2,2,2,2
25988000,0.013282407,0.01427489,0.00030123326,0.0,0.0,-2.3283064e-10,0,0,1,0,-2,0,-2,2,2,2,2,2,2,2,2,2,2,2,2
26188000,0.014646973,0.013734104,-0.00034564195,0.0,0.0,-8.1490725e-10,0,0,1,0,-2,0,-2,2,2,2,2,2,2,2,2,2,2,2,2
26388000,0.01481912,0.012368981,2.0460431e-05,0.0,0.0,-3.4924597e-10,0,0,1,0,-2,0,-2,2,2,2,2,2,2,2,2,2,2,2,2
26588000,0.0125773745,0.014443029,0.000105819,0.0,0.0,-1.1641532e-10,0,0,1,0,-2,0,-2,2,2,2,2,2,2,2,2,2,2,2,2
26788000,0.014051561,0.012319341,0.0006858251,0.0,0.0,-3.4924597e-10,0,0,1,0,-2,0,-2,2,2,2,2,2,2,2,2,2,2,2,2
26988000,0.014109234,0.013432422,0.00011984854,0.0,0.0,1.1641532e-10,0,0,1,0,-2,0,-2,2,2,2,2,2,2,2,2,2,2,2,2
27188000,0.014181005,0.01332145,9.9325014e-05,0.0,0.0,1.1641532e-10,0,0,1,0,-2,0,-2,2,2,2,2,2,2,2,2,2,2,2,2
27380000,0.013343741,0.013604028,0.00036616065,0.0,0.0,1.1641532e-10,0,0,1,0,-2,0,-2,2,2,2,2,2,2,2,2,2,2,2,2
27580000,0.013284336,0.013541468,0.00020756439,0.0,0.0,-2.3283064e-10,0,0,1,0,-2,0,-2,2,2,2,2,2,2,2,2,2,2,2,2
27788000,0.014289647,0.012578297,0.0005045074,0.0,0.0,1.0477379e-09,0,0,1,0,-2,0,-2,2,2,2,2,2,2,2,2,2,2,2,2
27980000,0.013889357,0.013026719,-0.00020155123,0.0,0.0,1.0477379e-09,0,0,1,0,-2,0,-2,2,2,2,2,2,2,2,2,2,2,2,2
28188000,0.014517495,0.013174159,0.00023607945,0.0,0.0,-2.3283064e-10,0,0,1,0,-2,0,-2,2,2,2,2,2,2,2,2,2,2,2,2
28388000,0.013731395,0.013591775,-0.00014404018,0.0,0.0,1.1641532e-10,0,0,1,0,-2,0,-2,2,2,2,2,2,2,2,2,2,2,2,2
28588000,0.013098727,0.014348107,0.00013128367,0.0,0.0,1.1641532e-10,0,0,1,0,-2,0,-2,2,2,2,2,2,2,2,2,2,2,2,2
28788000,0.013409163,0.012849748,7.192128e-05,0.0,0.0,1.1641532e-10,0,0,1,0,-2,0,-2,2,2,2,2,2,2,2,2,2,2,2,2
28988000,0.0138525525,0.012936685,0.00025667925,0.0,0.0,-2.3283064e-10,0,0,1,0,-2,0,-2,2,2,2,2,2,2,2,2,2,2,2,2
29188000,0.013633106,0.0137242675,0.00017512662,0.0,0.0,-2.3283064e-10,0,0,1,0,-2,0,-2,2,2,2,2,2,2,2,2,2,2,2,2
29388000,0.014087162,0.01502053,0.00017546632,0.0,0.0,5.820766e-10,0,0,1,0,-2,0,-2,2,2,2,2,2,2,2,2,2,2,2,2
29580000,0.013216886,0.014065778,0.00036779034,0.0,0.0,1.1641532e-10,0,0,1,0,-2,0,-2,2,2,2,2,2,2,2,2,2,2,2,2
29788000,0.014029936,0.014397102,0.00038725286,0.0,0.0,1.1641532e-10,0,0,1,0,-2,0,-2,2,2,2,2,2,2,2,2,2,2,2,2
29988000,0.0141966,0.015034121,-3.529453e-05,0.0,0.0,-8.1490725e-10,0,0,1,0,-2,0,-2,2,2,2,2,2,2,2,2,2,2,2,2
30180000,0.01454749,0.013954761,3.714383e-06,0.0,0.0,-3.4924597e-10,0,0,1,0,-2,0,-2,2,2,2,2,2,2,2,2,2,2,2,2
30380000,0.013710373,0.014526254,-0.0005274315,0.0,0.0,-2.3283064e-10,0,0,1,0,-2,0,-2,2,2,2,2,2,2,2,2,2,2,2,2
30588000,0.01390345,0.01390862,0.0001397293,0.0,0.0,1.1641532e-10,0,0,1,0,-2,0,-2,2,2,2,2,2,2,2,2,2,2,2,2
30788000,0.014487341,0.014609791,0.00043479816,0.0,0.0,-1.1641532e-10,0,0,1,0,-2,0,-2,2,2,2,2,2,2,2,2,2,2,2,2
30988000,0.015714956,0.015086907,0.00019582249,0.0,0.0,1.1641532e-10,0,0,1,0,-2,0,-2,2,2,2,2,2,2,2,2,2,2,2,2
31188000,0.014952035,0.0150303105,0.0002449105,0.0,0.0,5.820766e-10,0,0,1,0,-2,0,-2,2,2,2,2,2,2,2,2,2,2,2,2
31380000,0.014774395,0.014391723,0.00042501267,0.0,0.0,-3.4924597e-10,0,0,1,0,-2,0,-2,2,2,2,2,2,2,2,2,2,2,2,2
31588000,0.014369,0.014210658,0.00054475473,0.0,0.0,-8.1490725e-10,0,0,1,0,-2,0,-2,2,2,2,2,2,2,2,2,2,2,2,2
31788000,0.015901744,0.0151934195,0.00033334375,0.0,0.0,-2.3283064e-10,0,0,1,0,-2,0,-2,2,2,2,2,2,2,2,2,2,2,2,2
31988000,0.014520481,0.0148742655,-0.00045953074,0.0,0.0,1.1641532e-10,0,0,1,0,-2,0,-2,2,2,2,2,2,2,2,2,2,2,2,2
32180000,0.014630262,0.015478029,0.00029437122,0.0,0.0,1.1641532e-10,0,0,1,0,-2,0,-2,2,2,2,2,2,2,2,2,2,2,2,2
32388000,0.013739161,0.014161997,-6.623862e-05,0.0,0.0,1.1641532e-10,0,0,1,0,-2,0,-2,2,2,2,2,2,2,2,2,2,2,2,2
32580000,0.013710029,0.016115136,-0.00010134359,0.0,0.0,-2.3283064e-10,0,0,1,0,-2,0,-2,2,2,2,2,2,2,2,2,2,2,2,2
32780000,0.014615054,0.014948603,-0.00012296019,0.0,0.0,-2.3283064e-10,0,0,1,0,-2,0,-2,2,2,2,2,2,2,2,2,2,2,2,2
32988000,0.0152624855,0.015310822,5.4032887e-05,0.0,0.0,1.1641532e-10,0,0,1,0,-2,0,-2,2,2,2,2,2,2,2,2,2,2,2,2
33188000,0.014512855,0.0141807245,0.00042021385,0.0,0.0,4.656613e-10,0,0,1,0,-2,0,-2,2,2,2,2,2,2,2,2,2,2,2,2
33388000,0.015567437,0.015999539,0.00022337321,0.0,0.0,1.1641532e-10,0,0,1,0,-2,0,-2,2,2,2,2,2,2,2,2,2,2,2,2
33580000,0.015382705,0.0149533935,0.0003252633,0.0,0.0,-2.3283064e-10,0,0,1,0,-2,0,-2,2,2,2,2,2,2,2,2,2,2,2,2
33788000,0.015755285,0.0152727645,-0.00011165587,0.0,0.0,-8.1490725e-10,0,0,1,0,-2,0,-2,2,2,2,2,2,2,2,2,2,2,2,2
33988000,0.01625041,0.015005418,0.00014428167,0.0,0.0,1.1641532e-10,0,0,1,0,-2,0,-2,2,2,2,2,2,2,2,2,2,2,2,2
34188000,0.015200478,0.016541878,0.00052490033,0.0,0.0,1.1641532e-10,0,0,1,0,-2,0,-2,2,2,2,2,2,2,2,2,2,2,2,2
34388000,0.014800697,0.016784104,0.0005710756,0.0,0.0,5.820766e-10,0,0,1,0,-2,0,-2,2,2,2,2,2,2,2,2,2,2,2,2
34588000,0.015369827,0.015522522,0.00031919905,0.0,0.0,1.1641532e-10,0,0,1,0,-2,0,-2,2,2,2,2,2,2,2,2,2,2,2,2
34788000,0.014990361,0.015058377,-0.00036663841,0.0,0.0,1.1641532e-10,0,0,1,0,-2,0,-2,2,2,2,2,2,2,2,2,2,2,2,2
34980000,0.013685943,0.015554624,0.00058578537,0.0,0.0,-2.3283064e-10,0,0,1,0,-2,0,-2,2,2,2,2,2,2,2,2,2,2,2,2
35188000,0.0150114605,0.017661499,0.00040113198,0.0,0.0,-2.3283064e-10,0,0,1,0,-2,0,-2,2,2,2,2,2,2,2,2,2,2,2,2
35388000,0.014759263,0.01625095,0.0006203294,0.0,0.0,1.1641532e-10,0,0,1,0,-2,0,-2,2,2,2,2,2,2,2,2,2,2,2,2
35580000,0.014029366,0.015786257,0.00023717115,0.0,0.0,1.1641532e-10,0,0,1,0,-2,0,-2,2,2,2,2,2,2,2,2,2,2,2,2
35780000,0.013952961,0.01622136,0.0003970385,0.0,0.0,1.1641532e-10,0,0,1,0,-2,0,-2,2,2,2,2,2,2,2,2,2,2,2,2
35988000,0.014988318,0.0158934,1.6945896e-05,0.0,0.0,-2.3283064e-10,0,0,1,0,-2,0,-2,2,2,2,2,2,2,2,2,2,2,2,2
36180000,0.01389024,0.01598492,0.0003728856,0.0,0.0,1.1641532e-10,0,0,1,0,-2,0,-2,2,2,2,2,2,2,2,2,2,2,2,2
36388000,0.015202537,0.015256095,0.00026193174,0.0,0.0,-2.3283064e-10,0,0,1,0,-2,0,-2,2,2,2,2,2,2,2,2,2,2,2,2
36580000,0.015188448,0.016699513,1.7681985e-05,0.0,0.0,-5.820766e-10,0,0,1,0,-2,0,-2,2,2,2,2,2,2,2,2,2,2,2,2
36788000,0.015234744,0.017170329,-4.863379e-06,0.0,0.0,1.1641532e-10,0,0,1,0,-2,0,-2,2,2,2,2,2,2,2,2,2,2,2,2
36980000,0.014659166,0.01602152,0.00027836981,0.0,0.0,4.656613e-10,0,0,1,0,-2,0,-2,2,2,2,2,2,2,2,2,2,2,2,2
37188000,0.015012886,0.015569962,4.57446e-05,0.0,0.0,1.1641532e-10,0,0,1,0,-2,0,-2,2,2,2,2,2,2,2,2,2,2,2,2
37388000,0.013713729,0.01625753,0.00045735404,0.0,0.0,-8.1490725e-10,0,0,1,0,-2,0,-2,2,2,2,2,2,2,2,2,2,2,2,2
37588000,0.014806814,0.015790883,-8.009108e-05,0.0,0.0,-2.3283064e-10,0,0,1,0,-2,0,-2,2,2,2,2,2,2,2,2,2,2,2,2
37780000,0.014615622,0.016044548,-0.00027851798,0.0,0.0,-8.1490725e-10,0,0,1,0,-2,0,-2,2,2,2,2,2,2,2,2,2,2,2,2
37988000,0.013980637,0.015560034,0.0006452706,0.0,0.0,1.1641532e-10,0,0,1,0,-2,0,-2,2,2,2,2,2,2,2,2,2,2,2,2
38188000,0.015703306,0.016460652,0.00015617613,0.0,0.0,-8.1490725e-10,0,0,1,0,-2,0,-2,2,2,2,2,2,2,2,2,2,2,2,2
38380000,0.014317502,0.015722506,0.00026785897,0.0,0.0,1.0477379e-09,0,0,1,0,-2,0,-2,2,2,2,2,2,2,2,2,2,2,2,2
38580000,0.01545184,0.016675608,-0.00013691971,0.0,0.0,-5.820766e-10,0,0,1,0,-2,0,-2,2,2,2,2,2,2,2,2,2,2,2,2
38780000,0.013710079,0.01664269,8.718167e-05,0.0,0.0,1.1641532e-10,0,0,1,0,-2,0,-2,2,2,2,2,2,2,2,2,2,2,2,2
38988000,0.014317473,0.016122147,0.00032036263,0.0,0.0,4.656613e-10,0,0,1,0,-2,0,-2,2,2,2,2,2,2,2,2,2,2,2,2
39188000,0.014044536,0.015266518,0.0003486414,0.0,0.0,-3.4924597e-10,0,0,1,0,-2,0,-2,2,2,2,2,2,2,2,2,2,2,2,2
39388000,0.013762379,0.016053194,-0.00021663183,0.0,0.0,-1.1641532e-10,0,0,1,0,-2,0,-2,2,2,2,2,2,2,2,2,2,2,2,2
39588000,0.014324504,0.016233552,0.0005223658,0.0,0.0,4.656613e-10,0,0,1,0,-2,0,-2,2,2,2,2,2,2,2,2,2,2,2,2
39780000,0.013798695,0.015757881,0.00015847717,0.0,0.0,-2.3283064e-10,0,0,1,0,-2,0,-2,2,2,2,2,2,2,2,2,2,2,2,2
39980000,0.013956382,0.017271506,3.841891e-05,0.0,0.0,1.1641532e-10,0,0,1,0,-2,0,-2,2,2,2,2,2,2,2,2,2,2,2,2
40180000,0.013212536,0.016697165,0.00017215809,0.0,0.0,5.820766e-10,0,0,1,0,-2,0,-2,2,2,2,2,2,2,2,2,2,2,2,2
40380000,0.013526777,0.016686907,-0.0001905328,0.0,0.0,1.1641532e-10,0,0,1,0,-2,0,-2,2,2,2,2,2,2,2,2,2,2,2,2
40580000,0.012498897,0.016905418,-1.2073416e-05,0.0,0.0,1.1641532e-10,0,0,1,0,-2,0,-2,2,2,2,2,2,2,2,2,2,2,2,2
40788000,0.013368923,0.015618133,0.0004778367,0.0,0.0,1.1641532e-10,0,0,1,0,-2,0,-2,2,2,2,2,2,2,2,2,2,2,2,2
40988000,0.013028947,0.017155932,0.00046030097,0.0,0.0,-2.3283064e-10,0,0,1,0,-2,0,-2,2,2,2,2,2,2,2,2,2,2,2,2
41188000,0.013568497,0.016196577,1.7788847e-05,0.0,0.0,-1.1641532e-10,0,0,1,0,-2,0,-2,2,2,2,2,2,2,2,2,2,2,2,2
41388000,0.014728778,0.017390613,0.00069453614,0.0,0.0,5.820766e-10,0,0,1,0,-2,0,-2,2,2,2,2,2,2,2,2,2,2,2,2
41588000,0.013782889,0.016716337,0.00034426045,0.0,0.0,5.820766e-10,0,0,1,0,-2,0,-2,2,2,2,2,2,2,2,2,2,2,2,2
41788000,0.01357811,0.01774558,-0.0006144003,0.0,0.0,-3.4924597e-10,0,0,1,0,-2,0,-2,2,2,2,2,2,2,2,2,2,2,2,2
41988000,0.013188333,0.01646098,-2.3817574e-05,0.0,0.0,1.1641532e-10,0,0,1,0,-2,0,-2,2,2,2,2,2,2,2,2,2,2,2,2
42188000,0.013000864,0.017574534,-8.332334e-06,0.0,0.0,-1.1641532e-10,0,0,1,0,-2,0,-2,2,2,2,2,2,2,2,2,2,2,2,2
42388000,0.012742466,0.017556658,-0.00048008907,0.0,0.0,-2.3283064e-10,0,0,1,0,-2,0,-2,2,2,2,2,2,2,2,2,2,2,2,2
42588000,0.012725358,0.017126331,-0.000112431786,0.0,0.0,1.1641532e-10,0,0,1,0,-2,0,-2,2,2,2,2,2,2,2,2,2,2,2,2
42780000,0.01152821,0.016506687,-3.963569e-05,0.0,0.0,-2.3283064e-10,0,0,1,0,-2,0,-2,2,2,2,2,2,2,2,2,2,2,2,2
42988000,0.0130127715,0.017329948,0.00041975884,0.0,0.0,5.820766e-10,0,0,1,0,-2,0,-2,2,2,2,2,2,2,2,2,2,2,2,2
43188000,0.012488909,0.016691398,-3.7345435e-05,0.0,0.0,1.1641532e-10,0,0,1,0,-2,0,-2,2,2,2,2,2,2,2,2,2,2,2,2
43388000,0.012447597,0.017743217,0.00018498879,0.0,0.0,8.1490725e-10,0,0,1,0,-2,0,-2,2,2,2,2,2,2,2,2,2,2,2,2
43588000,0.013024288,0.017685441,-3.2811884e-06,0.0,0.0,1.1641532e-10,0,0,1,0,-2,0,-2,2,2,2,2,2,2,2,2,2,2,2,2
43788000,0.013427943,0.018694606,0.0005586544,0.0,0.0,1.1641532e-10,0,0,1,0,-2,0,-2,2,2,2,2,2,2,2,2,2,2,2,2
43988000,0.012428067,0.017840946,-6.817139e-05,0.0,0.0,-1.1641532e-10,0,0,1,0,-2,0,-2,2,2,2,2,2,2,2,2,2,2,2,2
44180000,0.013166377,0.017407099,-0.00010412619,0.0,0.0,-8.1490725e-10,0,0,1,0,-2,0,-2,2,2,2,2,2,2,2,2,2,2,2,2
44380000,0.011363098,0.016421333,0.00028234368,0.0,0.0,-2.3283064e-10,0,0,1,0,-2,0,-2,2,2,2,2,2,2,2,2,2,2,2,2
44588000,0.013040498,0.018095303,-0.00034754508,0.0,0.0,1.1641532e-10,0,0,1,0,-2,0,-2,2,2,2,2,2,2,2,2,2,2,2,2
44788000,0.012344013,0.017382188,0.00021401267,0.0,0.0,-2.3283064e-10,0,0,1,0,-2,0,-2,2,2,2,2,2,2,2,2,2,2,2,2
44988000,0.011938069,0.016950307,-0.00040550058,0.0,0.0,1.1641532e-10,0,0,1,0,-2,0,-2,2,2,2,2,2,2,2,2,2,2,2,2
45188000,0.011139949,0.01723245,-2.4894165e-05,0.0,0.0,1.1641532e-10,0,0,1,0,-2,0,-2,2,2,2,2,2,2,2,2,2,2,2,2
45388000,0.011206022,0.017966816,0.00012856144,0.0,0.0,-2.3283064e-10,0,0,1,0,-2,0,-2,2,2,2,2,2,2,2,2,2,2,2,2
45588000,0.012360969,0.017025797,-9.094228e-05,0.0,0.0,5.820766e-10,0,0,1,0,-2,0,-2,2,2,2,2,2,2,2,2,2,2,2,2
45788000,0.011718501,0.016936544,-6.890288e-05,0.0,0.0,-2.3283064e-10,0,0,1,0,-2,0,-2,2,2,2,2,2,2,2,2,2,2,2,2
45988000,0.011669102,0.016703136,0.00047028717,0.0,0.0,1.1641532e-10,0,0,1,0,-2,0,-2,2,2,2,2,2,2,2,2,2,2,2,2
46180000,0.011935294,0.016816061,-0.00022563462,0.0,0.0,-2.3283064e-10,0,0,1,0,-2,0,-2,2,2,2,2,2,2,2,2,2,2,2,2
46388000,0.0118919825,0.018281491,0.00045498842,0.0,0.0,-4.656613e-10,0,0,1,0,-2,0,-2,2,2,2,2,2,2,2,2,2,2,2,2
46580000,0.011772728,0.017503297,0.00044595942,0.0,0.0,-1.1641532e-10,0,0,1,0,-2,0,-2,2,2,2,2,2,2,2,2,2,2,2,2
46780000,0.011475554,0.018436167,-3.8170645e-05,0.0,0.0,4.656613e-10,0,0,1,0,-2,0,-2,2,2,2,2,2,2,2,2,2,2,2,2
46988000,0.011896829,0.017383942,0.00029130775,0.0,0.0,1.0477379e-09,0,0,1,0,-2,0,-2,2,2,2,2,2,2,2,2,2,2,2,2
47180000,0.012365823,0.017669043,0.00025394524,0.0,0.0,-2.3283064e-10,0,0,1,0,-2,0,-2,2,2,2,2,2,2,2,2,2,2,2,2
47388000,0.011741612,0.018115887,-0.00065132766,0.0,0.0,1.0477379e-09,0,0,1,0,-2,0,-2,2,2,2,2,2,2,2,2,2,2,2,2
47588000,0.012003374,0.016354859,-0.00010925188,0.0,0.0,5.820766e-10,0,0,1,0,-2,0,-2,2,2,2,2,2,2,2,2,2,2,2,2
47788000,0.011005652,0.016460119,-5.437583e-05,0.0,0.0,1.1641532e-10,0,0,1,0,-2,0,-2,2,2,2,2,2,2,2,2,2,2,2,2
47988000,0.010845424,0.017270796,-0.00026387174,0.0,0.0,4.656613e-10,0,0,1,0,-2,0,-2,2,2,2,2,2,2,2,2,2,2,2,2
48188000,0.011329592,0.017797615,7.905501e-05,0.0,0.0,8.1490725e-10,0,0,1,0,-2,0,-2,2,2,2,2,2,2,2,2,2,2,2,2
48380000,0.011858821,0.016984276,0.0001822605,0.0,0.0,4.656613e-10,0,0,1,0,-2,0,-2,2,2,2,2,2,2,2,2,2,2,2,2
48588000,0.012242101,0.016446535,-8.3103674e-05,0.0,0.0,1.1641532e-10,0,0,1,0,-2,0,-2,2,2,2,2,2,2,2,2,2,2,2,2
48780000,0.0112770675,0.016528958,-0.00013028223,0.0,0.0,-2.3283064e-10,0,0,1,0,-2,0,-2,2,2,2,2,2,2,2,2,2,2,2,2
48988000,0.011531907,0.01728075,0.00022842805,0.0,0.0,3.4924597e-10,0,0,1,0,-2,0,-2,2,2,2,2,2,2,2,2,2,2,2,2
49180000,0.011907816,0.017186003,-0.00012450128,0.0,0.0,1.1641532e-10,0,0,1,0,-2,0,-2,2,2,2,2,2,2,2,2,2,2,2,2
49388000,0.012202122,0.017900338,-0.0005673496,0.0,0.0,-1.1641532e-10,0,0,1,0,-2,0,-2,2,2,2,2,2,2,2,2,2,2,2,2
49588000,0.010484516,0.016959047,0.00026644443,0.0,0.0,-1.1641532e-10,0,0,1,0,-2,0,-2,2,2,2,2,2,2,2,2,2,2,2,2
49788000,0.009508193,0.017052969,-0.0001517686,0.0,0.0,1.1641532e-10,0,0,1,0,-2,0,-2,2,2,2,2,2,2,2,2,2,2,2,2
49980000,0.011387317,0.017389877,0.00025973783,0.0,0.0,1.1641532e-10,0,0,1,0,-2,0,-2,2,2,2,2,2,2,2,2,2,2,2,2
50180000,0.011087419,0.018049613,0.00023516825,0.0,0.0,1.1641532e-10,0,0,1,0,-2,0,-2,2,2,2,2,2,2,2,2,2,2,2,2
50388000,0.010750392,0.017662156,0.00028950832,0.0,0.0,1.1641532e-10,0,0,1,0,-2,0,-2,2,2,2,2,2,2,2,2,2,2,2,2
50588000,0.010425501,0.018036835,0.0002898986,0.0,0.0,5.820766e-10,0,0,1,0,-2,0,-2,2,2,2,2,2,2,2,2,2,2,2,2
50788000,0.010381382,0.018283315,-3.906176e-05,0.0,0.0,-2.3283064e-10,0,0,1,0,-2,0,-2,2,2,2,2,2,2,2,2,2,2,2,2
50988000,0.011055558,0.017300492,0.00023159778,0.0,0.0,-2.3283064e-10,0,0,1,0,-2,0,-2,2,2,2,2,2,2,2,2,2,2,2,2
51188000,0.010065938,0.01663417,0.00042540237,0.0,0.0,4.656613e-10,0,0,1,0,-2,0,-2,2,2,2,2,2,2,2,2,2,2,2,2
51380000,0.009996478,0.018109895,-2.9160488e-05,0.0,0.0,3.4924597e-10,0,0,1,0,-2,0,-2,2,2,2,2,2,2,2,2,2,2,2,2
51588000,0.010996697,0.017799854,-0.00040791262,0.0,0.0,4.656613e-10,0,0,1,0,-2,0,-2,2,2,2,2,2,2,2,2,2,2,2,2
51780000,0.010013927,0.017899955,-6.505151e-07,0.0,0.0,-2.3283064e-10,0,0,1,0,-2,0,-2,2,2,2,2,2,2,2,2,2,2,2,2
51988000,0.009921434,0.017323848,-0.00014614598,0.0,0.0,3.4924597e-10,0,0,1,0,-2,0,-2,2,2,2,2,2,2,2,2,2,2,2,2
52188000,0.010682694,0.01789975,0.00036233728,0.0,0.0,5.820766e-10,0,0,1,0,-2,0,-2,2,2,2,2,2,2,2,2,2,2,2,2
52388000,0.009810193,0.017646756,-0.00019425724,0.0,0.0,8.1490725e-10,0,0,1,0,-2,0,-2,2,2,2,2,2,2,2,2,2,2,2,2
52588000,0.010443523,0.018163403,-0.00016978709,0.0,0.0,1.1641532e-10,0,0,1,0,-2,0,-2,2,2,2,2,2,2,2,2,2,2,2,2
52780000,0.011660178,0.018123638,0.0001229893,0.0,0.0,-2.3283064e-10,0,0,1,0,-2,0,-2,2,2,2,2,2,2,2,2,2,2,2,2
52988000,0.009581631,0.01711545,-0.0003963617,0.0,0.0,5.820766e-10,0,0,1,0,-2,0,-2,2,2,2,2,2,2,2,2,2,2,2,2
53188000,0.00972969,0.017338624,-0.00040506615,0.0,0.0,1.1641532e-10,0,0,1,0,-2,0,-2,2,2,2,2,2,2,2,2,2,2,2,2
53388000,0.010436626,0.017625717,0.00025938053,0.0,0.0,3.4924597e-10,0,0,1,0,-2,0,-2,2,2,2,2,2,2,2,2,2,2,2,2
53588000,0.009585988,0.017559601,-0.00041064626,0.0,0.0,-2.3283064e-10,0,0,1,0,-2,0,-2,2,2,2,2,2,2,2,2,2,2,2,2
53788000,0.0102010425,0.017731126,-0.00031913508,0.0,0.0,-1.1641532e-10,0,0,1,0,-2,0,-2,2,2,2,2,2,2,2,2,2,2,2,2
53988000,0.010108413,0.01970347,0.0005872222,0.0,0.0,3.4924597e-10,0,0,1,0,-2,0,-2,2,2,2,2,2,2,2,2,2,2,2,2
54188000,0.011388916,0.017763283,-0.00010908869,0.0,0.0,5.820766e-10,0,0,1,0,-2,0,-2,2,2,2,2,2,2,2,2,2,2,2,2
54388000,0.009717315,0.017420512,2.096214e-05,0.0,0.0,-1.1641532e-10,0,0,1,0,-2,0,-2,2,2,2,2,2,2,2,2,2,2,2,2
54588000,2.7939677e-09,0.0,-1.4733814e-09,0.0,0.0,-3.7252903e-09,0,1,1,0,0,0,0,2,2,2,2,2,2,2,2,2,2,2,2
54788000,0.0,0.0,-2.3283064e-10,0.0,0.0,0.0,0,1,1,0,0,0,0,2,2,2,2,2,2,2,2,2,2,2,2
54988000,-8.8475645e-09,-3.7252903e-09,-3.1723175e-09,0.0,0.0,-1.4901161e-08,0,1,1,0,0,0,0,2,2,2,2,2,2,2,2,2,2,2,2
55188000,-7.916242e-09,5.5879354e-09,7.712515e-10,0.0,0.0,-1.4901161e-08,0,1,1,0,0,0,0,2,2,2,2,2,2,2,2,2,2,2,2
55388000,-1.9557774e-08,2.2351742e-08,2.8376235e-10,0.0,0.0,0.0,0,1,1,0,0,0,0,2,2,2,2,2,2,2,2,2,2,2,2
55588000,-5.029142e-08,3.7252903e-09,4.656613e-10,0.0,0.0,-2.9802322e-08,0,1,1,0,0,0,0,2,2,2,2,2,2,2,2,2,2,2,2
55788000,2.3283064e-09,0.0,-1.7156708e-08,0.0,0.0,0.0,0,1,1,0,0,0,0,2,2,2,2,2,2,2,2,2,2,2,2
55988000,-1.3504177e-08,2.2351742e-08,1.0477379e-09,0.0,0.0,-2.9802322e-08,0,1,1,0,0,0,0,2,2,2,2,2,2,2,2,2,2,2,2
56188000,-8.381903e-09,1.1175871e-08,-1.3620593e-08,0.0,0.0,-5.9604645e-08,0,1,1,0,0,0,0,2,2,2,2,2,2,2,2,2,2,2,2
56388000,-2.7939677e-09,0.0,-7.82893e-09,0.0,0.0,0.0,0,1,1,0,0,0,0,2,2,2,2,2,2,2,2,2,2,2,2
56588000,0.0,-1.4901161e-08,8.731149e-09,0.0,0.0,-2.9802322e-08,0,1,1,0,0,0,0,2,2,2,2,2,2,2,2,2,2,2,2
56788000,-5.5879354e-09,1.4901161e-08,-7.858034e-09,0.0,0.0,0.0,0,1,1,0,0,0,0,2,2,2,2,2,2,2,2,2,2,2,2
56980000,9.546056e-09,-2.9802322e-08,-2.1333108e-08,0.0,0.0,0.0,0,1,1,0,0,0,0,2,2,2,2,2,2,2,2,2,2,2,2
57188000,1.2572855e-08,7.450581e-09,-2.2613676e-08,0.0,0.0,0.0,0,1,1,0,0,0,0,2,2,2,2,2,2,2,2,2,2,2,2
57388000,6.9849193e-10,-3.7252903e-08,-2.8376235e-08,0.0,0.0,-5.9604645e-08,0,1,1,0,0,0,0,2,2,2,2,2,2,2,2,2,2,2,2
57588000,-1.3504177e-08,7.450581e-09,-1.1837983e-08,0.0,0.0,-5.9604645e-08,0,1,1,0,0,0,0,2,2,2,2,2,2,2,2,2,2,2,2
57780000,-7.636845e-08,0.0,2.1289452e-08,0.0,0.0,-5.9604645e-08,0,1,1,0,0,0,0,2,2,2,2,2,2,2,2,2,2,2,2
57988000,-2.8405339e-08,-4.656613e-09,3.463356e-08,0.0,0.0,0.0,0,1,1,0,0,0,0,2,2,2,2,2,2,2,2,2,2,2,2
58188000,5.8556907e-08,1.1175871e-08,-6.0535967e-09,0.0,0.0,0.0,0,1,1,0,0,0,0,2,2,2,2,2,2,2,2,2,2,2,2
58380000,-7.0547685e-08,-1.8626451e-09,-1.6141712e-08,0.0,0.0,-5.9604645e-08,0,1,1,0,0,0,0,2,2,2,2,2,2,2,2,2,2,2,2
58588000,-4.4237822e-09,-3.1199306e-08,-9.109499e-09,0.0,0.0,0.0,0,1,1,0,0,0,0,2,2,2,2,2,2,2,2,2,2,2,2
58788000,-5.8118303e-08,6.9849193e-09,-1.0180884e-08,0.0,0.0,-5.9604645e-08,0,1,1,0,0,0,0,2,2,2,2,2,2,2,2,2,2,2,2
58980000,2.9394869e-09,2.142042e-08,-1.12413545e-08,0.0,0.0,5.9604645e-08,0,1,1,0,0,0,0,2,2,2,2,2,2,2,2,2,2,2,2
59188000,4.4616172e-08,2.7008355e-08,1.2456439e-08,0.0,0.0,-5.9604645e-08,0,1,1,0,0,0,0,2,2,2,2,2,2,2,2,2,2,2,2
59388000,-2.4272595e-08,-2.7474016e-08,1.5366822e-08,0.0,0.0,0.0,0,1,1,0,0,0,0,2,2,2,2,2,2,2,2,2,2,2,2
59588000,1.3620593e-08,2.3748726e-08,1.6516424e-09,0.0,0.0,0.0,0,1,1,0,0,0,0,2,2,2,2,2,2,2,2,2,2,2,2
59788000,-1.4173565e-08,-2.2351742e-08,3.207242e-08,0.0,0.0,-5.9604645e-08,0,1,1,0,0,0,0,2,2,2,2,2,2,2,2,2,2,2,2
59988000,-5.2619725e-08,-9.313226e-10,9.6915755e-09,0.0,0.0,0.0,0,1,1,0,0,0,0,2,2,2,2,2,2,2,2,2,2,2,2
60188000,-3.835885e-08,1.6763806e-08,5.7771103e-09,0.0,0.0,-5.9604645e-08,0,1,1,0,0,0,0,2,2,2,2,2,2,2,2,2,2,2,2
60388000,-6.6065695e-08,-3.259629e-08,-1.0535587e-08,0.0,0.0,-5.9604645e-08,0,1,1,0,0,0,0,2,2,2,2,2,2,2,2,2,2,2,2
60580000,-1.6210834e-08,1.071021e-08,-3.608875e-09,0.0,0.0,-5.9604645e-08,0,1,1,0,0,0,0,2,2,2,2,2,2,2,2,2,2,2,2
60788000,-7.392373e-08,2.561137e-09,9.218638e-09,0.0,0.0,0.0,0,1,1,0,0,0,0,2,2,2,2,2,2,2,2,2,2,2,2
60988000,-5.2619725e-08,-1.2805685e-08,-8.178176e-09,0.0,0.0,-5.9604645e-08,0,1,1,0,0,0,0,2,2,2,2,2,2,2,2,2,2,2,2
61188000,4.1763997e-08,6.519258e-09,-5.6024874e-09,0.0,0.0,-5.9604645e-08,0,1,1,0,0,0,0,2,2,2,2,2,2,2,2,2,2,2,2
61388000,-7.479684e-09,3.1432137e-08,-2.4971087e-08,0.0,0.0,0.0,0,1,1,0,0,0,0,2,2,2,2,2,2,2,2,2,2,2,2
61588000,4.2142347e-08,-1.7695129e-08,-3.6205165e-08,0.0,0.0,-5.9604645e-08,0,1,1,0,0,0,0,2,2,2,2,2,2,2,2,2,2,2,2
61780000,8.58563e-09,1.0244548e-08,1.8626451e-09,0.0,0.0,0.0,0,1,1,0,0,0,0,2,2,2,2,2,2,2,2,2,2,2,2
61980000,3.434252e-08,-1.816079e-08,-4.4019544e-09,0.0,0.0,-5.9604645e-08,0,1,1,0,0,0,0,2,2,2,2,2,2,2,2,2,2,2,2
62188000,-1.0011718e-08,6.9849193e-09,6.166374e-10,0.0,0.0,-5.9604645e-08,0,1,1,0,0,0,0,2,2,2,2,2,2,2,2,2,2,2,2
62388000,-4.8894435e-09,4.656613e-09,-1.5308615e-08,0.0,0.0,-5.9604645e-08,0,1,1,0,0,0,0,2,2,2,2,2,2,2,2,2,2,2,2
62588000,-2.6309863e-08,2.3283064e-09,-3.7776772e-08,0.0,0.0,0.0,0,1,1,0,0,0,0,2,2,2,2,2,2,2,2,2,2,2,2
62788000,-6.897608e-08,-1.7695129e-08,-1.1496013e-08,0.0,0.0,-5.9604645e-08,0,1,1,0,0,0,0,2,2,2,2,2,2,2,2,2,2,2,2
62988000,-6.199116e-08,-6.9849193e-09,-1.8073479e-08,0.0,0.0,0.0,0,1,1,0,0,0,0,2,2,2,2,2,2,2,2,2,2,2,2
63180000,-6.298069e-08,-6.519258e-09,2.401066e-08,0.0,0.0,-5.9604645e-08,0,1,1,0,0,0,0,2,2,2,2,2,2,2,2,2,2,2,2
63388000,-6.635446e-09,2.7939677e-08,-1.3198587e-08,0.0,0.0,0.0,0,1,1,0,0,0,0,2,2,2,2,2,2,2,2,2,2,2,2
63588000,9.086216e-08,9.313226e-10,-3.929017e-09,0.0,0.0,0.0,0,1,1,0,0,0,0,2,2,2,2,2,2,2,2,2,2,2,2
63780000,1.0477379e-07,2.165325e-08,-9.051291e-09,0.0,0.0,-5.9604645e-08,0,1,1,0,0,0,0,2,2,2,2,2,2,2,2,2,2,2,2
63980000,1.0593794e-08,4.0745363e-08,-2.1711458e-08,0.0,0.0,-5.9604645e-08,0,1,1,0,0,0,0,2,2,2,2,2,2,2,2,2,2,2,2
64180000,2.1951564e-08,4.1909516e-09,1.0186341e-09,0.0,0.0,0.0,0,1,1,0,0,0,0,2,2,2,2,2,2,2,2,2,2,2,2
64388000,4.2433385e-08,-6.519258e-09,-2.4418114e-08,0.0,0.0,-5.9604645e-08,0,1,1,0,0,0,0,2,2,2,2,2,2,2,2,2,2,2,2
64580000,1.5250407e-08,-2.7939677e-08,1.2485543e-08,0.0,0.0,-1.1920929e-07,0,1,1,0,0,0,0,2,2,2,2,2,2,2,2,2,2,2,2
64780000,-2.6717316e-08,4.1909516e-09,2.0845619e-08,0.0,0.0,-5.9604645e-08,0,1,1,0,0,0,0,2,2,2,2,2,2,2,2,2,2,2,2
64988000,2.287561e-08,2.8405339e-08,-2.9816874e-08,0.0,0.0,-1.1920929e-07,0,1,1,0,0,0,0,2,2,2,2,2,2,2,2,2,2,2,2
65188000,3.457535e-08,2.4912879e-08,-1.5403202e-08,0.0,0.0,-5.9604645e-08,0,1,1,0,0,0,0,2,2,2,2,2,2,2,2,2,2,2,2
65388000,6.68515e-08,-1.0244548e-08,4.7148205e-09,0.0,0.0,0.0,0,1,1,0,0,0,0,2,2,2,2,2,2,2,2,2,2,2,2
65588000,1.4202669e-08,-3.5390258e-08,-1.1019438e-08,0.0,0.0,-5.9604645e-08,0,1,1,0,0,0,0,2,2,2,2,2,2,2,2,2,2,2,2
65788000,1.2340024e-08,5.075708e-08,-2.73576e-09,0.0,0.0,-5.9604645e-08,0,1,1,0,0,0,0,2,2,2,2,2,2,2,2,2,2,2,2
65980000,-1.4377292e-08,1.7695129e-08,-1.9848812e-08,0.0,0.0,0.0,0,1,1,0,0,0,0,2,2,2,2,2,2,2,2,2,2,2,2
66180000,3.8417056e-08,3.3993274e-08,2.347224e-08,0.0,0.0,-5.9604645e-08,0,1,1,0,0,0,0,2,2,2,2,2,2,2,2,2,2,2,2
66388000,-6.298069e-08,3.632158e-08,1.2340024e-08,0.0,0.0,0.0,0,1,1,0,0,0,0,2,2,2,2,2,2,2,2,2,2,2,2
66588000,5.0014933e-08,-9.313226e-09,-9.564246e-09,0.0,0.0,-5.9604645e-08,0,1,1,0,0,0,0,2,2,2,2,2,2,2,2,2,2,2,2
66788000,-3.644891e-08,2.188608e-08,2.0416337e-08,0.0,0.0,-5.9604645e-08,0,1,1,0,0,0,0,2,2,2,2,2,2,2,2,2,2,2,2
66988000,1.5366822e-08,-1.9324943e-08,-1.3518729e-08,0.0,0.0,0.0,0,1,1,0,0,0,0,2,2,2,2,2,2,2,2,2,2,2,2
67188000,-6.285518e-08,4.004687e-08,-1.268927e-08,0.0,0.0,0.0,0,1,1,0,0,0,0,2,2,2,2,2,2,2,2,2,2,2,2
67380000,3.160676e-08,1.3969839e-08,-1.0411895e-08,0.0,0.0,0.0,0,1,1,0,0,0,0,2,2,2,2,2,2,2,2,2,2,2,2
67588000,6.146729e-08,-1.7229468e-08,-1.542503e-08,0.0,0.0,0.0,0,1,1,0,0,0,0,2,2,2,2,2,2,2,2,2,2,2,2
67788000,-6.817572e-08,5.6345016e-08,2.4941983e-08,0.0,0.0,0.0,0,1,1,0,0,0,0,2,2,2,2,2,2,2,2,2,2,2,2
67980000,-3.806781e-08,1.5832484e-08,-4.033791e-08,0.0,0.0,-5.9604645e-08,0,1,1,0,0,0,0,2,2,2,2,2,2,2,2,2,2,2,2
68188000,-2.9569492e-08,-4.33065e-08,-2.2973836e-08,0.0,0.0,-5.9604645e-08,0,1,1,0,0,0,0,2,2,2,2,2,2,2,2,2,2,2,2
68388000,-9.415089e-09,-2.188608e-08,-1.2892997e-08,0.0,0.0,-5.9604645e-08,0,1,1,0,0,0,0,2,2,2,2,2,2,2,2,2,2,2,2
68580000,7.345807e-08,-6.0535967e-09,-2.1536835e-09,0.0,0.0,0.0,0,1,1,0,0,0,0,2,2,2,2,2,2,2,2,2,2,2,2
68788000,5.1950337e-09,-1.3969839e-08,2.1915184e-08,0.0,0.0,0.0,0,1,1,0,0,0,0,2,2,2,2,2,2,2,2,2,2,2,2
68988000,8.619827e-08,-1.0244548e-08,6.5774657e-09,0.0,0.0,0.0,0,1,1,0,0,0,0,2,2,2,2,2,2,2,2,2,2,2,2
69188000,2.2351742e-08,-9.313226e-10,-8.119969e-09,0.0,0.0,-1.1920929e-07,0,1,1,0,0,0,0,2,2,2,2,2,2,2,2,2,2,2,2
69388000,2.8812792e-08,9.313226e-10,1.094304e-08,0.0,0.0,0.0,0,1,1,0,0,0,0,2,2,2,2,2,2,2,2,2,2,2,2
69588000,2.3297616e-08,1.4901161e-08,1.8044375e-09,0.0,0.0,0.0,0,1,1,0,0,0,0,2,2,2,2,2,2,2,2,2,2,2,2
69788000,-6.810296e-08,-9.080395e-09,-8.28004e-09,0.0,0.0,0.0,0,1,1,0,0,0,0,2,2,2,2,2,2,2,2,2,2,2,2
69988000,2.9278453e-08,2.3283064e-09,-2.27883e-08,0.0,0.0,0.0,0,1,1,0,0,0,0,2,2,2,2,2,2,2,2,2,2,2,2
70188000,7.3050614e-09,4.656613e-09,-2.2904715e-08,0.0,0.0,-5.9604645e-08,0,1,1,0,0,0,0,2,2,2,2,2,2,2,2,2,2,2,2
70388000,-1.1612428e-08,-8.8475645e-09,1.306762e-08,0.0,0.0,0.0,0,1,1,0,0,0,0,2,2,2,2,2,2,2,2,2,2,2,2
70588000,5.2816176e-08,-4.656613e-10,1.3008048e-09,0.0,0.0,-5.9604645e-08,0,1,1,0,0,0,0,2,2,2,2,2,2,2,2,2,2,2,2
70780000,5.7159923e-08,-9.778887e-09,5.361653e-08,0.0,0.0,-5.9604645e-08,0,1,1,0,0,0,0,2,2,2,2,2,2,2,2,2,2,2,2
70988000,1.14087015e-08,1.8626451e-08,-7.4214768e-09,0.0,0.0,-5.9604645e-08,0,1,1,0,0,0,0,2,2,2,2,2,2,2,2,2,2,2,2
71188000,-9.051291e-09,-1.1874363e-08,-2.642264e-08,0.0,0.0,5.9604645e-08,0,1,1,0,0,0,0,2,2,2,2,2,2,2,2,2,2,2,2
71388000,1.0477379e-09,-1.7229468e-08,-2.3108441e-08,0.0,0.0,-5.9604645e-08,0,1,1,0,0,0,0,2,2,2,2,2,2,2,2,2,2,2,2
71588000,2.1115738e-08,-8.381903e-09,-2.2017048e-08,0.0,0.0,-5.9604645e-08,0,1,1,0,0,0,0,2,2,2,2,2,2,2,2,2,2,2,2
71788000,-2.3748726e-08,-7.450581e-09,3.13521e-08,0.0,0.0,-5.9604645e-08,0,1,1,0,0,0,0,2,2,2,2,2,2,2,2,2,2,2,2
71980000,-6.548362e-08,4.1909516e-08,8.978532e-09,0.0,0.0,-5.9604645e-08,0,1,1,0,0,0,0,2,2,2,2,2,2,2,2,2,2,2,2
72180000,2.863817e-08,3.213063e-08,-2.5844201e-08,0.0,0.0,0.0,0,1,1,0,0,0,0,2,2,2,2,2,2,2,2,2,2,2,2
72388000,-7.2293915e-08,-3.259629e-09,6.4610504e-09,0.0,0.0,-1.1920929e-07,0,1,1,0,0,0,0,2,2,2,2,2,2,2,2,2,2,2,2
72588000,1.2587407e-08,2.7008355e-08,1.1084921e-08,0.0,0.0,-5.9604645e-08,0,1,1,0,0,0,0,2,2,2,2,2,2,2,2,2,2,2,2
72780000,5.1571988e-08,-1.792796e-08,-1.0608346e-08,0.0,0.0,-5.9604645e-08,0,1,1,0,0,0,0,2,2,2,2,2,2,2,2,2,2,2,2
72988000,1.268927e-08,2.9802322e-08,-2.0943844e-08,0.0,0.0,-1.1920929e-07,0,1,1,0,0,0,0,2,2,2,2,2,2,2,2,2,2,2,2
73188000,-3.6379788e-09,-1.6763806e-08,-1.2987584e-08,0.0,0.0,-5.9604645e-08,0,1,1,0,0,0,0,2,2,2,2,2,2,2,2,2,2,2,2
73380000,-5.2095857e-09,-2.9802322e-08,-1.5017577e-08,0.0,0.0,-5.9604645e-08,0,1,1,0,0,0,0,2,2,2,2,2,2,2,2,2,2,2,2
73580000,-5.54719e-08,-1.0477379e-08,8.760253e-09,0.0,0.0,-5.9604645e-08,0,1,1,0,0,0,0,2,2,2,2,2,2,2,2,2,2,2,2
73780000,-6.6873326e-08,-9.313226e-10,-2.3719622e-08,0.0,0.0,-5.9604645e-08,0,1,1,0,0,0,0,2,2,2,2,2,2,2,2,2,2,2,2
73980000,-4.307367e-08,-7.916242e-09,1.0073563e-08,0.0,0.0,0.0,0,1,1,0,0,0,0,2,2,2,2,2,2,2,2,2,2,2,2
74188000,1.8801074e-08,0.0,-3.2552634e-08,0.0,0.0,-5.9604645e-08,0,1,1,0,0,0,0,2,2,2,2,2,2,2,2,2,2,2,2
74388000,1.3737008e-08,1.6065314e-08,-2.1565938e-08,0.0,0.0,-5.9604645e-08,0,1,1,0,0,0,0,2,2,2,2,2,2,2,2,2,2,2,2
74588000,-5.0407834e-08,-1.3969839e-08,-1.97615e-08,0.0,0.0,0.0,0,1,1,0,0,0,0,2,2,2,2,2,2,2,2,2,2,2,2
74780000,-4.6391506e-08,-2.7474016e-08,2.582965e-09,0.0,0.0,0.0,0,1,1,0,0,0,0,2,2,2,2,2,2,2,2,2,2,2,2
74988000,6.472692e-08,2.6077032e-08,-1.4726538e-08,0.0,0.0,-5.9604645e-08,0,1,1,0,0,0,0,2,2,2,2,2,2,2,2,2,2,2,2
75188000,-2.9976945e-09,-2.9336661e-08,1.1641532e-08,0.0,0.0,-5.9604645e-08,0,1,1,0,0,0,0,2,2,2,2,2,2,2,2,2,2,2,2
75380000,1.21071935e-08,-2.0489097e-08,-2.671004e-08,0.0,0.0,0.0,0,1,1,0,0,0,0,2,2,2,2,2,2,2,2,2,2,2,2
75580000,-4.3582986e-08,-1.3038516e-08,-4.452886e-09,0.0,0.0,0.0,0,1,1,0,0,0,0,2,2,2,2,2,2,2,2,2,2,2,2
75788000,1.21071935e-08,-1.4901161e-08,4.7148205e-09,0.0,0.0,5.9604645e-08,0,1,1,0,0,0,0,2,2,2,2,2,2,2,2,2,2,2,2
75980000,-6.3009793e-09,4.284084e-08,-2.3865141e-08,0.0,0.0,0.0,0,1,1,0,0,0,0,2,2,2,2,2,2,2,2,2,2,2,2
76188000,4.5867637e-08,-1.9557774e-08,2.3990196e-08,0.0,0.0,-5.9604645e-08,0,1,1,0,0,0,0,2,2,2,2,2,2,2,2,2,2,2,2
76388000,1.7636921e-08,-1.7229468e-08,9.604264e-10,0.0,0.0,-5.9604645e-08,0,1,1,0,0,0,0,2,2,2,2,2,2,2,2,2,2,2,2
76580000,-8.381903e-09,-1.2572855e-08,1.8004357e-08,0.0,0.0,-5.9604645e-08,0,1,1,0,0,0,0,2,2,2,2,2,2,2,2,2,2,2,2
76780000,3.0355295e-08,3.3993274e-08,-1.9092113e-08,0.0,0.0,-5.9604645e-08,0,1,1,0,0,0,0,2,2,2,2,2,2,2,2,2,2,2,2
76980000,1.094304e-08,4.656613e-08,-1.7607817e-08,0.0,0.0,0.0,0,1,1,0,0,0,0,2,2,2,2,2,2,2,2,2,2,2,2
77188000,1.6298145e-09,-1.1641532e-08,-5.0640665e-09,0.0,0.0,-5.9604645e-08,0,1,1,0,0,0,0,2,2,2,2,2,2,2,2,2,2,2,2
77388000,-3.1664968e-08,-1.7695129e-08,5.516995e-09,0.0,0.0,-5.9604645e-08,0,1,1,0,0,0,0,2,2,2,2,2,2,2,2,2,2,2,2
77588000,3.6030542e-08,2.2351742e-08,-3.3323886e-09,0.0,0.0,-5.9604645e-08,0,1,1,0,0,0,0,2,2,2,2,2,2,2,2,2,2,2,2
77788000,5.3318217e-08,-8.381903e-09,3.032619e-08,0.0,0.0,5.9604645e-08,0,1,1,0,0,0,0,2,2,2,2,2,2,2,2,2,2,2,2
77988000,9.95351e-09,-2.0489097e-08,-2.2422682e-08,0.0,0.0,0.0,0,1,1,0,0,0,0,2,2,2,2,2,2,2,2,2,2,2,2
78188000,6.100163e-08,3.7252903e-09,-1.4231773e-08,0.0,0.0,-5.9604645e-08,0,1,1,0,0,0,0,2,2,2,2,2,2,2,2,2,2,2,2
78380000,-5.227048e-08,2.0954758e-08,6.7811925e-09,0.0,0.0,0.0,0,1,1,0,0,0,0,2,2,2,2,2,2,2,2,2,2,2,2
78588000,-2.3166649e-08,6.9849193e-10,2.9205694e-08,0.0,0.0,0.0,0,1,1,0,0,0,0,2,2,2,2,2,2,2,2,2,2,2,2
78788000,6.1438186e-08,-2.8172508e-08,2.7110218e-08,0.0,0.0,-5.9604645e-08,0,1,1,0,0,0,0,2,2,2,2,2,2,2,2,2,2,2,2
78988000,-2.6193447e-09,3.0500814e-08,2.606248e-08,0.0,0.0,0.0,0,1,1,0,0,0,0,2,2,2,2,2,2,2,2,2,2,2,2
79188000,-3.9639417e-08,7.450581e-09,3.1141099e-09,0.0,0.0,0.0,0,1,1,0,0,0,0,2,2,2,2,2,2,2,2,2,2,2,2
79388000,-4.7293724e-08,-3.0733645e-08,-4.802132e-08,0.0,0.0,-5.9604645e-08,0,1,1,0,0,0,0,2,2,2,2,2,2,2,2,2,2,2,2
79588000,-1.382432e-09,2.7939677e-09,-2.416995e-08,0.0,0.0,0.0,0,1,1,0,0,0,0,2,2,2,2,2,2,2,2,2,2,2,2
79788000,7.497147e-08,-9.313226e-10,-2.73576e-08,0.0,0.0,0.0,0,1,1,0,0,0,0,2,2,2,2,2,2,2,2,2,2,2,2
79988000,-4.1909516e-09,-9.080395e-09,-2.4680048e-08,0.0,0.0,-5.9604645e-08,0,1,1,0,0,0,0,2,2,2,2,2,2,2,2,2,2,2,2
80188000,-1.4610123e-08,-6.519258e-09,1.778244e-08,0.0,0.0,0.0,0,1,1,0,0,0,0,2,2,2,2,2,2,2,2,2,2,2,2
80388000,-6.519258e-08,-2.7939677e-09,-4.010508e-08,0.0,0.0,0.0,0,1,1,0,0,0,0,2,2,2,2,2,2,2,2,2,2,2,2
80588000,4.8195943e-08,-2.3283064e-10,7.043127e-09,0.0,0.0,-5.9604645e-08,0,1,1,0,0,0,0,2,2,2,2,2,2,2,2,2,2,2,2
80780000,-5.5879354e-08,1.5133992e-08,1.4260877e-09,0.0,0.0,5.9604645e-08,0,1,1,0,0,0,0,2,2,2,2,2,2,2,2,2,2,2,2
80988000,4.132744e-09,2.863817e-08,-2.2992026e-09,0.0,0.0,-5.9604645e-08,0,1,1,0,0,0,0,2,2,2,2,2,2,2,2,2,2,2,2
81188000,3.632158e-08,-9.313226e-10,3.0879164e-08,0.0,0.0,-5.9604645e-08,0,1,1,0,0,0,0,2,2,2,2,2,2,2,2,2,2,2,2
81388000,-4.0396117e-08,6.9849193e-09,4.2111424e-08,0.0,0.0,-5.9604645e-08,0,1,1,0,0,0,0,2,2,2,2,2,2,2,2,2,2,2,2
81588000,-7.916242e-09,-2.7008355e-08,-5.3696567e-09,0.0,0.0,0.0,0,1,1,0,0,0,0,2,2,2,2,2,2,2,2,2,2,2,2
81788000,5.9444574e-08,-7.450581e-09,5.476977e-09,0.0,0.0,-5.9604645e-08,0,1,1,0,0,0,0,2,2,2,2,2,2,2,2,2,2,2,2
81988000,-7.485505e-08,-4.1909516e-09,-1.8604624e-08,0.0,0.0,-5.9604645e-08,0,1,1,0,0,0,0,2,2,2,2,2,2,2,2,2,2,2,2
82188000,1.8626451e-09,-2.7939677e-09,-1.2048986e-08,0.0,0.0,0.0,0,1,1,0,0,0,0,2,2,2,2,2,2,2,2,2,2,2,2
82388000,1.6763806e-08,-1.8626451e-09,-9.749783e-09,0.0,0.0,0.0,0,1,1,0,0,0,0,2,2,2,2,2,2,2,2,2,2,2,2
82588000,-7.450581e-09,-9.313226e-09,8.178176e-09,0.0,0.0,2.9802322e-08,0,1,1,0,0,0,0,2,2,2,2,2,2,2,2,2,2,2,2
82780000,2.6077032e-08,1.1175871e-08,-1.40853444e-08,0.0,0.0,0.0,0,1,1,0,0,0,0,2,2,2,2,2,2,2,2,2,2,2,2
82988000,-4.0978193e-08,-9.313226e-09,3.8271537e-09,0.0,0.0,0.0,0,1,1,0,0,0,0,2,2,2,2,2,2,2,2,2,2,2,2
83188000,-1.4901161e-08,1.4901161e-08,-9.895302e-10,0.0,0.0,0.0,0,1,1,0,0,0,0,2,2,2,2,2,2,2,2,2,2,2,2
83388000,0.0,-3.7252903e-09,-9.487849e-09,0.0,0.0,-1.4901161e-08,0,1,1,0,0,0,0,2,2,2,2,2,2,2,2,2,2,2,2
83588000,-1.1175871e-08,0.0,5.2095857e-09,0.0,0.0,0.0,0,1,1,0,0,0,0,2,2,2,2,2,2,2,2,2,2,2,2
83780000,-2.2351742e-08,3.7252903e-09,6.9849193e-10,0.0,0.0,0.0,0,1,1,0,0,0,0,2,2,2,2,2,2,2,2,2,2,2,2
83988000,-1.4901161e-08,-3.7252903e-09,-2.9758667e-09,0.0,0.0,0.0,0,1,1,0,0,0,0,2,2,2,2,2,2,2,2,2,2,2,2
84188000,-7.450581e-09,3.7252903e-09,5.355105e-09,0.0,0.0,-7.450581e-09,0,1,1,0,0,0,0,2,2,2,2,2,2,2,2,2,2,2,2
84388000,0.0,0.0,-6.9703674e-09,0.0,0.0,0.0,0,1,1,0,0,0,0,2,2,2,2,2,2,2,2,2,2,2,2
84588000,-1.4901161e-08,0.0,2.3283064e-10,0.0,0.0,-7.450581e-09,0,1,1,0,0,0,0,2,2,2,2,2,2,2,2,2,2,2,2
84788000,-7.450581e-09,0.0,-2.9976945e-09,0.0,0.0,0.0,0,1,1,0,0,0,0,2,2,2,2,2,2,2,2,2,2,2,2
84980000,-7.450581e-09,-7.450581e-09,4.4237822e-09,0.0,0.0,-7.450581e-09,0,1,1,0,0,0,0,2,2,2,2,2,2,2,2,2,2,2,2
85180000,-1.4901161e-08,0.0,8.905772e-09,0.0,0.0,0.0,0,1,1,0,0,0,0,2,2,2,2,2,2,2,2,2,2,2,2
85388000,-1.4901161e-08,0.0,-5.4205884e-09,0.0,0.0,-7.450581e-09,0,1,1,0,0,0,0,2,2,2,2,2,2,2,2,2,2,2,2
85588000,-7.450581e-09,0.0,-1.2150849e-09,0.0,0.0,-1.4901161e-08,0,1,1,0,0,0,0,2,2,2,2,2,2,2,2,2,2,2,2
85788000,-2.2351742e-08,-7.450581e-09,9.284122e-09,0.0,0.0,-7.450581e-09,0,1,1,0,0,0,0,2,2,2,2,2,2,2,2,2,2,2,2
85988000,0.0022187084,-7.450581e-09,7.7352175e-05,0.0,0.0,-7.450581e-09,0,0,1,0,0,0,-2,2,2,2,2,2,2,2,2,2,2,2,2
86188000,0.010095477,0.0,5.005859e-09,0.0,0.0,0.0,0,0,1,0,0,0,0,2,2,2,2,2,2,2,2,2,2,2,2
86388000,0.011626884,-7.450581e-09,-2.6484486e-09,0.0,0.0,-7.450581e-09,0,0,1,0,0,0,0,2,2,2,2,2,2,2,2,2,2,2,2
86588000,0.09805452,0.10621404,8.359352e-05,0.0,0.0,1.9790605e-09,0,0,1,0,-2,0,-2,2,2,2,2,2,2,2,2,2,2,2,2
86788000,0.09871155,0.10665574,-0.0004522683,0.0,0.0,1.9790605e-09,0,0,1,0,-2,0,-2,2,2,2,2,2,2,2,2,2,2,2,2
86988000,0.09694931,0.10655934,-0.00023361815,0.0,0.0,1.9790605e-09,0,0,1,0,-2,0,-2,2,2,2,2,2,2,2,2,2,2,2,2
87188000,0.09618056,0.10804404,-0.0006212138,0.0,0.0,1.9790605e-09,0,0,1,0,-2,0,-2,2,2,2,2,2,2,2,2,2,2,2,2
87380000,0.09568231,0.10734366,-0.0006280526,0.0,0.0,1.9790605e-09,0,0,1,0,-2,0,-2,2,2,2,2,2,2,2,2,2,2,2,2
87588000,0.0960325,0.10736218,-0.00050627114,0.0,0.0,-1.7462298e-09,0,0,1,0,-2,0,-2,2,2,2,2,2,2,2,2,2,2,2,2
87788000,0.09586073,0.10635677,9.98648e-05,0.0,0.0,1.9790605e-09,0,0,1,0,-2,0,-2,2,2,2,2,2,2,2,2,2,2,2,2
87980000,0.09596994,0.106647044,0.00011107044,0.0,0.0,1.9790605e-09,0,0,1,0,-2,0,-2,2,2,2,2,2,2,2,2,2,2,2,2
88188000,0.096306264,0.10674665,0.00013327495,0.0,0.0,1.9790605e-09,0,0,1,0,-2,0,-2,2,2,2,2,2,2,2,2,2,2,2,2
88388000,0.0960163,0.10766132,-0.0006524554,0.0,0.0,1.9790605e-09,0,0,1,0,-2,0,-2,2,2,2,2,2,2,2,2,2,2,2,2
88588000,0.01067642,0.021214852,0.00018705917,0.0,0.0,5.820766e-10,0,0,1,0,-2,0,-2,2,2,2,2,2,2,2,2,2,2,2,2
88780000,0.009574153,0.020532126,0.00041616723,0.0,0.0,5.820766e-10,0,0,1,0,-2,0,-2,2,2,2,2,2,2,2,2,2,2,2,2
88988000,0.009456171,0.022793075,9.918213e-05,0.0,0.0,1.1641532e-10,0,0,1,0,-2,0,-2,2,2,2,2,2,2,2,2,2,2,2,2
89188000,0.011438361,0.020943908,0.00022165698,0.0,0.0,-1.1641532e-10,0,0,1,0,-2,0,-2,2,2,2,2,2,2,2,2,2,2,2,2
89388000,0.010562153,0.019368427,3.5319437e-05,0.0,0.0,1.1641532e-10,0,0,1,0,-2,0,-2,2,2,2,2,2,2,2,2,2,2,2,2
