timestamp,timestamp_sample,control_mode_flags,output_tracking_error[0],output_tracking_error[1],output_tracking_error[2],filter_fault_flags,pos_horiz_accuracy,pos_vert_accuracy,mag_test_ratio,vel_test_ratio,pos_test_ratio,hgt_test_ratio,tas_test_ratio,hagl_test_ratio,beta_test_ratio,time_slip,accel_device_id,gyro_device_id,baro_device_id,mag_device_id,gps_check_fail_flags,innovation_check_flags,solution_status_flags,reset_count_vel_ne,reset_count_vel_d,reset_count_pos_ne,reset_count_pod_d,reset_count_quat,pre_flt_fail_innov_heading,pre_flt_fail_innov_vel_horiz,pre_flt_fail_innov_vel_vert,pre_flt_fail_innov_height,pre_flt_fail_mag_field_disturbed,health_flags,timeout_flags
3388000,3308000,13488881664,0.0007547682,0.017667945,0.0014608809,0,14.172738,10.008659,nan,nan,nan,nan,0.0,0.0,0.0,0.0,1310988,1310988,6620172,0,0,0,128,1,1,1,1,0,0,0,0,0,0,0,0
3396000,3316000,13488881664,0.0006873336,0.0047688293,0.0015482885,0,14.142143,10.0,nan,nan,nan,nan,0.0,0.0,0.0,0.0,1310988,1310988,6620172,0,0,0,128,1,1,1,1,0,0,0,0,0,0,0,0
3588000,3508000,13488881664,7.033595e-05,0.0024810887,0.001607399,0,0.015024374,7.071068,nan,nan,nan,nan,0.0,0.0,0.0,0.0,1310988,1310988,6620172,0,0,0,128,1,1,1,1,0,0,0,0,0,0,0,0
3788000,3708000,13488881665,0.00061935507,0.019083658,0.005757243,0,0.010514579,5.7735023,nan,nan,nan,nan,0.0,0.0,0.0,0.0,1310988,1310988,6620172,0,0,0,128,1,1,1,1,0,0,0,0,0,0,0,0
3988000,3908000,13488881665,0.0010841141,0.008135645,0.0047461,0,0.012888844,5.000002,nan,nan,nan,nan,0.0,0.0,0.0,0.0,1310988,1310988,6620172,0,0,0,128,1,1,1,1,0,0,0,0,0,0,0,0
4180000,4100000,4898947585,0.00046856503,0.003489046,0.043734647,0,0.037665486,2.2180395,nan,nan,nan,0.004356478,0.0,0.0,0.0,0.0,1310988,1310988,6620172,0,0,0,164,1,1,1,1,0,0,0,0,0,0,0,0
4388000,4308000,4898947585,0.00026737317,0.0029752261,0.028498938,0,0.031871613,1.4938079,nan,nan,nan,7.622352e-05,0.0,0.0,0.0,0.0,1310988,1310988,6620172,0,0,0,164,1,1,1,1,0,0,0,0,0,0,0,0
4588000,4508000,4898947585,0.0001509746,0.0022467922,0.007576747,0,0.02756624,1.1362847,nan,nan,nan,0.00018092988,0.0,0.0,0.0,0.0,1310988,1310988,6620172,0,0,0,164,1,1,1,1,0,0,0,0,0,0,0,0
4788000,4708000,4898947585,0.00016377876,0.0017509809,0.009421529,0,0.0251636,0.9907021,nan,nan,nan,0.004048223,0.0,0.0,0.0,0.0,1310988,1310988,6620172,0,0,0,164,1,1,1,1,0,0,0,0,0,0,0,0
4988000,4908000,4898947585,0.00021774993,0.0016807795,0.007728871,0,0.023342503,0.8899909,nan,nan,nan,0.0022898805,0.0,0.0,0.0,0.0,1310988,1310988,6620172,0,0,0,164,1,1,1,1,0,0,0,0,0,0,0,0
5188000,5108000,4898947585,0.00027793788,0.002150477,0.00626223,0,0.021709137,0.79387915,nan,nan,nan,0.0023398818,0.0,0.0,0.0,0.0,1310988,1310988,6620172,0,0,0,164,1,1,1,1,0,0,0,0,0,0,0,0
5380000,5300000,4898947585,0.00022827463,0.0021985483,0.010925347,0,0.019734964,0.7396045,nan,nan,nan,0.00737785,0.0,0.0,0.0,0.0,1310988,1310988,6620172,0,0,0,164,1,1,1,1,0,0,0,0,0,0,0,0
5588000,5508000,4898947585,0.0001441267,0.0015391639,0.0047774487,0,0.019008892,0.69548434,nan,nan,nan,0.000649181,0.0,0.0,0.0,0.0,1310988,1310988,6620172,0,0,0,164,1,1,1,1,0,0,0,0,0,0,0,0
5788000,5708000,4898947585,6.554691e-05,0.00076949,0.0048798095,0,0.017961245,0.6472909,nan,nan,nan,0.004732834,0.0,0.0,0.0,0.0,1310988,1310988,6620172,0,0,0,164,1,1,1,1,0,0,0,0,0,0,0,0
5980000,5900000,4898947585,0.00012160379,0.0015927369,0.0010002218,0,0.016694969,0.61744994,nan,nan,nan,0.00608312,0.0,0.0,0.0,0.0,1310988,1310988,6620172,0,0,0,164,1,1,1,1,0,0,0,0,0,0,0,0
6188000,6108000,4898947585,7.527484e-05,0.0018731123,0.0013835354,0,0.016338564,0.59174955,nan,nan,nan,0.00092284154,0.0,0.0,0.0,0.0,1310988,1310988,6620172,0,0,0,164,1,1,1,1,0,0,0,0,0,0,0,0
6380000,6300000,4898947585,5.1801577e-05,0.0015819276,0.0026256647,0,0.015363714,0.5617034,nan,nan,nan,0.0025435626,0.0,0.0,0.0,0.0,1310988,1310988,6620172,0,0,0,164,1,1,1,1,0,0,0,0,0,0,0,0
6588000,6508000,4898947585,1.3662394e-05,0.0014358961,0.002032705,0,0.015142359,0.54257005,nan,nan,nan,0.0004907071,0.0,0.0,0.0,0.0,1310988,1310988,6620172,0,0,0,164,1,1,1,1,0,0,0,0,0,0,0,0
6788000,6708000,4898947585,0.00010159463,0.0021384757,0.0011664715,0,0.014648083,0.5195757,nan,nan,nan,0.001207012,0.0,0.0,0.0,0.0,1310988,1310988,6620172,0,0,0,164,1,1,1,1,0,0,0,0,0,0,0,0
6988000,6908000,4898947585,0.00014699991,0.002783353,0.001497541,0,0.014205004,0.50462246,nan,nan,nan,0.0012046908,0.0,0.0,0.0,0.0,1310988,1310988,6620172,0,0,0,164,1,1,1,1,0,0,0,0,0,0,0,0
7188000,7108000,4898947585,0.00015894143,0.0032509852,0.0017595185,0,0.0138020525,0.4910642,nan,nan,nan,0.001324222,0.0,0.0,0.0,0.0,1310988,1310988,6620172,0,0,0,164,1,1,1,1,0,0,0,0,0,0,0,0
7388000,7308000,4898947585,0.00020330455,0.0035879535,0.0025761605,0,0.013432953,0.47429773,nan,nan,nan,0.0031021913,0.0,0.0,0.0,0.0,1310988,1310988,6620172,0,0,0,164,1,1,1,1,0,0,0,0,0,0,0,0
7588000,7508000,4898947585,0.00025669576,0.0040607597,0.0020893973,0,0.013091876,0.46330628,nan,nan,nan,0.000101409874,0.0,0.0,0.0,0.0,1310988,1310988,6620172,0,0,0,164,1,1,1,1,0,0,0,0,0,0,0,0
7788000,7708000,4898947585,0.00025169246,0.0043247165,0.002691082,0,0.012774145,0.45319957,nan,nan,nan,0.0012200514,0.0,0.0,0.0,0.0,1310988,1310988,6620172,0,0,0,164,1,1,1,1,0,0,0,0,0,0,0,0
7980000,7900000,4898947585,0.00018787023,0.0039739003,0.0029000484,0,0.012242843,0.44023502,nan,nan,nan,0.0014967992,0.0,0.0,0.0,0.0,1310988,1310988,6620172,0,0,0,164,1,1,1,1,0,0,0,0,0,0,0,0
8180000,8100000,4898947585,0.00013207718,0.0031846496,0.0021635299,0,0.011971276,0.43182096,nan,nan,nan,0.00282805,0.0,0.0,0.0,0.0,1310988,1310988,6620172,0,0,0,164,1,1,1,1,0,0,0,0,0,0,0,0
8380000,8300000,4898947585,8.077043e-05,0.0023970352,0.003024905,0,0.011769468,0.4256938,nan,nan,nan,0.001648794,0.0,0.0,0.0,0.0,1310988,1310988,6620172,0,0,0,164,1,1,1,1,0,0,0,0,0,0,0,0
8588000,8508000,4898947585,8.3337094e-05,0.0020198443,0.0033124166,0,0.011735522,0.4156821,nan,nan,nan,0.0008985109,0.0,0.0,0.0,0.0,1310988,1310988,6620172,0,0,0,164,1,1,1,1,0,0,0,0,0,0,0,0
8788000,8708000,4898947585,7.067789e-05,0.0018328995,0.002948315,0,0.011492624,0.40911257,nan,nan,nan,0.0036207207,0.0,0.0,0.0,0.0,1310988,1310988,6620172,0,0,0,164,1,1,1,1,0,0,0,0,0,0,0,0
8980000,8900000,4898949633,6.4982916e-05,0.0015985061,0.0071428507,0,0.011061455,0.8683394,nan,nan,nan,0.008383859,0.0,0.0,0.0,0.0,1310988,1310988,6620172,0,0,0,164,1,1,1,2,0,0,0,0,0,0,0,0
9180000,9100000,4898949633,3.8828905e-05,0.0014105324,0.0006868449,0,0.01735469,0.79808295,nan,nan,nan,0.005801311,0.0,0.0,0.0,0.0,1310988,1310988,6620172,0,0,0,164,1,1,1,2,0,0,0,0,0,0,0,0
9388000,9308000,4898949633,4.4649547e-05,0.0012644606,0.0057057478,0,0.017278358,0.5964725,nan,nan,nan,0.0031644837,0.0,0.0,0.0,0.0,1310988,1310988,6620172,0,0,0,164,1,1,1,2,0,0,0,0,0,0,0,0
9580000,9500000,4898949633,5.7861995e-05,0.0012330437,0.00054241245,0,0.016611118,0.5651946,nan,nan,nan,0.002339453,0.0,0.0,0.0,0.0,1310988,1310988,6620172,0,0,0,164,1,1,1,2,0,0,0,0,0,0,0,0
9788000,9708000,4898949633,5.559676e-05,0.0013220812,0.00071747095,0,0.016552556,0.4788954,nan,nan,nan,0.0021516823,0.0,0.0,0.0,0.0,1310988,1310988,6620172,0,0,0,164,1,1,1,2,0,0,0,0,0,0,0,0
9988000,9908000,4898949633,5.670501e-05,0.0013750608,0.0013353283,0,0.01621011,0.46701595,nan,nan,nan,0.0011379513,0.0,0.0,0.0,0.0,1310988,1310988,6620172,0,0,0,164,1,1,1,2,0,0,0,0,0,0,0,0
10180000,10100000,4898949633,7.0892216e-05,0.0015359365,0.0015750682,0,0.0156014245,0.41238317,nan,nan,nan,0.0017097674,0.0,0.0,0.0,0.0,1310988,1310988,6620172,0,0,0,164,1,1,1,2,0,0,0,0,0,0,0,0
10388000,10308000,4898949633,5.7430098e-05,0.0014407535,0.0008667598,0,0.015560617,0.40547657,nan,nan,nan,0.00060781953,0.0,0.0,0.0,0.0,1310988,1310988,6620172,0,0,0,164,1,1,1,2,0,0,0,0,0,0,0,0
10580000,10500000,4898949633,5.4505424e-05,0.0013522817,0.0014751945,0,0.014985455,0.3708394,nan,nan,nan,0.0027334958,0.0,0.0,0.0,0.0,1310988,1310988,6620172,0,0,0,164,1,1,1,2,0,0,0,0,0,0,0,0
10780000,10700000,4898949633,5.2941254e-05,0.0013961468,0.0015113683,0,0.014692466,0.3644265,nan,nan,nan,0.00056731084,0.0,0.0,0.0,0.0,1310988,1310988,6620172,0,0,0,164,1,1,1,2,0,0,0,0,0,0,0,0
10980000,10900000,4898949633,5.7764897e-05,0.0018384331,0.0013826054,0,0.014408063,0.33933967,nan,nan,nan,0.0007194649,0.0,0.0,0.0,0.0,1310988,1310988,6620172,0,0,0,164,1,1,1,2,0,0,0,0,0,0,0,0
11188000,11108000,4898949633,5.765755e-05,0.0022223552,0.002585484,0,0.014382673,0.33669493,nan,nan,nan,0.003069325,0.0,0.0,0.0,0.0,1310988,1310988,6620172,0,0,0,164,1,1,1,2,0,0,0,0,0,0,0,0
11388000,11308000,4898949633,6.718208e-05,0.0025564977,0.0024764456,0,0.014109099,0.31594715,nan,nan,nan,0.002035732,0.0,0.0,0.0,0.0,1310988,1310988,6620172,0,0,0,164,1,1,1,2,0,0,0,0,0,0,0,0
11580000,11500000,4898949633,8.424696e-05,0.0029003806,0.00239573,0,0.013602293,0.31418273,nan,nan,nan,0.0006402577,0.0,0.0,0.0,0.0,1310988,1310988,6620172,0,0,0,164,1,1,1,2,0,0,0,0,0,0,0,0
11780000,11700000,4898949633,9.049916e-05,0.003280462,0.0030270375,0,0.013348512,0.29872572,nan,nan,nan,0.0045448397,0.0,0.0,0.0,0.0,1310988,1310988,6620172,0,0,0,164,1,1,1,2,0,0,0,0,0,0,0,0
11980000,11900000,4898949633,0.000100927035,0.0035578401,0.0036094873,0,0.013101631,0.29680696,nan,nan,nan,0.0028740137,0.0,0.0,0.0,0.0,1310988,1310988,6620172,0,0,0,164,1,1,1,2,0,0,0,0,0,0,0,0
12188000,12108000,4898949633,0.000101167,0.003405938,0.0038259092,0,0.013088135,0.28432932,nan,nan,nan,0.0032396617,0.0,0.0,0.0,0.0,1310988,1310988,6620172,0,0,0,164,1,1,1,2,0,0,0,0,0,0,0,0
12380000,12300000,4898949633,9.9702534e-05,0.0032282993,0.0038229742,0,0.012628186,0.28392848,nan,nan,nan,0.0042820144,0.0,0.0,0.0,0.0,1310988,1310988,6620172,0,0,0,164,1,1,1,2,0,0,0,0,0,0,0,0
12580000,12500000,4898949633,9.328004e-05,0.0029511203,0.0038199413,0,0.012400555,0.27243447,nan,nan,nan,0.0033053034,0.0,0.0,0.0,0.0,1310988,1310988,6620172,0,0,0,164,1,1,1,2,0,0,0,0,0,0,0,0
12788000,12708000,4898949633,7.476454e-05,0.0025399223,0.0032935948,0,0.01239087,0.2728264,nan,nan,nan,0.0028145527,0.0,0.0,0.0,0.0,1310988,1310988,6620172,0,0,0,164,1,1,1,2,0,0,0,0,0,0,0,0
12980000,12900000,4898949633,5.9420836e-05,0.0022679456,0.003515845,0,0.011962193,0.2635603,nan,nan,nan,0.0012799811,0.0,0.0,0.0,0.0,1310988,1310988,6620172,0,0,0,164,1,1,1,2,0,0,0,0,0,0,0,0
13180000,13100000,4898949633,8.680916e-05,0.0025755898,0.0034504458,0,0.011751386,0.26339394,nan,nan,nan,0.004016367,0.0,0.0,0.0,0.0,1310988,1310988,6620172,0,0,0,164,1,1,1,2,0,0,0,0,0,0,0,0
13380000,13300000,4898949633,0.00010235038,0.0030534975,0.0030624722,0,0.011546152,0.25552696,nan,nan,nan,0.0037168004,0.0,0.0,0.0,0.0,1310988,1310988,6620172,0,0,0,164,1,1,1,2,0,0,0,0,0,0,0,0
13580000,13500000,4898949633,9.9401834e-05,0.0025681178,0.0017793955,0,0.011387938,0.25789332,nan,nan,nan,0.0017937099,0.0,0.0,0.0,0.0,1310988,1310988,6620172,0,0,0,164,1,1,1,2,0,0,0,0,0,0,0,0
13788000,13708000,4898949633,0.000100119316,0.0026328939,0.0021030821,0,0.011382349,0.2511954,nan,nan,nan,0.0043410272,0.0,0.0,0.0,0.0,1310988,1310988,6620172,0,0,0,164,1,1,1,2,0,0,0,0,0,0,0,0
13980000,13900000,4898949633,0.00010347817,0.0027509264,0.0020316145,0,0.010999322,0.25223887,nan,nan,nan,0.0035038576,0.0,0.0,0.0,0.0,1310988,1310988,6620172,0,0,0,164,1,1,1,2,0,0,0,0,0,0,0,0
14188000,14108000,4898949633,7.705613e-05,0.0022393623,0.0017220983,0,0.010994957,0.24565528,nan,nan,nan,0.0028492035,0.0,0.0,0.0,0.0,1310988,1310988,6620172,0,0,0,164,1,1,1,2,0,0,0,0,0,0,0,0
14388000,14308000,4898949633,4.66784e-05,0.0015650352,0.0014101542,0,0.010808843,0.24710809,nan,nan,nan,0.0019731391,0.0,0.0,0.0,0.0,1310988,1310988,6620172,0,0,0,164,1,1,1,2,0,0,0,0,0,0,0,0
14580000,14500000,4898949633,2.054834e-05,0.00080559583,0.001531224,0,0.016198417,0.24127997,nan,nan,nan,0.00509384,0.0,0.0,0.0,0.0,1310988,1310988,6620172,0,0,0,164,1,1,1,2,0,0,0,0,0,0,0,0
14788000,14708000,4898949633,2.3582024e-05,0.0008882006,0.0013787358,0,0.016186243,0.24255094,nan,nan,nan,0.0025507286,0.0,0.0,0.0,0.0,1310988,1310988,6620172,0,0,0,164,1,1,1,2,0,0,0,0,0,0,0,0
14988000,14908000,4898949633,2.6670567e-05,0.0009803687,0.0008438783,0,0.015906505,0.23747016,nan,nan,nan,0.0027774828,0.0,0.0,0.0,0.0,1310988,1310988,6620172,0,0,0,164,1,1,1,2,0,0,0,0,0,0,0,0
15180000,15100000,4898949633,3.1604708e-05,0.0011363153,0.0011619203,0,0.015370751,0.23840153,nan,nan,nan,0.0020309463,0.0,0.0,0.0,0.0,1310988,1310988,6620172,0,0,0,164,1,1,1,2,0,0,0,0,0,0,0,0
15380000,15300000,4898949633,3.183902e-05,0.0010002583,0.00086082105,0,0.015104207,0.23374532,nan,nan,nan,0.002386046,0.0,0.0,0.0,0.0,1310988,1310988,6620172,0,0,0,164,1,1,1,2,0,0,0,0,0,0,0,0
15588000,15508000,4898949633,2.8115881e-05,0.00070603396,0.0008481439,0,0.015095348,0.23529896,nan,nan,nan,0.0030651386,0.0,0.0,0.0,0.0,1310988,1310988,6620172,0,0,0,164,1,1,1,2,0,0,0,0,0,0,0,0
15788000,15708000,4898949633,2.7219829e-05,0.00045347604,0.00041286947,0,0.014834272,0.23099698,nan,nan,nan,0.0026636764,0.0,0.0,0.0,0.0,1310988,1310988,6620172,0,0,0,164,1,1,1,2,0,0,0,0,0,0,0,0
15988000,15908000,4898949633,3.1864594e-05,0.00048224552,0.00071555603,0,0.014577759,0.23240833,nan,nan,nan,0.0028865207,0.0,0.0,0.0,0.0,1310988,1310988,6620172,0,0,0,164,1,1,1,2,0,0,0,0,0,0,0,0
16188000,16108000,4898949633,1.6276594e-05,0.00036177484,0.0005320852,0,0.014326259,0.22840036,nan,nan,nan,0.0007329538,0.0,0.0,0.0,0.0,1310988,1310988,6620172,0,0,0,164,1,1,1,2,0,0,0,0,0,0,0,0
16388000,16308000,4898949633,2.1278394e-05,0.00058159116,0.00040117366,0,0.014078968,0.23038882,nan,nan,nan,0.0018339003,0.0,0.0,0.0,0.0,1310988,1310988,6620172,0,0,0,164,1,1,1,2,0,0,0,0,0,0,0,0
16588000,16508000,4898949633,2.8135053e-05,0.00081975316,0.0005737462,0,0.0138362795,0.22613063,nan,nan,nan,0.0017111676,0.0,0.0,0.0,0.0,1310988,1310988,6620172,0,0,0,164,1,1,1,2,0,0,0,0,0,0,0,0
16780000,16700000,4898949633,4.241407e-05,0.0011648063,0.0008326626,0,0.013368389,0.2279165,nan,nan,nan,0.0015468481,0.0,0.0,0.0,0.0,1310988,1310988,6620172,0,0,0,164,1,1,1,2,0,0,0,0,0,0,0,0
16988000,16908000,4898949633,4.9069855e-05,0.0015116215,0.0015112291,0,0.0133637,0.22459722,nan,nan,nan,0.003671602,0.0,0.0,0.0,0.0,1310988,1310988,6620172,0,0,0,164,1,1,1,2,0,0,0,0,0,0,0,0
17180000,17100000,4898949633,5.84157e-05,0.0018353304,0.0014184495,0,0.012912764,0.22643806,nan,nan,nan,0.0015763694,0.0,0.0,0.0,0.0,1310988,1310988,6620172,0,0,0,164,1,1,1,2,0,0,0,0,0,0,0,0
17388000,17308000,4898949633,5.7043424e-05,0.0018813964,0.0015776401,0,0.012909252,0.2228297,nan,nan,nan,0.0007993013,0.0,0.0,0.0,0.0,1310988,1310988,6620172,0,0,0,164,1,1,1,2,0,0,0,0,0,0,0,0
17588000,17508000,4898949633,6.453491e-05,0.0019336418,0.0016095632,0,0.0126887495,0.22496706,nan,nan,nan,0.0010809631,0.0,0.0,0.0,0.0,1310988,1310988,6620172,0,0,0,164,1,1,1,2,0,0,0,0,0,0,0,0
17780000,17700000,4898949633,6.1326755e-05,0.0019705098,0.0018559832,0,0.012263215,0.2214491,nan,nan,nan,0.0023058366,0.0,0.0,0.0,0.0,1310988,1310988,6620172,0,0,0,164,1,1,1,2,0,0,0,0,0,0,0,0
17980000,17900000,4898949633,4.5639783e-05,0.0015673031,0.0011026365,0,0.012055645,0.22317515,nan,nan,nan,0.0021564206,0.0,0.0,0.0,0.0,1310988,1310988,6620172,0,0,0,164,1,1,1,2,0,0,0,0,0,0,0,0
18188000,18108000,4898949633,3.0915195e-05,0.0012089552,0.0008748909,0,0.01205344,0.22030555,nan,nan,nan,0.002022424,0.0,0.0,0.0,0.0,1310988,1310988,6620172,0,0,0,164,1,1,1,2,0,0,0,0,0,0,0,0
18380000,18300000,4898949633,1.898232e-05,0.001094345,0.000999025,0,0.011652765,0.22225304,nan,nan,nan,0.0031996076,0.0,0.0,0.0,0.0,1310988,1310988,6620172,0,0,0,164,1,1,1,2,0,0,0,0,0,0,0,0
18580000,18500000,4898949633,5.8142417e-05,0.0010246339,0.00093597226,0,0.011457653,0.21880354,nan,nan,nan,0.0009827898,0.0,0.0,0.0,0.0,1310988,1310988,6620172,0,0,0,164,1,1,1,2,0,0,0,0,0,0,0,0
18780000,18700000,4898949633,8.402471e-05,0.0016959329,0.0017428988,0,0.011306243,0.22421606,nan,nan,nan,0.0021287433,0.0,0.0,0.0,0.0,1310988,1310988,6620172,0,0,0,164,1,1,1,2,0,0,0,0,0,0,0,0
18980000,18900000,4898949633,0.00010454324,0.002467853,0.0014344613,0,0.011117813,0.2207453,nan,nan,nan,0.0009951576,0.0,0.0,0.0,0.0,1310988,1310988,6620172,0,0,0,164,1,1,1,2,0,0,0,0,0,0,0,0
19180000,19100000,4898949633,0.00011634174,0.0029756855,0.0017440756,0,0.0109339105,0.22308442,nan,nan,nan,0.00046894478,0.0,0.0,0.0,0.0,1310988,1310988,6620172,0,0,0,164,1,1,1,2,0,0,0,0,0,0,0,0
19388000,19308000,4898949633,0.000107606815,0.002797282,0.0017570254,0,0.01093259,0.21999057,nan,nan,nan,0.0021139567,0.0,0.0,0.0,0.0,1310988,1310988,6620172,0,0,0,164,1,1,1,2,0,0,0,0,0,0,0,0
19588000,19508000,4898949633,9.65819e-05,0.0025546323,0.0018596848,0,0.010753345,0.22234653,nan,nan,nan,0.0032797654,0.0,0.0,0.0,0.0,1310988,1310988,6620172,0,0,0,164,1,1,1,2,0,0,0,0,0,0,0,0
19788000,19708000,4898949633,1.60027e-05,0.0006351619,0.0006602129,0,0.016284002,0.21947993,nan,nan,nan,0.0014120423,0.0,0.0,0.0,0.0,1310988,1310988,6620172,0,0,0,164,1,1,1,2,0,0,0,0,0,0,0,0
19980000,19900000,4898949633,2.0989924e-05,0.000561802,0.00048483766,0,0.015752608,0.22157125,nan,nan,nan,0.0021871561,0.0,0.0,0.0,0.0,1310988,1310988,6620172,0,0,0,164,1,1,1,2,0,0,0,0,0,0,0,0
20188000,20108000,4898949633,1.5328751e-05,0.0004159126,0.0007075362,0,0.015749175,0.21861558,nan,nan,nan,0.0019082902,0.0,0.0,0.0,0.0,1310988,1310988,6620172,0,0,0,164,1,1,1,2,0,0,0,0,0,0,0,0
20380000,20300000,4898949633,1.5276057e-05,0.00049339206,0.0010743876,0,0.015232108,0.22071274,nan,nan,nan,0.0011929626,0.0,0.0,0.0,0.0,1310988,1310988,6620172,0,0,0,164,1,1,1,2,0,0,0,0,0,0,0,0
20588000,20508000,4898949633,1.596124e-05,0.00064216054,0.000943906,0,0.015229106,0.2178184,nan,nan,nan,0.0039624665,0.0,0.0,0.0,0.0,1310988,1310988,6620172,0,0,0,164,1,1,1,2,0,0,0,0,0,0,0,0
20788000,20708000,4898949633,9.239584e-06,0.0008002234,0.00075093756,0,0.014974568,0.22019908,nan,nan,nan,0.0037863853,0.0,0.0,0.0,0.0,1310988,1310988,6620172,0,0,0,164,1,1,1,2,0,0,0,0,0,0,0,0
20980000,20900000,4898949633,1.2733263e-05,0.0011048613,0.0010258103,0,0.014479189,0.21722348,nan,nan,nan,0.002370028,0.0,0.0,0.0,0.0,1310988,1310988,6620172,0,0,0,164,1,1,1,2,0,0,0,0,0,0,0,0
21188000,21108000,4898949633,3.4658908e-05,0.0016955474,0.0017115271,0,0.014476608,0.21946202,nan,nan,nan,0.0030844472,0.0,0.0,0.0,0.0,1310988,1310988,6620172,0,0,0,164,1,1,1,2,0,0,0,0,0,0,0,0
21388000,21308000,4898949633,5.5487886e-05,0.0024018898,0.0017959056,0,0.014233448,0.21681069,nan,nan,nan,0.0035125776,0.0,0.0,0.0,0.0,1310988,1310988,6620172,0,0,0,164,1,1,1,2,0,0,0,0,0,0,0,0
21580000,21500000,4898949633,8.325741e-05,0.0031282215,0.0023384173,0,0.013760715,0.2189284,nan,nan,nan,0.0044376566,0.0,0.0,0.0,0.0,1310988,1310988,6620172,0,0,0,164,1,1,1,2,0,0,0,0,0,0,0,0
21788000,21708000,4898949633,9.441375e-05,0.0035188782,0.0027142577,0,0.01375897,0.21616809,nan,nan,nan,0.0035729194,0.0,0.0,0.0,0.0,1310988,1310988,6620172,0,0,0,164,1,1,1,2,0,0,0,0,0,0,0,0
21988000,21908000,4898949633,9.507456e-05,0.0034742022,0.0026951346,0,0.01352764,0.21855925,nan,nan,nan,0.0031611482,0.0,0.0,0.0,0.0,1310988,1310988,6620172,0,0,0,164,1,1,1,2,0,0,0,0,0,0,0,0
22188000,22108000,4898949633,8.963078e-05,0.0030696094,0.00242272,0,0.013300083,0.21597414,nan,nan,nan,0.0012881021,0.0,0.0,0.0,0.0,1310988,1310988,6620172,0,0,0,164,1,1,1,2,0,0,0,0,0,0,0,0
22380000,22300000,4898949633,0.00010704552,0.002966091,0.0022854216,0,0.012857565,0.21810375,nan,nan,nan,0.00320391,0.0,0.0,0.0,0.0,1310988,1310988,6620172,0,0,0,164,1,1,1,2,0,0,0,0,0,0,0,0
22588000,22508000,4898949633,0.00010903722,0.002705182,0.002000731,0,0.012856132,0.21540588,nan,nan,nan,0.0009725025,0.0,0.0,0.0,0.0,1310988,1310988,6620172,0,0,0,164,1,1,1,2,0,0,0,0,0,0,0,0
22780000,22700000,4898949633,0.000120787925,0.0028642626,0.002188089,0,0.01242902,0.21753412,nan,nan,nan,0.00057219755,0.0,0.0,0.0,0.0,1310988,1310988,6620172,0,0,0,164,1,1,1,2,0,0,0,0,0,0,0,0
22988000,22908000,4898949633,0.00010322842,0.002526978,0.0022238407,0,0.012427695,0.21486793,nan,nan,nan,0.0007876636,0.0,0.0,0.0,0.0,1310988,1310988,6620172,0,0,0,164,1,1,1,2,0,0,0,0,0,0,0,0
23180000,23100000,4898949633,6.8935435e-05,0.002142714,0.0027731005,0,0.012016362,0.21699506,nan,nan,nan,0.0027354925,0.0,0.0,0.0,0.0,1310988,1310988,6620172,0,0,0,164,1,1,1,2,0,0,0,0,0,0,0,0
23388000,23308000,4898949633,3.952511e-05,0.0016597026,0.0029017988,0,0.012015444,0.21476395,nan,nan,nan,0.0034383717,0.0,0.0,0.0,0.0,1310988,1310988,6620172,0,0,0,164,1,1,1,2,0,0,0,0,0,0,0,0
23580000,23500000,4898949633,2.2202854e-05,0.0019467493,0.0027792621,0,0.011620273,0.2164955,nan,nan,nan,0.0037164218,0.0,0.0,0.0,0.0,1310988,1310988,6620172,0,0,0,164,1,1,1,2,0,0,0,0,0,0,0,0
23788000,23708000,4898949633,9.021986e-06,0.002112975,0.0029161912,0,0.011619651,0.21429342,nan,nan,nan,0.0015081486,0.0,0.0,0.0,0.0,1310988,1310988,6620172,0,0,0,164,1,1,1,2,0,0,0,0,0,0,0,0
23980000,23900000,4898949633,1.3647562e-05,0.0016705162,0.0015812147,0,0.011279274,0.21925914,nan,nan,nan,0.0025622682,0.0,0.0,0.0,0.0,1310988,1310988,6620172,0,0,0,164,1,1,1,2,0,0,0,0,0,0,0,0
24180000,24100000,4898949633,3.0447114e-05,0.002093558,0.0017929499,0,0.011093621,0.21670759,nan,nan,nan,0.0023669712,0.0,0.0,0.0,0.0,1310988,1310988,6620172,0,0,0,164,1,1,1,2,0,0,0,0,0,0,0,0
24388000,24308000,4898949633,2.6251493e-05,0.0020802943,0.002125083,0,0.011093238,0.21905419,nan,nan,nan,0.0022758525,0.0,0.0,0.0,0.0,1310988,1310988,6620172,0,0,0,164,1,1,1,2,0,0,0,0,0,0,0,0
24588000,24508000,4898949633,1.6917118e-05,0.0012779189,0.0014083254,0,0.0109118605,0.21652192,nan,nan,nan,0.0016325631,0.0,0.0,0.0,0.0,1310988,1310988,6620172,0,0,0,164,1,1,1,2,0,0,0,0,0,0,0,0
24788000,24708000,4898949633,5.824106e-05,0.0006656896,0.0012391837,0,0.010734627,0.21899846,nan,nan,nan,0.0033374883,0.0,0.0,0.0,0.0,1310988,1310988,6620172,0,0,0,164,1,1,1,2,0,0,0,0,0,0,0,0
24980000,24900000,4898949633,1.5818718e-05,0.0006524443,0.0008972883,0,0.015956791,0.21618763,nan,nan,nan,0.0013672676,0.0,0.0,0.0,0.0,1310988,1310988,6620172,0,0,0,164,1,1,1,2,0,0,0,0,0,0,0,0
25188000,25108000,4898949633,1.9916915e-05,0.00055926165,0.0007744018,0,0.015954828,0.21852934,nan,nan,nan,0.0012595805,0.0,0.0,0.0,0.0,1310988,1310988,6620172,0,0,0,164,1,1,1,2,0,0,0,0,0,0,0,0
25388000,25308000,4898949633,2.3804574e-05,0.00065274956,0.0009041081,0,0.015693167,0.2160243,nan,nan,nan,0.0028898795,0.0,0.0,0.0,0.0,1310988,1310988,6620172,0,0,0,164,1,1,1,2,0,0,0,0,0,0,0,0
25588000,25508000,4898949633,2.589792e-05,0.0006099538,0.0009782655,0,0.015435234,0.21807636,nan,nan,nan,0.0047546807,0.0,0.0,0.0,0.0,1310988,1310988,6620172,0,0,0,164,1,1,1,2,0,0,0,0,0,0,0,0
25780000,25700000,4898949633,3.3831388e-05,0.0005115059,0.0005171301,0,0.014931466,0.21532041,nan,nan,nan,0.0019932347,0.0,0.0,0.0,0.0,1310988,1310988,6620172,0,0,0,164,1,1,1,2,0,0,0,0,0,0,0,0
25988000,25908000,4898949633,3.6206256e-05,0.000532892,0.0004365137,0,0.014930429,0.21765116,nan,nan,nan,0.0014561627,0.0,0.0,0.0,0.0,1310988,1310988,6620172,0,0,0,164,1,1,1,2,0,0,0,0,0,0,0,0
26188000,26108000,4898949633,4.6354813e-05,0.000901854,0.0006843853,0,0.014683051,0.21519327,nan,nan,nan,0.0036544683,0.0,0.0,0.0,0.0,1310988,1310988,6620172,0,0,0,164,1,1,1,2,0,0,0,0,0,0,0,0
26380000,26300000,4898949633,6.2204206e-05,0.0014133651,0.00097056903,0,0.014199773,0.21737516,nan,nan,nan,0.0038890257,0.0,0.0,0.0,0.0,1310988,1310988,6620172,0,0,0,164,1,1,1,2,0,0,0,0,0,0,0,0
26580000,26500000,4898949633,8.031938e-05,0.0020271624,0.0015343113,0,0.013962985,0.21492162,nan,nan,nan,0.0030846102,0.0,0.0,0.0,0.0,1310988,1310988,6620172,0,0,0,164,1,1,1,2,0,0,0,0,0,0,0,0
26788000,26708000,4898949633,7.827984e-05,0.0022380634,0.001991281,0,0.013961985,0.21724507,nan,nan,nan,0.001970355,0.0,0.0,0.0,0.0,1310988,1310988,6620172,0,0,0,164,1,1,1,2,0,0,0,0,0,0,0,0
26988000,26908000,4898949633,8.013972e-05,0.0022454686,0.0024347291,0,0.013728977,0.21480381,nan,nan,nan,0.0016262928,0.0,0.0,0.0,0.0,1310988,1310988,6620172,0,0,0,164,1,1,1,2,0,0,0,0,0,0,0,0
27180000,27100000,4898949633,9.798769e-05,0.0024571714,0.0026324436,0,0.013274879,0.21698296,nan,nan,nan,0.0019043313,0.0,0.0,0.0,0.0,1310988,1310988,6620172,0,0,0,164,1,1,1,2,0,0,0,0,0,0,0,0
27388000,27308000,4898949633,0.0001132668,0.0026165002,0.002780853,0,0.013274269,0.21441846,nan,nan,nan,0.0022861862,0.0,0.0,0.0,0.0,1310988,1310988,6620172,0,0,0,164,1,1,1,2,0,0,0,0,0,0,0,0
27588000,27508000,4898949633,0.00012565956,0.002851858,0.00264759,0,0.013052562,0.21686338,nan,nan,nan,0.0017946018,0.0,0.0,0.0,0.0,1310988,1310988,6620172,0,0,0,164,1,1,1,2,0,0,0,0,0,0,0,0
27788000,27708000,4898949633,0.00014343695,0.003239666,0.0029023981,0,0.0128345,0.21404621,nan,nan,nan,0.0015614808,0.0,0.0,0.0,0.0,1310988,1310988,6620172,0,0,0,164,1,1,1,2,0,0,0,0,0,0,0,0
27988000,27908000,4898949633,0.00015531093,0.0037988103,0.004097836,0,0.012619924,0.21648903,nan,nan,nan,0.004070754,0.0,0.0,0.0,0.0,1310988,1310988,6620172,0,0,0,164,1,1,1,2,0,0,0,0,0,0,0,0
28180000,28100000,4898949633,0.00015825183,0.0043399427,0.004642557,0,0.012203243,0.21342668,nan,nan,nan,0.00041732946,0.0,0.0,0.0,0.0,1310988,1310988,6620172,0,0,0,164,1,1,1,2,0,0,0,0,0,0,0,0
28380000,28300000,4898949633,0.00015186789,0.004335841,0.004681462,0,0.012000637,0.21585752,nan,nan,nan,0.0001806231,0.0,0.0,0.0,0.0,1310988,1310988,6620172,0,0,0,164,1,1,1,2,0,0,0,0,0,0,0,0
28588000,28508000,4898949633,0.00013284822,0.0039912714,0.0051195077,0,0.012000372,0.21373488,nan,nan,nan,0.0027809234,0.0,0.0,0.0,0.0,1310988,1310988,6620172,0,0,0,164,1,1,1,2,0,0,0,0,0,0,0,0
28780000,28700000,4898949633,0.00012324323,0.0038903567,0.005353603,0,0.011607446,0.21549869,nan,nan,nan,0.003339935,0.0,0.0,0.0,0.0,1310988,1310988,6620172,0,0,0,164,1,1,1,2,0,0,0,0,0,0,0,0
28988000,28908000,4898949633,0.00012355563,0.003690692,0.005351321,0,0.011607237,0.21339105,nan,nan,nan,0.0023003651,0.0,0.0,0.0,0.0,1310988,1310988,6620172,0,0,0,164,1,1,1,2,0,0,0,0,0,0,0,0
29188000,29108000,4898949633,0.00013241528,0.004141827,0.0058987187,0,0.011416455,0.2154202,nan,nan,nan,0.0010145804,0.0,0.0,0.0,0.0,1310988,1310988,6620172,0,0,0,164,1,1,1,2,0,0,0,0,0,0,0,0
29380000,29300000,4898949633,0.000118845535,0.0016507793,0.0010250679,0,0.011083337,0.21592416,nan,nan,nan,0.0036379946,0.0,0.0,0.0,0.0,1310988,1310988,6620172,0,0,0,164,1,1,1,2,0,0,0,0,0,0,0,0
29580000,29500000,4898949633,0.000107990985,0.0015750743,0.0010077988,0,0.010902865,0.21842907,nan,nan,nan,0.003188508,0.0,0.0,0.0,0.0,1310988,1310988,6620172,0,0,0,164,1,1,1,2,0,0,0,0,0,0,0,0
29788000,29708000,4898949633,8.825588e-05,0.0016170818,0.0012173243,0,0.010902709,0.21584071,nan,nan,nan,0.003724948,0.0,0.0,0.0,0.0,1310988,1310988,6620172,0,0,0,164,1,1,1,2,0,0,0,0,0,0,0,0
29988000,29908000,4898949633,8.420414e-05,0.0021941597,0.0018065899,0,0.010726422,0.21834049,nan,nan,nan,0.00540369,0.0,0.0,0.0,0.0,1310988,1310988,6620172,0,0,0,164,1,1,1,2,0,0,0,0,0,0,0,0
30180000,30100000,4898949633,2.1839853e-05,0.0021245,0.001765825,0,0.015930887,0.21559563,nan,nan,nan,0.0016573973,0.0,0.0,0.0,0.0,1310988,1310988,6620172,0,0,0,164,1,1,1,2,0,0,0,0,0,0,0,0
30388000,30308000,4898949633,2.7904474e-05,0.0023313533,0.002197523,0,0.01593057,0.21796267,nan,nan,nan,0.0023391154,0.0,0.0,0.0,0.0,1310988,1310988,6620172,0,0,0,164,1,1,1,2,0,0,0,0,0,0,0,0
30588000,30508000,4898949633,3.6303853e-05,0.0023670092,0.0021755055,0,0.015671358,0.21551412,nan,nan,nan,0.0022949975,0.0,0.0,0.0,0.0,1310988,1310988,6620172,0,0,0,164,1,1,1,2,0,0,0,0,0,0,0,0
30780000,30700000,4898949633,4.7667432e-05,0.0025985416,0.002392956,0,0.015162824,0.21771893,nan,nan,nan,0.0034936215,0.0,0.0,0.0,0.0,1310988,1310988,6620172,0,0,0,164,1,1,1,2,0,0,0,0,0,0,0,0
30980000,30900000,4898949633,5.8550784e-05,0.0028755912,0.0023760207,0,0.014912975,0.21487026,nan,nan,nan,0.006176732,0.0,0.0,0.0,0.0,1310988,1310988,6620172,0,0,0,164,1,1,1,2,0,0,0,0,0,0,0,0
31188000,31108000,4898949633,5.8110054e-05,0.003049514,0.0026684862,0,0.014912392,0.217626,nan,nan,nan,0.0011616604,0.0,0.0,0.0,0.0,1310988,1310988,6620172,0,0,0,164,1,1,1,2,0,0,0,0,0,0,0,0
31388000,31308000,4898949633,5.2456788e-05,0.0028769528,0.0025588975,0,0.014666366,0.21479031,nan,nan,nan,0.0029883434,0.0,0.0,0.0,0.0,1310988,1310988,6620172,0,0,0,164,1,1,1,2,0,0,0,0,0,0,0,0
31588000,31508000,4898949633,4.90303e-05,0.0025790757,0.0025347439,0,0.014423735,0.21726048,nan,nan,nan,0.005127504,0.0,0.0,0.0,0.0,1310988,1310988,6620172,0,0,0,164,1,1,1,2,0,0,0,0,0,0,0,0
31788000,31708000,4898949633,6.2580184e-05,0.0023511176,0.0021664274,0,0.01418486,0.21483828,nan,nan,nan,0.0026778826,0.0,0.0,0.0,0.0,1310988,1310988,6620172,0,0,0,164,1,1,1,2,0,0,0,0,0,0,0,0
31988000,31908000,4898949633,7.563603e-05,0.0022592722,0.0025124243,0,0.013949572,0.21689686,nan,nan,nan,0.0041906675,0.0,0.0,0.0,0.0,1310988,1310988,6620172,0,0,0,164,1,1,1,2,0,0,0,0,0,0,0,0
32188000,32108000,4898949633,8.188548e-05,0.002180346,0.0019209788,0,0.013717787,0.21448638,nan,nan,nan,0.0022876414,0.0,0.0,0.0,0.0,1310988,1310988,6620172,0,0,0,164,1,1,1,2,0,0,0,0,0,0,0,0
32380000,32300000,4898949633,9.5697316e-05,0.002182437,0.001712857,0,0.013265052,0.21667264,nan,nan,nan,0.002789015,0.0,0.0,0.0,0.0,1310988,1310988,6620172,0,0,0,164,1,1,1,2,0,0,0,0,0,0,0,0
32588000,32508000,4898949633,9.228997e-05,0.0018543582,0.0013735268,0,0.01326455,0.21413596,nan,nan,nan,0.0024086628,0.0,0.0,0.0,0.0,1310988,1310988,6620172,0,0,0,164,1,1,1,2,0,0,0,0,0,0,0,0
32788000,32708000,4898949633,0.00010538439,0.0019729966,0.0014255235,0,0.013043448,0.21658497,nan,nan,nan,0.0029424499,0.0,0.0,0.0,0.0,1310988,1310988,6620172,0,0,0,164,1,1,1,2,0,0,0,0,0,0,0,0
32980000,32900000,4898949633,0.00012856332,0.0023922713,0.0014479827,0,0.012612898,0.21391615,nan,nan,nan,0.0030856514,0.0,0.0,0.0,0.0,1310988,1310988,6620172,0,0,0,164,1,1,1,2,0,0,0,0,0,0,0,0
33180000,33100000,4898949633,0.00012433772,0.0025444028,0.0015317457,0,0.012403073,0.2159598,nan,nan,nan,0.00317907,0.0,0.0,0.0,0.0,1310988,1310988,6620172,0,0,0,164,1,1,1,2,0,0,0,0,0,0,0,0
33388000,33308000,4898949633,0.00012486044,0.0025370866,0.0015148731,0,0.012402979,0.21384376,nan,nan,nan,0.0020130125,0.0,0.0,0.0,0.0,1310988,1310988,6620172,0,0,0,164,1,1,1,2,0,0,0,0,0,0,0,0
33580000,33500000,4898949633,0.00013043731,0.0024391059,0.0014405808,0,0.011995271,0.21561438,nan,nan,nan,0.0016638566,0.0,0.0,0.0,0.0,1310988,1310988,6620172,0,0,0,164,1,1,1,2,0,0,0,0,0,0,0,0
33780000,33700000,4898949633,0.00013480036,0.002261896,0.0015543615,0,0.01179724,0.21324821,nan,nan,nan,0.0010436352,0.0,0.0,0.0,0.0,1310988,1310988,6620172,0,0,0,164,1,1,1,2,0,0,0,0,0,0,0,0
33980000,33900000,4898949633,0.00012267915,0.0019115264,0.0014986481,0,0.011603093,0.21568464,nan,nan,nan,0.0008417774,0.0,0.0,0.0,0.0,1310988,1310988,6620172,0,0,0,164,1,1,1,2,0,0,0,0,0,0,0,0
34180000,34100000,4898949633,0.00011305572,0.0015275733,0.0015159925,0,0.011412696,0.21292423,nan,nan,nan,0.004331859,0.0,0.0,0.0,0.0,1310988,1310988,6620172,0,0,0,164,1,1,1,2,0,0,0,0,0,0,0,0
34380000,34300000,4898949633,0.00010097194,0.002396384,0.004179,0,0.011264391,0.21859886,nan,nan,nan,0.00018369066,0.0,0.0,0.0,0.0,1310988,1310988,6620172,0,0,0,164,1,1,1,2,0,0,0,0,0,0,0,0
34588000,34508000,4898949633,0.00010845207,0.0022525336,0.0034166893,0,0.011264419,0.21600017,nan,nan,nan,0.003139451,0.0,0.0,0.0,0.0,1310988,1310988,6620172,0,0,0,164,1,1,1,2,0,0,0,0,0,0,0,0
34780000,34700000,4898949633,0.00012363224,0.002454838,0.0034707,0,0.010900023,0.2182099,nan,nan,nan,0.0037188558,0.0,0.0,0.0,0.0,1310988,1310988,6620172,0,0,0,164,1,1,1,2,0,0,0,0,0,0,0,0
34988000,34908000,4898949633,0.00012855756,0.002663161,0.0036185815,0,0.010899973,0.2160312,nan,nan,nan,0.0021884316,0.0,0.0,0.0,0.0,1310988,1310988,6620172,0,0,0,164,1,1,1,2,0,0,0,0,0,0,0,0
35180000,35100000,4898949633,2.6218082e-05,0.002410271,0.0037513154,0,0.016184805,0.21824285,nan,nan,nan,0.0048961462,0.0,0.0,0.0,0.0,1310988,1310988,6620172,0,0,0,164,1,1,1,2,0,0,0,0,0,0,0,0
35380000,35300000,4898949633,3.5211247e-05,0.0026863103,0.004405675,0,0.01592239,0.21537001,nan,nan,nan,0.00570493,0.0,0.0,0.0,0.0,1310988,1310988,6620172,0,0,0,164,1,1,1,2,0,0,0,0,0,0,0,0
35588000,35508000,4898949633,4.0081744e-05,0.0029349523,0.004337167,0,0.015921718,0.21814317,nan,nan,nan,0.0033968962,0.0,0.0,0.0,0.0,1310988,1310988,6620172,0,0,0,164,1,1,1,2,0,0,0,0,0,0,0,0
35788000,35708000,4898949633,5.226768e-05,0.0030806663,0.0041878996,0,0.015662316,0.21527874,nan,nan,nan,0.0018527507,0.0,0.0,0.0,0.0,1310988,1310988,6620172,0,0,0,164,1,1,1,2,0,0,0,0,0,0,0,0
35980000,35900000,4898949633,6.7966095e-05,0.003314751,0.0045977896,0,0.015154425,0.217473,nan,nan,nan,0.004911068,0.0,0.0,0.0,0.0,1310988,1310988,6620172,0,0,0,164,1,1,1,2,0,0,0,0,0,0,0,0
36188000,36108000,4898949633,6.3580366e-05,0.003172076,0.0037804837,0,0.0151540795,0.2153106,nan,nan,nan,0.002176755,0.0,0.0,0.0,0.0,1310988,1310988,6620172,0,0,0,164,1,1,1,2,0,0,0,0,0,0,0,0
36388000,36308000,4898949633,6.029436e-05,0.0029864078,0.0038220142,0,0.014905152,0.21737175,nan,nan,nan,0.002183415,0.0,0.0,0.0,0.0,1310988,1310988,6620172,0,0,0,164,1,1,1,2,0,0,0,0,0,0,0,0
36588000,36508000,4898949633,5.441276e-05,0.002634353,0.003714142,0,0.01465956,0.21493933,nan,nan,nan,0.0046784664,0.0,0.0,0.0,0.0,1310988,1310988,6620172,0,0,0,164,1,1,1,2,0,0,0,0,0,0,0,0
36788000,36708000,4898949633,6.13247e-05,0.0022486607,0.0028469954,0,0.014417361,0.21740681,nan,nan,nan,0.0029205761,0.0,0.0,0.0,0.0,1310988,1310988,6620172,0,0,0,164,1,1,1,2,0,0,0,0,0,0,0,0
36988000,36908000,4898949633,6.776051e-05,0.0021076584,0.0023786267,0,0.014178779,0.2145709,nan,nan,nan,0.0022099859,0.0,0.0,0.0,0.0,1310988,1310988,6620172,0,0,0,164,1,1,1,2,0,0,0,0,0,0,0,0
37188000,37108000,4898949633,7.599883e-05,0.002053316,0.0021349287,0,0.013943517,0.21702729,nan,nan,nan,0.0023007032,0.0,0.0,0.0,0.0,1310988,1310988,6620172,0,0,0,164,1,1,1,2,0,0,0,0,0,0,0,0
37388000,37308000,4898949633,8.3216546e-05,0.002008727,0.0020022967,0,0.013711739,0.21460627,nan,nan,nan,0.0040802793,0.0,0.0,0.0,0.0,1310988,1310988,6620172,0,0,0,164,1,1,1,2,0,0,0,0,0,0,0,0
37580000,37500000,4898949633,8.135459e-05,0.001816312,0.0017352058,0,0.013259593,0.21678984,nan,nan,nan,0.0018472292,0.0,0.0,0.0,0.0,1310988,1310988,6620172,0,0,0,164,1,1,1,2,0,0,0,0,0,0,0,0
37788000,37708000,4898949633,6.4439715e-05,0.0015191516,0.0014943575,0,0.013259313,0.21424307,nan,nan,nan,0.003906742,0.0,0.0,0.0,0.0,1310988,1310988,6620172,0,0,0,164,1,1,1,2,0,0,0,0,0,0,0,0
37988000,37908000,4898949633,5.156697e-05,0.0013437844,0.0010693308,0,0.013038396,0.21669063,nan,nan,nan,0.0020439513,0.0,0.0,0.0,0.0,1310988,1310988,6620172,0,0,0,164,1,1,1,2,0,0,0,0,0,0,0,0
38188000,38108000,4898949633,4.1100284e-05,0.0013508835,0.0010670517,0,0.0128212115,0.21388325,nan,nan,nan,0.0013925447,0.0,0.0,0.0,0.0,1310988,1310988,6620172,0,0,0,164,1,1,1,2,0,0,0,0,0,0,0,0
38388000,38308000,4898949633,3.3766017e-05,0.0017543887,0.0021485896,0,0.012607784,0.21632029,nan,nan,nan,0.001598344,0.0,0.0,0.0,0.0,1310988,1310988,6620172,0,0,0,164,1,1,1,2,0,0,0,0,0,0,0,0
38588000,38508000,4898949633,2.7802773e-05,0.002377378,0.003687676,0,0.012398133,0.21392371,nan,nan,nan,0.0036123227,0.0,0.0,0.0,0.0,1310988,1310988,6620172,0,0,0,164,1,1,1,2,0,0,0,0,0,0,0,0
38788000,38708000,4898949633,2.4312681e-05,0.0028801754,0.0038756535,0,0.012192373,0.21595354,nan,nan,nan,0.004826716,0.0,0.0,0.0,0.0,1310988,1310988,6620172,0,0,0,164,1,1,1,2,0,0,0,0,0,0,0,0
38988000,38908000,4898949633,2.632329e-05,0.003262986,0.0049804067,0,0.011990514,0.21356985,nan,nan,nan,0.0032970512,0.0,0.0,0.0,0.0,1310988,1310988,6620172,0,0,0,164,1,1,1,2,0,0,0,0,0,0,0,0
39180000,39100000,4898949633,4.270052e-05,0.0039954293,0.0062509356,0,0.011598591,0.21573487,nan,nan,nan,0.0021218692,0.0,0.0,0.0,0.0,1310988,1310988,6620172,0,0,0,164,1,1,1,2,0,0,0,0,0,0,0,0
39388000,39308000,4898949633,6.118215e-05,0.0047514522,0.0074327486,0,0.011598312,0.21321964,nan,nan,nan,0.002356277,0.0,0.0,0.0,0.0,1310988,1310988,6620172,0,0,0,164,1,1,1,2,0,0,0,0,0,0,0,0
39580000,39500000,4898949633,7.124808e-05,0.0024869565,0.0028171716,0,0.011260177,0.2186185,nan,nan,nan,0.005203486,0.0,0.0,0.0,0.0,1310988,1310988,6620172,0,0,0,164,1,1,1,2,0,0,0,0,0,0,0,0
39788000,39708000,4898949633,8.11848e-05,0.0029601827,0.0033164166,0,0.011260249,0.2164226,nan,nan,nan,0.002171285,0.0,0.0,0.0,0.0,1310988,1310988,6620172,0,0,0,164,1,1,1,2,0,0,0,0,0,0,0,0
39980000,39900000,4898949633,7.954669e-05,0.0030045984,0.0031337247,0,0.010896338,0.21821864,nan,nan,nan,0.0040823417,0.0,0.0,0.0,0.0,1310988,1310988,6620172,0,0,0,164,1,1,1,2,0,0,0,0,0,0,0,0
40188000,40108000,4898949633,5.648336e-05,0.0024617054,0.003444458,0,0.010896339,0.216035,nan,nan,nan,0.004437377,0.0,0.0,0.0,0.0,1310988,1310988,6620172,0,0,0,164,1,1,1,2,0,0,0,0,0,0,0,0
40380000,40300000,4898949633,7.2535026e-06,0.001988222,0.0032578525,0,0.016172877,0.21824326,nan,nan,nan,0.005109912,0.0,0.0,0.0,0.0,1310988,1310988,6620172,0,0,0,164,1,1,1,2,0,0,0,0,0,0,0,0
40588000,40508000,4898949633,5.6206177e-06,0.0018704197,0.0026305192,0,0.0161729,0.21564935,nan,nan,nan,0.0042960914,0.0,0.0,0.0,0.0,1310988,1310988,6620172,0,0,0,164,1,1,1,2,0,0,0,0,0,0,0,0
40788000,40708000,4898949633,8.961562e-06,0.0018136889,0.0020953906,0,0.01591139,0.2181351,nan,nan,nan,0.003428069,0.0,0.0,0.0,0.0,1310988,1310988,6620172,0,0,0,164,1,1,1,2,0,0,0,0,0,0,0,0
40988000,40908000,4898949633,1.1714054e-05,0.0018940734,0.002439053,0,0.015652854,0.21527001,nan,nan,nan,0.0030001234,0.0,0.0,0.0,0.0,1310988,1310988,6620172,0,0,0,164,1,1,1,2,0,0,0,0,0,0,0,0
41180000,41100000,4898949633,1.9122132e-05,0.0020833483,0.0032400815,0,0.015146248,0.21746653,nan,nan,nan,0.0019385797,0.0,0.0,0.0,0.0,1310988,1310988,6620172,0,0,0,164,1,1,1,2,0,0,0,0,0,0,0,0
41388000,41308000,4898949633,3.346195e-05,0.0018575151,0.003092666,0,0.015146348,0.21530513,nan,nan,nan,0.0028236876,0.0,0.0,0.0,0.0,1310988,1310988,6620172,0,0,0,164,1,1,1,2,0,0,0,0,0,0,0,0
41580000,41500000,4898949633,5.265779e-05,0.0022351604,0.0035236916,0,0.014652847,0.21750405,nan,nan,nan,0.0042851996,0.0,0.0,0.0,0.0,1310988,1310988,6620172,0,0,0,164,1,1,1,2,0,0,0,0,0,0,0,0
41780000,41700000,4898949633,6.2089355e-05,0.0025384934,0.003844152,0,0.014411191,0.21466145,nan,nan,nan,0.0018913982,0.0,0.0,0.0,0.0,1310988,1310988,6620172,0,0,0,164,1,1,1,2,0,0,0,0,0,0,0,0
41988000,41908000,4898949633,5.908388e-05,0.0024406773,0.003174774,0,0.014411358,0.21740627,nan,nan,nan,0.0018664143,0.0,0.0,0.0,0.0,1310988,1310988,6620172,0,0,0,164,1,1,1,2,0,0,0,0,0,0,0,0
42180000,42100000,4898949633,7.351534e-05,0.0029457565,0.0039732517,0,0.013938903,0.21430416,nan,nan,nan,0.003543884,0.0,0.0,0.0,0.0,1310988,1310988,6620172,0,0,0,164,1,1,1,2,0,0,0,0,0,0,0,0
42388000,42308000,4898949633,6.654646e-05,0.0028663413,0.00328752,0,0.013939127,0.21704027,nan,nan,nan,0.0041346843,0.0,0.0,0.0,0.0,1310988,1310988,6620172,0,0,0,164,1,1,1,2,0,0,0,0,0,0,0,0
42580000,42500000,4898949633,7.442112e-05,0.0033549848,0.003479214,0,0.013480568,0.21435185,nan,nan,nan,0.002926866,0.0,0.0,0.0,0.0,1310988,1310988,6620172,0,0,0,164,1,1,1,2,0,0,0,0,0,0,0,0
42788000,42708000,4898949633,7.6768236e-05,0.0034384644,0.0029889948,0,0.013480891,0.21667607,nan,nan,nan,0.0027303896,0.0,0.0,0.0,0.0,1310988,1310988,6620172,0,0,0,164,1,1,1,2,0,0,0,0,0,0,0,0
42988000,42908000,4898949633,8.258505e-05,0.0036224797,0.00331544,0,0.013257044,0.21427166,nan,nan,nan,0.002414756,0.0,0.0,0.0,0.0,1310988,1310988,6620172,0,0,0,164,1,1,1,2,0,0,0,0,0,0,0,0
43180000,43100000,4898949633,9.094157e-05,0.0037224467,0.0032156487,0,0.012819972,0.2164532,nan,nan,nan,0.0024288276,0.0,0.0,0.0,0.0,1310988,1310988,6620172,0,0,0,164,1,1,1,2,0,0,0,0,0,0,0,0
43380000,43300000,4898949633,9.168185e-05,0.0036246951,0.0035657105,0,0.012606759,0.2136545,nan,nan,nan,0.0032532918,0.0,0.0,0.0,0.0,1310988,1310988,6620172,0,0,0,164,1,1,1,2,0,0,0,0,0,0,0,0
43588000,43508000,4898949633,7.174544e-05,0.0031473967,0.0031890667,0,0.012606513,0.21636347,nan,nan,nan,0.005081738,0.0,0.0,0.0,0.0,1310988,1310988,6620172,0,0,0,164,1,1,1,2,0,0,0,0,0,0,0,0
43788000,43708000,4898949633,6.392815e-05,0.003004144,0.003043793,0,0.01239712,0.21396883,nan,nan,nan,0.002047669,0.0,0.0,0.0,0.0,1310988,1310988,6620172,0,0,0,164,1,1,1,2,0,0,0,0,0,0,0,0
43988000,43908000,4898949633,7.515326e-05,0.003128914,0.00262446,0,0.012191604,0.21600515,nan,nan,nan,0.0059692385,0.0,0.0,0.0,0.0,1310988,1310988,6620172,0,0,0,164,1,1,1,2,0,0,0,0,0,0,0,0
44188000,44108000,4898949633,8.087622e-05,0.0032823624,0.002562777,0,0.011990005,0.2136227,nan,nan,nan,0.006514091,0.0,0.0,0.0,0.0,1310988,1310988,6620172,0,0,0,164,1,1,1,2,0,0,0,0,0,0,0,0
44388000,44308000,4898949633,8.662621e-05,0.0033407994,0.002959636,0,0.011792137,0.21605639,nan,nan,nan,0.004389102,0.0,0.0,0.0,0.0,1310988,1310988,6620172,0,0,0,164,1,1,1,2,0,0,0,0,0,0,0,0
44588000,44508000,4898949633,7.69505e-05,0.0030149738,0.002972403,0,0.011598225,0.21327922,nan,nan,nan,0.0018829237,0.0,0.0,0.0,0.0,1310988,1310988,6620172,0,0,0,164,1,1,1,2,0,0,0,0,0,0,0,0
44788000,44708000,4898949633,6.5035405e-05,0.002684846,0.002764352,0,0.011408268,0.21570271,nan,nan,nan,0.0017825705,0.0,0.0,0.0,0.0,1310988,1310988,6620172,0,0,0,164,1,1,1,2,0,0,0,0,0,0,0,0
44988000,44908000,4898949633,5.0895138e-05,0.0022227142,0.003323467,0,0.011260342,0.21648595,nan,nan,nan,0.003027209,0.0,0.0,0.0,0.0,1310988,1310988,6620172,0,0,0,164,1,1,1,2,0,0,0,0,0,0,0,0
45180000,45100000,4898949633,4.4376353e-05,0.002121276,0.0034082865,0,0.0108965,0.21828175,nan,nan,nan,0.0036515729,0.0,0.0,0.0,0.0,1310988,1310988,6620172,0,0,0,164,1,1,1,2,0,0,0,0,0,0,0,0
45388000,45308000,4898949633,4.3011787e-05,0.0023525876,0.0036509295,0,0.010896548,0.21609332,nan,nan,nan,0.0034725561,0.0,0.0,0.0,0.0,1310988,1310988,6620172,0,0,0,164,1,1,1,2,0,0,0,0,0,0,0,0
45580000,45500000,4898949633,1.2926035e-05,0.0021811714,0.0036302563,0,0.01617343,0.21830185,nan,nan,nan,0.002908344,0.0,0.0,0.0,0.0,1310988,1310988,6620172,0,0,0,164,1,1,1,2,0,0,0,0,0,0,0,0
45780000,45700000,4898949633,1.0543411e-05,0.002069959,0.0031222622,0,0.015911613,0.21542571,nan,nan,nan,0.0032068666,0.0,0.0,0.0,0.0,1310988,1310988,6620172,0,0,0,164,1,1,1,2,0,0,0,0,0,0,0,0
45980000,45900000,4898949633,1.1503362e-05,0.0020837348,0.0032227684,0,0.0156535,0.21791415,nan,nan,nan,0.0053142775,0.0,0.0,0.0,0.0,1310988,1310988,6620172,0,0,0,164,1,1,1,2,0,0,0,0,0,0,0,0
46188000,46108000,4898949633,1.2602044e-05,0.0022997381,0.0038352723,0,0.015653618,0.21533334,nan,nan,nan,0.0050296774,0.0,0.0,0.0,0.0,1310988,1310988,6620172,0,0,0,164,1,1,1,2,0,0,0,0,0,0,0,0
46380000,46300000,4898949633,1.7487782e-05,0.0022961013,0.0037578698,0,0.015147072,0.21753111,nan,nan,nan,0.0046698493,0.0,0.0,0.0,0.0,1310988,1310988,6620172,0,0,0,164,1,1,1,2,0,0,0,0,0,0,0,0
46588000,46508000,4898949633,2.3034088e-05,0.00245371,0.0031657598,0,0.015146955,0.21497105,nan,nan,nan,0.0036205908,0.0,0.0,0.0,0.0,1310988,1310988,6620172,0,0,0,164,1,1,1,2,0,0,0,0,0,0,0,0
46788000,46708000,4898949633,3.1942425e-05,0.0026071637,0.0037760464,0,0.014897985,0.2174484,nan,nan,nan,0.0035227132,0.0,0.0,0.0,0.0,1310988,1310988,6620172,0,0,0,164,1,1,1,2,0,0,0,0,0,0,0,0
46980000,46900000,4898949633,4.9722585e-05,0.0025895678,0.0024967815,0,0.014411204,0.21474805,nan,nan,nan,0.0060117794,0.0,0.0,0.0,0.0,1310988,1310988,6620172,0,0,0,164,1,1,1,2,0,0,0,0,0,0,0,0
47188000,47108000,4898949633,6.317512e-05,0.0030067142,0.003517333,0,0.014411539,0.2170984,nan,nan,nan,0.0062887417,0.0,0.0,0.0,0.0,1310988,1310988,6620172,0,0,0,164,1,1,1,2,0,0,0,0,0,0,0,0
47380000,47300000,4898949633,8.222251e-05,0.0032415101,0.0035079413,0,0.013939361,0.21441668,nan,nan,nan,0.0024061955,0.0,0.0,0.0,0.0,1310988,1310988,6620172,0,0,0,164,1,1,1,2,0,0,0,0,0,0,0,0
47580000,47500000,4898949633,8.092229e-05,0.0030953407,0.0038084872,0,0.013708445,0.21647887,nan,nan,nan,0.0019601556,0.0,0.0,0.0,0.0,1310988,1310988,6620172,0,0,0,164,1,1,1,2,0,0,0,0,0,0,0,0
47788000,47708000,4898949633,6.0198756e-05,0.0024625724,0.0030035,0,0.013708251,0.21435699,nan,nan,nan,0.0033517561,0.0,0.0,0.0,0.0,1310988,1310988,6620172,0,0,0,164,1,1,1,2,0,0,0,0,0,0,0,0
47980000,47900000,4898949633,5.2649702e-05,0.0017414194,0.0023882936,0,0.013256345,0.2165471,nan,nan,nan,0.0038319402,0.0,0.0,0.0,0.0,1310988,1310988,6620172,0,0,0,164,1,1,1,2,0,0,0,0,0,0,0,0
48188000,48108000,4898949633,5.7565976e-05,0.001518059,0.0020020492,0,0.013255923,0.21402244,nan,nan,nan,0.0036830145,0.0,0.0,0.0,0.0,1310988,1310988,6620172,0,0,0,164,1,1,1,2,0,0,0,0,0,0,0,0
48388000,48308000,4898949633,7.181537e-05,0.0017642904,0.0018452848,0,0.013035235,0.21647474,nan,nan,nan,0.005831057,0.0,0.0,0.0,0.0,1310988,1310988,6620172,0,0,0,164,1,1,1,2,0,0,0,0,0,0,0,0
48588000,48508000,4898949633,7.925908e-05,0.0020226734,0.0016672869,0,0.012818377,0.21408364,nan,nan,nan,0.004930271,0.0,0.0,0.0,0.0,1310988,1310988,6620172,0,0,0,164,1,1,1,2,0,0,0,0,0,0,0,0
48788000,48708000,4898949633,7.9585385e-05,0.0020758305,0.0016358685,0,0.012605373,0.21612896,nan,nan,nan,0.0043313233,0.0,0.0,0.0,0.0,1310988,1310988,6620172,0,0,0,164,1,1,1,2,0,0,0,0,0,0,0,0
48988000,48908000,4898949633,9.040394e-05,0.0022717724,0.0020342069,0,0.012396115,0.21374859,nan,nan,nan,0.006905135,0.0,0.0,0.0,0.0,1310988,1310988,6620172,0,0,0,164,1,1,1,2,0,0,0,0,0,0,0,0
49188000,49108000,4898949633,9.9712735e-05,0.002546401,0.0021385222,0,0.012190641,0.21578678,nan,nan,nan,0.0017671599,0.0,0.0,0.0,0.0,1310988,1310988,6620172,0,0,0,164,1,1,1,2,0,0,0,0,0,0,0,0
49380000,49300000,4898949633,0.00010304825,0.0029789526,0.0024674938,0,0.011791327,0.21315928,nan,nan,nan,0.002270075,0.0,0.0,0.0,0.0,1310988,1310988,6620172,0,0,0,164,1,1,1,2,0,0,0,0,0,0,0,0
49580000,49500000,4898949633,8.771829e-05,0.0031872038,0.0027001079,0,0.0115974005,0.21559432,nan,nan,nan,0.0025498397,0.0,0.0,0.0,0.0,1310988,1310988,6620172,0,0,0,164,1,1,1,2,0,0,0,0,0,0,0,0
49788000,49708000,4898949633,8.13539e-05,0.0033473265,0.0034831706,0,0.011597293,0.2130972,nan,nan,nan,0.0026176604,0.0,0.0,0.0,0.0,1310988,1310988,6620172,0,0,0,164,1,1,1,2,0,0,0,0,0,0,0,0
49980000,49900000,4898949633,0.000101926824,0.0034459112,0.0030389628,0,0.011259333,0.21850525,nan,nan,nan,0.0038088318,0.0,0.0,0.0,0.0,1310988,1310988,6620172,0,0,0,164,1,1,1,2,0,0,0,0,0,0,0,0
50188000,50108000,4898949633,0.00013204494,0.0041115996,0.0028971436,0,0.011259414,0.21631992,nan,nan,nan,0.004061809,0.0,0.0,0.0,0.0,1310988,1310988,6620172,0,0,0,164,1,1,1,2,0,0,0,0,0,0,0,0
50388000,50308000,4898949633,0.00016486523,0.00516438,0.0036992242,0,0.0110754995,0.21840829,nan,nan,nan,0.004336247,0.0,0.0,0.0,0.0,1310988,1310988,6620172,0,0,0,164,1,1,1,2,0,0,0,0,0,0,0,0
50580000,50500000,4898949633,0.00018307164,0.00590681,0.003816379,0,0.010719921,0.21565594,nan,nan,nan,0.0032064307,0.0,0.0,0.0,0.0,1310988,1310988,6620172,0,0,0,164,1,1,1,2,0,0,0,0,0,0,0,0
50780000,50700000,4898949633,4.2330932e-05,0.0026391342,0.0027327777,0,0.016171128,0.21815261,nan,nan,nan,0.006126673,0.0,0.0,0.0,0.0,1310988,1310988,6620172,0,0,0,164,1,1,1,2,0,0,0,0,0,0,0,0
50980000,50900000,4898949633,4.91261e-05,0.0025722173,0.0023625072,0,0.015909648,0.21527012,nan,nan,nan,0.0037134825,0.0,0.0,0.0,0.0,1310988,1310988,6620172,0,0,0,164,1,1,1,2,0,0,0,0,0,0,0,0
51188000,51108000,4898949633,4.5891964e-05,0.0022590293,0.002515708,0,0.015909474,0.21804072,nan,nan,nan,0.003610707,0.0,0.0,0.0,0.0,1310988,1310988,6620172,0,0,0,164,1,1,1,2,0,0,0,0,0,0,0,0
51380000,51300000,4898949633,4.863197e-05,0.001607288,0.0016468902,0,0.015396027,0.21529247,nan,nan,nan,0.002841223,0.0,0.0,0.0,0.0,1310988,1310988,6620172,0,0,0,164,1,1,1,2,0,0,0,0,0,0,0,0
51580000,51500000,4898949633,4.4284556e-05,0.0010038097,0.0014771952,0,0.015144524,0.21736135,nan,nan,nan,0.004116811,0.0,0.0,0.0,0.0,1310988,1310988,6620172,0,0,0,164,1,1,1,2,0,0,0,0,0,0,0,0
51788000,51708000,4898949633,2.6966318e-05,0.0006637292,0.00052418263,0,0.015144541,0.215204,nan,nan,nan,0.0043488033,0.0,0.0,0.0,0.0,1310988,1310988,6620172,0,0,0,164,1,1,1,2,0,0,0,0,0,0,0,0
51980000,51900000,4898949633,1.8911493e-05,0.0011849473,0.0009720879,0,0.014651499,0.21739991,nan,nan,nan,0.0040755486,0.0,0.0,0.0,0.0,1310988,1310988,6620172,0,0,0,164,1,1,1,2,0,0,0,0,0,0,0,0
52180000,52100000,4898949633,1.5054696e-05,0.0017320035,0.0013858097,0,0.014410151,0.21456283,nan,nan,nan,0.0038392844,0.0,0.0,0.0,0.0,1310988,1310988,6620172,0,0,0,164,1,1,1,2,0,0,0,0,0,0,0,0
52388000,52308000,4898949633,1.5448344e-05,0.0018865655,0.0017502902,0,0.014410046,0.21730968,nan,nan,nan,0.004515726,0.0,0.0,0.0,0.0,1310988,1310988,6620172,0,0,0,164,1,1,1,2,0,0,0,0,0,0,0,0
52588000,52508000,4898949633,2.3978277e-05,0.0016415761,0.0015358776,0,0.01417202,0.21448922,nan,nan,nan,0.004801362,0.0,0.0,0.0,0.0,1310988,1310988,6620172,0,0,0,164,1,1,1,2,0,0,0,0,0,0,0,0
52788000,52708000,4898949633,2.5715552e-05,0.0014570084,0.001597406,0,0.013937507,0.2169532,nan,nan,nan,0.005343603,0.0,0.0,0.0,0.0,1310988,1310988,6620172,0,0,0,164,1,1,1,2,0,0,0,0,0,0,0,0
52980000,52900000,4898949633,2.4224604e-05,0.0013834157,0.0012856544,0,0.013478809,0.2142711,nan,nan,nan,0.006067926,0.0,0.0,0.0,0.0,1310988,1310988,6620172,0,0,0,164,1,1,1,2,0,0,0,0,0,0,0,0
53188000,53108000,4898949633,2.4745717e-05,0.0013502487,0.0012750681,0,0.013478572,0.2165963,nan,nan,nan,0.0050162463,0.0,0.0,0.0,0.0,1310988,1310988,6620172,0,0,0,164,1,1,1,2,0,0,0,0,0,0,0,0
53388000,53308000,4898949633,3.158696e-05,0.0013501663,0.0013525417,0,0.013254609,0.21419856,nan,nan,nan,0.003907855,0.0,0.0,0.0,0.0,1310988,1310988,6620172,0,0,0,164,1,1,1,2,0,0,0,0,0,0,0,0
53588000,53508000,4898949633,4.8221376e-05,0.0014314716,0.0013536834,0,0.013034275,0.21665165,nan,nan,nan,0.0043341517,0.0,0.0,0.0,0.0,1310988,1310988,6620172,0,0,0,164,1,1,1,2,0,0,0,0,0,0,0,0
53788000,53708000,4898949633,6.202304e-05,0.0017217173,0.0020355177,0,0.012817714,0.21385415,nan,nan,nan,0.0036642812,0.0,0.0,0.0,0.0,1310988,1310988,6620172,0,0,0,164,1,1,1,2,0,0,0,0,0,0,0,0
53988000,53908000,4898949633,6.141699e-05,0.0017061188,0.0019466341,0,0.012604866,0.21629731,nan,nan,nan,0.005048058,0.0,0.0,0.0,0.0,1310988,1310988,6620172,0,0,0,164,1,1,1,2,0,0,0,0,0,0,0,0
54180000,54100000,4898949633,6.0195183e-05,0.0018983067,0.0024297705,0,0.012190221,0.21364395,nan,nan,nan,0.0038071931,0.0,0.0,0.0,0.0,1310988,1310988,6620172,0,0,0,164,1,1,1,2,0,0,0,0,0,0,0,0
54388000,54308000,4898949633,6.082388e-05,0.0018139464,0.002347338,0,0.012190196,0.2159515,nan,nan,nan,0.005207153,0.0,0.0,0.0,0.0,1310988,1310988,6620172,0,0,0,164,1,1,1,2,0,0,0,0,0,0,0,0
54580000,54500000,4898949633,5.569569e-05,0.0021111965,0.0032837105,0,0.011790961,0.21331441,nan,nan,nan,0.003746849,0.0,0.0,0.0,0.0,1310988,1310988,6620172,0,0,0,164,1,1,1,2,0,0,0,0,0,0,0,0
54788000,54708000,4898949633,6.1351086e-05,0.001960482,0.0026486584,0,0.011790955,0.21560869,nan,nan,nan,0.0032980363,0.0,0.0,0.0,0.0,1310988,1310988,6620172,0,0,0,164,1,1,1,2,0,0,0,0,0,0,0,0
54988000,54908000,4898949633,7.5202624e-05,0.0021083853,0.0028577235,0,0.011597226,0.21324615,nan,nan,nan,0.0046996954,0.0,0.0,0.0,0.0,1310988,1310988,6620172,0,0,0,164,1,1,1,2,0,0,0,0,0,0,0,0
55188000,55108000,4898949633,8.0017824e-05,0.0021160275,0.0021257463,0,0.011407465,0.21567377,nan,nan,nan,0.0025853955,0.0,0.0,0.0,0.0,1310988,1310988,6620172,0,0,0,164,1,1,1,2,0,0,0,0,0,0,0,0
55380000,55300000,4832889473,1.9543713e-05,0.0016038724,0.0024727425,0,0.017631033,0.21617739,nan,nan,nan,0.0033436567,0.0,0.0,0.0,0.0,1310988,1310988,6620172,0,0,0,164,1,1,1,2,0,0,0,0,0,0,0,0
55588000,55508000,4832889473,9.995926e-06,0.0033765559,0.005417949,0,0.034734037,0.22246163,nan,nan,nan,0.0035403017,0.0,0.0,0.0,0.0,1310988,1310988,6620172,0,0,0,164,1,1,1,2,0,0,0,0,0,0,0,0
55788000,55708000,4832889473,1.1615403e-05,0.003805921,0.005660087,0,0.06628062,0.22429253,nan,nan,nan,0.0068093687,0.0,0.0,0.0,0.0,1310988,1310988,6620172,0,0,0,164,1,1,1,2,0,0,0,0,0,0,0,0
55988000,55908000,4832889473,1.1738251e-05,0.00399954,0.0065809446,0,0.1124274,0.23185845,nan,nan,nan,0.005028689,0.0,0.0,0.0,0.0,1310988,1310988,6620172,0,0,0,164,1,1,1,2,0,0,0,0,0,0,0,0
56180000,56100000,4832889473,1.1172194e-05,0.0035862394,0.0051007317,0,0.17005618,0.23424587,nan,nan,nan,0.00859363,0.0,0.0,0.0,0.0,1310988,1310988,6620172,0,0,0,164,1,1,1,2,0,0,0,0,0,0,0,0
56388000,56308000,4832889473,1.1514105e-05,0.0035266632,0.00562604,0,0.24700339,0.2445097,nan,nan,nan,0.005788282,0.0,0.0,0.0,0.0,1310988,1310988,6620172,0,0,0,164,1,1,1,2,0,0,0,0,0,0,0,0
56588000,56508000,4832889473,1.0987234e-05,0.0029160902,0.0036893412,0,0.33511922,0.24751812,nan,nan,nan,0.007678241,0.0,0.0,0.0,0.0,1310988,1310988,6620172,0,0,0,164,1,1,1,2,0,0,0,0,0,0,0,0
56788000,56708000,4832889473,1.1926081e-05,0.0030355137,0.004911477,0,0.43698522,0.25910047,nan,nan,nan,0.006465673,0.0,0.0,0.0,0.0,1310988,1310988,6620172,0,0,0,164,1,1,1,2,0,0,0,0,0,0,0,0
56988000,56908000,4832889473,1.1117535e-05,0.0024583687,0.0031818585,0,0.55248207,0.26310742,nan,nan,nan,0.006835595,0.0,0.0,0.0,0.0,1310988,1310988,6620172,0,0,0,164,1,1,1,2,0,0,0,0,0,0,0,0
57188000,57108000,4832889473,1.1726188e-05,0.0024492666,0.003737872,0,0.68144625,0.27557597,nan,nan,nan,0.0068505453,0.0,0.0,0.0,0.0,1310988,1310988,6620172,0,0,0,164,1,1,1,2,0,0,0,0,0,0,0,0
57388000,57308000,4832889473,1.1780196e-05,0.0016595577,0.0011252834,0,0.82359624,0.27944756,nan,nan,nan,0.010332964,0.0,0.0,0.0,0.0,1310988,1310988,6620172,0,0,0,164,1,1,1,2,0,0,0,0,0,0,0,0
57580000,57500000,4832889473,1.2265562e-05,0.0017660008,0.001993123,0,0.97204036,0.29240632,nan,nan,nan,0.01104644,0.0,0.0,0.0,0.0,1310988,1310988,6620172,0,0,0,164,1,1,1,2,0,0,0,0,0,0,0,0
57788000,57708000,4832889473,1.4696545e-05,0.0010197943,0.0018634124,0,1.1457436,0.2962391,nan,nan,nan,0.014549114,0.0,0.0,0.0,0.0,1310988,1310988,6620172,0,0,0,164,1,1,1,2,0,0,0,0,0,0,0,0
57980000,57900000,4832889473,1.3938165e-05,0.0012848728,0.001020618,0,1.3169398,0.3112014,nan,nan,nan,0.01271624,0.0,0.0,0.0,0.0,1310988,1310988,6620172,0,0,0,164,1,1,1,2,0,0,0,0,0,0,0,0
58188000,58108000,4832889473,1.5879921e-05,0.00072891876,0.0034014161,0,1.5140882,0.3125275,nan,nan,nan,0.014248855,0.0,0.0,0.0,0.0,1310988,1310988,6620172,0,0,0,164,1,1,1,2,0,0,0,0,0,0,0,0
58388000,58308000,4832889473,1.505111e-05,0.0007958285,0.0007156904,0,1.7136084,0.3289264,nan,nan,nan,0.015879102,0.0,0.0,0.0,0.0,1310988,1310988,6620172,0,0,0,164,1,1,1,2,0,0,0,0,0,0,0,0
58588000,58508000,4832889473,1.1752445e-05,0.0012283743,0.0046473746,0,1.9215467,0.32885513,nan,nan,nan,0.015986487,0.0,0.0,0.0,0.0,1310988,1310988,6620172,0,0,0,164,1,1,1,2,0,0,0,0,0,0,0,0
58780000,58700000,4832889473,4.612051e-05,0.0007678971,0.0017164735,0,2.126442,0.34325922,nan,nan,nan,0.012079224,0.0,0.0,0.0,0.0,1310988,1310988,6620172,0,0,0,164,1,1,1,2,0,0,0,0,0,0,0,0
58988000,58908000,4832889473,5.0279523e-05,0.0012631554,0.004315824,0,2.3541021,0.341999,nan,nan,nan,0.011289153,0.0,0.0,0.0,0.0,1310988,1310988,6620172,0,0,0,164,1,1,1,2,0,0,0,0,0,0,0,0
59188000,59108000,4832889473,8.592415e-05,0.0028512075,0.0059355064,0,2.5722785,0.35900837,nan,nan,nan,0.012818414,0.0,0.0,0.0,0.0,1310988,1310988,6620172,0,0,0,164,1,1,1,2,0,0,0,0,0,0,0,0
59388000,59308000,4832889473,7.706129e-05,0.0032746415,0.009120644,0,2.7874806,0.35288227,nan,nan,nan,0.016375057,0.0,0.0,0.0,0.0,1310988,1310988,6620172,0,0,0,164,1,1,1,2,0,0,0,0,0,0,0,0
59588000,59508000,4832889473,0.00011260589,0.00469761,0.010622588,0,2.9972222,0.3697368,nan,nan,nan,0.01841781,0.0,0.0,0.0,0.0,1310988,1310988,6620172,0,0,0,164,1,1,1,2,0,0,0,0,0,0,0,0
59780000,59700000,4832889473,0.00010228688,0.005199379,0.013091528,0,3.186769,0.36248443,nan,nan,nan,0.015079729,0.0,0.0,0.0,0.0,1310988,1310988,6620172,0,0,0,164,1,1,1,2,0,0,0,0,0,0,0,0
59988000,59908000,4832889473,0.000119573306,0.0058964198,0.014504013,0,3.3876197,0.37805387,nan,nan,nan,0.016127475,0.0,0.0,0.0,0.0,1310988,1310988,6620172,0,0,0,164,1,1,1,2,0,0,0,0,0,0,0,0
60188000,60108000,4832889473,0.00010448819,0.0055928775,0.0149330525,0,3.5631742,0.3699057,nan,nan,nan,0.013788251,0.0,0.0,0.0,0.0,1310988,1310988,6620172,0,0,0,164,1,1,1,2,0,0,0,0,0,0,0,0
60388000,60308000,4832889473,0.00010837373,0.005897397,0.015782375,0,3.7234695,0.3840429,nan,nan,nan,0.014896755,0.0,0.0,0.0,0.0,1310988,1310988,6620172,0,0,0,164,1,1,1,2,0,0,0,0,0,0,0,0
60588000,60508000,4832889473,8.68734e-05,0.0048161526,0.014156556,0,3.8666065,0.37440985,nan,nan,nan,0.016738772,0.0,0.0,0.0,0.0,1310988,1310988,6620172,0,0,0,164,1,1,1,2,0,0,0,0,0,0,0,0
60780000,60700000,4832889473,9.496623e-05,0.0052388567,0.015243393,0,3.9812188,0.3895358,nan,nan,nan,0.0158217,0.0,0.0,0.0,0.0,1310988,1310988,6620172,0,0,0,164,1,1,1,2,0,0,0,0,0,0,0,0
60988000,60908000,4832889473,6.6538385e-05,0.0035118477,0.011360796,0,4.100792,0.37728405,nan,nan,nan,0.014642264,0.0,0.0,0.0,0.0,1310988,1310988,6620172,0,0,0,164,1,1,1,2,0,0,0,0,0,0,0,0
61180000,61100000,4832889473,2.0267122e-05,0.0014469996,0.0040974873,0,4.3777385,0.39203736,nan,nan,nan,0.014830515,0.0,0.0,0.0,0.0,1310988,1310988,6620172,0,0,0,164,1,1,1,2,0,0,0,0,0,0,0,0
61380000,61300000,4832889473,1.7997014e-05,0.0019336048,0.0063179214,0,4.4644527,0.3801838,nan,nan,nan,0.015483515,0.0,0.0,0.0,0.0,1310988,1310988,6620172,0,0,0,164,1,1,1,2,0,0,0,0,0,0,0,0
61580000,61500000,4832889473,2.1077185e-05,0.0019897255,0.0056962804,0,4.534041,0.39312914,nan,nan,nan,0.016376812,0.0,0.0,0.0,0.0,1310988,1310988,6620172,0,0,0,164,1,1,1,2,0,0,0,0,0,0,0,0
61788000,61708000,4832889473,2.031607e-05,0.0025487118,0.007982271,0,4.5989475,0.3815685,nan,nan,nan,0.013876901,0.0,0.0,0.0,0.0,1310988,1310988,6620172,0,0,0,164,1,1,1,2,0,0,0,0,0,0,0,0
61980000,61900000,4832889473,2.4780367e-05,0.0027829336,0.008708121,0,4.6282067,0.3957941,nan,nan,nan,0.017013634,0.0,0.0,0.0,0.0,1310988,1310988,6620172,0,0,0,164,1,1,1,2,0,0,0,0,0,0,0,0
62188000,62108000,4832889473,2.5294452e-05,0.0031069687,0.010335548,0,4.6664133,0.381412,nan,nan,nan,0.012865587,0.0,0.0,0.0,0.0,1310988,1310988,6620172,0,0,0,164,1,1,1,2,0,0,0,0,0,0,0,0
62388000,62308000,4832889473,2.6137506e-05,0.003217794,0.010544874,0,4.683007,0.39621362,nan,nan,nan,0.013832162,0.0,0.0,0.0,0.0,1310988,1310988,6620172,0,0,0,164,1,1,1,2,0,0,0,0,0,0,0,0
62580000,62500000,4832889473,3.0108931e-05,0.0031983673,0.011019902,0,4.6795278,0.3821227,nan,nan,nan,0.015800921,0.0,0.0,0.0,0.0,1310988,1310988,6620172,0,0,0,164,1,1,1,2,0,0,0,0,0,0,0,0
62788000,62708000,4832889473,2.7357479e-05,0.003294528,0.011164056,0,4.688312,0.39526996,nan,nan,nan,0.015268637,0.0,0.0,0.0,0.0,1310988,1310988,6620172,0,0,0,164,1,1,1,2,0,0,0,0,0,0,0,0
62988000,62908000,4832889473,2.9124098e-05,0.0029744236,0.010554187,0,4.679709,0.38203642,nan,nan,nan,0.014549064,0.0,0.0,0.0,0.0,1310988,1310988,6620172,0,0,0,164,1,1,1,2,0,0,0,0,0,0,0,0
63188000,63108000,4832889473,2.7826172e-05,0.002958346,0.010428786,0,4.6653886,0.39416543,nan,nan,nan,0.018642405,0.0,0.0,0.0,0.0,1310988,1310988,6620172,0,0,0,164,1,1,1,2,0,0,0,0,0,0,0,0
63388000,63308000,4832889473,3.0277271e-05,0.0028108095,0.01062844,0,4.646,0.38084814,nan,nan,nan,0.015656231,0.0,0.0,0.0,0.0,1310988,1310988,6620172,0,0,0,164,1,1,1,2,0,0,0,0,0,0,0,0
63588000,63508000,4832889473,2.7055574e-05,0.0029519373,0.010628161,0,4.62275,0.39528844,nan,nan,nan,0.015569655,0.0,0.0,0.0,0.0,1310988,1310988,6620172,0,0,0,164,1,1,1,2,0,0,0,0,0,0,0,0
63788000,63708000,4832889473,2.9788536e-05,0.002628126,0.01037632,0,4.5960875,0.37972546,nan,nan,nan,0.016118089,0.0,0.0,0.0,0.0,1310988,1310988,6620172,0,0,0,164,1,1,1,2,0,0,0,0,0,0,0,0
63980000,63900000,4832889473,2.8963086e-05,0.0030232093,0.0113904625,0,4.558611,0.393163,nan,nan,nan,0.0149257025,0.0,0.0,0.0,0.0,1310988,1310988,6620172,0,0,0,164,1,1,1,2,0,0,0,0,0,0,0,0
64188000,64108000,4832889473,3.1113817e-05,0.0026946291,0.011281848,0,4.535675,0.38082772,nan,nan,nan,0.017166344,0.0,0.0,0.0,0.0,1310988,1310988,6620172,0,0,0,164,1,1,1,2,0,0,0,0,0,0,0,0
64388000,64308000,4832889473,2.9010793e-05,0.0029781896,0.011858013,0,4.5029173,0.39281988,nan,nan,nan,0.01802023,0.0,0.0,0.0,0.0,1310988,1310988,6620172,0,0,0,164,1,1,1,2,0,0,0,0,0,0,0,0
64588000,64508000,4832889473,3.1215008e-05,0.0028456666,0.01247666,0,4.4689274,0.37976983,nan,nan,nan,0.01467709,0.0,0.0,0.0,0.0,1310988,1310988,6620172,0,0,0,164,1,1,1,2,0,0,0,0,0,0,0,0
64788000,64708000,4832889473,2.8349468e-05,0.0035413168,0.014431473,0,4.434189,0.39415094,nan,nan,nan,0.014653419,0.0,0.0,0.0,0.0,1310988,1310988,6620172,0,0,0,164,1,1,1,2,0,0,0,0,0,0,0,0
64988000,64908000,4832889473,3.237105e-05,0.0031501735,0.014673168,0,4.398845,0.37880614,nan,nan,nan,0.016285261,0.0,0.0,0.0,0.0,1310988,1310988,6620172,0,0,0,164,1,1,1,2,0,0,0,0,0,0,0,0
65188000,65108000,4832889473,3.0461902e-05,0.0035571016,0.016027879,0,4.363269,0.39313316,nan,nan,nan,0.01637665,0.0,0.0,0.0,0.0,1310988,1310988,6620172,0,0,0,164,1,1,1,2,0,0,0,0,0,0,0,0
