timestamp,timestamp_sample,gps_hvel[0],gps_hvel[1],gps_vvel,gps_hpos[0],gps_hpos[1],gps_vpos,ev_hvel[0],ev_hvel[1],ev_vvel,ev_hpos[0],ev_hpos[1],ev_vpos,rng_vpos,baro_vpos,aux_hvel[0],aux_hvel[1],aux_vvel,flow[0],flow[1],terr_flow[0],terr_flow[1],heading,mag_field[0],mag_field[1],mag_field[2],gravity[0],gravity[1],gravity[2],drag[0],drag[1],airspeed,beta,hagl,hagl_rate
3636000,3556000,0.0022948785,-0.0023818808,-0.0470885,5.3183605e-05,-5.4759068e-05,488.10306,0.0,0.0,0.0,0.0,0.0,0.0,0.0,0.041787267,0.0,0.0,nan,0.0,0.0,0.0,0.0,0.0,0.0,0.0,0.0,-0.022464992,-0.04056993,-0.00041074568,0.0,0.0,0.0,0.0,0.0,0.0
4132000,4052000,0.0014979197,0.0098746475,-0.01738117,0.00010196937,1.3162312e-05,488.10938,0.0,0.0,0.0,0.0,0.0,0.0,0.0,0.015801832,0.0,0.0,nan,0.0,0.0,0.0,0.0,0.0,0.0,0.0,0.0,-0.008091274,0.0050469334,0.00028210346,0.0,0.0,0.0,0.0,0.0,0.0
4636000,4556000,0.0023765792,-0.011694077,-0.021800691,0.0004083731,-0.00026388737,-9.43467e-05,0.0,0.0,0.0,0.0,0.0,0.0,0.0,-0.0033476017,0.0,0.0,nan,0.0,0.0,0.0,0.0,0.0,0.0,0.0,0.0,-0.033226598,0.0025357946,0.0007301387,0.0,0.0,0.0,0.0,0.0,0.0
5132000,5052000,-0.0076672765,-0.0033359195,0.017820245,0.0004487171,-0.007924284,0.03380582,0.0,0.0,0.0,0.0,0.0,0.0,0.0,0.055516988,0.0,0.0,nan,0.0,0.0,0.0,0.0,0.0,0.0,0.0,0.0,-0.0016680168,0.014544109,0.00030663863,0.0,0.0,0.0,0.0,0.0,0.0
5628000,5548000,0.0011230794,0.001334153,0.02096459,0.00021592509,-0.0076187146,0.036065772,0.0,0.0,0.0,0.0,0.0,0.0,0.0,0.068197764,0.0,0.0,nan,0.0,0.0,0.0,0.0,0.0,0.0,0.0,0.0,-0.009893778,-0.020535639,-0.00019285589,0.0,0.0,0.0,0.0,0.0,0.0
6132000,6052000,0.0006998152,-0.0091441665,0.011094127,0.00013501213,-0.007263273,0.04237491,0.0,0.0,0.0,0.0,0.0,0.0,0.0,-0.032297827,0.0,0.0,nan,0.0,0.0,0.0,0.0,0.0,0.0,0.0,0.0,-0.04734421,-0.0143687995,0.00060295576,0.0,0.0,0.0,0.0,0.0,0.0
6636000,6556000,0.00043744664,-0.00028848875,-0.027619604,0.00010293866,-0.0075271213,0.037088588,0.0,0.0,0.0,0.0,0.0,0.0,0.0,0.02222419,0.0,0.0,nan,0.0,0.0,0.0,0.0,0.0,0.0,0.0,0.0,0.018543787,-0.0048408536,-0.00049342954,0.0,0.0,0.0,0.0,0.0,0.0
7132000,7052000,-0.0031724079,0.00036345472,-0.04520543,-0.00046748793,-0.0074814637,0.04877253,0.0,0.0,0.0,0.0,0.0,0.0,0.0,-0.096156165,0.0,0.0,nan,0.0,0.0,0.0,0.0,0.0,0.0,0.0,0.0,-0.023364231,-0.05298342,-0.00061230926,0.0,0.0,0.0,0.0,0.0,0.0
7636000,7556000,0.0010571798,0.005280517,-0.021113176,-8.862437e-06,-0.0066008656,0.049803756,0.0,0.0,0.0,0.0,0.0,0.0,0.0,-0.0440894,0.0,0.0,nan,0.0,0.0,0.0,0.0,0.0,0.0,0.0,0.0,-0.01070996,0.0019232029,0.0002517359,0.0,0.0,0.0,0.0,0.0,0.0
8132000,8052000,-0.009887774,0.0014749635,-0.01947159,0.00012302613,-0.006985973,0.046992015,0.0,0.0,0.0,0.0,0.0,0.0,0.0,-0.012520397,0.0,0.0,nan,0.0,0.0,0.0,0.0,0.0,0.0,0.0,0.0,-0.0020638923,0.0042312476,0.00011754568,0.0,0.0,0.0,0.0,0.0,0.0
8636000,8556000,-0.0017356902,0.0008783519,0.008970501,0.011037814,-0.0073289135,0.049048893,0.0,0.0,0.0,0.0,0.0,0.0,0.0,0.031465326,0.0,0.0,nan,0.0,0.0,0.0,0.0,0.0,0.0,0.0,0.0,-0.0012905514,-0.010715881,-0.00017195175,0.0,0.0,0.0,0.0,0.0,0.0
9132000,9052000,-0.00036442606,0.00087366905,0.0100671295,-0.00015454655,-0.0074266884,0.042089757,0.0,0.0,0.0,0.0,0.0,0.0,0.0,-0.031847797,0.0,0.0,nan,0.0,0.0,0.0,0.0,0.0,0.0,0.0,0.0,-0.0038345484,-0.02672702,-0.00042922216,0.0,0.0,0.0,0.0,0.0,0.0
9628000,9548000,0.0032541766,0.023051595,0.0009926632,0.0008609834,-0.006692214,0.0015453026,0.0,0.0,0.0,0.0,0.0,0.0,0.0,-0.053292498,0.0,0.0,nan,0.0,0.0,0.0,0.0,0.0,0.0,0.0,0.0,-0.008833102,-0.023158737,-0.0002634774,0.0,0.0,0.0,0.0,0.0,0.0
10132000,10052000,0.013879387,0.0031603621,0.0031133667,0.0009284386,-0.006755655,-0.0025143325,0.0,0.0,0.0,0.0,0.0,0.0,0.0,-0.06287634,0.0,0.0,nan,0.0,0.0,0.0,0.0,0.0,0.0,0.0,0.0,0.010897383,0.003186229,-0.0001665484,0.0,0.0,0.0,0.0,0.0,0.0
10636000,10556000,0.010177858,-0.009522072,0.0057426095,0.00044575488,-0.014642607,-0.0018406436,0.0,0.0,0.0,0.0,0.0,0.0,0.0,0.018954024,0.0,0.0,nan,0.0,0.0,0.0,0.0,0.0,0.0,0.0,0.0,0.015556247,-0.014542189,-0.00058355776,0.0,0.0,0.0,0.0,0.0,0.0
11132000,11052000,-0.0018280301,-0.0015535676,0.02628265,-0.00023726933,-0.00778583,0.003787838,0.0,0.0,0.0,0.0,0.0,0.0,0.0,0.06875725,0.0,0.0,nan,0.0,0.0,0.0,0.0,0.0,0.0,0.0,0.0,-0.0022583692,0.011692344,0.00023817831,0.0,0.0,0.0,0.0,0.0,0.0
11628000,11548000,-0.012533968,-0.0037473734,-0.007873651,-0.0004154663,-0.008255215,0.021811161,0.0,0.0,0.0,0.0,0.0,0.0,0.0,-0.07778706,0.0,0.0,nan,0.0,0.0,0.0,0.0,0.0,0.0,0.0,0.0,-0.001705406,0.03228574,0.00053364836,0.0,0.0,0.0,0.0,0.0,0.0
12132000,12052000,-0.023578923,-0.012642091,0.015062287,0.010540315,-0.008278019,0.019296668,0.0,0.0,0.0,0.0,0.0,0.0,0.0,-0.0055584796,0.0,0.0,nan,0.0,0.0,0.0,0.0,0.0,0.0,0.0,0.0,0.022682674,-0.04193311,-0.0012594664,0.0,0.0,0.0,0.0,0.0,0.0
12628000,12548000,-0.013045743,-0.00060337305,0.023233468,-0.0007012967,-0.007750506,0.012458447,0.0,0.0,0.0,0.0,0.0,0.0,0.0,-0.04800129,0.0,0.0,nan,0.0,0.0,0.0,0.0,0.0,0.0,0.0,0.0,-0.010813471,0.006731499,0.0003103754,0.0,0.0,0.0,0.0,0.0,0.0
13132000,13052000,-0.020094536,0.011728587,-0.01689837,-0.00038849423,-0.007549244,0.012732852,0.0,0.0,0.0,0.0,0.0,0.0,0.0,0.036556683,0.0,0.0,nan,0.0,0.0,0.0,0.0,0.0,0.0,0.0,0.0,-0.003215874,-0.021062015,-0.00030923777,0.0,0.0,0.0,0.0,0.0,0.0
13628000,13548000,0.03125211,0.002766252,0.03261238,0.00013473327,-0.006923098,0.017736543,0.0,0.0,0.0,0.0,0.0,0.0,0.0,0.01923225,0.0,0.0,nan,0.0,0.0,0.0,0.0,0.0,0.0,0.0,0.0,-0.0053642304,-0.008104502,-3.7701448e-05,0.0,0.0,0.0,0.0,0.0,0.0
14132000,14052000,-0.017775,0.00080336595,-0.018286211,0.00040217172,-0.014648796,0.019405335,0.0,0.0,0.0,0.0,0.0,0.0,0.0,-0.00425696,0.0,0.0,nan,0.0,0.0,0.0,0.0,0.0,0.0,0.0,0.0,0.017984051,-0.006123503,-0.00046212625,0.0,0.0,0.0,0.0,0.0,0.0
14628000,14548000,0.0009920774,-0.0016411454,0.02136852,0.0002081626,4.5325387e-06,0.019046076,0.0,0.0,0.0,0.0,0.0,0.0,0.0,-0.02304329,0.0,0.0,nan,0.0,0.0,0.0,0.0,0.0,0.0,0.0,0.0,0.00716685,0.007874733,-9.372439e-06,0.0,0.0,0.0,0.0,0.0,0.0
15132000,15052000,0.0024100486,-0.021294355,0.010178313,0.0004951512,-0.00796381,0.01642425,0.0,0.0,0.0,0.0,0.0,0.0,0.0,0.017428312,0.0,0.0,nan,0.0,0.0,0.0,0.0,0.0,0.0,0.0,0.0,0.029021824,-0.016607335,-0.0008598312,0.0,0.0,0.0,0.0,0.0,0.0
15636000,15556000,0.0115179,0.010312667,0.007926717,0.00035736637,-0.007473263,0.024096008,0.0,0.0,0.0,0.0,0.0,0.0,0.0,0.04924236,0.0,0.0,nan,0.0,0.0,0.0,0.0,0.0,0.0,0.0,0.0,-0.015228436,-0.02072549,-9.658112e-05,0.0,0.0,0.0,0.0,0.0,0.0
16132000,16052000,-0.00060100213,-0.000692798,-0.0012110043,0.00026039255,-0.0075752274,0.0058220923,0.0,0.0,0.0,0.0,0.0,0.0,0.0,0.05059068,0.0,0.0,nan,0.0,0.0,0.0,0.0,0.0,0.0,0.0,0.0,-0.025333531,-0.0057255006,0.00031307162,0.0,0.0,0.0,0.0,0.0,0.0
16636000,16556000,0.00031727215,-0.012016541,0.019020053,7.789379e-05,-0.00044148782,0.009945035,0.0,0.0,0.0,0.0,0.0,0.0,0.0,0.026125602,0.0,0.0,nan,0.0,0.0,0.0,0.0,0.0,0.0,0.0,0.0,-0.00089001504,0.004921429,9.331018e-05,0.0,0.0,0.0,0.0,0.0,0.0
17132000,17052000,-0.00032501732,0.0064675924,0.021584475,4.7113674e-05,-0.008288561,0.0035571605,0.0,0.0,0.0,0.0,0.0,0.0,0.0,-0.04329115,0.0,0.0,nan,0.0,0.0,0.0,0.0,0.0,0.0,0.0,0.0,0.0029648654,-0.00049898116,-5.9074322e-05,0.0,0.0,0.0,0.0,0.0,0.0
17636000,17556000,-0.0016784767,-0.0031951773,0.0026213136,-0.00018900205,-0.008315242,0.011326566,0.0,0.0,0.0,0.0,0.0,0.0,0.0,0.07503933,0.0,0.0,nan,0.0,0.0,0.0,0.0,0.0,0.0,0.0,0.0,-0.011443296,-0.013366549,-3.9982508e-05,0.0,0.0,0.0,0.0,0.0,0.0
18132000,18052000,0.0081362175,0.00013472931,-0.010568585,-0.00032935862,-0.007824435,0.011536717,0.0,0.0,0.0,0.0,0.0,0.0,0.0,-0.035134993,0.0,0.0,nan,0.0,0.0,0.0,0.0,0.0,0.0,0.0,0.0,-0.013233344,0.008656281,0.00034105062,0.0,0.0,0.0,0.0,0.0,0.0
18636000,18556000,0.0022916687,-0.0019497158,0.011253782,8.302906e-06,-0.0077456776,0.008368015,0.0,0.0,0.0,0.0,0.0,0.0,0.0,-0.04465878,0.0,0.0,nan,0.0,0.0,0.0,0.0,0.0,0.0,0.0,0.0,0.022900572,-0.008350004,-0.0005356899,0.0,0.0,0.0,0.0,0.0,0.0
19132000,19052000,-0.017548636,-0.0037827953,-0.008051772,0.00048480896,-0.000604807,0.003198184,0.0,0.0,0.0,0.0,0.0,0.0,0.0,-0.030076213,0.0,0.0,nan,0.0,0.0,0.0,0.0,0.0,0.0,0.0,0.0,0.025021667,0.008840458,-0.0003021912,0.0,0.0,0.0,0.0,0.0,0.0
19636000,19556000,-0.019914612,-0.0030383507,0.013006896,-6.0533963e-05,-0.008210592,0.011852484,0.0,0.0,0.0,0.0,0.0,0.0,0.0,0.023779154,0.0,0.0,nan,0.0,0.0,0.0,0.0,0.0,0.0,0.0,0.0,-0.038178768,0.020258797,0.00081207143,0.0,0.0,0.0,0.0,0.0,0.0
20132000,20052000,0.0005371088,-0.0026657684,0.021834562,0.00015013384,-0.008665468,0.007006187,0.0,0.0,0.0,0.0,0.0,0.0,0.0,-0.010964647,0.0,0.0,nan,0.0,0.0,0.0,0.0,0.0,0.0,0.0,0.0,0.005779471,-0.008623948,-0.00022446354,0.0,0.0,0.0,0.0,0.0,0.0
20636000,20556000,0.011473057,-0.0016687477,0.020388203,0.00036211265,-0.008181665,0.020367987,0.0,0.0,0.0,0.0,0.0,0.0,0.0,0.06951299,0.0,0.0,nan,0.0,0.0,0.0,0.0,0.0,0.0,0.0,0.0,-0.024110712,-0.010055635,0.00018091557,0.0,0.0,0.0,0.0,0.0,0.0
21132000,21052000,-0.002666857,0.0002875031,0.030473169,-0.00020302655,-0.0076757492,0.0070346817,0.0,0.0,0.0,0.0,0.0,0.0,0.0,-0.110037535,0.0,0.0,nan,0.0,0.0,0.0,0.0,0.0,0.0,0.0,0.0,0.04475816,0.00017127988,-0.0007772175,0.0,0.0,0.0,0.0,0.0,0.0
21628000,21548000,0.002580211,0.0041339654,0.011970535,-0.0017067606,-0.006707024,0.021217875,0.0,0.0,0.0,0.0,0.0,0.0,0.0,0.038098786,0.0,0.0,nan,0.0,0.0,0.0,0.0,0.0,0.0,0.0,0.0,-0.0035095313,-0.014870272,-0.00017637144,0.0,0.0,0.0,0.0,0.0,0.0
22132000,22052000,-0.0049052914,0.011370842,0.00053360127,-0.0014714091,-0.014538184,0.0074955747,0.0,0.0,0.0,0.0,0.0,0.0,0.0,-0.064502954,0.0,0.0,nan,0.0,0.0,0.0,0.0,0.0,0.0,0.0,0.0,0.0449239,-0.010629066,-0.00097138976,0.0,0.0,0.0,0.0,0.0,0.0
22636000,22556000,-0.006194211,0.00016191883,0.0014219787,-0.0015055243,-0.007278867,0.0056109354,0.0,0.0,0.0,0.0,0.0,0.0,0.0,0.0014530979,0.0,0.0,nan,0.0,0.0,0.0,0.0,0.0,0.0,0.0,0.0,-0.008981503,-0.025978856,-0.00027626485,0.0,0.0,0.0,0.0,0.0,0.0
23132000,23052000,0.0050747124,-0.029714089,0.043008164,-0.0014391077,-0.0073973564,0.0042726286,0.0,0.0,0.0,0.0,0.0,0.0,0.0,-0.014993783,0.0,0.0,nan,0.0,0.0,0.0,0.0,0.0,0.0,0.0,0.0,0.021357784,0.0279463,9.728134e-06,0.0,0.0,0.0,0.0,0.0,0.0
23628000,23548000,-0.00967905,-0.010003544,0.016548157,-8.822899e-05,-0.0001989129,0.010861397,0.0,0.0,0.0,0.0,0.0,0.0,0.0,-0.014012307,0.0,0.0,nan,0.0,0.0,0.0,0.0,0.0,0.0,0.0,0.0,0.0015670827,-0.0072307857,-0.00013241333,0.0,0.0,0.0,0.0,0.0,0.0
24132000,24052000,0.011679717,0.0010149269,-0.03460314,0.00011515395,6.298796e-05,0.010280594,0.0,0.0,0.0,0.0,0.0,0.0,0.0,-0.059054445,0.0,0.0,nan,0.0,0.0,0.0,0.0,0.0,0.0,0.0,0.0,0.006095421,-0.0029753323,-0.00014107226,0.0,0.0,0.0,0.0,0.0,0.0
24628000,24548000,0.00887765,0.009581725,0.06522593,8.6756554e-05,-0.0074530537,0.015154049,0.0,0.0,0.0,0.0,0.0,0.0,0.0,0.041079257,0.0,0.0,nan,0.0,0.0,0.0,0.0,0.0,0.0,0.0,0.0,0.0069446256,0.0016154366,-8.5430336e-05,0.0,0.0,0.0,0.0,0.0,0.0
25132000,25052000,-0.0041968627,-0.0024436624,0.0053539183,-0.00044875813,-0.0077254474,0.012746405,0.0,0.0,0.0,0.0,0.0,0.0,0.0,-0.07184218,0.0,0.0,nan,0.0,0.0,0.0,0.0,0.0,0.0,0.0,0.0,0.049510118,0.0032338507,-0.00083516573,0.0,0.0,0.0,0.0,0.0,0.0
25628000,25548000,-0.0049734237,-0.009138146,0.0067580175,-0.0013813528,-0.007688931,0.014491841,0.0,0.0,0.0,0.0,0.0,0.0,0.0,-0.14863731,0.0,0.0,nan,0.0,0.0,0.0,0.0,0.0,0.0,0.0,0.0,0.0037361947,-0.030416468,-0.0005356975,0.0,0.0,0.0,0.0,0.0,0.0
26132000,26052000,-0.0050776894,-0.016494408,0.03543933,-0.0012887893,-0.0069558453,0.016675506,0.0,0.0,0.0,0.0,0.0,0.0,0.0,0.031458724,0.0,0.0,nan,0.0,0.0,0.0,0.0,0.0,0.0,0.0,0.0,-0.01537372,-0.0060089245,0.00014838269,0.0,0.0,0.0,0.0,0.0,0.0
26636000,26556000,-0.023904135,0.0065408275,0.038745463,-0.0012290312,-0.0062126503,0.0066601783,0.0,0.0,0.0,0.0,0.0,0.0,0.0,0.029469993,0.0,0.0,nan,0.0,0.0,0.0,0.0,0.0,0.0,0.0,0.0,0.043201957,-0.023689989,-0.0011439185,0.0,0.0,0.0,0.0,0.0,0.0
27132000,27052000,-0.0051126555,0.0042634364,0.019688018,-0.0011173617,-0.006267912,0.014129195,0.0,0.0,0.0,0.0,0.0,0.0,0.0,0.01844664,0.0,0.0,nan,0.0,0.0,0.0,0.0,0.0,0.0,0.0,0.0,0.02705936,-0.003903124,-0.00052144134,0.0,0.0,0.0,0.0,0.0,0.0
27636000,27556000,-0.0050412966,-0.0024806121,0.023073167,-0.001239351,-0.005981789,0.0059459843,0.0,0.0,0.0,0.0,0.0,0.0,0.0,0.028852247,0.0,0.0,nan,0.0,0.0,0.0,0.0,0.0,0.0,0.0,0.0,0.032017577,-0.02288875,-0.0009197576,0.0,0.0,0.0,0.0,0.0,0.0
28132000,28052000,-0.005001166,0.0073609673,0.018511137,-0.012203643,-0.0058176015,9.4953924e-05,0.0,0.0,0.0,0.0,0.0,0.0,0.0,-0.005973723,0.0,0.0,nan,0.0,0.0,0.0,0.0,0.0,0.0,0.0,0.0,0.03129914,-0.014843999,-0.0007890431,0.0,0.0,0.0,0.0,0.0,0.0
28636000,28556000,0.0068976306,0.015094977,0.049466763,-0.0009854198,-0.0061658043,0.020302162,0.0,0.0,0.0,0.0,0.0,0.0,0.0,0.10938898,0.0,0.0,nan,0.0,0.0,0.0,0.0,0.0,0.0,0.0,0.0,0.009587162,0.008672726,-3.6677106e-05,0.0,0.0,0.0,0.0,0.0,0.0
29132000,29052000,-0.004984652,0.0023910473,0.0287527,-0.0009104695,-0.00672285,0.0087315105,0.0,0.0,0.0,0.0,0.0,0.0,0.0,0.058654252,0.0,0.0,nan,0.0,0.0,0.0,0.0,0.0,0.0,0.0,0.0,0.0023092846,-8.071414e-05,-3.9026127e-05,0.0,0.0,0.0,0.0,0.0,0.0
29628000,29548000,0.017030515,-0.0013352871,-0.03647506,-0.00080724724,-0.007305984,0.028137214,0.0,0.0,0.0,0.0,0.0,0.0,0.0,-0.034986306,0.0,0.0,nan,0.0,0.0,0.0,0.0,0.0,0.0,0.0,0.0,0.042391606,0.0144322105,-0.00059934286,0.0,0.0,0.0,0.0,0.0,0.0
30132000,30052000,-0.003438065,0.00744434,-0.038528424,-0.00061425107,-0.0076858494,0.015861962,0.0,0.0,0.0,0.0,0.0,0.0,0.0,0.0037971884,0.0,0.0,nan,0.0,0.0,0.0,0.0,0.0,0.0,0.0,0.0,0.011385667,-0.017727768,-0.00048874435,0.0,0.0,0.0,0.0,0.0,0.0
30636000,30556000,-0.006428943,-0.023600668,0.028447054,0.009235774,-0.0007499682,0.015495874,0.0,0.0,0.0,0.0,0.0,0.0,0.0,-0.055861764,0.0,0.0,nan,0.0,0.0,0.0,0.0,0.0,0.0,0.0,0.0,0.030526407,0.0005476084,-0.00056744204,0.0,0.0,0.0,0.0,0.0,0.0
31132000,31052000,-0.015454769,-0.0073584123,-0.0031622332,-0.0015573134,-0.00905393,0.0072092228,0.0,0.0,0.0,0.0,0.0,0.0,0.0,0.0004650727,0.0,0.0,nan,0.0,0.0,0.0,0.0,0.0,0.0,0.0,0.0,0.004420098,-0.007214191,-0.00019198033,0.0,0.0,0.0,0.0,0.0,0.0
31636000,31556000,-0.0041720727,0.004618708,0.004298579,-0.0009746442,-0.00873549,0.017031644,0.0,0.0,0.0,0.0,0.0,0.0,0.0,-0.062269628,0.0,0.0,nan,0.0,0.0,0.0,0.0,0.0,0.0,0.0,0.0,0.042024266,0.0001811801,-0.00082926196,0.0,0.0,0.0,0.0,0.0,0.0
32132000,32052000,0.005954858,-0.005183976,0.022337172,-0.0010626839,-0.00886957,0.017799992,0.0,0.0,0.0,0.0,0.0,0.0,0.0,0.073459,0.0,0.0,nan,0.0,0.0,0.0,0.0,0.0,0.0,0.0,0.0,0.036344282,0.015643267,-0.0004890711,0.0,0.0,0.0,0.0,0.0,0.0
32628000,32548000,-0.004653513,-0.003926639,0.0016886629,-0.000981582,-0.00873765,0.020201523,0.0,0.0,0.0,0.0,0.0,0.0,0.0,-0.0153005235,0.0,0.0,nan,0.0,0.0,0.0,0.0,0.0,0.0,0.0,0.0,0.011103781,0.001313618,-0.00018578321,0.0,0.0,0.0,0.0,0.0,0.0
33132000,33052000,-0.012486372,-0.0071521113,0.020642824,0.010309141,-0.008992159,0.016984332,0.0,0.0,0.0,0.0,0.0,0.0,0.0,0.080607116,0.0,0.0,nan,0.0,0.0,0.0,0.0,0.0,0.0,0.0,0.0,0.022528557,0.00020479117,-0.00043388014,0.0,0.0,0.0,0.0,0.0,0.0
33628000,33548000,-0.0042538857,-0.005591482,-0.0034577511,-0.00072862685,-0.01630514,0.0047738105,0.0,0.0,0.0,0.0,0.0,0.0,0.0,0.03804036,0.0,0.0,nan,0.0,0.0,0.0,0.0,0.0,0.0,0.0,0.0,-0.026697328,0.010121752,0.0005938489,0.0,0.0,0.0,0.0,0.0,0.0
34132000,34052000,-0.0027014595,0.016044732,0.11416708,-0.00060735503,-0.008491877,0.0014260113,0.0,0.0,0.0,0.0,0.0,0.0,0.0,0.015897863,0.0,0.0,nan,0.0,0.0,0.0,0.0,0.0,0.0,0.0,0.0,0.010003879,0.028466066,0.00017441117,0.0,0.0,0.0,0.0,0.0,0.0
34636000,34556000,-0.003092491,-0.013298852,0.011297755,-0.0005864864,-0.008259431,0.022787087,0.0,0.0,0.0,0.0,0.0,0.0,0.0,-0.032127436,0.0,0.0,nan,0.0,0.0,0.0,0.0,0.0,0.0,0.0,0.0,-0.0018872257,0.0011900871,5.0474817e-05,0.0,0.0,0.0,0.0,0.0,0.0
35132000,35052000,-0.024529438,0.007921262,0.007947691,-0.00077459106,-0.008129903,0.01969058,0.0,0.0,0.0,0.0,0.0,0.0,0.0,0.10471247,0.0,0.0,nan,0.0,0.0,0.0,0.0,0.0,0.0,0.0,0.0,0.008871985,-0.0072264145,-0.00027113248,0.0,0.0,0.0,0.0,0.0,0.0
35628000,35548000,-0.01065433,0.0026997982,-0.016479943,-0.0026856845,-0.0070148,0.014195241,0.0,0.0,0.0,0.0,0.0,0.0,0.0,-0.06882963,0.0,0.0,nan,0.0,0.0,0.0,0.0,0.0,0.0,0.0,0.0,0.026100053,-0.017615173,-0.0007850121,0.0,0.0,0.0,0.0,0.0,0.0
36132000,36052000,-0.028558057,-0.007085355,0.03166206,-0.0025326395,-0.006677418,0.017331831,0.0,0.0,0.0,0.0,0.0,0.0,0.0,0.073046036,0.0,0.0,nan,0.0,0.0,0.0,0.0,0.0,0.0,0.0,0.0,0.032076694,-0.006374335,-0.00075069244,0.0,0.0,0.0,0.0,0.0,0.0
36636000,36556000,-0.025536183,-0.009681585,0.010478931,-0.0017443852,-0.0070372755,0.027454171,0.0,0.0,0.0,0.0,0.0,0.0,0.0,0.02925545,0.0,0.0,nan,0.0,0.0,0.0,0.0,0.0,0.0,0.0,0.0,-0.0049257427,-0.013961221,-0.00011736179,0.0,0.0,0.0,0.0,0.0,0.0
37132000,37052000,-0.006297411,0.0023335912,-0.01940303,-0.0016577976,-0.0070510833,0.01777953,0.0,0.0,0.0,0.0,0.0,0.0,0.0,0.04850937,0.0,0.0,nan,0.0,0.0,0.0,0.0,0.0,0.0,0.0,0.0,-0.010478343,-0.0053313565,0.00011466216,0.0,0.0,0.0,0.0,0.0,0.0
37636000,37556000,0.0068820966,0.0014157791,0.0035960376,-0.0011796738,-0.014533771,0.013069265,0.0,0.0,0.0,0.0,0.0,0.0,0.0,0.015387524,0.0,0.0,nan,0.0,0.0,0.0,0.0,0.0,0.0,0.0,0.0,0.02883222,0.0026096578,-0.00055622036,0.0,0.0,0.0,0.0,0.0,0.0
38132000,38052000,-0.0022942312,-0.020111464,0.018998595,-0.0006403895,-0.00731149,0.012532104,0.0,0.0,0.0,0.0,0.0,0.0,0.0,-0.13298774,0.0,0.0,nan,0.0,0.0,0.0,0.0,0.0,0.0,0.0,0.0,0.01015431,0.0134879965,-1.4345038e-05,0.0,0.0,0.0,0.0,0.0,0.0
38636000,38556000,-0.0008974945,-0.0094847325,0.0143984035,-0.0003692407,-0.0075358595,0.021525308,0.0,0.0,0.0,0.0,0.0,0.0,0.0,0.055170808,0.0,0.0,nan,0.0,0.0,0.0,0.0,0.0,0.0,0.0,0.0,0.019054377,-0.0076912614,-0.00049429823,0.0,0.0,0.0,0.0,0.0,0.0
39132000,39052000,-0.011001366,-0.00059107924,-0.011079064,-0.000157338,-0.0075018466,0.012320831,0.0,0.0,0.0,0.0,0.0,0.0,0.0,0.0609068,0.0,0.0,nan,0.0,0.0,0.0,0.0,0.0,0.0,0.0,0.0,0.00998868,0.02088827,8.2683364e-05,0.0,0.0,0.0,0.0,0.0,0.0
39636000,39556000,-0.0031058006,-0.03439056,0.030556828,-0.000636086,-0.008293464,0.019146577,0.0,0.0,0.0,0.0,0.0,0.0,0.0,-0.02144175,0.0,0.0,nan,0.0,0.0,0.0,0.0,0.0,0.0,0.0,0.0,0.012694748,0.016300853,-3.4363286e-05,0.0,0.0,0.0,0.0,0.0,0.0
40132000,40052000,-0.011691221,-0.001628187,0.048123494,-0.0005743156,-0.008127672,0.024584744,0.0,0.0,0.0,0.0,0.0,0.0,0.0,-0.0056271143,0.0,0.0,nan,0.0,0.0,0.0,0.0,0.0,0.0,0.0,0.0,-0.0017238783,-0.019261595,-0.00025450753,0.0,0.0,0.0,0.0,0.0,0.0
40628000,40548000,0.009128789,-0.0006223233,0.041121133,-0.00025289168,-0.0077803456,0.024366729,0.0,0.0,0.0,0.0,0.0,0.0,0.0,-0.06747593,0.0,0.0,nan,0.0,0.0,0.0,0.0,0.0,0.0,0.0,0.0,0.009865195,0.02378894,9.793053e-05,0.0,0.0,0.0,0.0,0.0,0.0
41132000,41052000,-0.0032278926,-0.011317723,0.04338143,-0.00067433005,-0.00787015,0.019425996,0.0,0.0,0.0,0.0,0.0,0.0,0.0,-0.005735453,0.0,0.0,nan,0.0,0.0,0.0,0.0,0.0,0.0,0.0,0.0,0.06066867,-0.015729556,-0.0015631532,0.0,0.0,0.0,0.0,0.0,0.0
41628000,41548000,-0.0072147013,0.013045486,0.026314273,-0.0019594727,-0.0071081724,0.018428352,0.0,0.0,0.0,0.0,0.0,0.0,0.0,0.016933892,0.0,0.0,nan,0.0,0.0,0.0,0.0,0.0,0.0,0.0,0.0,0.0076999348,-0.004886416,-0.00021787795,0.0,0.0,0.0,0.0,0.0,0.0
42132000,42052000,-0.0035860355,0.005742183,0.04522459,-0.0014007911,-0.006402699,0.028825182,0.0,0.0,0.0,0.0,0.0,0.0,0.0,-0.13816833,0.0,0.0,nan,0.0,0.0,0.0,0.0,0.0,0.0,0.0,0.0,0.0014095303,-0.028647974,-0.0004552627,0.0,0.0,0.0,0.0,0.0,0.0
42636000,42556000,0.0013908887,0.015616065,0.04360664,-0.00027995047,-0.0061985143,0.02383535,0.0,0.0,0.0,0.0,0.0,0.0,0.0,-0.051688686,0.0,0.0,nan,0.0,0.0,0.0,0.0,0.0,0.0,0.0,0.0,-0.0028852625,-0.013830958,-0.00013917981,0.0,0.0,0.0,0.0,0.0,0.0
43132000,43052000,0.0121588055,0.004456113,0.04002141,0.00053706096,-0.006393713,0.015797094,0.0,0.0,0.0,0.0,0.0,0.0,0.0,-0.031175375,0.0,0.0,nan,0.0,0.0,0.0,0.0,0.0,0.0,0.0,0.0,-0.031654138,0.029335134,0.0009120158,0.0,0.0,0.0,0.0,0.0,0.0
43636000,43556000,-0.008043248,0.0011985818,0.06720271,0.00038881548,-0.006946357,0.019865692,0.0,0.0,0.0,0.0,0.0,0.0,0.0,0.048286263,0.0,0.0,nan,0.0,0.0,0.0,0.0,0.0,0.0,0.0,0.0,-0.0062343194,0.013455972,0.00028843814,0.0,0.0,0.0,0.0,0.0,0.0
44132000,44052000,-0.006557574,0.010606491,0.045768246,0.00072144624,-0.014832659,0.015149429,0.0,0.0,0.0,0.0,0.0,0.0,0.0,0.036694437,0.0,0.0,nan,0.0,0.0,0.0,0.0,0.0,0.0,0.0,0.0,-0.030207139,-0.020957615,0.00023591306,0.0,0.0,0.0,0.0,0.0,0.0
44628000,44548000,0.0006240559,0.0033922694,0.036108267,0.00051647006,-0.006977192,0.016698144,0.0,0.0,0.0,0.0,0.0,0.0,0.0,0.008831903,0.0,0.0,nan,0.0,0.0,0.0,0.0,0.0,0.0,0.0,0.0,-0.018001746,-0.030650178,-0.00012494721,0.0,0.0,0.0,0.0,0.0,0.0
45132000,45052000,-0.010972195,0.0016651793,0.033220705,6.242846e-05,-0.0070311283,0.020381715,0.0,0.0,0.0,0.0,0.0,0.0,0.0,-0.12812915,0.0,0.0,nan,0.0,0.0,0.0,0.0,0.0,0.0,0.0,0.0,0.018880732,0.008333672,-0.0002730479,0.0,0.0,0.0,0.0,0.0,0.0
45628000,45548000,-0.009606364,0.0002680791,0.03290745,-0.00013297143,-0.0074797315,0.025840461,0.0,0.0,0.0,0.0,0.0,0.0,0.0,-0.01660008,0.0,0.0,nan,0.0,0.0,0.0,0.0,0.0,0.0,0.0,0.0,0.0077797747,0.027452465,0.00016922507,0.0,0.0,0.0,0.0,0.0,0.0
46132000,46052000,0.0073248628,-0.00077155646,0.028482277,-0.00043905477,-0.0076035564,0.022741944,0.0,0.0,0.0,0.0,0.0,0.0,0.0,0.007642206,0.0,0.0,nan,0.0,0.0,0.0,0.0,0.0,0.0,0.0,0.0,0.007737397,-0.0059917253,-0.00022810824,0.0,0.0,0.0,0.0,0.0,0.0
46628000,46548000,-0.0018502661,0.005748166,0.015074564,-0.00044825277,-0.008348651,0.025059607,0.0,0.0,0.0,0.0,0.0,0.0,0.0,0.041289892,0.0,0.0,nan,0.0,0.0,0.0,0.0,0.0,0.0,0.0,0.0,0.008061004,-0.0043976908,-0.0002144906,0.0,0.0,0.0,0.0,0.0,0.0
47132000,47052000,-0.00074557716,-0.025993172,0.03660486,-0.00024355511,-0.008878257,0.02865053,0.0,0.0,0.0,0.0,0.0,0.0,0.0,-0.021244649,0.0,0.0,nan,0.0,0.0,0.0,0.0,0.0,0.0,0.0,0.0,0.034567893,0.023105111,-0.00045618,0.0,0.0,0.0,0.0,0.0,0.0
47628000,47548000,-0.022448193,-0.012522575,0.00982344,-0.00072247337,-0.008699048,0.028903008,0.0,0.0,0.0,0.0,0.0,0.0,0.0,-0.0034105517,0.0,0.0,nan,0.0,0.0,0.0,0.0,0.0,0.0,0.0,0.0,0.012259681,-0.044898238,-0.0008752166,0.0,0.0,0.0,0.0,0.0,0.0
48132000,48052000,-0.0048358347,0.0018662958,0.050490156,-0.0008825589,-0.0076668262,0.029793229,0.0,0.0,0.0,0.0,0.0,0.0,0.0,-0.050700966,0.0,0.0,nan,0.0,0.0,0.0,0.0,0.0,0.0,0.0,0.0,0.013798121,0.015921429,-9.576721e-05,0.0,0.0,0.0,0.0,0.0,0.0
48628000,48548000,-0.035091788,0.0010591611,-0.008354025,-0.0011409896,-0.0072770077,0.030084446,0.0,0.0,0.0,0.0,0.0,0.0,0.0,-0.0625269,0.0,0.0,nan,0.0,0.0,0.0,0.0,0.0,0.0,0.0,0.0,0.028057527,0.0019680096,-0.0005475078,0.0,0.0,0.0,0.0,0.0,0.0
49132000,49052000,-0.015473052,0.030825466,-0.01766479,-0.001081904,-0.0072882036,0.012026809,0.0,0.0,0.0,0.0,0.0,0.0,0.0,0.024347413,0.0,0.0,nan,0.0,0.0,0.0,0.0,0.0,0.0,0.0,0.0,-0.0034065794,0.025462005,0.00031709287,0.0,0.0,0.0,0.0,0.0,0.0
49636000,49556000,-0.00176168,0.0033742771,0.016139584,-0.00062105904,-0.006808106,0.023142334,0.0,0.0,0.0,0.0,0.0,0.0,0.0,0.021615881,0.0,0.0,nan,0.0,0.0,0.0,0.0,0.0,0.0,0.0,0.0,0.0039483304,-0.018493284,-0.00030315632,0.0,0.0,0.0,0.0,0.0,0.0
50132000,50052000,-0.0024298178,0.0066376594,0.027128674,-0.0004147434,-0.014045857,0.022498507,0.0,0.0,0.0,0.0,0.0,0.0,0.0,0.079071596,0.0,0.0,nan,0.0,0.0,0.0,0.0,0.0,0.0,0.0,0.0,-0.009377463,-0.029878441,-0.00019675838,0.0,0.0,0.0,0.0,0.0,0.0
50636000,50556000,0.01014641,-0.0016193651,0.03989835,-0.00019886978,-0.006018772,0.029215764,0.0,0.0,0.0,0.0,0.0,0.0,0.0,0.008724619,0.0,0.0,nan,0.0,0.0,0.0,0.0,0.0,0.0,0.0,0.0,0.0030734416,-0.021427121,-0.00032477666,0.0,0.0,0.0,0.0,0.0,0.0
51132000,51052000,-0.00034883604,0.0076019284,0.029478244,-3.9576888e-05,-0.0060369913,0.030000672,0.0,0.0,0.0,0.0,0.0,0.0,0.0,-0.09274764,0.0,0.0,nan,0.0,0.0,0.0,0.0,0.0,0.0,0.0,0.0,0.00045095533,-0.0042596823,-5.9025515e-05,0.0,0.0,0.0,0.0,0.0,0.0
51628000,51548000,0.008245975,0.0011513715,0.029828556,-0.0005245204,-0.0064361733,0.030965067,0.0,0.0,0.0,0.0,0.0,0.0,0.0,-0.055568825,0.0,0.0,nan,0.0,0.0,0.0,0.0,0.0,0.0,0.0,0.0,-6.7293404e-05,0.018362146,0.00019377469,0.0,0.0,0.0,0.0,0.0,0.0
52132000,52052000,-0.0001092288,-0.00018129178,0.029060379,-7.45484e-05,-0.0074112383,0.036164816,0.0,0.0,0.0,0.0,0.0,0.0,0.0,-0.074524544,0.0,0.0,nan,0.0,0.0,0.0,0.0,0.0,0.0,0.0,0.0,0.013508512,0.003636049,-0.00023339919,0.0,0.0,0.0,0.0,0.0,0.0
52636000,52556000,-0.0010052382,0.0015993742,0.06940125,-0.00022518568,-0.0147914095,0.025932476,0.0,0.0,0.0,0.0,0.0,0.0,0.0,-0.046345577,0.0,0.0,nan,0.0,0.0,0.0,0.0,0.0,0.0,0.0,0.0,0.0051906565,-0.017610284,-0.00031636623,0.0,0.0,0.0,0.0,0.0,0.0
53132000,53052000,-0.00028680466,0.0105882585,0.028482363,-0.00017653362,-0.0072230855,0.03593832,0.0,0.0,0.0,0.0,0.0,0.0,0.0,0.042302083,0.0,0.0,nan,0.0,0.0,0.0,0.0,0.0,0.0,0.0,0.0,-0.01091865,0.009359999,0.00030896594,0.0,0.0,0.0,0.0,0.0,0.0
53628000,53548000,0.002645367,-0.006313428,0.039619796,0.00038869516,-0.006828056,0.035863996,0.0,0.0,0.0,0.0,0.0,0.0,0.0,0.001445651,0.0,0.0,nan,0.0,0.0,0.0,0.0,0.0,0.0,0.0,0.0,0.007401986,-0.011200632,-0.00027804152,0.0,0.0,0.0,0.0,0.0,0.0
54132000,54052000,-0.009663788,0.0023897705,0.030000858,0.00018753229,-0.0068580266,0.02549886,0.0,0.0,0.0,0.0,0.0,0.0,0.0,-0.04632347,0.0,0.0,nan,0.0,0.0,0.0,0.0,0.0,0.0,0.0,0.0,-0.009487349,-0.034994006,-0.00028152365,0.0,0.0,0.0,0.0,0.0,0.0
54628000,54548000,0.00023186111,-0.02772942,0.039249234,7.888497e-05,-0.006931793,0.027844567,0.0,0.0,0.0,0.0,0.0,0.0,0.0,-0.062105175,0.0,0.0,nan,0.0,0.0,0.0,0.0,0.0,0.0,0.0,0.0,0.018853368,-0.021787971,-0.00065834133,0.0,0.0,0.0,0.0,0.0,0.0
55132000,55052000,0.008697736,-0.0054056784,0.018850235,-0.00017274093,-0.0068988195,0.023853667,0.0,0.0,0.0,0.0,0.0,0.0,0.0,-0.10221775,0.0,0.0,nan,0.0,0.0,0.0,0.0,0.0,0.0,0.0,0.0,0.0012706094,-0.024512654,-0.0003282384,0.0,0.0,0.0,0.0,0.0,0.0
55636000,55556000,0.009860072,0.027908985,0.012717143,-7.2962466e-05,-0.0041794255,0.039584726,0.0,0.0,0.0,0.0,0.0,0.0,0.0,-0.0,0.0,0.0,nan,0.0,0.0,0.0,0.0,0.0,0.0,0.0,0.0,0.015944486,-0.03161559,-0.00073117204,0.0,0.0,0.0,0.0,0.0,0.0
56132000,56052000,0.019561758,0.009119709,0.039504517,-0.00030891004,-0.0008375477,0.05032282,0.0,0.0,0.0,0.0,0.0,0.0,0.0,-0.0,0.0,0.0,nan,0.0,0.0,0.0,0.0,0.0,0.0,0.0,0.0,0.007399986,-0.0018502448,-0.00016944973,0.0,0.0,0.0,0.0,0.0,0.0
56636000,56556000,-0.003594833,0.031041805,0.045974392,-0.0009405671,0.0030684876,0.06419673,0.0,0.0,0.0,0.0,0.0,0.0,0.0,-0.0,0.0,0.0,nan,0.0,0.0,0.0,0.0,0.0,0.0,0.0,0.0,0.018793775,-0.010945622,-0.0005179041,0.0,0.0,0.0,0.0,0.0,0.0
57132000,57052000,-0.0087051205,0.012350639,0.053796984,-0.0034278608,0.015255748,0.06774188,0.0,0.0,0.0,0.0,0.0,0.0,0.0,0.07818372,0.0,0.0,nan,0.0,0.0,0.0,0.0,0.0,0.0,0.0,0.0,0.003705465,-0.016430918,-0.00026854352,0.0,0.0,0.0,0.0,0.0,0.0
57636000,57556000,-0.03336767,0.018536145,0.06320518,-0.013175886,0.020303344,0.10126687,0.0,0.0,0.0,0.0,0.0,0.0,0.0,0.09505138,0.0,0.0,nan,0.0,0.0,0.0,0.0,0.0,0.0,0.0,0.0,0.019607631,0.013585653,-0.0002742734,0.0,0.0,0.0,0.0,0.0,0.0
58132000,58052000,-0.02650969,0.02164356,0.017910097,-0.020759262,0.028581088,0.111715496,0.0,0.0,0.0,0.0,0.0,0.0,0.0,0.011705458,0.0,0.0,nan,0.0,0.0,0.0,0.0,0.0,0.0,0.0,0.0,0.5006812,-0.066244766,0.0040438287,0.0,0.0,0.0,0.0,0.0,0.0
58628000,58548000,-0.21070552,0.20431662,0.016007975,-0.066434376,0.07718821,0.119267605,0.0,0.0,0.0,0.0,0.0,0.0,0.0,0.09450275,0.0,0.0,nan,0.0,0.0,0.0,0.0,0.0,0.0,0.0,0.0,-0.1259131,0.0011066926,0.0019472787,0.0,0.0,0.0,0.0,0.0,0.0
59132000,59052000,-0.17283612,0.20935732,-0.0146871805,-0.14008082,0.16768456,0.11923841,0.0,0.0,0.0,0.0,0.0,0.0,0.0,0.094560355,0.0,0.0,nan,0.0,0.0,0.0,0.0,0.0,0.0,0.0,0.0,-0.18828928,-0.042601798,0.004364629,0.0,0.0,0.0,0.0,0.0,0.0
59636000,59556000,-0.053861294,0.07835631,0.0684998,-0.20560475,0.2992453,0.12296879,0.0,0.0,0.0,0.0,0.0,0.0,0.0,0.15003443,0.0,0.0,nan,0.0,0.0,0.0,0.0,0.0,0.0,0.0,0.0,-0.20318316,0.0069300705,0.0059307246,0.0,0.0,0.0,0.0,0.0,0.0
60132000,60052000,0.013301076,0.0069533307,0.059364915,-0.18641518,0.31070724,0.13219333,0.0,0.0,0.0,0.0,0.0,0.0,0.0,0.02567184,0.0,0.0,nan,0.0,0.0,0.0,0.0,0.0,0.0,0.0,0.0,-0.11956158,-0.003543793,0.0033916614,0.0,0.0,0.0,0.0,0.0,0.0
60628000,60548000,0.08534546,-0.025878662,0.04085517,-0.15251605,0.29459184,0.14641571,0.0,0.0,0.0,0.0,0.0,0.0,0.0,0.05002594,0.0,0.0,nan,0.0,0.0,0.0,0.0,0.0,0.0,0.0,0.0,-0.07431646,0.002940984,0.0019824419,0.0,0.0,0.0,0.0,0.0,0.0
61132000,61052000,0.10462555,-0.07395486,0.07604247,-0.09647007,0.26152083,0.13928163,0.0,0.0,0.0,0.0,0.0,0.0,0.0,0.09366584,0.0,0.0,nan,0.0,0.0,0.0,0.0,0.0,0.0,0.0,0.0,0.0019471932,-0.03630898,-0.00044783292,0.0,0.0,0.0,0.0,0.0,0.0
61628000,61548000,0.13990267,-0.05463981,0.052343942,0.013678711,0.18240878,0.14159596,0.0,0.0,0.0,0.0,0.0,0.0,0.0,0.11509776,0.0,0.0,nan,0.0,0.0,0.0,0.0,0.0,0.0,0.0,0.0,0.013322809,0.018625418,-0.00014864231,0.0,0.0,0.0,0.0,0.0,0.0
62132000,62052000,0.13921444,-0.041428283,0.038655013,0.06143414,0.15547028,0.12996411,0.0,0.0,0.0,0.0,0.0,0.0,0.0,0.033324838,0.0,0.0,nan,0.0,0.0,0.0,0.0,0.0,0.0,0.0,0.0,0.052924752,-0.0041620247,-0.0012102278,0.0,0.0,0.0,0.0,0.0,0.0
62628000,62548000,0.090054065,-0.015735682,0.060568392,0.086451516,0.12377115,0.13802528,0.0,0.0,0.0,0.0,0.0,0.0,0.0,0.07101774,0.0,0.0,nan,0.0,0.0,0.0,0.0,0.0,0.0,0.0,0.0,0.01237226,0.053001925,0.0002896577,0.0,0.0,0.0,0.0,0.0,0.0
63132000,63052000,0.09818961,-0.013908017,0.08955919,0.11189187,0.094253905,0.14014912,0.0,0.0,0.0,0.0,0.0,0.0,0.0,0.0630641,0.0,0.0,nan,0.0,0.0,0.0,0.0,0.0,0.0,0.0,0.0,-0.02929285,0.039361745,0.0010745135,0.0,0.0,0.0,0.0,0.0,0.0
63636000,63556000,0.08635161,-0.054554477,0.08068928,0.15483123,0.042668168,0.14349127,0.0,0.0,0.0,0.0,0.0,0.0,0.0,0.09768844,0.0,0.0,nan,0.0,0.0,0.0,0.0,0.0,0.0,0.0,0.0,-0.03249765,0.0341672,0.0011537959,0.0,0.0,0.0,0.0,0.0,0.0
64132000,64052000,0.09912359,-0.061085217,0.07486459,0.16535959,0.013129985,0.15758562,0.0,0.0,0.0,0.0,0.0,0.0,0.0,0.08873129,0.0,0.0,nan,0.0,0.0,0.0,0.0,0.0,0.0,0.0,0.0,-0.0051443535,0.041952632,0.00061147235,0.0,0.0,0.0,0.0,0.0,0.0
64628000,64548000,0.1108333,-0.085274644,0.083220534,0.17478192,-0.017539794,0.15630245,0.0,0.0,0.0,0.0,0.0,0.0,0.0,-0.0,0.0,0.0,nan,0.0,0.0,0.0,0.0,0.0,0.0,0.0,0.0,-0.016878353,0.063683495,0.0011654705,0.0,0.0,0.0,0.0,0.0,0.0
65132000,65052000,0.093896374,-0.09424207,0.07131059,0.19611156,-0.0654458,0.16014504,0.0,0.0,0.0,0.0,0.0,0.0,0.0,0.19034481,0.0,0.0,nan,0.0,0.0,0.0,0.0,0.0,0.0,0.0,0.0,0.006150988,0.043587837,0.00047518616,0.0,0.0,0.0,0.0,0.0,0.0
65628000,65548000,0.068881065,-0.14930792,0.111904815,0.17907673,-0.13813253,0.15494347,0.0,0.0,0.0,0.0,0.0,0.0,0.0,-0.0,0.0,0.0,nan,0.0,0.0,0.0,0.0,0.0,0.0,0.0,0.0,0.05431489,0.009645542,-0.0010640088,0.0,0.0,0.0,0.0,0.0,0.0
66132000,66052000,0.052586842,-0.1536114,0.04216508,0.17158997,-0.16628437,0.15764213,0.0,0.0,0.0,0.0,0.0,0.0,0.0,-0.0,0.0,0.0,nan,0.0,0.0,0.0,0.0,0.0,0.0,0.0,0.0,-0.0128030125,0.019093508,0.00043394908,0.0,0.0,0.0,0.0,0.0,0.0
66628000,66548000,0.04674509,-0.11386882,0.06814806,0.1583748,-0.1911823,0.15661407,0.0,0.0,0.0,0.0,0.0,0.0,0.0,-0.0,0.0,0.0,nan,0.0,0.0,0.0,0.0,0.0,0.0,0.0,0.0,-0.015641283,-0.006898384,0.00021159297,0.0,0.0,0.0,0.0,0.0,0.0
67132000,67052000,0.031108718,-0.13673314,0.057768125,0.15433857,-0.2211159,0.16317034,0.0,0.0,0.0,0.0,0.0,0.0,0.0,-0.0,0.0,0.0,nan,0.0,0.0,0.0,0.0,0.0,0.0,0.0,0.0,-0.028805044,-0.00086054637,0.000538463,0.0,0.0,0.0,0.0,0.0,0.0
67636000,67556000,0.052145533,-0.113623396,0.044566177,0.14579076,-0.2428508,0.14642668,0.0,0.0,0.0,0.0,0.0,0.0,0.0,0.0069465637,0.0,0.0,nan,0.0,0.0,0.0,0.0,0.0,0.0,0.0,0.0,-0.03267051,0.017559018,0.00081196585,0.0,0.0,0.0,0.0,0.0,0.0
68132000,68052000,0.059118427,-0.10382329,0.08829467,0.14538711,-0.23484918,0.1431737,0.0,0.0,0.0,0.0,0.0,0.0,0.0,0.032647133,0.0,0.0,nan,0.0,0.0,0.0,0.0,0.0,0.0,0.0,0.0,-0.02425138,0.030379087,0.0007816842,0.0,0.0,0.0,0.0,0.0,0.0
68628000,68548000,0.068596505,-0.10620579,0.011514954,0.148608,-0.23391236,0.1526289,0.0,0.0,0.0,0.0,0.0,0.0,0.0,0.06975436,0.0,0.0,nan,0.0,0.0,0.0,0.0,0.0,0.0,0.0,0.0,-0.052202605,0.027920052,0.0012542058,0.0,0.0,0.0,0.0,0.0,0.0
69132000,69052000,0.08259859,-0.09981168,0.0058838874,0.14526464,-0.22482789,0.12789178,0.0,0.0,0.0,0.0,0.0,0.0,0.0,-0.030679703,0.0,0.0,nan,0.0,0.0,0.0,0.0,0.0,0.0,0.0,0.0,-0.057172716,0.025093796,0.0013832027,0.0,0.0,0.0,0.0,0.0,0.0
69628000,69548000,0.115386516,-0.11474198,0.033460204,0.18611959,-0.22998202,0.11703515,0.0,0.0,0.0,0.0,0.0,0.0,0.0,-0.1883552,0.0,0.0,nan,0.0,0.0,0.0,0.0,0.0,0.0,0.0,0.0,-0.064112484,0.016053345,0.0014630087,0.0,0.0,0.0,0.0,0.0,0.0
70132000,70052000,0.13101727,-0.115561575,0.050206173,0.19681667,-0.23527366,0.10268307,0.0,0.0,0.0,0.0,0.0,0.0,0.0,-0.04041314,0.0,0.0,nan,0.0,0.0,0.0,0.0,0.0,0.0,0.0,0.0,-0.036819763,0.0043300847,0.00087322923,0.0,0.0,0.0,0.0,0.0,0.0
70636000,70556000,0.14855804,-0.13532792,-0.008400254,0.22175674,-0.24695173,0.08891606,0.0,0.0,0.0,0.0,0.0,0.0,0.0,-0.05782342,0.0,0.0,nan,0.0,0.0,0.0,0.0,0.0,0.0,0.0,0.0,-0.06753953,0.021709261,0.0016549496,0.0,0.0,0.0,0.0,0.0,0.0
71132000,71052000,0.16748022,-0.1455951,-0.06231158,0.26196408,-0.25052708,0.069104195,0.0,0.0,0.0,0.0,0.0,0.0,0.0,-0.08153939,0.0,0.0,nan,0.0,0.0,0.0,0.0,0.0,0.0,0.0,0.0,-0.082794316,0.004551246,0.0016376342,0.0,0.0,0.0,0.0,0.0,0.0
71636000,71556000,0.19261976,-0.16689543,-0.0250098,0.3161904,-0.28610653,0.04590535,0.0,0.0,0.0,0.0,0.0,0.0,0.0,-0.10577488,0.0,0.0,nan,0.0,0.0,0.0,0.0,0.0,0.0,0.0,0.0,-0.012079443,0.027688948,0.0005107535,0.0,0.0,0.0,0.0,0.0,0.0
72132000,72052000,0.185639,-0.16958489,-0.028636757,0.37067845,-0.32777408,0.040100574,0.0,0.0,0.0,0.0,0.0,0.0,0.0,-0.10688686,0.0,0.0,nan,0.0,0.0,0.0,0.0,0.0,0.0,0.0,0.0,-0.0088617,0.016204169,0.00034011868,0.0,0.0,0.0,0.0,0.0,0.0
72636000,72556000,0.20462985,-0.16715612,-0.06658589,0.3987596,-0.33562115,0.015774727,0.0,0.0,0.0,0.0,0.0,0.0,0.0,-0.08633423,0.0,0.0,nan,0.0,0.0,0.0,0.0,0.0,0.0,0.0,0.0,0.0006282362,0.009949087,7.7062934e-05,0.0,0.0,0.0,0.0,0.0,0.0
73132000,73052000,0.19560696,-0.1350209,-0.027904078,0.42322677,-0.34195954,0.0039126873,0.0,0.0,0.0,0.0,0.0,0.0,0.0,-0.0005681515,0.0,0.0,nan,0.0,0.0,0.0,0.0,0.0,0.0,0.0,0.0,-0.044580817,0.016310409,0.0009999879,0.0,0.0,0.0,0.0,0.0,0.0
73636000,73556000,0.18689542,-0.15291092,0.0021764524,0.4651796,-0.3435343,-0.0078372955,0.0,0.0,0.0,0.0,0.0,0.0,0.0,-0.19145703,0.0,0.0,nan,0.0,0.0,0.0,0.0,0.0,0.0,0.0,0.0,0.012084045,0.0004018966,-0.0002649765,0.0,0.0,0.0,0.0,0.0,0.0
74132000,74052000,0.19304736,-0.13599595,0.0119306445,0.4796413,-0.3456623,0.010886192,0.0,0.0,0.0,0.0,0.0,0.0,0.0,-0.0,0.0,0.0,nan,0.0,0.0,0.0,0.0,0.0,0.0,0.0,0.0,-0.02188991,0.014340577,0.0006103262,0.0,0.0,0.0,0.0,0.0,0.0
74636000,74556000,0.20028162,-0.1360434,-0.08295596,0.49083638,-0.353762,-0.016379833,0.0,0.0,0.0,0.0,0.0,0.0,0.0,-0.0,0.0,0.0,nan,0.0,0.0,0.0,0.0,0.0,0.0,0.0,0.0,-0.033867143,0.044068865,0.0010115532,0.0,0.0,0.0,0.0,0.0,0.0
75132000,75052000,0.19226608,-0.13729645,-0.03302008,0.50313383,-0.35453185,-0.041087985,0.0,0.0,0.0,0.0,0.0,0.0,0.0,-0.0,0.0,0.0,nan,0.0,0.0,0.0,0.0,0.0,0.0,0.0,0.0,-0.031913243,0.023753129,0.0008671186,0.0,0.0,0.0,0.0,0.0,0.0
75628000,75548000,0.2205885,-0.12553987,-0.02005452,0.5333676,-0.35529107,-0.062589526,0.0,0.0,0.0,0.0,0.0,0.0,0.0,-0.0,0.0,0.0,nan,0.0,0.0,0.0,0.0,0.0,0.0,0.0,0.0,-0.00017740167,0.020744653,0.00017226175,0.0,0.0,0.0,0.0,0.0,0.0
76132000,76052000,0.18778057,-0.15457302,-0.041985393,0.5522225,-0.37047565,-0.07446569,0.0,0.0,0.0,0.0,0.0,0.0,0.0,-0.0,0.0,0.0,nan,0.0,0.0,0.0,0.0,0.0,0.0,0.0,0.0,-0.01017911,0.01669871,0.00039800204,0.0,0.0,0.0,0.0,0.0,0.0
76628000,76548000,0.18584383,-0.13759144,-0.050750017,0.5551087,-0.37674645,-0.090408444,0.0,0.0,0.0,0.0,0.0,0.0,0.0,-0.0,0.0,0.0,nan,0.0,0.0,0.0,0.0,0.0,0.0,0.0,0.0,-0.003310832,-0.0024784598,4.080117e-05,0.0,0.0,0.0,0.0,0.0,0.0
77132000,77052000,0.18988815,-0.12548262,-0.05579698,0.5569719,-0.3835699,-0.10343653,0.0,0.0,0.0,0.0,0.0,0.0,0.0,0.038664326,0.0,0.0,nan,0.0,0.0,0.0,0.0,0.0,0.0,0.0,0.0,-0.12159131,0.03770224,0.0027706008,0.0,0.0,0.0,0.0,0.0,0.0
77628000,77548000,0.1734409,-0.1329659,1.2176447,0.5877247,-0.3987238,0.57444185,0.0,0.0,0.0,0.0,0.0,0.0,0.0,0.5593809,0.0,0.0,nan,0.0,0.0,0.0,0.0,0.0,0.0,0.0,0.0,-0.0148761505,0.011220342,0.00042100146,0.0,0.0,0.0,0.0,0.0,0.0
78132000,78052000,0.15511094,-0.12542811,1.1523535,0.56987053,-0.4003974,0.92454505,0.0,0.0,0.0,0.0,0.0,0.0,0.0,0.9494733,0.0,0.0,nan,0.0,0.0,0.0,0.0,0.0,0.0,0.0,0.0,-0.018471973,0.04238265,0.0008368539,0.0,0.0,0.0,0.0,0.0,0.0
78636000,78556000,0.14684919,-0.15040308,1.1024836,0.56033796,-0.39992002,1.1879566,0.0,0.0,0.0,0.0,0.0,0.0,0.0,1.0176965,0.0,0.0,nan,0.0,0.0,0.0,0.0,0.0,0.0,0.0,0.0,-0.019381959,0.017716443,0.00059551955,0.0,0.0,0.0,0.0,0.0,0.0
79132000,79052000,0.120185226,-0.112114586,1.0431287,0.5373963,-0.38976657,1.38991,0.0,0.0,0.0,0.0,0.0,0.0,0.0,1.2113252,0.0,0.0,nan,0.0,0.0,0.0,0.0,0.0,0.0,0.0,0.0,-0.02088938,-0.02188375,0.00014587866,0.0,0.0,0.0,0.0,0.0,0.0
79636000,79556000,0.09329158,-0.08024621,0.92290884,0.4793071,-0.36529917,1.6403159,0.0,0.0,0.0,0.0,0.0,0.0,0.0,1.034298,0.0,0.0,nan,0.0,0.0,0.0,0.0,0.0,0.0,0.0,0.0,0.00265216,-0.034384724,-0.00041205127,0.0,0.0,0.0,0.0,0.0,0.0
80132000,80052000,0.10068175,-0.054008443,2.0930939,0.45792624,-0.33679524,1.9983263,0.0,0.0,0.0,0.0,0.0,0.0,0.0,1.5211368,0.0,0.0,nan,0.0,0.0,0.0,0.0,0.0,0.0,0.0,0.0,0.03583994,-0.033679243,-0.00097595406,0.0,0.0,0.0,0.0,0.0,0.0
80628000,80548000,0.09116464,-0.037754502,2.054874,0.43613952,-0.30784568,2.4940243,0.0,0.0,0.0,0.0,0.0,0.0,0.0,1.988632,0.0,0.0,nan,0.0,0.0,0.0,0.0,0.0,0.0,0.0,0.0,-0.0029531072,-0.04270863,-0.00026692677,0.0,0.0,0.0,0.0,0.0,0.0
81132000,81052000,0.085601,-0.008830557,1.9969397,0.41002598,-0.27548543,2.8452961,0.0,0.0,0.0,0.0,0.0,0.0,0.0,2.287221,0.0,0.0,nan,0.0,0.0,0.0,0.0,0.0,0.0,0.0,0.0,0.03597513,-0.05820129,-0.0011691238,0.0,0.0,0.0,0.0,0.0,0.0
81636000,81556000,0.053973317,0.010702409,1.737218,0.36071122,-0.20541948,3.2934752,0.0,0.0,0.0,0.0,0.0,0.0,0.0,2.3307104,0.0,0.0,nan,0.0,0.0,0.0,0.0,0.0,0.0,0.0,0.0,-0.008062969,0.012131188,0.00022006569,0.0,0.0,0.0,0.0,0.0,0.0
82132000,82052000,0.071048215,0.015637873,1.5952226,0.33924973,-0.16563165,3.4146101,0.0,0.0,0.0,0.0,0.0,0.0,0.0,2.054842,0.0,0.0,nan,0.0,0.0,0.0,0.0,0.0,0.0,0.0,0.0,0.009482125,-0.051568624,-0.0005142931,0.0,0.0,0.0,0.0,0.0,0.0
82628000,82548000,0.046506636,-0.04434657,1.5351774,0.34336856,-0.15846126,3.4671144,0.0,0.0,0.0,0.0,0.0,0.0,0.0,2.0272062,0.0,0.0,nan,0.0,0.0,0.0,0.0,0.0,0.0,0.0,0.0,0.018645339,0.0158684,-0.00020249543,0.0,0.0,0.0,0.0,0.0,0.0
83132000,83052000,0.043216854,-0.03966709,1.33027,0.31315854,-0.14998747,3.4845273,0.0,0.0,0.0,0.0,0.0,0.0,0.0,1.9399533,0.0,0.0,nan,0.0,0.0,0.0,0.0,0.0,0.0,0.0,0.0,0.0026446916,-8.149029e-05,-4.9230723e-05,0.0,0.0,0.0,0.0,0.0,0.0
83628000,83548000,0.00069897994,-0.07877841,1.1059445,0.25103763,-0.13906948,3.411081,0.0,0.0,0.0,0.0,0.0,0.0,0.0,1.4480784,0.0,0.0,nan,0.0,0.0,0.0,0.0,0.0,0.0,0.0,0.0,-0.011922328,0.020072538,0.00039396656,0.0,0.0,0.0,0.0,0.0,0.0
84132000,84052000,-0.009741267,-0.07225162,1.017215,0.22058776,-0.13584113,3.3203974,0.0,0.0,0.0,0.0,0.0,0.0,0.0,1.3673029,0.0,0.0,nan,0.0,0.0,0.0,0.0,0.0,0.0,0.0,0.0,0.026455913,0.0007808265,-0.00049682544,0.0,0.0,0.0,0.0,0.0,0.0
84628000,84548000,-0.041518506,-0.05356295,0.8856302,0.19036141,-0.13295402,3.2341049,0.0,0.0,0.0,0.0,0.0,0.0,0.0,1.3127182,0.0,0.0,nan,0.0,0.0,0.0,0.0,0.0,0.0,0.0,0.0,0.037817284,0.021823833,-0.00054503593,0.0,0.0,0.0,0.0,0.0,0.0
85132000,85052000,-0.024538856,-0.055220734,0.8263825,0.15992904,-0.13058126,3.1068509,0.0,0.0,0.0,0.0,0.0,0.0,0.0,1.210814,0.0,0.0,nan,0.0,0.0,0.0,0.0,0.0,0.0,0.0,0.0,0.029689714,0.025553713,-0.00034566017,0.0,0.0,0.0,0.0,0.0,0.0
85636000,85556000,-0.05330391,-0.05764554,0.63174635,0.09677714,-0.12807734,2.877149,0.0,0.0,0.0,0.0,0.0,0.0,0.0,0.7261319,0.0,0.0,nan,0.0,0.0,0.0,0.0,0.0,0.0,0.0,0.0,0.030005356,0.04375866,-0.00024701637,0.0,0.0,0.0,0.0,0.0,0.0
86132000,86052000,-0.066245586,-0.04998354,0.5084719,0.06566191,-0.13373457,2.713766,0.0,0.0,0.0,0.0,0.0,0.0,0.0,0.48798418,0.0,0.0,nan,0.0,0.0,0.0,0.0,0.0,0.0,0.0,0.0,0.043449186,0.04343552,-0.0005114439,0.0,0.0,0.0,0.0,0.0,0.0
86628000,86548000,-0.07683351,-0.06464666,0.42053938,0.034470417,-0.12618539,2.5712647,0.0,0.0,0.0,0.0,0.0,0.0,0.0,0.26553345,0.0,0.0,nan,0.0,0.0,0.0,0.0,0.0,0.0,0.0,0.0,0.021199167,-0.023557799,-0.00063842576,0.0,0.0,0.0,0.0,0.0,0.0
87132000,87052000,-0.0040769675,-0.013108686,0.21293564,0.010741252,0.022339988,2.0708117,0.0,0.0,0.0,0.0,0.0,0.0,0.0,-0.06469166,0.0,0.0,nan,0.0,0.0,0.0,0.0,0.0,0.0,0.0,0.0,-0.014916265,-0.025926262,9.487839e-06,0.0,0.0,0.0,0.0,0.0,0.0
87628000,87548000,-0.0008671939,-0.00041885517,0.028139628,0.011089294,0.022461712,1.7166263,0.0,0.0,0.0,0.0,0.0,0.0,0.0,-0.30930436,0.0,0.0,nan,0.0,0.0,0.0,0.0,0.0,0.0,0.0,0.0,-0.0100986995,-0.026103001,-6.6959394e-05,0.0,0.0,0.0,0.0,0.0,0.0
88132000,88052000,0.0004794583,0.013944939,-0.015027456,0.022266764,0.023180695,1.5987822,0.0,0.0,0.0,0.0,0.0,0.0,0.0,-0.49431348,0.0,0.0,nan,0.0,0.0,0.0,0.0,0.0,0.0,0.0,0.0,0.00012104834,0.00032257484,3.0287083e-08,0.0,0.0,0.0,0.0,0.0,0.0
88628000,88548000,-0.009859315,0.011517157,-0.048569,0.02221523,0.023091994,1.5017303,0.0,0.0,0.0,0.0,0.0,0.0,0.0,-0.37894177,0.0,0.0,nan,0.0,0.0,0.0,0.0,0.0,0.0,0.0,0.0,-0.032241385,-0.01451724,0.00040427488,0.0,0.0,0.0,0.0,0.0,0.0
89132000,89052000,0.0017167599,-0.0019718749,-0.06781513,0.011256955,0.022446098,1.4223363,0.0,0.0,0.0,0.0,0.0,0.0,0.0,-0.47746146,0.0,0.0,nan,0.0,0.0,0.0,0.0,0.0,0.0,0.0,0.0,-0.003329741,0.017224098,0.00016752488,0.0,0.0,0.0,0.0,0.0,0.0
