timestamp,timestamp_sample,time_last_fuse,device_id,observation[0],observation[1],observation_variance[0],observation_variance[1],innovation[0],innovation[1],innovation_variance[0],innovation_variance[1],test_ratio[0],test_ratio[1],estimator_instance,fusion_enabled,innovation_rejected,fused
3284000,3284000,3284000,0,0.0,0.0,0.25,0.25,6.300118e-08,-1.5656e-08,0.500009,0.500009,8.820172e-16,5.4467977e-17,3,0,0,0
3572000,3492000,3492000,0,0.0,0.0,1e-04,1e-04,6.776161e-05,-0.00017330487,100.000175,100.000175,5.1018087e-12,3.3371694e-11,3,1,0,1
3780000,3700000,3700000,0,0.0,0.0,1e-04,1e-04,0.000103601335,7.4243515e-05,0.00021538291,0.00021538565,5.537031e-06,2.8435297e-06,3,1,0,1
3988000,3908000,3908000,0,0.0,0.0,1e-04,1e-04,0.0005341755,8.892167e-05,0.000590316,0.0005904018,5.3708227e-05,1.4880758e-06,3,1,0,1
4196000,4116000,4116000,0,0.0,0.0,1e-04,1e-04,0.0006146896,-0.0001391559,0.0009318705,0.00093192025,4.505196e-05,2.308777e-06,3,1,0,1
4404000,4324000,4324000,0,0.0,0.0,1e-04,1e-04,0.00042740934,-0.00027708837,0.000681102,0.0006811116,2.9801175e-05,1.2524944e-05,3,1,0,1
4612000,4532000,4532000,0,0.0,0.0,1e-04,1e-04,0.00045674137,-0.00025592328,0.0005582885,0.00055829174,4.15183e-05,1.3035146e-05,3,1,0,1
4820000,4740000,4740000,0,0.0,0.0,1e-04,1e-04,0.00050560886,-0.0004788703,0.0005019683,0.0005019661,5.65862e-05,5.075968e-05,3,1,0,1
5028000,4948000,4948000,0,0.0,0.0,1e-04,1e-04,0.00037244492,-0.00089994963,0.00046184787,0.0004618404,3.337203e-05,0.00019485071,3,1,0,1
5236000,5156000,5156000,0,0.0,0.0,1e-04,1e-04,0.00012599918,-0.0008683737,0.0004252342,0.0004252279,4.1482485e-06,0.00019703759,3,1,0,1
5444000,5364000,5364000,0,0.0,0.0,1e-04,1e-04,0.000298034,-0.0006117936,0.00039288623,0.00039288148,2.5120153e-05,0.000105853636,3,1,0,1
5652000,5572000,5572000,0,0.0,0.0,1e-04,1e-04,0.00026563884,4.487869e-06,0.0003661607,0.00036615803,2.1412576e-05,6.1118017e-09,3,1,0,1
5860000,5780000,5780000,0,0.0,0.0,1e-04,1e-04,0.00019989224,0.0004253825,0.00034498842,0.00034498618,1.2869001e-05,5.8279395e-05,3,1,0,1
6068000,5988000,5988000,0,0.0,0.0,1e-04,1e-04,0.00019693961,0.00031939457,0.00032839764,0.0003283955,1.31227125e-05,3.4515593e-05,3,1,0,1
6276000,6196000,6196000,0,0.0,0.0,1e-04,1e-04,0.00022794507,8.030879e-05,0.0003153721,0.00031536975,1.830605e-05,2.2722893e-06,3,1,0,1
6484000,6404000,6404000,0,0.0,0.0,1e-04,1e-04,0.00011421627,-5.0286853e-05,0.00030500218,0.00030499964,4.752373e-06,9.2122787e-07,3,1,0,1
6692000,6612000,6612000,0,0.0,0.0,1e-04,1e-04,-0.00050635875,9.443796e-06,0.00029661384,0.0002966121,9.604675e-05,3.3408877e-08,3,1,0,1
6900000,6820000,6820000,0,0.0,0.0,1e-04,1e-04,-0.00080057717,9.762874e-05,0.00028971862,0.00028971766,0.00024580318,3.6554252e-06,3,1,0,1
7108000,7028000,7028000,0,0.0,0.0,1e-04,1e-04,-0.0007608916,0.0004672301,0.00028398642,0.0002839856,0.00022651945,8.5412765e-05,3,1,0,1
7316000,7236000,7236000,0,0.0,0.0,1e-04,1e-04,-0.0005167127,0.0010730573,0.00027914494,0.00027914337,0.000106273765,0.0004583276,3,1,0,1
7524000,7444000,7444000,0,0.0,0.0,1e-04,1e-04,-0.00016395321,0.0016012577,0.00027502162,0.00027501912,1.0860017e-05,0.0010358982,3,1,0,1
7732000,7652000,7652000,0,0.0,0.0,1e-04,1e-04,0.00016567377,0.0016748328,0.0002714699,0.00027146784,1.123423e-05,0.0011481061,3,1,0,1
7940000,7860000,7860000,0,0.0,0.0,1e-04,1e-04,0.00025507645,0.0012442224,0.00026837905,0.0002683779,2.6937023e-05,0.0006409244,3,1,0,1
8148000,8068000,8068000,0,0.0,0.0,1e-04,1e-04,0.000115242015,0.0008878811,0.0002656851,0.00026568404,5.5540777e-06,0.00032968688,3,1,0,1
8356000,8276000,8276000,0,0.0,0.0,1e-04,1e-04,-9.490842e-05,0.00049251947,0.00026331085,0.00026330957,3.8010028e-06,0.00010236174,3,1,0,1
8564000,8484000,8484000,0,0.0,0.0,1e-04,1e-04,-0.00042875193,0.00040073215,0.00026121005,0.00026120944,7.8195146e-05,6.830885e-05,3,1,0,1
8772000,8692000,8692000,0,0.0,0.0,1e-04,1e-04,-0.00037441327,0.00023654515,0.00025930328,0.00025930366,6.006921e-05,2.3976012e-05,3,1,0,1
8980000,8900000,8900000,0,0.0,0.0,1e-04,1e-04,-0.00014444685,0.0003458737,0.0002575843,0.0002575862,9.000243e-06,5.1602416e-05,3,1,0,1
9188000,9108000,9108000,0,0.0,0.0,1e-04,1e-04,0.00025795566,0.00059220573,0.0002560361,0.0002560399,2.8876622e-05,0.00015219314,3,1,0,1
9396000,9316000,9316000,0,0.0,0.0,1e-04,1e-04,0.00068722304,0.0007596419,0.00025463608,0.00025464137,0.00020607864,0.00025179455,3,1,0,1
9604000,9524000,9524000,0,0.0,0.0,1e-04,1e-04,0.0008872535,0.00085942744,0.0002533753,0.00025338083,0.00034521418,0.00032389347,3,1,0,1
9812000,9732000,9732000,0,0.0,0.0,1e-04,1e-04,0.0008971931,0.0008490743,0.0002522219,0.00025222645,0.0003546064,0.00031758373,3,1,0,1
10020000,9940000,9940000,0,0.0,0.0,1e-04,1e-04,0.0010264358,0.0008414922,0.0002511605,0.00025116414,0.00046608993,0.0003132565,3,1,0,1
10228000,10148000,10148000,0,0.0,0.0,1e-04,1e-04,0.0009071639,0.0006502934,0.00025018427,0.00025018535,0.00036548453,0.00018780811,3,1,0,1
10436000,10356000,10356000,0,0.0,0.0,1e-04,1e-04,0.000445273,0.000424235,0.0002492855,0.00024928292,8.83717e-05,8.0219135e-05,3,1,0,1
10644000,10564000,10564000,0,0.0,0.0,1e-04,1e-04,7.6886954e-07,-3.6533802e-05,0.0002484729,0.00024846662,2.643527e-10,5.968692e-07,3,1,0,1
10852000,10772000,10772000,0,0.0,0.0,1e-04,1e-04,-0.00033598434,-0.00036580753,0.00024771842,0.0002477093,5.063342e-05,6.0023383e-05,3,1,0,1
11060000,10980000,10980000,0,0.0,0.0,1e-04,1e-04,-0.00024499625,-0.0006086108,0.0002470143,0.00024700287,2.6999409e-05,0.00016662295,3,1,0,1
11268000,11188000,11188000,0,0.0,0.0,1e-04,1e-04,-0.00018684934,-0.00084021,0.00024635353,0.0002463402,1.5746422e-05,0.0003184182,3,1,0,1
11476000,11396000,11396000,0,0.0,0.0,1e-04,1e-04,-0.00043094097,-0.00096305175,0.0002457412,0.00024572673,8.3968254e-05,0.00041937674,3,1,0,1
11684000,11604000,11604000,0,0.0,0.0,1e-04,1e-04,-0.0006542929,-0.001083214,0.0002451757,0.00024516045,0.00019401014,0.0005317844,3,1,0,1
11892000,11812000,11812000,0,0.0,0.0,1e-04,1e-04,-0.0007187737,-0.0012145137,0.00024464526,0.00024462942,0.00023464163,0.0006699673,3,1,0,1
12100000,12020000,12020000,0,0.0,0.0,1e-04,1e-04,-0.0009629541,-0.001020648,0.00024416173,0.0002441456,0.0004219792,0.00047408984,3,1,0,1
12308000,12228000,12228000,0,0.0,0.0,1e-04,1e-04,-0.0011468609,-0.0005364185,0.00024372523,0.00024370893,0.00059962325,0.00013118783,3,1,0,1
12516000,12436000,12436000,0,0.0,0.0,1e-04,1e-04,-0.0010846276,-0.0003304114,0.00024331562,0.00024329888,0.0005372158,4.9857143e-05,3,1,0,1
12724000,12644000,12644000,0,0.0,0.0,1e-04,1e-04,-0.00086902065,-0.0002949873,0.00024292589,0.00024290965,0.00034541712,3.9803323e-05,3,1,0,1
12932000,12852000,12852000,0,0.0,0.0,1e-04,1e-04,-0.00037160682,0.00037795663,0.00024254987,0.00024253575,6.325921e-05,6.5443375e-05,3,1,0,1
13140000,13060000,13060000,0,0.0,0.0,1e-04,1e-04,-2.6458658e-05,0.0011011487,0.00024219434,0.00024218234,3.2116566e-07,0.00055629725,3,1,0,1
13348000,13268000,13268000,0,0.0,0.0,1e-04,1e-04,1.42249155e-05,0.0013007928,0.00024186363,0.00024185324,9.2957904e-08,0.00077735935,3,1,0,1
13556000,13476000,13476000,0,0.0,0.0,1e-04,1e-04,0.00021355378,0.0012027789,0.00024155035,0.00024154122,2.0978012e-05,0.0006654843,3,1,0,1
13764000,13684000,13684000,0,0.0,0.0,1e-04,1e-04,0.00047497885,0.0011687983,0.00024125897,0.00024125024,0.000103901686,0.00062917126,3,1,0,1
13972000,13892000,13892000,0,0.0,0.0,1e-04,1e-04,0.00082820054,0.00093305676,0.00024098749,0.00024097916,0.00031625255,0.00040141548,3,1,0,1
14180000,14100000,14100000,0,0.0,0.0,1e-04,1e-04,0.00068465667,0.0005215468,0.00024073175,0.00024072264,0.00021635643,0.00012555301,3,1,0,1
14388000,14308000,14308000,0,0.0,0.0,1e-04,1e-04,0.00047983765,4.013719e-05,0.00024047997,0.00024046903,0.00010638177,7.443758e-07,3,1,0,1
14596000,14516000,14516000,0,0.0,0.0,1e-04,1e-04,0.0005012967,-0.00032678142,0.0002402456,0.00024023201,0.00011622291,4.939026e-05,3,1,0,1
14804000,14724000,14724000,0,0.0,0.0,1e-04,1e-04,0.0005148447,-0.0004474813,0.00024002697,0.0002400105,0.00012270153,9.269942e-05,3,1,0,1
15012000,14932000,14932000,0,0.0,0.0,1e-04,1e-04,0.0007704309,-0.00040236485,0.00023982348,0.000239805,0.0002750003,7.501348e-05,3,1,0,1
15220000,15140000,15140000,0,0.0,0.0,1e-04,1e-04,0.0007236179,-0.00018024529,0.00023963038,0.00023961079,0.00024279191,1.5065342e-05,3,1,0,1
15428000,15348000,15348000,0,0.0,0.0,1e-04,1e-04,0.00052790885,0.00011776805,0.000239435,0.0002394153,0.00012932657,6.4366604e-06,3,1,0,1
15636000,15556000,15556000,0,0.0,0.0,1e-04,1e-04,0.00041910747,6.6844135e-05,0.00023924778,0.0002392284,8.157562e-05,2.0752545e-06,3,1,0,1
15844000,15764000,15764000,0,0.0,0.0,1e-04,1e-04,0.0006601692,0.00013058244,0.00023907027,0.00023905208,0.00020255473,7.925643e-06,3,1,0,1
16052000,15972000,15972000,0,0.0,0.0,1e-04,1e-04,0.00022701925,-9.7574535e-05,0.0002389013,0.0002388827,2.3969797e-05,4.4283893e-06,3,1,0,1
16260000,16180000,16180000,0,0.0,0.0,1e-04,1e-04,0.00012951996,-0.00046278833,0.0002387508,0.00023873051,7.807033e-06,9.968145e-05,3,1,0,1
16468000,16388000,16388000,0,0.0,0.0,1e-04,1e-04,0.00011799275,-0.00059342856,0.0002386012,0.00023857821,6.483291e-06,0.00016400745,3,1,0,1
16676000,16596000,16596000,0,0.0,0.0,1e-04,1e-04,0.0001685846,-0.00083179766,0.00023846136,0.00023843517,1.3242659e-05,0.00032242044,3,1,0,1
16884000,16804000,16804000,0,0.0,0.0,1e-04,1e-04,3.9070565e-06,-0.0010707184,0.00023831957,0.0002382907,7.1170025e-09,0.0005345655,3,1,0,1
17092000,17012000,17012000,0,0.0,0.0,1e-04,1e-04,-0.00022526049,-0.0011496264,0.00023818846,0.00023815833,2.3670465e-05,0.0006166024,3,1,0,1
17300000,17220000,17220000,0,0.0,0.0,1e-04,1e-04,-0.0002485461,-0.0011494687,0.00023806773,0.00023803717,2.8831739e-05,0.00061674695,3,1,0,1
17508000,17428000,17428000,0,0.0,0.0,1e-04,1e-04,-0.0002281327,-0.0012067766,0.000237959,0.00023792818,2.4301353e-05,0.00068008836,3,1,0,1
17716000,17636000,17636000,0,0.0,0.0,1e-04,1e-04,-0.00038418744,-0.001114935,0.00023785699,0.00023782664,6.894899e-05,0.0005807592,3,1,0,1
17924000,17844000,17844000,0,0.0,0.0,1e-04,1e-04,-0.0005059051,-0.0007212442,0.0002377673,0.00023773883,0.00011960337,0.00024312075,3,1,0,1
18132000,18052000,18052000,0,0.0,0.0,1e-04,1e-04,-0.0005521523,-0.00031757643,0.0002376794,0.00023765431,0.0001425226,4.7152887e-05,3,1,0,1
18340000,18260000,18260000,0,0.0,0.0,1e-04,1e-04,-0.00023940466,-0.00030989066,0.00023758083,0.00023755999,2.680472e-05,4.4916014e-05,3,1,0,1
18548000,18468000,18468000,0,0.0,0.0,1e-04,1e-04,0.00047450373,-0.0007576502,0.00023747564,0.00023745952,0.000105345905,0.0002685996,3,1,0,1
18756000,18676000,18676000,0,0.0,0.0,1e-04,1e-04,0.0009324217,-0.0011408849,0.00023738228,0.00023736976,0.00040694335,0.00060927845,3,1,0,1
18964000,18884000,18884000,0,0.0,0.0,1e-04,1e-04,0.0010413869,-0.0014564621,0.00023729334,0.00023728245,0.00050780404,0.0009933225,3,1,0,1
19172000,19092000,19092000,0,0.0,0.0,1e-04,1e-04,0.00083495537,-0.0017702216,0.00023721316,0.00023720221,0.00032654667,0.0014678917,3,1,0,1
19380000,19300000,19300000,0,0.0,0.0,1e-04,1e-04,0.000106094434,-0.0018138826,0.00023713824,0.00023712692,5.274012e-06,0.0015416826,3,1,0,1
19588000,19508000,19508000,0,0.0,0.0,1e-04,1e-04,-0.00014472671,-0.001563262,0.0002370686,0.00023705847,9.817047e-06,0.0011454221,3,1,0,1
19796000,19716000,19716000,0,0.0,0.0,1e-04,1e-04,4.4210512e-05,-0.0014527867,0.00023700605,0.00023699758,9.163242e-07,0.0009895035,3,1,0,1
20004000,19924000,19924000,0,0.0,0.0,1e-04,1e-04,0.00015384382,-0.0011602179,0.00023694366,0.0002369367,1.109871e-05,0.0006312542,3,1,0,1
20212000,20132000,20132000,0,0.0,0.0,1e-04,1e-04,0.00023607937,-0.0008355868,0.0002368798,0.0002368741,2.6142405e-05,0.0003275089,3,1,0,1
20420000,20340000,20340000,0,0.0,0.0,1e-04,1e-04,0.00040078323,-0.0006956847,0.00023681868,0.00023681408,7.536342e-05,0.0002270779,3,1,0,1
20628000,20548000,20548000,0,0.0,0.0,1e-04,1e-04,0.00019498165,-0.00043340362,0.00023675655,0.00023675305,1.7841976e-05,8.8155e-05,3,1,0,1
20836000,20756000,20756000,0,0.0,0.0,1e-04,1e-04,-0.00031766694,-0.00013656191,0.00023669656,0.0002366938,4.737068e-05,8.754469e-06,3,1,0,1
21044000,20964000,20964000,0,0.0,0.0,1e-04,1e-04,-0.001082486,5.6772427e-05,0.00023663492,0.00023663274,0.0005502034,1.5134134e-06,3,1,0,1
21252000,21172000,21172000,0,0.0,0.0,1e-04,1e-04,-0.0015580808,0.00053759303,0.00023657503,0.00023657276,0.0011401672,0.00013573756,3,1,0,1
21460000,21380000,21380000,0,0.0,0.0,1e-04,1e-04,-0.002004962,0.0008522263,0.00023652162,0.00023651854,0.0018884214,0.0003411946,3,1,0,1
21668000,21588000,21588000,0,0.0,0.0,1e-04,1e-04,-0.0022538493,0.0011292542,0.00023647564,0.00023647078,0.0023868266,0.0005991885,3,1,0,1
21876000,21796000,21796000,0,0.0,0.0,1e-04,1e-04,-0.0021941846,0.0009655042,0.00023643291,0.00023642572,0.002262538,0.0004380978,3,1,0,1
22084000,22004000,22004000,0,0.0,0.0,1e-04,1e-04,-0.0019907597,0.00064710394,0.00023639342,0.00023638454,0.0018627725,0.00019682782,3,1,0,1
22292000,22212000,22212000,0,0.0,0.0,1e-04,1e-04,-0.002119413,0.0005247551,0.00023635177,0.00023634237,0.0021116887,0.0001294581,3,1,0,1
22500000,22420000,22420000,0,0.0,0.0,1e-04,1e-04,-0.002228119,0.00028975494,0.00023630614,0.00023629642,0.002334314,3.9478633e-05,3,1,0,1
22708000,22628000,22628000,0,0.0,0.0,1e-04,1e-04,-0.0023704497,0.00022153046,0.00023625873,0.00023624874,0.002642598,2.3081013e-05,3,1,0,1
22916000,22836000,22836000,0,0.0,0.0,1e-04,1e-04,-0.0021081741,0.00011842866,0.00023621312,0.00023620276,0.0020905782,6.5976024e-06,3,1,0,1
23124000,23044000,23044000,0,0.0,0.0,1e-04,1e-04,-0.0014480299,-0.00017388425,0.00023616749,0.0002361566,0.0009864894,1.42258405e-05,3,1,0,1
23332000,23252000,23252000,0,0.0,0.0,1e-04,1e-04,-0.0008180435,-0.000428267,0.00023612726,0.00023611585,0.0003148938,8.631009e-05,3,1,0,1
23540000,23460000,23460000,0,0.0,0.0,1e-04,1e-04,-0.00023936175,-0.00045049534,0.00023609374,0.00023608183,2.6963888e-05,9.551587e-05,3,1,0,1
23748000,23668000,23668000,0,0.0,0.0,1e-04,1e-04,2.9696619e-06,-0.00016409678,0.00023606289,0.0002360506,4.1509147e-09,1.2675132e-05,3,1,0,1
23956000,23876000,23876000,0,0.0,0.0,1e-04,1e-04,0.00015306755,4.741199e-05,0.00023603856,0.00023602656,1.10291185e-05,1.0582129e-06,3,1,0,1
24164000,24084000,24084000,0,0.0,0.0,1e-04,1e-04,0.00039525857,0.00025118134,0.00023601254,0.0002360016,7.355039e-05,2.9704162e-05,3,1,0,1
24372000,24292000,24292000,0,0.0,0.0,1e-04,1e-04,0.00025719136,0.0001984515,0.00023599181,0.00023598145,3.1143925e-05,1.8543356e-05,3,1,0,1
24580000,24500000,24500000,0,0.0,0.0,1e-04,1e-04,-0.0003404837,-4.925389e-05,0.00023597051,0.00023595974,5.45874e-05,1.1423539e-06,3,1,0,1
24788000,24708000,24708000,0,0.0,0.0,1e-04,1e-04,-0.000979795,-0.00042325316,0.00023594438,0.00023593297,0.00045208316,8.436636e-05,3,1,0,1
24996000,24916000,24916000,0,0.0,0.0,1e-04,1e-04,-0.0013622581,-0.0007004441,0.00023591064,0.00023589889,0.0008740349,0.0002310886,3,1,0,1
25204000,25124000,25124000,0,0.0,0.0,1e-04,1e-04,-0.0015023081,-0.0006898483,0.00023587575,0.0002358641,0.0010631442,0.0002241831,3,1,0,1
25412000,25332000,25332000,0,0.0,0.0,1e-04,1e-04,-0.0015062126,-0.0005152101,0.00023584347,0.0002358323,0.0010688241,0.0001250613,3,1,0,1
25620000,25540000,25540000,0,0.0,0.0,1e-04,1e-04,-0.001499443,-0.00014483425,0.00023581731,0.00023580651,0.0010593553,9.884263e-06,3,1,0,1
25828000,25748000,25748000,0,0.0,0.0,1e-04,1e-04,-0.001459056,0.000299173,0.0002357999,0.00023578858,0.0010031314,4.2177373e-05,3,1,0,1
26036000,25956000,25956000,0,0.0,0.0,1e-04,1e-04,-0.0014840367,0.0007191951,0.00023577912,0.00023576646,0.0010378662,0.00024376366,3,1,0,1
26244000,26164000,26164000,0,0.0,0.0,1e-04,1e-04,-0.0014453729,0.0011379145,0.0002357545,0.00023574001,0.0009845943,0.0006103001,3,1,0,1
26452000,26372000,26372000,0,0.0,0.0,1e-04,1e-04,-0.0014711213,0.0017054698,0.00023572578,0.00023571,0.0010201109,0.001371095,3,1,0,1
26660000,26580000,26580000,0,0.0,0.0,1e-04,1e-04,-0.0013669662,0.0018120345,0.0002357008,0.00023568526,0.0008808703,0.0015479539,3,1,0,1
26868000,26788000,26788000,0,0.0,0.0,1e-04,1e-04,-0.001511055,0.0016023717,0.0002356758,0.00023566166,0.0010764728,0.0012105844,3,1,0,1
27076000,26996000,26996000,0,0.0,0.0,1e-04,1e-04,-0.0016517948,0.0016622787,0.00023565211,0.00023563977,0.001286466,0.0013029164,3,1,0,1
27284000,27204000,27204000,0,0.0,0.0,1e-04,1e-04,-0.0018930068,0.0019260629,0.00023563294,0.00023562249,0.0016897632,0.00174937,3,1,0,1
27492000,27412000,27412000,0,0.0,0.0,1e-04,1e-04,-0.0019327498,0.0020917647,0.0002356141,0.00023560526,0.0017616006,0.00206347,3,1,0,1
27700000,27620000,27620000,0,0.0,0.0,1e-04,1e-04,-0.001815692,0.0024422838,0.00023559827,0.00023559018,0.0015547829,0.0028131478,3,1,0,1
27908000,27828000,27828000,0,0.0,0.0,1e-04,1e-04,-0.0016948294,0.00263473,0.00023557432,0.00023556629,0.0013548199,0.0032742855,3,1,0,1
28116000,28036000,28036000,0,0.0,0.0,1e-04,1e-04,-0.0017528583,0.0026792267,0.0002355456,0.00023553785,0.0014493593,0.0033862242,3,1,0,1
28324000,28244000,28244000,0,0.0,0.0,1e-04,1e-04,-0.0017789513,0.0024414798,0.00023552851,0.00023552138,0.0014929392,0.002812117,3,1,0,1
28532000,28452000,28452000,0,0.0,0.0,1e-04,1e-04,-0.0014923129,0.0021002968,0.0002355176,0.00023551105,0.00105064,0.00208117,3,1,0,1
28740000,28660000,28660000,0,0.0,0.0,1e-04,1e-04,-0.0015592881,0.0016126477,0.00023550898,0.00023550267,0.001147104,0.001226989,3,1,0,1
28948000,28868000,28868000,0,0.0,0.0,1e-04,1e-04,-0.0017597339,0.0012884721,0.00023550267,0.00023549583,0.0014610183,0.0007832931,3,1,0,1
29156000,29076000,29076000,0,0.0,0.0,1e-04,1e-04,-0.0021002633,0.0010021633,0.00023548884,0.00023548162,0.0020812997,0.00047388987,3,1,0,1
29364000,29284000,29284000,0,0.0,0.0,1e-04,1e-04,-0.0019403534,0.00083850865,0.00023547182,0.0002354646,0.0017765614,0.00033177753,3,1,0,1
29572000,29492000,29492000,0,0.0,0.0,1e-04,1e-04,-0.0017361897,0.0005915602,0.00023546585,0.00023545927,0.0014224071,0.00016513518,3,1,0,1
29780000,29700000,29700000,0,0.0,0.0,1e-04,1e-04,-0.0014773506,0.00012606391,0.00023545706,0.00023545066,0.0010299423,7.4996174e-06,3,1,0,1
29988000,29908000,29908000,0,0.0,0.0,1e-04,1e-04,-0.001382928,-0.00032600152,0.0002354534,0.00023544577,0.0009025092,5.015403e-05,3,1,0,1
30196000,30116000,30116000,0,0.0,0.0,1e-04,1e-04,-0.0016588222,-0.0006405358,0.00023545025,0.00023544006,0.001298548,0.00019362613,3,1,0,1
30404000,30324000,30324000,0,0.0,0.0,1e-04,1e-04,-0.0019353024,-0.0007800167,0.00023544594,0.00023543285,0.0017675183,0.00028714305,3,1,0,1
30612000,30532000,30532000,0,0.0,0.0,1e-04,1e-04,-0.0018183728,-0.0012238773,0.00023544356,0.00023542781,0.0015604021,0.0007069285,3,1,0,1
30820000,30740000,30740000,0,0.0,0.0,1e-04,1e-04,-0.0016929613,-0.0017007791,0.00023543384,0.0002354164,0.0013526414,0.0013652638,3,1,0,1
31028000,30948000,30948000,0,0.0,0.0,1e-04,1e-04,-0.0015931674,-0.0019808682,0.00023541637,0.00023539821,0.0011979636,0.0018521044,3,1,0,1
31236000,31156000,31156000,0,0.0,0.0,1e-04,1e-04,-0.0012653485,-0.0017058773,0.00023540464,0.00023538695,0.0007557233,0.0013736329,3,1,0,1
31444000,31364000,31364000,0,0.0,0.0,1e-04,1e-04,-0.0010159805,-0.0014375371,0.00023539245,0.00023537574,0.00048723188,0.00097551494,3,1,0,1
31652000,31572000,31572000,0,0.0,0.0,1e-04,1e-04,-0.0012315051,-0.0015345787,0.00023538084,0.00023536524,0.0007159106,0.0011117151,3,1,0,1
31860000,31780000,31780000,0,0.0,0.0,1e-04,1e-04,-0.0014079246,-0.0016707894,0.00023537403,0.00023535982,0.0009357455,0.0013178579,3,1,0,1
32068000,31988000,31988000,0,0.0,0.0,1e-04,1e-04,-0.0013381676,-0.001751169,0.0002353689,0.00023535604,0.00084533606,0.0014477323,3,1,0,1
32276000,32196000,32196000,0,0.0,0.0,1e-04,1e-04,-0.0012713686,-0.0018215355,0.00023536204,0.0002353499,0.00076306943,0.001566458,3,1,0,1
32484000,32404000,32404000,0,0.0,0.0,1e-04,1e-04,-0.0013934537,-0.0016133388,0.00023535045,0.00023533893,0.0009167007,0.0012288954,3,1,0,1
32692000,32612000,32612000,0,0.0,0.0,1e-04,1e-04,-0.0012561643,-0.0019242535,0.00023533637,0.00023532478,0.0007450087,0.0017482938,3,1,0,1
32900000,32820000,32820000,0,0.0,0.0,1e-04,1e-04,-0.0011021651,-0.0022789768,0.0002353274,0.00023531605,0.0005735592,0.0024523686,3,1,0,1
33108000,33028000,33028000,0,0.0,0.0,1e-04,1e-04,-0.0008728216,-0.002252972,0.00023532097,0.00023531038,0.00035970611,0.0023967791,3,1,0,1
33316000,33236000,33236000,0,0.0,0.0,1e-04,1e-04,-0.0007502771,-0.0023249553,0.00023531343,0.00023530293,0.00026579946,0.0025524627,3,1,0,1
33524000,33444000,33444000,0,0.0,0.0,1e-04,1e-04,-0.0010783953,-0.002175192,0.000235313,0.00023530232,0.00054912036,0.002234223,3,1,0,1
33732000,33652000,33652000,0,0.0,0.0,1e-04,1e-04,-0.0012535361,-0.002101828,0.00023531489,0.00023530348,0.00074196217,0.0020860443,3,1,0,1
33940000,33860000,33860000,0,0.0,0.0,1e-04,1e-04,-0.001110125,-0.001821637,0.00023531879,0.00023530648,0.00058189506,0.0015669216,3,1,0,1
34148000,34068000,34068000,0,0.0,0.0,1e-04,1e-04,-0.0010854041,-0.00160326,0.00023531163,0.00023529874,0.00055628456,0.0012137964,3,1,0,1
34356000,34276000,34276000,0,0.0,0.0,1e-04,1e-04,-0.0011234293,-0.001441522,0.00023530578,0.00023529289,0.00059595896,0.0009812763,3,1,0,1
34564000,34484000,34484000,0,0.0,0.0,1e-04,1e-04,-0.0013690293,-0.0013804756,0.00023530636,0.00023529361,0.0008850123,0.00089992187,3,1,0,1
34772000,34692000,34692000,0,0.0,0.0,1e-04,1e-04,-0.0015759491,-0.0013040777,0.00023531081,0.00023529795,0.0011727354,0.0008030568,3,1,0,1
34980000,34900000,34900000,0,0.0,0.0,1e-04,1e-04,-0.0018597106,-0.0009622324,0.00023530817,0.00023529516,0.001633094,0.0004372245,3,1,0,1
35188000,35108000,35108000,0,0.0,0.0,1e-04,1e-04,-0.0021880434,-0.0004052601,0.00023530799,0.00023529533,0.0022606468,7.755536e-05,3,1,0,1
35396000,35316000,35316000,0,0.0,0.0,1e-04,1e-04,-0.0024161874,0.0002578863,0.00023529952,0.00023528724,0.0027567518,3.140622e-05,3,1,0,1
35604000,35524000,35524000,0,0.0,0.0,1e-04,1e-04,-0.0027710719,0.00053415383,0.00023528721,0.00023527528,0.0036262248,0.00013474538,3,1,0,1
35812000,35732000,35732000,0,0.0,0.0,1e-04,1e-04,-0.002871398,0.00088939274,0.0002352737,0.00023526183,0.0038937754,0.0003735882,3,1,0,1
36020000,35940000,35940000,0,0.0,0.0,1e-04,1e-04,-0.0027383354,0.00092264236,0.00023526337,0.00023525147,0.0035414123,0.00040206098,3,1,0,1
36228000,36148000,36148000,0,0.0,0.0,1e-04,1e-04,-0.0023296853,0.0008645342,0.00023525677,0.00023524434,0.0025633615,0.00035302268,3,1,0,1
36436000,36356000,36356000,0,0.0,0.0,1e-04,1e-04,-0.0019901432,0.0005089823,0.00023525127,0.00023523805,0.0018706571,0.00012236445,3,1,0,1
36644000,36564000,36564000,0,0.0,0.0,1e-04,1e-04,-0.0020362067,0.00044597682,0.00023524303,0.00023522877,0.0019583234,9.394888e-05,3,1,0,1
36852000,36772000,36772000,0,0.0,0.0,1e-04,1e-04,-0.0020271635,0.0006229821,0.00023523497,0.0002352198,0.0019410341,0.00018333051,3,1,0,1
37060000,36980000,36980000,0,0.0,0.0,1e-04,1e-04,-0.0020094851,0.00084148487,0.00023522857,0.00023521329,0.0019073791,0.00033449396,3,1,0,1
37268000,37188000,37188000,0,0.0,0.0,1e-04,1e-04,-0.0020272853,0.0010312281,0.000235216,0.00023520147,0.0019414239,0.00050237373,3,1,0,1
37476000,37396000,37396000,0,0.0,0.0,1e-04,1e-04,-0.0018050417,0.0008800195,0.0002352026,0.00023518992,0.0015391813,0.00036586713,3,1,0,1
37684000,37604000,37604000,0,0.0,0.0,1e-04,1e-04,-0.0014520438,0.00066498446,0.00023519585,0.00023518529,0.000996064,0.00020891534,3,1,0,1
37892000,37812000,37812000,0,0.0,0.0,1e-04,1e-04,-0.0010863182,0.000495272,0.00023518247,0.00023517397,0.00055752794,0.00011589262,3,1,0,1
38100000,38020000,38020000,0,0.0,0.0,1e-04,1e-04,-0.0008901358,0.00016792887,0.00023516818,0.00023516131,0.00037436176,1.3324237e-05,3,1,0,1
38308000,38228000,38228000,0,0.0,0.0,1e-04,1e-04,-0.00069206627,-4.2790838e-05,0.00023515715,0.00023515083,0.00022630527,8.6519213e-07,3,1,0,1
38516000,38436000,38436000,0,0.0,0.0,1e-04,1e-04,-0.0004846382,5.9334285e-05,0.00023514364,0.00023513698,0.00011098379,1.6635964e-06,3,1,0,1
38724000,38644000,38644000,0,0.0,0.0,1e-04,1e-04,-0.00027518958,0.000118728756,0.00023513407,0.00023512656,3.5785404e-05,6.6614325e-06,3,1,0,1
38932000,38852000,38852000,0,0.0,0.0,1e-04,1e-04,-0.00044855452,-0.00017042899,0.00023512595,0.0002351173,9.507962e-05,1.3726501e-05,3,1,0,1
39140000,39060000,39060000,0,0.0,0.0,1e-04,1e-04,-0.0008329577,-0.0005833187,0.00023511887,0.00023510915,0.0003278807,0.00016080508,3,1,0,1
39348000,39268000,39268000,0,0.0,0.0,1e-04,1e-04,-0.0011510401,-0.00097038894,0.00023510697,0.00023509693,0.000626142,0.0004450432,3,1,0,1
39556000,39476000,39476000,0,0.0,0.0,1e-04,1e-04,-0.001256925,-0.0014357483,0.00023509862,0.00023508933,0.0007466657,0.0009742741,3,1,0,1
39764000,39684000,39684000,0,0.0,0.0,1e-04,1e-04,-0.0013459212,-0.0016064802,0.00023509967,0.00023509233,0.00085613993,0.0012197471,3,1,0,1
39972000,39892000,39892000,0,0.0,0.0,1e-04,1e-04,-0.001264689,-0.0013232332,0.00023510208,0.00023509734,0.0007559072,0.00082752784,3,1,0,1
40180000,40100000,40100000,0,0.0,0.0,1e-04,1e-04,-0.00082960183,-0.0009591845,0.0002351015,0.00023509885,0.00032526813,0.00043482176,3,1,0,1
40388000,40308000,40308000,0,0.0,0.0,1e-04,1e-04,-0.0005767646,-0.00058520195,0.00023509876,0.00023509702,0.00015721873,0.00016185343,3,1,0,1
40596000,40516000,40516000,0,0.0,0.0,1e-04,1e-04,-0.0006214399,-0.00034851584,0.00023509952,0.00023509716,0.00018251728,5.7405712e-05,3,1,0,1
40804000,40724000,40724000,0,0.0,0.0,1e-04,1e-04,-0.00070076843,-0.00035379262,0.00023510054,0.00023509655,0.00023208812,5.915736e-05,3,1,0,1
41012000,40932000,40932000,0,0.0,0.0,1e-04,1e-04,-0.0009231126,-0.00022396103,0.00023509632,0.0002350907,0.00040273654,2.3706474e-05,3,1,0,1
41220000,41140000,41140000,0,0.0,0.0,1e-04,1e-04,-0.0015533078,8.573143e-06,0.00023509818,0.00023509117,0.0011403109,3.4737717e-08,3,1,0,1
41428000,41348000,41348000,0,0.0,0.0,1e-04,1e-04,-0.0020747085,0.00011900332,0.00023510019,0.00023509178,0.002034317,6.693268e-06,3,1,0,1
41636000,41556000,41556000,0,0.0,0.0,1e-04,1e-04,-0.0022401237,0.0005376934,0.00023509501,0.00023508543,0.002371691,0.00013664734,3,1,0,1
41844000,41764000,41764000,0,0.0,0.0,1e-04,1e-04,-0.0019032484,0.000933531,0.00023509309,0.00023508316,0.001712019,0.0004119016,3,1,0,1
42052000,41972000,41972000,0,0.0,0.0,1e-04,1e-04,-0.0016112175,0.0014543646,0.0002350978,0.00023508817,0.001226923,0.0009997083,3,1,0,1
42260000,42180000,42180000,0,0.0,0.0,1e-04,1e-04,-0.0010024928,0.0016432276,0.00023510362,0.00023509469,0.00047496404,0.0012761747,3,1,0,1
42468000,42388000,42388000,0,0.0,0.0,1e-04,1e-04,-0.00015332596,0.0017655466,0.00023510787,0.00023509987,1.1110196e-05,0.0014732061,3,1,0,1
42676000,42596000,42596000,0,0.0,0.0,1e-04,1e-04,0.0006073579,0.0016575168,0.00023511203,0.00023510453,0.00017432995,0.0012984116,3,1,0,1
42884000,42804000,42804000,0,0.0,0.0,1e-04,1e-04,0.0007540467,0.0015696768,0.00023512112,0.00023511297,0.00026869672,0.0011643979,3,1,0,1
43092000,43012000,43012000,0,0.0,0.0,1e-04,1e-04,0.0008065696,0.0014696071,0.00023512359,0.00023511489,0.00030742912,0.001020657,3,1,0,1
43300000,43220000,43220000,0,0.0,0.0,1e-04,1e-04,0.0007032439,0.0014451261,0.00023512158,0.00023511291,0.00023370978,0.0009869441,3,1,0,1
43508000,43428000,43428000,0,0.0,0.0,1e-04,1e-04,0.000622314,0.0010521621,0.00023511192,0.00023510389,0.00018302145,0.00052319426,3,1,0,1
43716000,43636000,43636000,0,0.0,0.0,1e-04,1e-04,0.0007575839,0.00069713994,0.00023510546,0.00023509865,0.00027124156,0.00022969277,3,1,0,1
43924000,43844000,43844000,0,0.0,0.0,1e-04,1e-04,0.0011665338,0.00047605197,0.00023510004,0.00023509466,0.000643131,0.000107108375,3,1,0,1
44132000,44052000,44052000,0,0.0,0.0,1e-04,1e-04,0.0012457465,0.0004128908,0.00023510185,0.00023509748,0.0007334336,8.057122e-05,3,1,0,1
44340000,44260000,44260000,0,0.0,0.0,1e-04,1e-04,0.0011097974,0.00087366434,0.00023510016,0.00023509635,0.0005820924,0.00036074544,3,1,0,1
44548000,44468000,44468000,0,0.0,0.0,1e-04,1e-04,0.0005580969,0.0011527394,0.00023509702,0.00023509315,0.0001472074,0.0006280292,3,1,0,1
44756000,44676000,44676000,0,0.0,0.0,1e-04,1e-04,0.00018761166,0.0010514391,0.00023509617,0.00023509163,1.6635337e-05,0.0005225027,3,1,0,1
44964000,44884000,44884000,0,0.0,0.0,1e-04,1e-04,-0.00016182159,0.0007584479,0.00023510336,0.00023509745,1.2375752e-05,0.00027186988,3,1,0,1
45172000,45092000,45092000,0,0.0,0.0,1e-04,1e-04,-0.00045970027,0.00047123304,0.00023511212,0.0002351047,9.986929e-05,0.000104946426,3,1,0,1
45380000,45300000,45300000,0,0.0,0.0,1e-04,1e-04,-0.00058592344,0.0003097667,0.00023511585,0.00023510723,0.00016223977,4.5348297e-05,3,1,0,1
45588000,45508000,45508000,0,0.0,0.0,1e-04,1e-04,-0.00031898354,0.00010597256,0.00023511186,0.0002351024,4.8086094e-05,5.307467e-06,3,1,0,1
45796000,45716000,45716000,0,0.0,0.0,1e-04,1e-04,-0.00022992169,8.0548794e-05,0.00023510755,0.00023509757,2.4983357e-05,3.0663905e-06,3,1,0,1
46004000,45924000,45924000,0,0.0,0.0,1e-04,1e-04,-0.00046056672,-8.327614e-05,0.00023511145,0.00023510098,0.000100246405,3.277512e-06,3,1,0,1
46212000,46132000,46132000,0,0.0,0.0,1e-04,1e-04,-0.00056261104,-0.0004046446,0.00023511352,0.0002351026,0.00014958787,7.738336e-05,3,1,0,1
46420000,46340000,46340000,0,0.0,0.0,1e-04,1e-04,-0.00048729824,-0.00092216925,0.00023511733,0.00023510572,0.000112218004,0.00040189776,3,1,0,1
46628000,46548000,46548000,0,0.0,0.0,1e-04,1e-04,-0.00037650357,-0.001243012,0.00023511276,0.00023510033,6.6991466e-05,0.00073022203,3,1,0,1
46836000,46756000,46756000,0,0.0,0.0,1e-04,1e-04,-0.00027275394,-0.0016076443,0.00023510045,0.00023508692,3.5159774e-05,0.0012215434,3,1,0,1
47044000,46964000,46964000,0,0.0,0.0,1e-04,1e-04,-0.00034177516,-0.0020941177,0.00023509513,0.00023508069,5.520709e-05,0.0020727299,3,1,0,1
47252000,47172000,47172000,0,0.0,0.0,1e-04,1e-04,-0.00051734666,-0.0022814393,0.00023510636,0.00023509224,0.00012649008,0.0024600106,3,1,0,1
47460000,47380000,47380000,0,0.0,0.0,1e-04,1e-04,-0.00094672065,-0.0019005648,0.00023511803,0.00023510543,0.00042356033,0.0017071048,3,1,0,1
47668000,47588000,47588000,0,0.0,0.0,1e-04,1e-04,-0.00090962794,-0.0013538819,0.00023511797,0.00023510709,0.00039102024,0.00086627016,3,1,0,1
47876000,47796000,47796000,0,0.0,0.0,1e-04,1e-04,-0.0009913013,-0.00063603907,0.00023511107,0.00023510164,0.0004644038,0.00019119185,3,1,0,1
48084000,48004000,48004000,0,0.0,0.0,1e-04,1e-04,-0.0012800543,1.7276372e-05,0.00023509795,0.00023508945,0.0007744002,1.410683e-07,3,1,0,1
48292000,48212000,48212000,0,0.0,0.0,1e-04,1e-04,-0.0015332229,0.0003065099,0.00023508418,0.00023507606,0.0011110782,4.4405635e-05,3,1,0,1
48500000,48420000,48420000,0,0.0,0.0,1e-04,1e-04,-0.0016694067,0.00039903264,0.00023507586,0.00023506783,0.0013172668,7.526293e-05,3,1,0,1
48708000,48628000,48628000,0,0.0,0.0,1e-04,1e-04,-0.0015654406,0.00042057474,0.00023507155,0.00023506384,0.0011583254,8.360996e-05,3,1,0,1
48916000,48836000,48836000,0,0.0,0.0,1e-04,1e-04,-0.0018001187,0.0003880614,0.00023506899,0.00023506206,0.0015316672,7.118293e-05,3,1,0,1
49124000,49044000,49044000,0,0.0,0.0,1e-04,1e-04,-0.001971929,0.00047483415,0.00023506451,0.0002350588,0.0018380319,0.00010657733,3,1,0,1
49332000,49252000,49252000,0,0.0,0.0,1e-04,1e-04,-0.0017861585,0.0009927922,0.00023506506,0.00023506046,0.001508028,0.00046590203,3,1,0,1
49540000,49460000,49460000,0,0.0,0.0,1e-04,1e-04,-0.0012510787,0.0013155119,0.00023506238,0.00023505845,0.0007398499,0.0008180337,3,1,0,1
49748000,49668000,49668000,0,0.0,0.0,1e-04,1e-04,-0.00092160533,0.0014349285,0.00023505729,0.00023505295,0.0004014891,0.0009733125,3,1,0,1
49956000,49876000,49876000,0,0.0,0.0,1e-04,1e-04,-0.0007839649,0.0018463247,0.00023505586,0.00023504967,0.0002905224,0.0016114394,3,1,0,1
50164000,50084000,50084000,0,0.0,0.0,1e-04,1e-04,-0.0008040191,0.0024722987,0.00023506003,0.00023505097,0.00030557052,0.0028893312,3,1,0,1
50372000,50292000,50292000,0,0.0,0.0,1e-04,1e-04,-0.00046152112,0.003092016,0.00023506471,0.00023505354,0.00010068232,0.0045193317,3,1,0,1
50580000,50500000,50500000,0,0.0,0.0,1e-04,1e-04,-0.00015191043,0.0031960895,0.00023506966,0.0002350579,1.0907774e-05,0.004828592,3,1,0,1
50788000,50708000,50708000,0,0.0,0.0,1e-04,1e-04,-7.871228e-05,0.003225788,0.00023507397,0.00023506212,2.9284506e-06,0.0049186563,3,1,0,1
50996000,50916000,50916000,0,0.0,0.0,1e-04,1e-04,-0.0002857983,0.0030530468,0.00023507382,0.00023506177,3.8607577e-05,0.0044059786,3,1,0,1
51204000,51124000,51124000,0,0.0,0.0,1e-04,1e-04,-0.00067646534,0.0024850229,0.00023507021,0.00023505799,0.00021629724,0.0029190616,3,1,0,1
51412000,51332000,51332000,0,0.0,0.0,1e-04,1e-04,-0.00075872976,0.0019790449,0.00023506425,0.00023505159,0.00027211042,0.0018514226,3,1,0,1
51620000,51540000,51540000,0,0.0,0.0,1e-04,1e-04,-0.00056091085,0.0011221274,0.00023506657,0.0002350533,0.00014871484,0.0005952172,3,1,0,1
51828000,51748000,51748000,0,0.0,0.0,1e-04,1e-04,-0.00027902785,0.00047601195,0.00023506719,0.00023505319,3.680108e-05,0.00010710926,3,1,0,1
52036000,51956000,51956000,0,0.0,0.0,1e-04,1e-04,-8.8732064e-05,0.00011481568,0.00023506951,0.0002350552,3.721537e-06,6.231464e-06,3,1,0,1
52244000,52164000,52164000,0,0.0,0.0,1e-04,1e-04,-9.4307485e-05,0.00014163295,0.00023507085,0.00023505665,4.203887e-06,9.482296e-06,3,1,0,1
52452000,52372000,52372000,0,0.0,0.0,1e-04,1e-04,-0.00028350824,0.00036100938,0.00023506815,0.00023505423,3.7992257e-05,6.160648e-05,3,1,0,1
52660000,52580000,52580000,0,0.0,0.0,1e-04,1e-04,-0.0002680877,0.00038661528,0.00023506954,0.0002350558,3.3971515e-05,7.065527e-05,3,1,0,1
52868000,52788000,52788000,0,0.0,0.0,1e-04,1e-04,-0.00020213393,0.00034546078,0.00023506858,0.00023505467,1.9312627e-05,5.64139e-05,3,1,0,1
53076000,52996000,52996000,0,0.0,0.0,1e-04,1e-04,-0.0002456326,0.00027915544,0.0002350611,0.00023504678,2.8519948e-05,3.6837944e-05,3,1,0,1
53284000,53204000,53204000,0,0.0,0.0,1e-04,1e-04,0.00010126851,0.00046632168,0.0002350577,0.0002350426,4.847657e-06,0.0001027974,3,1,0,1
53492000,53412000,53412000,0,0.0,0.0,1e-04,1e-04,0.00037146785,0.00083620724,0.00023505607,0.00023503945,6.522716e-05,0.00033055563,3,1,0,1
53700000,53620000,53620000,0,0.0,0.0,1e-04,1e-04,0.00060194323,0.0010787249,0.00023505592,0.00023503709,0.00017127633,0.000550101,3,1,0,1
53908000,53828000,53828000,0,0.0,0.0,1e-04,1e-04,0.0004123362,0.0010700087,0.00023506003,0.0002350384,8.036772e-05,0.0005412443,3,1,0,1
54116000,54036000,54036000,0,0.0,0.0,1e-04,1e-04,0.00021478502,0.0010482089,0.00023505898,0.0002350347,2.1806633e-05,0.00051942305,3,1,0,1
54324000,54244000,54244000,0,0.0,0.0,1e-04,1e-04,0.00017906394,0.0011027685,0.00023505779,0.00023503171,1.5156506e-05,0.0005749098,3,1,0,1
54532000,54452000,54452000,0,0.0,0.0,1e-04,1e-04,0.00010345563,0.000927467,0.00023505985,0.00023503287,5.059264e-06,0.00040665476,3,1,0,1
54740000,54660000,54660000,0,0.0,0.0,1e-04,1e-04,-0.00023126832,0.0009869139,0.00023506096,0.00023503377,2.5281875e-05,0.00046045354,3,1,0,1
54948000,54868000,54868000,0,0.0,0.0,1e-04,1e-04,-0.00031238075,0.001364231,0.00023506256,0.00023503578,4.6125657e-05,0.00087983115,3,1,0,1
55156000,55076000,55076000,0,0.0,0.0,1e-04,1e-04,-0.00018373967,0.0013725369,0.00023506797,0.00023504224,1.5957685e-05,0.00089055265,3,1,0,1
55364000,55284000,55284000,0,0.0,0.0,100.0,100.0,-4.8817856e-06,0.0016350183,100.000145,100.000145,2.6479775e-14,2.9703122e-09,3,1,0,1
55572000,55492000,55492000,0,0.0,0.0,100.0,100.0,-6.968481e-05,0.003160764,100.00054,100.00054,5.3954957e-12,1.1100417e-08,3,1,0,1
55780000,55700000,55700000,0,0.0,0.0,100.0,100.0,-0.00016796426,0.0048322175,100.0021,100.0021,3.1346002e-11,2.5944262e-08,3,1,0,1
55988000,55908000,55908000,0,0.0,0.0,100.0,100.0,-0.00030554036,0.006617164,100.00632,100.006325,1.0372113e-10,4.864898e-08,3,1,0,1
56196000,56116000,56116000,0,0.0,0.0,100.0,100.0,-0.00041842498,0.008529898,100.01539,100.015396,1.945028e-10,8.0831065e-08,3,1,0,1
56404000,56324000,56324000,0,0.0,0.0,100.0,100.0,-0.0010040222,0.010706558,100.032135,100.03215,1.1197075e-09,1.2732616e-07,3,1,0,1
56612000,56532000,56532000,0,0.0,0.0,100.0,100.0,-0.0020565588,0.013051169,100.06006,100.0601,4.6965507e-09,1.8914523e-07,3,1,0,1
56820000,56740000,56740000,0,0.0,0.0,100.0,100.0,-0.0037416304,0.015617907,100.10329,100.103355,1.553928e-08,2.707413e-07,3,1,0,1
57028000,56948000,56948000,0,0.0,0.0,100.0,100.0,-0.0057364083,0.018399702,100.16657,100.16669,3.650184e-08,3.7553966e-07,3,1,0,1
57236000,57156000,57156000,0,0.0,0.0,100.0,100.0,-0.008341135,0.021733288,100.255196,100.25538,7.710827e-08,5.234807e-07,3,1,0,1
57444000,57364000,57364000,0,0.0,0.0,100.0,100.0,-0.011123431,0.025180183,100.37494,100.37521,1.3696504e-07,7.018572e-07,3,1,0,1
57652000,57572000,57572000,0,0.0,0.0,100.0,100.0,-0.014679499,0.029331889,100.5318,100.53223,2.381642e-07,9.5089433e-07,3,1,0,1
57860000,57780000,57780000,0,0.0,0.0,100.0,100.0,-0.017898373,0.033375196,100.73203,100.732635,3.533597e-07,1.2286691e-06,3,1,0,1
58068000,57988000,57988000,0,0.0,0.0,100.0,100.0,-0.024479195,0.038615048,100.98174,100.98267,6.593392e-07,1.6406797e-06,3,1,0,1
58276000,58196000,58196000,0,0.0,0.0,100.0,100.0,-0.04410664,0.043538425,101.287254,101.28848,2.1340798e-06,2.079423e-06,3,1,0,1
58484000,58404000,58404000,0,0.0,0.0,100.0,100.0,-0.088020325,0.051713254,101.65367,101.65546,8.46838e-06,2.9230116e-06,3,1,0,1
58692000,58612000,58612000,0,0.0,0.0,100.0,100.0,-0.1329879,0.059370596,102.08543,102.087654,1.9249435e-05,3.8364283e-06,3,1,0,1
58900000,58820000,58820000,0,0.0,0.0,100.0,100.0,-0.1733725,0.06847264,102.582565,102.58561,3.2557e-05,5.078146e-06,3,1,0,1
59108000,59028000,59028000,0,0.0,0.0,100.0,100.0,-0.20321882,0.07569294,103.14195,103.14562,4.4488726e-05,6.171879e-06,3,1,0,1
59316000,59236000,59236000,0,0.0,0.0,100.0,100.0,-0.2262927,0.08486803,103.75592,103.76069,5.4838514e-05,7.712814e-06,3,1,0,1
59524000,59444000,59444000,0,0.0,0.0,100.0,100.0,-0.23417589,0.089756936,104.41739,104.42297,5.8353788e-05,8.572302e-06,3,1,0,1
59732000,59652000,59652000,0,0.0,0.0,100.0,100.0,-0.23569511,0.095698714,105.1119,105.119026,5.87228e-05,9.6802905e-06,3,1,0,1
59940000,59860000,59860000,0,0.0,0.0,100.0,100.0,-0.2225501,0.096401714,105.82717,105.83515,5.20015e-05,9.756568e-06,3,1,0,1
60148000,60068000,60068000,0,0.0,0.0,100.0,100.0,-0.20656049,0.09908961,106.54318,106.55313,4.4496548e-05,1.0238763e-05,3,1,0,1
60356000,60276000,60276000,0,0.0,0.0,100.0,100.0,-0.17911915,0.0971525,107.247,107.25774,3.3239645e-05,9.777703e-06,3,1,0,1
60564000,60484000,60484000,0,0.0,0.0,100.0,100.0,-0.15395628,0.09850304,107.91782,107.93085,2.4403893e-05,9.98875e-06,3,1,0,1
60772000,60692000,60692000,0,0.0,0.0,100.0,100.0,-0.12000031,0.09553284,108.54677,108.56032,1.4740266e-05,9.340965e-06,3,1,0,1
60980000,60900000,60900000,0,0.0,0.0,100.0,100.0,-0.091883846,0.09618198,109.11679,109.13269,8.596947e-06,9.418681e-06,3,1,0,1
61188000,61108000,61108000,0,0.0,0.0,100.0,100.0,-0.057770044,0.093053244,109.62571,109.64171,3.3825984e-06,8.774951e-06,3,1,0,1
61396000,61316000,61316000,0,0.0,0.0,100.0,100.0,-0.03491712,0.09508431,110.05976,110.07783,1.2308517e-06,9.125893e-06,3,1,0,1
61604000,61524000,61524000,0,0.0,0.0,100.0,100.0,-0.014927763,0.09622087,110.42178,110.44162,2.2422921e-07,9.314581e-06,3,1,0,1
61812000,61732000,61732000,0,0.0,0.0,100.0,100.0,0.010389234,0.09209341,110.71994,110.73911,1.08317515e-07,8.509686e-06,3,1,0,1
62020000,61940000,61940000,0,0.0,0.0,100.0,100.0,0.024354292,0.09147788,110.95262,110.972885,5.9397877e-07,8.378625e-06,3,1,0,1
62228000,62148000,62148000,0,0.0,0.0,100.0,100.0,0.04222318,0.085749425,111.12909,111.14826,1.7825087e-06,7.350506e-06,3,1,0,1
62436000,62356000,62356000,0,0.0,0.0,100.0,100.0,0.050157435,0.08209737,111.24946,111.269066,2.5126399e-06,6.73041e-06,3,1,0,1
62644000,62564000,62564000,0,0.0,0.0,100.0,100.0,0.062231604,0.07321802,111.32425,111.3425,3.865358e-06,5.349737e-06,3,1,0,1
62852000,62772000,62772000,0,0.0,0.0,100.0,100.0,0.066196084,0.066253975,111.35532,111.37347,4.3723117e-06,4.379249e-06,3,1,0,1
63060000,62980000,62980000,0,0.0,0.0,100.0,100.0,0.07509106,0.055966105,111.35216,111.36883,5.6264607e-06,3.1249567e-06,3,1,0,1
63268000,63188000,63188000,0,0.0,0.0,100.0,100.0,0.07839648,0.047988974,111.31692,111.33315,6.134645e-06,2.2983488e-06,3,1,0,1
63476000,63396000,63396000,0,0.0,0.0,100.0,100.0,0.08695655,0.036213607,111.25753,111.27233,7.551491e-06,1.3095253e-06,3,1,0,1
63684000,63604000,63604000,0,0.0,0.0,100.0,100.0,0.09113514,0.026046595,111.17594,111.19012,8.30077e-06,6.7794304e-07,3,1,0,1
63892000,63812000,63812000,0,0.0,0.0,100.0,100.0,0.09959498,0.012940401,111.07831,111.091156,9.92209e-06,1.6748406e-07,3,1,0,1
64100000,64020000,64020000,0,0.0,0.0,100.0,100.0,0.103525035,0.0015540598,110.96615,110.9783,1.07314345e-05,2.417992e-09,3,1,0,1
64308000,64228000,64228000,0,0.0,0.0,100.0,100.0,0.11130256,-0.012366648,110.84415,110.85508,1.2418097e-05,1.5328719e-07,3,1,0,1
64516000,64436000,64436000,0,0.0,0.0,100.0,100.0,0.11536883,-0.02473952,110.71323,110.7235,1.33578005e-05,6.1418643e-07,3,1,0,1
64724000,64644000,64644000,0,0.0,0.0,100.0,100.0,0.123348944,-0.04004288,110.57698,110.58623,1.5288457e-05,1.6110428e-06,3,1,0,1
64932000,64852000,64852000,0,0.0,0.0,100.0,100.0,0.12749772,-0.05413068,110.43597,110.44458,1.6355045e-05,2.9478138e-06,3,1,0,1
65140000,65060000,65060000,0,0.0,0.0,100.0,100.0,0.13437125,-0.07101415,110.292755,110.30049,1.8189603e-05,5.080072e-06,3,1,0,1
65348000,65268000,65268000,0,0.0,0.0,100.0,100.0,0.13809305,-0.08687173,110.14772,110.154884,1.9236482e-05,7.6122083e-06,3,1,0,1
65556000,65476000,65476000,0,0.0,0.0,100.0,100.0,0.14414309,-0.10488029,110.00266,110.00909,2.0986594e-05,1.1110067e-05,3,1,0,1
65764000,65684000,65684000,0,0.0,0.0,100.0,100.0,0.14672838,-0.120995946,109.85779,109.8637,2.1774837e-05,1.48062445e-05,3,1,0,1
65972000,65892000,65892000,0,0.0,0.0,100.0,100.0,0.14973618,-0.13763356,109.71434,109.71964,2.2706365e-05,1.9183231e-05,3,1,0,1
66180000,66100000,66100000,0,0.0,0.0,100.0,100.0,0.14899215,-0.15216038,109.57241,109.577255,2.2510392e-05,2.347687e-05,3,1,0,1
66388000,66308000,66308000,0,0.0,0.0,100.0,100.0,0.14847425,-0.16686022,109.43288,109.43722,2.2382672e-05,2.8268196e-05,3,1,0,1
66596000,66516000,66516000,0,0.0,0.0,100.0,100.0,0.14534178,-0.17929852,109.295815,109.29976,2.1475087e-05,3.2680728e-05,3,1,0,1
66804000,66724000,66724000,0,0.0,0.0,100.0,100.0,0.14221059,-0.19099219,109.16168,109.16525,2.0585012e-05,3.7128233e-05,3,1,0,1
67012000,66932000,66932000,0,0.0,0.0,100.0,100.0,0.14040938,-0.20290099,109.03076,109.03396,2.009096e-05,4.19531e-05,3,1,0,1
67220000,67140000,67140000,0,0.0,0.0,100.0,100.0,0.13820483,-0.21327138,108.90308,108.90597,1.9487843e-05,4.640566e-05,3,1,0,1
67428000,67348000,67348000,0,0.0,0.0,100.0,100.0,0.1372425,-0.22356929,108.77891,108.78149,1.9239333e-05,5.105365e-05,3,1,0,1
67636000,67556000,67556000,0,0.0,0.0,100.0,100.0,0.13595426,-0.2324084,108.658264,108.660576,1.8900808e-05,5.523179e-05,3,1,0,1
67844000,67764000,67764000,0,0.0,0.0,100.0,100.0,0.13630617,-0.24133223,108.54132,108.54339,1.9019251e-05,5.9619015e-05,3,1,0,1
68052000,67972000,67972000,0,0.0,0.0,100.0,100.0,0.13695651,-0.24930136,108.428055,108.42989,1.9221232e-05,6.368802e-05,3,1,0,1
68260000,68180000,68180000,0,0.0,0.0,100.0,100.0,0.13925909,-0.25798824,108.31854,108.320175,1.9893067e-05,6.827284e-05,3,1,0,1
68468000,68388000,68388000,0,0.0,0.0,100.0,100.0,0.14201532,-0.26582065,108.212746,108.21419,2.0708541e-05,7.2552226e-05,3,1,0,1
68676000,68596000,68596000,0,0.0,0.0,100.0,100.0,0.1467132,-0.2740476,108.110725,108.11201,2.2122138e-05,7.7185476e-05,3,1,0,1
68884000,68804000,68804000,0,0.0,0.0,100.0,100.0,0.15238217,-0.28200787,108.01248,108.01361,2.3886463e-05,8.180908e-05,3,1,0,1
69092000,69012000,69012000,0,0.0,0.0,100.0,100.0,0.15962623,-0.29050747,107.91803,107.91902,2.6234451e-05,8.689086e-05,3,1,0,1
69300000,69220000,69220000,0,0.0,0.0,100.0,100.0,0.16786107,-0.2986995,107.82735,107.82821,2.9035451e-05,9.193779e-05,3,1,0,1
69508000,69428000,69428000,0,0.0,0.0,100.0,100.0,0.17787364,-0.30712613,107.740425,107.74118,3.262887e-05,9.72768e-05,3,1,0,1
69716000,69636000,69636000,0,0.0,0.0,100.0,100.0,0.18906817,-0.31499162,107.65725,107.6579,3.68936e-05,0.00010240228,3,1,0,1
69924000,69844000,69844000,0,0.0,0.0,100.0,100.0,0.20171206,-0.32283968,107.577805,107.578354,4.2024112e-05,0.000107648106,3,1,0,1
70132000,70052000,70052000,0,0.0,0.0,100.0,100.0,0.21502735,-0.3303132,107.502045,107.50251,4.7789024e-05,0.000112769274,3,1,0,1
70340000,70260000,70260000,0,0.0,0.0,100.0,100.0,0.22939165,-0.33744422,107.42996,107.43035,5.4423603e-05,0.000117769945,3,1,0,1
70548000,70468000,70468000,0,0.0,0.0,100.0,100.0,0.24505384,-0.34443957,107.36152,107.36185,6.2148676e-05,0.00012278168,3,1,0,1
70756000,70676000,70676000,0,0.0,0.0,100.0,100.0,0.2620101,-0.35141388,107.29673,107.29699,7.108976e-05,0.00012788152,3,1,0,1
70964000,70884000,70884000,0,0.0,0.0,100.0,100.0,0.2797917,-0.35792026,107.23556,107.23576,8.111261e-05,0.0001327365,3,1,0,1
71172000,71092000,71092000,0,0.0,0.0,100.0,100.0,0.29864863,-0.36452276,107.17802,107.17817,9.246403e-05,0.00013775281,3,1,0,1
71380000,71300000,71300000,0,0.0,0.0,100.0,100.0,0.31789136,-0.3711744,107.12408,107.12418,0.00010481606,0.00014289794,3,1,0,1
71588000,71508000,71508000,0,0.0,0.0,100.0,100.0,0.3369061,-0.37761858,107.0737,107.07376,0.00011778566,0.00014797256,3,1,0,1
71796000,71716000,71716000,0,0.0,0.0,100.0,100.0,0.3550809,-0.38351637,107.02684,107.02686,0.00013089391,0.0001526977,3,1,0,1
72004000,71924000,71924000,0,0.0,0.0,100.0,100.0,0.37221733,-0.3891654,106.983475,106.98346,0.00014389111,0.00015729296,3,1,0,1
72212000,72132000,72132000,0,0.0,0.0,100.0,100.0,0.3884144,-0.39445212,106.94357,106.94353,0.00015674492,0.0001616559,3,1,0,1
72420000,72340000,72340000,0,0.0,0.0,100.0,100.0,0.40342772,-0.39936435,106.90711,106.907036,0.00016915404,0.00016576383,3,1,0,1
72628000,72548000,72548000,0,0.0,0.0,100.0,100.0,0.4175841,-0.4038953,106.874054,106.873955,0.0001812897,0.00016959895,3,1,0,1
72836000,72756000,72756000,0,0.0,0.0,100.0,100.0,0.431064,-0.40799272,106.84438,106.84425,0.00019323658,0.00017310561,3,1,0,1
73044000,72964000,72964000,0,0.0,0.0,100.0,100.0,0.44389337,-0.4117291,106.81804,106.81789,0.00020496052,0.00017633424,3,1,0,1
73252000,73172000,73172000,0,0.0,0.0,100.0,100.0,0.45624927,-0.41514412,106.79497,106.79481,0.00021657636,0.00017931026,3,1,0,1
73460000,73380000,73380000,0,0.0,0.0,100.0,100.0,0.46815974,-0.41848603,106.77513,106.77495,0.00022807384,0.00018224266,3,1,0,1
73668000,73588000,73588000,0,0.0,0.0,100.0,100.0,0.4793644,-0.42157257,106.758255,106.75805,0.00023915948,0.0001849701,3,1,0,1
73876000,73796000,73796000,0,0.0,0.0,100.0,100.0,0.48860952,-0.423918,106.74336,106.74314,0.00024850806,0.00018706014,3,1,0,1
74084000,74004000,74004000,0,0.0,0.0,100.0,100.0,0.49589774,-0.42543754,106.73013,106.7299,0.0002560087,0.00018842694,3,1,0,1
74292000,74212000,74212000,0,0.0,0.0,100.0,100.0,0.50300354,-0.42681023,106.71973,106.71949,0.00026342372,0.00018966335,3,1,0,1
74500000,74420000,74420000,0,0.0,0.0,100.0,100.0,0.510902,-0.42825347,106.71283,106.71258,0.00027177908,0.00019096055,3,1,0,1
74708000,74628000,74628000,0,0.0,0.0,100.0,100.0,0.51892996,-0.4297559,106.70902,106.70876,0.0002803973,0.00019230966,3,1,0,1
74916000,74836000,74836000,0,0.0,0.0,100.0,100.0,0.5263111,-0.43133807,106.708084,106.70782,0.0002884332,0.00019372998,3,1,0,1
75124000,75044000,75044000,0,0.0,0.0,100.0,100.0,0.5331413,-0.4329948,106.70991,106.70963,0.000295963,0.00019521771,3,1,0,1
75332000,75252000,75252000,0,0.0,0.0,100.0,100.0,0.539819,-0.43438637,106.7144,106.71412,0.0003034106,0.00019646628,3,1,0,1
75540000,75460000,75460000,0,0.0,0.0,100.0,100.0,0.54599315,-0.43538132,106.721466,106.72118,0.00031037026,0.00019735424,3,1,0,1
75748000,75668000,75668000,0,0.0,0.0,100.0,100.0,0.5514058,-0.43628126,106.731,106.73071,0.0003165261,0.00019815326,3,1,0,1
75956000,75876000,75876000,0,0.0,0.0,100.0,100.0,0.556116,-0.43682653,106.742905,106.74262,0.00032192093,0.0001986267,3,1,0,1
76164000,76084000,76084000,0,0.0,0.0,100.0,100.0,0.5604231,-0.4376778,106.757065,106.756775,0.0003268834,0.00019937518,3,1,0,1
76372000,76292000,76292000,0,0.0,0.0,100.0,100.0,0.56421036,-0.43892747,106.77336,106.77307,0.00033126585,0.00020048472,3,1,0,1
76580000,76500000,76500000,0,0.0,0.0,100.0,100.0,0.5673308,-0.44002995,106.79167,106.79138,0.00033488276,0.00020145858,3,1,0,1
76788000,76708000,76708000,0,0.0,0.0,100.0,100.0,0.56962126,-0.4406974,106.81187,106.811584,0.0003375284,0.00020203197,3,1,0,1
76996000,76916000,76916000,0,0.0,0.0,100.0,100.0,0.5705681,-0.44099632,106.83358,106.8333,0.0003385826,0.00020226502,3,1,0,1
77204000,77124000,77124000,0,0.0,0.0,100.0,100.0,0.5691204,-0.4405771,106.856,106.85573,0.00033679596,0.00020183827,3,1,0,1
77412000,77332000,77332000,0,0.0,0.0,100.0,100.0,0.5700388,-0.4404281,106.88147,106.881195,0.0003378033,0.00020165372,3,1,0,1
77620000,77540000,77540000,0,0.0,0.0,100.0,100.0,0.5697178,-0.43954003,106.9078,106.90753,0.0003373399,0.00020079184,3,1,0,1
77828000,77748000,77748000,0,0.0,0.0,100.0,100.0,0.5679863,-0.43795428,106.934586,106.93432,0.00033520852,0.0001992957,3,1,0,1
78036000,77956000,77956000,0,0.0,0.0,100.0,100.0,0.5654195,-0.4354353,106.961555,106.9613,0.0003321019,0.00019696001,3,1,0,1
78244000,78164000,78164000,0,0.0,0.0,100.0,100.0,0.56211406,-0.4325792,106.988754,106.98851,0.00032814685,0.00019433525,3,1,0,1
78452000,78372000,78372000,0,0.0,0.0,100.0,100.0,0.558026,-0.4290068,107.01601,107.01577,0.0003233089,0.00019109003,3,1,0,1
78660000,78580000,78580000,0,0.0,0.0,100.0,100.0,0.5534209,-0.42508224,107.04338,107.04315,0.00031791336,0.00018756185,3,1,0,1
78868000,78788000,78788000,0,0.0,0.0,100.0,100.0,0.54802895,-0.41999623,107.07069,107.07047,0.00031166922,0.00018305371,3,1,0,1
79076000,78996000,78996000,0,0.0,0.0,100.0,100.0,0.54123783,-0.4144651,107.09807,107.09786,0.000303915,0.00017821844,3,1,0,1
79284000,79204000,79204000,0,0.0,0.0,100.0,100.0,0.53261435,-0.40713605,107.12533,107.12513,0.0002942328,0.00017192747,3,1,0,1
79492000,79412000,79412000,0,0.0,0.0,100.0,100.0,0.523775,-0.39857155,107.152565,107.15238,0.00028447522,0.0001647283,3,1,0,1
79700000,79620000,79620000,0,0.0,0.0,100.0,100.0,0.5140353,-0.3880029,107.17954,107.17938,0.00027392487,0.00015606884,3,1,0,1
79908000,79828000,79828000,0,0.0,0.0,100.0,100.0,0.5035553,-0.37239876,107.204475,107.20432,0.0002628082,0.00014373471,3,1,0,1
80116000,80036000,80036000,0,0.0,0.0,100.0,100.0,0.49416158,-0.3578125,107.23142,107.231285,0.0002530308,0.00013266214,3,1,0,1
80324000,80244000,80244000,0,0.0,0.0,100.0,100.0,0.4838457,-0.34333763,107.25811,107.25799,0.00024251641,0.00012211545,3,1,0,1
80532000,80452000,80452000,0,0.0,0.0,100.0,100.0,0.47126484,-0.32725182,107.28357,107.28346,0.00023001403,0.00011091463,3,1,0,1
80740000,80660000,80660000,0,0.0,0.0,100.0,100.0,0.45873648,-0.3105923,107.30789,107.30779,0.00021789758,9.9886674e-05,3,1,0,1
80948000,80868000,80868000,0,0.0,0.0,100.0,100.0,0.44424757,-0.29298085,107.33084,107.33075,0.00020430694,8.8861125e-05,3,1,0,1
81156000,81076000,81076000,0,0.0,0.0,100.0,100.0,0.42984387,-0.27462742,107.35262,107.35255,0.00019123453,7.806079e-05,3,1,0,1
81364000,81284000,81284000,0,0.0,0.0,100.0,100.0,0.41378325,-0.2560716,107.37309,107.37303,0.0001771772,6.785551e-05,3,1,0,1
81572000,81492000,81492000,0,0.0,0.0,100.0,100.0,0.39796665,-0.23698172,107.392456,107.3924,0.00016386155,5.8105015e-05,3,1,0,1
81780000,81700000,81700000,0,0.0,0.0,100.0,100.0,0.38079247,-0.21980163,107.41073,107.4107,0.00014999836,4.997718e-05,3,1,0,1
81988000,81908000,81908000,0,0.0,0.0,100.0,100.0,0.36409712,-0.20232679,107.42814,107.428116,0.0001371115,4.2339558e-05,3,1,0,1
82196000,82116000,82116000,0,0.0,0.0,100.0,100.0,0.34672737,-0.18754075,107.44478,107.44477,0.00012432213,3.6371694e-05,3,1,0,1
82404000,82324000,82324000,0,0.0,0.0,100.0,100.0,0.33238113,-0.18289638,107.46459,107.46459,0.00011422596,3.4586155e-05,3,1,0,1
82612000,82532000,82532000,0,0.0,0.0,100.0,100.0,0.31781933,-0.17780156,107.4836,107.483604,0.000104418126,3.2680327e-05,3,1,0,1
82820000,82740000,82740000,0,0.0,0.0,100.0,100.0,0.3027291,-0.1745949,107.50176,107.50177,9.4721865e-05,3.1506846e-05,3,1,0,1
83028000,82948000,82948000,0,0.0,0.0,100.0,100.0,0.28729635,-0.17092499,107.51904,107.519066,8.529672e-05,3.0191393e-05,3,1,0,1
83236000,83156000,83156000,0,0.0,0.0,100.0,100.0,0.27188352,-0.1684455,107.53542,107.53545,7.63786e-05,2.9317345e-05,3,1,0,1
83444000,83364000,83364000,0,0.0,0.0,100.0,100.0,0.2562459,-0.16617411,107.55086,107.550896,6.783557e-05,2.8527926e-05,3,1,0,1
83652000,83572000,83572000,0,0.0,0.0,100.0,100.0,0.2408437,-0.16429718,107.56535,107.5654,5.991777e-05,2.788336e-05,3,1,0,1
83860000,83780000,83780000,0,0.0,0.0,100.0,100.0,0.22516336,-0.16299254,107.57888,107.57893,5.2363168e-05,2.7438837e-05,3,1,0,1
84068000,83988000,83988000,0,0.0,0.0,100.0,100.0,0.21007001,-0.16143955,107.59143,107.59149,4.5573037e-05,2.6915313e-05,3,1,0,1
84276000,84196000,84196000,0,0.0,0.0,100.0,100.0,0.19418554,-0.16069384,107.603004,107.603065,3.8937393e-05,2.6664367e-05,3,1,0,1
84484000,84404000,84404000,0,0.0,0.0,100.0,100.0,0.17903435,-0.15897694,107.61361,107.61367,3.309505e-05,2.6095062e-05,3,1,0,1
84692000,84612000,84612000,0,0.0,0.0,100.0,100.0,0.16271582,-0.15883459,107.62324,107.62331,2.7334492e-05,2.6046018e-05,3,1,0,1
84900000,84820000,84820000,0,0.0,0.0,100.0,100.0,0.14725019,-0.15730047,107.63192,107.632,2.2383507e-05,2.5543246e-05,3,1,0,1
85108000,85028000,85028000,0,0.0,0.0,100.0,100.0,0.13029243,-0.15780483,107.63967,107.63975,1.7523607e-05,2.570546e-05,3,1,0,1
85316000,85236000,85236000,0,0.0,0.0,100.0,100.0,0.11437713,-0.15662102,107.64649,107.646576,1.350318e-05,2.531963e-05,3,1,0,1
85524000,85444000,85444000,0,0.0,0.0,100.0,100.0,0.09662767,-0.1573207,107.65243,107.65252,9.636885e-06,2.5544947e-05,3,1,0,1
85732000,85652000,85652000,0,0.0,0.0,100.0,100.0,0.08067501,-0.15584812,107.6575,107.65759,6.717247e-06,2.5067784e-05,3,1,0,1
85940000,85860000,85860000,0,0.0,0.0,100.0,100.0,0.06259279,-0.1566893,107.66174,107.661835,4.043381e-06,2.533812e-05,3,1,0,1
86148000,86068000,86068000,0,0.0,0.0,100.0,100.0,0.04667063,-0.15564947,107.66517,107.66527,2.2478616e-06,2.5002137e-05,3,1,0,1
86356000,86276000,86276000,0,0.0,0.0,100.0,100.0,0.028433278,-0.15742168,107.667816,107.66792,8.3430615e-07,2.5574092e-05,3,1,0,1
86564000,86484000,86484000,0,0.0,0.0,1e-04,1e-04,0.29245606,0.08913957,2.793665,2.7937005,0.003401766,0.00031602304,3,1,0,1
86772000,86692000,86692000,0,0.0,0.0,1e-04,1e-04,-0.002711826,-0.001551306,0.0009335401,0.0009335488,0.0008752823,0.00028642797,3,1,0,1
86980000,86900000,86900000,0,0.0,0.0,1e-04,1e-04,-0.0010213653,-0.0007562506,0.0005582244,0.00055826444,0.00020763991,0.00011382796,3,1,0,1
87188000,87108000,87108000,0,0.0,0.0,1e-04,1e-04,-0.00042555944,-0.00047075123,0.0004946726,0.0004947565,4.0678045e-05,4.976785e-05,3,1,0,1
87396000,87316000,87316000,0,0.0,0.0,1e-04,1e-04,-4.3821805e-05,-0.0002045686,0.00047601887,0.00047609245,4.482433e-07,9.766616e-06,3,1,0,1
87604000,87524000,87524000,0,0.0,0.0,1e-04,1e-04,-2.3660601e-05,-0.00012898153,0.00042628657,0.00042632714,1.459175e-07,4.3358027e-06,3,1,0,1
87812000,87732000,87732000,0,0.0,0.0,1e-04,1e-04,-0.00011558425,0.00017680824,0.00037244576,0.00037246567,3.985582e-06,9.3255885e-06,3,1,0,1
88020000,87940000,87940000,0,0.0,0.0,1e-04,1e-04,4.0569066e-05,0.00063183805,0.0003301437,0.0003301534,5.539168e-07,0.00013435484,3,1,0,1
88228000,88148000,88148000,0,0.0,0.0,1e-04,1e-04,1.2152324e-05,0.00067909935,0.00029996366,0.00029996867,5.470255e-08,0.00017082373,3,1,0,1
88436000,88356000,88356000,0,0.0,0.0,1e-04,1e-04,-1.8171779e-05,0.00055727793,0.00027906944,0.0002790723,1.3147407e-07,0.00012364726,3,1,0,1
88644000,88564000,88564000,0,0.0,0.0,1e-04,1e-04,-4.2514275e-05,0.0002552699,0.0002647855,0.00026478726,7.5846026e-07,2.7343847e-05,3,1,0,1
88852000,88772000,88772000,0,0.0,0.0,1e-04,1e-04,0.00022333676,-0.00026283407,0.0002551062,0.00025510733,2.1724856e-05,3.0088315e-05,3,1,0,1
89060000,88980000,88980000,0,0.0,0.0,1e-04,1e-04,0.0004960831,-0.0006949678,0.00024859217,0.00024859275,0.00010999652,0.00021587302,3,1,0,1
89268000,89188000,89188000,0,0.0,0.0,1e-04,1e-04,0.00069354544,-0.00064424606,0.00024421827,0.00024421865,0.00021884122,0.00018883488,3,1,0,1
