timestamp,timestamp_sample,q[0],q[1],q[2],q[3],delta_q_reset[0],delta_q_reset[1],delta_q_reset[2],delta_q_reset[3],quat_reset_counter
3388000,0,0.70711,6.882382e-05,6.924884e-05,0.70711,0.0,0.0,0.0,0.0,0
3392000,0,0.70711,6.89314e-05,6.935642e-05,0.70711,0.0,0.0,0.0,0.0,0
3400000,0,0.70711,6.9146554e-05,6.957158e-05,0.70711,0.0,0.0,0.0,0.0,0
3408000,0,0.70711,6.936171e-05,6.9786736e-05,0.70711,0.0,0.0,0.0,0.0,0
3420000,0,0.70711,6.968445e-05,7.010947e-05,0.70711,0.0,0.0,0.0,0.0,0
3428000,0,0.70711,6.989961e-05,7.0324626e-05,0.70711,0.0,0.0,0.0,0.0,0
3440000,0,0.70711,7.022235e-05,7.0647366e-05,0.70711,0.0,0.0,0.0,0.0,0
3448000,0,0.70711,7.0437505e-05,7.086252e-05,0.70711,0.0,0.0,0.0,0.0,0
3460000,0,0.70711,7.0760245e-05,7.118526e-05,0.70711,0.0,0.0,0.0,0.0,0
3468000,0,0.70711,7.09754e-05,7.140042e-05,0.70711,0.0,0.0,0.0,0.0,0
3480000,0,0.70711,7.129814e-05,7.172316e-05,0.70711,0.0,0.0,0.0,0.0,0
3488000,0,0.70711,7.15133e-05,7.193832e-05,0.70711,0.0,0.0,0.0,0.0,0
3500000,0,0.70711,7.183604e-05,7.226106e-05,0.70711,0.0,0.0,0.0,0.0,0
3508000,0,0.70711,7.2051196e-05,7.2476214e-05,0.70711,0.0,0.0,0.0,0.0,0
3520000,0,0.70711,7.237393e-05,7.279895e-05,0.70711,0.0,0.0,0.0,0.0,0
3528000,0,0.70711,7.258909e-05,7.301411e-05,0.70711,0.0,0.0,0.0,0.0,0
3540000,0,0.70711,7.2911826e-05,7.333684e-05,0.70711,0.0,0.0,0.0,0.0,0
3548000,0,0.70711,7.312699e-05,7.355201e-05,0.70711,0.0,0.0,0.0,0.0,0
3560000,0,0.70711,7.344972e-05,7.387474e-05,0.70711,0.0,0.0,0.0,0.0,0
3568000,0,0.70711,7.366489e-05,7.4089905e-05,0.70711,0.0,0.0,0.0,0.0,0
3580000,0,0.70711,7.398763e-05,7.441264e-05,0.70711,0.0,0.0,0.0,0.0,0
3588000,0,0.70711,7.4202784e-05,7.46278e-05,0.70711,0.0,0.0,0.0,0.0,0
3600000,0,0.70711,7.4525524e-05,7.4950534e-05,0.70711,0.0,0.0,0.0,0.0,0
3608000,0,0.70711,7.474068e-05,7.51657e-05,0.70711,0.0,0.0,0.0,0.0,0
3620000,0,0.70711,7.506342e-05,7.548844e-05,0.70711,0.0,0.0,0.0,0.0,0
3628000,0,0.70711,7.527858e-05,7.5703596e-05,0.70711,0.0,0.0,0.0,0.0,0
3640000,0,0.70711,7.560132e-05,7.6026336e-05,0.70711,0.0,0.0,0.0,0.0,0
3648000,0,0.70711,7.5816475e-05,7.624149e-05,0.70711,0.0,0.0,0.0,0.0,0
3660000,0,0.70711,7.6139215e-05,7.656423e-05,0.70711,0.0,0.0,0.0,0.0,0
3668000,0,0.70711,7.635437e-05,7.677939e-05,0.70711,0.0,0.0,0.0,0.0,0
3680000,0,0.70711,7.667711e-05,7.710213e-05,0.70711,0.0,0.0,0.0,0.0,0
3688000,0,0.70711,7.689228e-05,7.731729e-05,0.70711,0.0,0.0,0.0,0.0,0
3700000,0,0.70711,7.7215016e-05,7.764003e-05,0.70711,0.0,0.0,0.0,0.0,0
3708000,0,0.70711,7.743017e-05,7.785519e-05,0.70711,0.0,0.0,0.0,0.0,0
3720000,0,0.70711,7.775291e-05,7.817792e-05,0.70711,0.0,0.0,0.0,0.0,0
3728000,0,0.70711,7.796807e-05,7.839309e-05,0.70711,0.0,0.0,0.0,0.0,0
3740000,0,0.70711,7.829081e-05,7.871583e-05,0.70711,0.0,0.0,0.0,0.0,0
3748000,0,0.70711,7.850597e-05,7.8930985e-05,0.70711,0.0,0.0,0.0,0.0,0
3760000,0,0.70711,7.882871e-05,7.9253725e-05,0.70711,0.0,0.0,0.0,0.0,0
3768000,0,0.70711,7.904387e-05,7.946888e-05,0.70711,0.0,0.0,0.0,0.0,0
3780000,0,0.70711,7.936661e-05,7.979162e-05,0.70711,0.0,0.0,0.0,0.0,0
3788000,0,0.70711,7.958177e-05,8.000679e-05,0.70711,0.0,0.0,0.0,0.0,0
3800000,0,0.70711,7.990451e-05,8.0329526e-05,0.70711,0.0,0.0,0.0,0.0,0
3808000,0,0.70711,8.011967e-05,8.054468e-05,0.70711,0.0,0.0,0.0,0.0,0
3820000,0,0.70711,8.044241e-05,8.086742e-05,0.70711,0.0,0.0,0.0,0.0,0
3828000,0,0.70711,8.065757e-05,8.108259e-05,0.70711,0.0,0.0,0.0,0.0,0
3840000,0,0.70711,8.098031e-05,8.140533e-05,0.70711,0.0,0.0,0.0,0.0,0
3848000,0,0.70711,8.1195474e-05,8.1620485e-05,0.70711,0.0,0.0,0.0,0.0,0
3860000,0,0.70711,8.1518214e-05,8.1943224e-05,0.70711,0.0,0.0,0.0,0.0,0
3868000,0,0.70711,8.173337e-05,8.215839e-05,0.70711,0.0,0.0,0.0,0.0,0
3880000,0,0.70711,8.205611e-05,8.248113e-05,0.70711,0.0,0.0,0.0,0.0,0
3888000,0,0.70711,8.2271275e-05,8.2696286e-05,0.70711,0.0,0.0,0.0,0.0,0
3900000,0,0.70711,8.2594015e-05,8.3019026e-05,0.70711,0.0,0.0,0.0,0.0,0
3908000,0,0.70711,8.280917e-05,8.323419e-05,0.70711,0.0,0.0,0.0,0.0,0
3920000,0,0.70711,8.313192e-05,8.355693e-05,0.70711,0.0,0.0,0.0,0.0,0
3928000,0,0.70711,8.334708e-05,8.377209e-05,0.70711,0.0,0.0,0.0,0.0,0
3940000,0,0.70711,8.366982e-05,8.4094834e-05,0.70711,0.0,0.0,0.0,0.0,0
3948000,0,0.70711,8.388498e-05,8.430999e-05,0.70711,0.0,0.0,0.0,0.0,0
3960000,0,0.70711,8.420772e-05,8.463273e-05,0.70711,0.0,0.0,0.0,0.0,0
3968000,0,0.70711,8.442288e-05,8.4847896e-05,0.70711,0.0,0.0,0.0,0.0,0
3980000,0,0.70711,8.4745625e-05,8.5170635e-05,0.70711,0.0,0.0,0.0,0.0,0
3988000,0,0.70711,8.496078e-05,8.53858e-05,0.70711,0.0,0.0,0.0,0.0,0
4000000,0,0.70711,8.528353e-05,8.570854e-05,0.70711,0.0,0.0,0.0,0.0,0
4008000,0,0.70711,8.549869e-05,8.59237e-05,0.70711,0.0,0.0,0.0,0.0,0
4020000,0,0.70711,8.5821426e-05,8.6246444e-05,0.70711,0.0,0.0,0.0,0.0,0
4028000,0,0.70711,8.603659e-05,8.64616e-05,0.70711,0.0,0.0,0.0,0.0,0
4040000,0,0.70711,8.635933e-05,8.678434e-05,0.70711,0.0,0.0,0.0,0.0,0
4048000,0,0.70711,8.6574495e-05,8.6999506e-05,0.70711,0.0,0.0,0.0,0.0,0
4060000,0,0.70711,8.6897235e-05,8.7322245e-05,0.70711,0.0,0.0,0.0,0.0,0
4068000,0,0.70711,8.71124e-05,8.753741e-05,0.70711,0.0,0.0,0.0,0.0,0
4080000,0,0.70711,8.743514e-05,8.786015e-05,0.70711,0.0,0.0,0.0,0.0,0
4088000,0,0.70711,8.76503e-05,8.8075314e-05,0.70711,0.0,0.0,0.0,0.0,0
4100000,0,0.70711,8.797304e-05,8.8398054e-05,0.70711,0.0,0.0,0.0,0.0,0
4108000,0,0.70711,8.818821e-05,8.861322e-05,0.70711,0.0,0.0,0.0,0.0,0
4120000,0,0.70711,8.851095e-05,8.893596e-05,0.70711,0.0,0.0,0.0,0.0,0
4128000,0,0.70711,8.872611e-05,8.915112e-05,0.70711,0.0,0.0,0.0,0.0,0
4140000,0,0.70711,8.904885e-05,8.947386e-05,0.70711,0.0,0.0,0.0,0.0,0
4148000,0,0.70711,8.926402e-05,8.968903e-05,0.70711,0.0,0.0,0.0,0.0,0
4160000,0,0.70711,8.9586756e-05,9.001177e-05,0.70711,0.0,0.0,0.0,0.0,0
4168000,0,0.70711,8.980192e-05,9.022693e-05,0.70711,0.0,0.0,0.0,0.0,0
4180000,0,0.70711,9.012466e-05,9.054967e-05,0.70711,0.0,0.0,0.0,0.0,0
4188000,0,0.70711,9.0339825e-05,9.0764835e-05,0.70711,0.0,0.0,0.0,0.0,0
4200000,0,0.70711,9.0662565e-05,9.1087575e-05,0.70711,0.0,0.0,0.0,0.0,0
4208000,0,0.70711,9.087773e-05,9.130274e-05,0.70711,0.0,0.0,0.0,0.0,0
4220000,0,0.70711,9.120047e-05,9.162548e-05,0.70711,0.0,0.0,0.0,0.0,0
4228000,0,0.70711,9.141563e-05,9.1840644e-05,0.70711,0.0,0.0,0.0,0.0,0
4240000,0,0.70711,9.173838e-05,9.2163384e-05,0.70711,0.0,0.0,0.0,0.0,0
4248000,0,0.70711,9.195354e-05,9.237855e-05,0.70711,0.0,0.0,0.0,0.0,0
4260000,0,0.70711,9.2276285e-05,9.2701295e-05,0.70711,0.0,0.0,0.0,0.0,0
4268000,0,0.70711,9.249145e-05,9.291645e-05,0.70711,0.0,0.0,0.0,0.0,0
4280000,0,0.70711,9.281419e-05,9.32392e-05,0.70711,0.0,0.0,0.0,0.0,0
4288000,0,0.70711,9.302935e-05,9.3454364e-05,0.70711,0.0,0.0,0.0,0.0,0
4300000,0,0.70711,9.335209e-05,9.3777104e-05,0.70711,0.0,0.0,0.0,0.0,0
4308000,0,0.70711,9.356726e-05,9.399227e-05,0.70711,0.0,0.0,0.0,0.0,0
4320000,0,0.70711,9.3890005e-05,9.431501e-05,0.70711,0.0,0.0,0.0,0.0,0
4328000,0,0.70711,9.410516e-05,9.453017e-05,0.70711,0.0,0.0,0.0,0.0,0
4340000,0,0.70711,9.442791e-05,9.485292e-05,0.70711,0.0,0.0,0.0,0.0,0
4348000,0,0.70711,9.4643074e-05,9.5068084e-05,0.70711,0.0,0.0,0.0,0.0,0
4360000,0,0.70711,9.496582e-05,9.5390824e-05,0.70711,0.0,0.0,0.0,0.0,0
4368000,0,0.70711,9.518098e-05,9.560599e-05,0.70711,0.0,0.0,0.0,0.0,0
4380000,0,0.70711,9.5503725e-05,9.5928735e-05,0.70711,0.0,0.0,0.0,0.0,0
4388000,0,0.70711,9.571889e-05,9.614389e-05,0.70711,0.0,0.0,0.0,0.0,0
4400000,0,0.70711,9.604163e-05,9.646664e-05,0.70711,0.0,0.0,0.0,0.0,0
4408000,0,0.70711,9.6256794e-05,9.6681804e-05,0.70711,0.0,0.0,0.0,0.0,0
4420000,0,0.70711,9.657954e-05,9.700455e-05,0.70711,0.0,0.0,0.0,0.0,0
4428000,0,0.70711,9.6794705e-05,9.721971e-05,0.70711,0.0,0.0,0.0,0.0,0
4440000,0,0.70711,9.7117445e-05,9.7542455e-05,0.70711,0.0,0.0,0.0,0.0,0
4448000,0,0.70711,9.733261e-05,9.775762e-05,0.70711,0.0,0.0,0.0,0.0,0
4460000,0,0.70711,9.765536e-05,9.808037e-05,0.70711,0.0,0.0,0.0,0.0,0
4468000,0,0.70711,9.787052e-05,9.8295524e-05,0.70711,0.0,0.0,0.0,0.0,0
4480000,0,0.70711,9.819327e-05,9.861827e-05,0.70711,0.0,0.0,0.0,0.0,0
4488000,0,0.70711,9.840843e-05,9.8833436e-05,0.70711,0.0,0.0,0.0,0.0,0
4500000,0,0.70711,9.873117e-05,9.915618e-05,0.70711,0.0,0.0,0.0,0.0,0
4508000,0,0.70711,9.894634e-05,9.937135e-05,0.70711,0.0,0.0,0.0,0.0,0
4520000,0,0.70711,9.9269084e-05,9.969409e-05,0.70711,0.0,0.0,0.0,0.0,0
4528000,0,0.70711,9.948425e-05,9.990925e-05,0.70711,0.0,0.0,0.0,0.0,0
4540000,0,0.70711,9.9806995e-05,0.000100232,0.70711,0.0,0.0,0.0,0.0,0
4548000,0,0.70711,0.00010002216,0.00010044716,0.70711,0.0,0.0,0.0,0.0,0
4560000,0,0.70711,0.0001003449,0.00010076991,0.70711,0.0,0.0,0.0,0.0,0
4568000,0,0.70711,0.000100560064,0.000100985075,0.70711,0.0,0.0,0.0,0.0,0
4580000,0,0.70711,0.00010088281,0.00010130782,0.70711,0.0,0.0,0.0,0.0,0
4588000,0,0.70711,0.000101097976,0.00010152299,0.70711,0.0,0.0,0.0,0.0,0
4600000,0,0.70711,0.00010142072,0.000101845726,0.70711,0.0,0.0,0.0,0.0,0
4608000,0,0.70711,0.00010163589,0.00010206089,0.70711,0.0,0.0,0.0,0.0,0
4620000,0,0.70711,0.000101958634,0.00010238364,0.70711,0.0,0.0,0.0,0.0,0
4628000,0,0.70711,0.0001021738,0.0001025988,0.70711,0.0,0.0,0.0,0.0,0
4640000,0,0.70711,0.000102496546,0.00010292155,0.70711,0.0,0.0,0.0,0.0,0
4648000,0,0.70711,0.00010271171,0.000103136714,0.70711,0.0,0.0,0.0,0.0,0
4660000,0,0.70711,0.00010303446,0.00010345946,0.70711,0.0,0.0,0.0,0.0,0
4668000,0,0.70711,0.00010324962,0.000103674625,0.70711,0.0,0.0,0.0,0.0,0
4680000,0,0.70711,0.00010357237,0.00010399737,0.70711,0.0,0.0,0.0,0.0,0
4688000,0,0.70711,0.00010378753,0.00010421254,0.70711,0.0,0.0,0.0,0.0,0
4700000,0,0.70711,0.00010411028,0.000104535284,0.70711,0.0,0.0,0.0,0.0,0
4708000,0,0.70711,0.000104325445,0.00010475045,0.70711,0.0,0.0,0.0,0.0,0
4720000,0,0.70711,0.00010464819,0.000105073195,0.70711,0.0,0.0,0.0,0.0,0
4728000,0,0.70711,0.00010486336,0.00010528836,0.70711,0.0,0.0,0.0,0.0,0
4740000,0,0.70711,0.0001051861,0.00010561111,0.70711,0.0,0.0,0.0,0.0,0
4748000,0,0.70711,0.00010540127,0.00010582627,0.70711,0.0,0.0,0.0,0.0,0
4760000,0,0.70711,0.000105724015,0.00010614902,0.70711,0.0,0.0,0.0,0.0,0
4768000,0,0.70711,0.00010593918,0.00010636418,0.70711,0.0,0.0,0.0,0.0,0
4780000,0,0.70711,0.00010626193,0.00010668693,0.70711,0.0,0.0,0.0,0.0,0
4788000,0,0.70711,0.00010647709,0.000106902095,0.70711,0.0,0.0,0.0,0.0,0
4800000,0,0.70711,0.00010679984,0.00010722484,0.70711,0.0,0.0,0.0,0.0,0
4808000,0,0.70711,0.000107015,0.000107440006,0.70711,0.0,0.0,0.0,0.0,0
4820000,0,0.70711,0.00010733776,0.00010776276,0.70711,0.0,0.0,0.0,0.0,0
4828000,0,0.70711,0.00010755292,0.000107977925,0.70711,0.0,0.0,0.0,0.0,0
4840000,0,0.70711,0.00010787567,0.00010830067,0.70711,0.0,0.0,0.0,0.0,0
4848000,0,0.70711,0.00010809083,0.00010851584,0.70711,0.0,0.0,0.0,0.0,0
4860000,0,0.70711,0.00010841358,0.00010883858,0.70711,0.0,0.0,0.0,0.0,0
4868000,0,0.70711,0.000108628745,0.00010905375,0.70711,0.0,0.0,0.0,0.0,0
4880000,0,0.70711,0.00010895149,0.000109376495,0.70711,0.0,0.0,0.0,0.0,0
4888000,0,0.70711,0.000109166656,0.00010959166,0.70711,0.0,0.0,0.0,0.0,0
4900000,0,0.70711,0.00010948941,0.000109914414,0.70711,0.0,0.0,0.0,0.0,0
4908000,0,0.70711,0.000109704575,0.00011012958,0.70711,0.0,0.0,0.0,0.0,0
4920000,0,0.70711,0.00011002732,0.000110452325,0.70711,0.0,0.0,0.0,0.0,0
4928000,0,0.70711,0.00011024249,0.00011066749,0.70711,0.0,0.0,0.0,0.0,0
4940000,0,0.70711,0.00011056524,0.00011099024,0.70711,0.0,0.0,0.0,0.0,0
4948000,0,0.70711,0.000110780406,0.0001112054,0.70711,0.0,0.0,0.0,0.0,0
4960000,0,0.70711,0.00011110315,0.000111528156,0.70711,0.0,0.0,0.0,0.0,0
4968000,0,0.70711,0.00011131832,0.00011174332,0.70711,0.0,0.0,0.0,0.0,0
4980000,0,0.70711,0.000111641064,0.00011206607,0.70711,0.0,0.0,0.0,0.0,0
4988000,0,0.70711,0.000111856236,0.00011228123,0.70711,0.0,0.0,0.0,0.0,0
5000000,0,0.70711,0.00011217898,0.000112603986,0.70711,0.0,0.0,0.0,0.0,0
5008000,0,0.70711,0.00011239415,0.00011281915,0.70711,0.0,0.0,0.0,0.0,0
5020000,0,0.70711,0.0001127169,0.0001131419,0.70711,0.0,0.0,0.0,0.0,0
5028000,0,0.70711,0.000112932066,0.00011335706,0.70711,0.0,0.0,0.0,0.0,0
5040000,0,0.70711,0.00011325481,0.00011367982,0.70711,0.0,0.0,0.0,0.0,0
5048000,0,0.70711,0.00011346998,0.00011389498,0.70711,0.0,0.0,0.0,0.0,0
5060000,0,0.70711,0.00011379273,0.00011421773,0.70711,0.0,0.0,0.0,0.0,0
5068000,0,0.70711,0.0001140079,0.0001144329,0.70711,0.0,0.0,0.0,0.0,0
5080000,0,0.70711,0.00011433064,0.00011475565,0.70711,0.0,0.0,0.0,0.0,0
5088000,0,0.70711,0.000114545815,0.00011497081,0.70711,0.0,0.0,0.0,0.0,0
5100000,0,0.70711,0.00011486856,0.000115293566,0.70711,0.0,0.0,0.0,0.0,0
5108000,0,0.70711,0.00011508373,0.00011550873,0.70711,0.0,0.0,0.0,0.0,0
5120000,0,0.70711,0.00011540648,0.00011583148,0.70711,0.0,0.0,0.0,0.0,0
5128000,0,0.70711,0.000115621646,0.00011604665,0.70711,0.0,0.0,0.0,0.0,0
5140000,0,0.70711,0.0001159444,0.000116369396,0.70711,0.0,0.0,0.0,0.0,0
5148000,0,0.70711,0.000116159565,0.00011658456,0.70711,0.0,0.0,0.0,0.0,0
5160000,0,0.70711,0.00011648231,0.000116907315,0.70711,0.0,0.0,0.0,0.0,0
5168000,0,0.70711,0.00011669748,0.00011712248,0.70711,0.0,0.0,0.0,0.0,0
5180000,0,0.70711,0.00011702023,0.00011744523,0.70711,0.0,0.0,0.0,0.0,0
5188000,0,0.70711,0.0001172354,0.0001176604,0.70711,0.0,0.0,0.0,0.0,0
5200000,0,0.70711,0.00011755815,0.00011798315,0.70711,0.0,0.0,0.0,0.0,0
5208000,0,0.70711,0.000117773314,0.00011819832,0.70711,0.0,0.0,0.0,0.0,0
5220000,0,0.70711,0.00011809607,0.000118521064,0.70711,0.0,0.0,0.0,0.0,0
5228000,0,0.70711,0.00011831123,0.000118736236,0.70711,0.0,0.0,0.0,0.0,0
5240000,0,0.70711,0.00011863399,0.00011905898,0.70711,0.0,0.0,0.0,0.0,0
5248000,0,0.70711,0.00011884915,0.000119274155,0.70711,0.0,0.0,0.0,0.0,0
5260000,0,0.70711,0.000119171906,0.0001195969,0.70711,0.0,0.0,0.0,0.0,0
5268000,0,0.70711,0.00011938707,0.00011981207,0.70711,0.0,0.0,0.0,0.0,0
5280000,0,0.70711,0.000119709825,0.00012013482,0.70711,0.0,0.0,0.0,0.0,0
5288000,0,0.70711,0.00011992499,0.00012034999,0.70711,0.0,0.0,0.0,0.0,0
5300000,0,0.70711,0.00012024774,0.00012067274,0.70711,0.0,0.0,0.0,0.0,0
5308000,0,0.70711,0.00012046291,0.00012088791,0.70711,0.0,0.0,0.0,0.0,0
5320000,0,0.70711,0.00012078566,0.00012121066,0.70711,0.0,0.0,0.0,0.0,0
5328000,0,0.70711,0.000121000834,0.00012142583,0.70711,0.0,0.0,0.0,0.0,0
5340000,0,0.70711,0.00012132358,0.00012174858,0.70711,0.0,0.0,0.0,0.0,0
5348000,0,0.70711,0.00012153875,0.00012196375,0.70711,0.0,0.0,0.0,0.0,0
5360000,0,0.70711,0.0001218615,0.0001222865,0.70711,0.0,0.0,0.0,0.0,0
5368000,0,0.70711,0.00012207667,0.00012250167,0.70711,0.0,0.0,0.0,0.0,0
5380000,0,0.70711,0.00012239942,0.00012282442,0.70711,0.0,0.0,0.0,0.0,0
5388000,0,0.70711,0.0001226146,0.00012303959,0.70711,0.0,0.0,0.0,0.0,0
5400000,0,0.70711,0.00012293734,0.00012336233,0.70711,0.0,0.0,0.0,0.0,0
5408000,0,0.70711,0.00012315251,0.00012357751,0.70711,0.0,0.0,0.0,0.0,0
5420000,0,0.70711,0.00012347527,0.00012390026,0.70711,0.0,0.0,0.0,0.0,0
5428000,0,0.70711,0.00012369044,0.00012411542,0.70711,0.0,0.0,0.0,0.0,0
5440000,0,0.70711,0.00012401318,0.00012443819,0.70711,0.0,0.0,0.0,0.0,0
5448000,0,0.70711,0.00012422835,0.00012465335,0.70711,0.0,0.0,0.0,0.0,0
5460000,0,0.70711,0.00012455111,0.0001249761,0.70711,0.0,0.0,0.0,0.0,0
5468000,0,0.70711,0.00012476627,0.00012519128,0.70711,0.0,0.0,0.0,0.0,0
5480000,0,0.70711,0.00012508903,0.00012551402,0.70711,0.0,0.0,0.0,0.0,0
5488000,0,0.70711,0.0001253042,0.00012572919,0.70711,0.0,0.0,0.0,0.0,0
5500000,0,0.70711,0.00012562695,0.00012605195,0.70711,0.0,0.0,0.0,0.0,0
5508000,0,0.70711,0.00012584211,0.00012626711,0.70711,0.0,0.0,0.0,0.0,0
5520000,0,0.70711,0.00012616487,0.00012658986,0.70711,0.0,0.0,0.0,0.0,0
5528000,0,0.70711,0.00012638004,0.00012680504,0.70711,0.0,0.0,0.0,0.0,0
5540000,0,0.70711,0.0001267028,0.00012712779,0.70711,0.0,0.0,0.0,0.0,0
5548000,0,0.70711,0.00012691796,0.00012734295,0.70711,0.0,0.0,0.0,0.0,0
5560000,0,0.70711,0.00012724071,0.00012766571,0.70711,0.0,0.0,0.0,0.0,0
5568000,0,0.70711,0.00012745589,0.00012788088,0.70711,0.0,0.0,0.0,0.0,0
5580000,0,0.70711,0.00012777864,0.00012820364,0.70711,0.0,0.0,0.0,0.0,0
5588000,0,0.70711,0.0001279938,0.0001284188,0.70711,0.0,0.0,0.0,0.0,0
5600000,0,0.70711,0.00012831656,0.00012874155,0.70711,0.0,0.0,0.0,0.0,0
5608000,0,0.70711,0.00012853173,0.00012895673,0.70711,0.0,0.0,0.0,0.0,0
5620000,0,0.70711,0.00012885449,0.00012927948,0.70711,0.0,0.0,0.0,0.0,0
5628000,0,0.70711,0.00012906965,0.00012949464,0.70711,0.0,0.0,0.0,0.0,0
5640000,0,0.70711,0.00012939241,0.0001298174,0.70711,0.0,0.0,0.0,0.0,0
5648000,0,0.70711,0.00012960758,0.00013003257,0.70711,0.0,0.0,0.0,0.0,0
5660000,0,0.70711,0.00012993033,0.00013035533,0.70711,0.0,0.0,0.0,0.0,0
5668000,0,0.70711,0.0001301455,0.0001305705,0.70711,0.0,0.0,0.0,0.0,0
5680000,0,0.70711,0.00013046825,0.00013089326,0.70711,0.0,0.0,0.0,0.0,0
5688000,0,0.70711,0.00013068343,0.00013110842,0.70711,0.0,0.0,0.0,0.0,0
5700000,0,0.70711,0.00013100618,0.00013143117,0.70711,0.0,0.0,0.0,0.0,0
5708000,0,0.70711,0.00013122134,0.00013164635,0.70711,0.0,0.0,0.0,0.0,0
5720000,0,0.70711,0.0001315441,0.0001319691,0.70711,0.0,0.0,0.0,0.0,0
5728000,0,0.70711,0.00013175927,0.00013218427,0.70711,0.0,0.0,0.0,0.0,0
5740000,0,0.70711,0.00013208203,0.00013250702,0.70711,0.0,0.0,0.0,0.0,0
5748000,0,0.70711,0.0001322972,0.0001327222,0.70711,0.0,0.0,0.0,0.0,0
5760000,0,0.70711,0.00013261996,0.00013304494,0.70711,0.0,0.0,0.0,0.0,0
5768000,0,0.70711,0.00013283512,0.00013326012,0.70711,0.0,0.0,0.0,0.0,0
5780000,0,0.70711,0.00013315788,0.00013358287,0.70711,0.0,0.0,0.0,0.0,0
5788000,0,0.70711,0.00013337305,0.00013379804,0.70711,0.0,0.0,0.0,0.0,0
5800000,0,0.70711,0.00013369581,0.0001341208,0.70711,0.0,0.0,0.0,0.0,0
5808000,0,0.70711,0.00013391097,0.00013433596,0.70711,0.0,0.0,0.0,0.0,0
5820000,0,0.70711,0.00013423373,0.00013465872,0.70711,0.0,0.0,0.0,0.0,0
5828000,0,0.70711,0.0001344489,0.00013487389,0.70711,0.0,0.0,0.0,0.0,0
5840000,0,0.70711,0.00013477166,0.00013519665,0.70711,0.0,0.0,0.0,0.0,0
5848000,0,0.70711,0.00013498683,0.00013541181,0.70711,0.0,0.0,0.0,0.0,0
5860000,0,0.70711,0.00013530959,0.00013573458,0.70711,0.0,0.0,0.0,0.0,0
5868000,0,0.70711,0.00013552475,0.00013594974,0.70711,0.0,0.0,0.0,0.0,0
5880000,0,0.70711,0.00013584751,0.0001362725,0.70711,0.0,0.0,0.0,0.0,0
5888000,0,0.70711,0.00013606268,0.00013648767,0.70711,0.0,0.0,0.0,0.0,0
5900000,0,0.70711,0.00013638544,0.00013681043,0.70711,0.0,0.0,0.0,0.0,0
5908000,0,0.70711,0.0001366006,0.00013702559,0.70711,0.0,0.0,0.0,0.0,0
5920000,0,0.70711,0.00013692337,0.00013734835,0.70711,0.0,0.0,0.0,0.0,0
5928000,0,0.70711,0.00013713853,0.00013756352,0.70711,0.0,0.0,0.0,0.0,0
5940000,0,0.70711,0.00013746129,0.00013788628,0.70711,0.0,0.0,0.0,0.0,0
5948000,0,0.70711,0.00013767646,0.00013810146,0.70711,0.0,0.0,0.0,0.0,0
5960000,0,0.70711,0.00013799922,0.0001384242,0.70711,0.0,0.0,0.0,0.0,0
5968000,0,0.70711,0.00013821438,0.00013863939,0.70711,0.0,0.0,0.0,0.0,0
5980000,0,0.70711,0.00013853714,0.00013896213,0.70711,0.0,0.0,0.0,0.0,0
5988000,0,0.70711,0.00013875232,0.00013917731,0.70711,0.0,0.0,0.0,0.0,0
6000000,0,0.70711,0.00013907507,0.00013950006,0.70711,0.0,0.0,0.0,0.0,0
6008000,0,0.70711,0.00013929025,0.00013971524,0.70711,0.0,0.0,0.0,0.0,0
6020000,0,0.70711,0.000139613,0.000140038,0.70711,0.0,0.0,0.0,0.0,0
6028000,0,0.70711,0.00013982817,0.00014025316,0.70711,0.0,0.0,0.0,0.0,0
6040000,0,0.70711,0.00014015094,0.00014057592,0.70711,0.0,0.0,0.0,0.0,0
6048000,0,0.70711,0.0001403661,0.00014079109,0.70711,0.0,0.0,0.0,0.0,0
6060000,0,0.7071099,0.00014068886,0.00014111385,0.70711,0.0,0.0,0.0,0.0,0
6068000,0,0.7071099,0.00014090403,0.00014132902,0.70711,0.0,0.0,0.0,0.0,0
6080000,0,0.7071099,0.00014122679,0.00014165178,0.70711,0.0,0.0,0.0,0.0,0
6088000,0,0.7071099,0.00014144195,0.00014186696,0.70711,0.0,0.0,0.0,0.0,0
6100000,0,0.7071099,0.00014176471,0.0001421897,0.70711,0.0,0.0,0.0,0.0,0
6108000,0,0.7071099,0.0001419799,0.00014240488,0.70711,0.0,0.0,0.0,0.0,0
6120000,0,0.7071099,0.00014230264,0.00014272763,0.70711,0.0,0.0,0.0,0.0,0
6128000,0,0.7071099,0.00014251782,0.00014294281,0.70711,0.0,0.0,0.0,0.0,0
6140000,0,0.7071099,0.00014284058,0.00014326557,0.70711,0.0,0.0,0.0,0.0,0
6148000,0,0.7071099,0.00014305575,0.00014348073,0.70711,0.0,0.0,0.0,0.0,0
6160000,0,0.7071099,0.00014337851,0.0001438035,0.70711,0.0,0.0,0.0,0.0,0
6168000,0,0.7071099,0.00014359367,0.00014401866,0.70711,0.0,0.0,0.0,0.0,0
6180000,0,0.7071099,0.00014391643,0.00014434142,0.70711,0.0,0.0,0.0,0.0,0
6188000,0,0.7071099,0.00014413161,0.0001445566,0.70711,0.0,0.0,0.0,0.0,0
6200000,0,0.7071099,0.00014445437,0.00014487936,0.70711,0.0,0.0,0.0,0.0,0
6208000,0,0.7071099,0.00014466954,0.00014509453,0.70711,0.0,0.0,0.0,0.0,0
6220000,0,0.7071099,0.0001449923,0.00014541729,0.70711,0.0,0.0,0.0,0.0,0
6228000,0,0.7071099,0.00014520746,0.00014563245,0.70711,0.0,0.0,0.0,0.0,0
6240000,0,0.7071099,0.00014553023,0.00014595521,0.70711,0.0,0.0,0.0,0.0,0
6248000,0,0.7071099,0.0001457454,0.0001461704,0.70711,0.0,0.0,0.0,0.0,0
6260000,0,0.7071099,0.00014606817,0.00014649316,0.70711,0.0,0.0,0.0,0.0,0
6268000,0,0.7071099,0.00014628333,0.00014670832,0.70711,0.0,0.0,0.0,0.0,0
6280000,0,0.7071099,0.0001466061,0.00014703108,0.70711,0.0,0.0,0.0,0.0,0
6288000,0,0.7071099,0.00014682126,0.00014724625,0.70711,0.0,0.0,0.0,0.0,0
6300000,0,0.7071099,0.00014714402,0.00014756901,0.70711,0.0,0.0,0.0,0.0,0
6308000,0,0.7071099,0.0001473592,0.00014778419,0.70711,0.0,0.0,0.0,0.0,0
6320000,0,0.7071099,0.00014768196,0.00014810695,0.70711,0.0,0.0,0.0,0.0,0
6328000,0,0.7071099,0.00014789712,0.00014832211,0.70711,0.0,0.0,0.0,0.0,0
6340000,0,0.7071099,0.00014821989,0.00014864487,0.70711,0.0,0.0,0.0,0.0,0
6348000,0,0.7071099,0.00014843507,0.00014886005,0.70711,0.0,0.0,0.0,0.0,0
6360000,0,0.7071099,0.00014875783,0.0001491828,0.70711,0.0,0.0,0.0,0.0,0
6368000,0,0.7071099,0.00014897299,0.00014939798,0.70711,0.0,0.0,0.0,0.0,0
6380000,0,0.7071099,0.00014929575,0.00014972074,0.70711,0.0,0.0,0.0,0.0,0
6388000,0,0.7071099,0.00014951093,0.00014993592,0.70711,0.0,0.0,0.0,0.0,0
6400000,0,0.7071099,0.0001498337,0.00015025867,0.70711,0.0,0.0,0.0,0.0,0
6408000,0,0.7071099,0.00015004886,0.00015047385,0.70711,0.0,0.0,0.0,0.0,0
6420000,0,0.7071099,0.00015037162,0.00015079661,0.70711,0.0,0.0,0.0,0.0,0
6428000,0,0.7071099,0.0001505868,0.00015101177,0.70711,0.0,0.0,0.0,0.0,0
6440000,0,0.7071099,0.00015090956,0.00015133453,0.70711,0.0,0.0,0.0,0.0,0
6448000,0,0.7071099,0.00015112472,0.00015154971,0.70711,0.0,0.0,0.0,0.0,0
6460000,0,0.7071099,0.00015144749,0.00015187247,0.70711,0.0,0.0,0.0,0.0,0
6468000,0,0.7071099,0.00015166267,0.00015208765,0.70711,0.0,0.0,0.0,0.0,0
6480000,0,0.7071099,0.00015198543,0.0001524104,0.70711,0.0,0.0,0.0,0.0,0
6488000,0,0.7071099,0.00015220059,0.00015262558,0.70711,0.0,0.0,0.0,0.0,0
6500000,0,0.7071099,0.00015252335,0.00015294834,0.70711,0.0,0.0,0.0,0.0,0
6508000,0,0.7071099,0.00015273853,0.00015316352,0.70711,0.0,0.0,0.0,0.0,0
6520000,0,0.7071099,0.0001530613,0.00015348628,0.70711,0.0,0.0,0.0,0.0,0
6528000,0,0.7071099,0.00015327646,0.00015370145,0.70711,0.0,0.0,0.0,0.0,0
6540000,0,0.7071099,0.00015359922,0.00015402421,0.70711,0.0,0.0,0.0,0.0,0
6548000,0,0.7071099,0.0001538144,0.00015423939,0.70711,0.0,0.0,0.0,0.0,0
6560000,0,0.7071099,0.00015413716,0.00015456215,0.70711,0.0,0.0,0.0,0.0,0
6568000,0,0.7071099,0.00015435234,0.00015477731,0.70711,0.0,0.0,0.0,0.0,0
6580000,0,0.7071099,0.0001546751,0.00015510008,0.70711,0.0,0.0,0.0,0.0,0
6588000,0,0.7071099,0.00015489027,0.00015531525,0.70711,0.0,0.0,0.0,0.0,0
6600000,0,0.7071099,0.00015521303,0.00015563802,0.70711,0.0,0.0,0.0,0.0,0
6608000,0,0.7071099,0.0001554282,0.0001558532,0.70711,0.0,0.0,0.0,0.0,0
6620000,0,0.7071099,0.00015575097,0.00015617596,0.70711,0.0,0.0,0.0,0.0,0
6628000,0,0.7071099,0.00015596615,0.00015639112,0.70711,0.0,0.0,0.0,0.0,0
6640000,0,0.7071099,0.00015628891,0.00015671388,0.70711,0.0,0.0,0.0,0.0,0
6648000,0,0.7071099,0.00015650407,0.00015692906,0.70711,0.0,0.0,0.0,0.0,0
6660000,0,0.7071099,0.00015682683,0.00015725182,0.70711,0.0,0.0,0.0,0.0,0
6668000,0,0.7071099,0.00015704201,0.000157467,0.70711,0.0,0.0,0.0,0.0,0
6680000,0,0.7071099,0.00015736478,0.00015778976,0.70711,0.0,0.0,0.0,0.0,0
6688000,0,0.7071099,0.00015757995,0.00015800493,0.70711,0.0,0.0,0.0,0.0,0
6700000,0,0.7071099,0.00015790272,0.00015832769,0.70711,0.0,0.0,0.0,0.0,0
6708000,0,0.7071099,0.0001581179,0.00015854287,0.70711,0.0,0.0,0.0,0.0,0
6720000,0,0.7071099,0.00015844066,0.00015886563,0.70711,0.0,0.0,0.0,0.0,0
6728000,0,0.7071099,0.00015865582,0.00015908081,0.70711,0.0,0.0,0.0,0.0,0
6740000,0,0.7071099,0.00015897858,0.00015940357,0.70711,0.0,0.0,0.0,0.0,0
6748000,0,0.7071099,0.00015919376,0.00015961875,0.70711,0.0,0.0,0.0,0.0,0
6760000,0,0.7071099,0.00015951652,0.00015994151,0.70711,0.0,0.0,0.0,0.0,0
6768000,0,0.7071099,0.0001597317,0.00016015668,0.70711,0.0,0.0,0.0,0.0,0
6780000,0,0.7071099,0.00016005446,0.00016047945,0.70711,0.0,0.0,0.0,0.0,0
6788000,0,0.7071099,0.00016026964,0.00016069462,0.70711,0.0,0.0,0.0,0.0,0
6800000,0,0.7071099,0.0001605924,0.00016101738,0.70711,0.0,0.0,0.0,0.0,0
6808000,0,0.7071099,0.00016080757,0.00016123256,0.70711,0.0,0.0,0.0,0.0,0
6820000,0,0.7071099,0.00016113035,0.00016155532,0.70711,0.0,0.0,0.0,0.0,0
6828000,0,0.7071099,0.00016134551,0.0001617705,0.70711,0.0,0.0,0.0,0.0,0
6840000,0,0.7071099,0.00016166827,0.00016209326,0.70711,0.0,0.0,0.0,0.0,0
6848000,0,0.7071099,0.00016188345,0.00016230844,0.70711,0.0,0.0,0.0,0.0,0
6860000,0,0.7071099,0.00016220621,0.0001626312,0.70711,0.0,0.0,0.0,0.0,0
6868000,0,0.7071099,0.00016242139,0.00016284638,0.70711,0.0,0.0,0.0,0.0,0
6880000,0,0.7071099,0.00016274415,0.00016316914,0.70711,0.0,0.0,0.0,0.0,0
6888000,0,0.7071099,0.00016295933,0.00016338432,0.70711,0.0,0.0,0.0,0.0,0
6900000,0,0.7071099,0.0001632821,0.00016370708,0.70711,0.0,0.0,0.0,0.0,0
6908000,0,0.7071099,0.00016349727,0.00016392225,0.70711,0.0,0.0,0.0,0.0,0
6920000,0,0.7071099,0.00016382003,0.00016424502,0.70711,0.0,0.0,0.0,0.0,0
6928000,0,0.7071099,0.00016403521,0.00016446019,0.70711,0.0,0.0,0.0,0.0,0
6940000,0,0.7071099,0.00016435797,0.00016478295,0.70711,0.0,0.0,0.0,0.0,0
6948000,0,0.7071099,0.00016457315,0.00016499813,0.70711,0.0,0.0,0.0,0.0,0
6960000,0,0.7071099,0.00016489592,0.00016532089,0.70711,0.0,0.0,0.0,0.0,0
6968000,0,0.7071099,0.0001651111,0.00016553607,0.70711,0.0,0.0,0.0,0.0,0
6980000,0,0.7071099,0.00016543386,0.00016585883,0.70711,0.0,0.0,0.0,0.0,0
6988000,0,0.7071099,0.00016564903,0.00016607401,0.70711,0.0,0.0,0.0,0.0,0
7000000,0,0.7071099,0.0001659718,0.00016639677,0.70711,0.0,0.0,0.0,0.0,0
7008000,0,0.7071099,0.00016618698,0.00016661195,0.70711,0.0,0.0,0.0,0.0,0
7020000,0,0.7071099,0.00016650974,0.00016693471,0.70711,0.0,0.0,0.0,0.0,0
7028000,0,0.7071099,0.00016672492,0.00016714989,0.70711,0.0,0.0,0.0,0.0,0
7040000,0,0.7071099,0.00016704768,0.00016747265,0.70711,0.0,0.0,0.0,0.0,0
7048000,0,0.7071099,0.00016726286,0.00016768783,0.70711,0.0,0.0,0.0,0.0,0
7060000,0,0.7071099,0.00016758562,0.00016801059,0.70711,0.0,0.0,0.0,0.0,0
7068000,0,0.7071099,0.0001678008,0.00016822577,0.70711,0.0,0.0,0.0,0.0,0
7080000,0,0.7071099,0.00016812356,0.00016854855,0.70711,0.0,0.0,0.0,0.0,0
7088000,0,0.7071099,0.00016833874,0.00016876371,0.70711,0.0,0.0,0.0,0.0,0
7100000,0,0.7071099,0.0001686615,0.00016908649,0.70711,0.0,0.0,0.0,0.0,0
7108000,0,0.7071099,0.00016887668,0.00016930165,0.70711,0.0,0.0,0.0,0.0,0
7120000,0,0.7071099,0.00016919944,0.00016962443,0.70711,0.0,0.0,0.0,0.0,0
7128000,0,0.7071099,0.00016941462,0.00016983961,0.70711,0.0,0.0,0.0,0.0,0
7140000,0,0.7071099,0.00016973738,0.00017016237,0.70711,0.0,0.0,0.0,0.0,0
7148000,0,0.7071099,0.00016995256,0.00017037755,0.70711,0.0,0.0,0.0,0.0,0
7160000,0,0.7071099,0.00017027534,0.00017070031,0.70711,0.0,0.0,0.0,0.0,0
7168000,0,0.7071099,0.0001704905,0.00017091549,0.70711,0.0,0.0,0.0,0.0,0
7180000,0,0.7071099,0.00017081328,0.00017123825,0.70711,0.0,0.0,0.0,0.0,0
7188000,0,0.7071099,0.00017102846,0.00017145343,0.70711,0.0,0.0,0.0,0.0,0
7200000,0,0.7071099,0.00017135122,0.00017177619,0.70711,0.0,0.0,0.0,0.0,0
7208000,0,0.7071099,0.0001715664,0.00017199137,0.70711,0.0,0.0,0.0,0.0,0
7220000,0,0.7071099,0.00017188916,0.00017231413,0.70711,0.0,0.0,0.0,0.0,0
7228000,0,0.7071099,0.00017210434,0.00017252931,0.70711,0.0,0.0,0.0,0.0,0
7240000,0,0.7071099,0.0001724271,0.00017285209,0.70711,0.0,0.0,0.0,0.0,0
7248000,0,0.7071099,0.00017264228,0.00017306725,0.70711,0.0,0.0,0.0,0.0,0
7260000,0,0.7071099,0.00017296504,0.00017339003,0.70711,0.0,0.0,0.0,0.0,0
7268000,0,0.7071099,0.00017318022,0.0001736052,0.70711,0.0,0.0,0.0,0.0,0
7280000,0,0.7071099,0.000173503,0.00017392797,0.70711,0.0,0.0,0.0,0.0,0
7288000,0,0.7071099,0.00017371817,0.00017414315,0.70711,0.0,0.0,0.0,0.0,0
7300000,0,0.7071099,0.00017404094,0.00017446591,0.70711,0.0,0.0,0.0,0.0,0
7308000,0,0.7071099,0.00017425611,0.00017468109,0.70711,0.0,0.0,0.0,0.0,0
7320000,0,0.7071099,0.00017457888,0.00017500385,0.70711,0.0,0.0,0.0,0.0,0
7328000,0,0.7071099,0.00017479406,0.00017521903,0.70711,0.0,0.0,0.0,0.0,0
7340000,0,0.7071099,0.00017511683,0.0001755418,0.70711,0.0,0.0,0.0,0.0,0
7348000,0,0.7071099,0.000175332,0.00017575698,0.70711,0.0,0.0,0.0,0.0,0
7360000,0,0.7071099,0.00017565477,0.00017607975,0.70711,0.0,0.0,0.0,0.0,0
7368000,0,0.7071099,0.00017586995,0.00017629493,0.70711,0.0,0.0,0.0,0.0,0
7380000,0,0.7071099,0.00017619271,0.00017661769,0.70711,0.0,0.0,0.0,0.0,0
7388000,0,0.7071099,0.00017640789,0.00017683287,0.70711,0.0,0.0,0.0,0.0,0
7400000,0,0.7071099,0.00017673067,0.00017715564,0.70711,0.0,0.0,0.0,0.0,0
7408000,0,0.7071099,0.00017694583,0.00017737082,0.70711,0.0,0.0,0.0,0.0,0
7420000,0,0.7071099,0.00017726861,0.00017769358,0.70711,0.0,0.0,0.0,0.0,0
7428000,0,0.7071099,0.00017748379,0.00017790876,0.70711,0.0,0.0,0.0,0.0,0
7440000,0,0.7071099,0.00017780655,0.00017823152,0.70711,0.0,0.0,0.0,0.0,0
7448000,0,0.7071099,0.00017802173,0.0001784467,0.70711,0.0,0.0,0.0,0.0,0
7460000,0,0.7071099,0.0001783445,0.00017876948,0.70711,0.0,0.0,0.0,0.0,0
7468000,0,0.7071099,0.00017855968,0.00017898466,0.70711,0.0,0.0,0.0,0.0,0
7480000,0,0.7071099,0.00017888244,0.00017930742,0.70711,0.0,0.0,0.0,0.0,0
7488000,0,0.7071099,0.00017909762,0.0001795226,0.70711,0.0,0.0,0.0,0.0,0
7500000,0,0.7071099,0.00017942039,0.00017984537,0.70711,0.0,0.0,0.0,0.0,0
7508000,0,0.7071099,0.00017963556,0.00018006055,0.70711,0.0,0.0,0.0,0.0,0
7520000,0,0.7071099,0.00017995834,0.00018038331,0.70711,0.0,0.0,0.0,0.0,0
7528000,0,0.7071099,0.00018017352,0.0001805985,0.70711,0.0,0.0,0.0,0.0,0
7540000,0,0.7071099,0.00018049628,0.00018092126,0.70711,0.0,0.0,0.0,0.0,0
7548000,0,0.7071099,0.00018071146,0.00018113643,0.70711,0.0,0.0,0.0,0.0,0
7560000,0,0.7071099,0.00018103424,0.00018145921,0.70711,0.0,0.0,0.0,0.0,0
7568000,0,0.7071099,0.00018124942,0.00018167439,0.70711,0.0,0.0,0.0,0.0,0
7580000,0,0.7071099,0.00018157218,0.00018199715,0.70711,0.0,0.0,0.0,0.0,0
7588000,0,0.7071099,0.00018178736,0.00018221233,0.70711,0.0,0.0,0.0,0.0,0
7600000,0,0.7071099,0.00018211013,0.0001825351,0.70711,0.0,0.0,0.0,0.0,0
7608000,0,0.7071099,0.00018232531,0.00018275029,0.70711,0.0,0.0,0.0,0.0,0
7620000,0,0.7071099,0.00018264807,0.00018307305,0.70711,0.0,0.0,0.0,0.0,0
7628000,0,0.7071099,0.00018286325,0.00018328823,0.70711,0.0,0.0,0.0,0.0,0
7640000,0,0.7071099,0.00018318603,0.000183611,0.70711,0.0,0.0,0.0,0.0,0
7648000,0,0.7071099,0.00018340121,0.00018382618,0.70711,0.0,0.0,0.0,0.0,0
7660000,0,0.7071099,0.00018372398,0.00018414896,0.70711,0.0,0.0,0.0,0.0,0
7668000,0,0.7071099,0.00018393916,0.00018436414,0.70711,0.0,0.0,0.0,0.0,0
7680000,0,0.7071099,0.00018426192,0.0001846869,0.70711,0.0,0.0,0.0,0.0,0
7688000,0,0.7071099,0.0001844771,0.00018490208,0.70711,0.0,0.0,0.0,0.0,0
7700000,0,0.7071099,0.00018479988,0.00018522485,0.70711,0.0,0.0,0.0,0.0,0
7708000,0,0.7071099,0.00018501506,0.00018544003,0.70711,0.0,0.0,0.0,0.0,0
7720000,0,0.7071099,0.00018533782,0.0001857628,0.70711,0.0,0.0,0.0,0.0,0
7728000,0,0.7071099,0.000185553,0.00018597797,0.70711,0.0,0.0,0.0,0.0,0
7740000,0,0.7071099,0.00018587578,0.00018630075,0.70711,0.0,0.0,0.0,0.0,0
7748000,0,0.7071099,0.00018609095,0.00018651593,0.70711,0.0,0.0,0.0,0.0,0
7760000,0,0.7071099,0.00018641373,0.0001868387,0.70711,0.0,0.0,0.0,0.0,0
7768000,0,0.7071099,0.00018662891,0.00018705388,0.70711,0.0,0.0,0.0,0.0,0
7780000,0,0.7071099,0.00018695167,0.00018737665,0.70711,0.0,0.0,0.0,0.0,0
7788000,0,0.7071099,0.00018716685,0.00018759182,0.70711,0.0,0.0,0.0,0.0,0
7800000,0,0.7071099,0.00018748963,0.0001879146,0.70711,0.0,0.0,0.0,0.0,0
7808000,0,0.7071099,0.0001877048,0.00018812978,0.70711,0.0,0.0,0.0,0.0,0
7820000,0,0.7071099,0.00018802758,0.00018845256,0.70711,0.0,0.0,0.0,0.0,0
7828000,0,0.7071099,0.00018824276,0.00018866773,0.70711,0.0,0.0,0.0,0.0,0
7840000,0,0.7071099,0.00018856552,0.0001889905,0.70711,0.0,0.0,0.0,0.0,0
7848000,0,0.7071099,0.00018878072,0.00018920568,0.70711,0.0,0.0,0.0,0.0,0
7860000,0,0.7071099,0.00018910348,0.00018952845,0.70711,0.0,0.0,0.0,0.0,0
7868000,0,0.7071099,0.00018931866,0.00018974363,0.70711,0.0,0.0,0.0,0.0,0
7880000,0,0.7071099,0.00018964143,0.0001900664,0.70711,0.0,0.0,0.0,0.0,0
7888000,0,0.7071099,0.00018985661,0.00019028159,0.70711,0.0,0.0,0.0,0.0,0
7900000,0,0.7071099,0.00019017939,0.00019060436,0.70711,0.0,0.0,0.0,0.0,0
7908000,0,0.7071099,0.00019039457,0.00019081954,0.70711,0.0,0.0,0.0,0.0,0
7920000,0,0.7071099,0.00019071733,0.0001911423,0.70711,0.0,0.0,0.0,0.0,0
7928000,0,0.7071099,0.00019093252,0.00019135748,0.70711,0.0,0.0,0.0,0.0,0
7940000,0,0.7071099,0.00019125528,0.00019168026,0.70711,0.0,0.0,0.0,0.0,0
7948000,0,0.7071099,0.00019147046,0.00019189544,0.70711,0.0,0.0,0.0,0.0,0
7960000,0,0.7071099,0.00019179324,0.00019221821,0.70711,0.0,0.0,0.0,0.0,0
7968000,0,0.7071099,0.00019200842,0.00019243339,0.70711,0.0,0.0,0.0,0.0,0
7980000,0,0.7071099,0.0001923312,0.00019275617,0.70711,0.0,0.0,0.0,0.0,0
7988000,0,0.7071099,0.00019254637,0.00019297135,0.70711,0.0,0.0,0.0,0.0,0
8000000,0,0.7071099,0.00019286915,0.00019329412,0.70711,0.0,0.0,0.0,0.0,0
8008000,0,0.7071099,0.00019308433,0.0001935093,0.70711,0.0,0.0,0.0,0.0,0
8020000,0,0.7071099,0.0001934071,0.00019383206,0.70711,0.0,0.0,0.0,0.0,0
8028000,0,0.7071099,0.00019362228,0.00019404726,0.70711,0.0,0.0,0.0,0.0,0
8040000,0,0.7071099,0.00019394506,0.00019437002,0.70711,0.0,0.0,0.0,0.0,0
8048000,0,0.7071099,0.00019416024,0.00019458521,0.70711,0.0,0.0,0.0,0.0,0
8060000,0,0.7071099,0.00019448301,0.00019490797,0.70711,0.0,0.0,0.0,0.0,0
8068000,0,0.7071099,0.0001946982,0.00019512315,0.70711,0.0,0.0,0.0,0.0,0
8080000,0,0.7071099,0.00019502096,0.00019544593,0.70711,0.0,0.0,0.0,0.0,0
8088000,0,0.7071099,0.00019523615,0.00019566111,0.70711,0.0,0.0,0.0,0.0,0
8100000,0,0.7071099,0.00019555891,0.00019598388,0.70711,0.0,0.0,0.0,0.0,0
8108000,0,0.7071099,0.0001957741,0.00019619906,0.70711,0.0,0.0,0.0,0.0,0
8120000,0,0.7071099,0.00019609687,0.00019652184,0.70711,0.0,0.0,0.0,0.0,0
8128000,0,0.7071099,0.00019631206,0.00019673702,0.70711,0.0,0.0,0.0,0.0,0
8140000,0,0.7071099,0.00019663482,0.0001970598,0.70711,0.0,0.0,0.0,0.0,0
8148000,0,0.7071099,0.00019685001,0.00019727497,0.70711,0.0,0.0,0.0,0.0,0
8160000,0,0.7071099,0.00019717278,0.00019759775,0.70711,0.0,0.0,0.0,0.0,0
8168000,0,0.7071099,0.00019738797,0.00019781293,0.70711,0.0,0.0,0.0,0.0,0
8180000,0,0.7071099,0.00019771073,0.0001981357,0.70711,0.0,0.0,0.0,0.0,0
8188000,0,0.7071099,0.00019792593,0.00019835088,0.70711,0.0,0.0,0.0,0.0,0
8200000,0,0.7071099,0.00019824869,0.00019867366,0.70711,0.0,0.0,0.0,0.0,0
8208000,0,0.7071099,0.00019846388,0.00019888884,0.70711,0.0,0.0,0.0,0.0,0
8220000,0,0.7071099,0.00019878664,0.00019921162,0.70711,0.0,0.0,0.0,0.0,0
8228000,0,0.7071099,0.00019900184,0.0001994268,0.70711,0.0,0.0,0.0,0.0,0
8240000,0,0.7071099,0.0001993246,0.00019974957,0.70711,0.0,0.0,0.0,0.0,0
8248000,0,0.7071099,0.00019953979,0.00019996475,0.70711,0.0,0.0,0.0,0.0,0
8260000,0,0.7071099,0.00019986257,0.00020028753,0.70711,0.0,0.0,0.0,0.0,0
8268000,0,0.7071099,0.00020007775,0.0002005027,0.70711,0.0,0.0,0.0,0.0,0
8280000,0,0.7071099,0.00020040052,0.00020082548,0.70711,0.0,0.0,0.0,0.0,0
8288000,0,0.7071099,0.0002006157,0.00020104068,0.70711,0.0,0.0,0.0,0.0,0
8300000,0,0.7071099,0.00020093848,0.00020136344,0.70711,0.0,0.0,0.0,0.0,0
8308000,0,0.7071099,0.00020115366,0.00020157863,0.70711,0.0,0.0,0.0,0.0,0
8320000,0,0.7071099,0.00020147643,0.0002019014,0.70711,0.0,0.0,0.0,0.0,0
8328000,0,0.7071099,0.00020169161,0.00020211659,0.70711,0.0,0.0,0.0,0.0,0
8340000,0,0.7071099,0.00020201439,0.00020243936,0.70711,0.0,0.0,0.0,0.0,0
8348000,0,0.7071099,0.00020222957,0.00020265454,0.70711,0.0,0.0,0.0,0.0,0
8360000,0,0.7071099,0.00020255234,0.00020297732,0.70711,0.0,0.0,0.0,0.0,0
8368000,0,0.7071099,0.00020276754,0.0002031925,0.70711,0.0,0.0,0.0,0.0,0
8380000,0,0.7071099,0.0002030903,0.00020351527,0.70711,0.0,0.0,0.0,0.0,0
8388000,0,0.7071099,0.00020330549,0.00020373045,0.70711,0.0,0.0,0.0,0.0,0
8400000,0,0.7071099,0.00020362827,0.00020405323,0.70711,0.0,0.0,0.0,0.0,0
8408000,0,0.7071099,0.00020384345,0.0002042684,0.70711,0.0,0.0,0.0,0.0,0
8420000,0,0.7071099,0.00020416622,0.00020459118,0.70711,0.0,0.0,0.0,0.0,0
8428000,0,0.7071099,0.0002043814,0.00020480638,0.70711,0.0,0.0,0.0,0.0,0
8440000,0,0.7071099,0.00020470418,0.00020512915,0.70711,0.0,0.0,0.0,0.0,0
8448000,0,0.7071099,0.00020491936,0.00020534433,0.70711,0.0,0.0,0.0,0.0,0
8460000,0,0.7071099,0.00020524213,0.00020566711,0.70711,0.0,0.0,0.0,0.0,0
8468000,0,0.7071099,0.00020545733,0.00020588229,0.70711,0.0,0.0,0.0,0.0,0
8480000,0,0.7071099,0.0002057801,0.00020620506,0.70711,0.0,0.0,0.0,0.0,0
8488000,0,0.7071099,0.00020599528,0.00020642024,0.70711,0.0,0.0,0.0,0.0,0
8500000,0,0.7071099,0.00020631806,0.00020674302,0.70711,0.0,0.0,0.0,0.0,0
8508000,0,0.7071099,0.00020653324,0.00020695821,0.70711,0.0,0.0,0.0,0.0,0
8520000,0,0.7071099,0.00020685601,0.00020728099,0.70711,0.0,0.0,0.0,0.0,0
8528000,0,0.7071099,0.0002070712,0.00020749617,0.70711,0.0,0.0,0.0,0.0,0
8540000,0,0.7071099,0.00020739398,0.00020781894,0.70711,0.0,0.0,0.0,0.0,0
8548000,0,0.7071099,0.00020760916,0.00020803412,0.70711,0.0,0.0,0.0,0.0,0
8560000,0,0.7071099,0.00020793194,0.0002083569,0.70711,0.0,0.0,0.0,0.0,0
8568000,0,0.7071099,0.00020814712,0.00020857209,0.70711,0.0,0.0,0.0,0.0,0
8580000,0,0.7071099,0.0002084699,0.00020889487,0.70711,0.0,0.0,0.0,0.0,0
8588000,0,0.7071099,0.00020868509,0.00020911005,0.70711,0.0,0.0,0.0,0.0,0
8600000,0,0.7071099,0.00020900786,0.00020943282,0.70711,0.0,0.0,0.0,0.0,0
8608000,0,0.7071099,0.00020922304,0.000209648,0.70711,0.0,0.0,0.0,0.0,0
8620000,0,0.7071099,0.00020954582,0.00020997078,0.70711,0.0,0.0,0.0,0.0,0
8628000,0,0.7071099,0.000209761,0.00021018597,0.70711,0.0,0.0,0.0,0.0,0
8640000,0,0.7071099,0.00021008377,0.00021050875,0.70711,0.0,0.0,0.0,0.0,0
8648000,0,0.7071099,0.00021029897,0.00021072393,0.70711,0.0,0.0,0.0,0.0,0
8660000,0,0.7071099,0.00021062174,0.0002110467,0.70711,0.0,0.0,0.0,0.0,0
8668000,0,0.7071099,0.00021083692,0.0002112619,0.70711,0.0,0.0,0.0,0.0,0
8680000,0,0.7071099,0.0002111597,0.00021158467,0.70711,0.0,0.0,0.0,0.0,0
8688000,0,0.7071099,0.00021137489,0.00021179985,0.70711,0.0,0.0,0.0,0.0,0
8700000,0,0.7071099,0.00021169767,0.00021212263,0.70711,0.0,0.0,0.0,0.0,0
8708000,0,0.7071099,0.00021191285,0.0002123378,0.70711,0.0,0.0,0.0,0.0,0
8720000,0,0.7071099,0.00021223562,0.0002126606,0.70711,0.0,0.0,0.0,0.0,0
8728000,0,0.7071099,0.00021245082,0.00021287578,0.70711,0.0,0.0,0.0,0.0,0
8740000,0,0.7071099,0.0002127736,0.00021319855,0.70711,0.0,0.0,0.0,0.0,0
8748000,0,0.7071099,0.00021298877,0.00021341373,0.70711,0.0,0.0,0.0,0.0,0
8760000,0,0.7071099,0.00021331155,0.00021373652,0.70711,0.0,0.0,0.0,0.0,0
8768000,0,0.7071099,0.00021352674,0.0002139517,0.70711,0.0,0.0,0.0,0.0,0
8780000,0,0.7071099,0.00021384952,0.00021427448,0.70711,0.0,0.0,0.0,0.0,0
8788000,0,0.7071099,0.0002140647,0.00021448966,0.70711,0.0,0.0,0.0,0.0,0
8800000,0,0.7071099,0.00021438747,0.00021481245,0.70711,0.0,0.0,0.0,0.0,0
8808000,0,0.7071099,0.00021460267,0.00021502763,0.70711,0.0,0.0,0.0,0.0,0
8820000,0,0.7071099,0.00021492544,0.0002153504,0.70711,0.0,0.0,0.0,0.0,0
8828000,0,0.7071099,0.00021514062,0.0002155656,0.70711,0.0,0.0,0.0,0.0,0
8840000,0,0.7071099,0.0002154634,0.00021588837,0.70711,0.0,0.0,0.0,0.0,0
8848000,0,0.7071099,0.00021567859,0.00021610355,0.70711,0.0,0.0,0.0,0.0,0
8860000,0,0.7071099,0.00021600137,0.00021642633,0.70711,0.0,0.0,0.0,0.0,0
8868000,0,0.7071099,0.00021621656,0.00021664152,0.70711,0.0,0.0,0.0,0.0,0
8880000,0,0.7071099,0.00021653934,0.0002169643,0.70711,0.0,0.0,0.0,0.0,0
8888000,0,0.7071099,0.00021675452,0.00021717948,0.70711,0.0,0.0,0.0,0.0,0
8900000,0,0.7071099,0.0002170773,0.00021750227,0.70711,0.0,0.0,0.0,0.0,0
8908000,0,0.7071099,0.00021729249,0.00021771745,0.70711,0.0,0.0,0.0,0.0,0
8920000,0,0.7071099,0.00021761526,0.00021804022,0.70711,0.0,0.0,0.0,0.0,0
8928000,0,0.7071099,0.00021783044,0.00021825542,0.70711,0.0,0.0,0.0,0.0,0
8940000,0,0.7071099,0.00021815323,0.00021857819,0.70711,0.0,0.0,0.0,0.0,0
8948000,0,0.7071099,0.00021836841,0.00021879337,0.70711,0.0,0.0,0.0,0.0,0
8960000,0,0.7071099,0.00021869119,0.00021911615,0.70711,0.0,0.0,0.0,0.0,0
8968000,0,0.7071099,0.00021890638,0.00021933134,0.70711,0.0,0.0,0.0,0.0,0
8980000,0,0.7071099,0.00021922916,0.00021965412,0.70711,0.0,0.0,0.0,0.0,0
8988000,0,0.7071099,0.00021944434,0.00021986931,0.70711,0.0,0.0,0.0,0.0,0
9000000,0,0.7071099,0.00021976713,0.00022019209,0.70711,0.0,0.0,0.0,0.0,0
9008000,0,0.7071099,0.0002199823,0.00022040727,0.70711,0.0,0.0,0.0,0.0,0
9020000,0,0.7071099,0.00022030508,0.00022073006,0.70711,0.0,0.0,0.0,0.0,0
9028000,0,0.7071099,0.00022052028,0.00022094524,0.70711,0.0,0.0,0.0,0.0,0
9040000,0,0.7071099,0.00022084305,0.00022126801,0.70711,0.0,0.0,0.0,0.0,0
9048000,0,0.7071099,0.00022105825,0.0002214832,0.70711,0.0,0.0,0.0,0.0,0
9060000,0,0.7071099,0.00022138102,0.00022180598,0.70711,0.0,0.0,0.0,0.0,0
9068000,0,0.7071099,0.00022159622,0.00022202118,0.70711,0.0,0.0,0.0,0.0,0
9080000,0,0.7071099,0.00022191899,0.00022234395,0.70711,0.0,0.0,0.0,0.0,0
9088000,0,0.7071099,0.00022213417,0.00022255913,0.70711,0.0,0.0,0.0,0.0,0
9100000,0,0.7071099,0.00022245696,0.00022288192,0.70711,0.0,0.0,0.0,0.0,0
9108000,0,0.7071099,0.00022267214,0.0002230971,0.70711,0.0,0.0,0.0,0.0,0
9120000,0,0.7071099,0.00022299492,0.00022341988,0.70711,0.0,0.0,0.0,0.0,0
9128000,0,0.7071099,0.00022321011,0.00022363507,0.70711,0.0,0.0,0.0,0.0,0
9140000,0,0.7071099,0.00022353289,0.00022395785,0.70711,0.0,0.0,0.0,0.0,0
9148000,0,0.7071099,0.00022374808,0.00022417304,0.70711,0.0,0.0,0.0,0.0,0
9160000,0,0.7071099,0.00022407086,0.00022449582,0.70711,0.0,0.0,0.0,0.0,0
9168000,0,0.7071099,0.00022428605,0.00022471101,0.70711,0.0,0.0,0.0,0.0,0
9180000,0,0.7071099,0.00022460883,0.00022503379,0.70711,0.0,0.0,0.0,0.0,0
9188000,0,0.7071099,0.00022482402,0.00022524898,0.70711,0.0,0.0,0.0,0.0,0
9200000,0,0.7071099,0.0002251468,0.00022557176,0.70711,0.0,0.0,0.0,0.0,0
9208000,0,0.7071099,0.00022536198,0.00022578693,0.70711,0.0,0.0,0.0,0.0,0
9220000,0,0.7071099,0.00022568477,0.00022610973,0.70711,0.0,0.0,0.0,0.0,0
9228000,0,0.7071099,0.00022589994,0.0002263249,0.70711,0.0,0.0,0.0,0.0,0
9240000,0,0.7071099,0.00022622274,0.0002266477,0.70711,0.0,0.0,0.0,0.0,0
9248000,0,0.7071099,0.00022643791,0.00022686287,0.70711,0.0,0.0,0.0,0.0,0
9260000,0,0.7071099,0.0002267607,0.00022718566,0.70711,0.0,0.0,0.0,0.0,0
9268000,0,0.7071099,0.00022697588,0.00022740084,0.70711,0.0,0.0,0.0,0.0,0
9280000,0,0.7071099,0.00022729867,0.00022772363,0.70711,0.0,0.0,0.0,0.0,0
9288000,0,0.7071099,0.00022751385,0.00022793881,0.70711,0.0,0.0,0.0,0.0,0
9300000,0,0.7071099,0.00022783664,0.0002282616,0.70711,0.0,0.0,0.0,0.0,0
9308000,0,0.7071099,0.00022805182,0.00022847678,0.70711,0.0,0.0,0.0,0.0,0
9320000,0,0.7071099,0.00022837461,0.00022879957,0.70711,0.0,0.0,0.0,0.0,0
9328000,0,0.7071099,0.0002285898,0.00022901475,0.70711,0.0,0.0,0.0,0.0,0
9340000,0,0.7071099,0.00022891258,0.00022933754,0.70711,0.0,0.0,0.0,0.0,0
9348000,0,0.7071099,0.00022912776,0.00022955272,0.70711,0.0,0.0,0.0,0.0,0
9360000,0,0.7071099,0.00022945055,0.00022987551,0.70711,0.0,0.0,0.0,0.0,0
9368000,0,0.7071099,0.00022966573,0.00023009069,0.70711,0.0,0.0,0.0,0.0,0
9380000,0,0.7071099,0.00022998852,0.00023041348,0.70711,0.0,0.0,0.0,0.0,0
9388000,0,0.7071099,0.0002302037,0.00023062866,0.70711,0.0,0.0,0.0,0.0,0
9400000,0,0.7071099,0.0002305265,0.00023095145,0.70711,0.0,0.0,0.0,0.0,0
9408000,0,0.7071099,0.00023074167,0.00023116663,0.70711,0.0,0.0,0.0,0.0,0
9420000,0,0.7071099,0.00023106446,0.00023148942,0.70711,0.0,0.0,0.0,0.0,0
9428000,0,0.7071099,0.00023127964,0.0002317046,0.70711,0.0,0.0,0.0,0.0,0
9440000,0,0.7071099,0.00023160243,0.00023202739,0.70711,0.0,0.0,0.0,0.0,0
9448000,0,0.7071099,0.00023181763,0.00023224257,0.70711,0.0,0.0,0.0,0.0,0
9460000,0,0.7071099,0.0002321404,0.00023256536,0.70711,0.0,0.0,0.0,0.0,0
9468000,0,0.7071099,0.0002323556,0.00023278056,0.70711,0.0,0.0,0.0,0.0,0
9480000,0,0.7071099,0.00023267837,0.00023310333,0.70711,0.0,0.0,0.0,0.0,0
9488000,0,0.7071099,0.00023289357,0.00023331853,0.70711,0.0,0.0,0.0,0.0,0
9500000,0,0.7071099,0.00023321634,0.0002336413,0.70711,0.0,0.0,0.0,0.0,0
9508000,0,0.7071099,0.00023343154,0.0002338565,0.70711,0.0,0.0,0.0,0.0,0
9520000,0,0.7071099,0.00023375431,0.00023417927,0.70711,0.0,0.0,0.0,0.0,0
9528000,0,0.7071099,0.0002339695,0.00023439447,0.70711,0.0,0.0,0.0,0.0,0
9540000,0,0.7071099,0.0002342923,0.00023471724,0.70711,0.0,0.0,0.0,0.0,0
9548000,0,0.7071099,0.00023450748,0.00023493243,0.70711,0.0,0.0,0.0,0.0,0
9560000,0,0.7071099,0.00023483027,0.00023525523,0.70711,0.0,0.0,0.0,0.0,0
9568000,0,0.7071099,0.00023504545,0.0002354704,0.70711,0.0,0.0,0.0,0.0,0
9580000,0,0.7071099,0.00023536824,0.0002357932,0.70711,0.0,0.0,0.0,0.0,0
9588000,0,0.7071099,0.00023558343,0.00023600839,0.70711,0.0,0.0,0.0,0.0,0
9600000,0,0.7071099,0.0002359062,0.00023633117,0.70711,0.0,0.0,0.0,0.0,0
9608000,0,0.7071099,0.0002361214,0.00023654636,0.70711,0.0,0.0,0.0,0.0,0
9620000,0,0.7071099,0.00023644419,0.00023686913,0.70711,0.0,0.0,0.0,0.0,0
9628000,0,0.7071099,0.00023665937,0.00023708433,0.70711,0.0,0.0,0.0,0.0,0
9640000,0,0.7071099,0.00023698216,0.00023740712,0.70711,0.0,0.0,0.0,0.0,0
9648000,0,0.7071099,0.00023719734,0.0002376223,0.70711,0.0,0.0,0.0,0.0,0
9660000,0,0.7071099,0.00023752013,0.00023794509,0.70711,0.0,0.0,0.0,0.0,0
9668000,0,0.7071099,0.00023773532,0.00023816028,0.70711,0.0,0.0,0.0,0.0,0
9680000,0,0.7071099,0.0002380581,0.00023848306,0.70711,0.0,0.0,0.0,0.0,0
9688000,0,0.7071099,0.0002382733,0.00023869825,0.70711,0.0,0.0,0.0,0.0,0
9700000,0,0.7071099,0.00023859608,0.00023902103,0.70711,0.0,0.0,0.0,0.0,0
9708000,0,0.7071099,0.00023881126,0.00023923622,0.70711,0.0,0.0,0.0,0.0,0
9720000,0,0.7071099,0.00023913405,0.00023955901,0.70711,0.0,0.0,0.0,0.0,0
9728000,0,0.7071099,0.00023934925,0.00023977419,0.70711,0.0,0.0,0.0,0.0,0
9740000,0,0.7071099,0.00023967202,0.00024009698,0.70711,0.0,0.0,0.0,0.0,0
9748000,0,0.7071099,0.00023988722,0.00024031218,0.70711,0.0,0.0,0.0,0.0,0
9760000,0,0.7071099,0.00024021,0.00024063495,0.70711,0.0,0.0,0.0,0.0,0
9768000,0,0.7071099,0.00024042519,0.00024085015,0.70711,0.0,0.0,0.0,0.0,0
9780000,0,0.7071099,0.00024074798,0.00024117294,0.70711,0.0,0.0,0.0,0.0,0
9788000,0,0.7071099,0.00024096317,0.00024138813,0.70711,0.0,0.0,0.0,0.0,0
9800000,0,0.7071099,0.00024128596,0.0002417109,0.70711,0.0,0.0,0.0,0.0,0
9808000,0,0.7071099,0.00024150114,0.0002419261,0.70711,0.0,0.0,0.0,0.0,0
9820000,0,0.7071099,0.00024182393,0.00024224889,0.70711,0.0,0.0,0.0,0.0,0
9828000,0,0.7071099,0.00024203912,0.00024246407,0.70711,0.0,0.0,0.0,0.0,0
9840000,0,0.7071099,0.0002423619,0.00024278686,0.70711,0.0,0.0,0.0,0.0,0
9848000,0,0.7071099,0.0002425771,0.00024300205,0.70711,0.0,0.0,0.0,0.0,0
9860000,0,0.7071099,0.00024289989,0.00024332483,0.70711,0.0,0.0,0.0,0.0,0
9868000,0,0.7071099,0.00024311508,0.00024354002,0.70711,0.0,0.0,0.0,0.0,0
9880000,0,0.7071099,0.00024343785,0.00024386281,0.70711,0.0,0.0,0.0,0.0,0
9888000,0,0.7071099,0.00024365305,0.00024407801,0.70711,0.0,0.0,0.0,0.0,0
9900000,0,0.7071099,0.00024397584,0.00024440078,0.70711,0.0,0.0,0.0,0.0,0
9908000,0,0.7071099,0.00024419103,0.00024461598,0.70711,0.0,0.0,0.0,0.0,0
9920000,0,0.7071099,0.00024451382,0.00024493877,0.70711,0.0,0.0,0.0,0.0,0
9928000,0,0.7071099,0.00024472902,0.00024515396,0.70711,0.0,0.0,0.0,0.0,0
9940000,0,0.7071099,0.00024505178,0.00024547675,0.70711,0.0,0.0,0.0,0.0,0
9948000,0,0.7071099,0.00024526697,0.00024569195,0.70711,0.0,0.0,0.0,0.0,0
9960000,0,0.7071099,0.00024558976,0.0002460147,0.70711,0.0,0.0,0.0,0.0,0
9968000,0,0.7071099,0.00024580496,0.0002462299,0.70711,0.0,0.0,0.0,0.0,0
9980000,0,0.7071099,0.00024612775,0.0002465527,0.70711,0.0,0.0,0.0,0.0,0
9988000,0,0.7071099,0.00024634294,0.0002467679,0.70711,0.0,0.0,0.0,0.0,0
10000000,0,0.7071099,0.00024666573,0.00024709068,0.70711,0.0,0.0,0.0,0.0,0
10008000,0,0.7071099,0.00024688093,0.00024730587,0.70711,0.0,0.0,0.0,0.0,0
10020000,0,0.7071099,0.00024720372,0.00024762866,0.70711,0.0,0.0,0.0,0.0,0
10028000,0,0.7071099,0.00024741888,0.00024784385,0.70711,0.0,0.0,0.0,0.0,0
10040000,0,0.7071099,0.00024774167,0.00024816665,0.70711,0.0,0.0,0.0,0.0,0
10048000,0,0.7071099,0.00024795686,0.00024838184,0.70711,0.0,0.0,0.0,0.0,0
10060000,0,0.7071099,0.00024827966,0.0002487046,0.70711,0.0,0.0,0.0,0.0,0
10068000,0,0.7071099,0.00024849485,0.0002489198,0.70711,0.0,0.0,0.0,0.0,0
10080000,0,0.7071099,0.00024881764,0.00024924258,0.70711,0.0,0.0,0.0,0.0,0
10088000,0,0.7071099,0.00024903283,0.00024945778,0.70711,0.0,0.0,0.0,0.0,0
10100000,0,0.7071099,0.00024935562,0.00024978057,0.70711,0.0,0.0,0.0,0.0,0
10108000,0,0.7071099,0.00024957082,0.00024999576,0.70711,0.0,0.0,0.0,0.0,0
10120000,0,0.7071099,0.0002498936,0.00025031855,0.70711,0.0,0.0,0.0,0.0,0
10128000,0,0.7071099,0.0002501088,0.00025053375,0.70711,0.0,0.0,0.0,0.0,0
10140000,0,0.7071099,0.00025043156,0.00025085654,0.70711,0.0,0.0,0.0,0.0,0
10148000,0,0.7071099,0.00025064676,0.00025107173,0.70711,0.0,0.0,0.0,0.0,0
10160000,0,0.7071099,0.00025096955,0.00025139452,0.70711,0.0,0.0,0.0,0.0,0
10168000,0,0.7071099,0.00025118474,0.00025160972,0.70711,0.0,0.0,0.0,0.0,0
10180000,0,0.7071099,0.00025150753,0.00025193248,0.70711,0.0,0.0,0.0,0.0,0
10188000,0,0.7071099,0.00025172273,0.00025214767,0.70711,0.0,0.0,0.0,0.0,0
10200000,0,0.7071099,0.00025204552,0.00025247046,0.70711,0.0,0.0,0.0,0.0,0
10208000,0,0.7071099,0.0002522607,0.00025268566,0.70711,0.0,0.0,0.0,0.0,0
10220000,0,0.7071099,0.0002525835,0.00025300845,0.70711,0.0,0.0,0.0,0.0,0
10228000,0,0.7071099,0.0002527987,0.00025322364,0.70711,0.0,0.0,0.0,0.0,0
10240000,0,0.7071099,0.00025312149,0.00025354643,0.70711,0.0,0.0,0.0,0.0,0
10248000,0,0.7071099,0.00025333668,0.00025376162,0.70711,0.0,0.0,0.0,0.0,0
10260000,0,0.7071099,0.00025365947,0.0002540844,0.70711,0.0,0.0,0.0,0.0,0
10268000,0,0.7071099,0.00025387466,0.0002542996,0.70711,0.0,0.0,0.0,0.0,0
10280000,0,0.7071099,0.00025419745,0.0002546224,0.70711,0.0,0.0,0.0,0.0,0
10288000,0,0.7071099,0.00025441265,0.0002548376,0.70711,0.0,0.0,0.0,0.0,0
10300000,0,0.7071099,0.00025473544,0.00025516038,0.70711,0.0,0.0,0.0,0.0,0
10308000,0,0.7071099,0.00025495063,0.00025537558,0.70711,0.0,0.0,0.0,0.0,0
10320000,0,0.7071099,0.0002552734,0.00025569837,0.70711,0.0,0.0,0.0,0.0,0
10328000,0,0.7071099,0.0002554886,0.00025591356,0.70711,0.0,0.0,0.0,0.0,0
10340000,0,0.7071099,0.00025581138,0.00025623635,0.70711,0.0,0.0,0.0,0.0,0
10348000,0,0.7071099,0.00025602657,0.00025645155,0.70711,0.0,0.0,0.0,0.0,0
10360000,0,0.7071099,0.00025634936,0.00025677434,0.70711,0.0,0.0,0.0,0.0,0
10368000,0,0.7071099,0.00025656456,0.00025698953,0.70711,0.0,0.0,0.0,0.0,0
10380000,0,0.7071099,0.00025688735,0.0002573123,0.70711,0.0,0.0,0.0,0.0,0
10388000,0,0.7071099,0.00025710254,0.00025752748,0.70711,0.0,0.0,0.0,0.0,0
10400000,0,0.7071099,0.00025742533,0.00025785028,0.70711,0.0,0.0,0.0,0.0,0
10408000,0,0.7071099,0.00025764052,0.00025806547,0.70711,0.0,0.0,0.0,0.0,0
10420000,0,0.7071099,0.00025796331,0.00025838826,0.70711,0.0,0.0,0.0,0.0,0
10428000,0,0.7071099,0.0002581785,0.00025860345,0.70711,0.0,0.0,0.0,0.0,0
10440000,0,0.7071099,0.0002585013,0.00025892624,0.70711,0.0,0.0,0.0,0.0,0
10448000,0,0.7071099,0.0002587165,0.00025914144,0.70711,0.0,0.0,0.0,0.0,0
10460000,0,0.7071099,0.00025903928,0.00025946423,0.70711,0.0,0.0,0.0,0.0,0
10468000,0,0.7071099,0.00025925448,0.00025967942,0.70711,0.0,0.0,0.0,0.0,0
10480000,0,0.7071099,0.00025957727,0.0002600022,0.70711,0.0,0.0,0.0,0.0,0
10488000,0,0.7071099,0.00025979246,0.0002602174,0.70711,0.0,0.0,0.0,0.0,0
10500000,0,0.7071099,0.00026011525,0.0002605402,0.70711,0.0,0.0,0.0,0.0,0
10508000,0,0.7071099,0.00026033045,0.0002607554,0.70711,0.0,0.0,0.0,0.0,0
10520000,0,0.7071099,0.00026065324,0.00026107818,0.70711,0.0,0.0,0.0,0.0,0
10528000,0,0.7071099,0.00026086843,0.00026129337,0.70711,0.0,0.0,0.0,0.0,0
10540000,0,0.7071099,0.00026119122,0.00026161617,0.70711,0.0,0.0,0.0,0.0,0
10548000,0,0.7071099,0.0002614064,0.00026183136,0.70711,0.0,0.0,0.0,0.0,0
10560000,0,0.7071099,0.0002617292,0.00026215415,0.70711,0.0,0.0,0.0,0.0,0
10568000,0,0.7071099,0.0002619444,0.00026236934,0.70711,0.0,0.0,0.0,0.0,0
10580000,0,0.7071099,0.0002622672,0.00026269213,0.70711,0.0,0.0,0.0,0.0,0
10588000,0,0.7071099,0.00026248238,0.00026290733,0.70711,0.0,0.0,0.0,0.0,0
10600000,0,0.7071099,0.00026280517,0.00026323012,0.70711,0.0,0.0,0.0,0.0,0
10608000,0,0.7071099,0.00026302037,0.0002634453,0.70711,0.0,0.0,0.0,0.0,0
10620000,0,0.7071099,0.00026334316,0.0002637681,0.70711,0.0,0.0,0.0,0.0,0
10628000,0,0.7071099,0.00026355835,0.0002639833,0.70711,0.0,0.0,0.0,0.0,0
10640000,0,0.7071099,0.00026388114,0.00026430612,0.70711,0.0,0.0,0.0,0.0,0
10648000,0,0.7071099,0.00026409634,0.0002645213,0.70711,0.0,0.0,0.0,0.0,0
10660000,0,0.7071099,0.00026441913,0.0002648441,0.70711,0.0,0.0,0.0,0.0,0
10668000,0,0.7071099,0.00026463435,0.0002650593,0.70711,0.0,0.0,0.0,0.0,0
10680000,0,0.7071099,0.00026495714,0.00026538208,0.70711,0.0,0.0,0.0,0.0,0
10688000,0,0.7071099,0.00026517233,0.00026559728,0.70711,0.0,0.0,0.0,0.0,0
10700000,0,0.7071099,0.00026549512,0.00026592007,0.70711,0.0,0.0,0.0,0.0,0
10708000,0,0.7071099,0.00026571032,0.00026613526,0.70711,0.0,0.0,0.0,0.0,0
10720000,0,0.7071099,0.0002660331,0.00026645805,0.70711,0.0,0.0,0.0,0.0,0
10728000,0,0.7071099,0.0002662483,0.00026667325,0.70711,0.0,0.0,0.0,0.0,0
10740000,0,0.7071099,0.0002665711,0.00026699604,0.70711,0.0,0.0,0.0,0.0,0
10748000,0,0.7071099,0.0002667863,0.00026721123,0.70711,0.0,0.0,0.0,0.0,0
10760000,0,0.7071099,0.00026710908,0.00026753402,0.70711,0.0,0.0,0.0,0.0,0
10768000,0,0.7071099,0.00026732427,0.00026774922,0.70711,0.0,0.0,0.0,0.0,0
10780000,0,0.7071099,0.00026764706,0.000268072,0.70711,0.0,0.0,0.0,0.0,0
10788000,0,0.7071099,0.00026786225,0.0002682872,0.70711,0.0,0.0,0.0,0.0,0
10800000,0,0.7071099,0.00026818505,0.00026861,0.70711,0.0,0.0,0.0,0.0,0
10808000,0,0.7071099,0.00026840024,0.00026882518,0.70711,0.0,0.0,0.0,0.0,0
10820000,0,0.7071099,0.00026872303,0.00026914797,0.70711,0.0,0.0,0.0,0.0,0
10828000,0,0.7071099,0.00026893822,0.00026936317,0.70711,0.0,0.0,0.0,0.0,0
10840000,0,0.7071099,0.000269261,0.000269686,0.70711,0.0,0.0,0.0,0.0,0
10848000,0,0.7071099,0.00026947624,0.00026990118,0.70711,0.0,0.0,0.0,0.0,0
10860000,0,0.7071099,0.00026979903,0.00027022397,0.70711,0.0,0.0,0.0,0.0,0
10868000,0,0.7071099,0.00027001422,0.00027043917,0.70711,0.0,0.0,0.0,0.0,0
10880000,0,0.7071099,0.000270337,0.00027076196,0.70711,0.0,0.0,0.0,0.0,0
10888000,0,0.7071099,0.0002705522,0.00027097715,0.70711,0.0,0.0,0.0,0.0,0
10900000,0,0.7071099,0.000270875,0.00027129994,0.70711,0.0,0.0,0.0,0.0,0
10908000,0,0.7071099,0.0002710902,0.00027151513,0.70711,0.0,0.0,0.0,0.0,0
10920000,0,0.7071099,0.00027141298,0.00027183793,0.70711,0.0,0.0,0.0,0.0,0
10928000,0,0.7071099,0.00027162817,0.00027205312,0.70711,0.0,0.0,0.0,0.0,0
10940000,0,0.7071099,0.00027195096,0.0002723759,0.70711,0.0,0.0,0.0,0.0,0
10948000,0,0.7071099,0.00027216616,0.0002725911,0.70711,0.0,0.0,0.0,0.0,0
10960000,0,0.7071099,0.00027248898,0.00027291392,0.70711,0.0,0.0,0.0,0.0,0
10968000,0,0.7071099,0.00027270417,0.00027312912,0.70711,0.0,0.0,0.0,0.0,0
10980000,0,0.7071099,0.00027302696,0.0002734519,0.70711,0.0,0.0,0.0,0.0,0
10988000,0,0.7071099,0.00027324216,0.0002736671,0.70711,0.0,0.0,0.0,0.0,0
11000000,0,0.7071099,0.00027356495,0.0002739899,0.70711,0.0,0.0,0.0,0.0,0
11008000,0,0.7071099,0.00027378014,0.0002742051,0.70711,0.0,0.0,0.0,0.0,0
11020000,0,0.7071099,0.00027410293,0.00027452788,0.70711,0.0,0.0,0.0,0.0,0
11028000,0,0.7071099,0.00027431812,0.00027474307,0.70711,0.0,0.0,0.0,0.0,0
11040000,0,0.7071099,0.00027464092,0.00027506586,0.70711,0.0,0.0,0.0,0.0,0
11048000,0,0.7071099,0.00027485614,0.00027528105,0.70711,0.0,0.0,0.0,0.0,0
11060000,0,0.7071099,0.00027517893,0.00027560387,0.70711,0.0,0.0,0.0,0.0,0
11068000,0,0.7071099,0.00027539412,0.00027581907,0.70711,0.0,0.0,0.0,0.0,0
11080000,0,0.7071099,0.0002757169,0.00027614186,0.70711,0.0,0.0,0.0,0.0,0
11088000,0,0.7071099,0.0002759321,0.00027635705,0.70711,0.0,0.0,0.0,0.0,0
11100000,0,0.7071099,0.0002762549,0.00027667984,0.70711,0.0,0.0,0.0,0.0,0
11108000,0,0.7071099,0.0002764701,0.00027689504,0.70711,0.0,0.0,0.0,0.0,0
11120000,0,0.7071099,0.00027679288,0.00027721783,0.70711,0.0,0.0,0.0,0.0,0
11128000,0,0.7071099,0.0002770081,0.00027743302,0.70711,0.0,0.0,0.0,0.0,0
11140000,0,0.7071099,0.0002773309,0.00027775584,0.70711,0.0,0.0,0.0,0.0,0
11148000,0,0.7071099,0.0002775461,0.00027797103,0.70711,0.0,0.0,0.0,0.0,0
11160000,0,0.7071099,0.00027786888,0.00027829382,0.70711,0.0,0.0,0.0,0.0,0
11168000,0,0.7071099,0.00027808407,0.00027850902,0.70711,0.0,0.0,0.0,0.0,0
11180000,0,0.7071099,0.00027840686,0.0002788318,0.70711,0.0,0.0,0.0,0.0,0
11188000,0,0.7071099,0.00027862206,0.000279047,0.70711,0.0,0.0,0.0,0.0,0
11200000,0,0.7071099,0.00027894488,0.0002793698,0.70711,0.0,0.0,0.0,0.0,0
11208000,0,0.7071099,0.00027916007,0.00027958502,0.70711,0.0,0.0,0.0,0.0,0
11220000,0,0.7071099,0.00027948286,0.0002799078,0.70711,0.0,0.0,0.0,0.0,0
11228000,0,0.7071099,0.00027969806,0.000280123,0.70711,0.0,0.0,0.0,0.0,0
11240000,0,0.7071099,0.00028002085,0.0002804458,0.70711,0.0,0.0,0.0,0.0,0
11248000,0,0.7071099,0.00028023604,0.00028066098,0.70711,0.0,0.0,0.0,0.0,0
11260000,0,0.7071099,0.00028055886,0.00028098378,0.70711,0.0,0.0,0.0,0.0,0
11268000,0,0.7071099,0.00028077405,0.000281199,0.70711,0.0,0.0,0.0,0.0,0
11280000,0,0.7071099,0.00028109684,0.0002815218,0.70711,0.0,0.0,0.0,0.0,0
11288000,0,0.70710987,0.00028131204,0.00028173698,0.70711,0.0,0.0,0.0,0.0,0
11300000,0,0.70710987,0.00028163483,0.00028205977,0.70711,0.0,0.0,0.0,0.0,0
11308000,0,0.70710987,0.00028185002,0.00028227497,0.70711,0.0,0.0,0.0,0.0,0
11320000,0,0.70710987,0.00028217284,0.00028259776,0.70711,0.0,0.0,0.0,0.0,0
11328000,0,0.70710987,0.00028238803,0.00028281298,0.70711,0.0,0.0,0.0,0.0,0
11340000,0,0.70710987,0.00028271083,0.00028313577,0.70711,0.0,0.0,0.0,0.0,0
11348000,0,0.70710987,0.00028292602,0.00028335096,0.70711,0.0,0.0,0.0,0.0,0
11360000,0,0.70710987,0.0002832488,0.00028367375,0.70711,0.0,0.0,0.0,0.0,0
11368000,0,0.70710987,0.000283464,0.00028388895,0.70711,0.0,0.0,0.0,0.0,0
11380000,0,0.70710987,0.00028378682,0.00028421174,0.70711,0.0,0.0,0.0,0.0,0
11388000,0,0.70710987,0.00028400202,0.00028442696,0.70711,0.0,0.0,0.0,0.0,0
11400000,0,0.70710987,0.0002843248,0.00028474975,0.70711,0.0,0.0,0.0,0.0,0
11408000,0,0.70710987,0.00028454,0.00028496495,0.70711,0.0,0.0,0.0,0.0,0
11420000,0,0.70710987,0.0002848628,0.00028528774,0.70711,0.0,0.0,0.0,0.0,0
11428000,0,0.70710987,0.00028507801,0.00028550293,0.70711,0.0,0.0,0.0,0.0,0
11440000,0,0.70710987,0.0002854008,0.00028582575,0.70711,0.0,0.0,0.0,0.0,0
11448000,0,0.70710987,0.000285616,0.00028604094,0.70711,0.0,0.0,0.0,0.0,0
11460000,0,0.70710987,0.0002859388,0.00028636373,0.70711,0.0,0.0,0.0,0.0,0
11468000,0,0.70710987,0.00028615398,0.00028657893,0.70711,0.0,0.0,0.0,0.0,0
11480000,0,0.70710987,0.0002864768,0.00028690172,0.70711,0.0,0.0,0.0,0.0,0
11488000,0,0.70710987,0.000286692,0.00028711694,0.70711,0.0,0.0,0.0,0.0,0
11500000,0,0.70710987,0.0002870148,0.00028743973,0.70711,0.0,0.0,0.0,0.0,0
11508000,0,0.70710987,0.00028722998,0.00028765493,0.70711,0.0,0.0,0.0,0.0,0
11520000,0,0.70710987,0.00028755277,0.00028797772,0.70711,0.0,0.0,0.0,0.0,0
11528000,0,0.70710987,0.000287768,0.0002881929,0.70711,0.0,0.0,0.0,0.0,0
11540000,0,0.70710987,0.00028809079,0.00028851573,0.70711,0.0,0.0,0.0,0.0,0
11548000,0,0.70710987,0.00028830598,0.00028873092,0.70711,0.0,0.0,0.0,0.0,0
11560000,0,0.70710987,0.00028862877,0.0002890537,0.70711,0.0,0.0,0.0,0.0,0
