timestamp,timestamp_sample,ref_timestamp,ref_lat,ref_lon,x,y,z,delta_xy[0],delta_xy[1],delta_z,vx,vy,vz,z_deriv,delta_vxy[0],delta_vxy[1],delta_vz,ax,ay,az,heading,delta_heading,ref_alt,dist_bottom,eph,epv,evh,evv,vxy_max,vz_max,hagl_min,hagl_max,xy_valid,z_valid,v_xy_valid,v_z_valid,xy_reset_counter,z_reset_counter,vxy_reset_counter,vz_reset_counter,heading_reset_counter,heading_good_for_control,xy_global,z_global,dist_bottom_valid,dist_bottom_sensor_bitfield,dead_reckoning
3788000,3788000,0,nan,nan,0.0009643436,-0.0005779158,-0.007272692,-6.300118e-08,1.5656e-08,0.0,0.004681249,-0.0020236073,-0.024295894,-0.019253861,-1.0500196e-05,2.609333e-06,0.0017587617,0.015280077,0.023450468,-0.009702518,0.00027949252,0.0,nan,0.10770298,0.010514579,5.7735023,0.06608247,0.021791376,inf,inf,inf,inf,0,0,0,0,1,1,1,1,0,0,0,0,0,0,1
4292000,4292000,0,nan,nan,0.002210091,-0.0004403704,-0.028785663,-6.300118e-08,1.5656e-08,0.0,0.0065059606,-0.0024628327,-0.011961004,-0.02745311,-1.0500196e-05,2.609333e-06,0.0017587617,0.036628813,-0.022389896,-0.03544986,0.00019548318,0.0,nan,0.1,0.020683626,1.6517669,0.10257743,0.05919373,inf,inf,inf,inf,0,1,0,1,1,1,1,1,0,0,0,0,0,0,1
4788000,4788000,4392000,47.3977508,8.5456073,0.0016086223,-0.0010889675,-0.048712455,-6.300118e-08,1.5656e-08,0.0,0.0044754082,-0.005097714,-0.011735854,-0.031774547,-1.0500196e-05,2.609333e-06,0.0017587617,0.02171949,-0.027225133,-0.018892808,0.0004017365,0.0,488.0305,0.11007503,0.0251636,0.9907021,0.10176057,0.08534574,inf,inf,inf,inf,0,1,0,1,1,1,1,1,0,0,1,1,0,0,1
5292000,5292000,4392000,47.3977508,8.5456073,0.00035259605,-0.0020584885,-0.03967336,-6.300118e-08,1.5656e-08,0.0,0.0015808372,-0.005373777,-0.010262924,-0.011007766,-1.0500196e-05,2.609333e-06,0.0017587617,-0.0044921907,-0.0061544846,-0.010768882,0.00024433315,0.0,488.0305,0.10554525,0.014723093,0.7744834,0.060877487,0.08936186,inf,inf,inf,inf,0,1,0,1,1,1,1,1,0,0,1,1,0,0,1
5788000,5788000,4392000,47.3977508,8.5456073,-0.00016683187,0.00019769173,-0.03368217,-6.300118e-08,1.5656e-08,0.0,0.0005033031,0.0024253451,-0.008782584,-0.0011629598,-1.0500196e-05,2.609333e-06,0.0017587617,0.035469476,0.0031070374,-0.020958481,0.00035674608,0.0,488.0305,0.10540496,0.017961245,0.6472909,0.062041137,0.09350231,inf,inf,inf,inf,0,1,0,1,1,1,1,1,0,0,1,1,0,0,1
6292000,6292000,4392000,47.3977508,8.5456073,-0.0003302715,0.0010359712,-0.031557307,-6.300118e-08,1.5656e-08,0.0,-0.00037456414,0.00097252097,-0.008528148,0.00060189684,-1.0500196e-05,2.609333e-06,0.0017587617,0.016752629,0.01077092,-0.0012647359,0.00027637935,0.0,488.0305,0.10145144,0.012196451,0.57666945,0.044512264,0.09448603,inf,inf,inf,inf,0,1,0,1,1,1,1,1,0,0,1,1,0,0,1
6796000,6796000,4392000,47.3977508,8.5456073,-0.0017459631,0.0007480572,-0.02945472,-6.300118e-08,1.5656e-08,0.0,-0.0050551016,0.0016404648,-0.0046996414,0.0044696555,-1.0500196e-05,2.609333e-06,0.0017587617,-0.025223138,0.016230565,0.0045765187,0.00027831353,0.0,488.0305,0.10068208,0.014954725,0.51967764,0.048205607,0.08541602,inf,inf,inf,inf,0,1,0,1,1,1,1,1,0,0,1,1,0,0,1
7292000,7292000,4392000,47.3977508,8.5456073,-0.001958865,0.0022209606,-0.02680002,-6.300118e-08,1.5656e-08,0.0,-0.002798316,0.008429877,-0.00014264593,0.008328698,-1.0500196e-05,2.609333e-06,0.0017587617,-0.002664412,0.0074710986,0.0011157243,0.00017377552,0.0,488.0305,0.1011203,0.017862596,0.48316562,0.05166491,0.08469972,inf,inf,inf,inf,0,1,0,1,1,1,1,1,0,0,1,1,0,0,1
7796000,7796000,4392000,47.3977508,8.5456073,-0.00032944107,0.0034468914,-0.02248708,-6.300118e-08,1.5656e-08,0.0,0.00023109933,0.0070115463,0.0023377535,0.010215792,-1.0500196e-05,2.609333e-06,0.0017587617,0.004052388,0.014686985,-0.02855621,-0.0001418757,0.0,488.0305,0.1,0.013022019,0.45332366,0.04154964,0.07763793,inf,inf,inf,inf,0,1,0,1,1,1,1,1,0,0,1,1,0,0,1
8292000,8292000,4392000,47.3977508,8.5456073,-3.8848233e-05,0.0017205956,-0.022807455,-6.300118e-08,1.5656e-08,0.0,-0.001396463,0.002420943,0.0009589226,0.004791674,-1.0500196e-05,2.609333e-06,0.0017587617,-0.017086057,0.055525433,-0.009302049,-0.00030328348,0.0,488.0305,0.1,0.01558663,0.42724082,0.045379363,0.07749252,inf,inf,inf,inf,0,1,0,1,1,1,1,1,0,0,1,1,0,0,1
8796000,8796000,4392000,47.3977508,8.5456073,-0.0006064476,0.00029963334,-0.06862939,-6.300118e-08,1.5656e-08,-0.042089757,-0.0009888655,0.0014738007,0.0014193953,0.0006524717,-1.0500196e-05,2.609333e-06,0.0017587617,-0.027033411,0.024937049,-0.014752149,-0.0003730991,0.0,488.0305,0.1,0.011704201,1.0,0.03775076,0.07791324,inf,inf,inf,inf,0,1,0,1,1,2,1,1,0,0,1,1,0,0,1
9292000,9292000,4392000,47.3977508,8.5456073,0.00067470147,0.0005574915,-0.06542967,-6.300118e-08,1.5656e-08,-0.042089757,0.0034738167,0.003122428,0.0027898967,0.0041106595,-1.0500196e-05,2.609333e-06,0.0017587617,0.008729533,0.0024596518,-0.012440606,-0.0003550631,0.0,488.0305,0.1,0.013912768,0.60504794,0.041264676,0.07353713,inf,inf,inf,inf,0,1,0,1,1,2,1,1,0,0,1,1,0,0,1
9788000,9788000,4392000,47.3977508,8.5456073,0.0018684511,0.0010110791,-0.068171084,-6.300118e-08,1.5656e-08,-0.042089757,0.004810612,0.003305409,0.0035579544,0.0018550562,-1.0500196e-05,2.609333e-06,0.0017587617,0.027377084,-0.01768187,0.02661906,-0.00023356894,0.0,488.0305,0.1,0.016552556,0.4788954,0.04496458,0.0747075,inf,inf,inf,inf,0,1,0,1,1,2,1,1,0,0,1,1,0,0,1
10292000,10292000,4392000,47.3977508,8.5456073,0.001668177,0.00063949823,-0.06391334,-6.300118e-08,1.5656e-08,-0.042089757,0.0021060596,0.0012089952,0.0071767066,0.007900766,-1.0500196e-05,2.609333e-06,0.0017587617,0.015523822,-0.023988321,0.029859131,-0.00028715664,0.0,488.0305,0.1,0.012564605,0.4101209,0.038142767,0.07134549,inf,inf,inf,inf,0,1,0,1,1,2,1,1,0,0,1,1,0,0,1
10796000,10796000,4392000,47.3977508,8.5456073,-0.00028160354,-0.000976116,-0.061833117,-6.300118e-08,1.5656e-08,-0.042089757,-0.0018925371,-0.002223823,0.008024555,0.0075575914,-1.0500196e-05,2.609333e-06,0.0017587617,-0.01385284,0.021192215,0.052180137,-0.0003906693,0.0,488.0305,0.1,0.015219524,0.34256133,0.042239927,0.072886586,inf,inf,inf,inf,0,1,0,1,1,2,1,1,0,0,1,1,0,0,1
11292000,11292000,4392000,47.3977508,8.5456073,-0.00090668316,-0.002308172,-0.059540294,-6.300118e-08,1.5656e-08,-0.042089757,-0.0026583173,-0.005492697,0.012917087,0.010576317,-1.0500196e-05,2.609333e-06,0.0017587617,0.057641413,0.0091844695,0.027061438,-0.00034586585,0.0,488.0305,0.1,0.011478208,0.31799403,0.035827357,0.07444135,inf,inf,inf,inf,0,1,0,1,1,2,1,1,0,0,1,1,0,0,1
11788000,11788000,4392000,47.3977508,8.5456073,-0.0015386371,-0.0028297245,-0.057165485,-6.300118e-08,1.5656e-08,-0.042089757,-0.0040486767,-0.0065598222,0.017521046,0.012297516,-1.0500196e-05,2.609333e-06,0.0017587617,-0.011596158,0.020922918,-0.0030193476,-0.0003236165,0.0,488.0305,0.1,0.013584511,0.2988655,0.03922739,0.07135853,inf,inf,inf,inf,0,1,0,1,1,2,1,1,0,0,1,1,0,0,1
12292000,12292000,4392000,47.3977508,8.5456073,-0.0022976683,-0.0017660791,-0.056266733,-6.300118e-08,1.5656e-08,-0.042089757,-0.005644673,-0.002212599,0.016066693,0.0073274346,-1.0500196e-05,2.609333e-06,0.0017587617,-0.032180294,-0.00107121,0.022560356,-0.00036568713,0.0,488.0305,0.1,0.016389543,0.28457856,0.04318741,0.07319983,inf,inf,inf,inf,0,1,0,1,1,2,1,1,0,0,1,1,0,0,1
12788000,12788000,4392000,47.3977508,8.5456073,-0.0015824509,-0.00024388239,-0.056717608,-6.300118e-08,1.5656e-08,-0.042089757,-0.0013622756,0.0028472487,0.015548513,0.004445707,-1.0500196e-05,2.609333e-06,0.0017587617,0.048754763,0.008351751,0.029903835,-0.0002596878,0.0,488.0305,0.1,0.01239087,0.2728264,0.036923584,0.07027273,inf,inf,inf,inf,0,1,0,1,1,2,1,1,0,0,1,1,0,0,1
13292000,13292000,4392000,47.3977508,8.5456073,6.258982e-05,0.002330134,-0.05808482,-6.300118e-08,1.5656e-08,-0.042089757,0.00085510203,0.0052416306,0.014856147,0.001678678,-1.0500196e-05,2.609333e-06,0.0017587617,0.01747404,0.021825442,-0.0016512348,-0.00035866466,0.0,488.0305,0.1,0.014960254,0.2559764,0.040872447,0.071910284,inf,inf,inf,inf,0,1,0,1,1,2,1,1,0,0,1,1,0,0,1
13796000,13796000,4392000,47.3977508,8.5456073,0.0013441666,0.002619612,-0.058487974,-6.300118e-08,1.5656e-08,-0.042089757,0.0041942555,0.004448002,0.013260393,-2.9501098e-06,-1.0500196e-05,2.609333e-06,0.0017587617,-0.00069767697,-0.034681477,0.002928078,-0.0002345155,0.0,488.0305,0.1,0.011534217,0.24921146,0.03515225,0.06928489,inf,inf,inf,inf,0,1,0,1,1,2,1,1,0,0,1,1,0,0,1
14292000,14292000,4392000,47.3977508,8.5456073,0.0015896767,0.000902878,-0.06043191,-6.300118e-08,1.5656e-08,-0.042089757,0.0031372483,-0.0007425869,0.011756886,-0.001953638,-1.0500196e-05,2.609333e-06,0.0017587617,-0.0073717088,-0.005806461,-0.014208256,-0.00017550761,0.0,488.0305,0.1,0.013676165,0.24555188,0.038737733,0.071049616,inf,inf,inf,inf,0,1,0,1,1,2,1,1,0,0,1,1,0,0,1
14796000,14796000,4392000,47.3977508,8.5456073,0.0013761728,-0.00086534204,-0.0596253,-6.300118e-08,1.5656e-08,-0.042089757,0.003723476,-0.0020613193,0.009328709,-0.0019400935,-1.0500196e-05,2.609333e-06,0.0017587617,0.015571887,-0.02368941,-0.0055786218,-0.00031825528,0.0,488.0305,0.1,0.016458554,0.23594086,0.04257831,0.072643735,inf,inf,inf,inf,0,1,0,1,1,2,1,1,0,0,1,1,0,0,1
15292000,15292000,4392000,47.3977508,8.5456073,0.0013165409,-0.00060224516,-0.061150063,-6.300118e-08,1.5656e-08,-0.042089757,0.0023278622,-2.624945e-05,0.00814437,-0.002651317,-1.0500196e-05,2.609333e-06,0.0017587617,-0.010090253,-0.0096195,0.010989605,-0.00018477057,0.0,488.0305,0.1,0.012520357,0.23163338,0.036718026,0.06990371,inf,inf,inf,inf,0,1,0,1,1,2,1,1,0,0,1,1,0,0,1
15796000,15796000,4392000,47.3977508,8.5456073,0.0010110688,-0.00011383827,-0.062641636,-6.300118e-08,1.5656e-08,-0.042089757,0.0013817555,-0.00084680325,0.009150497,-0.0016713389,-1.0500196e-05,2.609333e-06,0.0017587617,-0.02556502,-0.03570024,0.028744338,-0.00014007441,0.0,488.0305,0.1,0.015087,0.23124821,0.040566985,0.071907714,inf,inf,inf,inf,0,1,0,1,1,2,1,1,0,0,1,1,0,0,1
16292000,16292000,4392000,47.3977508,8.5456073,0.00010763305,-0.000854675,-0.06296768,-6.300118e-08,1.5656e-08,-0.042089757,0.0008155064,-0.002856202,0.009109105,-0.0009891742,-1.0500196e-05,2.609333e-06,0.0017587617,0.012926829,-0.013237236,-0.014461576,3.452683e-06,0.0,488.0305,0.1,0.011483662,0.22789183,0.03475638,0.06917113,inf,inf,inf,inf,0,1,0,1,1,2,1,1,0,0,1,1,0,0,1
16796000,16796000,4392000,47.3977508,8.5456073,-0.00020574391,-0.0018366601,-0.062921286,-6.300118e-08,1.5656e-08,-0.042089757,-0.0009168075,-0.004499301,0.012744509,0.0026621646,-1.0500196e-05,2.609333e-06,0.0017587617,-0.0067491196,0.01674307,-0.0041108574,2.8800216e-05,0.0,488.0305,0.1,0.013830929,0.22269554,0.038632665,0.07081201,inf,inf,inf,inf,0,1,0,1,1,2,1,1,0,0,1,1,0,0,1
17292000,17292000,4392000,47.3977508,8.5456073,-0.0007437652,-0.0022872894,-0.062372655,-6.300118e-08,1.5656e-08,-0.042089757,-0.0015514995,-0.005031208,0.013992017,0.003154869,-1.0500196e-05,2.609333e-06,0.0017587617,-0.020820092,-0.005508307,0.0060508023,0.00026657552,0.0,488.0305,0.1,0.016345017,0.22357991,0.042055722,0.07266615,inf,inf,inf,inf,0,1,0,1,1,2,1,1,0,0,1,1,0,0,1
17788000,17788000,4392000,47.3977508,8.5456073,-0.0010587802,-0.0017714329,-0.06284561,-6.300118e-08,1.5656e-08,-0.042089757,-0.0027346509,-0.002710402,0.010869386,-0.001073426,-1.0500196e-05,2.609333e-06,0.0017587617,-0.0013127718,-0.0036464334,-0.02944283,0.00014676308,0.0,488.0305,0.1,0.012472614,0.22126433,0.036406443,0.06995955,inf,inf,inf,inf,0,1,0,1,1,2,1,1,0,0,1,1,0,0,1
18292000,18292000,4392000,47.3977508,8.5456073,-0.00082392193,-0.00041282925,-0.063070126,-6.300118e-08,1.5656e-08,-0.042089757,0.0012014711,-0.0020123334,0.012519955,0.0013183388,-1.0500196e-05,2.609333e-06,0.0017587617,0.013582335,0.025224404,0.039278526,0.00025950785,0.0,488.0305,0.1,0.015016312,0.22285095,0.04020907,0.0719943,inf,inf,inf,inf,0,1,0,1,1,2,1,1,0,0,1,1,0,0,1
18788000,18788000,4392000,47.3977508,8.5456073,0.0013462637,-0.0014309611,-0.061744727,-6.300118e-08,1.5656e-08,-0.042089757,0.0043980726,-0.006079049,0.013435019,0.0030588352,-1.0500196e-05,2.609333e-06,0.0017587617,0.030089444,-0.0021683516,-0.012117437,0.00036406418,0.0,488.0305,0.1,0.011455759,0.2212874,0.03454133,0.06929153,inf,inf,inf,inf,0,1,0,1,1,2,1,1,0,0,1,1,0,0,1
19292000,19292000,4392000,47.3977508,8.5456073,0.0010224612,-0.0026593595,-0.061410032,-6.300118e-08,1.5656e-08,-0.042089757,4.159311e-05,-0.0067603034,0.013406316,0.0022248137,-1.0500196e-05,2.609333e-06,0.0017587617,-0.0013395328,0.008471688,0.03643706,0.00043417307,0.0,488.0305,0.1,0.01378595,0.21755636,0.03838148,0.07095181,inf,inf,inf,inf,0,1,0,1,1,2,1,1,0,0,1,1,0,0,1
19788000,19788000,4392000,47.3977508,8.5456073,9.50424e-05,-0.0022888198,-0.06121355,-6.300118e-08,1.5656e-08,-0.042089757,0.0008518987,-0.0049774544,0.011075065,-0.00017048733,-1.0500196e-05,2.609333e-06,0.0017587617,0.0033888062,0.007799186,0.02151355,0.0001780573,0.0,488.0305,0.1,0.016284002,0.21947993,0.041778237,0.07282838,inf,inf,inf,inf,0,1,0,1,1,2,1,1,0,0,1,1,0,0,1
20292000,20292000,4392000,47.3977508,8.5456073,0.0003205254,-0.0008152153,-0.061769977,-6.300118e-08,1.5656e-08,-0.042089757,0.001318095,-0.00209431,0.010632655,-0.00066607207,-1.0500196e-05,2.609333e-06,0.0017587617,-0.0071981917,-0.0023833853,-0.016460193,0.00046198376,0.0,488.0305,0.1,0.012658115,0.21814609,0.03657861,0.07029298,inf,inf,inf,inf,0,1,0,1,1,2,1,1,0,0,1,1,0,0,1
20788000,20788000,4392000,47.3977508,8.5456073,-0.0004297178,0.000521797,-0.0612771,-6.300118e-08,1.5656e-08,-0.042089757,-0.0041476027,0.0011606151,0.011434124,0.0010227705,-1.0500196e-05,2.609333e-06,0.0017587617,-0.0400736,0.009285111,0.044596378,0.0006099455,0.0,488.0305,0.1,0.014974568,0.22019908,0.039998043,0.07215173,inf,inf,inf,inf,0,1,0,1,1,2,1,1,0,0,1,1,0,0,1
21292000,21292000,4392000,47.3977508,8.5456073,-0.003013083,0.0020430202,-0.06024628,-6.300118e-08,1.5656e-08,-0.042089757,-0.009313504,0.004588398,0.01278202,0.0028066044,-1.0500196e-05,2.609333e-06,0.0017587617,0.0034911353,-0.0072139804,0.046905126,0.00072259735,0.0,488.0305,0.1,0.011630994,0.2144361,0.034769278,0.069292545,inf,inf,inf,inf,0,1,0,1,1,2,1,1,0,0,1,1,0,0,1
21796000,21796000,4392000,47.3977508,8.5456073,-0.0043101674,0.0028752328,-0.060263295,-6.300118e-08,1.5656e-08,-0.042089757,-0.009380202,0.003974962,0.011026814,0.00024397788,-1.0500196e-05,2.609333e-06,0.0017587617,-0.009220166,-0.011058829,0.0076340507,0.00056408887,0.0,488.0305,0.1,0.013992459,0.21643963,0.0385729,0.07130676,inf,inf,inf,inf,0,1,0,1,1,2,1,1,0,0,1,1,0,0,1
22292000,22292000,4392000,47.3977508,8.5456073,-0.0041135713,0.0018678589,-0.05998189,-6.300118e-08,1.5656e-08,-0.042089757,-0.009896644,0.001921036,0.012000847,0.0015151008,-1.0500196e-05,2.609333e-06,0.0017587617,-0.001709457,-0.015809724,0.016737727,0.00050826144,0.0,488.0305,0.100057736,0.010741447,0.2187534,0.0332144,0.073179916,inf,inf,inf,inf,0,1,0,1,1,2,1,1,0,0,1,1,0,0,1
22788000,22788000,4392000,47.3977508,8.5456073,-0.0037183804,0.0007847819,-0.059302572,-6.300118e-08,1.5656e-08,-0.042089757,-0.008169457,0.0005854454,0.01479317,0.0039516874,-1.0500196e-05,2.609333e-06,0.0017587617,0.0010524963,0.004949412,0.016588716,0.00043029658,0.0,488.0305,0.1,0.012639961,0.21780206,0.036460757,0.0704531,inf,inf,inf,inf,0,1,0,1,1,2,1,1,0,0,1,1,0,0,1
23292000,23292000,4392000,47.3977508,8.5456073,-0.0012128026,-0.00051129336,-0.058930334,-6.300118e-08,1.5656e-08,-0.042089757,-0.00044461843,-0.002086689,0.0176246,0.004823425,-1.0500196e-05,2.609333e-06,0.0017587617,0.024879554,0.016206888,-0.0033359972,0.00040997064,0.0,488.0305,0.1,0.015197515,0.21499705,0.040197875,0.072115265,inf,inf,inf,inf,0,1,0,1,1,2,1,1,0,0,1,1,0,0,1
23788000,23788000,4392000,47.3977508,8.5456073,0.0011448492,-0.00046737154,-0.059159674,-6.300118e-08,1.5656e-08,-0.042089757,0.002281739,0.00023714895,0.018097587,0.0033970429,-1.0500196e-05,2.609333e-06,0.0017587617,0.024292413,-0.021956,0.016122123,0.00047840903,0.0,488.0305,0.1,0.011619651,0.21429342,0.03468742,0.06943443,inf,inf,inf,inf,0,1,0,1,1,2,1,1,0,0,1,1,0,0,1
24292000,24292000,4392000,47.3977508,8.5456073,0.0019834088,0.00026105784,-0.05902769,-6.300118e-08,1.5656e-08,-0.042089757,0.0014305994,0.00016865424,0.015999982,0.00089155615,-1.0500196e-05,2.609333e-06,0.0017587617,-0.023821047,-0.022809645,0.027656553,0.00032950396,0.0,488.0305,0.1,0.013974588,0.2165053,0.038476307,0.07144925,inf,inf,inf,inf,0,1,0,1,1,2,1,1,0,0,1,1,0,0,1
24796000,24796000,4392000,47.3977508,8.5456073,-0.0002553926,-0.0006629415,-0.05880077,-6.300118e-08,1.5656e-08,-0.042089757,-0.0045704586,-0.0032550828,0.015892565,0.0014532839,-1.0500196e-05,2.609333e-06,0.0017587617,0.010571209,0.021959202,0.009974464,0.0003655966,0.0,488.0305,0.1,0.010911379,0.21419807,0.03350945,0.07309931,inf,inf,inf,inf,0,1,0,1,1,2,1,1,0,0,1,1,0,0,1
25292000,25292000,4392000,47.3977508,8.5456073,-0.0018435202,-0.0011703878,-0.058422577,-6.300118e-08,1.5656e-08,-0.042089757,-0.0051936195,-0.0015048644,0.017510641,0.002949938,-1.0500196e-05,2.609333e-06,0.0017587617,-0.0046310886,-0.023546008,0.008981674,0.00056510564,0.0,488.0305,0.1,0.012842927,0.21313928,0.036733255,0.0703971,inf,inf,inf,inf,0,1,0,1,1,2,1,1,0,0,1,1,0,0,1
25788000,25788000,4392000,47.3977508,8.5456073,-0.0021203926,0.00014721786,-0.057756644,-6.300118e-08,1.5656e-08,-0.042089757,-0.006108139,0.0021364882,0.017211167,0.0025301904,-1.0500196e-05,2.609333e-06,0.0017587617,-0.0019170255,0.004926856,-0.00075902784,0.0007982051,0.0,488.0305,0.1,0.015181201,0.2155992,0.04011722,0.07226568,inf,inf,inf,inf,0,1,0,1,1,2,1,1,0,0,1,1,0,0,1
26292000,26292000,4392000,47.3977508,8.5456073,-0.0019921265,0.0023299912,-0.05776768,-6.300118e-08,1.5656e-08,-0.042089757,-0.0054264716,0.0077029206,0.019250697,0.00376965,-1.0500196e-05,2.609333e-06,0.0017587617,-0.014729564,0.016228106,0.0033285466,0.00077157095,0.0,488.0305,0.1,0.011807421,0.21481177,0.034981184,0.06971069,inf,inf,inf,inf,0,1,0,1,1,2,1,1,0,0,1,1,0,0,1
26796000,26796000,4392000,47.3977508,8.5456073,-0.0017896062,0.003328125,-0.05683473,-6.300118e-08,1.5656e-08,-0.042089757,-0.00574255,0.0075245705,0.02180555,0.0054170047,-1.0500196e-05,2.609333e-06,0.0017587617,-0.036426265,0.029052416,0.023162922,0.0006141046,0.0,488.0305,0.1,0.014197643,0.21255173,0.03874087,0.07136787,inf,inf,inf,inf,0,1,0,1,1,2,1,1,0,0,1,1,0,0,1
27292000,27292000,4392000,47.3977508,8.5456073,-0.0024232704,0.0036371092,-0.056801967,-6.300118e-08,1.5656e-08,-0.042089757,-0.007784025,0.009069189,0.025462117,0.00676432,-1.0500196e-05,2.609333e-06,0.0017587617,-0.026484586,-0.027002329,-0.008368864,0.00064839073,0.0,488.0305,0.1,0.010905821,0.215106,0.03346368,0.07324758,inf,inf,inf,inf,0,1,0,1,1,2,1,1,0,0,1,1,0,0,1
27796000,27796000,4392000,47.3977508,8.5456073,-0.0021526022,0.0042185257,-0.05595092,-6.300118e-08,1.5656e-08,-0.042089757,-0.0064114006,0.011278112,0.029621625,0.009198683,-1.0500196e-05,2.609333e-06,0.0017587617,-0.03900469,0.014720745,0.034153458,0.0006136248,0.0,488.0305,0.1,0.013051944,0.21431454,0.037021708,0.07070157,inf,inf,inf,inf,0,1,0,1,1,2,1,1,0,0,1,1,0,0,1
28292000,28292000,4392000,47.3977508,8.5456073,-0.0020282057,0.0040643746,-0.0536173,-6.300118e-08,1.5656e-08,-0.042089757,-0.0051163384,0.009340446,0.033052642,0.01047983,-1.0500196e-05,2.609333e-06,0.0017587617,0.04435279,0.0022387102,0.032658685,0.0008513667,0.0,488.0305,0.1,0.015420324,0.21684818,0.04038274,0.0725678,inf,inf,inf,inf,0,1,0,1,1,2,1,1,0,0,1,1,0,0,1
28788000,28788000,4392000,47.3977508,8.5456073,-0.0016292145,0.002072415,-0.052763905,-6.300118e-08,1.5656e-08,-0.042089757,-0.0057148295,0.004492392,0.03338131,0.008054107,-1.0500196e-05,2.609333e-06,0.0017587617,-0.020882899,-0.0036188574,0.010904855,0.00082153094,0.0,488.0305,0.1,0.011801883,0.21576259,0.034944165,0.069796346,inf,inf,inf,inf,0,1,0,1,1,2,1,1,0,0,1,1,0,0,1
29292000,29292000,4392000,47.3977508,8.5456073,-0.0021169411,0.00033382274,-0.05278031,-6.300118e-08,1.5656e-08,-0.042089757,-0.0055765714,0.0024911002,0.0348369,0.0065910816,-1.0500196e-05,2.609333e-06,0.0017587617,0.0019121652,-0.034625173,-0.007038004,0.00080254267,0.0,488.0305,0.1,0.014189171,0.21363491,0.038694985,0.07149151,inf,inf,inf,inf,0,1,0,1,1,2,1,1,0,0,1,1,0,0,1
29796000,29796000,4392000,47.3977508,8.5456073,-0.0014070278,-0.0012756251,-0.05306631,-6.300118e-08,1.5656e-08,-0.042089757,-0.0043662284,-0.0030632508,0.033051897,0.0033987174,-1.0500196e-05,2.609333e-06,0.0017587617,0.011539944,-0.035066023,0.009100883,0.000737195,0.0,488.0305,0.1,0.011083073,0.21612851,0.033790585,0.07352489,inf,inf,inf,inf,0,1,0,1,1,2,1,1,0,0,1,1,0,0,1
30292000,30292000,4392000,47.3977508,8.5456073,-0.0016189134,-0.002766014,-0.054331843,-6.300118e-08,1.5656e-08,-0.042089757,-0.0063347337,-0.005935913,0.029089455,-0.0010700625,-1.0500196e-05,2.609333e-06,0.0017587617,0.024807682,-0.019496407,0.04951283,0.0008926727,0.0,488.0305,0.1,0.0130472975,0.21544246,0.036996607,0.07079593,inf,inf,inf,inf,0,1,0,1,1,2,1,1,0,0,1,1,0,0,1
30788000,30788000,4392000,47.3977508,8.5456073,-0.0016739814,-0.004289715,-0.054902922,-6.300118e-08,1.5656e-08,-0.042089757,-0.005464075,-0.010335577,0.027790844,-0.0008214781,-1.0500196e-05,2.609333e-06,0.0017587617,-0.013777374,-0.015364551,0.0064531337,0.0010858877,0.0,488.0305,0.1,0.015415163,0.21758467,0.040356882,0.07261832,inf,inf,inf,inf,0,1,0,1,1,2,1,1,0,0,1,1,0,0,1
31292000,31292000,4392000,47.3977508,8.5456073,-0.00074909534,-0.004195443,-0.055343248,-6.300118e-08,1.5656e-08,-0.042089757,-0.002339618,-0.0074109645,0.025682319,-0.001682414,-1.0500196e-05,2.609333e-06,0.0017587617,-0.0011078081,-0.042389218,0.028728506,0.0011106696,0.0,488.0305,0.1,0.011997401,0.21234506,0.035269525,0.069727756,inf,inf,inf,inf,0,1,0,1,1,2,1,1,0,0,1,1,0,0,1
31796000,31796000,4392000,47.3977508,8.5456073,-0.0007624875,-0.0035416659,-0.055452503,-6.300118e-08,1.5656e-08,-0.042089757,-0.00387297,-0.008288565,0.022760512,-0.002989762,-1.0500196e-05,2.609333e-06,0.0017587617,-0.0009610812,-0.0107542435,0.010046176,0.0008261313,0.0,488.0305,0.1,0.014423459,0.21471277,0.03900875,0.07173759,inf,inf,inf,inf,0,1,0,1,1,2,1,1,0,0,1,1,0,0,1
32292000,32292000,4392000,47.3977508,8.5456073,-0.0008704108,-0.0032873137,-0.054687846,-6.300118e-08,1.5656e-08,-0.042089757,-0.004699065,-0.0070346505,0.022026118,-0.0011790401,-1.0500196e-05,2.609333e-06,0.0017587617,-0.03517001,-0.024761392,0.021505168,0.0009750537,0.0,488.0305,0.10134535,0.011081182,0.21732888,0.033773843,0.07360334,inf,inf,inf,inf,0,1,0,1,1,2,1,1,0,0,1,1,0,0,1
32788000,32788000,4392000,47.3977508,8.5456073,-0.0007349738,-0.0033477952,-0.05493431,-6.300118e-08,1.5656e-08,-0.042089757,-0.0026355793,-0.010104855,0.020943906,-0.0015652343,-1.0500196e-05,2.609333e-06,0.0017587617,0.0074245757,-0.005446636,0.006892718,0.0008333838,0.0,488.0305,0.1,0.013043448,0.21658497,0.036972597,0.07085237,inf,inf,inf,inf,0,1,0,1,1,2,1,1,0,0,1,1,0,0,1
33292000,33292000,4392000,47.3977508,8.5456073,-0.00013297281,-0.0035794368,-0.055370227,-6.300118e-08,1.5656e-08,-0.042089757,-0.002346222,-0.009375227,0.018995013,-0.0027640078,-1.0500196e-05,2.609333e-06,0.0017587617,-0.0062746545,-0.024752662,0.0008484348,0.0010443227,0.0,488.0305,0.10013851,0.015664447,0.21408427,0.04066154,0.072503954,inf,inf,inf,inf,0,1,0,1,1,2,1,1,0,0,1,1,0,0,1
33788000,33788000,4392000,47.3977508,8.5456073,-0.0006825684,-0.0027683747,-0.056491036,-6.300118e-08,1.5656e-08,-0.042089757,-0.0028830457,-0.006870279,0.013845208,-0.0064250943,-1.0500196e-05,2.609333e-06,0.0017587617,-0.022325736,-0.0509379,0.023352912,0.0010484814,0.0,488.0305,0.10009773,0.011995331,0.21351087,0.035258107,0.06980408,inf,inf,inf,inf,0,1,0,1,1,2,1,1,0,0,1,1,0,0,1
34292000,34292000,4392000,47.3977508,8.5456073,-0.00080231513,-0.0015445605,-0.056459118,-6.300118e-08,1.5656e-08,-0.042089757,-0.0036085541,-0.005198569,0.011119124,-0.0061880536,-1.0500196e-05,2.609333e-06,0.0017587617,-0.002799279,0.017144455,-0.022389924,0.0009871674,0.0,488.0305,0.10261582,0.014420494,0.21587983,0.038992263,0.07181044,inf,inf,inf,inf,0,1,0,1,1,2,1,1,0,0,1,1,0,0,1
34788000,34788000,4392000,47.3977508,8.5456073,-0.001686771,-0.00078937854,-0.056970194,-6.300118e-08,1.5656e-08,-0.042089757,-0.006774683,-0.002815235,0.0058850967,-0.008187402,-1.0500196e-05,2.609333e-06,0.0017587617,-0.054718386,-0.05743639,0.013018957,0.0010458777,0.0,488.0305,0.10304977,0.011080209,0.21850055,0.03376776,0.07367389,inf,inf,inf,inf,0,1,0,1,1,2,1,1,0,0,1,1,0,0,1
35292000,35292000,4392000,47.3977508,8.5456073,-0.0029631394,0.0012883283,-0.0584717,-6.300118e-08,1.5656e-08,-0.042089757,-0.009545911,0.002924623,0.001728487,-0.009204054,-1.0500196e-05,2.609333e-06,0.0017587617,-0.01724543,-0.0002665183,-0.005567446,0.001021636,0.0,488.0305,0.10325878,0.013263257,0.21313089,0.03730664,0.07076355,inf,inf,inf,inf,0,1,0,1,1,2,1,1,0,0,1,1,0,0,1
35796000,35796000,4392000,47.3977508,8.5456073,-0.00414718,0.0030747894,-0.05836774,-6.300118e-08,1.5656e-08,-0.042089757,-0.01045145,0.0056382436,0.00033116303,-0.006863111,-1.0500196e-05,2.609333e-06,0.0017587617,-0.0010756629,0.026413994,-0.008258968,0.0009959352,0.0,488.0305,0.103676274,0.015920943,0.21556146,0.040979188,0.07278147,inf,inf,inf,inf,0,1,0,1,1,2,1,1,0,0,1,1,0,0,1
36292000,36292000,4392000,47.3977508,8.5456073,-0.003031901,0.0029485007,-0.058471106,-6.300118e-08,1.5656e-08,-0.042089757,-0.0064516673,0.0030904938,-0.0012266174,-0.0058822157,-1.0500196e-05,2.609333e-06,0.0017587617,-0.014499353,0.0061725145,0.003534369,0.0011128697,0.0,488.0305,0.10329902,0.012195626,0.21491198,0.035588946,0.07005558,inf,inf,inf,inf,0,1,0,1,1,2,1,1,0,0,1,1,0,0,1
36796000,36796000,4392000,47.3977508,8.5456073,-0.0021839791,0.0021490392,-0.058361888,-6.300118e-08,1.5656e-08,-0.042089757,-0.0066939555,0.0041775117,-0.0010023264,-0.0038533122,-1.0500196e-05,2.609333e-06,0.0017587617,-0.014174292,-0.0049282387,0.017961485,0.0009833865,0.0,488.0305,0.101789646,0.014659141,0.21270515,0.03930964,0.07169943,inf,inf,inf,inf,0,1,0,1,1,2,1,1,0,0,1,1,0,0,1
37292000,37292000,4392000,47.3977508,8.5456073,-0.0018887756,0.002354446,-0.058860153,-6.300118e-08,1.5656e-08,-0.042089757,-0.005534806,0.0041243685,0.0022844044,-0.00052082783,-1.0500196e-05,2.609333e-06,0.0017587617,-0.010872797,-0.017308498,-0.013107433,0.00084432325,0.0,488.0305,0.10126583,0.011262489,0.21491037,0.034098458,0.07353918,inf,inf,inf,inf,0,1,0,1,1,2,1,1,0,0,1,1,0,0,1
37788000,37788000,4392000,47.3977508,8.5456073,-0.0005857335,0.0014914006,-0.058050822,-6.300118e-08,1.5656e-08,-0.042089757,-0.0025202902,0.0021515042,0.0069619287,0.003935506,-1.0500196e-05,2.609333e-06,0.0017587617,-0.018767865,0.002202214,0.016064381,0.00089386955,0.0,488.0305,0.10059729,0.013259313,0.21424307,0.037280835,0.07083115,inf,inf,inf,inf,0,1,0,1,1,2,1,1,0,0,1,1,0,0,1
38292000,38292000,4392000,47.3977508,8.5456073,0.0005377103,0.00013241908,-0.055457134,-6.300118e-08,1.5656e-08,-0.042089757,0.00012493477,0.00032349364,0.015391347,0.011008886,-1.0500196e-05,2.609333e-06,0.0017587617,-0.015087643,-0.024032662,0.04349276,0.0010280744,0.0,488.0305,0.1,0.015914544,0.21706875,0.040948052,0.07287259,inf,inf,inf,inf,0,1,0,1,1,2,1,1,0,0,1,1,0,0,1
38796000,38796000,4392000,47.3977508,8.5456073,0.0012286619,-0.00024471016,-0.054126505,-6.300118e-08,1.5656e-08,-0.042089757,-0.0003741263,-0.0013667576,0.023175135,0.013801406,-1.0500196e-05,2.609333e-06,0.0017587617,-0.0028281792,0.0015030818,0.0071916725,0.001093467,0.0,488.0305,0.1,0.0123978695,0.21133722,0.035908412,0.069923535,inf,inf,inf,inf,0,1,0,1,1,2,1,1,0,0,1,1,0,0,1
39292000,39292000,4392000,47.3977508,8.5456073,-7.550989e-05,-0.0017185373,-0.05182947,-6.300118e-08,1.5656e-08,-0.042089757,-0.003098482,-0.005799021,0.034076374,0.019264746,-1.0500196e-05,2.609333e-06,0.0017587617,0.018271092,-0.020979866,0.041187737,0.0009750646,0.0,488.0305,0.1,0.014653461,0.21381462,0.03927764,0.071775615,inf,inf,inf,inf,0,1,0,1,1,2,1,1,0,0,1,1,0,0,1
39788000,39788000,4392000,47.3977508,8.5456073,-0.0011320472,-0.003050762,-0.049371384,-6.300118e-08,1.5656e-08,-0.042089757,-0.003980749,-0.0055483747,0.039752476,0.018997956,-1.0500196e-05,2.609333e-06,0.0017587617,0.024387,0.040847253,0.06609782,0.0009054334,0.0,488.0305,0.1,0.011260249,0.2164226,0.034084518,0.07364375,inf,inf,inf,inf,0,1,0,1,1,2,1,1,0,0,1,1,0,0,1
40292000,40292000,4392000,47.3977508,8.5456073,-0.00029715226,-0.0017674346,-0.048795737,-6.300118e-08,1.5656e-08,-0.042089757,-0.0010232927,-0.0023575018,0.043994408,0.01637252,-1.0500196e-05,2.609333e-06,0.0017587617,-0.0095410645,-0.002649758,0.017377546,0.0010280333,0.0,488.0305,0.1,0.013480293,0.21557645,0.03760239,0.07107405,inf,inf,inf,inf,0,1,0,1,1,2,1,1,0,0,1,1,0,0,1
40788000,40788000,4392000,47.3977508,8.5456073,-0.00017468359,-0.0005541217,-0.04695756,-6.300118e-08,1.5656e-08,-0.042089757,-0.0027069522,-0.0012279408,0.04788096,0.01627412,-1.0500196e-05,2.609333e-06,0.0017587617,-0.0057217544,0.004670772,0.019846482,0.0012690186,0.0,488.0305,0.1,0.01591139,0.2181351,0.040935382,0.072927095,inf,inf,inf,inf,0,1,0,1,1,2,1,1,0,0,1,1,0,0,1
41292000,41292000,4392000,47.3977508,8.5456073,-0.0018545268,0.0003986235,-0.045449864,-6.300118e-08,1.5656e-08,-0.042089757,-0.0077242036,0.0014502881,0.048258003,0.012800045,-1.0500196e-05,2.609333e-06,0.0017587617,-0.025343163,0.017347904,0.056171786,0.0011416617,0.0,488.0305,0.1,0.0123970015,0.21244237,0.035904568,0.07000804,inf,inf,inf,inf,0,1,0,1,1,2,1,1,0,0,1,1,0,0,1
41788000,41788000,4392000,47.3977508,8.5456073,-0.0027865118,0.0018719056,-0.044455044,-6.300118e-08,1.5656e-08,-0.042089757,-0.0065521114,0.0064631146,0.049582567,0.010734099,-1.0500196e-05,2.609333e-06,0.0017587617,0.032198526,0.0068170773,0.006766058,0.0012548473,0.0,488.0305,0.1,0.014652704,0.2149379,0.0392762,0.071860045,inf,inf,inf,inf,0,1,0,1,1,2,1,1,0,0,1,1,0,0,1
42292000,42292000,4392000,47.3977508,8.5456073,-0.0009121065,0.003425089,-0.044045076,-6.300118e-08,1.5656e-08,-0.042089757,0.0007763624,0.008344408,0.047872745,0.007210842,-1.0500196e-05,2.609333e-06,0.0017587617,-0.009698662,0.0066743228,0.010349787,0.0011285673,0.0,488.0305,0.1,0.011408386,0.21422462,0.034180176,0.06930514,inf,inf,inf,inf,0,1,0,1,1,2,1,1,0,0,1,1,0,0,1
42788000,42788000,4392000,47.3977508,8.5456073,0.0021379993,0.0033477403,-0.04483571,-6.300118e-08,1.5656e-08,-0.042089757,0.0046475003,0.007365444,0.042637456,0.0011847925,-1.0500196e-05,2.609333e-06,0.0017587617,0.019127283,0.02925073,0.023632308,0.0013225616,0.0,488.0305,0.1,0.013480891,0.21667607,0.037608907,0.07114172,inf,inf,inf,inf,0,1,0,1,1,2,1,1,0,0,1,1,0,0,1
43292000,43292000,4392000,47.3977508,8.5456073,0.00273503,0.0026703684,-0.04515197,-6.300118e-08,1.5656e-08,-0.042089757,0.0044467784,0.0048904866,0.04157894,0.0012524144,-1.0500196e-05,2.609333e-06,0.0017587617,0.03754001,-0.013007228,0.038946975,0.0013006362,0.0,488.0305,0.1,0.016174024,0.2145808,0.041267995,0.072820425,inf,inf,inf,inf,0,1,0,1,1,2,1,1,0,0,1,1,0,0,1
43788000,43788000,4392000,47.3977508,8.5456073,0.0027335845,0.0008938181,-0.0458873,-6.300118e-08,1.5656e-08,-0.042089757,0.0065025543,0.0017394427,0.040510103,0.0005158364,-1.0500196e-05,2.609333e-06,0.0017587617,-0.0050467784,1.1059454e-06,0.02728868,0.0015004686,0.0,488.0305,0.1,0.01239712,0.21396883,0.03590339,0.07012142,inf,inf,inf,inf,0,1,0,1,1,2,1,1,0,0,1,1,0,0,1
44292000,44292000,4392000,47.3977508,8.5456073,0.0027412956,0.00057661236,-0.045643233,-6.300118e-08,1.5656e-08,-0.042089757,0.00414331,0.0039901836,0.03903152,0.0007677104,-1.0500196e-05,2.609333e-06,0.0017587617,0.0034950788,-0.006854548,0.03619771,0.0015742757,0.0,488.0305,0.1,0.014898161,0.21634786,0.039611213,0.072127014,inf,inf,inf,inf,0,1,0,1,1,2,1,1,0,0,1,1,0,0,1
44788000,44788000,4392000,47.3977508,8.5456073,0.0007818004,0.00097353704,-0.044267587,-6.300118e-08,1.5656e-08,-0.042089757,5.123207e-05,0.0021579843,0.035795506,-0.00023912778,-1.0500196e-05,2.609333e-06,0.0017587617,-0.007201102,-0.036712114,0.010264105,0.0016322462,0.0,488.0305,0.1,0.011408268,0.21570271,0.034179293,0.06939413,inf,inf,inf,inf,0,1,0,1,1,2,1,1,0,0,1,1,0,0,1
45292000,45292000,4392000,47.3977508,8.5456073,-0.0009780754,3.6742687e-05,-0.045941383,-6.300118e-08,1.5656e-08,-0.042089757,-0.0021743935,-0.00044360285,0.031404167,-0.00405815,-1.0500196e-05,2.609333e-06,0.0017587617,-0.0050176894,0.004723857,0.0020423902,0.0018044343,0.0,488.0305,0.1,0.0137083065,0.21314967,0.037943896,0.07104861,inf,inf,inf,inf,0,1,0,1,1,2,1,1,0,0,1,1,0,0,1
45788000,45788000,4392000,47.3977508,8.5456073,-0.0009339834,-0.00070755876,-0.045879364,-6.300118e-08,1.5656e-08,-0.042089757,-0.0022877424,-0.0013662927,0.02948037,-0.0036294726,-1.0500196e-05,2.609333e-06,0.0017587617,-0.021863814,-0.019450555,0.0025890765,0.0017548978,0.0,488.0305,0.101010844,0.01617315,0.21570945,0.041266415,0.072912835,inf,inf,inf,inf,0,1,0,1,1,2,1,1,0,0,1,1,0,0,1
46292000,46292000,4392000,47.3977508,8.5456073,-0.0011295188,-0.0018311859,-0.046765704,-6.300118e-08,1.5656e-08,-0.042089757,-0.0023964075,-0.0058156825,0.024253014,-0.0065465695,-1.0500196e-05,2.609333e-06,0.0017587617,-0.014744189,-0.042251192,0.020949168,0.0019102517,0.0,488.0305,0.1,0.012606645,0.21532042,0.036249217,0.07038368,inf,inf,inf,inf,0,1,0,1,1,2,1,1,0,0,1,1,0,0,1
46788000,46788000,4392000,47.3977508,8.5456073,-0.0007423404,-0.0034194167,-0.046677087,-6.300118e-08,1.5656e-08,-0.042089757,-0.0017728735,-0.009245243,0.025492432,-0.0027624033,-1.0500196e-05,2.609333e-06,0.0017587617,-0.04076393,-0.0207291,0.018652527,0.0018433443,0.0,488.0305,0.101568,0.014897985,0.2174484,0.039608542,0.072208904,inf,inf,inf,inf,0,1,0,1,1,2,1,1,0,0,1,1,0,0,1
47292000,47292000,4392000,47.3977508,8.5456073,-0.0010514489,-0.0044864086,-0.04816218,-6.300118e-08,1.5656e-08,-0.042089757,-0.004534152,-0.008444694,0.019619912,-0.0072396933,-1.0500196e-05,2.609333e-06,0.0017587617,-0.00450632,-0.011584466,0.023198312,0.0019388234,0.0,488.0305,0.1,0.011598394,0.2118784,0.034529664,0.069316015,inf,inf,inf,inf,0,1,0,1,1,2,1,1,0,0,1,1,0,0,1
47796000,47796000,4392000,47.3977508,8.5456073,-0.0016482073,-0.002206434,-0.049087144,-6.300118e-08,1.5656e-08,-0.042089757,-0.0045221476,-0.001917934,0.019224824,-0.005062148,-1.0500196e-05,2.609333e-06,0.0017587617,-0.00062599423,0.0035613629,0.014754011,0.0017895218,0.0,488.0305,0.10132328,0.013939361,0.2146302,0.03827731,0.07135559,inf,inf,inf,inf,0,1,0,1,1,2,1,1,0,0,1,1,0,0,1
48292000,48292000,4392000,47.3977508,8.5456073,-0.0026249972,0.000670572,-0.048510864,-6.300118e-08,1.5656e-08,-0.042089757,-0.007223508,0.0020282867,0.021741593,-0.0005894693,-1.0500196e-05,2.609333e-06,0.0017587617,-0.0017706333,-0.025277592,0.03420561,0.0019016052,0.0,488.0305,0.102297835,0.010720197,0.21682917,0.033026364,0.073189996,inf,inf,inf,inf,0,1,0,1,1,2,1,1,0,0,1,1,0,0,1
48788000,48788000,4392000,47.3977508,8.5456073,-0.0028344258,0.0015025625,-0.048067406,-6.300118e-08,1.5656e-08,-0.042089757,-0.007508238,0.0024545018,0.023266554,0.0011567667,-1.0500196e-05,2.609333e-06,0.0017587617,0.014917109,-0.010364048,0.011941417,0.0018158683,0.0,488.0305,0.1,0.012605373,0.21612896,0.036239836,0.07045372,inf,inf,inf,inf,0,1,0,1,1,2,1,1,0,0,1,1,0,0,1
49292000,49292000,4392000,47.3977508,8.5456073,-0.0028567493,0.002255221,-0.048214484,-6.300118e-08,1.5656e-08,-0.042089757,-0.0051404494,0.006483362,0.02586296,0.0025803049,-1.0500196e-05,2.609333e-06,0.0017587617,-0.01166953,0.007234812,0.025299376,0.0020394616,0.0,488.0305,0.1,0.015144675,0.21403478,0.039935507,0.07214083,inf,inf,inf,inf,0,1,0,1,1,2,1,1,0,0,1,1,0,0,1
49788000,49788000,4392000,47.3977508,8.5456073,-0.0011188723,0.003278299,-0.04667691,-6.300118e-08,1.5656e-08,-0.042089757,-0.0027530626,0.009323035,0.03019437,0.0063361716,-1.0500196e-05,2.609333e-06,0.0017587617,-0.035415445,0.021886544,0.027053056,0.0019890578,0.0,488.0305,0.1,0.011597293,0.2130972,0.03451806,0.06941965,inf,inf,inf,inf,0,1,0,1,1,2,1,1,0,0,1,1,0,0,1
50292000,50292000,4392000,47.3977508,8.5456073,-8.496374e-05,0.0052775876,-0.04666439,-6.300118e-08,1.5656e-08,-0.042089757,-0.00038960917,0.014032091,0.029940587,0.00397144,-1.0500196e-05,2.609333e-06,0.0017587617,0.0034978727,0.023046667,0.00451412,0.0017386887,0.0,488.0305,0.1,0.013937336,0.2158405,0.03826801,0.07145202,inf,inf,inf,inf,0,1,0,1,1,2,1,1,0,0,1,1,0,0,1
50788000,50788000,4392000,47.3977508,8.5456073,0.00087530375,0.0060961833,-0.046672698,-6.300118e-08,1.5656e-08,-0.042089757,0.000541972,0.014487877,0.030295225,0.0035031242,-1.0500196e-05,2.609333e-06,0.0017587617,0.0051909736,0.01446258,0.03168359,0.0016234907,0.0,488.0305,0.1,0.010719993,0.21844098,0.03302639,0.07331433,inf,inf,inf,inf,0,1,0,1,1,2,1,1,0,0,1,1,0,0,1
51292000,51292000,4392000,47.3977508,8.5456073,-4.0654428e-05,0.0039917827,-0.04650996,-6.300118e-08,1.5656e-08,-0.042089757,-0.0017321153,0.007251414,0.03140003,0.003803451,-1.0500196e-05,2.609333e-06,0.0017587617,0.014823133,-0.04510795,-0.00723917,0.0016815419,0.0,488.0305,0.1,0.012818103,0.21268146,0.03657813,0.070378825,inf,inf,inf,inf,0,1,0,1,1,2,1,1,0,0,1,1,0,0,1
51788000,51788000,4392000,47.3977508,8.5456073,0.00017110855,0.00036433554,-0.046105914,-6.300118e-08,1.5656e-08,-0.042089757,0.0008869887,-0.0006907772,0.03049022,0.0025424208,-1.0500196e-05,2.609333e-06,0.0017587617,0.005309062,0.012039672,0.0033080576,0.0016924243,0.0,488.0305,0.1,0.015144541,0.215204,0.039934494,0.0722404,inf,inf,inf,inf,0,1,0,1,1,2,1,1,0,0,1,1,0,0,1
52292000,52292000,4392000,47.3977508,8.5456073,0.0004562172,-0.0012674239,-0.046539508,-6.300118e-08,1.5656e-08,-0.042089757,-0.00053768954,8.533771e-05,0.03029232,0.0017942901,-1.0500196e-05,2.609333e-06,0.0017587617,0.035323083,-0.028693486,0.034116205,0.001581355,0.0,488.0305,0.1,0.0117913475,0.21446508,0.03486611,0.06968255,inf,inf,inf,inf,0,1,0,1,1,2,1,1,0,0,1,1,0,0,1
52788000,52788000,4392000,47.3977508,8.5456073,0.00030068585,-0.0010651352,-0.046420086,-6.300118e-08,1.5656e-08,-0.042089757,0.00022146899,-0.0008629511,0.029880643,0.0016704947,-1.0500196e-05,2.609333e-06,0.0017587617,0.0025775952,-0.009141549,0.018374993,0.0017080972,0.0,488.0305,0.1,0.013937507,0.2169532,0.038267292,0.07153118,inf,inf,inf,inf,0,1,0,1,1,2,1,1,0,0,1,1,0,0,1
53292000,53292000,4392000,47.3977508,8.5456073,0.00069075683,-0.0005016457,-0.045576595,-6.300118e-08,1.5656e-08,-0.042089757,0.0021805672,0.0023404788,0.031899605,0.003802358,-1.0500196e-05,2.609333e-06,0.0017587617,0.009541603,0.024837986,0.0043828036,0.0018995976,0.0,488.0305,0.1,0.0108954385,0.21487929,0.033375036,0.07321498,inf,inf,inf,inf,0,1,0,1,1,2,1,1,0,0,1,1,0,0,1
53796000,53796000,4392000,47.3977508,8.5456073,0.0013644577,0.0007191731,-0.046235967,-6.300118e-08,1.5656e-08,-0.042089757,0.0015050077,0.0034099785,0.030843038,0.0013517034,-1.0500196e-05,2.609333e-06,0.0017587617,0.0044710613,0.014090364,0.028060747,0.0019127714,0.0,488.0305,0.1,0.013034319,0.21412255,0.036917537,0.07066936,inf,inf,inf,inf,0,1,0,1,1,2,1,1,0,0,1,1,0,0,1
54292000,54292000,4392000,47.3977508,8.5456073,0.00082313945,0.0011035269,-0.046534706,-6.300118e-08,1.5656e-08,-0.042089757,0.0012347784,0.00319873,0.03191574,0.0018561073,-1.0500196e-05,2.609333e-06,0.0017587617,0.020129925,0.019040234,0.019363126,0.00180426,0.0,488.0305,0.1,0.015395336,0.21667193,0.040261105,0.07252868,inf,inf,inf,inf,0,1,0,1,1,2,1,1,0,0,1,1,0,0,1
54796000,54796000,4392000,47.3977508,8.5456073,-0.00014623447,0.001231564,-0.04717844,-6.300118e-08,1.5656e-08,-0.042089757,-0.00062596955,0.0049692583,0.030937323,0.0003972965,-1.0500196e-05,2.609333e-06,0.0017587617,0.0011987139,-0.012638279,0.018968245,0.0019585488,0.0,488.0305,0.1,0.011988672,0.21101308,0.035208445,0.06959395,inf,inf,inf,inf,0,1,0,1,1,2,1,1,0,0,1,1,0,0,1
55292000,55292000,4392000,47.3977508,8.5456073,-0.00013747333,0.0019187214,-0.048047286,-6.300118e-08,1.5656e-08,-0.042089757,0.00036758772,0.0063855476,0.029145502,-0.0010699774,-1.0500196e-05,2.609333e-06,0.0017587617,0.0004895118,-0.027964203,-0.004159286,0.0019812104,0.0,488.0305,0.1,0.014212188,0.21348718,0.04814085,0.07145138,inf,inf,inf,inf,0,1,0,1,1,2,1,1,0,0,1,1,0,0,1
55796000,55796000,4392000,47.3977508,8.5456073,-0.00021536501,0.004718796,-0.039539147,-6.300118e-08,1.5656e-08,-0.042089757,-0.00070655224,0.0070814877,0.03333528,0.010627519,-1.0500196e-05,2.609333e-06,0.0017587617,-0.0075268615,0.003852743,0.025204381,0.002280055,0.0,488.0305,0.1031113,0.06785025,0.22419463,0.2096489,0.08278966,inf,inf,inf,inf,0,1,0,1,1,2,1,1,0,0,1,1,0,0,1
56292000,56292000,4392000,47.3977508,8.5456073,-0.0007986085,0.009331,-0.022423254,-6.300118e-08,1.5656e-08,-0.042089757,-0.0031398488,0.0097337505,0.042354543,0.026760943,-1.0500196e-05,2.609333e-06,0.0017587617,-0.02458386,-0.0020579244,0.034396533,0.0022503068,0.0,488.0305,0.10191128,0.20961116,0.2394223,0.37901765,0.09405496,inf,inf,inf,inf,0,1,0,1,1,2,1,1,0,0,1,1,0,0,1
56788000,56788000,4392000,47.3977508,8.5456073,-0.0040118443,0.015337269,-0.0019735352,-6.300118e-08,1.5656e-08,-0.042089757,-0.009007479,0.011586136,0.052238982,0.039825033,-1.0500196e-05,2.609333e-06,0.0017587617,-0.0036246055,-0.006579517,0.02990756,0.0022923658,0.0,488.0305,0.10074311,0.43698522,0.25910047,0.54911023,0.10498893,inf,inf,inf,inf,0,1,0,1,1,2,1,1,0,0,1,1,0,0,1
57292000,57292000,4392000,47.3977508,8.5456073,-0.009756635,0.023178242,0.020240242,-6.300118e-08,1.5656e-08,-0.042089757,-0.013056291,0.015403621,0.059855726,0.04678892,-1.0500196e-05,2.609333e-06,0.0017587617,0.0023723403,-0.0032512397,0.027054919,0.0024845363,0.0,488.0305,0.1,0.7532229,0.27233666,0.7206601,0.11317287,inf,inf,inf,inf,0,1,0,1,1,2,1,1,0,0,1,1,0,0,1
57796000,57796000,4392000,47.3977508,8.5456073,-0.017597416,0.033015978,0.040389057,-6.300118e-08,1.5656e-08,-0.042089757,-0.016865812,0.020251967,0.053153556,0.03590102,-1.0500196e-05,2.609333e-06,0.0017587617,-0.06411677,0.0038346914,-0.23080873,0.0025265068,0.0,488.0305,0.1,1.1528213,0.2969826,0.88992655,0.12187345,inf,inf,inf,inf,0,1,0,1,1,2,1,1,0,0,1,1,0,0,1
58292000,58292000,4392000,47.3977508,8.5456073,-0.061204333,0.04603549,0.0026526893,-6.300118e-08,1.5656e-08,-0.042089757,-0.203302,0.03323292,-0.20314324,-0.2261928,-1.0500196e-05,2.609333e-06,0.0017587617,-0.34770662,0.04020114,-0.8787093,0.0015428314,0.0,488.0305,0.1393602,1.6113845,0.321739,1.0512766,0.12867448,inf,inf,inf,inf,0,1,0,1,1,2,1,1,0,0,1,1,0,0,1
58788000,58788000,4392000,47.3977508,8.5456073,-0.16625556,0.065569185,-0.22964315,-6.300118e-08,1.5656e-08,-0.042089757,-0.18284298,0.039978914,-0.6167908,-0.64662373,-1.0500196e-05,2.609333e-06,0.0017587617,0.13624747,0.011434428,-0.22965017,0.0017470574,0.0,488.0305,0.37165606,2.1360936,0.34413546,1.2116898,0.13378984,inf,inf,inf,inf,0,1,0,1,1,2,1,1,0,0,1,1,0,0,1
59292000,59292000,4392000,47.3977508,8.5456073,-0.23251082,0.0861412,-0.563722,-6.300118e-08,1.5656e-08,-0.042089757,-0.088019215,0.03828063,-0.6280539,-0.66614664,-1.0500196e-05,2.609333e-06,0.0017587617,0.21129727,-0.021156527,-0.078242265,0.0017160142,0.0,488.0305,0.7057349,2.70943,0.3458089,1.342067,0.13283055,inf,inf,inf,inf,0,1,0,1,1,2,1,1,0,0,1,1,0,0,1
59788000,59788000,4392000,47.3977508,8.5456073,-0.23425312,0.09758935,-0.91056436,-6.300118e-08,1.5656e-08,-0.042089757,0.0149851795,0.021522949,-0.64522195,-0.69058603,-1.0500196e-05,2.609333e-06,0.0017587617,0.16299829,-0.014937984,0.06902776,0.0016040581,0.0,488.0305,1.0525773,3.1979754,0.36146006,1.4091035,0.13499485,inf,inf,inf,inf,0,1,0,1,1,2,1,1,0,0,1,1,0,0,1
60292000,60292000,4392000,47.3977508,8.5456073,-0.18439718,0.10006935,-1.2605295,-6.300118e-08,1.5656e-08,-0.042089757,0.0864714,0.016848441,-0.6117956,-0.6627665,-1.0500196e-05,2.609333e-06,0.0017587617,0.090559505,0.009553935,0.116845585,0.001724599,0.0,488.0305,1.4025424,3.7141032,0.37752426,1.4705807,0.13692068,inf,inf,inf,inf,0,1,0,1,1,2,1,1,0,0,1,1,0,0,1
60788000,60788000,4392000,47.3977508,8.5456073,-0.109539986,0.0988186,-1.5786667,-6.300118e-08,1.5656e-08,-0.042089757,0.12339011,0.01985443,-0.54276836,-0.59590805,-1.0500196e-05,2.609333e-06,0.0017587617,0.04528141,0.03874073,0.17752777,0.0016846486,0.0,488.0305,1.7206795,3.9926782,0.3904639,1.437672,0.13792567,inf,inf,inf,inf,0,1,0,1,1,2,1,1,0,0,1,1,0,0,1
61292000,61292000,4392000,47.3977508,8.5456073,-0.032449085,0.09715789,-1.8322945,-6.300118e-08,1.5656e-08,-0.042089757,0.12643757,0.028249007,-0.20410194,-0.26230094,-1.0500196e-05,2.609333e-06,0.0017587617,-0.08210247,0.04954972,1.0157022,0.001905071,0.0,488.0305,1.9743073,4.338517,0.37269896,1.4269226,0.13175897,inf,inf,inf,inf,0,1,0,1,1,2,1,1,0,0,1,1,0,0,1
61788000,61788000,4392000,47.3977508,8.5456073,0.024728395,0.09502286,-1.9283795,-6.300118e-08,1.5656e-08,-0.042089757,0.116193816,0.02267601,-0.14517453,-0.20648651,-1.0500196e-05,2.609333e-06,0.0017587617,-0.044214346,0.009804644,-0.11979136,0.0019527422,0.0,488.0305,2.0703924,4.5989475,0.3815685,1.3974258,0.13252921,inf,inf,inf,inf,0,1,0,1,1,2,1,1,0,0,1,1,0,0,1
62292000,62292000,4392000,47.3977508,8.5456073,0.062390607,0.08451955,-2.0335355,-6.300118e-08,1.5656e-08,-0.042089757,0.09438812,0.006957964,-0.13261071,-0.19334562,-1.0500196e-05,2.609333e-06,0.0017587617,-0.030734953,-0.014740041,0.073777504,0.0012388887,0.0,488.0305,2.1755483,4.5589104,0.38804454,1.2902094,0.13305314,inf,inf,inf,inf,0,1,0,1,1,2,1,1,0,0,1,1,0,0,1
62796000,62796000,4392000,47.3977508,8.5456073,0.082280986,0.0646747,-2.1194923,-6.300118e-08,1.5656e-08,-0.042089757,0.0817996,-0.014570248,-0.09567011,-0.15266433,-1.0500196e-05,2.609333e-06,0.0017587617,0.014182412,-0.008169583,0.07933005,0.0016920958,0.0,488.0305,2.2615051,4.69796,0.3683063,1.2439355,0.1280056,inf,inf,inf,inf,0,1,0,1,1,2,1,1,0,0,1,1,0,0,1
63292000,63292000,4392000,47.3977508,8.5456073,0.09478959,0.040435176,-2.1885884,-6.300118e-08,1.5656e-08,-0.042089757,0.08631726,-0.03475971,-0.058490086,-0.11720236,-1.0500196e-05,2.609333e-06,0.0017587617,0.020308768,-0.04106913,0.06710551,0.0028927305,0.0,488.0305,2.3306012,4.537541,0.37299582,1.1315827,0.12903325,inf,inf,inf,inf,0,1,0,1,1,2,1,1,0,0,1,1,0,0,1
63796000,63796000,4392000,47.3977508,8.5456073,0.10763405,0.010321205,-2.2410498,-6.300118e-08,1.5656e-08,-0.042089757,0.09149887,-0.056701962,-0.02414418,-0.084294215,-1.0500196e-05,2.609333e-06,0.0017587617,0.011857016,-0.073065296,0.12882797,0.0026795487,0.0,488.0305,2.3830626,4.604682,0.38056624,1.0849172,0.13094278,inf,inf,inf,inf,0,1,0,1,1,2,1,1,0,0,1,1,0,0,1
64292000,64292000,4392000,47.3977508,8.5456073,0.121376626,-0.022495447,-2.277713,-6.300118e-08,1.5656e-08,-0.042089757,0.093565844,-0.076579906,0.0011962666,-0.059562545,-1.0500196e-05,2.609333e-06,0.0017587617,0.017817553,-0.04260107,0.067652196,0.003025256,0.0,488.0305,2.419726,4.6417985,0.38731194,1.0386347,0.13279521,inf,inf,inf,inf,0,1,0,1,1,2,1,1,0,0,1,1,0,0,1
64788000,64788000,4392000,47.3977508,8.5456073,0.1335195,-0.058156013,-2.3021936,-6.300118e-08,1.5656e-08,-0.042089757,0.096243486,-0.10097769,0.022594763,-0.036456913,-1.0500196e-05,2.609333e-06,0.0017587617,0.016745718,-0.11396339,0.06565544,0.0025482657,0.0,488.0305,2.4442065,4.434189,0.39415094,0.94751453,0.13473931,inf,inf,inf,inf,0,1,0,1,1,2,1,1,0,0,1,1,0,0,1
65292000,65292000,4392000,47.3977508,8.5456073,0.14471212,-0.09898012,-2.3261375,-6.300118e-08,1.5656e-08,-0.042089757,0.093997195,-0.12573414,0.033293795,-0.031702753,-1.0500196e-05,2.609333e-06,0.0017587617,0.0181465,-0.04837316,0.043764707,0.0023478116,0.0,488.0305,2.4681504,4.455639,0.3723037,0.91117734,0.13054179,inf,inf,inf,inf,0,1,0,1,1,2,1,1,0,0,1,1,0,0,1
65788000,65788000,4392000,47.3977508,8.5456073,0.15241311,-0.14035162,-2.3396828,-6.300118e-08,1.5656e-08,-0.042089757,0.08004458,-0.13554445,0.04457402,-0.020606745,-1.0500196e-05,2.609333e-06,0.0017587617,-0.021893123,-0.04299889,0.061281953,0.0020322765,0.0,488.0305,2.4816957,4.256498,0.3794166,0.8388743,0.13267581,inf,inf,inf,inf,0,1,0,1,1,2,1,1,0,0,1,1,0,0,1
66292000,66292000,4392000,47.3977508,8.5456073,0.15017506,-0.17666854,-2.3420215,-6.300118e-08,1.5656e-08,-0.042089757,0.059800476,-0.13883406,0.056445133,-0.0049589584,-1.0500196e-05,2.609333e-06,0.0017587617,-0.04110098,-0.02608448,-0.021599231,0.001839456,0.0,488.0305,2.4840343,4.2680597,0.38536364,0.8118364,0.13449585,inf,inf,inf,inf,0,1,0,1,1,2,1,1,0,0,1,1,0,0,1
66788000,66788000,4392000,47.3977508,8.5456073,0.14367452,-0.20773965,-2.3439643,-6.300118e-08,1.5656e-08,-0.042089757,0.05007896,-0.13870019,0.056841288,-0.002281895,-1.0500196e-05,2.609333e-06,0.0017587617,-0.008948569,-0.010218507,0.0075735147,0.0017390447,0.0,488.0305,2.4859772,4.268872,0.3928496,0.7874836,0.13655166,inf,inf,inf,inf,0,1,0,1,1,2,1,1,0,0,1,1,0,0,1
67292000,67292000,4392000,47.3977508,8.5456073,0.13610731,-0.23092891,-2.3515346,-6.300118e-08,1.5656e-08,-0.042089757,0.050192367,-0.13664871,0.055219907,-0.0075884326,-1.0500196e-05,2.609333e-06,0.0017587617,0.0028150096,-0.012069016,0.014812685,0.001427673,0.0,488.0305,2.4935474,4.094265,0.37385386,0.73795545,0.13275866,inf,inf,inf,inf,0,1,0,1,1,2,1,1,0,0,1,1,0,0,1
67788000,67788000,4392000,47.3977508,8.5456073,0.13393982,-0.25133196,-2.356047,-6.300118e-08,1.5656e-08,-0.042089757,0.05641965,-0.13470055,0.045643743,-0.01565404,-1.0500196e-05,2.609333e-06,0.0017587617,0.03241238,-0.013663404,0.027649103,0.001352938,0.0,488.0305,2.4980597,4.0950804,0.37935546,0.7223113,0.1342855,inf,inf,inf,inf,0,1,0,1,1,2,1,1,0,0,1,1,0,0,1
68292000,68292000,4392000,47.3977508,8.5456073,0.13784218,-0.2698944,-2.3581533,-6.300118e-08,1.5656e-08,-0.042089757,0.06738506,-0.13869853,0.04900736,-0.0072974055,-1.0500196e-05,2.609333e-06,0.0017587617,0.028061155,-0.010915864,0.019538214,0.0012693794,0.0,488.0305,2.5001662,3.9396596,0.3879445,0.6861494,0.13638845,inf,inf,inf,inf,0,1,0,1,1,2,1,1,0,0,1,1,0,0,1
68788000,68788000,4392000,47.3977508,8.5456073,0.14914021,-0.28719547,-2.3610547,-6.300118e-08,1.5656e-08,-0.042089757,0.085766815,-0.14261463,0.044289865,-0.010107447,-1.0500196e-05,2.609333e-06,0.0017587617,0.06800347,-0.0011517112,-0.026179476,0.001158589,0.0,488.0305,2.5030675,3.943085,0.39324284,0.6781965,0.13763991,inf,inf,inf,inf,0,1,0,1,1,2,1,1,0,0,1,1,0,0,1
69292000,69292000,4392000,47.3977508,8.5456073,0.1701869,-0.30817193,-2.3681073,-6.300118e-08,1.5656e-08,-0.042089757,0.10609031,-0.14693025,0.034270544,-0.018640568,-1.0500196e-05,2.609333e-06,0.0017587617,0.06815906,-0.020385602,-0.008052214,0.0010889282,0.0,488.0305,2.5101202,3.9518101,0.3742237,0.673829,0.13349535,inf,inf,inf,inf,0,1,0,1,1,2,1,1,0,0,1,1,0,0,1
69788000,69788000,4392000,47.3977508,8.5456073,0.19711392,-0.32404846,-2.3700674,-6.300118e-08,1.5656e-08,-0.042089757,0.1276915,-0.14773713,0.027026687,-0.01820501,-1.0500196e-05,2.609333e-06,0.0017587617,0.07011198,-0.0016654739,0.008139758,0.0011600436,0.0,488.0305,2.5120802,3.8133736,0.38180342,0.6522779,0.13523029,inf,inf,inf,inf,0,1,0,1,1,2,1,1,0,0,1,1,0,0,1
70292000,70292000,4392000,47.3977508,8.5456073,0.23267446,-0.34193954,-2.3692636,-6.300118e-08,1.5656e-08,-0.042089757,0.14910328,-0.14820854,0.028344454,-0.008895385,-1.0500196e-05,2.609333e-06,0.0017587617,0.07818837,-0.031894892,0.0030919907,0.00083435996,0.0,488.0305,2.5112765,3.827177,0.38809976,0.6544485,0.1366277,inf,inf,inf,inf,0,1,0,1,1,2,1,1,0,0,1,1,0,0,1
70788000,70788000,4392000,47.3977508,8.5456073,0.27379894,-0.3573858,-2.3633485,-6.300118e-08,1.5656e-08,-0.042089757,0.17338143,-0.14853854,0.022240631,-0.005399541,-1.0500196e-05,2.609333e-06,0.0017587617,0.03193678,-0.017771242,-0.05328003,0.0008799961,0.0,488.0305,2.5053613,3.7056398,0.39591613,0.64144206,0.13832226,inf,inf,inf,inf,0,1,0,1,1,2,1,1,0,0,1,1,0,0,1
71292000,71292000,4392000,47.3977508,8.5456073,0.32055995,-0.37201765,-2.3633308,-6.300118e-08,1.5656e-08,-0.042089757,0.19260255,-0.1517128,-0.0033992468,-0.023910854,-1.0500196e-05,2.609333e-06,0.0017587617,0.031298142,-0.02097887,-0.036405396,0.00087057427,0.0,488.0305,2.5053437,3.7256978,0.37435254,0.6494004,0.1334949,inf,inf,inf,inf,0,1,0,1,1,2,1,1,0,0,1,1,0,0,1
71788000,71788000,4392000,47.3977508,8.5456073,0.36809137,-0.38847652,-2.367843,-6.300118e-08,1.5656e-08,-0.042089757,0.19726597,-0.15071681,-0.012299216,-0.025644572,-1.0500196e-05,2.609333e-06,0.0017587617,0.01199929,-0.00213235,0.01843646,0.0010364706,0.0,488.0305,2.5098557,3.7443817,0.38195792,0.65874785,0.13519113,inf,inf,inf,inf,0,1,0,1,1,2,1,1,0,0,1,1,0,0,1
72292000,72292000,4392000,47.3977508,8.5456073,0.40528467,-0.3980626,-2.3687203,-6.300118e-08,1.5656e-08,-0.042089757,0.19559588,-0.14807521,-0.019692747,-0.023282837,-1.0500196e-05,2.609333e-06,0.0017587617,0.029046537,0.029537302,-0.050707716,0.0013249118,0.0,488.0305,2.5107331,3.6466362,0.38814127,0.65548414,0.13652854,inf,inf,inf,inf,0,1,0,1,1,2,1,1,0,0,1,1,0,0,1
72788000,72788000,4392000,47.3977508,8.5456073,0.43962076,-0.408967,-2.3729498,-6.300118e-08,1.5656e-08,-0.042089757,0.19719821,-0.14612685,-0.032380592,-0.029197652,-1.0500196e-05,2.609333e-06,0.0017587617,0.03946182,-0.03466379,-0.001747161,0.0015366767,0.0,488.0305,2.5149627,3.673349,0.39582473,0.6688564,0.13818075,inf,inf,inf,inf,0,1,0,1,1,2,1,1,0,0,1,1,0,0,1
73292000,73292000,4392000,47.3977508,8.5456073,0.46895656,-0.41644636,-2.3808663,-6.300118e-08,1.5656e-08,-0.042089757,0.19998994,-0.14480844,-0.034169823,-0.026110305,-1.0500196e-05,2.609333e-06,0.0017587617,0.015710058,-0.022124447,-0.0047227363,0.0017818647,0.0,488.0305,2.5228791,3.588802,0.37424737,0.6697564,0.13337202,inf,inf,inf,inf,0,1,0,1,1,2,1,1,0,0,1,1,0,0,1
73796000,73796000,4392000,47.3977508,8.5456073,0.49353254,-0.42246935,-2.3001442,-6.300118e-08,1.5656e-08,-0.042089757,0.18760759,-0.13935983,0.5184125,0.5340597,-1.0500196e-05,2.609333e-06,0.0017587617,-0.029067637,0.034204923,2.098197,0.0017590278,0.0,488.0305,2.442157,3.6280274,0.38269204,0.68309253,0.13527796,inf,inf,inf,inf,0,1,0,1,1,2,1,1,0,0,1,1,0,0,1
74292000,74292000,4392000,47.3977508,8.5456073,0.5123692,-0.4273829,-1.9471462,-6.300118e-08,1.5656e-08,-0.042089757,0.19300792,-0.13813314,0.64605165,0.65925324,-1.0500196e-05,2.609333e-06,0.0017587617,0.050089102,-0.021982333,-0.43868086,0.0021326656,0.0,488.0305,2.089159,3.548664,0.38797376,0.6826362,0.13643616,inf,inf,inf,inf,0,1,0,1,1,2,1,1,0,0,1,1,0,0,1
74788000,74788000,4392000,47.3977508,8.5456073,0.52743065,-0.42820507,-1.6346918,-6.300118e-08,1.5656e-08,-0.042089757,0.19482367,-0.13894416,0.6301572,0.6395693,-1.0500196e-05,2.609333e-06,0.0017587617,0.032601703,-0.016231904,0.024685634,0.0024326323,0.0,488.0305,1.7767048,3.590388,0.39555404,0.70108896,0.13807984,inf,inf,inf,inf,0,1,0,1,1,2,1,1,0,0,1,1,0,0,1
75292000,75292000,4392000,47.3977508,8.5456073,0.5448769,-0.4329406,-1.3027928,-6.300118e-08,1.5656e-08,-0.042089757,0.1970187,-0.1383369,0.6516679,0.6635114,-1.0500196e-05,2.609333e-06,0.0017587617,3.4575347e-05,-0.033223502,0.035385597,0.002495595,0.0,488.0305,1.4448056,3.64139,0.3738696,0.7200812,0.13326076,inf,inf,inf,inf,0,1,0,1,1,2,1,1,0,0,1,1,0,0,1
75796000,75796000,4392000,47.3977508,8.5456073,0.55622137,-0.4337472,-0.95966375,-6.300118e-08,1.5656e-08,-0.042089757,0.19319102,-0.13669674,0.6657129,0.6809002,-1.0500196e-05,2.609333e-06,0.0017587617,-0.0075380956,-0.0045764097,-0.030588357,0.0025813351,0.0,488.0305,1.1016767,3.5788987,0.38216695,0.7245362,0.13514316,inf,inf,inf,inf,0,1,0,1,1,2,1,1,0,0,1,1,0,0,1
76292000,76292000,4392000,47.3977508,8.5456073,0.5651678,-0.43569922,-0.61577946,-6.300118e-08,1.5656e-08,-0.042089757,0.19119595,-0.14147666,0.66914475,0.687692,-1.0500196e-05,2.609333e-06,0.0017587617,0.033032976,-0.026791617,-0.014700926,0.0025951485,0.0,488.0305,0.75779235,3.632781,0.38957334,0.74322337,0.13677754,inf,inf,inf,inf,0,1,0,1,1,2,1,1,0,0,1,1,0,0,1
76788000,76788000,4392000,47.3977508,8.5456073,0.5731334,-0.43965623,-0.2702582,-6.300118e-08,1.5656e-08,-0.042089757,0.1856348,-0.1398638,0.66337824,0.6854033,-1.0500196e-05,2.609333e-06,0.0017587617,0.041808363,-0.03358125,-0.03306474,0.0026888093,0.0,488.0305,0.41227108,3.571364,0.3946244,0.7461908,0.13785742,inf,inf,inf,inf,0,1,0,1,1,2,1,1,0,0,1,1,0,0,1
77292000,77292000,4392000,47.3977508,8.5456073,0.56863797,-0.43666494,0.11625152,-6.300118e-08,1.5656e-08,-0.042089757,0.18277644,-0.13633457,0.5727035,0.5894366,-1.0500196e-05,2.609333e-06,0.0017587617,-0.009375216,-0.0326399,0.30529124,0.0028726088,0.0,488.0305,0.1,3.6355298,0.37459835,0.76603395,0.12736171,inf,inf,inf,inf,0,1,0,1,1,2,1,1,0,0,1,1,0,0,1
77796000,77796000,4392000,47.3977508,8.5456073,0.5675995,-0.43531355,0.39247188,-6.300118e-08,1.5656e-08,-0.042089757,0.16889444,-0.12861393,0.886681,0.819922,-1.0500196e-05,2.609333e-06,0.0017587617,0.027927918,0.0283182,0.92285025,0.002837437,0.0,488.0305,0.1,3.7038758,0.37768593,0.78180265,0.12039855,inf,inf,inf,inf,0,1,0,1,1,2,1,1,0,0,1,1,0,0,1
78292000,78292000,4392000,47.3977508,8.5456073,0.55710113,-0.42676145,0.70369315,-6.300118e-08,1.5656e-08,-0.042089757,0.1594488,-0.12146868,1.1799439,0.9766205,-1.0500196e-05,2.609333e-06,0.0017587617,-0.004268557,-0.012365271,0.6576469,0.0028470377,0.0,488.0305,0.1,3.6443295,0.38019562,0.7781766,0.11633624,inf,inf,inf,inf,0,1,0,1,1,2,1,1,0,0,1,1,0,0,1
78788000,78788000,4392000,47.3977508,8.5456073,0.54429334,-0.41591078,1.0542805,-6.300118e-08,1.5656e-08,-0.042089757,0.14921914,-0.11157576,1.3815502,1.0423882,-1.0500196e-05,2.609333e-06,0.0017587617,-0.015078781,0.038150594,0.3072191,0.002980432,0.0,488.0305,0.1,3.708761,0.3817018,0.7914208,0.11475155,inf,inf,inf,inf,0,1,0,1,1,2,1,1,0,0,1,1,0,0,1
79292000,79292000,4392000,47.3977508,8.5456073,0.52613133,-0.40046257,1.378056,-6.300118e-08,1.5656e-08,-0.042089757,0.13201946,-0.092624284,1.4670573,0.9612052,-1.0500196e-05,2.609333e-06,0.0017587617,0.0022657912,0.035317954,0.33791175,0.002858561,0.0,488.0305,0.1,3.6523652,0.3574075,0.7878373,0.11108621,inf,inf,inf,inf,0,1,0,1,1,2,1,1,0,0,1,1,0,0,1
79796000,79796000,4392000,47.3977508,8.5456073,0.4981874,-0.36839274,1.8118943,-6.300118e-08,1.5656e-08,-0.042089757,0.12081022,-0.050229583,1.6970733,1.0899569,-1.0500196e-05,2.609333e-06,0.0017587617,0.14065562,-0.0884477,-3.1725976,0.0028102295,0.0,488.0305,0.1,3.722124,0.3605578,0.79631597,0.119611174,inf,inf,inf,inf,0,1,0,1,1,2,1,1,0,0,1,1,0,0,1
80292000,80292000,4392000,47.3977508,8.5456073,0.47517604,-0.33305562,2.1309488,-6.300118e-08,1.5656e-08,-0.042089757,0.10528952,-0.040953748,1.5824932,0.88899386,-1.0500196e-05,2.609333e-06,0.0017587617,-0.023941668,0.048556786,0.88668513,0.002476625,0.0,488.0305,0.1,3.788511,0.36184767,0.81477565,0.1152537,inf,inf,inf,inf,0,1,0,1,1,2,1,1,0,0,1,1,0,0,1
80788000,80788000,4392000,47.3977508,8.5456073,0.44150898,-0.2900741,2.470306,-6.300118e-08,1.5656e-08,-0.042089757,0.08623308,-0.016619278,1.8669276,1.0646707,-1.0500196e-05,2.609333e-06,0.0017587617,-0.034257796,0.0077568796,0.49384308,0.0025283727,0.0,488.0305,0.1,3.7220657,0.36524358,0.8042893,0.11268139,inf,inf,inf,inf,0,1,0,1,1,2,1,1,0,0,1,1,0,0,1
81292000,81292000,4392000,47.3977508,8.5456073,0.40323338,-0.24322626,2.7575634,-6.300118e-08,1.5656e-08,-0.042089757,0.06672993,0.005608479,2.0659053,1.0450196,-1.0500196e-05,2.609333e-06,0.0017587617,-0.021245314,-0.0014192191,0.65480167,0.002624484,0.0,488.0305,0.1,3.7913628,0.3456284,0.81350523,0.10830146,inf,inf,inf,inf,0,1,0,1,1,2,1,1,0,0,1,1,0,0,1
81788000,81788000,4392000,47.3977508,8.5456073,0.36325505,-0.19910844,3.125143,-6.300118e-08,1.5656e-08,-0.042089757,0.048578545,0.013647493,2.1980717,1.0362513,-1.0500196e-05,2.609333e-06,0.0017587617,-0.025349041,-0.014360549,0.56789905,0.002993455,0.0,488.0305,0.1,3.7199552,0.3494794,0.80243725,0.10964921,inf,inf,inf,inf,0,1,0,1,1,2,1,1,0,0,1,1,0,0,1
82292000,82292000,4392000,47.3977508,8.5456073,0.32067093,-0.16715166,3.4103916,-6.300118e-08,1.5656e-08,-0.042089757,0.04528968,-0.031919725,1.4845666,0.25394034,-1.0500196e-05,2.609333e-06,0.0017587617,-0.0015187105,-0.024340238,-9.313225e-05,0.002893842,0.0,488.0305,0.1,3.787121,0.3527305,0.81927276,0.11093821,inf,inf,inf,inf,0,1,0,1,1,2,1,1,0,0,1,1,0,0,1
82788000,82788000,4392000,47.3977508,8.5456073,0.28561887,-0.15959507,3.4481876,-6.300118e-08,1.5656e-08,-0.042089757,0.028661352,-0.038223956,1.336191,0.10269968,-1.0500196e-05,2.609333e-06,0.0017587617,-0.007932481,-0.023612132,-0.024117528,0.0026681414,0.0,488.0305,0.1,3.8512728,0.35711527,0.82932657,0.107443325,inf,inf,inf,inf,0,1,0,1,1,2,1,1,0,0,1,1,0,0,1
