timestamp,timestamp_sample,xyz[0],xyz[1],xyz[2]
3388000,3388000,-0.21187048,0.18441127,-9.9358015
3392000,3392000,-0.21143404,0.18844306,-9.932686
3440000,3440000,-0.21439074,0.20012856,-9.933153
3484000,3484000,-0.21700157,0.17069884,-9.939771
3536000,3536000,-0.19851598,0.22637805,-9.938759
3584000,3584000,-0.22189319,0.17780006,-9.912751
3636000,3636000,-0.19712141,0.18405832,-9.823313
3684000,3684000,-0.21331833,0.19765908,-9.824402
3740000,3740000,-0.20597224,0.2060354,-9.851505
3788000,3788000,-0.22638308,0.2140412,-9.8281145
3840000,3840000,-0.19430411,0.1966123,-9.802901
3884000,3884000,-0.20550297,0.18997222,-9.811304
3940000,3940000,-0.2184931,0.20424515,-9.80463
3988000,3988000,-0.20722046,0.19453056,-9.796941
4040000,4040000,-0.18042535,0.19997357,-9.813787
4088000,4088000,-0.20317085,0.18161254,-9.834858
4136000,4136000,-0.21723554,0.17357779,-9.816541
4184000,4184000,-0.21918836,0.19886357,-9.822332
4240000,4240000,-0.22191025,0.20318846,-9.812719
4288000,4288000,-0.21555887,0.17401156,-9.817234
4340000,4340000,-0.20185834,0.188743,-9.8022175
4388000,4388000,-0.19515948,0.20213914,-9.812417
4440000,4440000,-0.21725044,0.17102745,-9.813477
4488000,4488000,-0.21062273,0.17738858,-9.813804
4540000,4540000,-0.2140899,0.17614762,-9.807659
4588000,4588000,-0.17870623,0.19687207,-9.817554
4640000,4640000,-0.20821841,0.17087322,-9.832056
4688000,4688000,-0.22207533,0.20430698,-9.81709
4740000,4740000,-0.21500573,0.16655864,-9.809351
4784000,4784000,-0.20760423,0.18719669,-9.83133
4840000,4840000,-0.22389324,0.178925,-9.828793
4888000,4888000,-0.19414483,0.1772342,-9.804388
4940000,4940000,-0.22201183,0.17698324,-9.815863
4988000,4988000,-0.18598433,0.17735325,-9.797091
5036000,5036000,-0.19459137,0.18331918,-9.796501
5088000,5088000,-0.21918869,0.18953146,-9.811781
5140000,5140000,-0.20935795,0.19709334,-9.791285
5184000,5184000,-0.1894595,0.1789712,-9.817185
5240000,5240000,-0.18643709,0.16999781,-9.849424
5288000,5288000,-0.21631697,0.19169864,-9.770205
5340000,5340000,-0.20510949,0.19787194,-9.826375
5388000,5388000,-0.21443623,0.18803498,-9.780443
5440000,5440000,-0.21197301,0.18070158,-9.80631
5488000,5488000,-0.21532853,0.17119186,-9.815926
5540000,5540000,-0.22207205,0.18891025,-9.814232
5588000,5588000,-0.24886541,0.18933588,-9.815205
5640000,5640000,-0.18816128,0.15766416,-9.808777
5688000,5688000,-0.19142622,0.18219537,-9.81885
5740000,5740000,-0.20863347,0.18366879,-9.801611
5788000,5788000,-0.21130683,0.18774678,-9.81428
5840000,5840000,-0.22337097,0.20024882,-9.829315
5888000,5888000,-0.20874111,0.18086202,-9.812442
5940000,5940000,-0.20155485,0.16373476,-9.806272
5988000,5988000,-0.20306784,0.18889832,-9.796141
6040000,6040000,-0.21160592,0.17512372,-9.799671
6088000,6088000,-0.22409746,0.18206221,-9.825466
6140000,6140000,-0.1841543,0.19000173,-9.788427
6184000,6184000,-0.20788392,0.1863748,-9.803232
6240000,6240000,-0.20315765,0.17482308,-9.81487
6288000,6288000,-0.21313961,0.16117005,-9.800673
6340000,6340000,-0.21460241,0.17684469,-9.798064
6388000,6388000,-0.22040647,0.17385979,-9.822492
6436000,6436000,-0.24669273,0.18281731,-9.812414
6488000,6488000,-0.22302893,0.17191261,-9.7950325
6540000,6540000,-0.22307287,0.17321873,-9.794233
6588000,6588000,-0.20864607,0.15773164,-9.79817
6640000,6640000,-0.22779231,0.18424518,-9.8048525
6688000,6688000,-0.22420432,0.16038188,-9.784577
6740000,6740000,-0.20446435,0.18209079,-9.809105
6788000,6788000,-0.2137707,0.19225542,-9.808016
6840000,6840000,-0.21774185,0.17777479,-9.813476
6888000,6888000,-0.21958837,0.18627729,-9.783428
6940000,6940000,-0.20520172,0.14951532,-9.801096
6988000,6988000,-0.20500498,0.17918679,-9.76018
7040000,7040000,-0.2134246,0.19688788,-9.7824745
7088000,7088000,-0.21493986,0.18830848,-9.82385
7140000,7140000,-0.1915802,0.1826837,-9.786629
7184000,7184000,-0.19274181,0.18531436,-9.792896
7240000,7240000,-0.20208463,0.18932533,-9.786915
7288000,7288000,-0.22362961,0.1783089,-9.793844
7340000,7340000,-0.2006078,0.14551459,-9.802375
7388000,7388000,-0.18368366,0.20025817,-9.816664
7440000,7440000,-0.2057839,0.20002954,-9.789543
7488000,7488000,-0.2105792,0.19010954,-9.790558
7540000,7540000,-0.19770446,0.18273035,-9.771902
7588000,7588000,-0.20432238,0.16151841,-9.8165045
7640000,7640000,-0.19438568,0.15649302,-9.783311
7688000,7688000,-0.20622867,0.19022936,-9.761307
7740000,7740000,-0.22703129,0.18499653,-9.809098
7788000,7788000,-0.21989909,0.17959334,-9.816446
7840000,7840000,-0.21544161,0.18654987,-9.810361
7888000,7888000,-0.22513688,0.18017945,-9.78554
7940000,7940000,-0.209685,0.19627847,-9.800129
7988000,7988000,-0.21768595,0.18209678,-9.812933
8040000,8040000,-0.19902115,0.16888027,-9.790932
8088000,8088000,-0.19910437,0.17460528,-9.793755
8140000,8140000,-0.22142506,0.18262516,-9.787573
8188000,8188000,-0.19955595,0.19419293,-9.811533
8240000,8240000,-0.21337628,0.18754295,-9.80342
8288000,8288000,-0.20342964,0.18083404,-9.79515
8340000,8340000,-0.21387047,0.1668614,-9.832672
8384000,8384000,-0.21093346,0.2011003,-9.831862
8440000,8440000,-0.20226629,0.16765222,-9.796304
8484000,8484000,-0.19704756,0.18668908,-9.8159075
8540000,8540000,-0.21372232,0.1862429,-9.809782
8588000,8588000,-0.19535369,0.16465057,-9.775578
8636000,8636000,-0.21245217,0.16446872,-9.792958
8684000,8684000,-0.19678614,0.16114312,-9.803898
8736000,8736000,-0.18928178,0.1739293,-9.804266
8788000,8788000,-0.1808411,0.16867855,-9.788747
8840000,8840000,-0.19822982,0.1633164,-9.804192
8888000,8888000,-0.20956597,0.1555031,-9.795252
8936000,8936000,-0.21338369,0.17653795,-9.81033
8984000,8984000,-0.16603523,0.16539055,-9.803515
9040000,9040000,-0.21375391,0.17119306,-9.793527
9088000,9088000,-0.2074264,0.15162973,-9.807261
9140000,9140000,-0.18709105,0.19503912,-9.785227
9188000,9188000,-0.1969736,0.18623362,-9.785526
9236000,9236000,-0.19140618,0.16314274,-9.811018
9288000,9288000,-0.19963247,0.19024703,-9.7885065
9340000,9340000,-0.20572782,0.20889351,-9.804684
9388000,9388000,-0.2084793,0.1679462,-9.826155
9440000,9440000,-0.18989618,0.14973854,-9.783882
9488000,9488000,-0.19787824,0.20324628,-9.830872
9540000,9540000,-0.21027589,0.20103852,-9.8021755
9588000,9588000,-0.15645783,0.18052481,-9.801663
9640000,9640000,-0.18178615,0.19739136,-9.793016
9688000,9688000,-0.1780738,0.1646908,-9.787001
9736000,9736000,-0.17782173,0.1820322,-9.792752
9788000,9788000,-0.18842714,0.1849783,-9.787345
9840000,9840000,-0.18758468,0.17889366,-9.824058
9888000,9888000,-0.19122893,0.19744481,-9.781376
9940000,9940000,-0.19121312,0.16670792,-9.794428
9984000,9984000,-0.16309276,0.1723528,-9.80932
10040000,10040000,-0.20649523,0.15881926,-9.80809
10084000,10084000,-0.22972614,0.17805871,-9.795145
10136000,10136000,-0.19932154,0.1553157,-9.806709
10184000,10184000,-0.20580277,0.18738829,-9.791567
10236000,10236000,-0.19372311,0.16726549,-9.767338
10288000,10288000,-0.18964931,0.15376155,-9.777585
10340000,10340000,-0.1863605,0.15972754,-9.804342
10388000,10388000,-0.20639002,0.17076911,-9.805905
10436000,10436000,-0.19301827,0.16729781,-9.791784
10488000,10488000,-0.18525603,0.1646724,-9.827699
10540000,10540000,-0.20026882,0.16630727,-9.802281
10588000,10588000,-0.20433068,0.17112279,-9.777227
10640000,10640000,-0.20695473,0.18752238,-9.793824
10688000,10688000,-0.16198516,0.16407585,-9.805757
10736000,10736000,-0.18364692,0.14828229,-9.807414
10788000,10788000,-0.1948006,0.17908747,-9.800722
10836000,10836000,-0.18369856,0.17552134,-9.775715
10888000,10888000,-0.19965886,0.15910092,-9.776016
10940000,10940000,-0.1904496,0.1539897,-9.779558
10988000,10988000,-0.1860666,0.17895971,-9.798525
11040000,11040000,-0.20772511,0.18359166,-9.786937
11084000,11084000,-0.19772601,0.13896519,-9.807482
11140000,11140000,-0.21176818,0.16022557,-9.785843
11188000,11188000,-0.1760538,0.17152803,-9.790903
11240000,11240000,-0.20190357,0.16100603,-9.789224
11284000,11284000,-0.1888158,0.15927997,-9.799576
11336000,11336000,-0.20853183,0.16080695,-9.779212
11384000,11384000,-0.22535673,0.15460457,-9.778551
11436000,11436000,-0.19717324,0.15448068,-9.795753
11484000,11484000,-0.20301346,0.18042505,-9.793614
11536000,11536000,-0.22677548,0.16605051,-9.767376
11584000,11584000,-0.16892602,0.18394306,-9.763066
11640000,11640000,-0.18941635,0.15218922,-9.775771
11688000,11688000,-0.18574268,0.16255261,-9.768931
11740000,11740000,-0.21174665,0.14143665,-9.778989
11788000,11788000,-0.19435278,0.1773226,-9.816161
11840000,11840000,-0.1854068,0.16430081,-9.805203
11888000,11888000,-0.19454691,0.16222206,-9.787967
11940000,11940000,-0.21050686,0.17273465,-9.797245
11988000,11988000,-0.18733385,0.17242199,-9.784887
12040000,12040000,-0.19904977,0.1654618,-9.823277
12088000,12088000,-0.19869736,0.18336612,-9.804705
12140000,12140000,-0.21889643,0.13546374,-9.78094
12188000,12188000,-0.18831845,0.17027044,-9.787049
12240000,12240000,-0.1975596,0.15821686,-9.812175
12288000,12288000,-0.20871317,0.14662258,-9.780507
12340000,12340000,-0.19001037,0.16255733,-9.795942
12388000,12388000,-0.20273437,0.14741531,-9.797482
12440000,12440000,-0.19977865,0.1712355,-9.807468
12488000,12488000,-0.18589175,0.15005639,-9.774658
12540000,12540000,-0.19605191,0.17401457,-9.799081
12588000,12588000,-0.16852619,0.16835773,-9.774928
12640000,12640000,-0.17113528,0.2059623,-9.801538
12684000,12684000,-0.18226299,0.19241375,-9.803859
12736000,12736000,-0.22020331,0.18122154,-9.784571
12788000,12788000,-0.16652879,0.18452899,-9.7928705
12840000,12840000,-0.19340102,0.1595492,-9.793594
12888000,12888000,-0.18809277,0.16788918,-9.77372
12940000,12940000,-0.20971951,0.12963776,-9.769172
12988000,12988000,-0.20254387,0.15039268,-9.793549
13040000,13040000,-0.20595133,0.1792177,-9.813942
13088000,13088000,-0.21202248,0.1625543,-9.817863
13136000,13136000,-0.21105626,0.1818107,-9.830784
13188000,13188000,-0.19122706,0.11742483,-9.803047
13240000,13240000,-0.16811356,0.1706484,-9.766408
13288000,13288000,-0.18777488,0.1561211,-9.782637
13340000,13340000,-0.18579371,0.15667394,-9.782194
13388000,13388000,-0.19223434,0.16493654,-9.804111
13440000,13440000,-0.17639452,0.17038947,-9.793766
13488000,13488000,-0.17386246,0.16165122,-9.76428
13540000,13540000,-0.19620277,0.16510099,-9.814302
13588000,13588000,-0.16200289,0.17575988,-9.821971
13640000,13640000,-0.19478239,0.16651858,-9.776964
13684000,13684000,-0.18608591,0.15787768,-9.8036375
13736000,13736000,-0.18583311,0.15280418,-9.802973
13788000,13788000,-0.17757706,0.15386456,-9.784243
13840000,13840000,-0.20704544,0.15534453,-9.755857
13888000,13888000,-0.20741387,0.16808093,-9.788926
13940000,13940000,-0.19328536,0.15086114,-9.80789
13988000,13988000,-0.1907126,0.1510624,-9.834088
14040000,14040000,-0.17465921,0.16738537,-9.770392
14084000,14084000,-0.18348262,0.16476147,-9.794867
14136000,14136000,-0.19474271,0.164527,-9.776272
14184000,14184000,-0.17228782,0.17583206,-9.786663
14236000,14236000,-0.18214634,0.15323633,-9.796878
14284000,14284000,-0.15254503,0.13835242,-9.8027
14340000,14340000,-0.17425868,0.15891363,-9.775974
14388000,14388000,-0.18106237,0.14311877,-9.783877
14440000,14440000,-0.17402214,0.1708908,-9.788933
14488000,14488000,-0.19254765,0.15706913,-9.810323
14540000,14540000,-0.18113068,0.16717893,-9.803411
14588000,14588000,-0.20236301,0.18591323,-9.789574
14640000,14640000,-0.1678865,0.15094608,-9.780701
14688000,14688000,-0.15328991,0.18355356,-9.796526
14740000,14740000,-0.19492348,0.17312658,-9.800158
14788000,14788000,-0.17225131,0.1485473,-9.824092
14840000,14840000,-0.19113334,0.17089616,-9.825805
14888000,14888000,-0.17521292,0.17755592,-9.768031
14940000,14940000,-0.19010368,0.17876768,-9.782186
14988000,14988000,-0.16391262,0.14758974,-9.821066
15040000,15040000,-0.15074715,0.19387901,-9.790162
15088000,15088000,-0.19740453,0.14845634,-9.793745
15140000,15140000,-0.18610048,0.19117336,-9.785865
15188000,15188000,-0.17830727,0.15451948,-9.787646
15236000,15236000,-0.16049604,0.16198763,-9.764485
15288000,15288000,-0.16752855,0.1490377,-9.811836
15340000,15340000,-0.18015325,0.17149605,-9.786289
15388000,15388000,-0.18540898,0.14474666,-9.832554
15440000,15440000,-0.16017346,0.14007552,-9.799597
15488000,15488000,-0.18021196,0.16966444,-9.793513
15540000,15540000,-0.16325966,0.16449662,-9.786671
15588000,15588000,-0.17242914,0.14921103,-9.784401
15640000,15640000,-0.16716562,0.15658386,-9.786291
15688000,15688000,-0.16905843,0.15400831,-9.800469
15740000,15740000,-0.18656494,0.13001394,-9.7828865
15788000,15788000,-0.20242049,0.17655471,-9.755898
15840000,15840000,-0.17289156,0.16668697,-9.794151
15888000,15888000,-0.16988304,0.17249356,-9.775341
15940000,15940000,-0.18356247,0.16673177,-9.7836895
15988000,15988000,-0.12771465,0.15751666,-9.806324
16040000,16040000,-0.18819898,0.12928416,-9.7858715
16088000,16088000,-0.15583105,0.13600601,-9.799139
16140000,16140000,-0.18488166,0.167921,-9.769375
16184000,16184000,-0.15067674,0.16769491,-9.802994
16236000,16236000,-0.17008129,0.15344982,-9.781477
16284000,16284000,-0.16200152,0.13930449,-9.809354
16340000,16340000,-0.15498273,0.16139857,-9.805268
16388000,16388000,-0.17170717,0.14679359,-9.787295
16440000,16440000,-0.15610301,0.13604285,-9.797037
16488000,16488000,-0.16776744,0.14315003,-9.794056
16540000,16540000,-0.19295625,0.14714953,-9.741673
16588000,16588000,-0.1747418,0.14045145,-9.791635
16640000,16640000,-0.16463318,0.16191396,-9.763046
16688000,16688000,-0.17519623,0.17478195,-9.779266
16736000,16736000,-0.17797834,0.1651015,-9.784108
16788000,16788000,-0.18864104,0.15129347,-9.7907505
16840000,16840000,-0.19054037,0.14402881,-9.768695
16888000,16888000,-0.1725482,0.1398894,-9.797911
16940000,16940000,-0.1656269,0.1277096,-9.801288
16984000,16984000,-0.18586624,0.15918164,-9.778069
17040000,17040000,-0.1495218,0.14705206,-9.791971
17088000,17088000,-0.16921562,0.17471293,-9.806248
17140000,17140000,-0.16578919,0.16477187,-9.799
17188000,17188000,-0.16321427,0.13466871,-9.792446
17236000,17236000,-0.15181567,0.12934412,-9.782446
17284000,17284000,-0.1832962,0.15589239,-9.80297
17336000,17336000,-0.14575572,0.12237616,-9.788905
17388000,17388000,-0.15645629,0.14283144,-9.779791
17440000,17440000,-0.1761446,0.1560211,-9.803772
17484000,17484000,-0.18231472,0.15082577,-9.804009
17536000,17536000,-0.18267494,0.17319861,-9.787681
17588000,17588000,-0.16173287,0.15134563,-9.778678
17640000,17640000,-0.17699775,0.17119387,-9.77817
17684000,17684000,-0.17226395,0.14840502,-9.824937
17740000,17740000,-0.17373113,0.17092916,-9.813773
17788000,17788000,-0.18110782,0.15708469,-9.794901
17840000,17840000,-0.17222948,0.17235667,-9.796605
17888000,17888000,-0.17402396,0.17790562,-9.797092
17940000,17940000,-0.17419448,0.14598803,-9.786829
17988000,17988000,-0.15875943,0.15075469,-9.786505
18040000,18040000,-0.19540972,0.14472127,-9.76079
18088000,18088000,-0.16650575,0.16041553,-9.789061
18136000,18136000,-0.15718864,0.15235576,-9.772396
18188000,18188000,-0.14485152,0.16124813,-9.792478
18240000,18240000,-0.14844893,0.16377074,-9.763153
18288000,18288000,-0.1652419,0.13855557,-9.765621
18340000,18340000,-0.16075876,0.12938137,-9.789782
18388000,18388000,-0.15889278,0.14459786,-9.782528
18440000,18440000,-0.15907302,0.13682866,-9.776058
18488000,18488000,-0.149662,0.16665834,-9.810419
18540000,18540000,-0.16061841,0.16285744,-9.772545
18588000,18588000,-0.1429839,0.14903285,-9.79151
18640000,18640000,-0.1657368,0.1615444,-9.795521
18688000,18688000,-0.1589965,0.12810265,-9.782743
18740000,18740000,-0.14336416,0.14878584,-9.78257
18788000,18788000,-0.15778676,0.13808894,-9.799536
18840000,18840000,-0.1384846,0.1416044,-9.782326
18888000,18888000,-0.17191494,0.121473774,-9.777376
18940000,18940000,-0.16380414,0.14480859,-9.7802925
18984000,18984000,-0.17447165,0.12538557,-9.778933
19036000,19036000,-0.17738587,0.14623916,-9.787839
19084000,19084000,-0.17654733,0.11268465,-9.782636
19140000,19140000,-0.1885617,0.15455961,-9.800547
19188000,19188000,-0.16602582,0.12107474,-9.767405
19240000,19240000,-0.17928241,0.15621051,-9.8314495
19288000,19288000,-0.16477364,0.12905204,-9.790173
19340000,19340000,-0.146764,0.14322777,-9.793947
19388000,19388000,-0.16266492,0.14112812,-9.776275
19436000,19436000,-0.15989664,0.14398707,-9.793303
19488000,19488000,-0.14608881,0.14448196,-9.799626
19540000,19540000,-0.14686793,0.11515185,-9.815061
19588000,19588000,-0.17264907,0.1648843,-9.833744
19640000,19640000,-0.14901516,0.16645417,-9.7868185
19688000,19688000,-0.152813,0.14490704,-9.788036
19740000,19740000,-0.123969235,0.15668505,-9.797039
19788000,19788000,-0.1609739,0.15547132,-9.770783
19840000,19840000,-0.17160502,0.15630755,-9.761301
19888000,19888000,-0.13021976,0.138398,-9.802906
19936000,19936000,-0.14166196,0.14840093,-9.800587
19988000,19988000,-0.15462701,0.15722972,-9.790697
20040000,20040000,-0.16242567,0.14726698,-9.804299
20084000,20084000,-0.1722478,0.141292,-9.7860985
20136000,20136000,-0.13870561,0.15800376,-9.782684
20188000,20188000,-0.15921444,0.15763547,-9.757932
20240000,20240000,-0.15952657,0.1611428,-9.812084
20288000,20288000,-0.17375214,0.15836275,-9.779376
20340000,20340000,-0.1500825,0.15298072,-9.781718
20388000,20388000,-0.15445773,0.15646473,-9.783027
20440000,20440000,-0.17574672,0.14395002,-9.778332
20488000,20488000,-0.13855858,0.14726543,-9.798058
20540000,20540000,-0.19703262,0.1675071,-9.81257
20588000,20588000,-0.15796119,0.15157127,-9.787365
20640000,20640000,-0.13946652,0.12929922,-9.813805
20688000,20688000,-0.16411743,0.13896,-9.78349
20740000,20740000,-0.165043,0.14508337,-9.795299
20788000,20788000,-0.17846937,0.15090558,-9.760558
20840000,20840000,-0.15249105,0.15901974,-9.77934
20888000,20888000,-0.15920627,0.16814566,-9.792285
20940000,20940000,-0.14970592,0.14629154,-9.812227
20988000,20988000,-0.17894031,0.16469672,-9.771405
21040000,21040000,-0.14493676,0.15036587,-9.754431
21088000,21088000,-0.17379053,0.1374229,-9.785233
21140000,21140000,-0.1576545,0.14633957,-9.765248
21188000,21188000,-0.16708854,0.15795241,-9.80142
21240000,21240000,-0.17438051,0.12515377,-9.781627
21284000,21284000,-0.14912596,0.12666771,-9.779272
21340000,21340000,-0.16964501,0.14969394,-9.805865
21388000,21388000,-0.16742298,0.15701357,-9.786732
21440000,21440000,-0.17666246,0.1577135,-9.818598
21488000,21488000,-0.16622727,0.15835838,-9.791964
21540000,21540000,-0.15665743,0.15760024,-9.810654
21588000,21588000,-0.14961076,0.12470433,-9.767896
21640000,21640000,-0.15499431,0.13716808,-9.8177395
21684000,21684000,-0.1585404,0.15981226,-9.805133
21736000,21736000,-0.15765814,0.13300514,-9.793672
21788000,21788000,-0.1650922,0.1370584,-9.797029
21840000,21840000,-0.14257179,0.15987748,-9.780579
21888000,21888000,-0.15195233,0.158011,-9.792748
21940000,21940000,-0.18276176,0.1534126,-9.809385
21988000,21988000,-0.19221452,0.14100802,-9.803156
22040000,22040000,-0.1657831,0.1501501,-9.782948
22088000,22088000,-0.1577873,0.1524322,-9.792772
22140000,22140000,-0.18329145,0.1451092,-9.800662
22184000,22184000,-0.16316736,0.14546818,-9.788073
22236000,22236000,-0.18057102,0.16513708,-9.79916
22284000,22284000,-0.12630972,0.13080628,-9.789297
22340000,22340000,-0.16523626,0.16000839,-9.78676
22384000,22384000,-0.18634394,0.15288934,-9.769347
22440000,22440000,-0.19471632,0.15169704,-9.775712
22488000,22488000,-0.15069461,0.13245365,-9.770685
22540000,22540000,-0.16719407,0.14941846,-9.78612
22584000,22584000,-0.16406202,0.13971967,-9.808826
22636000,22636000,-0.14305402,0.1502087,-9.80719
22688000,22688000,-0.18243508,0.14597014,-9.783079
22740000,22740000,-0.18951061,0.14318576,-9.768591
22788000,22788000,-0.16721909,0.15104532,-9.797807
22840000,22840000,-0.15606019,0.11713278,-9.7756
22888000,22888000,-0.14644657,0.1573667,-9.782297
22940000,22940000,-0.13934478,0.12552817,-9.786348
22988000,22988000,-0.1255096,0.14864072,-9.766222
23040000,23040000,-0.16149285,0.14924067,-9.782398
23088000,23088000,-0.19243035,0.13591258,-9.766369
23140000,23140000,-0.15644652,0.11898768,-9.783889
23188000,23188000,-0.14614888,0.12033404,-9.801478
23240000,23240000,-0.15956569,0.13297676,-9.775279
23288000,23288000,-0.17012192,0.15201741,-9.764728
23340000,23340000,-0.17121077,0.16304888,-9.79774
23388000,23388000,-0.17787322,0.15249953,-9.777276
23440000,23440000,-0.14958236,0.13986777,-9.7667055
23488000,23488000,-0.16109043,0.14066905,-9.804841
23540000,23540000,-0.16081443,0.1430415,-9.790867
23588000,23588000,-0.16150072,0.14682707,-9.761447
23640000,23640000,-0.1577266,0.157801,-9.80187
23688000,23688000,-0.16052505,0.120161645,-9.801933
23736000,23736000,-0.17442861,0.13154766,-9.804207
23788000,23788000,-0.13056573,0.15039006,-9.778416
23840000,23840000,-0.15802795,0.13640238,-9.783923
23888000,23888000,-0.11436855,0.12611651,-9.793996
23940000,23940000,-0.16001281,0.14972384,-9.778338
23988000,23988000,-0.14366868,0.12636581,-9.781382
24040000,24040000,-0.16010073,0.15449525,-9.797657
24088000,24088000,-0.15137078,0.120199904,-9.778574
24136000,24136000,-0.14043094,0.1285448,-9.793295
24188000,24188000,-0.18206365,0.13156122,-9.790767
24240000,24240000,-0.16705543,0.123420045,-9.797555
24288000,24288000,-0.15512261,0.13199127,-9.7701025
24340000,24340000,-0.18131101,0.12284373,-9.790491
24388000,24388000,-0.17646529,0.16349131,-9.7934265
24440000,24440000,-0.14859064,0.13247803,-9.77581
24488000,24488000,-0.1481099,0.14233899,-9.785932
24540000,24540000,-0.16537994,0.14289628,-9.799037
24588000,24588000,-0.16539271,0.112952426,-9.786507
24640000,24640000,-0.14561954,0.13096017,-9.774699
24688000,24688000,-0.16098382,0.13553967,-9.783388
24740000,24740000,-0.16689551,0.1031285,-9.791628
24788000,24788000,-0.17724693,0.13613003,-9.775188
24840000,24840000,-0.15384759,0.14746496,-9.811929
24888000,24888000,-0.14104909,0.15068007,-9.771651
24940000,24940000,-0.15728761,0.1481244,-9.786186
24988000,24988000,-0.142243,0.13567245,-9.756442
25040000,25040000,-0.14548042,0.11521762,-9.774457
25088000,25088000,-0.1776636,0.12876713,-9.78068
25140000,25140000,-0.16378053,0.13834508,-9.784789
25188000,25188000,-0.16584204,0.14825441,-9.779282
25240000,25240000,-0.16132236,0.14104056,-9.75771
25284000,25284000,-0.14379543,0.1521697,-9.777121
25340000,25340000,-0.17261282,0.14364132,-9.768045
25388000,25388000,-0.15190595,0.14909877,-9.808427
25440000,25440000,-0.15692855,0.14220546,-9.791447
25488000,25488000,-0.19226132,0.13957019,-9.797903
25536000,25536000,-0.15265748,0.12860896,-9.799913
25584000,25584000,-0.19125167,0.15256026,-9.778797
25636000,25636000,-0.16286075,0.15235364,-9.774923
25684000,25684000,-0.1409745,0.13993672,-9.762041
25736000,25736000,-0.15781331,0.14676455,-9.793765
25788000,25788000,-0.1684561,0.14166513,-9.78466
25840000,25840000,-0.1523467,0.16931336,-9.819254
25888000,25888000,-0.196028,0.15091899,-9.798814
25940000,25940000,-0.15086885,0.15165225,-9.799879
25988000,25988000,-0.16957715,0.14978299,-9.761489
26040000,26040000,-0.18030852,0.13273248,-9.77556
26088000,26088000,-0.18343541,0.1624591,-9.781185
26140000,26140000,-0.17575383,0.15189275,-9.767438
26188000,26188000,-0.17349476,0.16554564,-9.773039
26240000,26240000,-0.17940907,0.18054938,-9.779269
26288000,26288000,-0.1421818,0.14087534,-9.792183
26340000,26340000,-0.18529397,0.15149161,-9.798691
26388000,26388000,-0.18161619,0.14714211,-9.780256
26440000,26440000,-0.16136119,0.14017317,-9.774567
26488000,26488000,-0.17879754,0.13257545,-9.794849
26540000,26540000,-0.1624158,0.13882832,-9.757804
26588000,26588000,-0.17121357,0.13473234,-9.770854
26640000,26640000,-0.19012782,0.13724306,-9.782845
26688000,26688000,-0.16188917,0.15165806,-9.778475
26740000,26740000,-0.17770721,0.1513021,-9.761938
26788000,26788000,-0.16147755,0.14682183,-9.765663
26840000,26840000,-0.16201974,0.16744877,-9.760826
26884000,26884000,-0.13682255,0.1517023,-9.773633
26940000,26940000,-0.18823285,0.15680422,-9.812778
26984000,26984000,-0.16908549,0.1514152,-9.753674
27040000,27040000,-0.1702283,0.17227638,-9.777757
27088000,27088000,-0.16058934,0.13515642,-9.812679
27140000,27140000,-0.18156947,0.19313486,-9.791397
27188000,27188000,-0.16227333,0.14864418,-9.760145
27240000,27240000,-0.15556736,0.15883765,-9.740571
27288000,27288000,-0.13513982,0.13431552,-9.755685
27340000,27340000,-0.16636774,0.18027914,-9.774279
27384000,27384000,-0.1571742,0.15763086,-9.781829
27440000,27440000,-0.17444776,0.18351519,-9.772413
27484000,27484000,-0.18934128,0.14724125,-9.760299
27536000,27536000,-0.19487418,0.16411643,-9.767735
27584000,27584000,-0.16483177,0.14305463,-9.782225
27636000,27636000,-0.18500952,0.1277033,-9.757509
27688000,27688000,-0.19614547,0.1608466,-9.767544
27740000,27740000,-0.17886053,0.16884315,-9.769846
27784000,27784000,-0.18374394,0.1480832,-9.766157
27840000,27840000,-0.15801516,0.17701179,-9.756864
27888000,27888000,-0.18168966,0.16751206,-9.783812
27940000,27940000,-0.15636563,0.14922996,-9.779772
27984000,27984000,-0.17659563,0.15169668,-9.771029
28040000,28040000,-0.16120914,0.16242996,-9.782632
28088000,28088000,-0.16031738,0.13982028,-9.783663
28136000,28136000,-0.1876348,0.15869224,-9.791069
28188000,28188000,-0.16850917,0.16406207,-9.769017
28240000,28240000,-0.1718174,0.18638407,-9.778815
28288000,28288000,-0.15088291,0.16679186,-9.759774
28340000,28340000,-0.17649506,0.16802128,-9.780206
28388000,28388000,-0.15985303,0.14550337,-9.767022
28440000,28440000,-0.19757828,0.16434851,-9.760976
28488000,28488000,-0.17717664,0.13781267,-9.770403
28540000,28540000,-0.2039429,0.13259134,-9.768738
28588000,28588000,-0.2009806,0.14431173,-9.813848
28640000,28640000,-0.17092395,0.16471842,-9.803942
28688000,28688000,-0.16466814,0.16544218,-9.765633
28740000,28740000,-0.16589811,0.17073323,-9.767936
28788000,28788000,-0.17379257,0.14998493,-9.7769575
28840000,28840000,-0.19752344,0.16791415,-9.775806
28888000,28888000,-0.18696718,0.14097422,-9.779469
28940000,28940000,-0.17368552,0.17304286,-9.750922
28984000,28984000,-0.18483151,0.15719384,-9.75469
29036000,29036000,-0.15554498,0.14471698,-9.773837
29084000,29084000,-0.1820268,0.19096789,-9.732024
29140000,29140000,-0.18427062,0.13717803,-9.786304
29188000,29188000,-0.18835892,0.1528027,-9.7431755
29240000,29240000,-0.142005,0.1450816,-9.792336
29288000,29288000,-0.16466016,0.1319564,-9.794267
29340000,29340000,-0.1996648,0.16429666,-9.771507
29388000,29388000,-0.19677469,0.11322116,-9.778533
29436000,29436000,-0.1812712,0.14830792,-9.787296
29488000,29488000,-0.14572571,0.15356447,-9.762345
29540000,29540000,-0.16990332,0.15309325,-9.745985
29588000,29588000,-0.16466092,0.15956113,-9.796173
29636000,29636000,-0.17098811,0.12937327,-9.779936
29688000,29688000,-0.17661537,0.14501779,-9.780504
29740000,29740000,-0.20210925,0.13779444,-9.78627
29784000,29784000,-0.18083698,0.13300715,-9.780583
29836000,29836000,-0.22087157,0.12016605,-9.781124
29888000,29888000,-0.17886102,0.14518523,-9.77415
29940000,29940000,-0.18376783,0.14805749,-9.797625
29988000,29988000,-0.19777127,0.13634042,-9.7786255
30040000,30040000,-0.17530814,0.14773121,-9.771353
30088000,30088000,-0.21653546,0.14741556,-9.794695
30140000,30140000,-0.16851887,0.13040207,-9.756454
30188000,30188000,-0.19569664,0.16020353,-9.773069
30240000,30240000,-0.1735197,0.13319054,-9.794301
30288000,30288000,-0.19065875,0.1302581,-9.783769
30340000,30340000,-0.18193415,0.12695825,-9.797042
30388000,30388000,-0.16088381,0.12685782,-9.792898
30440000,30440000,-0.16329828,0.15354636,-9.790424
30488000,30488000,-0.17422342,0.14770874,-9.775658
30540000,30540000,-0.18192855,0.12004303,-9.782283
30588000,30588000,-0.18638438,0.13716465,-9.776474
30636000,30636000,-0.1620114,0.14329848,-9.784729
30688000,30688000,-0.18262027,0.1360173,-9.770245
30740000,30740000,-0.16917495,0.14549986,-9.776736
30788000,30788000,-0.17643657,0.14027902,-9.774561
30840000,30840000,-0.1648558,0.14932306,-9.791243
30888000,30888000,-0.1817359,0.12387891,-9.79106
30940000,30940000,-0.1790014,0.13540834,-9.778903
30988000,30988000,-0.18218386,0.15750551,-9.776296
31040000,31040000,-0.17233938,0.13346285,-9.7770405
31088000,31088000,-0.19779325,0.12215975,-9.7818985
31140000,31140000,-0.16751915,0.17522085,-9.768614
31188000,31188000,-0.17890702,0.13424169,-9.770465
31240000,31240000,-0.15553494,0.15210016,-9.76362
31288000,31288000,-0.1841328,0.14925346,-9.782721
31340000,31340000,-0.19910684,0.11984363,-9.773216
31384000,31384000,-0.18918347,0.16166864,-9.781063
31440000,31440000,-0.19460371,0.14234018,-9.777197
31484000,31484000,-0.20240632,0.119910836,-9.772107
31540000,31540000,-0.18693924,0.13523355,-9.789204
31584000,31584000,-0.18606555,0.14618918,-9.768583
31640000,31640000,-0.18825375,0.14029345,-9.797271
31684000,31684000,-0.18343654,0.113731936,-9.802568
31740000,31740000,-0.19715302,0.14466801,-9.7727165
31788000,31788000,-0.1809578,0.13692538,-9.795216
31840000,31840000,-0.17928895,0.15386027,-9.7889185
31888000,31888000,-0.17921187,0.1622727,-9.770685
31936000,31936000,-0.16004537,0.13546443,-9.7768955
31988000,31988000,-0.19789937,0.14062817,-9.7801895
32040000,32040000,-0.20149149,0.13109872,-9.787678
32088000,32088000,-0.17185986,0.12590015,-9.77869
32140000,32140000,-0.17004582,0.120439835,-9.780468
32188000,32188000,-0.19315353,0.14037946,-9.778115
32240000,32240000,-0.19449374,0.1439579,-9.773276
32288000,32288000,-0.19992304,0.13671732,-9.777325
32340000,32340000,-0.18807,0.14919966,-9.810506
32388000,32388000,-0.16578422,0.12929969,-9.775805
32440000,32440000,-0.20139277,0.13412204,-9.7530575
32488000,32488000,-0.17008388,0.110747844,-9.791548
32540000,32540000,-0.17399737,0.12667361,-9.775959
32588000,32588000,-0.19670752,0.11203373,-9.787881
32640000,32640000,-0.18563208,0.15159522,-9.782959
32688000,32688000,-0.18632428,0.12068237,-9.777529
32740000,32740000,-0.18701525,0.14025013,-9.804462
32788000,32788000,-0.17564587,0.12928832,-9.788345
32840000,32840000,-0.18440157,0.15988979,-9.764089
32888000,32888000,-0.19481748,0.12343797,-9.797427
32940000,32940000,-0.14399517,0.11951478,-9.783691
32988000,32988000,-0.18088347,0.14004627,-9.760374
33040000,33040000,-0.19619991,0.13057746,-9.758634
33088000,33088000,-0.16100352,0.12034293,-9.777628
33140000,33140000,-0.18705603,0.16768467,-9.798939
33188000,33188000,-0.18399087,0.13776362,-9.7854595
33236000,33236000,-0.19646358,0.12952289,-9.781769
33284000,33284000,-0.19469275,0.13532177,-9.798145
33340000,33340000,-0.21524172,0.1230136,-9.800807
33388000,33388000,-0.19345427,0.17878905,-9.805491
33440000,33440000,-0.19828448,0.13622695,-9.777399
33488000,33488000,-0.1852463,0.123274006,-9.799547
33540000,33540000,-0.1765252,0.12988432,-9.796572
33588000,33588000,-0.16455865,0.1559181,-9.764515
33636000,33636000,-0.19112518,0.13466471,-9.775169
33684000,33684000,-0.16885692,0.16577762,-9.817581
33740000,33740000,-0.19449116,0.16916326,-9.793526
33788000,33788000,-0.18302503,0.10326116,-9.780462
33840000,33840000,-0.1957574,0.15138972,-9.777454
33888000,33888000,-0.20778298,0.14238745,-9.799846
33940000,33940000,-0.21250144,0.12348741,-9.7796
33988000,33988000,-0.17729601,0.12786375,-9.80096
34040000,34040000,-0.19712192,0.1349271,-9.817642
34088000,34088000,-0.16322416,0.12640703,-9.79923
34140000,34140000,-0.18353376,0.143494,-9.802407
34188000,34188000,-0.17369172,0.14032823,-9.780693
34240000,34240000,-0.21292555,0.13108899,-9.79719
34288000,34288000,-0.18962075,0.1143829,-9.797679
34340000,34340000,-0.20665866,0.12499199,-9.808552
34388000,34388000,-0.18807766,0.13810956,-9.814491
34436000,34436000,-0.18018892,0.15153652,-9.80195
34488000,34488000,-0.17925578,0.12305947,-9.797588
34540000,34540000,-0.17572653,0.11109549,-9.811359
34588000,34588000,-0.19836369,0.1314511,-9.805162
34640000,34640000,-0.15342143,0.12914607,-9.768496
34688000,34688000,-0.20116942,0.13210288,-9.801435
34740000,34740000,-0.19341792,0.14966942,-9.791252
34788000,34788000,-0.22521104,0.10119387,-9.798865
34836000,34836000,-0.18748116,0.1369094,-9.795502
34888000,34888000,-0.1930929,0.14627013,-9.823532
34936000,34936000,-0.20686576,0.14511785,-9.813204
34984000,34984000,-0.18119644,0.13864455,-9.805826
35040000,35040000,-0.21215695,0.14234209,-9.789188
35088000,35088000,-0.18708512,0.15195736,-9.791504
35140000,35140000,-0.20381963,0.15370534,-9.790138
35188000,35188000,-0.19137925,0.13216719,-9.80036
35236000,35236000,-0.20829765,0.15812682,-9.795262
35288000,35288000,-0.2028967,0.121011704,-9.802272
35336000,35336000,-0.20683637,0.14750701,-9.819037
35384000,35384000,-0.20849448,0.17255217,-9.799513
35436000,35436000,-0.20472245,0.16946372,-9.780346
35484000,35484000,-0.21871592,0.1245441,-9.793011
35536000,35536000,-0.20212707,0.15280642,-9.814645
35584000,35584000,-0.16732107,0.1645891,-9.819769
35636000,35636000,-0.19844744,0.15473324,-9.804281
35684000,35684000,-0.20507127,0.13922054,-9.769621
35736000,35736000,-0.20167646,0.12966742,-9.803685
35784000,35784000,-0.18000945,0.15185049,-9.786608
35840000,35840000,-0.20558476,0.15304863,-9.812123
35884000,35884000,-0.20024467,0.1601038,-9.791239
35940000,35940000,-0.16404337,0.13713959,-9.791069
35988000,35988000,-0.17850521,0.1335777,-9.79488
36040000,36040000,-0.17745133,0.12313944,-9.776113
36084000,36084000,-0.22912689,0.15156327,-9.800816
36136000,36136000,-0.19621006,0.14342614,-9.828562
36184000,36184000,-0.17693292,0.15496792,-9.776308
36236000,36236000,-0.19595285,0.1285822,-9.813537
36284000,36284000,-0.17660697,0.12900923,-9.781347
36340000,36340000,-0.21617013,0.14557423,-9.815938
36388000,36388000,-0.17707065,0.13619684,-9.789435
36440000,36440000,-0.21513587,0.18201812,-9.802719
36484000,36484000,-0.20235711,0.13589823,-9.807222
36536000,36536000,-0.19969887,0.16061789,-9.805601
36588000,36588000,-0.18722546,0.14132002,-9.768096
36640000,36640000,-0.22401924,0.15499294,-9.813028
36688000,36688000,-0.20021982,0.13999629,-9.801264
36740000,36740000,-0.20660827,0.1543336,-9.7901125
36788000,36788000,-0.19997361,0.13418326,-9.824789
36836000,36836000,-0.18671727,0.16725142,-9.810775
36884000,36884000,-0.18218327,0.17116484,-9.808487
36936000,36936000,-0.19193637,0.13399023,-9.795766
36984000,36984000,-0.22797252,0.14467578,-9.794205
37040000,37040000,-0.20228596,0.17203963,-9.789306
37088000,37088000,-0.20758234,0.1528833,-9.789442
37140000,37140000,-0.23343626,0.16311598,-9.795108
37188000,37188000,-0.21898621,0.1399317,-9.782433
37236000,37236000,-0.1778259,0.1366283,-9.811357
37288000,37288000,-0.18863931,0.1254671,-9.795864
37340000,37340000,-0.21139872,0.12836185,-9.771957
37388000,37388000,-0.20971969,0.1548679,-9.801799
37440000,37440000,-0.19689225,0.17039798,-9.806852
37484000,37484000,-0.21705018,0.113543436,-9.80216
37536000,37536000,-0.17737079,0.134096,-9.799757
37588000,37588000,-0.18795092,0.15630749,-9.77376
37640000,37640000,-0.19183064,0.154024,-9.784681
37688000,37688000,-0.19772795,0.123419955,-9.770695
37740000,37740000,-0.19674748,0.12775806,-9.794079
37788000,37788000,-0.20149194,0.13041444,-9.792989
37840000,37840000,-0.19617465,0.12988913,-9.804255
37888000,37888000,-0.19111706,0.15726025,-9.781637
37940000,37940000,-0.19096436,0.14489833,-9.788898
37988000,37988000,-0.18561736,0.1284697,-9.79159
38040000,38040000,-0.1975336,0.13165303,-9.77677
38088000,38088000,-0.18947674,0.13936375,-9.780624
38140000,38140000,-0.21681862,0.15026686,-9.77167
38188000,38188000,-0.1895796,0.11713886,-9.778301
38240000,38240000,-0.19723514,0.15385735,-9.783896
38288000,38288000,-0.17822148,0.1475254,-9.758301
38340000,38340000,-0.1837483,0.1582466,-9.776668
38388000,38388000,-0.18660699,0.1418306,-9.795593
38440000,38440000,-0.17120454,0.13670371,-9.775391
38488000,38488000,-0.18713565,0.13566852,-9.777249
38540000,38540000,-0.22529086,0.13269351,-9.782154
38588000,38588000,-0.20088084,0.15622869,-9.762321
38640000,38640000,-0.18215369,0.115331635,-9.763505
38688000,38688000,-0.18229607,0.16045856,-9.776096
38740000,38740000,-0.21712717,0.1161662,-9.772062
38788000,38788000,-0.19825616,0.13708039,-9.768714
38840000,38840000,-0.19290118,0.13272879,-9.773338
38888000,38888000,-0.18608359,0.11927939,-9.769366
38940000,38940000,-0.19171472,0.14907146,-9.758992
38988000,38988000,-0.19506234,0.11929003,-9.759839
39036000,39036000,-0.1976884,0.1294482,-9.767885
39088000,39088000,-0.19767375,0.14748153,-9.761658
39140000,39140000,-0.20416793,0.12074921,-9.752441
39188000,39188000,-0.18748933,0.12097019,-9.762911
39240000,39240000,-0.2105889,0.122858465,-9.775621
39288000,39288000,-0.1832737,0.14180219,-9.771654
39340000,39340000,-0.20536667,0.11554932,-9.765942
39388000,39388000,-0.18326199,0.13334844,-9.751872
39440000,39440000,-0.18217912,0.1401622,-9.792093
39488000,39488000,-0.2166589,0.11975176,-9.779385
39536000,39536000,-0.21693388,0.119801536,-9.790594
39588000,39588000,-0.19137797,0.15666984,-9.754732
39636000,39636000,-0.21137954,0.114245936,-9.791745
39688000,39688000,-0.1769794,0.13949564,-9.784167
39736000,39736000,-0.16114962,0.13032474,-9.751733
39784000,39784000,-0.17665917,0.15315887,-9.763913
39836000,39836000,-0.18934654,0.14982013,-9.792712
39888000,39888000,-0.17809322,0.12796582,-9.78535
39940000,39940000,-0.16989341,0.14443329,-9.761228
39984000,39984000,-0.19517222,0.12771928,-9.761184
40040000,40040000,-0.21472545,0.13575663,-9.741162
40088000,40088000,-0.16942254,0.13939056,-9.750788
40136000,40136000,-0.20277198,0.15059535,-9.747159
40184000,40184000,-0.18791068,0.13665332,-9.766003
40236000,40236000,-0.17274623,0.10137344,-9.777644
40288000,40288000,-0.20342036,0.16265352,-9.754829
40340000,40340000,-0.20137711,0.12669986,-9.754766
40388000,40388000,-0.1973673,0.15003563,-9.785656
40440000,40440000,-0.19007273,0.13118517,-9.7778225
40488000,40488000,-0.16277176,0.11669545,-9.785904
40540000,40540000,-0.19859257,0.119560525,-9.773075
40588000,40588000,-0.20325693,0.11907581,-9.78066
40640000,40640000,-0.21048439,0.16373461,-9.770924
40688000,40688000,-0.20506361,0.14413498,-9.768875
40740000,40740000,-0.18127385,0.13577084,-9.756305
40788000,40788000,-0.21588632,0.14770505,-9.754489
40840000,40840000,-0.19262862,0.13995582,-9.77761
40888000,40888000,-0.2087223,0.13492978,-9.784541
40940000,40940000,-0.2189075,0.11446497,-9.772938
40988000,40988000,-0.21097195,0.13828559,-9.771244
41040000,41040000,-0.2085365,0.15657198,-9.773022
41088000,41088000,-0.20522664,0.11920139,-9.755454
41140000,41140000,-0.19552337,0.11931566,-9.7795105
41188000,41188000,-0.19255835,0.11435416,-9.775855
41240000,41240000,-0.17877603,0.16730417,-9.76107
41288000,41288000,-0.18147166,0.16390793,-9.765194
41340000,41340000,-0.22814515,0.13444932,-9.757231
41388000,41388000,-0.19322844,0.12446225,-9.7541275
41440000,41440000,-0.18247399,0.16774084,-9.762044
41488000,41488000,-0.20387805,0.1182328,-9.772913
41540000,41540000,-0.18239553,0.12563701,-9.763527
41588000,41588000,-0.19369268,0.15257636,-9.772921
41640000,41640000,-0.2022651,0.13972595,-9.734789
41688000,41688000,-0.1721971,0.13659039,-9.79078
41740000,41740000,-0.20757997,0.17544599,-9.760814
41788000,41788000,-0.17723486,0.14744379,-9.783392
41840000,41840000,-0.19419572,0.15663597,-9.778308
41888000,41888000,-0.18686111,0.14777298,-9.789265
41940000,41940000,-0.20587659,0.13369817,-9.76066
41988000,41988000,-0.19005929,0.14260653,-9.755424
42040000,42040000,-0.17917064,0.13337122,-9.762148
42088000,42088000,-0.17583558,0.16268966,-9.778669
42140000,42140000,-0.19632766,0.13657396,-9.796431
42188000,42188000,-0.16307911,0.13788284,-9.748545
42240000,42240000,-0.19917175,0.14601898,-9.76209
42284000,42284000,-0.17959292,0.15815341,-9.750355
42340000,42340000,-0.18208039,0.15191603,-9.770838
42388000,42388000,-0.15225291,0.11403706,-9.760462
42440000,42440000,-0.18379283,0.13182692,-9.780147
42488000,42488000,-0.2003131,0.12698102,-9.77102
42540000,42540000,-0.1964497,0.14751041,-9.767347
42588000,42588000,-0.19375145,0.12079935,-9.788518
42640000,42640000,-0.20874925,0.14466393,-9.784334
42688000,42688000,-0.21166709,0.13052791,-9.768959
42740000,42740000,-0.17699441,0.15829086,-9.763283
42788000,42788000,-0.18681821,0.1464068,-9.774923
42840000,42840000,-0.18228643,0.12051012,-9.777132
42888000,42888000,-0.1822167,0.13736355,-9.763213
42940000,42940000,-0.19237846,0.12343649,-9.772396
42988000,42988000,-0.19890879,0.15591712,-9.779604
43040000,43040000,-0.2051126,0.14953712,-9.759797
43088000,43088000,-0.2108058,0.13332164,-9.773721
43140000,43140000,-0.16491562,0.13005073,-9.760899
43188000,43188000,-0.19571,0.13919887,-9.763717
43236000,43236000,-0.1848849,0.12490248,-9.762589
43284000,43284000,-0.205295,0.13965482,-9.762805
43336000,43336000,-0.1804389,0.13011718,-9.794268
43388000,43388000,-0.1949173,0.117441446,-9.757848
43440000,43440000,-0.18346798,0.16956021,-9.777528
43484000,43484000,-0.19937764,0.11166149,-9.778646
43540000,43540000,-0.17180298,0.10361317,-9.75918
43588000,43588000,-0.17676508,0.12440431,-9.766612
43636000,43636000,-0.18320316,0.12579733,-9.755878
43684000,43684000,-0.16993593,0.1356604,-9.764381
43736000,43736000,-0.20611796,0.12485049,-9.766976
43788000,43788000,-0.18744244,0.14797206,-9.759878
43840000,43840000,-0.1949062,0.11680282,-9.765649
43888000,43888000,-0.18441184,0.14157307,-9.751621
43936000,43936000,-0.19488809,0.132498,-9.761562
43984000,43984000,-0.18568715,0.13173322,-9.778606
44036000,44036000,-0.16986933,0.15098453,-9.784028
44088000,44088000,-0.19978832,0.15370508,-9.767738
44140000,44140000,-0.20079121,0.15091828,-9.768782
44184000,44184000,-0.1924171,0.1237299,-9.773722
44236000,44236000,-0.20181403,0.13263139,-9.773352
44288000,44288000,-0.20847797,0.12702839,-9.776332
44340000,44340000,-0.19091769,0.12535474,-9.822471
44388000,44388000,-0.17484328,0.1388292,-9.756836
44440000,44440000,-0.18924151,0.1418131,-9.7903185
44488000,44488000,-0.20659879,0.14872523,-9.749976
44540000,44540000,-0.1585325,0.14277878,-9.768686
44588000,44588000,-0.20581733,0.11716639,-9.760321
44636000,44636000,-0.18999262,0.14125161,-9.80412
44688000,44688000,-0.20991626,0.13411996,-9.790585
44740000,44740000,-0.19045827,0.12551984,-9.785722
44788000,44788000,-0.17670836,0.10381812,-9.777232
44840000,44840000,-0.18823555,0.1327774,-9.78649
44888000,44888000,-0.17989631,0.14226606,-9.769594
44940000,44940000,-0.19122687,0.103744134,-9.780777
44988000,44988000,-0.1817226,0.13771453,-9.769498
45040000,45040000,-0.21376927,0.14910209,-9.761516
45088000,45088000,-0.19927885,0.14101137,-9.792686
45140000,45140000,-0.17811902,0.13052587,-9.772052
45188000,45188000,-0.19632,0.115695,-9.804079
45240000,45240000,-0.15306157,0.105799064,-9.770148
45284000,45284000,-0.19370283,0.12935153,-9.75923
45336000,45336000,-0.1726574,0.13189594,-9.762117
45384000,45384000,-0.18685722,0.12933213,-9.743679
45436000,45436000,-0.17406392,0.10036501,-9.769356
45484000,45484000,-0.19844338,0.12917164,-9.785968
45540000,45540000,-0.18577911,0.12848422,-9.793975
45588000,45588000,-0.21540686,0.11632036,-9.7750435
45636000,45636000,-0.18096195,0.120822415,-9.802908
45684000,45684000,-0.19958925,0.13087875,-9.791631
45736000,45736000,-0.19292295,0.15122664,-9.77132
45784000,45784000,-0.1800266,0.12725106,-9.773204
45840000,45840000,-0.16595402,0.1335739,-9.791546
45884000,45884000,-0.18819946,0.11902772,-9.799212
45940000,45940000,-0.18413931,0.1230803,-9.769987
45988000,45988000,-0.15862222,0.10729388,-9.763954
46036000,46036000,-0.19289342,0.10660631,-9.794365
46088000,46088000,-0.20142005,0.10078572,-9.790283
46140000,46140000,-0.17273045,0.119746655,-9.784281
46188000,46188000,-0.18911748,0.093558915,-9.782774
46240000,46240000,-0.19313468,0.11590228,-9.7975855
46288000,46288000,-0.21241915,0.09072389,-9.793528
46340000,46340000,-0.18153721,0.10642374,-9.758384
46388000,46388000,-0.19449121,0.104067296,-9.772912
46440000,46440000,-0.16288647,0.08326693,-9.768736
46488000,46488000,-0.18231905,0.12474315,-9.762695
46540000,46540000,-0.19836898,0.1027735,-9.779253
46588000,46588000,-0.19058955,0.10525843,-9.767337
46640000,46640000,-0.20316471,0.1025025,-9.7776785
46684000,46684000,-0.1894738,0.09799836,-9.785366
46736000,46736000,-0.18393771,0.10105722,-9.78377
46784000,46784000,-0.2059687,0.10214333,-9.76352
46840000,46840000,-0.19981608,0.13761854,-9.793008
46888000,46888000,-0.19843914,0.09283268,-9.763489
46940000,46940000,-0.17377412,0.1065668,-9.802736
46988000,46988000,-0.20605412,0.11930321,-9.768937
47040000,47040000,-0.20830217,0.122613445,-9.791134
47088000,47088000,-0.20497967,0.10314958,-9.793339
47140000,47140000,-0.20998012,0.09025821,-9.794902
47184000,47184000,-0.17613952,0.11136183,-9.763491
47236000,47236000,-0.20840146,0.12538902,-9.826466
47288000,47288000,-0.20042902,0.09734297,-9.761092
47340000,47340000,-0.17098089,0.102852345,-9.798815
47388000,47388000,-0.18642986,0.116814,-9.769197
47436000,47436000,-0.1801598,0.13556443,-9.782614
47484000,47484000,-0.16727595,0.13698186,-9.782666
47536000,47536000,-0.1898299,0.09817157,-9.776967
47588000,47588000,-0.1934832,0.11067753,-9.771538
47636000,47636000,-0.1882334,0.09650129,-9.784296
47688000,47688000,-0.21314636,0.13045616,-9.794195
47740000,47740000,-0.18616681,0.108914964,-9.780386
47788000,47788000,-0.18598577,0.10285942,-9.757101
47840000,47840000,-0.21344842,0.13532794,-9.786167
47888000,47888000,-0.19370788,0.13141805,-9.753011
47940000,47940000,-0.16950205,0.119535044,-9.793273
47988000,47988000,-0.18990546,0.08648118,-9.771969
48036000,48036000,-0.18354645,0.1140961,-9.780449
48088000,48088000,-0.21657415,0.123146415,-9.771011
48140000,48140000,-0.19871704,0.12532079,-9.757283
48188000,48188000,-0.20366995,0.12642059,-9.775261
48240000,48240000,-0.19780076,0.13060877,-9.76421
48288000,48288000,-0.19248807,0.10254017,-9.767937
48340000,48340000,-0.18558037,0.1354013,-9.7872505
48388000,48388000,-0.1885833,0.1070832,-9.783566
48436000,48436000,-0.18402925,0.13960423,-9.78464
48488000,48488000,-0.19400412,0.108003706,-9.7749
48540000,48540000,-0.20274492,0.135798,-9.773735
48588000,48588000,-0.21220769,0.10882165,-9.749073
48640000,48640000,-0.20213494,0.08303322,-9.7771225
48688000,48688000,-0.18871236,0.113306314,-9.78171
48740000,48740000,-0.19403496,0.123696946,-9.769705
48788000,48788000,-0.19064307,0.10605989,-9.77093
48840000,48840000,-0.20082483,0.10313953,-9.754178
48888000,48888000,-0.2145233,0.09335539,-9.777469
48940000,48940000,-0.2153743,0.12733528,-9.775235
48988000,48988000,-0.20352715,0.115586735,-9.732526
49040000,49040000,-0.16606075,0.13844885,-9.764453
49088000,49088000,-0.20825437,0.14381729,-9.7899685
49140000,49140000,-0.20100792,0.087451205,-9.761227
49184000,49184000,-0.1986259,0.10749465,-9.797073
49240000,49240000,-0.19123569,0.12751155,-9.7494755
49288000,49288000,-0.19456217,0.12271494,-9.784921
49340000,49340000,-0.19648808,0.09993402,-9.783176
49388000,49388000,-0.18296108,0.09280092,-9.785948
49440000,49440000,-0.19226174,0.12702203,-9.750708
49488000,49488000,-0.22103849,0.11319196,-9.766281
49540000,49540000,-0.2126074,0.12377815,-9.783325
49588000,49588000,-0.20578495,0.12617175,-9.77325
49640000,49640000,-0.20260009,0.12834367,-9.743303
49688000,49688000,-0.19760865,0.12349787,-9.785818
49740000,49740000,-0.18401209,0.14417595,-9.771595
49784000,49784000,-0.2326406,0.15013903,-9.76391
49840000,49840000,-0.18114018,0.11685402,-9.7470455
49888000,49888000,-0.22233926,0.13972203,-9.760847
49940000,49940000,-0.20341931,0.14033121,-9.792253
49984000,49984000,-0.1884925,0.15532534,-9.774041
50036000,50036000,-0.18182322,0.124354705,-9.782092
50088000,50088000,-0.19232088,0.13589716,-9.785736
50140000,50140000,-0.18655679,0.13743022,-9.753006
50188000,50188000,-0.17453453,0.13259085,-9.777555
50240000,50240000,-0.1950512,0.12419873,-9.763442
50288000,50288000,-0.19054508,0.11731771,-9.774424
50340000,50340000,-0.20297943,0.10437171,-9.750065
50388000,50388000,-0.1966252,0.14359818,-9.784456
50440000,50440000,-0.21115956,0.13033022,-9.773462
50484000,50484000,-0.185696,0.14703873,-9.770381
50540000,50540000,-0.21220827,0.113339074,-9.777376
50588000,50588000,-0.18073775,0.1410862,-9.763145
50640000,50640000,-0.19560882,0.11961234,-9.75093
50688000,50688000,-0.17959978,0.12544844,-9.770275
50740000,50740000,-0.20407242,0.13142666,-9.7598915
50788000,50788000,-0.1883285,0.12808447,-9.763384
50836000,50836000,-0.20951393,0.09075728,-9.782364
50888000,50888000,-0.1773113,0.1344575,-9.799891
50940000,50940000,-0.2017551,0.12649143,-9.791565
50988000,50988000,-0.19577262,0.112072915,-9.762238
51040000,51040000,-0.18730776,0.12653962,-9.754581
51088000,51088000,-0.18961146,0.098415196,-9.77327
51140000,51140000,-0.21409278,0.14176387,-9.776186
51184000,51184000,-0.18676855,0.14425844,-9.774111
51240000,51240000,-0.18399078,0.10571174,-9.796491
51288000,51288000,-0.19923198,0.12268316,-9.784395
51336000,51336000,-0.1885603,0.10399452,-9.774576
51388000,51388000,-0.19338757,0.11667094,-9.791501
51440000,51440000,-0.18945612,0.10828684,-9.763728
51484000,51484000,-0.20838416,0.096760996,-9.79339
51540000,51540000,-0.17634748,0.11701718,-9.762603
51588000,51588000,-0.18810853,0.093618885,-9.77164
51636000,51636000,-0.18292941,0.12645002,-9.783885
51684000,51684000,-0.20749995,0.16078298,-9.79857
51736000,51736000,-0.21871033,0.09309421,-9.769359
51788000,51788000,-0.19069435,0.1072328,-9.789903
51840000,51840000,-0.17318639,0.11859669,-9.772638
51888000,51888000,-0.22389907,0.09894957,-9.786413
51940000,51940000,-0.20927887,0.10356665,-9.776255
51988000,51988000,-0.18925175,0.0895219,-9.763474
52040000,52040000,-0.1975861,0.12855598,-9.7653675
52088000,52088000,-0.2004639,0.11878642,-9.7785
52140000,52140000,-0.21125257,0.1530154,-9.788782
52188000,52188000,-0.21537614,0.10939433,-9.78393
52240000,52240000,-0.19228148,0.1308673,-9.771
52288000,52288000,-0.2009643,0.110721886,-9.797291
52340000,52340000,-0.19144341,0.11572204,-9.7900505
52388000,52388000,-0.20487016,0.14048345,-9.765227
52440000,52440000,-0.20304948,0.103354126,-9.779355
52488000,52488000,-0.19401713,0.10287547,-9.81883
52540000,52540000,-0.187478,0.11791971,-9.780639
52588000,52588000,-0.2178401,0.10683362,-9.778622
52640000,52640000,-0.18973263,0.118723795,-9.770923
52688000,52688000,-0.20838466,0.09207806,-9.758402
52740000,52740000,-0.19618867,0.09897795,-9.77014
52788000,52788000,-0.18953086,0.10601292,-9.777226
52840000,52840000,-0.22011778,0.10530845,-9.747309
52888000,52888000,-0.15160564,0.11831419,-9.76496
52940000,52940000,-0.20487298,0.12603962,-9.77688
52988000,52988000,-0.19566941,0.13775948,-9.798794
53040000,53040000,-0.20025992,0.08552171,-9.7698145
53088000,53088000,-0.19673648,0.09836696,-9.784822
53140000,53140000,-0.20133242,0.1273255,-9.773119
53188000,53188000,-0.17069826,0.12834461,-9.778473
53236000,53236000,-0.16454272,0.12863122,-9.764978
53288000,53288000,-0.20028391,0.115694724,-9.783921
53340000,53340000,-0.19240229,0.09298618,-9.774229
53388000,53388000,-0.19910528,0.1307345,-9.775041
53440000,53440000,-0.22188506,0.13020858,-9.764482
53488000,53488000,-0.192076,0.14483102,-9.780538
53540000,53540000,-0.19881973,0.101038024,-9.7798395
53588000,53588000,-0.19377725,0.11254977,-9.769871
53640000,53640000,-0.18337151,0.120155826,-9.774565
53688000,53688000,-0.20140788,0.12813228,-9.776203
53740000,53740000,-0.19657259,0.10293702,-9.763673
53788000,53788000,-0.21753661,0.1288051,-9.773685
53840000,53840000,-0.18528,0.11859181,-9.792206
53888000,53888000,-0.18576439,0.11215457,-9.7453575
53940000,53940000,-0.20583917,0.12520278,-9.780981
53988000,53988000,-0.20081706,0.12713277,-9.754189
54040000,54040000,-0.18845229,0.12108078,-9.781046
54088000,54088000,-0.2013427,0.10121434,-9.771455
54140000,54140000,-0.20426658,0.09034665,-9.770109
54188000,54188000,-0.19428897,0.1364379,-9.800309
54240000,54240000,-0.21361539,0.105522454,-9.775969
54288000,54288000,-0.17086363,0.13449615,-9.780689
54340000,54340000,-0.19151327,0.11979962,-9.770377
54388000,54388000,-0.19367793,0.13093416,-9.791827
54440000,54440000,-0.21748178,0.13292009,-9.77843
54488000,54488000,-0.19971195,0.104231216,-9.765007
54540000,54540000,-0.23038466,0.112364635,-9.775915
54588000,54588000,-0.20971298,0.14019726,-9.7833605
54640000,54640000,-0.1971867,0.11283677,-9.759653
54684000,54684000,-0.17920414,0.1269583,-9.778555
54740000,54740000,-0.20989946,0.11913233,-9.788874
54788000,54788000,-0.18667331,0.09872726,-9.779354
54840000,54840000,-0.20578378,0.09639228,-9.776607
54888000,54888000,-0.20861514,0.090368725,-9.791941
54940000,54940000,-0.18493363,0.13730267,-9.771515
54988000,54988000,-0.20303501,0.12001224,-9.767081
55040000,55040000,-0.21533802,0.120397374,-9.804251
55088000,55088000,-0.21036245,0.1448409,-9.795943
55136000,55136000,-0.19753787,0.111317754,-9.777972
55188000,55188000,-0.18293874,0.12755698,-9.778463
55236000,55236000,-0.2126832,0.10933469,-9.769384
55288000,55288000,-0.21385275,0.13594663,-9.774258
55340000,55340000,-0.19775386,0.122916594,-9.781167
55384000,55384000,-0.18617535,0.10189992,-9.776178
55440000,55440000,-0.18708524,0.13258222,-9.7621565
55484000,55484000,-0.20417182,0.102255486,-9.778039
55536000,55536000,-0.19800963,0.11874962,-9.791337
55584000,55584000,-0.21894288,0.107562594,-9.770924
55636000,55636000,-0.229384,0.078594245,-9.775317
55688000,55688000,-0.16836965,0.10140479,-9.78274
55740000,55740000,-0.1990044,0.10346556,-9.7746105
55788000,55788000,-0.1992638,0.11071376,-9.752009
55840000,55840000,-0.20441882,0.115405634,-9.779727
55888000,55888000,-0.18944433,0.11645158,-9.782655
55940000,55940000,-0.18377319,0.10534189,-9.776876
55988000,55988000,-0.20116298,0.11091256,-9.769703
56040000,56040000,-0.21478239,0.11677621,-9.774146
56088000,56088000,-0.20124963,0.08672755,-9.781278
56140000,56140000,-0.20308974,0.15910868,-9.781443
56188000,56188000,-0.22310615,0.110630035,-9.803097
56240000,56240000,-0.21767509,0.09920579,-9.801035
56288000,56288000,-0.18729626,0.10593729,-9.777099
56340000,56340000,-0.2028105,0.11728437,-9.783914
56388000,56388000,-0.20422593,0.10085003,-9.789869
56440000,56440000,-0.21672483,0.104212664,-9.789071
56488000,56488000,-0.21640244,0.086679816,-9.770299
56540000,56540000,-0.2085941,0.10479309,-9.76516
56588000,56588000,-0.20047483,0.11216207,-9.7813225
56640000,56640000,-0.19581728,0.1284603,-9.763922
56688000,56688000,-0.20410118,0.11005224,-9.776895
56740000,56740000,-0.2002342,0.093737885,-9.764374
56788000,56788000,-0.20545533,0.08973265,-9.775428
56840000,56840000,-0.20388716,0.12789845,-9.773346
56888000,56888000,-0.22726393,0.12450561,-9.786522
56940000,56940000,-0.22208653,0.08466182,-9.758099
56988000,56988000,-0.2084838,0.12672901,-9.779362
57040000,57040000,-0.22499469,0.10414443,-9.781807
57088000,57088000,-0.19928983,0.119633816,-9.77475
57140000,57140000,-0.22213987,0.08257531,-9.782512
57188000,57188000,-0.19967741,0.105083406,-9.790501
57240000,57240000,-0.20334885,0.10493101,-9.807103
57288000,57288000,-0.23236479,0.11424312,-9.78497
57340000,57340000,-0.19856346,0.0985996,-9.772241
57388000,57388000,-0.18984447,0.117203295,-9.822776
57440000,57440000,-0.18746036,0.09806107,-9.77357
57488000,57488000,-0.19613406,0.10002916,-9.796954
57540000,57540000,-0.21038136,0.09969877,-9.787657
57588000,57588000,-0.21078625,0.09026246,-9.776599
57636000,57636000,-0.20126212,0.12970261,-9.760892
57684000,57684000,-0.21107766,0.10258773,-9.805902
57736000,57736000,-0.21272622,0.12281504,-9.829741
57784000,57784000,-0.24141726,0.120821595,-9.98691
57840000,57840000,-0.25063264,0.11370033,-10.089061
57888000,57888000,-0.18428832,0.09208931,-10.148215
57940000,57940000,-0.09601239,0.11420116,-10.128286
57988000,57988000,-0.15224017,0.06912522,-10.071327
58040000,58040000,-0.22146837,0.11636912,-10.233639
58088000,58088000,-0.19389537,0.11701885,-10.37132
58140000,58140000,-0.16638242,0.12909622,-10.472736
58188000,58188000,-0.16641316,0.12862858,-10.586068
58240000,58240000,-0.14961891,0.08470554,-10.647471
58288000,58288000,-0.16130888,0.10964973,-10.679316
58340000,58340000,-0.13632534,0.13357258,-10.714733
58384000,58384000,-0.12930825,0.10908019,-10.686796
58440000,58440000,-0.10611863,0.12767734,-10.743854
58488000,58488000,-0.10446678,0.111482576,-10.722773
58540000,58540000,-0.11153449,0.118600026,-10.717291
58588000,58588000,-0.098931886,0.10258875,-10.677255
58640000,58640000,-0.11614471,0.13028304,-10.729044
58688000,58688000,-0.117630675,0.13945438,-10.639917
58740000,58740000,-0.122378826,0.12292893,-10.342477
58788000,58788000,-0.13610268,0.12032067,-10.060602
58836000,58836000,-0.15254611,0.09249286,-9.807572
58884000,58884000,-0.1605022,0.106475726,-9.598653
58940000,58940000,-0.14733052,0.10550927,-9.560637
58988000,58988000,-0.18035218,0.12997308,-9.67118
59036000,59036000,-0.16410245,0.099785246,-9.808385
59084000,59084000,-0.14038447,0.1114515,-9.899798
59140000,59140000,-0.1517936,0.13662425,-9.919021
59188000,59188000,-0.1761904,0.16682832,-9.904376
59236000,59236000,-0.16947871,0.12245098,-9.910025
59288000,59288000,-0.17954595,0.102871664,-9.911991
59340000,59340000,-0.18040645,0.10677796,-9.84298
59388000,59388000,-0.18797106,0.090013094,-9.8427515
59440000,59440000,-0.18909082,0.10702914,-9.836872
59484000,59484000,-0.16798918,0.10614151,-9.839723
59540000,59540000,-0.18330812,0.1064018,-9.8184185
59588000,59588000,-0.1627533,0.11797246,-9.823422
59640000,59640000,-0.20767999,0.13007206,-9.837108
59688000,59688000,-0.1927652,0.12257344,-9.807325
59740000,59740000,-0.2259702,0.09356214,-9.742027
59788000,59788000,-0.1957173,0.105910495,-9.724226
59840000,59840000,-0.19923416,0.10426551,-9.734872
59888000,59888000,-0.20771474,0.120961964,-9.772505
59940000,59940000,-0.22482602,0.13769369,-9.731051
59988000,59988000,-0.2179117,0.121875845,-9.71966
60040000,60040000,-0.20514736,0.13013987,-9.741002
60088000,60088000,-0.21483995,0.080040134,-9.728325
60136000,60136000,-0.21661243,0.086375624,-9.714079
60188000,60188000,-0.23667383,0.10870381,-9.667289
60240000,60240000,-0.23481596,0.11581468,-9.68206
60284000,60284000,-0.22207358,0.13366087,-9.687066
60340000,60340000,-0.25110763,0.10613894,-9.675724
60388000,60388000,-0.1970629,0.13589302,-9.648872
60436000,60436000,-0.24460836,0.10880464,-9.6720295
60484000,60484000,-0.22690222,0.1434327,-9.674536
60536000,60536000,-0.21511422,0.11809215,-9.629914
60584000,60584000,-0.24559659,0.10864062,-9.581735
60636000,60636000,-0.23362792,0.10184604,-9.604752
60688000,60688000,-0.22438622,0.085747585,-9.648621
60740000,60740000,-0.25037965,0.09264484,-9.609217
60788000,60788000,-0.23049395,0.119110145,-9.624645
60840000,60840000,-0.22390208,0.114865616,-9.646322
60888000,60888000,-0.24648127,0.12546113,-9.636557
60940000,60940000,-0.23402056,0.08446511,-9.563879
60988000,60988000,-0.22075823,0.124308154,-9.417274
61040000,61040000,-0.21176408,0.12935534,-9.185708
61088000,61088000,-0.25240964,0.11014308,-8.936619
61136000,61136000,-0.23948506,0.115362674,-8.735613
61188000,61188000,-0.24636339,0.11062163,-8.517094
61240000,61240000,-0.23585622,0.09653894,-8.521096
61288000,61288000,-0.2541219,0.10537467,-8.738152
61340000,61340000,-0.25545424,0.1103679,-9.013173
61388000,61388000,-0.24588123,0.08436372,-9.2313
61440000,61440000,-0.2635085,0.11207203,-9.455874
61488000,61488000,-0.23693338,0.08162837,-9.633773
61540000,61540000,-0.21766216,0.0865653,-9.770345
61588000,61588000,-0.22700436,0.071537405,-9.937768
61640000,61640000,-0.2588012,0.08713707,-10.038922
61688000,61688000,-0.23059015,0.09244616,-10.017856
61740000,61740000,-0.2535861,0.07897184,-9.974839
61788000,61788000,-0.24239849,0.09327373,-9.926628
61840000,61840000,-0.26290777,0.10977292,-9.840511
61888000,61888000,-0.2257405,0.120560244,-9.821685
61940000,61940000,-0.21883303,0.077506244,-9.778243
61984000,61984000,-0.26461387,0.1016298,-9.774364
62036000,62036000,-0.22852942,0.085976556,-9.782807
62084000,62084000,-0.24623956,0.090026334,-9.761407
62136000,62136000,-0.22149272,0.11314301,-9.721615
62188000,62188000,-0.21700959,0.08399064,-9.703465
62240000,62240000,-0.22306168,0.112589106,-9.704741
62284000,62284000,-0.22597566,0.098264426,-9.716696
62340000,62340000,-0.23088495,0.07584447,-9.7319145
62388000,62388000,-0.22320418,0.093787774,-9.747742
62440000,62440000,-0.24277353,0.10965899,-9.744209
62488000,62488000,-0.21231784,0.062823534,-9.735857
62536000,62536000,-0.2108015,0.06657489,-9.72511
62588000,62588000,-0.2417223,0.09378448,-9.693078
