timestamp,timestamp_sample,control[0],control[1],control[2],control[3],control[4],control[5],control[6],control[7],control[8],control[9],control[10],control[11],reversible_flags
3388000,3388000,0.0,0.0,0.0,0.0,nan,nan,nan,nan,nan,nan,nan,nan,0
3392000,3392000,0.0,0.0,0.0,0.0,nan,nan,nan,nan,nan,nan,nan,nan,0
3484000,3484000,0.0,0.0,0.0,0.0,nan,nan,nan,nan,nan,nan,nan,nan,0
3584000,3584000,0.0,0.0,0.0,0.0,nan,nan,nan,nan,nan,nan,nan,nan,0
3684000,3684000,0.0020000003,0.0,0.0020000003,0.0,nan,nan,nan,nan,nan,nan,nan,nan,0
3788000,3788000,0.0019999985,0.0,0.0020000022,0.0,nan,nan,nan,nan,nan,nan,nan,nan,0
3884000,3884000,0.0020000003,0.0,0.0020000003,0.0,nan,nan,nan,nan,nan,nan,nan,nan,0
3988000,3988000,0.0020000003,0.0,0.0020000003,0.0,nan,nan,nan,nan,nan,nan,nan,nan,0
4088000,4088000,0.0019999985,3.7252903e-09,0.0020000003,0.0,nan,nan,nan,nan,nan,nan,nan,nan,0
4184000,4184000,0.0020000003,0.0,0.0020000003,0.0,nan,nan,nan,nan,nan,nan,nan,nan,0
4288000,4288000,0.0019999994,1.8626451e-09,0.0020000013,0.0,nan,nan,nan,nan,nan,nan,nan,nan,0
4388000,4388000,0.0020000022,0.0,0.0019999985,0.0,nan,nan,nan,nan,nan,nan,nan,nan,0
4488000,4488000,0.001999999,0.0,0.0020000027,0.0,nan,nan,nan,nan,nan,nan,nan,nan,0
4588000,4588000,0.0019999975,1.8626451e-09,0.0019999994,0.0,nan,nan,nan,nan,nan,nan,nan,nan,0
4688000,4688000,0.0019999994,0.0,0.0019999994,0.0,nan,nan,nan,nan,nan,nan,nan,nan,0
4788000,4788000,0.0020000003,0.0,0.0020000003,0.0,nan,nan,nan,nan,nan,nan,nan,nan,0
4888000,4888000,0.0019999994,1.8626451e-09,0.0020000013,0.0,nan,nan,nan,nan,nan,nan,nan,nan,0
4988000,4988000,0.0020000017,0.0,0.0019999999,0.0,nan,nan,nan,nan,nan,nan,nan,nan,0
5088000,5088000,0.002000002,0.0,0.0019999999,0.0,nan,nan,nan,nan,nan,nan,nan,nan,0
5188000,5188000,0.0019999994,0.0,0.0020000013,0.0,nan,nan,nan,nan,nan,nan,nan,nan,0
5288000,5288000,0.0020000003,0.0,0.0020000003,0.0,nan,nan,nan,nan,nan,nan,nan,nan,0
5388000,5388000,0.0020000027,3.7252903e-09,0.0019999945,0.0,nan,nan,nan,nan,nan,nan,nan,nan,0
5484000,5484000,0.0019999994,0.0,0.0020000013,0.0,nan,nan,nan,nan,nan,nan,nan,nan,0
5588000,5588000,0.0020000045,1.8626451e-09,0.001999998,0.0,nan,nan,nan,nan,nan,nan,nan,nan,0
5688000,5688000,0.0019999973,3.7252903e-09,0.0019999996,0.0,nan,nan,nan,nan,nan,nan,nan,nan,0
5788000,5788000,0.0020000003,0.0,0.0020000003,0.0,nan,nan,nan,nan,nan,nan,nan,nan,0
5888000,5888000,0.0019999999,3.7252903e-09,0.0019999992,0.0,nan,nan,nan,nan,nan,nan,nan,nan,0
5988000,5988000,0.0019999994,0.0,0.0020000013,0.0,nan,nan,nan,nan,nan,nan,nan,nan,0
6088000,6088000,0.0019999975,1.8626451e-09,0.0020000013,0.0,nan,nan,nan,nan,nan,nan,nan,nan,0
6184000,6184000,0.0019999994,0.0,0.0020000013,0.0,nan,nan,nan,nan,nan,nan,nan,nan,0
6288000,6288000,0.0019999994,0.0,0.0020000013,0.0,nan,nan,nan,nan,nan,nan,nan,nan,0
6388000,6388000,0.0019999994,1.8626451e-09,0.0019999996,0.0,nan,nan,nan,nan,nan,nan,nan,nan,0
6484000,6484000,0.002000001,1.8626451e-09,0.0019999978,0.0,nan,nan,nan,nan,nan,nan,nan,nan,0
6588000,6588000,0.0019999966,1.8626451e-09,0.0020000003,0.0,nan,nan,nan,nan,nan,nan,nan,nan,0
6688000,6688000,0.0019999975,1.8626451e-09,0.0019999994,0.0,nan,nan,nan,nan,nan,nan,nan,nan,0
6784000,6784000,0.0019999999,0.0,0.0020000017,0.0,nan,nan,nan,nan,nan,nan,nan,nan,0
6884000,6884000,0.0019999975,1.8626451e-09,0.0019999994,0.0,nan,nan,nan,nan,nan,nan,nan,nan,0
6988000,6988000,0.0019999994,0.0,0.0020000013,0.0,nan,nan,nan,nan,nan,nan,nan,nan,0
7088000,7088000,0.0020000013,0.0,0.0020000013,0.0,nan,nan,nan,nan,nan,nan,nan,nan,0
7188000,7188000,0.002000002,0.0,0.0019999996,0.0,nan,nan,nan,nan,nan,nan,nan,nan,0
7284000,7284000,0.0020000017,0.0,0.0019999999,0.0,nan,nan,nan,nan,nan,nan,nan,nan,0
7388000,7388000,0.0019999975,1.8626451e-09,0.0019999994,0.0,nan,nan,nan,nan,nan,nan,nan,nan,0
7488000,7488000,0.0020000027,1.8626451e-09,0.001999998,0.0,nan,nan,nan,nan,nan,nan,nan,nan,0
7588000,7588000,0.0020000013,0.0,0.0020000013,0.0,nan,nan,nan,nan,nan,nan,nan,nan,0
7688000,7688000,0.002,0.0,0.0020000017,0.0,nan,nan,nan,nan,nan,nan,nan,nan,0
7788000,7788000,0.0020000013,0.0,0.0019999994,0.0,nan,nan,nan,nan,nan,nan,nan,nan,0
7888000,7888000,0.0020000027,0.0,0.0019999987,0.0,nan,nan,nan,nan,nan,nan,nan,nan,0
7988000,7988000,0.0019999999,0.0,0.0020000017,0.0,nan,nan,nan,nan,nan,nan,nan,nan,0
8084000,8084000,0.0020000008,1.8626451e-09,0.0019999961,0.0,nan,nan,nan,nan,nan,nan,nan,nan,0
8184000,8184000,0.0019999994,0.0,0.0019999994,0.0,nan,nan,nan,nan,nan,nan,nan,nan,0
8288000,8288000,0.0020000013,0.0,0.0019999994,0.0,nan,nan,nan,nan,nan,nan,nan,nan,0
8384000,8384000,0.0020000017,0.0,0.0019999999,0.0,nan,nan,nan,nan,nan,nan,nan,nan,0
8488000,8488000,0.0020000017,9.313226e-10,0.0019999999,0.0,nan,nan,nan,nan,nan,nan,nan,nan,0
8588000,8588000,0.0020000013,0.0,0.0020000013,0.0,nan,nan,nan,nan,nan,nan,nan,nan,0
8684000,8684000,0.0019999999,0.0,0.0020000017,0.0,nan,nan,nan,nan,nan,nan,nan,nan,0
8788000,8788000,0.0020000006,0.0,0.0019999982,1.8626451e-09,nan,nan,nan,nan,nan,nan,nan,nan,0
8884000,8884000,0.0020000017,0.0,0.002,0.0,nan,nan,nan,nan,nan,nan,nan,nan,0
8984000,8984000,0.0019999994,0.0,0.0019999994,0.0,nan,nan,nan,nan,nan,nan,nan,nan,0
9088000,9088000,0.0019999992,1.8626451e-09,0.0019999996,0.0,nan,nan,nan,nan,nan,nan,nan,nan,0
9188000,9188000,0.0019999999,0.0,0.0020000017,0.0,nan,nan,nan,nan,nan,nan,nan,nan,0
9284000,9284000,0.0019999994,0.0,0.0020000013,0.0,nan,nan,nan,nan,nan,nan,nan,nan,0
9388000,9388000,0.0020000017,9.313226e-10,0.0019999978,0.0,nan,nan,nan,nan,nan,nan,nan,nan,0
9484000,9484000,0.0019999994,0.0,0.0019999994,0.0,nan,nan,nan,nan,nan,nan,nan,nan,0
9588000,9588000,0.001999997,0.0,0.002000001,9.313226e-10,nan,nan,nan,nan,nan,nan,nan,nan,0
9688000,9688000,0.0019999975,1.8626451e-09,0.0019999994,0.0,nan,nan,nan,nan,nan,nan,nan,nan,0
9788000,9788000,0.0020000017,0.0,0.0019999996,0.0,nan,nan,nan,nan,nan,nan,nan,nan,0
9888000,9888000,0.0019999992,1.8626451e-09,0.0019999996,0.0,nan,nan,nan,nan,nan,nan,nan,nan,0
9984000,9984000,0.002000003,9.313226e-10,0.0019999987,0.0,nan,nan,nan,nan,nan,nan,nan,nan,0
10084000,10084000,0.0019999994,0.0,0.0020000013,0.0,nan,nan,nan,nan,nan,nan,nan,nan,0
10188000,10188000,0.0019999945,0.0,0.0020000006,3.7252903e-09,nan,nan,nan,nan,nan,nan,nan,nan,0
10288000,10288000,0.0020000013,0.0,0.0019999994,0.0,nan,nan,nan,nan,nan,nan,nan,nan,0
10388000,10388000,0.0020000013,0.0,0.0020000013,0.0,nan,nan,nan,nan,nan,nan,nan,nan,0
10488000,10488000,0.0019999994,0.0,0.0020000013,0.0,nan,nan,nan,nan,nan,nan,nan,nan,0
10588000,10588000,0.0020000003,0.0,0.0020000003,1.8626451e-09,nan,nan,nan,nan,nan,nan,nan,nan,0
10688000,10688000,0.0019999961,0.0,0.0020000008,1.8626451e-09,nan,nan,nan,nan,nan,nan,nan,nan,0
10788000,10788000,0.0020000013,0.0,0.0020000013,0.0,nan,nan,nan,nan,nan,nan,nan,nan,0
10888000,10888000,0.0020000024,3.7252903e-09,0.0019999945,0.0,nan,nan,nan,nan,nan,nan,nan,nan,0
10988000,10988000,0.002000003,0.0,0.0020000003,9.313226e-10,nan,nan,nan,nan,nan,nan,nan,nan,0
11088000,11088000,0.0019999999,0.0,0.0020000017,0.0,nan,nan,nan,nan,nan,nan,nan,nan,0
11188000,11188000,0.002,9.313226e-10,0.0020000015,0.0,nan,nan,nan,nan,nan,nan,nan,nan,0
11288000,11288000,0.0020000013,0.0,0.0019999994,1.8626451e-09,nan,nan,nan,nan,nan,nan,nan,nan,0
11388000,11388000,0.0020000013,0.0,0.0019999994,0.0,nan,nan,nan,nan,nan,nan,nan,nan,0
11488000,11488000,0.0019999994,0.0,0.0020000013,0.0,nan,nan,nan,nan,nan,nan,nan,nan,0
11588000,11588000,0.0020000013,0.0,0.0019999994,0.0,nan,nan,nan,nan,nan,nan,nan,nan,0
11688000,11688000,0.0020000013,0.0,0.0020000013,0.0,nan,nan,nan,nan,nan,nan,nan,nan,0
11788000,11788000,0.0019999968,0.0,0.0019999982,3.7252903e-09,nan,nan,nan,nan,nan,nan,nan,nan,0
11888000,11888000,0.0019999999,0.0,0.0019999999,0.0,nan,nan,nan,nan,nan,nan,nan,nan,0
11988000,11988000,0.0020000017,0.0,0.0019999999,0.0,nan,nan,nan,nan,nan,nan,nan,nan,0
12088000,12088000,0.0020000013,0.0,0.0020000013,0.0,nan,nan,nan,nan,nan,nan,nan,nan,0
12188000,12188000,0.0019999999,0.0,0.0020000017,0.0,nan,nan,nan,nan,nan,nan,nan,nan,0
12288000,12288000,0.0019999961,0.0,0.0020000008,1.8626451e-09,nan,nan,nan,nan,nan,nan,nan,nan,0
12388000,12388000,0.0019999994,0.0,0.0020000013,0.0,nan,nan,nan,nan,nan,nan,nan,nan,0
12488000,12488000,0.002000003,1.8626451e-09,0.0019999961,0.0,nan,nan,nan,nan,nan,nan,nan,nan,0
12588000,12588000,0.0020000017,1.8626451e-09,0.001999997,0.0,nan,nan,nan,nan,nan,nan,nan,nan,0
12684000,12684000,0.0020000013,0.0,0.0019999994,0.0,nan,nan,nan,nan,nan,nan,nan,nan,0
12784000,12784000,0.0020000027,1.8626451e-09,0.001999998,0.0,nan,nan,nan,nan,nan,nan,nan,nan,0
12888000,12888000,0.0020000003,0.0,0.0019999985,0.0,nan,nan,nan,nan,nan,nan,nan,nan,0
12984000,12984000,0.0019999994,0.0,0.0020000013,0.0,nan,nan,nan,nan,nan,nan,nan,nan,0
13084000,13084000,0.0020000013,0.0,0.0019999994,0.0,nan,nan,nan,nan,nan,nan,nan,nan,0
13188000,13188000,0.0019999994,0.0,0.0019999994,0.0,nan,nan,nan,nan,nan,nan,nan,nan,0
13288000,13288000,0.0019999994,0.0,0.0020000013,0.0,nan,nan,nan,nan,nan,nan,nan,nan,0
13388000,13388000,0.0019999985,0.0,0.002000004,0.0,nan,nan,nan,nan,nan,nan,nan,nan,0
13488000,13488000,0.0019999975,1.8626451e-09,0.0019999994,0.0,nan,nan,nan,nan,nan,nan,nan,nan,0
13588000,13588000,0.0019999975,1.8626451e-09,0.0020000013,0.0,nan,nan,nan,nan,nan,nan,nan,nan,0
13684000,13684000,0.0020000013,0.0,0.0019999994,0.0,nan,nan,nan,nan,nan,nan,nan,nan,0
13788000,13788000,0.0020000003,0.0,0.0020000003,0.0,nan,nan,nan,nan,nan,nan,nan,nan,0
13888000,13888000,0.001999999,0.0,0.0020000008,0.0,nan,nan,nan,nan,nan,nan,nan,nan,0
13988000,13988000,0.0019999999,0.0,0.0019999996,0.0,nan,nan,nan,nan,nan,nan,nan,nan,0
14088000,14088000,0.0019999994,0.0,0.0019999975,1.8626451e-09,nan,nan,nan,nan,nan,nan,nan,nan,0
14184000,14184000,0.0019999968,0.0,0.002000001,9.313226e-10,nan,nan,nan,nan,nan,nan,nan,nan,0
14284000,14284000,0.0020000013,0.0,0.0019999994,0.0,nan,nan,nan,nan,nan,nan,nan,nan,0
14388000,14388000,0.001999999,0.0,0.0020000006,0.0,nan,nan,nan,nan,nan,nan,nan,nan,0
14488000,14488000,0.0019999982,1.8626451e-09,0.0019999987,0.0,nan,nan,nan,nan,nan,nan,nan,nan,0
14588000,14588000,0.0020000013,0.0,0.0019999994,0.0,nan,nan,nan,nan,nan,nan,nan,nan,0
14688000,14688000,0.0019999994,0.0,0.0020000013,0.0,nan,nan,nan,nan,nan,nan,nan,nan,0
14788000,14788000,0.0019999994,0.0,0.0020000013,0.0,nan,nan,nan,nan,nan,nan,nan,nan,0
14888000,14888000,0.0020000017,0.0,0.002000002,0.0,nan,nan,nan,nan,nan,nan,nan,nan,0
14984000,14984000,0.0020000017,1.8626451e-09,0.001999999,0.0,nan,nan,nan,nan,nan,nan,nan,nan,0
15084000,15084000,0.0019999994,0.0,0.0020000013,0.0,nan,nan,nan,nan,nan,nan,nan,nan,0
15188000,15188000,0.001999999,0.0,0.0019999987,0.0,nan,nan,nan,nan,nan,nan,nan,nan,0
15288000,15288000,0.0019999994,0.0,0.0020000013,0.0,nan,nan,nan,nan,nan,nan,nan,nan,0
15388000,15388000,0.0020000022,0.0,0.0020000022,0.0,nan,nan,nan,nan,nan,nan,nan,nan,0
15484000,15484000,0.0019999985,1.8626451e-09,0.0019999985,0.0,nan,nan,nan,nan,nan,nan,nan,nan,0
15588000,15588000,0.0020000003,0.0,0.0020000022,0.0,nan,nan,nan,nan,nan,nan,nan,nan,0
15688000,15688000,0.0019999985,0.0,0.0019999985,0.0,nan,nan,nan,nan,nan,nan,nan,nan,0
15788000,15788000,0.002,1.8626451e-09,0.0020000006,0.0,nan,nan,nan,nan,nan,nan,nan,nan,0
15888000,15888000,0.0019999985,1.8626451e-09,0.0020000013,0.0,nan,nan,nan,nan,nan,nan,nan,nan,0
15988000,15988000,0.0020000003,0.0,0.0019999985,0.0,nan,nan,nan,nan,nan,nan,nan,nan,0
16088000,16088000,0.002000002,9.313226e-10,0.0019999978,0.0,nan,nan,nan,nan,nan,nan,nan,nan,0
16184000,16184000,0.0019999992,1.8626451e-09,0.0019999996,0.0,nan,nan,nan,nan,nan,nan,nan,nan,0
16284000,16284000,0.0019999994,0.0,0.0019999994,0.0,nan,nan,nan,nan,nan,nan,nan,nan,0
16388000,16388000,0.0020000013,0.0,0.0019999994,0.0,nan,nan,nan,nan,nan,nan,nan,nan,0
16488000,16488000,0.0019999994,0.0,0.0019999994,0.0,nan,nan,nan,nan,nan,nan,nan,nan,0
16588000,16588000,0.0019999994,0.0,0.0020000013,0.0,nan,nan,nan,nan,nan,nan,nan,nan,0
16688000,16688000,0.0019999994,0.0,0.0019999994,0.0,nan,nan,nan,nan,nan,nan,nan,nan,0
16788000,16788000,0.0019999975,1.8626451e-09,0.0019999994,0.0,nan,nan,nan,nan,nan,nan,nan,nan,0
16888000,16888000,0.0020000017,0.0,0.0019999996,0.0,nan,nan,nan,nan,nan,nan,nan,nan,0
16984000,16984000,0.0020000003,0.0,0.0020000022,0.0,nan,nan,nan,nan,nan,nan,nan,nan,0
17088000,17088000,0.0020000027,1.8626451e-09,0.001999998,0.0,nan,nan,nan,nan,nan,nan,nan,nan,0
17188000,17188000,0.0020000013,1.8626451e-09,0.0019999978,0.0,nan,nan,nan,nan,nan,nan,nan,nan,0
17284000,17284000,0.0019999978,0.0,0.002,2.7939677e-09,nan,nan,nan,nan,nan,nan,nan,nan,0
17388000,17388000,0.0019999994,0.0,0.0020000013,0.0,nan,nan,nan,nan,nan,nan,nan,nan,0
17488000,17488000,0.0019999987,0.0,0.002,1.8626451e-09,nan,nan,nan,nan,nan,nan,nan,nan,0
17588000,17588000,0.0020000013,0.0,0.0019999994,0.0,nan,nan,nan,nan,nan,nan,nan,nan,0
17688000,17688000,0.001999999,0.0,0.0020000008,0.0,nan,nan,nan,nan,nan,nan,nan,nan,0
17784000,17784000,0.0019999994,0.0,0.0019999985,0.0,nan,nan,nan,nan,nan,nan,nan,nan,0
17884000,17884000,0.002,9.313226e-10,0.0019999996,0.0,nan,nan,nan,nan,nan,nan,nan,nan,0
17988000,17988000,0.0019999994,0.0,0.0020000003,9.313226e-10,nan,nan,nan,nan,nan,nan,nan,nan,0
18088000,18088000,0.0019999985,0.0,0.0020000003,0.0,nan,nan,nan,nan,nan,nan,nan,nan,0
18188000,18188000,0.0019999994,0.0,0.0019999994,0.0,nan,nan,nan,nan,nan,nan,nan,nan,0
18288000,18288000,0.0019999999,0.0,0.0020000017,0.0,nan,nan,nan,nan,nan,nan,nan,nan,0
18388000,18388000,0.0019999996,0.0,0.002,9.313226e-10,nan,nan,nan,nan,nan,nan,nan,nan,0
18484000,18484000,0.0019999985,9.313226e-10,0.0020000013,0.0,nan,nan,nan,nan,nan,nan,nan,nan,0
18588000,18588000,0.0020000003,0.0,0.0020000003,0.0,nan,nan,nan,nan,nan,nan,nan,nan,0
18688000,18688000,0.002,9.313226e-10,0.0019999978,0.0,nan,nan,nan,nan,nan,nan,nan,nan,0
18784000,18784000,0.0020000003,0.0,0.0020000003,0.0,nan,nan,nan,nan,nan,nan,nan,nan,0
18888000,18888000,0.0020000013,0.0,0.0019999994,0.0,nan,nan,nan,nan,nan,nan,nan,nan,0
18984000,18984000,0.0019999985,1.8626451e-09,0.0020000003,0.0,nan,nan,nan,nan,nan,nan,nan,nan,0
19088000,19088000,0.0019999994,0.0,0.0019999994,0.0,nan,nan,nan,nan,nan,nan,nan,nan,0
19188000,19188000,0.0019999994,0.0,0.0020000013,0.0,nan,nan,nan,nan,nan,nan,nan,nan,0
19284000,19284000,0.0020000013,0.0,0.0019999994,1.8626451e-09,nan,nan,nan,nan,nan,nan,nan,nan,0
19388000,19388000,0.0019999994,0.0,0.0020000013,0.0,nan,nan,nan,nan,nan,nan,nan,nan,0
19488000,19488000,0.0020000022,0.0,0.0020000022,0.0,nan,nan,nan,nan,nan,nan,nan,nan,0
19588000,19588000,0.0020000003,0.0,0.0020000013,0.0,nan,nan,nan,nan,nan,nan,nan,nan,0
19688000,19688000,0.0020000013,0.0,0.0019999994,0.0,nan,nan,nan,nan,nan,nan,nan,nan,0
19788000,19788000,0.002000003,1.8626451e-09,0.001999998,0.0,nan,nan,nan,nan,nan,nan,nan,nan,0
19888000,19888000,0.0019999975,1.8626451e-09,0.0020000013,0.0,nan,nan,nan,nan,nan,nan,nan,nan,0
19988000,19988000,0.0019999994,0.0,0.0019999994,0.0,nan,nan,nan,nan,nan,nan,nan,nan,0
20088000,20088000,0.0019999985,0.0,0.0019999985,0.0,nan,nan,nan,nan,nan,nan,nan,nan,0
20184000,20184000,0.0019999994,0.0,0.0020000013,0.0,nan,nan,nan,nan,nan,nan,nan,nan,0
20288000,20288000,0.0020000003,0.0,0.0020000003,0.0,nan,nan,nan,nan,nan,nan,nan,nan,0
20388000,20388000,0.0019999994,0.0,0.0020000013,0.0,nan,nan,nan,nan,nan,nan,nan,nan,0
20488000,20488000,0.0020000003,1.8626451e-09,0.0019999985,0.0,nan,nan,nan,nan,nan,nan,nan,nan,0
20588000,20588000,0.0020000022,0.0,0.0020000003,0.0,nan,nan,nan,nan,nan,nan,nan,nan,0
20688000,20688000,0.0020000003,9.313226e-10,0.0020000013,0.0,nan,nan,nan,nan,nan,nan,nan,nan,0
20784000,20784000,0.0019999985,0.0,0.0020000022,0.0,nan,nan,nan,nan,nan,nan,nan,nan,0
20888000,20888000,0.0020000022,0.0,0.0020000013,0.0,nan,nan,nan,nan,nan,nan,nan,nan,0
20988000,20988000,0.0019999994,0.0,0.0020000013,0.0,nan,nan,nan,nan,nan,nan,nan,nan,0
21088000,21088000,0.0019999994,0.0,0.0020000013,0.0,nan,nan,nan,nan,nan,nan,nan,nan,0
21188000,21188000,0.0020000022,0.0,0.0020000022,0.0,nan,nan,nan,nan,nan,nan,nan,nan,0
21288000,21288000,0.002,9.313226e-10,0.0019999996,0.0,nan,nan,nan,nan,nan,nan,nan,nan,0
21388000,21388000,0.0019999985,1.8626451e-09,0.0019999994,0.0,nan,nan,nan,nan,nan,nan,nan,nan,0
21488000,21488000,0.0019999994,0.0,0.0020000013,0.0,nan,nan,nan,nan,nan,nan,nan,nan,0
21588000,21588000,0.0019999985,0.0,0.0019999985,0.0,nan,nan,nan,nan,nan,nan,nan,nan,0
21688000,21688000,0.0019999985,9.313226e-10,0.0019999994,0.0,nan,nan,nan,nan,nan,nan,nan,nan,0
21788000,21788000,0.0020000003,0.0,0.0020000003,0.0,nan,nan,nan,nan,nan,nan,nan,nan,0
21888000,21888000,0.0020000003,9.313226e-10,0.0020000013,0.0,nan,nan,nan,nan,nan,nan,nan,nan,0
21984000,21984000,0.0020000003,0.0,0.0020000022,0.0,nan,nan,nan,nan,nan,nan,nan,nan,0
22084000,22084000,0.0020000003,0.0,0.0020000003,0.0,nan,nan,nan,nan,nan,nan,nan,nan,0
22184000,22184000,0.002,9.313226e-10,0.0019999996,0.0,nan,nan,nan,nan,nan,nan,nan,nan,0
22284000,22284000,0.0020000003,0.0,0.0019999985,0.0,nan,nan,nan,nan,nan,nan,nan,nan,0
22388000,22388000,0.0019999994,0.0,0.0019999994,0.0,nan,nan,nan,nan,nan,nan,nan,nan,0
22488000,22488000,0.0020000003,0.0,0.0020000022,0.0,nan,nan,nan,nan,nan,nan,nan,nan,0
22588000,22588000,0.0019999996,0.0,0.002000002,9.313226e-10,nan,nan,nan,nan,nan,nan,nan,nan,0
22688000,22688000,0.0020000013,0.0,0.0019999994,0.0,nan,nan,nan,nan,nan,nan,nan,nan,0
22788000,22788000,0.002000002,9.313226e-10,0.0019999996,0.0,nan,nan,nan,nan,nan,nan,nan,nan,0
22888000,22888000,0.0020000003,0.0,0.0020000003,0.0,nan,nan,nan,nan,nan,nan,nan,nan,0
22988000,22988000,0.0020000003,9.313226e-10,0.0020000013,0.0,nan,nan,nan,nan,nan,nan,nan,nan,0
23084000,23084000,0.0020000013,0.0,0.0019999994,0.0,nan,nan,nan,nan,nan,nan,nan,nan,0
23188000,23188000,0.0020000003,0.0,0.0019999985,0.0,nan,nan,nan,nan,nan,nan,nan,nan,0
23288000,23288000,0.0019999994,0.0,0.0020000013,0.0,nan,nan,nan,nan,nan,nan,nan,nan,0
23384000,23384000,0.0019999996,0.0,0.002000002,9.313226e-10,nan,nan,nan,nan,nan,nan,nan,nan,0
23484000,23484000,0.0020000003,0.0,0.0020000003,0.0,nan,nan,nan,nan,nan,nan,nan,nan,0
23588000,23588000,0.0020000003,0.0,0.0020000003,0.0,nan,nan,nan,nan,nan,nan,nan,nan,0
23688000,23688000,0.0019999985,0.0,0.0019999985,0.0,nan,nan,nan,nan,nan,nan,nan,nan,0
23788000,23788000,0.0020000003,0.0,0.0020000022,0.0,nan,nan,nan,nan,nan,nan,nan,nan,0
23884000,23884000,0.0019999994,0.0,0.0020000013,0.0,nan,nan,nan,nan,nan,nan,nan,nan,0
23988000,23988000,0.0019999994,0.0,0.0020000013,0.0,nan,nan,nan,nan,nan,nan,nan,nan,0
24088000,24088000,0.002,9.313226e-10,0.0019999978,0.0,nan,nan,nan,nan,nan,nan,nan,nan,0
24188000,24188000,0.0020000003,9.313226e-10,0.0020000013,0.0,nan,nan,nan,nan,nan,nan,nan,nan,0
24288000,24288000,0.0020000003,0.0,0.0019999985,0.0,nan,nan,nan,nan,nan,nan,nan,nan,0
24388000,24388000,0.0020000003,0.0,0.0020000003,0.0,nan,nan,nan,nan,nan,nan,nan,nan,0
24488000,24488000,0.0019999994,0.0,0.0020000013,0.0,nan,nan,nan,nan,nan,nan,nan,nan,0
24584000,24584000,0.0020000003,9.313226e-10,0.0019999994,0.0,nan,nan,nan,nan,nan,nan,nan,nan,0
24688000,24688000,0.0020000003,0.0,0.0019999994,0.0,nan,nan,nan,nan,nan,nan,nan,nan,0
24788000,24788000,0.0020000003,0.0,0.0020000003,0.0,nan,nan,nan,nan,nan,nan,nan,nan,0
24888000,24888000,0.0019999994,0.0,0.0019999994,0.0,nan,nan,nan,nan,nan,nan,nan,nan,0
24988000,24988000,0.0020000003,0.0,0.0020000003,0.0,nan,nan,nan,nan,nan,nan,nan,nan,0
25088000,25088000,0.0020000013,0.0,0.0019999994,0.0,nan,nan,nan,nan,nan,nan,nan,nan,0
25188000,25188000,0.0019999994,0.0,0.0020000013,0.0,nan,nan,nan,nan,nan,nan,nan,nan,0
25288000,25288000,0.0020000003,0.0,0.0020000003,0.0,nan,nan,nan,nan,nan,nan,nan,nan,0
25388000,25388000,0.0019999994,0.0,0.0019999994,0.0,nan,nan,nan,nan,nan,nan,nan,nan,0
25488000,25488000,0.0019999994,0.0,0.0020000013,0.0,nan,nan,nan,nan,nan,nan,nan,nan,0
25584000,25584000,0.001999997,0.0,0.0019999999,1.8626451e-09,nan,nan,nan,nan,nan,nan,nan,nan,0
25684000,25684000,0.0019999994,0.0,0.0019999994,0.0,nan,nan,nan,nan,nan,nan,nan,nan,0
25788000,25788000,0.0020000003,0.0,0.0020000003,0.0,nan,nan,nan,nan,nan,nan,nan,nan,0
25888000,25888000,0.0019999994,0.0,0.0020000013,0.0,nan,nan,nan,nan,nan,nan,nan,nan,0
25988000,25988000,0.0020000003,0.0,0.0019999985,0.0,nan,nan,nan,nan,nan,nan,nan,nan,0
26088000,26088000,0.0020000003,0.0,0.0020000003,0.0,nan,nan,nan,nan,nan,nan,nan,nan,0
26188000,26188000,0.0019999985,0.0,0.0019999985,0.0,nan,nan,nan,nan,nan,nan,nan,nan,0
26288000,26288000,0.0019999994,0.0,0.0020000013,0.0,nan,nan,nan,nan,nan,nan,nan,nan,0
26388000,26388000,0.002,9.313226e-10,0.0019999978,0.0,nan,nan,nan,nan,nan,nan,nan,nan,0
26488000,26488000,0.0019999994,0.0,0.0020000013,0.0,nan,nan,nan,nan,nan,nan,nan,nan,0
26588000,26588000,0.0019999994,0.0,0.0020000003,0.0,nan,nan,nan,nan,nan,nan,nan,nan,0
26688000,26688000,0.0020000003,0.0,0.0019999985,0.0,nan,nan,nan,nan,nan,nan,nan,nan,0
26788000,26788000,0.002,9.313226e-10,0.0019999978,0.0,nan,nan,nan,nan,nan,nan,nan,nan,0
26888000,26888000,0.0019999975,0.0,0.0019999994,0.0,nan,nan,nan,nan,nan,nan,nan,nan,0
26988000,26988000,0.0019999994,0.0,0.0020000013,0.0,nan,nan,nan,nan,nan,nan,nan,nan,0
27088000,27088000,0.0020000003,9.313226e-10,0.0020000003,0.0,nan,nan,nan,nan,nan,nan,nan,nan,0
27188000,27188000,0.0020000013,0.0,0.0019999994,0.0,nan,nan,nan,nan,nan,nan,nan,nan,0
27288000,27288000,0.0020000003,0.0,0.0020000003,0.0,nan,nan,nan,nan,nan,nan,nan,nan,0
27384000,27384000,0.002,9.313226e-10,0.0019999996,0.0,nan,nan,nan,nan,nan,nan,nan,nan,0
27484000,27484000,0.0019999994,0.0,0.0020000013,0.0,nan,nan,nan,nan,nan,nan,nan,nan,0
27588000,27588000,0.0020000003,0.0,0.0019999985,0.0,nan,nan,nan,nan,nan,nan,nan,nan,0
27688000,27688000,0.0020000017,1.8626451e-09,0.001999997,0.0,nan,nan,nan,nan,nan,nan,nan,nan,0
27788000,27788000,0.0020000022,0.0,0.0020000022,0.0,nan,nan,nan,nan,nan,nan,nan,nan,0
27888000,27888000,0.0020000003,9.313226e-10,0.0019999996,0.0,nan,nan,nan,nan,nan,nan,nan,nan,0
27984000,27984000,0.0019999985,0.0,0.0020000022,0.0,nan,nan,nan,nan,nan,nan,nan,nan,0
28088000,28088000,0.0019999985,9.313226e-10,0.0020000013,0.0,nan,nan,nan,nan,nan,nan,nan,nan,0
28188000,28188000,0.0019999985,0.0,0.0020000003,0.0,nan,nan,nan,nan,nan,nan,nan,nan,0
28288000,28288000,0.0020000003,0.0,0.0020000003,0.0,nan,nan,nan,nan,nan,nan,nan,nan,0
28388000,28388000,0.0020000003,0.0,0.0019999985,1.8626451e-09,nan,nan,nan,nan,nan,nan,nan,nan,0
28488000,28488000,0.0019999994,0.0,0.0020000013,0.0,nan,nan,nan,nan,nan,nan,nan,nan,0
28588000,28588000,0.0020000013,0.0,0.0019999994,0.0,nan,nan,nan,nan,nan,nan,nan,nan,0
28688000,28688000,0.0020000013,0.0,0.0020000003,0.0,nan,nan,nan,nan,nan,nan,nan,nan,0
28788000,28788000,0.0020000013,0.0,0.0019999994,0.0,nan,nan,nan,nan,nan,nan,nan,nan,0
28888000,28888000,0.0019999994,0.0,0.0020000013,0.0,nan,nan,nan,nan,nan,nan,nan,nan,0
28988000,28988000,0.0019999994,0.0,0.0019999994,0.0,nan,nan,nan,nan,nan,nan,nan,nan,0
29084000,29084000,0.0019999975,0.0,0.0020000013,0.0,nan,nan,nan,nan,nan,nan,nan,nan,0
29188000,29188000,0.0019999985,1.8626451e-09,0.0019999985,0.0,nan,nan,nan,nan,nan,nan,nan,nan,0
29288000,29288000,0.0019999994,0.0,0.0020000013,0.0,nan,nan,nan,nan,nan,nan,nan,nan,0
29388000,29388000,0.0020000003,9.313226e-10,0.0020000013,0.0,nan,nan,nan,nan,nan,nan,nan,nan,0
29488000,29488000,0.002,1.8626451e-09,0.001999999,0.0,nan,nan,nan,nan,nan,nan,nan,nan,0
29584000,29584000,0.0020000003,0.0,0.0020000003,0.0,nan,nan,nan,nan,nan,nan,nan,nan,0
29688000,29688000,0.0019999994,0.0,0.0020000003,0.0,nan,nan,nan,nan,nan,nan,nan,nan,0
29788000,29788000,0.0019999999,1.8626451e-09,0.001999999,0.0,nan,nan,nan,nan,nan,nan,nan,nan,0
29888000,29888000,0.0019999978,0.0,0.002000002,9.313226e-10,nan,nan,nan,nan,nan,nan,nan,nan,0
29988000,29988000,0.0019999985,0.0,0.0019999985,0.0,nan,nan,nan,nan,nan,nan,nan,nan,0
30088000,30088000,0.0020000003,0.0,0.0020000003,0.0,nan,nan,nan,nan,nan,nan,nan,nan,0
30184000,30184000,0.0019999994,0.0,0.0020000013,0.0,nan,nan,nan,nan,nan,nan,nan,nan,0
30288000,30288000,0.0019999985,0.0,0.0019999985,0.0,nan,nan,nan,nan,nan,nan,nan,nan,0
30384000,30384000,0.0019999994,0.0,0.0020000013,0.0,nan,nan,nan,nan,nan,nan,nan,nan,0
30484000,30484000,0.0020000003,9.313226e-10,0.0020000003,0.0,nan,nan,nan,nan,nan,nan,nan,nan,0
30588000,30588000,0.0020000013,0.0,0.0019999994,0.0,nan,nan,nan,nan,nan,nan,nan,nan,0
30688000,30688000,0.0020000013,0.0,0.0019999994,0.0,nan,nan,nan,nan,nan,nan,nan,nan,0
30788000,30788000,0.002000001,9.313226e-10,0.0019999978,0.0,nan,nan,nan,nan,nan,nan,nan,nan,0
30888000,30888000,0.0019999987,0.0,0.002,9.313226e-10,nan,nan,nan,nan,nan,nan,nan,nan,0
30988000,30988000,0.0020000003,0.0,0.0020000003,0.0,nan,nan,nan,nan,nan,nan,nan,nan,0
31088000,31088000,0.0020000003,0.0,0.0019999985,0.0,nan,nan,nan,nan,nan,nan,nan,nan,0
31188000,31188000,0.0020000003,9.313226e-10,0.0020000013,0.0,nan,nan,nan,nan,nan,nan,nan,nan,0
31288000,31288000,0.0020000003,9.313226e-10,0.0019999996,0.0,nan,nan,nan,nan,nan,nan,nan,nan,0
31384000,31384000,0.0019999994,0.0,0.0020000013,0.0,nan,nan,nan,nan,nan,nan,nan,nan,0
31484000,31484000,0.0019999978,0.0,0.002000003,9.313226e-10,nan,nan,nan,nan,nan,nan,nan,nan,0
31588000,31588000,0.0019999985,0.0,0.0019999985,0.0,nan,nan,nan,nan,nan,nan,nan,nan,0
31688000,31688000,0.0019999985,0.0,0.0019999985,0.0,nan,nan,nan,nan,nan,nan,nan,nan,0
31788000,31788000,0.0019999975,1.8626451e-09,0.0019999994,0.0,nan,nan,nan,nan,nan,nan,nan,nan,0
31888000,31888000,0.0020000003,0.0,0.0019999985,0.0,nan,nan,nan,nan,nan,nan,nan,nan,0
31988000,31988000,0.0019999985,0.0,0.0020000003,1.8626451e-09,nan,nan,nan,nan,nan,nan,nan,nan,0
32084000,32084000,0.0019999999,1.8626451e-09,0.001999997,0.0,nan,nan,nan,nan,nan,nan,nan,nan,0
32184000,32184000,0.0019999985,0.0,0.0020000003,0.0,nan,nan,nan,nan,nan,nan,nan,nan,0
32288000,32288000,0.0020000003,0.0,0.0020000003,0.0,nan,nan,nan,nan,nan,nan,nan,nan,0
32388000,32388000,0.0020000003,0.0,0.0020000003,0.0,nan,nan,nan,nan,nan,nan,nan,nan,0
32488000,32488000,0.0020000003,0.0,0.0020000022,0.0,nan,nan,nan,nan,nan,nan,nan,nan,0
32584000,32584000,0.001999999,0.0,0.001999999,0.0,nan,nan,nan,nan,nan,nan,nan,nan,0
32684000,32684000,0.0019999982,1.8626451e-09,0.0019999968,0.0,nan,nan,nan,nan,nan,nan,nan,nan,0
32784000,32784000,0.0019999994,0.0,0.0019999994,0.0,nan,nan,nan,nan,nan,nan,nan,nan,0
32888000,32888000,0.0020000003,1.8626451e-09,0.0019999994,0.0,nan,nan,nan,nan,nan,nan,nan,nan,0
32988000,32988000,0.0020000003,9.313226e-10,0.0019999994,0.0,nan,nan,nan,nan,nan,nan,nan,nan,0
33088000,33088000,0.0020000003,0.0,0.0020000022,0.0,nan,nan,nan,nan,nan,nan,nan,nan,0
33188000,33188000,0.0019999985,9.313226e-10,0.0020000022,0.0,nan,nan,nan,nan,nan,nan,nan,nan,0
33284000,33284000,0.0019999994,0.0,0.0020000003,9.313226e-10,nan,nan,nan,nan,nan,nan,nan,nan,0
33388000,33388000,0.0020000003,9.313226e-10,0.0019999994,0.0,nan,nan,nan,nan,nan,nan,nan,nan,0
33488000,33488000,0.0020000003,0.0,0.0020000003,0.0,nan,nan,nan,nan,nan,nan,nan,nan,0
33584000,33584000,0.0019999994,0.0,0.0020000013,0.0,nan,nan,nan,nan,nan,nan,nan,nan,0
33684000,33684000,0.0020000003,0.0,0.0020000022,0.0,nan,nan,nan,nan,nan,nan,nan,nan,0
33788000,33788000,0.0019999985,0.0,0.0019999966,1.8626451e-09,nan,nan,nan,nan,nan,nan,nan,nan,0
33888000,33888000,0.0020000013,0.0,0.0020000013,0.0,nan,nan,nan,nan,nan,nan,nan,nan,0
33988000,33988000,0.0019999994,0.0,0.0020000013,0.0,nan,nan,nan,nan,nan,nan,nan,nan,0
34088000,34088000,0.0019999994,0.0,0.0020000003,0.0,nan,nan,nan,nan,nan,nan,nan,nan,0
34188000,34188000,0.002,1.8626451e-09,0.0019999987,0.0,nan,nan,nan,nan,nan,nan,nan,nan,0
34288000,34288000,0.0020000003,0.0,0.0020000022,0.0,nan,nan,nan,nan,nan,nan,nan,nan,0
34388000,34388000,0.0020000003,0.0,0.0020000022,0.0,nan,nan,nan,nan,nan,nan,nan,nan,0
34488000,34488000,0.0020000003,0.0,0.0020000022,0.0,nan,nan,nan,nan,nan,nan,nan,nan,0
34588000,34588000,0.0020000003,1.8626451e-09,0.0019999985,0.0,nan,nan,nan,nan,nan,nan,nan,nan,0
34688000,34688000,0.002000002,9.313226e-10,0.0019999978,0.0,nan,nan,nan,nan,nan,nan,nan,nan,0
34788000,34788000,0.0020000013,0.0,0.0019999994,0.0,nan,nan,nan,nan,nan,nan,nan,nan,0
34884000,34884000,0.0019999994,0.0,0.0020000013,0.0,nan,nan,nan,nan,nan,nan,nan,nan,0
34984000,34984000,0.0019999994,0.0,0.0020000013,0.0,nan,nan,nan,nan,nan,nan,nan,nan,0
35084000,35084000,0.0019999985,0.0,0.0020000003,1.8626451e-09,nan,nan,nan,nan,nan,nan,nan,nan,0
35188000,35188000,0.0020000003,0.0,0.0019999985,0.0,nan,nan,nan,nan,nan,nan,nan,nan,0
35288000,35288000,0.0019999999,0.0,0.0019999999,0.0,nan,nan,nan,nan,nan,nan,nan,nan,0
35388000,35388000,0.0019999994,0.0,0.0020000013,0.0,nan,nan,nan,nan,nan,nan,nan,nan,0
35484000,35484000,0.0019999985,0.0,0.0019999985,0.0,nan,nan,nan,nan,nan,nan,nan,nan,0
35584000,35584000,0.0020000003,0.0,0.0020000003,0.0,nan,nan,nan,nan,nan,nan,nan,nan,0
35684000,35684000,0.0020000003,9.313226e-10,0.0019999975,0.0,nan,nan,nan,nan,nan,nan,nan,nan,0
35784000,35784000,0.0020000013,0.0,0.0020000013,0.0,nan,nan,nan,nan,nan,nan,nan,nan,0
35884000,35884000,0.0020000003,0.0,0.0020000022,0.0,nan,nan,nan,nan,nan,nan,nan,nan,0
35988000,35988000,0.0020000003,0.0,0.0019999985,0.0,nan,nan,nan,nan,nan,nan,nan,nan,0
36084000,36084000,0.0019999985,9.313226e-10,0.0020000013,0.0,nan,nan,nan,nan,nan,nan,nan,nan,0
36184000,36184000,0.0020000017,1.8626451e-09,0.001999999,0.0,nan,nan,nan,nan,nan,nan,nan,nan,0
36288000,36288000,0.0019999994,0.0,0.0020000013,0.0,nan,nan,nan,nan,nan,nan,nan,nan,0
36388000,36388000,0.0020000003,9.313226e-10,0.0019999978,0.0,nan,nan,nan,nan,nan,nan,nan,nan,0
36484000,36484000,0.0020000003,0.0,0.0020000022,0.0,nan,nan,nan,nan,nan,nan,nan,nan,0
36584000,36584000,0.0019999994,0.0,0.0019999994,0.0,nan,nan,nan,nan,nan,nan,nan,nan,0
36684000,36684000,0.0020000022,0.0,0.0019999985,0.0,nan,nan,nan,nan,nan,nan,nan,nan,0
36788000,36788000,0.0019999994,0.0,0.0020000013,0.0,nan,nan,nan,nan,nan,nan,nan,nan,0
36884000,36884000,0.0019999994,0.0,0.0020000013,0.0,nan,nan,nan,nan,nan,nan,nan,nan,0
36984000,36984000,0.0019999994,0.0,0.0020000013,0.0,nan,nan,nan,nan,nan,nan,nan,nan,0
37088000,37088000,0.0019999999,0.0,0.0020000017,0.0,nan,nan,nan,nan,nan,nan,nan,nan,0
37188000,37188000,0.0019999994,0.0,0.0020000013,0.0,nan,nan,nan,nan,nan,nan,nan,nan,0
37288000,37288000,0.001999999,0.0,0.001999999,0.0,nan,nan,nan,nan,nan,nan,nan,nan,0
37388000,37388000,0.0019999985,0.0,0.0019999985,0.0,nan,nan,nan,nan,nan,nan,nan,nan,0
37488000,37488000,0.0020000017,0.0,0.0019999999,0.0,nan,nan,nan,nan,nan,nan,nan,nan,0
37588000,37588000,0.0019999978,0.0,0.0019999992,1.8626451e-09,nan,nan,nan,nan,nan,nan,nan,nan,0
37688000,37688000,0.001999999,0.0,0.0020000008,0.0,nan,nan,nan,nan,nan,nan,nan,nan,0
37784000,37784000,0.002000002,9.313226e-10,0.0019999996,0.0,nan,nan,nan,nan,nan,nan,nan,nan,0
37888000,37888000,0.0020000003,0.0,0.0020000003,0.0,nan,nan,nan,nan,nan,nan,nan,nan,0
37988000,37988000,0.0020000003,0.0,0.0020000003,0.0,nan,nan,nan,nan,nan,nan,nan,nan,0
38088000,38088000,0.0019999985,0.0,0.0020000003,0.0,nan,nan,nan,nan,nan,nan,nan,nan,0
38188000,38188000,0.0019999985,0.0,0.0019999985,0.0,nan,nan,nan,nan,nan,nan,nan,nan,0
38288000,38288000,0.002,9.313226e-10,0.0019999996,0.0,nan,nan,nan,nan,nan,nan,nan,nan,0
38384000,38384000,0.0019999985,1.8626451e-09,0.0020000022,0.0,nan,nan,nan,nan,nan,nan,nan,nan,0
38488000,38488000,0.002,0.0,0.0019999996,0.0,nan,nan,nan,nan,nan,nan,nan,nan,0
38584000,38584000,0.002000001,0.0,0.0019999987,0.0,nan,nan,nan,nan,nan,nan,nan,nan,0
38684000,38684000,0.0020000013,0.0,0.0019999994,0.0,nan,nan,nan,nan,nan,nan,nan,nan,0
38784000,38784000,0.0020000013,0.0,0.0019999994,0.0,nan,nan,nan,nan,nan,nan,nan,nan,0
38888000,38888000,0.0019999994,0.0,0.0020000013,0.0,nan,nan,nan,nan,nan,nan,nan,nan,0
38988000,38988000,0.0019999985,9.313226e-10,0.0020000022,0.0,nan,nan,nan,nan,nan,nan,nan,nan,0
39088000,39088000,0.0019999985,0.0,0.0019999985,0.0,nan,nan,nan,nan,nan,nan,nan,nan,0
39188000,39188000,0.002,9.313226e-10,0.0019999978,0.0,nan,nan,nan,nan,nan,nan,nan,nan,0
39288000,39288000,0.0019999994,0.0,0.0020000013,0.0,nan,nan,nan,nan,nan,nan,nan,nan,0
39388000,39388000,0.0019999999,0.0,0.0019999999,0.0,nan,nan,nan,nan,nan,nan,nan,nan,0
39488000,39488000,0.0020000003,0.0,0.0020000003,0.0,nan,nan,nan,nan,nan,nan,nan,nan,0
39588000,39588000,0.0019999999,0.0,0.0020000017,0.0,nan,nan,nan,nan,nan,nan,nan,nan,0
39684000,39684000,0.0020000003,0.0,0.0020000003,0.0,nan,nan,nan,nan,nan,nan,nan,nan,0
39784000,39784000,0.0020000022,0.0,0.0020000022,0.0,nan,nan,nan,nan,nan,nan,nan,nan,0
39884000,39884000,0.0019999985,0.0,0.0019999985,0.0,nan,nan,nan,nan,nan,nan,nan,nan,0
39984000,39984000,0.0019999994,0.0,0.0019999994,0.0,nan,nan,nan,nan,nan,nan,nan,nan,0
40088000,40088000,0.0019999994,0.0,0.0020000013,0.0,nan,nan,nan,nan,nan,nan,nan,nan,0
40184000,40184000,0.0019999994,0.0,0.0020000013,0.0,nan,nan,nan,nan,nan,nan,nan,nan,0
40284000,40284000,0.0020000024,0.0,0.0020000008,0.0,nan,nan,nan,nan,nan,nan,nan,nan,0
40384000,40384000,0.0019999978,0.0,0.002000001,1.8626451e-09,nan,nan,nan,nan,nan,nan,nan,nan,0
40484000,40484000,0.0019999994,0.0,0.0019999994,0.0,nan,nan,nan,nan,nan,nan,nan,nan,0
40584000,40584000,0.002,2.7939677e-09,0.0019999978,0.0,nan,nan,nan,nan,nan,nan,nan,nan,0
40688000,40688000,0.0019999994,0.0,0.0020000013,0.0,nan,nan,nan,nan,nan,nan,nan,nan,0
40788000,40788000,0.0020000003,0.0,0.0020000003,0.0,nan,nan,nan,nan,nan,nan,nan,nan,0
40888000,40888000,0.0019999968,0.0,0.0019999982,1.8626451e-09,nan,nan,nan,nan,nan,nan,nan,nan,0
40988000,40988000,0.0019999994,0.0,0.0019999994,0.0,nan,nan,nan,nan,nan,nan,nan,nan,0
41088000,41088000,0.0019999994,0.0,0.0019999994,0.0,nan,nan,nan,nan,nan,nan,nan,nan,0
41188000,41188000,0.0019999994,9.313226e-10,0.0019999994,0.0,nan,nan,nan,nan,nan,nan,nan,nan,0
41288000,41288000,0.0019999978,0.0,0.0019999992,9.313226e-10,nan,nan,nan,nan,nan,nan,nan,nan,0
41388000,41388000,0.0020000003,9.313226e-10,0.0020000013,0.0,nan,nan,nan,nan,nan,nan,nan,nan,0
41488000,41488000,0.0020000003,0.0,0.0020000003,0.0,nan,nan,nan,nan,nan,nan,nan,nan,0
41588000,41588000,0.0020000022,0.0,0.0020000003,0.0,nan,nan,nan,nan,nan,nan,nan,nan,0
41684000,41684000,0.0019999992,1.8626451e-09,0.0019999996,0.0,nan,nan,nan,nan,nan,nan,nan,nan,0
41788000,41788000,0.0019999992,0.0,0.0019999985,9.313226e-10,nan,nan,nan,nan,nan,nan,nan,nan,0
41884000,41884000,0.0019999985,9.313226e-10,0.0020000013,0.0,nan,nan,nan,nan,nan,nan,nan,nan,0
41988000,41988000,0.0020000003,0.0,0.0020000003,0.0,nan,nan,nan,nan,nan,nan,nan,nan,0
42088000,42088000,0.0019999994,0.0,0.0020000013,0.0,nan,nan,nan,nan,nan,nan,nan,nan,0
42188000,42188000,0.0019999999,0.0,0.0019999999,0.0,nan,nan,nan,nan,nan,nan,nan,nan,0
42288000,42288000,0.0019999985,1.8626451e-09,0.0019999985,0.0,nan,nan,nan,nan,nan,nan,nan,nan,0
42388000,42388000,0.0019999978,0.0,0.0019999992,1.8626451e-09,nan,nan,nan,nan,nan,nan,nan,nan,0
42488000,42488000,0.0020000027,0.0,0.0020000008,0.0,nan,nan,nan,nan,nan,nan,nan,nan,0
42588000,42588000,0.0019999994,0.0,0.0020000003,9.313226e-10,nan,nan,nan,nan,nan,nan,nan,nan,0
42688000,42688000,0.0020000013,0.0,0.0019999985,9.313226e-10,nan,nan,nan,nan,nan,nan,nan,nan,0
42784000,42784000,0.0020000003,0.0,0.0020000003,0.0,nan,nan,nan,nan,nan,nan,nan,nan,0
42888000,42888000,0.0019999985,1.8626451e-09,0.0019999994,0.0,nan,nan,nan,nan,nan,nan,nan,nan,0
42988000,42988000,0.0020000022,0.0,0.0020000003,0.0,nan,nan,nan,nan,nan,nan,nan,nan,0
43088000,43088000,0.0020000013,0.0,0.0019999994,0.0,nan,nan,nan,nan,nan,nan,nan,nan,0
43188000,43188000,0.001999997,0.0,0.0020000017,1.8626451e-09,nan,nan,nan,nan,nan,nan,nan,nan,0
43284000,43284000,0.0020000003,0.0,0.0020000022,0.0,nan,nan,nan,nan,nan,nan,nan,nan,0
43388000,43388000,0.0020000008,0.0,0.0020000027,0.0,nan,nan,nan,nan,nan,nan,nan,nan,0
43488000,43488000,0.0020000022,0.0,0.0020000022,0.0,nan,nan,nan,nan,nan,nan,nan,nan,0
43588000,43588000,0.0020000013,0.0,0.0019999994,0.0,nan,nan,nan,nan,nan,nan,nan,nan,0
43684000,43684000,0.0020000013,0.0,0.0019999994,0.0,nan,nan,nan,nan,nan,nan,nan,nan,0
43788000,43788000,0.0019999994,0.0,0.0020000013,0.0,nan,nan,nan,nan,nan,nan,nan,nan,0
43888000,43888000,0.0020000003,0.0,0.0020000022,0.0,nan,nan,nan,nan,nan,nan,nan,nan,0
43988000,43988000,0.0019999994,0.0,0.0020000003,0.0,nan,nan,nan,nan,nan,nan,nan,nan,0
44088000,44088000,0.0019999994,0.0,0.0020000013,0.0,nan,nan,nan,nan,nan,nan,nan,nan,0
44184000,44184000,0.0020000003,0.0,0.0020000003,0.0,nan,nan,nan,nan,nan,nan,nan,nan,0
44284000,44284000,0.0019999985,9.313226e-10,0.0020000022,0.0,nan,nan,nan,nan,nan,nan,nan,nan,0
44384000,44384000,0.0020000003,0.0,0.0020000003,0.0,nan,nan,nan,nan,nan,nan,nan,nan,0
44488000,44488000,0.0019999994,0.0,0.0019999994,0.0,nan,nan,nan,nan,nan,nan,nan,nan,0
44588000,44588000,0.0019999994,0.0,0.0020000003,9.313226e-10,nan,nan,nan,nan,nan,nan,nan,nan,0
44684000,44684000,0.0019999994,0.0,0.0019999994,0.0,nan,nan,nan,nan,nan,nan,nan,nan,0
44788000,44788000,0.0019999994,0.0,0.0019999994,0.0,nan,nan,nan,nan,nan,nan,nan,nan,0
44884000,44884000,0.0019999987,0.0,0.002,1.8626451e-09,nan,nan,nan,nan,nan,nan,nan,nan,0
44988000,44988000,0.0019999994,0.0,0.0020000003,9.313226e-10,nan,nan,nan,nan,nan,nan,nan,nan,0
45088000,45088000,0.0019999994,0.0,0.0020000013,0.0,nan,nan,nan,nan,nan,nan,nan,nan,0
45188000,45188000,0.0020000003,0.0,0.0020000003,0.0,nan,nan,nan,nan,nan,nan,nan,nan,0
45288000,45288000,0.0020000003,0.0,0.0020000022,0.0,nan,nan,nan,nan,nan,nan,nan,nan,0
45388000,45388000,0.0019999994,0.0,0.0019999994,0.0,nan,nan,nan,nan,nan,nan,nan,nan,0
45488000,45488000,0.0019999994,0.0,0.0020000013,0.0,nan,nan,nan,nan,nan,nan,nan,nan,0
45588000,45588000,0.0020000022,0.0,0.0020000003,0.0,nan,nan,nan,nan,nan,nan,nan,nan,0
45688000,45688000,0.0019999985,0.0,0.0019999985,0.0,nan,nan,nan,nan,nan,nan,nan,nan,0
45788000,45788000,0.0019999985,0.0,0.0019999985,1.8626451e-09,nan,nan,nan,nan,nan,nan,nan,nan,0
45888000,45888000,0.0020000013,0.0,0.0020000013,0.0,nan,nan,nan,nan,nan,nan,nan,nan,0
45988000,45988000,0.0020000003,0.0,0.0020000003,0.0,nan,nan,nan,nan,nan,nan,nan,nan,0
46088000,46088000,0.0019999987,0.0,0.0019999982,1.8626451e-09,nan,nan,nan,nan,nan,nan,nan,nan,0
46188000,46188000,0.0019999985,0.0,0.0020000022,0.0,nan,nan,nan,nan,nan,nan,nan,nan,0
46288000,46288000,0.0020000003,0.0,0.0020000022,0.0,nan,nan,nan,nan,nan,nan,nan,nan,0
46388000,46388000,0.002,0.0,0.0019999985,0.0,nan,nan,nan,nan,nan,nan,nan,nan,0
46488000,46488000,0.0019999994,0.0,0.0020000013,0.0,nan,nan,nan,nan,nan,nan,nan,nan,0
46584000,46584000,0.0020000008,0.0,0.0020000008,0.0,nan,nan,nan,nan,nan,nan,nan,nan,0
46684000,46684000,0.002,1.8626451e-09,0.0020000006,0.0,nan,nan,nan,nan,nan,nan,nan,nan,0
46784000,46784000,0.0020000003,0.0,0.0020000013,0.0,nan,nan,nan,nan,nan,nan,nan,nan,0
46888000,46888000,0.0020000003,0.0,0.0020000003,0.0,nan,nan,nan,nan,nan,nan,nan,nan,0
46988000,46988000,0.0020000022,0.0,0.0020000022,0.0,nan,nan,nan,nan,nan,nan,nan,nan,0
47088000,47088000,0.002000003,0.0,0.0019999987,0.0,nan,nan,nan,nan,nan,nan,nan,nan,0
47184000,47184000,0.0019999994,0.0,0.0019999994,0.0,nan,nan,nan,nan,nan,nan,nan,nan,0
47288000,47288000,0.0019999994,0.0,0.0020000013,0.0,nan,nan,nan,nan,nan,nan,nan,nan,0
47388000,47388000,0.0020000022,0.0,0.0020000022,0.0,nan,nan,nan,nan,nan,nan,nan,nan,0
47484000,47484000,0.0020000008,0.0,0.001999999,0.0,nan,nan,nan,nan,nan,nan,nan,nan,0
47588000,47588000,0.0020000003,0.0,0.0020000022,0.0,nan,nan,nan,nan,nan,nan,nan,nan,0
47688000,47688000,0.0019999992,1.8626451e-09,0.0019999978,0.0,nan,nan,nan,nan,nan,nan,nan,nan,0
47788000,47788000,0.0019999994,0.0,0.0020000013,0.0,nan,nan,nan,nan,nan,nan,nan,nan,0
47888000,47888000,0.0020000017,0.0,0.0019999999,0.0,nan,nan,nan,nan,nan,nan,nan,nan,0
47988000,47988000,0.0020000017,0.0,0.002,0.0,nan,nan,nan,nan,nan,nan,nan,nan,0
48088000,48088000,0.0019999994,0.0,0.0020000013,0.0,nan,nan,nan,nan,nan,nan,nan,nan,0
48188000,48188000,0.002000001,0.0,0.0020000027,0.0,nan,nan,nan,nan,nan,nan,nan,nan,0
48288000,48288000,0.0019999978,0.0,0.002000001,9.313226e-10,nan,nan,nan,nan,nan,nan,nan,nan,0
48384000,48384000,0.002,9.313226e-10,0.0019999996,0.0,nan,nan,nan,nan,nan,nan,nan,nan,0
48488000,48488000,0.0020000003,0.0,0.0020000003,0.0,nan,nan,nan,nan,nan,nan,nan,nan,0
48588000,48588000,0.0019999994,0.0,0.0020000013,0.0,nan,nan,nan,nan,nan,nan,nan,nan,0
48688000,48688000,0.0019999992,1.8626451e-09,0.0019999996,0.0,nan,nan,nan,nan,nan,nan,nan,nan,0
48784000,48784000,0.0019999994,0.0,0.0019999994,0.0,nan,nan,nan,nan,nan,nan,nan,nan,0
48888000,48888000,0.0019999994,0.0,0.0020000013,0.0,nan,nan,nan,nan,nan,nan,nan,nan,0
48988000,48988000,0.0020000008,0.0,0.0020000008,0.0,nan,nan,nan,nan,nan,nan,nan,nan,0
49084000,49084000,0.002000002,9.313226e-10,0.0019999978,0.0,nan,nan,nan,nan,nan,nan,nan,nan,0
49188000,49188000,0.0020000017,0.0,0.002,0.0,nan,nan,nan,nan,nan,nan,nan,nan,0
49288000,49288000,0.0019999994,0.0,0.0019999994,0.0,nan,nan,nan,nan,nan,nan,nan,nan,0
49388000,49388000,0.0019999987,0.0,0.002,9.313226e-10,nan,nan,nan,nan,nan,nan,nan,nan,0
49488000,49488000,0.0019999994,0.0,0.0020000013,0.0,nan,nan,nan,nan,nan,nan,nan,nan,0
49588000,49588000,0.0019999994,0.0,0.0020000003,0.0,nan,nan,nan,nan,nan,nan,nan,nan,0
49684000,49684000,0.002000001,1.8626451e-09,0.0019999961,0.0,nan,nan,nan,nan,nan,nan,nan,nan,0
49788000,49788000,0.0019999987,0.0,0.002,1.8626451e-09,nan,nan,nan,nan,nan,nan,nan,nan,0
49888000,49888000,0.0020000013,0.0,0.0019999994,0.0,nan,nan,nan,nan,nan,nan,nan,nan,0
49984000,49984000,0.0019999994,0.0,0.0019999994,0.0,nan,nan,nan,nan,nan,nan,nan,nan,0
50088000,50088000,0.0020000003,0.0,0.0020000022,0.0,nan,nan,nan,nan,nan,nan,nan,nan,0
50184000,50184000,0.0019999994,0.0,0.0019999994,0.0,nan,nan,nan,nan,nan,nan,nan,nan,0
50288000,50288000,0.0020000003,9.313226e-10,0.0020000003,0.0,nan,nan,nan,nan,nan,nan,nan,nan,0
50388000,50388000,0.0019999994,0.0,0.0020000013,0.0,nan,nan,nan,nan,nan,nan,nan,nan,0
50488000,50488000,0.0020000022,0.0,0.0020000003,0.0,nan,nan,nan,nan,nan,nan,nan,nan,0
50588000,50588000,0.0020000003,0.0,0.0020000022,0.0,nan,nan,nan,nan,nan,nan,nan,nan,0
50688000,50688000,0.0019999985,0.0,0.0019999985,0.0,nan,nan,nan,nan,nan,nan,nan,nan,0
50788000,50788000,0.0019999994,0.0,0.0019999994,0.0,nan,nan,nan,nan,nan,nan,nan,nan,0
50888000,50888000,0.0019999994,0.0,0.0020000013,0.0,nan,nan,nan,nan,nan,nan,nan,nan,0
50988000,50988000,0.0020000003,1.8626451e-09,0.0019999968,0.0,nan,nan,nan,nan,nan,nan,nan,nan,0
51088000,51088000,0.0019999994,9.313226e-10,0.0019999994,0.0,nan,nan,nan,nan,nan,nan,nan,nan,0
51188000,51188000,0.002000001,0.0,0.0020000006,0.0,nan,nan,nan,nan,nan,nan,nan,nan,0
51284000,51284000,0.0019999985,0.0,0.002000001,0.0,nan,nan,nan,nan,nan,nan,nan,nan,0
51388000,51388000,0.0020000013,0.0,0.0019999994,0.0,nan,nan,nan,nan,nan,nan,nan,nan,0
51484000,51484000,0.0019999994,0.0,0.0020000013,0.0,nan,nan,nan,nan,nan,nan,nan,nan,0
51588000,51588000,0.0019999987,0.0,0.0020000031,0.0,nan,nan,nan,nan,nan,nan,nan,nan,0
51688000,51688000,0.0020000013,0.0,0.0019999994,0.0,nan,nan,nan,nan,nan,nan,nan,nan,0
51784000,51784000,0.002000002,0.0,0.0019999996,0.0,nan,nan,nan,nan,nan,nan,nan,nan,0
51884000,51884000,0.0020000013,0.0,0.0019999994,0.0,nan,nan,nan,nan,nan,nan,nan,nan,0
51988000,51988000,0.0019999996,0.0,0.002000002,0.0,nan,nan,nan,nan,nan,nan,nan,nan,0
52088000,52088000,0.0019999994,0.0,0.0020000013,0.0,nan,nan,nan,nan,nan,nan,nan,nan,0
52188000,52188000,0.0020000003,0.0,0.0020000022,0.0,nan,nan,nan,nan,nan,nan,nan,nan,0
52288000,52288000,0.0020000003,0.0,0.0020000003,0.0,nan,nan,nan,nan,nan,nan,nan,nan,0
52388000,52388000,0.0020000008,0.0,0.002000003,0.0,nan,nan,nan,nan,nan,nan,nan,nan,0
52488000,52488000,0.0019999987,0.0,0.002,1.8626451e-09,nan,nan,nan,nan,nan,nan,nan,nan,0
52588000,52588000,0.0020000003,0.0,0.0020000003,0.0,nan,nan,nan,nan,nan,nan,nan,nan,0
52684000,52684000,0.0019999982,1.8626451e-09,0.0020000006,0.0,nan,nan,nan,nan,nan,nan,nan,nan,0
52784000,52784000,0.0020000003,0.0,0.0020000003,0.0,nan,nan,nan,nan,nan,nan,nan,nan,0
52888000,52888000,0.0020000013,0.0,0.0019999994,0.0,nan,nan,nan,nan,nan,nan,nan,nan,0
52988000,52988000,0.0020000003,0.0,0.0020000022,0.0,nan,nan,nan,nan,nan,nan,nan,nan,0
53088000,53088000,0.0019999994,0.0,0.0019999994,0.0,nan,nan,nan,nan,nan,nan,nan,nan,0
53188000,53188000,0.0020000003,0.0,0.0020000003,0.0,nan,nan,nan,nan,nan,nan,nan,nan,0
53288000,53288000,0.002,0.0,0.0020000015,0.0,nan,nan,nan,nan,nan,nan,nan,nan,0
53388000,53388000,0.002000003,9.313226e-10,0.0019999978,0.0,nan,nan,nan,nan,nan,nan,nan,nan,0
53488000,53488000,0.0020000022,0.0,0.0020000003,0.0,nan,nan,nan,nan,nan,nan,nan,nan,0
53588000,53588000,0.0019999994,0.0,0.0019999994,0.0,nan,nan,nan,nan,nan,nan,nan,nan,0
53688000,53688000,0.0019999978,0.0,0.002,2.7939677e-09,nan,nan,nan,nan,nan,nan,nan,nan,0
53788000,53788000,0.0020000003,0.0,0.0019999985,9.313226e-10,nan,nan,nan,nan,nan,nan,nan,nan,0
53888000,53888000,0.0020000003,0.0,0.0020000022,0.0,nan,nan,nan,nan,nan,nan,nan,nan,0
53988000,53988000,0.0020000008,2.7939677e-09,0.001999998,0.0,nan,nan,nan,nan,nan,nan,nan,nan,0
54088000,54088000,0.0019999994,0.0,0.0019999994,0.0,nan,nan,nan,nan,nan,nan,nan,nan,0
54188000,54188000,0.0020000003,0.0,0.0020000022,0.0,nan,nan,nan,nan,nan,nan,nan,nan,0
54288000,54288000,0.0020000003,0.0,0.0020000022,0.0,nan,nan,nan,nan,nan,nan,nan,nan,0
54388000,54388000,0.0019999987,0.0,0.002000001,0.0,nan,nan,nan,nan,nan,nan,nan,nan,0
54484000,54484000,0.044181764,0.021223899,0.050192416,0.014471743,nan,nan,nan,nan,nan,nan,nan,nan,0
54588000,54588000,0.06059825,0.036113374,0.064878054,0.03163983,nan,nan,nan,nan,nan,nan,nan,nan,0
54684000,54684000,0.07744347,0.052717257,0.08268197,0.04723373,nan,nan,nan,nan,nan,nan,nan,nan,0
54788000,54788000,0.0968134,0.07326617,0.10203126,0.06751056,nan,nan,nan,nan,nan,nan,nan,nan,0
54888000,54888000,0.115655966,0.09240807,0.1225862,0.08759058,nan,nan,nan,nan,nan,nan,nan,nan,0
54988000,54988000,0.140789,0.114653595,0.14666764,0.11028217,nan,nan,nan,nan,nan,nan,nan,nan,0
55088000,55088000,0.16422206,0.13924208,0.168282,0.13488322,nan,nan,nan,nan,nan,nan,nan,nan,0
55188000,55188000,0.19422644,0.16497852,0.1975769,0.16126159,nan,nan,nan,nan,nan,nan,nan,nan,0
55288000,55288000,0.22441967,0.18847468,0.22916903,0.18343008,nan,nan,nan,nan,nan,nan,nan,nan,0
55388000,55388000,0.25658897,0.21817715,0.26218194,0.21291548,nan,nan,nan,nan,nan,nan,nan,nan,0
55484000,55484000,0.28954828,0.24791154,0.2949844,0.24080247,nan,nan,nan,nan,nan,nan,nan,nan,0
55588000,55588000,0.32908076,0.27943486,0.33302963,0.27359796,nan,nan,nan,nan,nan,nan,nan,nan,0
55688000,55688000,0.36291414,0.31164277,0.36850962,0.30771038,nan,nan,nan,nan,nan,nan,nan,nan,0
55788000,55788000,0.3804147,0.32668415,0.3855301,0.32078588,nan,nan,nan,nan,nan,nan,nan,nan,0
55888000,55888000,0.393046,0.33607808,0.39832073,0.3317055,nan,nan,nan,nan,nan,nan,nan,nan,0
55988000,55988000,0.408129,0.34590364,0.41152424,0.33997038,nan,nan,nan,nan,nan,nan,nan,nan,0
56084000,56084000,0.42026064,0.35602003,0.4269501,0.3503066,nan,nan,nan,nan,nan,nan,nan,nan,0
56188000,56188000,0.4348626,0.36637968,0.43909082,0.3603079,nan,nan,nan,nan,nan,nan,nan,nan,0
56288000,56288000,0.45187476,0.37633613,0.4551575,0.3710216,nan,nan,nan,nan,nan,nan,nan,nan,0
56388000,56388000,0.46665606,0.38762194,0.46941313,0.38346183,nan,nan,nan,nan,nan,nan,nan,nan,0
56488000,56488000,0.48128265,0.40178365,0.48515058,0.3961357,nan,nan,nan,nan,nan,nan,nan,nan,0
56588000,56588000,0.49587137,0.4142237,0.5004154,0.4086116,nan,nan,nan,nan,nan,nan,nan,nan,0
56688000,56688000,0.513738,0.42858404,0.51772493,0.42357808,nan,nan,nan,nan,nan,nan,nan,nan,0
56788000,56788000,0.5298205,0.443621,0.5329748,0.43736368,nan,nan,nan,nan,nan,nan,nan,nan,0
56884000,56884000,0.548877,0.45681402,0.5524479,0.45225948,nan,nan,nan,nan,nan,nan,nan,nan,0
56984000,56984000,0.5656895,0.46956053,0.5703308,0.4667599,nan,nan,nan,nan,nan,nan,nan,nan,0
57088000,57088000,0.5859065,0.48708782,0.58858204,0.48353213,nan,nan,nan,nan,nan,nan,nan,nan,0
57188000,57188000,0.60444355,0.5019586,0.6070004,0.4990839,nan,nan,nan,nan,nan,nan,nan,nan,0
57288000,57288000,0.6250025,0.5199352,0.628224,0.5153784,nan,nan,nan,nan,nan,nan,nan,nan,0
57388000,57388000,0.6443996,0.53524715,0.6471529,0.530869,nan,nan,nan,nan,nan,nan,nan,nan,0
57484000,57484000,0.69280815,0.57799464,0.69554085,0.5748737,nan,nan,nan,nan,nan,nan,nan,nan,0
57588000,57588000,0.71235794,0.59511447,0.7151584,0.5925244,nan,nan,nan,nan,nan,nan,nan,nan,0
57684000,57684000,0.73527455,0.61628807,0.7377738,0.61146617,nan,nan,nan,nan,nan,nan,nan,nan,0
57784000,57784000,0.7466741,0.63697875,0.75092846,0.63370466,nan,nan,nan,nan,nan,nan,nan,nan,0
57884000,57884000,0.7409727,0.6778458,0.74558246,0.67384803,nan,nan,nan,nan,nan,nan,nan,nan,0
57988000,57988000,0.71762353,0.7283195,0.71955585,0.7234059,nan,nan,nan,nan,nan,nan,nan,nan,0
58088000,58088000,0.72326875,0.7515225,0.7213946,0.753844,nan,nan,nan,nan,nan,nan,nan,nan,0
58188000,58188000,0.738769,0.7478236,0.7366153,0.74921733,nan,nan,nan,nan,nan,nan,nan,nan,0
58288000,58288000,0.75756097,0.7434043,0.7568398,0.74421096,nan,nan,nan,nan,nan,nan,nan,nan,0
58384000,58384000,0.7601209,0.73948526,0.76132554,0.7392781,nan,nan,nan,nan,nan,nan,nan,nan,0
58488000,58488000,0.76300836,0.74631226,0.76302624,0.7448648,nan,nan,nan,nan,nan,nan,nan,nan,0
58588000,58588000,0.75530887,0.7474168,0.7579689,0.74600357,nan,nan,nan,nan,nan,nan,nan,nan,0
58688000,58688000,0.7459751,0.73971105,0.7454175,0.7393032,nan,nan,nan,nan,nan,nan,nan,nan,0
58788000,58788000,0.7203054,0.71516556,0.7202697,0.7151123,nan,nan,nan,nan,nan,nan,nan,nan,0
58888000,58888000,0.7125852,0.7062908,0.71343005,0.70652324,nan,nan,nan,nan,nan,nan,nan,nan,0
58984000,58984000,0.72107035,0.7135012,0.7203156,0.71329933,nan,nan,nan,nan,nan,nan,nan,nan,0
59084000,59084000,0.73071444,0.7212188,0.7303121,0.7209753,nan,nan,nan,nan,nan,nan,nan,nan,0
59188000,59188000,0.7244696,0.7182272,0.72462326,0.7195384,nan,nan,nan,nan,nan,nan,nan,nan,0
59288000,59288000,0.7270271,0.72106194,0.7280195,0.7202404,nan,nan,nan,nan,nan,nan,nan,nan,0
59388000,59388000,0.72154576,0.7153342,0.7215435,0.71504354,nan,nan,nan,nan,nan,nan,nan,nan,0
59488000,59488000,0.7258893,0.7194956,0.7265159,0.71920913,nan,nan,nan,nan,nan,nan,nan,nan,0
59588000,59588000,0.72186255,0.7145893,0.72164184,0.71503615,nan,nan,nan,nan,nan,nan,nan,nan,0
59688000,59688000,0.7219278,0.71771353,0.7231121,0.7167505,nan,nan,nan,nan,nan,nan,nan,nan,0
59788000,59788000,0.7179871,0.7123099,0.71759045,0.7112036,nan,nan,nan,nan,nan,nan,nan,nan,0
59888000,59888000,0.7211758,0.71698904,0.7216098,0.71621436,nan,nan,nan,nan,nan,nan,nan,nan,0
59988000,59988000,0.7179271,0.7112347,0.7176307,0.71199435,nan,nan,nan,nan,nan,nan,nan,nan,0
60088000,60088000,0.71848154,0.71383876,0.7201573,0.7133671,nan,nan,nan,nan,nan,nan,nan,nan,0
60188000,60188000,0.7142754,0.708229,0.7150115,0.70738065,nan,nan,nan,nan,nan,nan,nan,nan,0
60284000,60284000,0.71871984,0.71212125,0.71823037,0.712193,nan,nan,nan,nan,nan,nan,nan,nan,0
60388000,60388000,0.7148814,0.70776445,0.7142617,0.7088983,nan,nan,nan,nan,nan,nan,nan,nan,0
60484000,60484000,0.71600914,0.71086884,0.7162549,0.7089899,nan,nan,nan,nan,nan,nan,nan,nan,0
60584000,60584000,0.71278006,0.7043252,0.71225184,0.7049279,nan,nan,nan,nan,nan,nan,nan,nan,0
60684000,60684000,0.7164141,0.7092048,0.7156449,0.7089264,nan,nan,nan,nan,nan,nan,nan,nan,0
60788000,60788000,0.712392,0.7057608,0.71096706,0.70676404,nan,nan,nan,nan,nan,nan,nan,nan,0
60884000,60884000,0.7116439,0.70712346,0.7131953,0.70566857,nan,nan,nan,nan,nan,nan,nan,nan,0
60988000,60988000,0.6921542,0.6867062,0.69255304,0.6874364,nan,nan,nan,nan,nan,nan,nan,nan,0
61088000,61088000,0.6704781,0.6637384,0.6708903,0.6656295,nan,nan,nan,nan,nan,nan,nan,nan,0
61188000,61188000,0.65673846,0.6547227,0.65732574,0.65473515,nan,nan,nan,nan,nan,nan,nan,nan,0
61288000,61288000,0.67823786,0.6721737,0.6780149,0.67315674,nan,nan,nan,nan,nan,nan,nan,nan,0
61388000,61388000,0.69605815,0.6914305,0.6969862,0.6918501,nan,nan,nan,nan,nan,nan,nan,nan,0
61488000,61488000,0.7125789,0.70600176,0.7127125,0.7060181,nan,nan,nan,nan,nan,nan,nan,nan,0
61588000,61588000,0.7233816,0.7158516,0.72234464,0.71653163,nan,nan,nan,nan,nan,nan,nan,nan,0
61688000,61688000,0.7211634,0.7165591,0.72113466,0.7157547,nan,nan,nan,nan,nan,nan,nan,nan,0
61784000,61784000,0.71583384,0.71171814,0.71626216,0.7129864,nan,nan,nan,nan,nan,nan,nan,nan,0
61888000,61888000,0.7128269,0.70848423,0.7142288,0.70874625,nan,nan,nan,nan,nan,nan,nan,nan,0
61984000,61984000,0.71245855,0.7073333,0.71362185,0.7060295,nan,nan,nan,nan,nan,nan,nan,nan,0
62084000,62084000,0.7110553,0.7040806,0.70873845,0.7066895,nan,nan,nan,nan,nan,nan,nan,nan,0
62188000,62188000,0.7096568,0.70351845,0.7102489,0.703005,nan,nan,nan,nan,nan,nan,nan,nan,0
62288000,62288000,0.7113216,0.7042903,0.711999,0.7035807,nan,nan,nan,nan,nan,nan,nan,nan,0
62388000,62388000,0.71057504,0.70621806,0.71125805,0.7040397,nan,nan,nan,nan,nan,nan,nan,nan,0
62488000,62488000,0.70855886,0.7048978,0.70917165,0.70424306,nan,nan,nan,nan,nan,nan,nan,nan,0
62588000,62588000,0.7082019,0.7021304,0.70857555,0.703863,nan,nan,nan,nan,nan,nan,nan,nan,0
62688000,62688000,0.7104489,0.7034868,0.7098324,0.70398736,nan,nan,nan,nan,nan,nan,nan,nan,0
62788000,62788000,0.7116826,0.7041291,0.711314,0.702801,nan,nan,nan,nan,nan,nan,nan,nan,0
62888000,62888000,0.7099694,0.703721,0.7079629,0.7032283,nan,nan,nan,nan,nan,nan,nan,nan,0
62988000,62988000,0.70887303,0.70262027,0.707505,0.7026739,nan,nan,nan,nan,nan,nan,nan,nan,0
63088000,63088000,0.7096749,0.7030479,0.7122444,0.7032375,nan,nan,nan,nan,nan,nan,nan,nan,0
63184000,63184000,0.7101581,0.70404905,0.71114105,0.7037107,nan,nan,nan,nan,nan,nan,nan,nan,0
63284000,63284000,0.709881,0.70182925,0.7092018,0.7051799,nan,nan,nan,nan,nan,nan,nan,nan,0
63388000,63388000,0.7092378,0.70096505,0.7094433,0.7012314,nan,nan,nan,nan,nan,nan,nan,nan,0
63488000,63488000,0.7094022,0.7047391,0.7101155,0.70420367,nan,nan,nan,nan,nan,nan,nan,nan,0
63588000,63588000,0.7094875,0.7046965,0.7102593,0.7036607,nan,nan,nan,nan,nan,nan,nan,nan,0
63688000,63688000,0.710949,0.7029017,0.7091125,0.70267886,nan,nan,nan,nan,nan,nan,nan,nan,0
63784000,63784000,0.7065022,0.7032615,0.70762235,0.70258266,nan,nan,nan,nan,nan,nan,nan,nan,0
63884000,63884000,0.7113535,0.70419925,0.7098182,0.70437366,nan,nan,nan,nan,nan,nan,nan,nan,0
63984000,63984000,0.7093794,0.70511264,0.7087314,0.7034453,nan,nan,nan,nan,nan,nan,nan,nan,0
64084000,64084000,0.7086576,0.70487916,0.7084635,0.70523804,nan,nan,nan,nan,nan,nan,nan,nan,0
64184000,64184000,0.7079784,0.70142645,0.7083051,0.7024759,nan,nan,nan,nan,nan,nan,nan,nan,0
64284000,64284000,0.71091664,0.70404696,0.71026987,0.7040879,nan,nan,nan,nan,nan,nan,nan,nan,0
64388000,64388000,0.7101044,0.70332384,0.7100765,0.70385444,nan,nan,nan,nan,nan,nan,nan,nan,0
64488000,64488000,0.7104165,0.70192575,0.70992106,0.70229614,nan,nan,nan,nan,nan,nan,nan,nan,0
64584000,64584000,0.7073503,0.70177215,0.7076899,0.7026843,nan,nan,nan,nan,nan,nan,nan,nan,0
64688000,64688000,0.71027297,0.70390517,0.71002257,0.7034348,nan,nan,nan,nan,nan,nan,nan,nan,0
64784000,64784000,0.71044314,0.7038862,0.7106792,0.7033945,nan,nan,nan,nan,nan,nan,nan,nan,0
64888000,64888000,0.7099264,0.7043284,0.70856017,0.703689,nan,nan,nan,nan,nan,nan,nan,nan,0
64988000,64988000,0.7080481,0.70313615,0.70831305,0.70207024,nan,nan,nan,nan,nan,nan,nan,nan,0
65088000,65088000,0.7091084,0.70352477,0.70918727,0.70464206,nan,nan,nan,nan,nan,nan,nan,nan,0
65188000,65188000,0.7096499,0.7049667,0.71006763,0.70472556,nan,nan,nan,nan,nan,nan,nan,nan,0
65288000,65288000,0.7095364,0.7021858,0.70996135,0.70264727,nan,nan,nan,nan,nan,nan,nan,nan,0
65388000,65388000,0.7098798,0.7028184,0.7086244,0.70212483,nan,nan,nan,nan,nan,nan,nan,nan,0
65488000,65488000,0.7092499,0.7036241,0.70984733,0.70334464,nan,nan,nan,nan,nan,nan,nan,nan,0
65588000,65588000,0.71097714,0.70402235,0.7099475,0.7051404,nan,nan,nan,nan,nan,nan,nan,nan,0
65688000,65688000,0.7084759,0.7019603,0.7084522,0.7025551,nan,nan,nan,nan,nan,nan,nan,nan,0
65788000,65788000,0.70804656,0.70218915,0.7078024,0.7009023,nan,nan,nan,nan,nan,nan,nan,nan,0
65884000,65884000,0.70855874,0.70257515,0.7087855,0.702892,nan,nan,nan,nan,nan,nan,nan,nan,0
65984000,65984000,0.7091135,0.70394665,0.70943,0.70328146,nan,nan,nan,nan,nan,nan,nan,nan,0
66084000,66084000,0.7092468,0.7028218,0.70934474,0.70424163,nan,nan,nan,nan,nan,nan,nan,nan,0
66184000,66184000,0.70984364,0.7036532,0.7105011,0.7020886,nan,nan,nan,nan,nan,nan,nan,nan,0
66288000,66288000,0.7101021,0.7052299,0.70882004,0.7047455,nan,nan,nan,nan,nan,nan,nan,nan,0
66388000,66388000,0.71129656,0.7050029,0.7096351,0.7046421,nan,nan,nan,nan,nan,nan,nan,nan,0
66488000,66488000,0.710011,0.7019611,0.7099471,0.70253915,nan,nan,nan,nan,nan,nan,nan,nan,0
66588000,66588000,0.7089937,0.7027828,0.7087184,0.70286864,nan,nan,nan,nan,nan,nan,nan,nan,0
66688000,66688000,0.7093135,0.7037339,0.709227,0.7040288,nan,nan,nan,nan,nan,nan,nan,nan,0
66788000,66788000,0.71052855,0.7049555,0.7101257,0.7045249,nan,nan,nan,nan,nan,nan,nan,nan,0
66888000,66888000,0.7103719,0.70173997,0.70905006,0.70311856,nan,nan,nan,nan,nan,nan,nan,nan,0
66988000,66988000,0.7087057,0.7027011,0.7077034,0.70298517,nan,nan,nan,nan,nan,nan,nan,nan,0
67084000,67084000,0.7082888,0.7036944,0.70901006,0.7051419,nan,nan,nan,nan,nan,nan,nan,nan,0
67188000,67188000,0.71119136,0.70545906,0.70965856,0.7035009,nan,nan,nan,nan,nan,nan,nan,nan,0
67288000,67288000,0.7102415,0.70367706,0.70965546,0.70411897,nan,nan,nan,nan,nan,nan,nan,nan,0
67384000,67384000,0.710384,0.7038371,0.7118248,0.7027157,nan,nan,nan,nan,nan,nan,nan,nan,0
67484000,67484000,0.7093973,0.7041531,0.7113819,0.70497173,nan,nan,nan,nan,nan,nan,nan,nan,0
67588000,67588000,0.71112514,0.7043832,0.7118382,0.70294785,nan,nan,nan,nan,nan,nan,nan,nan,0
67688000,67688000,0.7098007,0.7027781,0.71005434,0.7028964,nan,nan,nan,nan,nan,nan,nan,nan,0
67788000,67788000,0.70835143,0.7043192,0.70778275,0.70379114,nan,nan,nan,nan,nan,nan,nan,nan,0
67888000,67888000,0.709585,0.7040353,0.70988554,0.7032764,nan,nan,nan,nan,nan,nan,nan,nan,0
67984000,67984000,0.7113139,0.70348597,0.71129656,0.70312434,nan,nan,nan,nan,nan,nan,nan,nan,0
68088000,68088000,0.70963997,0.7025658,0.7087275,0.7021578,nan,nan,nan,nan,nan,nan,nan,nan,0
68188000,68188000,0.70855796,0.7022912,0.70808554,0.7026288,nan,nan,nan,nan,nan,nan,nan,nan,0
68288000,68288000,0.70844924,0.70478874,0.71010077,0.7021231,nan,nan,nan,nan,nan,nan,nan,nan,0
68388000,68388000,0.7107797,0.702892,0.71128225,0.703284,nan,nan,nan,nan,nan,nan,nan,nan,0
68484000,68484000,0.7090328,0.70318913,0.7096282,0.70527494,nan,nan,nan,nan,nan,nan,nan,nan,0
68584000,68584000,0.7094522,0.704143,0.71010333,0.70320505,nan,nan,nan,nan,nan,nan,nan,nan,0
68688000,68688000,0.70975035,0.70450306,0.7095508,0.7034272,nan,nan,nan,nan,nan,nan,nan,nan,0
68788000,68788000,0.71100324,0.7039561,0.71045214,0.70342445,nan,nan,nan,nan,nan,nan,nan,nan,0
68888000,68888000,0.7086091,0.70455056,0.70947134,0.70394164,nan,nan,nan,nan,nan,nan,nan,nan,0
68988000,68988000,0.7094577,0.70283675,0.710472,0.7038925,nan,nan,nan,nan,nan,nan,nan,nan,0
69088000,69088000,0.7108188,0.7034037,0.71037894,0.70363843,nan,nan,nan,nan,nan,nan,nan,nan,0
69188000,69188000,0.71134305,0.7045589,0.7116329,0.70381236,nan,nan,nan,nan,nan,nan,nan,nan,0
69288000,69288000,0.7097321,0.7044827,0.7103281,0.70397955,nan,nan,nan,nan,nan,nan,nan,nan,0
69388000,69388000,0.70928943,0.7047278,0.70843536,0.7042285,nan,nan,nan,nan,nan,nan,nan,nan,0
69484000,69484000,0.71031123,0.7029047,0.7110398,0.7035288,nan,nan,nan,nan,nan,nan,nan,nan,0
69588000,69588000,0.7099661,0.7032199,0.71084815,0.7048795,nan,nan,nan,nan,nan,nan,nan,nan,0
69688000,69688000,0.7085506,0.70397997,0.7085025,0.7046096,nan,nan,nan,nan,nan,nan,nan,nan,0
69788000,69788000,0.7089214,0.704121,0.70907533,0.7033208,nan,nan,nan,nan,nan,nan,nan,nan,0
69888000,69888000,0.7089673,0.704095,0.7093259,0.7039176,nan,nan,nan,nan,nan,nan,nan,nan,0
69988000,69988000,0.7106648,0.7030831,0.71035564,0.704581,nan,nan,nan,nan,nan,nan,nan,nan,0
70084000,70084000,0.7083004,0.7036285,0.70914334,0.7032264,nan,nan,nan,nan,nan,nan,nan,nan,0
