timestamp,timestamp_sample,gyro_device_id,gyro_bias[0],gyro_bias[1],gyro_bias[2],gyro_bias_limit,gyro_bias_variance[0],gyro_bias_variance[1],gyro_bias_variance[2],accel_device_id,accel_bias[0],accel_bias[1],accel_bias[2],accel_bias_limit,accel_bias_variance[0],accel_bias_variance[1],accel_bias_variance[2],mag_device_id,mag_bias[0],mag_bias[1],mag_bias[2],mag_bias_limit,mag_bias_variance[0],mag_bias_variance[1],mag_bias_variance[2],gyro_bias_valid,gyro_bias_stable,accel_bias_valid,accel_bias_stable,mag_bias_valid,mag_bias_stable
3284000,3284000,1310988,0.0,0.0,0.0,0.15,0.009960121,0.009960121,0.009960038,1310988,0.0,0.0,0.0,0.4,0.039840482,0.039840482,0.039840482,0,0.0,0.0,0.0,0.0,0.0,0.0,0.0,1,0,1,0,0,0
3604000,3524000,1310988,-0.00028808974,-0.00028840927,6.4008455e-06,0.15,0.010059533,0.010062844,0.0036951157,1310988,-0.0016127103,0.0014218534,-0.10154735,0.4,0.040699683,0.040702842,0.004499214,0,0.0,0.0,0.0,0.0,0.0,0.0,0.0,1,0,1,0,0,0
3652000,3572000,1310988,-0.00029098635,-0.00029130006,6.0765087e-06,0.15,0.01026225,0.010265642,0.0037384562,1310988,-0.0016288784,0.0014361072,-0.10256549,0.4,0.041519914,0.041523136,0.0045898925,0,0.0,0.0,0.0,0.0,0.0,0.0,0.0,1,0,1,0,0,0
3708000,3628000,1310988,-0.0002942104,-0.00029452756,6.1438345e-06,0.15,0.010490914,0.01049438,0.003821757,1310988,-0.0016469258,0.0014520187,-0.103701875,0.4,0.042445064,0.042448357,0.0046921703,0,0.0,0.0,0.0,0.0,0.0,0.0,0.0,1,0,1,0,0,0
3764000,3684000,1310988,-0.00029728032,-0.00029760084,6.2079425e-06,0.15,0.010710994,0.010714533,0.0039019305,1310988,-0.0016641107,0.00146717,-0.10478396,0.4,0.043335486,0.043338846,0.0047906083,0,0.0,0.0,0.0,0.0,0.0,0.0,0.0,1,0,1,0,0,0
3812000,3732000,1310988,-0.00014031926,-0.0006593783,2.5121932e-07,0.15,0.009763324,0.009766783,0.0039675445,1310988,-0.0017111119,0.0014703989,-0.10580731,0.4,0.044063095,0.0440665,0.004838239,0,0.0,0.0,0.0,0.0,0.0,0.0,0.0,1,0,1,0,0,0
3876000,3796000,1310988,-0.00014175843,-0.000666382,2.5662575e-06,0.15,0.009971544,0.00997518,0.0038284054,1310988,-0.0017292718,0.0014860079,-0.106930174,0.4,0.045003295,0.04500677,0.0049414807,0,0.0,0.0,0.0,0.0,0.0,0.0,0.0,1,0,1,0,0,0
3940000,3860000,1310988,-0.00014316033,-0.00067297206,2.5916358e-06,0.15,0.010169743,0.01017345,0.0039045007,1310988,-0.0017463731,0.0015007035,-0.107987635,0.4,0.0458978,0.045901347,0.005039705,0,0.0,0.0,0.0,0.0,0.0,0.0,0.0,1,0,1,0,0,0
3988000,3908000,1310988,0.0001533513,-0.002464767,-1.5625095e-05,0.15,0.0037061707,0.0037079374,0.0039555915,1310988,-0.0019288794,0.0014827757,-0.10873684,0.4,0.046478935,0.046482474,0.0051100734,0,0.0,0.0,0.0,0.0,0.0,0.0,0.0,1,0,1,0,0,0
4028000,3948000,1310988,0.00014823339,-0.0026370778,-1.6627044e-05,0.15,0.003357093,0.0033587054,0.0039991685,1310988,-0.001970366,0.0015021604,-0.10976531,0.4,0.04698692,0.04699049,0.005030026,0,0.0,0.0,0.0,0.0,0.0,0.0,0.0,1,0,1,0,0,0
4100000,4020000,1310988,0.00014936512,-0.0026615574,-2.874573e-05,0.15,0.0034199115,0.0034216838,0.003557167,1310988,-0.001988772,0.0015161715,-0.11079128,0.4,0.0478694,0.047873035,0.005124503,0,0.0,0.0,0.0,0.0,0.0,0.0,0.0,1,0,1,0,0,0
4180000,4100000,1310988,0.00015078815,-0.002686929,-2.9019715e-05,0.15,0.0034854112,0.0034872175,0.0036252954,1310988,-0.002007671,0.0015305667,-0.11184487,0.4,0.048786208,0.04878992,0.0052226353,0,0.0,0.0,0.0,0.0,0.0,0.0,0.0,1,0,1,0,0,0
4196000,4116000,1310988,-6.912199e-05,-0.0036648721,-2.9659826e-05,0.15,0.0011639352,0.0011644863,0.0036371762,1310988,-0.0021365038,0.0015616843,-0.112043045,0.4,0.04892303,0.048926752,0.0052413996,0,0.0,0.0,0.0,0.0,0.0,0.0,0.0,1,0,1,0,0,0
4228000,4148000,1310988,-0.00010879432,-0.0037484504,-2.9267763e-05,0.15,0.0011037727,0.0011042857,0.0036626474,1310988,-0.0021813577,0.0015962486,-0.11327239,0.4,0.04926191,0.049265664,0.004988283,0,0.0,0.0,0.0,0.0,0.0,0.0,0.0,1,0,1,0,0,0
4316000,4236000,1310988,-0.00010976784,-0.0037822328,-2.9183468e-05,0.15,0.0011234331,0.0011240434,0.0030012652,1310988,-0.0022009579,0.0016105787,-0.1142907,0.4,0.050153628,0.050157446,0.0050785667,0,0.0,0.0,0.0,0.0,0.0,0.0,0.0,1,0,1,0,0,0
4412000,4332000,1310988,-0.00036433258,-0.0042070434,-2.54195e-05,0.15,0.00057271647,0.0005729456,0.0030542477,1310988,-0.002309493,0.0016826838,-0.115310006,0.4,0.051014315,0.05101822,0.005168605,0,0.0,0.0,0.0,0.0,0.0,0.0,0.0,1,0,1,0,0,0
4436000,4356000,1310988,-0.00038378575,-0.0042467713,-2.5178892e-05,0.15,0.0005490525,0.00054926315,0.0030667768,1310988,-0.0023577677,0.0017227522,-0.11676412,0.4,0.051219203,0.05122315,0.004741047,0,0.0,0.0,0.0,0.0,0.0,0.0,0.0,1,0,1,0,0,0
4548000,4468000,1310988,-0.00038745074,-0.0042842343,-3.7647435e-05,0.15,0.00055851,0.00055879384,0.0023693612,1310988,-0.0023784062,0.0017377625,-0.117789455,0.4,0.052132282,0.0521363,0.00482544,0,0.0,0.0,0.0,0.0,0.0,0.0,0.0,1,0,1,0,0,0
4644000,4564000,1310988,-0.00058347447,-0.0046435716,-3.457519e-05,0.15,0.0003067287,0.00030681677,0.0024011752,1310988,-0.002558603,0.0018592646,-0.11999084,0.4,0.052796036,0.052800175,0.004327267,0,0.0,0.0,0.0,0.0,0.0,0.0,0.0,1,0,1,0,0,0
4780000,4700000,1310988,-0.00058853906,-0.0046819067,-4.5513505e-05,0.15,0.00031156026,0.00031170077,0.0018006489,1310988,-0.0025800606,0.0018749066,-0.12099647,0.4,0.053676076,0.05368029,0.0043991012,0,0.0,0.0,0.0,0.0,0.0,0.0,0.0,1,0,1,0,0,0
4852000,4772000,1310988,-0.00086878065,-0.0049791513,-3.9550192e-05,0.15,0.0001749823,0.00017499767,0.0018145368,1310988,-0.0027738228,0.0020628131,-0.12285975,0.4,0.05405234,0.054056726,0.00382618,0,0.0,0.0,0.0,0.0,0.0,0.0,0.0,1,0,1,0,0,0
5028000,4948000,1310988,-0.0012309205,-0.0051676617,-4.818931e-06,0.15,0.0001055187,0.000105489366,0.0013530041,1310988,-0.0028937077,0.0023122006,-0.123864345,0.4,0.05490825,0.054912787,0.0038881868,0,0.0,0.0,0.0,0.0,0.0,0.0,0.0,1,0,1,0,0,0
5060000,4980000,1310988,-0.001259628,-0.005177689,-4.0297814e-06,0.15,0.000102570455,0.000102536054,0.0013565287,1310988,-0.0029317054,0.0023600769,-0.1252484,0.4,0.055048905,0.055053644,0.0033114112,0,0.0,0.0,0.0,0.0,0.0,0.0,0.0,1,0,1,0,0,0
5268000,5188000,1310988,-0.0015416245,-0.0052614324,3.898839e-05,0.15,6.306425e-05,6.301082e-05,0.0010182586,1310988,-0.0030185988,0.0026099999,-0.12727995,0.4,0.055836506,0.055841554,0.002832701,0,0.0,0.0,0.0,0.0,0.0,0.0,0.0,1,0,1,0,0,0
5476000,5396000,1310988,-0.0016967581,-0.005366123,5.340689e-05,0.15,4.0987576e-05,4.0937997e-05,0.00077319756,1310988,-0.003128414,0.0027718123,-0.12899266,0.4,0.056455694,0.056461003,0.0024129727,0,0.0,0.0,0.0,0.0,0.0,0.0,0.0,1,0,1,0,0,0
5684000,5604000,1310988,-0.001696161,-0.005438927,4.4814486e-05,0.15,2.8077127e-05,2.8039161e-05,0.0005957267,1310988,-0.0032123835,0.002788555,-0.13039811,0.4,0.05694028,0.056945752,0.0020583987,0,0.0,0.0,0.0,0.0,0.0,0.0,0.0,1,0,1,0,0,0
5892000,5812000,1310988,-0.0016347686,-0.005489723,4.9580496e-05,0.15,2.0118578e-05,2.0091302e-05,0.0004660615,1310988,-0.0032767314,0.0027312392,-0.13159604,0.4,0.05731765,0.057323236,0.001764264,0,0.0,0.0,0.0,0.0,0.0,0.0,0.0,1,0,1,0,0,0
6100000,6020000,1310988,-0.0016001768,-0.005529568,5.7612302e-05,0.15,1.4961986e-05,1.4941377e-05,0.00037008902,1310988,-0.0033314175,0.0026960298,-0.1326279,0.4,0.057610612,0.057616293,0.0015220958,0,0.0,0.0,0.0,0.0,0.0,0.0,0.0,1,0,1,0,0,0
6396000,6316000,1310988,-0.0015958766,-0.0055692596,6.559403e-05,0.15,1.1463363e-05,1.1451825e-05,0.00024268763,1310988,-0.0033864179,0.0026975467,-0.13363034,0.4,0.05791967,0.057925425,0.001324929,0,0.0,0.0,0.0,0.0,0.0,0.0,0.0,1,0,1,0,0,0
6724000,6644000,1310988,-0.0016022662,-0.005546051,6.725043e-05,0.15,7.2490584e-06,7.236097e-06,0.00020065793,1310988,-0.0033555194,0.002711196,-0.13471968,0.4,0.058148295,0.0581542,0.0010256728,0,0.0,0.0,0.0,0.0,0.0,0.0,0.0,1,0,1,0,0,0
7556000,7476000,1310988,-0.0014303499,-0.0054258904,8.131276e-05,0.15,3.5456849e-06,3.5391772e-06,0.00010278208,1310988,-0.0031719152,0.0024586322,-0.13571115,0.4,0.058445636,0.058451626,0.0007790319,0,0.0,0.0,0.0,0.0,0.0,0.0,0.0,1,0,1,0,0,0
8556000,8476000,1310988,-0.0012668124,-0.0054483255,3.7444006e-05,0.15,2.0692394e-06,2.0671284e-06,5.2559262e-05,1310988,-0.0032203426,0.0021849114,-0.13582982,0.4,0.058560282,0.058566194,0.000780625,0,0.0,0.0,0.0,0.0,0.0,0.0,0.0,1,0,1,0,0,0
9556000,9476000,1310988,-0.0012096992,-0.005445073,-1.5089555e-05,0.15,1.2425447e-06,1.2411514e-06,3.0478417e-05,1310988,-0.0032501013,0.0020270008,-0.1358022,0.4,0.058587242,0.05859308,0.0007810766,0,0.0,0.0,0.0,0.0,0.0,0.0,0.0,1,0,1,0,0,0
10556000,10476000,1310988,-0.00114417,-0.005520876,-4.4860182e-05,0.15,8.431154e-07,8.4250007e-07,1.930058e-05,1310988,-0.003530164,0.0019126656,-0.13533762,0.4,0.058593176,0.058599364,0.0007812042,0,0.0,0.0,0.0,0.0,0.0,0.0,0.0,1,0,1,0,0,0
11508000,11428000,1310988,-0.0011826471,-0.0055043357,-6.815569e-05,0.15,6.2325364e-07,6.224217e-07,1.4043535e-05,1310988,-0.0035828215,0.0020740875,-0.13411753,0.4,0.058593724,0.058599986,0.0007812381,0,0.0,0.0,0.0,0.0,0.0,0.0,0.0,1,0,1,0,0,0
12132000,12052000,1310988,-0.0012206483,-0.005477775,-8.188596e-05,0.15,5.362181e-07,5.3536195e-07,1.131208e-05,1310988,-0.0036516148,0.0022302815,-0.1328112,0.4,0.058593694,0.058599398,0.00078124576,0,0.0,0.0,0.0,0.0,0.0,0.0,0.0,1,0,1,0,0,0
12756000,12676000,1310988,-0.0012323335,-0.0054469476,-9.4525014e-05,0.15,4.6982285e-07,4.6907687e-07,9.2605005e-06,1310988,-0.0036233752,0.002397502,-0.13161927,0.4,0.05859201,0.05859708,0.00078124576,0,0.0,0.0,0.0,0.0,0.0,0.0,0.0,1,0,1,0,0,0
13380000,13300000,1310988,-0.0012077068,-0.005443837,-0.00010416715,0.15,4.1803878e-07,4.1756215e-07,7.688793e-06,1310988,-0.0036985304,0.0023614028,-0.13041393,0.4,0.058589417,0.058594286,0.00078124576,0,0.0,0.0,0.0,0.0,0.0,0.0,0.0,1,0,1,0,0,0
14004000,13924000,1310988,-0.0011815329,-0.0054562464,-0.00011235331,0.15,3.7693363e-07,3.7668818e-07,6.463703e-06,1310988,-0.0038743545,0.0022704538,-0.12932317,0.4,0.058586445,0.058591478,0.00078124576,0,0.0,0.0,0.0,0.0,0.0,0.0,0.0,1,0,1,0,0,0
14836000,14756000,1310988,-0.0011834905,-0.0054721637,-0.000120088895,0.15,3.341744e-07,3.3406593e-07,5.2162286e-06,1310988,-0.0041286494,0.0023759552,-0.12813793,0.4,0.058581844,0.058587227,0.00078124576,0,0.0,0.0,0.0,0.0,0.0,0.0,0.0,1,0,1,0,0,0
15836000,15756000,1310988,-0.0011862713,-0.005488013,-0.00012816061,0.15,3.0255998e-07,3.025665e-07,4.0849736e-06,1310988,-0.004389019,0.0024626232,-0.12718306,0.4,0.05857669,0.058583107,0.0007812475,0,0.0,0.0,0.0,0.0,0.0,0.0,0.0,1,0,1,0,0,0
16500000,16420000,1310988,-0.0011925785,-0.0054947855,-0.00012969816,0.15,2.7551752e-07,2.7556865e-07,3.5672685e-06,1310988,-0.004586452,0.0025781684,-0.12615928,0.4,0.05857296,0.058580745,0.00078124576,0,0.0,0.0,0.0,0.0,0.0,0.0,0.0,1,0,1,0,0,0
17124000,17044000,1310988,-0.0012095565,-0.005494572,-0.00013069526,0.15,2.596726e-07,2.597421e-07,3.1380146e-06,1310988,-0.0048039267,0.0027313142,-0.1250903,0.4,0.058570247,0.058579177,0.00078124576,0,0.0,0.0,0.0,0.0,0.0,0.0,0.0,1,0,1,0,0,0
17748000,17668000,1310988,-0.001227526,-0.0054903203,-0.00012962245,0.15,2.4615954e-07,2.4624683e-07,2.7791912e-06,1310988,-0.00503808,0.0028961177,-0.123964034,0.4,0.05856748,0.05857762,0.00078124576,0,0.0,0.0,0.0,0.0,0.0,0.0,0.0,1,0,1,0,0,0
18580000,18500000,1310988,-0.0012379128,-0.005486773,-0.00012776298,0.15,2.3100992e-07,2.3113861e-07,2.3866742e-06,1310988,-0.0052508973,0.003119209,-0.12270601,0.4,0.058562193,0.058574308,0.00078124576,0,0.0,0.0,0.0,0.0,0.0,0.0,0.0,1,0,1,0,0,0
19204000,19124000,1310988,-0.0012581598,-0.0054996456,-0.00012556926,0.15,2.2141212e-07,2.215651e-07,2.1432863e-06,1310988,-0.005587917,0.0032787437,-0.12157815,0.4,0.05855867,0.05857215,0.00078124576,0,0.0,0.0,0.0,0.0,0.0,0.0,0.0,1,0,1,0,0,0
19828000,19748000,1310988,-0.0012794093,-0.0054998696,-0.00012389247,0.15,2.1306187e-07,2.1321665e-07,1.9348765e-06,1310988,-0.0058669113,0.0035055026,-0.120548874,0.4,0.058555048,0.0585698,0.00078124576,0,0.0,0.0,0.0,0.0,0.0,0.0,0.0,1,0,1,0,0,0
20660000,20580000,1310988,-0.0012924171,-0.005504142,-0.000121553945,0.15,2.035069e-07,2.0367163e-07,1.7010497e-06,1310988,-0.0061531616,0.0037380157,-0.119332574,0.4,0.058549654,0.05856671,0.00078124576,0,0.0,0.0,0.0,0.0,0.0,0.0,0.0,1,0,1,0,0,0
21284000,21204000,1310988,-0.001290414,-0.0054920656,-0.00011793808,0.15,1.9735346e-07,1.9751413e-07,1.5526194e-06,1310988,-0.0062289345,0.0038920527,-0.11831985,0.4,0.058546886,0.058565125,0.00078124576,0,0.0,0.0,0.0,0.0,0.0,0.0,0.0,1,0,1,0,0,0
21908000,21828000,1310988,-0.0012789902,-0.005467062,-0.00011383022,0.15,1.9192213e-07,1.9207216e-07,1.4231535e-06,1310988,-0.006195249,0.004090382,-0.117270656,0.4,0.058545023,0.058564052,0.00078124576,0,0.0,0.0,0.0,0.0,0.0,0.0,0.0,1,0,1,0,0,0
22532000,22452000,1310988,-0.0012735819,-0.005443136,-0.00011081989,0.15,1.870941e-07,1.8723084e-07,1.3097382e-06,1310988,-0.0061122235,0.004252734,-0.116241276,0.4,0.058543827,0.05856308,0.00078124576,0,0.0,0.0,0.0,0.0,0.0,0.0,0.0,1,0,1,0,0,0
23156000,23076000,1310988,-0.0012731474,-0.005421685,-0.000108634726,0.15,1.8279918e-07,1.8292286e-07,1.2099533e-06,1310988,-0.006172754,0.004396343,-0.11490445,0.4,0.058543388,0.058562584,0.00078124576,0,0.0,0.0,0.0,0.0,0.0,0.0,0.0,1,0,1,0,0,0
23572000,23492000,1310988,-0.0012763629,-0.0054181446,-0.00010742314,0.15,1.8018969e-07,1.8031062e-07,1.1500082e-06,1310988,-0.00625733,0.0044504,-0.11389154,0.4,0.05854301,0.058562215,0.00078124576,0,0.0,0.0,0.0,0.0,0.0,0.0,0.0,1,0,1,0,0,0
24196000,24116000,1310988,-0.001275881,-0.0054203044,-0.00010544552,0.15,1.766096e-07,1.7673386e-07,1.0686917e-06,1310988,-0.0063584014,0.0045152046,-0.112438515,0.4,0.05854249,0.05856192,0.00078124576,0,0.0,0.0,0.0,0.0,0.0,0.0,0.0,1,0,1,0,0,0
24820000,24740000,1310988,-0.0012770668,-0.005416496,-0.000103996776,0.15,1.7339413e-07,1.7351573e-07,9.964244e-07,1310988,-0.006391987,0.0046043033,-0.111155815,0.4,0.05854162,0.05856104,0.00078124576,0,0.0,0.0,0.0,0.0,0.0,0.0,0.0,1,0,1,0,0,0
25444000,25364000,1310988,-0.0012835262,-0.005401766,-0.00010202245,0.15,1.7051573e-07,1.7062581e-07,9.319823e-07,1310988,-0.00638541,0.00473521,-0.10971315,0.4,0.058541205,0.058560424,0.00078124576,0,0.0,0.0,0.0,0.0,0.0,0.0,0.0,1,0,1,0,0,0
26068000,25988000,1310988,-0.0012804958,-0.0053871376,-9.90136e-05,0.15,1.6792418e-07,1.6802841e-07,8.7434387e-07,1310988,-0.0063713263,0.004839616,-0.10824615,0.4,0.058541033,0.05856005,0.00078124576,0,0.0,0.0,0.0,0.0,0.0,0.0,0.0,1,0,1,0,0,0
26484000,26404000,1310988,-0.001271037,-0.0053776903,-9.686718e-05,0.15,1.6633959e-07,1.664439e-07,8.3926057e-07,1310988,-0.006314888,0.004908729,-0.107167214,0.4,0.058540884,0.058559857,0.00078124576,0,0.0,0.0,0.0,0.0,0.0,0.0,0.0,1,0,1,0,0,0
26900000,26820000,1310988,-0.0012600337,-0.0053684516,-9.487924e-05,0.15,1.648607e-07,1.64966e-07,8.0658947e-07,1310988,-0.0062775393,0.0050119413,-0.10591483,0.4,0.058540706,0.058559656,0.00078124576,0,0.0,0.0,0.0,0.0,0.0,0.0,0.0,1,0,1,0,0,0
27316000,27236000,1310988,-0.0012484624,-0.0053571276,-9.324789e-05,0.15,1.6348015e-07,1.6358524e-07,7.7612856e-07,1310988,-0.006271194,0.0051196925,-0.104560845,0.4,0.05854042,0.058559414,0.00078124576,0,0.0,0.0,0.0,0.0,0.0,0.0,0.0,1,0,1,0,0,0
27732000,27652000,1310988,-0.0012340018,-0.0053454144,-9.171629e-05,0.15,1.6218858e-07,1.6229376e-07,7.476961e-07,1310988,-0.0062677097,0.0051992983,-0.103108816,0.4,0.058540173,0.058559157,0.00078124576,0,0.0,0.0,0.0,0.0,0.0,0.0,0.0,1,0,1,0,0,0
28148000,28068000,1310988,-0.0012173139,-0.005334697,-9.020873e-05,0.15,1.6098205e-07,1.6108795e-07,7.211303e-07,1310988,-0.0062852274,0.005314732,-0.10133347,0.4,0.058539517,0.058558483,0.00078124576,0,0.0,0.0,0.0,0.0,0.0,0.0,0.0,1,0,1,0,0,0
28564000,28484000,1310988,-0.0012033122,-0.0053246906,-8.8463916e-05,0.15,1.5985152e-07,1.5995667e-07,6.9628703e-07,1310988,-0.0062949657,0.0054074554,-0.0994884,0.4,0.058538783,0.05855772,0.00078124576,0,0.0,0.0,0.0,0.0,0.0,0.0,0.0,1,0,1,0,0,0
28980000,28900000,1310988,-0.0011944899,-0.005314443,-8.681081e-05,0.15,1.5878818e-07,1.5888997e-07,6.730321e-07,1310988,-0.0062108645,0.005397671,-0.09764499,0.4,0.058538355,0.058557373,0.00078124576,0,0.0,0.0,0.0,0.0,0.0,0.0,0.0,1,0,1,0,0,0
29188000,29108000,1310988,-0.0011914836,-0.005308051,-8.596058e-05,0.15,1.5828178e-07,1.5838079e-07,6.6196037e-07,1310988,-0.0061515267,0.0053808936,-0.096646495,0.4,0.05853816,0.058557257,0.00078124576,0,0.0,0.0,0.0,0.0,0.0,0.0,0.0,1,0,1,0,0,0
29604000,29524000,1310988,-0.0011873003,-0.005297029,-8.446039e-05,0.15,1.5731517e-07,1.5740886e-07,6.4085935e-07,1310988,-0.006028605,0.005344164,-0.09472052,0.4,0.0585378,0.058557063,0.00078124576,0,0.0,0.0,0.0,0.0,0.0,0.0,0.0,1,0,1,0,0,0
30020000,29940000,1310988,-0.0011881173,-0.0052884677,-8.3121064e-05,0.15,1.564044e-07,1.564922e-07,6.210614e-07,1310988,-0.005857501,0.0053147557,-0.092909664,0.4,0.058537297,0.058556892,0.00078124576,0,0.0,0.0,0.0,0.0,0.0,0.0,0.0,1,0,1,0,0,0
30436000,30356000,1310988,-0.0011925731,-0.005277654,-8.158195e-05,0.15,1.555471e-07,1.5562759e-07,6.0246776e-07,1310988,-0.0055905473,0.005350829,-0.091248706,0.4,0.058536183,0.058556337,0.00078124576,0,0.0,0.0,0.0,0.0,0.0,0.0,0.0,1,0,1,0,0,0
30852000,30772000,1310988,-0.001201585,-0.005267241,-7.977002e-05,0.15,1.5474002e-07,1.5481314e-07,5.849919e-07,1310988,-0.0053012646,0.0055258824,-0.08969246,0.4,0.058534507,0.0585553,0.00078124576,0,0.0,0.0,0.0,0.0,0.0,0.0,0.0,1,0,1,0,0,0
31268000,31188000,1310988,-0.0012126024,-0.005258897,-7.777938e-05,0.15,1.5398298e-07,1.540503e-07,5.6855566e-07,1310988,-0.005098647,0.0057204096,-0.08819677,0.4,0.058533132,0.05855454,0.00078124576,0,0.0,0.0,0.0,0.0,0.0,0.0,0.0,1,0,1,0,0,0
31684000,31604000,1310988,-0.0012215198,-0.0052522826,-7.575776e-05,0.15,1.5327171e-07,1.533356e-07,5.53087e-07,1310988,-0.004924836,0.005883341,-0.08676989,0.4,0.058531858,0.058553908,0.00078124576,0,0.0,0.0,0.0,0.0,0.0,0.0,0.0,1,0,1,0,0,0
32100000,32020000,1310988,-0.0012317477,-0.005244294,-7.4037e-05,0.15,1.5260298e-07,1.526631e-07,5.3851664e-07,1310988,-0.004738219,0.006085295,-0.08545414,0.4,0.058530536,0.058553178,0.00078124576,0,0.0,0.0,0.0,0.0,0.0,0.0,0.0,1,0,1,0,0,0
32516000,32436000,1310988,-0.0012419269,-0.0052365614,-7.238867e-05,0.15,1.5197404e-07,1.5203082e-07,5.24784e-07,1310988,-0.0045261267,0.0062840874,-0.08416313,0.4,0.058529183,0.0585524,0.00078124576,0,0.0,0.0,0.0,0.0,0.0,0.0,0.0,1,0,1,0,0,0
32932000,32852000,1310988,-0.0012543597,-0.0052297823,-7.089056e-05,0.15,1.5138384e-07,1.514373e-07,5.118326e-07,1310988,-0.0043386505,0.006480441,-0.082915686,0.4,0.05852815,0.05855176,0.00078124576,0,0.0,0.0,0.0,0.0,0.0,0.0,0.0,1,0,1,0,0,0
33348000,33268000,1310988,-0.001267767,-0.0052251555,-6.924361e-05,0.15,1.5082777e-07,1.5087859e-07,4.996109e-07,1310988,-0.004175593,0.006688163,-0.0817107,0.4,0.05852721,0.05855104,0.00078124576,0,0.0,0.0,0.0,0.0,0.0,0.0,0.0,1,0,1,0,0,0
33764000,33684000,1310988,-0.0012801741,-0.00521844,-6.746978e-05,0.15,1.503032e-07,1.5035114e-07,4.880704e-07,1310988,-0.003996675,0.00693077,-0.0807506,0.4,0.058525812,0.05854991,0.00078124576,0,0.0,0.0,0.0,0.0,0.0,0.0,0.0,1,0,1,0,0,0
34388000,34308000,1310988,-0.0012942185,-0.0052089184,-6.480423e-05,0.15,1.4957087e-07,1.4961627e-07,4.719427e-07,1310988,-0.0037215208,0.0072979033,-0.07956361,0.4,0.058522843,0.058547314,0.00078124576,0,0.0,0.0,0.0,0.0,0.0,0.0,0.0,1,0,1,0,0,0
35220000,35140000,1310988,-0.0013055924,-0.005188738,-6.127193e-05,0.15,1.4869086e-07,1.4873295e-07,4.5243712e-07,1310988,-0.0031755762,0.0076472308,-0.07875871,0.4,0.058516942,0.058542468,0.00078124576,0,0.0,0.0,0.0,0.0,0.0,0.0,0.0,1,0,1,0,0,0
36220000,36140000,1310988,-0.0012979993,-0.005157939,-5.7192956e-05,0.15,1.492592e-07,1.493005e-07,4.3056173e-07,1310988,-0.0025524134,0.007568735,-0.07844772,0.4,0.058511853,0.058539443,0.00078124634,0,0.0,0.0,0.0,0.0,0.0,0.0,0.0,1,1,1,0,0,0
37220000,37140000,1310988,-0.0012886077,-0.005128566,-5.3495616e-05,0.15,1.4809547e-07,1.4813718e-07,4.1141462e-07,1310988,-0.0022649001,0.0075213173,-0.078240715,0.4,0.058508385,0.05853858,0.0007812475,0,0.0,0.0,0.0,0.0,0.0,0.0,0.0,1,1,1,0,0,0
38220000,38140000,1310988,-0.0012795962,-0.0051083793,-5.059892e-05,0.15,1.470529e-07,1.4709704e-07,3.9461455e-07,1310988,-0.0022893671,0.007518394,-0.07733238,0.4,0.05850593,0.05853784,0.0007812481,0,0.0,0.0,0.0,0.0,0.0,0.0,0.0,1,1,1,0,0,0
38756000,38676000,1310988,-0.0012792555,-0.005104511,-4.9261984e-05,0.15,1.459703e-07,1.4601459e-07,3.8956648e-07,1310988,-0.0022825021,0.007500586,-0.075828776,0.4,0.05850241,0.058534693,0.00078124576,0,0.0,0.0,0.0,0.0,0.0,0.0,0.0,1,1,1,0,0,0
39172000,39092000,1310988,-0.0012815242,-0.005100941,-4.7812573e-05,0.15,1.4573669e-07,1.457806e-07,3.838637e-07,1310988,-0.0023199706,0.0074350624,-0.074396804,0.4,0.05849873,0.0585312,0.00078124576,0,0.0,0.0,0.0,0.0,0.0,0.0,0.0,1,1,1,0,0,0
39588000,39508000,1310988,-0.0012884273,-0.0050943485,-4.6430272e-05,0.15,1.4551928e-07,1.4556107e-07,3.7844814e-07,1310988,-0.0024946935,0.0072235,-0.07251914,0.4,0.058493655,0.058526177,0.00078124576,0,0.0,0.0,0.0,0.0,0.0,0.0,0.0,1,1,1,0,0,0
39796000,39716000,1310988,-0.0012929162,-0.005090642,-4.5764835e-05,0.15,1.4541473e-07,1.4545515e-07,3.7584329e-07,1310988,-0.0025832064,0.0070932633,-0.07151927,0.4,0.058491454,0.05852399,0.00078124576,0,0.0,0.0,0.0,0.0,0.0,0.0,0.0,1,1,1,0,0,0
40004000,39924000,1310988,-0.0012965974,-0.005087257,-4.5148456e-05,0.15,1.4531238e-07,1.453516e-07,3.7330466e-07,1310988,-0.0026553243,0.0070064305,-0.070445925,0.4,0.058489792,0.05852231,0.00078124576,0,0.0,0.0,0.0,0.0,0.0,0.0,0.0,1,1,1,0,0,0
40212000,40132000,1310988,-0.0012992525,-0.0050850892,-4.458453e-05,0.15,1.4521231e-07,1.4525081e-07,3.708308e-07,1310988,-0.0026887194,0.006957898,-0.06930292,0.4,0.05848847,0.058520954,0.00078124576,0,0.0,0.0,0.0,0.0,0.0,0.0,0.0,1,1,1,0,0,0
40420000,40340000,1310988,-0.0013008994,-0.0050835963,-4.3971762e-05,0.15,1.4511483e-07,1.4515282e-07,3.684196e-07,1310988,-0.0027005821,0.006945449,-0.06812456,0.4,0.05848735,0.05851981,0.00078124576,0,0.0,0.0,0.0,0.0,0.0,0.0,0.0,1,1,1,0,0,0
40628000,40548000,1310988,-0.0013019203,-0.005081958,-4.3302563e-05,0.15,1.4501963e-07,1.4505713e-07,3.6606917e-07,1310988,-0.0027115336,0.006958177,-0.06695103,0.4,0.05848655,0.058518976,0.00078124576,0,0.0,0.0,0.0,0.0,0.0,0.0,0.0,1,1,1,0,0,0
40836000,40756000,1310988,-0.0013029587,-0.0050800755,-4.2518e-05,0.15,1.4492679e-07,1.4496365e-07,3.6377799e-07,1310988,-0.002717244,0.0069830627,-0.06569363,0.4,0.058485985,0.058518372,0.00078124576,0,0.0,0.0,0.0,0.0,0.0,0.0,0.0,1,1,1,0,0,0
41044000,40964000,1310988,-0.0013036139,-0.0050775562,-4.1725805e-05,0.15,1.4483686e-07,1.44873e-07,3.615442e-07,1310988,-0.0027283316,0.007018162,-0.064412214,0.4,0.058485463,0.05851782,0.00078124576,0,0.0,0.0,0.0,0.0,0.0,0.0,0.0,1,1,1,0,0,0
41252000,41172000,1310988,-0.0013036305,-0.0050732503,-4.0988925e-05,0.15,1.4474941e-07,1.447845e-07,3.5936594e-07,1310988,-0.002736607,0.0070720026,-0.06311588,0.4,0.058485087,0.05851745,0.00078124576,0,0.0,0.0,0.0,0.0,0.0,0.0,0.0,1,1,1,0,0,0
41460000,41380000,1310988,-0.0013033025,-0.0050675613,-4.0222574e-05,0.15,1.4466433e-07,1.4469812e-07,3.5724173e-07,1310988,-0.0027423203,0.0071295924,-0.061771255,0.4,0.05848483,0.05851721,0.00078124576,0,0.0,0.0,0.0,0.0,0.0,0.0,0.0,1,1,1,0,0,0
41668000,41588000,1310988,-0.0013018113,-0.005061508,-3.9504666e-05,0.15,1.4458199e-07,1.4461467e-07,3.551704e-07,1310988,-0.0027544373,0.007193275,-0.060404137,0.4,0.058484584,0.05851698,0.00078124576,0,0.0,0.0,0.0,0.0,0.0,0.0,0.0,1,1,1,0,0,0
41876000,41796000,1310988,-0.0012991952,-0.005056379,-3.8764476e-05,0.15,1.4450157e-07,1.4453367e-07,3.5315105e-07,1310988,-0.0027465937,0.007247572,-0.059060402,0.4,0.058484375,0.058516804,0.00078124576,0,0.0,0.0,0.0,0.0,0.0,0.0,0.0,1,1,1,0,0,0
42084000,42004000,1310988,-0.0012951815,-0.0050521023,-3.805004e-05,0.15,1.444224e-07,1.444544e-07,3.5118208e-07,1310988,-0.0027161713,0.0072886366,-0.05770873,0.4,0.05848429,0.058516745,0.00078124576,0,0.0,0.0,0.0,0.0,0.0,0.0,0.0,1,1,1,0,0,0
42292000,42212000,1310988,-0.0012906734,-0.005049571,-3.7367172e-05,0.15,1.4434424e-07,1.4437664e-07,3.4926268e-07,1310988,-0.002685778,0.0073006568,-0.056406137,0.4,0.05848428,0.05851673,0.00078124576,0,0.0,0.0,0.0,0.0,0.0,0.0,0.0,1,1,1,0,0,0
42500000,42420000,1310988,-0.0012858579,-0.005049381,-3.677062e-05,0.15,1.4426719e-07,1.443006e-07,3.4739156e-07,1310988,-0.0026660932,0.0072833253,-0.05511509,0.4,0.058484267,0.058516704,0.00078124576,0,0.0,0.0,0.0,0.0,0.0,0.0,0.0,1,1,1,0,0,0
42708000,42628000,1310988,-0.0012813488,-0.0050512054,-3.6174177e-05,0.15,1.4419129e-07,1.4422606e-07,3.455675e-07,1310988,-0.002664991,0.0072429916,-0.053913876,0.4,0.058484193,0.05851661,0.00078124576,0,0.0,0.0,0.0,0.0,0.0,0.0,0.0,1,1,1,0,0,0
42916000,42836000,1310988,-0.0012770838,-0.005053411,-3.5558474e-05,0.15,1.441166e-07,1.4415268e-07,3.43789e-07,1310988,-0.0026821452,0.0071790996,-0.05271312,0.4,0.05848396,0.05851636,0.00078124576,0,0.0,0.0,0.0,0.0,0.0,0.0,0.0,1,1,1,0,0,0
43124000,43044000,1310988,-0.001273056,-0.005055708,-3.488682e-05,0.15,1.4404382e-07,1.440811e-07,3.420549e-07,1310988,-0.0027064576,0.007100489,-0.051559158,0.4,0.058483608,0.058515996,0.00078124576,0,0.0,0.0,0.0,0.0,0.0,0.0,0.0,1,1,1,0,0,0
43332000,43252000,1310988,-0.0012691504,-0.0050577335,-3.4254135e-05,0.15,1.4397342e-07,1.4401171e-07,3.4036387e-07,1310988,-0.0027327754,0.0070277276,-0.05038877,0.4,0.058483228,0.058515605,0.00078124576,0,0.0,0.0,0.0,0.0,0.0,0.0,0.0,1,1,1,0,0,0
43540000,43460000,1310988,-0.0012663174,-0.005059549,-3.3631102e-05,0.15,1.4390594e-07,1.4394492e-07,3.387151e-07,1310988,-0.002760432,0.00698219,-0.049232826,0.4,0.05848297,0.058515344,0.00078124576,0,0.0,0.0,0.0,0.0,0.0,0.0,0.0,1,1,1,0,0,0
43748000,43668000,1310988,-0.0012644767,-0.0050618136,-3.2918175e-05,0.15,1.4384081e-07,1.4388031e-07,3.371075e-07,1310988,-0.0028074945,0.0069592623,-0.048082177,0.4,0.058482762,0.058515154,0.00078124576,0,0.0,0.0,0.0,0.0,0.0,0.0,0.0,1,1,1,0,0,0
43956000,43876000,1310988,-0.0012632422,-0.0050651394,-3.218872e-05,0.15,1.437777e-07,1.4381774e-07,3.3553997e-07,1310988,-0.0028627682,0.0069445004,-0.046980374,0.4,0.0584826,0.058515012,0.00078124576,0,0.0,0.0,0.0,0.0,0.0,0.0,0.0,1,1,1,0,0,0
44164000,44084000,1310988,-0.0012620921,-0.005068667,-3.1423977e-05,0.15,1.4371618e-07,1.4375668e-07,3.3401133e-07,1310988,-0.002928439,0.006917032,-0.045894973,0.4,0.058482397,0.05851484,0.00078124576,0,0.0,0.0,0.0,0.0,0.0,0.0,0.0,1,1,1,0,0,0
44372000,44292000,1310988,-0.0012596851,-0.0050717546,-3.065212e-05,0.15,1.4365676e-07,1.4369769e-07,3.3252036e-07,1310988,-0.002976512,0.0068755993,-0.044784162,0.4,0.0584822,0.058514662,0.00078124576,0,0.0,0.0,0.0,0.0,0.0,0.0,0.0,1,1,1,0,0,0
44580000,44500000,1310988,-0.0012565589,-0.005073318,-2.99056e-05,0.15,1.4359966e-07,1.4364069e-07,3.3106605e-07,1310988,-0.0029990138,0.006841483,-0.043699503,0.4,0.058482025,0.0585145,0.00078124576,0,0.0,0.0,0.0,0.0,0.0,0.0,0.0,1,1,1,0,0,0
44788000,44708000,1310988,-0.0012537469,-0.005073887,-2.9102213e-05,0.15,1.4354447e-07,1.4358524e-07,3.2964766e-07,1310988,-0.0030150411,0.0068225334,-0.042653367,0.4,0.058481835,0.058514327,0.00078124576,0,0.0,0.0,0.0,0.0,0.0,0.0,0.0,1,1,1,0,0,0
44996000,44916000,1310988,-0.0012517212,-0.005073494,-2.828136e-05,0.15,1.434903e-07,1.4353043e-07,3.2826435e-07,1310988,-0.0030182637,0.006812146,-0.041648835,0.4,0.058481537,0.05851403,0.00078124576,0,0.0,0.0,0.0,0.0,0.0,0.0,0.0,1,1,1,0,0,0
45412000,45332000,1310988,-0.0012497003,-0.0050707757,-2.6493437e-05,0.15,1.4338528e-07,1.4342352e-07,3.2559956e-07,1310988,-0.0029954643,0.006836718,-0.039769795,0.4,0.058480453,0.058512904,0.00078124576,0,0.0,0.0,0.0,0.0,0.0,0.0,0.0,1,1,1,0,0,0
45828000,45748000,1310988,-0.0012492575,-0.005069444,-2.464548e-05,0.15,1.4328664e-07,1.4332329e-07,3.2306585e-07,1310988,-0.0030142716,0.0068971757,-0.037970383,0.4,0.05847942,0.05851181,0.00078124576,0,0.0,0.0,0.0,0.0,0.0,0.0,0.0,1,1,1,0,0,0
46244000,46164000,1310988,-0.0012507436,-0.0050667487,-2.2758288e-05,0.15,1.4319299e-07,1.4322782e-07,3.2065617e-07,1310988,-0.0030079572,0.007022543,-0.036381774,0.4,0.05847824,0.05851045,0.00078124576,0,0.0,0.0,0.0,0.0,0.0,0.0,0.0,1,1,1,0,0,0
46660000,46580000,1310988,-0.0012567955,-0.005064536,-2.078698e-05,0.15,1.4310412e-07,1.4313687e-07,3.1836504e-07,1310988,-0.0030368224,0.007257196,-0.034858234,0.4,0.058476917,0.05850878,0.00078124576,0,0.0,0.0,0.0,0.0,0.0,0.0,0.0,1,1,1,0,0,0
47076000,46996000,1310988,-0.0012670896,-0.005062957,-1.875813e-05,0.15,1.4302242e-07,1.4305314e-07,3.1618663e-07,1310988,-0.003102039,0.0075320993,-0.033380717,0.4,0.058476362,0.058507483,0.00078124576,0,0.0,0.0,0.0,0.0,0.0,0.0,0.0,1,1,1,0,0,0
47492000,47412000,1310988,-0.0012784569,-0.005058993,-1.6595848e-05,0.15,1.4294285e-07,1.4297142e-07,3.1411508e-07,1310988,-0.0031014122,0.007876112,-0.032171175,0.4,0.05847532,0.058505505,0.00078124576,0,0.0,0.0,0.0,0.0,0.0,0.0,0.0,1,1,1,0,0,0
47908000,47828000,1310988,-0.0012837315,-0.0050538615,-1.4611972e-05,0.15,1.4286812e-07,1.428955e-07,3.1214566e-07,1310988,-0.0030510295,0.008130847,-0.03094617,0.4,0.058474228,0.058503486,0.00078124576,0,0.0,0.0,0.0,0.0,0.0,0.0,0.0,1,1,1,0,0,0
48324000,48244000,1310988,-0.0012827882,-0.005046247,-1.2734234e-05,0.15,1.4280161e-07,1.4282821e-07,3.1027264e-07,1310988,-0.0029976182,0.008290527,-0.029678255,0.4,0.058473993,0.058502316,0.00078124576,0,0.0,0.0,0.0,0.0,0.0,0.0,0.0,1,1,1,0,0,0
48740000,48660000,1310988,-0.001280566,-0.005037525,-1.0841754e-05,0.15,1.4274093e-07,1.4276667e-07,3.084922e-07,1310988,-0.0029921308,0.008466573,-0.028294876,0.4,0.058474,0.058501367,0.00078124576,0,0.0,0.0,0.0,0.0,0.0,0.0,0.0,1,1,1,0,0,0
49156000,49076000,1310988,-0.0012781516,-0.005027355,-8.9818905e-06,0.15,1.4268427e-07,1.4270877e-07,3.068002e-07,1310988,-0.0030075128,0.008651851,-0.0268218,0.4,0.058473922,0.05850044,0.00078124576,0,0.0,0.0,0.0,0.0,0.0,0.0,0.0,1,1,1,0,0,0
49572000,49492000,1310988,-0.0012718139,-0.005019347,-7.0777787e-06,0.15,1.4263054e-07,1.4265457e-07,3.0519297e-07,1310988,-0.0030183715,0.008858426,-0.025250386,0.4,0.05847379,0.058499623,0.00078124576,0,0.0,0.0,0.0,0.0,0.0,0.0,0.0,1,1,1,0,0,0
49988000,49908000,1310988,-0.0012627832,-0.0050148806,-5.2043624e-06,0.15,1.4258038e-07,1.4260473e-07,3.036669e-07,1310988,-0.0029987786,0.009096944,-0.023524795,0.4,0.058473427,0.05849883,0.00078124576,0,0.0,0.0,0.0,0.0,0.0,0.0,0.0,1,1,1,0,0,0
50404000,50324000,1310988,-0.0012475146,-0.005011695,-3.6223569e-06,0.15,1.4253138e-07,1.4255711e-07,3.0221673e-07,1310988,-0.0029588582,0.009294321,-0.021803424,0.4,0.05847324,0.05849847,0.00078124576,0,0.0,0.0,0.0,0.0,0.0,0.0,0.0,1,1,1,0,0,0
50820000,50740000,1310988,-0.0012300464,-0.005011262,-2.2717597e-06,0.15,1.4248245e-07,1.425105e-07,3.008402e-07,1310988,-0.002948541,0.009373125,-0.020119254,0.4,0.058473255,0.058498386,0.00078124576,0,0.0,0.0,0.0,0.0,0.0,0.0,0.0,1,1,1,0,0,0
51236000,51156000,1310988,-0.0012151469,-0.0050087175,-9.909592e-07,0.15,1.4243629e-07,1.4246582e-07,2.9953435e-07,1310988,-0.0029638899,0.009412228,-0.018376961,0.4,0.058473237,0.058498293,0.00078124576,0,0.0,0.0,0.0,0.0,0.0,0.0,0.0,1,1,1,0,0,0
51652000,51572000,1310988,-0.0012069548,-0.005005364,4.2426393e-07,0.15,1.4239329e-07,1.4242312e-07,2.9829656e-07,1310988,-0.002987005,0.009480697,-0.016623288,0.4,0.05847318,0.058498107,0.00078124576,0,0.0,0.0,0.0,0.0,0.0,0.0,0.0,1,1,1,0,0,0
52068000,51988000,1310988,-0.0012054993,-0.005004584,1.9423712e-06,0.15,1.423512e-07,1.42381e-07,2.9712365e-07,1310988,-0.0029791354,0.009567107,-0.0148860905,0.4,0.05847315,0.05849787,0.00078124576,0,0.0,0.0,0.0,0.0,0.0,0.0,0.0,1,1,1,0,0,0
52484000,52404000,1310988,-0.0012041082,-0.0050036684,3.3756628e-06,0.15,1.4231097e-07,1.4234091e-07,2.9601154e-07,1310988,-0.0029554733,0.009641884,-0.013181136,0.4,0.058473095,0.05849766,0.00078124576,0,0.0,0.0,0.0,0.0,0.0,0.0,0.0,1,1,1,0,0,0
52900000,52820000,1310988,-0.0012021803,-0.005002531,4.885703e-06,0.15,1.4227275e-07,1.4230305e-07,2.9495743e-07,1310988,-0.0029313064,0.00973041,-0.011481479,0.4,0.058473043,0.058497377,0.00078124576,0,0.0,0.0,0.0,0.0,0.0,0.0,0.0,1,1,1,0,0,0
53316000,53236000,1310988,-0.0012001151,-0.005002412,6.4253777e-06,0.15,1.4223781e-07,1.4226885e-07,2.9395892e-07,1310988,-0.0029206278,0.0098261265,-0.009699461,0.4,0.058473054,0.058497176,0.00078124576,0,0.0,0.0,0.0,0.0,0.0,0.0,0.0,1,1,1,0,0,0
53732000,53652000,1310988,-0.0011949183,-0.0050052516,8.004492e-06,0.15,1.4220423e-07,1.4223721e-07,2.9301344e-07,1310988,-0.0029079306,0.009924731,-0.007876269,0.4,0.058473073,0.05849702,0.00078124576,0,0.0,0.0,0.0,0.0,0.0,0.0,0.0,1,1,1,0,0,0
54148000,54068000,1310988,-0.0011891766,-0.0050070887,9.541078e-06,0.15,1.4217152e-07,1.4220683e-07,2.9211827e-07,1310988,-0.0028930267,0.010002096,-0.006078198,0.4,0.05847309,0.058496907,0.00078124576,0,0.0,0.0,0.0,0.0,0.0,0.0,0.0,1,1,1,0,0,0
54564000,54484000,1310988,-0.0011837564,-0.0050079683,1.1011465e-05,0.15,1.4214018e-07,1.421783e-07,2.9127125e-07,1310988,-0.0028808657,0.010080719,-0.0042512883,0.4,0.058473118,0.0584968,0.00078124576,0,0.0,0.0,0.0,0.0,0.0,0.0,0.0,1,1,1,0,0,0
54980000,54900000,1310988,-0.0011773459,-0.0050066365,1.2517955e-05,0.15,1.4210963e-07,1.4215084e-07,2.904699e-07,1310988,-0.0028623412,0.010120867,-0.0024731625,0.4,0.05847314,0.05849676,0.00078124576,0,0.0,0.0,0.0,0.0,0.0,0.0,0.0,1,1,1,0,0,0
55980000,55900000,1310988,-0.0011735985,-0.0050062463,1.3302646e-05,0.15,1.4843013e-07,1.4847316e-07,2.9642186e-07,1310988,-0.0028535528,0.010119223,-0.0015688157,0.4,0.05847311,0.058496706,0.00078124634,0,0.0,0.0,0.0,0.0,0.0,0.0,0.0,1,0,1,0,0,0
56980000,56900000,1310988,-0.0011736135,-0.0050062817,1.3299913e-05,0.15,1.5642846e-07,1.5647143e-07,3.044219e-07,1310988,-0.0028535528,0.010119223,-0.0010769253,0.4,0.05847311,0.058496706,0.0007812492,0,0.0,0.0,0.0,0.0,0.0,0.0,0.0,1,0,1,0,0,0
57980000,57900000,1310988,-0.001173626,-0.00500634,1.3291271e-05,0.15,1.6441524e-07,1.6445804e-07,3.1242146e-07,1310988,-0.0028535528,0.010119223,-9.226944e-05,0.4,0.05847311,0.058496706,0.0007812486,0,0.0,0.0,0.0,0.0,0.0,0.0,0.0,1,0,1,0,0,0
58396000,58316000,1310988,-0.0011736436,-0.005006401,1.3279239e-05,0.15,1.6772906e-07,1.6777165e-07,3.1574893e-07,1310988,-0.0028535528,0.010119223,0.0011856904,0.4,0.05847311,0.058496706,0.00078124576,0,0.0,0.0,0.0,0.0,0.0,0.0,0.0,1,0,1,0,0,0
59196000,59116000,1310988,-0.0011735997,-0.005006233,1.3295823e-05,0.15,1.7407096e-07,1.741135e-07,3.221468e-07,1310988,-0.0028535528,0.010119223,0.002812481,0.4,0.05847311,0.058496706,0.00078124576,0,0.0,0.0,0.0,0.0,0.0,0.0,0.0,1,0,1,0,0,0
59732000,59652000,1310988,-0.001173501,-0.0050059105,1.3334404e-05,0.15,1.7828098e-07,1.7832348e-07,3.2643203e-07,1310988,-0.0028535528,0.010119223,0.0038284915,0.4,0.05847311,0.058496706,0.00078124576,0,0.0,0.0,0.0,0.0,0.0,0.0,0.0,1,0,1,0,0,0
60212000,60132000,1310988,-0.0011734125,-0.0050056884,1.335618e-05,0.15,1.8205272e-07,1.8209518e-07,3.3026984e-07,1310988,-0.0028535528,0.010119223,0.0048299734,0.4,0.05847311,0.058496706,0.00078124576,0,0.0,0.0,0.0,0.0,0.0,0.0,0.0,1,0,1,0,0,0
60740000,60660000,1310988,-0.0011733061,-0.005005503,1.3369859e-05,0.15,1.8619863e-07,1.8624107e-07,3.3449157e-07,1310988,-0.0028535528,0.010119223,0.0058533014,0.4,0.05847311,0.058496706,0.00078124576,0,0.0,0.0,0.0,0.0,0.0,0.0,0.0,1,0,1,0,0,0
61196000,61116000,1310988,-0.0011731186,-0.00500534,1.337097e-05,0.15,1.8971991e-07,1.8976228e-07,3.3813635e-07,1310988,-0.0028535528,0.010119223,0.0073767304,0.4,0.05847311,0.058496706,0.00078124576,0,0.0,0.0,0.0,0.0,0.0,0.0,0.0,1,0,1,0,0,0
61804000,61724000,1310988,-0.0011729784,-0.0050053024,1.3360882e-05,0.15,1.944985e-07,1.9454077e-07,3.4299848e-07,1310988,-0.0028535528,0.010119223,0.008386128,0.4,0.05847311,0.058496706,0.00078124576,0,0.0,0.0,0.0,0.0,0.0,0.0,0.0,1,0,1,0,0,0
62396000,62316000,1310988,-0.0011727561,-0.0050053042,1.3337152e-05,0.15,1.9911025e-07,1.9915231e-07,3.4773217e-07,1310988,-0.0028535528,0.010119223,0.009955497,0.4,0.05847311,0.058496706,0.00078124576,0,0.0,0.0,0.0,0.0,0.0,0.0,0.0,1,0,1,0,0,0
63204000,63124000,1310988,-0.001172512,-0.0050053666,1.3307146e-05,0.15,2.0541673e-07,2.054582e-07,3.5419401e-07,1310988,-0.0028535528,0.010119223,0.011521338,0.4,0.05847311,0.058496706,0.00078124576,0,0.0,0.0,0.0,0.0,0.0,0.0,0.0,1,0,1,0,0,0
63996000,63916000,1310988,-0.00117235,-0.0050054565,1.32808245e-05,0.15,2.1159677e-07,2.1163723e-07,3.6052862e-07,1310988,-0.0028535528,0.010119223,0.0131449485,0.4,0.05847311,0.058496706,0.00078124576,0,0.0,0.0,0.0,0.0,0.0,0.0,0.0,1,0,1,0,0,0
64796000,64716000,1310988,-0.0011723072,-0.0050055925,1.3259421e-05,0.15,2.1782814e-07,2.1786728e-07,3.6692774e-07,1310988,-0.0028535528,0.010119223,0.014843487,0.4,0.05847311,0.058496706,0.00078124576,0,0.0,0.0,0.0,0.0,0.0,0.0,0.0,1,0,1,0,0,0
65396000,65316000,1310988,-0.0011723994,-0.005005769,1.32477735e-05,0.15,2.2248234e-07,2.2252043e-07,3.7172737e-07,1310988,-0.0028535528,0.010119223,0.015855081,0.4,0.05847311,0.058496706,0.00078124576,0,0.0,0.0,0.0,0.0,0.0,0.0,0.0,1,0,1,0,0,0
65996000,65916000,1310988,-0.001172603,-0.005005952,1.3240125e-05,0.15,2.2710938e-07,2.271461e-07,3.7652714e-07,1310988,-0.0028535528,0.010119223,0.017391294,0.4,0.05847311,0.058496706,0.00078124576,0,0.0,0.0,0.0,0.0,0.0,0.0,0.0,1,0,1,0,0,0
66796000,66716000,1310988,-0.0011729547,-0.005006156,1.3238367e-05,0.15,2.3329747e-07,2.333324e-07,3.82927e-07,1310988,-0.0028535528,0.010119223,0.019074565,0.4,0.05847311,0.058496706,0.00078124576,0,0.0,0.0,0.0,0.0,0.0,0.0,0.0,1,0,1,0,0,0
67596000,67516000,1310988,-0.0011736854,-0.00500653,1.3245399e-05,0.15,2.393286e-07,2.393612e-07,3.8932683e-07,1310988,-0.0028535528,0.010119223,0.020657457,0.4,0.05847311,0.058496706,0.00078124576,0,0.0,0.0,0.0,0.0,0.0,0.0,0.0,1,0,1,0,0,0
68396000,68316000,1310988,-0.0011747247,-0.005007009,1.3261754e-05,0.15,2.452199e-07,2.4524996e-07,3.9572666e-07,1310988,-0.0028535528,0.010119223,0.022106595,0.4,0.05847311,0.058496706,0.00078124576,0,0.0,0.0,0.0,0.0,0.0,0.0,0.0,1,0,1,0,0,0
69196000,69116000,1310988,-0.0011761341,-0.0050076954,1.3286374e-05,0.15,2.5091376e-07,2.509414e-07,4.021264e-07,1310988,-0.0028535528,0.010119223,0.02337987,0.4,0.05847311,0.058496706,0.00078124576,0,0.0,0.0,0.0,0.0,0.0,0.0,0.0,1,0,1,0,0,0
70196000,70116000,1310988,-0.0011785534,-0.0050091357,1.3327302e-05,0.15,2.5764106e-07,2.576653e-07,4.1012606e-07,1310988,-0.0028535528,0.010119223,0.024159586,0.4,0.05847311,0.058496706,0.0007812492,0,0.0,0.0,0.0,0.0,0.0,0.0,0.0,1,0,1,0,0,0
71196000,71116000,1310988,-0.0011818404,-0.005011602,1.3376829e-05,0.15,2.6376674e-07,2.6378726e-07,4.181257e-07,1310988,-0.0028535528,0.010119223,0.024720488,0.4,0.05847311,0.058496706,0.00078124576,0,0.0,0.0,0.0,0.0,0.0,0.0,0.0,1,0,1,0,0,0
72196000,72116000,1310988,-0.0011851899,-0.0050146454,1.3420872e-05,0.15,2.6969025e-07,2.6970747e-07,4.2612535e-07,1310988,-0.0028535528,0.010119223,0.02449631,0.4,0.05847311,0.058496706,0.0007812492,0,0.0,0.0,0.0,0.0,0.0,0.0,0.0,1,0,1,0,0,0
73196000,73116000,1310988,-0.0011903603,-0.0050199735,1.34822485e-05,0.15,2.7417298e-07,2.741855e-07,4.3412484e-07,1310988,-0.0028535528,0.010119223,0.024057139,0.4,0.05847311,0.058496706,0.00078124576,0,0.0,0.0,0.0,0.0,0.0,0.0,0.0,1,0,1,0,0,0
74196000,74116000,1310988,-0.0011966373,-0.0050270697,1.35512655e-05,0.15,2.7741336e-07,2.7742084e-07,4.421242e-07,1310988,-0.0028535528,0.010119223,0.023547547,0.4,0.05847311,0.058496706,0.0007812486,0,0.0,0.0,0.0,0.0,0.0,0.0,0.0,1,0,1,0,0,0
75196000,75116000,1310988,-0.0012039373,-0.0050358414,1.362785e-05,0.15,2.7924582e-07,2.792477e-07,4.5012328e-07,1310988,-0.0028535528,0.010119223,0.023052754,0.4,0.05847311,0.058496706,0.00078124576,0,0.0,0.0,0.0,0.0,0.0,0.0,0.0,1,0,1,0,0,0
76196000,76116000,1310988,-0.0012122149,-0.005046251,1.3711948e-05,0.15,2.7953365e-07,2.7952953e-07,4.581221e-07,1310988,-0.0028535528,0.010119223,0.02241749,0.4,0.05847311,0.058496706,0.00078124687,0,0.0,0.0,0.0,0.0,0.0,0.0,0.0,1,0,1,0,0,0
77196000,77116000,1310988,-0.0012195029,-0.005055619,1.3785964e-05,0.15,2.802268e-07,2.8021756e-07,4.6612092e-07,1310988,-0.0028535528,0.010119223,0.021526203,0.4,0.05847311,0.058496706,0.00078124634,0,0.0,0.0,0.0,0.0,0.0,0.0,0.0,1,0,1,0,0,0
78196000,78116000,1310988,-0.0012297631,-0.0050689946,1.3891187e-05,0.15,2.7775647e-07,2.777411e-07,4.7411908e-07,1310988,-0.0028535528,0.010119223,0.02181672,0.4,0.05847311,0.058496706,0.0007812529,0,0.0,0.0,0.0,0.0,0.0,0.0,0.0,1,0,1,0,0,0
78796000,78716000,1310988,-0.0012365989,-0.0050779777,1.3962428e-05,0.15,2.756591e-07,2.7563993e-07,4.7891774e-07,1310988,-0.0028535528,0.010119223,0.023695499,0.4,0.05847311,0.058496706,0.00078124576,0,0.0,0.0,0.0,0.0,0.0,0.0,0.0,1,0,1,0,0,0
79196000,79116000,1310988,-0.0012410731,-0.005083852,1.40099355e-05,0.15,2.7405295e-07,2.740313e-07,4.8211683e-07,1310988,-0.0028535528,0.010119223,0.025725408,0.4,0.05847311,0.058496706,0.00078124576,0,0.0,0.0,0.0,0.0,0.0,0.0,0.0,1,0,1,0,0,0
79596000,79516000,1310988,-0.0012454884,-0.005089684,1.4056953e-05,0.15,2.723079e-07,2.7228376e-07,4.8531575e-07,1310988,-0.0028535528,0.010119223,0.028778717,0.4,0.05847311,0.058496706,0.00078124576,0,0.0,0.0,0.0,0.0,0.0,0.0,0.0,1,0,1,0,0,0
80596000,80516000,1310988,-0.001255393,-0.005103762,1.41514965e-05,0.15,2.6749544e-07,2.6746514e-07,4.9331237e-07,1310988,-0.0028535528,0.010119223,0.029140666,0.4,0.05847311,0.058496706,0.00078128115,0,0.0,0.0,0.0,0.0,0.0,0.0,0.0,1,0,1,0,0,0
81196000,81116000,1310988,-0.0012604618,-0.0051124007,1.4183094e-05,0.15,2.644168e-07,2.6438298e-07,4.9811007e-07,1310988,-0.0028535528,0.010119223,0.031103102,0.4,0.05847311,0.058496706,0.00078124576,0,0.0,0.0,0.0,0.0,0.0,0.0,0.0,1,0,1,0,0,0
81596000,81516000,1310988,-0.0012630575,-0.0051174606,1.4191207e-05,0.15,2.6233855e-07,2.6230242e-07,5.013083e-07,1310988,-0.0028535528,0.010119223,0.033869274,0.4,0.05847311,0.058496706,0.00078124576,0,0.0,0.0,0.0,0.0,0.0,0.0,0.0,1,0,1,0,0,0
81988000,81908000,1310988,-0.0012651621,-0.0051214253,1.41989485e-05,0.15,2.6020072e-07,2.6016235e-07,5.0444237e-07,1310988,-0.0028535528,0.010119223,0.034984753,0.4,0.05847311,0.058496706,0.00078124576,0,0.0,0.0,0.0,0.0,0.0,0.0,0.0,1,0,1,0,0,0
81996000,81916000,1310988,-0.001265138,-0.0051220735,1.4190564e-05,0.15,2.602647e-07,2.602263e-07,5.045063e-07,1310988,-0.0028535528,0.010119223,0.038252376,0.4,0.05847311,0.058496706,0.00078124576,0,0.0,0.0,0.0,0.0,0.0,0.0,0.0,1,0,1,0,0,0
82996000,82916000,1310988,-0.0012687454,-0.0051300516,1.4188341e-05,0.15,2.5777015e-07,2.5772718e-07,5.12502e-07,1310988,-0.0028535528,0.010119223,0.038819842,0.4,0.05847311,0.058496706,0.00078126596,0,0.0,0.0,0.0,0.0,0.0,0.0,0.0,1,0,1,0,0,0
83596000,83516000,1310988,-0.0012717487,-0.005135048,1.42056215e-05,0.15,2.5478133e-07,2.547348e-07,5.1729853e-07,1310988,-0.0028535528,0.010119223,0.040073782,0.4,0.05847311,0.058496706,0.00078124576,0,0.0,0.0,0.0,0.0,0.0,0.0,0.0,1,0,1,0,0,0
83996000,83916000,1310988,-0.0012737914,-0.005137681,1.4227011e-05,0.15,2.5285172e-07,2.5280275e-07,5.2049603e-07,1310988,-0.0028535528,0.010119223,0.042019665,0.4,0.05847311,0.058496706,0.00078124576,0,0.0,0.0,0.0,0.0,0.0,0.0,0.0,1,0,1,0,0,0
84396000,84316000,1310988,-0.001275883,-0.005139884,1.4255054e-05,0.15,2.5098467e-07,2.5093323e-07,5.236935e-07,1310988,-0.0028535528,0.010119223,0.04509377,0.4,0.05847311,0.058496706,0.00078124576,0,0.0,0.0,0.0,0.0,0.0,0.0,0.0,1,0,1,0,0,0
84796000,84716000,1310988,-0.001278003,-0.005141658,1.42891395e-05,0.15,2.4918876e-07,2.4913476e-07,5.268908e-07,1310988,-0.0028535528,0.010119223,0.049356107,0.4,0.05847311,0.058496706,0.00078124576,0,0.0,0.0,0.0,0.0,0.0,0.0,0.0,1,0,1,0,0,0
85196000,85116000,1310988,-0.0012801309,-0.005142998,1.432871e-05,0.15,2.474709e-07,2.474142e-07,5.300881e-07,1310988,-0.0028535528,0.010119223,0.054719113,0.4,0.05847311,0.058496706,0.00078124576,0,0.0,0.0,0.0,0.0,0.0,0.0,0.0,1,0,1,0,0,0
85604000,85524000,1310988,-0.0012822694,-0.005143901,1.4373735e-05,0.15,2.4590025e-07,2.4584074e-07,5.3334924e-07,1310988,-0.0028535528,0.010119223,0.061245438,0.4,0.05847311,0.058496706,0.00078124576,0,0.0,0.0,0.0,0.0,0.0,0.0,0.0,1,1,1,0,0,0
85996000,85916000,1310988,-0.0012843704,-0.0051443833,1.442269e-05,0.15,2.4428843e-07,2.4422604e-07,5.3648216e-07,1310988,-0.0028535528,0.010119223,0.06853098,0.4,0.05847311,0.058496706,0.00078124576,0,0.0,0.0,0.0,0.0,0.0,0.0,0.0,1,1,1,0,0,0
86396000,86316000,1310988,-0.0012864294,-0.005144471,1.4475021e-05,0.15,2.4282969e-07,2.427644e-07,5.3967904e-07,1310988,-0.0028535528,0.010119223,0.07630859,0.4,0.05847311,0.058496706,0.00078124576,0,0.0,0.0,0.0,0.0,0.0,0.0,0.0,1,1,1,0,0,0
86540000,86460000,1310988,-0.0013160958,-0.00511113,1.5464419e-05,0.15,1.7546711e-07,1.7534525e-07,5.123647e-07,1310988,-0.0028943294,0.0100073265,0.09291597,0.4,0.058472537,0.058496132,0.00078124576,0,0.0,0.0,0.0,0.0,0.0,0.0,0.0,1,1,1,0,0,0
86748000,86668000,1310988,-0.0013239533,-0.0050947582,1.5442933e-05,0.15,1.6755928e-07,1.6743193e-07,4.8951665e-07,1310988,-0.0062311925,0.006780145,0.10261546,0.4,0.056412246,0.056434516,0.00078124576,0,0.0,0.0,0.0,0.0,0.0,0.0,0.0,1,1,1,0,0,0
86772000,86692000,1310988,-0.0013281682,-0.0050873477,1.5591046e-05,0.15,1.6080566e-07,1.606696e-07,4.896994e-07,1310988,-0.007472278,0.0060734595,0.10261963,0.4,0.056217276,0.056239378,0.00078124576,0,0.0,0.0,0.0,0.0,0.0,0.0,0.0,1,1,1,0,0,0
86796000,86716000,1310988,-0.0013282584,-0.005087487,1.5592228e-05,0.15,1.6099767e-07,1.608616e-07,4.898914e-07,1310988,-0.0076000993,0.0061451714,0.104871064,0.4,0.05621727,0.056239378,0.00078124576,0,0.0,0.0,0.0,0.0,0.0,0.0,0.0,1,1,1,0,0,0
86956000,86876000,1310988,-0.0013286617,-0.005087189,1.5365846e-05,0.15,1.6208361e-07,1.6195638e-07,4.6981108e-07,1310988,-0.008169008,0.003987068,0.109763585,0.4,0.05067534,0.050694063,0.00078124576,0,0.0,0.0,0.0,0.0,0.0,0.0,0.0,1,1,1,0,0,0
86980000,86900000,1310988,-0.0013296751,-0.0050858124,1.5395837e-05,0.15,1.6126695e-07,1.611382e-07,4.7000202e-07,1310988,-0.011551144,0.001491588,0.1097646,0.4,0.044572044,0.0445853,0.00078124576,0,0.0,0.0,0.0,0.0,0.0,0.0,0.0,1,1,1,0,0,0
87164000,87084000,1310988,-0.0013296851,-0.0050857267,1.5154527e-05,0.15,1.6272922e-07,1.6260852e-07,4.526627e-07,1310988,-0.011182256,0.0002689872,0.11306393,0.4,0.03861384,0.038624715,0.00078124576,0,0.0,0.0,0.0,0.0,0.0,0.0,0.0,1,1,1,0,0,0
87188000,87108000,1310988,-0.001329818,-0.0050856043,1.5153914e-05,0.15,1.6288126e-07,1.6276043e-07,4.528547e-07,1310988,-0.01332989,-0.0021018717,0.1130584,0.4,0.026042813,0.026045626,0.00078124576,0,0.0,0.0,0.0,0.0,0.0,0.0,0.0,1,1,1,0,0,0
87372000,87292000,1310988,-0.0013298559,-0.0050856583,1.4971998e-05,0.15,1.6432195e-07,1.6420816e-07,4.3761875e-07,1310988,-0.0131168915,-0.0024004492,0.11548816,0.4,0.023046628,0.023049427,0.00078124576,0,0.0,0.0,0.0,0.0,0.0,0.0,0.0,1,1,1,0,0,0
87580000,87500000,1310988,-0.0013297842,-0.005085619,1.4818386e-05,0.15,1.6593567e-07,1.6582818e-07,4.2433072e-07,1310988,-0.01327359,-0.0034684588,0.11640836,0.4,0.012342802,0.012342612,0.00078124576,0,0.0,0.0,0.0,0.0,0.0,0.0,0.0,1,1,1,0,0,0
88020000,87940000,1310988,-0.0013300502,-0.0050859307,1.4492818e-05,0.15,1.6933491e-07,1.6923798e-07,4.0216895e-07,1310988,-0.013800009,-0.0018477202,0.11628501,0.4,0.0034164551,0.0034157813,0.00078124576,0,0.0,0.0,0.0,0.0,0.0,0.0,0.0,1,1,1,0,0,0
88204000,88124000,1310988,-0.0013300739,-0.0050860085,1.4238165e-05,0.15,1.7080056e-07,1.7070826e-07,3.9251302e-07,1310988,-0.013865802,-0.0017362154,0.11512023,0.4,0.003370154,0.0033695733,0.00078124576,0,0.0,0.0,0.0,0.0,0.0,0.0,0.0,1,1,1,0,0,0
88396000,88316000,1310988,-0.0013300978,-0.005086083,1.4249213e-05,0.15,1.7233651e-07,1.722442e-07,3.940484e-07,1310988,-0.013865202,-0.00076940155,0.11545287,0.4,0.0027732002,0.0027726141,0.00078124576,0,0.0,0.0,0.0,0.0,0.0,0.0,0.0,1,1,1,0,0,0
88412000,88332000,1310988,-0.0013301423,-0.0050862213,1.3944082e-05,0.15,1.7245517e-07,1.7236705e-07,3.8398363e-07,1310988,-0.01395333,-0.0006913066,0.11372865,0.4,0.0027515746,0.0027510624,0.00078124576,0,0.0,0.0,0.0,0.0,0.0,0.0,0.0,1,1,1,0,0,0
88620000,88540000,1310988,-0.0013300828,-0.005086373,1.3720339e-05,0.15,1.7409089e-07,1.740066e-07,3.762683e-07,1310988,-0.014056614,-4.8418187e-05,0.11188458,0.4,0.0024093576,0.0024089017,0.00078124576,0,0.0,0.0,0.0,0.0,0.0,0.0,0.0,1,1,1,0,0,0
88828000,88748000,1310988,-0.0013301348,-0.0050866557,1.3581976e-05,0.15,1.7568166e-07,1.7560085e-07,3.692657e-07,1310988,-0.014185424,0.00018312897,0.10991605,0.4,0.002208834,0.002208429,0.00078124576,0,0.0,0.0,0.0,0.0,0.0,0.0,0.0,1,1,1,0,0,0
89036000,88956000,1310988,-0.0013304796,-0.0050870865,1.3346353e-05,0.15,1.7720356e-07,1.7712594e-07,3.6289038e-07,1310988,-0.014104406,1.1955072e-05,0.10758921,0.4,0.002085613,0.002085257,0.00078124576,0,0.0,0.0,0.0,0.0,0.0,0.0,0.0,1,1,1,0,0,0
89244000,89164000,1310988,-0.0013312835,-0.0050879,1.3038014e-05,0.15,1.7863691e-07,1.7856222e-07,3.5707006e-07,1310988,-0.013932216,-0.00033596018,0.10525637,0.4,0.0020069322,0.002006625,0.00078124576,0,0.0,0.0,0.0,0.0,0.0,0.0,0.0,1,1,1,0,0,0
89452000,89372000,1310988,-0.0013321283,-0.005088997,1.2696304e-05,0.15,1.7996757e-07,1.7989564e-07,3.5174318e-07,1310988,-0.013707159,-0.0005885473,0.102630965,0.4,0.0019551304,0.0019548705,0.00078124576,0,0.0,0.0,0.0,0.0,0.0,0.0,0.0,1,1,1,0,0,0
