timestamp,data_rate,rate_multiplier,tx_rate_avg,tx_error_rate_avg,tx_message_count,tx_buffer_overruns,rx_rate_avg,rx_message_count,rx_message_lost_count,rx_buffer_overruns,rx_parse_errors,rx_packet_drop_count,rx_message_lost_rate,type,mode,flow_control,forwarding,mavlink_v2,ftp,streams,heartbeat_type_antenna_tracker,heartbeat_type_gcs,heartbeat_type_onboard_controller,heartbeat_type_gimbal,heartbeat_type_adsb,heartbeat_type_camera,heartbeat_type_parachute,heartbeat_type_open_drone_id,heartbeat_component_telemetry_radio,heartbeat_component_log,heartbeat_component_osd,heartbeat_component_obstacle_avoidance,heartbeat_component_vio,heartbeat_component_pairing_manager,heartbeat_component_udp_bridge,heartbeat_component_uart_bridge,avoidance_system_healthy,open_drone_id_system_healthy,parachute_system_healthy
3392000,400000.0,1.0,0.0,0.0,2,0,0.0,0,0,0,0,0,0.0,0,10,0,0,1,1,5,0,0,0,0,0,0,0,0,0,0,0,0,0,0,0,0,0,0,0
4652000,400000.0,1.0,1246.016,0.0,38,0,0.0,0,0,0,0,0,0.0,0,10,0,0,1,1,5,0,0,0,0,0,0,0,0,0,0,0,0,0,0,0,0,0,0,0
5908000,400000.0,1.0,1666.3347,0.0,83,0,0.0,0,0,0,0,0,0.0,0,10,0,0,1,1,5,0,0,0,0,0,0,0,0,0,0,0,0,0,0,0,0,0,0,0
7160000,400000.0,1.0,1432.271,0.0,122,0,0.0,0,0,0,0,0,0.0,0,10,0,0,1,1,5,0,0,0,0,0,0,0,0,0,0,0,0,0,0,0,0,0,0,0
8160000,400000.0,1.0,1458.1674,0.0,152,0,0.0,0,0,0,0,0,0.0,0,10,0,0,1,1,5,0,0,0,0,0,0,0,0,0,0,0,0,0,0,0,0,0,0,0
8412000,400000.0,1.0,1432.271,0.0,160,0,0.0,0,0,0,0,0,0.0,0,10,0,0,1,1,5,0,0,0,0,0,0,0,0,0,0,0,0,0,0,0,0,0,0,0
9668000,400000.0,1.0,1679.283,0.0,206,0,0.0,0,0,0,0,0,0.0,0,10,0,0,1,1,5,0,0,0,0,0,0,0,0,0,0,0,0,0,0,0,0,0,0,0
10924000,400000.0,1.0,1432.271,0.0,245,0,0.0,0,0,0,0,0,0.0,0,10,0,0,1,1,5,0,0,0,0,0,0,0,0,0,0,0,0,0,0,0,0,0,0,0
12180000,400000.0,1.0,1606.5737,0.0,288,0,0.0,0,0,0,0,0,0.0,0,10,0,0,1,1,5,0,0,0,0,0,0,0,0,0,0,0,0,0,0,0,0,0,0,0
13180000,400000.0,1.0,1509.9602,0.0,320,0,0.0,0,0,0,0,0,0.0,0,10,0,0,1,1,5,0,0,0,0,0,0,0,0,0,0,0,0,0,0,0,0,0,0,0
13440000,400000.0,1.0,1445.2191,0.0,328,0,0.0,0,0,0,0,0,0.0,0,10,0,0,1,1,5,0,0,0,0,0,0,0,0,0,0,0,0,0,0,0,0,0,0,0
14696000,400000.0,1.0,1445.2191,0.0,366,0,0.0,0,0,0,0,0,0.0,0,10,0,0,1,1,5,0,0,0,0,0,0,0,0,0,0,0,0,0,0,0,0,0,0,0
15956000,400000.0,1.0,1458.1674,0.0,406,0,0.0,0,0,0,0,0,0.0,0,10,0,0,1,1,5,0,0,0,0,0,0,0,0,0,0,0,0,0,0,0,0,0,0,0
17216000,400000.0,1.0,1432.271,0.0,444,0,0.0,0,0,0,0,0,0.0,0,10,0,0,1,1,5,0,0,0,0,0,0,0,0,0,0,0,0,0,0,0,0,0,0,0
18216000,400000.0,1.0,1445.2191,0.0,474,0,0.0,0,0,0,0,0,0.0,0,10,0,0,1,1,5,0,0,0,0,0,0,0,0,0,0,0,0,0,0,0,0,0,0,0
18472000,400000.0,1.0,1445.2191,0.0,485,0,0.0,0,0,0,0,0,0.0,0,10,0,0,1,1,5,0,0,0,0,0,0,0,0,0,0,0,0,0,0,0,0,0,0,0
19724000,400000.0,1.0,1445.2191,0.0,523,0,0.0,0,0,0,0,0,0.0,0,10,0,0,1,1,5,0,0,0,0,0,0,0,0,0,0,0,0,0,0,0,0,0,0,0
20980000,400000.0,1.0,1432.271,0.0,560,0,0.0,0,0,0,0,0,0.0,0,10,0,0,1,1,5,0,0,0,0,0,0,0,0,0,0,0,0,0,0,0,0,0,0,0
22236000,400000.0,1.0,1458.1674,0.0,599,0,0.0,0,0,0,0,0,0.0,0,10,0,0,1,1,5,0,0,0,0,0,0,0,0,0,0,0,0,0,0,0,0,0,0,0
23236000,400000.0,1.0,1432.271,0.0,630,0,0.0,0,0,0,0,0,0.0,0,10,0,0,1,1,5,0,0,0,0,0,0,0,0,0,0,0,0,0,0,0,0,0,0,0
23488000,400000.0,1.0,1445.2191,0.0,638,0,0.0,0,0,0,0,0,0.0,0,10,0,0,1,1,5,0,0,0,0,0,0,0,0,0,0,0,0,0,0,0,0,0,0,0
24740000,400000.0,1.0,1445.2191,0.0,677,0,0.0,0,0,0,0,0,0.0,0,10,0,0,1,1,5,0,0,0,0,0,0,0,0,0,0,0,0,0,0,0,0,0,0,0
26000000,400000.0,1.0,1509.9602,0.0,715,0,0.0,0,0,0,0,0,0.0,0,10,0,0,1,1,5,0,0,0,0,0,0,0,0,0,0,0,0,0,0,0,0,0,0,0
27260000,400000.0,1.0,1432.271,0.0,753,0,0.0,0,0,0,0,0,0.0,0,10,0,0,1,1,5,0,0,0,0,0,0,0,0,0,0,0,0,0,0,0,0,0,0,0
28260000,400000.0,1.0,1458.1674,0.0,784,0,0.0,0,0,0,0,0,0.0,0,10,0,0,1,1,5,0,0,0,0,0,0,0,0,0,0,0,0,0,0,0,0,0,0,0
28516000,400000.0,1.0,1432.271,0.0,793,0,0.0,0,0,0,0,0,0.0,0,10,0,0,1,1,5,0,0,0,0,0,0,0,0,0,0,0,0,0,0,0,0,0,0,0
29776000,400000.0,1.0,1445.2191,0.0,832,0,0.0,0,0,0,0,0,0.0,0,10,0,0,1,1,5,0,0,0,0,0,0,0,0,0,0,0,0,0,0,0,0,0,0,0
31036000,400000.0,1.0,1458.1674,0.0,871,0,0.0,0,0,0,0,0,0.0,0,10,0,0,1,1,5,0,0,0,0,0,0,0,0,0,0,0,0,0,0,0,0,0,0,0
32296000,400000.0,1.0,1432.271,0.0,909,0,0.0,0,0,0,0,0,0.0,0,10,0,0,1,1,5,0,0,0,0,0,0,0,0,0,0,0,0,0,0,0,0,0,0,0
33296000,400000.0,1.0,1445.2191,0.0,939,0,0.0,0,0,0,0,0,0.0,0,10,0,0,1,1,5,0,0,0,0,0,0,0,0,0,0,0,0,0,0,0,0,0,0,0
33556000,400000.0,1.0,1445.2191,0.0,949,0,0.0,0,0,0,0,0,0.0,0,10,0,0,1,1,5,0,0,0,0,0,0,0,0,0,0,0,0,0,0,0,0,0,0,0
34808000,400000.0,1.0,1445.2191,0.0,986,0,0.0,0,0,0,0,0,0.0,0,10,0,0,1,1,5,0,0,0,0,0,0,0,0,0,0,0,0,0,0,0,0,0,0,0
36064000,400000.0,1.0,1432.271,0.0,1024,0,0.0,0,0,0,0,0,0.0,0,10,0,0,1,1,5,0,0,0,0,0,0,0,0,0,0,0,0,0,0,0,0,0,0,0
37324000,400000.0,1.0,1445.2191,0.0,1064,0,0.0,0,0,0,0,0,0.0,0,10,0,0,1,1,5,0,0,0,0,0,0,0,0,0,0,0,0,0,0,0,0,0,0,0
38324000,400000.0,1.0,1509.9602,0.0,1095,0,0.0,0,0,0,0,0,0.0,0,10,0,0,1,1,5,0,0,0,0,0,0,0,0,0,0,0,0,0,0,0,0,0,0,0
38580000,400000.0,1.0,1445.2191,0.0,1103,0,0.0,0,0,0,0,0,0.0,0,10,0,0,1,1,5,0,0,0,0,0,0,0,0,0,0,0,0,0,0,0,0,0,0,0
39832000,400000.0,1.0,1445.2191,0.0,1142,0,0.0,0,0,0,0,0,0.0,0,10,0,0,1,1,5,0,0,0,0,0,0,0,0,0,0,0,0,0,0,0,0,0,0,0
41092000,400000.0,1.0,1445.2191,0.0,1180,0,0.0,0,0,0,0,0,0.0,0,10,0,0,1,1,5,0,0,0,0,0,0,0,0,0,0,0,0,0,0,0,0,0,0,0
42348000,400000.0,1.0,1432.271,0.0,1218,0,0.0,0,0,0,0,0,0.0,0,10,0,0,1,1,5,0,0,0,0,0,0,0,0,0,0,0,0,0,0,0,0,0,0,0
43348000,400000.0,1.0,1458.1674,0.0,1250,0,0.0,0,0,0,0,0,0.0,0,10,0,0,1,1,5,0,0,0,0,0,0,0,0,0,0,0,0,0,0,0,0,0,0,0
43608000,400000.0,1.0,1445.2191,0.0,1258,0,0.0,0,0,0,0,0,0.0,0,10,0,0,1,1,5,0,0,0,0,0,0,0,0,0,0,0,0,0,0,0,0,0,0,0
44868000,400000.0,1.0,1432.271,0.0,1296,0,0.0,0,0,0,0,0,0.0,0,10,0,0,1,1,5,0,0,0,0,0,0,0,0,0,0,0,0,0,0,0,0,0,0,0
46120000,400000.0,1.0,1458.1674,0.0,1336,0,0.0,0,0,0,0,0,0.0,0,10,0,0,1,1,5,0,0,0,0,0,0,0,0,0,0,0,0,0,0,0,0,0,0,0
47120000,400000.0,1.0,1432.271,0.0,1367,0,0.0,0,0,0,0,0,0.0,0,10,0,0,1,1,5,0,0,0,0,0,0,0,0,0,0,0,0,0,0,0,0,0,0,0
47380000,400000.0,1.0,1432.271,0.0,1375,0,0.0,0,0,0,0,0,0.0,0,10,0,0,1,1,5,0,0,0,0,0,0,0,0,0,0,0,0,0,0,0,0,0,0,0
48632000,400000.0,1.0,1445.2191,0.0,1414,0,0.0,0,0,0,0,0,0.0,0,10,0,0,1,1,5,0,0,0,0,0,0,0,0,0,0,0,0,0,0,0,0,0,0,0
49884000,400000.0,1.0,1445.2191,0.0,1452,0,0.0,0,0,0,0,0,0.0,0,10,0,0,1,1,5,0,0,0,0,0,0,0,0,0,0,0,0,0,0,0,0,0,0,0
51136000,400000.0,1.0,1497.012,0.0,1490,0,0.0,0,0,0,0,0,0.0,0,10,0,0,1,1,5,0,0,0,0,0,0,0,0,0,0,0,0,0,0,0,0,0,0,0
52136000,400000.0,1.0,1458.1674,0.0,1521,0,0.0,0,0,0,0,0,0.0,0,10,0,0,1,1,5,0,0,0,0,0,0,0,0,0,0,0,0,0,0,0,0,0,0,0
52396000,400000.0,1.0,1458.1674,0.0,1530,0,0.0,0,0,0,0,0,0.0,0,10,0,0,1,1,5,0,0,0,0,0,0,0,0,0,0,0,0,0,0,0,0,0,0,0
53652000,400000.0,1.0,1500.0,0.0,1570,0,0.0,0,0,0,0,0,0.0,0,10,0,0,1,1,5,0,0,0,0,0,0,0,0,0,0,0,0,0,0,0,0,0,0,0
54908000,400000.0,1.0,1458.1674,0.0,1609,0,0.0,0,0,0,0,0,0.0,0,10,0,0,1,1,5,0,0,0,0,0,0,0,0,0,0,0,0,0,0,0,0,0,0,0
56168000,400000.0,1.0,1457.1714,0.0,1648,0,0.0,0,0,0,0,0,0.0,0,10,0,0,1,1,5,0,0,0,0,0,0,0,0,0,0,0,0,0,0,0,0,0,0,0
57168000,400000.0,1.0,1445.2191,0.0,1679,0,0.0,0,0,0,0,0,0.0,0,10,0,0,1,1,5,0,0,0,0,0,0,0,0,0,0,0,0,0,0,0,0,0,0,0
57424000,400000.0,1.0,1445.2191,0.0,1688,0,0.0,0,0,0,0,0,0.0,0,10,0,0,1,1,5,0,0,0,0,0,0,0,0,0,0,0,0,0,0,0,0,0,0,0
58680000,400000.0,1.0,1432.271,0.0,1727,0,0.0,0,0,0,0,0,0.0,0,10,0,0,1,1,5,0,0,0,0,0,0,0,0,0,0,0,0,0,0,0,0,0,0,0
59932000,400000.0,1.0,1445.2191,0.0,1765,0,0.0,0,0,0,0,0,0.0,0,10,0,0,1,1,5,0,0,0,0,0,0,0,0,0,0,0,0,0,0,0,0,0,0,0
61188000,400000.0,1.0,1458.1674,0.0,1804,0,0.0,0,0,0,0,0,0.0,0,10,0,0,1,1,5,0,0,0,0,0,0,0,0,0,0,0,0,0,0,0,0,0,0,0
62188000,400000.0,1.0,1432.271,0.0,1835,0,0.0,0,0,0,0,0,0.0,0,10,0,0,1,1,5,0,0,0,0,0,0,0,0,0,0,0,0,0,0,0,0,0,0,0
62436000,400000.0,1.0,1432.271,0.0,1843,0,0.0,0,0,0,0,0,0.0,0,10,0,0,1,1,5,0,0,0,0,0,0,0,0,0,0,0,0,0,0,0,0,0,0,0
63700000,400000.0,1.0,1445.2191,0.0,1882,0,0.0,0,0,0,0,0,0.0,0,10,0,0,1,1,5,0,0,0,0,0,0,0,0,0,0,0,0,0,0,0,0,0,0,0
64956000,400000.0,1.0,1445.2191,0.0,1920,0,0.0,0,0,0,0,0,0.0,0,10,0,0,1,1,5,0,0,0,0,0,0,0,0,0,0,0,0,0,0,0,0,0,0,0
66216000,400000.0,1.0,1445.2191,0.0,1958,0,0.0,0,0,0,0,0,0.0,0,10,0,0,1,1,5,0,0,0,0,0,0,0,0,0,0,0,0,0,0,0,0,0,0,0
67216000,400000.0,1.0,1445.2191,0.0,1990,0,0.0,0,0,0,0,0,0.0,0,10,0,0,1,1,5,0,0,0,0,0,0,0,0,0,0,0,0,0,0,0,0,0,0,0
67476000,400000.0,1.0,1445.2191,0.0,1999,0,0.0,0,0,0,0,0,0.0,0,10,0,0,1,1,5,0,0,0,0,0,0,0,0,0,0,0,0,0,0,0,0,0,0,0
68732000,400000.0,1.0,1445.2191,0.0,2037,0,0.0,0,0,0,0,0,0.0,0,10,0,0,1,1,5,0,0,0,0,0,0,0,0,0,0,0,0,0,0,0,0,0,0,0
69988000,400000.0,1.0,1445.2191,0.0,2077,0,0.0,0,0,0,0,0,0.0,0,10,0,0,1,1,5,0,0,0,0,0,0,0,0,0,0,0,0,0,0,0,0,0,0,0
71248000,400000.0,1.0,1445.2191,0.0,2115,0,0.0,0,0,0,0,0,0.0,0,10,0,0,1,1,5,0,0,0,0,0,0,0,0,0,0,0,0,0,0,0,0,0,0,0
72248000,400000.0,1.0,1445.2191,0.0,2145,0,0.0,0,0,0,0,0,0.0,0,10,0,0,1,1,5,0,0,0,0,0,0,0,0,0,0,0,0,0,0,0,0,0,0,0
72508000,400000.0,1.0,1445.2191,0.0,2155,0,0.0,0,0,0,0,0,0.0,0,10,0,0,1,1,5,0,0,0,0,0,0,0,0,0,0,0,0,0,0,0,0,0,0,0
73768000,400000.0,1.0,1470.1195,0.0,2194,0,0.0,0,0,0,0,0,0.0,0,10,0,0,1,1,5,0,0,0,0,0,0,0,0,0,0,0,0,0,0,0,0,0,0,0
75024000,400000.0,1.0,1432.271,0.0,2233,0,0.0,0,0,0,0,0,0.0,0,10,0,0,1,1,5,0,0,0,0,0,0,0,0,0,0,0,0,0,0,0,0,0,0,0
76276000,400000.0,1.0,1522.9084,0.0,2272,0,0.0,0,0,0,0,0,0.0,0,10,0,0,1,1,5,0,0,0,0,0,0,0,0,0,0,0,0,0,0,0,0,0,0,0
77276000,400000.0,1.0,1445.2191,0.0,2302,0,0.0,0,0,0,0,0,0.0,0,10,0,0,1,1,5,0,0,0,0,0,0,0,0,0,0,0,0,0,0,0,0,0,0,0
77532000,400000.0,1.0,1445.2191,0.0,2311,0,0.0,0,0,0,0,0,0.0,0,10,0,0,1,1,5,0,0,0,0,0,0,0,0,0,0,0,0,0,0,0,0,0,0,0
78784000,400000.0,1.0,1458.1674,0.0,2350,0,0.0,0,0,0,0,0,0.0,0,10,0,0,1,1,5,0,0,0,0,0,0,0,0,0,0,0,0,0,0,0,0,0,0,0
80044000,400000.0,1.0,1432.271,0.0,2388,0,0.0,0,0,0,0,0,0.0,0,10,0,0,1,1,5,0,0,0,0,0,0,0,0,0,0,0,0,0,0,0,0,0,0,0
81296000,400000.0,1.0,1445.2191,0.0,2426,0,0.0,0,0,0,0,0,0.0,0,10,0,0,1,1,5,0,0,0,0,0,0,0,0,0,0,0,0,0,0,0,0,0,0,0
82296000,400000.0,1.0,1445.2191,0.0,2457,0,0.0,0,0,0,0,0,0.0,0,10,0,0,1,1,5,0,0,0,0,0,0,0,0,0,0,0,0,0,0,0,0,0,0,0
82556000,400000.0,1.0,1445.2191,0.0,2466,0,0.0,0,0,0,0,0,0.0,0,10,0,0,1,1,5,0,0,0,0,0,0,0,0,0,0,0,0,0,0,0,0,0,0,0
83808000,400000.0,1.0,1432.271,0.0,2503,0,0.0,0,0,0,0,0,0.0,0,10,0,0,1,1,5,0,0,0,0,0,0,0,0,0,0,0,0,0,0,0,0,0,0,0
85060000,400000.0,1.0,1458.1674,0.0,2542,0,0.0,0,0,0,0,0,0.0,0,10,0,0,1,1,5,0,0,0,0,0,0,0,0,0,0,0,0,0,0,0,0,0,0,0
86316000,400000.0,1.0,1432.271,0.0,2580,0,0.0,0,0,0,0,0,0.0,0,10,0,0,1,1,5,0,0,0,0,0,0,0,0,0,0,0,0,0,0,0,0,0,0,0
87316000,400000.0,1.0,1457.1714,0.0,2611,0,0.0,0,0,0,0,0,0.0,0,10,0,0,1,1,5,0,0,0,0,0,0,0,0,0,0,0,0,0,0,0,0,0,0,0
87568000,400000.0,1.0,1457.1714,0.0,2620,0,0.0,0,0,0,0,0,0.0,0,10,0,0,1,1,5,0,0,0,0,0,0,0,0,0,0,0,0,0,0,0,0,0,0,0
88824000,400000.0,1.0,1471.1156,0.0,2660,0,0.0,0,0,0,0,0,0.0,0,10,0,0,1,1,5,0,0,0,0,0,0,0,0,0,0,0,0,0,0,0,0,0,0,0
