timestamp,timestamp_sample,yaw_composite,yaw_variance,yaw[0],yaw[1],yaw[2],yaw[3],yaw[4],innov_vn[0],innov_vn[1],innov_vn[2],innov_vn[3],innov_vn[4],innov_ve[0],innov_ve[1],innov_ve[2],innov_ve[3],innov_ve[4],weight[0],weight[1],weight[2],weight[3],weight[4],yaw_composite_valid
55596000,55516000,2.6779451,3.5801747,-2.5132742,-1.2566371,0.0,1.2566371,2.5132742,0.0,0.0,0.0,0.0,0.0,0.0,0.0,0.0,0.0,0.0,0.2,0.2,0.2,0.2,0.2,0
55604000,55524000,2.4980917,3.5532892,-2.513256,-1.2566187,1.8307273e-05,1.2566555,2.5132926,0.0,0.0,0.0,0.0,0.0,0.0,0.0,0.0,0.0,0.0,0.2,0.2,0.2,0.2,0.2,0
55612000,55532000,-2.2455373,3.624729,-2.5132494,-1.2566123,2.477668e-05,1.2566619,2.513299,0.0,0.0,0.0,0.0,0.0,0.0,0.0,0.0,0.0,0.0,0.2,0.2,0.2,0.2,0.2,0
55620000,55540000,3.1415927,3.9477968,-2.513237,-1.2565998,3.7368583e-05,1.2566744,2.5133116,0.0,0.0,0.0,0.0,0.0,0.0,0.0,0.0,0.0,0.0,0.2,0.2,0.2,0.2,0.2,0
55628000,55548000,-2.3561945,3.5777223,-2.5132358,-1.2565987,3.8414848e-05,1.2566755,2.5133128,0.0,0.0,0.0,0.0,0.0,0.0,0.0,0.0,0.0,0.0,0.2,0.2,0.2,0.2,0.2,0
55636000,55556000,-3.0172377,3.8071005,-2.5132146,-1.2565774,5.974497e-05,1.2566968,2.513334,0.0,0.0,0.0,0.0,0.0,0.0,0.0,0.0,0.0,0.0,0.2,0.2,0.2,0.2,0.2,0
55644000,55564000,3.1415927,3.947763,-2.5132086,-1.2565714,6.57515e-05,1.2567028,2.51334,0.0,0.0,0.0,0.0,0.0,0.0,0.0,0.0,0.0,0.0,0.2,0.2,0.2,0.2,0.2,0
55652000,55572000,3.0172377,3.8069682,-2.5132015,-1.2565644,7.2799354e-05,1.2567098,2.5133471,0.0,0.0,0.0,0.0,0.0,0.0,0.0,0.0,0.0,0.0,0.2,0.2,0.2,0.2,0.2,0
55660000,55580000,3.1415927,3.9477634,-2.5132074,-1.2565702,6.687147e-05,1.256704,2.5133412,0.0,0.0,0.0,0.0,0.0,0.0,0.0,0.0,0.0,0.0,0.2,0.2,0.2,0.2,0.2,0
55668000,55588000,-2.896614,3.7000518,-2.5132236,-1.2565866,5.0558254e-05,1.2566876,2.5133247,0.0,0.0,0.0,0.0,0.0,0.0,0.0,0.0,0.0,0.0,0.2,0.2,0.2,0.2,0.2,0
55676000,55596000,3.041924,3.832483,-2.5132253,-1.2565881,4.900992e-05,1.2566861,2.5133233,0.0,0.0,0.0,0.0,0.0,0.0,0.0,0.0,0.0,0.0,0.2,0.2,0.2,0.2,0.2,0
55684000,55604000,3.1415927,3.9477777,-2.5132182,-1.256581,5.6177054e-05,1.2566934,2.5133305,0.0,0.0,0.0,0.0,0.0,0.0,0.0,0.0,0.0,0.0,0.2,0.2,0.2,0.2,0.2,0
55692000,55612000,-2.819842,3.647093,-2.5132034,-1.2565662,7.096968e-05,1.256708,2.5133452,0.0,0.0,0.0,0.0,0.0,0.0,0.0,0.0,0.0,0.0,0.2,0.2,0.2,0.2,0.2,0
55700000,55620000,2.896614,3.6999593,-2.5132012,-1.256564,7.3126495e-05,1.2567103,2.5133474,0.0,0.0,0.0,0.0,0.0,0.0,0.0,0.0,0.0,0.0,0.2,0.2,0.2,0.2,0.2,0
55708000,55628000,2.4468544,3.5574872,-2.5132048,-1.2565676,6.9519934e-05,1.2567066,2.5133438,0.0,0.0,0.0,0.0,0.0,0.0,0.0,0.0,0.0,0.0,0.2,0.2,0.2,0.2,0.2,0
55716000,55636000,2.976444,3.7675216,-2.5131967,-1.2565595,7.760406e-05,1.2567147,2.513352,0.0,0.0,0.0,0.0,0.0,0.0,0.0,0.0,0.0,0.0,0.2,0.2,0.2,0.2,0.2,0
55724000,55644000,-3.041924,3.8326495,-2.5131693,-1.2565322,0.00010500509,1.2567421,2.5133793,0.0,0.0,0.0,0.0,0.0,0.0,0.0,0.0,0.0,0.0,0.2,0.2,0.2,0.2,0.2,0
55732000,55652000,3.1415927,3.947712,-2.5131621,-1.2565249,0.00011216969,1.2567493,2.5133865,0.0,0.0,0.0,0.0,0.0,0.0,0.0,0.0,0.0,0.0,0.2,0.2,0.2,0.2,0.2,0
55740000,55660000,-3.0172377,3.8071496,-2.513174,-1.2565368,0.00010026048,1.2567374,2.5133746,0.0,0.0,0.0,0.0,0.0,0.0,0.0,0.0,0.0,0.0,0.2,0.2,0.2,0.2,0.2,0
55748000,55668000,2.6779451,3.580161,-2.5131981,-1.2565609,7.6222655e-05,1.2567134,2.5133505,0.0,0.0,0.0,0.0,0.0,0.0,0.0,0.0,0.0,0.0,0.2,0.2,0.2,0.2,0.2,0
55756000,55676000,3.0172377,3.806962,-2.513188,-1.2565506,8.651077e-05,1.2567236,2.5133607,0.0,0.0,0.0,0.0,0.0,0.0,0.0,0.0,0.0,0.0,0.2,0.2,0.2,0.2,0.2,0
55764000,55684000,3.1415927,3.9477198,-2.5131667,-1.2565293,0.00010774228,1.2567449,2.513382,0.0,0.0,0.0,0.0,0.0,0.0,0.0,0.0,0.0,0.0,0.2,0.2,0.2,0.2,0.2,0
55772000,55692000,2.896614,3.699925,-2.5131497,-1.2565124,0.00012478523,1.2567619,2.5133991,0.0,0.0,0.0,0.0,0.0,0.0,0.0,0.0,0.0,0.0,0.2,0.2,0.2,0.2,0.2,0
55780000,55700000,2.5829935,3.5579174,-2.513162,-1.2565246,0.00011253736,1.2567496,2.5133867,0.0,0.0,0.0,0.0,0.0,0.0,0.0,0.0,0.0,0.0,0.2,0.2,0.2,0.2,0.2,0
55788000,55708000,2.9441972,3.7386627,-2.5131533,-1.256516,0.00012115748,1.2567583,2.5133953,0.0,0.0,0.0,0.0,0.0,0.0,0.0,0.0,0.0,0.0,0.2,0.2,0.2,0.2,0.2,0
55796000,55716000,2.5308666,3.553378,-2.5131488,-1.2565116,0.00012558977,1.2567627,2.5133998,0.0,0.0,0.0,0.0,0.0,0.0,0.0,0.0,0.0,0.0,0.2,0.2,0.2,0.2,0.2,0
55804000,55724000,2.976444,3.767483,-2.5131478,-1.2565106,0.00012653504,1.2567637,2.5134008,0.0,0.0,0.0,0.0,0.0,0.0,0.0,0.0,0.0,0.0,0.2,0.2,0.2,0.2,0.2,0
55812000,55732000,2.8501358,3.6664636,-2.5131457,-1.2565082,0.00012883665,1.256766,2.5134032,0.0,0.0,0.0,0.0,0.0,0.0,0.0,0.0,0.0,0.0,0.2,0.2,0.2,0.2,0.2,0
55820000,55740000,-2.8501358,3.6666272,-2.5131617,-1.2565244,0.00011269234,1.2567499,2.513387,0.0,0.0,0.0,0.0,0.0,0.0,0.0,0.0,0.0,0.0,0.2,0.2,0.2,0.2,0.2,0
55828000,55748000,2.782822,3.6256642,-2.5131495,-1.2565123,0.00012486862,1.256762,2.5133991,0.0,0.0,0.0,0.0,0.0,0.0,0.0,0.0,0.0,0.0,0.2,0.2,0.2,0.2,0.2,0
55836000,55756000,2.896614,3.699925,-2.5131423,-1.256505,0.00013205828,1.2567692,2.5134063,0.0,0.0,0.0,0.0,0.0,0.0,0.0,0.0,0.0,0.0,0.2,0.2,0.2,0.2,0.2,0
55844000,55764000,2.976444,3.767491,-2.513153,-1.2565159,0.000121238285,1.2567583,2.5133955,0.0,0.0,0.0,0.0,0.0,0.0,0.0,0.0,0.0,0.0,0.2,0.2,0.2,0.2,0.2,0
55852000,55772000,-2.819842,3.6471312,-2.5131607,-1.2565235,0.00011358902,1.2567507,2.513388,0.0,0.0,0.0,0.0,0.0,0.0,0.0,0.0,0.0,0.0,0.2,0.2,0.2,0.2,0.2,0
55860000,55780000,3.0172377,3.806931,-2.513149,-1.2565118,0.00012535333,1.2567625,2.5133996,0.0,0.0,0.0,0.0,0.0,0.0,0.0,0.0,0.0,0.0,0.2,0.2,0.2,0.2,0.2,0
55868000,55788000,2.782822,3.6256702,-2.5131543,-1.256517,0.00012005193,1.2567571,2.5133944,0.0,0.0,0.0,0.0,0.0,0.0,0.0,0.0,0.0,0.0,0.2,0.2,0.2,0.2,0.2,0
55876000,55796000,2.2974386,3.5997198,-2.5131469,-1.2565095,0.0001275067,1.2567647,2.5134017,0.0,0.0,0.0,0.0,0.0,0.0,0.0,0.0,0.0,0.0,0.2,0.2,0.2,0.2,0.2,0
55884000,55804000,-3.0584514,3.8504457,-2.5131388,-1.2565017,0.00013551825,1.2567726,2.5134099,0.0,0.0,0.0,0.0,0.0,0.0,0.0,0.0,0.0,0.0,0.2,0.2,0.2,0.2,0.2,0
55892000,55812000,-3.0584514,3.8504665,-2.513121,-1.2564836,0.0001535278,1.2567906,2.513428,0.0,0.0,0.0,0.0,0.0,0.0,0.0,0.0,0.0,0.0,0.2,0.2,0.2,0.2,0.2,0
55900000,55820000,3.070285,3.8631532,-2.5131044,-1.2564671,0.00017008474,1.2568072,2.5134444,0.0,0.0,0.0,0.0,0.0,0.0,0.0,0.0,0.0,0.0,0.2,0.2,0.2,0.2,0.2,0
55908000,55828000,3.0584514,3.8501003,-2.5130906,-1.2564534,0.00018373744,1.2568209,2.513458,0.0,0.0,0.0,0.0,0.0,0.0,0.0,0.0,0.0,0.0,0.2,0.2,0.2,0.2,0.2,0
55916000,55836000,2.976444,3.7674327,-2.5130842,-1.256447,0.00019015293,1.2568272,2.5134645,0.0,0.0,0.0,0.0,0.0,0.0,0.0,0.0,0.0,0.0,0.2,0.2,0.2,0.2,0.2,0
55924000,55844000,2.7610862,3.6144016,-2.5130885,-1.2564512,0.00018594161,1.2568231,2.5134602,0.0,0.0,0.0,0.0,0.0,0.0,0.0,0.0,0.0,0.0,0.2,0.2,0.2,0.2,0.2,0
55932000,55852000,3.1415927,3.94763,-2.5130847,-1.2564473,0.00018983871,1.256827,2.5134642,0.0,0.0,0.0,0.0,0.0,0.0,0.0,0.0,0.0,0.0,0.2,0.2,0.2,0.2,0.2,0
55940000,55860000,2.8501358,3.6664326,-2.5130847,-1.2564474,0.0001897666,1.2568269,2.513464,0.0,0.0,0.0,0.0,0.0,0.0,0.0,0.0,0.0,0.0,0.2,0.2,0.2,0.2,0.2,0
55948000,55868000,-2.9996955,3.789887,-2.5130732,-1.256436,0.00020124011,1.2568383,2.5134757,0.0,0.0,0.0,0.0,0.0,0.0,0.0,0.0,0.0,0.0,0.2,0.2,0.2,0.2,0.2,0
55956000,55876000,-2.976444,3.7677946,-2.5130777,-1.2564405,0.00019668983,1.2568338,2.5134711,0.0,0.0,0.0,0.0,0.0,0.0,0.0,0.0,0.0,0.0,0.2,0.2,0.2,0.2,0.2,0
55964000,55884000,2.7468016,3.6075277,-2.5130737,-1.2564365,0.00020068431,1.2568378,2.513475,0.0,0.0,0.0,0.0,0.0,0.0,0.0,0.0,0.0,0.0,0.2,0.2,0.2,0.2,0.2,0
55972000,55892000,3.1415927,3.9475977,-2.5130568,-1.2564194,0.00021770172,1.2568548,2.513492,0.0,0.0,0.0,0.0,0.0,0.0,0.0,0.0,0.0,0.0,0.2,0.2,0.2,0.2,0.2,0
55980000,55900000,-2.9304993,3.7273614,-2.5130384,-1.2564012,0.00023600124,1.2568731,2.5135105,0.0,0.0,0.0,0.0,0.0,0.0,0.0,0.0,0.0,0.0,0.2,0.2,0.2,0.2,0.2,0
55988000,55908000,-2.7291822,3.5998087,-2.5130334,-1.2563963,0.00024091493,1.256878,2.5135155,0.0,0.0,0.0,0.0,0.0,0.0,0.0,0.0,0.0,0.0,0.2,0.2,0.2,0.2,0.2,0
55996000,55916000,2.0374048,3.776378,-2.5135012,-1.2564839,0.00062836695,1.2571791,2.5132883,0.0019476768,0.013045066,0.019934287,0.013094658,0.0019783322,-0.025818149,-0.029456127,-0.020026082,-0.010559985,-0.014139672,0.19996276,0.19977228,0.19989638,0.20016374,0.20020483,0
56004000,55924000,2.0374172,3.7763772,-2.5134897,-1.2564726,0.0006397678,1.2571906,2.5132995,0.0019476768,0.013045066,0.019934287,0.013094658,0.0019783322,-0.025818149,-0.029456127,-0.020026082,-0.010559985,-0.014139672,0.19996276,0.19977228,0.19989638,0.20016374,0.20020483,0
56012000,55932000,2.0374627,3.7763479,-2.5134761,-1.2564589,0.00065346784,1.2572043,2.5133133,0.0019476768,0.013045066,0.019934287,0.013094658,0.0019783322,-0.025818149,-0.029456127,-0.020026082,-0.010559985,-0.014139672,0.19996276,0.19977228,0.19989638,0.20016374,0.20020483,0
56020000,55940000,2.0374503,3.776366,-2.5134702,-1.2564528,0.00065947114,1.2572103,2.5133193,0.0019476768,0.013045066,0.019934287,0.013094658,0.0019783322,-0.025818149,-0.029456127,-0.020026082,-0.010559985,-0.014139672,0.19996276,0.19977228,0.19989638,0.20016374,0.20020483,0
56028000,55948000,2.0374832,3.7763515,-2.5134535,-1.256436,0.0006763176,1.2572272,2.5133362,0.0019476768,0.013045066,0.019934287,0.013094658,0.0019783322,-0.025818149,-0.029456127,-0.020026082,-0.010559985,-0.014139672,0.19996276,0.19977228,0.19989638,0.20016374,0.20020483,0
56036000,55956000,2.0375085,3.7763312,-2.5134504,-1.2564331,0.0006791742,1.25723,2.513339,0.0019476768,0.013045066,0.019934287,0.013094658,0.0019783322,-0.025818149,-0.029456127,-0.020026082,-0.010559985,-0.014139672,0.19996276,0.19977228,0.19989638,0.20016374,0.20020483,0
56044000,55964000,2.0374918,3.7763476,-2.51345,-1.2564325,0.00067975593,1.2572306,2.5133395,0.0019476768,0.013045066,0.019934287,0.013094658,0.0019783322,-0.025818149,-0.029456127,-0.020026082,-0.010559985,-0.014139672,0.19996276,0.19977228,0.19989638,0.20016374,0.20020483,0
56052000,55972000,2.037446,3.7763848,-2.5134575,-1.2564402,0.000672033,1.2572229,2.513332,0.0019476768,0.013045066,0.019934287,0.013094658,0.0019783322,-0.025818149,-0.029456127,-0.020026082,-0.010559985,-0.014139672,0.19996276,0.19977228,0.19989638,0.20016374,0.20020483,0
56060000,55980000,2.0373921,3.7764156,-2.5134792,-1.256462,0.00065029465,1.2572011,2.51331,0.0019476768,0.013045066,0.019934287,0.013094658,0.0019783322,-0.025818149,-0.029456127,-0.020026082,-0.010559985,-0.014139672,0.19996276,0.19977228,0.19989638,0.20016374,0.20020483,0
56068000,55988000,2.037417,3.7763724,-2.5135007,-1.2564833,0.00062896655,1.2571799,2.5132887,0.0019476768,0.013045066,0.019934287,0.013094658,0.0019783322,-0.025818149,-0.029456127,-0.020026082,-0.010559985,-0.014139672,0.19996276,0.19977228,0.19989638,0.20016374,0.20020483,0
56076000,55996000,2.037334,3.7764316,-2.5135221,-1.2565049,0.00060742255,1.2571583,2.513267,0.0019476768,0.013045066,0.019934287,0.013094658,0.0019783322,-0.025818149,-0.029456127,-0.020026082,-0.010559985,-0.014139672,0.19996276,0.19977228,0.19989638,0.20016374,0.20020483,0
56084000,56004000,2.0374005,3.7763584,-2.513533,-1.2565157,0.00059657765,1.2571474,2.5132563,0.0019476768,0.013045066,0.019934287,0.013094658,0.0019783322,-0.025818149,-0.029456127,-0.020026082,-0.010559985,-0.014139672,0.19996276,0.19977228,0.19989638,0.20016374,0.20020483,0
56092000,56012000,2.0373755,3.7763605,-2.5135565,-1.2565391,0.0005732395,1.2571242,2.513233,0.0019476768,0.013045066,0.019934287,0.013094658,0.0019783322,-0.025818149,-0.029456127,-0.020026082,-0.010559985,-0.014139672,0.19996276,0.19977228,0.19989638,0.20016374,0.20020483,0
56100000,56020000,2.0373755,3.7763584,-2.5135598,-1.2565424,0.00056984875,1.2571207,2.5132296,0.0019476768,0.013045066,0.019934287,0.013094658,0.0019783322,-0.025818149,-0.029456127,-0.020026082,-0.010559985,-0.014139672,0.19996276,0.19977228,0.19989638,0.20016374,0.20020483,0
56108000,56028000,2.0373425,3.7763848,-2.513565,-1.2565478,0.0005645186,1.2571154,2.5132241,0.0019476768,0.013045066,0.019934287,0.013094658,0.0019783322,-0.025818149,-0.029456127,-0.020026082,-0.010559985,-0.014139672,0.19996276,0.19977228,0.19989638,0.20016374,0.20020483,0
56116000,56036000,2.0373259,3.7763984,-2.5135684,-1.2565511,0.0005611737,1.257112,2.5132208,0.0019476768,0.013045066,0.019934287,0.013094658,0.0019783322,-0.025818149,-0.029456127,-0.020026082,-0.010559985,-0.014139672,0.19996276,0.19977228,0.19989638,0.20016374,0.20020483,0
56124000,56044000,2.0373464,3.7763803,-2.5135677,-1.2565502,0.0005620893,1.257113,2.5132217,0.0019476768,0.013045066,0.019934287,0.013094658,0.0019783322,-0.025818149,-0.029456127,-0.020026082,-0.010559985,-0.014139672,0.19996276,0.19977228,0.19989638,0.20016374,0.20020483,0
56132000,56052000,2.0373673,3.7763689,-2.5135593,-1.256542,0.0005703885,1.2571212,2.51323,0.0019476768,0.013045066,0.019934287,0.013094658,0.0019783322,-0.025818149,-0.029456127,-0.020026082,-0.010559985,-0.014139672,0.19996276,0.19977228,0.19989638,0.20016374,0.20020483,0
56140000,56060000,2.0373757,3.7763617,-2.5135593,-1.256542,0.0005703099,1.2571211,2.51323,0.0019476768,0.013045066,0.019934287,0.013094658,0.0019783322,-0.025818149,-0.029456127,-0.020026082,-0.010559985,-0.014139672,0.19996276,0.19977228,0.19989638,0.20016374,0.20020483,0
56148000,56068000,2.0373714,3.7763743,-2.5135508,-1.2565334,0.00057896756,1.2571298,2.5132387,0.0019476768,0.013045066,0.019934287,0.013094658,0.0019783322,-0.025818149,-0.029456127,-0.020026082,-0.010559985,-0.014139672,0.19996276,0.19977228,0.19989638,0.20016374,0.20020483,0
56156000,56076000,2.037417,3.7763395,-2.5135427,-1.2565252,0.00058714405,1.257138,2.513247,0.0019476768,0.013045066,0.019934287,0.013094658,0.0019783322,-0.025818149,-0.029456127,-0.020026082,-0.010559985,-0.014139672,0.19996276,0.19977228,0.19989638,0.20016374,0.20020483,0
56164000,56084000,2.0373921,3.7763782,-2.5135272,-1.2565098,0.000602512,1.2571533,2.5132623,0.0019476768,0.013045066,0.019934287,0.013094658,0.0019783322,-0.025818149,-0.029456127,-0.020026082,-0.010559985,-0.014139672,0.19996276,0.19977228,0.19989638,0.20016374,0.20020483,0
56172000,56092000,2.037363,3.776405,-2.5135286,-1.2565112,0.00060110306,1.2571518,2.5132608,0.0019476768,0.013045066,0.019934287,0.013094658,0.0019783322,-0.025818149,-0.029456127,-0.020026082,-0.010559985,-0.014139672,0.19996276,0.19977228,0.19989638,0.20016374,0.20020483,0
56180000,56100000,2.0373964,3.7763772,-2.513525,-1.2565079,0.00060444296,1.2571552,2.5132642,0.0019476768,0.013045066,0.019934287,0.013094658,0.0019783322,-0.025818149,-0.029456127,-0.020026082,-0.010559985,-0.014139672,0.19996276,0.19977228,0.19989638,0.20016374,0.20020483,0
56188000,56108000,2.0373259,3.776434,-2.513537,-1.2565198,0.00059257454,1.2571433,2.5132523,0.0019476768,0.013045066,0.019934287,0.013094658,0.0019783322,-0.025818149,-0.029456127,-0.020026082,-0.010559985,-0.014139672,0.19996276,0.19977228,0.19989638,0.20016374,0.20020483,0
56196000,56116000,2.037363,3.7764053,-2.5135305,-1.2565132,0.00059905223,1.2571498,2.5132587,0.0019476768,0.013045066,0.019934287,0.013094658,0.0019783322,-0.025818149,-0.029456127,-0.020026082,-0.010559985,-0.014139672,0.19996276,0.19977228,0.19989638,0.20016374,0.20020483,0
56204000,56124000,2.037384,3.77639,-2.5135264,-1.2565091,0.0006032313,1.257154,2.513263,0.0019476768,0.013045066,0.019934287,0.013094658,0.0019783322,-0.025818149,-0.029456127,-0.020026082,-0.010559985,-0.014139672,0.19996276,0.19977228,0.19989638,0.20016374,0.20020483,0
56212000,56132000,2.0373673,3.7764032,-2.51353,-1.2565128,0.00059949816,1.2571503,2.5132592,0.0019476768,0.013045066,0.019934287,0.013094658,0.0019783322,-0.025818149,-0.029456127,-0.020026082,-0.010559985,-0.014139672,0.19996276,0.19977228,0.19989638,0.20016374,0.20020483,0
56220000,56140000,2.0373383,3.7764015,-2.5135615,-1.2565442,0.0005680732,1.2571188,2.513228,0.0019476768,0.013045066,0.019934287,0.013094658,0.0019783322,-0.025818149,-0.029456127,-0.020026082,-0.010559985,-0.014139672,0.19996276,0.19977228,0.19989638,0.20016374,0.20020483,0
56228000,56148000,2.0373259,3.7763999,-2.5135765,-1.2565591,0.00055310363,1.2571039,2.513213,0.0019476768,0.013045066,0.019934287,0.013094658,0.0019783322,-0.025818149,-0.029456127,-0.020026082,-0.010559985,-0.014139672,0.19996276,0.19977228,0.19989638,0.20016374,0.20020483,0
56236000,56156000,2.0373507,3.7763765,-2.5135767,-1.2565595,0.0005528047,1.2571036,2.5132127,0.0019476768,0.013045066,0.019934287,0.013094658,0.0019783322,-0.025818149,-0.029456127,-0.020026082,-0.010559985,-0.014139672,0.19996276,0.19977228,0.19989638,0.20016374,0.20020483,0
56244000,56164000,2.0373135,3.776408,-2.5135815,-1.2565641,0.000548174,1.2570989,2.513208,0.0019476768,0.013045066,0.019934287,0.013094658,0.0019783322,-0.025818149,-0.029456127,-0.020026082,-0.010559985,-0.014139672,0.19996276,0.19977228,0.19989638,0.20016374,0.20020483,0
56252000,56172000,2.0373344,3.776367,-2.5136042,-1.2565869,0.00052534114,1.257076,2.5131853,0.0019476768,0.013045066,0.019934287,0.013094658,0.0019783322,-0.025818149,-0.029456127,-0.020026082,-0.010559985,-0.014139672,0.19996276,0.19977228,0.19989638,0.20016374,0.20020483,0
56260000,56180000,2.0372596,3.7764277,-2.5136151,-1.2565979,0.00051439187,1.2570652,2.513174,0.0019476768,0.013045066,0.019934287,0.013094658,0.0019783322,-0.025818149,-0.029456127,-0.020026082,-0.010559985,-0.014139672,0.19996276,0.19977228,0.19989638,0.20016374,0.20020483,0
56268000,56188000,2.0373092,3.7763665,-2.5136316,-1.2566142,0.0004980205,1.2570488,2.5131578,0.0019476768,0.013045066,0.019934287,0.013094658,0.0019783322,-0.025818149,-0.029456127,-0.020026082,-0.010559985,-0.014139672,0.19996276,0.19977228,0.19989638,0.20016374,0.20020483,0
56276000,56196000,2.0373096,3.7763684,-2.5136294,-1.2566122,0.000500115,1.2570509,2.51316,0.0019476768,0.013045066,0.019934287,0.013094658,0.0019783322,-0.025818149,-0.029456127,-0.020026082,-0.010559985,-0.014139672,0.19996276,0.19977228,0.19989638,0.20016374,0.20020483,0
56284000,56204000,2.0372639,3.776409,-2.5136333,-1.2566159,0.00049645104,1.2570472,2.5131562,0.0019476768,0.013045066,0.019934287,0.013094658,0.0019783322,-0.025818149,-0.029456127,-0.020026082,-0.010559985,-0.014139672,0.19996276,0.19977228,0.19989638,0.20016374,0.20020483,0
56292000,56212000,2.0373178,3.776359,-2.5136323,-1.2566152,0.0004972626,1.257048,2.5131571,0.0019476768,0.013045066,0.019934287,0.013094658,0.0019783322,-0.025818149,-0.029456127,-0.020026082,-0.010559985,-0.014139672,0.19996276,0.19977228,0.19989638,0.20016374,0.20020483,0
56300000,56220000,2.0372925,3.7763875,-2.5136285,-1.256611,0.00050134026,1.2570521,2.5131612,0.0019476768,0.013045066,0.019934287,0.013094658,0.0019783322,-0.025818149,-0.029456127,-0.020026082,-0.010559985,-0.014139672,0.19996276,0.19977228,0.19989638,0.20016374,0.20020483,0
56308000,56228000,2.0373092,3.7763722,-2.5136285,-1.256611,0.0005013248,1.2570522,2.5131612,0.0019476768,0.013045066,0.019934287,0.013094658,0.0019783322,-0.025818149,-0.029456127,-0.020026082,-0.010559985,-0.014139672,0.19996276,0.19977228,0.19989638,0.20016374,0.20020483,0
56316000,56236000,2.037334,3.7763512,-2.5136266,-1.2566092,0.00050317525,1.257054,2.513163,0.0019476768,0.013045066,0.019934287,0.013094658,0.0019783322,-0.025818149,-0.029456127,-0.020026082,-0.010559985,-0.014139672,0.19996276,0.19977228,0.19989638,0.20016374,0.20020483,0
56324000,56244000,2.0373135,3.7763615,-2.5136366,-1.2566193,0.000492998,1.2570438,2.5131528,0.0019476768,0.013045066,0.019934287,0.013094658,0.0019783322,-0.025818149,-0.029456127,-0.020026082,-0.010559985,-0.014139672,0.19996276,0.19977228,0.19989638,0.20016374,0.20020483,0
56332000,56252000,2.0372472,3.776407,-2.5136561,-1.2566388,0.00047349822,1.2570243,2.5131333,0.0019476768,0.013045066,0.019934287,0.013094658,0.0019783322,-0.025818149,-0.029456127,-0.020026082,-0.010559985,-0.014139672,0.19996276,0.19977228,0.19989638,0.20016374,0.20020483,0
56340000,56260000,2.0372596,3.7763872,-2.513665,-1.2566476,0.00046464903,1.2570155,2.5131245,0.0019476768,0.013045066,0.019934287,0.013094658,0.0019783322,-0.025818149,-0.029456127,-0.020026082,-0.010559985,-0.014139672,0.19996276,0.19977228,0.19989638,0.20016374,0.20020483,0
56348000,56268000,2.0372763,3.7763665,-2.5136704,-1.2566532,0.0004590921,1.25701,2.513119,0.0019476768,0.013045066,0.019934287,0.013094658,0.0019783322,-0.025818149,-0.029456127,-0.020026082,-0.010559985,-0.014139672,0.19996276,0.19977228,0.19989638,0.20016374,0.20020483,0
56356000,56276000,2.0372596,3.776405,-2.5136476,-1.2566302,0.0004821006,1.2570329,2.5131419,0.0019476768,0.013045066,0.019934287,0.013094658,0.0019783322,-0.025818149,-0.029456127,-0.020026082,-0.010559985,-0.014139672,0.19996276,0.19977228,0.19989638,0.20016374,0.20020483,0
56364000,56284000,2.0372553,3.7763963,-2.5136616,-1.2566442,0.00046811957,1.2570189,2.5131278,0.0019476768,0.013045066,0.019934287,0.013094658,0.0019783322,-0.025818149,-0.029456127,-0.020026082,-0.010559985,-0.014139672,0.19996276,0.19977228,0.19989638,0.20016374,0.20020483,0
56372000,56292000,2.0373383,3.7763174,-2.5136623,-1.2566448,0.00046745656,1.2570183,2.5131273,0.0019476768,0.013045066,0.019934287,0.013094658,0.0019783322,-0.025818149,-0.029456127,-0.020026082,-0.010559985,-0.014139672,0.19996276,0.19977228,0.19989638,0.20016374,0.20020483,0
56380000,56300000,2.0372596,3.7763906,-2.513665,-1.2566476,0.0004647117,1.2570155,2.5131245,0.0019476768,0.013045066,0.019934287,0.013094658,0.0019783322,-0.025818149,-0.029456127,-0.020026082,-0.010559985,-0.014139672,0.19996276,0.19977228,0.19989638,0.20016374,0.20020483,0
56388000,56308000,2.0372596,3.776395,-2.5136611,-1.2566438,0.00046859725,1.2570194,2.5131283,0.0019476768,0.013045066,0.019934287,0.013094658,0.0019783322,-0.025818149,-0.029456127,-0.020026082,-0.010559985,-0.014139672,0.19996276,0.19977228,0.19989638,0.20016374,0.20020483,0
56396000,56316000,0.32370135,3.6560187,-2.513148,-1.2563471,0.00013061933,1.2565057,2.5131402,-0.023910932,-0.01135622,-0.0042987457,-0.012492731,-0.024607264,0.0037001576,0.00035439618,0.011264415,0.021342408,0.016668841,0.19988695,0.19999892,0.20011236,0.20007053,0.19993125,0
56404000,56324000,0.32358727,3.6559486,-2.5131533,-1.2563524,0.0001252534,1.2565004,2.513135,-0.023910932,-0.01135622,-0.0042987457,-0.012492731,-0.024607264,0.0037001576,0.00035439618,0.011264415,0.021342408,0.016668841,0.19988695,0.19999892,0.20011236,0.20007053,0.19993125,0
56412000,56332000,0.32366714,3.6560018,-2.513155,-1.256354,0.00012364499,1.2564988,2.5131333,-0.023910932,-0.01135622,-0.0042987457,-0.012492731,-0.024607264,0.0037001576,0.00035439618,0.011264415,0.021342408,0.016668841,0.19988695,0.19999892,0.20011236,0.20007053,0.19993125,0
56420000,56340000,0.32371843,3.656035,-2.513153,-1.2563521,0.0001255913,1.2565007,2.5131352,-0.023910932,-0.01135622,-0.0042987457,-0.012492731,-0.024607264,0.0037001576,0.00035439618,0.011264415,0.021342408,0.016668841,0.19988695,0.19999892,0.20011236,0.20007053,0.19993125,0
56428000,56348000,0.32348484,3.6558878,-2.5131586,-1.2563576,0.00012010615,1.2564952,2.51313,-0.023910932,-0.01135622,-0.0042987457,-0.012492731,-0.024607264,0.0037001576,0.00035439618,0.011264415,0.021342408,0.016668841,0.19988695,0.19999892,0.20011236,0.20007053,0.19993125,0
56436000,56356000,0.3235987,3.6559587,-2.5131538,-1.2563527,0.00012495885,1.2565,2.5131347,-0.023910932,-0.01135622,-0.0042987457,-0.012492731,-0.024607264,0.0037001576,0.00035439618,0.011264415,0.021342408,0.016668841,0.19988695,0.19999892,0.20011236,0.20007053,0.19993125,0
56444000,56364000,0.32367298,3.655996,-2.513136,-1.2563348,0.00014285659,1.256518,2.5131526,-0.023910932,-0.01135622,-0.0042987457,-0.012492731,-0.024607264,0.0037001576,0.00035439618,0.011264415,0.021342408,0.016668841,0.19988695,0.19999892,0.20011236,0.20007053,0.19993125,0
56452000,56372000,0.32369572,3.6560116,-2.5131361,-1.2563351,0.0001425281,1.2565176,2.5131521,-0.023910932,-0.01135622,-0.0042987457,-0.012492731,-0.024607264,0.0037001576,0.00035439618,0.011264415,0.021342408,0.016668841,0.19988695,0.19999892,0.20011236,0.20007053,0.19993125,0
56460000,56380000,0.32365564,3.6559863,-2.5131366,-1.2563355,0.00014212778,1.2565172,2.513152,-0.023910932,-0.01135622,-0.0042987457,-0.012492731,-0.024607264,0.0037001576,0.00035439618,0.011264415,0.021342408,0.016668841,0.19988695,0.19999892,0.20011236,0.20007053,0.19993125,0
56468000,56388000,0.32369006,3.656015,-2.5131454,-1.2563443,0.0001333509,1.2565085,2.513143,-0.023910932,-0.01135622,-0.0042987457,-0.012492731,-0.024607264,0.0037001576,0.00035439618,0.011264415,0.021342408,0.016668841,0.19988695,0.19999892,0.20011236,0.20007053,0.19993125,0
56476000,56396000,0.3236559,3.656003,-2.5131598,-1.2563586,0.00011905698,1.2564942,2.5131288,-0.023910932,-0.01135622,-0.0042987457,-0.012492731,-0.024607264,0.0037001576,0.00035439618,0.011264415,0.021342408,0.016668841,0.19988695,0.19999892,0.20011236,0.20007053,0.19993125,0
56484000,56404000,0.32371867,3.6560469,-2.5131636,-1.2563624,0.000115245726,1.2564905,2.513125,-0.023910932,-0.01135622,-0.0042987457,-0.012492731,-0.024607264,0.0037001576,0.00035439618,0.011264415,0.021342408,0.016668841,0.19988695,0.19999892,0.20011236,0.20007053,0.19993125,0
56492000,56412000,0.3237756,3.656077,-2.5131521,-1.256351,0.00012668075,1.2565018,2.5131364,-0.023910932,-0.01135622,-0.0042987457,-0.012492731,-0.024607264,0.0037001576,0.00035439618,0.011264415,0.021342408,0.016668841,0.19988695,0.19999892,0.20011236,0.20007053,0.19993125,0
56500000,56420000,0.3236559,3.6559954,-2.513145,-1.2563438,0.00013380691,1.256509,2.5131435,-0.023910932,-0.01135622,-0.0042987457,-0.012492731,-0.024607264,0.0037001576,0.00035439618,0.011264415,0.021342408,0.016668841,0.19988695,0.19999892,0.20011236,0.20007053,0.19993125,0
56508000,56428000,0.32363877,3.6559844,-2.5131445,-1.2563435,0.00013423066,1.2565093,2.513144,-0.023910932,-0.01135622,-0.0042987457,-0.012492731,-0.024607264,0.0037001576,0.00035439618,0.011264415,0.021342408,0.016668841,0.19988695,0.19999892,0.20011236,0.20007053,0.19993125,0
56516000,56436000,0.3236561,3.656002,-2.513153,-1.256352,0.00012576385,1.256501,2.5131357,-0.023910932,-0.01135622,-0.0042987457,-0.012492731,-0.024607264,0.0037001576,0.00035439618,0.011264415,0.021342408,0.016668841,0.19988695,0.19999892,0.20011236,0.20007053,0.19993125,0
56524000,56444000,0.32370177,3.6560307,-2.5131512,-1.25635,0.00012770706,1.2565029,2.5131376,-0.023910932,-0.01135622,-0.0042987457,-0.012492731,-0.024607264,0.0037001576,0.00035439618,0.011264415,0.021342408,0.016668841,0.19988695,0.19999892,0.20011236,0.20007053,0.19993125,0
56532000,56452000,0.3236847,3.656023,-2.513155,-1.2563539,0.00012389307,1.256499,2.5131338,-0.023910932,-0.01135622,-0.0042987457,-0.012492731,-0.024607264,0.0037001576,0.00035439618,0.011264415,0.021342408,0.016668841,0.19988695,0.19999892,0.20011236,0.20007053,0.19993125,0
56540000,56460000,0.32360455,3.6559763,-2.5131617,-1.2563607,0.000117050346,1.2564921,2.5131269,-0.023910932,-0.01135622,-0.0042987457,-0.012492731,-0.024607264,0.0037001576,0.00035439618,0.011264415,0.021342408,0.016668841,0.19988695,0.19999892,0.20011236,0.20007053,0.19993125,0
56548000,56468000,0.32367298,3.656023,-2.5131655,-1.2563643,0.00011333069,1.2564884,2.513123,-0.023910932,-0.01135622,-0.0042987457,-0.012492731,-0.024607264,0.0037001576,0.00035439618,0.011264415,0.021342408,0.016668841,0.19988695,0.19999892,0.20011236,0.20007053,0.19993125,0
56556000,56476000,0.32358184,3.65597,-2.5131738,-1.2563728,0.00010490828,1.25648,2.5131147,-0.023910932,-0.01135622,-0.0042987457,-0.012492731,-0.024607264,0.0037001576,0.00035439618,0.011264415,0.021342408,0.016668841,0.19988695,0.19999892,0.20011236,0.20007053,0.19993125,0
56564000,56484000,0.32360476,3.6559906,-2.5131805,-1.2563794,9.83518e-05,1.2564735,2.5131083,-0.023910932,-0.01135622,-0.0042987457,-0.012492731,-0.024607264,0.0037001576,0.00035439618,0.011264415,0.021342408,0.016668841,0.19988695,0.19999892,0.20011236,0.20007053,0.19993125,0
56572000,56492000,0.32354763,3.6559606,-2.5131912,-1.2563902,8.7438006e-05,1.2564626,2.5130973,-0.023910932,-0.01135622,-0.0042987457,-0.012492731,-0.024607264,0.0037001576,0.00035439618,0.011264415,0.021342408,0.016668841,0.19988695,0.19999892,0.20011236,0.20007053,0.19993125,0
56580000,56500000,0.32359895,3.6560001,-2.5131993,-1.2563982,7.9479505e-05,1.2564546,2.5130894,-0.023910932,-0.01135622,-0.0042987457,-0.012492731,-0.024607264,0.0037001576,0.00035439618,0.011264415,0.021342408,0.016668841,0.19988695,0.19999892,0.20011236,0.20007053,0.19993125,0
56588000,56508000,0.3236273,3.6560283,-2.5132134,-1.256412,6.553803e-05,1.2564406,2.5130754,-0.023910932,-0.01135622,-0.0042987457,-0.012492731,-0.024607264,0.0037001576,0.00035439618,0.011264415,0.021342408,0.016668841,0.19988695,0.19999892,0.20011236,0.20007053,0.19993125,0
56596000,56516000,0.3235249,3.6559706,-2.513226,-1.2564249,5.275714e-05,1.2564279,2.5130627,-0.023910932,-0.01135622,-0.0042987457,-0.012492731,-0.024607264,0.0037001576,0.00035439618,0.011264415,0.021342408,0.016668841,0.19988695,0.19999892,0.20011236,0.20007053,0.19993125,0
56604000,56524000,0.32370156,3.6560726,-2.5132062,-1.256405,7.2658084e-05,1.2564478,2.5130825,-0.023910932,-0.01135622,-0.0042987457,-0.012492731,-0.024607264,0.0037001576,0.00035439618,0.011264415,0.021342408,0.016668841,0.19988695,0.19999892,0.20011236,0.20007053,0.19993125,0
56612000,56532000,0.32366735,3.6560605,-2.5132203,-1.2564191,5.8620866e-05,1.2564337,2.5130684,-0.023910932,-0.01135622,-0.0042987457,-0.012492731,-0.024607264,0.0037001576,0.00035439618,0.011264415,0.021342408,0.016668841,0.19988695,0.19999892,0.20011236,0.20007053,0.19993125,0
56620000,56540000,0.323542,3.6559846,-2.513227,-1.2564259,5.1823517e-05,1.2564269,2.5130618,-0.023910932,-0.01135622,-0.0042987457,-0.012492731,-0.024607264,0.0037001576,0.00035439618,0.011264415,0.021342408,0.016668841,0.19988695,0.19999892,0.20011236,0.20007053,0.19993125,0
56628000,56548000,0.32353052,3.655986,-2.51324,-1.256439,3.8707738e-05,1.2564138,2.5130486,-0.023910932,-0.01135622,-0.0042987457,-0.012492731,-0.024607264,0.0037001576,0.00035439618,0.011264415,0.021342408,0.016668841,0.19988695,0.19999892,0.20011236,0.20007053,0.19993125,0
56636000,56556000,0.32359895,3.6560209,-2.5132244,-1.2564232,5.4468335e-05,1.2564296,2.5130644,-0.023910932,-0.01135622,-0.0042987457,-0.012492731,-0.024607264,0.0037001576,0.00035439618,0.011264415,0.021342408,0.016668841,0.19988695,0.19999892,0.20011236,0.20007053,0.19993125,0
56644000,56564000,0.3236561,3.656046,-2.5132055,-1.2564044,7.335289e-05,1.2564485,2.5130832,-0.023910932,-0.01135622,-0.0042987457,-0.012492731,-0.024607264,0.0037001576,0.00035439618,0.011264415,0.021342408,0.016668841,0.19988695,0.19999892,0.20011236,0.20007053,0.19993125,0
56652000,56572000,0.32375872,3.6561089,-2.5131993,-1.2563981,7.964808e-05,1.2564548,2.5130894,-0.023910932,-0.01135622,-0.0042987457,-0.012492731,-0.024607264,0.0037001576,0.00035439618,0.011264415,0.021342408,0.016668841,0.19988695,0.19999892,0.20011236,0.20007053,0.19993125,0
56660000,56580000,0.32363313,3.6560292,-2.5132008,-1.2563995,7.82e-05,1.2564533,2.513088,-0.023910932,-0.01135622,-0.0042987457,-0.012492731,-0.024607264,0.0037001576,0.00035439618,0.011264415,0.021342408,0.016668841,0.19988695,0.19999892,0.20011236,0.20007053,0.19993125,0
56668000,56588000,0.3235877,3.6560035,-2.5132055,-1.2564044,7.3317584e-05,1.2564485,2.5130832,-0.023910932,-0.01135622,-0.0042987457,-0.012492731,-0.024607264,0.0037001576,0.00035439618,0.011264415,0.021342408,0.016668841,0.19988695,0.19999892,0.20011236,0.20007053,0.19993125,0
56676000,56596000,0.32366174,3.6560426,-2.513191,-1.2563899,8.784545e-05,1.256463,2.5130978,-0.023910932,-0.01135622,-0.0042987457,-0.012492731,-0.024607264,0.0037001576,0.00035439618,0.011264415,0.021342408,0.016668841,0.19988695,0.19999892,0.20011236,0.20007053,0.19993125,0
56684000,56604000,0.32363898,3.6560283,-2.5131903,-1.2563891,8.8622925e-05,1.2564638,2.5130985,-0.023910932,-0.01135622,-0.0042987457,-0.012492731,-0.024607264,0.0037001576,0.00035439618,0.011264415,0.021342408,0.016668841,0.19988695,0.19999892,0.20011236,0.20007053,0.19993125,0
56692000,56612000,0.32369593,3.6560678,-2.5131936,-1.2563924,8.533137e-05,1.2564604,2.5130951,-0.023910932,-0.01135622,-0.0042987457,-0.012492731,-0.024607264,0.0037001576,0.00035439618,0.011264415,0.021342408,0.016668841,0.19988695,0.19999892,0.20011236,0.20007053,0.19993125,0
56700000,56620000,0.3236847,3.6560564,-2.5131862,-1.2563851,9.2643124e-05,1.2564678,2.5131025,-0.023910932,-0.01135622,-0.0042987457,-0.012492731,-0.024607264,0.0037001576,0.00035439618,0.011264415,0.021342408,0.016668841,0.19988695,0.19999892,0.20011236,0.20007053,0.19993125,0
56708000,56628000,0.3236446,3.6560314,-2.5131865,-1.2563853,9.242803e-05,1.2564676,2.5131023,-0.023910932,-0.01135622,-0.0042987457,-0.012492731,-0.024607264,0.0037001576,0.00035439618,0.011264415,0.021342408,0.016668841,0.19988695,0.19999892,0.20011236,0.20007053,0.19993125,0
56716000,56636000,0.3236561,3.6560376,-2.5131838,-1.2563827,9.5073585e-05,1.2564702,2.513105,-0.023910932,-0.01135622,-0.0042987457,-0.012492731,-0.024607264,0.0037001576,0.00035439618,0.011264415,0.021342408,0.016668841,0.19988695,0.19999892,0.20011236,0.20007053,0.19993125,0
56724000,56644000,0.3236561,3.6560268,-2.5131662,-1.2563651,0.00011267766,1.2564878,2.5131226,-0.023910932,-0.01135622,-0.0042987457,-0.012492731,-0.024607264,0.0037001576,0.00035439618,0.011264415,0.021342408,0.016668841,0.19988695,0.19999892,0.20011236,0.20007053,0.19993125,0
56732000,56652000,0.32369593,3.6560535,-2.5131667,-1.2563654,0.00011231789,1.2564875,2.513122,-0.023910932,-0.01135622,-0.0042987457,-0.012492731,-0.024607264,0.0037001576,0.00035439618,0.011264415,0.021342408,0.016668841,0.19988695,0.19999892,0.20011236,0.20007053,0.19993125,0
56740000,56660000,0.32373598,3.6560755,-2.5131593,-1.2563581,0.00011962767,1.2564948,2.5131295,-0.023910932,-0.01135622,-0.0042987457,-0.012492731,-0.024607264,0.0037001576,0.00035439618,0.011264415,0.021342408,0.016668841,0.19988695,0.19999892,0.20011236,0.20007053,0.19993125,0
56748000,56668000,0.32365048,3.656022,-2.5131617,-1.2563605,0.00011718411,1.2564924,2.513127,-0.023910932,-0.01135622,-0.0042987457,-0.012492731,-0.024607264,0.0037001576,0.00035439618,0.011264415,0.021342408,0.016668841,0.19988695,0.19999892,0.20011236,0.20007053,0.19993125,0
56756000,56676000,0.3237245,3.6560724,-2.513164,-1.2563629,0.00011483543,1.25649,2.5131247,-0.023910932,-0.01135622,-0.0042987457,-0.012492731,-0.024607264,0.0037001576,0.00035439618,0.011264415,0.021342408,0.016668841,0.19988695,0.19999892,0.20011236,0.20007053,0.19993125,0
56764000,56684000,0.32365048,3.6560254,-2.5131643,-1.2563632,0.00011456938,1.2564898,2.5131245,-0.023910932,-0.01135622,-0.0042987457,-0.012492731,-0.024607264,0.0037001576,0.00035439618,0.011264415,0.021342408,0.016668841,0.19988695,0.19999892,0.20011236,0.20007053,0.19993125,0
56772000,56692000,0.32365048,3.6560302,-2.5131712,-1.2563701,0.00010769854,1.2564828,2.5131176,-0.023910932,-0.01135622,-0.0042987457,-0.012492731,-0.024607264,0.0037001576,0.00035439618,0.011264415,0.021342408,0.016668841,0.19988695,0.19999892,0.20011236,0.20007053,0.19993125,0
56780000,56700000,0.32357642,3.6559863,-2.513176,-1.2563748,0.00010293366,1.2564781,2.513113,-0.023910932,-0.01135622,-0.0042987457,-0.012492731,-0.024607264,0.0037001576,0.00035439618,0.011264415,0.021342408,0.016668841,0.19988695,0.19999892,0.20011236,0.20007053,0.19993125,0
56788000,56708000,0.32365048,3.656037,-2.5131807,-1.2563796,9.812029e-05,1.2564733,2.513108,-0.023910932,-0.01135622,-0.0042987457,-0.012492731,-0.024607264,0.0037001576,0.00035439618,0.011264415,0.021342408,0.016668841,0.19988695,0.19999892,0.20011236,0.20007053,0.19993125,0
56796000,56716000,0.75289834,3.8015366,-2.5133324,-1.2559798,0.000503418,1.2563306,2.5126212,-0.017516287,-0.005608491,0.0014024264,-0.006167071,-0.01786047,-0.020076344,-0.023580587,-0.013340887,-0.0035078893,-0.0076675955,0.19965063,0.19985044,0.20025699,0.20030843,0.1999335,0
56804000,56724000,0.75291103,3.801541,-2.5133154,-1.2559627,0.00052045373,1.2563477,2.5126383,-0.017516287,-0.005608491,0.0014024264,-0.006167071,-0.01786047,-0.020076344,-0.023580587,-0.013340887,-0.0035078893,-0.0076675955,0.19965063,0.19985044,0.20025699,0.20030843,0.1999335,0
56812000,56732000,0.75291103,3.8015418,-2.5133154,-1.2559627,0.00052044773,1.2563477,2.5126383,-0.017516287,-0.005608491,0.0014024264,-0.006167071,-0.01786047,-0.020076344,-0.023580587,-0.013340887,-0.0035078893,-0.0076675955,0.19965063,0.19985044,0.20025699,0.20030843,0.1999335,0
56820000,56740000,0.7529188,3.8015368,-2.5133135,-1.255961,0.00052233425,1.2563496,2.5126402,-0.017516287,-0.005608491,0.0014024264,-0.006167071,-0.01786047,-0.020076344,-0.023580587,-0.013340887,-0.0035078893,-0.0076675955,0.19965063,0.19985044,0.20025699,0.20030843,0.1999335,0
56828000,56748000,0.7529155,3.8015432,-2.5133114,-1.2559588,0.0005243884,1.2563516,2.5126421,-0.017516287,-0.005608491,0.0014024264,-0.006167071,-0.01786047,-0.020076344,-0.023580587,-0.013340887,-0.0035078893,-0.0076675955,0.19965063,0.19985044,0.20025699,0.20030843,0.1999335,0
56836000,56756000,0.7529448,3.8015294,-2.513296,-1.2559432,0.0005400026,1.2563672,2.5126579,-0.017516287,-0.005608491,0.0014024264,-0.006167071,-0.01786047,-0.020076344,-0.023580587,-0.013340887,-0.0035078893,-0.0076675955,0.19965063,0.19985044,0.20025699,0.20030843,0.1999335,0
56844000,56764000,0.75296587,3.8015468,-2.5132582,-1.2559055,0.00057765003,1.2564049,2.5126956,-0.017516287,-0.005608491,0.0014024264,-0.006167071,-0.01786047,-0.020076344,-0.023580587,-0.013340887,-0.0035078893,-0.0076675955,0.19965063,0.19985044,0.20025699,0.20030843,0.1999335,0
56852000,56772000,0.75295365,3.8015614,-2.5132563,-1.2559037,0.00057941757,1.2564067,2.5126972,-0.017516287,-0.005608491,0.0014024264,-0.006167071,-0.01786047,-0.020076344,-0.023580587,-0.013340887,-0.0035078893,-0.0076675955,0.19965063,0.19985044,0.20025699,0.20030843,0.1999335,0
56860000,56780000,0.7529614,3.8015416,-2.5132694,-1.2559168,0.00056641677,1.2563937,2.5126843,-0.017516287,-0.005608491,0.0014024264,-0.006167071,-0.01786047,-0.020076344,-0.023580587,-0.013340887,-0.0035078893,-0.0076675955,0.19965063,0.19985044,0.20025699,0.20030843,0.1999335,0
56868000,56788000,0.7528884,3.801588,-2.5132966,-1.2559441,0.00053907017,1.2563663,2.512657,-0.017516287,-0.005608491,0.0014024264,-0.006167071,-0.01786047,-0.020076344,-0.023580587,-0.013340887,-0.0035078893,-0.0076675955,0.19965063,0.19985044,0.20025699,0.20030843,0.1999335,0
56876000,56796000,0.75294036,3.8015378,-2.5132952,-1.2559427,0.0005405523,1.2563678,2.5126584,-0.017516287,-0.005608491,0.0014024264,-0.006167071,-0.01786047,-0.020076344,-0.023580587,-0.013340887,-0.0035078893,-0.0076675955,0.19965063,0.19985044,0.20025699,0.20030843,0.1999335,0
56884000,56804000,0.7529498,3.8015428,-2.5132816,-1.255929,0.0005541789,1.2563814,2.512672,-0.017516287,-0.005608491,0.0014024264,-0.006167071,-0.01786047,-0.020076344,-0.023580587,-0.013340887,-0.0035078893,-0.0076675955,0.19965063,0.19985044,0.20025699,0.20030843,0.1999335,0
56892000,56812000,0.7529581,3.8015354,-2.513281,-1.2559285,0.0005546919,1.256382,2.5126724,-0.017516287,-0.005608491,0.0014024264,-0.006167071,-0.01786047,-0.020076344,-0.023580587,-0.013340887,-0.0035078893,-0.0076675955,0.19965063,0.19985044,0.20025699,0.20030843,0.1999335,0
56900000,56820000,0.752967,3.8015268,-2.5132818,-1.2559292,0.00055399694,1.2563813,2.5126717,-0.017516287,-0.005608491,0.0014024264,-0.006167071,-0.01786047,-0.020076344,-0.023580587,-0.013340887,-0.0035078893,-0.0076675955,0.19965063,0.19985044,0.20025699,0.20030843,0.1999335,0
56908000,56828000,0.7529531,3.8015685,-2.5132544,-1.2559019,0.00058132695,1.2564086,2.5126991,-0.017516287,-0.005608491,0.0014024264,-0.006167071,-0.01786047,-0.020076344,-0.023580587,-0.013340887,-0.0035078893,-0.0076675955,0.19965063,0.19985044,0.20025699,0.20030843,0.1999335,0
56916000,56836000,0.7529797,3.8015485,-2.5132482,-1.2558956,0.00058756844,1.2564148,2.5127053,-0.017516287,-0.005608491,0.0014024264,-0.006167071,-0.01786047,-0.020076344,-0.023580587,-0.013340887,-0.0035078893,-0.0076675955,0.19965063,0.19985044,0.20025699,0.20030843,0.1999335,0
56924000,56844000,0.75298244,3.8015568,-2.513238,-1.2558854,0.00059788115,1.2564251,2.5127158,-0.017516287,-0.005608491,0.0014024264,-0.006167071,-0.01786047,-0.020076344,-0.023580587,-0.013340887,-0.0035078893,-0.0076675955,0.19965063,0.19985044,0.20025699,0.20030843,0.1999335,0
56932000,56852000,0.7529708,3.801558,-2.5132487,-1.2558961,0.00058713014,1.2564143,2.5127048,-0.017516287,-0.005608491,0.0014024264,-0.006167071,-0.01786047,-0.020076344,-0.023580587,-0.013340887,-0.0035078893,-0.0076675955,0.19965063,0.19985044,0.20025699,0.20030843,0.1999335,0
56940000,56860000,0.7529886,3.8015354,-2.5132544,-1.2559018,0.00058144325,1.2564087,2.5126991,-0.017516287,-0.005608491,0.0014024264,-0.006167071,-0.01786047,-0.020076344,-0.023580587,-0.013340887,-0.0035078893,-0.0076675955,0.19965063,0.19985044,0.20025699,0.20030843,0.1999335,0
56948000,56868000,0.752993,3.8015373,-2.5132484,-1.2558959,0.0005874008,1.2564147,2.512705,-0.017516287,-0.005608491,0.0014024264,-0.006167071,-0.01786047,-0.020076344,-0.023580587,-0.013340887,-0.0035078893,-0.0076675955,0.19965063,0.19985044,0.20025699,0.20030843,0.1999335,0
56956000,56876000,0.75300956,3.8015432,-2.513227,-1.2558744,0.000608792,1.2564361,2.5127265,-0.017516287,-0.005608491,0.0014024264,-0.006167071,-0.01786047,-0.020076344,-0.023580587,-0.013340887,-0.0035078893,-0.0076675955,0.19965063,0.19985044,0.20025699,0.20030843,0.1999335,0
56964000,56884000,0.75301844,3.8015306,-2.5132315,-1.2558789,0.00060428836,1.2564316,2.512722,-0.017516287,-0.005608491,0.0014024264,-0.006167071,-0.01786047,-0.020076344,-0.023580587,-0.013340887,-0.0035078893,-0.0076675955,0.19965063,0.19985044,0.20025699,0.20030843,0.1999335,0
56972000,56892000,0.75299627,3.8015523,-2.5132327,-1.25588,0.0006032188,1.2564304,2.512721,-0.017516287,-0.005608491,0.0014024264,-0.006167071,-0.01786047,-0.020076344,-0.023580587,-0.013340887,-0.0035078893,-0.0076675955,0.19965063,0.19985044,0.20025699,0.20030843,0.1999335,0
56980000,56900000,0.7530622,3.8014889,-2.5132298,-1.255877,0.0006062438,1.2564335,2.512724,-0.017516287,-0.005608491,0.0014024264,-0.006167071,-0.01786047,-0.020076344,-0.023580587,-0.013340887,-0.0035078893,-0.0076675955,0.19965063,0.19985044,0.20025699,0.20030843,0.1999335,0
56988000,56908000,0.75306165,3.8014913,-2.5132291,-1.2558763,0.000606901,1.2564342,2.5127246,-0.017516287,-0.005608491,0.0014024264,-0.006167071,-0.01786047,-0.020076344,-0.023580587,-0.013340887,-0.0035078893,-0.0076675955,0.19965063,0.19985044,0.20025699,0.20030843,0.1999335,0
56996000,56916000,0.7530395,3.8015113,-2.5132315,-1.2558788,0.00060445844,1.2564317,2.5127223,-0.017516287,-0.005608491,0.0014024264,-0.006167071,-0.01786047,-0.020076344,-0.023580587,-0.013340887,-0.0035078893,-0.0076675955,0.19965063,0.19985044,0.20025699,0.20030843,0.1999335,0
57004000,56924000,0.75300956,3.801546,-2.5132277,-1.2558751,0.0006081444,1.2564354,2.5127258,-0.017516287,-0.005608491,0.0014024264,-0.006167071,-0.01786047,-0.020076344,-0.023580587,-0.013340887,-0.0035078893,-0.0076675955,0.19965063,0.19985044,0.20025699,0.20030843,0.1999335,0
57012000,56932000,0.75304,3.8015177,-2.513226,-1.2558732,0.00060996175,1.2564372,2.5127277,-0.017516287,-0.005608491,0.0014024264,-0.006167071,-0.01786047,-0.020076344,-0.023580587,-0.013340887,-0.0035078893,-0.0076675955,0.19965063,0.19985044,0.20025699,0.20030843,0.1999335,0
57020000,56940000,0.75299686,3.8015463,-2.5132415,-1.2558888,0.00059440424,1.2564216,2.5127122,-0.017516287,-0.005608491,0.0014024264,-0.006167071,-0.01786047,-0.020076344,-0.023580587,-0.013340887,-0.0035078893,-0.0076675955,0.19965063,0.19985044,0.20025699,0.20030843,0.1999335,0
57028000,56948000,0.75301784,3.8015208,-2.513246,-1.2558933,0.000589903,1.2564172,2.5127077,-0.017516287,-0.005608491,0.0014024264,-0.006167071,-0.01786047,-0.020076344,-0.023580587,-0.013340887,-0.0035078893,-0.0076675955,0.19965063,0.19985044,0.20025699,0.20030843,0.1999335,0
57036000,56956000,0.753009,3.8015423,-2.5132346,-1.255882,0.0006012343,1.2564285,2.5127192,-0.017516287,-0.005608491,0.0014024264,-0.006167071,-0.01786047,-0.020076344,-0.023580587,-0.013340887,-0.0035078893,-0.0076675955,0.19965063,0.19985044,0.20025699,0.20030843,0.1999335,0
57044000,56964000,0.75303614,3.8015058,-2.5132446,-1.2558918,0.0005914312,1.2564187,2.5127091,-0.017516287,-0.005608491,0.0014024264,-0.006167071,-0.01786047,-0.020076344,-0.023580587,-0.013340887,-0.0035078893,-0.0076675955,0.19965063,0.19985044,0.20025699,0.20030843,0.1999335,0
57052000,56972000,0.75299186,3.8015478,-2.5132475,-1.2558948,0.000588464,1.2564157,2.5127063,-0.017516287,-0.005608491,0.0014024264,-0.006167071,-0.01786047,-0.020076344,-0.023580587,-0.013340887,-0.0035078893,-0.0076675955,0.19965063,0.19985044,0.20025699,0.20030843,0.1999335,0
57060000,56980000,0.75301397,3.8015413,-2.513233,-1.2558802,0.0006029915,1.2564303,2.5127208,-0.017516287,-0.005608491,0.0014024264,-0.006167071,-0.01786047,-0.020076344,-0.023580587,-0.013340887,-0.0035078893,-0.0076675955,0.19965063,0.19985044,0.20025699,0.20030843,0.1999335,0
57068000,56988000,0.7530522,3.8015215,-2.5132143,-1.2558616,0.0006216595,1.256449,2.5127394,-0.017516287,-0.005608491,0.0014024264,-0.006167071,-0.01786047,-0.020076344,-0.023580587,-0.013340887,-0.0035078893,-0.0076675955,0.19965063,0.19985044,0.20025699,0.20030843,0.1999335,0
57076000,56996000,0.75309205,3.8014803,-2.513216,-1.2558632,0.00062006764,1.2564473,2.5127378,-0.017516287,-0.005608491,0.0014024264,-0.006167071,-0.01786047,-0.020076344,-0.023580587,-0.013340887,-0.0035078893,-0.0076675955,0.19965063,0.19985044,0.20025699,0.20030843,0.1999335,0
57084000,57004000,0.75304,3.801509,-2.5132403,-1.2558875,0.0005957512,1.256423,2.5127134,-0.017516287,-0.005608491,0.0014024264,-0.006167071,-0.01786047,-0.020076344,-0.023580587,-0.013340887,-0.0035078893,-0.0076675955,0.19965063,0.19985044,0.20025699,0.20030843,0.1999335,0
57092000,57012000,0.75304,3.8015013,-2.5132484,-1.2558956,0.0005876502,1.2564149,2.5127053,-0.017516287,-0.005608491,0.0014024264,-0.006167071,-0.01786047,-0.020076344,-0.023580587,-0.013340887,-0.0035078893,-0.0076675955,0.19965063,0.19985044,0.20025699,0.20030843,0.1999335,0
57100000,57020000,0.7530533,3.801509,-2.5132284,-1.2558756,0.0006076952,1.2564349,2.5127254,-0.017516287,-0.005608491,0.0014024264,-0.006167071,-0.01786047,-0.020076344,-0.023580587,-0.013340887,-0.0035078893,-0.0076675955,0.19965063,0.19985044,0.20025699,0.20030843,0.1999335,0
57108000,57028000,0.7530578,3.801517,-2.5132167,-1.2558639,0.0006193382,1.2564466,2.512737,-0.017516287,-0.005608491,0.0014024264,-0.006167071,-0.01786047,-0.020076344,-0.023580587,-0.013340887,-0.0035078893,-0.0076675955,0.19965063,0.19985044,0.20025699,0.20030843,0.1999335,0
57116000,57036000,0.75306106,3.801527,-2.513204,-1.2558514,0.0006318548,1.2564591,2.5127497,-0.017516287,-0.005608491,0.0014024264,-0.006167071,-0.01786047,-0.020076344,-0.023580587,-0.013340887,-0.0035078893,-0.0076675955,0.19965063,0.19985044,0.20025699,0.20030843,0.1999335,0
57124000,57044000,0.7530223,3.8015647,-2.5132058,-1.255853,0.00063016766,1.2564573,2.512748,-0.017516287,-0.005608491,0.0014024264,-0.006167071,-0.01786047,-0.020076344,-0.023580587,-0.013340887,-0.0035078893,-0.0076675955,0.19965063,0.19985044,0.20025699,0.20030843,0.1999335,0
57132000,57052000,0.7530959,3.8015134,-2.5131838,-1.255831,0.000652222,1.2564795,2.51277,-0.017516287,-0.005608491,0.0014024264,-0.006167071,-0.01786047,-0.020076344,-0.023580587,-0.013340887,-0.0035078893,-0.0076675955,0.19965063,0.19985044,0.20025699,0.20030843,0.1999335,0
57140000,57060000,0.75307435,3.801534,-2.5131855,-1.2558327,0.00065048813,1.2564777,2.5127683,-0.017516287,-0.005608491,0.0014024264,-0.006167071,-0.01786047,-0.020076344,-0.023580587,-0.013340887,-0.0035078893,-0.0076675955,0.19965063,0.19985044,0.20025699,0.20030843,0.1999335,0
57148000,57068000,0.7530832,3.8015113,-2.5131998,-1.2558469,0.0006363066,1.2564635,2.5127542,-0.017516287,-0.005608491,0.0014024264,-0.006167071,-0.01786047,-0.020076344,-0.023580587,-0.013340887,-0.0035078893,-0.0076675955,0.19965063,0.19985044,0.20025699,0.20030843,0.1999335,0
57156000,57076000,0.75301343,3.8015904,-2.5131917,-1.255839,0.0006441586,1.2564714,2.512762,-0.017516287,-0.005608491,0.0014024264,-0.006167071,-0.01786047,-0.020076344,-0.023580587,-0.013340887,-0.0035078893,-0.0076675955,0.19965063,0.19985044,0.20025699,0.20030843,0.1999335,0
57164000,57084000,0.75307876,3.8015194,-2.5131974,-1.2558445,0.00063876115,1.256466,2.5127566,-0.017516287,-0.005608491,0.0014024264,-0.006167071,-0.01786047,-0.020076344,-0.023580587,-0.013340887,-0.0035078893,-0.0076675955,0.19965063,0.19985044,0.20025699,0.20030843,0.1999335,0
57172000,57092000,0.7530865,3.8015182,-2.5131915,-1.2558386,0.0006446499,1.2564719,2.5127625,-0.017516287,-0.005608491,0.0014024264,-0.006167071,-0.01786047,-0.020076344,-0.023580587,-0.013340887,-0.0035078893,-0.0076675955,0.19965063,0.19985044,0.20025699,0.20030843,0.1999335,0
57180000,57100000,0.75308156,3.80153,-2.5131857,-1.2558328,0.0006503722,1.2564777,2.5127683,-0.017516287,-0.005608491,0.0014024264,-0.006167071,-0.01786047,-0.020076344,-0.023580587,-0.013340887,-0.0035078893,-0.0076675955,0.19965063,0.19985044,0.20025699,0.20030843,0.1999335,0
57188000,57108000,0.75308156,3.8015327,-2.5131836,-1.2558308,0.0006524291,1.2564797,2.5127704,-0.017516287,-0.005608491,0.0014024264,-0.006167071,-0.01786047,-0.020076344,-0.023580587,-0.013340887,-0.0035078893,-0.0076675955,0.19965063,0.19985044,0.20025699,0.20030843,0.1999335,0
57196000,57116000,0.9325088,3.647759,-2.5135248,-1.25529,0.001329572,1.2563602,2.5120213,-0.015092792,0.00019895216,0.007025616,-0.004028173,-0.017698485,-0.028230064,-0.030447826,-0.016596401,-0.0058230083,-0.013001036,0.19930695,0.19957884,0.200433,0.20068905,0.19999216,0
57204000,57124000,0.9325195,3.647758,-2.5135162,-1.2552817,0.0013380429,1.2563686,2.51203,-0.015092792,0.00019895216,0.007025616,-0.004028173,-0.017698485,-0.028230064,-0.030447826,-0.016596401,-0.0058230083,-0.013001036,0.19930695,0.19957884,0.200433,0.20068905,0.19999216,0
57212000,57132000,0.9325489,3.6477544,-2.513493,-1.2552586,0.0013611863,1.2563918,2.512053,-0.015092792,0.00019895216,0.007025616,-0.004028173,-0.017698485,-0.028230064,-0.030447826,-0.016596401,-0.0058230083,-0.013001036,0.19930695,0.19957884,0.200433,0.20068905,0.19999216,0
57220000,57140000,0.932543,3.6477737,-2.5134697,-1.2552353,0.0013843998,1.2564149,2.5120761,-0.015092792,0.00019895216,0.007025616,-0.004028173,-0.017698485,-0.028230064,-0.030447826,-0.016596401,-0.0058230083,-0.013001036,0.19930695,0.19957884,0.200433,0.20068905,0.19999216,0
57228000,57148000,0.9325747,3.6477542,-2.51347,-1.2552354,0.0013842284,1.2564149,2.512076,-0.015092792,0.00019895216,0.007025616,-0.004028173,-0.017698485,-0.028230064,-0.030447826,-0.016596401,-0.0058230083,-0.013001036,0.19930695,0.19957884,0.200433,0.20068905,0.19999216,0
57236000,57156000,0.9325495,3.6477702,-2.5134711,-1.2552366,0.0013830389,1.2564136,2.512075,-0.015092792,0.00019895216,0.007025616,-0.004028173,-0.017698485,-0.028230064,-0.030447826,-0.016596401,-0.0058230083,-0.013001036,0.19930695,0.19957884,0.200433,0.20068905,0.19999216,0
57244000,57164000,0.93255764,3.6477675,-2.5134685,-1.2552339,0.0013858012,1.2564163,2.5120776,-0.015092792,0.00019895216,0.007025616,-0.004028173,-0.017698485,-0.028230064,-0.030447826,-0.016596401,-0.0058230083,-0.013001036,0.19930695,0.19957884,0.200433,0.20068905,0.19999216,0
57252000,57172000,0.9325559,3.647769,-2.513468,-1.2552334,0.0013862911,1.2564168,2.512078,-0.015092792,0.00019895216,0.007025616,-0.004028173,-0.017698485,-0.028230064,-0.030447826,-0.016596401,-0.0058230083,-0.013001036,0.19930695,0.19957884,0.200433,0.20068905,0.19999216,0
57260000,57180000,0.9325736,3.647764,-2.51346,-1.2552254,0.0013942844,1.2564249,2.5120862,-0.015092792,0.00019895216,0.007025616,-0.004028173,-0.017698485,-0.028230064,-0.030447826,-0.016596401,-0.0058230083,-0.013001036,0.19930695,0.19957884,0.200433,0.20068905,0.19999216,0
57268000,57188000,0.9325736,3.6477666,-2.513456,-1.2552216,0.0013981597,1.2564287,2.51209,-0.015092792,0.00019895216,0.007025616,-0.004028173,-0.017698485,-0.028230064,-0.030447826,-0.016596401,-0.0058230083,-0.013001036,0.19930695,0.19957884,0.200433,0.20068905,0.19999216,0
57276000,57196000,0.9325736,3.6477633,-2.5134625,-1.255228,0.0013917148,1.2564223,2.5120835,-0.015092792,0.00019895216,0.007025616,-0.004028173,-0.017698485,-0.028230064,-0.030447826,-0.016596401,-0.0058230083,-0.013001036,0.19930695,0.19957884,0.200433,0.20068905,0.19999216,0
57284000,57204000,0.9325619,3.6477733,-2.5134606,-1.2552261,0.0013935306,1.2564241,2.5120854,-0.015092792,0.00019895216,0.007025616,-0.004028173,-0.017698485,-0.028230064,-0.030447826,-0.016596401,-0.0058230083,-0.013001036,0.19930695,0.19957884,0.200433,0.20068905,0.19999216,0
57292000,57212000,0.9325589,3.6477716,-2.5134664,-1.2552319,0.0013878668,1.2564183,2.5120797,-0.015092792,0.00019895216,0.007025616,-0.004028173,-0.017698485,-0.028230064,-0.030447826,-0.016596401,-0.0058230083,-0.013001036,0.19930695,0.19957884,0.200433,0.20068905,0.19999216,0
57300000,57220000,0.9325666,3.6477613,-2.513475,-1.2552402,0.0013794578,1.25641,2.5120714,-0.015092792,0.00019895216,0.007025616,-0.004028173,-0.017698485,-0.028230064,-0.030447826,-0.016596401,-0.0058230083,-0.013001036,0.19930695,0.19957884,0.200433,0.20068905,0.19999216,0
57308000,57228000,0.9325718,3.647768,-2.513461,-1.2552266,0.001393131,1.2564237,2.512085,-0.015092792,0.00019895216,0.007025616,-0.004028173,-0.017698485,-0.028230064,-0.030447826,-0.016596401,-0.0058230083,-0.013001036,0.19930695,0.19957884,0.200433,0.20068905,0.19999216,0
57316000,57236000,0.9325589,3.6477714,-2.5134697,-1.2552352,0.0013844852,1.256415,2.5120764,-0.015092792,0.00019895216,0.007025616,-0.004028173,-0.017698485,-0.028230064,-0.030447826,-0.016596401,-0.0058230083,-0.013001036,0.19930695,0.19957884,0.200433,0.20068905,0.19999216,0
57324000,57244000,0.9325748,3.6477692,-2.513458,-1.2552235,0.0013962184,1.2564268,2.512088,-0.015092792,0.00019895216,0.007025616,-0.004028173,-0.017698485,-0.028230064,-0.030447826,-0.016596401,-0.0058230083,-0.013001036,0.19930695,0.19957884,0.200433,0.20068905,0.19999216,0
57332000,57252000,0.9325601,3.6477668,-2.5134776,-1.255243,0.0013767575,1.2564073,2.5120687,-0.015092792,0.00019895216,0.007025616,-0.004028173,-0.017698485,-0.028230064,-0.030447826,-0.016596401,-0.0058230083,-0.013001036,0.19930695,0.19957884,0.200433,0.20068905,0.19999216,0
57340000,57260000,0.93255365,3.6477683,-2.5134823,-1.2552478,0.0013719238,1.2564025,2.5120637,-0.015092792,0.00019895216,0.007025616,-0.004028173,-0.017698485,-0.028230064,-0.030447826,-0.016596401,-0.0058230083,-0.013001036,0.19930695,0.19957884,0.200433,0.20068905,0.19999216,0
57348000,57268000,0.9325519,3.6477761,-2.5134733,-1.2552387,0.0013810772,1.2564116,2.512073,-0.015092792,0.00019895216,0.007025616,-0.004028173,-0.017698485,-0.028230064,-0.030447826,-0.016596401,-0.0058230083,-0.013001036,0.19930695,0.19957884,0.200433,0.20068905,0.19999216,0
57356000,57276000,0.93256605,3.6477647,-2.513478,-1.2552434,0.0013763367,1.2564069,2.5120683,-0.015092792,0.00019895216,0.007025616,-0.004028173,-0.017698485,-0.028230064,-0.030447826,-0.016596401,-0.0058230083,-0.013001036,0.19930695,0.19957884,0.200433,0.20068905,0.19999216,0
57364000,57284000,0.93255717,3.6477747,-2.513472,-1.2552376,0.0013821983,1.2564127,2.512074,-0.015092792,0.00019895216,0.007025616,-0.004028173,-0.017698485,-0.028230064,-0.030447826,-0.016596401,-0.0058230083,-0.013001036,0.19930695,0.19957884,0.200433,0.20068905,0.19999216,0
57372000,57292000,0.9325342,3.6477792,-2.5134892,-1.2552547,0.0013649593,1.2563955,2.5120568,-0.015092792,0.00019895216,0.007025616,-0.004028173,-0.017698485,-0.028230064,-0.030447826,-0.016596401,-0.0058230083,-0.013001036,0.19930695,0.19957884,0.200433,0.20068905,0.19999216,0
57380000,57300000,0.9325671,3.647768,-2.5134745,-1.25524,0.0013798382,1.2564104,2.5120716,-0.015092792,0.00019895216,0.007025616,-0.004028173,-0.017698485,-0.028230064,-0.030447826,-0.016596401,-0.0058230083,-0.013001036,0.19930695,0.19957884,0.200433,0.20068905,0.19999216,0
57388000,57308000,0.93254244,3.6477778,-2.5134852,-1.2552507,0.0013690136,1.2563995,2.5120609,-0.015092792,0.00019895216,0.007025616,-0.004028173,-0.017698485,-0.028230064,-0.030447826,-0.016596401,-0.0058230083,-0.013001036,0.19930695,0.19957884,0.200433,0.20068905,0.19999216,0
57396000,57316000,0.9325636,3.647769,-2.5134785,-1.255244,0.001375704,1.2564063,2.5120676,-0.015092792,0.00019895216,0.007025616,-0.004028173,-0.017698485,-0.028230064,-0.030447826,-0.016596401,-0.0058230083,-0.013001036,0.19930695,0.19957884,0.200433,0.20068905,0.19999216,0
57404000,57324000,0.9325701,3.6477726,-2.5134673,-1.2552328,0.0013869874,1.2564175,2.5120788,-0.015092792,0.00019895216,0.007025616,-0.004028173,-0.017698485,-0.028230064,-0.030447826,-0.016596401,-0.0058230083,-0.013001036,0.19930695,0.19957884,0.200433,0.20068905,0.19999216,0
57412000,57332000,0.9325736,3.6477747,-2.513462,-1.2552276,0.0013922127,1.2564228,2.512084,-0.015092792,0.00019895216,0.007025616,-0.004028173,-0.017698485,-0.028230064,-0.030447826,-0.016596401,-0.0058230083,-0.013001036,0.19930695,0.19957884,0.200433,0.20068905,0.19999216,0
57420000,57340000,0.93256533,3.64777,-2.5134783,-1.2552438,0.0013759948,1.2564065,2.5120678,-0.015092792,0.00019895216,0.007025616,-0.004028173,-0.017698485,-0.028230064,-0.030447826,-0.016596401,-0.0058230083,-0.013001036,0.19930695,0.19957884,0.200433,0.20068905,0.19999216,0
57428000,57348000,0.9325766,3.6477597,-2.5134835,-1.2552489,0.0013708761,1.2564015,2.5120628,-0.015092792,0.00019895216,0.007025616,-0.004028173,-0.017698485,-0.028230064,-0.030447826,-0.016596401,-0.0058230083,-0.013001036,0.19930695,0.19957884,0.200433,0.20068905,0.19999216,0
57436000,57356000,0.9325578,3.647785,-2.5134645,-1.2552301,0.0013897103,1.2564203,2.5120816,-0.015092792,0.00019895216,0.007025616,-0.004028173,-0.017698485,-0.028230064,-0.030447826,-0.016596401,-0.0058230083,-0.013001036,0.19930695,0.19957884,0.200433,0.20068905,0.19999216,0
57444000,57364000,0.9325955,3.6477737,-2.5134456,-1.255211,0.0014087346,1.2564393,2.5121007,-0.015092792,0.00019895216,0.007025616,-0.004028173,-0.017698485,-0.028230064,-0.030447826,-0.016596401,-0.0058230083,-0.013001036,0.19930695,0.19957884,0.200433,0.20068905,0.19999216,0
57452000,57372000,0.9326002,3.6477785,-2.513434,-1.2551996,0.0014202084,1.2564508,2.5121121,-0.015092792,0.00019895216,0.007025616,-0.004028173,-0.017698485,-0.028230064,-0.030447826,-0.016596401,-0.0058230083,-0.013001036,0.19930695,0.19957884,0.200433,0.20068905,0.19999216,0
57460000,57380000,0.93262124,3.6477652,-2.5134346,-1.2552001,0.0014196376,1.2564503,2.5121114,-0.015092792,0.00019895216,0.007025616,-0.004028173,-0.017698485,-0.028230064,-0.030447826,-0.016596401,-0.0058230083,-0.013001036,0.19930695,0.19957884,0.200433,0.20068905,0.19999216,0
57468000,57388000,0.93260777,3.647768,-2.5134442,-1.2552096,0.0014101668,1.2564408,2.5121021,-0.015092792,0.00019895216,0.007025616,-0.004028173,-0.017698485,-0.028230064,-0.030447826,-0.016596401,-0.0058230083,-0.013001036,0.19930695,0.19957884,0.200433,0.20068905,0.19999216,0
57476000,57396000,0.93259484,3.6477733,-2.5134504,-1.2552159,0.0014039156,1.2564344,2.5120957,-0.015092792,0.00019895216,0.007025616,-0.004028173,-0.017698485,-0.028230064,-0.030447826,-0.016596401,-0.0058230083,-0.013001036,0.19930695,0.19957884,0.200433,0.20068905,0.19999216,0
57484000,57404000,0.932599,3.6477716,-2.5134497,-1.255215,0.0014047169,1.2564353,2.5120966,-0.015092792,0.00019895216,0.007025616,-0.004028173,-0.017698485,-0.028230064,-0.030447826,-0.016596401,-0.0058230083,-0.013001036,0.19930695,0.19957884,0.200433,0.20068905,0.19999216,0
