timestamp,timestamp_sample,gps_hvel[0],gps_hvel[1],gps_vvel,gps_hpos[0],gps_hpos[1],gps_vpos,ev_hvel[0],ev_hvel[1],ev_vvel,ev_hpos[0],ev_hpos[1],ev_vpos,rng_vpos,baro_vpos,aux_hvel[0],aux_hvel[1],aux_vvel,flow[0],flow[1],terr_flow[0],terr_flow[1],heading,mag_field[0],mag_field[1],mag_field[2],gravity[0],gravity[1],gravity[2],drag[0],drag[1],airspeed,beta,hagl,hagl_rate
3388000,3308000,0.0,0.0,0.0,0.0,0.0,0.0,0.0,0.0,0.0,0.0,0.0,0.0,0.0,7.619773e-15,0.0,0.0,nan,0.0,0.0,0.0,0.0,0.0,0.0,0.0,0.0,0.00018698357,0.0,0.0,0.0,0.0,0.0,0.0,0.0,0.0
3396000,3316000,0.0,0.0,0.0,0.0,0.0,0.0,0.0,0.0,0.0,0.0,0.0,0.0,0.0,7.619773e-15,0.0,0.0,nan,0.0,0.0,0.0,0.0,0.0,0.0,0.0,0.0,4.9059877e-06,0.0,0.0,0.0,0.0,0.0,0.0,0.0,0.0
3404000,3324000,0.0,0.0,0.0,0.0,0.0,0.0,0.0,0.0,0.0,0.0,0.0,0.0,0.0,7.619773e-15,0.0,0.0,nan,0.0,0.0,0.0,0.0,0.0,0.0,0.0,0.0,4.8083617e-05,0.0,0.0,0.0,0.0,0.0,0.0,0.0,0.0
3412000,3332000,0.0,0.0,0.0,0.0,0.0,0.0,0.0,0.0,0.0,0.0,0.0,0.0,0.0,7.619773e-15,0.0,0.0,nan,0.0,0.0,0.0,0.0,0.0,inf,0.0,0.0,0.00014410813,0.0,0.0,0.0,0.0,0.0,0.0,0.0,0.0
3420000,3340000,0.0,0.0,0.0,0.0,0.0,0.0,0.0,0.0,0.0,0.0,0.0,0.0,0.0,7.619773e-15,0.0,0.0,nan,0.0,0.0,0.0,0.0,0.0,inf,0.0,0.0,2.1375732e-05,0.0,0.0,0.0,0.0,0.0,0.0,0.0,0.0
3428000,3348000,0.0,0.0,0.0,0.0,0.0,0.0,0.0,0.0,0.0,0.0,0.0,0.0,0.0,7.619773e-15,0.0,0.0,nan,0.0,0.0,0.0,0.0,0.0,inf,0.0,0.0,0.00041190605,0.0,0.0,0.0,0.0,0.0,0.0,0.0,0.0
3436000,3356000,0.0,0.0,0.0,0.0,0.0,0.0,0.0,0.0,0.0,0.0,0.0,0.0,0.0,7.619773e-15,0.0,0.0,nan,0.0,0.0,0.0,0.0,0.0,inf,0.0,0.0,0.0002863168,0.0,0.0,0.0,0.0,0.0,0.0,0.0,0.0
3444000,3364000,0.0,0.0,0.0,0.0,0.0,0.0,0.0,0.0,0.0,0.0,0.0,0.0,0.0,7.619773e-15,0.0,0.0,nan,0.0,0.0,0.0,0.0,0.0,inf,0.0,0.0,7.3303236e-05,0.0,0.0,0.0,0.0,0.0,0.0,0.0,0.0
3452000,3372000,0.0,0.0,0.0,0.0,0.0,0.0,0.0,0.0,0.0,0.0,0.0,0.0,0.0,3.1136022e-07,0.0,0.0,nan,0.0,0.0,0.0,0.0,0.0,inf,0.0,0.0,0.00012182326,0.0,0.0,0.0,0.0,0.0,0.0,0.0,0.0
3460000,3380000,0.0,0.0,0.0,0.0,0.0,0.0,0.0,0.0,0.0,0.0,0.0,0.0,0.0,3.1136022e-07,0.0,0.0,nan,0.0,0.0,0.0,0.0,0.0,inf,0.0,0.0,0.00022971153,0.0,0.0,0.0,0.0,0.0,0.0,0.0,0.0
3468000,3388000,0.0,0.0,0.0,0.0,0.0,0.0,0.0,0.0,0.0,0.0,0.0,0.0,0.0,3.1136022e-07,0.0,0.0,nan,0.0,0.0,0.0,0.0,0.0,inf,0.0,0.0,7.6549535e-05,0.0,0.0,0.0,0.0,0.0,0.0,0.0,0.0
3476000,3396000,0.0,0.0,0.0,0.0,0.0,0.0,0.0,0.0,0.0,0.0,0.0,0.0,0.0,3.1136022e-07,0.0,0.0,nan,0.0,0.0,0.0,0.0,0.0,inf,0.0,0.0,0.00014260806,0.0,0.0,0.0,0.0,0.0,0.0,0.0,0.0
3484000,3404000,0.0,0.0,0.0,0.0,0.0,0.0,0.0,0.0,0.0,0.0,0.0,0.0,0.0,3.1136022e-07,0.0,0.0,nan,0.0,0.0,0.0,0.0,0.0,inf,0.0,0.0,0.00039069937,0.0,0.0,0.0,0.0,0.0,0.0,0.0,0.0
3492000,3412000,0.0,0.0,0.0,0.0,0.0,0.0,0.0,0.0,0.0,0.0,0.0,0.0,0.0,3.1136022e-07,0.0,0.0,nan,0.0,0.0,0.0,0.0,0.0,inf,0.0,0.0,0.00093629607,0.0,0.0,0.0,0.0,0.0,0.0,0.0,0.0
3500000,3420000,0.0,0.0,0.0,0.0,0.0,0.0,0.0,0.0,0.0,0.0,0.0,0.0,0.0,3.1136022e-07,0.0,0.0,nan,0.0,0.0,0.0,0.0,0.0,inf,0.0,0.0,0.00040758756,0.0,0.0,0.0,0.0,0.0,0.0,0.0,0.0
3508000,3428000,0.0,0.0,0.0,0.0,0.0,0.0,0.0,0.0,0.0,0.0,0.0,0.0,0.0,1.8560065e-08,0.0,0.0,nan,0.0,0.0,0.0,0.0,0.0,inf,0.0,0.0,0.00080841716,0.0,0.0,0.0,0.0,0.0,0.0,0.0,0.0
3516000,3436000,0.0,0.0,0.0,0.0,0.0,0.0,0.0,0.0,0.0,0.0,0.0,0.0,0.0,1.8560065e-08,0.0,0.0,nan,0.0,0.0,0.0,0.0,0.0,inf,0.0,0.0,2.4950075e-05,0.0,0.0,0.0,0.0,0.0,0.0,0.0,0.0
3524000,3444000,0.0,0.0,0.0,0.0,0.0,0.0,0.0,0.0,0.0,0.0,0.0,0.0,0.0,1.8560065e-08,0.0,0.0,nan,0.0,0.0,0.0,0.0,0.0,inf,0.0,0.0,4.2657184e-08,0.0,0.0,0.0,0.0,0.0,0.0,0.0,0.0
3532000,3452000,0.0,0.0,0.0,0.0,0.0,0.0,0.0,0.0,0.0,0.0,0.0,0.0,0.0,1.8560065e-08,0.0,0.0,nan,0.0,0.0,0.0,0.0,0.0,inf,0.0,0.0,0.0007125665,0.0,0.0,0.0,0.0,0.0,0.0,0.0,0.0
3540000,3460000,0.0,0.0,0.0,0.0,0.0,0.0,0.0,0.0,0.0,0.0,0.0,0.0,0.0,1.8560065e-08,0.0,0.0,nan,0.0,0.0,0.0,0.0,0.0,inf,0.0,0.0,0.00029171782,0.0,0.0,0.0,0.0,0.0,0.0,0.0,0.0
3548000,3468000,0.0,0.0,0.0,0.0,0.0,0.0,0.0,0.0,0.0,0.0,0.0,0.0,0.0,1.8560065e-08,0.0,0.0,nan,0.0,0.0,0.0,0.0,0.0,inf,0.0,0.0,0.00022186468,0.0,0.0,0.0,0.0,0.0,0.0,0.0,0.0
3556000,3476000,0.0,0.0,0.0,0.0,0.0,0.0,0.0,0.0,0.0,0.0,0.0,0.0,0.0,1.8560065e-08,0.0,0.0,nan,0.0,0.0,0.0,0.0,0.0,inf,0.0,0.0,0.0005276352,0.0,0.0,0.0,0.0,0.0,0.0,0.0,0.0
3564000,3484000,0.0,0.0,0.0,0.0,0.0,0.0,0.0,0.0,0.0,0.0,0.0,0.0,0.0,1.8560065e-08,0.0,0.0,nan,0.0,0.0,0.0,0.0,0.0,inf,0.0,0.0,0.00042621733,0.0,0.0,0.0,0.0,0.0,0.0,0.0,0.0
3572000,3492000,0.0,0.0,0.0,0.0,0.0,0.0,0.0,0.0,0.0,0.0,0.0,0.0,0.0,1.7404445e-06,0.0,0.0,nan,0.0,0.0,0.0,0.0,0.0,inf,0.0,0.0,3.2775064e-05,0.0,0.0,0.0,0.0,0.0,0.0,0.0,0.0
3580000,3500000,0.0,0.0,0.0,0.0,0.0,0.0,0.0,0.0,0.0,0.0,0.0,0.0,0.0,1.7404445e-06,0.0,0.0,nan,0.0,0.0,0.0,0.0,0.0,inf,0.0,0.0,7.969391e-05,0.0,0.0,0.0,0.0,0.0,0.0,0.0,0.0
3588000,3508000,0.0,0.0,0.0,0.0,0.0,0.0,0.0,0.0,0.0,0.0,0.0,0.0,0.0,1.7404445e-06,0.0,0.0,nan,0.0,0.0,0.0,0.0,0.0,inf,0.0,0.0,0.00024913004,0.0,0.0,0.0,0.0,0.0,0.0,0.0,0.0
3596000,3516000,1.8660082e-06,0.0,0.00043201572,1.3137551e-10,0.0,186.8585,0.0,0.0,0.0,0.0,0.0,0.0,0.0,1.7404445e-06,0.0,0.0,nan,0.0,0.0,0.0,0.0,0.0,inf,0.0,0.0,8.360688e-06,0.0,0.0,0.0,0.0,0.0,0.0,0.0,0.0
3604000,3524000,1.8660082e-06,0.0,0.00043201572,1.3137551e-10,0.0,186.8585,0.0,0.0,0.0,0.0,0.0,0.0,0.0,1.7404445e-06,0.0,0.0,nan,0.0,0.0,0.0,0.0,0.0,inf,0.0,0.0,0.00019547208,0.0,0.0,0.0,0.0,0.0,0.0,0.0,0.0
3612000,3532000,1.8660082e-06,0.0,0.00043201572,1.3137551e-10,0.0,186.8585,0.0,0.0,0.0,0.0,0.0,0.0,0.0,1.7404445e-06,0.0,0.0,nan,0.0,0.0,0.0,0.0,0.0,inf,0.0,0.0,0.0023219516,0.0,0.0,0.0,0.0,0.0,0.0,0.0,0.0
3620000,3540000,1.8660082e-06,0.0,0.00043201572,1.3137551e-10,0.0,186.8585,0.0,0.0,0.0,0.0,0.0,0.0,0.0,1.7404445e-06,0.0,0.0,nan,0.0,0.0,0.0,0.0,0.0,inf,0.0,0.0,8.8449946e-05,0.0,0.0,0.0,0.0,0.0,0.0,0.0,0.0
3628000,3548000,1.8660082e-06,0.0,0.00043201572,1.3137551e-10,0.0,186.8585,0.0,0.0,0.0,0.0,0.0,0.0,0.0,1.1220409e-06,0.0,0.0,nan,0.0,0.0,0.0,0.0,0.00034070626,inf,0.0,0.0,1.3385121e-05,0.0,0.0,0.0,0.0,0.0,0.0,0.0,0.0
3636000,3556000,1.8660082e-06,0.0,0.00043201572,1.3137551e-10,0.0,186.8585,0.0,0.0,0.0,0.0,0.0,0.0,0.0,1.1220409e-06,0.0,0.0,nan,0.0,0.0,0.0,0.0,0.00034070626,inf,0.0,0.0,0.0015467247,0.0,0.0,0.0,0.0,0.0,0.0,0.0,0.0
3644000,3564000,1.8660082e-06,0.0,0.00043201572,1.3137551e-10,0.0,186.8585,0.0,0.0,0.0,0.0,0.0,0.0,0.0,1.1220409e-06,0.0,0.0,nan,0.0,0.0,0.0,0.0,0.00034070626,inf,0.0,0.0,0.0007293697,0.0,0.0,0.0,0.0,0.0,0.0,0.0,0.0
3652000,3572000,1.8660082e-06,0.0,0.00043201572,1.3137551e-10,0.0,186.8585,0.0,0.0,0.0,0.0,0.0,0.0,0.0,1.1220409e-06,0.0,0.0,nan,0.0,0.0,0.0,0.0,0.00034070626,inf,0.0,0.0,0.00061011635,0.0,0.0,0.0,0.0,0.0,0.0,0.0,0.0
3660000,3580000,1.8660082e-06,0.0,0.00043201572,1.3137551e-10,0.0,186.8585,0.0,0.0,0.0,0.0,0.0,0.0,0.0,1.1220409e-06,0.0,0.0,nan,0.0,0.0,0.0,0.0,0.00034070626,inf,0.0,0.0,6.630022e-05,0.0,0.0,0.0,0.0,0.0,0.0,0.0,0.0
3668000,3588000,1.8660082e-06,0.0,0.00043201572,1.3137551e-10,0.0,186.8585,0.0,0.0,0.0,0.0,0.0,0.0,0.0,1.1220409e-06,0.0,0.0,nan,0.0,0.0,0.0,0.0,0.00034070626,inf,0.0,0.0,1.0457482e-05,0.0,0.0,0.0,0.0,0.0,0.0,0.0,0.0
3676000,3596000,1.8660082e-06,0.0,0.00043201572,1.3137551e-10,0.0,186.8585,0.0,0.0,0.0,0.0,0.0,0.0,0.0,1.1220409e-06,0.0,0.0,nan,0.0,0.0,0.0,0.0,0.00034070626,inf,0.0,0.0,0.0001734139,0.0,0.0,0.0,0.0,0.0,0.0,0.0,0.0
3684000,3604000,1.8660082e-06,0.0,0.00043201572,1.3137551e-10,0.0,186.8585,0.0,0.0,0.0,0.0,0.0,0.0,0.0,1.1220409e-06,0.0,0.0,nan,0.0,0.0,0.0,0.0,0.00034070626,inf,0.0,0.0,0.000440441,0.0,0.0,0.0,0.0,0.0,0.0,0.0,0.0
3692000,3612000,1.8660082e-06,0.0,0.00043201572,1.3137551e-10,0.0,186.8585,0.0,0.0,0.0,0.0,0.0,0.0,0.0,1.0256e-05,0.0,0.0,nan,0.0,0.0,0.0,0.0,0.00034070626,inf,0.0,0.0,3.1375144e-05,0.0,0.0,0.0,0.0,0.0,0.0,0.0,0.0
3700000,3620000,1.8660082e-06,0.0,0.00043201572,1.3137551e-10,0.0,186.8585,0.0,0.0,0.0,0.0,0.0,0.0,0.0,1.0256e-05,0.0,0.0,nan,0.0,0.0,0.0,0.0,6.5706067e-06,inf,0.0,0.0,0.00033784355,0.0,0.0,0.0,0.0,0.0,0.0,0.0,0.0
3708000,3628000,1.8660082e-06,0.0,0.00043201572,1.3137551e-10,0.0,186.8585,0.0,0.0,0.0,0.0,0.0,0.0,0.0,1.0256e-05,0.0,0.0,nan,0.0,0.0,0.0,0.0,6.5706067e-06,inf,0.0,0.0,0.00054989976,0.0,0.0,0.0,0.0,0.0,0.0,0.0,0.0
3716000,3636000,1.8660082e-06,0.0,0.00043201572,1.3137551e-10,0.0,186.8585,0.0,0.0,0.0,0.0,0.0,0.0,0.0,1.0256e-05,0.0,0.0,nan,0.0,0.0,0.0,0.0,6.5706067e-06,inf,0.0,0.0,0.00021606033,0.0,0.0,0.0,0.0,0.0,0.0,0.0,0.0
3724000,3644000,1.8660082e-06,0.0,0.00043201572,1.3137551e-10,0.0,186.8585,0.0,0.0,0.0,0.0,0.0,0.0,0.0,1.0256e-05,0.0,0.0,nan,0.0,0.0,0.0,0.0,6.5706067e-06,inf,0.0,0.0,1.2312795e-05,0.0,0.0,0.0,0.0,0.0,0.0,0.0,0.0
3732000,3652000,1.8660082e-06,0.0,0.00043201572,1.3137551e-10,0.0,186.8585,0.0,0.0,0.0,0.0,0.0,0.0,0.0,1.0256e-05,0.0,0.0,nan,0.0,0.0,0.0,0.0,6.5706067e-06,inf,0.0,0.0,0.00037538868,0.0,0.0,0.0,0.0,0.0,0.0,0.0,0.0
3740000,3660000,1.8660082e-06,0.0,0.00043201572,1.3137551e-10,0.0,186.8585,0.0,0.0,0.0,0.0,0.0,0.0,0.0,1.0256e-05,0.0,0.0,nan,0.0,0.0,0.0,0.0,6.5706067e-06,inf,0.0,0.0,0.0008305888,0.0,0.0,0.0,0.0,0.0,0.0,0.0,0.0
3748000,3668000,1.8660082e-06,0.0,0.00043201572,1.3137551e-10,0.0,186.8585,0.0,0.0,0.0,0.0,0.0,0.0,0.0,7.504208e-07,0.0,0.0,nan,0.0,0.0,0.0,0.0,6.5706067e-06,inf,0.0,0.0,0.00033993932,0.0,0.0,0.0,0.0,0.0,0.0,0.0,0.0
3756000,3676000,1.8660082e-06,0.0,0.00043201572,1.3137551e-10,0.0,186.8585,0.0,0.0,0.0,0.0,0.0,0.0,0.0,7.504208e-07,0.0,0.0,nan,0.0,0.0,0.0,0.0,6.5706067e-06,inf,0.0,0.0,6.635756e-05,0.0,0.0,0.0,0.0,0.0,0.0,0.0,0.0
3764000,3684000,1.8660082e-06,0.0,0.00043201572,1.3137551e-10,0.0,186.8585,0.0,0.0,0.0,0.0,0.0,0.0,0.0,7.504208e-07,0.0,0.0,nan,0.0,0.0,0.0,0.0,0.0012426986,inf,0.0,0.0,0.00023065197,0.0,0.0,0.0,0.0,0.0,0.0,0.0,0.0
3772000,3692000,1.8660082e-06,0.0,0.00043201572,1.3137551e-10,0.0,186.8585,0.0,0.0,0.0,0.0,0.0,0.0,0.0,7.504208e-07,0.0,0.0,nan,0.0,0.0,0.0,0.0,0.0012426986,inf,0.0,0.0,7.464425e-05,0.0,0.0,0.0,0.0,0.0,0.0,0.0,0.0
3780000,3700000,1.8660082e-06,0.0,0.00043201572,1.3137551e-10,0.0,186.8585,0.0,0.0,0.0,0.0,0.0,0.0,0.0,7.504208e-07,0.0,0.0,nan,0.0,0.0,0.0,0.0,0.0012426986,inf,0.0,0.0,4.076203e-05,0.0,0.0,0.0,0.0,0.0,0.0,0.0,0.0
3788000,3708000,1.8660082e-06,0.0,0.00043201572,1.3137551e-10,0.0,186.8585,0.0,0.0,0.0,0.0,0.0,0.0,0.0,7.504208e-07,0.0,0.0,nan,0.0,0.0,0.0,0.0,0.0012426986,inf,0.0,0.0,4.795542e-05,0.0,0.0,0.0,0.0,0.0,0.0,0.0,0.0
3796000,3716000,1.8660082e-06,0.0,0.00043201572,1.3137551e-10,0.0,186.8585,0.0,0.0,0.0,0.0,0.0,0.0,0.0,7.504208e-07,0.0,0.0,nan,0.0,0.0,0.0,0.0,0.0012426986,inf,0.0,0.0,0.0006122884,0.0,0.0,0.0,0.0,0.0,0.0,0.0,0.0
3804000,3724000,1.8660082e-06,0.0,0.00043201572,1.3137551e-10,0.0,186.8585,0.0,0.0,0.0,0.0,0.0,0.0,0.0,7.504208e-07,0.0,0.0,nan,0.0,0.0,0.0,0.0,0.0012426986,inf,0.0,0.0,0.00040936944,0.0,0.0,0.0,0.0,0.0,0.0,0.0,0.0
3812000,3732000,1.8660082e-06,0.0,0.00043201572,1.3137551e-10,0.0,186.8585,0.0,0.0,0.0,0.0,0.0,0.0,0.0,2.5713144e-08,0.0,0.0,nan,0.0,0.0,0.0,0.0,0.0012426986,inf,0.0,0.0,0.00020501918,0.0,0.0,0.0,0.0,0.0,0.0,0.0,0.0
3820000,3740000,1.8660082e-06,0.0,0.00043201572,1.3137551e-10,0.0,186.8585,0.0,0.0,0.0,0.0,0.0,0.0,0.0,2.5713144e-08,0.0,0.0,nan,0.0,0.0,0.0,0.0,0.0012426986,inf,0.0,0.0,0.0002564352,0.0,0.0,0.0,0.0,0.0,0.0,0.0,0.0
3828000,3748000,1.8660082e-06,0.0,0.00043201572,1.3137551e-10,0.0,186.8585,0.0,0.0,0.0,0.0,0.0,0.0,0.0,2.5713144e-08,0.0,0.0,nan,0.0,0.0,0.0,0.0,0.0012426986,inf,0.0,0.0,0.00047777736,0.0,0.0,0.0,0.0,0.0,0.0,0.0,0.0
3836000,3756000,1.8660082e-06,0.0,0.00043201572,1.3137551e-10,0.0,186.8585,0.0,0.0,0.0,0.0,0.0,0.0,0.0,2.5713144e-08,0.0,0.0,nan,0.0,0.0,0.0,0.0,2.0848103e-05,inf,0.0,0.0,0.00078967924,0.0,0.0,0.0,0.0,0.0,0.0,0.0,0.0
3844000,3764000,1.8660082e-06,0.0,0.00043201572,1.3137551e-10,0.0,186.8585,0.0,0.0,0.0,0.0,0.0,0.0,0.0,2.5713144e-08,0.0,0.0,nan,0.0,0.0,0.0,0.0,2.0848103e-05,inf,0.0,0.0,4.323207e-05,0.0,0.0,0.0,0.0,0.0,0.0,0.0,0.0
3852000,3772000,1.8660082e-06,0.0,0.00043201572,1.3137551e-10,0.0,186.8585,0.0,0.0,0.0,0.0,0.0,0.0,0.0,2.5713144e-08,0.0,0.0,nan,0.0,0.0,0.0,0.0,2.0848103e-05,inf,0.0,0.0,0.00067170453,0.0,0.0,0.0,0.0,0.0,0.0,0.0,0.0
3860000,3780000,1.8660082e-06,0.0,0.00043201572,1.3137551e-10,0.0,186.8585,0.0,0.0,0.0,0.0,0.0,0.0,0.0,2.5713144e-08,0.0,0.0,nan,0.0,0.0,0.0,0.0,2.0848103e-05,inf,0.0,0.0,0.00015503918,0.0,0.0,0.0,0.0,0.0,0.0,0.0,0.0
3868000,3788000,1.8660082e-06,0.0,0.00043201572,1.3137551e-10,0.0,186.8585,0.0,0.0,0.0,0.0,0.0,0.0,0.0,1.5543024e-07,0.0,0.0,nan,0.0,0.0,0.0,0.0,2.0848103e-05,inf,0.0,0.0,0.0004849551,0.0,0.0,0.0,0.0,0.0,0.0,0.0,0.0
3876000,3796000,1.8660082e-06,0.0,0.00043201572,1.3137551e-10,0.0,186.8585,0.0,0.0,0.0,0.0,0.0,0.0,0.0,1.5543024e-07,0.0,0.0,nan,0.0,0.0,0.0,0.0,2.0848103e-05,inf,0.0,0.0,9.57516e-05,0.0,0.0,0.0,0.0,0.0,0.0,0.0,0.0
3884000,3804000,1.8660082e-06,0.0,0.00043201572,1.3137551e-10,0.0,186.8585,0.0,0.0,0.0,0.0,0.0,0.0,0.0,1.5543024e-07,0.0,0.0,nan,0.0,0.0,0.0,0.0,2.0848103e-05,inf,0.0,0.0,8.504398e-05,0.0,0.0,0.0,0.0,0.0,0.0,0.0,0.0
3892000,3812000,1.8660082e-06,0.0,0.00043201572,1.3137551e-10,0.0,186.8585,0.0,0.0,0.0,0.0,0.0,0.0,0.0,1.5543024e-07,0.0,0.0,nan,0.0,0.0,0.0,0.0,2.0848103e-05,inf,0.0,0.0,0.00045524485,0.0,0.0,0.0,0.0,0.0,0.0,0.0,0.0
3900000,3820000,1.8660082e-06,0.0,0.00043201572,1.3137551e-10,0.0,186.8585,0.0,0.0,0.0,0.0,0.0,0.0,0.0,1.5543024e-07,0.0,0.0,nan,0.0,0.0,0.0,0.0,2.0848103e-05,inf,0.0,0.0,0.00046079408,0.0,0.0,0.0,0.0,0.0,0.0,0.0,0.0
3908000,3828000,1.8660082e-06,0.0,0.00043201572,1.3137551e-10,0.0,186.8585,0.0,0.0,0.0,0.0,0.0,0.0,0.0,1.5543024e-07,0.0,0.0,nan,0.0,0.0,0.0,0.0,1.3495581e-05,inf,0.0,0.0,0.000106740124,0.0,0.0,0.0,0.0,0.0,0.0,0.0,0.0
3916000,3836000,1.8660082e-06,0.0,0.00043201572,1.3137551e-10,0.0,186.8585,0.0,0.0,0.0,0.0,0.0,0.0,0.0,1.5543024e-07,0.0,0.0,nan,0.0,0.0,0.0,0.0,1.3495581e-05,inf,0.0,0.0,0.0010941225,0.0,0.0,0.0,0.0,0.0,0.0,0.0,0.0
3924000,3844000,1.8660082e-06,0.0,0.00043201572,1.3137551e-10,0.0,186.8585,0.0,0.0,0.0,0.0,0.0,0.0,0.0,1.5543024e-07,0.0,0.0,nan,0.0,0.0,0.0,0.0,1.3495581e-05,inf,0.0,0.0,0.0004159738,0.0,0.0,0.0,0.0,0.0,0.0,0.0,0.0
3932000,3852000,1.8660082e-06,0.0,0.00043201572,1.3137551e-10,0.0,186.8585,0.0,0.0,0.0,0.0,0.0,0.0,0.0,1.33305075e-05,0.0,0.0,nan,0.0,0.0,0.0,0.0,1.3495581e-05,inf,0.0,0.0,0.00031966594,0.0,0.0,0.0,0.0,0.0,0.0,0.0,0.0
3940000,3860000,1.8660082e-06,0.0,0.00043201572,1.3137551e-10,0.0,186.8585,0.0,0.0,0.0,0.0,0.0,0.0,0.0,1.33305075e-05,0.0,0.0,nan,0.0,0.0,0.0,0.0,1.3495581e-05,inf,0.0,0.0,0.000488978,0.0,0.0,0.0,0.0,0.0,0.0,0.0,0.0
3948000,3868000,1.8660082e-06,0.0,0.00043201572,1.3137551e-10,0.0,186.8585,0.0,0.0,0.0,0.0,0.0,0.0,0.0,1.33305075e-05,0.0,0.0,nan,0.0,0.0,0.0,0.0,1.3495581e-05,inf,0.0,0.0,0.00018771268,0.0,0.0,0.0,0.0,0.0,0.0,0.0,0.0
3956000,3876000,1.8660082e-06,0.0,0.00043201572,1.3137551e-10,0.0,186.8585,0.0,0.0,0.0,0.0,0.0,0.0,0.0,1.33305075e-05,0.0,0.0,nan,0.0,0.0,0.0,0.0,1.3495581e-05,inf,0.0,0.0,5.7463123e-05,0.0,0.0,0.0,0.0,0.0,0.0,0.0,0.0
3964000,3884000,1.8660082e-06,0.0,0.00043201572,1.3137551e-10,0.0,186.8585,0.0,0.0,0.0,0.0,0.0,0.0,0.0,1.33305075e-05,0.0,0.0,nan,0.0,0.0,0.0,0.0,1.3495581e-05,inf,0.0,0.0,0.0012172213,0.0,0.0,0.0,0.0,0.0,0.0,0.0,0.0
3972000,3892000,1.8660082e-06,0.0,0.00043201572,1.3137551e-10,0.0,186.8585,0.0,0.0,0.0,0.0,0.0,0.0,0.0,1.33305075e-05,0.0,0.0,nan,0.0,0.0,0.0,0.0,1.3495581e-05,inf,0.0,0.0,6.8931746e-05,0.0,0.0,0.0,0.0,0.0,0.0,0.0,0.0
3980000,3900000,1.8660082e-06,0.0,0.00043201572,1.3137551e-10,0.0,186.8585,0.0,0.0,0.0,0.0,0.0,0.0,0.0,1.33305075e-05,0.0,0.0,nan,0.0,0.0,0.0,0.0,6.5008817e-06,inf,0.0,0.0,4.8386057e-05,0.0,0.0,0.0,0.0,0.0,0.0,0.0,0.0
3988000,3908000,1.8660082e-06,0.0,0.00043201572,1.3137551e-10,0.0,186.8585,0.0,0.0,0.0,0.0,0.0,0.0,0.0,3.405248e-06,0.0,0.0,nan,0.0,0.0,0.0,0.0,6.5008817e-06,inf,0.0,0.0,0.0005970038,0.0,0.0,0.0,0.0,0.0,0.0,0.0,0.0
3996000,3916000,5.6034154e-05,0.0,5.9237125e-05,2.2009883e-10,0.0,366.5393,0.0,0.0,0.0,0.0,0.0,0.0,0.0,3.405248e-06,0.0,0.0,nan,0.0,0.0,0.0,0.0,6.5008817e-06,inf,0.0,0.0,0.0006811661,0.0,0.0,0.0,0.0,0.0,0.0,0.0,0.0
4004000,3924000,5.6034154e-05,0.0,5.9237125e-05,2.2009883e-10,0.0,366.5393,0.0,0.0,0.0,0.0,0.0,0.0,0.0,3.405248e-06,0.0,0.0,nan,0.0,0.0,0.0,0.0,6.5008817e-06,inf,0.0,0.0,0.00035558752,0.0,0.0,0.0,0.0,0.0,0.0,0.0,0.0
4012000,3932000,5.6034154e-05,0.0,5.9237125e-05,2.2009883e-10,0.0,366.5393,0.0,0.0,0.0,0.0,0.0,0.0,0.0,3.405248e-06,0.0,0.0,nan,0.0,0.0,0.0,0.0,6.5008817e-06,inf,0.0,0.0,0.00022352238,0.0,0.0,0.0,0.0,0.0,0.0,0.0,0.0
4020000,3940000,5.6034154e-05,0.0,5.9237125e-05,2.2009883e-10,0.0,366.5393,0.0,0.0,0.0,0.0,0.0,0.0,0.0,3.405248e-06,0.0,0.0,nan,0.0,0.0,0.0,0.0,6.5008817e-06,inf,0.0,0.0,0.00032186284,0.0,0.0,0.0,0.0,0.0,0.0,0.0,0.0
4028000,3948000,5.6034154e-05,0.0,5.9237125e-05,2.2009883e-10,0.0,366.5393,0.0,0.0,0.0,0.0,0.0,0.0,0.0,3.405248e-06,0.0,0.0,nan,0.0,0.0,0.0,0.0,6.5008817e-06,inf,0.0,0.0,0.00042712069,0.0,0.0,0.0,0.0,0.0,0.0,0.0,0.0
4036000,3956000,5.6034154e-05,0.0,5.9237125e-05,2.2009883e-10,0.0,366.5393,0.0,0.0,0.0,0.0,0.0,0.0,0.0,3.405248e-06,0.0,0.0,nan,0.0,0.0,0.0,0.0,6.5008817e-06,inf,0.0,0.0,3.322561e-05,0.0,0.0,0.0,0.0,0.0,0.0,0.0,0.0
4044000,3964000,5.6034154e-05,0.0,5.9237125e-05,2.2009883e-10,0.0,366.5393,0.0,0.0,0.0,0.0,0.0,0.0,0.0,3.405248e-06,0.0,0.0,nan,0.0,0.0,0.0,0.0,6.5008817e-06,inf,0.0,0.0,0.0006613993,0.0,0.0,0.0,0.0,0.0,0.0,0.0,0.0
4052000,3972000,5.6034154e-05,0.0,5.9237125e-05,2.2009883e-10,0.0,366.5393,0.0,0.0,0.0,0.0,0.0,0.0,0.0,1.2680549e-06,0.0,0.0,nan,0.0,0.0,0.0,0.0,2.703362e-07,inf,0.0,0.0,0.00021923042,0.0,0.0,0.0,0.0,0.0,0.0,0.0,0.0
4060000,3980000,5.6034154e-05,0.0,5.9237125e-05,2.2009883e-10,0.0,366.5393,0.0,0.0,0.0,0.0,0.0,0.0,0.0,1.2680549e-06,0.0,0.0,nan,0.0,0.0,0.0,0.0,2.703362e-07,inf,0.0,0.0,0.0005829165,0.0,0.0,0.0,0.0,0.0,0.0,0.0,0.0
4068000,3988000,5.6034154e-05,0.0,5.9237125e-05,2.2009883e-10,0.0,366.5393,0.0,0.0,0.0,0.0,0.0,0.0,0.0,1.2680549e-06,0.0,0.0,nan,0.0,0.0,0.0,0.0,2.703362e-07,inf,0.0,0.0,0.00014963717,0.0,0.0,0.0,0.0,0.0,0.0,0.0,0.0
4076000,3996000,5.6034154e-05,0.0,5.9237125e-05,2.2009883e-10,0.0,366.5393,0.0,0.0,0.0,0.0,0.0,0.0,0.0,1.2680549e-06,0.0,0.0,nan,0.0,0.0,0.0,0.0,2.703362e-07,inf,0.0,0.0,0.00022700657,0.0,0.0,0.0,0.0,0.0,0.0,0.0,0.0
4084000,4004000,5.6034154e-05,0.0,5.9237125e-05,2.2009883e-10,0.0,366.5393,0.0,0.0,0.0,0.0,0.0,0.0,0.0,1.2680549e-06,0.0,0.0,nan,0.0,0.0,0.0,0.0,2.703362e-07,inf,0.0,0.0,0.000570033,0.0,0.0,0.0,0.0,0.0,0.0,0.0,0.0
4092000,4012000,5.6034154e-05,0.0,5.9237125e-05,2.2009883e-10,0.0,366.5393,0.0,0.0,0.0,0.0,0.0,0.0,0.0,1.2680549e-06,0.0,0.0,nan,0.0,0.0,0.0,0.0,2.703362e-07,inf,0.0,0.0,0.00046353985,0.0,0.0,0.0,0.0,0.0,0.0,0.0,0.0
4100000,4020000,5.6034154e-05,0.0,5.9237125e-05,2.2009883e-10,0.0,366.5393,0.0,0.0,0.0,0.0,0.0,0.0,0.0,1.2680549e-06,0.0,0.0,nan,0.0,0.0,0.0,0.0,2.703362e-07,inf,0.0,0.0,0.00015468031,0.0,0.0,0.0,0.0,0.0,0.0,0.0,0.0
4108000,4028000,5.6034154e-05,0.0,5.9237125e-05,2.2009883e-10,0.0,366.5393,0.0,0.0,0.0,0.0,0.0,0.0,0.0,2.681276e-07,0.0,0.0,nan,0.0,0.0,0.0,0.0,2.703362e-07,inf,0.0,0.0,0.0015404663,0.0,0.0,0.0,0.0,0.0,0.0,0.0,0.0
4116000,4036000,5.6034154e-05,0.0,5.9237125e-05,2.2009883e-10,0.0,366.5393,0.0,0.0,0.0,0.0,0.0,0.0,0.0,2.681276e-07,0.0,0.0,nan,0.0,0.0,0.0,0.0,2.703362e-07,inf,0.0,0.0,0.001507249,0.0,0.0,0.0,0.0,0.0,0.0,0.0,0.0
4124000,4044000,5.6034154e-05,0.0,5.9237125e-05,2.2009883e-10,0.0,366.5393,0.0,0.0,0.0,0.0,0.0,0.0,0.0,2.681276e-07,0.0,0.0,nan,0.0,0.0,0.0,0.0,0.00013744585,inf,0.0,0.0,0.0017318957,0.0,0.0,0.0,0.0,0.0,0.0,0.0,0.0
4132000,4052000,5.6034154e-05,0.0,5.9237125e-05,2.2009883e-10,0.0,366.5393,0.0,0.0,0.0,0.0,0.0,0.0,0.0,2.681276e-07,0.0,0.0,nan,0.0,0.0,0.0,0.0,0.00013744585,inf,0.0,0.0,0.00012515209,0.0,0.0,0.0,0.0,0.0,0.0,0.0,0.0
4140000,4060000,5.6034154e-05,0.0,5.9237125e-05,2.2009883e-10,0.0,366.5393,0.0,0.0,0.0,0.0,0.0,0.0,0.0,2.681276e-07,0.0,0.0,nan,0.0,0.0,0.0,0.0,0.00013744585,inf,0.0,0.0,0.00045076004,0.0,0.0,0.0,0.0,0.0,0.0,0.0,0.0
4148000,4068000,5.6034154e-05,0.0,5.9237125e-05,2.2009883e-10,0.0,366.5393,0.0,0.0,0.0,0.0,0.0,0.0,0.0,2.681276e-07,0.0,0.0,nan,0.0,0.0,0.0,0.0,0.00013744585,inf,0.0,0.0,0.000467817,0.0,0.0,0.0,0.0,0.0,0.0,0.0,0.0
4156000,4076000,5.6034154e-05,0.0,5.9237125e-05,2.2009883e-10,0.0,366.5393,0.0,0.0,0.0,0.0,0.0,0.0,0.0,2.681276e-07,0.0,0.0,nan,0.0,0.0,0.0,0.0,0.00013744585,inf,0.0,0.0,0.0023377705,0.0,0.0,0.0,0.0,0.0,0.0,0.0,0.0
4164000,4084000,5.6034154e-05,0.0,5.9237125e-05,2.2009883e-10,0.0,366.5393,0.0,0.0,0.0,0.0,0.0,0.0,0.0,2.681276e-07,0.0,0.0,nan,0.0,0.0,0.0,0.0,0.00013744585,inf,0.0,0.0,0.00031638466,0.0,0.0,0.0,0.0,0.0,0.0,0.0,0.0
4172000,4092000,5.6034154e-05,0.0,5.9237125e-05,2.2009883e-10,0.0,366.5393,0.0,0.0,0.0,0.0,0.0,0.0,0.0,1.8978904e-05,0.0,0.0,nan,0.0,0.0,0.0,0.0,0.00013744585,inf,0.0,0.0,0.0008379337,0.0,0.0,0.0,0.0,0.0,0.0,0.0,0.0
4180000,4100000,5.6034154e-05,0.0,5.9237125e-05,2.2009883e-10,0.0,366.5393,0.0,0.0,0.0,0.0,0.0,0.0,0.0,1.8978904e-05,0.0,0.0,nan,0.0,0.0,0.0,0.0,0.00013744585,inf,0.0,0.0,0.00044339546,0.0,0.0,0.0,0.0,0.0,0.0,0.0,0.0
4188000,4108000,5.6034154e-05,0.0,5.9237125e-05,2.2009883e-10,0.0,366.5393,0.0,0.0,0.0,0.0,0.0,0.0,0.0,1.8978904e-05,0.0,0.0,nan,0.0,0.0,0.0,0.0,0.00013744585,inf,0.0,0.0,0.0002480873,0.0,0.0,0.0,0.0,0.0,0.0,0.0,0.0
4196000,4116000,5.6034154e-05,0.0,5.9237125e-05,2.2009883e-10,0.0,366.5393,0.0,0.0,0.0,0.0,0.0,0.0,0.0,1.8978904e-05,0.0,0.0,nan,0.0,0.0,0.0,0.0,0.00027707935,inf,0.0,0.0,0.00083581166,0.0,0.0,0.0,0.0,0.0,0.0,0.0,0.0
4204000,4124000,5.6034154e-05,0.0,5.9237125e-05,2.2009883e-10,0.0,366.5393,0.0,0.0,0.0,0.0,0.0,0.0,0.0,1.8978904e-05,0.0,0.0,nan,0.0,0.0,0.0,0.0,0.00027707935,inf,0.0,0.0,4.551737e-05,0.0,0.0,0.0,0.0,0.0,0.0,0.0,0.0
4212000,4132000,5.6034154e-05,0.0,5.9237125e-05,2.2009883e-10,0.0,366.5393,0.0,0.0,0.0,0.0,0.0,0.0,0.0,1.8978904e-05,0.0,0.0,nan,0.0,0.0,0.0,0.0,0.00027707935,inf,0.0,0.0,0.0004958199,0.0,0.0,0.0,0.0,0.0,0.0,0.0,0.0
4220000,4140000,5.6034154e-05,0.0,5.9237125e-05,2.2009883e-10,0.0,366.5393,0.0,0.0,0.0,0.0,0.0,0.0,0.0,1.8978904e-05,0.0,0.0,nan,0.0,0.0,0.0,0.0,0.00027707935,inf,0.0,0.0,2.1787037e-06,0.0,0.0,0.0,0.0,0.0,0.0,0.0,0.0
4228000,4148000,5.6034154e-05,0.0,5.9237125e-05,2.2009883e-10,0.0,366.5393,0.0,0.0,0.0,0.0,0.0,0.0,0.0,1.07282396e-07,0.0,0.0,nan,0.0,0.0,0.0,0.0,0.00027707935,inf,0.0,0.0,0.00011199676,0.0,0.0,0.0,0.0,0.0,0.0,0.0,0.0
4236000,4156000,5.6034154e-05,0.0,5.9237125e-05,2.2009883e-10,0.0,366.5393,0.0,0.0,0.0,0.0,0.0,0.0,0.0,1.07282396e-07,0.0,0.0,nan,0.0,0.0,0.0,0.0,0.00027707935,inf,0.0,0.0,5.86814e-05,0.0,0.0,0.0,0.0,0.0,0.0,0.0,0.0
4244000,4164000,5.6034154e-05,0.0,5.9237125e-05,2.2009883e-10,0.0,366.5393,0.0,0.0,0.0,0.0,0.0,0.0,0.0,1.07282396e-07,0.0,0.0,nan,0.0,0.0,0.0,0.0,0.00027707935,inf,0.0,0.0,0.00011232571,0.0,0.0,0.0,0.0,0.0,0.0,0.0,0.0
4252000,4172000,5.6034154e-05,0.0,5.9237125e-05,2.2009883e-10,0.0,366.5393,0.0,0.0,0.0,0.0,0.0,0.0,0.0,1.07282396e-07,0.0,0.0,nan,0.0,0.0,0.0,0.0,0.00027707935,inf,0.0,0.0,2.2208791e-05,0.0,0.0,0.0,0.0,0.0,0.0,0.0,0.0
4260000,4180000,5.6034154e-05,0.0,5.9237125e-05,2.2009883e-10,0.0,366.5393,0.0,0.0,0.0,0.0,0.0,0.0,0.0,1.07282396e-07,0.0,0.0,nan,0.0,0.0,0.0,0.0,0.00027707935,inf,0.0,0.0,4.0284856e-05,0.0,0.0,0.0,0.0,0.0,0.0,0.0,0.0
4268000,4188000,5.6034154e-05,0.0,5.9237125e-05,2.2009883e-10,0.0,366.5393,0.0,0.0,0.0,0.0,0.0,0.0,0.0,1.07282396e-07,0.0,0.0,nan,0.0,0.0,0.0,0.0,0.0002216383,inf,0.0,0.0,0.00031590933,0.0,0.0,0.0,0.0,0.0,0.0,0.0,0.0
4276000,4196000,5.6034154e-05,0.0,5.9237125e-05,2.2009883e-10,0.0,366.5393,0.0,0.0,0.0,0.0,0.0,0.0,0.0,1.07282396e-07,0.0,0.0,nan,0.0,0.0,0.0,0.0,0.0002216383,inf,0.0,0.0,0.00021915964,0.0,0.0,0.0,0.0,0.0,0.0,0.0,0.0
4284000,4204000,5.6034154e-05,0.0,5.9237125e-05,2.2009883e-10,0.0,366.5393,0.0,0.0,0.0,0.0,0.0,0.0,0.0,1.07282396e-07,0.0,0.0,nan,0.0,0.0,0.0,0.0,0.0002216383,inf,0.0,0.0,0.0004665131,0.0,0.0,0.0,0.0,0.0,0.0,0.0,0.0
4292000,4212000,5.6034154e-05,0.0,5.9237125e-05,2.2009883e-10,0.0,366.5393,0.0,0.0,0.0,0.0,0.0,0.0,0.0,1.0827518e-05,0.0,0.0,nan,0.0,0.0,0.0,0.0,0.0002216383,inf,0.0,0.0,7.148859e-05,0.0,0.0,0.0,0.0,0.0,0.0,0.0,0.0
4300000,4220000,5.6034154e-05,0.0,5.9237125e-05,2.2009883e-10,0.0,366.5393,0.0,0.0,0.0,0.0,0.0,0.0,0.0,1.0827518e-05,0.0,0.0,nan,0.0,0.0,0.0,0.0,0.0002216383,inf,0.0,0.0,0.00015817005,0.0,0.0,0.0,0.0,0.0,0.0,0.0,0.0
4308000,4228000,5.6034154e-05,0.0,5.9237125e-05,2.2009883e-10,0.0,366.5393,0.0,0.0,0.0,0.0,0.0,0.0,0.0,1.0827518e-05,0.0,0.0,nan,0.0,0.0,0.0,0.0,0.0002216383,inf,0.0,0.0,0.000110364446,0.0,0.0,0.0,0.0,0.0,0.0,0.0,0.0
4316000,4236000,5.6034154e-05,0.0,5.9237125e-05,2.2009883e-10,0.0,366.5393,0.0,0.0,0.0,0.0,0.0,0.0,0.0,1.0827518e-05,0.0,0.0,nan,0.0,0.0,0.0,0.0,0.0002216383,inf,0.0,0.0,0.00015373083,0.0,0.0,0.0,0.0,0.0,0.0,0.0,0.0
4324000,4244000,5.6034154e-05,0.0,5.9237125e-05,2.2009883e-10,0.0,366.5393,0.0,0.0,0.0,0.0,0.0,0.0,0.0,1.0827518e-05,0.0,0.0,nan,0.0,0.0,0.0,0.0,0.0002216383,inf,0.0,0.0,0.00039761726,0.0,0.0,0.0,0.0,0.0,0.0,0.0,0.0
4332000,4252000,5.6034154e-05,0.0,5.9237125e-05,2.2009883e-10,0.0,366.5393,0.0,0.0,0.0,0.0,0.0,0.0,0.0,1.0827518e-05,0.0,0.0,nan,0.0,0.0,0.0,0.0,0.0002216383,inf,0.0,0.0,0.00012953772,0.0,0.0,0.0,0.0,0.0,0.0,0.0,0.0
4340000,4260000,5.6034154e-05,0.0,5.9237125e-05,2.2009883e-10,0.0,366.5393,0.0,0.0,0.0,0.0,0.0,0.0,0.0,1.0827518e-05,0.0,0.0,nan,0.0,0.0,0.0,0.0,4.169061e-05,inf,0.0,0.0,2.1378786e-05,0.0,0.0,0.0,0.0,0.0,0.0,0.0,0.0
4348000,4268000,5.6034154e-05,0.0,5.9237125e-05,2.2009883e-10,0.0,366.5393,0.0,0.0,0.0,0.0,0.0,0.0,0.0,5.809966e-09,0.0,0.0,nan,0.0,0.0,0.0,0.0,4.169061e-05,inf,0.0,0.0,0.00011148099,0.0,0.0,0.0,0.0,0.0,0.0,0.0,0.0
4356000,4276000,5.6034154e-05,0.0,5.9237125e-05,2.2009883e-10,0.0,366.5393,0.0,0.0,0.0,0.0,0.0,0.0,0.0,5.809966e-09,0.0,0.0,nan,0.0,0.0,0.0,0.0,4.169061e-05,inf,0.0,0.0,0.0005034862,0.0,0.0,0.0,0.0,0.0,0.0,0.0,0.0
4364000,4284000,5.6034154e-05,0.0,5.9237125e-05,2.2009883e-10,0.0,366.5393,0.0,0.0,0.0,0.0,0.0,0.0,0.0,5.809966e-09,0.0,0.0,nan,0.0,0.0,0.0,0.0,4.169061e-05,inf,0.0,0.0,0.00040113335,0.0,0.0,0.0,0.0,0.0,0.0,0.0,0.0
4372000,4292000,5.6034154e-05,0.0,5.9237125e-05,2.2009883e-10,0.0,366.5393,0.0,0.0,0.0,0.0,0.0,0.0,0.0,5.809966e-09,0.0,0.0,nan,0.0,0.0,0.0,0.0,4.169061e-05,inf,0.0,0.0,0.0006530122,0.0,0.0,0.0,0.0,0.0,0.0,0.0,0.0
4380000,4300000,5.6034154e-05,0.0,5.9237125e-05,2.2009883e-10,0.0,366.5393,0.0,0.0,0.0,0.0,0.0,0.0,0.0,5.809966e-09,0.0,0.0,nan,0.0,0.0,0.0,0.0,4.169061e-05,inf,0.0,0.0,0.00020662205,0.0,0.0,0.0,0.0,0.0,0.0,0.0,0.0
4388000,4308000,5.6034154e-05,0.0,5.9237125e-05,2.2009883e-10,0.0,366.5393,0.0,0.0,0.0,0.0,0.0,0.0,0.0,5.809966e-09,0.0,0.0,nan,0.0,0.0,0.0,0.0,4.169061e-05,inf,0.0,0.0,0.0009073921,0.0,0.0,0.0,0.0,0.0,0.0,0.0,0.0
4396000,4316000,1.3617297e-05,0.0,9.183207e-05,1.4461347e-08,0.0,1.102173e-10,0.0,0.0,0.0,0.0,0.0,0.0,0.0,5.809966e-09,0.0,0.0,nan,0.0,0.0,0.0,0.0,4.169061e-05,inf,0.0,0.0,0.0005107531,0.0,0.0,0.0,0.0,0.0,0.0,0.0,0.0
4404000,4324000,1.3617297e-05,0.0,9.183207e-05,1.4461347e-08,0.0,1.102173e-10,0.0,0.0,0.0,0.0,0.0,0.0,0.0,5.809966e-09,0.0,0.0,nan,0.0,0.0,0.0,0.0,0.00012452563,inf,0.0,0.0,0.0001129631,0.0,0.0,0.0,0.0,0.0,0.0,0.0,0.0
4412000,4332000,1.3617297e-05,0.0,9.183207e-05,1.4461347e-08,0.0,1.102173e-10,0.0,0.0,0.0,0.0,0.0,0.0,0.0,0.00013111743,0.0,0.0,nan,0.0,0.0,0.0,0.0,0.00012452563,inf,0.0,0.0,0.00025552828,0.0,0.0,0.0,0.0,0.0,0.0,0.0,0.0
4420000,4340000,1.3617297e-05,0.0,9.183207e-05,1.4461347e-08,0.0,1.102173e-10,0.0,0.0,0.0,0.0,0.0,0.0,0.0,0.00013111743,0.0,0.0,nan,0.0,0.0,0.0,0.0,0.00012452563,inf,0.0,0.0,0.00044694374,0.0,0.0,0.0,0.0,0.0,0.0,0.0,0.0
4428000,4348000,1.3617297e-05,0.0,9.183207e-05,1.4461347e-08,0.0,1.102173e-10,0.0,0.0,0.0,0.0,0.0,0.0,0.0,0.00013111743,0.0,0.0,nan,0.0,0.0,0.0,0.0,0.00012452563,inf,0.0,0.0,0.0004168843,0.0,0.0,0.0,0.0,0.0,0.0,0.0,0.0
4436000,4356000,1.3617297e-05,0.0,9.183207e-05,1.4461347e-08,0.0,1.102173e-10,0.0,0.0,0.0,0.0,0.0,0.0,0.0,0.00013111743,0.0,0.0,nan,0.0,0.0,0.0,0.0,0.00012452563,inf,0.0,0.0,0.00034062276,0.0,0.0,0.0,0.0,0.0,0.0,0.0,0.0
4444000,4364000,1.3617297e-05,0.0,9.183207e-05,1.4461347e-08,0.0,1.102173e-10,0.0,0.0,0.0,0.0,0.0,0.0,0.0,0.00013111743,0.0,0.0,nan,0.0,0.0,0.0,0.0,0.00012452563,inf,0.0,0.0,8.9556e-05,0.0,0.0,0.0,0.0,0.0,0.0,0.0,0.0
4452000,4372000,1.3617297e-05,0.0,9.183207e-05,1.4461347e-08,0.0,1.102173e-10,0.0,0.0,0.0,0.0,0.0,0.0,0.0,0.00013111743,0.0,0.0,nan,0.0,0.0,0.0,0.0,0.00012452563,inf,0.0,0.0,0.0002053604,0.0,0.0,0.0,0.0,0.0,0.0,0.0,0.0
4460000,4380000,1.3617297e-05,0.0,9.183207e-05,1.4461347e-08,0.0,1.102173e-10,0.0,0.0,0.0,0.0,0.0,0.0,0.0,0.00013111743,0.0,0.0,nan,0.0,0.0,0.0,0.0,0.00012452563,inf,0.0,0.0,0.00049451186,0.0,0.0,0.0,0.0,0.0,0.0,0.0,0.0
4468000,4388000,1.3617297e-05,0.0,9.183207e-05,1.4461347e-08,0.0,1.102173e-10,0.0,0.0,0.0,0.0,0.0,0.0,0.0,1.1094084e-05,0.0,0.0,nan,0.0,0.0,0.0,0.0,0.00012452563,inf,0.0,0.0,0.00032529508,0.0,0.0,0.0,0.0,0.0,0.0,0.0,0.0
4476000,4396000,1.3617297e-05,0.0,9.183207e-05,1.4461347e-08,0.0,1.102173e-10,0.0,0.0,0.0,0.0,0.0,0.0,0.0,1.1094084e-05,0.0,0.0,nan,0.0,0.0,0.0,0.0,8.9975365e-05,inf,0.0,0.0,0.00025267887,0.0,0.0,0.0,0.0,0.0,0.0,0.0,0.0
4484000,4404000,1.3617297e-05,0.0,9.183207e-05,1.4461347e-08,0.0,1.102173e-10,0.0,0.0,0.0,0.0,0.0,0.0,0.0,1.1094084e-05,0.0,0.0,nan,0.0,0.0,0.0,0.0,8.9975365e-05,inf,0.0,0.0,0.0004761645,0.0,0.0,0.0,0.0,0.0,0.0,0.0,0.0
4492000,4412000,1.3617297e-05,0.0,9.183207e-05,1.4461347e-08,0.0,1.102173e-10,0.0,0.0,0.0,0.0,0.0,0.0,0.0,1.1094084e-05,0.0,0.0,nan,0.0,0.0,0.0,0.0,8.9975365e-05,inf,0.0,0.0,0.00045512296,0.0,0.0,0.0,0.0,0.0,0.0,0.0,0.0
4500000,4420000,1.3617297e-05,0.0,9.183207e-05,1.4461347e-08,0.0,1.102173e-10,0.0,0.0,0.0,0.0,0.0,0.0,0.0,1.1094084e-05,0.0,0.0,nan,0.0,0.0,0.0,0.0,8.9975365e-05,inf,0.0,0.0,0.000436529,0.0,0.0,0.0,0.0,0.0,0.0,0.0,0.0
4508000,4428000,1.3617297e-05,0.0,9.183207e-05,1.4461347e-08,0.0,1.102173e-10,0.0,0.0,0.0,0.0,0.0,0.0,0.0,1.1094084e-05,0.0,0.0,nan,0.0,0.0,0.0,0.0,8.9975365e-05,inf,0.0,0.0,0.00045484057,0.0,0.0,0.0,0.0,0.0,0.0,0.0,0.0
4516000,4436000,1.3617297e-05,0.0,9.183207e-05,1.4461347e-08,0.0,1.102173e-10,0.0,0.0,0.0,0.0,0.0,0.0,0.0,1.1094084e-05,0.0,0.0,nan,0.0,0.0,0.0,0.0,8.9975365e-05,inf,0.0,0.0,0.00054732314,0.0,0.0,0.0,0.0,0.0,0.0,0.0,0.0
4524000,4444000,1.3617297e-05,0.0,9.183207e-05,1.4461347e-08,0.0,1.102173e-10,0.0,0.0,0.0,0.0,0.0,0.0,0.0,1.1094084e-05,0.0,0.0,nan,0.0,0.0,0.0,0.0,8.9975365e-05,inf,0.0,0.0,0.00019164314,0.0,0.0,0.0,0.0,0.0,0.0,0.0,0.0
4532000,4452000,1.3617297e-05,0.0,9.183207e-05,1.4461347e-08,0.0,1.102173e-10,0.0,0.0,0.0,0.0,0.0,0.0,0.0,0.00010824523,0.0,0.0,nan,0.0,0.0,0.0,0.0,8.9975365e-05,inf,0.0,0.0,0.00040365176,0.0,0.0,0.0,0.0,0.0,0.0,0.0,0.0
4540000,4460000,1.3617297e-05,0.0,9.183207e-05,1.4461347e-08,0.0,1.102173e-10,0.0,0.0,0.0,0.0,0.0,0.0,0.0,0.00010824523,0.0,0.0,nan,0.0,0.0,0.0,0.0,8.9975365e-05,inf,0.0,0.0,0.00047190074,0.0,0.0,0.0,0.0,0.0,0.0,0.0,0.0
4548000,4468000,1.3617297e-05,0.0,9.183207e-05,1.4461347e-08,0.0,1.102173e-10,0.0,0.0,0.0,0.0,0.0,0.0,0.0,0.00010824523,0.0,0.0,nan,0.0,0.0,0.0,0.0,0.00011659318,inf,0.0,0.0,3.787558e-05,0.0,0.0,0.0,0.0,0.0,0.0,0.0,0.0
4556000,4476000,1.3617297e-05,0.0,9.183207e-05,1.4461347e-08,0.0,1.102173e-10,0.0,0.0,0.0,0.0,0.0,0.0,0.0,0.00010824523,0.0,0.0,nan,0.0,0.0,0.0,0.0,0.00011659318,inf,0.0,0.0,0.00011111498,0.0,0.0,0.0,0.0,0.0,0.0,0.0,0.0
4564000,4484000,1.3617297e-05,0.0,9.183207e-05,1.4461347e-08,0.0,1.102173e-10,0.0,0.0,0.0,0.0,0.0,0.0,0.0,0.00010824523,0.0,0.0,nan,0.0,0.0,0.0,0.0,0.00011659318,inf,0.0,0.0,0.0002953241,0.0,0.0,0.0,0.0,0.0,0.0,0.0,0.0
4572000,4492000,1.3617297e-05,0.0,9.183207e-05,1.4461347e-08,0.0,1.102173e-10,0.0,0.0,0.0,0.0,0.0,0.0,0.0,0.00010824523,0.0,0.0,nan,0.0,0.0,0.0,0.0,0.00011659318,inf,0.0,0.0,5.7252204e-05,0.0,0.0,0.0,0.0,0.0,0.0,0.0,0.0
4580000,4500000,1.3617297e-05,0.0,9.183207e-05,1.4461347e-08,0.0,1.102173e-10,0.0,0.0,0.0,0.0,0.0,0.0,0.0,0.00010824523,0.0,0.0,nan,0.0,0.0,0.0,0.0,0.00011659318,inf,0.0,0.0,5.1040195e-05,0.0,0.0,0.0,0.0,0.0,0.0,0.0,0.0
4588000,4508000,1.3617297e-05,0.0,9.183207e-05,1.4461347e-08,0.0,1.102173e-10,0.0,0.0,0.0,0.0,0.0,0.0,0.0,3.273985e-08,0.0,0.0,nan,0.0,0.0,0.0,0.0,0.00011659318,inf,0.0,0.0,0.00022223372,0.0,0.0,0.0,0.0,0.0,0.0,0.0,0.0
4596000,4516000,1.3617297e-05,0.0,9.183207e-05,1.4461347e-08,0.0,1.102173e-10,0.0,0.0,0.0,0.0,0.0,0.0,0.0,3.273985e-08,0.0,0.0,nan,0.0,0.0,0.0,0.0,0.00011659318,inf,0.0,0.0,0.00060140266,0.0,0.0,0.0,0.0,0.0,0.0,0.0,0.0
4604000,4524000,1.3617297e-05,0.0,9.183207e-05,1.4461347e-08,0.0,1.102173e-10,0.0,0.0,0.0,0.0,0.0,0.0,0.0,3.273985e-08,0.0,0.0,nan,0.0,0.0,0.0,0.0,0.00011659318,inf,0.0,0.0,0.00012604037,0.0,0.0,0.0,0.0,0.0,0.0,0.0,0.0
4612000,4532000,1.3617297e-05,0.0,9.183207e-05,1.4461347e-08,0.0,1.102173e-10,0.0,0.0,0.0,0.0,0.0,0.0,0.0,3.273985e-08,0.0,0.0,nan,0.0,0.0,0.0,0.0,0.00011659318,inf,0.0,0.0,0.00025616854,0.0,0.0,0.0,0.0,0.0,0.0,0.0,0.0
4620000,4540000,1.3617297e-05,0.0,9.183207e-05,1.4461347e-08,0.0,1.102173e-10,0.0,0.0,0.0,0.0,0.0,0.0,0.0,3.273985e-08,0.0,0.0,nan,0.0,0.0,0.0,0.0,0.00015556866,inf,0.0,0.0,0.0002585697,0.0,0.0,0.0,0.0,0.0,0.0,0.0,0.0
4628000,4548000,1.3617297e-05,0.0,9.183207e-05,1.4461347e-08,0.0,1.102173e-10,0.0,0.0,0.0,0.0,0.0,0.0,0.0,3.273985e-08,0.0,0.0,nan,0.0,0.0,0.0,0.0,0.00015556866,inf,0.0,0.0,7.5138385e-05,0.0,0.0,0.0,0.0,0.0,0.0,0.0,0.0
4636000,4556000,1.3617297e-05,0.0,9.183207e-05,1.4461347e-08,0.0,1.102173e-10,0.0,0.0,0.0,0.0,0.0,0.0,0.0,3.273985e-08,0.0,0.0,nan,0.0,0.0,0.0,0.0,0.00015556866,inf,0.0,0.0,0.00080781657,0.0,0.0,0.0,0.0,0.0,0.0,0.0,0.0
4644000,4564000,1.3617297e-05,0.0,9.183207e-05,1.4461347e-08,0.0,1.102173e-10,0.0,0.0,0.0,0.0,0.0,0.0,0.0,2.8137098e-05,0.0,0.0,nan,0.0,0.0,0.0,0.0,0.00015556866,inf,0.0,0.0,0.000119779506,0.0,0.0,0.0,0.0,0.0,0.0,0.0,0.0
4652000,4572000,1.3617297e-05,0.0,9.183207e-05,1.4461347e-08,0.0,1.102173e-10,0.0,0.0,0.0,0.0,0.0,0.0,0.0,2.8137098e-05,0.0,0.0,nan,0.0,0.0,0.0,0.0,0.00015556866,inf,0.0,0.0,0.0005621718,0.0,0.0,0.0,0.0,0.0,0.0,0.0,0.0
4660000,4580000,1.3617297e-05,0.0,9.183207e-05,1.4461347e-08,0.0,1.102173e-10,0.0,0.0,0.0,0.0,0.0,0.0,0.0,2.8137098e-05,0.0,0.0,nan,0.0,0.0,0.0,0.0,0.00015556866,inf,0.0,0.0,0.0013904488,0.0,0.0,0.0,0.0,0.0,0.0,0.0,0.0
4668000,4588000,1.3617297e-05,0.0,9.183207e-05,1.4461347e-08,0.0,1.102173e-10,0.0,0.0,0.0,0.0,0.0,0.0,0.0,2.8137098e-05,0.0,0.0,nan,0.0,0.0,0.0,0.0,0.00015556866,inf,0.0,0.0,0.00078540284,0.0,0.0,0.0,0.0,0.0,0.0,0.0,0.0
4676000,4596000,1.3617297e-05,0.0,9.183207e-05,1.4461347e-08,0.0,1.102173e-10,0.0,0.0,0.0,0.0,0.0,0.0,0.0,2.8137098e-05,0.0,0.0,nan,0.0,0.0,0.0,0.0,0.00015556866,inf,0.0,0.0,0.0001541669,0.0,0.0,0.0,0.0,0.0,0.0,0.0,0.0
4684000,4604000,1.3617297e-05,0.0,9.183207e-05,1.4461347e-08,0.0,1.102173e-10,0.0,0.0,0.0,0.0,0.0,0.0,0.0,2.8137098e-05,0.0,0.0,nan,0.0,0.0,0.0,0.0,0.00015556866,inf,0.0,0.0,0.00013602727,0.0,0.0,0.0,0.0,0.0,0.0,0.0,0.0
4692000,4612000,1.3617297e-05,0.0,9.183207e-05,1.4461347e-08,0.0,1.102173e-10,0.0,0.0,0.0,0.0,0.0,0.0,0.0,2.8137098e-05,0.0,0.0,nan,0.0,0.0,0.0,0.0,1.4546513e-06,inf,0.0,0.0,0.0002738655,0.0,0.0,0.0,0.0,0.0,0.0,0.0,0.0
4700000,4620000,1.3617297e-05,0.0,9.183207e-05,1.4461347e-08,0.0,1.102173e-10,0.0,0.0,0.0,0.0,0.0,0.0,0.0,5.3039355e-07,0.0,0.0,nan,0.0,0.0,0.0,0.0,1.4546513e-06,inf,0.0,0.0,0.00024530172,0.0,0.0,0.0,0.0,0.0,0.0,0.0,0.0
4708000,4628000,1.3617297e-05,0.0,9.183207e-05,1.4461347e-08,0.0,1.102173e-10,0.0,0.0,0.0,0.0,0.0,0.0,0.0,5.3039355e-07,0.0,0.0,nan,0.0,0.0,0.0,0.0,1.4546513e-06,inf,0.0,0.0,0.00013113473,0.0,0.0,0.0,0.0,0.0,0.0,0.0,0.0
4716000,4636000,1.3617297e-05,0.0,9.183207e-05,1.4461347e-08,0.0,1.102173e-10,0.0,0.0,0.0,0.0,0.0,0.0,0.0,5.3039355e-07,0.0,0.0,nan,0.0,0.0,0.0,0.0,1.4546513e-06,inf,0.0,0.0,0.0010484405,0.0,0.0,0.0,0.0,0.0,0.0,0.0,0.0
4724000,4644000,1.3617297e-05,0.0,9.183207e-05,1.4461347e-08,0.0,1.102173e-10,0.0,0.0,0.0,0.0,0.0,0.0,0.0,5.3039355e-07,0.0,0.0,nan,0.0,0.0,0.0,0.0,1.4546513e-06,inf,0.0,0.0,0.00010082647,0.0,0.0,0.0,0.0,0.0,0.0,0.0,0.0
4732000,4652000,1.3617297e-05,0.0,9.183207e-05,1.4461347e-08,0.0,1.102173e-10,0.0,0.0,0.0,0.0,0.0,0.0,0.0,5.3039355e-07,0.0,0.0,nan,0.0,0.0,0.0,0.0,1.4546513e-06,inf,0.0,0.0,0.00010336062,0.0,0.0,0.0,0.0,0.0,0.0,0.0,0.0
4740000,4660000,1.3617297e-05,0.0,9.183207e-05,1.4461347e-08,0.0,1.102173e-10,0.0,0.0,0.0,0.0,0.0,0.0,0.0,5.3039355e-07,0.0,0.0,nan,0.0,0.0,0.0,0.0,1.4546513e-06,inf,0.0,0.0,0.0005132507,0.0,0.0,0.0,0.0,0.0,0.0,0.0,0.0
4748000,4668000,1.3617297e-05,0.0,9.183207e-05,1.4461347e-08,0.0,1.102173e-10,0.0,0.0,0.0,0.0,0.0,0.0,0.0,5.3039355e-07,0.0,0.0,nan,0.0,0.0,0.0,0.0,1.4546513e-06,inf,0.0,0.0,0.00028974068,0.0,0.0,0.0,0.0,0.0,0.0,0.0,0.0
4756000,4676000,1.3617297e-05,0.0,9.183207e-05,1.4461347e-08,0.0,1.102173e-10,0.0,0.0,0.0,0.0,0.0,0.0,0.0,1.6388205e-05,0.0,0.0,nan,0.0,0.0,0.0,0.0,1.4546513e-06,inf,0.0,0.0,0.0002710176,0.0,0.0,0.0,0.0,0.0,0.0,0.0,0.0
4764000,4684000,1.3617297e-05,0.0,9.183207e-05,1.4461347e-08,0.0,1.102173e-10,0.0,0.0,0.0,0.0,0.0,0.0,0.0,1.6388205e-05,0.0,0.0,nan,0.0,0.0,0.0,0.0,6.359444e-05,inf,0.0,0.0,0.0002576708,0.0,0.0,0.0,0.0,0.0,0.0,0.0,0.0
4772000,4692000,1.3617297e-05,0.0,9.183207e-05,1.4461347e-08,0.0,1.102173e-10,0.0,0.0,0.0,0.0,0.0,0.0,0.0,1.6388205e-05,0.0,0.0,nan,0.0,0.0,0.0,0.0,6.359444e-05,inf,0.0,0.0,0.00010616487,0.0,0.0,0.0,0.0,0.0,0.0,0.0,0.0
4780000,4700000,1.3617297e-05,0.0,9.183207e-05,1.4461347e-08,0.0,1.102173e-10,0.0,0.0,0.0,0.0,0.0,0.0,0.0,1.6388205e-05,0.0,0.0,nan,0.0,0.0,0.0,0.0,6.359444e-05,inf,0.0,0.0,0.0007222535,0.0,0.0,0.0,0.0,0.0,0.0,0.0,0.0
4788000,4708000,1.3617297e-05,0.0,9.183207e-05,1.4461347e-08,0.0,1.102173e-10,0.0,0.0,0.0,0.0,0.0,0.0,0.0,1.6388205e-05,0.0,0.0,nan,0.0,0.0,0.0,0.0,6.359444e-05,inf,0.0,0.0,0.0012537374,0.0,0.0,0.0,0.0,0.0,0.0,0.0,0.0
4796000,4716000,2.5239495e-05,0.0,6.0510865e-05,2.1086253e-06,0.0,2.3069395e-05,0.0,0.0,0.0,0.0,0.0,0.0,0.0,1.6388205e-05,0.0,0.0,nan,0.0,0.0,0.0,0.0,6.359444e-05,inf,0.0,0.0,0.0004602152,0.0,0.0,0.0,0.0,0.0,0.0,0.0,0.0
4804000,4724000,2.5239495e-05,0.0,6.0510865e-05,2.1086253e-06,0.0,2.3069395e-05,0.0,0.0,0.0,0.0,0.0,0.0,0.0,1.6388205e-05,0.0,0.0,nan,0.0,0.0,0.0,0.0,6.359444e-05,inf,0.0,0.0,0.0001209862,0.0,0.0,0.0,0.0,0.0,0.0,0.0,0.0
4812000,4732000,2.5239495e-05,0.0,6.0510865e-05,2.1086253e-06,0.0,2.3069395e-05,0.0,0.0,0.0,0.0,0.0,0.0,0.0,1.6388205e-05,0.0,0.0,nan,0.0,0.0,0.0,0.0,6.359444e-05,inf,0.0,0.0,3.9805713e-05,0.0,0.0,0.0,0.0,0.0,0.0,0.0,0.0
4820000,4740000,2.5239495e-05,0.0,6.0510865e-05,2.1086253e-06,0.0,2.3069395e-05,0.0,0.0,0.0,0.0,0.0,0.0,0.0,3.8868034e-06,0.0,0.0,nan,0.0,0.0,0.0,0.0,6.359444e-05,inf,0.0,0.0,0.0018551631,0.0,0.0,0.0,0.0,0.0,0.0,0.0,0.0
4828000,4748000,2.5239495e-05,0.0,6.0510865e-05,2.1086253e-06,0.0,2.3069395e-05,0.0,0.0,0.0,0.0,0.0,0.0,0.0,3.8868034e-06,0.0,0.0,nan,0.0,0.0,0.0,0.0,6.359444e-05,inf,0.0,0.0,0.00030463905,0.0,0.0,0.0,0.0,0.0,0.0,0.0,0.0
4836000,4756000,2.5239495e-05,0.0,6.0510865e-05,2.1086253e-06,0.0,2.3069395e-05,0.0,0.0,0.0,0.0,0.0,0.0,0.0,3.8868034e-06,0.0,0.0,nan,0.0,0.0,0.0,0.0,6.188113e-05,inf,0.0,0.0,0.0007236961,0.0,0.0,0.0,0.0,0.0,0.0,0.0,0.0
4844000,4764000,2.5239495e-05,0.0,6.0510865e-05,2.1086253e-06,0.0,2.3069395e-05,0.0,0.0,0.0,0.0,0.0,0.0,0.0,3.8868034e-06,0.0,0.0,nan,0.0,0.0,0.0,0.0,6.188113e-05,inf,0.0,0.0,0.00012652467,0.0,0.0,0.0,0.0,0.0,0.0,0.0,0.0
4852000,4772000,2.5239495e-05,0.0,6.0510865e-05,2.1086253e-06,0.0,2.3069395e-05,0.0,0.0,0.0,0.0,0.0,0.0,0.0,3.8868034e-06,0.0,0.0,nan,0.0,0.0,0.0,0.0,6.188113e-05,inf,0.0,0.0,0.0014969803,0.0,0.0,0.0,0.0,0.0,0.0,0.0,0.0
4860000,4780000,2.5239495e-05,0.0,6.0510865e-05,2.1086253e-06,0.0,2.3069395e-05,0.0,0.0,0.0,0.0,0.0,0.0,0.0,3.8868034e-06,0.0,0.0,nan,0.0,0.0,0.0,0.0,6.188113e-05,inf,0.0,0.0,7.4687225e-05,0.0,0.0,0.0,0.0,0.0,0.0,0.0,0.0
4868000,4788000,2.5239495e-05,0.0,6.0510865e-05,2.1086253e-06,0.0,2.3069395e-05,0.0,0.0,0.0,0.0,0.0,0.0,0.0,3.8868034e-06,0.0,0.0,nan,0.0,0.0,0.0,0.0,6.188113e-05,inf,0.0,0.0,0.00046733025,0.0,0.0,0.0,0.0,0.0,0.0,0.0,0.0
4876000,4796000,2.5239495e-05,0.0,6.0510865e-05,2.1086253e-06,0.0,2.3069395e-05,0.0,0.0,0.0,0.0,0.0,0.0,0.0,1.5202706e-05,0.0,0.0,nan,0.0,0.0,0.0,0.0,6.188113e-05,inf,0.0,0.0,0.0002054929,0.0,0.0,0.0,0.0,0.0,0.0,0.0,0.0
4884000,4804000,2.5239495e-05,0.0,6.0510865e-05,2.1086253e-06,0.0,2.3069395e-05,0.0,0.0,0.0,0.0,0.0,0.0,0.0,1.5202706e-05,0.0,0.0,nan,0.0,0.0,0.0,0.0,6.188113e-05,inf,0.0,0.0,0.0013884297,0.0,0.0,0.0,0.0,0.0,0.0,0.0,0.0
4892000,4812000,2.5239495e-05,0.0,6.0510865e-05,2.1086253e-06,0.0,2.3069395e-05,0.0,0.0,0.0,0.0,0.0,0.0,0.0,1.5202706e-05,0.0,0.0,nan,0.0,0.0,0.0,0.0,6.188113e-05,inf,0.0,0.0,0.0009355291,0.0,0.0,0.0,0.0,0.0,0.0,0.0,0.0
4900000,4820000,2.5239495e-05,0.0,6.0510865e-05,2.1086253e-06,0.0,2.3069395e-05,0.0,0.0,0.0,0.0,0.0,0.0,0.0,1.5202706e-05,0.0,0.0,nan,0.0,0.0,0.0,0.0,6.188113e-05,inf,0.0,0.0,0.0007499366,0.0,0.0,0.0,0.0,0.0,0.0,0.0,0.0
4908000,4828000,2.5239495e-05,0.0,6.0510865e-05,2.1086253e-06,0.0,2.3069395e-05,0.0,0.0,0.0,0.0,0.0,0.0,0.0,1.5202706e-05,0.0,0.0,nan,0.0,0.0,0.0,0.0,0.00041487656,inf,0.0,0.0,0.00095050957,0.0,0.0,0.0,0.0,0.0,0.0,0.0,0.0
4916000,4836000,2.5239495e-05,0.0,6.0510865e-05,2.1086253e-06,0.0,2.3069395e-05,0.0,0.0,0.0,0.0,0.0,0.0,0.0,1.5202706e-05,0.0,0.0,nan,0.0,0.0,0.0,0.0,0.00041487656,inf,0.0,0.0,0.00040335645,0.0,0.0,0.0,0.0,0.0,0.0,0.0,0.0
4924000,4844000,2.5239495e-05,0.0,6.0510865e-05,2.1086253e-06,0.0,2.3069395e-05,0.0,0.0,0.0,0.0,0.0,0.0,0.0,1.5202706e-05,0.0,0.0,nan,0.0,0.0,0.0,0.0,0.00041487656,inf,0.0,0.0,1.7974047e-05,0.0,0.0,0.0,0.0,0.0,0.0,0.0,0.0
4932000,4852000,2.5239495e-05,0.0,6.0510865e-05,2.1086253e-06,0.0,2.3069395e-05,0.0,0.0,0.0,0.0,0.0,0.0,0.0,1.5202706e-05,0.0,0.0,nan,0.0,0.0,0.0,0.0,0.00041487656,inf,0.0,0.0,0.00017588302,0.0,0.0,0.0,0.0,0.0,0.0,0.0,0.0
4940000,4860000,2.5239495e-05,0.0,6.0510865e-05,2.1086253e-06,0.0,2.3069395e-05,0.0,0.0,0.0,0.0,0.0,0.0,0.0,5.243614e-06,0.0,0.0,nan,0.0,0.0,0.0,0.0,0.00041487656,inf,0.0,0.0,0.00018736861,0.0,0.0,0.0,0.0,0.0,0.0,0.0,0.0
4948000,4868000,2.5239495e-05,0.0,6.0510865e-05,2.1086253e-06,0.0,2.3069395e-05,0.0,0.0,0.0,0.0,0.0,0.0,0.0,5.243614e-06,0.0,0.0,nan,0.0,0.0,0.0,0.0,0.00041487656,inf,0.0,0.0,0.00034738766,0.0,0.0,0.0,0.0,0.0,0.0,0.0,0.0
4956000,4876000,2.5239495e-05,0.0,6.0510865e-05,2.1086253e-06,0.0,2.3069395e-05,0.0,0.0,0.0,0.0,0.0,0.0,0.0,5.243614e-06,0.0,0.0,nan,0.0,0.0,0.0,0.0,0.00041487656,inf,0.0,0.0,0.0008259968,0.0,0.0,0.0,0.0,0.0,0.0,0.0,0.0
4964000,4884000,2.5239495e-05,0.0,6.0510865e-05,2.1086253e-06,0.0,2.3069395e-05,0.0,0.0,0.0,0.0,0.0,0.0,0.0,5.243614e-06,0.0,0.0,nan,0.0,0.0,0.0,0.0,0.00041487656,inf,0.0,0.0,0.00029319682,0.0,0.0,0.0,0.0,0.0,0.0,0.0,0.0
4972000,4892000,2.5239495e-05,0.0,6.0510865e-05,2.1086253e-06,0.0,2.3069395e-05,0.0,0.0,0.0,0.0,0.0,0.0,0.0,5.243614e-06,0.0,0.0,nan,0.0,0.0,0.0,0.0,6.706184e-05,inf,0.0,0.0,0.00026624827,0.0,0.0,0.0,0.0,0.0,0.0,0.0,0.0
4980000,4900000,2.5239495e-05,0.0,6.0510865e-05,2.1086253e-06,0.0,2.3069395e-05,0.0,0.0,0.0,0.0,0.0,0.0,0.0,5.243614e-06,0.0,0.0,nan,0.0,0.0,0.0,0.0,6.706184e-05,inf,0.0,0.0,0.0012040603,0.0,0.0,0.0,0.0,0.0,0.0,0.0,0.0
4988000,4908000,2.5239495e-05,0.0,6.0510865e-05,2.1086253e-06,0.0,2.3069395e-05,0.0,0.0,0.0,0.0,0.0,0.0,0.0,5.243614e-06,0.0,0.0,nan,0.0,0.0,0.0,0.0,6.706184e-05,inf,0.0,0.0,0.0009606857,0.0,0.0,0.0,0.0,0.0,0.0,0.0,0.0
4996000,4916000,2.5239495e-05,0.0,6.0510865e-05,2.1086253e-06,0.0,2.3069395e-05,0.0,0.0,0.0,0.0,0.0,0.0,0.0,3.1950021e-06,0.0,0.0,nan,0.0,0.0,0.0,0.0,6.706184e-05,inf,0.0,0.0,9.007842e-05,0.0,0.0,0.0,0.0,0.0,0.0,0.0,0.0
5004000,4924000,2.5239495e-05,0.0,6.0510865e-05,2.1086253e-06,0.0,2.3069395e-05,0.0,0.0,0.0,0.0,0.0,0.0,0.0,3.1950021e-06,0.0,0.0,nan,0.0,0.0,0.0,0.0,6.706184e-05,inf,0.0,0.0,0.00046595692,0.0,0.0,0.0,0.0,0.0,0.0,0.0,0.0
5012000,4932000,2.5239495e-05,0.0,6.0510865e-05,2.1086253e-06,0.0,2.3069395e-05,0.0,0.0,0.0,0.0,0.0,0.0,0.0,3.1950021e-06,0.0,0.0,nan,0.0,0.0,0.0,0.0,6.706184e-05,inf,0.0,0.0,0.00062205654,0.0,0.0,0.0,0.0,0.0,0.0,0.0,0.0
5020000,4940000,2.5239495e-05,0.0,6.0510865e-05,2.1086253e-06,0.0,2.3069395e-05,0.0,0.0,0.0,0.0,0.0,0.0,0.0,3.1950021e-06,0.0,0.0,nan,0.0,0.0,0.0,0.0,6.706184e-05,inf,0.0,0.0,4.6582113e-06,0.0,0.0,0.0,0.0,0.0,0.0,0.0,0.0
5028000,4948000,2.5239495e-05,0.0,6.0510865e-05,2.1086253e-06,0.0,2.3069395e-05,0.0,0.0,0.0,0.0,0.0,0.0,0.0,3.1950021e-06,0.0,0.0,nan,0.0,0.0,0.0,0.0,6.706184e-05,inf,0.0,0.0,0.0008911017,0.0,0.0,0.0,0.0,0.0,0.0,0.0,0.0
5036000,4956000,2.5239495e-05,0.0,6.0510865e-05,2.1086253e-06,0.0,2.3069395e-05,0.0,0.0,0.0,0.0,0.0,0.0,0.0,3.1950021e-06,0.0,0.0,nan,0.0,0.0,0.0,0.0,6.706184e-05,inf,0.0,0.0,0.00027048693,0.0,0.0,0.0,0.0,0.0,0.0,0.0,0.0
5044000,4964000,2.5239495e-05,0.0,6.0510865e-05,2.1086253e-06,0.0,2.3069395e-05,0.0,0.0,0.0,0.0,0.0,0.0,0.0,3.1950021e-06,0.0,0.0,nan,0.0,0.0,0.0,0.0,0.00038360612,inf,0.0,0.0,0.0001820496,0.0,0.0,0.0,0.0,0.0,0.0,0.0,0.0
5052000,4972000,2.5239495e-05,0.0,6.0510865e-05,2.1086253e-06,0.0,2.3069395e-05,0.0,0.0,0.0,0.0,0.0,0.0,0.0,3.1950021e-06,0.0,0.0,nan,0.0,0.0,0.0,0.0,0.00038360612,inf,0.0,0.0,7.6494616e-05,0.0,0.0,0.0,0.0,0.0,0.0,0.0,0.0
5060000,4980000,2.5239495e-05,0.0,6.0510865e-05,2.1086253e-06,0.0,2.3069395e-05,0.0,0.0,0.0,0.0,0.0,0.0,0.0,2.9644652e-06,0.0,0.0,nan,0.0,0.0,0.0,0.0,0.00038360612,inf,0.0,0.0,0.0012216921,0.0,0.0,0.0,0.0,0.0,0.0,0.0,0.0
5068000,4988000,2.5239495e-05,0.0,6.0510865e-05,2.1086253e-06,0.0,2.3069395e-05,0.0,0.0,0.0,0.0,0.0,0.0,0.0,2.9644652e-06,0.0,0.0,nan,0.0,0.0,0.0,0.0,0.00038360612,inf,0.0,0.0,0.00036381837,0.0,0.0,0.0,0.0,0.0,0.0,0.0,0.0
5076000,4996000,2.5239495e-05,0.0,6.0510865e-05,2.1086253e-06,0.0,2.3069395e-05,0.0,0.0,0.0,0.0,0.0,0.0,0.0,2.9644652e-06,0.0,0.0,nan,0.0,0.0,0.0,0.0,0.00038360612,inf,0.0,0.0,0.00058338925,0.0,0.0,0.0,0.0,0.0,0.0,0.0,0.0
5084000,5004000,2.5239495e-05,0.0,6.0510865e-05,2.1086253e-06,0.0,2.3069395e-05,0.0,0.0,0.0,0.0,0.0,0.0,0.0,2.9644652e-06,0.0,0.0,nan,0.0,0.0,0.0,0.0,0.00038360612,inf,0.0,0.0,0.0026574444,0.0,0.0,0.0,0.0,0.0,0.0,0.0,0.0
5092000,5012000,2.5239495e-05,0.0,6.0510865e-05,2.1086253e-06,0.0,2.3069395e-05,0.0,0.0,0.0,0.0,0.0,0.0,0.0,2.9644652e-06,0.0,0.0,nan,0.0,0.0,0.0,0.0,0.00038360612,inf,0.0,0.0,0.0011486335,0.0,0.0,0.0,0.0,0.0,0.0,0.0,0.0
5100000,5020000,2.5239495e-05,0.0,6.0510865e-05,2.1086253e-06,0.0,2.3069395e-05,0.0,0.0,0.0,0.0,0.0,0.0,0.0,2.9644652e-06,0.0,0.0,nan,0.0,0.0,0.0,0.0,0.00038360612,inf,0.0,0.0,0.00011545136,0.0,0.0,0.0,0.0,0.0,0.0,0.0,0.0
5108000,5028000,2.5239495e-05,0.0,6.0510865e-05,2.1086253e-06,0.0,2.3069395e-05,0.0,0.0,0.0,0.0,0.0,0.0,0.0,2.9644652e-06,0.0,0.0,nan,0.0,0.0,0.0,0.0,0.00038360612,inf,0.0,0.0,0.0003487681,0.0,0.0,0.0,0.0,0.0,0.0,0.0,0.0
5116000,5036000,2.5239495e-05,0.0,6.0510865e-05,2.1086253e-06,0.0,2.3069395e-05,0.0,0.0,0.0,0.0,0.0,0.0,0.0,9.5189735e-06,0.0,0.0,nan,0.0,0.0,0.0,0.0,9.719447e-05,inf,0.0,0.0,0.00038685152,0.0,0.0,0.0,0.0,0.0,0.0,0.0,0.0
5124000,5044000,2.5239495e-05,0.0,6.0510865e-05,2.1086253e-06,0.0,2.3069395e-05,0.0,0.0,0.0,0.0,0.0,0.0,0.0,9.5189735e-06,0.0,0.0,nan,0.0,0.0,0.0,0.0,9.719447e-05,inf,0.0,0.0,8.55684e-05,0.0,0.0,0.0,0.0,0.0,0.0,0.0,0.0
5132000,5052000,2.5239495e-05,0.0,6.0510865e-05,2.1086253e-06,0.0,2.3069395e-05,0.0,0.0,0.0,0.0,0.0,0.0,0.0,9.5189735e-06,0.0,0.0,nan,0.0,0.0,0.0,0.0,9.719447e-05,inf,0.0,0.0,9.42376e-05,0.0,0.0,0.0,0.0,0.0,0.0,0.0,0.0
5140000,5060000,2.5239495e-05,0.0,6.0510865e-05,2.1086253e-06,0.0,2.3069395e-05,0.0,0.0,0.0,0.0,0.0,0.0,0.0,9.5189735e-06,0.0,0.0,nan,0.0,0.0,0.0,0.0,9.719447e-05,inf,0.0,0.0,0.00024202107,0.0,0.0,0.0,0.0,0.0,0.0,0.0,0.0
5148000,5068000,2.5239495e-05,0.0,6.0510865e-05,2.1086253e-06,0.0,2.3069395e-05,0.0,0.0,0.0,0.0,0.0,0.0,0.0,9.5189735e-06,0.0,0.0,nan,0.0,0.0,0.0,0.0,9.719447e-05,inf,0.0,0.0,0.00039322092,0.0,0.0,0.0,0.0,0.0,0.0,0.0,0.0
5156000,5076000,2.5239495e-05,0.0,6.0510865e-05,2.1086253e-06,0.0,2.3069395e-05,0.0,0.0,0.0,0.0,0.0,0.0,0.0,9.5189735e-06,0.0,0.0,nan,0.0,0.0,0.0,0.0,9.719447e-05,inf,0.0,0.0,0.00012809898,0.0,0.0,0.0,0.0,0.0,0.0,0.0,0.0
5164000,5084000,2.5239495e-05,0.0,6.0510865e-05,2.1086253e-06,0.0,2.3069395e-05,0.0,0.0,0.0,0.0,0.0,0.0,0.0,9.5189735e-06,0.0,0.0,nan,0.0,0.0,0.0,0.0,9.719447e-05,inf,0.0,0.0,8.375575e-05,0.0,0.0,0.0,0.0,0.0,0.0,0.0,0.0
5172000,5092000,2.5239495e-05,0.0,6.0510865e-05,2.1086253e-06,0.0,2.3069395e-05,0.0,0.0,0.0,0.0,0.0,0.0,0.0,9.5189735e-06,0.0,0.0,nan,0.0,0.0,0.0,0.0,9.719447e-05,inf,0.0,0.0,0.00012388953,0.0,0.0,0.0,0.0,0.0,0.0,0.0,0.0
5180000,5100000,2.5239495e-05,0.0,6.0510865e-05,2.1086253e-06,0.0,2.3069395e-05,0.0,0.0,0.0,0.0,0.0,0.0,0.0,5.4748275e-06,0.0,0.0,nan,0.0,0.0,0.0,0.0,9.719447e-05,inf,0.0,0.0,0.0002500267,0.0,0.0,0.0,0.0,0.0,0.0,0.0,0.0
5188000,5108000,2.5239495e-05,0.0,6.0510865e-05,2.1086253e-06,0.0,2.3069395e-05,0.0,0.0,0.0,0.0,0.0,0.0,0.0,5.4748275e-06,0.0,0.0,nan,0.0,0.0,0.0,0.0,3.4192064e-05,inf,0.0,0.0,0.00041046884,0.0,0.0,0.0,0.0,0.0,0.0,0.0,0.0
5196000,5116000,2.811032e-05,0.0,6.984583e-05,2.343723e-06,0.0,3.3050197e-05,0.0,0.0,0.0,0.0,0.0,0.0,0.0,5.4748275e-06,0.0,0.0,nan,0.0,0.0,0.0,0.0,3.4192064e-05,inf,0.0,0.0,0.0004838779,0.0,0.0,0.0,0.0,0.0,0.0,0.0,0.0
5204000,5124000,2.811032e-05,0.0,6.984583e-05,2.343723e-06,0.0,3.3050197e-05,0.0,0.0,0.0,0.0,0.0,0.0,0.0,5.4748275e-06,0.0,0.0,nan,0.0,0.0,0.0,0.0,3.4192064e-05,inf,0.0,0.0,0.0006964688,0.0,0.0,0.0,0.0,0.0,0.0,0.0,0.0
5212000,5132000,2.811032e-05,0.0,6.984583e-05,2.343723e-06,0.0,3.3050197e-05,0.0,0.0,0.0,0.0,0.0,0.0,0.0,5.4748275e-06,0.0,0.0,nan,0.0,0.0,0.0,0.0,3.4192064e-05,inf,0.0,0.0,0.00067938026,0.0,0.0,0.0,0.0,0.0,0.0,0.0,0.0
5220000,5140000,2.811032e-05,0.0,6.984583e-05,2.343723e-06,0.0,3.3050197e-05,0.0,0.0,0.0,0.0,0.0,0.0,0.0,5.4748275e-06,0.0,0.0,nan,0.0,0.0,0.0,0.0,3.4192064e-05,inf,0.0,0.0,4.913412e-06,0.0,0.0,0.0,0.0,0.0,0.0,0.0,0.0
5228000,5148000,2.811032e-05,0.0,6.984583e-05,2.343723e-06,0.0,3.3050197e-05,0.0,0.0,0.0,0.0,0.0,0.0,0.0,5.4748275e-06,0.0,0.0,nan,0.0,0.0,0.0,0.0,3.4192064e-05,inf,0.0,0.0,0.00014577943,0.0,0.0,0.0,0.0,0.0,0.0,0.0,0.0
5236000,5156000,2.811032e-05,0.0,6.984583e-05,2.343723e-06,0.0,3.3050197e-05,0.0,0.0,0.0,0.0,0.0,0.0,0.0,1.2957172e-07,0.0,0.0,nan,0.0,0.0,0.0,0.0,3.4192064e-05,inf,0.0,0.0,5.734195e-05,0.0,0.0,0.0,0.0,0.0,0.0,0.0,0.0
5244000,5164000,2.811032e-05,0.0,6.984583e-05,2.343723e-06,0.0,3.3050197e-05,0.0,0.0,0.0,0.0,0.0,0.0,0.0,1.2957172e-07,0.0,0.0,nan,0.0,0.0,0.0,0.0,3.4192064e-05,inf,0.0,0.0,0.00012521578,0.0,0.0,0.0,0.0,0.0,0.0,0.0,0.0
5252000,5172000,2.811032e-05,0.0,6.984583e-05,2.343723e-06,0.0,3.3050197e-05,0.0,0.0,0.0,0.0,0.0,0.0,0.0,1.2957172e-07,0.0,0.0,nan,0.0,0.0,0.0,0.0,3.4192064e-05,inf,0.0,0.0,0.00049029244,0.0,0.0,0.0,0.0,0.0,0.0,0.0,0.0
5260000,5180000,2.811032e-05,0.0,6.984583e-05,2.343723e-06,0.0,3.3050197e-05,0.0,0.0,0.0,0.0,0.0,0.0,0.0,1.2957172e-07,0.0,0.0,nan,0.0,0.0,0.0,0.0,0.00013472831,inf,0.0,0.0,0.0009986359,0.0,0.0,0.0,0.0,0.0,0.0,0.0,0.0
5268000,5188000,2.811032e-05,0.0,6.984583e-05,2.343723e-06,0.0,3.3050197e-05,0.0,0.0,0.0,0.0,0.0,0.0,0.0,1.2957172e-07,0.0,0.0,nan,0.0,0.0,0.0,0.0,0.00013472831,inf,0.0,0.0,9.696103e-05,0.0,0.0,0.0,0.0,0.0,0.0,0.0,0.0
5276000,5196000,2.811032e-05,0.0,6.984583e-05,2.343723e-06,0.0,3.3050197e-05,0.0,0.0,0.0,0.0,0.0,0.0,0.0,1.2957172e-07,0.0,0.0,nan,0.0,0.0,0.0,0.0,0.00013472831,inf,0.0,0.0,0.00041257107,0.0,0.0,0.0,0.0,0.0,0.0,0.0,0.0
5284000,5204000,2.811032e-05,0.0,6.984583e-05,2.343723e-06,0.0,3.3050197e-05,0.0,0.0,0.0,0.0,0.0,0.0,0.0,1.2957172e-07,0.0,0.0,nan,0.0,0.0,0.0,0.0,0.00013472831,inf,0.0,0.0,1.4533528e-06,0.0,0.0,0.0,0.0,0.0,0.0,0.0,0.0
5292000,5212000,2.811032e-05,0.0,6.984583e-05,2.343723e-06,0.0,3.3050197e-05,0.0,0.0,0.0,0.0,0.0,0.0,0.0,1.2957172e-07,0.0,0.0,nan,0.0,0.0,0.0,0.0,0.00013472831,inf,0.0,0.0,0.0006380436,0.0,0.0,0.0,0.0,0.0,0.0,0.0,0.0
5300000,5220000,2.811032e-05,0.0,6.984583e-05,2.343723e-06,0.0,3.3050197e-05,0.0,0.0,0.0,0.0,0.0,0.0,0.0,1.0905743e-05,0.0,0.0,nan,0.0,0.0,0.0,0.0,0.00013472831,inf,0.0,0.0,1.0183497e-05,0.0,0.0,0.0,0.0,0.0,0.0,0.0,0.0
5308000,5228000,2.811032e-05,0.0,6.984583e-05,2.343723e-06,0.0,3.3050197e-05,0.0,0.0,0.0,0.0,0.0,0.0,0.0,1.0905743e-05,0.0,0.0,nan,0.0,0.0,0.0,0.0,0.00013472831,inf,0.0,0.0,0.000113543305,0.0,0.0,0.0,0.0,0.0,0.0,0.0,0.0
5316000,5236000,2.811032e-05,0.0,6.984583e-05,2.343723e-06,0.0,3.3050197e-05,0.0,0.0,0.0,0.0,0.0,0.0,0.0,1.0905743e-05,0.0,0.0,nan,0.0,0.0,0.0,0.0,0.00013472831,inf,0.0,0.0,0.00083854824,0.0,0.0,0.0,0.0,0.0,0.0,0.0,0.0
5324000,5244000,2.811032e-05,0.0,6.984583e-05,2.343723e-06,0.0,3.3050197e-05,0.0,0.0,0.0,0.0,0.0,0.0,0.0,1.0905743e-05,0.0,0.0,nan,0.0,0.0,0.0,0.0,2.442529e-05,inf,0.0,0.0,0.00067053345,0.0,0.0,0.0,0.0,0.0,0.0,0.0,0.0
5332000,5252000,2.811032e-05,0.0,6.984583e-05,2.343723e-06,0.0,3.3050197e-05,0.0,0.0,0.0,0.0,0.0,0.0,0.0,1.0905743e-05,0.0,0.0,nan,0.0,0.0,0.0,0.0,2.442529e-05,inf,0.0,0.0,8.0300895e-05,0.0,0.0,0.0,0.0,0.0,0.0,0.0,0.0
5340000,5260000,2.811032e-05,0.0,6.984583e-05,2.343723e-06,0.0,3.3050197e-05,0.0,0.0,0.0,0.0,0.0,0.0,0.0,1.0905743e-05,0.0,0.0,nan,0.0,0.0,0.0,0.0,2.442529e-05,inf,0.0,0.0,0.00016643392,0.0,0.0,0.0,0.0,0.0,0.0,0.0,0.0
5348000,5268000,2.811032e-05,0.0,6.984583e-05,2.343723e-06,0.0,3.3050197e-05,0.0,0.0,0.0,0.0,0.0,0.0,0.0,1.0905743e-05,0.0,0.0,nan,0.0,0.0,0.0,0.0,2.442529e-05,inf,0.0,0.0,3.904528e-05,0.0,0.0,0.0,0.0,0.0,0.0,0.0,0.0
5356000,5276000,2.811032e-05,0.0,6.984583e-05,2.343723e-06,0.0,3.3050197e-05,0.0,0.0,0.0,0.0,0.0,0.0,0.0,5.443141e-05,0.0,0.0,nan,0.0,0.0,0.0,0.0,2.442529e-05,inf,0.0,0.0,2.7690644e-06,0.0,0.0,0.0,0.0,0.0,0.0,0.0,0.0
5364000,5284000,2.811032e-05,0.0,6.984583e-05,2.343723e-06,0.0,3.3050197e-05,0.0,0.0,0.0,0.0,0.0,0.0,0.0,5.443141e-05,0.0,0.0,nan,0.0,0.0,0.0,0.0,2.442529e-05,inf,0.0,0.0,0.00037780957,0.0,0.0,0.0,0.0,0.0,0.0,0.0,0.0
5372000,5292000,2.811032e-05,0.0,6.984583e-05,2.343723e-06,0.0,3.3050197e-05,0.0,0.0,0.0,0.0,0.0,0.0,0.0,5.443141e-05,0.0,0.0,nan,0.0,0.0,0.0,0.0,2.442529e-05,inf,0.0,0.0,6.826184e-07,0.0,0.0,0.0,0.0,0.0,0.0,0.0,0.0
5380000,5300000,2.811032e-05,0.0,6.984583e-05,2.343723e-06,0.0,3.3050197e-05,0.0,0.0,0.0,0.0,0.0,0.0,0.0,5.443141e-05,0.0,0.0,nan,0.0,0.0,0.0,0.0,2.442529e-05,inf,0.0,0.0,0.0005387397,0.0,0.0,0.0,0.0,0.0,0.0,0.0,0.0
5388000,5308000,2.811032e-05,0.0,6.984583e-05,2.343723e-06,0.0,3.3050197e-05,0.0,0.0,0.0,0.0,0.0,0.0,0.0,5.443141e-05,0.0,0.0,nan,0.0,0.0,0.0,0.0,2.442529e-05,inf,0.0,0.0,0.00047237662,0.0,0.0,0.0,0.0,0.0,0.0,0.0,0.0
5396000,5316000,2.811032e-05,0.0,6.984583e-05,2.343723e-06,0.0,3.3050197e-05,0.0,0.0,0.0,0.0,0.0,0.0,0.0,5.443141e-05,0.0,0.0,nan,0.0,0.0,0.0,0.0,1.2004377e-06,inf,0.0,0.0,0.00040999058,0.0,0.0,0.0,0.0,0.0,0.0,0.0,0.0
5404000,5324000,2.811032e-05,0.0,6.984583e-05,2.343723e-06,0.0,3.3050197e-05,0.0,0.0,0.0,0.0,0.0,0.0,0.0,5.443141e-05,0.0,0.0,nan,0.0,0.0,0.0,0.0,1.2004377e-06,inf,0.0,0.0,0.0004291766,0.0,0.0,0.0,0.0,0.0,0.0,0.0,0.0
5412000,5332000,2.811032e-05,0.0,6.984583e-05,2.343723e-06,0.0,3.3050197e-05,0.0,0.0,0.0,0.0,0.0,0.0,0.0,5.443141e-05,0.0,0.0,nan,0.0,0.0,0.0,0.0,1.2004377e-06,inf,0.0,0.0,1.09747725e-05,0.0,0.0,0.0,0.0,0.0,0.0,0.0,0.0
5420000,5340000,2.811032e-05,0.0,6.984583e-05,2.343723e-06,0.0,3.3050197e-05,0.0,0.0,0.0,0.0,0.0,0.0,0.0,1.5481963e-05,0.0,0.0,nan,0.0,0.0,0.0,0.0,1.2004377e-06,inf,0.0,0.0,0.0007722087,0.0,0.0,0.0,0.0,0.0,0.0,0.0,0.0
5428000,5348000,2.811032e-05,0.0,6.984583e-05,2.343723e-06,0.0,3.3050197e-05,0.0,0.0,0.0,0.0,0.0,0.0,0.0,1.5481963e-05,0.0,0.0,nan,0.0,0.0,0.0,0.0,1.2004377e-06,inf,0.0,0.0,0.00012645702,0.0,0.0,0.0,0.0,0.0,0.0,0.0,0.0
5436000,5356000,2.811032e-05,0.0,6.984583e-05,2.343723e-06,0.0,3.3050197e-05,0.0,0.0,0.0,0.0,0.0,0.0,0.0,1.5481963e-05,0.0,0.0,nan,0.0,0.0,0.0,0.0,1.2004377e-06,inf,0.0,0.0,0.00020060892,0.0,0.0,0.0,0.0,0.0,0.0,0.0,0.0
5444000,5364000,2.811032e-05,0.0,6.984583e-05,2.343723e-06,0.0,3.3050197e-05,0.0,0.0,0.0,0.0,0.0,0.0,0.0,1.5481963e-05,0.0,0.0,nan,0.0,0.0,0.0,0.0,1.2004377e-06,inf,0.0,0.0,0.00048637087,0.0,0.0,0.0,0.0,0.0,0.0,0.0,0.0
5452000,5372000,2.811032e-05,0.0,6.984583e-05,2.343723e-06,0.0,3.3050197e-05,0.0,0.0,0.0,0.0,0.0,0.0,0.0,1.5481963e-05,0.0,0.0,nan,0.0,0.0,0.0,0.0,1.2004377e-06,inf,0.0,0.0,5.2190294e-06,0.0,0.0,0.0,0.0,0.0,0.0,0.0,0.0
5460000,5380000,2.811032e-05,0.0,6.984583e-05,2.343723e-06,0.0,3.3050197e-05,0.0,0.0,0.0,0.0,0.0,0.0,0.0,1.5481963e-05,0.0,0.0,nan,0.0,0.0,0.0,0.0,1.2004377e-06,inf,0.0,0.0,0.00054041325,0.0,0.0,0.0,0.0,0.0,0.0,0.0,0.0
5468000,5388000,2.811032e-05,0.0,6.984583e-05,2.343723e-06,0.0,3.3050197e-05,0.0,0.0,0.0,0.0,0.0,0.0,0.0,1.5481963e-05,0.0,0.0,nan,0.0,0.0,0.0,0.0,0.00014097895,inf,0.0,0.0,0.0008177477,0.0,0.0,0.0,0.0,0.0,0.0,0.0,0.0
5476000,5396000,2.811032e-05,0.0,6.984583e-05,2.343723e-06,0.0,3.3050197e-05,0.0,0.0,0.0,0.0,0.0,0.0,0.0,1.5785323e-06,0.0,0.0,nan,0.0,0.0,0.0,0.0,0.00014097895,inf,0.0,0.0,0.00074607524,0.0,0.0,0.0,0.0,0.0,0.0,0.0,0.0
5484000,5404000,2.811032e-05,0.0,6.984583e-05,2.343723e-06,0.0,3.3050197e-05,0.0,0.0,0.0,0.0,0.0,0.0,0.0,1.5785323e-06,0.0,0.0,nan,0.0,0.0,0.0,0.0,0.00014097895,inf,0.0,0.0,0.0022412883,0.0,0.0,0.0,0.0,0.0,0.0,0.0,0.0
5492000,5412000,2.811032e-05,0.0,6.984583e-05,2.343723e-06,0.0,3.3050197e-05,0.0,0.0,0.0,0.0,0.0,0.0,0.0,1.5785323e-06,0.0,0.0,nan,0.0,0.0,0.0,0.0,0.00014097895,inf,0.0,0.0,0.004341066,0.0,0.0,0.0,0.0,0.0,0.0,0.0,0.0
5500000,5420000,2.811032e-05,0.0,6.984583e-05,2.343723e-06,0.0,3.3050197e-05,0.0,0.0,0.0,0.0,0.0,0.0,0.0,1.5785323e-06,0.0,0.0,nan,0.0,0.0,0.0,0.0,0.00014097895,inf,0.0,0.0,0.0006815465,0.0,0.0,0.0,0.0,0.0,0.0,0.0,0.0
5508000,5428000,2.811032e-05,0.0,6.984583e-05,2.343723e-06,0.0,3.3050197e-05,0.0,0.0,0.0,0.0,0.0,0.0,0.0,1.5785323e-06,0.0,0.0,nan,0.0,0.0,0.0,0.0,0.00014097895,inf,0.0,0.0,0.0001036842,0.0,0.0,0.0,0.0,0.0,0.0,0.0,0.0
5516000,5436000,2.811032e-05,0.0,6.984583e-05,2.343723e-06,0.0,3.3050197e-05,0.0,0.0,0.0,0.0,0.0,0.0,0.0,1.5785323e-06,0.0,0.0,nan,0.0,0.0,0.0,0.0,0.00014097895,inf,0.0,0.0,6.499644e-05,0.0,0.0,0.0,0.0,0.0,0.0,0.0,0.0
5524000,5444000,2.811032e-05,0.0,6.984583e-05,2.343723e-06,0.0,3.3050197e-05,0.0,0.0,0.0,0.0,0.0,0.0,0.0,1.5785323e-06,0.0,0.0,nan,0.0,0.0,0.0,0.0,0.00014097895,inf,0.0,0.0,0.0001216479,0.0,0.0,0.0,0.0,0.0,0.0,0.0,0.0
5532000,5452000,2.811032e-05,0.0,6.984583e-05,2.343723e-06,0.0,3.3050197e-05,0.0,0.0,0.0,0.0,0.0,0.0,0.0,1.5785323e-06,0.0,0.0,nan,0.0,0.0,0.0,0.0,0.00014097895,inf,0.0,0.0,0.00019529459,0.0,0.0,0.0,0.0,0.0,0.0,0.0,0.0
5540000,5460000,2.811032e-05,0.0,6.984583e-05,2.343723e-06,0.0,3.3050197e-05,0.0,0.0,0.0,0.0,0.0,0.0,0.0,4.212646e-07,0.0,0.0,nan,0.0,0.0,0.0,0.0,0.000118629316,inf,0.0,0.0,0.001508768,0.0,0.0,0.0,0.0,0.0,0.0,0.0,0.0
5548000,5468000,2.811032e-05,0.0,6.984583e-05,2.343723e-06,0.0,3.3050197e-05,0.0,0.0,0.0,0.0,0.0,0.0,0.0,4.212646e-07,0.0,0.0,nan,0.0,0.0,0.0,0.0,0.000118629316,inf,0.0,0.0,0.00027968435,0.0,0.0,0.0,0.0,0.0,0.0,0.0,0.0
5556000,5476000,2.811032e-05,0.0,6.984583e-05,2.343723e-06,0.0,3.3050197e-05,0.0,0.0,0.0,0.0,0.0,0.0,0.0,4.212646e-07,0.0,0.0,nan,0.0,0.0,0.0,0.0,0.000118629316,inf,0.0,0.0,3.8533212e-06,0.0,0.0,0.0,0.0,0.0,0.0,0.0,0.0
5564000,5484000,2.811032e-05,0.0,6.984583e-05,2.343723e-06,0.0,3.3050197e-05,0.0,0.0,0.0,0.0,0.0,0.0,0.0,4.212646e-07,0.0,0.0,nan,0.0,0.0,0.0,0.0,0.000118629316,inf,0.0,0.0,8.5050175e-05,0.0,0.0,0.0,0.0,0.0,0.0,0.0,0.0
5572000,5492000,2.811032e-05,0.0,6.984583e-05,2.343723e-06,0.0,3.3050197e-05,0.0,0.0,0.0,0.0,0.0,0.0,0.0,4.212646e-07,0.0,0.0,nan,0.0,0.0,0.0,0.0,0.000118629316,inf,0.0,0.0,0.0004911194,0.0,0.0,0.0,0.0,0.0,0.0,0.0,0.0
5580000,5500000,2.811032e-05,0.0,6.984583e-05,2.343723e-06,0.0,3.3050197e-05,0.0,0.0,0.0,0.0,0.0,0.0,0.0,4.212646e-07,0.0,0.0,nan,0.0,0.0,0.0,0.0,0.000118629316,inf,0.0,0.0,0.00096165715,0.0,0.0,0.0,0.0,0.0,0.0,0.0,0.0
5588000,5508000,2.811032e-05,0.0,6.984583e-05,2.343723e-06,0.0,3.3050197e-05,0.0,0.0,0.0,0.0,0.0,0.0,0.0,4.212646e-07,0.0,0.0,nan,0.0,0.0,0.0,0.0,0.000118629316,inf,0.0,0.0,0.00036975695,0.0,0.0,0.0,0.0,0.0,0.0,0.0,0.0
5596000,5516000,3.626485e-06,0.0,8.3166866e-05,2.2351298e-06,0.0,3.5510104e-05,0.0,0.0,0.0,0.0,0.0,0.0,0.0,1.4610834e-05,0.0,0.0,nan,0.0,0.0,0.0,0.0,0.000118629316,inf,0.0,0.0,6.0911952e-05,0.0,0.0,0.0,0.0,0.0,0.0,0.0,0.0
5604000,5524000,3.626485e-06,0.0,8.3166866e-05,2.2351298e-06,0.0,3.5510104e-05,0.0,0.0,0.0,0.0,0.0,0.0,0.0,1.4610834e-05,0.0,0.0,nan,0.0,0.0,0.0,0.0,0.000118629316,inf,0.0,0.0,0.0003505556,0.0,0.0,0.0,0.0,0.0,0.0,0.0,0.0
5612000,5532000,3.626485e-06,0.0,8.3166866e-05,2.2351298e-06,0.0,3.5510104e-05,0.0,0.0,0.0,0.0,0.0,0.0,0.0,1.4610834e-05,0.0,0.0,nan,0.0,0.0,0.0,0.0,7.486921e-05,inf,0.0,0.0,0.000751885,0.0,0.0,0.0,0.0,0.0,0.0,0.0,0.0
