timestamp,roll_body,pitch_body,yaw_body,yaw_sp_move_rate,q_d[0],q_d[1],q_d[2],q_d[3],thrust_body[0],thrust_body[1],thrust_body[2],reset_integral,fw_control_yaw_wheel
3388000,0.0,0.0,0.00025845127,0.0,1.0,0.0,0.0,0.00012922563,0.0,0.0,-0.001,0,0
3396000,0.0,0.0,0.00026455868,0.0,1.0,0.0,0.0,0.00013227934,0.0,0.0,-0.001,0,0
3436000,0.0,-0.0,1.6177874,0.0,0.6902993,0.0,0.0,0.72352403,0.0,0.0,-0.001,0,0
3484000,0.0,-0.0,1.6177474,0.0,0.69031376,0.0,0.0,0.72351015,0.0,0.0,-0.001,0,0
3532000,0.0,-0.0,1.6177353,0.0,0.69031817,0.0,0.0,0.72350603,0.0,0.0,-0.001,0,0
3580000,0.0,-0.0,1.6176866,0.0,0.69033575,0.0,0.0,0.7234892,0.0,0.0,-0.001,0,0
3636000,0.0,-0.0,1.6234185,0.0,0.6882594,0.0,0.0,0.72546464,0.0,0.0,-0.001,0,0
3684000,0.0,-0.0,1.6238767,0.0,0.6880932,0.0,0.0,0.7256224,0.0,0.0,-0.001,0,0
3732000,0.0,-0.0,1.6242771,0.0,0.6879479,0.0,0.0,0.72576004,0.0,0.0,-0.001,0,0
3780000,0.0,-0.0,1.6248236,0.0,0.6877496,0.0,0.0,0.725948,0.0,0.0,-0.001,0,0
3836000,0.0,-0.0,1.6258237,0.0,0.68738645,0.0,0.0,0.7262919,0.0,0.0,-0.001,0,0
3884000,0.0,-0.0,1.6264454,0.0,0.6871607,0.0,0.0,0.7265055,0.0,0.0,-0.001,0,0
3932000,0.0,-0.0,1.6267949,0.0,0.6870337,0.0,0.0,0.72662556,0.0,0.0,-0.001,0,0
3980000,0.0,-0.0,1.6268528,0.0,0.68701273,0.0,0.0,0.72664547,0.0,0.0,-0.001,0,0
4036000,0.0,-0.0,1.6268346,0.0,0.6870193,0.0,0.0,0.7266393,0.0,0.0,-0.001,0,0
4084000,0.0,-0.0,1.6268678,0.0,0.68700725,0.0,0.0,0.72665066,0.0,0.0,-0.001,0,0
4132000,0.0,-0.0,1.6268431,0.0,0.68701625,0.0,0.0,0.72664213,0.0,0.0,-0.001,0,0
4180000,0.0,-0.0,1.6266457,0.0,0.68708795,0.0,0.0,0.7265743,0.0,0.0,-0.001,0,0
4236000,0.0,-0.0,1.6261926,0.0,0.6872525,0.0,0.0,0.7264187,0.0,0.0,-0.001,0,0
4284000,0.0,-0.0,1.6256065,0.0,0.68746537,0.0,0.0,0.72621715,0.0,0.0,-0.001,0,0
4340000,0.0,-0.0,1.6249752,0.0,0.68769455,0.0,0.0,0.7260002,0.0,0.0,-0.001,0,0
4388000,0.0,-0.0,1.6247164,0.0,0.6877885,0.0,0.0,0.72591126,0.0,0.0,-0.001,0,0
4436000,0.0,-0.0,1.6247075,0.0,0.68779176,0.0,0.0,0.72590816,0.0,0.0,-0.001,0,0
4484000,0.0,-0.0,1.6248232,0.0,0.68774974,0.0,0.0,0.7259479,0.0,0.0,-0.001,0,0
4540000,0.0,-0.0,1.6248432,0.0,0.6877425,0.0,0.0,0.7259548,0.0,0.0,-0.001,0,0
4588000,0.0,-0.0,1.6246178,0.0,0.6878243,0.0,0.0,0.7258772,0.0,0.0,-0.001,0,0
4636000,0.0,-0.0,1.6245111,0.0,0.687863,0.0,0.0,0.7258406,0.0,0.0,-0.001,0,0
4684000,0.0,-0.0,1.6245029,0.0,0.687866,0.0,0.0,0.72583777,0.0,0.0,-0.001,0,0
4732000,0.0,-0.0,1.6245751,0.0,0.68783975,0.0,0.0,0.7258626,0.0,0.0,-0.001,0,0
4780000,0.0,-0.0,1.6247796,0.0,0.6877656,0.0,0.0,0.72593284,0.0,0.0,-0.001,0,0
4836000,0.0,-0.0,1.6250451,0.0,0.6876692,0.0,0.0,0.72602415,0.0,0.0,-0.001,0,0
4884000,0.0,-0.0,1.625007,0.0,0.687683,0.0,0.0,0.7260111,0.0,0.0,-0.001,0,0
4940000,0.0,-0.0,1.6247935,0.0,0.68776053,0.0,0.0,0.72593766,0.0,0.0,-0.001,0,0
4980000,0.0,-0.0,1.624388,0.0,0.6879077,0.0,0.0,0.7257982,0.0,0.0,-0.001,0,0
5036000,0.0,-0.0,1.6237162,0.0,0.6881514,0.0,0.0,0.7255671,0.0,0.0,-0.001,0,0
5084000,0.0,-0.0,1.6235744,0.0,0.6882029,0.0,0.0,0.7255183,0.0,0.0,-0.001,0,0
5132000,0.0,-0.0,1.6237018,0.0,0.68815666,0.0,0.0,0.7255621,0.0,0.0,-0.001,0,0
5180000,0.0,-0.0,1.6240219,0.0,0.68804055,0.0,0.0,0.72567225,0.0,0.0,-0.001,0,0
5236000,0.0,-0.0,1.6244138,0.0,0.6878983,0.0,0.0,0.72580713,0.0,0.0,-0.001,0,0
5284000,0.0,-0.0,1.6245515,0.0,0.6878483,0.0,0.0,0.72585446,0.0,0.0,-0.001,0,0
5332000,0.0,-0.0,1.6244798,0.0,0.6878744,0.0,0.0,0.7258298,0.0,0.0,-0.001,0,0
5380000,0.0,-0.0,1.6242598,0.0,0.6879542,0.0,0.0,0.7257542,0.0,0.0,-0.001,0,0
5436000,0.0,-0.0,1.6239994,0.0,0.6880487,0.0,0.0,0.7256645,0.0,0.0,-0.001,0,0
5484000,0.0,-0.0,1.6237972,0.0,0.6881221,0.0,0.0,0.72559494,0.0,0.0,-0.001,0,0
5532000,0.0,-0.0,1.6234863,0.0,0.68823487,0.0,0.0,0.72548795,0.0,0.0,-0.001,0,0
5588000,0.0,-0.0,1.6230574,0.0,0.68839043,0.0,0.0,0.72534037,0.0,0.0,-0.001,0,0
5636000,0.0,-0.0,1.622654,0.0,0.6885367,0.0,0.0,0.72520155,0.0,0.0,-0.001,0,0
5684000,0.0,-0.0,1.6222647,0.0,0.68867785,0.0,0.0,0.7250675,0.0,0.0,-0.001,0,0
5732000,0.0,-0.0,1.6218967,0.0,0.68881124,0.0,0.0,0.7249407,0.0,0.0,-0.001,0,0
5780000,0.0,-0.0,1.6216033,0.0,0.6889176,0.0,0.0,0.72483975,0.0,0.0,-0.001,0,0
5836000,0.0,-0.0,1.6213427,0.0,0.68901205,0.0,0.0,0.72475,0.0,0.0,-0.001,0,0
5884000,0.0,-0.0,1.6214658,0.0,0.6889674,0.0,0.0,0.72479236,0.0,0.0,-0.001,0,0
5940000,0.0,-0.0,1.6218107,0.0,0.6888424,0.0,0.0,0.7249111,0.0,0.0,-0.001,0,0
5980000,0.0,-0.0,1.6221153,0.0,0.688732,0.0,0.0,0.72501606,0.0,0.0,-0.001,0,0
6036000,0.0,-0.0,1.6223106,0.0,0.6886612,0.0,0.0,0.72508323,0.0,0.0,-0.001,0,0
6084000,0.0,-0.0,1.6222112,0.0,0.6886972,0.0,0.0,0.7250491,0.0,0.0,-0.001,0,0
6140000,0.0,-0.0,1.6221414,0.0,0.68872255,0.0,0.0,0.72502506,0.0,0.0,-0.001,0,0
6180000,0.0,-0.0,1.622156,0.0,0.68871725,0.0,0.0,0.72503006,0.0,0.0,-0.001,0,0
6236000,0.0,-0.0,1.6219828,0.0,0.68878,0.0,0.0,0.7249704,0.0,0.0,-0.001,0,0
6284000,0.0,-0.0,1.6217606,0.0,0.6888606,0.0,0.0,0.7248939,0.0,0.0,-0.001,0,0
6332000,0.0,-0.0,1.621728,0.0,0.6888724,0.0,0.0,0.72488266,0.0,0.0,-0.001,0,0
6388000,0.0,-0.0,1.6218617,0.0,0.68882394,0.0,0.0,0.7249287,0.0,0.0,-0.001,0,0
6436000,0.0,-0.0,1.6221064,0.0,0.68873525,0.0,0.0,0.72501296,0.0,0.0,-0.001,0,0
6484000,0.0,-0.0,1.6222758,0.0,0.6886738,0.0,0.0,0.7250713,0.0,0.0,-0.001,0,0
6540000,0.0,-0.0,1.6223471,0.0,0.688648,0.0,0.0,0.7250958,0.0,0.0,-0.001,0,0
6588000,0.0,-0.0,1.6223569,0.0,0.6886444,0.0,0.0,0.72509927,0.0,0.0,-0.001,0,0
6636000,0.0,-0.0,1.6222597,0.0,0.68867964,0.0,0.0,0.72506577,0.0,0.0,-0.001,0,0
6684000,0.0,-0.0,1.6221061,0.0,0.68873537,0.0,0.0,0.7250129,0.0,0.0,-0.001,0,0
6740000,0.0,-0.0,1.6218979,0.0,0.68881077,0.0,0.0,0.7249412,0.0,0.0,-0.001,0,0
6788000,0.0,-0.0,1.621945,0.0,0.6887937,0.0,0.0,0.7249574,0.0,0.0,-0.001,0,0
6836000,0.0,-0.0,1.6219826,0.0,0.6887801,0.0,0.0,0.72497034,0.0,0.0,-0.001,0,0
6884000,0.0,-0.0,1.6220958,0.0,0.68873906,0.0,0.0,0.7250093,0.0,0.0,-0.001,0,0
6932000,0.0,-0.0,1.6222674,0.0,0.6886769,0.0,0.0,0.72506845,0.0,0.0,-0.001,0,0
6988000,0.0,-0.0,1.6225477,0.0,0.6885752,0.0,0.0,0.72516495,0.0,0.0,-0.001,0,0
7036000,0.0,-0.0,1.6223674,0.0,0.6886406,0.0,0.0,0.72510284,0.0,0.0,-0.001,0,0
7084000,0.0,-0.0,1.6221173,0.0,0.6887313,0.0,0.0,0.7250167,0.0,0.0,-0.001,0,0
7132000,0.0,-0.0,1.6219006,0.0,0.6888098,0.0,0.0,0.72494215,0.0,0.0,-0.001,0,0
7180000,0.0,-0.0,1.6216367,0.0,0.6889055,0.0,0.0,0.72485113,0.0,0.0,-0.001,0,0
7236000,0.0,-0.0,1.6212796,0.0,0.6890349,0.0,0.0,0.7247282,0.0,0.0,-0.001,0,0
7284000,0.0,-0.0,1.6209116,0.0,0.6891682,0.0,0.0,0.72460145,0.0,0.0,-0.001,0,0
7340000,0.0,-0.0,1.6201793,0.0,0.6894335,0.0,0.0,0.72434896,0.0,0.0,-0.001,0,0
7388000,0.0,-0.0,1.6197433,0.0,0.68959135,0.0,0.0,0.72419876,0.0,0.0,-0.001,0,0
7436000,0.0,-0.0,1.6193906,0.0,0.6897191,0.0,0.0,0.7240771,0.0,0.0,-0.001,0,0
7484000,0.0,-0.0,1.618946,0.0,0.6898801,0.0,0.0,0.7239237,0.0,0.0,-0.001,0,0
7540000,0.0,-0.0,1.6187339,0.0,0.6899568,0.0,0.0,0.72385055,0.0,0.0,-0.001,0,0
7588000,0.0,-0.0,1.6187264,0.0,0.6899595,0.0,0.0,0.723848,0.0,0.0,-0.001,0,0
7636000,0.0,-0.0,1.6189901,0.0,0.6898641,0.0,0.0,0.7239389,0.0,0.0,-0.001,0,0
7684000,0.0,-0.0,1.6192219,0.0,0.6897801,0.0,0.0,0.724019,0.0,0.0,-0.001,0,0
7740000,0.0,-0.0,1.6193554,0.0,0.68973184,0.0,0.0,0.72406495,0.0,0.0,-0.001,0,0
7780000,0.0,-0.0,1.6194003,0.0,0.68971556,0.0,0.0,0.7240805,0.0,0.0,-0.001,0,0
7836000,0.0,-0.0,1.619451,0.0,0.6896972,0.0,0.0,0.7240979,0.0,0.0,-0.001,0,0
7884000,0.0,-0.0,1.6196406,0.0,0.6896286,0.0,0.0,0.72416323,0.0,0.0,-0.001,0,0
7932000,0.0,-0.0,1.6198415,0.0,0.6895558,0.0,0.0,0.72423255,0.0,0.0,-0.001,0,0
7988000,0.0,-0.0,1.6197588,0.0,0.68958575,0.0,0.0,0.72420406,0.0,0.0,-0.001,0,0
8036000,0.0,-0.0,1.6201044,0.0,0.6894606,0.0,0.0,0.7243232,0.0,0.0,-0.001,0,0
8084000,0.0,-0.0,1.620573,0.0,0.6892909,0.0,0.0,0.72448474,0.0,0.0,-0.001,0,0
8140000,0.0,-0.0,1.6209909,0.0,0.6891395,0.0,0.0,0.72462875,0.0,0.0,-0.001,0,0
8180000,0.0,-0.0,1.6212204,0.0,0.6890564,0.0,0.0,0.7247077,0.0,0.0,-0.001,0,0
8236000,0.0,-0.0,1.6212544,0.0,0.689044,0.0,0.0,0.72471946,0.0,0.0,-0.001,0,0
8284000,0.0,-0.0,1.6211324,0.0,0.6890882,0.0,0.0,0.72467744,0.0,0.0,-0.001,0,0
8332000,0.0,-0.0,1.6205477,0.0,0.68930006,0.0,0.0,0.724476,0.0,0.0,-0.001,0,0
8380000,0.0,-0.0,1.6200022,0.0,0.68949765,0.0,0.0,0.724288,0.0,0.0,-0.001,0,0
8436000,0.0,-0.0,1.6196641,0.0,0.6896201,0.0,0.0,0.7241714,0.0,0.0,-0.001,0,0
8484000,0.0,-0.0,1.6197796,0.0,0.68957824,0.0,0.0,0.7242112,0.0,0.0,-0.001,0,0
8532000,0.0,-0.0,1.6202109,0.0,0.6894221,0.0,0.0,0.72435987,0.0,0.0,-0.001,0,0
8588000,0.0,-0.0,1.6206864,0.0,0.6892498,0.0,0.0,0.7245238,0.0,0.0,-0.001,0,0
8636000,0.0,-0.0,1.6210821,0.0,0.68910646,0.0,0.0,0.72466016,0.0,0.0,-0.001,0,0
8684000,0.0,-0.0,1.6214043,0.0,0.6889897,0.0,0.0,0.72477114,0.0,0.0,-0.001,0,0
8732000,0.0,-0.0,1.6215947,0.0,0.68892074,0.0,0.0,0.7248367,0.0,0.0,-0.001,0,0
8788000,0.0,-0.0,1.6217433,0.0,0.68886685,0.0,0.0,0.72488797,0.0,0.0,-0.001,0,0
8836000,0.0,-0.0,1.6218941,0.0,0.6888122,0.0,0.0,0.7249398,0.0,0.0,-0.001,0,0
8884000,0.0,-0.0,1.6219828,0.0,0.68878,0.0,0.0,0.7249704,0.0,0.0,-0.001,0,0
8932000,0.0,-0.0,1.6220446,0.0,0.68875766,0.0,0.0,0.7249917,0.0,0.0,-0.001,0,0
8980000,0.0,-0.0,1.6221093,0.0,0.6887342,0.0,0.0,0.72501403,0.0,0.0,-0.001,0,0
9036000,0.0,-0.0,1.6219368,0.0,0.6887967,0.0,0.0,0.72495455,0.0,0.0,-0.001,0,0
9084000,0.0,-0.0,1.6216772,0.0,0.6888908,0.0,0.0,0.72486514,0.0,0.0,-0.001,0,0
9132000,0.0,-0.0,1.6214714,0.0,0.6889654,0.0,0.0,0.72479427,0.0,0.0,-0.001,0,0
9188000,0.0,-0.0,1.6213166,0.0,0.6890215,0.0,0.0,0.7247409,0.0,0.0,-0.001,0,0
9236000,0.0,-0.0,1.6212159,0.0,0.68905795,0.0,0.0,0.7247063,0.0,0.0,-0.001,0,0
9284000,0.0,-0.0,1.6212568,0.0,0.6890431,0.0,0.0,0.72472036,0.0,0.0,-0.001,0,0
9332000,0.0,-0.0,1.6212404,0.0,0.6890491,0.0,0.0,0.72471464,0.0,0.0,-0.001,0,0
9388000,0.0,-0.0,1.6211997,0.0,0.68906385,0.0,0.0,0.72470075,0.0,0.0,-0.001,0,0
9436000,0.0,-0.0,1.6211784,0.0,0.68907154,0.0,0.0,0.7246934,0.0,0.0,-0.001,0,0
9484000,0.0,-0.0,1.6213503,0.0,0.68900925,0.0,0.0,0.72475255,0.0,0.0,-0.001,0,0
9532000,0.0,-0.0,1.6214969,0.0,0.68895614,0.0,0.0,0.72480303,0.0,0.0,-0.001,0,0
9580000,0.0,-0.0,1.6215863,0.0,0.6889238,0.0,0.0,0.7248338,0.0,0.0,-0.001,0,0
9636000,0.0,-0.0,1.6218873,0.0,0.68881464,0.0,0.0,0.7249375,0.0,0.0,-0.001,0,0
9684000,0.0,-0.0,1.6220303,0.0,0.68876284,0.0,0.0,0.7249868,0.0,0.0,-0.001,0,0
9732000,0.0,-0.0,1.6221815,0.0,0.688708,0.0,0.0,0.7250389,0.0,0.0,-0.001,0,0
9788000,0.0,-0.0,1.6226491,0.0,0.6885385,0.0,0.0,0.72519976,0.0,0.0,-0.001,0,0
9836000,0.0,-0.0,1.6231574,0.0,0.68835413,0.0,0.0,0.72537476,0.0,0.0,-0.001,0,0
9884000,0.0,-0.0,1.6235722,0.0,0.6882037,0.0,0.0,0.7255175,0.0,0.0,-0.001,0,0
9932000,0.0,-0.0,1.6239237,0.0,0.68807614,0.0,0.0,0.7256385,0.0,0.0,-0.001,0,0
9980000,0.0,-0.0,1.6239719,0.0,0.6880587,0.0,0.0,0.725655,0.0,0.0,-0.001,0,0
10036000,0.0,-0.0,1.6239808,0.0,0.68805546,0.0,0.0,0.7256581,0.0,0.0,-0.001,0,0
10084000,0.0,-0.0,1.6239583,0.0,0.6880636,0.0,0.0,0.72565037,0.0,0.0,-0.001,0,0
10132000,0.0,-0.0,1.6238651,0.0,0.6880974,0.0,0.0,0.7256183,0.0,0.0,-0.001,0,0
10180000,0.0,-0.0,1.6238675,0.0,0.6880965,0.0,0.0,0.7256192,0.0,0.0,-0.001,0,0
10236000,0.0,-0.0,1.6238451,0.0,0.6881047,0.0,0.0,0.72561145,0.0,0.0,-0.001,0,0
10284000,0.0,-0.0,1.6238272,0.0,0.6881112,0.0,0.0,0.7256053,0.0,0.0,-0.001,0,0
10332000,0.0,-0.0,1.623823,0.0,0.6881127,0.0,0.0,0.7256039,0.0,0.0,-0.001,0,0
10388000,0.0,-0.0,1.6238827,0.0,0.68809104,0.0,0.0,0.72562444,0.0,0.0,-0.001,0,0
10436000,0.0,-0.0,1.6238958,0.0,0.68808633,0.0,0.0,0.72562885,0.0,0.0,-0.001,0,0
10484000,0.0,-0.0,1.623738,0.0,0.6881435,0.0,0.0,0.7255747,0.0,0.0,-0.001,0,0
10532000,0.0,-0.0,1.6235104,0.0,0.6882261,0.0,0.0,0.7254963,0.0,0.0,-0.001,0,0
10580000,0.0,-0.0,1.6233989,0.0,0.6882665,0.0,0.0,0.72545797,0.0,0.0,-0.001,0,0
10636000,0.0,-0.0,1.6232638,0.0,0.6883155,0.0,0.0,0.7254114,0.0,0.0,-0.001,0,0
10684000,0.0,-0.0,1.6231782,0.0,0.68834656,0.0,0.0,0.725382,0.0,0.0,-0.001,0,0
10732000,0.0,-0.0,1.6230545,0.0,0.68839145,0.0,0.0,0.7253394,0.0,0.0,-0.001,0,0
10788000,0.0,-0.0,1.6227579,0.0,0.68849903,0.0,0.0,0.7252373,0.0,0.0,-0.001,0,0
10836000,0.0,-0.0,1.6225864,0.0,0.6885612,0.0,0.0,0.72517824,0.0,0.0,-0.001,0,0
10884000,0.0,-0.0,1.6225098,0.0,0.688589,0.0,0.0,0.7251519,0.0,0.0,-0.001,0,0
10940000,0.0,-0.0,1.6227185,0.0,0.68851334,0.0,0.0,0.7252238,0.0,0.0,-0.001,0,0
10980000,0.0,-0.0,1.6229517,0.0,0.6884287,0.0,0.0,0.725304,0.0,0.0,-0.001,0,0
11036000,0.0,-0.0,1.6232336,0.0,0.68832654,0.0,0.0,0.72540104,0.0,0.0,-0.001,0,0
11084000,0.0,-0.0,1.6234348,0.0,0.6882535,0.0,0.0,0.72547024,0.0,0.0,-0.001,0,0
11132000,0.0,-0.0,1.6236358,0.0,0.6881806,0.0,0.0,0.7255394,0.0,0.0,-0.001,0,0
11180000,0.0,-0.0,1.6237388,0.0,0.68814325,0.0,0.0,0.72557485,0.0,0.0,-0.001,0,0
11236000,0.0,-0.0,1.6238996,0.0,0.6880849,0.0,0.0,0.7256302,0.0,0.0,-0.001,0,0
11284000,0.0,-0.0,1.6240315,0.0,0.68803704,0.0,0.0,0.7256756,0.0,0.0,-0.001,0,0
11332000,0.0,-0.0,1.6239643,0.0,0.6880614,0.0,0.0,0.72565246,0.0,0.0,-0.001,0,0
11380000,0.0,-0.0,1.6238163,0.0,0.6881151,0.0,0.0,0.7256016,0.0,0.0,-0.001,0,0
11436000,0.0,-0.0,1.6235492,0.0,0.68821204,0.0,0.0,0.7255097,0.0,0.0,-0.001,0,0
11484000,0.0,-0.0,1.6235371,0.0,0.68821645,0.0,0.0,0.7255055,0.0,0.0,-0.001,0,0
11532000,0.0,-0.0,1.6236027,0.0,0.6881926,0.0,0.0,0.72552806,0.0,0.0,-0.001,0,0
11580000,0.0,-0.0,1.6236337,0.0,0.68818134,0.0,0.0,0.7255387,0.0,0.0,-0.001,0,0
11636000,0.0,-0.0,1.6235002,0.0,0.6882298,0.0,0.0,0.72549284,0.0,0.0,-0.001,0,0
11684000,0.0,-0.0,1.6232985,0.0,0.68830293,0.0,0.0,0.7254234,0.0,0.0,-0.001,0,0
11732000,0.0,-0.0,1.6231285,0.0,0.6883646,0.0,0.0,0.72536486,0.0,0.0,-0.001,0,0
11780000,0.0,-0.0,1.6229727,0.0,0.68842113,0.0,0.0,0.7253113,0.0,0.0,-0.001,0,0
11836000,0.0,-0.0,1.6228844,0.0,0.68845314,0.0,0.0,0.7252809,0.0,0.0,-0.001,0,0
11884000,0.0,-0.0,1.6228156,0.0,0.68847805,0.0,0.0,0.7252572,0.0,0.0,-0.001,0,0
11932000,0.0,-0.0,1.6228497,0.0,0.6884657,0.0,0.0,0.7252689,0.0,0.0,-0.001,0,0
11980000,0.0,-0.0,1.6229147,0.0,0.6884422,0.0,0.0,0.72529125,0.0,0.0,-0.001,0,0
12036000,0.0,-0.0,1.622986,0.0,0.6884163,0.0,0.0,0.7253158,0.0,0.0,-0.001,0,0
12084000,0.0,-0.0,1.6228167,0.0,0.6884777,0.0,0.0,0.7252575,0.0,0.0,-0.001,0,0
12140000,0.0,-0.0,1.6226633,0.0,0.6885333,0.0,0.0,0.72520477,0.0,0.0,-0.001,0,0
12188000,0.0,-0.0,1.6225845,0.0,0.6885619,0.0,0.0,0.7251776,0.0,0.0,-0.001,0,0
12236000,0.0,-0.0,1.6225945,0.0,0.6885583,0.0,0.0,0.725181,0.0,0.0,-0.001,0,0
12284000,0.0,-0.0,1.6226803,0.0,0.68852717,0.0,0.0,0.7252106,0.0,0.0,-0.001,0,0
12332000,0.0,-0.0,1.6228437,0.0,0.6884679,0.0,0.0,0.72526675,0.0,0.0,-0.001,0,0
12380000,0.0,-0.0,1.6230477,0.0,0.68839395,0.0,0.0,0.725337,0.0,0.0,-0.001,0,0
12436000,0.0,-0.0,1.6232308,0.0,0.6883275,0.0,0.0,0.7254001,0.0,0.0,-0.001,0,0
12484000,0.0,-0.0,1.6233771,0.0,0.68827444,0.0,0.0,0.7254504,0.0,0.0,-0.001,0,0
12532000,0.0,-0.0,1.6234015,0.0,0.68826556,0.0,0.0,0.72545886,0.0,0.0,-0.001,0,0
12580000,0.0,-0.0,1.623456,0.0,0.68824583,0.0,0.0,0.72547764,0.0,0.0,-0.001,0,0
12636000,0.0,-0.0,1.6235969,0.0,0.68819475,0.0,0.0,0.72552603,0.0,0.0,-0.001,0,0
12684000,0.0,-0.0,1.6237953,0.0,0.68812275,0.0,0.0,0.7255943,0.0,0.0,-0.001,0,0
12732000,0.0,-0.0,1.6239514,0.0,0.6880661,0.0,0.0,0.725648,0.0,0.0,-0.001,0,0
12788000,0.0,-0.0,1.6238576,0.0,0.68810016,0.0,0.0,0.72561574,0.0,0.0,-0.001,0,0
12836000,0.0,-0.0,1.6236159,0.0,0.68818784,0.0,0.0,0.72553253,0.0,0.0,-0.001,0,0
12884000,0.0,-0.0,1.6233827,0.0,0.6882724,0.0,0.0,0.7254523,0.0,0.0,-0.001,0,0
12932000,0.0,-0.0,1.6230356,0.0,0.68839836,0.0,0.0,0.7253329,0.0,0.0,-0.001,0,0
12988000,0.0,-0.0,1.6227427,0.0,0.6885046,0.0,0.0,0.725232,0.0,0.0,-0.001,0,0
13036000,0.0,-0.0,1.6224959,0.0,0.68859404,0.0,0.0,0.72514707,0.0,0.0,-0.001,0,0
13084000,0.0,-0.0,1.6222978,0.0,0.68866587,0.0,0.0,0.7250788,0.0,0.0,-0.001,0,0
13132000,0.0,-0.0,1.6221595,0.0,0.688716,0.0,0.0,0.7250313,0.0,0.0,-0.001,0,0
13180000,0.0,-0.0,1.6221225,0.0,0.6887294,0.0,0.0,0.72501844,0.0,0.0,-0.001,0,0
13236000,0.0,-0.0,1.6222761,0.0,0.68867373,0.0,0.0,0.7250714,0.0,0.0,-0.001,0,0
13284000,0.0,-0.0,1.6224808,0.0,0.6885995,0.0,0.0,0.7251419,0.0,0.0,-0.001,0,0
13340000,0.0,-0.0,1.6225727,0.0,0.6885662,0.0,0.0,0.7251735,0.0,0.0,-0.001,0,0
13380000,0.0,-0.0,1.6225433,0.0,0.6885768,0.0,0.0,0.72516346,0.0,0.0,-0.001,0,0
13436000,0.0,-0.0,1.6224338,0.0,0.6886165,0.0,0.0,0.7251258,0.0,0.0,-0.001,0,0
13484000,0.0,-0.0,1.622267,0.0,0.688677,0.0,0.0,0.7250683,0.0,0.0,-0.001,0,0
13540000,0.0,-0.0,1.6220288,0.0,0.6887633,0.0,0.0,0.7249863,0.0,0.0,-0.001,0,0
13588000,0.0,-0.0,1.6220039,0.0,0.6887724,0.0,0.0,0.7249776,0.0,0.0,-0.001,0,0
13636000,0.0,-0.0,1.6218461,0.0,0.6888296,0.0,0.0,0.7249234,0.0,0.0,-0.001,0,0
13684000,0.0,-0.0,1.6217445,0.0,0.6888664,0.0,0.0,0.72488844,0.0,0.0,-0.001,0,0
13732000,0.0,-0.0,1.6216787,0.0,0.6888903,0.0,0.0,0.7248657,0.0,0.0,-0.001,0,0
13788000,0.0,-0.0,1.6219163,0.0,0.68880415,0.0,0.0,0.7249475,0.0,0.0,-0.001,0,0
13836000,0.0,-0.0,1.6221215,0.0,0.68872976,0.0,0.0,0.72501814,0.0,0.0,-0.001,0,0
13884000,0.0,-0.0,1.6222458,0.0,0.6886847,0.0,0.0,0.72506094,0.0,0.0,-0.001,0,0
13940000,0.0,-0.0,1.6226101,0.0,0.6885526,0.0,0.0,0.72518647,0.0,0.0,-0.001,0,0
13980000,0.0,-0.0,1.6227345,0.0,0.6885075,0.0,0.0,0.7252292,0.0,0.0,-0.001,0,0
14036000,0.0,-0.0,1.6228178,0.0,0.68847734,0.0,0.0,0.7252579,0.0,0.0,-0.001,0,0
14084000,0.0,-0.0,1.6227005,0.0,0.68851984,0.0,0.0,0.7252175,0.0,0.0,-0.001,0,0
14132000,0.0,-0.0,1.6225773,0.0,0.68856454,0.0,0.0,0.7251751,0.0,0.0,-0.001,0,0
14180000,0.0,-0.0,1.6224474,0.0,0.6886116,0.0,0.0,0.7251304,0.0,0.0,-0.001,0,0
14236000,0.0,-0.0,1.6221133,0.0,0.6887327,0.0,0.0,0.72501534,0.0,0.0,-0.001,0,0
14284000,0.0,-0.0,1.6218102,0.0,0.6888426,0.0,0.0,0.72491103,0.0,0.0,-0.001,0,0
14332000,0.0,-0.0,1.6214927,0.0,0.6889577,0.0,0.0,0.7248016,0.0,0.0,-0.001,0,0
14380000,0.0,-0.0,1.6212238,0.0,0.6890551,0.0,0.0,0.724709,0.0,0.0,-0.001,0,0
14436000,0.0,-0.0,1.6209416,0.0,0.68915737,0.0,0.0,0.7246117,0.0,0.0,-0.001,0,0
14484000,0.0,-0.0,1.6206284,0.0,0.68927085,0.0,0.0,0.7245038,0.0,0.0,-0.001,0,0
14532000,0.0,-0.0,1.6202784,0.0,0.68939763,0.0,0.0,0.7243832,0.0,0.0,-0.001,0,0
14580000,0.0,-0.0,1.6200398,0.0,0.689484,0.0,0.0,0.72430086,0.0,0.0,-0.001,0,0
14636000,0.0,-0.0,1.6199149,0.0,0.68952924,0.0,0.0,0.7242579,0.0,0.0,-0.001,0,0
14684000,0.0,-0.0,1.6198756,0.0,0.6895435,0.0,0.0,0.7242443,0.0,0.0,-0.001,0,0
14732000,0.0,-0.0,1.6199371,0.0,0.68952125,0.0,0.0,0.7242655,0.0,0.0,-0.001,0,0
14788000,0.0,-0.0,1.6200218,0.0,0.68949056,0.0,0.0,0.72429466,0.0,0.0,-0.001,0,0
14836000,0.0,-0.0,1.6200811,0.0,0.6894691,0.0,0.0,0.72431505,0.0,0.0,-0.001,0,0
14884000,0.0,-0.0,1.6201581,0.0,0.6894412,0.0,0.0,0.7243417,0.0,0.0,-0.001,0,0
14940000,0.0,-0.0,1.6202396,0.0,0.68941164,0.0,0.0,0.72436976,0.0,0.0,-0.001,0,0
14980000,0.0,-0.0,1.6202664,0.0,0.6894019,0.0,0.0,0.72437906,0.0,0.0,-0.001,0,0
15036000,0.0,-0.0,1.6202859,0.0,0.6893949,0.0,0.0,0.72438574,0.0,0.0,-0.001,0,0
15084000,0.0,-0.0,1.6201714,0.0,0.6894364,0.0,0.0,0.7243463,0.0,0.0,-0.001,0,0
15140000,0.0,-0.0,1.6200069,0.0,0.6894959,0.0,0.0,0.7242896,0.0,0.0,-0.001,0,0
15188000,0.0,-0.0,1.619836,0.0,0.68955785,0.0,0.0,0.72423065,0.0,0.0,-0.001,0,0
15236000,0.0,-0.0,1.6197546,0.0,0.6895873,0.0,0.0,0.72420263,0.0,0.0,-0.001,0,0
15284000,0.0,-0.0,1.6197828,0.0,0.6895771,0.0,0.0,0.7242123,0.0,0.0,-0.001,0,0
15332000,0.0,-0.0,1.6197675,0.0,0.68958265,0.0,0.0,0.72420704,0.0,0.0,-0.001,0,0
15380000,0.0,-0.0,1.6197495,0.0,0.68958914,0.0,0.0,0.72420084,0.0,0.0,-0.001,0,0
15436000,0.0,-0.0,1.6196508,0.0,0.68962485,0.0,0.0,0.72416687,0.0,0.0,-0.001,0,0
15484000,0.0,-0.0,1.619608,0.0,0.68964034,0.0,0.0,0.7241521,0.0,0.0,-0.001,0,0
15540000,0.0,-0.0,1.6195076,0.0,0.68967676,0.0,0.0,0.7241174,0.0,0.0,-0.001,0,0
15588000,0.0,-0.0,1.6194513,0.0,0.68969715,0.0,0.0,0.72409797,0.0,0.0,-0.001,0,0
15636000,0.0,-0.0,1.6192054,0.0,0.68978614,0.0,0.0,0.7240132,0.0,0.0,-0.001,0,0
15684000,0.0,-0.0,1.6189228,0.0,0.6898884,0.0,0.0,0.72391576,0.0,0.0,-0.001,0,0
15740000,0.0,-0.0,1.6187071,0.0,0.6899665,0.0,0.0,0.7238413,0.0,0.0,-0.001,0,0
15788000,0.0,-0.0,1.618708,0.0,0.68996614,0.0,0.0,0.72384167,0.0,0.0,-0.001,0,0
15836000,0.0,-0.0,1.618774,0.0,0.68994224,0.0,0.0,0.7238645,0.0,0.0,-0.001,0,0
15884000,0.0,-0.0,1.6188636,0.0,0.6899099,0.0,0.0,0.7238954,0.0,0.0,-0.001,0,0
15940000,0.0,-0.0,1.618946,0.0,0.6898801,0.0,0.0,0.7239237,0.0,0.0,-0.001,0,0
15988000,0.0,-0.0,1.6188928,0.0,0.68989927,0.0,0.0,0.7239054,0.0,0.0,-0.001,0,0
16036000,0.0,-0.0,1.6188796,0.0,0.6899041,0.0,0.0,0.72390085,0.0,0.0,-0.001,0,0
16084000,0.0,-0.0,1.6188837,0.0,0.68990254,0.0,0.0,0.7239022,0.0,0.0,-0.001,0,0
16140000,0.0,-0.0,1.6189125,0.0,0.6898922,0.0,0.0,0.7239122,0.0,0.0,-0.001,0,0
16180000,0.0,-0.0,1.6188731,0.0,0.6899064,0.0,0.0,0.72389865,0.0,0.0,-0.001,0,0
16236000,0.0,-0.0,1.6189079,0.0,0.6898938,0.0,0.0,0.7239107,0.0,0.0,-0.001,0,0
16284000,0.0,-0.0,1.6188539,0.0,0.6899134,0.0,0.0,0.7238919,0.0,0.0,-0.001,0,0
16340000,0.0,-0.0,1.6187582,0.0,0.689948,0.0,0.0,0.72385895,0.0,0.0,-0.001,0,0
16380000,0.0,-0.0,1.6187711,0.0,0.6899434,0.0,0.0,0.72386336,0.0,0.0,-0.001,0,0
16436000,0.0,-0.0,1.6185927,0.0,0.69000787,0.0,0.0,0.72380185,0.0,0.0,-0.001,0,0
16484000,0.0,-0.0,1.6184599,0.0,0.69005597,0.0,0.0,0.723756,0.0,0.0,-0.001,0,0
16540000,0.0,-0.0,1.6183195,0.0,0.69010675,0.0,0.0,0.7237076,0.0,0.0,-0.001,0,0
16588000,0.0,-0.0,1.6181822,0.0,0.69015646,0.0,0.0,0.72366023,0.0,0.0,-0.001,0,0
16636000,0.0,-0.0,1.6181585,0.0,0.69016504,0.0,0.0,0.72365206,0.0,0.0,-0.001,0,0
16684000,0.0,-0.0,1.6181281,0.0,0.69017607,0.0,0.0,0.72364146,0.0,0.0,-0.001,0,0
16732000,0.0,-0.0,1.6181322,0.0,0.6901745,0.0,0.0,0.72364306,0.0,0.0,-0.001,0,0
16780000,0.0,-0.0,1.6181905,0.0,0.6901534,0.0,0.0,0.7236631,0.0,0.0,-0.001,0,0
16836000,0.0,-0.0,1.6183072,0.0,0.6901112,0.0,0.0,0.72370344,0.0,0.0,-0.001,0,0
16884000,0.0,-0.0,1.6183385,0.0,0.6900999,0.0,0.0,0.7237142,0.0,0.0,-0.001,0,0
16932000,0.0,-0.0,1.6182073,0.0,0.69014734,0.0,0.0,0.7236689,0.0,0.0,-0.001,0,0
16980000,0.0,-0.0,1.6180917,0.0,0.6901892,0.0,0.0,0.72362906,0.0,0.0,-0.001,0,0
17036000,0.0,-0.0,1.6179639,0.0,0.69023544,0.0,0.0,0.7235849,0.0,0.0,-0.001,0,0
17084000,0.0,-0.0,1.6179584,0.0,0.6902374,0.0,0.0,0.723583,0.0,0.0,-0.001,0,0
17140000,0.0,-0.0,1.6179408,0.0,0.6902438,0.0,0.0,0.7235769,0.0,0.0,-0.001,0,0
17188000,0.0,-0.0,1.6178616,0.0,0.6902724,0.0,0.0,0.72354966,0.0,0.0,-0.001,0,0
17236000,0.0,-0.0,1.6177814,0.0,0.6903015,0.0,0.0,0.7235218,0.0,0.0,-0.001,0,0
17284000,0.0,-0.0,1.6177472,0.0,0.6903138,0.0,0.0,0.7235101,0.0,0.0,-0.001,0,0
17332000,0.0,-0.0,1.6177413,0.0,0.69031596,0.0,0.0,0.72350806,0.0,0.0,-0.001,0,0
17380000,0.0,-0.0,1.617805,0.0,0.69029295,0.0,0.0,0.72353005,0.0,0.0,-0.001,0,0
17436000,0.0,-0.0,1.6178994,0.0,0.6902588,0.0,0.0,0.7235626,0.0,0.0,-0.001,0,0
17484000,0.0,-0.0,1.6178895,0.0,0.6902623,0.0,0.0,0.7235593,0.0,0.0,-0.001,0,0
17532000,0.0,-0.0,1.6178309,0.0,0.69028354,0.0,0.0,0.723539,0.0,0.0,-0.001,0,0
17588000,0.0,-0.0,1.6177503,0.0,0.6903127,0.0,0.0,0.7235112,0.0,0.0,-0.001,0,0
17636000,0.0,-0.0,1.6176134,0.0,0.6903622,0.0,0.0,0.7234639,0.0,0.0,-0.001,0,0
17684000,0.0,-0.0,1.6175702,0.0,0.6903779,0.0,0.0,0.72344893,0.0,0.0,-0.001,0,0
17732000,0.0,-0.0,1.6174804,0.0,0.6904104,0.0,0.0,0.72341794,0.0,0.0,-0.001,0,0
17780000,0.0,-0.0,1.6173556,0.0,0.6904555,0.0,0.0,0.7233749,0.0,0.0,-0.001,0,0
17836000,0.0,-0.0,1.6172686,0.0,0.69048697,0.0,0.0,0.72334486,0.0,0.0,-0.001,0,0
17884000,0.0,-0.0,1.6171693,0.0,0.69052285,0.0,0.0,0.7233106,0.0,0.0,-0.001,0,0
17932000,0.0,-0.0,1.617072,0.0,0.6905581,0.0,0.0,0.723277,0.0,0.0,-0.001,0,0
17980000,0.0,-0.0,1.6169726,0.0,0.690594,0.0,0.0,0.72324264,0.0,0.0,-0.001,0,0
18036000,0.0,-0.0,1.6169784,0.0,0.6905919,0.0,0.0,0.72324467,0.0,0.0,-0.001,0,0
18084000,0.0,-0.0,1.6170039,0.0,0.6905827,0.0,0.0,0.72325355,0.0,0.0,-0.001,0,0
18132000,0.0,-0.0,1.617009,0.0,0.6905808,0.0,0.0,0.72325534,0.0,0.0,-0.001,0,0
18188000,0.0,-0.0,1.6170561,0.0,0.6905638,0.0,0.0,0.7232715,0.0,0.0,-0.001,0,0
18236000,0.0,-0.0,1.6170889,0.0,0.69055194,0.0,0.0,0.7232829,0.0,0.0,-0.001,0,0
18284000,0.0,-0.0,1.6171157,0.0,0.6905422,0.0,0.0,0.7232921,0.0,0.0,-0.001,0,0
18332000,0.0,-0.0,1.6171544,0.0,0.6905283,0.0,0.0,0.7233054,0.0,0.0,-0.001,0,0
18380000,0.0,-0.0,1.6171674,0.0,0.69052356,0.0,0.0,0.72331,0.0,0.0,-0.001,0,0
18436000,0.0,-0.0,1.6171868,0.0,0.69051653,0.0,0.0,0.7233167,0.0,0.0,-0.001,0,0
18484000,0.0,-0.0,1.6170157,0.0,0.6905784,0.0,0.0,0.72325754,0.0,0.0,-0.001,0,0
18532000,0.0,-0.0,1.6168745,0.0,0.6906295,0.0,0.0,0.7232088,0.0,0.0,-0.001,0,0
18588000,0.0,-0.0,1.6166576,0.0,0.6907079,0.0,0.0,0.72313386,0.0,0.0,-0.001,0,0
18636000,0.0,-0.0,1.6163929,0.0,0.6908036,0.0,0.0,0.7230425,0.0,0.0,-0.001,0,0
18684000,0.0,-0.0,1.6161777,0.0,0.6908814,0.0,0.0,0.7229681,0.0,0.0,-0.001,0,0
18740000,0.0,-0.0,1.6160353,0.0,0.69093287,0.0,0.0,0.72291887,0.0,0.0,-0.001,0,0
18780000,0.0,-0.0,1.6160268,0.0,0.69093597,0.0,0.0,0.722916,0.0,0.0,-0.001,0,0
18836000,0.0,-0.0,1.6161028,0.0,0.6909085,0.0,0.0,0.72294223,0.0,0.0,-0.001,0,0
18884000,0.0,-0.0,1.6161479,0.0,0.69089216,0.0,0.0,0.72295785,0.0,0.0,-0.001,0,0
18940000,0.0,-0.0,1.6161382,0.0,0.6908957,0.0,0.0,0.72295445,0.0,0.0,-0.001,0,0
18980000,0.0,-0.0,1.6161265,0.0,0.6908999,0.0,0.0,0.72295046,0.0,0.0,-0.001,0,0
19036000,0.0,-0.0,1.6160611,0.0,0.6909235,0.0,0.0,0.72292787,0.0,0.0,-0.001,0,0
19084000,0.0,-0.0,1.6159948,0.0,0.69094753,0.0,0.0,0.7229049,0.0,0.0,-0.001,0,0
19132000,0.0,-0.0,1.6158985,0.0,0.69098234,0.0,0.0,0.72287166,0.0,0.0,-0.001,0,0
19180000,0.0,-0.0,1.6159077,0.0,0.690979,0.0,0.0,0.7228748,0.0,0.0,-0.001,0,0
19236000,0.0,-0.0,1.6159023,0.0,0.690981,0.0,0.0,0.7228729,0.0,0.0,-0.001,0,0
19284000,0.0,-0.0,1.615898,0.0,0.6909825,0.0,0.0,0.72287154,0.0,0.0,-0.001,0,0
19332000,0.0,-0.0,1.6158085,0.0,0.6910148,0.0,0.0,0.7228406,0.0,0.0,-0.001,0,0
19388000,0.0,-0.0,1.6157728,0.0,0.69102776,0.0,0.0,0.7228282,0.0,0.0,-0.001,0,0
19436000,0.0,-0.0,1.6156473,0.0,0.6910731,0.0,0.0,0.7227849,0.0,0.0,-0.001,0,0
19484000,0.0,-0.0,1.6154028,0.0,0.69116145,0.0,0.0,0.7227004,0.0,0.0,-0.001,0,0
19532000,0.0,-0.0,1.6151807,0.0,0.6912417,0.0,0.0,0.7226237,0.0,0.0,-0.001,0,0
19588000,0.0,-0.0,1.6149398,0.0,0.69132876,0.0,0.0,0.7225403,0.0,0.0,-0.001,0,0
19636000,0.0,-0.0,1.6147894,0.0,0.69138306,0.0,0.0,0.72248846,0.0,0.0,-0.001,0,0
19684000,0.0,-0.0,1.6146632,0.0,0.69142866,0.0,0.0,0.7224448,0.0,0.0,-0.001,0,0
19732000,0.0,-0.0,1.6146045,0.0,0.6914499,0.0,0.0,0.72242445,0.0,0.0,-0.001,0,0
19780000,0.0,-0.0,1.6146125,0.0,0.69144696,0.0,0.0,0.72242725,0.0,0.0,-0.001,0,0
19836000,0.0,-0.0,1.6146266,0.0,0.69144183,0.0,0.0,0.72243226,0.0,0.0,-0.001,0,0
19884000,0.0,-0.0,1.6145921,0.0,0.69145435,0.0,0.0,0.72242016,0.0,0.0,-0.001,0,0
19932000,0.0,-0.0,1.6145761,0.0,0.69146013,0.0,0.0,0.72241473,0.0,0.0,-0.001,0,0
19980000,0.0,-0.0,1.6145613,0.0,0.6914655,0.0,0.0,0.72240955,0.0,0.0,-0.001,0,0
20036000,0.0,-0.0,1.6145521,0.0,0.6914688,0.0,0.0,0.7224063,0.0,0.0,-0.001,0,0
20084000,0.0,-0.0,1.6144326,0.0,0.691512,0.0,0.0,0.722365,0.0,0.0,-0.001,0,0
20132000,0.0,-0.0,1.6144129,0.0,0.6915191,0.0,0.0,0.72235817,0.0,0.0,-0.001,0,0
20180000,0.0,-0.0,1.6143475,0.0,0.6915427,0.0,0.0,0.7223356,0.0,0.0,-0.001,0,0
20236000,0.0,-0.0,1.6143162,0.0,0.691554,0.0,0.0,0.7223248,0.0,0.0,-0.001,0,0
20284000,0.0,-0.0,1.6143205,0.0,0.69155246,0.0,0.0,0.7223263,0.0,0.0,-0.001,0,0
20340000,0.0,-0.0,1.6143659,0.0,0.691536,0.0,0.0,0.722342,0.0,0.0,-0.001,0,0
20380000,0.0,-0.0,1.6144288,0.0,0.69151336,0.0,0.0,0.72236377,0.0,0.0,-0.001,0,0
20436000,0.0,-0.0,1.614474,0.0,0.69149697,0.0,0.0,0.72237945,0.0,0.0,-0.001,0,0
20484000,0.0,-0.0,1.6144583,0.0,0.6915027,0.0,0.0,0.7223739,0.0,0.0,-0.001,0,0
20532000,0.0,-0.0,1.614446,0.0,0.6915071,0.0,0.0,0.72236973,0.0,0.0,-0.001,0,0
20580000,0.0,-0.0,1.6144102,0.0,0.69152004,0.0,0.0,0.72235733,0.0,0.0,-0.001,0,0
20636000,0.0,-0.0,1.6142527,0.0,0.6915769,0.0,0.0,0.72230285,0.0,0.0,-0.001,0,0
20684000,0.0,-0.0,1.6141392,0.0,0.6916179,0.0,0.0,0.7222636,0.0,0.0,-0.001,0,0
20732000,0.0,-0.0,1.6140441,0.0,0.6916523,0.0,0.0,0.7222307,0.0,0.0,-0.001,0,0
20788000,0.0,-0.0,1.6138865,0.0,0.69170916,0.0,0.0,0.7221762,0.0,0.0,-0.001,0,0
20836000,0.0,-0.0,1.6137605,0.0,0.6917547,0.0,0.0,0.7221326,0.0,0.0,-0.001,0,0
20884000,0.0,-0.0,1.6137094,0.0,0.6917731,0.0,0.0,0.722115,0.0,0.0,-0.001,0,0
20932000,0.0,-0.0,1.6137053,0.0,0.6917746,0.0,0.0,0.7221136,0.0,0.0,-0.001,0,0
20988000,0.0,-0.0,1.6137183,0.0,0.6917699,0.0,0.0,0.722118,0.0,0.0,-0.001,0,0
21036000,0.0,-0.0,1.6137221,0.0,0.6917685,0.0,0.0,0.7221194,0.0,0.0,-0.001,0,0
21084000,0.0,-0.0,1.613737,0.0,0.69176316,0.0,0.0,0.72212446,0.0,0.0,-0.001,0,0
21132000,0.0,-0.0,1.6137937,0.0,0.69174266,0.0,0.0,0.7221441,0.0,0.0,-0.001,0,0
21188000,0.0,-0.0,1.6138399,0.0,0.691726,0.0,0.0,0.7221601,0.0,0.0,-0.001,0,0
21236000,0.0,-0.0,1.613776,0.0,0.6917491,0.0,0.0,0.722138,0.0,0.0,-0.001,0,0
21284000,0.0,-0.0,1.6137016,0.0,0.6917759,0.0,0.0,0.72211224,0.0,0.0,-0.001,0,0
21332000,0.0,-0.0,1.6135468,0.0,0.6918318,0.0,0.0,0.7220588,0.0,0.0,-0.001,0,0
21388000,0.0,-0.0,1.6134396,0.0,0.6918705,0.0,0.0,0.72202164,0.0,0.0,-0.001,0,0
21436000,0.0,-0.0,1.6133728,0.0,0.69189465,0.0,0.0,0.7219985,0.0,0.0,-0.001,0,0
21484000,0.0,-0.0,1.6133783,0.0,0.6918927,0.0,0.0,0.72200036,0.0,0.0,-0.001,0,0
21532000,0.0,-0.0,1.6135054,0.0,0.6918468,0.0,0.0,0.7220443,0.0,0.0,-0.001,0,0
21580000,0.0,-0.0,1.6136509,0.0,0.6917943,0.0,0.0,0.72209466,0.0,0.0,-0.001,0,0
21636000,0.0,-0.0,1.6137692,0.0,0.69175154,0.0,0.0,0.72213566,0.0,0.0,-0.001,0,0
21684000,0.0,-0.0,1.613917,0.0,0.6916982,0.0,0.0,0.7221867,0.0,0.0,-0.001,0,0
21732000,0.0,-0.0,1.6140332,0.0,0.6916562,0.0,0.0,0.722227,0.0,0.0,-0.001,0,0
21788000,0.0,-0.0,1.6139445,0.0,0.69168824,0.0,0.0,0.7221962,0.0,0.0,-0.001,0,0
21836000,0.0,-0.0,1.6138636,0.0,0.69171745,0.0,0.0,0.7221683,0.0,0.0,-0.001,0,0
21884000,0.0,-0.0,1.6137483,0.0,0.69175905,0.0,0.0,0.72212845,0.0,0.0,-0.001,0,0
21940000,0.0,-0.0,1.6136588,0.0,0.6917914,0.0,0.0,0.7220974,0.0,0.0,-0.001,0,0
21988000,0.0,-0.0,1.6135603,0.0,0.69182694,0.0,0.0,0.72206336,0.0,0.0,-0.001,0,0
22036000,0.0,-0.0,1.6135689,0.0,0.69182384,0.0,0.0,0.7220664,0.0,0.0,-0.001,0,0
22084000,0.0,-0.0,1.6136771,0.0,0.6917848,0.0,0.0,0.7221037,0.0,0.0,-0.001,0,0
22140000,0.0,-0.0,1.6137147,0.0,0.6917712,0.0,0.0,0.72211677,0.0,0.0,-0.001,0,0
22180000,0.0,-0.0,1.6137078,0.0,0.6917737,0.0,0.0,0.7221143,0.0,0.0,-0.001,0,0
22236000,0.0,-0.0,1.6138917,0.0,0.6917073,0.0,0.0,0.7221779,0.0,0.0,-0.001,0,0
22284000,0.0,-0.0,1.6140174,0.0,0.6916619,0.0,0.0,0.7222215,0.0,0.0,-0.001,0,0
22332000,0.0,-0.0,1.6140343,0.0,0.6916558,0.0,0.0,0.7222273,0.0,0.0,-0.001,0,0
22380000,0.0,-0.0,1.6138674,0.0,0.6917161,0.0,0.0,0.7221696,0.0,0.0,-0.001,0,0
22436000,0.0,-0.0,1.6136831,0.0,0.6917826,0.0,0.0,0.7221059,0.0,0.0,-0.001,0,0
22484000,0.0,-0.0,1.6135777,0.0,0.6918207,0.0,0.0,0.7220693,0.0,0.0,-0.001,0,0
22532000,0.0,-0.0,1.6135687,0.0,0.69182396,0.0,0.0,0.7220662,0.0,0.0,-0.001,0,0
22580000,0.0,-0.0,1.6135558,0.0,0.6918286,0.0,0.0,0.72206175,0.0,0.0,-0.001,0,0
22636000,0.0,-0.0,1.6134313,0.0,0.6918735,0.0,0.0,0.7220187,0.0,0.0,-0.001,0,0
22684000,0.0,-0.0,1.6133771,0.0,0.6918931,0.0,0.0,0.722,0.0,0.0,-0.001,0,0
22732000,0.0,-0.0,1.6133122,0.0,0.6919165,0.0,0.0,0.7219775,0.0,0.0,-0.001,0,0
22780000,0.0,-0.0,1.613293,0.0,0.69192344,0.0,0.0,0.72197086,0.0,0.0,-0.001,0,0
22836000,0.0,-0.0,1.6133687,0.0,0.6918961,0.0,0.0,0.72199714,0.0,0.0,-0.001,0,0
22884000,0.0,-0.0,1.6133517,0.0,0.6919023,0.0,0.0,0.7219912,0.0,0.0,-0.001,0,0
22940000,0.0,-0.0,1.6133193,0.0,0.69191396,0.0,0.0,0.72198,0.0,0.0,-0.001,0,0
22980000,0.0,-0.0,1.6132758,0.0,0.6919297,0.0,0.0,0.7219649,0.0,0.0,-0.001,0,0
23036000,0.0,-0.0,1.6132168,0.0,0.691951,0.0,0.0,0.7219445,0.0,0.0,-0.001,0,0
23084000,0.0,-0.0,1.6132137,0.0,0.69195205,0.0,0.0,0.72194344,0.0,0.0,-0.001,0,0
23140000,0.0,-0.0,1.613237,0.0,0.69194365,0.0,0.0,0.72195154,0.0,0.0,-0.001,0,0
23180000,0.0,-0.0,1.613278,0.0,0.69192886,0.0,0.0,0.7219657,0.0,0.0,-0.001,0,0
23236000,0.0,-0.0,1.6132649,0.0,0.6919336,0.0,0.0,0.7219612,0.0,0.0,-0.001,0,0
23284000,0.0,-0.0,1.6133435,0.0,0.6919052,0.0,0.0,0.7219884,0.0,0.0,-0.001,0,0
23340000,0.0,-0.0,1.6133624,0.0,0.6918984,0.0,0.0,0.7219949,0.0,0.0,-0.001,0,0
23388000,0.0,-0.0,1.6134586,0.0,0.69186366,0.0,0.0,0.72202826,0.0,0.0,-0.001,0,0
23436000,0.0,-0.0,1.6134585,0.0,0.6918637,0.0,0.0,0.72202814,0.0,0.0,-0.001,0,0
23484000,0.0,-0.0,1.6135055,0.0,0.6918467,0.0,0.0,0.72204435,0.0,0.0,-0.001,0,0
23532000,0.0,-0.0,1.6135396,0.0,0.69183445,0.0,0.0,0.72205627,0.0,0.0,-0.001,0,0
23580000,0.0,-0.0,1.6134963,0.0,0.69185007,0.0,0.0,0.72204125,0.0,0.0,-0.001,0,0
23636000,0.0,-0.0,1.6134944,0.0,0.6918507,0.0,0.0,0.72204053,0.0,0.0,-0.001,0,0
23684000,0.0,-0.0,1.6135218,0.0,0.6918409,0.0,0.0,0.72205,0.0,0.0,-0.001,0,0
23732000,0.0,-0.0,1.613655,0.0,0.6917928,0.0,0.0,0.7220961,0.0,0.0,-0.001,0,0
23780000,0.0,-0.0,1.6137153,0.0,0.691771,0.0,0.0,0.722117,0.0,0.0,-0.001,0,0
23836000,0.0,-0.0,1.6137277,0.0,0.6917665,0.0,0.0,0.72212136,0.0,0.0,-0.001,0,0
23884000,0.0,-0.0,1.6137301,0.0,0.69176567,0.0,0.0,0.7221221,0.0,0.0,-0.001,0,0
23932000,0.0,-0.0,1.6136906,0.0,0.6917799,0.0,0.0,0.7221084,0.0,0.0,-0.001,0,0
23980000,0.0,-0.0,1.6136476,0.0,0.6917954,0.0,0.0,0.7220936,0.0,0.0,-0.001,0,0
24036000,0.0,-0.0,1.6136055,0.0,0.6918106,0.0,0.0,0.72207904,0.0,0.0,-0.001,0,0
24084000,0.0,-0.0,1.613531,0.0,0.69183755,0.0,0.0,0.7220532,0.0,0.0,-0.001,0,0
24132000,0.0,-0.0,1.6133823,0.0,0.6918912,0.0,0.0,0.7220018,0.0,0.0,-0.001,0,0
24180000,0.0,-0.0,1.6132479,0.0,0.6919397,0.0,0.0,0.7219553,0.0,0.0,-0.001,0,0
24236000,0.0,-0.0,1.6131779,0.0,0.691965,0.0,0.0,0.72193104,0.0,0.0,-0.001,0,0
24284000,0.0,-0.0,1.6132014,0.0,0.6919565,0.0,0.0,0.7219392,0.0,0.0,-0.001,0,0
24340000,0.0,-0.0,1.6132407,0.0,0.69194233,0.0,0.0,0.72195274,0.0,0.0,-0.001,0,0
24388000,0.0,-0.0,1.6133282,0.0,0.69191074,0.0,0.0,0.7219831,0.0,0.0,-0.001,0,0
24436000,0.0,-0.0,1.6133374,0.0,0.6919074,0.0,0.0,0.72198623,0.0,0.0,-0.001,0,0
24484000,0.0,-0.0,1.6133454,0.0,0.69190454,0.0,0.0,0.721989,0.0,0.0,-0.001,0,0
24540000,0.0,-0.0,1.6132894,0.0,0.69192475,0.0,0.0,0.7219696,0.0,0.0,-0.001,0,0
24588000,0.0,-0.0,1.6132112,0.0,0.691953,0.0,0.0,0.72194254,0.0,0.0,-0.001,0,0
24636000,0.0,-0.0,1.6131375,0.0,0.6919796,0.0,0.0,0.7219171,0.0,0.0,-0.001,0,0
24684000,0.0,-0.0,1.613098,0.0,0.69199383,0.0,0.0,0.7219035,0.0,0.0,-0.001,0,0
24740000,0.0,-0.0,1.6130773,0.0,0.6920013,0.0,0.0,0.72189635,0.0,0.0,-0.001,0,0
24788000,0.0,-0.0,1.613021,0.0,0.6920216,0.0,0.0,0.72187674,0.0,0.0,-0.001,0,0
24836000,0.0,-0.0,1.6130563,0.0,0.69200885,0.0,0.0,0.721889,0.0,0.0,-0.001,0,0
24884000,0.0,-0.0,1.6130472,0.0,0.69201213,0.0,0.0,0.7218859,0.0,0.0,-0.001,0,0
24940000,0.0,-0.0,1.6130619,0.0,0.6920069,0.0,0.0,0.72189087,0.0,0.0,-0.001,0,0
24988000,0.0,-0.0,1.6131201,0.0,0.69198585,0.0,0.0,0.7219111,0.0,0.0,-0.001,0,0
25036000,0.0,-0.0,1.6130817,0.0,0.69199973,0.0,0.0,0.7218978,0.0,0.0,-0.001,0,0
25084000,0.0,-0.0,1.6129986,0.0,0.6920297,0.0,0.0,0.721869,0.0,0.0,-0.001,0,0
25140000,0.0,-0.0,1.6129128,0.0,0.6920607,0.0,0.0,0.72183937,0.0,0.0,-0.001,0,0
25188000,0.0,-0.0,1.6128569,0.0,0.6920809,0.0,0.0,0.72181994,0.0,0.0,-0.001,0,0
25236000,0.0,-0.0,1.6127429,0.0,0.692122,0.0,0.0,0.7217806,0.0,0.0,-0.001,0,0
25284000,0.0,-0.0,1.6127304,0.0,0.6921265,0.0,0.0,0.7217762,0.0,0.0,-0.001,0,0
25332000,0.0,-0.0,1.6126688,0.0,0.69214875,0.0,0.0,0.72175497,0.0,0.0,-0.001,0,0
25388000,0.0,-0.0,1.6126455,0.0,0.69215715,0.0,0.0,0.72174686,0.0,0.0,-0.001,0,0
25436000,0.0,-0.0,1.6126587,0.0,0.6921524,0.0,0.0,0.72175145,0.0,0.0,-0.001,0,0
25484000,0.0,-0.0,1.6126239,0.0,0.69216496,0.0,0.0,0.72173935,0.0,0.0,-0.001,0,0
25532000,0.0,-0.0,1.612617,0.0,0.69216746,0.0,0.0,0.72173697,0.0,0.0,-0.001,0,0
25580000,0.0,-0.0,1.6125987,0.0,0.6921741,0.0,0.0,0.7217306,0.0,0.0,-0.001,0,0
25636000,0.0,-0.0,1.6125804,0.0,0.69218063,0.0,0.0,0.72172433,0.0,0.0,-0.001,0,0
25684000,0.0,-0.0,1.6126125,0.0,0.6921691,0.0,0.0,0.7217354,0.0,0.0,-0.001,0,0
25732000,0.0,-0.0,1.6126012,0.0,0.6921732,0.0,0.0,0.7217315,0.0,0.0,-0.001,0,0
25780000,0.0,-0.0,1.6125942,0.0,0.6921757,0.0,0.0,0.72172904,0.0,0.0,-0.001,0,0
25836000,0.0,-0.0,1.6125998,0.0,0.69217366,0.0,0.0,0.721731,0.0,0.0,-0.001,0,0
25884000,0.0,-0.0,1.6126267,0.0,0.69216394,0.0,0.0,0.7217403,0.0,0.0,-0.001,0,0
25940000,0.0,-0.0,1.6125747,0.0,0.6921827,0.0,0.0,0.72172236,0.0,0.0,-0.001,0,0
25988000,0.0,-0.0,1.6124653,0.0,0.6922222,0.0,0.0,0.72168446,0.0,0.0,-0.001,0,0
26036000,0.0,-0.0,1.612336,0.0,0.69226885,0.0,0.0,0.72163975,0.0,0.0,-0.001,0,0
26084000,0.0,-0.0,1.6122181,0.0,0.69231135,0.0,0.0,0.721599,0.0,0.0,-0.001,0,0
26140000,0.0,-0.0,1.6122566,0.0,0.69229746,0.0,0.0,0.7216123,0.0,0.0,-0.001,0,0
26180000,0.0,-0.0,1.6122378,0.0,0.69230425,0.0,0.0,0.7216058,0.0,0.0,-0.001,0,0
26236000,0.0,-0.0,1.6123534,0.0,0.69226253,0.0,0.0,0.7216458,0.0,0.0,-0.001,0,0
26284000,0.0,-0.0,1.6124784,0.0,0.69221747,0.0,0.0,0.721689,0.0,0.0,-0.001,0,0
26332000,0.0,-0.0,1.6125398,0.0,0.6921953,0.0,0.0,0.72171026,0.0,0.0,-0.001,0,0
26388000,0.0,-0.0,1.6125605,0.0,0.69218785,0.0,0.0,0.72171736,0.0,0.0,-0.001,0,0
26436000,0.0,-0.0,1.6124709,0.0,0.69222015,0.0,0.0,0.7216864,0.0,0.0,-0.001,0,0
26484000,0.0,-0.0,1.612406,0.0,0.6922436,0.0,0.0,0.7216639,0.0,0.0,-0.001,0,0
26532000,0.0,-0.0,1.612324,0.0,0.6922732,0.0,0.0,0.7216355,0.0,0.0,-0.001,0,0
26580000,0.0,-0.0,1.6122915,0.0,0.6922849,0.0,0.0,0.7216244,0.0,0.0,-0.001,0,0
26636000,0.0,-0.0,1.6122651,0.0,0.6922944,0.0,0.0,0.7216152,0.0,0.0,-0.001,0,0
26684000,0.0,-0.0,1.6122363,0.0,0.6923048,0.0,0.0,0.72160524,0.0,0.0,-0.001,0,0
26732000,0.0,-0.0,1.6121299,0.0,0.6923432,0.0,0.0,0.72156847,0.0,0.0,-0.001,0,0
26788000,0.0,-0.0,1.6120863,0.0,0.6923589,0.0,0.0,0.7215533,0.0,0.0,-0.001,0,0
26836000,0.0,-0.0,1.6121153,0.0,0.6923485,0.0,0.0,0.7215633,0.0,0.0,-0.001,0,0
26884000,0.0,-0.0,1.6121683,0.0,0.69232935,0.0,0.0,0.72158164,0.0,0.0,-0.001,0,0
26940000,0.0,-0.0,1.6121652,0.0,0.6923304,0.0,0.0,0.7215806,0.0,0.0,-0.001,0,0
26980000,0.0,-0.0,1.612167,0.0,0.6923298,0.0,0.0,0.7215812,0.0,0.0,-0.001,0,0
27036000,0.0,-0.0,1.6120545,0.0,0.6923704,0.0,0.0,0.7215423,0.0,0.0,-0.001,0,0
27084000,0.0,-0.0,1.6120052,0.0,0.6923882,0.0,0.0,0.72152525,0.0,0.0,-0.001,0,0
27132000,0.0,-0.0,1.6119906,0.0,0.6923935,0.0,0.0,0.7215201,0.0,0.0,-0.001,0,0
27180000,0.0,-0.0,1.6119472,0.0,0.6924091,0.0,0.0,0.72150517,0.0,0.0,-0.001,0,0
27236000,0.0,-0.0,1.6119751,0.0,0.692399,0.0,0.0,0.7215148,0.0,0.0,-0.001,0,0
27284000,0.0,-0.0,1.6120145,0.0,0.69238484,0.0,0.0,0.7215285,0.0,0.0,-0.001,0,0
27332000,0.0,-0.0,1.6121137,0.0,0.692349,0.0,0.0,0.7215628,0.0,0.0,-0.001,0,0
27380000,0.0,-0.0,1.6120514,0.0,0.69237155,0.0,0.0,0.72154117,0.0,0.0,-0.001,0,0
27436000,0.0,-0.0,1.6119795,0.0,0.6923975,0.0,0.0,0.7215163,0.0,0.0,-0.001,0,0
27484000,0.0,-0.0,1.6118824,0.0,0.69243246,0.0,0.0,0.72148275,0.0,0.0,-0.001,0,0
27532000,0.0,-0.0,1.6119027,0.0,0.6924252,0.0,0.0,0.7214897,0.0,0.0,-0.001,0,0
27580000,0.0,-0.0,1.6119541,0.0,0.6924066,0.0,0.0,0.7215075,0.0,0.0,-0.001,0,0
27636000,0.0,-0.0,1.6120365,0.0,0.6923769,0.0,0.0,0.72153604,0.0,0.0,-0.001,0,0
27684000,0.0,-0.0,1.6121478,0.0,0.69233674,0.0,0.0,0.72157454,0.0,0.0,-0.001,0,0
27732000,0.0,-0.0,1.6122515,0.0,0.6922993,0.0,0.0,0.7216105,0.0,0.0,-0.001,0,0
27780000,0.0,-0.0,1.6123141,0.0,0.6922768,0.0,0.0,0.7216321,0.0,0.0,-0.001,0,0
27836000,0.0,-0.0,1.6123805,0.0,0.69225276,0.0,0.0,0.72165513,0.0,0.0,-0.001,0,0
27884000,0.0,-0.0,1.6124737,0.0,0.69221914,0.0,0.0,0.7216874,0.0,0.0,-0.001,0,0
27940000,0.0,-0.0,1.6125027,0.0,0.6922087,0.0,0.0,0.7216974,0.0,0.0,-0.001,0,0
27980000,0.0,-0.0,1.612402,0.0,0.692245,0.0,0.0,0.7216625,0.0,0.0,-0.001,0,0
28036000,0.0,-0.0,1.6121855,0.0,0.69232315,0.0,0.0,0.7215876,0.0,0.0,-0.001,0,0
28084000,0.0,-0.0,1.612034,0.0,0.6923778,0.0,0.0,0.72153515,0.0,0.0,-0.001,0,0
28132000,0.0,-0.0,1.6121426,0.0,0.69233865,0.0,0.0,0.7215727,0.0,0.0,-0.001,0,0
28180000,0.0,-0.0,1.6122589,0.0,0.6922966,0.0,0.0,0.72161305,0.0,0.0,-0.001,0,0
28236000,0.0,-0.0,1.612436,0.0,0.6922327,0.0,0.0,0.7216743,0.0,0.0,-0.001,0,0
28284000,0.0,-0.0,1.6125642,0.0,0.6921865,0.0,0.0,0.7217187,0.0,0.0,-0.001,0,0
28332000,0.0,-0.0,1.6126388,0.0,0.69215953,0.0,0.0,0.7217446,0.0,0.0,-0.001,0,0
28380000,0.0,-0.0,1.612571,0.0,0.69218403,0.0,0.0,0.72172105,0.0,0.0,-0.001,0,0
28436000,0.0,-0.0,1.6124322,0.0,0.6922341,0.0,0.0,0.721673,0.0,0.0,-0.001,0,0
28484000,0.0,-0.0,1.6123203,0.0,0.6922745,0.0,0.0,0.7216343,0.0,0.0,-0.001,0,0
28540000,0.0,-0.0,1.6122136,0.0,0.692313,0.0,0.0,0.7215974,0.0,0.0,-0.001,0,0
28588000,0.0,-0.0,1.6120875,0.0,0.6923585,0.0,0.0,0.7215537,0.0,0.0,-0.001,0,0
28636000,0.0,-0.0,1.6120441,0.0,0.69237417,0.0,0.0,0.72153866,0.0,0.0,-0.001,0,0
28684000,0.0,-0.0,1.6120325,0.0,0.69237834,0.0,0.0,0.72153467,0.0,0.0,-0.001,0,0
28740000,0.0,-0.0,1.6121953,0.0,0.69231963,0.0,0.0,0.72159094,0.0,0.0,-0.001,0,0
28788000,0.0,-0.0,1.6121836,0.0,0.69232386,0.0,0.0,0.721587,0.0,0.0,-0.001,0,0
28836000,0.0,-0.0,1.6122233,0.0,0.6923095,0.0,0.0,0.7216007,0.0,0.0,-0.001,0,0
28884000,0.0,-0.0,1.6121956,0.0,0.6923195,0.0,0.0,0.72159106,0.0,0.0,-0.001,0,0
28932000,0.0,-0.0,1.612199,0.0,0.69231826,0.0,0.0,0.7215923,0.0,0.0,-0.001,0,0
28980000,0.0,-0.0,1.6121656,0.0,0.6923303,0.0,0.0,0.7215808,0.0,0.0,-0.001,0,0
29036000,0.0,-0.0,1.6121384,0.0,0.69234014,0.0,0.0,0.72157127,0.0,0.0,-0.001,0,0
29084000,0.0,-0.0,1.6121963,0.0,0.6923192,0.0,0.0,0.7215915,0.0,0.0,-0.001,0,0
29132000,0.0,-0.0,1.6121626,0.0,0.6923314,0.0,0.0,0.72157973,0.0,0.0,-0.001,0,0
29180000,0.0,-0.0,1.6121662,0.0,0.6923301,0.0,0.0,0.721581,0.0,0.0,-0.001,0,0
29236000,0.0,-0.0,1.6121672,0.0,0.6923297,0.0,0.0,0.72158134,0.0,0.0,-0.001,0,0
29284000,0.0,-0.0,1.6121247,0.0,0.6923451,0.0,0.0,0.72156656,0.0,0.0,-0.001,0,0
29340000,0.0,-0.0,1.6120487,0.0,0.6923725,0.0,0.0,0.7215403,0.0,0.0,-0.001,0,0
29380000,0.0,-0.0,1.6120209,0.0,0.6923825,0.0,0.0,0.7215307,0.0,0.0,-0.001,0,0
29436000,0.0,-0.0,1.6120842,0.0,0.6923597,0.0,0.0,0.7215525,0.0,0.0,-0.001,0,0
29484000,0.0,-0.0,1.6120789,0.0,0.6923616,0.0,0.0,0.7215507,0.0,0.0,-0.001,0,0
29540000,0.0,-0.0,1.612009,0.0,0.6923868,0.0,0.0,0.7215265,0.0,0.0,-0.001,0,0
29580000,0.0,-0.0,1.6119342,0.0,0.6924138,0.0,0.0,0.7215006,0.0,0.0,-0.001,0,0
29636000,0.0,-0.0,1.6118752,0.0,0.6924351,0.0,0.0,0.72148025,0.0,0.0,-0.001,0,0
29684000,0.0,-0.0,1.6118057,0.0,0.6924602,0.0,0.0,0.7214561,0.0,0.0,-0.001,0,0
29740000,0.0,-0.0,1.6117892,0.0,0.6924661,0.0,0.0,0.72145045,0.0,0.0,-0.001,0,0
29780000,0.0,-0.0,1.6118072,0.0,0.6924596,0.0,0.0,0.72145665,0.0,0.0,-0.001,0,0
29836000,0.0,-0.0,1.611784,0.0,0.692468,0.0,0.0,0.7214486,0.0,0.0,-0.001,0,0
29884000,0.0,-0.0,1.6117843,0.0,0.69246787,0.0,0.0,0.7214487,0.0,0.0,-0.001,0,0
29932000,0.0,-0.0,1.6117874,0.0,0.69246674,0.0,0.0,0.7214498,0.0,0.0,-0.001,0,0
29988000,0.0,-0.0,1.6117477,0.0,0.6924811,0.0,0.0,0.721436,0.0,0.0,-0.001,0,0
30036000,0.0,-0.0,1.6117338,0.0,0.6924861,0.0,0.0,0.7214312,0.0,0.0,-0.001,0,0
30084000,0.0,-0.0,1.6117345,0.0,0.6924858,0.0,0.0,0.7214315,0.0,0.0,-0.001,0,0
30140000,0.0,-0.0,1.6116897,0.0,0.69250196,0.0,0.0,0.721416,0.0,0.0,-0.001,0,0
30180000,0.0,-0.0,1.6117139,0.0,0.69249326,0.0,0.0,0.72142434,0.0,0.0,-0.001,0,0
30236000,0.0,-0.0,1.6116878,0.0,0.6925027,0.0,0.0,0.72141534,0.0,0.0,-0.001,0,0
30284000,0.0,-0.0,1.6117138,0.0,0.6924933,0.0,0.0,0.72142434,0.0,0.0,-0.001,0,0
30340000,0.0,-0.0,1.6118159,0.0,0.6924565,0.0,0.0,0.7214596,0.0,0.0,-0.001,0,0
30380000,0.0,-0.0,1.6118575,0.0,0.69244146,0.0,0.0,0.72147405,0.0,0.0,-0.001,0,0
30436000,0.0,-0.0,1.6120465,0.0,0.6923733,0.0,0.0,0.72153944,0.0,0.0,-0.001,0,0
30484000,0.0,-0.0,1.6122041,0.0,0.6923164,0.0,0.0,0.7215941,0.0,0.0,-0.001,0,0
30532000,0.0,-0.0,1.6122754,0.0,0.6922907,0.0,0.0,0.7216188,0.0,0.0,-0.001,0,0
30580000,0.0,-0.0,1.61229,0.0,0.6922854,0.0,0.0,0.72162384,0.0,0.0,-0.001,0,0
30636000,0.0,-0.0,1.6122748,0.0,0.6922909,0.0,0.0,0.72161853,0.0,0.0,-0.001,0,0
30684000,0.0,-0.0,1.61228,0.0,0.69228905,0.0,0.0,0.7216204,0.0,0.0,-0.001,0,0
30740000,0.0,-0.0,1.6123289,0.0,0.6922714,0.0,0.0,0.7216373,0.0,0.0,-0.001,0,0
30788000,0.0,-0.0,1.6122866,0.0,0.6922867,0.0,0.0,0.7216226,0.0,0.0,-0.001,0,0
30836000,0.0,-0.0,1.6123046,0.0,0.6922802,0.0,0.0,0.7216289,0.0,0.0,-0.001,0,0
30884000,0.0,-0.0,1.6123315,0.0,0.69227046,0.0,0.0,0.7216382,0.0,0.0,-0.001,0,0
30932000,0.0,-0.0,1.6123732,0.0,0.6922554,0.0,0.0,0.7216526,0.0,0.0,-0.001,0,0
30980000,0.0,-0.0,1.6124402,0.0,0.69223124,0.0,0.0,0.7216758,0.0,0.0,-0.001,0,0
31036000,0.0,-0.0,1.612511,0.0,0.69220567,0.0,0.0,0.7217003,0.0,0.0,-0.001,0,0
31084000,0.0,-0.0,1.6125231,0.0,0.6922013,0.0,0.0,0.7217045,0.0,0.0,-0.001,0,0
31132000,0.0,-0.0,1.6125259,0.0,0.6922003,0.0,0.0,0.72170544,0.0,0.0,-0.001,0,0
31180000,0.0,-0.0,1.6124332,0.0,0.69223374,0.0,0.0,0.72167337,0.0,0.0,-0.001,0,0
31236000,0.0,-0.0,1.6123364,0.0,0.69226867,0.0,0.0,0.7216399,0.0,0.0,-0.001,0,0
31284000,0.0,-0.0,1.6123023,0.0,0.692281,0.0,0.0,0.721628,0.0,0.0,-0.001,0,0
31332000,0.0,-0.0,1.6122817,0.0,0.69228846,0.0,0.0,0.72162086,0.0,0.0,-0.001,0,0
31380000,0.0,-0.0,1.6123049,0.0,0.69228005,0.0,0.0,0.72162896,0.0,0.0,-0.001,0,0
31436000,0.0,-0.0,1.6123431,0.0,0.6922663,0.0,0.0,0.7216422,0.0,0.0,-0.001,0,0
31484000,0.0,-0.0,1.6123343,0.0,0.69226944,0.0,0.0,0.7216392,0.0,0.0,-0.001,0,0
31532000,0.0,-0.0,1.6123043,0.0,0.69228023,0.0,0.0,0.72162884,0.0,0.0,-0.001,0,0
31580000,0.0,-0.0,1.6123462,0.0,0.69226515,0.0,0.0,0.7216433,0.0,0.0,-0.001,0,0
31636000,0.0,-0.0,1.6124101,0.0,0.6922421,0.0,0.0,0.7216654,0.0,0.0,-0.001,0,0
31684000,0.0,-0.0,1.612451,0.0,0.69222736,0.0,0.0,0.72167945,0.0,0.0,-0.001,0,0
31740000,0.0,-0.0,1.6124492,0.0,0.692228,0.0,0.0,0.72167885,0.0,0.0,-0.001,0,0
31780000,0.0,-0.0,1.6124008,0.0,0.6922454,0.0,0.0,0.72166216,0.0,0.0,-0.001,0,0
31836000,0.0,-0.0,1.6124269,0.0,0.69223607,0.0,0.0,0.72167116,0.0,0.0,-0.001,0,0
31884000,0.0,-0.0,1.6123271,0.0,0.69227207,0.0,0.0,0.7216367,0.0,0.0,-0.001,0,0
31932000,0.0,-0.0,1.6122671,0.0,0.69229364,0.0,0.0,0.72161597,0.0,0.0,-0.001,0,0
31988000,0.0,-0.0,1.6122175,0.0,0.6923116,0.0,0.0,0.7215987,0.0,0.0,-0.001,0,0
32036000,0.0,-0.0,1.6122346,0.0,0.69230545,0.0,0.0,0.72160465,0.0,0.0,-0.001,0,0
32084000,0.0,-0.0,1.6122496,0.0,0.6923,0.0,0.0,0.72160983,0.0,0.0,-0.001,0,0
32132000,0.0,-0.0,1.6122622,0.0,0.69229543,0.0,0.0,0.72161424,0.0,0.0,-0.001,0,0
32180000,0.0,-0.0,1.6123025,0.0,0.6922809,0.0,0.0,0.7216282,0.0,0.0,-0.001,0,0
32236000,0.0,-0.0,1.6123452,0.0,0.6922655,0.0,0.0,0.7216429,0.0,0.0,-0.001,0,0
32284000,0.0,-0.0,1.6123942,0.0,0.6922478,0.0,0.0,0.72165984,0.0,0.0,-0.001,0,0
32332000,0.0,-0.0,1.6124004,0.0,0.6922456,0.0,0.0,0.721662,0.0,0.0,-0.001,0,0
32380000,0.0,-0.0,1.6123822,0.0,0.69225216,0.0,0.0,0.72165567,0.0,0.0,-0.001,0,0
32436000,0.0,-0.0,1.6122977,0.0,0.6922827,0.0,0.0,0.7216264,0.0,0.0,-0.001,0,0
32484000,0.0,-0.0,1.6121951,0.0,0.6923197,0.0,0.0,0.721591,0.0,0.0,-0.001,0,0
32540000,0.0,-0.0,1.6121423,0.0,0.6923387,0.0,0.0,0.72157264,0.0,0.0,-0.001,0,0
32588000,0.0,-0.0,1.6120868,0.0,0.69235873,0.0,0.0,0.7215535,0.0,0.0,-0.001,0,0
32636000,0.0,-0.0,1.612063,0.0,0.6923673,0.0,0.0,0.7215452,0.0,0.0,-0.001,0,0
32684000,0.0,-0.0,1.6119832,0.0,0.6923961,0.0,0.0,0.7215176,0.0,0.0,-0.001,0,0
32732000,0.0,-0.0,1.6120533,0.0,0.69237083,0.0,0.0,0.7215419,0.0,0.0,-0.001,0,0
32788000,0.0,-0.0,1.6121535,0.0,0.69233465,0.0,0.0,0.7215765,0.0,0.0,-0.001,0,0
32836000,0.0,-0.0,1.6122919,0.0,0.6922847,0.0,0.0,0.7216245,0.0,0.0,-0.001,0,0
32884000,0.0,-0.0,1.6123224,0.0,0.69227374,0.0,0.0,0.72163504,0.0,0.0,-0.001,0,0
32932000,0.0,-0.0,1.6123703,0.0,0.69225645,0.0,0.0,0.72165155,0.0,0.0,-0.001,0,0
32980000,0.0,-0.0,1.6123899,0.0,0.69224936,0.0,0.0,0.7216584,0.0,0.0,-0.001,0,0
33036000,0.0,-0.0,1.6124163,0.0,0.6922399,0.0,0.0,0.72166747,0.0,0.0,-0.001,0,0
33084000,0.0,-0.0,1.6124278,0.0,0.6922357,0.0,0.0,0.72167146,0.0,0.0,-0.001,0,0
33132000,0.0,-0.0,1.6125691,0.0,0.69218475,0.0,0.0,0.72172034,0.0,0.0,-0.001,0,0
33180000,0.0,-0.0,1.6126902,0.0,0.692141,0.0,0.0,0.72176236,0.0,0.0,-0.001,0,0
33236000,0.0,-0.0,1.6128154,0.0,0.6920958,0.0,0.0,0.72180575,0.0,0.0,-0.001,0,0
33284000,0.0,-0.0,1.6128709,0.0,0.6920758,0.0,0.0,0.7218248,0.0,0.0,-0.001,0,0
33340000,0.0,-0.0,1.6129197,0.0,0.6920582,0.0,0.0,0.7218417,0.0,0.0,-0.001,0,0
33388000,0.0,-0.0,1.6129062,0.0,0.69206303,0.0,0.0,0.72183716,0.0,0.0,-0.001,0,0
33436000,0.0,-0.0,1.6128215,0.0,0.6920937,0.0,0.0,0.72180766,0.0,0.0,-0.001,0,0
33484000,0.0,-0.0,1.6127719,0.0,0.69211155,0.0,0.0,0.72179055,0.0,0.0,-0.001,0,0
33532000,0.0,-0.0,1.6127335,0.0,0.6921254,0.0,0.0,0.7217773,0.0,0.0,-0.001,0,0
33580000,0.0,-0.0,1.6126997,0.0,0.6921376,0.0,0.0,0.7217656,0.0,0.0,-0.001,0,0
33636000,0.0,-0.0,1.612799,0.0,0.6921017,0.0,0.0,0.72179997,0.0,0.0,-0.001,0,0
33684000,0.0,-0.0,1.6128474,0.0,0.69208425,0.0,0.0,0.7218167,0.0,0.0,-0.001,0,0
33740000,0.0,-0.0,1.6128242,0.0,0.69209266,0.0,0.0,0.7218087,0.0,0.0,-0.001,0,0
33788000,0.0,-0.0,1.6128416,0.0,0.6920864,0.0,0.0,0.7218147,0.0,0.0,-0.001,0,0
33836000,0.0,-0.0,1.6127933,0.0,0.6921038,0.0,0.0,0.721798,0.0,0.0,-0.001,0,0
33884000,0.0,-0.0,1.6126844,0.0,0.6921431,0.0,0.0,0.7217604,0.0,0.0,-0.001,0,0
33940000,0.0,-0.0,1.6125432,0.0,0.69219404,0.0,0.0,0.7217115,0.0,0.0,-0.001,0,0
33980000,0.0,-0.0,1.6125019,0.0,0.692209,0.0,0.0,0.7216971,0.0,0.0,-0.001,0,0
34036000,0.0,-0.0,1.6124585,0.0,0.6922247,0.0,0.0,0.7216821,0.0,0.0,-0.001,0,0
34084000,0.0,-0.0,1.6125075,0.0,0.692207,0.0,0.0,0.7216991,0.0,0.0,-0.001,0,0
34132000,0.0,-0.0,1.6125363,0.0,0.69219655,0.0,0.0,0.721709,0.0,0.0,-0.001,0,0
34188000,0.0,-0.0,1.6124816,0.0,0.6922163,0.0,0.0,0.7216901,0.0,0.0,-0.001,0,0
34236000,0.0,-0.0,1.6124835,0.0,0.6922156,0.0,0.0,0.7216907,0.0,0.0,-0.001,0,0
34284000,0.0,-0.0,1.6125506,0.0,0.6921914,0.0,0.0,0.72171396,0.0,0.0,-0.001,0,0
34332000,0.0,-0.0,1.6125872,0.0,0.6921782,0.0,0.0,0.72172666,0.0,0.0,-0.001,0,0
34380000,0.0,-0.0,1.61258,0.0,0.6921808,0.0,0.0,0.72172415,0.0,0.0,-0.001,0,0
34436000,0.0,-0.0,1.6126093,0.0,0.69217026,0.0,0.0,0.7217342,0.0,0.0,-0.001,0,0
34484000,0.0,-0.0,1.6126418,0.0,0.69215846,0.0,0.0,0.72174555,0.0,0.0,-0.001,0,0
34540000,0.0,-0.0,1.6125592,0.0,0.6921883,0.0,0.0,0.72171694,0.0,0.0,-0.001,0,0
34580000,0.0,-0.0,1.6124749,0.0,0.6922187,0.0,0.0,0.7216878,0.0,0.0,-0.001,0,0
34636000,0.0,-0.0,1.6124234,0.0,0.6922373,0.0,0.0,0.7216699,0.0,0.0,-0.001,0,0
34684000,0.0,-0.0,1.6124171,0.0,0.6922396,0.0,0.0,0.72166777,0.0,0.0,-0.001,0,0
34740000,0.0,-0.0,1.6123385,0.0,0.6922679,0.0,0.0,0.7216407,0.0,0.0,-0.001,0,0
34780000,0.0,-0.0,1.6122963,0.0,0.69228315,0.0,0.0,0.721626,0.0,0.0,-0.001,0,0
34836000,0.0,-0.0,1.6123308,0.0,0.6922707,0.0,0.0,0.72163796,0.0,0.0,-0.001,0,0
34884000,0.0,-0.0,1.6124129,0.0,0.6922411,0.0,0.0,0.72166634,0.0,0.0,-0.001,0,0
34932000,0.0,-0.0,1.6124809,0.0,0.6922166,0.0,0.0,0.7216898,0.0,0.0,-0.001,0,0
34980000,0.0,-0.0,1.6125572,0.0,0.69218904,0.0,0.0,0.7217162,0.0,0.0,-0.001,0,0
35036000,0.0,-0.0,1.6126465,0.0,0.6921568,0.0,0.0,0.72174716,0.0,0.0,-0.001,0,0
35084000,0.0,-0.0,1.6127229,0.0,0.6921292,0.0,0.0,0.7217737,0.0,0.0,-0.001,0,0
35132000,0.0,-0.0,1.612799,0.0,0.6921017,0.0,0.0,0.72179997,0.0,0.0,-0.001,0,0
35180000,0.0,-0.0,1.6128888,0.0,0.69206935,0.0,0.0,0.7218311,0.0,0.0,-0.001,0,0
35236000,0.0,-0.0,1.612915,0.0,0.6920599,0.0,0.0,0.7218401,0.0,0.0,-0.001,0,0
35284000,0.0,-0.0,1.6129082,0.0,0.6920623,0.0,0.0,0.72183776,0.0,0.0,-0.001,0,0
35332000,0.0,-0.0,1.612909,0.0,0.6920621,0.0,0.0,0.72183806,0.0,0.0,-0.001,0,0
35380000,0.0,-0.0,1.612929,0.0,0.6920548,0.0,0.0,0.721845,0.0,0.0,-0.001,0,0
35436000,0.0,-0.0,1.6129621,0.0,0.6920429,0.0,0.0,0.7218564,0.0,0.0,-0.001,0,0
35484000,0.0,-0.0,1.6129738,0.0,0.69203866,0.0,0.0,0.7218605,0.0,0.0,-0.001,0,0
35532000,0.0,-0.0,1.6130159,0.0,0.69202346,0.0,0.0,0.721875,0.0,0.0,-0.001,0,0
35580000,0.0,-0.0,1.6130313,0.0,0.6920179,0.0,0.0,0.7218803,0.0,0.0,-0.001,0,0
35636000,0.0,-0.0,1.6130496,0.0,0.6920113,0.0,0.0,0.7218867,0.0,0.0,-0.001,0,0
35684000,0.0,-0.0,1.6131564,0.0,0.69197273,0.0,0.0,0.72192365,0.0,0.0,-0.001,0,0
35732000,0.0,-0.0,1.6132156,0.0,0.6919514,0.0,0.0,0.7219441,0.0,0.0,-0.001,0,0
35780000,0.0,-0.0,1.6132207,0.0,0.69194955,0.0,0.0,0.7219459,0.0,0.0,-0.001,0,0
35836000,0.0,-0.0,1.6132927,0.0,0.69192356,0.0,0.0,0.72197074,0.0,0.0,-0.001,0,0
35884000,0.0,-0.0,1.6133616,0.0,0.6918987,0.0,0.0,0.72199464,0.0,0.0,-0.001,0,0
35940000,0.0,-0.0,1.6134359,0.0,0.6918719,0.0,0.0,0.7220203,0.0,0.0,-0.001,0,0
35988000,0.0,-0.0,1.613432,0.0,0.69187325,0.0,0.0,0.7220191,0.0,0.0,-0.001,0,0
36036000,0.0,-0.0,1.6133677,0.0,0.6918965,0.0,0.0,0.7219967,0.0,0.0,-0.001,0,0
36084000,0.0,-0.0,1.613372,0.0,0.69189495,0.0,0.0,0.7219982,0.0,0.0,-0.001,0,0
36132000,0.0,-0.0,1.6134379,0.0,0.69187117,0.0,0.0,0.7220209,0.0,0.0,-0.001,0,0
36180000,0.0,-0.0,1.613533,0.0,0.69183683,0.0,0.0,0.7220539,0.0,0.0,-0.001,0,0
36236000,0.0,-0.0,1.6135706,0.0,0.69182324,0.0,0.0,0.72206694,0.0,0.0,-0.001,0,0
36284000,0.0,-0.0,1.6136382,0.0,0.69179887,0.0,0.0,0.72209024,0.0,0.0,-0.001,0,0
36340000,0.0,-0.0,1.6136513,0.0,0.6917941,0.0,0.0,0.7220949,0.0,0.0,-0.001,0,0
36388000,0.0,-0.0,1.6136802,0.0,0.69178367,0.0,0.0,0.7221049,0.0,0.0,-0.001,0,0
36436000,0.0,-0.0,1.6136665,0.0,0.6917886,0.0,0.0,0.72210014,0.0,0.0,-0.001,0,0
36484000,0.0,-0.0,1.6136891,0.0,0.69178045,0.0,0.0,0.7221079,0.0,0.0,-0.001,0,0
36532000,0.0,-0.0,1.6137819,0.0,0.69174695,0.0,0.0,0.72214,0.0,0.0,-0.001,0,0
36588000,0.0,-0.0,1.6138911,0.0,0.6917075,0.0,0.0,0.72217786,0.0,0.0,-0.001,0,0
36636000,0.0,-0.0,1.6140108,0.0,0.6916643,0.0,0.0,0.72221917,0.0,0.0,-0.001,0,0
36684000,0.0,-0.0,1.6141111,0.0,0.6916281,0.0,0.0,0.7222538,0.0,0.0,-0.001,0,0
36740000,0.0,-0.0,1.6141343,0.0,0.6916197,0.0,0.0,0.7222619,0.0,0.0,-0.001,0,0
36788000,0.0,-0.0,1.6141691,0.0,0.6916071,0.0,0.0,0.7222739,0.0,0.0,-0.001,0,0
36836000,0.0,-0.0,1.6142608,0.0,0.69157404,0.0,0.0,0.72230554,0.0,0.0,-0.001,0,0
36884000,0.0,-0.0,1.6143558,0.0,0.6915397,0.0,0.0,0.7223385,0.0,0.0,-0.001,0,0
36932000,0.0,-0.0,1.6143827,0.0,0.69153,0.0,0.0,0.72234774,0.0,0.0,-0.001,0,0
36980000,0.0,-0.0,1.6143941,0.0,0.6915259,0.0,0.0,0.7223517,0.0,0.0,-0.001,0,0
37036000,0.0,-0.0,1.6144114,0.0,0.6915196,0.0,0.0,0.7223577,0.0,0.0,-0.001,0,0
37084000,0.0,-0.0,1.6143683,0.0,0.6915352,0.0,0.0,0.7223428,0.0,0.0,-0.001,0,0
37140000,0.0,-0.0,1.614325,0.0,0.6915508,0.0,0.0,0.7223278,0.0,0.0,-0.001,0,0
37188000,0.0,-0.0,1.6143295,0.0,0.6915492,0.0,0.0,0.7223294,0.0,0.0,-0.001,0,0
37236000,0.0,-0.0,1.6143427,0.0,0.6915444,0.0,0.0,0.722334,0.0,0.0,-0.001,0,0
37284000,0.0,-0.0,1.6143941,0.0,0.6915259,0.0,0.0,0.7223517,0.0,0.0,-0.001,0,0
37332000,0.0,-0.0,1.6144527,0.0,0.6915047,0.0,0.0,0.72237194,0.0,0.0,-0.001,0,0
37388000,0.0,-0.0,1.6145538,0.0,0.6914682,0.0,0.0,0.7224069,0.0,0.0,-0.001,0,0
37436000,0.0,-0.0,1.6146256,0.0,0.69144225,0.0,0.0,0.7224318,0.0,0.0,-0.001,0,0
37484000,0.0,-0.0,1.6146911,0.0,0.6914186,0.0,0.0,0.72245437,0.0,0.0,-0.001,0,0
37532000,0.0,-0.0,1.6146547,0.0,0.69143176,0.0,0.0,0.7224418,0.0,0.0,-0.001,0,0
37580000,0.0,-0.0,1.6146176,0.0,0.6914451,0.0,0.0,0.722429,0.0,0.0,-0.001,0,0
37636000,0.0,-0.0,1.6145014,0.0,0.69148713,0.0,0.0,0.72238886,0.0,0.0,-0.001,0,0
37684000,0.0,-0.0,1.6144756,0.0,0.69149643,0.0,0.0,0.72237986,0.0,0.0,-0.001,0,0
37740000,0.0,-0.0,1.6143531,0.0,0.69154066,0.0,0.0,0.72233754,0.0,0.0,-0.001,0,0
37780000,0.0,-0.0,1.614348,0.0,0.6915425,0.0,0.0,0.7223358,0.0,0.0,-0.001,0,0
37836000,0.0,-0.0,1.6142529,0.0,0.69157684,0.0,0.0,0.7223029,0.0,0.0,-0.001,0,0
37884000,0.0,-0.0,1.6143079,0.0,0.691557,0.0,0.0,0.72232187,0.0,0.0,-0.001,0,0
37940000,0.0,-0.0,1.6143823,0.0,0.6915301,0.0,0.0,0.72234774,0.0,0.0,-0.001,0,0
37988000,0.0,-0.0,1.614403,0.0,0.69152266,0.0,0.0,0.7223549,0.0,0.0,-0.001,0,0
38036000,0.0,-0.0,1.6144391,0.0,0.6915096,0.0,0.0,0.7223673,0.0,0.0,-0.001,0,0
38084000,0.0,-0.0,1.6144933,0.0,0.69149005,0.0,0.0,0.72238606,0.0,0.0,-0.001,0,0
38140000,0.0,-0.0,1.6145754,0.0,0.6914604,0.0,0.0,0.7224144,0.0,0.0,-0.001,0,0
38188000,0.0,-0.0,1.6146778,0.0,0.6914234,0.0,0.0,0.7224498,0.0,0.0,-0.001,0,0
38236000,0.0,-0.0,1.6147733,0.0,0.6913889,0.0,0.0,0.72248274,0.0,0.0,-0.001,0,0
38284000,0.0,-0.0,1.6147115,0.0,0.6914112,0.0,0.0,0.72246146,0.0,0.0,-0.001,0,0
38340000,0.0,-0.0,1.614605,0.0,0.6914497,0.0,0.0,0.7224247,0.0,0.0,-0.001,0,0
38388000,0.0,-0.0,1.6144968,0.0,0.69148874,0.0,0.0,0.72238725,0.0,0.0,-0.001,0,0
38436000,0.0,-0.0,1.6144899,0.0,0.69149125,0.0,0.0,0.72238487,0.0,0.0,-0.001,0,0
38484000,0.0,-0.0,1.6145436,0.0,0.6914719,0.0,0.0,0.72240347,0.0,0.0,-0.001,0,0
38532000,0.0,-0.0,1.614572,0.0,0.6914616,0.0,0.0,0.72241324,0.0,0.0,-0.001,0,0
38588000,0.0,-0.0,1.6145991,0.0,0.6914518,0.0,0.0,0.72242266,0.0,0.0,-0.001,0,0
38636000,0.0,-0.0,1.6145604,0.0,0.6914658,0.0,0.0,0.7224092,0.0,0.0,-0.001,0,0
38684000,0.0,-0.0,1.6145911,0.0,0.6914547,0.0,0.0,0.7224199,0.0,0.0,-0.001,0,0
38732000,0.0,-0.0,1.6144657,0.0,0.6915,0.0,0.0,0.7223765,0.0,0.0,-0.001,0,0
38788000,0.0,-0.0,1.6144123,0.0,0.69151926,0.0,0.0,0.7223581,0.0,0.0,-0.001,0,0
38836000,0.0,-0.0,1.6143913,0.0,0.6915269,0.0,0.0,0.7223507,0.0,0.0,-0.001,0,0
38884000,0.0,-0.0,1.6144427,0.0,0.6915083,0.0,0.0,0.7223686,0.0,0.0,-0.001,0,0
38932000,0.0,-0.0,1.6144269,0.0,0.691514,0.0,0.0,0.72236305,0.0,0.0,-0.001,0,0
38988000,0.0,-0.0,1.6144383,0.0,0.6915099,0.0,0.0,0.72236705,0.0,0.0,-0.001,0,0
39036000,0.0,-0.0,1.6144809,0.0,0.6914945,0.0,0.0,0.7223818,0.0,0.0,-0.001,0,0
39084000,0.0,-0.0,1.6144185,0.0,0.69151706,0.0,0.0,0.72236013,0.0,0.0,-0.001,0,0
39132000,0.0,-0.0,1.6145064,0.0,0.69148535,0.0,0.0,0.7223905,0.0,0.0,-0.001,0,0
39180000,0.0,-0.0,1.614545,0.0,0.6914714,0.0,0.0,0.72240394,0.0,0.0,-0.001,0,0
39236000,0.0,-0.0,1.6145782,0.0,0.69145936,0.0,0.0,0.7224154,0.0,0.0,-0.001,0,0
39284000,0.0,-0.0,1.6146171,0.0,0.6914453,0.0,0.0,0.7224289,0.0,0.0,-0.001,0,0
39332000,0.0,-0.0,1.6146452,0.0,0.69143516,0.0,0.0,0.7224386,0.0,0.0,-0.001,0,0
39380000,0.0,-0.0,1.61462,0.0,0.6914443,0.0,0.0,0.7224299,0.0,0.0,-0.001,0,0
39436000,0.0,-0.0,1.6147189,0.0,0.6914085,0.0,0.0,0.722464,0.0,0.0,-0.001,0,0
39484000,0.0,-0.0,1.6147693,0.0,0.69139034,0.0,0.0,0.72248137,0.0,0.0,-0.001,0,0
39532000,0.0,-0.0,1.6148016,0.0,0.69137865,0.0,0.0,0.7224926,0.0,0.0,-0.001,0,0
39580000,0.0,-0.0,1.6148146,0.0,0.69137394,0.0,0.0,0.7224971,0.0,0.0,-0.001,0,0
39636000,0.0,-0.0,1.6147525,0.0,0.6913964,0.0,0.0,0.72247565,0.0,0.0,-0.001,0,0
39684000,0.0,-0.0,1.6146898,0.0,0.69141906,0.0,0.0,0.72245395,0.0,0.0,-0.001,0,0
39732000,0.0,-0.0,1.6146723,0.0,0.6914254,0.0,0.0,0.7224479,0.0,0.0,-0.001,0,0
39780000,0.0,-0.0,1.6146762,0.0,0.69142395,0.0,0.0,0.72244924,0.0,0.0,-0.001,0,0
39836000,0.0,-0.0,1.6146977,0.0,0.6914162,0.0,0.0,0.72245663,0.0,0.0,-0.001,0,0
39884000,0.0,-0.0,1.6146572,0.0,0.69143087,0.0,0.0,0.7224426,0.0,0.0,-0.001,0,0
39932000,0.0,-0.0,1.6145939,0.0,0.6914537,0.0,0.0,0.7224208,0.0,0.0,-0.001,0,0
39980000,0.0,-0.0,1.6145426,0.0,0.69147223,0.0,0.0,0.72240305,0.0,0.0,-0.001,0,0
40036000,0.0,-0.0,1.614524,0.0,0.69147897,0.0,0.0,0.7223966,0.0,0.0,-0.001,0,0
40084000,0.0,-0.0,1.6145028,0.0,0.6914866,0.0,0.0,0.72238934,0.0,0.0,-0.001,0,0
40132000,0.0,-0.0,1.6146132,0.0,0.6914467,0.0,0.0,0.72242755,0.0,0.0,-0.001,0,0
40180000,0.0,-0.0,1.6146377,0.0,0.69143784,0.0,0.0,0.7224361,0.0,0.0,-0.001,0,0
40236000,0.0,-0.0,1.6147351,0.0,0.6914027,0.0,0.0,0.7224696,0.0,0.0,-0.001,0,0
40284000,0.0,-0.0,1.6148133,0.0,0.6913744,0.0,0.0,0.7224967,0.0,0.0,-0.001,0,0
40340000,0.0,-0.0,1.6148707,0.0,0.6913537,0.0,0.0,0.7225166,0.0,0.0,-0.001,0,0
40380000,0.0,-0.0,1.6148655,0.0,0.6913556,0.0,0.0,0.7225147,0.0,0.0,-0.001,0,0
40436000,0.0,-0.0,1.6147912,0.0,0.69138247,0.0,0.0,0.72248894,0.0,0.0,-0.001,0,0
40484000,0.0,-0.0,1.6147436,0.0,0.69139963,0.0,0.0,0.7224725,0.0,0.0,-0.001,0,0
40532000,0.0,-0.0,1.614769,0.0,0.69139045,0.0,0.0,0.72248137,0.0,0.0,-0.001,0,0
40588000,0.0,-0.0,1.6147692,0.0,0.6913904,0.0,0.0,0.7224813,0.0,0.0,-0.001,0,0
40636000,0.0,-0.0,1.6148405,0.0,0.6913646,0.0,0.0,0.72250605,0.0,0.0,-0.001,0,0
40684000,0.0,-0.0,1.614884,0.0,0.6913489,0.0,0.0,0.7225211,0.0,0.0,-0.001,0,0
40740000,0.0,-0.0,1.6149657,0.0,0.6913194,0.0,0.0,0.72254926,0.0,0.0,-0.001,0,0
40788000,0.0,-0.0,1.6149971,0.0,0.691308,0.0,0.0,0.7225602,0.0,0.0,-0.001,0,0
40836000,0.0,-0.0,1.6149976,0.0,0.69130784,0.0,0.0,0.7225604,0.0,0.0,-0.001,0,0
40884000,0.0,-0.0,1.6150674,0.0,0.6912827,0.0,0.0,0.7225845,0.0,0.0,-0.001,0,0
40932000,0.0,-0.0,1.6150863,0.0,0.6912758,0.0,0.0,0.72259104,0.0,0.0,-0.001,0,0
