timestamp,timestamp_sample,control[0],control[1],control[2],control[3],control[4],control[5],control[6],control[7],control[8]
3388000,3388000,0.0003782765,0.001371923,-0.00022346692,-0.0,0.0,0.0,0.0,0.0,0.0
3392000,3392000,0.00020570307,0.0009608809,-6.552972e-05,-0.0,0.0,0.0,0.0,0.0,0.0
3440000,3440000,0.00027336527,0.00034534815,2.4839957e-05,-0.0,0.0,0.0,0.0,0.0,0.0
3484000,3484000,0.0008732764,0.00210733,-0.00022602342,-0.0,0.0,0.0,0.0,0.0,0.0
3536000,3536000,1.2769553e-05,0.00046821384,0.00010235891,-0.0,0.0,0.0,0.0,0.0,0.0
3584000,3584000,-0.0006817591,-0.0002027427,0.00011095158,-0.0,0.0,0.0,0.0,0.0,0.0
3636000,3636000,0.020040799,0.02272874,0.003323872,0.001,0.0,0.0,0.0,0.0,0.0
3684000,3684000,0.02008539,0.022810683,-1.3328856e-05,0.001,0.0,0.0,0.0,0.0,0.0
3736000,3736000,0.020320812,0.023174522,-2.9658224e-05,0.001,0.0,0.0,0.0,0.0,0.0
3788000,3788000,0.019910295,0.02281291,0.00028691752,0.001,0.0,0.0,0.0,0.0,0.0
3840000,3840000,0.019598132,0.023839274,2.6024833e-05,0.001,0.0,0.0,0.0,0.0,0.0
3884000,3884000,0.019481432,0.023490455,7.392365e-05,0.001,0.0,0.0,0.0,0.0,0.0
3940000,3940000,0.019733874,0.023992212,0.00024331818,0.001,0.0,0.0,0.0,0.0,0.0
3988000,3988000,0.020561675,0.024565795,-0.0002914799,0.001,0.0,0.0,0.0,0.0,0.0
4040000,4040000,0.019409925,0.023908103,0.00013613835,0.001,0.0,0.0,0.0,0.0,0.0
4088000,4088000,0.019938767,0.0239342,7.612458e-05,0.001,0.0,0.0,0.0,0.0,0.0
4136000,4136000,0.0200131,0.022995915,-6.2068044e-05,0.001,0.0,0.0,0.0,0.0,0.0
4184000,4184000,0.02001389,0.024507169,0.000424698,0.001,0.0,0.0,0.0,0.0,0.0
4240000,4240000,0.020065622,0.022762522,0.0005788689,0.001,0.0,0.0,0.0,0.0,0.0
4288000,4288000,0.020054925,0.023278156,0.00043968865,0.001,0.0,0.0,0.0,0.0,0.0
4340000,4340000,0.019678116,0.024571272,0.0001432988,0.001,0.0,0.0,0.0,0.0,0.0
4388000,4388000,0.02067,0.023503754,0.00020248028,0.001,0.0,0.0,0.0,0.0,0.0
4440000,4440000,0.019665034,0.023012483,0.000606375,0.001,0.0,0.0,0.0,0.0,0.0
4488000,4488000,0.019053226,0.022602566,0.0006274002,0.001,0.0,0.0,0.0,0.0,0.0
4540000,4540000,0.019379614,0.022541376,-3.8608607e-05,0.001,0.0,0.0,0.0,0.0,0.0
4588000,4588000,0.019568132,0.022172835,0.0006516012,0.001,0.0,0.0,0.0,0.0,0.0
4640000,4640000,0.020212265,0.021741249,0.00023278977,0.001,0.0,0.0,0.0,0.0,0.0
4688000,4688000,0.019045118,0.021863218,-0.00010819694,0.001,0.0,0.0,0.0,0.0,0.0
4740000,4740000,0.01892907,0.02095325,-0.00055240333,0.001,0.0,0.0,0.0,0.0,0.0
4788000,4788000,0.019263143,0.02186064,0.000101135636,0.001,0.0,0.0,0.0,0.0,0.0
4840000,4840000,0.019632526,0.02216838,0.0005813499,0.001,0.0,0.0,0.0,0.0,0.0
4888000,4888000,0.019011738,0.021407107,0.00041010903,0.001,0.0,0.0,0.0,0.0,0.0
4940000,4940000,0.018696247,0.020222528,-4.6810786e-05,0.001,0.0,0.0,0.0,0.0,0.0
4988000,4988000,0.017606389,0.020638969,0.00042987335,0.001,0.0,0.0,0.0,0.0,0.0
5036000,5036000,0.017705359,0.020464716,0.00029811915,0.001,0.0,0.0,0.0,0.0,0.0
5088000,5088000,0.01932485,0.021260358,0.00011103208,0.001,0.0,0.0,0.0,0.0,0.0
5140000,5140000,0.019449016,0.019545104,0.0004393386,0.001,0.0,0.0,0.0,0.0,0.0
5188000,5188000,0.018175839,0.020221999,0.000111626905,0.001,0.0,0.0,0.0,0.0,0.0
5240000,5240000,0.018753566,0.020234292,1.1017604e-05,0.001,0.0,0.0,0.0,0.0,0.0
5288000,5288000,0.01744607,0.021426544,0.00029781772,0.001,0.0,0.0,0.0,0.0,0.0
5340000,5340000,0.016422575,0.019752664,0.0004634784,0.001,0.0,0.0,0.0,0.0,0.0
5388000,5388000,0.018084839,0.021042336,0.0002020048,0.001,0.0,0.0,0.0,0.0,0.0
5440000,5440000,0.017900223,0.022008985,-0.00074577995,0.001,0.0,0.0,0.0,0.0,0.0
5484000,5484000,0.018149486,0.020255854,0.0012706899,0.001,0.0,0.0,0.0,0.0,0.0
5540000,5540000,0.01781052,0.02107426,-0.0004954987,0.001,0.0,0.0,0.0,0.0,0.0
5588000,5588000,0.017673071,0.021204505,0.00049141137,0.001,0.0,0.0,0.0,0.0,0.0
5640000,5640000,0.017580317,0.021108871,0.00031465566,0.001,0.0,0.0,0.0,0.0,0.0
5688000,5688000,0.017686944,0.020457115,0.00040008707,0.001,0.0,0.0,0.0,0.0,0.0
5740000,5740000,0.016839143,0.020438671,4.0791465e-06,0.001,0.0,0.0,0.0,0.0,0.0
5788000,5788000,0.01776784,0.020708425,0.00049893814,0.001,0.0,0.0,0.0,0.0,0.0
5840000,5840000,0.0178231,0.020636939,0.00051455916,0.001,0.0,0.0,0.0,0.0,0.0
5888000,5888000,0.016936306,0.019484218,0.00047571046,0.001,0.0,0.0,0.0,0.0,0.0
5940000,5940000,0.017804231,0.020845558,0.00069780875,0.001,0.0,0.0,0.0,0.0,0.0
5988000,5988000,0.018276569,0.020532679,0.00027547163,0.001,0.0,0.0,0.0,0.0,0.0
6040000,6040000,0.016890118,0.020406403,0.0005110238,0.001,0.0,0.0,0.0,0.0,0.0
6088000,6088000,0.017704926,0.01934589,0.00027425252,0.001,0.0,0.0,0.0,0.0,0.0
6136000,6136000,0.01836094,0.02065787,0.0004385948,0.001,0.0,0.0,0.0,0.0,0.0
6184000,6184000,0.017358465,0.020184081,0.00027011448,0.001,0.0,0.0,0.0,0.0,0.0
6236000,6236000,0.017448353,0.018916601,-0.00012320874,0.001,0.0,0.0,0.0,0.0,0.0
6288000,6288000,0.017288178,0.021157961,0.0006971715,0.001,0.0,0.0,0.0,0.0,0.0
6340000,6340000,0.018316695,0.019102216,0.0005840242,0.001,0.0,0.0,0.0,0.0,0.0
6388000,6388000,0.017075904,0.020796875,0.0012937546,0.001,0.0,0.0,0.0,0.0,0.0
6436000,6436000,0.017637447,0.020386554,0.00011478263,0.001,0.0,0.0,0.0,0.0,0.0
6484000,6484000,0.017885769,0.019973425,0.00046721674,0.001,0.0,0.0,0.0,0.0,0.0
6540000,6540000,0.0175756,0.02014061,0.00012645838,0.001,0.0,0.0,0.0,0.0,0.0
6588000,6588000,0.017633691,0.021717846,0.000666358,0.001,0.0,0.0,0.0,0.0,0.0
6640000,6640000,0.017719012,0.020553926,0.0006256951,0.001,0.0,0.0,0.0,0.0,0.0
6688000,6688000,0.017632244,0.020564115,0.0007320232,0.001,0.0,0.0,0.0,0.0,0.0
6736000,6736000,0.017774709,0.019925853,0.00024438725,0.001,0.0,0.0,0.0,0.0,0.0
6784000,6784000,0.01713307,0.019586982,0.00032977632,0.001,0.0,0.0,0.0,0.0,0.0
6840000,6840000,0.01708886,0.020057185,0.00059971167,0.001,0.0,0.0,0.0,0.0,0.0
6884000,6884000,0.017334696,0.020281876,0.00025047254,0.001,0.0,0.0,0.0,0.0,0.0
6940000,6940000,0.016303524,0.021242166,0.0005453765,0.001,0.0,0.0,0.0,0.0,0.0
6988000,6988000,0.016652891,0.020342872,1.3921259e-05,0.001,0.0,0.0,0.0,0.0,0.0
7040000,7040000,0.016470917,0.019797819,0.0005589211,0.001,0.0,0.0,0.0,0.0,0.0
7088000,7088000,0.017842196,0.020581428,0.0003675753,0.001,0.0,0.0,0.0,0.0,0.0
7140000,7140000,0.017154131,0.020730495,-0.000101703125,0.001,0.0,0.0,0.0,0.0,0.0
7188000,7188000,0.016764112,0.021043602,0.0008491678,0.001,0.0,0.0,0.0,0.0,0.0
7240000,7240000,0.017579703,0.021321902,0.0006418833,0.001,0.0,0.0,0.0,0.0,0.0
7284000,7284000,0.016725566,0.021194583,0.00049575197,0.001,0.0,0.0,0.0,0.0,0.0
7340000,7340000,0.016992917,0.021169623,0.0010566332,0.001,0.0,0.0,0.0,0.0,0.0
7388000,7388000,0.016306804,0.021222757,0.00079169264,0.001,0.0,0.0,0.0,0.0,0.0
7440000,7440000,0.015355317,0.020392599,0.00060571724,0.001,0.0,0.0,0.0,0.0,0.0
7488000,7488000,0.016190948,0.019507235,0.0003413097,0.001,0.0,0.0,0.0,0.0,0.0
7540000,7540000,0.017317433,0.020704608,0.00026624624,0.001,0.0,0.0,0.0,0.0,0.0
7588000,7588000,0.016901907,0.019786129,0.00048381483,0.001,0.0,0.0,0.0,0.0,0.0
7640000,7640000,0.016574223,0.021692768,0.0004879546,0.001,0.0,0.0,0.0,0.0,0.0
7688000,7688000,0.017942041,0.021652522,0.0005348203,0.001,0.0,0.0,0.0,0.0,0.0
7740000,7740000,0.016614208,0.021450508,0.0008027483,0.001,0.0,0.0,0.0,0.0,0.0
7788000,7788000,0.017286874,0.02046904,0.0012440421,0.001,0.0,0.0,0.0,0.0,0.0
7840000,7840000,0.017269488,0.02000727,0.0006046255,0.001,0.0,0.0,0.0,0.0,0.0
7888000,7888000,0.017714119,0.021335594,0.0003980211,0.001,0.0,0.0,0.0,0.0,0.0
7940000,7940000,0.017129805,0.021197584,0.00061026646,0.001,0.0,0.0,0.0,0.0,0.0
7988000,7988000,0.016570836,0.019778065,0.00055376196,0.001,0.0,0.0,0.0,0.0,0.0
8036000,8036000,0.016605215,0.021537067,0.0005889061,0.001,0.0,0.0,0.0,0.0,0.0
8084000,8084000,0.017457107,0.020732857,0.0006587414,0.001,0.0,0.0,0.0,0.0,0.0
8136000,8136000,0.016928084,0.02015843,0.00049863796,0.001,0.0,0.0,0.0,0.0,0.0
8184000,8184000,0.01706587,0.021136772,0.00035892427,0.001,0.0,0.0,0.0,0.0,0.0
8236000,8236000,0.017295,0.021750294,0.00066932745,0.001,0.0,0.0,0.0,0.0,0.0
8288000,8288000,0.017223299,0.020288115,0.0003750034,0.001,0.0,0.0,0.0,0.0,0.0
8336000,8336000,0.017094985,0.020933388,0.00071062363,0.001,0.0,0.0,0.0,0.0,0.0
8384000,8384000,0.01818314,0.020184197,-8.39903e-05,0.001,0.0,0.0,0.0,0.0,0.0
8440000,8440000,0.018302059,0.020366434,0.00093185867,0.001,0.0,0.0,0.0,0.0,0.0
8488000,8488000,0.017925264,0.020366352,8.086126e-05,0.001,0.0,0.0,0.0,0.0,0.0
8540000,8540000,0.016275197,0.019460583,0.0005485501,0.001,0.0,0.0,0.0,0.0,0.0
8588000,8588000,0.0164771,0.019989397,0.00042045984,0.001,0.0,0.0,0.0,0.0,0.0
8636000,8636000,0.01661046,0.02005196,-8.4037856e-05,0.001,0.0,0.0,0.0,0.0,0.0
8684000,8684000,0.018137002,0.020677714,9.689003e-05,0.001,0.0,0.0,0.0,0.0,0.0
8736000,8736000,0.016325543,0.019763418,0.00015621223,0.001,0.0,0.0,0.0,0.0,0.0
8788000,8788000,0.016964361,0.020107785,-8.3567495e-05,0.001,0.0,0.0,0.0,0.0,0.0
8840000,8840000,0.018289125,0.020710351,0.00038925497,0.001,0.0,0.0,0.0,0.0,0.0
8884000,8884000,0.016558273,0.020257108,-0.00013211025,0.001,0.0,0.0,0.0,0.0,0.0
8936000,8936000,0.017229281,0.021138925,0.00020805078,0.001,0.0,0.0,0.0,0.0,0.0
8984000,8984000,0.017381905,0.020296415,0.00017706052,0.001,0.0,0.0,0.0,0.0,0.0
9036000,9036000,0.016734336,0.020231638,0.00028560552,0.001,0.0,0.0,0.0,0.0,0.0
9088000,9088000,0.016351225,0.01964218,0.00024549948,0.001,0.0,0.0,0.0,0.0,0.0
9140000,9140000,0.017186724,0.020386921,0.000291886,0.001,0.0,0.0,0.0,0.0,0.0
9188000,9188000,0.017360142,0.019446654,0.0002648538,0.001,0.0,0.0,0.0,0.0,0.0
9240000,9240000,0.016686663,0.019595245,0.00047798548,0.001,0.0,0.0,0.0,0.0,0.0
9284000,9284000,0.017682523,0.018941237,3.7255802e-05,0.001,0.0,0.0,0.0,0.0,0.0
9340000,9340000,0.017886769,0.020353701,-6.2235566e-05,0.001,0.0,0.0,0.0,0.0,0.0
9388000,9388000,0.017010761,0.019412301,0.00034108563,0.001,0.0,0.0,0.0,0.0,0.0
9440000,9440000,0.017560422,0.019255873,-0.0003702653,0.001,0.0,0.0,0.0,0.0,0.0
9484000,9484000,0.016016012,0.018698478,-0.00016493523,0.001,0.0,0.0,0.0,0.0,0.0
9540000,9540000,0.01691089,0.021122122,0.00046992712,0.001,0.0,0.0,0.0,0.0,0.0
9588000,9588000,0.016885443,0.018340373,-9.0837784e-05,0.001,0.0,0.0,0.0,0.0,0.0
9640000,9640000,0.017101044,0.020018287,-0.00010129861,0.001,0.0,0.0,0.0,0.0,0.0
9688000,9688000,0.017124845,0.019598424,0.00024357841,0.001,0.0,0.0,0.0,0.0,0.0
9736000,9736000,0.016344493,0.01993267,0.00013306759,0.001,0.0,0.0,0.0,0.0,0.0
9788000,9788000,0.016877849,0.020081377,0.000120207646,0.001,0.0,0.0,0.0,0.0,0.0
9840000,9840000,0.017030988,0.020109741,-0.00016365976,0.001,0.0,0.0,0.0,0.0,0.0
9888000,9888000,0.016496899,0.020152155,0.00043123524,0.001,0.0,0.0,0.0,0.0,0.0
9936000,9936000,0.016486216,0.020168088,0.00029701868,0.001,0.0,0.0,0.0,0.0,0.0
9984000,9984000,0.016068486,0.02002998,0.0001695312,0.001,0.0,0.0,0.0,0.0,0.0
10036000,10036000,0.0173019,0.02005154,-0.00047900045,0.001,0.0,0.0,0.0,0.0,0.0
10084000,10084000,0.015501151,0.019004136,0.00018761387,0.001,0.0,0.0,0.0,0.0,0.0
10140000,10140000,0.01778526,0.019611932,-0.00085260824,0.001,0.0,0.0,0.0,0.0,0.0
10188000,10188000,0.016546855,0.019991478,-5.9840015e-05,0.001,0.0,0.0,0.0,0.0,0.0
10240000,10240000,0.015479922,0.019967077,0.00010268012,0.001,0.0,0.0,0.0,0.0,0.0
10288000,10288000,0.016110081,0.019791298,8.3846324e-05,0.001,0.0,0.0,0.0,0.0,0.0
10340000,10340000,0.016022833,0.020719714,0.00029419805,0.001,0.0,0.0,0.0,0.0,0.0
10388000,10388000,0.016234344,0.019131564,6.231051e-05,0.001,0.0,0.0,0.0,0.0,0.0
10436000,10436000,0.017143311,0.01951733,-6.969548e-05,0.001,0.0,0.0,0.0,0.0,0.0
10488000,10488000,0.01819464,0.019209813,2.254264e-05,0.001,0.0,0.0,0.0,0.0,0.0
10540000,10540000,0.01705593,0.020880664,4.7693145e-05,0.001,0.0,0.0,0.0,0.0,0.0
10588000,10588000,0.017013997,0.02031399,-3.1697215e-05,0.001,0.0,0.0,0.0,0.0,0.0
10640000,10640000,0.016405025,0.01895735,-8.657086e-05,0.001,0.0,0.0,0.0,0.0,0.0
10688000,10688000,0.017106539,0.018194504,-0.00019114882,0.001,0.0,0.0,0.0,0.0,0.0
10736000,10736000,0.017659603,0.019168798,-6.200067e-05,0.001,0.0,0.0,0.0,0.0,0.0
10788000,10788000,0.01653668,0.020624258,0.00041297302,0.001,0.0,0.0,0.0,0.0,0.0
10836000,10836000,0.016903955,0.01986356,0.00053400005,0.001,0.0,0.0,0.0,0.0,0.0
10888000,10888000,0.016110204,0.01967566,0.00025344553,0.001,0.0,0.0,0.0,0.0,0.0
10940000,10940000,0.015611109,0.020613037,-5.701005e-05,0.001,0.0,0.0,0.0,0.0,0.0
10988000,10988000,0.016934294,0.020250246,-0.0002882682,0.001,0.0,0.0,0.0,0.0,0.0
11040000,11040000,0.015945243,0.020220071,-0.0003613696,0.001,0.0,0.0,0.0,0.0,0.0
11088000,11088000,0.015528913,0.019055381,0.00070648675,0.001,0.0,0.0,0.0,0.0,0.0
11140000,11140000,0.016832136,0.019286823,0.00045722304,0.001,0.0,0.0,0.0,0.0,0.0
11188000,11188000,0.0171909,0.020571915,0.0005039679,0.001,0.0,0.0,0.0,0.0,0.0
11240000,11240000,0.015847998,0.020123633,0.00022406437,0.001,0.0,0.0,0.0,0.0,0.0
11288000,11288000,0.016493525,0.019580746,-2.279298e-05,0.001,0.0,0.0,0.0,0.0,0.0
11340000,11340000,0.01710001,0.019957652,1.5473099e-05,0.001,0.0,0.0,0.0,0.0,0.0
11388000,11388000,0.016950175,0.01893561,0.00063684647,0.001,0.0,0.0,0.0,0.0,0.0
11440000,11440000,0.016484017,0.019312516,0.00027944005,0.001,0.0,0.0,0.0,0.0,0.0
11488000,11488000,0.015315234,0.020738006,2.9481773e-05,0.001,0.0,0.0,0.0,0.0,0.0
11540000,11540000,0.016260697,0.019323057,0.00013139714,0.001,0.0,0.0,0.0,0.0,0.0
11588000,11588000,0.01588596,0.020705065,-0.00025220984,0.001,0.0,0.0,0.0,0.0,0.0
11640000,11640000,0.016417563,0.019839881,2.796764e-05,0.001,0.0,0.0,0.0,0.0,0.0
11688000,11688000,0.016491322,0.01899028,6.864497e-05,0.001,0.0,0.0,0.0,0.0,0.0
11740000,11740000,0.016445842,0.019726774,0.0003715856,0.001,0.0,0.0,0.0,0.0,0.0
11788000,11788000,0.016274007,0.01985695,-0.00011012673,0.001,0.0,0.0,0.0,0.0,0.0
11840000,11840000,0.015575417,0.018951265,0.00025921868,0.001,0.0,0.0,0.0,0.0,0.0
11888000,11888000,0.016555691,0.019054705,0.00041096337,0.001,0.0,0.0,0.0,0.0,0.0
11940000,11940000,0.016440857,0.018609326,9.792117e-05,0.001,0.0,0.0,0.0,0.0,0.0
11988000,11988000,0.017255343,0.019806845,0.00039176937,0.001,0.0,0.0,0.0,0.0,0.0
12040000,12040000,0.016593471,0.019788185,-6.86511e-05,0.001,0.0,0.0,0.0,0.0,0.0
12088000,12088000,0.016676318,0.020040324,0.0005799445,0.001,0.0,0.0,0.0,0.0,0.0
12140000,12140000,0.015428558,0.018343449,6.5999935e-05,0.001,0.0,0.0,0.0,0.0,0.0
12188000,12188000,0.01629409,0.017724425,0.00020468219,0.001,0.0,0.0,0.0,0.0,0.0
12240000,12240000,0.01587267,0.019905552,-0.0005531196,0.001,0.0,0.0,0.0,0.0,0.0
12288000,12288000,0.016350245,0.018575631,-0.00026568444,0.001,0.0,0.0,0.0,0.0,0.0
12340000,12340000,0.016276093,0.019685753,1.8402045e-05,0.001,0.0,0.0,0.0,0.0,0.0
12388000,12388000,0.016128689,0.019647155,0.00051064644,0.001,0.0,0.0,0.0,0.0,0.0
12440000,12440000,0.016516568,0.018836008,-2.9967958e-05,0.001,0.0,0.0,0.0,0.0,0.0
12488000,12488000,0.016438484,0.01969902,0.00013176123,0.001,0.0,0.0,0.0,0.0,0.0
12540000,12540000,0.016998004,0.021324892,0.00025587424,0.001,0.0,0.0,0.0,0.0,0.0
12588000,12588000,0.01539794,0.01979963,0.00014619945,0.001,0.0,0.0,0.0,0.0,0.0
12640000,12640000,0.016558103,0.020905476,0.00027221974,0.001,0.0,0.0,0.0,0.0,0.0
12684000,12684000,0.016720813,0.020043924,6.590879e-05,0.001,0.0,0.0,0.0,0.0,0.0
12736000,12736000,0.017203446,0.019636635,0.00012633295,0.001,0.0,0.0,0.0,0.0,0.0
12784000,12784000,0.016277889,0.019589312,0.00020344705,0.001,0.0,0.0,0.0,0.0,0.0
12840000,12840000,0.015239781,0.019359138,0.0008081118,0.001,0.0,0.0,0.0,0.0,0.0
12888000,12888000,0.017649274,0.018746328,0.00035734402,0.001,0.0,0.0,0.0,0.0,0.0
12936000,12936000,0.018035606,0.019009901,-0.00012129801,0.001,0.0,0.0,0.0,0.0,0.0
12984000,12984000,0.01702423,0.018165017,-0.00021128454,0.001,0.0,0.0,0.0,0.0,0.0
13036000,13036000,0.01621647,0.019799065,0.000597417,0.001,0.0,0.0,0.0,0.0,0.0
13084000,13084000,0.016045537,0.018527862,-9.0032074e-05,0.001,0.0,0.0,0.0,0.0,0.0
13136000,13136000,0.01632881,0.018890504,0.0003821506,0.001,0.0,0.0,0.0,0.0,0.0
13184000,13184000,0.016937232,0.017038569,0.00030726762,0.001,0.0,0.0,0.0,0.0,0.0
13240000,13240000,0.015637854,0.018578226,0.00032567364,0.001,0.0,0.0,0.0,0.0,0.0
13288000,13288000,0.015996864,0.020498639,0.0002424425,0.001,0.0,0.0,0.0,0.0,0.0
13336000,13336000,0.016742114,0.020183424,0.00026119626,0.001,0.0,0.0,0.0,0.0,0.0
13388000,13388000,0.016009314,0.018823272,-0.00020948265,0.001,0.0,0.0,0.0,0.0,0.0
13436000,13436000,0.017065648,0.018663261,-8.193067e-05,0.001,0.0,0.0,0.0,0.0,0.0
13488000,13488000,0.016974993,0.01875588,0.00046448814,0.001,0.0,0.0,0.0,0.0,0.0
13540000,13540000,0.016981667,0.018820321,-0.0002983555,0.001,0.0,0.0,0.0,0.0,0.0
13588000,13588000,0.017137432,0.018650655,0.000638471,0.001,0.0,0.0,0.0,0.0,0.0
13640000,13640000,0.016696466,0.018237589,2.7421176e-05,0.001,0.0,0.0,0.0,0.0,0.0
13684000,13684000,0.016089821,0.019032657,0.00011988005,0.001,0.0,0.0,0.0,0.0,0.0
13736000,13736000,0.015778296,0.019375479,0.00019721854,0.001,0.0,0.0,0.0,0.0,0.0
13788000,13788000,0.015272162,0.018946694,0.00026913104,0.001,0.0,0.0,0.0,0.0,0.0
13840000,13840000,0.015874477,0.019536976,0.00030688313,0.001,0.0,0.0,0.0,0.0,0.0
13888000,13888000,0.015565243,0.018769307,0.0004964124,0.001,0.0,0.0,0.0,0.0,0.0
13940000,13940000,0.0153941875,0.019141853,-6.203163e-05,0.001,0.0,0.0,0.0,0.0,0.0
13988000,13988000,0.017104654,0.019237015,0.00019970411,0.001,0.0,0.0,0.0,0.0,0.0
14040000,14040000,0.01574752,0.01872172,0.00038197718,0.001,0.0,0.0,0.0,0.0,0.0
14088000,14088000,0.017135127,0.019663531,-0.00016611,0.001,0.0,0.0,0.0,0.0,0.0
14136000,14136000,0.015589752,0.01869067,2.1848135e-05,0.001,0.0,0.0,0.0,0.0,0.0
14184000,14184000,0.016548114,0.01888196,-0.0002674948,0.001,0.0,0.0,0.0,0.0,0.0
14236000,14236000,0.016496088,0.01911768,-0.00015189525,0.001,0.0,0.0,0.0,0.0,0.0
14284000,14284000,0.017144151,0.019135641,-7.079728e-06,0.001,0.0,0.0,0.0,0.0,0.0
14340000,14340000,0.016516268,0.01835498,7.769066e-05,0.001,0.0,0.0,0.0,0.0,0.0
14388000,14388000,0.015271757,0.019775348,0.00054207345,0.001,0.0,0.0,0.0,0.0,0.0
14440000,14440000,0.01630378,0.018190011,0.0008160118,0.001,0.0,0.0,0.0,0.0,0.0
14488000,14488000,0.015635049,0.018480275,0.00028037847,0.001,0.0,0.0,0.0,0.0,0.0
14536000,14536000,0.015669607,0.018848345,0.00016797664,0.001,0.0,0.0,0.0,0.0,0.0
14588000,14588000,0.016190527,0.01873056,0.00020919021,0.001,0.0,0.0,0.0,0.0,0.0
14640000,14640000,0.016253853,0.018535161,0.00041193888,0.001,0.0,0.0,0.0,0.0,0.0
14688000,14688000,0.015667498,0.019148225,0.00038062542,0.001,0.0,0.0,0.0,0.0,0.0
14740000,14740000,0.01691005,0.016801244,-4.049898e-05,0.001,0.0,0.0,0.0,0.0,0.0
14788000,14788000,0.015140516,0.018439654,5.0208702e-05,0.001,0.0,0.0,0.0,0.0,0.0
14840000,14840000,0.016125418,0.018476084,-0.00013712246,0.001,0.0,0.0,0.0,0.0,0.0
14888000,14888000,0.01614938,0.017338863,-0.00035197075,0.001,0.0,0.0,0.0,0.0,0.0
14940000,14940000,0.016364532,0.018889459,-0.0005006086,0.001,0.0,0.0,0.0,0.0,0.0
14984000,14984000,0.016787643,0.019753179,0.0002826736,0.001,0.0,0.0,0.0,0.0,0.0
15040000,15040000,0.01632796,0.018978067,0.00032350325,0.001,0.0,0.0,0.0,0.0,0.0
15084000,15084000,0.016244065,0.01809059,0.00018956716,0.001,0.0,0.0,0.0,0.0,0.0
15140000,15140000,0.015775297,0.01901745,-0.00012537076,0.001,0.0,0.0,0.0,0.0,0.0
15188000,15188000,0.014874097,0.01777602,0.00029379,0.001,0.0,0.0,0.0,0.0,0.0
15240000,15240000,0.016624512,0.017775236,0.00028607144,0.001,0.0,0.0,0.0,0.0,0.0
15288000,15288000,0.015847826,0.017880427,0.00019802517,0.001,0.0,0.0,0.0,0.0,0.0
15340000,15340000,0.015260478,0.017991407,7.4744166e-06,0.001,0.0,0.0,0.0,0.0,0.0
15388000,15388000,0.015686719,0.017773522,0.0010042976,0.001,0.0,0.0,0.0,0.0,0.0
15440000,15440000,0.015534823,0.017467422,0.0002305103,0.001,0.0,0.0,0.0,0.0,0.0
15484000,15484000,0.015577804,0.019133486,0.00010984594,0.001,0.0,0.0,0.0,0.0,0.0
15536000,15536000,0.0153065175,0.018885607,-4.083086e-05,0.001,0.0,0.0,0.0,0.0,0.0
15588000,15588000,0.015192925,0.017539067,-0.00017602944,0.001,0.0,0.0,0.0,0.0,0.0
15636000,15636000,0.015797555,0.017547801,0.00051346567,0.001,0.0,0.0,0.0,0.0,0.0
15688000,15688000,0.01568468,0.017652769,-0.00013186014,0.001,0.0,0.0,0.0,0.0,0.0
15740000,15740000,0.0158065,0.01801127,0.00025154193,0.001,0.0,0.0,0.0,0.0,0.0
15788000,15788000,0.0156252,0.018561786,5.9684575e-05,0.001,0.0,0.0,0.0,0.0,0.0
15840000,15840000,0.015817821,0.018821796,0.00058308017,0.001,0.0,0.0,0.0,0.0,0.0
15888000,15888000,0.014860043,0.017540338,0.000110110755,0.001,0.0,0.0,0.0,0.0,0.0
15940000,15940000,0.015558656,0.018460948,5.748414e-06,0.001,0.0,0.0,0.0,0.0,0.0
15988000,15988000,0.0152780255,0.017779084,0.00038726936,0.001,0.0,0.0,0.0,0.0,0.0
16040000,16040000,0.015773498,0.01689719,0.00042328975,0.001,0.0,0.0,0.0,0.0,0.0
16088000,16088000,0.015576461,0.01792198,7.239088e-05,0.001,0.0,0.0,0.0,0.0,0.0
16140000,16140000,0.015397587,0.017683143,0.00044143223,0.001,0.0,0.0,0.0,0.0,0.0
16184000,16184000,0.016372673,0.017208364,0.0006972348,0.001,0.0,0.0,0.0,0.0,0.0
16236000,16236000,0.015725402,0.01697021,0.00015307647,0.001,0.0,0.0,0.0,0.0,0.0
16284000,16284000,0.016367074,0.015411194,-3.2846106e-05,0.001,0.0,0.0,0.0,0.0,0.0
16340000,16340000,0.016319439,0.017597381,0.0002759506,0.001,0.0,0.0,0.0,0.0,0.0
16388000,16388000,0.016592247,0.01796407,0.0006774758,0.001,0.0,0.0,0.0,0.0,0.0
16440000,16440000,0.01617434,0.016944868,0.0002447646,0.001,0.0,0.0,0.0,0.0,0.0
16488000,16488000,0.017459402,0.017079724,-0.00025607977,0.001,0.0,0.0,0.0,0.0,0.0
16540000,16540000,0.01598722,0.017895922,4.232734e-05,0.001,0.0,0.0,0.0,0.0,0.0
16588000,16588000,0.015809152,0.017926445,0.00041376805,0.001,0.0,0.0,0.0,0.0,0.0
16636000,16636000,0.015574906,0.016008234,0.0002992551,0.001,0.0,0.0,0.0,0.0,0.0
16688000,16688000,0.015667852,0.01734296,0.00082681066,0.001,0.0,0.0,0.0,0.0,0.0
16736000,16736000,0.01571507,0.016373795,0.00023961249,0.001,0.0,0.0,0.0,0.0,0.0
16788000,16788000,0.016932437,0.017041393,0.00034501756,0.001,0.0,0.0,0.0,0.0,0.0
16840000,16840000,0.015647095,0.01711241,0.00013225875,0.001,0.0,0.0,0.0,0.0,0.0
16888000,16888000,0.01610487,0.017072786,0.00057725364,0.001,0.0,0.0,0.0,0.0,0.0
16936000,16936000,0.01578583,0.016244352,0.00027567265,0.001,0.0,0.0,0.0,0.0,0.0
16984000,16984000,0.015541498,0.018125547,0.00019244866,0.001,0.0,0.0,0.0,0.0,0.0
17040000,17040000,0.015443648,0.017299099,6.184325e-05,0.001,0.0,0.0,0.0,0.0,0.0
17088000,17088000,0.015724959,0.016598294,0.00019369576,0.001,0.0,0.0,0.0,0.0,0.0
17140000,17140000,0.016570603,0.017104276,0.00026326618,0.001,0.0,0.0,0.0,0.0,0.0
17188000,17188000,0.01593891,0.017207636,0.00028962878,0.001,0.0,0.0,0.0,0.0,0.0
17236000,17236000,0.016378786,0.016005255,0.00016168378,0.001,0.0,0.0,0.0,0.0,0.0
17284000,17284000,0.01558967,0.017395187,-6.6458204e-05,0.001,0.0,0.0,0.0,0.0,0.0
17340000,17340000,0.015410813,0.015674088,8.869837e-05,0.001,0.0,0.0,0.0,0.0,0.0
17388000,17388000,0.0161924,0.017919198,-0.0002322637,0.001,0.0,0.0,0.0,0.0,0.0
17440000,17440000,0.016249081,0.015595042,0.000852395,0.001,0.0,0.0,0.0,0.0,0.0
17488000,17488000,0.015451692,0.01781334,-6.571761e-05,0.001,0.0,0.0,0.0,0.0,0.0
17536000,17536000,0.015693335,0.015759856,-0.00015202141,0.001,0.0,0.0,0.0,0.0,0.0
17588000,17588000,0.016343541,0.016038701,0.00042399034,0.001,0.0,0.0,0.0,0.0,0.0
17636000,17636000,0.015516023,0.017597215,0.00033961548,0.001,0.0,0.0,0.0,0.0,0.0
17688000,17688000,0.015341765,0.017972859,5.5729917e-05,0.001,0.0,0.0,0.0,0.0,0.0
17740000,17740000,0.0154550625,0.017488066,0.0004397627,0.001,0.0,0.0,0.0,0.0,0.0
17784000,17784000,0.014877407,0.016236272,0.0003271822,0.001,0.0,0.0,0.0,0.0,0.0
17840000,17840000,0.015099072,0.017467264,0.00019347212,0.001,0.0,0.0,0.0,0.0,0.0
17884000,17884000,0.015181986,0.015505687,0.00040311692,0.001,0.0,0.0,0.0,0.0,0.0
17940000,17940000,0.016032197,0.016821625,-0.00019900849,0.001,0.0,0.0,0.0,0.0,0.0
17988000,17988000,0.0142069515,0.015838243,-0.00080737344,0.001,0.0,0.0,0.0,0.0,0.0
18040000,18040000,0.015407418,0.016754994,0.00016977021,0.001,0.0,0.0,0.0,0.0,0.0
18088000,18088000,0.01492831,0.01612863,0.00027041286,0.001,0.0,0.0,0.0,0.0,0.0
18136000,18136000,0.016715914,0.01732176,-5.8646383e-05,0.001,0.0,0.0,0.0,0.0,0.0
18188000,18188000,0.016042858,0.017096287,0.00022352056,0.001,0.0,0.0,0.0,0.0,0.0
18240000,18240000,0.015922407,0.01717026,0.00047648727,0.001,0.0,0.0,0.0,0.0,0.0
18288000,18288000,0.015851242,0.017508123,0.00031204123,0.001,0.0,0.0,0.0,0.0,0.0
18340000,18340000,0.016034592,0.015540717,3.3349912e-05,0.001,0.0,0.0,0.0,0.0,0.0
18388000,18388000,0.015345606,0.016820291,-0.000101937,0.001,0.0,0.0,0.0,0.0,0.0
18440000,18440000,0.015131104,0.015435879,0.00059831864,0.001,0.0,0.0,0.0,0.0,0.0
18484000,18484000,0.015516591,0.01686417,0.0006577421,0.001,0.0,0.0,0.0,0.0,0.0
18540000,18540000,0.01495046,0.017518988,1.3564801e-05,0.001,0.0,0.0,0.0,0.0,0.0
18588000,18588000,0.015019558,0.016522922,0.00073293125,0.001,0.0,0.0,0.0,0.0,0.0
18640000,18640000,0.016720656,0.01712586,-0.00031710064,0.001,0.0,0.0,0.0,0.0,0.0
18688000,18688000,0.0147360945,0.015753612,5.9660753e-05,0.001,0.0,0.0,0.0,0.0,0.0
18736000,18736000,0.015793571,0.016187476,-2.672819e-05,0.001,0.0,0.0,0.0,0.0,0.0
18784000,18784000,0.017092463,0.016634792,-9.3472845e-05,0.001,0.0,0.0,0.0,0.0,0.0
18840000,18840000,0.015780367,0.016154535,-0.000101205405,0.001,0.0,0.0,0.0,0.0,0.0
18888000,18888000,0.016342983,0.015654754,0.00049405283,0.001,0.0,0.0,0.0,0.0,0.0
18940000,18940000,0.016445993,0.01650622,-0.0001037135,0.001,0.0,0.0,0.0,0.0,0.0
18984000,18984000,0.015066191,0.015666272,0.0005114073,0.001,0.0,0.0,0.0,0.0,0.0
19036000,19036000,0.016004007,0.016449131,-9.678672e-05,0.001,0.0,0.0,0.0,0.0,0.0
19088000,19088000,0.014473925,0.015410088,0.0011577213,0.001,0.0,0.0,0.0,0.0,0.0
19140000,19140000,0.015536326,0.016833141,-7.9759215e-05,0.001,0.0,0.0,0.0,0.0,0.0
19188000,19188000,0.016132366,0.01614715,-2.9892451e-05,0.001,0.0,0.0,0.0,0.0,0.0
19240000,19240000,0.015365943,0.015276254,7.895412e-05,0.001,0.0,0.0,0.0,0.0,0.0
19284000,19284000,0.016828228,0.016817804,-5.569018e-05,0.001,0.0,0.0,0.0,0.0,0.0
19340000,19340000,0.015968919,0.0152201,0.00021398939,0.001,0.0,0.0,0.0,0.0,0.0
19388000,19388000,0.016092151,0.016397854,0.00033786584,0.001,0.0,0.0,0.0,0.0,0.0
19436000,19436000,0.016655227,0.016318584,0.00040092436,0.001,0.0,0.0,0.0,0.0,0.0
19488000,19488000,0.01465006,0.01658427,0.0007743229,0.001,0.0,0.0,0.0,0.0,0.0
19540000,19540000,0.014381109,0.0145371305,0.00078357337,0.001,0.0,0.0,0.0,0.0,0.0
19588000,19588000,0.014512161,0.016236393,-1.4024251e-05,0.001,0.0,0.0,0.0,0.0,0.0
19640000,19640000,0.015119481,0.016610896,0.00032315162,0.001,0.0,0.0,0.0,0.0,0.0
19688000,19688000,0.016165115,0.016002828,0.00022667022,0.001,0.0,0.0,0.0,0.0,0.0
19740000,19740000,0.015234047,0.016274985,0.00018506005,0.001,0.0,0.0,0.0,0.0,0.0
19788000,19788000,0.015847359,0.016257828,6.148638e-05,0.001,0.0,0.0,0.0,0.0,0.0
19840000,19840000,0.016410153,0.016419524,0.00017536736,0.001,0.0,0.0,0.0,0.0,0.0
19888000,19888000,0.01585253,0.01651719,0.0003414495,0.001,0.0,0.0,0.0,0.0,0.0
19936000,19936000,0.016441872,0.015572361,0.00021960225,0.001,0.0,0.0,0.0,0.0,0.0
19988000,19988000,0.015843984,0.014292864,0.00021188856,0.001,0.0,0.0,0.0,0.0,0.0
20040000,20040000,0.015384868,0.015346086,-4.6014564e-05,0.001,0.0,0.0,0.0,0.0,0.0
20088000,20088000,0.014728088,0.0151246,-0.00018664403,0.001,0.0,0.0,0.0,0.0,0.0
20136000,20136000,0.01518745,0.016347868,0.0001844954,0.001,0.0,0.0,0.0,0.0,0.0
20184000,20184000,0.015949586,0.014940143,0.0006878161,0.001,0.0,0.0,0.0,0.0,0.0
20240000,20240000,0.014442721,0.015450084,4.146999e-05,0.001,0.0,0.0,0.0,0.0,0.0
20288000,20288000,0.014995756,0.015017871,-0.00036982982,0.001,0.0,0.0,0.0,0.0,0.0
20340000,20340000,0.016446635,0.015848983,0.00017286625,0.001,0.0,0.0,0.0,0.0,0.0
20388000,20388000,0.0133189885,0.014469688,0.0004575947,0.001,0.0,0.0,0.0,0.0,0.0
20440000,20440000,0.014822998,0.015540274,-0.00013788564,0.001,0.0,0.0,0.0,0.0,0.0
20488000,20488000,0.015214381,0.014330892,0.00037167614,0.001,0.0,0.0,0.0,0.0,0.0
20540000,20540000,0.014788353,0.015617296,1.7246406e-05,0.001,0.0,0.0,0.0,0.0,0.0
20588000,20588000,0.014534551,0.016053472,0.00052806723,0.001,0.0,0.0,0.0,0.0,0.0
20640000,20640000,0.016060846,0.014874578,0.00027435317,0.001,0.0,0.0,0.0,0.0,0.0
20688000,20688000,0.014270106,0.015352521,2.9972614e-05,0.001,0.0,0.0,0.0,0.0,0.0
20740000,20740000,0.015283268,0.015770802,0.0004642685,0.001,0.0,0.0,0.0,0.0,0.0
20784000,20784000,0.014345268,0.015725859,0.00039628288,0.001,0.0,0.0,0.0,0.0,0.0
20836000,20836000,0.014550667,0.015523093,0.00011051527,0.001,0.0,0.0,0.0,0.0,0.0
20888000,20888000,0.014205213,0.015555984,0.000118477015,0.001,0.0,0.0,0.0,0.0,0.0
20940000,20940000,0.015004066,0.015317764,-5.155043e-05,0.001,0.0,0.0,0.0,0.0,0.0
20988000,20988000,0.014574581,0.0150943855,0.0005791254,0.001,0.0,0.0,0.0,0.0,0.0
21040000,21040000,0.013599252,0.015518297,0.00091666693,0.001,0.0,0.0,0.0,0.0,0.0
21088000,21088000,0.016228061,0.015453323,-9.834801e-05,0.001,0.0,0.0,0.0,0.0,0.0
21140000,21140000,0.016152779,0.01371667,0.0004370409,0.001,0.0,0.0,0.0,0.0,0.0
21188000,21188000,0.014621178,0.015328861,0.000103672435,0.001,0.0,0.0,0.0,0.0,0.0
21240000,21240000,0.015365631,0.015670668,-0.00041956166,0.001,0.0,0.0,0.0,0.0,0.0
21288000,21288000,0.014669721,0.015601103,0.00039660517,0.001,0.0,0.0,0.0,0.0,0.0
21340000,21340000,0.01450251,0.014478635,0.00021081677,0.001,0.0,0.0,0.0,0.0,0.0
21388000,21388000,0.013556896,0.014233107,0.00011163282,0.001,0.0,0.0,0.0,0.0,0.0
21440000,21440000,0.015694322,0.014880743,0.00028678437,0.001,0.0,0.0,0.0,0.0,0.0
21488000,21488000,0.015016773,0.0152711235,0.00015411167,0.001,0.0,0.0,0.0,0.0,0.0
21540000,21540000,0.014385922,0.015887266,0.00031417242,0.001,0.0,0.0,0.0,0.0,0.0
21588000,21588000,0.015560031,0.016025169,-0.00015110195,0.001,0.0,0.0,0.0,0.0,0.0
21640000,21640000,0.0149112865,0.0144319935,0.0002768235,0.001,0.0,0.0,0.0,0.0,0.0
21688000,21688000,0.015453253,0.01605683,0.00040785625,0.001,0.0,0.0,0.0,0.0,0.0
21736000,21736000,0.015287238,0.015091344,0.0007215358,0.001,0.0,0.0,0.0,0.0,0.0
21788000,21788000,0.014977239,0.016181286,0.00052568986,0.001,0.0,0.0,0.0,0.0,0.0
21840000,21840000,0.015820397,0.014855748,0.00028002943,0.001,0.0,0.0,0.0,0.0,0.0
21888000,21888000,0.0146160945,0.014920183,0.00048670752,0.001,0.0,0.0,0.0,0.0,0.0
21940000,21940000,0.01492513,0.015133962,0.00019949616,0.001,0.0,0.0,0.0,0.0,0.0
21984000,21984000,0.013818579,0.015898965,0.00035241363,0.001,0.0,0.0,0.0,0.0,0.0
22040000,22040000,0.015917398,0.01585445,0.0002680916,0.001,0.0,0.0,0.0,0.0,0.0
22084000,22084000,0.0147591345,0.014627111,-0.00022564163,0.001,0.0,0.0,0.0,0.0,0.0
22136000,22136000,0.015490035,0.015870392,0.00059238804,0.001,0.0,0.0,0.0,0.0,0.0
22184000,22184000,0.0145553425,0.014581617,0.00040649698,0.001,0.0,0.0,0.0,0.0,0.0
22236000,22236000,0.014202329,0.0143835675,5.9960632e-05,0.001,0.0,0.0,0.0,0.0,0.0
22284000,22284000,0.014870558,0.014186067,-0.00041846986,0.001,0.0,0.0,0.0,0.0,0.0
22340000,22340000,0.0138938725,0.01556561,0.00032913877,0.001,0.0,0.0,0.0,0.0,0.0
22388000,22388000,0.014275468,0.014213682,0.0001661477,0.001,0.0,0.0,0.0,0.0,0.0
22440000,22440000,0.015050242,0.014921197,-1.0830444e-05,0.001,0.0,0.0,0.0,0.0,0.0
22488000,22488000,0.015237967,0.014173122,0.00019406273,0.001,0.0,0.0,0.0,0.0,0.0
22540000,22540000,0.013959243,0.015004145,8.8099645e-05,0.001,0.0,0.0,0.0,0.0,0.0
22588000,22588000,0.01541985,0.016505657,-0.00015277167,0.001,0.0,0.0,0.0,0.0,0.0
22640000,22640000,0.014536765,0.014263472,0.0006169532,0.001,0.0,0.0,0.0,0.0,0.0
22688000,22688000,0.013411626,0.015380513,-1.94452e-05,0.001,0.0,0.0,0.0,0.0,0.0
22740000,22740000,0.013900618,0.015216137,0.0003019034,0.001,0.0,0.0,0.0,0.0,0.0
22788000,22788000,0.014997361,0.014586854,0.00084340334,0.001,0.0,0.0,0.0,0.0,0.0
22840000,22840000,0.0146306185,0.01598438,-0.00056875934,0.001,0.0,0.0,0.0,0.0,0.0
22888000,22888000,0.015323356,0.014351594,0.00014260998,0.001,0.0,0.0,0.0,0.0,0.0
22940000,22940000,0.014298501,0.01623825,-4.5250566e-05,0.001,0.0,0.0,0.0,0.0,0.0
22988000,22988000,0.014061785,0.015363353,0.00057674496,0.001,0.0,0.0,0.0,0.0,0.0
23036000,23036000,0.0153764365,0.014843272,6.353863e-05,0.001,0.0,0.0,0.0,0.0,0.0
23084000,23084000,0.014207693,0.015186122,-0.00016765567,0.001,0.0,0.0,0.0,0.0,0.0
23136000,23136000,0.014214606,0.016265133,0.00015655158,0.001,0.0,0.0,0.0,0.0,0.0
23188000,23188000,0.0147737255,0.014645456,0.00017487381,0.001,0.0,0.0,0.0,0.0,0.0
23240000,23240000,0.014049515,0.014031726,0.00020415029,0.001,0.0,0.0,0.0,0.0,0.0
23288000,23288000,0.014264049,0.015262205,0.00022410373,0.001,0.0,0.0,0.0,0.0,0.0
23340000,23340000,0.014232356,0.015507637,0.00014580057,0.001,0.0,0.0,0.0,0.0,0.0
23384000,23384000,0.014587128,0.014160317,-0.00016471313,0.001,0.0,0.0,0.0,0.0,0.0
23436000,23436000,0.014442669,0.015338456,0.00030752583,0.001,0.0,0.0,0.0,0.0,0.0
23484000,23484000,0.014441848,0.013984354,0.0003804434,0.001,0.0,0.0,0.0,0.0,0.0
23540000,23540000,0.014358421,0.014135136,-1.6978685e-05,0.001,0.0,0.0,0.0,0.0,0.0
23588000,23588000,0.015713375,0.015147973,0.00034904163,0.001,0.0,0.0,0.0,0.0,0.0
23640000,23640000,0.014697045,0.015729938,0.0004895957,0.001,0.0,0.0,0.0,0.0,0.0
23688000,23688000,0.014169828,0.0137694925,-2.322602e-05,0.001,0.0,0.0,0.0,0.0,0.0
23736000,23736000,0.013759903,0.015947662,-0.00019397606,0.001,0.0,0.0,0.0,0.0,0.0
23788000,23788000,0.014918854,0.0143563505,-0.00025598222,0.001,0.0,0.0,0.0,0.0,0.0
23836000,23836000,0.015203032,0.013936485,0.00017773277,0.001,0.0,0.0,0.0,0.0,0.0
23884000,23884000,0.014139829,0.014865363,0.00083011965,0.001,0.0,0.0,0.0,0.0,0.0
23936000,23936000,0.013895051,0.015736071,0.00013151912,0.001,0.0,0.0,0.0,0.0,0.0
23988000,23988000,0.014319504,0.015432785,-4.0783187e-05,0.001,0.0,0.0,0.0,0.0,0.0
24036000,24036000,0.014748334,0.014270564,0.00037936392,0.001,0.0,0.0,0.0,0.0,0.0
24088000,24088000,0.014743761,0.014743357,3.6349753e-05,0.001,0.0,0.0,0.0,0.0,0.0
24140000,24140000,0.013760661,0.014049435,0.00054735685,0.001,0.0,0.0,0.0,0.0,0.0
24188000,24188000,0.014368696,0.014287157,0.00024276953,0.001,0.0,0.0,0.0,0.0,0.0
24240000,24240000,0.013835744,0.015757456,0.0011137094,0.001,0.0,0.0,0.0,0.0,0.0
24288000,24288000,0.013475245,0.015278448,0.00055822823,0.001,0.0,0.0,0.0,0.0,0.0
24336000,24336000,0.01570016,0.014433979,0.00015701636,0.001,0.0,0.0,0.0,0.0,0.0
24388000,24388000,0.013780833,0.013558491,5.8432574e-06,0.001,0.0,0.0,0.0,0.0,0.0
24440000,24440000,0.013738195,0.014614414,0.0009513177,0.001,0.0,0.0,0.0,0.0,0.0
24488000,24488000,0.013359229,0.014881564,-0.0001470639,0.001,0.0,0.0,0.0,0.0,0.0
24540000,24540000,0.015378192,0.014021505,0.00026771473,0.001,0.0,0.0,0.0,0.0,0.0
24584000,24584000,0.014627466,0.015244069,3.4875993e-05,0.001,0.0,0.0,0.0,0.0,0.0
24640000,24640000,0.013608865,0.015177421,-9.2495226e-05,0.001,0.0,0.0,0.0,0.0,0.0
24688000,24688000,0.014479498,0.0133330505,0.0001126512,0.001,0.0,0.0,0.0,0.0,0.0
24740000,24740000,0.013423656,0.01504561,0.00016597308,0.001,0.0,0.0,0.0,0.0,0.0
24788000,24788000,0.013218748,0.015401508,0.00032937556,0.001,0.0,0.0,0.0,0.0,0.0
24840000,24840000,0.014043153,0.01649934,0.00024168233,0.001,0.0,0.0,0.0,0.0,0.0
24888000,24888000,0.013922625,0.014493367,0.00023227658,0.001,0.0,0.0,0.0,0.0,0.0
24940000,24940000,0.013737397,0.014437726,0.0001188667,0.001,0.0,0.0,0.0,0.0,0.0
24988000,24988000,0.014022956,0.014747369,-0.00043551787,0.001,0.0,0.0,0.0,0.0,0.0
25040000,25040000,0.01398993,0.014444378,2.074521e-07,0.001,0.0,0.0,0.0,0.0,0.0
25088000,25088000,0.014471741,0.014602743,0.00033081285,0.001,0.0,0.0,0.0,0.0,0.0
25140000,25140000,0.014914656,0.014542405,-0.00040379298,0.001,0.0,0.0,0.0,0.0,0.0
25188000,25188000,0.014477006,0.014744996,0.0001773172,0.001,0.0,0.0,0.0,0.0,0.0
25240000,25240000,0.013614047,0.015012232,0.00018457293,0.001,0.0,0.0,0.0,0.0,0.0
25288000,25288000,0.0146568,0.01576137,-7.221822e-05,0.001,0.0,0.0,0.0,0.0,0.0
25340000,25340000,0.014436858,0.014549307,-8.958574e-05,0.001,0.0,0.0,0.0,0.0,0.0
25388000,25388000,0.013382701,0.015578636,0.0005226351,0.001,0.0,0.0,0.0,0.0,0.0
25440000,25440000,0.013451295,0.015206851,-0.00012899605,0.001,0.0,0.0,0.0,0.0,0.0
25488000,25488000,0.013565097,0.015147431,-5.396474e-05,0.001,0.0,0.0,0.0,0.0,0.0
25536000,25536000,0.013207126,0.014948912,6.7416113e-06,0.001,0.0,0.0,0.0,0.0,0.0
25584000,25584000,0.012585607,0.014580759,-5.76962e-05,0.001,0.0,0.0,0.0,0.0,0.0
25636000,25636000,0.014494205,0.014201403,0.00023971994,0.001,0.0,0.0,0.0,0.0,0.0
25684000,25684000,0.013146298,0.014358598,0.0001584286,0.001,0.0,0.0,0.0,0.0,0.0
25740000,25740000,0.013273048,0.0159807,-9.830391e-05,0.001,0.0,0.0,0.0,0.0,0.0
25788000,25788000,0.014223725,0.014721375,7.285114e-05,0.001,0.0,0.0,0.0,0.0,0.0
25840000,25840000,0.0152579015,0.015759023,0.00021167049,0.001,0.0,0.0,0.0,0.0,0.0
25888000,25888000,0.013907625,0.015930576,2.5541523e-08,0.001,0.0,0.0,0.0,0.0,0.0
25940000,25940000,0.014570758,0.016215976,7.520313e-07,0.001,0.0,0.0,0.0,0.0,0.0
25988000,25988000,0.013282406,0.015689103,0.00030123375,0.001,0.0,0.0,0.0,0.0,0.0
26040000,26040000,0.013635706,0.016359493,0.0012774018,0.001,0.0,0.0,0.0,0.0,0.0
26088000,26088000,0.013482682,0.014220368,-3.8226462e-05,0.001,0.0,0.0,0.0,0.0,0.0
26140000,26140000,0.01312367,0.014464792,0.00035321197,0.001,0.0,0.0,0.0,0.0,0.0
26188000,26188000,0.014646973,0.0151483165,-0.00034564195,0.001,0.0,0.0,0.0,0.0,0.0
26240000,26240000,0.013393756,0.015191185,0.00012440108,0.001,0.0,0.0,0.0,0.0,0.0
26288000,26288000,0.014620295,0.0146422805,-0.00016420754,0.001,0.0,0.0,0.0,0.0,0.0
26336000,26336000,0.014656154,0.0152679635,-0.00019700297,0.001,0.0,0.0,0.0,0.0,0.0
26388000,26388000,0.014819119,0.013783193,2.0461344e-05,0.001,0.0,0.0,0.0,0.0,0.0
26440000,26440000,0.013699544,0.01357033,0.00043535684,0.001,0.0,0.0,0.0,0.0,0.0
26488000,26488000,0.014611941,0.015181892,0.0003888011,0.001,0.0,0.0,0.0,0.0,0.0
26540000,26540000,0.014469598,0.015825082,5.3112188e-05,0.001,0.0,0.0,0.0,0.0,0.0
26588000,26588000,0.012577375,0.015857242,0.00010581875,0.001,0.0,0.0,0.0,0.0,0.0
26640000,26640000,0.01211122,0.015177886,0.0004361988,0.001,0.0,0.0,0.0,0.0,0.0
26688000,26688000,0.013954074,0.015623606,0.00033224234,0.001,0.0,0.0,0.0,0.0,0.0
26740000,26740000,0.013700507,0.013837921,0.00010771094,0.001,0.0,0.0,0.0,0.0,0.0
26788000,26788000,0.01405156,0.013733554,0.00068582606,0.001,0.0,0.0,0.0,0.0,0.0
26840000,26840000,0.013608196,0.01575273,0.00014849797,0.001,0.0,0.0,0.0,0.0,0.0
26888000,26888000,0.01391096,0.015003451,0.0005728451,0.001,0.0,0.0,0.0,0.0,0.0
26940000,26940000,0.012615138,0.014572383,-0.0003855257,0.001,0.0,0.0,0.0,0.0,0.0
26988000,26988000,0.014109235,0.014846636,0.00011984798,0.001,0.0,0.0,0.0,0.0,0.0
27040000,27040000,0.013503507,0.013500175,-0.0001183879,0.001,0.0,0.0,0.0,0.0,0.0
27088000,27088000,0.014089108,0.015822552,0.00039942647,0.001,0.0,0.0,0.0,0.0,0.0
27140000,27140000,0.013955048,0.015303039,0.00014491337,0.001,0.0,0.0,0.0,0.0,0.0
27188000,27188000,0.014181004,0.014735664,9.9325574e-05,0.001,0.0,0.0,0.0,0.0,0.0
27240000,27240000,0.012822976,0.014034726,-0.00016037076,0.001,0.0,0.0,0.0,0.0,0.0
27288000,27288000,0.01417453,0.014266355,0.00029847244,0.001,0.0,0.0,0.0,0.0,0.0
27340000,27340000,0.013688365,0.015619538,0.0004822462,0.001,0.0,0.0,0.0,0.0,0.0
27384000,27384000,0.013589025,0.014395341,0.00017469504,0.001,0.0,0.0,0.0,0.0,0.0
27440000,27440000,0.013847678,0.014496532,-3.3281245e-05,0.001,0.0,0.0,0.0,0.0,0.0
27484000,27484000,0.012750294,0.015247458,0.00032928615,0.001,0.0,0.0,0.0,0.0,0.0
27536000,27536000,0.0130083915,0.013761009,0.000284692,0.001,0.0,0.0,0.0,0.0,0.0
27588000,27588000,0.01395841,0.0134944385,0.0005255995,0.001,0.0,0.0,0.0,0.0,0.0
27636000,27636000,0.013894859,0.015693035,0.00026955255,0.001,0.0,0.0,0.0,0.0,0.0
27688000,27688000,0.013754025,0.015956806,0.0004518843,0.001,0.0,0.0,0.0,0.0,0.0
27740000,27740000,0.013577441,0.013531837,6.957527e-05,0.001,0.0,0.0,0.0,0.0,0.0
27788000,27788000,0.014289647,0.013992513,0.0005045074,0.001,0.0,0.0,0.0,0.0,0.0
27836000,27836000,0.013875472,0.014223897,-0.00010466515,0.001,0.0,0.0,0.0,0.0,0.0
27888000,27888000,0.013684035,0.014600478,0.00012750167,0.001,0.0,0.0,0.0,0.0,0.0
27940000,27940000,0.015405427,0.015075182,-6.897636e-05,0.001,0.0,0.0,0.0,0.0,0.0
27984000,27984000,0.013922792,0.014184193,-1.6728241e-05,0.001,0.0,0.0,0.0,0.0,0.0
28040000,28040000,0.0132695455,0.014735918,-0.00013621668,0.001,0.0,0.0,0.0,0.0,0.0
28088000,28088000,0.0134068895,0.016043227,0.00034664405,0.001,0.0,0.0,0.0,0.0,0.0
28136000,28136000,0.014252782,0.015662925,-4.091266e-05,0.001,0.0,0.0,0.0,0.0,0.0
28188000,28188000,0.014517496,0.014588373,0.00023607894,0.001,0.0,0.0,0.0,0.0,0.0
28240000,28240000,0.013965049,0.015567426,-0.0003801412,0.001,0.0,0.0,0.0,0.0,0.0
28288000,28288000,0.013048405,0.0149190705,0.00021412052,0.001,0.0,0.0,0.0,0.0,0.0
28340000,28340000,0.014154717,0.015478256,0.00017481575,0.001,0.0,0.0,0.0,0.0,0.0
28388000,28388000,0.013731393,0.015005987,-0.0001440402,0.001,0.0,0.0,0.0,0.0,0.0
28440000,28440000,0.012106533,0.014652534,0.0002810815,0.001,0.0,0.0,0.0,0.0,0.0
28488000,28488000,0.014285518,0.015152692,1.8929906e-05,0.001,0.0,0.0,0.0,0.0,0.0
28540000,28540000,0.012468645,0.01607658,0.0005037583,0.001,0.0,0.0,0.0,0.0,0.0
28588000,28588000,0.013098726,0.015762322,0.00013128422,0.001,0.0,0.0,0.0,0.0,0.0
28640000,28640000,0.013256469,0.015599253,2.0954822e-05,0.001,0.0,0.0,0.0,0.0,0.0
28688000,28688000,0.013739189,0.015148784,0.00025562732,0.001,0.0,0.0,0.0,0.0,0.0
28740000,28740000,0.014378342,0.013896016,-0.0005680888,0.001,0.0,0.0,0.0,0.0,0.0
28788000,28788000,0.013409162,0.014263962,7.192184e-05,0.001,0.0,0.0,0.0,0.0,0.0
28840000,28840000,0.013770843,0.01476854,0.00035805066,0.001,0.0,0.0,0.0,0.0,0.0
28888000,28888000,0.01474368,0.015923763,0.00081910583,0.001,0.0,0.0,0.0,0.0,0.0
28940000,28940000,0.013865517,0.014993836,0.0005461203,0.001,0.0,0.0,0.0,0.0,0.0
28988000,28988000,0.0138525525,0.014350899,0.00025667925,0.001,0.0,0.0,0.0,0.0,0.0
29040000,29040000,0.013963327,0.016248118,0.00034300413,0.001,0.0,0.0,0.0,0.0,0.0
29084000,29084000,0.0129906405,0.014971158,-0.0003016883,0.001,0.0,0.0,0.0,0.0,0.0
29140000,29140000,0.014594568,0.015131843,0.00021223324,0.001,0.0,0.0,0.0,0.0,0.0
29188000,29188000,0.013633107,0.01513848,0.00017512713,0.001,0.0,0.0,0.0,0.0,0.0
29236000,29236000,0.013072976,0.01468443,0.0004644313,0.001,0.0,0.0,0.0,0.0,0.0
29288000,29288000,0.013988983,0.015180913,-5.8698108e-05,0.001,0.0,0.0,0.0,0.0,0.0
29340000,29340000,0.014162722,0.01565785,0.00044438496,0.001,0.0,0.0,0.0,0.0,0.0
29388000,29388000,0.014087163,0.016434744,0.00017546628,0.001,0.0,0.0,0.0,0.0,0.0
29440000,29440000,0.014247547,0.015022446,8.1087484e-05,0.001,0.0,0.0,0.0,0.0,0.0
29488000,29488000,0.012869654,0.015772754,0.0005981158,0.001,0.0,0.0,0.0,0.0,0.0
29540000,29540000,0.013930837,0.01550382,9.87523e-05,0.001,0.0,0.0,0.0,0.0,0.0
29584000,29584000,0.01374136,0.015578105,0.00028590608,0.001,0.0,0.0,0.0,0.0,0.0
29636000,29636000,0.013712582,0.01496778,8.150171e-05,0.001,0.0,0.0,0.0,0.0,0.0
29688000,29688000,0.013863469,0.016059414,0.00022891372,0.001,0.0,0.0,0.0,0.0,0.0
29740000,29740000,0.013626327,0.0148348175,5.167973e-05,0.001,0.0,0.0,0.0,0.0,0.0
29788000,29788000,0.014029936,0.015811315,0.00038725362,0.001,0.0,0.0,0.0,0.0,0.0
29836000,29836000,0.013497086,0.015268376,-9.015835e-05,0.001,0.0,0.0,0.0,0.0,0.0
29888000,29888000,0.014349679,0.015575214,-0.00049524975,0.001,0.0,0.0,0.0,0.0,0.0
29940000,29940000,0.013967723,0.016227249,0.00030764114,0.001,0.0,0.0,0.0,0.0,0.0
29988000,29988000,0.0141966,0.016448334,-3.529453e-05,0.001,0.0,0.0,0.0,0.0,0.0
30040000,30040000,0.014273544,0.0152634205,-0.00012004648,0.001,0.0,0.0,0.0,0.0,0.0
30088000,30088000,0.014554216,0.014615037,6.986619e-05,0.001,0.0,0.0,0.0,0.0,0.0
30136000,30136000,0.0143379085,0.015418652,0.00034872504,0.001,0.0,0.0,0.0,0.0,0.0
30184000,30184000,0.013366392,0.015365313,1.8514984e-06,0.001,0.0,0.0,0.0,0.0,0.0
30240000,30240000,0.014149454,0.0154864555,0.0007671318,0.001,0.0,0.0,0.0,0.0,0.0
30288000,30288000,0.01454792,0.01659995,0.0005151741,0.001,0.0,0.0,0.0,0.0,0.0
30340000,30340000,0.015394101,0.016071303,-0.00042773486,0.001,0.0,0.0,0.0,0.0,0.0
30384000,30384000,0.014030977,0.015335936,-0.00047202175,0.001,0.0,0.0,0.0,0.0,0.0
30436000,30436000,0.013769683,0.015428286,0.00029260543,0.001,0.0,0.0,0.0,0.0,0.0
30484000,30484000,0.013802536,0.016090352,0.00034111922,0.001,0.0,0.0,0.0,0.0,0.0
30540000,30540000,0.014776357,0.016014723,-4.979188e-05,0.001,0.0,0.0,0.0,0.0,0.0
30588000,30588000,0.013903449,0.015322834,0.00013972985,0.001,0.0,0.0,0.0,0.0,0.0
30640000,30640000,0.014502663,0.016778367,-0.00040941755,0.001,0.0,0.0,0.0,0.0,0.0
30688000,30688000,0.014231706,0.016080804,0.00041682925,0.001,0.0,0.0,0.0,0.0,0.0
30740000,30740000,0.0151679935,0.015401012,-0.00023182969,0.001,0.0,0.0,0.0,0.0,0.0
30788000,30788000,0.014487339,0.016024005,0.00043479932,0.001,0.0,0.0,0.0,0.0,0.0
30840000,30840000,0.01443011,0.015839767,0.00090396305,0.001,0.0,0.0,0.0,0.0,0.0
30888000,30888000,0.013673818,0.015545285,-4.269258e-05,0.001,0.0,0.0,0.0,0.0,0.0
30940000,30940000,0.014525755,0.016163759,-3.683283e-05,0.001,0.0,0.0,0.0,0.0,0.0
30988000,30988000,0.015714956,0.016501121,0.00019582249,0.001,0.0,0.0,0.0,0.0,0.0
31036000,31036000,0.01456527,0.015377609,0.0002682019,0.001,0.0,0.0,0.0,0.0,0.0
31088000,31088000,0.014333448,0.016438121,3.3324824e-05,0.001,0.0,0.0,0.0,0.0,0.0
31136000,31136000,0.014023504,0.0155802835,-0.00026992662,0.001,0.0,0.0,0.0,0.0,0.0
31188000,31188000,0.014952036,0.016444525,0.00024491045,0.001,0.0,0.0,0.0,0.0,0.0
31240000,31240000,0.013708209,0.015926262,0.00030656016,0.001,0.0,0.0,0.0,0.0,0.0
31288000,31288000,0.015109673,0.016724057,0.00066317886,0.001,0.0,0.0,0.0,0.0,0.0
31340000,31340000,0.015193562,0.016184095,-7.282936e-05,0.001,0.0,0.0,0.0,0.0,0.0
31384000,31384000,0.015023911,0.016236505,0.00050275936,0.001,0.0,0.0,0.0,0.0,0.0
31440000,31440000,0.0152563285,0.016858116,-0.00025385417,0.001,0.0,0.0,0.0,0.0,0.0
31484000,31484000,0.014264411,0.016483298,-4.4644323e-05,0.001,0.0,0.0,0.0,0.0,0.0
31540000,31540000,0.0155884605,0.015240314,0.00066960475,0.001,0.0,0.0,0.0,0.0,0.0
31588000,31588000,0.014369,0.015624871,0.00054475473,0.001,0.0,0.0,0.0,0.0,0.0
31640000,31640000,0.014874027,0.016628869,0.0005627116,0.001,0.0,0.0,0.0,0.0,0.0
31688000,31688000,0.014803337,0.016321247,-0.0001842123,0.001,0.0,0.0,0.0,0.0,0.0
31740000,31740000,0.015303107,0.01716977,0.00014680545,0.001,0.0,0.0,0.0,0.0,0.0
31788000,31788000,0.015901746,0.016607631,0.00033334375,0.001,0.0,0.0,0.0,0.0,0.0
31840000,31840000,0.01511582,0.016013766,0.00015878936,0.001,0.0,0.0,0.0,0.0,0.0
31888000,31888000,0.013739206,0.016506013,0.00018642622,0.001,0.0,0.0,0.0,0.0,0.0
31936000,31936000,0.01582151,0.014883611,-0.00047102617,0.001,0.0,0.0,0.0,0.0,0.0
31988000,31988000,0.014520481,0.016288478,-0.0004595318,0.001,0.0,0.0,0.0,0.0,0.0
32040000,32040000,0.014331077,0.015867874,0.00032441912,0.001,0.0,0.0,0.0,0.0,0.0
32084000,32084000,0.014385785,0.015787002,0.00015327861,0.001,0.0,0.0,0.0,0.0,0.0
32140000,32140000,0.014670868,0.01451246,0.0002974441,0.001,0.0,0.0,0.0,0.0,0.0
32184000,32184000,0.013800062,0.017103702,0.00034785664,0.001,0.0,0.0,0.0,0.0,0.0
32236000,32236000,0.014827315,0.016060336,6.8181894e-06,0.001,0.0,0.0,0.0,0.0,0.0
32288000,32288000,0.014789364,0.01727371,-0.0003812181,0.001,0.0,0.0,0.0,0.0,0.0
32340000,32340000,0.013850491,0.015572231,0.0005749054,0.001,0.0,0.0,0.0,0.0,0.0
32388000,32388000,0.013739161,0.015576211,-6.623862e-05,0.001,0.0,0.0,0.0,0.0,0.0
32440000,32440000,0.015345385,0.016047398,0.0003448333,0.001,0.0,0.0,0.0,0.0,0.0
32488000,32488000,0.014725424,0.015778141,0.0007522697,0.001,0.0,0.0,0.0,0.0,0.0
32540000,32540000,0.0152175585,0.017272865,0.000114074675,0.001,0.0,0.0,0.0,0.0,0.0
32584000,32584000,0.0140917525,0.017160283,-0.00017369581,0.001,0.0,0.0,0.0,0.0,0.0
32636000,32636000,0.015367212,0.017271118,-5.4971897e-05,0.001,0.0,0.0,0.0,0.0,0.0
32684000,32684000,0.014227744,0.017787207,0.0004141477,0.001,0.0,0.0,0.0,0.0,0.0
32740000,32740000,0.013699112,0.016839419,-1.8311612e-05,0.001,0.0,0.0,0.0,0.0,0.0
32784000,32784000,0.014607878,0.0167426,0.00010695108,0.001,0.0,0.0,0.0,0.0,0.0
32836000,32836000,0.016026286,0.017514087,-0.0006471313,0.001,0.0,0.0,0.0,0.0,0.0
32888000,32888000,0.0151466215,0.016478626,0.00045830492,0.001,0.0,0.0,0.0,0.0,0.0
32936000,32936000,0.015634064,0.016281348,6.310556e-05,0.001,0.0,0.0,0.0,0.0,0.0
32988000,32988000,0.0152624855,0.016725035,5.4033393e-05,0.001,0.0,0.0,0.0,0.0,0.0
33040000,33040000,0.014455519,0.017526254,0.0006350533,0.001,0.0,0.0,0.0,0.0,0.0
33088000,33088000,0.014390711,0.016201952,-3.308826e-05,0.001,0.0,0.0,0.0,0.0,0.0
33140000,33140000,0.015582141,0.017392416,-0.00027892386,0.001,0.0,0.0,0.0,0.0,0.0
33188000,33188000,0.014512857,0.015594938,0.00042021304,0.001,0.0,0.0,0.0,0.0,0.0
33240000,33240000,0.013683128,0.017191537,0.00027823343,0.001,0.0,0.0,0.0,0.0,0.0
33284000,33284000,0.015341145,0.017508524,-9.420892e-05,0.001,0.0,0.0,0.0,0.0,0.0
33340000,33340000,0.015298195,0.017361084,0.0003244049,0.001,0.0,0.0,0.0,0.0,0.0
33388000,33388000,0.015567437,0.017413752,0.00022337372,0.001,0.0,0.0,0.0,0.0,0.0
33440000,33440000,0.014644952,0.01738868,0.00014680105,0.001,0.0,0.0,0.0,0.0,0.0
33484000,33484000,0.014984802,0.017043915,-2.6197313e-05,0.001,0.0,0.0,0.0,0.0,0.0
33540000,33540000,0.013738893,0.017502392,1.50804e-05,0.001,0.0,0.0,0.0,0.0,0.0
33584000,33584000,0.014023749,0.015991863,-0.00019456644,0.001,0.0,0.0,0.0,0.0,0.0
33636000,33636000,0.01490728,0.016643507,0.0001634925,0.001,0.0,0.0,0.0,0.0,0.0
33684000,33684000,0.014613434,0.01737969,-0.00017476121,0.001,0.0,0.0,0.0,0.0,0.0
33740000,33740000,0.014048857,0.018389769,0.00036324968,0.001,0.0,0.0,0.0,0.0,0.0
33788000,33788000,0.015755283,0.016686976,-0.00011165589,0.001,0.0,0.0,0.0,0.0,0.0
33840000,33840000,0.015784893,0.018114004,0.00022965982,0.001,0.0,0.0,0.0,0.0,0.0
33888000,33888000,0.0135364905,0.017466007,0.00014313169,0.001,0.0,0.0,0.0,0.0,0.0
33940000,33940000,0.015589905,0.01828076,0.00057984324,0.001,0.0,0.0,0.0,0.0,0.0
33988000,33988000,0.016250411,0.016419632,0.00014428112,0.001,0.0,0.0,0.0,0.0,0.0
34040000,34040000,0.016011208,0.01624723,0.0006951501,0.001,0.0,0.0,0.0,0.0,0.0
34088000,34088000,0.014855208,0.01758531,0.00022722395,0.001,0.0,0.0,0.0,0.0,0.0
34140000,34140000,0.015324087,0.016184427,9.038148e-05,0.001,0.0,0.0,0.0,0.0,0.0
34188000,34188000,0.015200478,0.017956091,0.00052490126,0.001,0.0,0.0,0.0,0.0,0.0
34240000,34240000,0.015422289,0.016516943,-0.0002236163,0.001,0.0,0.0,0.0,0.0,0.0
34288000,34288000,0.015142646,0.018471975,-4.295537e-05,0.001,0.0,0.0,0.0,0.0,0.0
34340000,34340000,0.014578591,0.016483434,-0.00013039124,0.001,0.0,0.0,0.0,0.0,0.0
34388000,34388000,0.014800698,0.018198319,0.000571075,0.001,0.0,0.0,0.0,0.0,0.0
34440000,34440000,0.015686251,0.017333688,0.00018536174,0.001,0.0,0.0,0.0,0.0,0.0
34488000,34488000,0.015165642,0.016159188,0.0003182284,0.001,0.0,0.0,0.0,0.0,0.0
34540000,34540000,0.014627644,0.016710775,0.00011201571,0.001,0.0,0.0,0.0,0.0,0.0
34588000,34588000,0.015369827,0.016936734,0.00031920007,0.001,0.0,0.0,0.0,0.0,0.0
34640000,34640000,0.014715698,0.016766269,-0.00024618703,0.001,0.0,0.0,0.0,0.0,0.0
34688000,34688000,0.01469333,0.018366285,0.00031849588,0.001,0.0,0.0,0.0,0.0,0.0
34740000,34740000,0.014167123,0.01688549,0.00012062414,0.001,0.0,0.0,0.0,0.0,0.0
34788000,34788000,0.0149903605,0.016472591,-0.00036663786,0.001,0.0,0.0,0.0,0.0,0.0
34836000,34836000,0.014681972,0.017070495,0.0004884064,0.001,0.0,0.0,0.0,0.0,0.0
34884000,34884000,0.013917798,0.016471565,5.7553698e-05,0.001,0.0,0.0,0.0,0.0,0.0
34936000,34936000,0.01512793,0.017845634,0.0007051738,0.001,0.0,0.0,0.0,0.0,0.0
34984000,34984000,0.014305626,0.017053477,0.0006022844,0.001,0.0,0.0,0.0,0.0,0.0
35036000,35036000,0.014400618,0.017247166,0.00020704298,0.001,0.0,0.0,0.0,0.0,0.0
35084000,35084000,0.014604679,0.016888684,-4.263852e-05,0.001,0.0,0.0,0.0,0.0,0.0
35140000,35140000,0.01444454,0.017696248,0.00037865984,0.001,0.0,0.0,0.0,0.0,0.0
35188000,35188000,0.01501146,0.019075712,0.00040113248,0.001,0.0,0.0,0.0,0.0,0.0
35240000,35240000,0.016012473,0.017236112,9.562682e-05,0.001,0.0,0.0,0.0,0.0,0.0
35288000,35288000,0.01570196,0.017821703,0.0007256019,0.001,0.0,0.0,0.0,0.0,0.0
35336000,35336000,0.014654656,0.016866446,-0.0002064907,0.001,0.0,0.0,0.0,0.0,0.0
35388000,35388000,0.014759264,0.017665163,0.0006203288,0.001,0.0,0.0,0.0,0.0,0.0
35436000,35436000,0.01541536,0.017308446,0.00029601206,0.001,0.0,0.0,0.0,0.0,0.0
35484000,35484000,0.014688525,0.016542068,0.0003544708,0.001,0.0,0.0,0.0,0.0,0.0
35536000,35536000,0.014238342,0.017046548,0.00036653387,0.001,0.0,0.0,0.0,0.0,0.0
35584000,35584000,0.01503355,0.018041983,0.00019515173,0.001,0.0,0.0,0.0,0.0,0.0
35640000,35640000,0.014061727,0.01670837,-0.00022645779,0.001,0.0,0.0,0.0,0.0,0.0
35684000,35684000,0.014278308,0.01687572,4.7023485e-05,0.001,0.0,0.0,0.0,0.0,0.0
35736000,35736000,0.013601881,0.017206583,0.00022453115,0.001,0.0,0.0,0.0,0.0,0.0
35784000,35784000,0.014936723,0.01764958,0.0004295369,0.001,0.0,0.0,0.0,0.0,0.0
35840000,35840000,0.014562962,0.017417757,-0.00040572518,0.001,0.0,0.0,0.0,0.0,0.0
35884000,35884000,0.014188177,0.016802758,-7.3285206e-05,0.001,0.0,0.0,0.0,0.0,0.0
35940000,35940000,0.0140474,0.016838532,-0.00012117038,0.001,0.0,0.0,0.0,0.0,0.0
35988000,35988000,0.014988317,0.017307613,1.6946404e-05,0.001,0.0,0.0,0.0,0.0,0.0
36040000,36040000,0.01414517,0.0182315,0.000104839964,0.001,0.0,0.0,0.0,0.0,0.0
36084000,36084000,0.015255538,0.018203417,0.00013375492,0.001,0.0,0.0,0.0,0.0,0.0
36136000,36136000,0.015111912,0.01704962,-1.2598571e-05,0.001,0.0,0.0,0.0,0.0,0.0
36184000,36184000,0.0141740525,0.017715558,0.00019870496,0.001,0.0,0.0,0.0,0.0,0.0
36236000,36236000,0.014360327,0.018368762,0.0002348709,0.001,0.0,0.0,0.0,0.0,0.0
36288000,36288000,0.015796892,0.016875068,-1.0115723e-05,0.001,0.0,0.0,0.0,0.0,0.0
36336000,36336000,0.014445044,0.01683213,0.0006699498,0.001,0.0,0.0,0.0,0.0,0.0
36388000,36388000,0.015202536,0.016670307,0.0002619327,0.001,0.0,0.0,0.0,0.0,0.0
36440000,36440000,0.014840851,0.017054921,0.00056331203,0.001,0.0,0.0,0.0,0.0,0.0
36484000,36484000,0.014693113,0.018160028,-0.00012790105,0.001,0.0,0.0,0.0,0.0,0.0
36540000,36540000,0.014820486,0.01660845,0.00032353945,0.001,0.0,0.0,0.0,0.0,0.0
36584000,36584000,0.014446947,0.017475754,-0.00017164448,0.001,0.0,0.0,0.0,0.0,0.0
36640000,36640000,0.013926597,0.017052246,0.00022441945,0.001,0.0,0.0,0.0,0.0,0.0
36684000,36684000,0.014774624,0.016509352,-2.5839452e-05,0.001,0.0,0.0,0.0,0.0,0.0
36740000,36740000,0.015308325,0.017439464,0.00019591748,0.001,0.0,0.0,0.0,0.0,0.0
36788000,36788000,0.015234745,0.018584542,-4.863937e-06,0.001,0.0,0.0,0.0,0.0,0.0
36836000,36836000,0.014634624,0.016294904,-0.00022159074,0.001,0.0,0.0,0.0,0.0,0.0
36884000,36884000,0.014424753,0.017445408,0.00034960042,0.001,0.0,0.0,0.0,0.0,0.0
36936000,36936000,0.014836339,0.016649326,0.00019096465,0.001,0.0,0.0,0.0,0.0,0.0
36984000,36984000,0.014703587,0.017515194,0.00015220956,0.001,0.0,0.0,0.0,0.0,0.0
37040000,37040000,0.015237125,0.017437028,0.00014642016,0.001,0.0,0.0,0.0,0.0,0.0
37088000,37088000,0.014103638,0.01704902,0.0008143239,0.001,0.0,0.0,0.0,0.0,0.0
37140000,37140000,0.014242873,0.017117625,0.00017671943,0.001,0.0,0.0,0.0,0.0,0.0
37188000,37188000,0.015012887,0.016984176,4.5744044e-05,0.001,0.0,0.0,0.0,0.0,0.0
37236000,37236000,0.0149289835,0.018156007,0.00013219165,0.001,0.0,0.0,0.0,0.0,0.0
37288000,37288000,0.015252793,0.017532166,0.00057782774,0.001,0.0,0.0,0.0,0.0,0.0
37336000,37336000,0.014430046,0.016225444,-0.0001507049,0.001,0.0,0.0,0.0,0.0,0.0
37388000,37388000,0.013713729,0.017671743,0.00045735404,0.001,0.0,0.0,0.0,0.0,0.0
37440000,37440000,0.014130996,0.01811506,0.000108792774,0.001,0.0,0.0,0.0,0.0,0.0
37488000,37488000,0.015315331,0.019029425,0.0007771757,0.001,0.0,0.0,0.0,0.0,0.0
37540000,37540000,0.014442312,0.017729681,9.28059e-05,0.001,0.0,0.0,0.0,0.0,0.0
37588000,37588000,0.014806814,0.017205095,-8.009201e-05,0.001,0.0,0.0,0.0,0.0,0.0
37640000,37640000,0.013853744,0.017009035,-0.0003066653,0.001,0.0,0.0,0.0,0.0,0.0
37688000,37688000,0.014173517,0.017223155,0.0001382291,0.001,0.0,0.0,0.0,0.0,0.0
37736000,37736000,0.013407021,0.018221991,1.0361133e-05,0.001,0.0,0.0,0.0,0.0,0.0
37784000,37784000,0.013557141,0.017339362,1.9486599e-05,0.001,0.0,0.0,0.0,0.0,0.0
37836000,37836000,0.014194768,0.016447641,0.00039087638,0.001,0.0,0.0,0.0,0.0,0.0
37888000,37888000,0.013932447,0.017452905,-4.4814104e-05,0.001,0.0,0.0,0.0,0.0,0.0
37940000,37940000,0.014100537,0.017378256,-0.00046434207,0.001,0.0,0.0,0.0,0.0,0.0
37988000,37988000,0.013980637,0.016974248,0.0006452706,0.001,0.0,0.0,0.0,0.0,0.0
38040000,38040000,0.0123680895,0.017190553,2.1129788e-06,0.001,0.0,0.0,0.0,0.0,0.0
38088000,38088000,0.0137651125,0.018274358,0.00022054836,0.001,0.0,0.0,0.0,0.0,0.0
38140000,38140000,0.013343757,0.017479528,0.00045836993,0.001,0.0,0.0,0.0,0.0,0.0
38188000,38188000,0.015703306,0.017874865,0.00015617613,0.001,0.0,0.0,0.0,0.0,0.0
38240000,38240000,0.014857902,0.018706828,-0.00032934188,0.001,0.0,0.0,0.0,0.0,0.0
38288000,38288000,0.0139218895,0.017102472,3.935356e-06,0.001,0.0,0.0,0.0,0.0,0.0
38340000,38340000,0.013834421,0.017739594,0.00028988285,0.001,0.0,0.0,0.0,0.0,0.0
38384000,38384000,0.014721762,0.016758975,0.00045792534,0.001,0.0,0.0,0.0,0.0,0.0
38436000,38436000,0.013456241,0.017156705,-0.00031484602,0.001,0.0,0.0,0.0,0.0,0.0
38488000,38488000,0.0138187045,0.0173907,9.518809e-05,0.001,0.0,0.0,0.0,0.0,0.0
38536000,38536000,0.014223369,0.017728817,0.00019029334,0.001,0.0,0.0,0.0,0.0,0.0
38584000,38584000,0.014952394,0.018530304,1.5161315e-05,0.001,0.0,0.0,0.0,0.0,0.0
38636000,38636000,0.014635765,0.017462054,-5.828794e-05,0.001,0.0,0.0,0.0,0.0,0.0
38684000,38684000,0.014064822,0.016883822,-0.00043542698,0.001,0.0,0.0,0.0,0.0,0.0
38736000,38736000,0.013390824,0.018646581,5.537899e-05,0.001,0.0,0.0,0.0,0.0,0.0
38784000,38784000,0.014992813,0.018020708,-2.9349887e-05,0.001,0.0,0.0,0.0,0.0,0.0
38836000,38836000,0.013661749,0.017072853,3.9385584e-05,0.001,0.0,0.0,0.0,0.0,0.0
38888000,38888000,0.012933102,0.016255144,0.00021912987,0.001,0.0,0.0,0.0,0.0,0.0
38936000,38936000,0.014298469,0.01723461,-0.00033592788,0.001,0.0,0.0,0.0,0.0,0.0
38988000,38988000,0.014317476,0.01753636,0.0003203618,0.001,0.0,0.0,0.0,0.0,0.0
39040000,39040000,0.014509662,0.018073503,0.0008770367,0.001,0.0,0.0,0.0,0.0,0.0
39088000,39088000,0.013545059,0.01654304,2.4714753e-05,0.001,0.0,0.0,0.0,0.0,0.0
39140000,39140000,0.014819834,0.01693713,0.0005059915,0.001,0.0,0.0,0.0,0.0,0.0
39188000,39188000,0.014044535,0.01668073,0.0003486423,0.001,0.0,0.0,0.0,0.0,0.0
39240000,39240000,0.014582014,0.01807007,0.0004518223,0.001,0.0,0.0,0.0,0.0,0.0
39288000,39288000,0.013811313,0.017912613,0.00012429286,0.001,0.0,0.0,0.0,0.0,0.0
39340000,39340000,0.014903993,0.018649627,-0.0002101705,0.001,0.0,0.0,0.0,0.0,0.0
39388000,39388000,0.013762379,0.017467408,-0.00021663183,0.001,0.0,0.0,0.0,0.0,0.0
39440000,39440000,0.013983894,0.018203773,0.00016256496,0.001,0.0,0.0,0.0,0.0,0.0
39488000,39488000,0.013835573,0.017445147,0.00028104475,0.001,0.0,0.0,0.0,0.0,0.0
39540000,39540000,0.014044487,0.018062929,-0.0002791886,0.001,0.0,0.0,0.0,0.0,0.0
39588000,39588000,0.014324505,0.017647767,0.00052236527,0.001,0.0,0.0,0.0,0.0,0.0
39636000,39636000,0.013837965,0.01788395,-5.374645e-05,0.001,0.0,0.0,0.0,0.0,0.0
39684000,39684000,0.013967896,0.017280756,-2.1357147e-05,0.001,0.0,0.0,0.0,0.0,0.0
39736000,39736000,0.014472666,0.01778718,0.00011126499,0.001,0.0,0.0,0.0,0.0,0.0
39784000,39784000,0.014012895,0.017863093,-4.7515623e-05,0.001,0.0,0.0,0.0,0.0,0.0
39836000,39836000,0.013637257,0.018327037,0.00037194442,0.001,0.0,0.0,0.0,0.0,0.0
39884000,39884000,0.013734661,0.018169053,0.00018444285,0.001,0.0,0.0,0.0,0.0,0.0
39936000,39936000,0.013730252,0.01721456,0.00015382393,0.001,0.0,0.0,0.0,0.0,0.0
39984000,39984000,0.0138388295,0.018130686,-0.00024116591,0.001,0.0,0.0,0.0,0.0,0.0
40040000,40040000,0.013925167,0.018833226,-6.8165014e-06,0.001,0.0,0.0,0.0,0.0,0.0
40088000,40088000,0.013320753,0.01781216,-0.00021117726,0.001,0.0,0.0,0.0,0.0,0.0
