timestamp,timestamp_sample,xyz[0],xyz[1],xyz[2],xyz_derivative[0],xyz_derivative[1],xyz_derivative[2]
3388000,0,6.39054e-05,7.506924e-05,7.639074e-09,0.0,0.0,0.0
3392000,0,6.3905405e-05,7.506924e-05,7.626432e-09,0.0,0.0,0.0
3400000,0,6.390544e-05,7.506923e-05,7.601151e-09,0.0,0.0,0.0
3408000,0,6.390548e-05,7.506922e-05,7.5758715e-09,0.0,0.0,0.0
3420000,0,6.390552e-05,7.50692e-05,7.537948e-09,0.0,0.0,0.0
3428000,0,6.390556e-05,7.506919e-05,7.512669e-09,0.0,0.0,0.0
3440000,0,6.3905594e-05,7.5069176e-05,7.474745e-09,0.0,0.0,0.0
3448000,0,6.390564e-05,7.506916e-05,7.449466e-09,0.0,0.0,0.0
3460000,0,6.3905674e-05,7.506915e-05,7.4115425e-09,0.0,0.0,0.0
3468000,0,6.390571e-05,7.506914e-05,7.386263e-09,0.0,0.0,0.0
3480000,0,6.3905754e-05,7.506912e-05,7.34834e-09,0.0,0.0,0.0
3488000,0,6.390579e-05,7.506911e-05,7.3230604e-09,0.0,0.0,0.0
3500000,0,6.390584e-05,7.5069096e-05,7.2851387e-09,0.0,0.0,0.0
3508000,0,6.390587e-05,7.506908e-05,7.2598576e-09,0.0,0.0,0.0
3520000,0,6.3905914e-05,7.506907e-05,7.221936e-09,0.0,0.0,0.0
3528000,0,6.390595e-05,7.506905e-05,7.196655e-09,0.0,0.0,0.0
3540000,0,6.3905994e-05,7.506904e-05,7.158733e-09,0.0,0.0,0.0
3548000,0,6.390602e-05,7.506903e-05,7.133452e-09,0.0,0.0,0.0
3560000,0,6.3906075e-05,7.506901e-05,7.0955304e-09,0.0,0.0,0.0
3568000,0,6.39061e-05,7.5069e-05,7.0702493e-09,0.0,0.0,0.0
3580000,0,6.3906155e-05,7.506899e-05,7.0323276e-09,0.0,0.0,0.0
3588000,0,6.390618e-05,7.506897e-05,7.007046e-09,0.0,0.0,0.0
3600000,0,6.390623e-05,7.506896e-05,6.969125e-09,0.0,0.0,0.0
3608000,0,6.390626e-05,7.506894e-05,6.9438433e-09,0.0,0.0,0.0
3620000,0,6.390631e-05,7.506893e-05,6.9059225e-09,0.0,0.0,0.0
3628000,0,6.390634e-05,7.506892e-05,6.8806405e-09,0.0,0.0,0.0
3640000,0,6.390639e-05,7.506891e-05,6.8427197e-09,0.0,0.0,0.0
3648000,0,6.390642e-05,7.506889e-05,6.8174377e-09,0.0,0.0,0.0
3660000,0,6.390647e-05,7.506888e-05,6.779517e-09,0.0,0.0,0.0
3668000,0,6.390649e-05,7.506886e-05,6.754235e-09,0.0,0.0,0.0
3680000,0,6.390654e-05,7.506885e-05,6.716314e-09,0.0,0.0,0.0
3688000,0,6.390657e-05,7.506884e-05,6.691032e-09,0.0,0.0,0.0
3700000,0,6.390662e-05,7.506882e-05,6.6531105e-09,0.0,0.0,0.0
3708000,0,6.390665e-05,7.506881e-05,6.627829e-09,0.0,0.0,0.0
3720000,0,6.390669e-05,7.50688e-05,6.5899077e-09,0.0,0.0,0.0
3728000,0,6.390672e-05,7.506878e-05,6.564626e-09,0.0,0.0,0.0
3740000,0,6.390677e-05,7.506877e-05,6.526705e-09,0.0,0.0,0.0
3748000,0,6.39068e-05,7.5068754e-05,6.5014234e-09,0.0,0.0,0.0
3760000,0,6.390685e-05,7.506874e-05,6.463502e-09,0.0,0.0,0.0
3768000,0,6.390688e-05,7.506873e-05,6.4382206e-09,0.0,0.0,0.0
3780000,0,6.390693e-05,7.506871e-05,6.4002994e-09,0.0,0.0,0.0
3788000,0,6.390696e-05,7.50687e-05,6.375018e-09,0.0,0.0,0.0
3800000,0,6.3907006e-05,7.506869e-05,6.337096e-09,0.0,0.0,0.0
3808000,0,6.3907035e-05,7.5068674e-05,6.311815e-09,0.0,0.0,0.0
3820000,0,6.3907086e-05,7.506866e-05,6.2738934e-09,0.0,0.0,0.0
3828000,0,6.3907115e-05,7.5068645e-05,6.2486123e-09,0.0,0.0,0.0
3840000,0,6.390716e-05,7.506863e-05,6.2106906e-09,0.0,0.0,0.0
3848000,0,6.3907195e-05,7.506862e-05,6.1854095e-09,0.0,0.0,0.0
3860000,0,6.390724e-05,7.50686e-05,6.147488e-09,0.0,0.0,0.0
3868000,0,6.3907275e-05,7.5068594e-05,6.1222067e-09,0.0,0.0,0.0
3880000,0,6.390732e-05,7.506858e-05,6.084285e-09,0.0,0.0,0.0
3888000,0,6.390735e-05,7.5068565e-05,6.059004e-09,0.0,0.0,0.0
3900000,0,6.39074e-05,7.506855e-05,6.0210823e-09,0.0,0.0,0.0
3908000,0,6.3907435e-05,7.506854e-05,5.9958025e-09,0.0,0.0,0.0
3920000,0,6.390747e-05,7.506852e-05,5.9578795e-09,0.0,0.0,0.0
3928000,0,6.3907515e-05,7.5068514e-05,5.9325997e-09,0.0,0.0,0.0
3940000,0,6.390755e-05,7.506849e-05,5.8946767e-09,0.0,0.0,0.0
3948000,0,6.3907595e-05,7.5068485e-05,5.869397e-09,0.0,0.0,0.0
3960000,0,6.390763e-05,7.506847e-05,5.831474e-09,0.0,0.0,0.0
3968000,0,6.390767e-05,7.5068456e-05,5.806194e-09,0.0,0.0,0.0
3980000,0,6.390771e-05,7.506844e-05,5.768271e-09,0.0,0.0,0.0
3988000,0,6.390775e-05,7.5068434e-05,5.7429914e-09,0.0,0.0,0.0
4000000,0,6.390779e-05,7.506842e-05,5.7050697e-09,0.0,0.0,0.0
4008000,0,6.390783e-05,7.5068405e-05,5.6797886e-09,0.0,0.0,0.0
4020000,0,6.390787e-05,7.506839e-05,5.641867e-09,0.0,0.0,0.0
4028000,0,6.39079e-05,7.5068376e-05,5.616586e-09,0.0,0.0,0.0
4040000,0,6.390795e-05,7.506836e-05,5.578664e-09,0.0,0.0,0.0
4048000,0,6.390798e-05,7.5068354e-05,5.553383e-09,0.0,0.0,0.0
4060000,0,6.390803e-05,7.506833e-05,5.5154614e-09,0.0,0.0,0.0
4068000,0,6.390806e-05,7.5068325e-05,5.4901803e-09,0.0,0.0,0.0
4080000,0,6.3908104e-05,7.506831e-05,5.4522586e-09,0.0,0.0,0.0
4088000,0,6.390814e-05,7.5068296e-05,5.426977e-09,0.0,0.0,0.0
4100000,0,6.3908185e-05,7.506828e-05,5.389056e-09,0.0,0.0,0.0
4108000,0,6.390821e-05,7.506827e-05,5.363774e-09,0.0,0.0,0.0
4120000,0,6.3908265e-05,7.506825e-05,5.3258526e-09,0.0,0.0,0.0
4128000,0,6.3908294e-05,7.5068245e-05,5.300571e-09,0.0,0.0,0.0
4140000,0,6.3908345e-05,7.506822e-05,5.26265e-09,0.0,0.0,0.0
4148000,0,6.390837e-05,7.5068216e-05,5.2373683e-09,0.0,0.0,0.0
4160000,0,6.390842e-05,7.50682e-05,5.199447e-09,0.0,0.0,0.0
4168000,0,6.390845e-05,7.506819e-05,5.174165e-09,0.0,0.0,0.0
4180000,0,6.39085e-05,7.506817e-05,5.1362443e-09,0.0,0.0,0.0
4188000,0,6.390853e-05,7.506816e-05,5.1109623e-09,0.0,0.0,0.0
4200000,0,6.390857e-05,7.506814e-05,5.0730407e-09,0.0,0.0,0.0
4208000,0,6.39086e-05,7.506813e-05,5.047759e-09,0.0,0.0,0.0
4220000,0,6.390865e-05,7.5068114e-05,5.009838e-09,0.0,0.0,0.0
4228000,0,6.390868e-05,7.506811e-05,4.9845563e-09,0.0,0.0,0.0
4240000,0,6.390873e-05,7.506809e-05,4.946635e-09,0.0,0.0,0.0
4248000,0,6.390876e-05,7.506808e-05,4.9213535e-09,0.0,0.0,0.0
4260000,0,6.390881e-05,7.506806e-05,4.8834323e-09,0.0,0.0,0.0
4268000,0,6.390883e-05,7.506805e-05,4.8581503e-09,0.0,0.0,0.0
4280000,0,6.390888e-05,7.5068034e-05,4.8202295e-09,0.0,0.0,0.0
4288000,0,6.390891e-05,7.506803e-05,4.7949476e-09,0.0,0.0,0.0
4300000,0,6.390896e-05,7.5068005e-05,4.757026e-09,0.0,0.0,0.0
4308000,0,6.390899e-05,7.5068e-05,4.7317448e-09,0.0,0.0,0.0
4320000,0,6.3909036e-05,7.506798e-05,4.693823e-09,0.0,0.0,0.0
4328000,0,6.390907e-05,7.506797e-05,4.668542e-09,0.0,0.0,0.0
4340000,0,6.3909116e-05,7.5067954e-05,4.6306203e-09,0.0,0.0,0.0
4348000,0,6.3909145e-05,7.506794e-05,4.605339e-09,0.0,0.0,0.0
4360000,0,6.3909196e-05,7.5067925e-05,4.5674176e-09,0.0,0.0,0.0
4368000,0,6.3909225e-05,7.506792e-05,4.5421364e-09,0.0,0.0,0.0
4380000,0,6.3909276e-05,7.5067896e-05,4.5042143e-09,0.0,0.0,0.0
4388000,0,6.3909305e-05,7.506789e-05,4.4789332e-09,0.0,0.0,0.0
4400000,0,6.390935e-05,7.5067874e-05,4.4410116e-09,0.0,0.0,0.0
4408000,0,6.390939e-05,7.506786e-05,4.415732e-09,0.0,0.0,0.0
4420000,0,6.390943e-05,7.5067845e-05,4.377809e-09,0.0,0.0,0.0
4428000,0,6.3909465e-05,7.506784e-05,4.352529e-09,0.0,0.0,0.0
4440000,0,6.390951e-05,7.5067815e-05,4.314606e-09,0.0,0.0,0.0
4448000,0,6.3909545e-05,7.506781e-05,4.2893262e-09,0.0,0.0,0.0
4460000,0,6.390959e-05,7.506779e-05,4.2514032e-09,0.0,0.0,0.0
4468000,0,6.3909625e-05,7.506778e-05,4.2261235e-09,0.0,0.0,0.0
4480000,0,6.390966e-05,7.5067765e-05,4.1882e-09,0.0,0.0,0.0
4488000,0,6.3909705e-05,7.506775e-05,4.1629202e-09,0.0,0.0,0.0
4500000,0,6.390975e-05,7.5067735e-05,4.1249986e-09,0.0,0.0,0.0
4508000,0,6.390978e-05,7.506773e-05,4.0997175e-09,0.0,0.0,0.0
4520000,0,6.390983e-05,7.5067706e-05,4.061796e-09,0.0,0.0,0.0
4528000,0,6.390986e-05,7.50677e-05,4.0365147e-09,0.0,0.0,0.0
4540000,0,6.39099e-05,7.5067685e-05,3.998593e-09,0.0,0.0,0.0
4548000,0,6.390994e-05,7.506767e-05,3.9733115e-09,0.0,0.0,0.0
4560000,0,6.390998e-05,7.5067655e-05,3.93539e-09,0.0,0.0,0.0
4568000,0,6.391001e-05,7.506764e-05,3.9101087e-09,0.0,0.0,0.0
4580000,0,6.391006e-05,7.5067626e-05,3.872187e-09,0.0,0.0,0.0
4588000,0,6.391009e-05,7.506762e-05,3.846906e-09,0.0,0.0,0.0
4600000,0,6.391014e-05,7.50676e-05,3.8089842e-09,0.0,0.0,0.0
4608000,0,6.391016e-05,7.506759e-05,3.7837022e-09,0.0,0.0,0.0
4620000,0,6.3910215e-05,7.5067575e-05,3.745781e-09,0.0,0.0,0.0
4628000,0,6.391024e-05,7.506756e-05,3.7204995e-09,0.0,0.0,0.0
4640000,0,6.3910295e-05,7.5067546e-05,3.6825782e-09,0.0,0.0,0.0
4648000,0,6.3910324e-05,7.506753e-05,3.6572965e-09,0.0,0.0,0.0
4660000,0,6.3910375e-05,7.506752e-05,3.6193755e-09,0.0,0.0,0.0
4668000,0,6.3910404e-05,7.506751e-05,3.5940935e-09,0.0,0.0,0.0
4680000,0,6.3910455e-05,7.506749e-05,3.5561725e-09,0.0,0.0,0.0
4688000,0,6.391048e-05,7.506748e-05,3.5308907e-09,0.0,0.0,0.0
4700000,0,6.391053e-05,7.5067466e-05,3.4929688e-09,0.0,0.0,0.0
4708000,0,6.391056e-05,7.506745e-05,3.4676872e-09,0.0,0.0,0.0
4720000,0,6.39106e-05,7.506744e-05,3.429766e-09,0.0,0.0,0.0
4728000,0,6.391063e-05,7.506742e-05,3.4044843e-09,0.0,0.0,0.0
4740000,0,6.391068e-05,7.506741e-05,3.366563e-09,0.0,0.0,0.0
4748000,0,6.391071e-05,7.50674e-05,3.3412813e-09,0.0,0.0,0.0
4760000,0,6.391076e-05,7.506738e-05,3.30336e-09,0.0,0.0,0.0
4768000,0,6.391079e-05,7.506737e-05,3.2780785e-09,0.0,0.0,0.0
4780000,0,6.391084e-05,7.506736e-05,3.2401573e-09,0.0,0.0,0.0
4788000,0,6.391087e-05,7.506734e-05,3.2148755e-09,0.0,0.0,0.0
4800000,0,6.391091e-05,7.506733e-05,3.1769543e-09,0.0,0.0,0.0
4808000,0,6.391094e-05,7.506731e-05,3.1516725e-09,0.0,0.0,0.0
4820000,0,6.391099e-05,7.50673e-05,3.1137508e-09,0.0,0.0,0.0
4828000,0,6.391102e-05,7.506729e-05,3.0884697e-09,0.0,0.0,0.0
4840000,0,6.3911066e-05,7.506727e-05,3.0505478e-09,0.0,0.0,0.0
4848000,0,6.39111e-05,7.506726e-05,3.0252667e-09,0.0,0.0,0.0
4860000,0,6.3911146e-05,7.506725e-05,2.9873448e-09,0.0,0.0,0.0
4868000,0,6.3911175e-05,7.506723e-05,2.9620637e-09,0.0,0.0,0.0
4880000,0,6.3911226e-05,7.506722e-05,2.924142e-09,0.0,0.0,0.0
4888000,0,6.3911255e-05,7.5067204e-05,2.8988607e-09,0.0,0.0,0.0
4900000,0,6.3911306e-05,7.506719e-05,2.860939e-09,0.0,0.0,0.0
4908000,0,6.391134e-05,7.506718e-05,2.835659e-09,0.0,0.0,0.0
4920000,0,6.391138e-05,7.506716e-05,2.797736e-09,0.0,0.0,0.0
4928000,0,6.391142e-05,7.506715e-05,2.7724563e-09,0.0,0.0,0.0
4940000,0,6.391146e-05,7.506714e-05,2.734533e-09,0.0,0.0,0.0
4948000,0,6.3911495e-05,7.5067124e-05,2.7092533e-09,0.0,0.0,0.0
4960000,0,6.391154e-05,7.506711e-05,2.6713303e-09,0.0,0.0,0.0
4968000,0,6.3911575e-05,7.50671e-05,2.6460503e-09,0.0,0.0,0.0
4980000,0,6.391161e-05,7.506708e-05,2.6081273e-09,0.0,0.0,0.0
4988000,0,6.3911655e-05,7.506707e-05,2.5828473e-09,0.0,0.0,0.0
5000000,0,6.39117e-05,7.506706e-05,2.5449256e-09,0.0,0.0,0.0
5008000,0,6.391173e-05,7.5067044e-05,2.5196443e-09,0.0,0.0,0.0
5020000,0,6.391178e-05,7.506703e-05,2.4817226e-09,0.0,0.0,0.0
5028000,0,6.391181e-05,7.5067015e-05,2.4564413e-09,0.0,0.0,0.0
5040000,0,6.391186e-05,7.5067e-05,2.4185196e-09,0.0,0.0,0.0
5048000,0,6.391189e-05,7.5066986e-05,2.3932385e-09,0.0,0.0,0.0
5060000,0,6.391193e-05,7.506697e-05,2.3553166e-09,0.0,0.0,0.0
5068000,0,6.391197e-05,7.5066964e-05,2.3300355e-09,0.0,0.0,0.0
5080000,0,6.391201e-05,7.506694e-05,2.2921136e-09,0.0,0.0,0.0
5088000,0,6.391204e-05,7.5066935e-05,2.2668325e-09,0.0,0.0,0.0
5100000,0,6.391209e-05,7.506692e-05,2.2289108e-09,0.0,0.0,0.0
5108000,0,6.391211e-05,7.5066906e-05,2.2036288e-09,0.0,0.0,0.0
5120000,0,6.3912164e-05,7.506689e-05,2.1657076e-09,0.0,0.0,0.0
5128000,0,6.391219e-05,7.506688e-05,2.1404258e-09,0.0,0.0,0.0
5140000,0,6.3912245e-05,7.506686e-05,2.1025046e-09,0.0,0.0,0.0
5148000,0,6.391227e-05,7.5066855e-05,2.0772228e-09,0.0,0.0,0.0
5160000,0,6.3912325e-05,7.506683e-05,2.0393018e-09,0.0,0.0,0.0
5168000,0,6.3912354e-05,7.5066826e-05,2.0140198e-09,0.0,0.0,0.0
5180000,0,6.3912405e-05,7.506681e-05,1.9760988e-09,0.0,0.0,0.0
5188000,0,6.391243e-05,7.50668e-05,1.9508168e-09,0.0,0.0,0.0
5200000,0,6.391248e-05,7.506678e-05,1.9128952e-09,0.0,0.0,0.0
5208000,0,6.391251e-05,7.506677e-05,1.8876134e-09,0.0,0.0,0.0
5220000,0,6.391255e-05,7.506675e-05,1.8496922e-09,0.0,0.0,0.0
5228000,0,6.391258e-05,7.5066746e-05,1.8244104e-09,0.0,0.0,0.0
5240000,0,6.391263e-05,7.5066724e-05,1.7864892e-09,0.0,0.0,0.0
5248000,0,6.391266e-05,7.506672e-05,1.7612074e-09,0.0,0.0,0.0
5260000,0,6.391271e-05,7.50667e-05,1.7232862e-09,0.0,0.0,0.0
5268000,0,6.391274e-05,7.506669e-05,1.6980044e-09,0.0,0.0,0.0
5280000,0,6.391279e-05,7.506667e-05,1.6600832e-09,0.0,0.0,0.0
5288000,0,6.391281e-05,7.506666e-05,1.6348014e-09,0.0,0.0,0.0
5300000,0,6.391286e-05,7.5066644e-05,1.5968802e-09,0.0,0.0,0.0
5308000,0,6.391289e-05,7.506663e-05,1.5715984e-09,0.0,0.0,0.0
5320000,0,6.391294e-05,7.5066615e-05,1.5336766e-09,0.0,0.0,0.0
5328000,0,6.391297e-05,7.506661e-05,1.5083954e-09,0.0,0.0,0.0
5340000,0,6.3913016e-05,7.5066586e-05,1.4704736e-09,0.0,0.0,0.0
5348000,0,6.391305e-05,7.506658e-05,1.4451924e-09,0.0,0.0,0.0
5360000,0,6.3913096e-05,7.5066564e-05,1.4072706e-09,0.0,0.0,0.0
5368000,0,6.3913125e-05,7.506655e-05,1.3819894e-09,0.0,0.0,0.0
5380000,0,6.3913176e-05,7.5066535e-05,1.3440676e-09,0.0,0.0,0.0
5388000,0,6.3913205e-05,7.506652e-05,1.3187864e-09,0.0,0.0,0.0
5400000,0,6.391325e-05,7.5066506e-05,1.2808646e-09,0.0,0.0,0.0
5408000,0,6.391329e-05,7.50665e-05,1.2555846e-09,0.0,0.0,0.0
5420000,0,6.391333e-05,7.506648e-05,1.2176616e-09,0.0,0.0,0.0
5428000,0,6.3913365e-05,7.506647e-05,1.1923816e-09,0.0,0.0,0.0
5440000,0,6.391341e-05,7.5066455e-05,1.1544585e-09,0.0,0.0,0.0
5448000,0,6.3913445e-05,7.506644e-05,1.1291785e-09,0.0,0.0,0.0
5460000,0,6.391349e-05,7.5066426e-05,1.0912555e-09,0.0,0.0,0.0
5468000,0,6.3913525e-05,7.506642e-05,1.0659755e-09,0.0,0.0,0.0
5480000,0,6.391356e-05,7.50664e-05,1.0280525e-09,0.0,0.0,0.0
5488000,0,6.3913605e-05,7.506639e-05,1.0027725e-09,0.0,0.0,0.0
5500000,0,6.391364e-05,7.506637e-05,9.648495e-10,0.0,0.0,0.0
5508000,0,6.391368e-05,7.506636e-05,9.395695e-10,0.0,0.0,0.0
5520000,0,6.391373e-05,7.5066346e-05,9.016477e-10,0.0,0.0,0.0
5528000,0,6.391376e-05,7.506633e-05,8.763664e-10,0.0,0.0,0.0
5540000,0,6.39138e-05,7.506632e-05,8.3844465e-10,0.0,0.0,0.0
5548000,0,6.391384e-05,7.506631e-05,8.1316337e-10,0.0,0.0,0.0
5560000,0,6.391388e-05,7.506629e-05,7.752416e-10,0.0,0.0,0.0
5568000,0,6.391391e-05,7.506628e-05,7.4996037e-10,0.0,0.0,0.0
5580000,0,6.391396e-05,7.5066266e-05,7.120386e-10,0.0,0.0,0.0
5588000,0,6.391399e-05,7.506625e-05,6.867573e-10,0.0,0.0,0.0
5600000,0,6.3914034e-05,7.506624e-05,6.4883554e-10,0.0,0.0,0.0
5608000,0,6.391406e-05,7.506622e-05,6.2355365e-10,0.0,0.0,0.0
5620000,0,6.3914114e-05,7.506621e-05,5.8563243e-10,0.0,0.0,0.0
5628000,0,6.391414e-05,7.506619e-05,5.603506e-10,0.0,0.0,0.0
5640000,0,6.3914194e-05,7.506618e-05,5.224294e-10,0.0,0.0,0.0
5648000,0,6.391422e-05,7.506617e-05,4.9714755e-10,0.0,0.0,0.0
5660000,0,6.391427e-05,7.506615e-05,4.5922635e-10,0.0,0.0,0.0
5668000,0,6.3914296e-05,7.506614e-05,4.3394452e-10,0.0,0.0,0.0
5680000,0,6.391435e-05,7.506613e-05,3.960233e-10,0.0,0.0,0.0
5688000,0,6.391438e-05,7.506611e-05,3.7074147e-10,0.0,0.0,0.0
5700000,0,6.391442e-05,7.50661e-05,3.3281963e-10,0.0,0.0,0.0
5708000,0,6.391445e-05,7.5066084e-05,3.075379e-10,0.0,0.0,0.0
5720000,0,6.39145e-05,7.506607e-05,2.6961658e-10,0.0,0.0,0.0
5728000,0,6.391453e-05,7.506606e-05,2.4433486e-10,0.0,0.0,0.0
5740000,0,6.391458e-05,7.506604e-05,2.0641354e-10,0.0,0.0,0.0
5748000,0,6.391461e-05,7.506603e-05,1.811318e-10,0.0,0.0,0.0
5760000,0,6.391465e-05,7.506602e-05,1.4321049e-10,0.0,0.0,0.0
5768000,0,6.391468e-05,7.5066004e-05,1.1792875e-10,0.0,0.0,0.0
5780000,0,6.391473e-05,7.506599e-05,8.0007424e-11,0.0,0.0,0.0
5788000,0,6.391476e-05,7.5065975e-05,5.4725686e-11,0.0,0.0,0.0
5800000,0,6.391481e-05,7.506596e-05,1.680436e-11,0.0,0.0,0.0
5808000,0,6.391484e-05,7.5065946e-05,-8.477378e-12,0.0,0.0,0.0
5820000,0,6.3914886e-05,7.506593e-05,-4.6399214e-11,0.0,0.0,0.0
5828000,0,6.3914915e-05,7.5065924e-05,-7.168044e-11,0.0,0.0,0.0
5840000,0,6.3914966e-05,7.50659e-05,-1.0960228e-10,0.0,0.0,0.0
5848000,0,6.3914995e-05,7.5065895e-05,-1.3488351e-10,0.0,0.0,0.0
5860000,0,6.3915046e-05,7.506588e-05,-1.7280535e-10,0.0,0.0,0.0
5868000,0,6.3915075e-05,7.5065866e-05,-1.9808657e-10,0.0,0.0,0.0
5880000,0,6.391512e-05,7.506585e-05,-2.360084e-10,0.0,0.0,0.0
5888000,0,6.391515e-05,7.506584e-05,-2.6128966e-10,0.0,0.0,0.0
5900000,0,6.39152e-05,7.506582e-05,-2.992115e-10,0.0,0.0,0.0
5908000,0,6.3915235e-05,7.5065815e-05,-3.2449157e-10,0.0,0.0,0.0
5920000,0,6.391528e-05,7.506579e-05,-3.6241457e-10,0.0,0.0,0.0
5928000,0,6.3915315e-05,7.5065785e-05,-3.8769465e-10,0.0,0.0,0.0
5940000,0,6.391535e-05,7.506577e-05,-4.2561765e-10,0.0,0.0,0.0
5948000,0,6.3915395e-05,7.506576e-05,-4.5089774e-10,0.0,0.0,0.0
5960000,0,6.391543e-05,7.506574e-05,-4.888207e-10,0.0,0.0,0.0
5968000,0,6.391547e-05,7.5065735e-05,-5.141008e-10,0.0,0.0,0.0
5980000,0,6.391551e-05,7.506571e-05,-5.520238e-10,0.0,0.0,0.0
5988000,0,6.391555e-05,7.5065705e-05,-5.7730387e-10,0.0,0.0,0.0
6000000,0,6.3915584e-05,7.506568e-05,-6.1522687e-10,0.0,0.0,0.0
6008000,0,6.391563e-05,7.5065676e-05,-6.40507e-10,0.0,0.0,0.0
6020000,0,6.391567e-05,7.506566e-05,-6.784288e-10,0.0,0.0,0.0
6028000,0,6.39157e-05,7.506565e-05,-7.0371015e-10,0.0,0.0,0.0
6040000,0,6.391575e-05,7.506563e-05,-7.416319e-10,0.0,0.0,0.0
6048000,0,6.391578e-05,7.506562e-05,-7.669132e-10,0.0,0.0,0.0
6060000,0,6.3915824e-05,7.50656e-05,-8.0483503e-10,0.0,0.0,0.0
6068000,0,6.391586e-05,7.5065596e-05,-8.301163e-10,0.0,0.0,0.0
6080000,0,6.3915904e-05,7.5065574e-05,-8.6803814e-10,0.0,0.0,0.0
6088000,0,6.391593e-05,7.506557e-05,-8.933194e-10,0.0,0.0,0.0
6100000,0,6.3915984e-05,7.506555e-05,-9.312412e-10,0.0,0.0,0.0
6108000,0,6.3916006e-05,7.506554e-05,-9.565231e-10,0.0,0.0,0.0
6120000,0,6.391606e-05,7.506552e-05,-9.944444e-10,0.0,0.0,0.0
6128000,0,6.3916086e-05,7.506551e-05,-1.0197262e-09,0.0,0.0,0.0
6140000,0,6.391614e-05,7.5065494e-05,-1.0576475e-09,0.0,0.0,0.0
6148000,0,6.3916166e-05,7.506548e-05,-1.0829293e-09,0.0,0.0,0.0
6160000,0,6.391622e-05,7.5065465e-05,-1.1208505e-09,0.0,0.0,0.0
6168000,0,6.3916246e-05,7.506546e-05,-1.1461324e-09,0.0,0.0,0.0
6180000,0,6.391629e-05,7.506544e-05,-1.1840536e-09,0.0,0.0,0.0
6188000,0,6.391632e-05,7.506543e-05,-1.2093355e-09,0.0,0.0,0.0
6200000,0,6.391637e-05,7.5065414e-05,-1.2472574e-09,0.0,0.0,0.0
6208000,0,6.39164e-05,7.50654e-05,-1.2725391e-09,0.0,0.0,0.0
6220000,0,6.391644e-05,7.5065385e-05,-1.3104605e-09,0.0,0.0,0.0
6228000,0,6.391647e-05,7.506537e-05,-1.3357422e-09,0.0,0.0,0.0
6240000,0,6.391652e-05,7.5065356e-05,-1.3736636e-09,0.0,0.0,0.0
6248000,0,6.391655e-05,7.506534e-05,-1.3989453e-09,0.0,0.0,0.0
6260000,0,6.39166e-05,7.506533e-05,-1.4368667e-09,0.0,0.0,0.0
6268000,0,6.391663e-05,7.506532e-05,-1.4621484e-09,0.0,0.0,0.0
6280000,0,6.3916676e-05,7.5065305e-05,-1.5000698e-09,0.0,0.0,0.0
6288000,0,6.3916705e-05,7.506529e-05,-1.5253515e-09,0.0,0.0,0.0
6300000,0,6.3916756e-05,7.5065276e-05,-1.563273e-09,0.0,0.0,0.0
6308000,0,6.3916785e-05,7.506526e-05,-1.5885546e-09,0.0,0.0,0.0
6320000,0,6.391683e-05,7.506525e-05,-1.6264765e-09,0.0,0.0,0.0
6328000,0,6.3916865e-05,7.506523e-05,-1.6517578e-09,0.0,0.0,0.0
6340000,0,6.391691e-05,7.506522e-05,-1.6896796e-09,0.0,0.0,0.0
6348000,0,6.391694e-05,7.506521e-05,-1.714961e-09,0.0,0.0,0.0
6360000,0,6.391699e-05,7.506519e-05,-1.7528828e-09,0.0,0.0,0.0
6368000,0,6.391702e-05,7.506518e-05,-1.7781641e-09,0.0,0.0,0.0
6380000,0,6.391706e-05,7.506517e-05,-1.816086e-09,0.0,0.0,0.0
6388000,0,6.39171e-05,7.506515e-05,-1.8413672e-09,0.0,0.0,0.0
6400000,0,6.391714e-05,7.506514e-05,-1.879289e-09,0.0,0.0,0.0
6408000,0,6.391718e-05,7.506512e-05,-1.9045692e-09,0.0,0.0,0.0
6420000,0,6.391722e-05,7.506511e-05,-1.9424922e-09,0.0,0.0,0.0
6428000,0,6.391726e-05,7.50651e-05,-1.9677724e-09,0.0,0.0,0.0
6440000,0,6.3917294e-05,7.506508e-05,-2.0056954e-09,0.0,0.0,0.0
6448000,0,6.391734e-05,7.506507e-05,-2.0309754e-09,0.0,0.0,0.0
6460000,0,6.3917374e-05,7.506505e-05,-2.0688984e-09,0.0,0.0,0.0
6468000,0,6.391741e-05,7.506504e-05,-2.0941786e-09,0.0,0.0,0.0
6480000,0,6.3917454e-05,7.506503e-05,-2.1321016e-09,0.0,0.0,0.0
6488000,0,6.391749e-05,7.5065014e-05,-2.1573818e-09,0.0,0.0,0.0
6500000,0,6.391753e-05,7.5065e-05,-2.1953048e-09,0.0,0.0,0.0
6508000,0,6.391757e-05,7.506499e-05,-2.2205848e-09,0.0,0.0,0.0
6520000,0,6.3917614e-05,7.506497e-05,-2.2585067e-09,0.0,0.0,0.0
6528000,0,6.391764e-05,7.506496e-05,-2.283788e-09,0.0,0.0,0.0
6540000,0,6.3917694e-05,7.506495e-05,-2.32171e-09,0.0,0.0,0.0
6548000,0,6.391772e-05,7.5064934e-05,-2.3469913e-09,0.0,0.0,0.0
6560000,0,6.391777e-05,7.506492e-05,-2.3849132e-09,0.0,0.0,0.0
6568000,0,6.39178e-05,7.5064905e-05,-2.4101943e-09,0.0,0.0,0.0
6580000,0,6.391785e-05,7.506489e-05,-2.4481162e-09,0.0,0.0,0.0
6588000,0,6.3917876e-05,7.5064876e-05,-2.4733975e-09,0.0,0.0,0.0
6600000,0,6.391793e-05,7.506486e-05,-2.5113194e-09,0.0,0.0,0.0
6608000,0,6.391795e-05,7.5064854e-05,-2.5366012e-09,0.0,0.0,0.0
6620000,0,6.3918e-05,7.506483e-05,-2.5745226e-09,0.0,0.0,0.0
6628000,0,6.391803e-05,7.5064825e-05,-2.5998044e-09,0.0,0.0,0.0
6640000,0,6.391808e-05,7.506481e-05,-2.6377258e-09,0.0,0.0,0.0
6648000,0,6.391811e-05,7.5064796e-05,-2.6630076e-09,0.0,0.0,0.0
6660000,0,6.391816e-05,7.506478e-05,-2.7009288e-09,0.0,0.0,0.0
6668000,0,6.391818e-05,7.506477e-05,-2.7262106e-09,0.0,0.0,0.0
6680000,0,6.391823e-05,7.506475e-05,-2.764132e-09,0.0,0.0,0.0
6688000,0,6.391826e-05,7.506474e-05,-2.7894138e-09,0.0,0.0,0.0
6700000,0,6.391831e-05,7.506472e-05,-2.8273357e-09,0.0,0.0,0.0
6708000,0,6.3918334e-05,7.5064716e-05,-2.8526175e-09,0.0,0.0,0.0
6720000,0,6.3918385e-05,7.5064694e-05,-2.890539e-09,0.0,0.0,0.0
6728000,0,6.3918415e-05,7.506469e-05,-2.9158207e-09,0.0,0.0,0.0
6740000,0,6.3918465e-05,7.506467e-05,-2.9537421e-09,0.0,0.0,0.0
6748000,0,6.3918495e-05,7.506466e-05,-2.9790237e-09,0.0,0.0,0.0
6760000,0,6.3918545e-05,7.506464e-05,-3.0169451e-09,0.0,0.0,0.0
6768000,0,6.391857e-05,7.506463e-05,-3.042227e-09,0.0,0.0,0.0
6780000,0,6.391862e-05,7.5064614e-05,-3.0801484e-09,0.0,0.0,0.0
6788000,0,6.391865e-05,7.50646e-05,-3.1054301e-09,0.0,0.0,0.0
6800000,0,6.39187e-05,7.5064585e-05,-3.1433516e-09,0.0,0.0,0.0
6808000,0,6.391873e-05,7.506458e-05,-3.1686334e-09,0.0,0.0,0.0
6820000,0,6.391877e-05,7.5064556e-05,-3.2065552e-09,0.0,0.0,0.0
6828000,0,6.39188e-05,7.506455e-05,-3.2318364e-09,0.0,0.0,0.0
6840000,0,6.391885e-05,7.5064534e-05,-3.2697585e-09,0.0,0.0,0.0
6848000,0,6.391888e-05,7.506452e-05,-3.2950396e-09,0.0,0.0,0.0
6860000,0,6.3918924e-05,7.5064505e-05,-3.3329615e-09,0.0,0.0,0.0
6868000,0,6.391896e-05,7.506449e-05,-3.3582428e-09,0.0,0.0,0.0
6880000,0,6.3919004e-05,7.5064476e-05,-3.3961647e-09,0.0,0.0,0.0
6888000,0,6.391903e-05,7.506446e-05,-3.421446e-09,0.0,0.0,0.0
6900000,0,6.3919084e-05,7.506445e-05,-3.459368e-09,0.0,0.0,0.0
6908000,0,6.391912e-05,7.506444e-05,-3.4846481e-09,0.0,0.0,0.0
6920000,0,6.391916e-05,7.506442e-05,-3.5225711e-09,0.0,0.0,0.0
6928000,0,6.39192e-05,7.506441e-05,-3.5478513e-09,0.0,0.0,0.0
6940000,0,6.391924e-05,7.5064396e-05,-3.5857743e-09,0.0,0.0,0.0
6948000,0,6.391927e-05,7.506438e-05,-3.6110546e-09,0.0,0.0,0.0
6960000,0,6.391932e-05,7.506437e-05,-3.6489773e-09,0.0,0.0,0.0
6968000,0,6.391935e-05,7.506436e-05,-3.6742576e-09,0.0,0.0,0.0
6980000,0,6.391939e-05,7.506434e-05,-3.7121806e-09,0.0,0.0,0.0
6988000,0,6.391943e-05,7.506433e-05,-3.737461e-09,0.0,0.0,0.0
7000000,0,6.391947e-05,7.506431e-05,-3.775384e-09,0.0,0.0,0.0
7008000,0,6.3919506e-05,7.50643e-05,-3.8006642e-09,0.0,0.0,0.0
7020000,0,6.391956e-05,7.506429e-05,-3.838586e-09,0.0,0.0,0.0
7028000,0,6.3919586e-05,7.506427e-05,-3.8638674e-09,0.0,0.0,0.0
7040000,0,6.391963e-05,7.506426e-05,-3.901789e-09,0.0,0.0,0.0
7048000,0,6.3919666e-05,7.506424e-05,-3.9270707e-09,0.0,0.0,0.0
7060000,0,6.391971e-05,7.506423e-05,-3.9649923e-09,0.0,0.0,0.0
7068000,0,6.391974e-05,7.506422e-05,-3.9902734e-09,0.0,0.0,0.0
7080000,0,6.391979e-05,7.50642e-05,-4.0281956e-09,0.0,0.0,0.0
7088000,0,6.391982e-05,7.506419e-05,-4.0534767e-09,0.0,0.0,0.0
7100000,0,6.391986e-05,7.506417e-05,-4.0913988e-09,0.0,0.0,0.0
7108000,0,6.391989e-05,7.506416e-05,-4.1166808e-09,0.0,0.0,0.0
7120000,0,6.391994e-05,7.506415e-05,-4.154602e-09,0.0,0.0,0.0
7128000,0,6.391997e-05,7.5064134e-05,-4.1798836e-09,0.0,0.0,0.0
7140000,0,6.392002e-05,7.506412e-05,-4.217805e-09,0.0,0.0,0.0
7148000,0,6.3920044e-05,7.5064105e-05,-4.2430868e-09,0.0,0.0,0.0
7160000,0,6.3920095e-05,7.506409e-05,-4.2810084e-09,0.0,0.0,0.0
7168000,0,6.3920124e-05,7.5064076e-05,-4.30629e-09,0.0,0.0,0.0
7180000,0,6.3920175e-05,7.506406e-05,-4.3442117e-09,0.0,0.0,0.0
7188000,0,6.3920204e-05,7.5064054e-05,-4.369493e-09,0.0,0.0,0.0
7200000,0,6.392025e-05,7.506403e-05,-4.4074153e-09,0.0,0.0,0.0
7208000,0,6.392028e-05,7.5064025e-05,-4.432697e-09,0.0,0.0,0.0
7220000,0,6.392033e-05,7.506401e-05,-4.4706185e-09,0.0,0.0,0.0
7228000,0,6.392036e-05,7.5063996e-05,-4.4959e-09,0.0,0.0,0.0
7240000,0,6.39204e-05,7.506398e-05,-4.5338218e-09,0.0,0.0,0.0
7248000,0,6.392043e-05,7.506397e-05,-4.5591033e-09,0.0,0.0,0.0
7260000,0,6.392048e-05,7.506395e-05,-4.597025e-09,0.0,0.0,0.0
7268000,0,6.392051e-05,7.506394e-05,-4.6223065e-09,0.0,0.0,0.0
7280000,0,6.392056e-05,7.506392e-05,-4.660228e-09,0.0,0.0,0.0
7288000,0,6.392059e-05,7.5063916e-05,-4.6855098e-09,0.0,0.0,0.0
7300000,0,6.3920634e-05,7.5063894e-05,-4.7234314e-09,0.0,0.0,0.0
7308000,0,6.392066e-05,7.506389e-05,-4.748713e-09,0.0,0.0,0.0
7320000,0,6.3920714e-05,7.506387e-05,-4.786635e-09,0.0,0.0,0.0
7328000,0,6.392074e-05,7.506386e-05,-4.811916e-09,0.0,0.0,0.0
7340000,0,6.392079e-05,7.506384e-05,-4.8498383e-09,0.0,0.0,0.0
7348000,0,6.392082e-05,7.506383e-05,-4.8751194e-09,0.0,0.0,0.0
7360000,0,6.392087e-05,7.5063814e-05,-4.9130415e-09,0.0,0.0,0.0
7368000,0,6.3920896e-05,7.50638e-05,-4.9383226e-09,0.0,0.0,0.0
7380000,0,6.392095e-05,7.5063785e-05,-4.9762447e-09,0.0,0.0,0.0
7388000,0,6.3920976e-05,7.506378e-05,-5.001526e-09,0.0,0.0,0.0
7400000,0,6.392102e-05,7.5063756e-05,-5.039448e-09,0.0,0.0,0.0
7408000,0,6.3921056e-05,7.506375e-05,-5.064728e-09,0.0,0.0,0.0
7420000,0,6.39211e-05,7.5063734e-05,-5.102651e-09,0.0,0.0,0.0
7428000,0,6.3921136e-05,7.506372e-05,-5.1279314e-09,0.0,0.0,0.0
7440000,0,6.392118e-05,7.5063705e-05,-5.1658544e-09,0.0,0.0,0.0
7448000,0,6.3921216e-05,7.506369e-05,-5.1911346e-09,0.0,0.0,0.0
7460000,0,6.392125e-05,7.5063675e-05,-5.2290576e-09,0.0,0.0,0.0
7468000,0,6.392129e-05,7.506367e-05,-5.254338e-09,0.0,0.0,0.0
7480000,0,6.392133e-05,7.506365e-05,-5.292261e-09,0.0,0.0,0.0
7488000,0,6.392137e-05,7.506364e-05,-5.317541e-09,0.0,0.0,0.0
7500000,0,6.3921405e-05,7.506362e-05,-5.355464e-09,0.0,0.0,0.0
7508000,0,6.392145e-05,7.506361e-05,-5.3807443e-09,0.0,0.0,0.0
7520000,0,6.392149e-05,7.5063595e-05,-5.4186664e-09,0.0,0.0,0.0
7528000,0,6.392152e-05,7.506358e-05,-5.4439475e-09,0.0,0.0,0.0
7540000,0,6.392157e-05,7.5063566e-05,-5.4818696e-09,0.0,0.0,0.0
7548000,0,6.39216e-05,7.506355e-05,-5.5071507e-09,0.0,0.0,0.0
7560000,0,6.3921645e-05,7.506354e-05,-5.545073e-09,0.0,0.0,0.0
7568000,0,6.392168e-05,7.506353e-05,-5.570354e-09,0.0,0.0,0.0
7580000,0,6.3921725e-05,7.506351e-05,-5.608276e-09,0.0,0.0,0.0
7588000,0,6.3921754e-05,7.50635e-05,-5.633557e-09,0.0,0.0,0.0
7600000,0,6.3921805e-05,7.5063486e-05,-5.6714793e-09,0.0,0.0,0.0
7608000,0,6.392183e-05,7.506347e-05,-5.696761e-09,0.0,0.0,0.0
7620000,0,6.392188e-05,7.506346e-05,-5.7346825e-09,0.0,0.0,0.0
7628000,0,6.392191e-05,7.506344e-05,-5.759964e-09,0.0,0.0,0.0
7640000,0,6.392196e-05,7.506343e-05,-5.7978857e-09,0.0,0.0,0.0
7648000,0,6.392199e-05,7.506341e-05,-5.8231673e-09,0.0,0.0,0.0
7660000,0,6.392204e-05,7.50634e-05,-5.861089e-09,0.0,0.0,0.0
7668000,0,6.392206e-05,7.5063384e-05,-5.8863705e-09,0.0,0.0,0.0
7680000,0,6.392211e-05,7.506337e-05,-5.924292e-09,0.0,0.0,0.0
7688000,0,6.392214e-05,7.506336e-05,-5.9495737e-09,0.0,0.0,0.0
7700000,0,6.392218e-05,7.506334e-05,-5.987496e-09,0.0,0.0,0.0
7708000,0,6.392221e-05,7.506333e-05,-6.0127774e-09,0.0,0.0,0.0
7720000,0,6.392226e-05,7.506332e-05,-6.050699e-09,0.0,0.0,0.0
7728000,0,6.392229e-05,7.5063304e-05,-6.0759806e-09,0.0,0.0,0.0
7740000,0,6.392234e-05,7.506329e-05,-6.1139023e-09,0.0,0.0,0.0
7748000,0,6.3922365e-05,7.5063275e-05,-6.139184e-09,0.0,0.0,0.0
7760000,0,6.3922416e-05,7.506326e-05,-6.1771055e-09,0.0,0.0,0.0
7768000,0,6.3922445e-05,7.5063246e-05,-6.202387e-09,0.0,0.0,0.0
7780000,0,6.3922496e-05,7.506323e-05,-6.2403087e-09,0.0,0.0,0.0
7788000,0,6.3922525e-05,7.5063224e-05,-6.2655907e-09,0.0,0.0,0.0
7800000,0,6.392257e-05,7.50632e-05,-6.303512e-09,0.0,0.0,0.0
7808000,0,6.39226e-05,7.5063195e-05,-6.328794e-09,0.0,0.0,0.0
7820000,0,6.392265e-05,7.506317e-05,-6.3667156e-09,0.0,0.0,0.0
7828000,0,6.392268e-05,7.5063166e-05,-6.391997e-09,0.0,0.0,0.0
7840000,0,6.392272e-05,7.506315e-05,-6.429919e-09,0.0,0.0,0.0
7848000,0,6.392276e-05,7.506314e-05,-6.4552004e-09,0.0,0.0,0.0
7860000,0,6.39228e-05,7.506312e-05,-6.493122e-09,0.0,0.0,0.0
7868000,0,6.392283e-05,7.506311e-05,-6.5184036e-09,0.0,0.0,0.0
7880000,0,6.392288e-05,7.506309e-05,-6.5563253e-09,0.0,0.0,0.0
7888000,0,6.392291e-05,7.5063086e-05,-6.581607e-09,0.0,0.0,0.0
7900000,0,6.3922955e-05,7.5063064e-05,-6.6195285e-09,0.0,0.0,0.0
7908000,0,6.3923e-05,7.506306e-05,-6.644809e-09,0.0,0.0,0.0
7920000,0,6.3923035e-05,7.5063035e-05,-6.682732e-09,0.0,0.0,0.0
7928000,0,6.392307e-05,7.506303e-05,-6.7080124e-09,0.0,0.0,0.0
7940000,0,6.3923115e-05,7.506301e-05,-6.7459354e-09,0.0,0.0,0.0
7948000,0,6.392315e-05,7.5063e-05,-6.7712156e-09,0.0,0.0,0.0
7960000,0,6.392319e-05,7.5062984e-05,-6.8091386e-09,0.0,0.0,0.0
7968000,0,6.3923224e-05,7.506298e-05,-6.834419e-09,0.0,0.0,0.0
7980000,0,6.392327e-05,7.5062955e-05,-6.872342e-09,0.0,0.0,0.0
7988000,0,6.3923304e-05,7.506295e-05,-6.897622e-09,0.0,0.0,0.0
8000000,0,6.392334e-05,7.5062926e-05,-6.935545e-09,0.0,0.0,0.0
8008000,0,6.3923384e-05,7.506292e-05,-6.9608252e-09,0.0,0.0,0.0
8020000,0,6.392343e-05,7.5062904e-05,-6.9987474e-09,0.0,0.0,0.0
8028000,0,6.392346e-05,7.506289e-05,-7.0240285e-09,0.0,0.0,0.0
8040000,0,6.392351e-05,7.5062875e-05,-7.0619506e-09,0.0,0.0,0.0
8048000,0,6.392354e-05,7.506286e-05,-7.087232e-09,0.0,0.0,0.0
8060000,0,6.392358e-05,7.5062846e-05,-7.125154e-09,0.0,0.0,0.0
8068000,0,6.392361e-05,7.506283e-05,-7.1504354e-09,0.0,0.0,0.0
8080000,0,6.392366e-05,7.506282e-05,-7.188357e-09,0.0,0.0,0.0
8088000,0,6.392369e-05,7.506281e-05,-7.2136386e-09,0.0,0.0,0.0
8100000,0,6.392374e-05,7.506279e-05,-7.2515602e-09,0.0,0.0,0.0
8108000,0,6.392376e-05,7.506278e-05,-7.2768422e-09,0.0,0.0,0.0
8120000,0,6.392381e-05,7.5062766e-05,-7.3147635e-09,0.0,0.0,0.0
8128000,0,6.392384e-05,7.506275e-05,-7.3400455e-09,0.0,0.0,0.0
8140000,0,6.392389e-05,7.506274e-05,-7.377967e-09,0.0,0.0,0.0
8148000,0,6.3923915e-05,7.506272e-05,-7.4032487e-09,0.0,0.0,0.0
8160000,0,6.3923966e-05,7.506271e-05,-7.4411703e-09,0.0,0.0,0.0
8168000,0,6.3923995e-05,7.506269e-05,-7.466452e-09,0.0,0.0,0.0
8180000,0,6.3924046e-05,7.506268e-05,-7.504373e-09,0.0,0.0,0.0
8188000,0,6.3924075e-05,7.5062664e-05,-7.529655e-09,0.0,0.0,0.0
8200000,0,6.392412e-05,7.506265e-05,-7.567577e-09,0.0,0.0,0.0
8208000,0,6.392415e-05,7.506264e-05,-7.592859e-09,0.0,0.0,0.0
8220000,0,6.39242e-05,7.506262e-05,-7.6307805e-09,0.0,0.0,0.0
8228000,0,6.392423e-05,7.506261e-05,-7.6560625e-09,0.0,0.0,0.0
8240000,0,6.392427e-05,7.50626e-05,-7.693984e-09,0.0,0.0,0.0
8248000,0,6.39243e-05,7.5062584e-05,-7.719265e-09,0.0,0.0,0.0
8260000,0,6.392435e-05,7.506257e-05,-7.757187e-09,0.0,0.0,0.0
8268000,0,6.392438e-05,7.5062555e-05,-7.782469e-09,0.0,0.0,0.0
8280000,0,6.392443e-05,7.506254e-05,-7.820391e-09,0.0,0.0,0.0
8288000,0,6.392445e-05,7.5062526e-05,-7.845672e-09,0.0,0.0,0.0
8300000,0,6.3924505e-05,7.506251e-05,-7.883593e-09,0.0,0.0,0.0
8308000,0,6.392453e-05,7.50625e-05,-7.908875e-09,0.0,0.0,0.0
8320000,0,6.392458e-05,7.506248e-05,-7.946797e-09,0.0,0.0,0.0
8328000,0,6.3924614e-05,7.5062475e-05,-7.972078e-09,0.0,0.0,0.0
8340000,0,6.392466e-05,7.506245e-05,-8.010001e-09,0.0,0.0,0.0
8348000,0,6.392469e-05,7.5062446e-05,-8.035282e-09,0.0,0.0,0.0
8360000,0,6.392474e-05,7.506243e-05,-8.073203e-09,0.0,0.0,0.0
8368000,0,6.392477e-05,7.506242e-05,-8.098485e-09,0.0,0.0,0.0
8380000,0,6.392481e-05,7.50624e-05,-8.136407e-09,0.0,0.0,0.0
8388000,0,6.392485e-05,7.506239e-05,-8.161688e-09,0.0,0.0,0.0
8400000,0,6.392489e-05,7.506237e-05,-8.19961e-09,0.0,0.0,0.0
8408000,0,6.392493e-05,7.5062366e-05,-8.224891e-09,0.0,0.0,0.0
8420000,0,6.392497e-05,7.5062344e-05,-8.2628135e-09,0.0,0.0,0.0
8428000,0,6.392501e-05,7.506234e-05,-8.288094e-09,0.0,0.0,0.0
8440000,0,6.392504e-05,7.5062315e-05,-8.326017e-09,0.0,0.0,0.0
8448000,0,6.392508e-05,7.506231e-05,-8.351297e-09,0.0,0.0,0.0
8460000,0,6.392512e-05,7.5062286e-05,-8.38922e-09,0.0,0.0,0.0
8468000,0,6.392516e-05,7.506228e-05,-8.4145e-09,0.0,0.0,0.0
8480000,0,6.3925196e-05,7.5062264e-05,-8.452424e-09,0.0,0.0,0.0
8488000,0,6.392524e-05,7.506225e-05,-8.477704e-09,0.0,0.0,0.0
8500000,0,6.3925276e-05,7.5062235e-05,-8.515626e-09,0.0,0.0,0.0
8508000,0,6.392531e-05,7.506222e-05,-8.5409075e-09,0.0,0.0,0.0
8520000,0,6.392536e-05,7.5062206e-05,-8.578829e-09,0.0,0.0,0.0
8528000,0,6.392539e-05,7.50622e-05,-8.60411e-09,0.0,0.0,0.0
8540000,0,6.3925436e-05,7.506218e-05,-8.642033e-09,0.0,0.0,0.0
8548000,0,6.3925465e-05,7.506217e-05,-8.667314e-09,0.0,0.0,0.0
8560000,0,6.3925516e-05,7.5062155e-05,-8.705236e-09,0.0,0.0,0.0
8568000,0,6.3925545e-05,7.506214e-05,-8.730517e-09,0.0,0.0,0.0
8580000,0,6.3925596e-05,7.5062126e-05,-8.768439e-09,0.0,0.0,0.0
8588000,0,6.3925625e-05,7.506211e-05,-8.79372e-09,0.0,0.0,0.0
8600000,0,6.392567e-05,7.50621e-05,-8.831642e-09,0.0,0.0,0.0
8608000,0,6.39257e-05,7.506208e-05,-8.856924e-09,0.0,0.0,0.0
8620000,0,6.392575e-05,7.506207e-05,-8.894846e-09,0.0,0.0,0.0
8628000,0,6.392577e-05,7.506205e-05,-8.920128e-09,0.0,0.0,0.0
8640000,0,6.392582e-05,7.506204e-05,-8.9580485e-09,0.0,0.0,0.0
8648000,0,6.392585e-05,7.506203e-05,-8.9833305e-09,0.0,0.0,0.0
8660000,0,6.39259e-05,7.506201e-05,-9.021252e-09,0.0,0.0,0.0
8668000,0,6.392593e-05,7.5062e-05,-9.046534e-09,0.0,0.0,0.0
8680000,0,6.3925974e-05,7.506199e-05,-9.084456e-09,0.0,0.0,0.0
8688000,0,6.3926e-05,7.506197e-05,-9.109737e-09,0.0,0.0,0.0
8700000,0,6.3926054e-05,7.506196e-05,-9.1476595e-09,0.0,0.0,0.0
8708000,0,6.3926076e-05,7.5061944e-05,-9.172941e-09,0.0,0.0,0.0
8720000,0,6.392613e-05,7.506193e-05,-9.210862e-09,0.0,0.0,0.0
8728000,0,6.3926156e-05,7.5061915e-05,-9.236144e-09,0.0,0.0,0.0
8740000,0,6.392621e-05,7.50619e-05,-9.274066e-09,0.0,0.0,0.0
8748000,0,6.3926236e-05,7.5061886e-05,-9.299347e-09,0.0,0.0,0.0
8760000,0,6.392628e-05,7.506187e-05,-9.337269e-09,0.0,0.0,0.0
8768000,0,6.392631e-05,7.5061864e-05,-9.362551e-09,0.0,0.0,0.0
8780000,0,6.392636e-05,7.506184e-05,-9.400472e-09,0.0,0.0,0.0
8788000,0,6.392639e-05,7.5061835e-05,-9.425754e-09,0.0,0.0,0.0
8800000,0,6.392644e-05,7.506182e-05,-9.463676e-09,0.0,0.0,0.0
8808000,0,6.392646e-05,7.5061806e-05,-9.488957e-09,0.0,0.0,0.0
8820000,0,6.392651e-05,7.506179e-05,-9.52688e-09,0.0,0.0,0.0
8828000,0,6.392654e-05,7.506178e-05,-9.552161e-09,0.0,0.0,0.0
8840000,0,6.3926585e-05,7.506176e-05,-9.5900825e-09,0.0,0.0,0.0
8848000,0,6.392662e-05,7.506175e-05,-9.615364e-09,0.0,0.0,0.0
8860000,0,6.3926665e-05,7.506173e-05,-9.653286e-09,0.0,0.0,0.0
8868000,0,6.3926695e-05,7.506172e-05,-9.678567e-09,0.0,0.0,0.0
8880000,0,6.3926745e-05,7.5061704e-05,-9.716489e-09,0.0,0.0,0.0
8888000,0,6.3926775e-05,7.50617e-05,-9.74177e-09,0.0,0.0,0.0
8900000,0,6.392682e-05,7.5061675e-05,-9.779693e-09,0.0,0.0,0.0
8908000,0,6.392686e-05,7.506167e-05,-9.804973e-09,0.0,0.0,0.0
8920000,0,6.39269e-05,7.5061645e-05,-9.842895e-09,0.0,0.0,0.0
8928000,0,6.3926935e-05,7.506164e-05,-9.8681765e-09,0.0,0.0,0.0
8940000,0,6.392697e-05,7.5061624e-05,-9.906099e-09,0.0,0.0,0.0
8948000,0,6.3927015e-05,7.506161e-05,-9.931379e-09,0.0,0.0,0.0
8960000,0,6.392705e-05,7.5061595e-05,-9.969303e-09,0.0,0.0,0.0
8968000,0,6.392709e-05,7.506159e-05,-9.994583e-09,0.0,0.0,0.0
8980000,0,6.392713e-05,7.5061565e-05,-1.00325055e-08,0.0,0.0,0.0
8988000,0,6.392717e-05,7.506156e-05,-1.0057787e-08,0.0,0.0,0.0
9000000,0,6.3927204e-05,7.5061536e-05,-1.0095709e-08,0.0,0.0,0.0
9008000,0,6.392725e-05,7.506153e-05,-1.0120989e-08,0.0,0.0,0.0
9020000,0,6.392729e-05,7.5061515e-05,-1.0158912e-08,0.0,0.0,0.0
9028000,0,6.392732e-05,7.50615e-05,-1.0184193e-08,0.0,0.0,0.0
9040000,0,6.3927364e-05,7.5061485e-05,-1.0222115e-08,0.0,0.0,0.0
9048000,0,6.39274e-05,7.506147e-05,-1.0247396e-08,0.0,0.0,0.0
9060000,0,6.3927444e-05,7.5061456e-05,-1.0285318e-08,0.0,0.0,0.0
9068000,0,6.392747e-05,7.506144e-05,-1.03105995e-08,0.0,0.0,0.0
9080000,0,6.3927524e-05,7.506143e-05,-1.0348521e-08,0.0,0.0,0.0
9088000,0,6.392755e-05,7.506141e-05,-1.0373803e-08,0.0,0.0,0.0
9100000,0,6.39276e-05,7.50614e-05,-1.0411725e-08,0.0,0.0,0.0
9108000,0,6.3927626e-05,7.506139e-05,-1.0437007e-08,0.0,0.0,0.0
9120000,0,6.392768e-05,7.506137e-05,-1.0474928e-08,0.0,0.0,0.0
9128000,0,6.3927706e-05,7.506136e-05,-1.050021e-08,0.0,0.0,0.0
9140000,0,6.392775e-05,7.506135e-05,-1.0538131e-08,0.0,0.0,0.0
9148000,0,6.392778e-05,7.506133e-05,-1.0563413e-08,0.0,0.0,0.0
9160000,0,6.392783e-05,7.506132e-05,-1.0601335e-08,0.0,0.0,0.0
9168000,0,6.392786e-05,7.50613e-05,-1.0626616e-08,0.0,0.0,0.0
9180000,0,6.392791e-05,7.506129e-05,-1.0664538e-08,0.0,0.0,0.0
9188000,0,6.392793e-05,7.5061274e-05,-1.068982e-08,0.0,0.0,0.0
9200000,0,6.392798e-05,7.506126e-05,-1.0727741e-08,0.0,0.0,0.0
9208000,0,6.392801e-05,7.5061245e-05,-1.0753023e-08,0.0,0.0,0.0
9220000,0,6.3928055e-05,7.506123e-05,-1.0790945e-08,0.0,0.0,0.0
9228000,0,6.3928084e-05,7.5061216e-05,-1.0816227e-08,0.0,0.0,0.0
9240000,0,6.3928135e-05,7.50612e-05,-1.0854148e-08,0.0,0.0,0.0
9248000,0,6.3928164e-05,7.5061194e-05,-1.087943e-08,0.0,0.0,0.0
9260000,0,6.392821e-05,7.506117e-05,-1.09173515e-08,0.0,0.0,0.0
9268000,0,6.392824e-05,7.5061165e-05,-1.09426335e-08,0.0,0.0,0.0
9280000,0,6.392829e-05,7.506115e-05,-1.0980555e-08,0.0,0.0,0.0
9288000,0,6.392832e-05,7.5061136e-05,-1.1005836e-08,0.0,0.0,0.0
9300000,0,6.392837e-05,7.506112e-05,-1.1043758e-08,0.0,0.0,0.0
9308000,0,6.392839e-05,7.506111e-05,-1.106904e-08,0.0,0.0,0.0
9320000,0,6.392844e-05,7.506109e-05,-1.1106962e-08,0.0,0.0,0.0
9328000,0,6.392847e-05,7.506108e-05,-1.1132243e-08,0.0,0.0,0.0
9340000,0,6.392851e-05,7.506106e-05,-1.1170165e-08,0.0,0.0,0.0
9348000,0,6.392855e-05,7.506105e-05,-1.1195446e-08,0.0,0.0,0.0
9360000,0,6.392859e-05,7.5061034e-05,-1.1233368e-08,0.0,0.0,0.0
9368000,0,6.392862e-05,7.506103e-05,-1.125865e-08,0.0,0.0,0.0
9380000,0,6.392867e-05,7.5061005e-05,-1.1296572e-08,0.0,0.0,0.0
9388000,0,6.39287e-05,7.5061e-05,-1.1321853e-08,0.0,0.0,0.0
9400000,0,6.392875e-05,7.5060976e-05,-1.1359775e-08,0.0,0.0,0.0
9408000,0,6.392878e-05,7.506097e-05,-1.1385056e-08,0.0,0.0,0.0
9420000,0,6.392883e-05,7.5060954e-05,-1.1422978e-08,0.0,0.0,0.0
9428000,0,6.392886e-05,7.506094e-05,-1.1448259e-08,0.0,0.0,0.0
9440000,0,6.39289e-05,7.5060925e-05,-1.1486182e-08,0.0,0.0,0.0
9448000,0,6.392894e-05,7.506091e-05,-1.1511462e-08,0.0,0.0,0.0
9460000,0,6.392898e-05,7.5060896e-05,-1.1549385e-08,0.0,0.0,0.0
9468000,0,6.3929016e-05,7.506089e-05,-1.1574666e-08,0.0,0.0,0.0
9480000,0,6.392906e-05,7.506087e-05,-1.1612588e-08,0.0,0.0,0.0
9488000,0,6.3929096e-05,7.506086e-05,-1.1637869e-08,0.0,0.0,0.0
9500000,0,6.392913e-05,7.506084e-05,-1.1675792e-08,0.0,0.0,0.0
9508000,0,6.392917e-05,7.506083e-05,-1.1701072e-08,0.0,0.0,0.0
9520000,0,6.392922e-05,7.5060816e-05,-1.1738994e-08,0.0,0.0,0.0
9528000,0,6.392925e-05,7.50608e-05,-1.1764276e-08,0.0,0.0,0.0
9540000,0,6.392929e-05,7.506079e-05,-1.1802197e-08,0.0,0.0,0.0
9548000,0,6.392932e-05,7.506077e-05,-1.18274786e-08,0.0,0.0,0.0
9560000,0,6.392937e-05,7.506076e-05,-1.1865401e-08,0.0,0.0,0.0
9568000,0,6.39294e-05,7.506074e-05,-1.1890682e-08,0.0,0.0,0.0
9580000,0,6.392945e-05,7.506073e-05,-1.1928604e-08,0.0,0.0,0.0
9588000,0,6.392948e-05,7.506072e-05,-1.1953886e-08,0.0,0.0,0.0
9600000,0,6.3929525e-05,7.50607e-05,-1.19918075e-08,0.0,0.0,0.0
9608000,0,6.3929554e-05,7.506069e-05,-1.20170895e-08,0.0,0.0,0.0
9620000,0,6.3929605e-05,7.506067e-05,-1.2055011e-08,0.0,0.0,0.0
9628000,0,6.392963e-05,7.506066e-05,-1.2080292e-08,0.0,0.0,0.0
9640000,0,6.392968e-05,7.506065e-05,-1.2118214e-08,0.0,0.0,0.0
9648000,0,6.392971e-05,7.5060634e-05,-1.2143496e-08,0.0,0.0,0.0
9660000,0,6.392976e-05,7.506062e-05,-1.2181418e-08,0.0,0.0,0.0
9668000,0,6.392978e-05,7.5060605e-05,-1.2206699e-08,0.0,0.0,0.0
9680000,0,6.392983e-05,7.506059e-05,-1.224462e-08,0.0,0.0,0.0
9688000,0,6.392986e-05,7.5060576e-05,-1.2269902e-08,0.0,0.0,0.0
9700000,0,6.39299e-05,7.506056e-05,-1.2307824e-08,0.0,0.0,0.0
9708000,0,6.392993e-05,7.506055e-05,-1.2333106e-08,0.0,0.0,0.0
9720000,0,6.392998e-05,7.506053e-05,-1.2371028e-08,0.0,0.0,0.0
9728000,0,6.393001e-05,7.506052e-05,-1.239631e-08,0.0,0.0,0.0
9740000,0,6.393006e-05,7.50605e-05,-1.2434231e-08,0.0,0.0,0.0
9748000,0,6.3930085e-05,7.5060496e-05,-1.24595125e-08,0.0,0.0,0.0
9760000,0,6.3930136e-05,7.5060474e-05,-1.2497434e-08,0.0,0.0,0.0
9768000,0,6.3930165e-05,7.506047e-05,-1.2522716e-08,0.0,0.0,0.0
9780000,0,6.3930216e-05,7.506045e-05,-1.2560638e-08,0.0,0.0,0.0
9788000,0,6.3930245e-05,7.506044e-05,-1.2585919e-08,0.0,0.0,0.0
9800000,0,6.393029e-05,7.506042e-05,-1.2623841e-08,0.0,0.0,0.0
9808000,0,6.393032e-05,7.506041e-05,-1.2649123e-08,0.0,0.0,0.0
9820000,0,6.393036e-05,7.5060394e-05,-1.2687044e-08,0.0,0.0,0.0
9828000,0,6.39304e-05,7.506038e-05,-1.2712326e-08,0.0,0.0,0.0
9840000,0,6.393044e-05,7.5060365e-05,-1.2750248e-08,0.0,0.0,0.0
9848000,0,6.393047e-05,7.506035e-05,-1.2775529e-08,0.0,0.0,0.0
9860000,0,6.393052e-05,7.5060336e-05,-1.2813451e-08,0.0,0.0,0.0
9868000,0,6.393055e-05,7.506033e-05,-1.2838733e-08,0.0,0.0,0.0
9880000,0,6.3930594e-05,7.506031e-05,-1.2876654e-08,0.0,0.0,0.0
9888000,0,6.393062e-05,7.50603e-05,-1.29019355e-08,0.0,0.0,0.0
9900000,0,6.3930675e-05,7.506028e-05,-1.2939858e-08,0.0,0.0,0.0
9908000,0,6.393071e-05,7.506027e-05,-1.2965138e-08,0.0,0.0,0.0
9920000,0,6.393075e-05,7.5060256e-05,-1.3003061e-08,0.0,0.0,0.0
9928000,0,6.393079e-05,7.506024e-05,-1.3028342e-08,0.0,0.0,0.0
9940000,0,6.393083e-05,7.506023e-05,-1.30662645e-08,0.0,0.0,0.0
9948000,0,6.3930864e-05,7.506021e-05,-1.3091545e-08,0.0,0.0,0.0
9960000,0,6.393091e-05,7.50602e-05,-1.3129467e-08,0.0,0.0,0.0
9968000,0,6.3930944e-05,7.506018e-05,-1.3154748e-08,0.0,0.0,0.0
9980000,0,6.393098e-05,7.506017e-05,-1.3192671e-08,0.0,0.0,0.0
9988000,0,6.393102e-05,7.506016e-05,-1.3217952e-08,0.0,0.0,0.0
10000000,0,6.393106e-05,7.506014e-05,-1.3255875e-08,0.0,0.0,0.0
10008000,0,6.39311e-05,7.506013e-05,-1.3281155e-08,0.0,0.0,0.0
10020000,0,6.393114e-05,7.506011e-05,-1.3319077e-08,0.0,0.0,0.0
10028000,0,6.393117e-05,7.50601e-05,-1.33443585e-08,0.0,0.0,0.0
10040000,0,6.393122e-05,7.506009e-05,-1.338228e-08,0.0,0.0,0.0
10048000,0,6.393125e-05,7.5060074e-05,-1.3407561e-08,0.0,0.0,0.0
10060000,0,6.393129e-05,7.506006e-05,-1.3445484e-08,0.0,0.0,0.0
10068000,0,6.393133e-05,7.5060045e-05,-1.3470765e-08,0.0,0.0,0.0
10080000,0,6.393137e-05,7.506003e-05,-1.3508687e-08,0.0,0.0,0.0
10088000,0,6.39314e-05,7.5060016e-05,-1.3533969e-08,0.0,0.0,0.0
10100000,0,6.393145e-05,7.506e-05,-1.357189e-08,0.0,0.0,0.0
10108000,0,6.3931475e-05,7.505999e-05,-1.3597172e-08,0.0,0.0,0.0
10120000,0,6.3931526e-05,7.505997e-05,-1.3635094e-08,0.0,0.0,0.0
10128000,0,6.3931555e-05,7.5059965e-05,-1.3660375e-08,0.0,0.0,0.0
10140000,0,6.3931606e-05,7.505994e-05,-1.3698297e-08,0.0,0.0,0.0
10148000,0,6.393163e-05,7.5059936e-05,-1.3723579e-08,0.0,0.0,0.0
10160000,0,6.393168e-05,7.5059914e-05,-1.37615e-08,0.0,0.0,0.0
10168000,0,6.393171e-05,7.505991e-05,-1.37867815e-08,0.0,0.0,0.0
10180000,0,6.393176e-05,7.505989e-05,-1.3824703e-08,0.0,0.0,0.0
10188000,0,6.393178e-05,7.505988e-05,-1.3849985e-08,0.0,0.0,0.0
10200000,0,6.393183e-05,7.505986e-05,-1.3887907e-08,0.0,0.0,0.0
10208000,0,6.393186e-05,7.505985e-05,-1.3913189e-08,0.0,0.0,0.0
10220000,0,6.3931904e-05,7.5059834e-05,-1.39511105e-08,0.0,0.0,0.0
10228000,0,6.393193e-05,7.505982e-05,-1.39763925e-08,0.0,0.0,0.0
10240000,0,6.3931984e-05,7.5059805e-05,-1.4014314e-08,0.0,0.0,0.0
10248000,0,6.393201e-05,7.505979e-05,-1.4039595e-08,0.0,0.0,0.0
10260000,0,6.393206e-05,7.5059776e-05,-1.4077517e-08,0.0,0.0,0.0
10268000,0,6.3932086e-05,7.505976e-05,-1.4102799e-08,0.0,0.0,0.0
10280000,0,6.393214e-05,7.505975e-05,-1.4140721e-08,0.0,0.0,0.0
10288000,0,6.3932166e-05,7.505974e-05,-1.4166002e-08,0.0,0.0,0.0
10300000,0,6.393222e-05,7.505972e-05,-1.4203923e-08,0.0,0.0,0.0
10308000,0,6.393224e-05,7.505971e-05,-1.4229205e-08,0.0,0.0,0.0
10320000,0,6.393229e-05,7.505969e-05,-1.4267127e-08,0.0,0.0,0.0
10328000,0,6.393232e-05,7.505968e-05,-1.4292409e-08,0.0,0.0,0.0
10340000,0,6.393236e-05,7.505967e-05,-1.4330331e-08,0.0,0.0,0.0
10348000,0,6.39324e-05,7.505965e-05,-1.4355612e-08,0.0,0.0,0.0
10360000,0,6.393244e-05,7.505964e-05,-1.4393534e-08,0.0,0.0,0.0
10368000,0,6.393247e-05,7.505962e-05,-1.44188155e-08,0.0,0.0,0.0
10380000,0,6.3932515e-05,7.505961e-05,-1.4456737e-08,0.0,0.0,0.0
10388000,0,6.393255e-05,7.5059594e-05,-1.4482018e-08,0.0,0.0,0.0
10400000,0,6.3932595e-05,7.505958e-05,-1.4519941e-08,0.0,0.0,0.0
10408000,0,6.393263e-05,7.505957e-05,-1.4545221e-08,0.0,0.0,0.0
10420000,0,6.3932675e-05,7.505955e-05,-1.4583144e-08,0.0,0.0,0.0
10428000,0,6.393271e-05,7.505954e-05,-1.4608425e-08,0.0,0.0,0.0
10440000,0,6.393275e-05,7.505952e-05,-1.4646347e-08,0.0,0.0,0.0
10448000,0,6.3932785e-05,7.505951e-05,-1.4671628e-08,0.0,0.0,0.0
10460000,0,6.393283e-05,7.505949e-05,-1.4709551e-08,0.0,0.0,0.0
10468000,0,6.3932865e-05,7.5059485e-05,-1.4734831e-08,0.0,0.0,0.0
10480000,0,6.39329e-05,7.505947e-05,-1.4772754e-08,0.0,0.0,0.0
10488000,0,6.3932945e-05,7.5059455e-05,-1.4798035e-08,0.0,0.0,0.0
10500000,0,6.393298e-05,7.505944e-05,-1.4835957e-08,0.0,0.0,0.0
10508000,0,6.393302e-05,7.5059426e-05,-1.4861238e-08,0.0,0.0,0.0
10520000,0,6.393306e-05,7.505941e-05,-1.489916e-08,0.0,0.0,0.0
10528000,0,6.39331e-05,7.5059404e-05,-1.492444e-08,0.0,0.0,0.0
10540000,0,6.393314e-05,7.505938e-05,-1.4962364e-08,0.0,0.0,0.0
10548000,0,6.393317e-05,7.5059375e-05,-1.4987645e-08,0.0,0.0,0.0
10560000,0,6.393322e-05,7.505935e-05,-1.5025567e-08,0.0,0.0,0.0
10568000,0,6.393325e-05,7.5059346e-05,-1.5050848e-08,0.0,0.0,0.0
10580000,0,6.3933294e-05,7.5059324e-05,-1.508877e-08,0.0,0.0,0.0
10588000,0,6.393332e-05,7.505932e-05,-1.511405e-08,0.0,0.0,0.0
10600000,0,6.3933374e-05,7.50593e-05,-1.5151974e-08,0.0,0.0,0.0
10608000,0,6.3933396e-05,7.505929e-05,-1.5177255e-08,0.0,0.0,0.0
10620000,0,6.393345e-05,7.505927e-05,-1.5215177e-08,0.0,0.0,0.0
10628000,0,6.3933476e-05,7.505926e-05,-1.5240458e-08,0.0,0.0,0.0
10640000,0,6.393353e-05,7.5059244e-05,-1.527838e-08,0.0,0.0,0.0
10648000,0,6.393355e-05,7.505923e-05,-1.530366e-08,0.0,0.0,0.0
10660000,0,6.39336e-05,7.5059215e-05,-1.5341582e-08,0.0,0.0,0.0
10668000,0,6.393363e-05,7.50592e-05,-1.5366865e-08,0.0,0.0,0.0
10680000,0,6.393368e-05,7.5059186e-05,-1.5404787e-08,0.0,0.0,0.0
10688000,0,6.39337e-05,7.505917e-05,-1.5430068e-08,0.0,0.0,0.0
10700000,0,6.393375e-05,7.505916e-05,-1.546799e-08,0.0,0.0,0.0
10708000,0,6.393378e-05,7.505915e-05,-1.549327e-08,0.0,0.0,0.0
10720000,0,6.3933825e-05,7.505913e-05,-1.5531194e-08,0.0,0.0,0.0
10728000,0,6.3933854e-05,7.505912e-05,-1.5556475e-08,0.0,0.0,0.0
10740000,0,6.3933905e-05,7.50591e-05,-1.5594397e-08,0.0,0.0,0.0
10748000,0,6.3933934e-05,7.505909e-05,-1.5619678e-08,0.0,0.0,0.0
10760000,0,6.393398e-05,7.505908e-05,-1.56576e-08,0.0,0.0,0.0
10768000,0,6.393401e-05,7.505906e-05,-1.568288e-08,0.0,0.0,0.0
10780000,0,6.393406e-05,7.505905e-05,-1.5720802e-08,0.0,0.0,0.0
10788000,0,6.393409e-05,7.505903e-05,-1.5746085e-08,0.0,0.0,0.0
10800000,0,6.393414e-05,7.505902e-05,-1.5784007e-08,0.0,0.0,0.0
10808000,0,6.393416e-05,7.5059004e-05,-1.5809288e-08,0.0,0.0,0.0
10820000,0,6.393421e-05,7.505899e-05,-1.584721e-08,0.0,0.0,0.0
10828000,0,6.393424e-05,7.5058975e-05,-1.587249e-08,0.0,0.0,0.0
10840000,0,6.393428e-05,7.505896e-05,-1.5910413e-08,0.0,0.0,0.0
10848000,0,6.393431e-05,7.5058946e-05,-1.5935695e-08,0.0,0.0,0.0
10860000,0,6.393436e-05,7.505893e-05,-1.5973617e-08,0.0,0.0,0.0
10868000,0,6.393439e-05,7.5058924e-05,-1.5998898e-08,0.0,0.0,0.0
10880000,0,6.3934436e-05,7.50589e-05,-1.603682e-08,0.0,0.0,0.0
10888000,0,6.393447e-05,7.5058895e-05,-1.6062101e-08,0.0,0.0,0.0
10900000,0,6.3934516e-05,7.505887e-05,-1.6100023e-08,0.0,0.0,0.0
10908000,0,6.393455e-05,7.5058866e-05,-1.6125304e-08,0.0,0.0,0.0
10920000,0,6.393459e-05,7.505885e-05,-1.6163227e-08,0.0,0.0,0.0
10928000,0,6.393463e-05,7.505884e-05,-1.6188507e-08,0.0,0.0,0.0
10940000,0,6.393467e-05,7.505882e-05,-1.622643e-08,0.0,0.0,0.0
10948000,0,6.3934705e-05,7.505881e-05,-1.6251711e-08,0.0,0.0,0.0
10960000,0,6.393475e-05,7.505879e-05,-1.6289633e-08,0.0,0.0,0.0
10968000,0,6.3934785e-05,7.505878e-05,-1.6314914e-08,0.0,0.0,0.0
10980000,0,6.393482e-05,7.5058764e-05,-1.6352837e-08,0.0,0.0,0.0
10988000,0,6.393486e-05,7.505876e-05,-1.6378117e-08,0.0,0.0,0.0
11000000,0,6.39349e-05,7.5058735e-05,-1.641604e-08,0.0,0.0,0.0
11008000,0,6.393494e-05,7.505873e-05,-1.6441321e-08,0.0,0.0,0.0
11020000,0,6.393498e-05,7.5058706e-05,-1.6479243e-08,0.0,0.0,0.0
11028000,0,6.393501e-05,7.50587e-05,-1.6504524e-08,0.0,0.0,0.0
11040000,0,6.393506e-05,7.5058684e-05,-1.6542446e-08,0.0,0.0,0.0
11048000,0,6.393509e-05,7.505867e-05,-1.6567727e-08,0.0,0.0,0.0
11060000,0,6.3935135e-05,7.5058655e-05,-1.6605648e-08,0.0,0.0,0.0
11068000,0,6.3935164e-05,7.505864e-05,-1.6630931e-08,0.0,0.0,0.0
11080000,0,6.3935215e-05,7.5058626e-05,-1.6668853e-08,0.0,0.0,0.0
11088000,0,6.3935244e-05,7.505861e-05,-1.6694134e-08,0.0,0.0,0.0
11100000,0,6.393529e-05,7.50586e-05,-1.6732056e-08,0.0,0.0,0.0
11108000,0,6.393532e-05,7.505858e-05,-1.6757337e-08,0.0,0.0,0.0
11120000,0,6.393537e-05,7.505857e-05,-1.6795259e-08,0.0,0.0,0.0
11128000,0,6.393539e-05,7.505855e-05,-1.6820541e-08,0.0,0.0,0.0
11140000,0,6.393544e-05,7.505854e-05,-1.6858463e-08,0.0,0.0,0.0
11148000,0,6.393547e-05,7.5058524e-05,-1.6883744e-08,0.0,0.0,0.0
11160000,0,6.393552e-05,7.505851e-05,-1.6921666e-08,0.0,0.0,0.0
11168000,0,6.393555e-05,7.50585e-05,-1.6946947e-08,0.0,0.0,0.0
11180000,0,6.393559e-05,7.505848e-05,-1.6984869e-08,0.0,0.0,0.0
11188000,0,6.393562e-05,7.505847e-05,-1.701015e-08,0.0,0.0,0.0
11200000,0,6.3935666e-05,7.505845e-05,-1.7048073e-08,0.0,0.0,0.0
11208000,0,6.3935695e-05,7.5058444e-05,-1.7073354e-08,0.0,0.0,0.0
11220000,0,6.3935746e-05,7.505843e-05,-1.7111276e-08,0.0,0.0,0.0
11228000,0,6.3935775e-05,7.5058415e-05,-1.7136557e-08,0.0,0.0,0.0
11240000,0,6.3935826e-05,7.50584e-05,-1.7174479e-08,0.0,0.0,0.0
11248000,0,6.393585e-05,7.5058386e-05,-1.719976e-08,0.0,0.0,0.0
11260000,0,6.39359e-05,7.505837e-05,-1.7237682e-08,0.0,0.0,0.0
11268000,0,6.393593e-05,7.505836e-05,-1.7262964e-08,0.0,0.0,0.0
11280000,0,6.393598e-05,7.505834e-05,-1.7300886e-08,0.0,0.0,0.0
11288000,0,6.3936e-05,7.505833e-05,-1.7326167e-08,0.0,0.0,0.0
11300000,0,6.393605e-05,7.505831e-05,-1.7364089e-08,0.0,0.0,0.0
11308000,0,6.393608e-05,7.50583e-05,-1.738937e-08,0.0,0.0,0.0
11320000,0,6.3936124e-05,7.5058284e-05,-1.7427292e-08,0.0,0.0,0.0
11328000,0,6.393615e-05,7.505828e-05,-1.7452574e-08,0.0,0.0,0.0
11340000,0,6.3936204e-05,7.5058255e-05,-1.7490496e-08,0.0,0.0,0.0
11348000,0,6.393623e-05,7.505825e-05,-1.7515777e-08,0.0,0.0,0.0
11360000,0,6.393628e-05,7.5058226e-05,-1.7553699e-08,0.0,0.0,0.0
11368000,0,6.393631e-05,7.505822e-05,-1.757898e-08,0.0,0.0,0.0
11380000,0,6.393636e-05,7.50582e-05,-1.7616902e-08,0.0,0.0,0.0
11388000,0,6.3936386e-05,7.505819e-05,-1.7642183e-08,0.0,0.0,0.0
11400000,0,6.393643e-05,7.5058175e-05,-1.7680106e-08,0.0,0.0,0.0
11408000,0,6.393647e-05,7.505816e-05,-1.7705386e-08,0.0,0.0,0.0
11420000,0,6.393651e-05,7.5058146e-05,-1.7743309e-08,0.0,0.0,0.0
11428000,0,6.3936546e-05,7.505813e-05,-1.776859e-08,0.0,0.0,0.0
11440000,0,6.393658e-05,7.505812e-05,-1.7806512e-08,0.0,0.0,0.0
11448000,0,6.3936626e-05,7.50581e-05,-1.7831793e-08,0.0,0.0,0.0
11460000,0,6.393666e-05,7.505809e-05,-1.7869715e-08,0.0,0.0,0.0
11468000,0,6.39367e-05,7.505808e-05,-1.7894996e-08,0.0,0.0,0.0
11480000,0,6.393674e-05,7.505806e-05,-1.793292e-08,0.0,0.0,0.0
11488000,0,6.393678e-05,7.505805e-05,-1.79582e-08,0.0,0.0,0.0
11500000,0,6.393682e-05,7.505803e-05,-1.7996122e-08,0.0,0.0,0.0
11508000,0,6.393685e-05,7.505802e-05,-1.8021403e-08,0.0,0.0,0.0
11520000,0,6.39369e-05,7.505801e-05,-1.8059325e-08,0.0,0.0,0.0
11528000,0,6.393693e-05,7.505799e-05,-1.8084606e-08,0.0,0.0,0.0
11540000,0,6.3936975e-05,7.505798e-05,-1.8122527e-08,0.0,0.0,0.0
11548000,0,6.3937005e-05,7.5057964e-05,-1.8147809e-08,0.0,0.0,0.0
11560000,0,6.3937056e-05,7.505795e-05,-1.8185732e-08,0.0,0.0,0.0
11568000,0,6.3937085e-05,7.5057935e-05,-1.8211013e-08,0.0,0.0,0.0
11580000,0,6.393713e-05,7.505792e-05,-1.8248935e-08,0.0,0.0,0.0
11588000,0,6.393716e-05,7.5057906e-05,-1.8274216e-08,0.0,0.0,0.0
11600000,0,6.393721e-05,7.505789e-05,-1.8312138e-08,0.0,0.0,0.0
11608000,0,6.393723e-05,7.505788e-05,-1.8337419e-08,0.0,0.0,0.0
11620000,0,6.393728e-05,7.505786e-05,-1.837534e-08,0.0,0.0,0.0
11628000,0,6.393731e-05,7.505785e-05,-1.8400623e-08,0.0,0.0,0.0
11640000,0,6.393736e-05,7.505783e-05,-1.8438545e-08,0.0,0.0,0.0
11648000,0,6.393738e-05,7.5057826e-05,-1.8463826e-08,0.0,0.0,0.0
11660000,0,6.3937434e-05,7.5057804e-05,-1.8501748e-08,0.0,0.0,0.0
11668000,0,6.393746e-05,7.50578e-05,-1.8527029e-08,0.0,0.0,0.0
11680000,0,6.3937514e-05,7.5057775e-05,-1.856495e-08,0.0,0.0,0.0
11688000,0,6.3937536e-05,7.505777e-05,-1.8590233e-08,0.0,0.0,0.0
11700000,0,6.393759e-05,7.5057746e-05,-1.8628155e-08,0.0,0.0,0.0
11708000,0,6.3937616e-05,7.505774e-05,-1.8653436e-08,0.0,0.0,0.0
11720000,0,6.393766e-05,7.5057724e-05,-1.8691358e-08,0.0,0.0,0.0
11728000,0,6.393769e-05,7.505771e-05,-1.8716639e-08,0.0,0.0,0.0
11740000,0,6.393774e-05,7.5057695e-05,-1.875456e-08,0.0,0.0,0.0
11748000,0,6.393777e-05,7.505768e-05,-1.8779843e-08,0.0,0.0,0.0
11760000,0,6.393781e-05,7.5057666e-05,-1.8817765e-08,0.0,0.0,0.0
11768000,0,6.393784e-05,7.505765e-05,-1.8843046e-08,0.0,0.0,0.0
11780000,0,6.393789e-05,7.505764e-05,-1.8880968e-08,0.0,0.0,0.0
11788000,0,6.393792e-05,7.505762e-05,-1.8906249e-08,0.0,0.0,0.0
11800000,0,6.3937965e-05,7.505761e-05,-1.894417e-08,0.0,0.0,0.0
11808000,0,6.3937994e-05,7.505759e-05,-1.8969452e-08,0.0,0.0,0.0
11820000,0,6.393804e-05,7.505758e-05,-1.9007373e-08,0.0,0.0,0.0
11828000,0,6.3938074e-05,7.5057564e-05,-1.9032656e-08,0.0,0.0,0.0
11840000,0,6.393812e-05,7.505755e-05,-1.9070578e-08,0.0,0.0,0.0
11848000,0,6.393815e-05,7.505754e-05,-1.909586e-08,0.0,0.0,0.0
11860000,0,6.393819e-05,7.505752e-05,-1.913378e-08,0.0,0.0,0.0
11868000,0,6.393823e-05,7.505751e-05,-1.9159062e-08,0.0,0.0,0.0
11880000,0,6.393827e-05,7.505749e-05,-1.9196984e-08,0.0,0.0,0.0
11888000,0,6.39383e-05,7.505748e-05,-1.9222265e-08,0.0,0.0,0.0
11900000,0,6.393835e-05,7.505746e-05,-1.9260188e-08,0.0,0.0,0.0
11908000,0,6.393839e-05,7.5057455e-05,-1.9285467e-08,0.0,0.0,0.0
11920000,0,6.393842e-05,7.505744e-05,-1.932339e-08,0.0,0.0,0.0
11928000,0,6.393846e-05,7.5057425e-05,-1.9348672e-08,0.0,0.0,0.0
11940000,0,6.39385e-05,7.505741e-05,-1.9386594e-08,0.0,0.0,0.0
11948000,0,6.393854e-05,7.5057396e-05,-1.9411875e-08,0.0,0.0,0.0
11960000,0,6.3938576e-05,7.505738e-05,-1.9449796e-08,0.0,0.0,0.0
11968000,0,6.393861e-05,7.505737e-05,-1.9475078e-08,0.0,0.0,0.0
11980000,0,6.3938656e-05,7.505735e-05,-1.9513001e-08,0.0,0.0,0.0
11988000,0,6.393869e-05,7.5057345e-05,-1.9538282e-08,0.0,0.0,0.0
12000000,0,6.3938736e-05,7.505732e-05,-1.9576204e-08,0.0,0.0,0.0
12008000,0,6.3938765e-05,7.5057316e-05,-1.9601485e-08,0.0,0.0,0.0
12020000,0,6.3938816e-05,7.5057294e-05,-1.9639407e-08,0.0,0.0,0.0
12028000,0,6.3938845e-05,7.505729e-05,-1.9664688e-08,0.0,0.0,0.0
12040000,0,6.393889e-05,7.5057265e-05,-1.970261e-08,0.0,0.0,0.0
12048000,0,6.393892e-05,7.505726e-05,-1.972789e-08,0.0,0.0,0.0
12060000,0,6.393897e-05,7.505724e-05,-1.9765814e-08,0.0,0.0,0.0
12068000,0,6.3939e-05,7.505723e-05,-1.9791095e-08,0.0,0.0,0.0
12080000,0,6.393904e-05,7.5057214e-05,-1.9829017e-08,0.0,0.0,0.0
12088000,0,6.393907e-05,7.50572e-05,-1.9854298e-08,0.0,0.0,0.0
12100000,0,6.393912e-05,7.5057185e-05,-1.989222e-08,0.0,0.0,0.0
12108000,0,6.3939144e-05,7.505717e-05,-1.99175e-08,0.0,0.0,0.0
12120000,0,6.3939195e-05,7.5057156e-05,-1.9955422e-08,0.0,0.0,0.0
12128000,0,6.3939224e-05,7.505714e-05,-1.9980705e-08,0.0,0.0,0.0
12140000,0,6.3939275e-05,7.505713e-05,-2.0018627e-08,0.0,0.0,0.0
12148000,0,6.39393e-05,7.505711e-05,-2.0043908e-08,0.0,0.0,0.0
12160000,0,6.393935e-05,7.50571e-05,-2.008183e-08,0.0,0.0,0.0
12168000,0,6.393938e-05,7.505708e-05,-2.010711e-08,0.0,0.0,0.0
12180000,0,6.393943e-05,7.505707e-05,-2.0145032e-08,0.0,0.0,0.0
12188000,0,6.393945e-05,7.505706e-05,-2.0170313e-08,0.0,0.0,0.0
12200000,0,6.39395e-05,7.505704e-05,-2.0208235e-08,0.0,0.0,0.0
12208000,0,6.393952e-05,7.505703e-05,-2.0233518e-08,0.0,0.0,0.0
12220000,0,6.393957e-05,7.505701e-05,-2.027144e-08,0.0,0.0,0.0
12228000,0,6.39396e-05,7.5057e-05,-2.029672e-08,0.0,0.0,0.0
12240000,0,6.393965e-05,7.505698e-05,-2.0334642e-08,0.0,0.0,0.0
12248000,0,6.3939675e-05,7.5056974e-05,-2.0359924e-08,0.0,0.0,0.0
12260000,0,6.3939726e-05,7.505695e-05,-2.0397845e-08,0.0,0.0,0.0
12268000,0,6.3939755e-05,7.5056945e-05,-2.0423126e-08,0.0,0.0,0.0
12280000,0,6.3939806e-05,7.505693e-05,-2.046105e-08,0.0,0.0,0.0
12288000,0,6.393983e-05,7.5056916e-05,-2.048633e-08,0.0,0.0,0.0
12300000,0,6.393988e-05,7.50569e-05,-2.0524253e-08,0.0,0.0,0.0
12308000,0,6.393991e-05,7.505689e-05,-2.0549534e-08,0.0,0.0,0.0
12320000,0,6.393995e-05,7.505687e-05,-2.0587455e-08,0.0,0.0,0.0
12328000,0,6.393998e-05,7.505686e-05,-2.0612736e-08,0.0,0.0,0.0
12340000,0,6.394003e-05,7.505684e-05,-2.0650658e-08,0.0,0.0,0.0
12348000,0,6.394006e-05,7.505683e-05,-2.0675941e-08,0.0,0.0,0.0
12360000,0,6.3940104e-05,7.5056814e-05,-2.0713863e-08,0.0,0.0,0.0
12368000,0,6.394013e-05,7.50568e-05,-2.0739144e-08,0.0,0.0,0.0
12380000,0,6.3940184e-05,7.5056785e-05,-2.0777065e-08,0.0,0.0,0.0
12388000,0,6.394021e-05,7.505677e-05,-2.0802347e-08,0.0,0.0,0.0
12400000,0,6.394026e-05,7.5056756e-05,-2.0840268e-08,0.0,0.0,0.0
12408000,0,6.39403e-05,7.505675e-05,-2.086555e-08,0.0,0.0,0.0
12420000,0,6.394034e-05,7.505673e-05,-2.0903471e-08,0.0,0.0,0.0
12428000,0,6.394037e-05,7.505672e-05,-2.0928752e-08,0.0,0.0,0.0
12440000,0,6.394041e-05,7.50567e-05,-2.0966676e-08,0.0,0.0,0.0
12448000,0,6.394045e-05,7.505669e-05,-2.0991957e-08,0.0,0.0,0.0
12460000,0,6.394049e-05,7.505667e-05,-2.1029878e-08,0.0,0.0,0.0
12468000,0,6.3940526e-05,7.505666e-05,-2.105516e-08,0.0,0.0,0.0
12480000,0,6.394056e-05,7.505665e-05,-2.1093081e-08,0.0,0.0,0.0
12488000,0,6.3940606e-05,7.505663e-05,-2.1118362e-08,0.0,0.0,0.0
12500000,0,6.394065e-05,7.505662e-05,-2.1156284e-08,0.0,0.0,0.0
12508000,0,6.394068e-05,7.50566e-05,-2.1181565e-08,0.0,0.0,0.0
12520000,0,6.394072e-05,7.505659e-05,-2.1219488e-08,0.0,0.0,0.0
12528000,0,6.394075e-05,7.5056574e-05,-2.124477e-08,0.0,0.0,0.0
12540000,0,6.39408e-05,7.505656e-05,-2.1282691e-08,0.0,0.0,0.0
12548000,0,6.394083e-05,7.5056545e-05,-2.1307972e-08,0.0,0.0,0.0
12560000,0,6.3940875e-05,7.505653e-05,-2.1345894e-08,0.0,0.0,0.0
12568000,0,6.3940905e-05,7.505652e-05,-2.1371175e-08,0.0,0.0,0.0
12580000,0,6.3940955e-05,7.50565e-05,-2.1409097e-08,0.0,0.0,0.0
12588000,0,6.394098e-05,7.5056494e-05,-2.1434378e-08,0.0,0.0,0.0
12600000,0,6.394103e-05,7.505647e-05,-2.1472301e-08,0.0,0.0,0.0
12608000,0,6.394106e-05,7.5056465e-05,-2.1497582e-08,0.0,0.0,0.0
12620000,0,6.394111e-05,7.505644e-05,-2.1535504e-08,0.0,0.0,0.0
12628000,0,6.394113e-05,7.5056436e-05,-2.1560785e-08,0.0,0.0,0.0
12640000,0,6.394118e-05,7.505642e-05,-2.1598707e-08,0.0,0.0,0.0
12648000,0,6.394121e-05,7.505641e-05,-2.1623988e-08,0.0,0.0,0.0
12660000,0,6.394126e-05,7.505639e-05,-2.166191e-08,0.0,0.0,0.0
12668000,0,6.394128e-05,7.505638e-05,-2.168719e-08,0.0,0.0,0.0
12680000,0,6.3941334e-05,7.505636e-05,-2.1725114e-08,0.0,0.0,0.0
12688000,0,6.394136e-05,7.505635e-05,-2.1750395e-08,0.0,0.0,0.0
12700000,0,6.394141e-05,7.5056334e-05,-2.1788317e-08,0.0,0.0,0.0
12708000,0,6.3941436e-05,7.505632e-05,-2.1813598e-08,0.0,0.0,0.0
12720000,0,6.394149e-05,7.5056305e-05,-2.185152e-08,0.0,0.0,0.0
12728000,0,6.394151e-05,7.505629e-05,-2.18768e-08,0.0,0.0,0.0
12740000,0,6.394156e-05,7.5056276e-05,-2.1914722e-08,0.0,0.0,0.0
12748000,0,6.394159e-05,7.505626e-05,-2.1940004e-08,0.0,0.0,0.0
12760000,0,6.394164e-05,7.505625e-05,-2.1977927e-08,0.0,0.0,0.0
12768000,0,6.394166e-05,7.505623e-05,-2.2003208e-08,0.0,0.0,0.0
12780000,0,6.394171e-05,7.505622e-05,-2.204113e-08,0.0,0.0,0.0
12788000,0,6.394174e-05,7.50562e-05,-2.2066411e-08,0.0,0.0,0.0
12800000,0,6.3941785e-05,7.505619e-05,-2.2104333e-08,0.0,0.0,0.0
12808000,0,6.3941814e-05,7.5056174e-05,-2.2129614e-08,0.0,0.0,0.0
12820000,0,6.3941865e-05,7.505616e-05,-2.2167535e-08,0.0,0.0,0.0
12828000,0,6.3941894e-05,7.505615e-05,-2.2192816e-08,0.0,0.0,0.0
12840000,0,6.394194e-05,7.505613e-05,-2.223074e-08,0.0,0.0,0.0
12848000,0,6.394197e-05,7.505612e-05,-2.2256021e-08,0.0,0.0,0.0
