timestamp,timestamp_sample,gps_hvel[0],gps_hvel[1],gps_vvel,gps_hpos[0],gps_hpos[1],gps_vpos,ev_hvel[0],ev_hvel[1],ev_vvel,ev_hpos[0],ev_hpos[1],ev_vpos,rng_vpos,baro_vpos,aux_hvel[0],aux_hvel[1],aux_vvel,flow[0],flow[1],terr_flow[0],terr_flow[1],heading,mag_field[0],mag_field[1],mag_field[2],gravity[0],gravity[1],gravity[2],drag[0],drag[1],airspeed,beta,hagl,hagl_rate
3388000,3308000,0.0,0.0,0.0,0.0,0.0,0.0,0.0,0.0,0.0,0.0,0.0,0.0,0.0,-4.627742e-06,0.0,0.0,nan,0.0,0.0,0.0,0.0,0.0,-0.011738754,0.21862462,-0.43377897,-0.0012926939,-0.019242015,-0.00038306834,0.0,0.0,0.0,0.0,0.0,0.0
3396000,3316000,0.0,0.0,0.0,0.0,0.0,0.0,0.0,0.0,0.0,0.0,0.0,0.0,0.0,-4.627742e-06,0.0,0.0,nan,0.0,0.0,0.0,0.0,0.0,-0.011738754,0.21862462,-0.43377897,-0.0008652985,0.003119017,8.0510836e-05,0.0,0.0,0.0,0.0,0.0,0.0
3404000,3324000,0.0,0.0,0.0,0.0,0.0,0.0,0.0,0.0,0.0,0.0,0.0,0.0,0.0,-4.627742e-06,0.0,0.0,nan,0.0,0.0,0.0,0.0,0.0,-0.011738754,0.21862462,-0.43377897,-0.007374471,0.009769697,0.00035121583,0.0,0.0,0.0,0.0,0.0,0.0
3412000,3332000,0.0,0.0,0.0,0.0,0.0,0.0,0.0,0.0,0.0,0.0,0.0,0.0,0.0,-4.627742e-06,0.0,0.0,nan,0.0,0.0,0.0,0.0,0.0,-0.008519081,0.21514972,-0.42938918,-0.016927782,-0.010458007,0.00013685226,0.0,0.0,0.0,0.0,0.0,0.0
3420000,3340000,0.0,0.0,0.0,0.0,0.0,0.0,0.0,0.0,0.0,0.0,0.0,0.0,0.0,-4.627742e-06,0.0,0.0,nan,0.0,0.0,0.0,0.0,0.0,-0.008519081,0.21514972,-0.42938918,0.006521807,-0.0034575611,-0.0002169609,0.0,0.0,0.0,0.0,0.0,0.0
3428000,3348000,0.0,0.0,0.0,0.0,0.0,0.0,0.0,0.0,0.0,0.0,0.0,0.0,0.0,-4.627742e-06,0.0,0.0,nan,0.0,0.0,0.0,0.0,0.0,-0.008519081,0.21514972,-0.42938918,0.005558177,-0.028643265,-0.00074863434,0.0,0.0,0.0,0.0,0.0,0.0
3436000,3356000,0.0,0.0,0.0,0.0,0.0,0.0,0.0,0.0,0.0,0.0,0.0,0.0,0.0,-4.627742e-06,0.0,0.0,nan,0.0,0.0,0.0,0.0,0.0,-0.008519081,0.21514972,-0.42938918,-0.020632848,0.023893774,0.00088739395,0.0,0.0,0.0,0.0,0.0,0.0
3444000,3364000,0.0,0.0,0.0,0.0,0.0,0.0,0.0,0.0,0.0,0.0,0.0,0.0,0.0,-4.627742e-06,0.0,0.0,nan,0.0,0.0,0.0,0.0,0.0,-0.008519081,0.21514972,-0.42938918,0.012096849,0.0043042153,-0.00018835068,0.0,0.0,0.0,0.0,0.0,0.0
3452000,3372000,0.0,0.0,0.0,0.0,0.0,0.0,0.0,0.0,0.0,0.0,0.0,0.0,0.0,-0.02955934,0.0,0.0,nan,0.0,0.0,0.0,0.0,0.0,-0.008519081,0.21514972,-0.42938918,0.015605451,0.01525484,-6.0081482e-05,0.0,0.0,0.0,0.0,0.0,0.0
3460000,3380000,0.0,0.0,0.0,0.0,0.0,0.0,0.0,0.0,0.0,0.0,0.0,0.0,0.0,-0.02955934,0.0,0.0,nan,0.0,0.0,0.0,0.0,0.0,-0.008519081,0.21514972,-0.42938918,-0.014369436,0.021446466,0.0007209778,0.0,0.0,0.0,0.0,0.0,0.0
3468000,3388000,0.0,0.0,0.0,0.0,0.0,0.0,0.0,0.0,0.0,0.0,0.0,0.0,0.0,-0.02955934,0.0,0.0,nan,0.0,0.0,0.0,0.0,0.0,-0.008519081,0.21514972,-0.42938918,-0.0019637784,0.012390599,0.00028705597,0.0,0.0,0.0,0.0,0.0,0.0
3476000,3396000,0.0,0.0,0.0,0.0,0.0,0.0,0.0,0.0,0.0,0.0,0.0,0.0,0.0,-0.02955934,0.0,0.0,nan,0.0,0.0,0.0,0.0,0.0,-0.008519081,0.21514972,-0.42938918,-0.015695564,0.01692681,0.00066518784,0.0,0.0,0.0,0.0,0.0,0.0
3484000,3404000,0.0,0.0,0.0,0.0,0.0,0.0,0.0,0.0,0.0,0.0,0.0,0.0,0.0,-0.02955934,0.0,0.0,nan,0.0,0.0,0.0,0.0,0.0,0.008852759,-0.0068249404,0.008456916,-0.024738528,0.028043404,0.0010495186,0.0,0.0,0.0,0.0,0.0,0.0
3492000,3412000,0.0,0.0,0.0,0.0,0.0,0.0,0.0,0.0,0.0,0.0,0.0,0.0,0.0,-0.02955934,0.0,0.0,nan,0.0,0.0,0.0,0.0,0.0,0.008852759,-0.0068249404,0.008456916,-0.036885083,0.043455586,0.0015435219,0.0,0.0,0.0,0.0,0.0,0.0
3500000,3420000,0.0,0.0,0.0,0.0,0.0,0.0,0.0,0.0,0.0,0.0,0.0,0.0,0.0,-0.02955934,0.0,0.0,nan,0.0,0.0,0.0,0.0,0.0,0.008852759,-0.0068249404,0.008456916,-0.028699443,0.019197583,0.0009727478,0.0,0.0,0.0,0.0,0.0,0.0
3508000,3428000,0.0,0.0,0.0,0.0,0.0,0.0,0.0,0.0,0.0,0.0,0.0,0.0,0.0,0.0072169374,0.0,0.0,nan,0.0,0.0,0.0,0.0,0.0,0.008852759,-0.0068249404,0.008456916,-0.040462628,0.010773197,0.0010342598,0.0,0.0,0.0,0.0,0.0,0.0
3516000,3436000,0.0,0.0,0.0,0.0,0.0,0.0,0.0,0.0,0.0,0.0,0.0,0.0,0.0,0.0072169374,0.0,0.0,nan,0.0,0.0,0.0,0.0,0.0,0.008852759,-0.0068249404,0.008456916,-0.0062261624,0.0071169734,0.00027942657,0.0,0.0,0.0,0.0,0.0,0.0
3524000,3444000,0.0,0.0,0.0,0.0,0.0,0.0,0.0,0.0,0.0,0.0,0.0,0.0,0.0,0.0072169374,0.0,0.0,nan,0.0,0.0,0.0,0.0,0.0,0.008852759,-0.0068249404,0.008456916,-0.00011617318,0.00029462576,7.6293945e-06,0.0,0.0,0.0,0.0,0.0,0.0
3532000,3452000,0.0,0.0,0.0,0.0,0.0,0.0,0.0,0.0,0.0,0.0,0.0,0.0,0.0,0.0072169374,0.0,0.0,nan,0.0,0.0,0.0,0.0,0.0,0.008852759,-0.0068249404,0.008456916,-0.016661257,0.038126096,0.0010690689,0.0,0.0,0.0,0.0,0.0,0.0
3540000,3460000,0.0,0.0,0.0,0.0,0.0,0.0,0.0,0.0,0.0,0.0,0.0,0.0,0.0,0.0072169374,0.0,0.0,nan,0.0,0.0,0.0,0.0,0.0,0.008852759,-0.0068249404,0.008456916,-0.024424043,-0.0010975897,0.0004954338,0.0,0.0,0.0,0.0,0.0,0.0
3548000,3468000,0.0,0.0,0.0,0.0,0.0,0.0,0.0,0.0,0.0,0.0,0.0,0.0,0.0,0.0072169374,0.0,0.0,nan,0.0,0.0,0.0,0.0,0.0,0.008852759,-0.0068249404,0.008456916,-0.021328213,0.0126772225,0.0007100105,0.0,0.0,0.0,0.0,0.0,0.0
3556000,3476000,0.0,0.0,0.0,0.0,0.0,0.0,0.0,0.0,0.0,0.0,0.0,0.0,0.0,0.0072169374,0.0,0.0,nan,0.0,0.0,0.0,0.0,0.0,0.0015023788,-0.0014377832,0.0047754943,-0.008879965,0.032938004,0.0008172989,0.0,0.0,0.0,0.0,0.0,0.0
3564000,3484000,0.0,0.0,0.0,0.0,0.0,0.0,0.0,0.0,0.0,0.0,0.0,0.0,0.0,0.0072169374,0.0,0.0,nan,0.0,0.0,0.0,0.0,0.0,0.0015023788,-0.0014377832,0.0047754943,-0.0074728644,0.029645368,0.0007328987,0.0,0.0,0.0,0.0,0.0,0.0
3572000,3492000,0.0,0.0,0.0,0.0,0.0,0.0,0.0,0.0,0.0,0.0,0.0,0.0,0.0,0.0698865,0.0,0.0,nan,0.0,0.0,0.0,0.0,0.0,0.0015023788,-0.0014377832,0.0047754943,-0.008232235,-0.0025774539,0.00013017654,0.0,0.0,0.0,0.0,0.0,0.0
3580000,3500000,0.0,0.0,0.0,0.0,0.0,0.0,0.0,0.0,0.0,0.0,0.0,0.0,0.0,0.0698865,0.0,0.0,nan,0.0,0.0,0.0,0.0,0.0,0.0015023788,-0.0014377832,0.0047754943,-0.007438557,-0.012856722,-0.00010585785,0.0,0.0,0.0,0.0,0.0,0.0
3588000,3508000,0.0,0.0,0.0,0.0,0.0,0.0,0.0,0.0,0.0,0.0,0.0,0.0,0.0,0.0698865,0.0,0.0,nan,0.0,0.0,0.0,0.0,0.0,0.0015023788,-0.0014377832,0.0047754943,-0.010005277,0.02276647,0.00066518784,0.0,0.0,0.0,0.0,0.0,0.0
3596000,3516000,0.0024845034,0.0022121726,-0.047088493,5.7313282e-05,5.1089417e-05,488.10306,0.0,0.0,0.0,0.0,0.0,0.0,0.0,0.0698865,0.0,0.0,nan,0.0,0.0,0.0,0.0,0.0,0.0015023788,-0.0014377832,0.0047754943,-0.004177017,0.0037506968,0.00016927719,0.0,0.0,0.0,0.0,0.0,0.0
3604000,3524000,0.0024845034,0.0022121726,-0.047088493,5.7313282e-05,5.1089417e-05,488.10306,0.0,0.0,0.0,0.0,0.0,0.0,0.0,0.0698865,0.0,0.0,nan,0.0,0.0,0.0,0.0,0.0,0.0015023788,-0.0014377832,0.0047754943,-0.020229703,0.009198263,0.00062561035,0.0,0.0,0.0,0.0,0.0,0.0
3612000,3532000,0.0024845034,0.0022121726,-0.047088493,5.7313282e-05,5.1089417e-05,488.10306,0.0,0.0,0.0,0.0,0.0,0.0,0.0,0.0698865,0.0,0.0,nan,0.0,0.0,0.0,0.0,0.0,0.0015023788,-0.0014377832,0.0047754943,-0.021699121,-0.050073147,-0.0006518364,0.0,0.0,0.0,0.0,0.0,0.0
3620000,3540000,0.0024845034,0.0022121726,-0.047088493,5.7313282e-05,5.1089417e-05,488.10306,0.0,0.0,0.0,0.0,0.0,0.0,0.0,0.0698865,0.0,0.0,nan,0.0,0.0,0.0,0.0,0.0,0.0015023788,-0.0014377832,0.0047754943,-0.0017901026,0.009786129,0.00022315979,0.0,0.0,0.0,0.0,0.0,0.0
3628000,3548000,0.0024845034,0.0022121726,-0.047088493,5.7313282e-05,5.1089417e-05,488.10306,0.0,0.0,0.0,0.0,0.0,0.0,0.0,0.041787267,0.0,0.0,nan,0.0,0.0,0.0,0.0,-0.015185833,0.004524951,-0.00075666606,0.007114351,0.0038124584,-0.0032983124,-0.00014925003,0.0,0.0,0.0,0.0,0.0,0.0
3636000,3556000,0.0024845034,0.0022121726,-0.047088493,5.7313282e-05,5.1089417e-05,488.10306,0.0,0.0,0.0,0.0,0.0,0.0,0.0,0.041787267,0.0,0.0,nan,0.0,0.0,0.0,0.0,-0.015185833,0.004524951,-0.00075666606,0.007114351,-0.02221698,-0.040983185,-0.0004234314,0.0,0.0,0.0,0.0,0.0,0.0
3644000,3564000,0.0024845034,0.0022121726,-0.047088493,5.7313282e-05,5.1089417e-05,488.10306,0.0,0.0,0.0,0.0,0.0,0.0,0.0,0.041787267,0.0,0.0,nan,0.0,0.0,0.0,0.0,-0.015185833,0.004524951,-0.00075666606,0.007114351,-0.02814758,-0.016817495,0.00023412704,0.0,0.0,0.0,0.0,0.0,0.0
3652000,3572000,0.0024845034,0.0022121726,-0.047088493,5.7313282e-05,5.1089417e-05,488.10306,0.0,0.0,0.0,0.0,0.0,0.0,0.0,0.041787267,0.0,0.0,nan,0.0,0.0,0.0,0.0,-0.015185833,0.004524951,-0.00075666606,0.007114351,-0.008304583,0.025748461,0.0006451607,0.0,0.0,0.0,0.0,0.0,0.0
3660000,3580000,0.0024845034,0.0022121726,-0.047088493,5.7313282e-05,5.1089417e-05,488.10306,0.0,0.0,0.0,0.0,0.0,0.0,0.0,0.041787267,0.0,0.0,nan,0.0,0.0,0.0,0.0,-0.015185833,0.004524951,-0.00075666606,0.007114351,0.006217446,0.008490428,2.1457672e-05,0.0,0.0,0.0,0.0,0.0,0.0
3668000,3588000,0.0024845034,0.0022121726,-0.047088493,5.7313282e-05,5.1089417e-05,488.10306,0.0,0.0,0.0,0.0,0.0,0.0,0.0,0.041787267,0.0,0.0,nan,0.0,0.0,0.0,0.0,-0.015185833,0.004524951,-0.00075666606,0.007114351,0.0033733547,-0.002183333,-0.000118255615,0.0,0.0,0.0,0.0,0.0,0.0
3676000,3596000,0.0024845034,0.0022121726,-0.047088493,5.7313282e-05,5.1089417e-05,488.10306,0.0,0.0,0.0,0.0,0.0,0.0,0.0,0.041787267,0.0,0.0,nan,0.0,0.0,0.0,0.0,-0.015185833,0.004524951,-0.00075666606,0.007114351,0.013743253,0.007351637,-0.00017213821,0.0,0.0,0.0,0.0,0.0,0.0
3684000,3604000,0.0024845034,0.0022121726,-0.047088493,5.7313282e-05,5.1089417e-05,488.10306,0.0,0.0,0.0,0.0,0.0,0.0,0.0,0.041787267,0.0,0.0,nan,0.0,0.0,0.0,0.0,-0.015185833,0.004524951,-0.00075666606,0.007114351,0.0029444713,0.021913603,0.00033664703,0.0,0.0,0.0,0.0,0.0,0.0
3692000,3612000,0.0024845034,0.0022121726,-0.047088493,5.7313282e-05,5.1089417e-05,488.10306,0.0,0.0,0.0,0.0,0.0,0.0,0.0,0.12633644,0.0,0.0,nan,0.0,0.0,0.0,0.0,-0.015185833,0.004524951,-0.00075666606,0.007114351,0.005852569,0.00035873055,-0.00012302399,0.0,0.0,0.0,0.0,0.0,0.0
3700000,3620000,0.0024845034,0.0022121726,-0.047088493,5.7313282e-05,5.1089417e-05,488.10306,0.0,0.0,0.0,0.0,0.0,0.0,0.0,0.12633644,0.0,0.0,nan,0.0,0.0,0.0,0.0,0.002098322,-0.0003631264,-0.0019293278,0.0030677915,-0.00026740693,0.019217879,0.0003604889,0.0,0.0,0.0,0.0,0.0,0.0
3708000,3628000,0.0024845034,0.0022121726,-0.047088493,5.7313282e-05,5.1089417e-05,488.10306,0.0,0.0,0.0,0.0,0.0,0.0,0.0,0.12633644,0.0,0.0,nan,0.0,0.0,0.0,0.0,0.002098322,-0.0003631264,-0.0019293278,0.0030677915,-0.02453828,0.01217635,0.00074386597,0.0,0.0,0.0,0.0,0.0,0.0
3716000,3636000,0.0024845034,0.0022121726,-0.047088493,5.7313282e-05,5.1089417e-05,488.10306,0.0,0.0,0.0,0.0,0.0,0.0,0.0,0.12633644,0.0,0.0,nan,0.0,0.0,0.0,0.0,0.002098322,-0.0003631264,-0.0019293278,0.0030677915,-0.015394561,0.001772657,0.00036478043,0.0,0.0,0.0,0.0,0.0,0.0
3724000,3644000,0.0024845034,0.0022121726,-0.047088493,5.7313282e-05,5.1089417e-05,488.10306,0.0,0.0,0.0,0.0,0.0,0.0,0.0,0.12633644,0.0,0.0,nan,0.0,0.0,0.0,0.0,0.002098322,-0.0003631264,-0.0019293278,0.0030677915,0.0035503116,-0.0036783963,-0.00015258789,0.0,0.0,0.0,0.0,0.0,0.0
3732000,3652000,0.0024845034,0.0022121726,-0.047088493,5.7313282e-05,5.1089417e-05,488.10306,0.0,0.0,0.0,0.0,0.0,0.0,0.0,0.12633644,0.0,0.0,nan,0.0,0.0,0.0,0.0,0.002098322,-0.0003631264,-0.0019293278,0.0030677915,-0.017032476,-0.020331457,-5.2452087e-05,0.0,0.0,0.0,0.0,0.0,0.0
3740000,3660000,0.0024845034,0.0022121726,-0.047088493,5.7313282e-05,5.1089417e-05,488.10306,0.0,0.0,0.0,0.0,0.0,0.0,0.0,0.12633644,0.0,0.0,nan,0.0,0.0,0.0,0.0,0.002098322,-0.0003631264,-0.0019293278,0.0030677915,-0.03027717,-0.017616764,0.00027132034,0.0,0.0,0.0,0.0,0.0,0.0
3748000,3668000,0.0024845034,0.0022121726,-0.047088493,5.7313282e-05,5.1089417e-05,488.10306,0.0,0.0,0.0,0.0,0.0,0.0,0.0,-0.034173705,0.0,0.0,nan,0.0,0.0,0.0,0.0,0.002098322,-0.0003631264,-0.0019293278,0.0030677915,-0.019392764,-0.010365337,0.00020694733,0.0,0.0,0.0,0.0,0.0,0.0
3756000,3676000,0.0024845034,0.0022121726,-0.047088493,5.7313282e-05,5.1089417e-05,488.10306,0.0,0.0,0.0,0.0,0.0,0.0,0.0,-0.034173705,0.0,0.0,nan,0.0,0.0,0.0,0.0,0.002098322,-0.0003631264,-0.0019293278,0.0030677915,-0.0039973445,0.0085787475,0.00025177002,0.0,0.0,0.0,0.0,0.0,0.0
3764000,3684000,0.0024845034,0.0022121726,-0.047088493,5.7313282e-05,5.1089417e-05,488.10306,0.0,0.0,0.0,0.0,0.0,0.0,0.0,-0.034173705,0.0,0.0,nan,0.0,0.0,0.0,0.0,-0.028743029,0.005913273,-0.0047585964,0.0011941195,-0.008312911,-0.016015574,-0.00014352798,0.0,0.0,0.0,0.0,0.0,0.0
3772000,3692000,0.0024845034,0.0022121726,-0.047088493,5.7313282e-05,5.1089417e-05,488.10306,0.0,0.0,0.0,0.0,0.0,0.0,0.0,-0.034173705,0.0,0.0,nan,0.0,0.0,0.0,0.0,-0.028743029,0.005913273,-0.0047585964,0.0011941195,0.009124143,0.0020527095,-0.00016975403,0.0,0.0,0.0,0.0,0.0,0.0
3780000,3700000,0.0024845034,0.0022121726,-0.047088493,5.7313282e-05,5.1089417e-05,488.10306,0.0,0.0,0.0,0.0,0.0,0.0,0.0,-0.034173705,0.0,0.0,nan,0.0,0.0,0.0,0.0,-0.028743029,0.005913273,-0.0047585964,0.0011941195,0.0067526456,-0.0047153085,-0.000248909,0.0,0.0,0.0,0.0,0.0,0.0
3788000,3708000,0.0024845034,0.0022121726,-0.047088493,5.7313282e-05,5.1089417e-05,488.10306,0.0,0.0,0.0,0.0,0.0,0.0,0.0,-0.034173705,0.0,0.0,nan,0.0,0.0,0.0,0.0,-0.028743029,0.005913273,-0.0047585964,0.0011941195,-0.0032197312,0.007311195,0.00021266937,0.0,0.0,0.0,0.0,0.0,0.0
3796000,3716000,0.0024845034,0.0022121726,-0.047088493,5.7313282e-05,5.1089417e-05,488.10306,0.0,0.0,0.0,0.0,0.0,0.0,0.0,-0.034173705,0.0,0.0,nan,0.0,0.0,0.0,0.0,-0.028743029,0.005913273,-0.0047585964,0.0011941195,-0.026167242,-0.0076269656,0.0004014969,0.0,0.0,0.0,0.0,0.0,0.0
3804000,3724000,0.0024845034,0.0022121726,-0.047088493,5.7313282e-05,5.1089417e-05,488.10306,0.0,0.0,0.0,0.0,0.0,0.0,0.0,-0.034173705,0.0,0.0,nan,0.0,0.0,0.0,0.0,-0.028743029,0.005913273,-0.0047585964,0.0011941195,-0.018503193,0.021431923,0.00079774857,0.0,0.0,0.0,0.0,0.0,0.0
3812000,3732000,0.0024845034,0.0022121726,-0.047088493,5.7313282e-05,5.1089417e-05,488.10306,0.0,0.0,0.0,0.0,0.0,0.0,0.0,-0.005413157,0.0,0.0,nan,0.0,0.0,0.0,0.0,-0.028743029,0.005913273,-0.0047585964,0.0011941195,-0.015194116,-0.012638792,7.43866e-05,0.0,0.0,0.0,0.0,0.0,0.0
3820000,3740000,0.0024845034,0.0022121726,-0.047088493,5.7313282e-05,5.1089417e-05,488.10306,0.0,0.0,0.0,0.0,0.0,0.0,0.0,-0.005413157,0.0,0.0,nan,0.0,0.0,0.0,0.0,-0.028743029,0.005913273,-0.0047585964,0.0011941195,-0.01696908,-0.008735791,0.00019216537,0.0,0.0,0.0,0.0,0.0,0.0
3828000,3748000,0.0024845034,0.0022121726,-0.047088493,5.7313282e-05,5.1089417e-05,488.10306,0.0,0.0,0.0,0.0,0.0,0.0,0.0,-0.005413157,0.0,0.0,nan,0.0,0.0,0.0,0.0,-0.028743029,0.005913273,-0.0047585964,0.0011941195,-0.01608923,0.023204967,0.0007805824,0.0,0.0,0.0,0.0,0.0,0.0
3836000,3756000,0.0024845034,0.0022121726,-0.047088493,5.7313282e-05,5.1089417e-05,488.10306,0.0,0.0,0.0,0.0,0.0,0.0,0.0,-0.005413157,0.0,0.0,nan,0.0,0.0,0.0,0.0,0.003711462,-0.00068847556,-0.0012187362,0.003698796,-0.029890964,0.015338063,0.00092315674,0.0,0.0,0.0,0.0,0.0,0.0
3844000,3764000,0.0024845034,0.0022121726,-0.047088493,5.7313282e-05,5.1089417e-05,488.10306,0.0,0.0,0.0,0.0,0.0,0.0,0.0,-0.005413157,0.0,0.0,nan,0.0,0.0,0.0,0.0,0.003711462,-0.00068847556,-0.0012187362,0.003698796,-0.007007882,0.006524399,0.00028181076,0.0,0.0,0.0,0.0,0.0,0.0
3852000,3772000,0.0024845034,0.0022121726,-0.047088493,5.7313282e-05,5.1089417e-05,488.10306,0.0,0.0,0.0,0.0,0.0,0.0,0.0,-0.005413157,0.0,0.0,nan,0.0,0.0,0.0,0.0,0.003711462,-0.00068847556,-0.0012187362,0.003698796,0.027680423,0.023522735,-0.00023365021,0.0,0.0,0.0,0.0,0.0,0.0
3860000,3780000,0.0024845034,0.0022121726,-0.047088493,5.7313282e-05,5.1089417e-05,488.10306,0.0,0.0,0.0,0.0,0.0,0.0,0.0,-0.005413157,0.0,0.0,nan,0.0,0.0,0.0,0.0,0.003711462,-0.00068847556,-0.0012187362,0.003698796,0.0053582024,-0.0133268535,-0.0003976822,0.0,0.0,0.0,0.0,0.0,0.0
3868000,3788000,0.0024845034,0.0022121726,-0.047088493,5.7313282e-05,5.1089417e-05,488.10306,0.0,0.0,0.0,0.0,0.0,0.0,0.0,-0.013308858,0.0,0.0,nan,0.0,0.0,0.0,0.0,0.003711462,-0.00068847556,-0.0012187362,0.003698796,-0.0063387174,-0.023622066,-0.00035333633,0.0,0.0,0.0,0.0,0.0,0.0
3876000,3796000,0.0024845034,0.0022121726,-0.047088493,5.7313282e-05,5.1089417e-05,488.10306,0.0,0.0,0.0,0.0,0.0,0.0,0.0,-0.013308858,0.0,0.0,nan,0.0,0.0,0.0,0.0,0.003711462,-0.00068847556,-0.0012187362,0.003698796,-0.005824402,-0.010520339,-8.2969666e-05,0.0,0.0,0.0,0.0,0.0,0.0
3884000,3804000,0.0024845034,0.0022121726,-0.047088493,5.7313282e-05,5.1089417e-05,488.10306,0.0,0.0,0.0,0.0,0.0,0.0,0.0,-0.013308858,0.0,0.0,nan,0.0,0.0,0.0,0.0,0.003711462,-0.00068847556,-0.0012187362,0.003698796,-0.008350022,-0.009937957,-1.5258789e-05,0.0,0.0,0.0,0.0,0.0,0.0
3892000,3812000,0.0024845034,0.0022121726,-0.047088493,5.7313282e-05,5.1089417e-05,488.10306,0.0,0.0,0.0,0.0,0.0,0.0,0.0,-0.013308858,0.0,0.0,nan,0.0,0.0,0.0,0.0,0.003711462,-0.00068847556,-0.0012187362,0.003698796,-0.003239125,-0.023048624,-0.0004119873,0.0,0.0,0.0,0.0,0.0,0.0
3900000,3820000,0.0024845034,0.0022121726,-0.047088493,5.7313282e-05,5.1089417e-05,488.10306,0.0,0.0,0.0,0.0,0.0,0.0,0.0,-0.013308858,0.0,0.0,nan,0.0,0.0,0.0,0.0,0.003711462,-0.00068847556,-0.0012187362,0.003698796,-0.023246406,-0.017903402,0.00013589859,0.0,0.0,0.0,0.0,0.0,0.0
3908000,3828000,0.0024845034,0.0022121726,-0.047088493,5.7313282e-05,5.1089417e-05,488.10306,0.0,0.0,0.0,0.0,0.0,0.0,0.0,-0.013308858,0.0,0.0,nan,0.0,0.0,0.0,0.0,0.002978921,-0.0006390102,-0.0031089485,-0.0011005104,-0.011216793,0.009130791,0.00042819977,0.0,0.0,0.0,0.0,0.0,0.0
3916000,3836000,0.0024845034,0.0022121726,-0.047088493,5.7313282e-05,5.1089417e-05,488.10306,0.0,0.0,0.0,0.0,0.0,0.0,0.0,-0.013308858,0.0,0.0,nan,0.0,0.0,0.0,0.0,0.002978921,-0.0006390102,-0.0031089485,-0.0011005104,-0.036005393,-0.010921508,0.0005431175,0.0,0.0,0.0,0.0,0.0,0.0
3924000,3844000,0.0024845034,0.0022121726,-0.047088493,5.7313282e-05,5.1089417e-05,488.10306,0.0,0.0,0.0,0.0,0.0,0.0,0.0,-0.013308858,0.0,0.0,nan,0.0,0.0,0.0,0.0,0.002978921,-0.0006390102,-0.0031089485,-0.0011005104,-0.022259945,0.008938104,0.00066185,0.0,0.0,0.0,0.0,0.0,0.0
3932000,3852000,0.0024845034,0.0022121726,-0.047088493,5.7313282e-05,5.1089417e-05,488.10306,0.0,0.0,0.0,0.0,0.0,0.0,0.0,0.12325268,0.0,0.0,nan,0.0,0.0,0.0,0.0,0.002978921,-0.0006390102,-0.0031089485,-0.0011005104,-0.01607892,0.01956679,0.000729084,0.0,0.0,0.0,0.0,0.0,0.0
3940000,3860000,0.0024845034,0.0022121726,-0.047088493,5.7313282e-05,5.1089417e-05,488.10306,0.0,0.0,0.0,0.0,0.0,0.0,0.0,0.12325268,0.0,0.0,nan,0.0,0.0,0.0,0.0,0.002978921,-0.0006390102,-0.0031089485,-0.0011005104,-0.024267623,0.020513058,0.0009198189,0.0,0.0,0.0,0.0,0.0,0.0
3948000,3868000,0.0024845034,0.0022121726,-0.047088493,5.7313282e-05,5.1089417e-05,488.10306,0.0,0.0,0.0,0.0,0.0,0.0,0.0,0.12325268,0.0,0.0,nan,0.0,0.0,0.0,0.0,0.002978921,-0.0006390102,-0.0031089485,-0.0011005104,0.00088255294,0.015078634,0.0002655983,0.0,0.0,0.0,0.0,0.0,0.0
3956000,3876000,0.0024845034,0.0022121726,-0.047088493,5.7313282e-05,5.1089417e-05,488.10306,0.0,0.0,0.0,0.0,0.0,0.0,0.0,0.12325268,0.0,0.0,nan,0.0,0.0,0.0,0.0,0.002978921,-0.0006390102,-0.0031089485,-0.0011005104,-0.008367009,0.007149324,0.00033187866,0.0,0.0,0.0,0.0,0.0,0.0
3964000,3884000,0.0024845034,0.0022121726,-0.047088493,5.7313282e-05,5.1089417e-05,488.10306,0.0,0.0,0.0,0.0,0.0,0.0,0.0,0.12325268,0.0,0.0,nan,0.0,0.0,0.0,0.0,0.002978921,-0.0006390102,-0.0031089485,-0.0011005104,-0.038622808,0.004640624,0.00092077255,0.0,0.0,0.0,0.0,0.0,0.0
3972000,3892000,0.0024845034,0.0022121726,-0.047088493,5.7313282e-05,5.1089417e-05,488.10306,0.0,0.0,0.0,0.0,0.0,0.0,0.0,0.12325268,0.0,0.0,nan,0.0,0.0,0.0,0.0,0.002978921,-0.0006390102,-0.0031089485,-0.0011005104,-0.007744344,0.009218842,0.00035762787,0.0,0.0,0.0,0.0,0.0,0.0
3980000,3900000,0.0024845034,0.0022121726,-0.047088493,5.7313282e-05,5.1089417e-05,488.10306,0.0,0.0,0.0,0.0,0.0,0.0,0.0,0.12325268,0.0,0.0,nan,0.0,0.0,0.0,0.0,-0.002063632,0.00047190208,-0.00027020276,0.0017318428,0.0040789507,-0.0077474415,-0.00025367737,0.0,0.0,0.0,0.0,0.0,0.0
3988000,3908000,0.0024845034,0.0022121726,-0.047088493,5.7313282e-05,5.1089417e-05,488.10306,0.0,0.0,0.0,0.0,0.0,0.0,0.0,-0.062294196,0.0,0.0,nan,0.0,0.0,0.0,0.0,-0.002063632,0.00047190208,-0.00027020276,0.0017318428,-0.027298568,-0.0018730164,0.0005683899,0.0,0.0,0.0,0.0,0.0,0.0
3996000,3916000,3.594265e-05,0.011521014,-0.017381446,-1.3744712e-05,7.418217e-05,488.10938,0.0,0.0,0.0,0.0,0.0,0.0,0.0,-0.062294196,0.0,0.0,nan,0.0,0.0,0.0,0.0,-0.002063632,0.00047190208,-0.00027020276,0.0017318428,-0.018582048,-0.028216392,-0.00019216537,0.0,0.0,0.0,0.0,0.0,0.0
4004000,3924000,3.594265e-05,0.011521014,-0.017381446,-1.3744712e-05,7.418217e-05,488.10938,0.0,0.0,0.0,0.0,0.0,0.0,0.0,-0.062294196,0.0,0.0,nan,0.0,0.0,0.0,0.0,-0.002063632,0.00047190208,-0.00027020276,0.0017318428,-0.020442342,0.0022707283,0.00049591064,0.0,0.0,0.0,0.0,0.0,0.0
4012000,3932000,3.594265e-05,0.011521014,-0.017381446,-1.3744712e-05,7.418217e-05,488.10938,0.0,0.0,0.0,0.0,0.0,0.0,0.0,-0.062294196,0.0,0.0,nan,0.0,0.0,0.0,0.0,-0.002063632,0.00047190208,-0.00027020276,0.0017318428,-0.016252717,0.008170605,0.000521183,0.0,0.0,0.0,0.0,0.0,0.0
4020000,3940000,3.594265e-05,0.011521014,-0.017381446,-1.3744712e-05,7.418217e-05,488.10938,0.0,0.0,0.0,0.0,0.0,0.0,0.0,-0.062294196,0.0,0.0,nan,0.0,0.0,0.0,0.0,-0.002063632,0.00047190208,-0.00027020276,0.0017318428,-0.001941178,-0.019558504,-0.00036525726,0.0,0.0,0.0,0.0,0.0,0.0
4028000,3948000,3.594265e-05,0.011521014,-0.017381446,-1.3744712e-05,7.418217e-05,488.10938,0.0,0.0,0.0,0.0,0.0,0.0,0.0,-0.062294196,0.0,0.0,nan,0.0,0.0,0.0,0.0,-0.002063632,0.00047190208,-0.00027020276,0.0017318428,-0.02249861,0.0017839819,0.00052928925,0.0,0.0,0.0,0.0,0.0,0.0
4036000,3956000,3.594265e-05,0.011521014,-0.017381446,-1.3744712e-05,7.418217e-05,488.10938,0.0,0.0,0.0,0.0,0.0,0.0,0.0,-0.062294196,0.0,0.0,nan,0.0,0.0,0.0,0.0,-0.002063632,0.00047190208,-0.00027020276,0.0017318428,-0.0062927622,-0.0050935745,4.053116e-05,0.0,0.0,0.0,0.0,0.0,0.0
4044000,3964000,3.594265e-05,0.011521014,-0.017381446,-1.3744712e-05,7.418217e-05,488.10938,0.0,0.0,0.0,0.0,0.0,0.0,0.0,-0.062294196,0.0,0.0,nan,0.0,0.0,0.0,0.0,-0.002063632,0.00047190208,-0.00027020276,0.0017318428,-0.028156761,0.025619566,0.0010910034,0.0,0.0,0.0,0.0,0.0,0.0
4052000,3972000,3.594265e-05,0.011521014,-0.017381446,-1.3744712e-05,7.418217e-05,488.10938,0.0,0.0,0.0,0.0,0.0,0.0,0.0,-0.034363903,0.0,0.0,nan,0.0,0.0,0.0,0.0,-0.00042021275,0.00012247544,-0.00124529,0.0015066564,-0.016258044,-0.0030177385,0.00030183792,0.0,0.0,0.0,0.0,0.0,0.0
4060000,3980000,3.594265e-05,0.011521014,-0.017381446,-1.3744712e-05,7.418217e-05,488.10938,0.0,0.0,0.0,0.0,0.0,0.0,0.0,-0.034363903,0.0,0.0,nan,0.0,0.0,0.0,0.0,-0.00042021275,0.00012247544,-0.00124529,0.0015066564,-0.026589412,-0.0060334057,0.00046014786,0.0,0.0,0.0,0.0,0.0,0.0
4068000,3988000,3.594265e-05,0.011521014,-0.017381446,-1.3744712e-05,7.418217e-05,488.10938,0.0,0.0,0.0,0.0,0.0,0.0,0.0,-0.034363903,0.0,0.0,nan,0.0,0.0,0.0,0.0,-0.00042021275,0.00012247544,-0.00124529,0.0015066564,-0.013512425,0.01290369,0.00055503845,0.0,0.0,0.0,0.0,0.0,0.0
4076000,3996000,3.594265e-05,0.011521014,-0.017381446,-1.3744712e-05,7.418217e-05,488.10938,0.0,0.0,0.0,0.0,0.0,0.0,0.0,-0.034363903,0.0,0.0,nan,0.0,0.0,0.0,0.0,-0.00042021275,0.00012247544,-0.00124529,0.0015066564,0.004573848,0.016694292,0.00021266937,0.0,0.0,0.0,0.0,0.0,0.0
4084000,4004000,3.594265e-05,0.011521014,-0.017381446,-1.3744712e-05,7.418217e-05,488.10938,0.0,0.0,0.0,0.0,0.0,0.0,0.0,-0.034363903,0.0,0.0,nan,0.0,0.0,0.0,0.0,-0.00042021275,0.00012247544,-0.00124529,0.0015066564,-0.026536193,0.021717101,0.0009980202,0.0,0.0,0.0,0.0,0.0,0.0
4092000,4012000,3.594265e-05,0.011521014,-0.017381446,-1.3744712e-05,7.418217e-05,488.10938,0.0,0.0,0.0,0.0,0.0,0.0,0.0,-0.034363903,0.0,0.0,nan,0.0,0.0,0.0,0.0,-0.00042021275,0.00012247544,-0.00124529,0.0015066564,0.00020427816,0.024005294,0.00044870377,0.0,0.0,0.0,0.0,0.0,0.0
4100000,4020000,3.594265e-05,0.011521014,-0.017381446,-1.3744712e-05,7.418217e-05,488.10938,0.0,0.0,0.0,0.0,0.0,0.0,0.0,-0.034363903,0.0,0.0,nan,0.0,0.0,0.0,0.0,-0.00042021275,0.00012247544,-0.00124529,0.0015066564,0.003800599,0.013911262,0.00017929077,0.0,0.0,0.0,0.0,0.0,0.0
4108000,4028000,3.594265e-05,0.011521014,-0.017381446,-1.3744712e-05,7.418217e-05,488.10938,0.0,0.0,0.0,0.0,0.0,0.0,0.0,0.015801726,0.0,0.0,nan,0.0,0.0,0.0,0.0,-0.00042021275,0.00012247544,-0.00124529,0.0015066564,-0.044042222,0.014734969,0.0012202263,0.0,0.0,0.0,0.0,0.0,0.0
4116000,4036000,3.594265e-05,0.011521014,-0.017381446,-1.3744712e-05,7.418217e-05,488.10938,0.0,0.0,0.0,0.0,0.0,0.0,0.0,0.015801726,0.0,0.0,nan,0.0,0.0,0.0,0.0,-0.00042021275,0.00012247544,-0.00124529,0.0015066564,-0.043707564,-0.0037502646,0.000852108,0.0,0.0,0.0,0.0,0.0,0.0
4124000,4044000,3.594265e-05,0.011521014,-0.017381446,-1.3744712e-05,7.418217e-05,488.10938,0.0,0.0,0.0,0.0,0.0,0.0,0.0,0.015801726,0.0,0.0,nan,0.0,0.0,0.0,0.0,0.009464741,-0.0019343253,-0.0012007803,0.0014387667,-0.047007084,-0.009079173,0.0008072853,0.0,0.0,0.0,0.0,0.0,0.0
4132000,4052000,3.594265e-05,0.011521014,-0.017381446,-1.3744712e-05,7.418217e-05,488.10938,0.0,0.0,0.0,0.0,0.0,0.0,0.0,0.015801726,0.0,0.0,nan,0.0,0.0,0.0,0.0,0.009464741,-0.0019343253,-0.0012007803,0.0014387667,-0.012678763,0.0043364763,0.0003771782,0.0,0.0,0.0,0.0,0.0,0.0
4140000,4060000,3.594265e-05,0.011521014,-0.017381446,-1.3744712e-05,7.418217e-05,488.10938,0.0,0.0,0.0,0.0,0.0,0.0,0.0,0.015801726,0.0,0.0,nan,0.0,0.0,0.0,0.0,0.009464741,-0.0019343253,-0.0012007803,0.0014387667,0.01013108,0.024144292,0.00021409988,0.0,0.0,0.0,0.0,0.0,0.0
4148000,4068000,3.594265e-05,0.011521014,-0.017381446,-1.3744712e-05,7.418217e-05,488.10938,0.0,0.0,0.0,0.0,0.0,0.0,0.0,0.015801726,0.0,0.0,nan,0.0,0.0,0.0,0.0,0.009464741,-0.0019343253,-0.0012007803,0.0014387667,-0.024680613,0.008459032,0.00072050095,0.0,0.0,0.0,0.0,0.0,0.0
4156000,4076000,3.594265e-05,0.011521014,-0.017381446,-1.3744712e-05,7.418217e-05,488.10938,0.0,0.0,0.0,0.0,0.0,0.0,0.0,0.015801726,0.0,0.0,nan,0.0,0.0,0.0,0.0,0.009464741,-0.0019343253,-0.0012007803,0.0014387667,-0.055363413,-0.00248757,0.0011048317,0.0,0.0,0.0,0.0,0.0,0.0
4164000,4084000,3.594265e-05,0.011521014,-0.017381446,-1.3744712e-05,7.418217e-05,488.10938,0.0,0.0,0.0,0.0,0.0,0.0,0.0,0.015801726,0.0,0.0,nan,0.0,0.0,0.0,0.0,0.009464741,-0.0019343253,-0.0012007803,0.0014387667,-0.019284822,0.020439148,0.0008301735,0.0,0.0,0.0,0.0,0.0,0.0
4172000,4092000,3.594265e-05,0.011521014,-0.017381446,-1.3744712e-05,7.418217e-05,488.10938,0.0,0.0,0.0,0.0,0.0,0.0,0.0,0.09855545,0.0,0.0,nan,0.0,0.0,0.0,0.0,0.009464741,-0.0019343253,-0.0012007803,0.0014387667,-0.03337955,0.024824947,0.0012040138,0.0,0.0,0.0,0.0,0.0,0.0
4180000,4100000,3.594265e-05,0.011521014,-0.017381446,-1.3744712e-05,7.418217e-05,488.10938,0.0,0.0,0.0,0.0,0.0,0.0,0.0,0.09855545,0.0,0.0,nan,0.0,0.0,0.0,0.0,0.009464741,-0.0019343253,-0.0012007803,0.0014387667,-0.024368023,0.014465183,0.0008292198,0.0,0.0,0.0,0.0,0.0,0.0
4188000,4108000,3.594265e-05,0.011521014,-0.017381446,-1.3744712e-05,7.418217e-05,488.10938,0.0,0.0,0.0,0.0,0.0,0.0,0.0,0.09855545,0.0,0.0,nan,0.0,0.0,0.0,0.0,0.009464741,-0.0019343253,-0.0012007803,0.0014387667,-0.018293219,-0.015287146,9.727478e-05,0.0,0.0,0.0,0.0,0.0,0.0
4196000,4116000,3.594265e-05,0.011521014,-0.017381446,-1.3744712e-05,7.418217e-05,488.10938,0.0,0.0,0.0,0.0,0.0,0.0,0.0,0.09855545,0.0,0.0,nan,0.0,0.0,0.0,0.0,0.013427615,-0.0026624454,-0.0054935217,0.00289464,-0.00931236,-0.03370042,-0.00052022934,0.0,0.0,0.0,0.0,0.0,0.0
4204000,4124000,3.594265e-05,0.011521014,-0.017381446,-1.3744712e-05,7.418217e-05,488.10938,0.0,0.0,0.0,0.0,0.0,0.0,0.0,0.09855545,0.0,0.0,nan,0.0,0.0,0.0,0.0,0.013427615,-0.0026624454,-0.0054935217,0.00289464,0.0073993225,0.0075297058,-2.6226044e-05,0.0,0.0,0.0,0.0,0.0,0.0
4212000,4132000,3.594265e-05,0.011521014,-0.017381446,-1.3744712e-05,7.418217e-05,488.10938,0.0,0.0,0.0,0.0,0.0,0.0,0.0,0.09855545,0.0,0.0,nan,0.0,0.0,0.0,0.0,0.013427615,-0.0026624454,-0.0054935217,0.00289464,-0.017003953,0.024922088,0.00084495544,0.0,0.0,0.0,0.0,0.0,0.0
4220000,4140000,3.594265e-05,0.011521014,-0.017381446,-1.3744712e-05,7.418217e-05,488.10938,0.0,0.0,0.0,0.0,0.0,0.0,0.0,0.09855545,0.0,0.0,nan,0.0,0.0,0.0,0.0,0.013427615,-0.0026624454,-0.0054935217,0.00289464,0.001656739,0.0001256764,-3.6239624e-05,0.0,0.0,0.0,0.0,0.0,0.0
4228000,4148000,3.594265e-05,0.011521014,-0.017381446,-1.3744712e-05,7.418217e-05,488.10938,0.0,0.0,0.0,0.0,0.0,0.0,0.0,0.0067860335,0.0,0.0,nan,0.0,0.0,0.0,0.0,0.013427615,-0.0026624454,-0.0054935217,0.00289464,-0.0018935129,-0.011913285,-0.00020122528,0.0,0.0,0.0,0.0,0.0,0.0
4236000,4156000,3.594265e-05,0.011521014,-0.017381446,-1.3744712e-05,7.418217e-05,488.10938,0.0,0.0,0.0,0.0,0.0,0.0,0.0,0.0067860335,0.0,0.0,nan,0.0,0.0,0.0,0.0,0.013427615,-0.0026624454,-0.0054935217,0.00289464,-0.001656346,0.008565173,0.00020456314,0.0,0.0,0.0,0.0,0.0,0.0
4244000,4164000,3.594265e-05,0.011521014,-0.017381446,-1.3744712e-05,7.418217e-05,488.10938,0.0,0.0,0.0,0.0,0.0,0.0,0.0,0.0067860335,0.0,0.0,nan,0.0,0.0,0.0,0.0,0.013427615,-0.0026624454,-0.0054935217,0.00289464,-0.011882175,-0.00016056001,0.00026273727,0.0,0.0,0.0,0.0,0.0,0.0
4252000,4172000,3.594265e-05,0.011521014,-0.017381446,-1.3744712e-05,7.418217e-05,488.10938,0.0,0.0,0.0,0.0,0.0,0.0,0.0,0.0067860335,0.0,0.0,nan,0.0,0.0,0.0,0.0,0.013427615,-0.0026624454,-0.0054935217,0.00289464,-0.0025182813,0.0052981973,0.00016307831,0.0,0.0,0.0,0.0,0.0,0.0
4260000,4180000,3.594265e-05,0.011521014,-0.017381446,-1.3744712e-05,7.418217e-05,488.10938,0.0,0.0,0.0,0.0,0.0,0.0,0.0,0.0067860335,0.0,0.0,nan,0.0,0.0,0.0,0.0,0.013427615,-0.0026624454,-0.0054935217,0.00289464,-0.00715534,-0.003980741,8.201599e-05,0.0,0.0,0.0,0.0,0.0,0.0
4268000,4188000,3.594265e-05,0.011521014,-0.017381446,-1.3744712e-05,7.418217e-05,488.10938,0.0,0.0,0.0,0.0,0.0,0.0,0.0,0.0067860335,0.0,0.0,nan,0.0,0.0,0.0,0.0,0.0120027065,-0.0024319869,-0.0013954937,0.0025977194,-0.020093694,-0.006813407,0.00030469894,0.0,0.0,0.0,0.0,0.0,0.0
4276000,4196000,3.594265e-05,0.011521014,-0.017381446,-1.3744712e-05,7.418217e-05,488.10938,0.0,0.0,0.0,0.0,0.0,0.0,0.0,0.0067860335,0.0,0.0,nan,0.0,0.0,0.0,0.0,0.0120027065,-0.0024319869,-0.0013954937,0.0025977194,-0.0048512965,-0.016784355,-0.00024032593,0.0,0.0,0.0,0.0,0.0,0.0
4284000,4204000,3.594265e-05,0.011521014,-0.017381446,-1.3744712e-05,7.418217e-05,488.10938,0.0,0.0,0.0,0.0,0.0,0.0,0.0,0.0067860335,0.0,0.0,nan,0.0,0.0,0.0,0.0,0.0120027065,-0.0024319869,-0.0013954937,0.0025977194,-0.0038393028,0.02455832,0.0005478859,0.0,0.0,0.0,0.0,0.0,0.0
4292000,4212000,3.594265e-05,0.011521014,-0.017381446,-1.3744712e-05,7.418217e-05,488.10938,0.0,0.0,0.0,0.0,0.0,0.0,0.0,0.06531517,0.0,0.0,nan,0.0,0.0,0.0,0.0,0.0120027065,-0.0024319869,-0.0013954937,0.0025977194,0.0020302236,0.009641364,0.00014162064,0.0,0.0,0.0,0.0,0.0,0.0
4300000,4220000,3.594265e-05,0.011521014,-0.017381446,-1.3744712e-05,7.418217e-05,488.10938,0.0,0.0,0.0,0.0,0.0,0.0,0.0,0.06531517,0.0,0.0,nan,0.0,0.0,0.0,0.0,0.0120027065,-0.0024319869,-0.0013954937,0.0025977194,0.0014980845,0.014382899,0.00024271011,0.0,0.0,0.0,0.0,0.0,0.0
4308000,4228000,3.594265e-05,0.011521014,-0.017381446,-1.3744712e-05,7.418217e-05,488.10938,0.0,0.0,0.0,0.0,0.0,0.0,0.0,0.06531517,0.0,0.0,nan,0.0,0.0,0.0,0.0,0.0120027065,-0.0024319869,-0.0013954937,0.0025977194,-0.012049159,0.0021666437,0.00031518936,0.0,0.0,0.0,0.0,0.0,0.0
4316000,4236000,3.594265e-05,0.011521014,-0.017381446,-1.3744712e-05,7.418217e-05,488.10938,0.0,0.0,0.0,0.0,0.0,0.0,0.0,0.06531517,0.0,0.0,nan,0.0,0.0,0.0,0.0,0.0120027065,-0.0024319869,-0.0013954937,0.0025977194,-0.0043898523,-0.014263451,-0.00019407272,0.0,0.0,0.0,0.0,0.0,0.0
4324000,4244000,3.594265e-05,0.011521014,-0.017381446,-1.3744712e-05,7.418217e-05,488.10938,0.0,0.0,0.0,0.0,0.0,0.0,0.0,0.06531517,0.0,0.0,nan,0.0,0.0,0.0,0.0,0.0120027065,-0.0024319869,-0.0013954937,0.0025977194,-0.0059265886,0.023007631,0.0005707741,0.0,0.0,0.0,0.0,0.0,0.0
4332000,4252000,3.594265e-05,0.011521014,-0.017381446,-1.3744712e-05,7.418217e-05,488.10938,0.0,0.0,0.0,0.0,0.0,0.0,0.0,0.06531517,0.0,0.0,nan,0.0,0.0,0.0,0.0,0.0120027065,-0.0024319869,-0.0013954937,0.0025977194,0.00013528205,0.0131717175,0.0002527237,0.0,0.0,0.0,0.0,0.0,0.0
4340000,4260000,3.594265e-05,0.011521014,-0.017381446,-1.3744712e-05,7.418217e-05,488.10938,0.0,0.0,0.0,0.0,0.0,0.0,0.0,0.06531517,0.0,0.0,nan,0.0,0.0,0.0,0.0,-0.005203843,0.0011425372,-0.0029285848,0.0026725233,0.004187269,0.0053672343,5.722046e-06,0.0,0.0,0.0,0.0,0.0,0.0
4348000,4268000,3.594265e-05,0.011521014,-0.017381446,-1.3744712e-05,7.418217e-05,488.10938,0.0,0.0,0.0,0.0,0.0,0.0,0.0,-0.0014749914,0.0,0.0,nan,0.0,0.0,0.0,0.0,-0.005203843,0.0011425372,-0.0029285848,0.0026725233,-0.0041809585,-0.012293726,-0.00015830994,0.0,0.0,0.0,0.0,0.0,0.0
4356000,4276000,3.594265e-05,0.011521014,-0.017381446,-1.3744712e-05,7.418217e-05,488.10938,0.0,0.0,0.0,0.0,0.0,0.0,0.0,-0.0014749914,0.0,0.0,nan,0.0,0.0,0.0,0.0,-0.005203843,0.0011425372,-0.0029285848,0.0026725233,-0.026205389,0.013494477,0.0008392334,0.0,0.0,0.0,0.0,0.0,0.0
4364000,4284000,3.594265e-05,0.011521014,-0.017381446,-1.3744712e-05,7.418217e-05,488.10938,0.0,0.0,0.0,0.0,0.0,0.0,0.0,-0.0014749914,0.0,0.0,nan,0.0,0.0,0.0,0.0,-0.005203843,0.0011425372,-0.0029285848,0.0026725233,-0.0059437174,0.023464054,0.00058078766,0.0,0.0,0.0,0.0,0.0,0.0
4372000,4292000,3.594265e-05,0.011521014,-0.017381446,-1.3744712e-05,7.418217e-05,488.10938,0.0,0.0,0.0,0.0,0.0,0.0,0.0,-0.0014749914,0.0,0.0,nan,0.0,0.0,0.0,0.0,-0.005203843,0.0011425372,-0.0029285848,0.0026725233,-0.030029636,0.02132535,0.0010604858,0.0,0.0,0.0,0.0,0.0,0.0
4380000,4300000,3.594265e-05,0.011521014,-0.017381446,-1.3744712e-05,7.418217e-05,488.10938,0.0,0.0,0.0,0.0,0.0,0.0,0.0,-0.0014749914,0.0,0.0,nan,0.0,0.0,0.0,0.0,-0.005203843,0.0011425372,-0.0029285848,0.0026725233,-0.006575525,0.01694563,0.000477314,0.0,0.0,0.0,0.0,0.0,0.0
4388000,4308000,3.594265e-05,0.011521014,-0.017381446,-1.3744712e-05,7.418217e-05,488.10938,0.0,0.0,0.0,0.0,0.0,0.0,0.0,-0.0014749914,0.0,0.0,nan,0.0,0.0,0.0,0.0,-0.005203843,0.0011425372,-0.0029285848,0.0026725233,-0.022831846,-0.035623357,-0.0002746582,0.0,0.0,0.0,0.0,0.0,0.0
4396000,4316000,0.0010838294,-0.0061614458,-0.0218004,0.0001815583,0.0006015005,-9.43616e-05,0.0,0.0,0.0,0.0,0.0,0.0,0.0,-0.0014749914,0.0,0.0,nan,0.0,0.0,0.0,0.0,-0.005203843,0.0011425372,-0.0029285848,0.0026725233,-0.026810039,-0.024386197,6.818771e-05,0.0,0.0,0.0,0.0,0.0,0.0
4404000,4324000,0.0010838294,-0.0061614458,-0.0218004,0.0001815583,0.0006015005,-9.43616e-05,0.0,0.0,0.0,0.0,0.0,0.0,0.0,-0.0014749914,0.0,0.0,nan,0.0,0.0,0.0,0.0,-0.008990049,0.0018992014,-0.0014488399,0.001230061,-0.006274037,-0.012649283,-0.00011968613,0.0,0.0,0.0,0.0,0.0,0.0
4412000,4332000,0.0010838294,-0.0061614458,-0.0218004,0.0001815583,0.0006015005,-9.43616e-05,0.0,0.0,0.0,0.0,0.0,0.0,0.0,-0.21787483,0.0,0.0,nan,0.0,0.0,0.0,0.0,-0.008990049,0.0018992014,-0.0014488399,0.001230061,-0.0175864,-0.0042703897,0.0002913475,0.0,0.0,0.0,0.0,0.0,0.0
4420000,4340000,0.0010838294,-0.0061614458,-0.0218004,0.0001815583,0.0006015005,-9.43616e-05,0.0,0.0,0.0,0.0,0.0,0.0,0.0,-0.21787483,0.0,0.0,nan,0.0,0.0,0.0,0.0,-0.008990049,0.0018992014,-0.0014488399,0.001230061,-0.023300871,0.011518374,0.0007185936,0.0,0.0,0.0,0.0,0.0,0.0
4428000,4348000,0.0010838294,-0.0061614458,-0.0218004,0.0001815583,0.0006015005,-9.43616e-05,0.0,0.0,0.0,0.0,0.0,0.0,0.0,-0.21787483,0.0,0.0,nan,0.0,0.0,0.0,0.0,-0.008990049,0.0018992014,-0.0014488399,0.001230061,-0.02254492,0.0067729205,0.00061416626,0.0,0.0,0.0,0.0,0.0,0.0
4436000,4356000,0.0010838294,-0.0061614458,-0.0218004,0.0001815583,0.0006015005,-9.43616e-05,0.0,0.0,0.0,0.0,0.0,0.0,0.0,-0.21787483,0.0,0.0,nan,0.0,0.0,0.0,0.0,-0.008990049,0.0018992014,-0.0014488399,0.001230061,0.020416435,-0.0135469735,-0.0007596016,0.0,0.0,0.0,0.0,0.0,0.0
4444000,4364000,0.0010838294,-0.0061614458,-0.0218004,0.0001815583,0.0006015005,-9.43616e-05,0.0,0.0,0.0,0.0,0.0,0.0,0.0,-0.21787483,0.0,0.0,nan,0.0,0.0,0.0,0.0,-0.008990049,0.0018992014,-0.0014488399,0.001230061,0.010381294,-0.00611715,-0.0003619194,0.0,0.0,0.0,0.0,0.0,0.0
4452000,4372000,0.0010838294,-0.0061614458,-0.0218004,0.0001815583,0.0006015005,-9.43616e-05,0.0,0.0,0.0,0.0,0.0,0.0,0.0,-0.21787483,0.0,0.0,nan,0.0,0.0,0.0,0.0,-0.008990049,0.0018992014,-0.0014488399,0.001230061,0.01574673,-0.0044216663,-0.00045347214,0.0,0.0,0.0,0.0,0.0,0.0
4460000,4380000,0.0010838294,-0.0061614458,-0.0218004,0.0001815583,0.0006015005,-9.43616e-05,0.0,0.0,0.0,0.0,0.0,0.0,0.0,-0.21787483,0.0,0.0,nan,0.0,0.0,0.0,0.0,-0.008990049,0.0018992014,-0.0014488399,0.001230061,-0.024476783,-0.021618113,6.532669e-05,0.0,0.0,0.0,0.0,0.0,0.0
4468000,4388000,0.0010838294,-0.0061614458,-0.0218004,0.0001815583,0.0006015005,-9.43616e-05,0.0,0.0,0.0,0.0,0.0,0.0,0.0,-0.06261892,0.0,0.0,nan,0.0,0.0,0.0,0.0,-0.008990049,0.0018992014,-0.0014488399,0.001230061,-0.019885885,0.00667195,0.0005555153,0.0,0.0,0.0,0.0,0.0,0.0
4476000,4396000,0.0010838294,-0.0061614458,-0.0218004,0.0001815583,0.0006015005,-9.43616e-05,0.0,0.0,0.0,0.0,0.0,0.0,0.0,-0.06261892,0.0,0.0,nan,0.0,0.0,0.0,0.0,0.0076414347,-0.0014924761,0.0020480305,0.0055860877,-0.017556457,0.016982675,0.0007019043,0.0,0.0,0.0,0.0,0.0,0.0
4484000,4404000,0.0010838294,-0.0061614458,-0.0218004,0.0001815583,0.0006015005,-9.43616e-05,0.0,0.0,0.0,0.0,0.0,0.0,0.0,-0.06261892,0.0,0.0,nan,0.0,0.0,0.0,0.0,0.0076414347,-0.0014924761,0.0020480305,0.0055860877,-0.024142554,0.008486316,0.00067710876,0.0,0.0,0.0,0.0,0.0,0.0
4492000,4412000,0.0010838294,-0.0061614458,-0.0218004,0.0001815583,0.0006015005,-9.43616e-05,0.0,0.0,0.0,0.0,0.0,0.0,0.0,-0.06261892,0.0,0.0,nan,0.0,0.0,0.0,0.0,0.0076414347,-0.0014924761,0.0020480305,0.0055860877,-0.023644345,-0.007527575,0.0003490448,0.0,0.0,0.0,0.0,0.0,0.0
4500000,4420000,0.0010838294,-0.0061614458,-0.0218004,0.0001815583,0.0006015005,-9.43616e-05,0.0,0.0,0.0,0.0,0.0,0.0,0.0,-0.06261892,0.0,0.0,nan,0.0,0.0,0.0,0.0,0.0076414347,-0.0014924761,0.0020480305,0.0055860877,-0.023197092,0.008051589,0.0006494522,0.0,0.0,0.0,0.0,0.0,0.0
4508000,4428000,0.0010838294,-0.0061614458,-0.0218004,0.0001815583,0.0006015005,-9.43616e-05,0.0,0.0,0.0,0.0,0.0,0.0,0.0,-0.06261892,0.0,0.0,nan,0.0,0.0,0.0,0.0,0.0076414347,-0.0014924761,0.0020480305,0.0055860877,-0.012155099,0.02372101,0.00070619583,0.0,0.0,0.0,0.0,0.0,0.0
4516000,4436000,0.0010838294,-0.0061614458,-0.0218004,0.0001815583,0.0006015005,-9.43616e-05,0.0,0.0,0.0,0.0,0.0,0.0,0.0,-0.06261892,0.0,0.0,nan,0.0,0.0,0.0,0.0,0.0076414347,-0.0014924761,0.0020480305,0.0055860877,-0.00031027012,0.026067615,0.0004887581,0.0,0.0,0.0,0.0,0.0,0.0
4524000,4444000,0.0010838294,-0.0061614458,-0.0218004,0.0001815583,0.0006015005,-9.43616e-05,0.0,0.0,0.0,0.0,0.0,0.0,0.0,-0.06261892,0.0,0.0,nan,0.0,0.0,0.0,0.0,0.0076414347,-0.0014924761,0.0020480305,0.0055860877,-0.015452558,0.0046144873,0.00042438507,0.0,0.0,0.0,0.0,0.0,0.0
4532000,4452000,0.0010838294,-0.0061614458,-0.0218004,0.0001815583,0.0006015005,-9.43616e-05,0.0,0.0,0.0,0.0,0.0,0.0,0.0,0.19384743,0.0,0.0,nan,0.0,0.0,0.0,0.0,0.0076414347,-0.0014924761,0.0020480305,0.0055860877,-0.022466945,-0.015761837,0.00015497208,0.0,0.0,0.0,0.0,0.0,0.0
4540000,4460000,0.0010838294,-0.0061614458,-0.0218004,0.0001815583,0.0006015005,-9.43616e-05,0.0,0.0,0.0,0.0,0.0,0.0,0.0,0.19384743,0.0,0.0,nan,0.0,0.0,0.0,0.0,0.0076414347,-0.0014924761,0.0020480305,0.0055860877,0.006997913,-0.02433692,-0.0006737709,0.0,0.0,0.0,0.0,0.0,0.0
4548000,4468000,0.0010838294,-0.0061614458,-0.0218004,0.0001815583,0.0006015005,-9.43616e-05,0.0,0.0,0.0,0.0,0.0,0.0,0.0,0.19384743,0.0,0.0,nan,0.0,0.0,0.0,0.0,0.008699179,-0.0017445292,-0.0017851144,0.0024879277,-0.0069073327,-0.0010433197,0.00013399124,0.0,0.0,0.0,0.0,0.0,0.0
4556000,4476000,0.0010838294,-0.0061614458,-0.0218004,0.0001815583,0.0006015005,-9.43616e-05,0.0,0.0,0.0,0.0,0.0,0.0,0.0,0.19384743,0.0,0.0,nan,0.0,0.0,0.0,0.0,0.008699179,-0.0017445292,-0.0017851144,0.0024879277,-0.01185278,0.0012375116,0.00028419495,0.0,0.0,0.0,0.0,0.0,0.0
4564000,4484000,0.0010838294,-0.0061614458,-0.0218004,0.0001815583,0.0006015005,-9.43616e-05,0.0,0.0,0.0,0.0,0.0,0.0,0.0,0.19384743,0.0,0.0,nan,0.0,0.0,0.0,0.0,0.008699179,-0.0017445292,-0.0017851144,0.0024879277,-0.01354545,0.019359753,0.0006594658,0.0,0.0,0.0,0.0,0.0,0.0
4572000,4492000,0.0010838294,-0.0061614458,-0.0218004,0.0001815583,0.0006015005,-9.43616e-05,0.0,0.0,0.0,0.0,0.0,0.0,0.0,0.19384743,0.0,0.0,nan,0.0,0.0,0.0,0.0,0.008699179,-0.0017445292,-0.0017851144,0.0024879277,0.0029318575,0.008540049,9.775162e-05,0.0,0.0,0.0,0.0,0.0,0.0
4580000,4500000,0.0010838294,-0.0061614458,-0.0218004,0.0001815583,0.0006015005,-9.43616e-05,0.0,0.0,0.0,0.0,0.0,0.0,0.0,0.19384743,0.0,0.0,nan,0.0,0.0,0.0,0.0,0.008699179,-0.0017445292,-0.0017851144,0.0024879277,-0.008078508,-0.0062663853,5.340576e-05,0.0,0.0,0.0,0.0,0.0,0.0
4588000,4508000,0.0010838294,-0.0061614458,-0.0218004,0.0001815583,0.0006015005,-9.43616e-05,0.0,0.0,0.0,0.0,0.0,0.0,0.0,-0.0033478178,0.0,0.0,nan,0.0,0.0,0.0,0.0,0.008699179,-0.0017445292,-0.0017851144,0.0024879277,0.016889,-0.007056847,-0.0005402565,0.0,0.0,0.0,0.0,0.0,0.0
4596000,4516000,0.0010838294,-0.0061614458,-0.0218004,0.0001815583,0.0006015005,-9.43616e-05,0.0,0.0,0.0,0.0,0.0,0.0,0.0,-0.0033478178,0.0,0.0,nan,0.0,0.0,0.0,0.0,0.008699179,-0.0017445292,-0.0017851144,0.0024879277,0.027836246,0.023044363,-0.00024175644,0.0,0.0,0.0,0.0,0.0,0.0
4604000,4524000,0.0010838294,-0.0061614458,-0.0218004,0.0001815583,0.0006015005,-9.43616e-05,0.0,0.0,0.0,0.0,0.0,0.0,0.0,-0.0033478178,0.0,0.0,nan,0.0,0.0,0.0,0.0,0.008699179,-0.0017445292,-0.0017851144,0.0024879277,-0.012767822,-0.0020906776,0.00023841858,0.0,0.0,0.0,0.0,0.0,0.0
4612000,4532000,0.0010838294,-0.0061614458,-0.0218004,0.0001815583,0.0006015005,-9.43616e-05,0.0,0.0,0.0,0.0,0.0,0.0,0.0,-0.0033478178,0.0,0.0,nan,0.0,0.0,0.0,0.0,0.008699179,-0.0017445292,-0.0017851144,0.0024879277,-0.008280411,0.018237814,0.00052690506,0.0,0.0,0.0,0.0,0.0,0.0
4620000,4540000,0.0010838294,-0.0061614458,-0.0218004,0.0001815583,0.0006015005,-9.43616e-05,0.0,0.0,0.0,0.0,0.0,0.0,0.0,-0.0033478178,0.0,0.0,nan,0.0,0.0,0.0,0.0,-0.010050058,0.0021172408,-0.0022516847,0.0014527142,0.0013125464,0.017097801,0.00029230118,0.0,0.0,0.0,0.0,0.0,0.0
4628000,4548000,0.0010838294,-0.0061614458,-0.0218004,0.0001815583,0.0006015005,-9.43616e-05,0.0,0.0,0.0,0.0,0.0,0.0,0.0,-0.0033478178,0.0,0.0,nan,0.0,0.0,0.0,0.0,-0.010050058,0.0021172408,-0.0022516847,0.0014527142,0.0043365136,0.009224638,8.010864e-05,0.0,0.0,0.0,0.0,0.0,0.0
4636000,4556000,0.0010838294,-0.0061614458,-0.0218004,0.0001815583,0.0006015005,-9.43616e-05,0.0,0.0,0.0,0.0,0.0,0.0,0.0,-0.0033478178,0.0,0.0,nan,0.0,0.0,0.0,0.0,-0.010050058,0.0021172408,-0.0022516847,0.0014527142,-0.030272417,-0.00051793456,0.0006117821,0.0,0.0,0.0,0.0,0.0,0.0
4644000,4564000,0.0010838294,-0.0061614458,-0.0218004,0.0001815583,0.0006015005,-9.43616e-05,0.0,0.0,0.0,0.0,0.0,0.0,0.0,-0.09759785,0.0,0.0,nan,0.0,0.0,0.0,0.0,-0.010050058,0.0021172408,-0.0022516847,0.0014527142,-0.011666888,-0.00075244904,0.00023555756,0.0,0.0,0.0,0.0,0.0,0.0
4652000,4572000,0.0010838294,-0.0061614458,-0.0218004,0.0001815583,0.0006015005,-9.43616e-05,0.0,0.0,0.0,0.0,0.0,0.0,0.0,-0.09759785,0.0,0.0,nan,0.0,0.0,0.0,0.0,-0.010050058,0.0021172408,-0.0022516847,0.0014527142,-0.0015167054,0.025177047,0.0004940033,0.0,0.0,0.0,0.0,0.0,0.0
4660000,4580000,0.0010838294,-0.0061614458,-0.0218004,0.0001815583,0.0006015005,-9.43616e-05,0.0,0.0,0.0,0.0,0.0,0.0,0.0,-0.09759785,0.0,0.0,nan,0.0,0.0,0.0,0.0,-0.010050058,0.0021172408,-0.0022516847,0.0014527142,-0.039627254,-0.0135964155,0.0005145073,0.0,0.0,0.0,0.0,0.0,0.0
4668000,4588000,0.0010838294,-0.0061614458,-0.0218004,0.0001815583,0.0006015005,-9.43616e-05,0.0,0.0,0.0,0.0,0.0,0.0,0.0,-0.09759785,0.0,0.0,nan,0.0,0.0,0.0,0.0,-0.010050058,0.0021172408,-0.0022516847,0.0014527142,-0.029806376,0.006132588,0.00072813034,0.0,0.0,0.0,0.0,0.0,0.0
4676000,4596000,0.0010838294,-0.0061614458,-0.0218004,0.0001815583,0.0006015005,-9.43616e-05,0.0,0.0,0.0,0.0,0.0,0.0,0.0,-0.09759785,0.0,0.0,nan,0.0,0.0,0.0,0.0,-0.010050058,0.0021172408,-0.0022516847,0.0014527142,-0.00074608997,0.013216153,0.00026750565,0.0,0.0,0.0,0.0,0.0,0.0
4684000,4604000,0.0010838294,-0.0061614458,-0.0218004,0.0001815583,0.0006015005,-9.43616e-05,0.0,0.0,0.0,0.0,0.0,0.0,0.0,-0.09759785,0.0,0.0,nan,0.0,0.0,0.0,0.0,-0.010050058,0.0021172408,-0.0022516847,0.0014527142,-0.012424445,-0.0102458,5.7697296e-05,0.0,0.0,0.0,0.0,0.0,0.0
4692000,4612000,0.0010838294,-0.0061614458,-0.0218004,0.0001815583,0.0006015005,-9.43616e-05,0.0,0.0,0.0,0.0,0.0,0.0,0.0,-0.09759785,0.0,0.0,nan,0.0,0.0,0.0,0.0,0.00097203255,-8.473266e-05,-0.0011446476,0.0052455366,0.009478398,0.017643496,0.00011634827,0.0,0.0,0.0,0.0,0.0,0.0
4700000,4620000,0.0010838294,-0.0061614458,-0.0218004,0.0001815583,0.0006015005,-9.43616e-05,0.0,0.0,0.0,0.0,0.0,0.0,0.0,-0.0133388415,0.0,0.0,nan,0.0,0.0,0.0,0.0,0.00097203255,-8.473266e-05,-0.0011446476,0.0052455366,-0.008359414,0.016711816,0.0004930496,0.0,0.0,0.0,0.0,0.0,0.0
4708000,4628000,0.0010838294,-0.0061614458,-0.0218004,0.0001815583,0.0006015005,-9.43616e-05,0.0,0.0,0.0,0.0,0.0,0.0,0.0,-0.0133388415,0.0,0.0,nan,0.0,0.0,0.0,0.0,0.00097203255,-8.473266e-05,-0.0011446476,0.0052455366,-0.012229109,0.008971825,0.00043439865,0.0,0.0,0.0,0.0,0.0,0.0
4716000,4636000,0.0010838294,-0.0061614458,-0.0218004,0.0001815583,0.0006015005,-9.43616e-05,0.0,0.0,0.0,0.0,0.0,0.0,0.0,-0.0133388415,0.0,0.0,nan,0.0,0.0,0.0,0.0,0.00097203255,-8.473266e-05,-0.0011446476,0.0052455366,-0.0057753995,0.03460732,0.00074386597,0.0,0.0,0.0,0.0,0.0,0.0
4724000,4644000,0.0010838294,-0.0061614458,-0.0218004,0.0001815583,0.0006015005,-9.43616e-05,0.0,0.0,0.0,0.0,0.0,0.0,0.0,-0.0133388415,0.0,0.0,nan,0.0,0.0,0.0,0.0,0.00097203255,-8.473266e-05,-0.0011446476,0.0052455366,-0.005035378,-0.0107411,-0.00010871887,0.0,0.0,0.0,0.0,0.0,0.0
4732000,4652000,0.0010838294,-0.0061614458,-0.0218004,0.0001815583,0.0006015005,-9.43616e-05,0.0,0.0,0.0,0.0,0.0,0.0,0.0,-0.0133388415,0.0,0.0,nan,0.0,0.0,0.0,0.0,0.00097203255,-8.473266e-05,-0.0011446476,0.0052455366,0.010884529,-0.007454306,-0.00039720535,0.0,0.0,0.0,0.0,0.0,0.0
4740000,4660000,0.0010838294,-0.0061614458,-0.0218004,0.0001815583,0.0006015005,-9.43616e-05,0.0,0.0,0.0,0.0,0.0,0.0,0.0,-0.0133388415,0.0,0.0,nan,0.0,0.0,0.0,0.0,0.00097203255,-8.473266e-05,-0.0011446476,0.0052455366,0.0138044,0.024275318,0.00013399124,0.0,0.0,0.0,0.0,0.0,0.0
4748000,4668000,0.0010838294,-0.0061614458,-0.0218004,0.0001815583,0.0006015005,-9.43616e-05,0.0,0.0,0.0,0.0,0.0,0.0,0.0,-0.0133388415,0.0,0.0,nan,0.0,0.0,0.0,0.0,0.00097203255,-8.473266e-05,-0.0011446476,0.0052455366,0.018254956,-0.00030601025,-0.00042438507,0.0,0.0,0.0,0.0,0.0,0.0
4756000,4676000,0.0010838294,-0.0061614458,-0.0218004,0.0001815583,0.0006015005,-9.43616e-05,0.0,0.0,0.0,0.0,0.0,0.0,0.0,-0.07386452,0.0,0.0,nan,0.0,0.0,0.0,0.0,0.00097203255,-8.473266e-05,-0.0011446476,0.0052455366,0.017670577,0.0032546967,-0.0003414154,0.0,0.0,0.0,0.0,0.0,0.0
4764000,4684000,0.0010838294,-0.0061614458,-0.0218004,0.0001815583,0.0006015005,-9.43616e-05,0.0,0.0,0.0,0.0,0.0,0.0,0.0,-0.07386452,0.0,0.0,nan,0.0,0.0,0.0,0.0,-0.0064287186,0.0013983445,-0.00083613396,0.002604276,0.0011797715,-0.01724489,-0.00038146973,0.0,0.0,0.0,0.0,0.0,0.0
4772000,4692000,0.0010838294,-0.0061614458,-0.0218004,0.0001815583,0.0006015005,-9.43616e-05,0.0,0.0,0.0,0.0,0.0,0.0,0.0,-0.07386452,0.0,0.0,nan,0.0,0.0,0.0,0.0,-0.0064287186,0.0013983445,-0.00083613396,0.002604276,0.0064118505,0.011078969,6.771088e-05,0.0,0.0,0.0,0.0,0.0,0.0
4780000,4700000,0.0010838294,-0.0061614458,-0.0218004,0.0001815583,0.0006015005,-9.43616e-05,0.0,0.0,0.0,0.0,0.0,0.0,0.0,-0.07386452,0.0,0.0,nan,0.0,0.0,0.0,0.0,-0.0064287186,0.0013983445,-0.00083613396,0.002604276,-0.0060149767,0.028922603,0.0006570816,0.0,0.0,0.0,0.0,0.0,0.0
4788000,4708000,0.0010838294,-0.0061614458,-0.0218004,0.0001815583,0.0006015005,-9.43616e-05,0.0,0.0,0.0,0.0,0.0,0.0,0.0,-0.07386452,0.0,0.0,nan,0.0,0.0,0.0,0.0,-0.0064287186,0.0013983445,-0.00083613396,0.002604276,-0.0038605016,0.038140118,0.00076055527,0.0,0.0,0.0,0.0,0.0,0.0
4796000,4716000,-0.008032897,0.0012193149,0.017818464,0.00017151142,-0.0072624786,0.03380557,0.0,0.0,0.0,0.0,0.0,0.0,0.0,-0.07386452,0.0,0.0,nan,0.0,0.0,0.0,0.0,-0.0064287186,0.0013983445,-0.00083613396,0.002604276,0.00574624,0.023128524,0.00029706955,0.0,0.0,0.0,0.0,0.0,0.0
4804000,4724000,-0.008032897,0.0012193149,0.017818464,0.00017151142,-0.0072624786,0.03380557,0.0,0.0,0.0,0.0,0.0,0.0,0.0,-0.07386452,0.0,0.0,nan,0.0,0.0,0.0,0.0,-0.0064287186,0.0013983445,-0.00083613396,0.002604276,-0.001163939,-0.011869341,-0.00021648407,0.0,0.0,0.0,0.0,0.0,0.0
4812000,4732000,-0.008032897,0.0012193149,0.017818464,0.00017151142,-0.0072624786,0.03380557,0.0,0.0,0.0,0.0,0.0,0.0,0.0,-0.07386452,0.0,0.0,nan,0.0,0.0,0.0,0.0,-0.0064287186,0.0013983445,-0.00083613396,0.002604276,0.0052501727,0.0068143606,1.4781952e-05,0.0,0.0,0.0,0.0,0.0,0.0
4820000,4740000,-0.008032897,0.0012193149,0.017818464,0.00017151142,-0.0072624786,0.03380557,0.0,0.0,0.0,0.0,0.0,0.0,0.0,-0.035856947,0.0,0.0,nan,0.0,0.0,0.0,0.0,-0.0064287186,0.0013983445,-0.00083613396,0.002604276,-0.0041402914,0.046562865,0.0008969307,0.0,0.0,0.0,0.0,0.0,0.0
4828000,4748000,-0.008032897,0.0012193149,0.017818464,0.00017151142,-0.0072624786,0.03380557,0.0,0.0,0.0,0.0,0.0,0.0,0.0,-0.035856947,0.0,0.0,nan,0.0,0.0,0.0,0.0,-0.0064287186,0.0013983445,-0.00083613396,0.002604276,-0.002094429,0.018184766,0.00038146973,0.0,0.0,0.0,0.0,0.0,0.0
4836000,4756000,-0.008032897,0.0012193149,0.017818464,0.00017151142,-0.0072624786,0.03380557,0.0,0.0,0.0,0.0,0.0,0.0,0.0,-0.035856947,0.0,0.0,nan,0.0,0.0,0.0,0.0,0.0063433647,-0.0013122577,-0.0010135174,0.00028783083,-0.003598649,0.028038949,0.00058174133,0.0,0.0,0.0,0.0,0.0,0.0
4844000,4764000,-0.008032897,0.0012193149,0.017818464,0.00017151142,-0.0072624786,0.03380557,0.0,0.0,0.0,0.0,0.0,0.0,0.0,-0.035856947,0.0,0.0,nan,0.0,0.0,0.0,0.0,0.0063433647,-0.0013122577,-0.0010135174,0.00028783083,-0.011728611,-0.0082754195,8.249283e-05,0.0,0.0,0.0,0.0,0.0,0.0
4852000,4772000,-0.008032897,0.0012193149,0.017818464,0.00017151142,-0.0072624786,0.03380557,0.0,0.0,0.0,0.0,0.0,0.0,0.0,-0.035856947,0.0,0.0,nan,0.0,0.0,0.0,0.0,0.0063433647,-0.0013122577,-0.0010135174,0.00028783083,-0.040358804,-0.028555125,0.00019598007,0.0,0.0,0.0,0.0,0.0,0.0
4860000,4780000,-0.008032897,0.0012193149,0.017818464,0.00017151142,-0.0072624786,0.03380557,0.0,0.0,0.0,0.0,0.0,0.0,0.0,-0.035856947,0.0,0.0,nan,0.0,0.0,0.0,0.0,0.0063433647,-0.0013122577,-0.0010135174,0.00028783083,0.0006326698,0.009001598,0.00015544891,0.0,0.0,0.0,0.0,0.0,0.0
4868000,4788000,-0.008032897,0.0012193149,0.017818464,0.00017151142,-0.0072624786,0.03380557,0.0,0.0,0.0,0.0,0.0,0.0,0.0,-0.035856947,0.0,0.0,nan,0.0,0.0,0.0,0.0,0.0063433647,-0.0013122577,-0.0010135174,0.00028783083,-0.0028536413,0.02252528,0.00047063828,0.0,0.0,0.0,0.0,0.0,0.0
4876000,4796000,-0.008032897,0.0012193149,0.017818464,0.00017151142,-0.0072624786,0.03380557,0.0,0.0,0.0,0.0,0.0,0.0,0.0,-0.07071982,0.0,0.0,nan,0.0,0.0,0.0,0.0,0.0063433647,-0.0013122577,-0.0010135174,0.00028783083,-0.001790015,0.014942378,0.00031661987,0.0,0.0,0.0,0.0,0.0,0.0
4884000,4804000,-0.008032897,0.0012193149,0.017818464,0.00017151142,-0.0072624786,0.03380557,0.0,0.0,0.0,0.0,0.0,0.0,0.0,-0.07071982,0.0,0.0,nan,0.0,0.0,0.0,0.0,0.0063433647,-0.0013122577,-0.0010135174,0.00028783083,0.004485555,0.038855046,0.00057697296,0.0,0.0,0.0,0.0,0.0,0.0
4892000,4812000,-0.008032897,0.0012193149,0.017818464,0.00017151142,-0.0072624786,0.03380557,0.0,0.0,0.0,0.0,0.0,0.0,0.0,-0.07071982,0.0,0.0,nan,0.0,0.0,0.0,0.0,0.0063433647,-0.0013122577,-0.0010135174,0.00028783083,-0.008452553,0.03190653,0.0007472038,0.0,0.0,0.0,0.0,0.0,0.0
4900000,4820000,-0.008032897,0.0012193149,0.017818464,0.00017151142,-0.0072624786,0.03380557,0.0,0.0,0.0,0.0,0.0,0.0,0.0,-0.07071982,0.0,0.0,nan,0.0,0.0,0.0,0.0,0.0063433647,-0.0013122577,-0.0010135174,0.00028783083,0.028578222,0.0073755085,-0.00052165985,0.0,0.0,0.0,0.0,0.0,0.0
4908000,4828000,-0.008032897,0.0012193149,0.017818464,0.00017151142,-0.0072624786,0.03380557,0.0,0.0,0.0,0.0,0.0,0.0,0.0,-0.07071982,0.0,0.0,nan,0.0,0.0,0.0,0.0,0.016429782,-0.003367763,-0.0019182265,0.0015538335,0.032186143,0.0012841672,-0.00072813034,0.0,0.0,0.0,0.0,0.0,0.0
4916000,4836000,-0.008032897,0.0012193149,0.017818464,0.00017151142,-0.0072624786,0.03380557,0.0,0.0,0.0,0.0,0.0,0.0,0.0,-0.07071982,0.0,0.0,nan,0.0,0.0,0.0,0.0,0.016429782,-0.003367763,-0.0019182265,0.0015538335,0.0073229913,0.020974845,0.00022029877,0.0,0.0,0.0,0.0,0.0,0.0
4924000,4844000,-0.008032897,0.0012193149,0.017818464,0.00017151142,-0.0072624786,0.03380557,0.0,0.0,0.0,0.0,0.0,0.0,0.0,-0.07071982,0.0,0.0,nan,0.0,0.0,0.0,0.0,0.016429782,-0.003367763,-0.0019182265,0.0015538335,0.00442948,0.0034619123,-3.1471252e-05,0.0,0.0,0.0,0.0,0.0,0.0
4932000,4852000,-0.008032897,0.0012193149,0.017818464,0.00017151142,-0.0072624786,0.03380557,0.0,0.0,0.0,0.0,0.0,0.0,0.0,-0.07071982,0.0,0.0,nan,0.0,0.0,0.0,0.0,0.016429782,-0.003367763,-0.0019182265,0.0015538335,0.008461937,0.013861418,7.009506e-05,0.0,0.0,0.0,0.0,0.0,0.0
4940000,4860000,-0.008032897,0.0012193149,0.017818464,0.00017151142,-0.0072624786,0.03380557,0.0,0.0,0.0,0.0,0.0,0.0,0.0,0.0414346,0.0,0.0,nan,0.0,0.0,0.0,0.0,0.016429782,-0.003367763,-0.0019182265,0.0015538335,0.010916222,-0.0143125355,-0.00053310394,0.0,0.0,0.0,0.0,0.0,0.0
4948000,4868000,-0.008032897,0.0012193149,0.017818464,0.00017151142,-0.0072624786,0.03380557,0.0,0.0,0.0,0.0,0.0,0.0,0.0,0.0414346,0.0,0.0,nan,0.0,0.0,0.0,0.0,0.016429782,-0.003367763,-0.0019182265,0.0015538335,0.008201595,0.019496158,0.00017690659,0.0,0.0,0.0,0.0,0.0,0.0
4956000,4876000,-0.008032897,0.0012193149,0.017818464,0.00017151142,-0.0072624786,0.03380557,0.0,0.0,0.0,0.0,0.0,0.0,0.0,0.0414346,0.0,0.0,nan,0.0,0.0,0.0,0.0,0.016429782,-0.003367763,-0.0019182265,0.0015538335,-0.012244087,0.030075014,0.0007958412,0.0,0.0,0.0,0.0,0.0,0.0
4964000,4884000,-0.008032897,0.0012193149,0.017818464,0.00017151142,-0.0072624786,0.03380557,0.0,0.0,0.0,0.0,0.0,0.0,0.0,0.0414346,0.0,0.0,nan,0.0,0.0,0.0,0.0,0.016429782,-0.003367763,-0.0019182265,0.0015538335,-0.017925773,0.010062814,0.0005631447,0.0,0.0,0.0,0.0,0.0,0.0
4972000,4892000,-0.008032897,0.0012193149,0.017818464,0.00017151142,-0.0072624786,0.03380557,0.0,0.0,0.0,0.0,0.0,0.0,0.0,0.0414346,0.0,0.0,nan,0.0,0.0,0.0,0.0,0.0066057444,-0.0013025524,-0.0019731522,0.002772361,-0.017089086,0.002655223,0.00040721893,0.0,0.0,0.0,0.0,0.0,0.0
4980000,4900000,-0.008032897,0.0012193149,0.017818464,0.00017151142,-0.0072624786,0.03380557,0.0,0.0,0.0,0.0,0.0,0.0,0.0,0.0414346,0.0,0.0,nan,0.0,0.0,0.0,0.0,0.0066057444,-0.0013025524,-0.0019731522,0.002772361,0.00016902946,0.036355674,0.00063467026,0.0,0.0,0.0,0.0,0.0,0.0
4988000,4908000,-0.008032897,0.0012193149,0.017818464,0.00017151142,-0.0072624786,0.03380557,0.0,0.0,0.0,0.0,0.0,0.0,0.0,0.0414346,0.0,0.0,nan,0.0,0.0,0.0,0.0,0.0066057444,-0.0013025524,-0.0019731522,0.002772361,0.029534467,0.032487646,-0.00010871887,0.0,0.0,0.0,0.0,0.0,0.0
4996000,4916000,-0.008032897,0.0012193149,0.017818464,0.00017151142,-0.0072624786,0.03380557,0.0,0.0,0.0,0.0,0.0,0.0,0.0,-0.03227602,0.0,0.0,nan,0.0,0.0,0.0,0.0,0.0066057444,-0.0013025524,-0.0019731522,0.002772361,0.0036282223,0.009952188,0.00010871887,0.0,0.0,0.0,0.0,0.0,0.0
5004000,4924000,-0.008032897,0.0012193149,0.017818464,0.00017151142,-0.0072624786,0.03380557,0.0,0.0,0.0,0.0,0.0,0.0,0.0,-0.03227602,0.0,0.0,nan,0.0,0.0,0.0,0.0,0.0066057444,-0.0013025524,-0.0019731522,0.002772361,-0.009151619,0.022644505,0.00060892105,0.0,0.0,0.0,0.0,0.0,0.0
5012000,4932000,-0.008032897,0.0012193149,0.017818464,0.00017151142,-0.0072624786,0.03380557,0.0,0.0,0.0,0.0,0.0,0.0,0.0,-0.03227602,0.0,0.0,nan,0.0,0.0,0.0,0.0,0.0066057444,-0.0013025524,-0.0019731522,0.002772361,0.023429193,0.026175067,-6.151199e-05,0.0,0.0,0.0,0.0,0.0,0.0
5020000,4940000,-0.008032897,0.0012193149,0.017818464,0.00017151142,-0.0072624786,0.03380557,0.0,0.0,0.0,0.0,0.0,0.0,0.0,-0.03227602,0.0,0.0,nan,0.0,0.0,0.0,0.0,0.0066057444,-0.0013025524,-0.0019731522,0.002772361,-0.0011270847,0.0022660345,6.866455e-05,0.0,0.0,0.0,0.0,0.0,0.0
5028000,4948000,-0.008032897,0.0012193149,0.017818464,0.00017151142,-0.0072624786,0.03380557,0.0,0.0,0.0,0.0,0.0,0.0,0.0,-0.03227602,0.0,0.0,nan,0.0,0.0,0.0,0.0,0.0066057444,-0.0013025524,-0.0019731522,0.002772361,0.03135535,-0.019776106,-0.0011329651,0.0,0.0,0.0,0.0,0.0,0.0
5036000,4956000,-0.008032897,0.0012193149,0.017818464,0.00017151142,-0.0072624786,0.03380557,0.0,0.0,0.0,0.0,0.0,0.0,0.0,-0.03227602,0.0,0.0,nan,0.0,0.0,0.0,0.0,0.0066057444,-0.0013025524,-0.0019731522,0.002772361,0.00532962,-0.0169674,-0.0004553795,0.0,0.0,0.0,0.0,0.0,0.0
5044000,4964000,-0.008032897,0.0012193149,0.017818464,0.00017151142,-0.0072624786,0.03380557,0.0,0.0,0.0,0.0,0.0,0.0,0.0,-0.03227602,0.0,0.0,nan,0.0,0.0,0.0,0.0,-0.015803814,0.0032797107,-0.0008534789,-0.00068086386,0.013922874,-0.01058799,-0.0005159378,0.0,0.0,0.0,0.0,0.0,0.0
5052000,4972000,-0.008032897,0.0012193149,0.017818464,0.00017151142,-0.0072624786,0.03380557,0.0,0.0,0.0,0.0,0.0,0.0,0.0,-0.03227602,0.0,0.0,nan,0.0,0.0,0.0,0.0,-0.015803814,0.0032797107,-0.0008534789,-0.00068086386,0.006702291,-0.009026736,-0.00032234192,0.0,0.0,0.0,0.0,0.0,0.0
5060000,4980000,-0.008032897,0.0012193149,0.017818464,0.00017151142,-0.0072624786,0.03380557,0.0,0.0,0.0,0.0,0.0,0.0,0.0,-0.031032912,0.0,0.0,nan,0.0,0.0,0.0,0.0,-0.015803814,0.0032797107,-0.0008534789,-0.00068086386,-0.036081888,-0.008199155,0.0005545616,0.0,0.0,0.0,0.0,0.0,0.0
5068000,4988000,-0.008032897,0.0012193149,0.017818464,0.00017151142,-0.0072624786,0.03380557,0.0,0.0,0.0,0.0,0.0,0.0,0.0,-0.031032912,0.0,0.0,nan,0.0,0.0,0.0,0.0,-0.015803814,0.0032797107,-0.0008534789,-0.00068086386,-0.012765294,0.019678742,0.00061655045,0.0,0.0,0.0,0.0,0.0,0.0
5076000,4996000,-0.008032897,0.0012193149,0.017818464,0.00017151142,-0.0072624786,0.03380557,0.0,0.0,0.0,0.0,0.0,0.0,0.0,-0.031032912,0.0,0.0,nan,0.0,0.0,0.0,0.0,-0.015803814,0.0032797107,-0.0008534789,-0.00068086386,0.024924356,0.00071407855,-0.0005583763,0.0,0.0,0.0,0.0,0.0,0.0
5084000,5004000,-0.008032897,0.0012193149,0.017818464,0.00017151142,-0.0072624786,0.03380557,0.0,0.0,0.0,0.0,0.0,0.0,0.0,-0.031032912,0.0,0.0,nan,0.0,0.0,0.0,0.0,-0.015803814,0.0032797107,-0.0008534789,-0.00068086386,0.053206123,0.0120782405,-0.001074791,0.0,0.0,0.0,0.0,0.0,0.0
5092000,5012000,-0.008032897,0.0012193149,0.017818464,0.00017151142,-0.0072624786,0.03380557,0.0,0.0,0.0,0.0,0.0,0.0,0.0,-0.031032912,0.0,0.0,nan,0.0,0.0,0.0,0.0,-0.015803814,0.0032797107,-0.0008534789,-0.00068086386,0.026287097,-0.034986466,-0.0013246536,0.0,0.0,0.0,0.0,0.0,0.0
5100000,5020000,-0.008032897,0.0012193149,0.017818464,0.00017151142,-0.0072624786,0.03380557,0.0,0.0,0.0,0.0,0.0,0.0,0.0,-0.031032912,0.0,0.0,nan,0.0,0.0,0.0,0.0,-0.015803814,0.0032797107,-0.0008534789,-0.00068086386,0.0033081397,-0.011094168,-0.00028705597,0.0,0.0,0.0,0.0,0.0,0.0
5108000,5028000,-0.008032897,0.0012193149,0.017818464,0.00017151142,-0.0072624786,0.03380557,0.0,0.0,0.0,0.0,0.0,0.0,0.0,-0.031032912,0.0,0.0,nan,0.0,0.0,0.0,0.0,-0.015803814,0.0032797107,-0.0008534789,-0.00068086386,-0.004750056,0.01928635,0.00044441223,0.0,0.0,0.0,0.0,0.0,0.0
5116000,5036000,-0.008032897,0.0012193149,0.017818464,0.00017151142,-0.0072624786,0.03380557,0.0,0.0,0.0,0.0,0.0,0.0,0.0,0.055517808,0.0,0.0,nan,0.0,0.0,0.0,0.0,-0.007957339,0.0017748009,-0.0011417866,0.005385548,-0.020316385,-0.016004547,0.000102996826,0.0,0.0,0.0,0.0,0.0,0.0
5124000,5044000,-0.008032897,0.0012193149,0.017818464,0.00017151142,-0.0072624786,0.03380557,0.0,0.0,0.0,0.0,0.0,0.0,0.0,0.055517808,0.0,0.0,nan,0.0,0.0,0.0,0.0,-0.007957339,0.0017748009,-0.0011417866,0.005385548,-0.009556934,-0.0088600665,3.0040741e-05,0.0,0.0,0.0,0.0,0.0,0.0
5132000,5052000,-0.008032897,0.0012193149,0.017818464,0.00017151142,-0.0072624786,0.03380557,0.0,0.0,0.0,0.0,0.0,0.0,0.0,0.055517808,0.0,0.0,nan,0.0,0.0,0.0,0.0,-0.007957339,0.0017748009,-0.0011417866,0.005385548,0.0013734177,0.010031283,0.00015354156,0.0,0.0,0.0,0.0,0.0,0.0
5140000,5060000,-0.008032897,0.0012193149,0.017818464,0.00017151142,-0.0072624786,0.03380557,0.0,0.0,0.0,0.0,0.0,0.0,0.0,0.055517808,0.0,0.0,nan,0.0,0.0,0.0,0.0,-0.007957339,0.0017748009,-0.0011417866,0.005385548,-0.006743854,0.016079023,0.00043010712,0.0,0.0,0.0,0.0,0.0,0.0
5148000,5068000,-0.008032897,0.0012193149,0.017818464,0.00017151142,-0.0072624786,0.03380557,0.0,0.0,0.0,0.0,0.0,0.0,0.0,0.055517808,0.0,0.0,nan,0.0,0.0,0.0,0.0,-0.007957339,0.0017748009,-0.0011417866,0.005385548,0.015602019,0.020499378,1.1920929e-05,0.0,0.0,0.0,0.0,0.0,0.0
