timestamp,timestamp_sample,ref_timestamp,ref_lat,ref_lon,x,y,z,delta_xy[0],delta_xy[1],delta_z,vx,vy,vz,z_deriv,delta_vxy[0],delta_vxy[1],delta_vz,ax,ay,az,heading,delta_heading,ref_alt,dist_bottom,eph,epv,evh,evv,vxy_max,vz_max,hagl_min,hagl_max,xy_valid,z_valid,v_xy_valid,v_z_valid,xy_reset_counter,z_reset_counter,vxy_reset_counter,vz_reset_counter,heading_reset_counter,heading_good_for_control,xy_global,z_global,dist_bottom_valid,dist_bottom_sensor_bitfield,dead_reckoning
3388000,3388000,0,nan,nan,6.4737483e-06,3.239104e-05,-0.0007653879,-6.300118e-08,1.5656e-08,0.0,3.773439e-07,4.315565e-05,-0.014996991,-0.016583199,-1.0500196e-05,2.609333e-06,0.0017587617,-0.0008971255,-0.007980372,-0.12521538,0.00025845124,0.0,nan,0.1,14.172738,10.008659,7.074017,3.1623116,inf,inf,inf,inf,0,0,0,0,1,1,1,1,0,0,0,0,0,0,1
3396000,3396000,0,nan,nan,5.191523e-06,3.1677897e-05,-0.0008579114,-6.300118e-08,1.5656e-08,0.0,0.00011319925,-9.8077064e-05,-0.016008053,-0.017508836,-1.0500196e-05,2.609333e-06,0.0017587617,0.014536955,-0.023984727,-0.13774446,0.00026455865,0.0,nan,0.10228416,14.142143,10.0,0.001953125,0.001,inf,inf,inf,inf,0,0,0,0,1,1,1,1,0,0,0,0,0,0,1
3404000,3404000,0,nan,nan,4.875562e-06,2.9231636e-05,-0.0009547903,-6.300118e-08,1.5656e-08,0.0,0.00030252794,-0.00033085258,-0.016931862,-0.018338686,-1.0500196e-05,2.609333e-06,0.0017587617,0.029394183,-0.027632484,-0.1313677,0.0002630773,0.0,nan,0.102376886,14.142143,10.0,0.012884433,0.0041894484,inf,inf,inf,inf,0,0,0,0,1,1,1,1,0,0,0,0,0,0,1
3412000,3412000,0,nan,nan,-7.4523974e-05,-2.870703e-06,0.00053806923,-6.300118e-08,1.5656e-08,0.0,0.00038574397,-0.0005809653,-0.013488658,-0.019425942,-1.0500196e-05,2.609333e-06,0.0017587617,0.03907528,-0.045170844,-0.16075371,1.617797,0.0,nan,0.10087117,14.142143,10.0,0.024560349,0.0064846408,inf,inf,inf,inf,0,0,0,0,1,1,1,1,0,0,0,0,0,0,1
3420000,3420000,0,nan,nan,-7.0698e-05,-6.4498e-06,0.00042698896,-6.300118e-08,1.5656e-08,0.0,0.0005383933,-0.0003082315,-0.014622826,-0.02036782,-1.0500196e-05,2.609333e-06,0.0017587617,0.010538147,0.027178552,-0.14269817,1.6177826,0.0,nan,0.100959636,14.142143,10.0,0.033518244,0.008631178,inf,inf,inf,inf,0,0,0,0,1,1,1,1,0,0,0,0,0,0,1
3428000,3428000,0,nan,nan,-6.617444e-05,-7.884469e-06,0.0003084154,-6.300118e-08,1.5656e-08,0.0,0.0006136151,4.6891495e-05,-0.0155791715,-0.021127716,-1.0500196e-05,2.609333e-06,0.0017587617,0.016214266,0.05482671,-0.12277718,1.6177853,0.0,nan,0.10104591,14.142143,10.0,0.0438021,0.010718806,inf,inf,inf,inf,0,0,0,0,1,1,1,1,0,0,0,0,0,0,1
3436000,3436000,0,nan,nan,-6.0844915e-05,-7.2828534e-06,0.000182627,-6.300118e-08,1.5656e-08,0.0,0.00067363615,0.00013333958,-0.016629007,-0.021979185,-1.0500196e-05,2.609333e-06,0.0017587617,-0.0031968665,-0.0078952,-0.13064685,1.6177874,0.0,nan,0.10113053,14.142143,10.0,0.054680146,0.012776459,inf,inf,inf,inf,0,0,0,0,1,1,1,1,0,0,0,0,0,0,1
3444000,3444000,0,nan,nan,-5.553476e-05,-6.84367e-06,4.92642e-05,-6.300118e-08,1.5656e-08,0.0,0.0006849267,0.00016435428,-0.017695861,-0.022847509,-1.0500196e-05,2.609333e-06,0.0017587617,0.0088509545,0.019209996,-0.13216583,1.6177799,0.0,nan,0.10121327,14.142143,10.0,0.06588992,0.014816625,inf,inf,inf,inf,0,0,0,0,1,1,1,1,0,0,0,0,0,0,1
3452000,3452000,0,nan,nan,-4.889475e-05,-5.322401e-06,-9.040755e-05,-6.300118e-08,1.5656e-08,0.0,0.00100347,0.0003420799,-0.018418437,-0.023372743,-1.0500196e-05,2.609333e-06,0.0017587617,0.047822393,0.015374316,-0.08479691,1.6177802,0.0,nan,0.10129279,14.142143,10.0,0.0772614,0.01684571,inf,inf,inf,inf,0,0,0,0,1,1,1,1,0,0,0,0,0,0,1
3460000,3460000,0,nan,nan,-4.041828e-05,-2.4578967e-06,-0.00023502445,-6.300118e-08,1.5656e-08,0.0,0.001004231,0.0005756618,-0.019242402,-0.024001587,-1.0500196e-05,2.609333e-06,0.0017587617,-0.020561986,0.033526372,-0.11564977,1.6177802,0.0,nan,0.10136812,14.142143,10.0,0.088759385,0.018867312,inf,inf,inf,inf,0,0,0,0,1,1,1,1,0,0,0,0,0,0,1
3468000,3468000,0,nan,nan,-3.193618e-05,2.2404492e-06,-0.00038642276,-6.300118e-08,1.5656e-08,0.0,0.0011199277,0.00079178956,-0.020338155,-0.024905216,-1.0500196e-05,2.609333e-06,0.0017587617,0.029399887,0.02699917,-0.14357361,1.6177611,0.0,nan,0.10144158,14.142143,10.0,0.100318044,0.020883594,inf,inf,inf,inf,0,0,0,0,1,1,1,1,0,0,0,0,0,0,1
3476000,3476000,0,nan,nan,-2.1433212e-05,8.431426e-06,-0.00054601446,-6.300118e-08,1.5656e-08,0.0,0.0014050195,0.0009214444,-0.02153388,-0.025912393,-1.0500196e-05,2.609333e-06,0.0017587617,0.032872804,0.008273462,-0.15114154,1.6177436,0.0,nan,0.10151483,14.142142,10.0,0.111956164,0.022896,inf,inf,inf,inf,0,0,0,0,1,1,1,1,0,0,0,0,0,0,1
3484000,3484000,0,nan,nan,-8.503734e-06,1.5639549e-05,-0.00071320107,-6.300118e-08,1.5656e-08,0.0,0.0016635294,0.0010501085,-0.02246269,-0.02665665,-1.0500196e-05,2.609333e-06,0.0017587617,0.022478255,0.012067786,-0.1117438,1.6177474,0.0,nan,0.10158717,14.142142,10.0,0.12363595,0.024905518,inf,inf,inf,inf,0,0,0,0,1,1,1,1,0,0,0,0,0,0,1
3492000,3492000,0,nan,nan,5.6544013e-06,2.3956472e-05,-0.0008914636,-6.300118e-08,1.5656e-08,0.0,0.0016702949,0.0011796082,-0.023528751,-0.02750199,-1.0500196e-05,2.609333e-06,0.0017587617,-0.007163704,0.012582894,-0.13626552,1.6177409,0.0,nan,0.10166133,14.142142,10.0,0.13539812,0.026912868,inf,inf,inf,inf,0,0,0,0,1,1,1,1,0,0,0,0,0,0,1
3500000,3500000,0,nan,nan,1.9588819e-05,3.363767e-05,-0.0010791633,-6.300118e-08,1.5656e-08,0.0,0.001592583,0.0012955697,-0.024768667,-0.028526617,-1.0500196e-05,2.609333e-06,0.0017587617,-0.009085037,0.0074040433,-0.15559699,1.617736,0.0,nan,0.10173515,14.142142,10.0,0.14718007,0.028918354,inf,inf,inf,inf,0,0,0,0,1,1,1,1,0,0,0,0,0,0,1
3508000,3508000,0,nan,nan,3.4172303e-05,4.451343e-05,-0.0012765394,-6.300118e-08,1.5656e-08,0.0,0.00180197,0.0014413884,-0.025848376,-0.029396622,-1.0500196e-05,2.609333e-06,0.0017587617,0.03159158,0.021956408,-0.122119665,1.6177372,0.0,nan,0.10181013,14.142142,10.0,0.15897301,0.030922426,inf,inf,inf,inf,0,0,0,0,1,1,1,1,0,0,0,0,0,0,1
3516000,3516000,0,nan,nan,5.0330727e-05,5.6831257e-05,-0.001482195,-6.300118e-08,1.5656e-08,0.0,0.001857902,0.0015286234,-0.026850402,-0.030194603,-1.0500196e-05,2.609333e-06,0.0017587617,-0.008181159,0.0011154333,-0.1269914,1.6177307,0.0,nan,0.101885214,14.142142,10.0,0.17081237,0.032925207,inf,inf,inf,inf,0,0,0,0,1,1,1,1,0,0,0,0,0,0,1
3524000,3524000,0,nan,nan,6.704878e-05,7.0463095e-05,-0.0016973012,-6.300118e-08,1.5656e-08,0.0,0.001950979,0.0017452787,-0.028168948,-0.031314787,-1.0500196e-05,2.609333e-06,0.0017587617,0.0104529895,0.029596135,-0.16786715,1.6177322,0.0,nan,0.10196113,14.142142,10.0,0.1826859,0.034926996,inf,inf,inf,inf,0,0,0,0,1,1,1,1,0,0,0,0,0,0,1
3532000,3532000,0,nan,nan,8.324923e-05,8.658492e-05,-0.0019222286,-6.300118e-08,1.5656e-08,0.0,0.001660652,0.002046483,-0.029209677,-0.032162823,-1.0500196e-05,2.609333e-06,0.0017587617,-0.04314161,0.030809255,-0.12098252,1.6177353,0.0,nan,0.10203957,14.142142,10.0,0.1945426,0.03692819,inf,inf,inf,inf,0,0,0,0,1,1,1,1,0,0,0,0,0,0,1
3540000,3540000,0,nan,nan,9.899756e-05,0.00010474433,-0.002155785,-6.300118e-08,1.5656e-08,0.0,0.0018559799,0.002208002,-0.03028675,-0.033052824,-1.0500196e-05,2.609333e-06,0.0017587617,0.031857226,0.017968908,-0.12821238,1.6177219,0.0,nan,0.1021203,14.142143,10.0,0.20644277,0.0389286,inf,inf,inf,inf,0,0,0,0,1,1,1,1,0,0,0,0,0,0,1
3548000,3548000,0,nan,nan,0.000116236464,0.000124279,-0.0023971933,-6.300118e-08,1.5656e-08,0.0,0.0019475403,0.002316456,-0.031122206,-0.03370676,-1.0500196e-05,2.609333e-06,0.0017587617,0.0077867,0.00800137,-0.09779166,1.6177206,0.0,nan,0.10220107,14.142144,10.0,0.21841148,0.040928494,inf,inf,inf,inf,0,0,0,0,1,1,1,1,0,0,0,0,0,0,1
3556000,3556000,0,nan,nan,0.00013331258,0.00014548867,-0.0026453405,-6.300118e-08,1.5656e-08,0.0,0.0017270728,0.002615515,-0.031944167,-0.03435266,-1.0500196e-05,2.609333e-06,0.0017587617,-0.044137906,0.04288196,-0.10155886,1.6177039,0.0,nan,0.102279276,14.142145,10.0,0.23042439,0.04292795,inf,inf,inf,inf,0,0,0,0,1,1,1,1,0,0,0,0,0,0,1
3564000,3564000,0,nan,nan,0.0001490647,0.00016973079,-0.0029006384,-6.300118e-08,1.5656e-08,0.0,0.0016965152,0.0029693623,-0.03285629,-0.035094094,-1.0500196e-05,2.609333e-06,0.0017587617,0.00788948,0.03634959,-0.11148396,1.6176981,0.0,nan,0.10235599,14.142147,10.0,0.24242868,0.044926986,inf,inf,inf,inf,0,0,0,0,1,1,1,1,0,0,0,0,0,0,1
3572000,3572000,0,nan,nan,0.0001630745,0.00019324185,-0.003151754,-6.300118e-08,1.5656e-08,0.0,0.0020134023,0.0031778445,-0.033750243,-0.035811115,-1.0500196e-05,2.609333e-06,0.0017587617,0.046025086,0.020550199,-0.113528214,1.617689,0.0,nan,0.10278089,0.014084185,7.071068,0.25447538,0.046925534,inf,inf,inf,inf,0,0,0,0,1,1,1,1,0,0,0,0,0,0,1
3580000,3580000,0,nan,nan,0.00017951352,0.00021813606,-0.0034106937,-6.300118e-08,1.5656e-08,0.0,0.0021963096,0.0032612146,-0.034644473,-0.036533955,-1.0500196e-05,2.609333e-06,0.0017587617,0.015219804,0.0071590473,-0.103677616,1.6176866,0.0,nan,0.102844276,0.014298914,7.071068,0.2665769,0.048923735,inf,inf,inf,inf,0,0,0,0,1,1,1,1,0,0,0,0,0,0,1
3588000,3588000,0,nan,nan,0.00019727627,0.00024397219,-0.0036773155,-6.300118e-08,1.5656e-08,0.0,0.0022919895,0.0033610193,-0.035596922,-0.03732043,-1.0500196e-05,2.609333e-06,0.0017587617,0.0033740215,0.010795818,-0.122985795,1.6176747,0.0,nan,0.10290625,0.014962205,7.071068,0.27868664,0.05092184,inf,inf,inf,inf,0,0,0,0,1,1,1,1,0,0,0,0,0,0,1
3596000,3596000,0,nan,nan,0.00021605751,0.00027063186,-0.0039521195,-6.300118e-08,1.5656e-08,0.0,0.0024672407,0.003380091,-0.03654448,-0.038107306,-1.0500196e-05,2.609333e-06,0.0017587617,0.028076172,-0.008148417,-0.1157876,1.617667,0.0,nan,0.10296826,0.01607267,7.071068,0.29081526,0.05291961,inf,inf,inf,inf,0,0,0,0,1,1,1,1,0,0,0,0,0,0,1
3604000,3604000,0,nan,nan,0.00023413659,0.00029500193,-0.004165771,-6.300118e-08,1.5656e-08,0.0,0.0026728916,0.0034120947,-0.03667323,-0.037923444,-1.0500196e-05,2.609333e-06,0.0017587617,0.032836743,0.024872016,-0.12927036,1.6176536,0.0,nan,0.105127946,0.01408681,7.071067,0.0016506996,0.0010583706,inf,inf,inf,inf,0,0,0,0,1,1,1,1,0,0,0,0,0,0,1
3612000,3612000,0,nan,nan,0.00025269066,0.0003194111,-0.004371966,-6.300118e-08,1.5656e-08,0.0,0.0026972883,0.0034005097,-0.03592609,-0.036870323,-1.0500196e-05,2.609333e-06,0.0017587617,0.011209398,-0.001279899,-0.021529382,1.6176382,0.0,nan,0.10533319,0.0140868835,7.071067,0.00535818,0.0036031494,inf,inf,inf,inf,0,0,0,0,1,1,1,1,0,0,0,0,0,0,1
3620000,3620000,0,nan,nan,0.00027157375,0.00034330357,-0.0045676394,-6.300118e-08,1.5656e-08,0.0,0.0028649105,0.0034378853,-0.03526878,-0.03591354,-1.0500196e-05,2.609333e-06,0.0017587617,0.029071974,0.018686201,-0.025304964,1.6176342,0.0,nan,0.10552611,0.014086941,7.071067,0.007829974,0.0050632213,inf,inf,inf,inf,0,0,0,0,1,1,1,1,0,0,0,0,0,0,1
3628000,3628000,0,nan,nan,0.00029106377,0.00036784072,-0.0047529335,-6.300118e-08,1.5656e-08,0.0,0.0029612388,0.0036592071,-0.034620747,-0.034972403,-1.0500196e-05,2.609333e-06,0.0017587617,0.019283062,0.039464064,-0.030791385,1.6233478,0.005707331,nan,0.10570768,0.014087189,7.071067,0.0100724865,0.006251514,inf,inf,inf,inf,0,0,0,0,1,1,1,1,1,0,0,0,0,0,1
3636000,3636000,0,nan,nan,0.000310492,0.0003934481,-0.0049272534,-6.300118e-08,1.5656e-08,0.0,0.0029706033,0.0037962678,-0.033835426,-0.033900224,-1.0500196e-05,2.609333e-06,0.0017587617,0.008317511,0.023913816,-0.019208526,1.6234185,0.005707331,nan,0.10587834,0.0140879005,7.071067,0.012028935,0.0073019755,inf,inf,inf,inf,0,0,0,0,1,1,1,1,1,0,0,0,0,0,1
3644000,3644000,0,nan,nan,0.00032935527,0.00041918055,-0.0050909906,-6.300118e-08,1.5656e-08,0.0,0.0029387001,0.0037726217,-0.033239603,-0.03302366,-1.0500196e-05,2.609333e-06,0.0017587617,0.0023728497,-0.005235328,-0.03301445,1.623495,0.005707331,nan,0.10603816,0.014089408,7.071067,0.015031049,0.008267337,inf,inf,inf,inf,0,0,0,0,1,1,1,1,1,0,0,0,0,0,1
3652000,3652000,0,nan,nan,0.00034692243,0.00044438962,-0.0052444814,-6.300118e-08,1.5656e-08,0.0,0.0027591907,0.003900548,-0.032636162,-0.032145463,-1.0500196e-05,2.609333e-06,0.0017587617,-0.019541241,0.04162559,-0.042898577,1.6235806,0.005707331,nan,0.10618722,0.014092242,7.071067,0.018577712,0.009174504,inf,inf,inf,inf,0,0,0,0,1,1,1,1,1,0,0,0,0,0,1
3660000,3660000,0,nan,nan,0.000362363,0.00047084258,-0.0053882212,-6.300118e-08,1.5656e-08,0.0,0.002590676,0.004129707,-0.032076064,-0.031316474,-1.0500196e-05,2.609333e-06,0.0017587617,-0.0052581453,0.033803005,-0.033061016,1.6236564,0.005707331,nan,0.10632607,0.014097294,7.071067,0.022413094,0.010039303,inf,inf,inf,inf,0,0,0,0,1,1,1,1,1,0,0,0,0,0,1
3668000,3668000,0,nan,nan,0.00037624012,0.0004982872,-0.0055207275,-6.300118e-08,1.5656e-08,0.0,0.0024794275,0.004266896,-0.031222928,-0.030200182,-1.0500196e-05,2.609333e-06,0.0017587617,-0.004197616,0.0188064,-0.008075497,1.6237258,0.005707331,nan,0.10645302,0.01410582,7.071067,0.026415585,0.0108718695,inf,inf,inf,inf,0,0,0,0,1,1,1,1,1,0,0,0,0,0,1
3676000,3676000,0,nan,nan,0.00038932974,0.0005255713,-0.0056413985,-6.300118e-08,1.5656e-08,0.0,0.0025209403,0.004282527,-0.030468464,-0.029188173,-1.0500196e-05,2.609333e-06,0.0017587617,0.01246549,0.017360404,-0.017199663,1.6237974,0.005707331,nan,0.10656725,0.01411943,7.071067,0.03052165,0.011679111,inf,inf,inf,inf,0,0,0,0,1,1,1,1,1,0,0,0,0,0,1
3684000,3684000,0,nan,nan,0.00040126048,0.00055267615,-0.005750804,-6.300118e-08,1.5656e-08,0.0,0.0023582643,0.004315984,-0.029816112,-0.02828377,-1.0500196e-05,2.609333e-06,0.0017587617,-0.006210713,0.008242277,-0.03795698,1.6238767,0.005707331,nan,0.10666899,0.014140085,7.071067,0.034701113,0.012465971,inf,inf,inf,inf,0,0,0,0,1,1,1,1,1,0,0,0,0,0,1
3692000,3692000,0,nan,nan,0.00041212596,0.00057891343,-0.005850818,-6.300118e-08,1.5656e-08,0.0,0.0023427655,0.0042112703,-0.029432746,-0.027656347,-1.0500196e-05,2.609333e-06,0.0017587617,-0.0005129113,-0.00787618,-0.06321258,1.6239412,0.005707331,nan,0.10676001,0.014170079,7.071067,0.038930804,0.013236096,inf,inf,inf,inf,0,0,0,0,1,1,1,1,1,0,0,0,0,0,1
3700000,3700000,0,nan,nan,0.0004216769,0.00060364883,-0.0059424406,-6.300118e-08,1.5656e-08,0.0,0.0022670454,0.0041168802,-0.028949114,-0.026936486,-1.0500196e-05,2.609333e-06,0.0017587617,0.017262833,0.0031329107,-0.0456674,1.6240302,0.005707331,nan,0.106841214,0.014212024,7.071067,0.04320484,0.013992268,inf,inf,inf,inf,0,0,0,0,1,1,1,1,1,0,0,0,0,0,1
3708000,3708000,0,nan,nan,0.0004309672,0.0006274269,-0.006025574,-6.300118e-08,1.5656e-08,0.0,0.002273522,0.0041094837,-0.02841273,-0.026171539,-1.0500196e-05,2.609333e-06,0.0017587617,-0.0068123913,0.014477889,-0.025318002,1.6241167,0.005707331,nan,0.10691209,0.014268834,7.071067,0.0475145,0.014736649,inf,inf,inf,inf,0,0,0,0,1,1,1,1,1,0,0,0,0,0,1
3716000,3716000,0,nan,nan,0.00043877645,0.0006513473,-0.006099801,-6.300118e-08,1.5656e-08,0.0,0.0021461586,0.0042748256,-0.027834546,-0.025372293,-1.0500196e-05,2.609333e-06,0.0017587617,0.006259768,0.03323254,-0.031639818,1.6241767,0.005707331,nan,0.10697274,0.014343689,7.071067,0.051851414,0.015470949,inf,inf,inf,inf,0,0,0,0,1,1,1,1,1,0,0,0,0,0,1
3724000,3724000,0,nan,nan,0.00044625995,0.00067602855,-0.006165317,-6.300118e-08,1.5656e-08,0.0,0.0022508423,0.004386405,-0.027174108,-0.02449813,-1.0500196e-05,2.609333e-06,0.0017587617,0.018282734,0.015200901,-0.011314637,1.6242234,0.005707331,nan,0.10702315,0.014439984,7.071067,0.056224152,0.016196549,inf,inf,inf,inf,0,0,0,0,1,1,1,1,1,0,0,0,0,0,1
3732000,3732000,0,nan,nan,0.00045305287,0.00070070085,-0.0062228343,-6.300118e-08,1.5656e-08,0.0,0.0020809923,0.0044537014,-0.026784975,-0.023902453,-1.0500196e-05,2.609333e-06,0.0017587617,-0.019983314,0.023687389,-0.059563663,1.6242771,0.005707331,nan,0.107063286,0.0145613095,7.071067,0.060625613,0.016914587,inf,inf,inf,inf,0,0,0,0,1,1,1,1,1,0,0,0,0,0,1
3740000,3740000,0,nan,nan,0.00045787677,0.0007255682,-0.006274547,-6.300118e-08,1.5656e-08,0.0,0.0019370856,0.004540656,-0.026410317,-0.023328278,-1.0500196e-05,2.609333e-06,0.0017587617,-0.0014940596,0.021486353,-0.03036484,1.6243486,0.005707331,nan,0.1070952,0.014711366,7.071067,0.06505745,0.017626,inf,inf,inf,inf,0,0,0,0,1,1,1,1,1,0,0,0,0,0,1
3748000,3748000,0,nan,nan,0.00046214095,0.0007506664,-0.0063194092,-6.300118e-08,1.5656e-08,0.0,0.0020467974,0.0046307966,-0.025868408,-0.022593724,-1.0500196e-05,2.609333e-06,0.0017587617,0.028127555,0.021563958,-0.026051885,1.624408,0.005707331,nan,0.10711885,0.014893906,7.071067,0.06950861,0.018331565,inf,inf,inf,inf,0,0,0,0,1,1,1,1,1,0,0,0,0,0,1
3756000,3756000,0,nan,nan,0.00046664767,0.00077648443,-0.0063573252,-6.300118e-08,1.5656e-08,0.0,0.0020852122,0.004825787,-0.025267737,-0.021807127,-1.0500196e-05,2.609333e-06,0.0017587617,0.013627126,0.032306574,-0.0043502073,1.6244639,0.005707331,nan,0.10713491,0.015112626,7.071067,0.073993035,0.019031934,inf,inf,inf,inf,0,0,0,0,1,1,1,1,1,0,0,0,0,0,1
3764000,3764000,0,nan,nan,0.00047079116,0.00080275565,-0.0063880896,-6.300118e-08,1.5656e-08,0.0,0.0020612266,0.004831775,-0.02472479,-0.021084825,-1.0500196e-05,2.609333e-06,0.0017587617,0.0059094303,0.00245533,-0.029006971,1.6245087,0.005707331,nan,0.10714235,0.015371152,7.071067,0.07851181,0.01972768,inf,inf,inf,inf,0,0,0,0,1,1,1,1,1,0,0,0,0,0,1
3772000,3772000,0,nan,nan,0.0004749595,0.0008273534,-0.006413287,-6.300118e-08,1.5656e-08,0.0,0.0021867796,0.0045663947,-0.024251493,-0.020438595,-1.0500196e-05,2.609333e-06,0.0017587617,0.023190338,-0.018394157,-0.0062827016,1.6246748,0.005707331,nan,0.10714139,0.01567294,7.071067,0.083071336,0.020419274,inf,inf,inf,inf,0,0,0,0,1,1,1,1,1,0,0,0,0,0,1
3780000,3780000,0,nan,nan,0.00048019667,0.0008485414,-0.0064404015,-6.300118e-08,1.5656e-08,0.0,0.002010372,0.0044583855,-0.023845395,-0.01987341,-1.0500196e-05,2.609333e-06,0.0017587617,-0.02123376,-0.008765099,-0.041461546,1.6248236,0.005707331,nan,0.10690264,0.010602418,5.7735023,0.082090564,0.021107137,inf,inf,inf,inf,0,0,0,0,1,1,1,1,1,0,0,0,0,0,1
3788000,3788000,0,nan,nan,0.00048317463,0.000868663,-0.006462731,-6.300118e-08,1.5656e-08,0.0,0.0017483449,0.0044358964,-0.023379149,-0.019253947,-1.0500196e-05,2.609333e-06,0.0017587617,-0.02407233,0.013077878,-0.00970438,1.6249714,0.005707331,nan,0.10689299,0.010879039,5.7735023,0.08644539,0.021791637,inf,inf,inf,inf,0,0,0,0,1,1,1,1,1,0,0,0,0,0,1
3796000,3796000,0,nan,nan,0.00048405404,0.0008883578,-0.006479411,-6.300118e-08,1.5656e-08,0.0,0.0015916436,0.004413732,-0.022822022,-0.018549342,-1.0500196e-05,2.609333e-06,0.0017587617,-0.00570745,0.006914997,-0.0069700177,1.6251234,0.005707331,nan,0.10687575,0.011218091,5.7735023,0.09083359,0.022473095,inf,inf,inf,inf,0,0,0,0,1,1,1,1,1,0,0,0,0,0,1
3804000,3804000,0,nan,nan,0.00048354143,0.00090760255,-0.00649102,-6.300118e-08,1.5656e-08,0.0,0.0014381349,0.004411548,-0.02242884,-0.018014288,-1.0500196e-05,2.609333e-06,0.0017587617,-0.016199365,0.010640811,-0.033277083,1.6252722,0.005707331,nan,0.10685218,0.011622261,5.7735023,0.09525532,0.023151772,inf,inf,inf,inf,0,0,0,0,1,1,1,1,1,0,0,0,0,0,1
3812000,3812000,0,nan,nan,0.00048111175,0.00092595536,-0.0064987335,-6.300118e-08,1.5656e-08,0.0,0.0011835443,0.0043573976,-0.022023302,-0.017471958,-1.0500196e-05,2.609333e-06,0.0017587617,-0.023834463,0.006255606,-0.0058375294,1.6254086,0.005707331,nan,0.10682885,0.011882985,5.7735023,0.094050065,0.023660583,inf,inf,inf,inf,0,0,0,0,1,1,1,1,1,0,0,0,0,0,1
3820000,3820000,0,nan,nan,0.000476461,0.00094433257,-0.006501953,-6.300118e-08,1.5656e-08,0.0,0.00096292567,0.004463104,-0.02156013,-0.016877357,-1.0500196e-05,2.609333e-06,0.0017587617,-0.015885567,0.017724551,-0.015906056,1.6255445,0.005707331,nan,0.1067928,0.012371538,5.7735023,0.09831616,0.024332765,inf,inf,inf,inf,0,0,0,0,1,1,1,1,1,0,0,0,0,0,1
3828000,3828000,0,nan,nan,0.0004707515,0.000962737,-0.006500424,-6.300118e-08,1.5656e-08,0.0,0.0009642929,0.004484157,-0.020913135,-0.01610417,-1.0500196e-05,2.609333e-06,0.0017587617,0.008373317,0.018540885,0.020629724,1.6256863,0.005707331,nan,0.10674998,0.012923469,5.7735023,0.10261703,0.025002781,inf,inf,inf,inf,0,0,0,0,1,1,1,1,1,0,0,0,0,0,1
3836000,3836000,0,nan,nan,0.00046417664,0.0009817897,-0.0064936387,-6.300118e-08,1.5656e-08,0.0,0.00079634256,0.0046949703,-0.02038432,-0.015454277,-1.0500196e-05,2.609333e-06,0.0017587617,-0.013829034,0.042439714,-0.0078137955,1.6258237,0.005707331,nan,0.10670096,0.013538725,5.7735023,0.10695794,0.025670817,inf,inf,inf,inf,0,0,0,0,1,1,1,1,1,0,0,0,0,0,1
3844000,3844000,0,nan,nan,0.00045672024,0.0010021308,-0.006483615,-6.300118e-08,1.5656e-08,0.0,0.0007941444,0.004805349,-0.020117793,-0.015071671,-1.0500196e-05,2.609333e-06,0.0017587617,0.007487207,0.013436073,-0.03553461,1.6259524,0.005707331,nan,0.10664791,0.014216802,5.7735023,0.11134472,0.026337013,inf,inf,inf,inf,0,0,0,0,1,1,1,1,1,0,0,0,0,0,1
3852000,3852000,0,nan,nan,0.00044927822,0.001022781,-0.0064715873,-6.300118e-08,1.5656e-08,0.0,0.0008807497,0.004871325,-0.019825768,-0.014668445,-1.0500196e-05,2.609333e-06,0.0017587617,0.028305264,0.018192701,-0.01933053,1.6260746,0.005707331,nan,0.106591724,0.014956888,5.7735023,0.115779676,0.027001502,inf,inf,inf,inf,0,0,0,0,1,1,1,1,1,0,0,0,0,0,1
3860000,3860000,0,nan,nan,0.0004427923,0.0010439445,-0.006457216,-6.300118e-08,1.5656e-08,0.0,0.0009729447,0.0050040428,-0.01950189,-0.014238129,-1.0500196e-05,2.609333e-06,0.0017587617,0.0047737993,0.030624213,-0.020529142,1.6261827,0.005707331,nan,0.10653166,0.015757956,5.7735023,0.12026441,0.02766444,inf,inf,inf,inf,0,0,0,0,1,1,1,1,1,0,0,0,0,0,1
3868000,3868000,0,nan,nan,0.00043641945,0.0010653919,-0.006440683,-6.300118e-08,1.5656e-08,0.0,0.0010344177,0.0049336436,-0.019176992,-0.013811444,-1.0500196e-05,2.609333e-06,0.0017587617,0.024803462,-0.008753923,-0.015000812,1.6262645,0.005707331,nan,0.10646801,0.016618863,5.7735023,0.12479577,0.028325936,inf,inf,inf,inf,0,0,0,0,1,1,1,1,1,0,0,0,0,0,1
3876000,3876000,0,nan,nan,0.00043049396,0.0010861325,-0.006421902,-6.300118e-08,1.5656e-08,0.0,0.001029902,0.004934493,-0.018811088,-0.013348291,-1.0500196e-05,2.609333e-06,0.0017587617,-0.0031321105,0.016282123,-0.008785165,1.6263577,0.005707331,nan,0.10640144,0.017538387,5.7735023,0.12937412,0.02898609,inf,inf,inf,inf,0,0,0,0,1,1,1,1,1,0,0,0,0,0,1
3884000,3884000,0,nan,nan,0.00042415023,0.0011078072,-0.0064007733,-6.300118e-08,1.5656e-08,0.0,0.0009938367,0.005177097,-0.01842296,-0.012867341,-1.0500196e-05,2.609333e-06,0.0017587617,0.003910667,0.039705843,-0.004357658,1.6264454,0.005707331,nan,0.106331706,0.018515313,5.7735023,0.1340112,0.029645002,inf,inf,inf,inf,0,0,0,0,1,1,1,1,1,0,0,0,0,0,1
3892000,3892000,0,nan,nan,0.0004176677,0.0011305214,-0.0063777096,-6.300118e-08,1.5656e-08,0.0,0.0010100784,0.0051762643,-0.018185502,-0.0125413835,-1.0500196e-05,2.609333e-06,0.0017587617,0.010604664,-0.0031682283,-0.035103407,1.626513,0.005707331,nan,0.10625873,0.019548558,5.7735023,0.13870162,0.03030275,inf,inf,inf,inf,0,0,0,0,1,1,1,1,1,0,0,0,0,0,1
3900000,3900000,0,nan,nan,0.00041097496,0.0011523424,-0.0063542766,-6.300118e-08,1.5656e-08,0.0,0.00089753396,0.005074549,-0.018045584,-0.012317184,-1.0500196e-05,2.609333e-06,0.0017587617,-0.018654434,0.007572889,-0.031664964,1.6265897,0.005707331,nan,0.106184475,0.020637074,5.7735023,0.14344506,0.030959425,inf,inf,inf,inf,0,0,0,0,1,1,1,1,1,0,0,0,0,0,1
3908000,3908000,0,nan,nan,0.00040321928,0.0011745221,-0.006329776,-6.300118e-08,1.5656e-08,0.0,0.0008198591,0.005227687,-0.017607844,-0.01179928,-1.0500196e-05,2.609333e-06,0.0017587617,0.003404333,0.024911059,0.02078805,1.626668,0.005707331,nan,0.10610933,0.0217799,5.7735023,0.14823739,0.03161508,inf,inf,inf,inf,0,0,0,0,1,1,1,1,1,0,0,0,0,0,1
3916000,3916000,0,nan,nan,0.00039430964,0.0011977908,-0.00630238,-6.300118e-08,1.5656e-08,0.0,0.0005252501,0.005354253,-0.017161386,-0.01127667,-1.0500196e-05,2.609333e-06,0.0017587617,-0.044759985,0.01967432,-0.007655471,1.62672,0.005707331,nan,0.10603185,0.022976153,5.7735023,0.15309298,0.03226981,inf,inf,inf,inf,0,0,0,0,1,1,1,1,1,0,0,0,0,0,1
3924000,3924000,0,nan,nan,0.000383504,0.0012218772,-0.0062737092,-6.300118e-08,1.5656e-08,0.0,0.00047488802,0.005511044,-0.016897136,-0.010940181,-1.0500196e-05,2.609333e-06,0.0017587617,0.019001104,0.040169135,-0.0082412725,1.6267645,0.005707331,nan,0.10595226,0.024225142,5.7735023,0.15802011,0.032923643,inf,inf,inf,inf,0,0,0,0,1,1,1,1,1,0,0,0,0,0,1
3932000,3932000,0,nan,nan,0.00037310758,0.0012475054,-0.0062439768,-6.300118e-08,1.5656e-08,0.0,0.0004751224,0.005639043,-0.01658507,-0.010559693,-1.0500196e-05,2.609333e-06,0.0017587617,-0.010487506,0.009961062,-0.0058142464,1.6267949,0.005707331,nan,0.10586995,0.02552635,5.7735023,0.1630075,0.033576645,inf,inf,inf,inf,0,0,0,0,1,1,1,1,1,0,0,0,0,0,1
3940000,3940000,0,nan,nan,0.0003615146,0.0012733692,-0.00621282,-6.300118e-08,1.5656e-08,0.0,0.00026211108,0.005642158,-0.016193816,-0.010103734,-1.0500196e-05,2.609333e-06,0.0017587617,-0.013074691,0.012317118,0.0038975847,1.6268195,0.005707331,nan,0.105784886,0.026879275,5.7735023,0.16805619,0.034228876,inf,inf,inf,inf,0,0,0,0,1,1,1,1,1,0,0,0,0,0,1
3948000,3948000,0,nan,nan,0.00034918965,0.0013001419,-0.0061803963,-6.300118e-08,1.5656e-08,0.0,0.00021207366,0.005828661,-0.015904974,-0.009753813,-1.0500196e-05,2.609333e-06,0.0017587617,-0.008549977,0.02643118,-0.009926035,1.6268312,0.005707331,nan,0.10569747,0.028283505,5.7735023,0.17316887,0.034880362,inf,inf,inf,inf,0,0,0,0,1,1,1,1,1,0,0,0,0,0,1
3956000,3956000,0,nan,nan,0.00033607954,0.0013277425,-0.006148316,-6.300118e-08,1.5656e-08,0.0,0.00011547058,0.005884958,-0.015931083,-0.009722373,-1.0500196e-05,2.609333e-06,0.0017587617,0.0024315666,0.021359794,-0.05883537,1.6268365,0.005707331,nan,0.10560958,0.029738732,5.7735033,0.17834494,0.03553117,inf,inf,inf,inf,0,0,0,0,1,1,1,1,1,0,0,0,0,0,1
3964000,3964000,0,nan,nan,0.00032341314,0.0013567742,-0.0061179465,-6.300118e-08,1.5656e-08,0.0,0.00025673184,0.006131781,-0.015798725,-0.009535909,-1.0500196e-05,2.609333e-06,0.0017587617,0.021157319,0.034600362,-0.006540678,1.6268487,0.005707331,nan,0.10552295,0.031244723,5.773504,0.18358657,0.036181364,inf,inf,inf,inf,0,0,0,0,1,1,1,1,1,0,0,0,0,0,1
3972000,3972000,0,nan,nan,0.00031123275,0.0013873489,-0.0060867514,-6.300118e-08,1.5656e-08,0.0,0.00017605485,0.00627211,-0.0153846145,-0.009071044,-1.0500196e-05,2.609333e-06,0.0017587617,-0.015494281,0.025345434,0.008233822,1.6268547,0.005707331,nan,0.105434634,0.03280133,5.7735047,0.1889037,0.03683092,inf,inf,inf,inf,0,0,0,0,1,1,1,1,1,0,0,0,0,0,1
3980000,3980000,0,nan,nan,0.00029817305,0.0014195333,-0.006054749,-6.300118e-08,1.5656e-08,0.0,6.7652545e-05,0.006496387,-0.015135312,-0.008774251,-1.0500196e-05,2.609333e-06,0.0017587617,-0.004660702,0.031603657,-0.0056726853,1.6268528,0.005707331,nan,0.105343744,0.034408536,5.773505,0.19429511,0.037479896,inf,inf,inf,inf,0,0,0,0,1,1,1,1,1,0,0,0,0,0,1
3988000,3988000,0,nan,nan,0.0002881137,0.0014401326,-0.0060158134,-6.300118e-08,1.5656e-08,0.0,0.00013446747,0.0065579317,-0.014735444,-0.008324004,-1.0500196e-05,2.609333e-06,0.0017587617,0.016258577,0.022146616,0.011353753,1.6268781,0.005707331,nan,0.10543487,0.01316614,5.000002,0.09426963,0.03812813,inf,inf,inf,inf,0,0,0,0,1,1,1,1,1,0,0,0,0,0,1
3996000,3996000,0,nan,nan,0.0002790939,0.001460544,-0.0059767235,-6.300118e-08,1.5656e-08,0.0,0.00024458033,0.0064638713,-0.014585694,-0.008127185,-1.0500196e-05,2.609333e-06,0.0017587617,0.011310301,0.001826338,-0.019039957,1.6268731,0.005707331,nan,0.10533646,0.013800311,5.0000024,0.09748679,0.038776066,inf,inf,inf,inf,0,0,0,0,1,1,1,1,1,0,0,0,0,0,1
4004000,4004000,0,nan,nan,0.00027108032,0.0014811417,-0.005937943,-6.300118e-08,1.5656e-08,0.0,0.0003822887,0.0066208667,-0.014283343,-0.0077809864,-1.0500196e-05,2.609333e-06,0.0017587617,0.02596469,0.033637304,0.0037001444,1.6268526,0.005707331,nan,0.105238214,0.0144737465,5.000003,0.10079831,0.039423518,inf,inf,inf,inf,0,0,0,0,1,1,1,1,1,0,0,0,0,0,1
4012000,4012000,0,nan,nan,0.00026470106,0.0015021662,-0.0058993497,-6.300118e-08,1.5656e-08,0.0,0.00055292284,0.0065643904,-0.014122348,-0.0075792787,-1.0500196e-05,2.609333e-06,0.0017587617,0.016629376,0.0011710798,-0.017533077,1.6268398,0.005707331,nan,0.105139546,0.015186225,5.0000033,0.104197316,0.040070515,inf,inf,inf,inf,0,0,0,0,1,1,1,1,1,0,0,0,0,0,1
4020000,4020000,0,nan,nan,0.00025946833,0.0015213959,-0.00585998,-6.300118e-08,1.5656e-08,0.0,0.0006454468,0.0064670015,-0.013913166,-0.007329853,-1.0500196e-05,2.609333e-06,0.0017587617,0.0156183075,0.013872354,-0.00034458932,1.6268401,0.005707331,nan,0.105091915,0.015264791,5.0000033,0.10063677,0.039898627,inf,inf,inf,inf,0,0,0,0,1,1,1,1,1,0,0,0,0,0,1
4028000,4028000,0,nan,nan,0.00025527237,0.0015414578,-0.0058202306,-6.300118e-08,1.5656e-08,0.0,0.00072508404,0.006750949,-0.013554487,-0.0069339657,-1.0500196e-05,2.609333e-06,0.0017587617,0.005321446,0.050494604,0.0033155081,1.6268418,0.005707331,nan,0.10499446,0.015986029,5.000004,0.10399921,0.040536705,inf,inf,inf,inf,0,0,0,0,1,1,1,1,1,0,0,0,0,0,1
4036000,4036000,0,nan,nan,0.00025128893,0.0015635692,-0.005780733,-6.300118e-08,1.5656e-08,0.0,0.00065883406,0.007023753,-0.013406776,-0.0067519965,-1.0500196e-05,2.609333e-06,0.0017587617,-0.008733127,0.05497818,-0.015882773,1.6268346,0.005707331,nan,0.10489568,0.016743587,5.0000043,0.107466206,0.041174375,inf,inf,inf,inf,0,0,0,0,1,1,1,1,1,0,0,0,0,0,1
4044000,4044000,0,nan,nan,0.00024680875,0.001588187,-0.005742334,-6.300118e-08,1.5656e-08,0.0,0.00055005867,0.0073194127,-0.013256222,-0.006570054,-1.0500196e-05,2.609333e-06,0.0017587617,-0.012543357,0.03778857,-0.007885507,1.6268457,0.005707331,nan,0.10479586,0.017537626,5.000005,0.11102041,0.041811656,inf,inf,inf,inf,0,0,0,0,1,1,1,1,1,0,0,0,0,0,1
4052000,4052000,0,nan,nan,0.00024210155,0.001613729,-0.00570489,-6.300118e-08,1.5656e-08,0.0,0.00056546956,0.0073453803,-0.013149981,-0.0064352164,-1.0500196e-05,2.609333e-06,0.0017587617,0.008182599,0.021350743,-0.026960855,1.626853,0.005707331,nan,0.1046967,0.018368263,5.0000057,0.1146567,0.042448577,inf,inf,inf,inf,0,1,0,1,1,1,1,1,1,0,0,0,0,0,1
4060000,4060000,0,nan,nan,0.00023852887,0.0016389514,-0.005670013,-6.300118e-08,1.5656e-08,0.0,0.00075138843,0.007196757,-0.013309739,-0.0065690884,-1.0500196e-05,2.609333e-06,0.0017587617,0.024121908,-0.016645731,-0.051454637,1.6268455,0.005707331,nan,0.104600355,0.019235639,5.000006,0.11839477,0.043085154,inf,inf,inf,inf,0,1,0,1,1,1,1,1,1,0,0,0,0,0,1
4068000,4068000,0,nan,nan,0.0002362038,0.0016634134,-0.0056383205,-6.300118e-08,1.5656e-08,0.0,0.0007969207,0.0073194737,-0.013380269,-0.0066163703,-1.0500196e-05,2.609333e-06,0.0017587617,0.0020449369,0.052847285,-0.03804266,1.6268449,0.005707331,nan,0.10450746,0.020140039,5.000007,0.12222157,0.043721396,inf,inf,inf,inf,0,1,0,1,1,1,1,1,1,0,0,0,0,0,1
4076000,4076000,0,nan,nan,0.0002339796,0.001690346,-0.0056091975,-6.300118e-08,1.5656e-08,0.0,0.00074244884,0.0076813204,-0.013371001,-0.006586417,-1.0500196e-05,2.609333e-06,0.0017587617,-0.003687266,0.044920173,-0.02266932,1.6268644,0.005707331,nan,0.10441706,0.021081733,5.0000076,0.12615609,0.044357315,inf,inf,inf,inf,0,1,0,1,1,1,1,1,1,0,0,0,0,0,1
4084000,4084000,0,nan,nan,0.00023234852,0.0017187609,-0.0055823186,-6.300118e-08,1.5656e-08,0.0,0.0008892292,0.0077638514,-0.013408854,-0.0066060736,-1.0500196e-05,2.609333e-06,0.0017587617,0.023121566,0.02513641,-0.035727393,1.6268678,0.005707331,nan,0.10432852,0.02206113,5.0000086,0.13018033,0.044992954,inf,inf,inf,inf,0,1,0,1,1,1,1,1,1,0,0,0,0,0,1
4092000,4092000,0,nan,nan,0.00023232239,0.0017482747,-0.005558245,-6.300118e-08,1.5656e-08,0.0,0.0010656966,0.007960738,-0.013486993,-0.006668433,-1.0500196e-05,2.609333e-06,0.0017587617,0.022492968,0.038249504,-0.035298984,1.6268667,0.005707331,nan,0.1042425,0.023078585,5.0000095,0.13430896,0.045628294,inf,inf,inf,inf,0,1,0,1,1,1,1,1,1,0,0,0,0,0,1
4100000,4100000,0,nan,nan,0.00023376736,0.0017790634,-0.005536726,-6.300118e-08,1.5656e-08,0.0,0.0011639369,0.008079884,-0.013458781,-0.00662679,-1.0500196e-05,2.609333e-06,0.0017587617,0.0048016077,0.027175177,-0.015438533,1.6268507,0.005707331,nan,0.10415842,0.024134574,5.00001,0.1385337,0.04626337,inf,inf,inf,inf,0,1,0,1,1,1,1,1,1,0,0,0,0,0,1
4108000,4108000,0,nan,nan,0.00023526738,0.0018106357,-0.0058570136,-6.300118e-08,1.5656e-08,0.0,0.0010277014,0.008136565,-0.013264481,-0.0067607164,-1.0500196e-05,2.609333e-06,0.0017587617,-0.022475751,0.014533899,0.004199333,1.6268543,0.005707331,nan,0.1,0.02522956,2.8673136,0.14284916,0.046898145,inf,inf,inf,inf,0,1,0,1,1,1,1,1,1,0,0,0,0,0,1
4116000,4116000,0,nan,nan,0.00023518268,0.0018423129,-0.006168134,-6.300118e-08,1.5656e-08,0.0,0.000749199,0.008112877,-0.013132592,-0.006947246,-1.0500196e-05,2.609333e-06,0.0017587617,-0.029921647,0.0077403816,-0.021158716,1.6268667,0.005707331,nan,0.1,0.026364002,2.8673143,0.14727464,0.047532756,inf,inf,inf,inf,0,1,0,1,1,1,1,1,1,0,0,0,0,0,1
4124000,4124000,0,nan,nan,0.00023446651,0.001873488,-0.006471983,-6.300118e-08,1.5656e-08,0.0,0.0008180821,0.008040487,-0.013191927,-0.007315465,-1.0500196e-05,2.609333e-06,0.0017587617,0.015433222,0.011833588,-0.024892388,1.6268717,0.005707331,nan,0.1,0.027538506,2.8673148,0.15179928,0.048167143,inf,inf,inf,inf,0,1,0,1,1,1,1,1,1,0,0,0,0,0,1
4132000,4132000,0,nan,nan,0.00023507926,0.0019051832,-0.0067686248,-6.300118e-08,1.5656e-08,0.0,0.0010157394,0.008171596,-0.01310468,-0.007527833,-1.0500196e-05,2.609333e-06,0.0017587617,0.029982895,0.023290863,-0.011048279,1.6268431,0.005707331,nan,0.1,0.028753646,2.8673155,0.15642618,0.048801284,inf,inf,inf,inf,0,1,0,1,1,1,1,1,1,0,0,0,0,0,1
4140000,4140000,0,nan,nan,0.00023703041,0.0019372902,-0.0070573683,-6.300118e-08,1.5656e-08,0.0,0.0010246267,0.008142447,-0.012928926,-0.0076426854,-1.0500196e-05,2.609333e-06,0.0017587617,-0.011126103,0.007503593,-0.0049229707,1.6268128,0.005707331,nan,0.1,0.03001003,2.8673162,0.16116884,0.049435195,inf,inf,inf,inf,0,1,0,1,1,1,1,1,1,0,0,0,0,0,1
4148000,4148000,0,nan,nan,0.00023865244,0.001969412,-0.0073390515,-6.300118e-08,1.5656e-08,0.0,0.00093638187,0.008138059,-0.01292168,-0.007917288,-1.0500196e-05,2.609333e-06,0.0017587617,-0.008395217,0.00805626,-0.014342367,1.6267602,0.005707331,nan,0.1,0.03130838,2.867317,0.1660069,0.050068937,inf,inf,inf,inf,0,1,0,1,1,1,1,1,1,0,0,0,0,0,1
4156000,4156000,0,nan,nan,0.00024047222,0.002001589,-0.0076133367,-6.300118e-08,1.5656e-08,0.0,0.0010163351,0.008155879,-0.012670715,-0.007939662,-1.0500196e-05,2.609333e-06,0.0017587617,0.012340183,0.017365659,0.01033116,1.6267366,0.005707331,nan,0.1,0.03264931,2.8673182,0.17094082,0.050702523,inf,inf,inf,inf,0,1,0,1,1,1,1,1,1,0,0,0,0,0,1
4164000,4164000,0,nan,nan,0.0002429294,0.0020344292,-0.007880694,-6.300118e-08,1.5656e-08,0.0,0.0010226781,0.00825334,-0.012749076,-0.008283086,-1.0500196e-05,2.609333e-06,0.0017587617,-0.0011657393,0.02291583,-0.043582167,1.6267204,0.005707331,nan,0.1,0.034033448,2.867319,0.17597866,0.051335897,inf,inf,inf,inf,0,1,0,1,1,1,1,1,1,0,0,0,0,0,1
4172000,4172000,0,nan,nan,0.00024569666,0.0020678595,-0.0094139,-6.300118e-08,1.5656e-08,0.0,0.0010775187,0.008279729,-0.012832385,-0.009890004,-1.0500196e-05,2.609333e-06,0.0017587617,0.0143694915,0.017383164,-0.020571982,1.626683,0.005707331,nan,0.1,0.0354615,2.2180388,0.18112025,0.051969063,inf,inf,inf,inf,0,1,0,1,1,1,1,1,1,0,0,0,0,0,1
4180000,4180000,0,nan,nan,0.00024907585,0.0021019143,-0.010904771,-6.300118e-08,1.5656e-08,0.0,0.0010562924,0.008340744,-0.012795605,-0.0113241095,-1.0500196e-05,2.609333e-06,0.0017587617,-0.01193839,0.014844132,-0.017444601,1.6266457,0.005707331,nan,0.1,0.036934182,2.2180395,0.18635605,0.05260211,inf,inf,inf,inf,0,1,0,1,1,1,1,1,1,0,0,0,0,0,1
4188000,4188000,0,nan,nan,0.00025224846,0.002136869,-0.0123545695,-6.300118e-08,1.5656e-08,0.0,0.0010076325,0.00850605,-0.012808408,-0.01275656,-1.0500196e-05,2.609333e-06,0.0017587617,-0.007079972,0.039386038,-0.01783855,1.6266055,0.005707331,nan,0.1,0.03845215,2.2180405,0.19168173,0.05323498,inf,inf,inf,inf,0,1,0,1,1,1,1,1,1,0,0,0,0,0,1
4196000,4196000,0,nan,nan,0.0002521634,0.0021540215,-0.013764611,-6.300118e-08,1.5656e-08,0.0,0.00087385747,0.0084592765,-0.012834334,-0.014152367,-1.0500196e-05,2.609333e-06,0.0017587617,-0.0094795395,0.0013272801,-0.024745239,1.6265731,0.005707331,nan,0.1,0.01333393,2.2180417,0.09541023,0.05386739,inf,inf,inf,inf,0,1,0,1,1,1,1,1,1,0,0,0,0,0,1
4204000,4204000,0,nan,nan,0.00025247972,0.0021705236,-0.015135566,-6.300118e-08,1.5656e-08,0.0,0.0010705154,0.008418637,-0.012622523,-0.015262057,-1.0500196e-05,2.609333e-06,0.0017587617,0.033707444,0.024699504,0.024684703,1.6264962,0.005707331,nan,0.1,0.013883892,2.2180429,0.09932633,0.054499947,inf,inf,inf,inf,0,1,0,1,1,1,1,1,1,0,0,0,0,0,1
4212000,4212000,0,nan,nan,0.00025437056,0.0021867775,-0.016466836,-6.300118e-08,1.5656e-08,0.0,0.0011509216,0.008322889,-0.0124032535,-0.01631728,-1.0500196e-05,2.609333e-06,0.0017587617,0.0008293427,0.0027661442,-0.0027325002,1.6264211,0.005707331,nan,0.1,0.014476787,2.218044,0.10333493,0.055132385,inf,inf,inf,inf,0,1,0,1,1,1,1,1,1,0,0,0,0,0,1
4220000,4220000,0,nan,nan,0.00025684945,0.0022022421,-0.017760845,-6.300118e-08,1.5656e-08,0.0,0.0012687976,0.008232551,-0.012344452,-0.017487299,-1.0500196e-05,2.609333e-06,0.0017587617,0.028167441,0.010098534,-0.007914378,1.6263585,0.005707331,nan,0.1,0.015113529,2.2180457,0.107437864,0.055764686,inf,inf,inf,inf,0,1,0,1,1,1,1,1,1,0,0,0,0,0,1
4228000,4228000,0,nan,nan,0.00026019607,0.0022162017,-0.019078752,-6.300118e-08,1.5656e-08,0.0,0.0012793911,0.0082324315,-0.012125079,-0.018510005,-1.0500196e-05,2.609333e-06,0.0017587617,-0.016405988,0.027320782,0.013338401,1.6262745,0.005707331,nan,0.1,0.015216192,1.8735139,0.10385112,0.054279994,inf,inf,inf,inf,0,1,0,1,1,1,1,1,1,0,0,0,0,0,1
4236000,4236000,0,nan,nan,0.00026271405,0.0022301336,-0.020359114,-6.300118e-08,1.5656e-08,0.0,0.0011615461,0.008163339,-0.012069546,-0.019651342,-1.0500196e-05,2.609333e-06,0.0017587617,0.0010153452,0.00379089,-0.023110768,1.6261926,0.005707331,nan,0.1,0.015869888,1.8735152,0.1078596,0.054894682,inf,inf,inf,inf,0,1,0,1,1,1,1,1,1,0,0,0,0,0,1
4244000,4244000,0,nan,nan,0.00026579393,0.0022434152,-0.021604504,-6.300118e-08,1.5656e-08,0.0,0.0013414222,0.008121043,-0.012111664,-0.020846417,-1.0500196e-05,2.609333e-06,0.0017587617,0.026539229,0.020452337,-0.023303552,1.6261028,0.005707331,nan,0.1,0.016565952,1.8735167,0.11198112,0.055509247,inf,inf,inf,inf,0,1,0,1,1,1,1,1,1,0,0,0,0,0,1
4252000,4252000,0,nan,nan,0.0002702508,0.002256267,-0.022816556,-6.300118e-08,1.5656e-08,0.0,0.0014444436,0.008023741,-0.012231729,-0.022076782,-1.0500196e-05,2.609333e-06,0.0017587617,0.009390234,0.006168047,-0.027475877,1.6260278,0.005707331,nan,0.1,0.01730519,1.8735183,0.116196744,0.05612369,inf,inf,inf,inf,0,1,0,1,1,1,1,1,1,0,0,0,0,0,1
4260000,4260000,0,nan,nan,0.00027527736,0.0022681684,-0.023995318,-6.300118e-08,1.5656e-08,0.0,0.0014854526,0.007888277,-0.012083999,-0.022997918,-1.0500196e-05,2.609333e-06,0.0017587617,0.008860122,0.0029708606,-0.0011166557,1.6259438,0.005707331,nan,0.1,0.018088264,1.87352,0.12049813,0.05673802,inf,inf,inf,inf,0,1,0,1,1,1,1,1,1,0,0,0,0,0,1
4268000,4268000,0,nan,nan,0.00028027897,0.0022791564,-0.0251413,-6.300118e-08,1.5656e-08,0.0,0.0013813964,0.0078092213,-0.01203645,-0.023978993,-1.0500196e-05,2.609333e-06,0.0017587617,-0.016744219,0.014575212,-0.008392147,1.6258471,0.005707331,nan,0.1,0.018915744,1.8735219,0.12489488,0.05735224,inf,inf,inf,inf,0,1,0,1,1,1,1,1,1,0,0,0,0,0,1
4276000,4276000,0,nan,nan,0.00028512237,0.002290279,-0.026256297,-6.300118e-08,1.5656e-08,0.0,0.0014737659,0.007915514,-0.012146367,-0.025078453,-1.0500196e-05,2.609333e-06,0.0017587617,0.021248573,0.0360175,-0.03458559,1.6257234,0.005707331,nan,0.1,0.019788207,1.8735241,0.12938426,0.05796635,inf,inf,inf,inf,0,1,0,1,1,1,1,1,1,0,0,0,0,0,1
4284000,4284000,0,nan,nan,0.0002912538,0.0023017947,-0.027341157,-6.300118e-08,1.5656e-08,0.0,0.0016532957,0.007861221,-0.012031551,-0.025915226,-1.0500196e-05,2.609333e-06,0.0017587617,0.02592332,0.0062431204,-0.00041164455,1.6256065,0.005707331,nan,0.1,0.02070617,1.8735262,0.13394965,0.058580365,inf,inf,inf,inf,0,1,0,1,1,1,1,1,1,0,0,0,0,0,1
4292000,4292000,0,nan,nan,0.00029885865,0.002313447,-0.028863858,-6.300118e-08,1.5656e-08,0.0,0.0018049398,0.007997067,-0.0121883685,-0.02745229,-1.0500196e-05,2.609333e-06,0.0017587617,0.018638732,0.044542275,-0.035419125,1.6254985,0.005707331,nan,0.1,0.021670042,1.6517669,0.13860491,0.059194125,inf,inf,inf,inf,0,1,0,1,1,1,1,1,1,0,0,0,0,0,1
4300000,4300000,0,nan,nan,0.00030772123,0.0023257716,-0.03034546,-6.300118e-08,1.5656e-08,0.0,0.0019302452,0.007941532,-0.01222857,-0.028820446,-1.0500196e-05,2.609333e-06,0.0017587617,0.012007337,0.0028249777,-0.017327255,1.6254109,0.005707331,nan,0.1,0.022680277,1.6517692,0.143361,0.05980794,inf,inf,inf,inf,0,1,0,1,1,1,1,1,1,0,0,0,0,0,1
4308000,4308000,0,nan,nan,0.00031598774,0.0023378986,-0.031787153,-6.300118e-08,1.5656e-08,0.0,0.0016269919,0.007991601,-0.012430159,-0.030299205,-1.0500196e-05,2.609333e-06,0.0017587617,-0.043991994,0.032598864,-0.047496516,1.6253026,0.005707331,nan,0.1,0.02373739,1.6517715,0.1481975,0.060421683,inf,inf,inf,inf,0,1,0,1,1,1,1,1,1,0,0,0,0,0,1
4316000,4316000,0,nan,nan,0.00032206601,0.00235085,-0.03319071,-6.300118e-08,1.5656e-08,0.0,0.0014116094,0.008076399,-0.012516955,-0.03161387,-1.0500196e-05,2.609333e-06,0.0017587617,-0.020133898,0.025659842,-0.019576399,1.6251941,0.005707331,nan,0.1,0.024841763,1.6517742,0.15313503,0.06103533,inf,inf,inf,inf,0,1,0,1,1,1,1,1,1,0,0,0,0,0,1
4324000,4324000,0,nan,nan,0.00032695755,0.0023638827,-0.034556232,-6.300118e-08,1.5656e-08,0.0,0.0012980868,0.008000758,-0.012502981,-0.0327799,-1.0500196e-05,2.609333e-06,0.0017587617,-0.0102007175,0.0111719845,-0.0052740793,1.6251234,0.005707331,nan,0.1,0.025993906,1.651777,0.15816876,0.0616489,inf,inf,inf,inf,0,1,0,1,1,1,1,1,1,0,0,0,0,0,1
4332000,4332000,0,nan,nan,0.00033130916,0.0023771783,-0.035883754,-6.300118e-08,1.5656e-08,0.0,0.001268235,0.00808998,-0.012356496,-0.033766933,-1.0500196e-05,2.609333e-06,0.0017587617,0.0030549853,0.028253226,0.0026822088,1.6250502,0.005707331,nan,0.1,0.027194304,1.65178,0.163297,0.062262397,inf,inf,inf,inf,0,1,0,1,1,1,1,1,1,0,0,0,0,0,1
4340000,4340000,0,nan,nan,0.00033605736,0.0023915083,-0.037174355,-6.300118e-08,1.5656e-08,0.0,0.0013617572,0.008232497,-0.012295037,-0.034793857,-1.0500196e-05,2.609333e-06,0.0017587617,0.014590564,0.03867343,-0.0063320617,1.6249752,0.005707331,nan,0.1,0.028443435,1.6517832,0.16849414,0.062875815,inf,inf,inf,inf,0,1,0,1,1,1,1,1,1,0,0,0,0,0,1
4348000,4348000,0,nan,nan,0.00034158627,0.0024072747,-0.03842097,-6.300118e-08,1.5656e-08,0.0,0.0014175435,0.008367738,-0.01227522,-0.035810012,-1.0500196e-05,2.609333e-06,0.0017587617,0.0031050583,0.029876025,-0.010277144,1.6249248,0.005707331,nan,0.1,0.029741626,1.4937891,0.17378674,0.06348892,inf,inf,inf,inf,0,1,0,1,1,1,1,1,1,0,0,0,0,0,1
4356000,4356000,0,nan,nan,0.0003469742,0.0024230182,-0.039634276,-6.300118e-08,1.5656e-08,0.0,0.0013294014,0.008150257,-0.0124320835,-0.036960617,-1.0500196e-05,2.609333e-06,0.0017587617,-0.009105904,-0.019587371,-0.037994232,1.6248616,0.005707331,nan,0.1,0.031089371,1.4937924,0.17917933,0.064102225,inf,inf,inf,inf,0,1,0,1,1,1,1,1,1,0,0,0,0,0,1
4364000,4364000,0,nan,nan,0.00035188085,0.0024373676,-0.040815126,-6.300118e-08,1.5656e-08,0.0,0.0012964556,0.008025011,-0.012266847,-0.037748124,-1.0500196e-05,2.609333e-06,0.0017587617,0.0023856116,0.008231741,0.024085863,1.6248106,0.005707331,nan,0.1,0.03248721,1.4937959,0.18464239,0.06471545,inf,inf,inf,inf,0,1,0,1,1,1,1,1,1,0,0,0,0,0,1
4372000,4372000,0,nan,nan,0.0003568457,0.002450988,-0.041962475,-6.300118e-08,1.5656e-08,0.0,0.0012794158,0.007858809,-0.012104458,-0.03849869,-1.0500196e-05,2.609333e-06,0.0017587617,-0.007152179,-0.0075063286,-0.0003473833,1.6247783,0.005707331,nan,0.1,0.033935484,1.4937997,0.1902141,0.065328635,inf,inf,inf,inf,0,1,0,1,1,1,1,1,1,0,0,0,0,0,1
4380000,4380000,0,nan,nan,0.00036099253,0.0024645173,-0.04307883,-6.300118e-08,1.5656e-08,0.0,0.0011078067,0.008009372,-0.01220757,-0.03947613,-1.0500196e-05,2.609333e-06,0.0017587617,-0.018044826,0.051351085,-0.026565043,1.6247492,0.005707331,nan,0.1,0.035434823,1.4938036,0.19586393,0.06594174,inf,inf,inf,inf,0,1,0,1,1,1,1,1,1,0,0,0,0,0,1
4388000,4388000,0,nan,nan,0.00036465732,0.0024798866,-0.0441653,-6.300118e-08,1.5656e-08,0.0,0.0011647532,0.008136391,-0.012059903,-0.040165313,-1.0500196e-05,2.609333e-06,0.0017587617,0.016372053,0.02217083,0.020152887,1.6247164,0.005707331,nan,0.1,0.036985647,1.4938079,0.20161368,0.06655479,inf,inf,inf,inf,0,1,0,1,1,1,1,1,1,0,0,0,0,0,1
4396000,4396000,4392000,47.3977508,8.5456073,0.00036931236,0.002496398,-0.04522123,-6.300118e-08,1.5656e-08,0.0,0.0013046041,0.008250991,-0.011936881,-0.040842768,-1.0500196e-05,2.609333e-06,0.0017587617,0.018832782,0.03002757,-0.007065944,1.6246815,0.005707331,488.0305,0.1,0.038588528,1.4938123,0.2074411,0.067167796,inf,inf,inf,inf,0,1,0,1,1,1,1,1,1,0,1,1,0,0,1
4404000,4404000,4392000,47.3977508,8.5456073,0.00036953404,0.0024962132,-0.046249088,-6.300118e-08,1.5656e-08,0.0,0.0013475426,0.008329031,-0.012041044,-0.04171214,-1.0500196e-05,2.609333e-06,0.0017587617,0.005261201,0.042880505,-0.022494232,1.6246693,0.005707331,488.0305,0.1,0.013342295,1.4938171,0.10299587,0.067780614,inf,inf,inf,inf,0,1,0,1,1,1,1,1,1,0,1,1,0,0,1
4412000,4412000,4392000,47.3977508,8.5456073,0.0003695031,0.0024970474,-0.046171773,-6.300118e-08,1.5656e-08,0.0,0.001264174,0.00840012,-0.011924123,-0.0412518,-1.0500196e-05,2.609333e-06,0.0017587617,-0.0038425347,0.026207838,0.00693649,1.6246821,0.005707331,488.0305,0.10893424,0.013923554,1.3739157,0.10672643,0.068393104,inf,inf,inf,inf,0,1,0,1,1,1,1,1,1,0,1,1,0,0,1
4420000,4420000,4392000,47.3977508,8.5456073,0.000369328,0.002498453,-0.046099108,-6.300118e-08,1.5656e-08,0.0,0.001304073,0.008473753,-0.012079454,-0.041068587,-1.0500196e-05,2.609333e-06,0.0017587617,0.010373565,0.038261376,-0.033108514,1.6246908,0.005707331,488.0305,0.10876678,0.0145522235,1.3739206,0.11052584,0.06900596,inf,inf,inf,inf,0,1,0,1,1,1,1,1,1,0,1,1,0,0,1
4428000,4428000,4392000,47.3977508,8.5456073,0.00036984327,0.002500452,-0.046031676,-6.300118e-08,1.5656e-08,0.0,0.0014728495,0.008463571,-0.012073143,-0.040728524,-1.0500196e-05,2.609333e-06,0.0017587617,0.035752393,0.018076854,-0.003087334,1.6247078,0.005707331,488.0305,0.1086041,0.015228312,1.3739257,0.11439141,0.06961877,inf,inf,inf,inf,0,1,0,1,1,1,1,1,1,0,1,1,0,0,1
4436000,4436000,4392000,47.3977508,8.5456073,0.00037203438,0.0025013657,-0.045960646,-6.300118e-08,1.5656e-08,0.0,0.0016637578,0.008351106,-0.012036931,-0.040351316,-1.0500196e-05,2.609333e-06,0.0017587617,0.020353109,0.013412223,-0.014179385,1.6247075,0.005707331,488.0305,0.10868049,0.015276269,1.3739246,0.10916247,0.06626465,inf,inf,inf,inf,0,1,0,1,1,1,1,1,1,0,1,1,0,0,1
4444000,4444000,4392000,47.3977508,8.5456073,0.0003749061,0.0025019846,-0.045893725,-6.300118e-08,1.5656e-08,0.0,0.0016760103,0.0083497325,-0.012041956,-0.04002031,-1.0500196e-05,2.609333e-06,0.0017587617,0.0062760804,0.027813233,-0.013979151,1.6247193,0.005707331,488.0305,0.108527094,0.015962187,1.3739297,0.112850174,0.06685022,inf,inf,inf,inf,0,1,0,1,1,1,1,1,1,0,1,1,0,0,1
4452000,4452000,4392000,47.3977508,8.5456073,0.00037739403,0.002502941,-0.045830835,-6.300118e-08,1.5656e-08,0.0,0.0015211502,0.008393431,-0.01200344,-0.039650638,-1.0500196e-05,2.609333e-06,0.0017587617,-0.02682158,0.03352269,-0.0023916361,1.6247334,0.005707331,488.0305,0.10837844,0.016691413,1.3739351,0.11659749,0.06743575,inf,inf,inf,inf,0,1,0,1,1,1,1,1,1,0,1,1,0,0,1
4460000,4460000,4392000,47.3977508,8.5456073,0.00037804115,0.0025038025,-0.045770977,-6.300118e-08,1.5656e-08,0.0,0.0013096501,0.008196269,-0.011873542,-0.03919438,-1.0500196e-05,2.609333e-06,0.0017587617,-0.010878575,-0.017447425,-0.006838701,1.6247599,0.005707331,488.0305,0.10823247,0.01746387,1.3739407,0.12041873,0.06802124,inf,inf,inf,inf,0,1,0,1,1,1,1,1,1,0,1,1,0,0,1
4468000,4468000,4392000,47.3977508,8.5456073,0.00037793012,0.0025032258,-0.045446508,-6.300118e-08,1.5656e-08,0.0,0.0012768401,0.008118259,-0.01193106,-0.038662683,-1.0500196e-05,2.609333e-06,0.0017587617,-0.0026581255,0.029556874,-0.016228294,1.6247829,0.005707331,488.0305,0.11618263,0.018279526,1.2789339,0.1242851,0.06860618,inf,inf,inf,inf,0,1,0,1,1,1,1,1,1,0,1,1,0,0,1
4476000,4476000,4392000,47.3977508,8.5456073,0.00037740995,0.0025027075,-0.045133952,-6.300118e-08,1.5656e-08,0.0,0.0012588811,0.008078916,-0.011989454,-0.038145985,-1.0500196e-05,2.609333e-06,0.0017587617,0.0111904945,0.013276046,-0.022257676,1.6248162,0.005707331,488.0305,0.11578414,0.019138182,1.2789397,0.12821165,0.069191575,inf,inf,inf,inf,0,1,0,1,1,1,1,1,1,0,1,1,0,0,1
4484000,4484000,4392000,47.3977508,8.5456073,0.00037747048,0.0025020351,-0.044832744,-6.300118e-08,1.5656e-08,0.0,0.0013837205,0.008058558,-0.011941337,-0.037536558,-1.0500196e-05,2.609333e-06,0.0017587617,0.018292513,0.022399645,-0.0038454307,1.6248232,0.005707331,488.0305,0.11539652,0.020039707,1.2789458,0.13220999,0.06977694,inf,inf,inf,inf,0,1,0,1,1,1,1,1,1,0,1,1,0,0,1
4492000,4492000,4392000,47.3977508,8.5456073,0.00037825352,0.0025008828,-0.044542275,-6.300118e-08,1.5656e-08,0.0,0.0014283938,0.007899511,-0.01194791,-0.036995262,-1.0500196e-05,2.609333e-06,0.0017587617,0.004815607,0.0033684918,-0.011651776,1.6248091,0.005707331,488.0305,0.11501918,0.020984061,1.2789522,0.13625385,0.07036227,inf,inf,inf,inf,0,1,0,1,1,1,1,1,1,0,1,1,0,0,1
4500000,4500000,4392000,47.3977508,8.5456073,0.0003788536,0.0024991133,-0.04426255,-6.300118e-08,1.5656e-08,0.0,0.0013490097,0.007820449,-0.012009507,-0.0365221,-1.0500196e-05,2.609333e-06,0.0017587617,-0.008423027,0.007442955,-0.0284845,1.6248096,0.005707331,488.0305,0.11465194,0.021971054,1.278959,0.14037228,0.07094756,inf,inf,inf,inf,0,1,0,1,1,1,1,1,1,0,1,1,0,0,1
4508000,4508000,4392000,47.3977508,8.5456073,0.0003786263,0.0024961503,-0.0439945,-6.300118e-08,1.5656e-08,0.0,0.0012727887,0.007539523,-0.012240629,-0.036231257,-1.0500196e-05,2.609333e-06,0.0017587617,0.004840869,-0.017042125,-0.039517876,1.6248194,0.005707331,488.0305,0.1142953,0.023000695,1.2789662,0.14453925,0.071532816,inf,inf,inf,inf,0,1,0,1,1,1,1,1,1,0,1,1,0,0,1
4516000,4516000,4392000,47.3977508,8.5456073,0.00037895612,0.0024908248,-0.043738045,-6.300118e-08,1.5656e-08,0.0,0.0014417677,0.0071823373,-0.012360594,-0.035841733,-1.0500196e-05,2.609333e-06,0.0017587617,0.023583239,-0.020597827,-0.017607583,1.624831,0.005707331,488.0305,0.11394978,0.02407286,1.2789736,0.14876506,0.07211804,inf,inf,inf,inf,0,1,0,1,1,1,1,1,1,0,1,1,0,0,1
4524000,4524000,4392000,47.3977508,8.5456073,0.00037972236,0.0024840808,-0.043491352,-6.300118e-08,1.5656e-08,0.0,0.0013909729,0.007138226,-0.0122492155,-0.03523307,-1.0500196e-05,2.609333e-06,0.0017587617,-0.0013387761,0.026257081,0.0070929523,1.6248342,0.005707331,488.0305,0.11361332,0.02518751,1.2789814,0.1530518,0.072703235,inf,inf,inf,inf,0,1,0,1,1,1,1,1,1,0,1,1,0,0,1
4532000,4532000,4392000,47.3977508,8.5456073,0.00038072496,0.0024774598,-0.043986533,-6.300118e-08,1.5656e-08,0.0,0.0015040442,0.0070667705,-0.012200268,-0.035429556,-1.0500196e-05,2.609333e-06,0.0017587617,0.020106554,0.0071822866,-0.008455477,1.6248347,0.005707331,488.0305,0.1,0.026344653,1.2012942,0.15739347,0.07328762,inf,inf,inf,inf,0,1,0,1,1,1,1,1,1,0,1,1,0,0,1
4540000,4540000,4392000,47.3977508,8.5456073,0.0003826996,0.002470393,-0.044469606,-6.300118e-08,1.5656e-08,0.0,0.0016177816,0.0069637075,-0.01217805,-0.035638474,-1.0500196e-05,2.609333e-06,0.0017587617,0.01735099,0.009188908,-0.0083912155,1.6248432,0.005707331,488.0305,0.1,0.027544284,1.2013022,0.16178687,0.073872745,inf,inf,inf,inf,0,1,0,1,1,1,1,1,1,0,1,1,0,0,1
4548000,4548000,4392000,47.3977508,8.5456073,0.00038536423,0.0024628292,-0.044940952,-6.300118e-08,1.5656e-08,0.0,0.0016698999,0.006833516,-0.012121169,-0.03579888,-1.0500196e-05,2.609333e-06,0.0017587617,0.008997783,0.003453635,0.0033676622,1.6248261,0.005707331,488.0305,0.1,0.028786397,1.2013105,0.16624983,0.07445785,inf,inf,inf,inf,0,1,0,1,1,1,1,1,1,0,1,1,0,0,1
4556000,4556000,4392000,47.3977508,8.5456073,0.00038819382,0.0024555428,-0.04540102,-6.300118e-08,1.5656e-08,0.0,0.0016287514,0.0069770454,-0.012214576,-0.036096163,-1.0500196e-05,2.609333e-06,0.0017587617,-0.008483097,0.04872764,-0.031723637,1.6247855,0.005707331,488.0305,0.1,0.030071149,1.2013193,0.17077033,0.07504293,inf,inf,inf,inf,0,1,0,1,1,1,1,1,1,0,1,1,0,0,1
4564000,4564000,4392000,47.3977508,8.5456073,0.00039040556,0.0024495863,-0.045851085,-6.300118e-08,1.5656e-08,0.0,0.0015934933,0.0069720247,-0.012270034,-0.03634251,-1.0500196e-05,2.609333e-06,0.0017587617,0.013482698,0.008396396,-0.0130366525,1.6247518,0.005707331,488.0305,0.1,0.031398628,1.2013285,0.17534122,0.07562799,inf,inf,inf,inf,0,1,0,1,1,1,1,1,1,0,1,1,0,0,1
4572000,4572000,4392000,47.3977508,8.5456073,0.0003935215,0.0024435692,-0.046290927,-6.300118e-08,1.5656e-08,0.0,0.0017718967,0.006901074,-0.012272091,-0.036522873,-1.0500196e-05,2.609333e-06,0.0017587617,0.021410871,0.013060168,-0.0043194736,1.62471,0.005707331,488.0305,0.1,0.0327689,1.201338,0.1799729,0.076213025,inf,inf,inf,inf,0,1,0,1,1,1,1,1,1,0,1,1,0,0,1
4580000,4580000,4392000,47.3977508,8.5456073,0.00039683442,0.0024384647,-0.04672038,-6.300118e-08,1.5656e-08,0.0,0.0016246015,0.007119891,-0.012246213,-0.036663126,-1.0500196e-05,2.609333e-06,0.0017587617,-0.021474972,0.058607705,-0.008752569,1.6246679,0.005707331,488.0305,0.1,0.03418214,1.2013481,0.1846654,0.07679804,inf,inf,inf,inf,0,1,0,1,1,1,1,1,1,0,1,1,0,0,1
4588000,4588000,4392000,47.3977508,8.5456073,0.0003993969,0.0024357585,-0.047129042,-6.300118e-08,1.5656e-08,0.0,0.0016391743,0.007271068,-0.012364278,-0.03692424,-1.0500196e-05,2.609333e-06,0.0017587617,0.015605065,0.023607906,-0.025595536,1.6246178,0.005707331,488.0305,0.1,0.035638522,1.1362847,0.1894266,0.077381946,inf,inf,inf,inf,0,1,0,1,1,1,1,1,1,0,1,1,0,0,1
4596000,4596000,4392000,47.3977508,8.5456073,0.00040267003,0.0024336064,-0.04752913,-6.300118e-08,1.5656e-08,0.0,0.0017230064,0.0071945987,-0.01237306,-0.037065063,-1.0500196e-05,2.609333e-06,0.0017587617,0.0075275307,0.011664538,-0.0032037494,1.6245737,0.005707331,488.0305,0.1,0.03713832,1.136295,0.1942374,0.0779669,inf,inf,inf,inf,0,1,0,1,1,1,1,1,1,0,1,1,0,0,1
4604000,4604000,4392000,47.3977508,8.5456073,0.00040575684,0.0024318716,-0.047920723,-6.300118e-08,1.5656e-08,0.0,0.0016142029,0.0072041415,-0.012514235,-0.037327625,-1.0500196e-05,2.609333e-06,0.0017587617,-0.007634458,0.013719487,-0.029715708,1.6245441,0.005707331,488.0305,0.1,0.03868168,1.1363057,0.1990889,0.07855185,inf,inf,inf,inf,0,1,0,1,1,1,1,1,1,0,1,1,0,0,1
4612000,4612000,4392000,47.3977508,8.5456073,0.00040718808,0.0024167413,-0.048303626,-6.300118e-08,1.5656e-08,0.0,0.0017293572,0.006989683,-0.012287563,-0.037212044,-1.0500196e-05,2.609333e-06,0.0017587617,0.023014842,-0.00046462807,0.03525335,1.6245253,0.005707331,488.0305,0.1,0.013343196,1.1363168,0.09326072,0.07913673,inf,inf,inf,inf,0,1,0,1,1,1,1,1,1,0,1,1,0,0,1
4620000,4620000,4392000,47.3977508,8.5456073,0.00040962442,0.0024008919,-0.04867622,-6.300118e-08,1.5656e-08,0.0,0.0018307904,0.006923361,-0.012169343,-0.03719495,-1.0500196e-05,2.609333e-06,0.0017587617,0.015710639,0.020975245,-0.012222677,1.6244979,0.005707331,488.0305,0.1,0.013894252,1.1363285,0.09605421,0.079721645,inf,inf,inf,inf,0,1,0,1,1,1,1,1,1,0,1,1,0,0,1
4628000,4628000,4392000,47.3977508,8.5456073,0.00041260116,0.0023852088,-0.049041267,-6.300118e-08,1.5656e-08,0.0,0.0018688982,0.006885339,-0.012326012,-0.037443098,-1.0500196e-05,2.609333e-06,0.0017587617,0.0122531485,0.017069353,-0.019490717,1.6244988,0.005707331,488.0305,0.1,0.014480969,1.1363405,0.0988828,0.08030655,inf,inf,inf,inf,0,1,0,1,1,1,1,1,1,0,1,1,0,0,1
4636000,4636000,4392000,47.3977508,8.5456073,0.00041687887,0.002369465,-0.04939963,-6.300118e-08,1.5656e-08,0.0,0.0021157258,0.006806621,-0.012514567,-0.037713807,-1.0500196e-05,2.609333e-06,0.0017587617,0.03171197,0.016798003,-0.035828907,1.6245111,0.005707331,488.0305,0.1,0.015103033,1.136353,0.101754084,0.08089144,inf,inf,inf,inf,0,1,0,1,1,1,1,1,1,0,1,1,0,0,1
4644000,4644000,4392000,47.3977508,8.5456073,0.00042153132,0.0023532377,-0.04943805,-6.300118e-08,1.5656e-08,0.0,0.0019982057,0.0066994955,-0.012379785,-0.037334435,-1.0500196e-05,2.609333e-06,0.0017587617,-0.014112475,0.0032607638,0.015766358,1.6244987,0.005707331,488.0305,0.10538463,0.015183879,1.0807997,0.098155856,0.075454116,inf,inf,inf,inf,0,1,0,1,1,1,1,1,1,0,1,1,0,0,1
4652000,4652000,4392000,47.3977508,8.5456073,0.0004253068,0.002336064,-0.049476314,-6.300118e-08,1.5656e-08,0.0,0.0019142978,0.006467422,-0.012286486,-0.036998976,-1.0500196e-05,2.609333e-06,0.0017587617,-0.001961438,-0.007653434,-0.015120021,1.6245025,0.005707331,488.0305,0.10533496,0.015816148,1.0808108,0.10092388,0.07600398,inf,inf,inf,inf,0,1,0,1,1,1,1,1,1,0,1,1,0,0,1
4660000,4660000,4392000,47.3977508,8.5456073,0.00042953723,0.002317472,-0.04951626,-6.300118e-08,1.5656e-08,0.0,0.0020854294,0.006225349,-0.012454559,-0.036927298,-1.0500196e-05,2.609333e-06,0.0017587617,0.026975116,-0.0074542766,-0.033659857,1.6244913,0.005707331,488.0305,0.105286635,0.016480865,1.0808222,0.10372521,0.076553844,inf,inf,inf,inf,0,1,0,1,1,1,1,1,1,0,1,1,0,0,1
4668000,4668000,4392000,47.3977508,8.5456073,0.00043452845,0.0022972757,-0.049557853,-6.300118e-08,1.5656e-08,0.0,0.0020615775,0.005938055,-0.012370936,-0.03660632,-1.0500196e-05,2.609333e-06,0.0017587617,-0.00365109,-0.014072327,0.008806585,1.6244832,0.005707331,488.0305,0.10523918,0.01717778,1.0808343,0.106566966,0.07710368,inf,inf,inf,inf,0,1,0,1,1,1,1,1,1,0,1,1,0,0,1
4676000,4676000,4392000,47.3977508,8.5456073,0.00043937546,0.00227525,-0.049599644,-6.300118e-08,1.5656e-08,0.0,0.0020664101,0.0056574326,-0.012288887,-0.036289286,-1.0500196e-05,2.609333e-06,0.0017587617,0.008353876,-0.008653514,-0.007539987,1.6244843,0.005707331,488.0305,0.10519102,0.017906696,1.0808467,0.10943865,0.077653505,inf,inf,inf,inf,0,1,0,1,1,1,1,1,1,0,1,1,0,0,1
4684000,4684000,4392000,47.3977508,8.5456073,0.00044378932,0.0022521492,-0.049642358,-6.300118e-08,1.5656e-08,0.0,0.001900351,0.005500269,-0.012338654,-0.036106423,-1.0500196e-05,2.609333e-06,0.0017587617,-0.02156102,-0.003005596,-0.027053988,1.6245029,0.005707331,488.0305,0.10514282,0.018667359,1.0808595,0.11235019,0.07820332,inf,inf,inf,inf,0,1,0,1,1,1,1,1,1,0,1,1,0,0,1
4692000,4692000,4392000,47.3977508,8.5456073,0.00044765908,0.0022279974,-0.049686313,-6.300118e-08,1.5656e-08,0.0,0.0019630576,0.005313631,-0.012238474,-0.03577595,-1.0500196e-05,2.609333e-06,0.0017587617,0.020145424,0.0062323376,0.014727934,1.6245135,0.005707331,488.0305,0.105095826,0.019459592,1.0808729,0.11528043,0.078753114,inf,inf,inf,inf,0,1,0,1,1,1,1,1,1,0,1,1,0,0,1
4700000,4700000,4392000,47.3977508,8.5456073,0.0004527063,0.0022034808,-0.049692847,-6.300118e-08,1.5656e-08,0.0,0.0021631995,0.005234306,-0.012120821,-0.035393145,-1.0500196e-05,2.609333e-06,0.0017587617,0.03455265,0.010628907,-0.003991648,1.6245215,0.005707331,488.0305,0.10617385,0.02028311,1.0327595,0.11824943,0.07930134,inf,inf,inf,inf,0,1,0,1,1,1,1,1,1,0,1,1,0,0,1
4708000,4708000,4392000,47.3977508,8.5456073,0.00045983307,0.0021789023,-0.04970119,-6.300118e-08,1.5656e-08,0.0,0.0024386095,0.0051419795,-0.012128595,-0.035139386,-1.0500196e-05,2.609333e-06,0.0017587617,0.038440585,0.005694033,-0.011146999,1.6245191,0.005707331,488.0305,0.10609181,0.021137765,1.0327733,0.1212645,0.0798511,inf,inf,inf,inf,0,1,0,1,1,1,1,1,1,0,1,1,0,0,1
4716000,4716000,4392000,47.3977508,8.5456073,0.00046895526,0.002153825,-0.049711674,-6.300118e-08,1.5656e-08,0.0,0.002598241,0.0049674534,-0.012147128,-0.03489994,-1.0500196e-05,2.609333e-06,0.0017587617,0.013669152,-0.0029872898,-0.015335157,1.6245313,0.005707331,488.0305,0.10601022,0.02202348,1.0327876,0.12431524,0.080400854,inf,inf,inf,inf,0,1,0,1,1,1,1,1,1,0,1,1,0,0,1
4724000,4724000,4392000,47.3977508,8.5456073,0.00047825347,0.0021281368,-0.04972469,-6.300118e-08,1.5656e-08,0.0,0.0024755625,0.0048341006,-0.01225329,-0.034751624,-1.0500196e-05,2.609333e-06,0.0017587617,-0.017452082,0.0013792304,-0.02533104,1.6245531,0.005707331,488.0305,0.1059304,0.022940144,1.0328022,0.12738822,0.08095059,inf,inf,inf,inf,0,1,0,1,1,1,1,1,1,0,1,1,0,0,1
