timestamp,timestamp_sample,lat,lon,alt,alt_ellipsoid,delta_alt,eph,epv,terrain_alt,lat_lon_reset_counter,alt_reset_counter,terrain_alt_valid,dead_reckoning
8796000,8796000,47.39775080064563,8.545607395586183,488.09915,488.10202,0.042087145,1.7320508,1.4142135,nan,2,2,0,0
8804000,8804000,47.397750800788735,8.545607395729174,488.0992,488.10208,0.042087145,1.7320541,1.387278,nan,2,2,0,0
8812000,8812000,47.39775080091521,8.545607395872235,488.09924,488.1021,0.042087145,1.7320641,1.3872913,nan,2,2,0,0
8820000,8820000,47.39775080103892,8.545607396017159,488.09933,488.1022,0.042087145,1.7320807,1.387314,nan,2,2,0,0
8828000,8828000,47.39775080115627,8.545607396166115,488.0994,488.10226,0.042087145,1.7321041,1.387346,nan,2,2,0,0
8836000,8836000,47.39775080127646,8.545607396329821,488.09946,488.10233,0.042087145,1.732134,1.3873873,nan,2,2,0,0
8844000,8844000,47.397750801399816,8.545607396490638,488.09952,488.1024,0.042087145,1.7321706,1.387438,nan,2,2,0,0
8852000,8852000,47.39775080152882,8.545607396648329,488.0996,488.10248,0.042087145,1.7322139,1.387498,nan,2,2,0,0
8860000,8860000,47.39775080164929,8.545607396807302,488.0996,488.10248,0.042087145,1.7322638,1.3639499,nan,2,2,0,0
8868000,8868000,47.39775080174914,8.54560739698175,488.09964,488.1025,0.042087145,1.7323204,1.3640246,nan,2,2,0,0
8876000,8876000,47.39775080184637,8.545607397169546,488.09964,488.1025,0.042087145,1.7323836,1.364109,nan,2,2,0,0
8884000,8884000,47.39775080194616,8.545607397353061,488.09967,488.10254,0.042087145,1.7324536,1.3642027,nan,2,2,0,0
8892000,8892000,47.39775080205372,8.5456073975342,488.0997,488.10257,0.042087145,1.73253,1.3643061,nan,2,2,0,0
8900000,8900000,47.39775080216386,8.54560739771406,488.0997,488.10257,0.042087145,1.7326132,1.364419,nan,2,2,0,0
8908000,8908000,47.39775080225394,8.545607397903563,488.09973,488.1026,0.042087145,1.7327031,1.3645413,nan,2,2,0,0
8916000,8916000,47.39775080232487,8.545607398101613,488.09976,488.10263,0.042087145,1.7327996,1.364673,nan,2,2,0,0
8924000,8924000,47.39775080238894,8.545607398312887,488.0999,488.10278,0.042087145,1.7329028,1.3438629,nan,2,2,0,0
8932000,8932000,47.397750802447206,8.54560739852251,488.1001,488.10297,0.042087145,1.7330127,1.3440062,nan,2,2,0,0
8940000,8940000,47.39775080250125,8.54560739872062,488.10025,488.10312,0.042087145,1.7331291,1.3441592,nan,2,2,0,0
8948000,8948000,47.39775080255581,8.54560739893278,488.1004,488.10327,0.042087145,1.7332523,1.3443218,nan,2,2,0,0
8956000,8956000,47.39775080259895,8.545607399163858,488.10056,488.10342,0.042087145,1.7333821,1.3444942,nan,2,2,0,0
8964000,8964000,47.397750802627336,8.545607399399906,488.1007,488.10358,0.042087145,1.7335185,1.3446761,nan,2,2,0,0
8972000,8972000,47.3977508026486,8.545607399651844,488.10086,488.10373,0.042087145,1.7336617,1.3448676,nan,2,2,0,0
8980000,8980000,47.39775080266985,8.545607399934074,488.1007,488.10358,0.042087145,1.7338114,1.3263029,nan,2,2,0,0
8988000,8988000,47.39775080268546,8.545607400239302,488.10052,488.1034,0.042087145,1.7339678,1.3265038,nan,2,2,0,0
8996000,8996000,47.39775080267954,8.545607400547157,488.10037,488.10324,0.042087145,1.7341309,1.3267143,nan,2,2,0,0
9004000,9004000,47.39775080265459,8.545607400863735,488.10022,488.1031,0.042087145,1.7343006,1.3269346,nan,2,2,0,0
9012000,9012000,47.397750802618674,8.545607401185212,488.10007,488.10294,0.042087145,1.7344769,1.3271646,nan,2,2,0,0
9020000,9020000,47.39775080256842,8.545607401506604,488.09995,488.1028,0.042087145,1.7346599,1.3274044,nan,2,2,0,0
9028000,9028000,47.397750802508504,8.545607401828955,488.0998,488.10266,0.042087145,1.7348496,1.3276539,nan,2,2,0,0
9036000,9036000,47.39775080244321,8.54560740214885,488.09967,488.10254,0.042087145,1.7350459,1.327913,nan,2,2,0,0
9044000,9044000,47.3977508023746,8.545607402455584,488.0996,488.10248,0.042087145,1.7352488,1.3111913,nan,2,2,0,0
9052000,9052000,47.3977508022893,8.545607402759556,488.09955,488.10242,0.042087145,1.7354585,1.3114574,nan,2,2,0,0
9060000,9060000,47.39775080218673,8.545607403056447,488.0995,488.10236,0.042087145,1.7356746,1.3117331,nan,2,2,0,0
9068000,9068000,47.39775080206694,8.545607403352912,488.09943,488.1023,0.042087145,1.7358975,1.3120188,nan,2,2,0,0
9076000,9076000,47.397750801941314,8.545607403656952,488.09937,488.10223,0.042087145,1.736127,1.3123143,nan,2,2,0,0
9084000,9084000,47.397750801822056,8.545607403952403,488.09933,488.1022,0.042087145,1.7363632,1.3126196,nan,2,2,0,0
9092000,9092000,47.397750801709115,8.545607404247136,488.09927,488.10214,0.042087145,1.736606,1.3129345,nan,2,2,0,0
9100000,9100000,47.39775080158831,8.545607404541398,488.09918,488.10205,0.042087145,1.7368554,1.2977649,nan,2,2,0,0
9108000,9108000,47.39775080145832,8.545607404834389,488.0991,488.10196,0.042087145,1.7371114,1.298085,nan,2,2,0,0
9116000,9116000,47.39775080133069,8.545607405151209,488.099,488.10187,0.042087145,1.7373741,1.2984148,nan,2,2,0,0
9124000,9124000,47.397750801211174,8.545607405500038,488.0989,488.10178,0.042087145,1.7376434,1.2987547,nan,2,2,0,0
9132000,9132000,47.39775080107858,8.545607405854101,488.09882,488.10168,0.042087145,1.7379194,1.2991043,nan,2,2,0,0
9140000,9140000,47.39775080092851,8.545607406218695,488.09872,488.1016,0.042087145,1.738202,1.299464,nan,2,2,0,0
9148000,9148000,47.39775080077846,8.545607406595945,488.09866,488.10153,0.042087145,1.7384912,1.2998334,nan,2,2,0,0
9156000,9156000,47.397750800626504,8.545607406969113,488.09857,488.10144,0.042087145,1.738787,1.3002127,nan,2,2,0,0
9164000,9164000,47.39775080046638,8.545607407353405,488.09863,488.1015,0.042087145,1.7390895,1.2863233,nan,2,2,0,0
9172000,9172000,47.39775080028756,8.545607407753682,488.09866,488.10153,0.042087145,1.7393985,1.2867054,nan,2,2,0,0
9180000,9180000,47.39775080010326,8.545607408170738,488.0987,488.10156,0.042087145,1.7397143,1.2870976,nan,2,2,0,0
9188000,9188000,47.39775079990764,8.545607408589268,488.09875,488.10162,0.042087145,1.7400365,1.2874995,nan,2,2,0,0
9196000,9196000,47.39775079994796,8.545607408715698,488.09888,488.10193,0.042087145,1.4167633,1.1802762,nan,2,2,0,0
9204000,9204000,47.39775079999629,8.545607408841734,488.09903,488.10208,0.042087145,1.4168669,1.1804171,nan,2,2,0,0
9212000,9212000,47.397750800042296,8.545607408968797,488.09915,488.1022,0.042087145,1.4169747,1.1805633,nan,2,2,0,0
9220000,9220000,47.397750800078285,8.54560740909378,488.0993,488.10236,0.042087145,1.4170865,1.1755052,nan,2,2,0,0
9228000,9228000,47.39775080011414,8.545607409215286,488.09946,488.1025,0.042087145,1.4172024,1.1756581,nan,2,2,0,0
9236000,9236000,47.397750800152515,8.545607409343276,488.0996,488.10266,0.042087145,1.4173224,1.1758167,nan,2,2,0,0
9244000,9244000,47.3977508001868,8.545607409505479,488.09976,488.1028,0.042087145,1.4174464,1.1759806,nan,2,2,0,0
9252000,9252000,47.39775080021917,8.545607409674213,488.0999,488.10297,0.042087145,1.4175744,1.1761501,nan,2,2,0,0
9260000,9260000,47.39775080025806,8.545607409828781,488.10007,488.10312,0.042087145,1.4177065,1.1763248,nan,2,2,0,0
9268000,9268000,47.397750800288144,8.545607409989003,488.1002,488.10324,0.042087145,1.4178427,1.1765051,nan,2,2,0,0
9276000,9276000,47.39775080030193,8.545607410160091,488.10034,488.1034,0.042087145,1.4179829,1.1766909,nan,2,2,0,0
9284000,9284000,47.39775080029657,8.545607410340866,488.1005,488.10355,0.042087145,1.4181273,1.1718893,nan,2,2,0,0
9292000,9292000,47.39775080028563,8.545607410516517,488.10068,488.10373,0.042087145,1.4182757,1.1720809,nan,2,2,0,0
9300000,9300000,47.39775080027223,8.545607410692071,488.10083,488.10388,0.042087145,1.4184281,1.1722778,nan,2,2,0,0
9308000,9308000,47.397750800256965,8.545607410864037,488.10098,488.10403,0.042087145,1.4185847,1.1724802,nan,2,2,0,0
9316000,9316000,47.39775080022703,8.545607411050588,488.10114,488.1042,0.042087145,1.4187453,1.1726881,nan,2,2,0,0
9324000,9324000,47.39775080017457,8.545607411254835,488.10132,488.10437,0.042087145,1.4189099,1.1729015,nan,2,2,0,0
9332000,9332000,47.39775080008975,8.545607411451572,488.10147,488.10452,0.042087145,1.4190786,1.1731203,nan,2,2,0,0
9340000,9340000,47.39775079998211,8.545607411644113,488.10168,488.10474,0.042087145,1.4192514,1.1685482,nan,2,2,0,0
9348000,9348000,47.39775079986486,8.545607411843461,488.10193,488.10498,0.042087145,1.4194282,1.168772,nan,2,2,0,0
9356000,9356000,47.39775079975201,8.545607412047387,488.10214,488.1052,0.042087145,1.4196092,1.1690013,nan,2,2,0,0
9364000,9364000,47.39775079964173,8.545607412268783,488.10236,488.1054,0.042087145,1.4197942,1.1692361,nan,2,2,0,0
9372000,9372000,47.39775079952281,8.545607412510483,488.10257,488.10562,0.042087145,1.4199831,1.1694763,nan,2,2,0,0
9380000,9380000,47.39775079938936,8.545607412735482,488.10278,488.10583,0.042087145,1.4201763,1.169722,nan,2,2,0,0
9388000,9388000,47.39775079925744,8.545607412955826,488.103,488.10605,0.042087145,1.4203734,1.169973,nan,2,2,0,0
9396000,9396000,47.39775079912916,8.545607413193444,488.1032,488.10626,0.042087145,1.4205748,1.1702296,nan,2,2,0,0
9404000,9404000,47.39775079901242,8.545607413417166,488.10336,488.1064,0.042087145,1.4207802,1.165851,nan,2,2,0,0
9412000,9412000,47.39775079890481,8.54560741364251,488.1035,488.10654,0.042087145,1.4209895,1.1661118,nan,2,2,0,0
9420000,9420000,47.397750798792046,8.545607413874473,488.1036,488.10666,0.042087145,1.4212029,1.1663779,nan,2,2,0,0
9428000,9428000,47.397750798663346,8.545607414087295,488.10376,488.1068,0.042087145,1.4214206,1.1666496,nan,2,2,0,0
9436000,9436000,47.397750798536364,8.545607414291554,488.10388,488.10693,0.042087145,1.4216421,1.1669266,nan,2,2,0,0
9444000,9444000,47.397750798421065,8.545607414524657,488.104,488.10706,0.042087145,1.4218678,1.1672091,nan,2,2,0,0
9452000,9452000,47.39775079829796,8.545607414774585,488.10413,488.10718,0.042087145,1.4220974,1.1674972,nan,2,2,0,0
9460000,9460000,47.39775079816702,8.545607415029389,488.10425,488.1073,0.042087145,1.4223313,1.163295,nan,2,2,0,0
9468000,9468000,47.39775079803968,8.545607415301085,488.10437,488.10742,0.042087145,1.4225693,1.1635865,nan,2,2,0,0
9476000,9476000,47.39775079791449,8.54560741558749,488.10446,488.1075,0.042087145,1.4228113,1.1638833,nan,2,2,0,0
9484000,9484000,47.39775079777056,8.545607415867611,488.10458,488.10764,0.042087145,1.4230574,1.1641858,nan,2,2,0,0
9492000,9492000,47.39775079760602,8.545607416160575,488.1047,488.10776,0.042087145,1.4233075,1.1644936,nan,2,2,0,0
9500000,9500000,47.397750797423654,8.545607416463982,488.10483,488.10788,0.042087145,1.4235618,1.1648068,nan,2,2,0,0
9508000,9508000,47.39775079723125,8.545607416762797,488.10492,488.10797,0.042087145,1.4238201,1.1651255,nan,2,2,0,0
9516000,9516000,47.39775079703968,8.545607417044478,488.10504,488.1081,0.042087145,1.4240824,1.1654496,nan,2,2,0,0
9524000,9524000,47.39775079683799,8.545607417332592,488.10513,488.1082,0.042087145,1.424349,1.1613903,nan,2,2,0,0
9532000,9532000,47.39775079662661,8.545607417610585,488.10522,488.10828,0.042087145,1.4246196,1.161717,nan,2,2,0,0
9540000,9540000,47.397750796395854,8.54560741787969,488.10532,488.10837,0.042087145,1.4248941,1.1620493,nan,2,2,0,0
9548000,9548000,47.39775079614384,8.545607418155495,488.1054,488.10846,0.042087145,1.4251728,1.1623869,nan,2,2,0,0
9556000,9556000,47.397750795883205,8.545607418437248,488.1055,488.10855,0.042087145,1.4254557,1.16273,nan,2,2,0,0
9564000,9564000,47.39775079562653,8.545607418707135,488.1056,488.10864,0.042087145,1.4257425,1.1630785,nan,2,2,0,0
9572000,9572000,47.39775079535671,8.545607418974832,488.10565,488.1087,0.042087145,1.4260335,1.1634324,nan,2,2,0,0
9580000,9580000,47.397750795069534,8.545607419267462,488.1057,488.10876,0.042087145,1.4263285,1.159507,nan,2,2,0,0
9588000,9588000,47.39775079477291,8.545607419598129,488.10574,488.1088,0.042087145,1.4266278,1.1598629,nan,2,2,0,0
9596000,9596000,47.39775079479223,8.54560741782781,488.1057,488.10843,0.042087145,1.2957758,1.1189321,nan,2,2,0,0
9604000,9604000,47.39775079481419,8.545607416049611,488.10568,488.1084,0.042087145,1.2959247,1.119123,nan,2,2,0,0
9612000,9612000,47.3977507948431,8.545607414260918,488.10565,488.10837,0.042087145,1.2960764,1.1193174,nan,2,2,0,0
9620000,9620000,47.3977507948748,8.545607412486738,488.10562,488.10834,0.042087145,1.2962313,1.1195157,nan,2,2,0,0
9628000,9628000,47.39775079490593,8.545607410734771,488.1056,488.1083,0.042087145,1.2963891,1.1197176,nan,2,2,0,0
9636000,9636000,47.397750794920825,8.545607409004889,488.10556,488.10828,0.042087145,1.2965498,1.1199234,nan,2,2,0,0
9644000,9644000,47.39775079491773,8.545607407299396,488.1055,488.10822,0.042087145,1.2967136,1.1178174,nan,2,2,0,0
9652000,9652000,47.39775079490977,8.545607405616916,488.10547,488.1082,0.042087145,1.2968802,1.1180267,nan,2,2,0,0
9660000,9660000,47.397750794891834,8.545607403946228,488.1054,488.10812,0.042087145,1.29705,1.1182399,nan,2,2,0,0
9668000,9668000,47.39775079487319,8.545607402294708,488.10535,488.10806,0.042087145,1.2972226,1.1184567,nan,2,2,0,0
9676000,9676000,47.39775079485305,8.545607400657131,488.10532,488.10803,0.042087145,1.2973983,1.1186773,nan,2,2,0,0
9684000,9684000,47.39775079483757,8.545607399054248,488.10526,488.10797,0.042087145,1.297577,1.1189016,nan,2,2,0,0
9692000,9692000,47.39775079480954,8.545607397469524,488.10522,488.10794,0.042087145,1.2977587,1.1191297,nan,2,2,0,0
9700000,9700000,47.39775079476154,8.54560739590857,488.10522,488.10794,0.042087145,1.2979432,1.1170757,nan,2,2,0,0
9708000,9708000,47.39775079470966,8.545607394366465,488.1052,488.1079,0.042087145,1.298131,1.117307,nan,2,2,0,0
9716000,9716000,47.39775079466078,8.545607392838802,488.1052,488.1079,0.042087145,1.2983216,1.117542,nan,2,2,0,0
9724000,9724000,47.39775079460535,8.545607391343118,488.1052,488.1079,0.042087145,1.2985152,1.1177808,nan,2,2,0,0
9732000,9732000,47.397750794530836,8.545607389884275,488.1052,488.1079,0.042087145,1.2987118,1.1180234,nan,2,2,0,0
9740000,9740000,47.397750794453145,8.545607388446347,488.1052,488.1079,0.042087145,1.2989115,1.1182697,nan,2,2,0,0
9748000,9748000,47.397750794374986,8.545607387018288,488.1052,488.1079,0.042087145,1.2991141,1.1185197,nan,2,2,0,0
9756000,9756000,47.39775079428448,8.545607385589557,488.10516,488.10788,0.042087145,1.2993197,1.1187735,nan,2,2,0,0
9764000,9764000,47.397750794185605,8.545607384173723,488.10513,488.10785,0.042087145,1.2995284,1.1167579,nan,2,2,0,0
9772000,9772000,47.39775079407125,8.545607382772106,488.10507,488.1078,0.042087145,1.2997401,1.1170144,nan,2,2,0,0
9780000,9780000,47.39775079393287,8.545607381376119,488.105,488.10773,0.042087145,1.2999548,1.1172746,nan,2,2,0,0
9788000,9788000,47.39775079378041,8.545607380002874,488.10498,488.1077,0.042087145,1.3001726,1.1175387,nan,2,2,0,0
9796000,9796000,47.39775079362184,8.545607378664286,488.10492,488.10764,0.042087145,1.3003932,1.1178064,nan,2,2,0,0
9804000,9804000,47.39775079344476,8.545607377352509,488.1049,488.1076,0.042087145,1.300617,1.1180778,nan,2,2,0,0
9812000,9812000,47.39775079324628,8.545607376055136,488.10483,488.10754,0.042087145,1.3008438,1.118353,nan,2,2,0,0
9820000,9820000,47.3977507930299,8.545607374774612,488.1048,488.1075,0.042087145,1.3010736,1.1163741,nan,2,2,0,0
9828000,9828000,47.39775079279893,8.545607373515134,488.10474,488.10745,0.042087145,1.3013065,1.1166517,nan,2,2,0,0
9836000,9836000,47.397750792560274,8.545607372280218,488.1047,488.10742,0.042087145,1.3015423,1.116933,nan,2,2,0,0
9844000,9844000,47.39775079230729,8.545607371070858,488.10468,488.1074,0.042087145,1.3017812,1.117218,nan,2,2,0,0
9852000,9852000,47.397750792039034,8.54560736990115,488.10464,488.10736,0.042087145,1.3020232,1.1175067,nan,2,2,0,0
9860000,9860000,47.39775079176456,8.545607368765479,488.1046,488.10733,0.042087145,1.3022681,1.1177992,nan,2,2,0,0
9868000,9868000,47.39775079148751,8.545607367646655,488.10455,488.10727,0.042087145,1.3025161,1.1180953,nan,2,2,0,0
9876000,9876000,47.39775079121038,8.545607366529891,488.10452,488.10724,0.042087145,1.3027672,1.1183952,nan,2,2,0,0
9884000,9884000,47.39775079091854,8.54560736542985,488.10446,488.10718,0.042087145,1.3030213,1.1164387,nan,2,2,0,0
9892000,9892000,47.39775079060559,8.545607364352552,488.10437,488.1071,0.042087145,1.3032784,1.1167405,nan,2,2,0,0
9900000,9900000,47.39775079028678,8.545607363301523,488.10428,488.107,0.042087145,1.3035387,1.117046,nan,2,2,0,0
9908000,9908000,47.39775078996549,8.545607362276309,488.10422,488.10693,0.042087145,1.303802,1.1173552,nan,2,2,0,0
9916000,9916000,47.39775078963253,8.54560736127401,488.10413,488.10684,0.042087145,1.3040683,1.1176682,nan,2,2,0,0
9924000,9924000,47.39775078930033,8.545607360307924,488.10406,488.10678,0.042087145,1.3043377,1.1179848,nan,2,2,0,0
9932000,9932000,47.39775078897546,8.545607359371608,488.104,488.10672,0.042087145,1.3046101,1.1183051,nan,2,2,0,0
9940000,9940000,47.39775078864569,8.545607358456023,488.10388,488.1066,0.042087145,1.3048856,1.1163719,nan,2,2,0,0
9948000,9948000,47.39775078832402,8.545607357552138,488.1038,488.1065,0.042087145,1.3051642,1.1166937,nan,2,2,0,0
9956000,9956000,47.39775078799714,8.545607356657259,488.1037,488.1064,0.042087145,1.3054459,1.1170193,nan,2,2,0,0
9964000,9964000,47.397750787655,8.54560735578196,488.1036,488.10632,0.042087145,1.3057306,1.1173486,nan,2,2,0,0
9972000,9972000,47.39775078730998,8.545607354933297,488.10352,488.10623,0.042087145,1.3060185,1.1176815,nan,2,2,0,0
9980000,9980000,47.3977507869594,8.545607354124284,488.10345,488.10617,0.042087145,1.3063093,1.1180182,nan,2,2,0,0
9988000,9988000,47.3977507865974,8.545607353358076,488.10336,488.10608,0.042087145,1.3066033,1.1183585,nan,2,2,0,0
9996000,9996000,47.39775078612756,8.545607353273438,488.1032,488.10547,0.042087145,1.2321478,1.0933243,nan,2,2,0,0
10004000,10004000,47.39775078565416,8.545607353183792,488.1031,488.10535,0.042087145,1.2323228,1.0921329,nan,2,2,0,0
10012000,10012000,47.397750785183284,8.545607353067265,488.10297,488.10522,0.042087145,1.2325003,1.0923486,nan,2,2,0,0
10020000,10020000,47.397750784705934,8.545607352924971,488.10284,488.1051,0.042087145,1.2326802,1.0925671,nan,2,2,0,0
10028000,10028000,47.397750784236685,8.545607352762033,488.10272,488.10498,0.042087145,1.2328625,1.0927885,nan,2,2,0,0
10036000,10036000,47.39775078377191,8.545607352580088,488.10263,488.1049,0.042087145,1.2330471,1.0930127,nan,2,2,0,0
10044000,10044000,47.39775078330546,8.545607352396067,488.1025,488.10477,0.042087145,1.2332343,1.0932397,nan,2,2,0,0
10052000,10052000,47.39775078283183,8.545607352200152,488.1024,488.10464,0.042087145,1.2334238,1.0934695,nan,2,2,0,0
10060000,10060000,47.397750782353505,8.545607352009666,488.10233,488.10458,0.042087145,1.2336158,1.0922898,nan,2,2,0,0
10068000,10068000,47.397750781867074,8.545607351834187,488.10223,488.1045,0.042087145,1.2338102,1.0925219,nan,2,2,0,0
10076000,10076000,47.39775078136542,8.545607351644886,488.10214,488.1044,0.042087145,1.234007,1.0927567,nan,2,2,0,0
10084000,10084000,47.39775078085708,8.545607351428373,488.10205,488.1043,0.042087145,1.2342063,1.0929945,nan,2,2,0,0
10092000,10092000,47.39775078034157,8.545607351198855,488.10196,488.10422,0.042087145,1.2344079,1.0932349,nan,2,2,0,0
10100000,10100000,47.39775077981558,8.545607350972016,488.1019,488.10416,0.042087145,1.2346121,1.0934782,nan,2,2,0,0
10108000,10108000,47.397750779278546,8.545607350757171,488.1018,488.10406,0.042087145,1.2348187,1.0937244,nan,2,2,0,0
10116000,10116000,47.397750778739436,8.54560735055957,488.1017,488.10397,0.042087145,1.2350277,1.0939733,nan,2,2,0,0
10124000,10124000,47.39775077819894,8.545607350358543,488.10162,488.10388,0.042087145,1.2352391,1.0927972,nan,2,2,0,0
10132000,10132000,47.397750777657926,8.545607350158063,488.1015,488.10376,0.042087145,1.2354531,1.0930481,nan,2,2,0,0
10140000,10140000,47.39775077712412,8.545607349962841,488.1014,488.10367,0.042087145,1.2356695,1.0933018,nan,2,2,0,0
10148000,10148000,47.397750776591245,8.545607349772071,488.1013,488.10355,0.042087145,1.2358884,1.0935582,nan,2,2,0,0
10156000,10156000,47.3977507760519,8.545607349571243,488.1012,488.10345,0.042087145,1.2361097,1.0938175,nan,2,2,0,0
10164000,10164000,47.39775077550049,8.545607349369893,488.1011,488.10336,0.042087145,1.2363336,1.0940796,nan,2,2,0,0
10172000,10172000,47.39775077493137,8.545607349163836,488.10098,488.10324,0.042087145,1.2365599,1.0943445,nan,2,2,0,0
10180000,10180000,47.397750774353774,8.545607348952865,488.10086,488.10312,0.042087145,1.2367887,1.0931728,nan,2,2,0,0
10188000,10188000,47.397750773758204,8.545607348738876,488.10074,488.103,0.042087145,1.23702,1.0934393,nan,2,2,0,0
10196000,10196000,47.39775077314675,8.545607348538592,488.10062,488.10287,0.042087145,1.2372538,1.0937088,nan,2,2,0,0
10204000,10204000,47.39775077252759,8.545607348344122,488.10052,488.10278,0.042087145,1.23749,1.0939809,nan,2,2,0,0
10212000,10212000,47.39775077188971,8.54560734814584,488.1004,488.10266,0.042087145,1.2377288,1.0942559,nan,2,2,0,0
10220000,10220000,47.39775077124414,8.545607347953853,488.10028,488.10254,0.042087145,1.2379701,1.0945337,nan,2,2,0,0
10228000,10228000,47.397750770607026,8.545607347781232,488.10016,488.10242,0.042087145,1.2382139,1.0948142,nan,2,2,0,0
10236000,10236000,47.39775076996541,8.54560734761357,488.10004,488.1023,0.042087145,1.2384602,1.0950977,nan,2,2,0,0
10244000,10244000,47.39775076931716,8.545607347433343,488.09995,488.1022,0.042087145,1.238709,1.0939211,nan,2,2,0,0
10252000,10252000,47.397750768654944,8.54560734727027,488.09985,488.1021,0.042087145,1.2389604,1.0942059,nan,2,2,0,0
10260000,10260000,47.397750767989464,8.545607347123733,488.09976,488.10202,0.042087145,1.2392142,1.0944934,nan,2,2,0,0
10268000,10268000,47.397750767328496,8.545607346973028,488.09967,488.10193,0.042087145,1.2394706,1.0947837,nan,2,2,0,0
10276000,10276000,47.39775076666686,8.545607346827923,488.09958,488.10184,0.042087145,1.2397296,1.0950768,nan,2,2,0,0
10284000,10284000,47.397750766006446,8.545607346690892,488.0995,488.10175,0.042087145,1.2399911,1.0953727,nan,2,2,0,0
10292000,10292000,47.39775076535652,8.545607346567747,488.0994,488.10165,0.042087145,1.2402551,1.0956714,nan,2,2,0,0
10300000,10300000,47.39775076471397,8.545607346455814,488.0993,488.10156,0.042087145,1.2405218,1.0944922,nan,2,2,0,0
10308000,10308000,47.39775076408011,8.545607346339834,488.09918,488.10144,0.042087145,1.2407908,1.094792,nan,2,2,0,0
10316000,10316000,47.39775076344562,8.545607346205061,488.0991,488.10135,0.042087145,1.2410626,1.0950946,nan,2,2,0,0
10324000,10324000,47.39775076280383,8.545607346051655,488.099,488.10126,0.042087145,1.241337,1.0954,nan,2,2,0,0
10332000,10332000,47.39775076216167,8.545607345895656,488.0989,488.10117,0.042087145,1.2416137,1.0957081,nan,2,2,0,0
10340000,10340000,47.397750761521756,8.545607345754233,488.0988,488.10104,0.042087145,1.2418932,1.096019,nan,2,2,0,0
10348000,10348000,47.397750760886126,8.545607345604637,488.0987,488.10095,0.042087145,1.2421752,1.0963328,nan,2,2,0,0
10356000,10356000,47.39775076025364,8.545607345444282,488.0986,488.10086,0.042087145,1.2424599,1.0966493,nan,2,2,0,0
10364000,10364000,47.397750759618525,8.545607345298858,488.0985,488.10077,0.042087145,1.2427472,1.0954573,nan,2,2,0,0
10372000,10372000,47.397750758982,8.545607345172504,488.09842,488.10068,0.042087145,1.243037,1.0957747,nan,2,2,0,0
10380000,10380000,47.39775075834665,8.545607345054202,488.09833,488.1006,0.042087145,1.2433294,1.0960946,nan,2,2,0,0
10388000,10388000,47.397750757710305,8.545607344931884,488.09824,488.1005,0.042087145,1.2436246,1.0964174,nan,2,2,0,0
10396000,10396000,47.39775075729212,8.545607346722289,488.09814,488.10007,0.042087145,1.1934621,1.0784605,nan,2,2,0,0
10404000,10404000,47.397750756865484,8.545607348466858,488.09802,488.09995,0.042087145,1.1936553,1.0786858,nan,2,2,0,0
10412000,10412000,47.39775075642764,8.545607350165799,488.09793,488.09985,0.042087145,1.1938504,1.0789132,nan,2,2,0,0
10420000,10420000,47.397750755988746,8.545607351827012,488.0979,488.09982,0.042087145,1.1940476,1.0781342,nan,2,2,0,0
10428000,10428000,47.397750755541686,8.545607353454297,488.09787,488.0998,0.042087145,1.194247,1.0783633,nan,2,2,0,0
10436000,10436000,47.39775075508774,8.545607355054463,488.09784,488.09976,0.042087145,1.1944485,1.0785947,nan,2,2,0,0
10444000,10444000,47.397750754629214,8.545607356615461,488.0978,488.09973,0.042087145,1.194652,1.0788283,nan,2,2,0,0
10452000,10452000,47.397750754162736,8.545607358125302,488.09778,488.0997,0.042087145,1.1948577,1.0790641,nan,2,2,0,0
10460000,10460000,47.397750753685365,8.545607359611614,488.09775,488.09967,0.042087145,1.1950656,1.0793022,nan,2,2,0,0
10468000,10468000,47.397750753205536,8.545607361088887,488.09772,488.09964,0.042087145,1.1952755,1.0795424,nan,2,2,0,0
10476000,10476000,47.39775075272436,8.545607362565214,488.0977,488.0996,0.042087145,1.1954877,1.079785,nan,2,2,0,0
10484000,10484000,47.397750752241514,8.545607364028326,488.0976,488.09952,0.042087145,1.195702,1.0789983,nan,2,2,0,0
10492000,10492000,47.39775075175345,8.545607365483235,488.09753,488.09946,0.042087145,1.1959184,1.0792423,nan,2,2,0,0
10500000,10500000,47.39775075126279,8.545607366942995,488.09747,488.0994,0.042087145,1.1961371,1.0794885,nan,2,2,0,0
10508000,10508000,47.39775075076861,8.545607368381823,488.09738,488.0993,0.042087145,1.1963578,1.0797368,nan,2,2,0,0
10516000,10516000,47.397750750267164,8.545607369796793,488.09732,488.09924,0.042087145,1.1965808,1.0799874,nan,2,2,0,0
10524000,10524000,47.39775074975636,8.545607371176173,488.09726,488.09918,0.042087145,1.196806,1.0802402,nan,2,2,0,0
10532000,10532000,47.397750749234696,8.545607372526844,488.0972,488.09912,0.042087145,1.1970332,1.0804954,nan,2,2,0,0
10540000,10540000,47.39775074870976,8.545607373854942,488.09717,488.0991,0.042087145,1.1972628,1.0797027,nan,2,2,0,0
10548000,10548000,47.397750748181465,8.54560737514411,488.09714,488.09906,0.042087145,1.1974945,1.079959,nan,2,2,0,0
10556000,10556000,47.39775074763932,8.545607376394901,488.0971,488.09903,0.042087145,1.1977284,1.0802176,nan,2,2,0,0
10564000,10564000,47.397750747090456,8.545607377627325,488.09708,488.099,0.042087145,1.1979644,1.0804783,nan,2,2,0,0
10572000,10572000,47.39775074653945,8.545607378859513,488.09705,488.09897,0.042087145,1.1982028,1.0807413,nan,2,2,0,0
10580000,10580000,47.39775074598796,8.54560738008624,488.09702,488.09894,0.042087145,1.1984434,1.0810064,nan,2,2,0,0
10588000,10588000,47.397750745432134,8.545607381284915,488.097,488.0989,0.042087145,1.1986862,1.0812738,nan,2,2,0,0
10596000,10596000,47.397750744865725,8.545607382460057,488.097,488.0989,0.042087145,1.1989313,1.0815434,nan,2,2,0,0
10604000,10604000,47.39775074430214,8.545607383618195,488.09695,488.09888,0.042087145,1.1991786,1.0807378,nan,2,2,0,0
10612000,10612000,47.3977507437365,8.545607384758537,488.09692,488.09885,0.042087145,1.1994281,1.0810084,nan,2,2,0,0
10620000,10620000,47.39775074316759,8.54560738585934,488.0969,488.09882,0.042087145,1.1996799,1.0812813,nan,2,2,0,0
10628000,10628000,47.39775074259924,8.545607386919594,488.09686,488.0988,0.042087145,1.199934,1.0815563,nan,2,2,0,0
10636000,10636000,47.39775074201386,8.545607387956263,488.09683,488.09875,0.042087145,1.2001904,1.0818337,nan,2,2,0,0
10644000,10644000,47.39775074142132,8.54560738895671,488.0968,488.09872,0.042087145,1.200449,1.0821131,nan,2,2,0,0
10652000,10652000,47.39775074082524,8.545607389919123,488.09677,488.0987,0.042087145,1.2007099,1.082395,nan,2,2,0,0
10660000,10660000,47.397750740212594,8.5456073908733,488.09674,488.09866,0.042087145,1.2009733,1.0815787,nan,2,2,0,0
10668000,10668000,47.39775073959249,8.545607391807737,488.0967,488.09863,0.042087145,1.2012388,1.0818613,nan,2,2,0,0
10676000,10676000,47.39775073896475,8.54560739272913,488.09665,488.09857,0.042087145,1.2015066,1.0821459,nan,2,2,0,0
10684000,10684000,47.397750738333464,8.545607393659527,488.09662,488.09854,0.042087145,1.2017769,1.0824329,nan,2,2,0,0
10692000,10692000,47.39775073769992,8.545607394603627,488.0966,488.0985,0.042087145,1.2020494,1.0827221,nan,2,2,0,0
10700000,10700000,47.39775073706291,8.545607395533743,488.09653,488.09845,0.042087145,1.2023242,1.0830134,nan,2,2,0,0
10708000,10708000,47.39775073641963,8.545607396453208,488.0965,488.09842,0.042087145,1.2026013,1.083307,nan,2,2,0,0
10716000,10716000,47.39775073576336,8.545607397361877,488.09647,488.0984,0.042087145,1.202881,1.0836029,nan,2,2,0,0
10724000,10724000,47.39775073510456,8.545607398244776,488.09644,488.09836,0.042087145,1.2031629,1.0827683,nan,2,2,0,0
10732000,10732000,47.39775073445268,8.545607399116653,488.0964,488.09833,0.042087145,1.2034471,1.0830646,nan,2,2,0,0
10740000,10740000,47.39775073380719,8.545607399990844,488.09637,488.0983,0.042087145,1.2037338,1.0833632,nan,2,2,0,0
10748000,10748000,47.39775073316599,8.545607400853063,488.09634,488.09827,0.042087145,1.2040229,1.083664,nan,2,2,0,0
10756000,10756000,47.39775073252236,8.54560740172354,488.09634,488.09827,0.042087145,1.2043144,1.083967,nan,2,2,0,0
10764000,10764000,47.39775073186142,8.545607402594804,488.0963,488.09824,0.042087145,1.2046082,1.0842721,nan,2,2,0,0
10772000,10772000,47.39775073118699,8.545607403463178,488.09628,488.0982,0.042087145,1.2049044,1.0845796,nan,2,2,0,0
10780000,10780000,47.3977507304999,8.545607404325349,488.09625,488.09818,0.042087145,1.205203,1.08373,nan,2,2,0,0
10788000,10788000,47.39775072980386,8.545607405179133,488.09622,488.09814,0.042087145,1.2055042,1.0840377,nan,2,2,0,0
10796000,10796000,47.39775073006961,8.545607405656893,488.09628,488.0982,0.042087145,1.1679155,1.0696511,nan,2,2,0,0
10804000,10804000,47.397750730307195,8.545607406127923,488.09637,488.0983,0.042087145,1.168123,1.0698788,nan,2,2,0,0
10812000,10812000,47.39775073053756,8.545607406602182,488.09644,488.09836,0.042087145,1.1683327,1.0701083,nan,2,2,0,0
10820000,10820000,47.39775073075326,8.545607407100245,488.09653,488.09845,0.042087145,1.1685443,1.0703397,nan,2,2,0,0
10828000,10828000,47.39775073094459,8.54560740761911,488.0966,488.0985,0.042087145,1.1687579,1.0705729,nan,2,2,0,0
10836000,10836000,47.397750731113575,8.545607408143061,488.09668,488.0986,0.042087145,1.1689734,1.0708078,nan,2,2,0,0
10844000,10844000,47.39775073125772,8.545607408681487,488.0967,488.09863,0.042087145,1.169191,1.0702313,nan,2,2,0,0
10852000,10852000,47.39775073139297,8.545607409215112,488.0967,488.09863,0.042087145,1.1694106,1.0704675,nan,2,2,0,0
10860000,10860000,47.39775073153421,8.545607409748552,488.09674,488.09866,0.042087145,1.1696322,1.0707053,nan,2,2,0,0
10868000,10868000,47.39775073167514,8.54560741029068,488.09677,488.0987,0.042087145,1.1698558,1.070945,nan,2,2,0,0
10876000,10876000,47.39775073181618,8.545607410857132,488.0968,488.09872,0.042087145,1.1700814,1.0711865,nan,2,2,0,0
10884000,10884000,47.397750731954375,8.545607411424077,488.09683,488.09875,0.042087145,1.1703091,1.07143,nan,2,2,0,0
10892000,10892000,47.39775073207398,8.545607411988366,488.09683,488.09875,0.042087145,1.1705388,1.0716752,nan,2,2,0,0
10900000,10900000,47.39775073216617,8.545607412569307,488.09686,488.0988,0.042087145,1.1707706,1.0710889,nan,2,2,0,0
10908000,10908000,47.39775073224066,8.54560741314609,488.0969,488.09882,0.042087145,1.1710044,1.0713351,nan,2,2,0,0
10916000,10916000,47.397750732309056,8.545607413712903,488.09692,488.09885,0.042087145,1.1712403,1.071583,nan,2,2,0,0
10924000,10924000,47.39775073238026,8.545607414295738,488.09695,488.09888,0.042087145,1.1714784,1.0718329,nan,2,2,0,0
10932000,10932000,47.39775073246095,8.545607414882134,488.09695,488.09888,0.042087145,1.1717185,1.0720844,nan,2,2,0,0
10940000,10940000,47.39775073253566,8.545607415469473,488.097,488.0989,0.042087145,1.1719607,1.072338,nan,2,2,0,0
10948000,10948000,47.397750732587156,8.545607416073553,488.09702,488.09894,0.042087145,1.172205,1.0725932,nan,2,2,0,0
10956000,10956000,47.39775073262436,8.545607416681023,488.09702,488.09894,0.042087145,1.1724515,1.0728505,nan,2,2,0,0
10964000,10964000,47.39775073264074,8.545607417279621,488.09702,488.09894,0.042087145,1.1727,1.0722485,nan,2,2,0,0
10972000,10972000,47.39775073264199,8.545607417875633,488.09702,488.09894,0.042087145,1.1729507,1.0725063,nan,2,2,0,0
10980000,10980000,47.39775073262702,8.545607418469938,488.09705,488.09897,0.042087145,1.1732036,1.0727661,nan,2,2,0,0
10988000,10988000,47.39775073259271,8.545607419069551,488.09705,488.09897,0.042087145,1.1734586,1.0730276,nan,2,2,0,0
10996000,10996000,47.39775073254072,8.545607419677205,488.09705,488.09897,0.042087145,1.1737157,1.073291,nan,2,2,0,0
11004000,11004000,47.39775073249085,8.545607420294068,488.09705,488.09897,0.042087145,1.1739751,1.0735562,nan,2,2,0,0
11012000,11012000,47.39775073243258,8.545607420926421,488.09705,488.09897,0.042087145,1.1742367,1.0738232,nan,2,2,0,0
11020000,11020000,47.39775073235641,8.545607421559689,488.09702,488.09894,0.042087145,1.1745003,1.073208,nan,2,2,0,0
11028000,11028000,47.39775073225782,8.545607422176785,488.097,488.0989,0.042087145,1.1747663,1.0734756,nan,2,2,0,0
11036000,11036000,47.3977507321327,8.545607422785183,488.09695,488.09888,0.042087145,1.1750345,1.0737451,nan,2,2,0,0
11044000,11044000,47.39775073199976,8.545607423377273,488.09692,488.09885,0.042087145,1.1753049,1.0740165,nan,2,2,0,0
11052000,11052000,47.39775073187631,8.545607423960368,488.0969,488.09882,0.042087145,1.1755775,1.0742896,nan,2,2,0,0
11060000,11060000,47.39775073172946,8.545607424544997,488.09686,488.0988,0.042087145,1.1758524,1.0745645,nan,2,2,0,0
11068000,11068000,47.39775073155972,8.545607425127088,488.09683,488.09875,0.042087145,1.1761295,1.0748413,nan,2,2,0,0
11076000,11076000,47.39775073138496,8.545607425712596,488.0968,488.09872,0.042087145,1.1764089,1.07512,nan,2,2,0,0
11084000,11084000,47.39775073121522,8.545607426295343,488.0968,488.09872,0.042087145,1.1766907,1.074485,nan,2,2,0,0
11092000,11092000,47.39775073104557,8.545607426872511,488.0968,488.09872,0.042087145,1.1769745,1.074764,nan,2,2,0,0
11100000,11100000,47.39775073087348,8.54560742743133,488.0968,488.09872,0.042087145,1.1772609,1.0750449,nan,2,2,0,0
11108000,11108000,47.39775073070054,8.545607427985221,488.09677,488.0987,0.042087145,1.1775495,1.0753275,nan,2,2,0,0
11116000,11116000,47.397750730516215,8.545607428541974,488.09677,488.0987,0.042087145,1.1778405,1.075612,nan,2,2,0,0
11124000,11124000,47.39775073032283,8.545607429090596,488.09674,488.09866,0.042087145,1.1781337,1.0758983,nan,2,2,0,0
11132000,11132000,47.397750730114446,8.545607429632128,488.09674,488.09866,0.042087145,1.1784292,1.0761865,nan,2,2,0,0
11140000,11140000,47.397750729901055,8.545607430160668,488.09677,488.0987,0.042087145,1.1787273,1.075535,nan,2,2,0,0
11148000,11148000,47.39775072969211,8.545607430674076,488.09677,488.0987,0.042087145,1.1790276,1.0758234,nan,2,2,0,0
11156000,11156000,47.39775072948141,8.545607431185159,488.0968,488.09872,0.042087145,1.1793302,1.0761137,nan,2,2,0,0
11164000,11164000,47.3977507292589,8.545607431693913,488.0968,488.09872,0.042087145,1.1796354,1.0764056,nan,2,2,0,0
11172000,11172000,47.39775072902864,8.545607432191087,488.0968,488.09872,0.042087145,1.1799428,1.0766996,nan,2,2,0,0
11180000,11180000,47.3977507288083,8.545607432684363,488.09683,488.09875,0.042087145,1.1802528,1.0769953,nan,2,2,0,0
11188000,11188000,47.3977507285745,8.545607433195544,488.09683,488.09875,0.042087145,1.1805651,1.0772928,nan,2,2,0,0
11196000,11196000,47.397750729687736,8.545607431351357,488.0968,488.09863,0.042087145,1.1501639,1.0647134,nan,2,2,0,0
11204000,11204000,47.39775073077057,8.545607429526783,488.09677,488.0986,0.042087145,1.1503855,1.0642618,nan,2,2,0,0
11212000,11212000,47.39775073183533,8.545607427707083,488.0967,488.09854,0.042087145,1.1506091,1.0644894,nan,2,2,0,0
11220000,11220000,47.39775073287559,8.545607425896549,488.09665,488.09848,0.042087145,1.1508347,1.0647186,nan,2,2,0,0
11228000,11228000,47.3977507338848,8.545607424104281,488.09662,488.09845,0.042087145,1.1510623,1.0649493,nan,2,2,0,0
11236000,11236000,47.39775073486406,8.545607422345695,488.09656,488.0984,0.042087145,1.1512918,1.0651816,nan,2,2,0,0
11244000,11244000,47.39775073582232,8.54560742060595,488.0965,488.09833,0.042087145,1.1515234,1.0654154,nan,2,2,0,0
11252000,11252000,47.397750736758056,8.545607418895568,488.09644,488.09827,0.042087145,1.1517569,1.0656508,nan,2,2,0,0
11260000,11260000,47.39775073767131,8.545607417217866,488.09637,488.0982,0.042087145,1.1519924,1.065188,nan,2,2,0,0
11268000,11268000,47.397750738556276,8.545607415552201,488.0963,488.09814,0.042087145,1.15223,1.0654242,nan,2,2,0,0
11276000,11276000,47.39775073941429,8.545607413909256,488.09625,488.09808,0.042087145,1.1524696,1.0656618,nan,2,2,0,0
11284000,11284000,47.39775074025186,8.545607412298528,488.0962,488.09802,0.042087145,1.1527113,1.0659009,nan,2,2,0,0
11292000,11292000,47.397750741073985,8.545607410751167,488.09613,488.09796,0.042087145,1.152955,1.0661417,nan,2,2,0,0
11300000,11300000,47.39775074185753,8.545607409266895,488.09604,488.09787,0.042087145,1.1532009,1.066384,nan,2,2,0,0
11308000,11308000,47.39775074260654,8.545607407836485,488.09598,488.0978,0.042087145,1.1534488,1.0666279,nan,2,2,0,0
11316000,11316000,47.39775074333674,8.545607406466644,488.09592,488.09775,0.042087145,1.1536988,1.0668733,nan,2,2,0,0
11324000,11324000,47.39775074404615,8.545607405138067,488.09586,488.0977,0.042087145,1.1539509,1.0663944,nan,2,2,0,0
11332000,11332000,47.397750744738744,8.545607403834497,488.09583,488.09766,0.042087145,1.1542052,1.0666404,nan,2,2,0,0
11340000,11340000,47.397750745409375,8.545607402535795,488.09576,488.0976,0.042087145,1.1544616,1.0668879,nan,2,2,0,0
11348000,11348000,47.39775074605434,8.545607401231502,488.0957,488.09753,0.042087145,1.1547201,1.0671369,nan,2,2,0,0
11356000,11356000,47.39775074668266,8.545607399938937,488.09564,488.09747,0.042087145,1.1549808,1.0673876,nan,2,2,0,0
11364000,11364000,47.397750747290225,8.545607398662991,488.0956,488.09744,0.042087145,1.1552436,1.0676397,nan,2,2,0,0
11372000,11372000,47.39775074788536,8.545607397396367,488.09555,488.09738,0.042087145,1.1555088,1.0678935,nan,2,2,0,0
11380000,11380000,47.39775074846454,8.54560739612532,488.09546,488.0973,0.042087145,1.1557759,1.0674007,nan,2,2,0,0
11388000,11388000,47.397750749035566,8.545607394858004,488.09537,488.0972,0.042087145,1.1560454,1.0676548,nan,2,2,0,0
11396000,11396000,47.397750749590564,8.545607393614185,488.0953,488.09714,0.042087145,1.1563171,1.0679106,nan,2,2,0,0
11404000,11404000,47.3977507501211,8.545607392393517,488.0952,488.09705,0.042087145,1.156591,1.0681679,nan,2,2,0,0
11412000,11412000,47.397750750633904,8.545607391195867,488.09512,488.09695,0.042087145,1.1568671,1.0684267,nan,2,2,0,0
11420000,11420000,47.397750751135064,8.54560739003417,488.09503,488.09686,0.042087145,1.1571456,1.0686872,nan,2,2,0,0
11428000,11428000,47.39775075163281,8.545607388894096,488.09494,488.09677,0.042087145,1.1574262,1.0689491,nan,2,2,0,0
11436000,11436000,47.39775075212038,8.545607387775867,488.09485,488.09668,0.042087145,1.1577092,1.0692127,nan,2,2,0,0
11444000,11444000,47.39775075259178,8.545607386664708,488.09476,488.0966,0.042087145,1.1579945,1.0687003,nan,2,2,0,0
11452000,11452000,47.397750753043766,8.54560738557459,488.09464,488.09647,0.042087145,1.158282,1.0689642,nan,2,2,0,0
11460000,11460000,47.39775075349214,8.545607384507568,488.0945,488.09634,0.042087145,1.158572,1.0692296,nan,2,2,0,0
11468000,11468000,47.397750753931454,8.545607383463956,488.0944,488.09622,0.042087145,1.1588643,1.0694965,nan,2,2,0,0
11476000,11476000,47.39775075435921,8.545607382443828,488.09427,488.0961,0.042087145,1.1591588,1.0697651,nan,2,2,0,0
11484000,11484000,47.397750754763656,8.545607381435444,488.09415,488.09598,0.042087145,1.1594558,1.0700351,nan,2,2,0,0
11492000,11492000,47.397750755151954,8.545607380435131,488.09402,488.09586,0.042087145,1.1597551,1.0703068,nan,2,2,0,0
11500000,11500000,47.39775075554177,8.545607379457623,488.0939,488.09573,0.042087145,1.1600568,1.0697778,nan,2,2,0,0
11508000,11508000,47.39775075593096,8.545607378490082,488.09378,488.0956,0.042087145,1.160361,1.0700496,nan,2,2,0,0
11516000,11516000,47.3977507563182,8.545607377528778,488.09366,488.0955,0.042087145,1.1606677,1.070323,nan,2,2,0,0
11524000,11524000,47.39775075670468,8.545607376577335,488.09354,488.09537,0.042087145,1.1609766,1.0705979,nan,2,2,0,0
11532000,11532000,47.39775075708337,8.54560737561921,488.0934,488.09525,0.042087145,1.1612881,1.0708743,nan,2,2,0,0
11540000,11540000,47.39775075744772,8.545607374653018,488.0933,488.09512,0.042087145,1.161602,1.0711523,nan,2,2,0,0
11548000,11548000,47.3977507578116,8.545607373697264,488.09317,488.095,0.042087145,1.1619184,1.071432,nan,2,2,0,0
11556000,11556000,47.39775075817295,8.545607372779667,488.09305,488.09488,0.042087145,1.1622373,1.0717132,nan,2,2,0,0
11564000,11564000,47.397750758511485,8.545607371914356,488.0929,488.09473,0.042087145,1.1625588,1.0711615,nan,2,2,0,0
11572000,11572000,47.39775075883142,8.545607371077825,488.09277,488.0946,0.042087145,1.1628827,1.0714427,nan,2,2,0,0
11580000,11580000,47.397750759135405,8.545607370273848,488.09265,488.09448,0.042087145,1.1632091,1.0717254,nan,2,2,0,0
11588000,11588000,47.39775075941454,8.545607369506117,488.0925,488.09433,0.042087145,1.1635381,1.0720097,nan,2,2,0,0
11596000,11596000,47.39775076061472,8.545607369089765,488.0924,488.095,0.042087145,1.1374383,1.06085,nan,2,2,0,0
11604000,11604000,47.39775076179295,8.545607368661251,488.09232,488.0949,0.042087145,1.1376748,1.0610743,nan,2,2,0,0
11612000,11612000,47.39775076295908,8.545607368236801,488.09222,488.09482,0.042087145,1.1379133,1.0613,nan,2,2,0,0
11620000,11620000,47.397750764116964,8.545607367819839,488.0921,488.0947,0.042087145,1.1381539,1.0609168,nan,2,2,0,0
11628000,11628000,47.39775076524944,8.545607367404651,488.09195,488.09454,0.042087145,1.1383966,1.0611429,nan,2,2,0,0
11636000,11636000,47.39775076636154,8.54560736699881,488.09183,488.09442,0.042087145,1.1386414,1.0613705,nan,2,2,0,0
11644000,11644000,47.39775076745881,8.545607366603988,488.0917,488.0943,0.042087145,1.1388882,1.0615994,nan,2,2,0,0
11652000,11652000,47.39775076852933,8.545607366206998,488.09158,488.09418,0.042087145,1.1391371,1.0618297,nan,2,2,0,0
11660000,11660000,47.39775076956811,8.545607365827411,488.09143,488.09402,0.042087145,1.1393882,1.0620612,nan,2,2,0,0
11668000,11668000,47.39775077058275,8.545607365465944,488.0913,488.0939,0.042087145,1.1396413,1.0622942,nan,2,2,0,0
11676000,11676000,47.39775077157543,8.545607365118673,488.09116,488.09375,0.042087145,1.1398966,1.0625285,nan,2,2,0,0
11684000,11684000,47.39775077253938,8.545607364777242,488.09103,488.09363,0.042087145,1.1401541,1.0621294,nan,2,2,0,0
11692000,11692000,47.39775077349306,8.545607364458276,488.0909,488.0935,0.042087145,1.1404138,1.0623641,nan,2,2,0,0
11700000,11700000,47.397750774439565,8.545607364152977,488.09076,488.09335,0.042087145,1.1406755,1.0626001,nan,2,2,0,0
11708000,11708000,47.39775077537524,8.54560736384087,488.09064,488.09323,0.042087145,1.1409396,1.0628376,nan,2,2,0,0
11716000,11716000,47.397750776299326,8.54560736352274,488.09048,488.09308,0.042087145,1.1412058,1.0630764,nan,2,2,0,0
11724000,11724000,47.39775077721319,8.54560736320522,488.09036,488.09296,0.042087145,1.1414742,1.0633166,nan,2,2,0,0
11732000,11732000,47.39775077812217,8.5456073628933,488.0902,488.0928,0.042087145,1.141745,1.0635581,nan,2,2,0,0
11740000,11740000,47.39775077902707,8.545607362571852,488.09003,488.09262,0.042087145,1.1420178,1.0631452,nan,2,2,0,0
11748000,11748000,47.39775077991276,8.545607362254254,488.08984,488.09244,0.042087145,1.1422931,1.0633869,nan,2,2,0,0
11756000,11756000,47.39775078078075,8.545607361936245,488.0897,488.0923,0.042087145,1.1425706,1.0636302,nan,2,2,0,0
11764000,11764000,47.39775078164629,8.54560736160993,488.0895,488.0921,0.042087145,1.1428504,1.0638747,nan,2,2,0,0
11772000,11772000,47.39775078250505,8.545607361271381,488.08932,488.09192,0.042087145,1.1431326,1.0641207,nan,2,2,0,0
11780000,11780000,47.39775078334588,8.545607360935348,488.08914,488.09174,0.042087145,1.143417,1.064368,nan,2,2,0,0
11788000,11788000,47.39775078416508,8.5456073606065,488.089,488.09158,0.042087145,1.1437037,1.0646166,nan,2,2,0,0
11796000,11796000,47.3977507849577,8.54560736026369,488.0888,488.0914,0.042087145,1.1439929,1.0648667,nan,2,2,0,0
11804000,11804000,47.397750785732605,8.545607359899863,488.08865,488.09125,0.042087145,1.1442845,1.064435,nan,2,2,0,0
11812000,11812000,47.39775078648972,8.54560735953652,488.08847,488.09106,0.042087145,1.1445785,1.0646852,nan,2,2,0,0
11820000,11820000,47.3977507872224,8.54560735917937,488.08832,488.0909,0.042087145,1.1448748,1.0649369,nan,2,2,0,0
11828000,11828000,47.397750787935976,8.545607358835742,488.08813,488.09073,0.042087145,1.1451735,1.0651897,nan,2,2,0,0
11836000,11836000,47.39775078863434,8.545607358503975,488.08798,488.09058,0.042087145,1.1454747,1.0654441,nan,2,2,0,0
11844000,11844000,47.39775078931774,8.545607358185283,488.0878,488.0904,0.042087145,1.1457783,1.0656997,nan,2,2,0,0
11852000,11852000,47.39775078998792,8.545607357863629,488.08762,488.0902,0.042087145,1.1460845,1.0659568,nan,2,2,0,0
11860000,11860000,47.39775079064048,8.545607357524917,488.08746,488.09006,0.042087145,1.1463931,1.0655092,nan,2,2,0,0
11868000,11868000,47.39775079126613,8.545607357170308,488.08728,488.08987,0.042087145,1.1467042,1.0657663,nan,2,2,0,0
11876000,11876000,47.3977507918729,8.54560735679623,488.08713,488.08972,0.042087145,1.1470178,1.0660248,nan,2,2,0,0
11884000,11884000,47.39775079246304,8.545607356426656,488.08694,488.08954,0.042087145,1.1473341,1.0662848,nan,2,2,0,0
11892000,11892000,47.39775079304429,8.545607356056964,488.08676,488.08936,0.042087145,1.1476529,1.0665461,nan,2,2,0,0
11900000,11900000,47.39775079361353,8.545607355679053,488.08658,488.08917,0.042087145,1.1479741,1.0668087,nan,2,2,0,0
11908000,11908000,47.39775079417806,8.545607355302042,488.08643,488.08902,0.042087145,1.148298,1.0663483,nan,2,2,0,0
11916000,11916000,47.39775079473832,8.545607354914601,488.08624,488.08884,0.042087145,1.1486244,1.0666109,nan,2,2,0,0
11924000,11924000,47.397750795295934,8.545607354529071,488.08606,488.08865,0.042087145,1.1489536,1.066875,nan,2,2,0,0
11932000,11932000,47.39775079584103,8.545607354144737,488.0859,488.0885,0.042087145,1.1492853,1.0671403,nan,2,2,0,0
11940000,11940000,47.39775079637109,8.545607353747638,488.08572,488.08832,0.042087145,1.1496197,1.0674071,nan,2,2,0,0
11948000,11948000,47.397750796881915,8.545607353345295,488.08554,488.08813,0.042087145,1.1499568,1.0676752,nan,2,2,0,0
11956000,11956000,47.397750797381924,8.545607352962767,488.08536,488.08795,0.042087145,1.1502966,1.0679448,nan,2,2,0,0
11964000,11964000,47.39775079786504,8.545607352603048,488.0852,488.0878,0.042087145,1.150639,1.0682157,nan,2,2,0,0
11972000,11972000,47.39775079834018,8.545607352248132,488.08502,488.08762,0.042087145,1.1509843,1.0677329,nan,2,2,0,0
11980000,11980000,47.39775079880348,8.545607351889894,488.08487,488.08746,0.042087145,1.1513321,1.0680037,nan,2,2,0,0
11988000,11988000,47.39775079925059,8.545607351540575,488.08472,488.0873,0.042087145,1.1516829,1.0682758,nan,2,2,0,0
11996000,11996000,47.397750800496624,8.545607352587865,488.08472,488.08823,0.042087145,1.1281568,1.0581161,nan,2,2,0,0
12004000,12004000,47.39775080172615,8.545607353619463,488.08475,488.08826,0.042087145,1.1284096,1.0583351,nan,2,2,0,0
12012000,12012000,47.397750802942184,8.545607354628647,488.08475,488.08826,0.042087145,1.1286646,1.0585554,nan,2,2,0,0
12020000,12020000,47.39775080415068,8.54560735559255,488.08475,488.08826,0.042087145,1.1289217,1.0587769,nan,2,2,0,0
12028000,12028000,47.39775080534949,8.545607356511253,488.08478,488.0883,0.042087145,1.1291811,1.0584385,nan,2,2,0,0
12036000,12036000,47.39775080653843,8.545607357390917,488.08478,488.0883,0.042087145,1.1294428,1.0586604,nan,2,2,0,0
12044000,12044000,47.397750807708,8.545607358262647,488.08478,488.0883,0.042087145,1.1297066,1.0588834,nan,2,2,0,0
12052000,12052000,47.397750808845316,8.545607359109837,488.08478,488.0883,0.042087145,1.1299727,1.0591077,nan,2,2,0,0
12060000,12060000,47.39775080994707,8.545607359929962,488.0848,488.08832,0.042087145,1.130241,1.0593331,nan,2,2,0,0
12068000,12068000,47.39775081101757,8.545607360738444,488.0848,488.08832,0.042087145,1.1305116,1.0595598,nan,2,2,0,0
12076000,12076000,47.397750812062064,8.545607361523086,488.08478,488.0883,0.042087145,1.1307846,1.0597878,nan,2,2,0,0
12084000,12084000,47.397750813086574,8.545607362278995,488.08478,488.0883,0.042087145,1.1310599,1.0600169,nan,2,2,0,0
12092000,12092000,47.39775081408316,8.545607363020684,488.08478,488.0883,0.042087145,1.1313374,1.0596622,nan,2,2,0,0
12100000,12100000,47.3977508150592,8.545607363744068,488.08475,488.08826,0.042087145,1.1316173,1.0598916,nan,2,2,0,0
12108000,12108000,47.397750816017705,8.545607364455233,488.08475,488.08826,0.042087145,1.1318996,1.0601221,nan,2,2,0,0
12116000,12116000,47.397750816959444,8.545607365159826,488.08472,488.08823,0.042087145,1.1321841,1.060354,nan,2,2,0,0
12124000,12124000,47.39775081789619,8.545607365862535,488.0847,488.0882,0.042087145,1.1324713,1.060587,nan,2,2,0,0
12132000,12132000,47.39775081883205,8.54560736654547,488.08466,488.08817,0.042087145,1.1327608,1.0608212,nan,2,2,0,0
12140000,12140000,47.39775081977409,8.545607367194625,488.08463,488.08813,0.042087145,1.1330526,1.0610566,nan,2,2,0,0
12148000,12148000,47.39775082071598,8.545607367817277,488.0846,488.0881,0.042087145,1.1333469,1.060688,nan,2,2,0,0
12156000,12156000,47.3977508216505,8.545607368406998,488.08453,488.08804,0.042087145,1.1336437,1.0609237,nan,2,2,0,0
12164000,12164000,47.3977508225734,8.545607368973158,488.08447,488.08798,0.042087145,1.1339431,1.0611606,nan,2,2,0,0
12172000,12172000,47.39775082348281,8.54560736953171,488.08438,488.0879,0.042087145,1.1342448,1.0613985,nan,2,2,0,0
12180000,12180000,47.397750824375414,8.545607370077208,488.08432,488.08783,0.042087145,1.1345491,1.0616379,nan,2,2,0,0
12188000,12188000,47.397750825253624,8.545607370611268,488.08426,488.08777,0.042087145,1.134856,1.0618783,nan,2,2,0,0
12196000,12196000,47.39775082612265,8.545607371163447,488.08417,488.08768,0.042087145,1.1351653,1.0621202,nan,2,2,0,0
12204000,12204000,47.39775082698328,8.545607371735096,488.0841,488.08762,0.042087145,1.1354772,1.0623631,nan,2,2,0,0
12212000,12212000,47.39775082782656,8.545607372308622,488.084,488.08752,0.042087145,1.1357918,1.061976,nan,2,2,0,0
12220000,12220000,47.39775082865357,8.5456073728808,488.08392,488.08743,0.042087145,1.1361089,1.062219,nan,2,2,0,0
12228000,12228000,47.397750829467824,8.54560737343449,488.08383,488.08734,0.042087145,1.1364286,1.0624633,nan,2,2,0,0
12236000,12236000,47.39775083027551,8.54560737396993,488.0837,488.08722,0.042087145,1.136751,1.0627087,nan,2,2,0,0
12244000,12244000,47.397750831074625,8.545607374495098,488.08362,488.08713,0.042087145,1.1370761,1.0629555,nan,2,2,0,0
12252000,12252000,47.39775083186231,8.545607375000827,488.08353,488.08704,0.042087145,1.1374038,1.0632035,nan,2,2,0,0
12260000,12260000,47.39775083264243,8.545607375483575,488.08344,488.08694,0.042087145,1.1377343,1.0634527,nan,2,2,0,0
12268000,12268000,47.39775083341793,8.54560737595023,488.08334,488.08685,0.042087145,1.1380674,1.0630497,nan,2,2,0,0
12276000,12276000,47.397750834195314,8.545607376409714,488.08325,488.08676,0.042087145,1.1384033,1.0632988,nan,2,2,0,0
12284000,12284000,47.397750834976534,8.545607376853638,488.08316,488.08667,0.042087145,1.138742,1.0635493,nan,2,2,0,0
12292000,12292000,47.397750835753506,8.54560737726882,488.08307,488.08658,0.042087145,1.1390833,1.0638009,nan,2,2,0,0
12300000,12300000,47.397750836518334,8.545607377658971,488.08295,488.08646,0.042087145,1.1394274,1.0640538,nan,2,2,0,0
12308000,12308000,47.39775083727094,8.545607378054182,488.08286,488.08636,0.042087145,1.1397744,1.0643079,nan,2,2,0,0
12316000,12316000,47.39775083803612,8.545607378447297,488.08276,488.08627,0.042087145,1.1401242,1.0645633,nan,2,2,0,0
12324000,12324000,47.39775083880067,8.545607378817081,488.08264,488.08615,0.042087145,1.140477,1.0648199,nan,2,2,0,0
12332000,12332000,47.397750839558064,8.545607379177275,488.08258,488.0861,0.042087145,1.1408324,1.0643959,nan,2,2,0,0
12340000,12340000,47.39775084030814,8.545607379530862,488.0825,488.086,0.042087145,1.1411908,1.0646524,nan,2,2,0,0
12348000,12348000,47.39775084105134,8.545607379873964,488.08243,488.08594,0.042087145,1.1415522,1.0649102,nan,2,2,0,0
12356000,12356000,47.39775084179703,8.545607380220595,488.08234,488.08585,0.042087145,1.1419164,1.0651692,nan,2,2,0,0
12364000,12364000,47.397750842542656,8.545607380563808,488.08224,488.08575,0.042087145,1.1422836,1.0654294,nan,2,2,0,0
12372000,12372000,47.39775084328076,8.545607380906612,488.08215,488.08566,0.042087145,1.1426537,1.0656909,nan,2,2,0,0
12380000,12380000,47.39775084401128,8.545607381229576,488.08206,488.08557,0.042087145,1.1430268,1.0659536,nan,2,2,0,0
12388000,12388000,47.397750844743854,8.545607381538087,488.08194,488.08545,0.042087145,1.143403,1.0655118,nan,2,2,0,0
12396000,12396000,47.39775084566945,8.545607381926041,488.082,488.0862,0.042087145,1.1213385,1.0560951,nan,2,2,0,0
12404000,12404000,47.3977508465805,8.545607382313623,488.08206,488.08627,0.042087145,1.1216089,1.0563086,nan,2,2,0,0
12412000,12412000,47.397750847472594,8.54560738267815,488.08212,488.08633,0.042087145,1.1218815,1.0565232,nan,2,2,0,0
12420000,12420000,47.397750848359074,8.545607383038307,488.08218,488.0864,0.042087145,1.1221566,1.0567389,nan,2,2,0,0
12428000,12428000,47.39775084924164,8.545607383400654,488.08224,488.08646,0.042087145,1.122434,1.0569556,nan,2,2,0,0
12436000,12436000,47.397750850114065,8.545607383744745,488.08228,488.0865,0.042087145,1.1227138,1.0571735,nan,2,2,0,0
12444000,12444000,47.39775085097599,8.545607384080284,488.08234,488.08655,0.042087145,1.122996,1.0573924,nan,2,2,0,0
12452000,12452000,47.3977508518346,8.545607384411532,488.08237,488.08658,0.042087145,1.1232806,1.0570776,nan,2,2,0,0
12460000,12460000,47.39775085268016,8.54560738472991,488.08243,488.08664,0.042087145,1.1235676,1.0572968,nan,2,2,0,0
12468000,12468000,47.397750853522595,8.545607385024942,488.08246,488.08667,0.042087145,1.1238571,1.057517,nan,2,2,0,0
12476000,12476000,47.39775085436315,8.545607385322118,488.0825,488.0867,0.042087145,1.1241491,1.0577384,nan,2,2,0,0
12484000,12484000,47.3977508552005,8.545607385618776,488.08252,488.08673,0.042087145,1.1244435,1.0579609,nan,2,2,0,0
12492000,12492000,47.39775085604172,8.54560738591477,488.08255,488.08676,0.042087145,1.1247405,1.0581845,nan,2,2,0,0
12500000,12500000,47.397750856895385,8.545607386223864,488.08255,488.08676,0.042087145,1.1250399,1.0584092,nan,2,2,0,0
12508000,12508000,47.39775085775357,8.54560738653118,488.08258,488.0868,0.042087145,1.1253419,1.0580812,nan,2,2,0,0
12516000,12516000,47.39775085860532,8.545607386822894,488.08258,488.0868,0.042087145,1.1256465,1.058306,nan,2,2,0,0
12524000,12524000,47.39775085945421,8.545607387094806,488.08258,488.0868,0.042087145,1.1259537,1.058532,nan,2,2,0,0
12532000,12532000,47.39775086029681,8.545607387342168,488.0826,488.08682,0.042087145,1.1262634,1.0587591,nan,2,2,0,0
12540000,12540000,47.39775086112578,8.54560738758134,488.0826,488.08682,0.042087145,1.1265758,1.0589873,nan,2,2,0,0
12548000,12548000,47.39775086194974,8.545607387819654,488.08258,488.0868,0.042087145,1.1268908,1.0592166,nan,2,2,0,0
12556000,12556000,47.3977508627665,8.54560738806057,488.08258,488.0868,0.042087145,1.1272085,1.059447,nan,2,2,0,0
12564000,12564000,47.39775086357129,8.545607388287584,488.08258,488.0868,0.042087145,1.1275288,1.0596786,nan,2,2,0,0
12572000,12572000,47.39775086436523,8.545607388508177,488.08258,488.0868,0.042087145,1.1278518,1.0593331,nan,2,2,0,0
12580000,12580000,47.397750865145646,8.54560738872757,488.08258,488.0868,0.042087145,1.1281775,1.0595647,nan,2,2,0,0
12588000,12588000,47.397750865916905,8.54560738896223,488.08258,488.0868,0.042087145,1.128506,1.0597975,nan,2,2,0,0
12596000,12596000,47.39775086666928,8.545607389198196,488.08258,488.0868,0.042087145,1.1288372,1.0600314,nan,2,2,0,0
12604000,12604000,47.3977508674001,8.545607389415565,488.08255,488.08676,0.042087145,1.1291711,1.0602664,nan,2,2,0,0
12612000,12612000,47.39775086811702,8.545607389620697,488.08255,488.08676,0.042087145,1.1295079,1.0605025,nan,2,2,0,0
12620000,12620000,47.39775086883146,8.545607389815132,488.08252,488.08673,0.042087145,1.1298475,1.0607398,nan,2,2,0,0
12628000,12628000,47.39775086953657,8.545607390026655,488.08246,488.08667,0.042087145,1.1301899,1.0603794,nan,2,2,0,0
12636000,12636000,47.3977508702156,8.545607390258827,488.08243,488.08664,0.042087145,1.1305351,1.0606166,nan,2,2,0,0
12644000,12644000,47.39775087086122,8.545607390494633,488.08237,488.08658,0.042087145,1.1308833,1.060855,nan,2,2,0,0
12652000,12652000,47.397750871482316,8.545607390740658,488.0823,488.08652,0.042087145,1.1312343,1.0610945,nan,2,2,0,0
12660000,12660000,47.39775087208926,8.545607390987328,488.08224,488.08646,0.042087145,1.1315883,1.0613352,nan,2,2,0,0
12668000,12668000,47.397750872685315,8.54560739121692,488.08218,488.0864,0.042087145,1.1319451,1.061577,nan,2,2,0,0
12676000,12676000,47.397750873268265,8.54560739144482,488.08212,488.08633,0.042087145,1.1323049,1.0618199,nan,2,2,0,0
12684000,12684000,47.39775087382741,8.545607391677198,488.08206,488.08627,0.042087145,1.1326677,1.0620639,nan,2,2,0,0
12692000,12692000,47.39775087437293,8.54560739190488,488.082,488.0862,0.042087145,1.1330335,1.0616841,nan,2,2,0,0
12700000,12700000,47.397750874911814,8.54560739212742,488.08194,488.08615,0.042087145,1.1334022,1.061928,nan,2,2,0,0
12708000,12708000,47.39775087545042,8.545607392347735,488.08188,488.0861,0.042087145,1.133774,1.0621731,nan,2,2,0,0
12716000,12716000,47.39775087598175,8.545607392588842,488.08182,488.08603,0.042087145,1.1341488,1.0624194,nan,2,2,0,0
12724000,12724000,47.39775087650647,8.54560739283924,488.08173,488.08594,0.042087145,1.1345268,1.0626668,nan,2,2,0,0
12732000,12732000,47.397750877017494,8.545607393069906,488.08167,488.08588,0.042087145,1.1349078,1.0629153,nan,2,2,0,0
12740000,12740000,47.397750877516046,8.545607393271009,488.08157,488.0858,0.042087145,1.1352919,1.0631651,nan,2,2,0,0
12748000,12748000,47.3977508779956,8.545607393454985,488.0815,488.08572,0.042087145,1.1356792,1.0627686,nan,2,2,0,0
12756000,12756000,47.39775087845342,8.545607393642582,488.08145,488.08566,0.042087145,1.1360697,1.0630181,nan,2,2,0,0
12764000,12764000,47.397750878897504,8.545607393838878,488.0814,488.0856,0.042087145,1.1364633,1.0632687,nan,2,2,0,0
12772000,12772000,47.397750879325876,8.54560739404195,488.08133,488.08554,0.042087145,1.1368601,1.0635206,nan,2,2,0,0
12780000,12780000,47.397750879730694,8.545607394252489,488.08124,488.08545,0.042087145,1.1372601,1.0637735,nan,2,2,0,0
12788000,12788000,47.39775088011976,8.545607394480294,488.08118,488.0854,0.042087145,1.1376634,1.0640277,nan,2,2,0,0
12796000,12796000,47.397750881342525,8.545607393590682,488.08112,488.08606,0.042087145,1.116328,1.0550154,nan,2,2,0,0
12804000,12804000,47.39775088255122,8.545607392732999,488.08105,488.086,0.042087145,1.1166164,1.0552251,nan,2,2,0,0
12812000,12812000,47.39775088374108,8.545607391907453,488.08102,488.08597,0.042087145,1.1169071,1.0549407,nan,2,2,0,0
12820000,12820000,47.397750884907374,8.545607391117334,488.08096,488.0859,0.042087145,1.1172004,1.0551506,nan,2,2,0,0
12828000,12828000,47.39775088605919,8.545607390337874,488.0809,488.08585,0.042087145,1.1174963,1.0553614,nan,2,2,0,0
12836000,12836000,47.39775088720434,8.545607389574402,488.0808,488.08575,0.042087145,1.1177946,1.0555733,nan,2,2,0,0
12844000,12844000,47.397750888335,8.545607388823074,488.08075,488.0857,0.042087145,1.1180955,1.0557864,nan,2,2,0,0
12852000,12852000,47.39775088944309,8.545607388093826,488.0807,488.08563,0.042087145,1.118399,1.0560004,nan,2,2,0,0
12860000,12860000,47.397750890528485,8.545607387361853,488.0806,488.08554,0.042087145,1.118705,1.0562153,nan,2,2,0,0
12868000,12868000,47.39775089158312,8.545607386628992,488.08054,488.08548,0.042087145,1.1190139,1.0559183,nan,2,2,0,0
12876000,12876000,47.39775089260042,8.545607385894609,488.0805,488.08545,0.042087145,1.1193252,1.0561335,nan,2,2,0,0
12884000,12884000,47.397750893601895,8.545607385169747,488.08044,488.0854,0.042087145,1.1196392,1.0563496,nan,2,2,0,0
12892000,12892000,47.39775089458631,8.54560738445417,488.08038,488.08533,0.042087145,1.1199558,1.056567,nan,2,2,0,0
