timestamp,timestamp_sample,states[0],states[1],states[2],states[3],states[4],states[5],states[6],states[7],states[8],states[9],states[10],states[11],states[12],states[13],states[14],states[15],states[16],states[17],states[18],states[19],states[20],states[21],states[22],states[23],covariances[0],covariances[1],covariances[2],covariances[3],covariances[4],covariances[5],covariances[6],covariances[7],covariances[8],covariances[9],covariances[10],covariances[11],covariances[12],covariances[13],covariances[14],covariances[15],covariances[16],covariances[17],covariances[18],covariances[19],covariances[20],covariances[21],covariances[22],covariances[23],n_states
4116000,4036000,0.99988383,-0.010131465,-0.011394528,-2.3025797e-05,0.0028947075,-0.001020442,-0.00785552,0.00031891986,-3.2727967e-05,-0.012108296,1.3258216e-06,-2.3624996e-05,-2.5515803e-07,-1.7653038e-05,1.3458055e-05,-0.000983423,0.0,0.0,0.0,0.0,0.0,0.0,0.0,0.0,1.3406002e-07,0.00053235766,0.0005324998,0.00042657467,0.010870966,0.010871683,0.0022593297,0.00035811128,0.00035813023,8.221491,2.6945526e-07,2.695949e-07,2.8026963e-07,3.7716356e-06,3.7719224e-06,4.037594e-07,0.0,0.0,0.0,0.0,0.0,0.0,0.0,0.0,24
5116000,5036000,0.99989426,-0.009681055,-0.010860046,7.654993e-05,-2.6127214e-05,-0.0031295435,-0.009862852,8.418626e-05,-0.0004486186,-0.035168756,-1.0401323e-05,-4.2785417e-05,2.5973122e-07,-2.4221777e-05,1.9498413e-05,-0.0010347776,0.0,0.0,0.0,0.0,0.0,0.0,0.0,0.0,5.2502465e-08,0.00019214126,0.0001922055,0.000691357,0.0024886935,0.002488619,0.007953759,0.00014224341,0.00014224177,0.6638887,6.991438e-09,6.991321e-09,6.85033e-08,3.7579975e-06,3.7583213e-06,2.2603867e-07,0.0,0.0,0.0,0.0,0.0,0.0,0.0,0.0,24
6108000,6028000,0.9999022,-0.009274695,-0.010470835,2.207797e-05,0.00036321455,-0.0004098283,-0.007962614,8.126409e-05,9.744838e-05,-0.028769491,-1.2915053e-05,-4.4629236e-05,4.6498985e-07,-2.6887925e-05,2.17597e-05,-0.001070442,0.0,0.0,0.0,0.0,0.0,0.0,0.0,0.0,4.404938e-08,0.00016404614,0.00016409105,0.0006254551,0.0011261525,0.0011261293,0.007642835,8.5423664e-05,8.54233e-05,0.35949144,9.746476e-10,9.733051e-10,2.4108088e-08,3.7528307e-06,3.7532006e-06,9.915134e-08,0.0,0.0,0.0,0.0,0.0,0.0,0.0,0.0,24
7116000,7036000,0.9999058,-0.0088176085,-0.010520456,3.4648787e-05,-0.0011810042,0.0026343367,-0.00293985,-0.0002770157,0.00018469623,-0.027064294,-1.2585836e-05,-4.3746364e-05,6.3276167e-07,-2.5781377e-05,2.1336333e-05,-0.0010847816,0.0,0.0,0.0,0.0,0.0,0.0,0.0,0.0,4.0727244e-08,0.00015875278,0.00015878926,0.00044579993,0.00080389343,0.00080388045,0.0076060137,6.7369736e-05,6.736962e-05,0.2462429,3.1923905e-10,3.1855002e-10,9.071267e-09,3.7513646e-06,3.751748e-06,5.8805384e-08,0.0,0.0,0.0,0.0,0.0,0.0,0.0,0.0,24
8116000,8036000,0.9999056,-0.008961328,-0.010419334,-0.00014816511,-0.00024265161,0.0024840217,-1.7106533e-05,0.000119847005,0.0008059079,-0.02487193,-1.0508349e-05,-4.3604985e-05,4.901568e-07,-2.5691164e-05,1.8239194e-05,-0.0010870011,0.0,0.0,0.0,0.0,0.0,0.0,0.0,0.0,3.9186457e-08,0.00015787999,0.00015792644,0.0003415144,0.0011452782,0.001145263,0.006278221,0.0001428722,0.00014287134,0.18977965,1.7045364e-10,1.7027373e-10,4.326426e-09,3.7510388e-06,3.75142e-06,5.000011e-08,0.0,0.0,0.0,0.0,0.0,0.0,0.0,0.0,24
9108000,9028000,0.9999086,-0.008816546,-0.010253618,-0.0002555941,0.0020654772,0.002574646,0.00042924285,0.00010520766,0.00035651994,-0.061288293,-9.925792e-06,-4.3391632e-05,3.171576e-08,-2.5305459e-05,1.6749313e-05,-0.0010870035,0.0,0.0,0.0,0.0,0.0,0.0,0.0,0.0,3.721905e-08,0.00015649358,0.00015654092,0.00027523376,0.00091852865,0.000918588,0.005548732,0.00010874488,0.000108746586,0.6716214,9.584812e-11,9.57273e-11,2.3970148e-09,3.750567e-06,3.7509399e-06,5.0000036e-08,0.0,0.0,0.0,0.0,0.0,0.0,0.0,0.0,24
10116000,10036000,0.9999122,-0.008850869,-0.0098602045,-0.00019768249,0.0023891581,0.0013445002,0.0032762662,0.0006750656,0.0004886958,-0.066076405,-9.290083e-06,-4.3995835e-05,-2.699106e-07,-2.7617161e-05,1.5455094e-05,-0.0010849788,0.0,0.0,0.0,0.0,0.0,0.0,0.0,0.0,3.580774e-08,0.00015575757,0.0001558085,0.00023147314,0.00079802884,0.00079802045,0.0052161724,9.1442475e-05,9.1443486e-05,0.17448793,6.224893e-11,6.219971e-11,1.4699931e-09,3.7502552e-06,3.7506409e-06,5.0000256e-08,0.0,0.0,0.0,0.0,0.0,0.0,0.0,0.0,24
11108000,11028000,0.9999157,-0.008682699,-0.009650844,-0.0002376203,0.000170776,-0.002391876,0.008365921,-8.751542e-05,-0.00035824813,-0.06295345,-9.275079e-06,-4.4100096e-05,-5.0305306e-07,-2.841474e-05,1.5886517e-05,-0.0010780798,0.0,0.0,0.0,0.0,0.0,0.0,0.0,0.0,3.4577464e-08,0.00015534832,0.00015539577,0.00019887123,0.0006779736,0.00067787274,0.004961885,7.270989e-05,7.270674e-05,0.11365547,4.460618e-11,4.4560633e-11,9.697954e-10,3.7500931e-06,3.750501e-06,5.0000075e-08,0.0,0.0,0.0,0.0,0.0,0.0,0.0,0.0,24
12108000,12028000,0.9999184,-0.00843918,-0.009589064,-0.00025124347,-0.0031503902,-0.0015547952,0.0157599,-0.0004186102,-0.00043000616,-0.060386512,-9.763339e-06,-4.382563e-05,-6.550445e-07,-2.899051e-05,1.7480521e-05,-0.0010658412,0.0,0.0,0.0,0.0,0.0,0.0,0.0,0.0,3.3774263e-08,0.00015520048,0.00015524364,0.00018794765,0.000602933,0.0006028284,0.0054306807,6.1079845e-05,6.1076884e-05,0.081268124,3.4362083e-11,3.4307432e-11,7.2396494e-10,3.7500274e-06,3.7504067e-06,5.0000036e-08,0.0,0.0,0.0,0.0,0.0,0.0,0.0,0.0,24
13108000,13028000,0.9999195,-0.008237949,-0.009650919,-0.00023174076,0.00041728365,0.004785555,0.014272773,-3.731293e-05,0.0009386997,-0.06011682,-9.829136e-06,-4.3549822e-05,-8.0914066e-07,-2.911544e-05,1.9317386e-05,-0.0010496518,0.0,0.0,0.0,0.0,0.0,0.0,0.0,0.0,3.307148e-08,0.00015525277,0.00015529484,0.00016636272,0.0008842759,0.0008841545,0.005275448,0.0001242345,0.00012422481,0.06987642,2.8933415e-11,2.889447e-11,5.227656e-10,3.7498532e-06,3.7501736e-06,5e-08,0.0,0.0,0.0,0.0,0.0,0.0,0.0,0.0,24
14116000,14036000,0.9999201,-0.00834802,-0.009494445,-0.00021907146,0.0016802611,0.00076513673,0.010772398,0.00059045013,0.00050502474,-0.061853547,-9.452609e-06,-4.3649805e-05,-9.1437335e-07,-3.0995652e-05,1.8165692e-05,-0.0010345824,0.0,0.0,0.0,0.0,0.0,0.0,0.0,0.0,3.2414967e-08,0.00015500073,0.00015504504,0.00014951418,0.0008098975,0.0008097937,0.005127883,0.00010741816,0.00010741265,0.059646193,2.4171765e-11,2.4157933e-11,3.9136108e-10,3.7495536e-06,3.7498753e-06,5e-08,0.0,0.0,0.0,0.0,0.0,0.0,0.0,0.0,24
15116000,15036000,0.99992466,-0.00823401,-0.009113258,-0.00016720004,0.0021725046,-0.00022983481,0.0066778734,0.00050783413,-0.00020451586,-0.060964454,-9.490017e-06,-4.3818673e-05,-9.914941e-07,-3.3642926e-05,1.9315266e-05,-0.0010232691,0.0,0.0,0.0,0.0,0.0,0.0,0.0,0.0,3.1101028e-08,0.00015474738,0.00015478986,0.00013562826,0.0007297841,0.00072960975,0.0050158706,8.996643e-05,8.995773e-05,0.056434173,2.0840605e-11,2.083653e-11,3.0179237e-10,3.749174e-06,3.7495315e-06,5.0000224e-08,0.0,0.0,0.0,0.0,0.0,0.0,0.0,0.0,24
16116000,16036000,0.99993,-0.0080344,-0.008688018,-6.722532e-05,0.0002657586,-0.0021203253,0.0073331147,0.00010356017,-0.00012883203,-0.06375783,-9.490732e-06,-4.3946642e-05,-1.0351988e-06,-3.5897086e-05,1.9986122e-05,-0.001013584,0.0,0.0,0.0,0.0,0.0,0.0,0.0,0.0,2.9321782e-08,0.00015454725,0.00015458473,0.00012415725,0.0006564312,0.0006562709,0.0048611765,7.552559e-05,7.551951e-05,0.051374547,1.842208e-11,1.8424859e-11,2.3856853e-10,3.7488096e-06,3.74926e-06,5.000004e-08,0.0,0.0,0.0,0.0,0.0,0.0,0.0,0.0,24
17108000,17028000,0.9999319,-0.008053184,-0.008452742,-2.186095e-05,-0.0009910226,-0.0028033298,0.013717122,-0.00010974305,-0.00052808557,-0.06320276,-9.674258e-06,-4.395663e-05,-1.0455517e-06,-3.795654e-05,2.151135e-05,-0.0010037624,0.0,0.0,0.0,0.0,0.0,0.0,0.0,0.0,2.8892892e-08,0.00015446436,0.00015449629,0.000119892946,0.00058517297,0.0005849867,0.0053882226,6.199025e-05,6.198395e-05,0.05182182,1.6624641e-11,1.6629111e-11,2.0082587e-10,3.7485688e-06,3.7491152e-06,5.000007e-08,0.0,0.0,0.0,0.0,0.0,0.0,0.0,0.0,24
18108000,18028000,0.99993527,-0.007795013,-0.008294815,5.977031e-05,-0.0010069715,-0.00013463276,0.009587117,-0.0005218763,-0.0003127607,-0.063074306,-9.8482815e-06,-4.3902568e-05,-1.0310455e-06,-4.0634546e-05,2.365966e-05,-0.000989439,0.0,0.0,0.0,0.0,0.0,0.0,0.0,0.0,2.791495e-08,0.0001545848,0.00015460644,0.00011096626,0.0008516838,0.00085144467,0.00523212,0.00012469881,0.00012467733,0.048889145,1.5569173e-11,1.5575874e-11,1.6458498e-10,3.748271e-06,3.748945e-06,5.000007e-08,0.0,0.0,0.0,0.0,0.0,0.0,0.0,0.0,24
19108000,19028000,0.99993813,-0.007692224,-0.008042359,0.00016374335,0.0019154483,-0.0061826096,0.012614042,0.00076600054,-0.0013458149,-0.062754646,-1.0000622e-05,-4.396821e-05,-1.0042584e-06,-4.379351e-05,2.5761366e-05,-0.0009757229,0.0,0.0,0.0,0.0,0.0,0.0,0.0,0.0,2.7280494e-08,0.00015446375,0.00015447555,0.000103321916,0.0007776155,0.0007775037,0.0051368503,0.00010519062,0.00010518386,0.04885131,1.4421107e-11,1.44310276e-11,1.3712259e-10,3.7478446e-06,3.748686e-06,5.0000036e-08,0.0,0.0,0.0,0.0,0.0,0.0,0.0,0.0,24
20116000,20036000,0.9999416,-0.007506315,-0.0077804103,9.6336094e-05,0.0007996234,-0.0017448288,0.010234617,0.00015838648,-0.00065357675,-0.06281231,-1.0274502e-05,-4.4004846e-05,-9.860807e-07,-4.7577403e-05,2.8644956e-05,-0.0009617147,0.0,0.0,0.0,0.0,0.0,0.0,0.0,0.0,2.6632497e-08,0.00015438882,0.000154392,9.680766e-05,0.00072132703,0.0007212862,0.005016405,9.174175e-05,9.173878e-05,0.04690649,1.3512611e-11,1.3523012e-11,1.15922584e-10,3.7474585e-06,3.748436e-06,5.0000036e-08,0.0,0.0,0.0,0.0,0.0,0.0,0.0,0.0,24
21116000,21036000,0.9999449,-0.0072811656,-0.007565656,0.0002365339,-0.004560536,0.002294684,0.011303209,-0.00078680896,0.00014777332,-0.061942037,-1.0340924e-05,-4.3986667e-05,-9.440074e-07,-4.9734324e-05,3.0682768e-05,-0.0009493576,0.0,0.0,0.0,0.0,0.0,0.0,0.0,0.0,2.5470206e-08,0.00015428071,0.00015427447,9.102176e-05,0.0006545853,0.00065456633,0.0049257977,7.737062e-05,7.736987e-05,0.047466733,1.2775755e-11,1.278648e-11,9.928259e-11,3.7470716e-06,3.7482146e-06,5.0000185e-08,0.0,0.0,0.0,0.0,0.0,0.0,0.0,0.0,24
22108000,22028000,0.999942,-0.00740011,-0.00782395,0.00022561967,-0.0049644546,0.000923069,0.01098638,-0.000961629,0.00029265517,-0.05993808,-1.0212684e-05,-4.367796e-05,-9.017627e-07,-4.912894e-05,3.297903e-05,-0.0009380849,0.0,0.0,0.0,0.0,0.0,0.0,0.0,0.0,2.546753e-08,0.00015422917,0.00015421909,8.890639e-05,0.0005879609,0.00058790104,0.005404226,6.369328e-05,6.369122e-05,0.04702239,1.2178893e-11,1.2188268e-11,8.85529e-11,3.7468885e-06,3.748106e-06,5.0000114e-08,0.0,0.0,0.0,0.0,0.0,0.0,0.0,0.0,24
23108000,23028000,0.9999426,-0.00731293,-0.007830138,0.0001475956,-0.0023394402,-0.0015197003,0.016478548,-0.0014096359,-0.0001498947,-0.060224134,-1.0179385e-05,-4.341458e-05,-8.690514e-07,-4.9039245e-05,3.4846602e-05,-0.0009231055,0.0,0.0,0.0,0.0,0.0,0.0,0.0,0.0,2.4495616e-08,0.00015433494,0.00015432326,8.409343e-05,0.00084934616,0.0008492163,0.005306874,0.00012754522,0.00012753549,0.04759068,1.186852e-11,1.1876872e-11,7.741292e-11,3.7468074e-06,3.7480372e-06,5e-08,0.0,0.0,0.0,0.0,0.0,0.0,0.0,0.0,24
24108000,24028000,0.99994403,-0.0072227344,-0.0077385353,0.00014248908,0.0018198518,0.0012189349,0.016875088,0.00030882945,0.00017392845,-0.06079449,-1.0213912e-05,-4.33513e-05,-8.436018e-07,-5.0589686e-05,3.596912e-05,-0.00090335764,0.0,0.0,0.0,0.0,0.0,0.0,0.0,0.0,2.3905526e-08,0.00015436225,0.00015434876,7.981313e-05,0.000779998,0.0007798998,0.0051545263,0.000107973465,0.000107966014,0.046045333,1.14375644e-11,1.1445582e-11,6.835165e-11,3.7467512e-06,3.7479888e-06,5.0000075e-08,0.0,0.0,0.0,0.0,0.0,0.0,0.0,0.0,24
25116000,25036000,0.99994564,-0.0071039307,-0.007636253,0.00020132081,-0.0043975124,-0.0020728647,0.015639074,-0.0010506848,-0.00049745647,-0.06033796,-1.0235783e-05,-4.3295062e-05,-8.228164e-07,-5.103249e-05,3.722067e-05,-0.000885553,0.0,0.0,0.0,0.0,0.0,0.0,0.0,0.0,2.3177357e-08,0.00015429643,0.0001542817,7.6047996e-05,0.00072610367,0.0007260035,0.005083987,9.436466e-05,9.435854e-05,0.046841655,1.1078163e-11,1.1085835e-11,6.090925e-11,3.7466696e-06,3.7479087e-06,5.0000036e-08,0.0,0.0,0.0,0.0,0.0,0.0,0.0,0.0,24
26116000,26036000,0.99994355,-0.007022669,-0.0079739345,0.00035112488,-0.003897871,0.003660704,0.015963785,-0.000884496,0.00055556244,-0.061058972,-1.0243827e-05,-4.3097363e-05,-7.831373e-07,-5.096977e-05,3.8712882e-05,-0.0008659578,0.0,0.0,0.0,0.0,0.0,0.0,0.0,0.0,2.3415756e-08,0.00015426445,0.00015424873,7.260036e-05,0.00066149415,0.0006613743,0.004935814,7.971056e-05,7.9705496e-05,0.0454341,1.0771341e-11,1.0778143e-11,5.473379e-11,3.7466468e-06,3.7478635e-06,5.0000036e-08,0.0,0.0,0.0,0.0,0.0,0.0,0.0,0.0,24
27116000,27036000,0.99994296,-0.0071291234,-0.007946103,0.00028705088,-0.004761539,0.0052516796,0.020595834,-0.0008674023,0.00087774685,-0.06204068,-1.0037355e-05,-4.2905423e-05,-7.5279866e-07,-5.018485e-05,4.0536444e-05,-0.0008420182,0.0,0.0,0.0,0.0,0.0,0.0,0.0,0.0,2.254597e-08,0.00015428218,0.000154268,7.147289e-05,0.00059917476,0.0005991163,0.0048420588,6.740316e-05,6.740008e-05,0.046330456,1.0510311e-11,1.0517049e-11,5.0634445e-11,3.7466168e-06,3.7478308e-06,5.0000036e-08,0.0,0.0,0.0,0.0,0.0,0.0,0.0,0.0,24
28108000,28028000,0.99994075,-0.007297034,-0.008074894,0.0003110189,-0.0060751555,0.008809789,0.031171858,-0.0017045524,0.0026080352,-0.057284046,-9.805438e-06,-4.2721298e-05,-7.217839e-07,-5.0131075e-05,4.194026e-05,-0.0008178184,0.0,0.0,0.0,0.0,0.0,0.0,0.0,0.0,2.2260245e-08,0.00015446781,0.00015445512,6.844221e-05,0.00085626735,0.00085618126,0.00531614,0.00013120538,0.00013119802,0.046179183,1.0426512e-11,1.0433357e-11,4.6132452e-11,3.7465775e-06,3.7477917e-06,5.000022e-08,0.0,0.0,0.0,0.0,0.0,0.0,0.0,0.0,24
29116000,29036000,0.9999375,-0.0074808463,-0.00831001,0.0003200079,-0.0070441873,0.002113856,0.03287821,-0.0018150108,0.0009237825,-0.056741547,-9.555815e-06,-4.251578e-05,-6.874987e-07,-4.9684622e-05,4.317735e-05,-0.00078111305,0.0,0.0,0.0,0.0,0.0,0.0,0.0,0.0,2.2185306e-08,0.00015456184,0.00015455033,6.578785e-05,0.00080158596,0.0008015079,0.0052385693,0.00011500362,0.00011499819,0.04688118,1.0231833e-11,1.0238415e-11,4.232897e-11,3.7464754e-06,3.7476923e-06,5e-08,0.0,0.0,0.0,0.0,0.0,0.0,0.0,0.0,24
30108000,30028000,0.99993443,-0.007645527,-0.008521032,0.00033389946,-0.0053622294,-0.002500433,0.028777316,-0.0011086471,-0.0004357074,-0.05794625,-9.504859e-06,-4.2307947e-05,-6.5945727e-07,-4.6855916e-05,4.2513213e-05,-0.0007432598,0.0,0.0,0.0,0.0,0.0,0.0,0.0,0.0,2.2354154e-08,0.00015456234,0.00015455019,6.327456e-05,0.00072268996,0.0007225777,0.005062563,9.41373e-05,9.413244e-05,0.045580246,1.0054726e-11,1.0060415e-11,3.908253e-11,3.7464074e-06,3.7476611e-06,5.0000185e-08,0.0,0.0,0.0,0.0,0.0,0.0,0.0,0.0,24
31108000,31028000,0.9999326,-0.0075906455,-0.0087752165,0.00046417952,-0.0026003937,-0.003733683,0.024540849,-0.0008909269,-0.0011397599,-0.057729132,-9.65999e-06,-4.210084e-05,-6.2249194e-07,-4.1520358e-05,4.503297e-05,-0.0007115101,0.0,0.0,0.0,0.0,0.0,0.0,0.0,0.0,2.2611392e-08,0.00015445228,0.00015443497,6.101855e-05,0.0006590344,0.00065890496,0.0049621603,7.957689e-05,7.957014e-05,0.046347894,9.90316e-12,9.907703e-12,3.630593e-11,3.746183e-06,3.7475343e-06,5.000011e-08,0.0,0.0,0.0,0.0,0.0,0.0,0.0,0.0,24
32108000,32028000,0.9999329,-0.007471501,-0.008843425,0.0003693539,-0.002431924,-0.004432856,0.020336147,-0.0006574831,-0.0009058089,-0.057306446,-9.854009e-06,-4.195447e-05,-5.922976e-07,-3.790586e-05,4.8682494e-05,-0.000683635,0.0,0.0,0.0,0.0,0.0,0.0,0.0,0.0,2.2486674e-08,0.00015435365,0.00015433141,6.037321e-05,0.00059761445,0.0005975405,0.0048140264,6.733038e-05,6.7327106e-05,0.04503656,9.77074e-12,9.774587e-12,3.4469348e-11,3.7459747e-06,3.7474238e-06,5.0000036e-08,0.0,0.0,0.0,0.0,0.0,0.0,0.0,0.0,24
33108000,33028000,0.9999322,-0.007247148,-0.009107372,0.0004251084,-0.00066172035,-0.005390878,0.021293346,-0.0003709137,-0.00095745316,-0.05423461,-1.0085714e-05,-4.1818694e-05,-5.605494e-07,-3.4491517e-05,5.2288528e-05,-0.0006632772,0.0,0.0,0.0,0.0,0.0,0.0,0.0,0.0,2.2810214e-08,0.00015426616,0.00015424007,5.838338e-05,0.0005466016,0.0005465456,0.0053648762,5.7504847e-05,5.7502933e-05,0.047146942,9.658312e-12,9.661653e-12,3.2344346e-11,3.7458124e-06,3.7473235e-06,5e-08,0.0,0.0,0.0,0.0,0.0,0.0,0.0,0.0,24
34108000,34028000,0.999932,-0.0071270564,-0.009220039,0.0004250376,-0.002990847,-0.004011612,0.014732967,-0.00095091795,-0.0014362199,-0.054961782,-1.0283424e-05,-4.17223e-05,-5.2611864e-07,-3.119703e-05,5.652772e-05,-0.0006425063,0.0,0.0,0.0,0.0,0.0,0.0,0.0,0.0,2.3008285e-08,0.00015429688,0.00015426989,5.6551067e-05,0.0007998627,0.0007997252,0.0052071144,0.00011486921,0.0001148595,0.04576783,9.672805e-12,9.675891e-12,3.05021e-11,3.7456084e-06,3.7471575e-06,5e-08,0.0,0.0,0.0,0.0,0.0,0.0,0.0,0.0,24
35116000,35036000,0.9999334,-0.006943663,-0.0092088785,0.00044447678,-0.007267465,0.00019494907,0.003785178,-0.0016225002,-0.00045374158,-0.05453165,-1.0436435e-05,-4.1560477e-05,-4.9123514e-07,-2.6782473e-05,6.0815924e-05,-0.00063110766,0.0,0.0,0.0,0.0,0.0,0.0,0.0,0.0,2.2344716e-08,0.0001541087,0.00015407974,5.4895358e-05,0.0007473563,0.00074724125,0.005137579,0.00010056966,0.00010056208,0.046827476,9.582802e-12,9.58563e-12,2.8903073e-11,3.7452144e-06,3.7468228e-06,5.0000224e-08,0.0,0.0,0.0,0.0,0.0,0.0,0.0,0.0,24
36108000,36028000,0.9999312,-0.006938331,-0.009451916,0.0004645114,-0.005104193,0.0022961274,0.0011522025,-0.0016132356,0.0005699982,-0.055530068,-1.0384027e-05,-4.126363e-05,-4.5754476e-07,-2.0415444e-05,6.055256e-05,-0.00062752515,0.0,0.0,0.0,0.0,0.0,0.0,0.0,0.0,2.1801936e-08,0.00015390704,0.00015387329,5.329539e-05,0.00067046715,0.0006703659,0.0049583563,8.2232546e-05,8.222768e-05,0.04535872,9.495295e-12,9.49794e-12,2.7498755e-11,3.7447783e-06,3.746544e-06,5.000007e-08,0.0,0.0,0.0,0.0,0.0,0.0,0.0,0.0,24
37116000,37036000,0.9999291,-0.007170082,-0.009499888,0.0003943723,-0.0055296505,0.0029742387,0.001433298,-0.0011360167,0.0005032829,-0.057190165,-1.0308884e-05,-4.1028634e-05,-4.2796634e-07,-1.812599e-05,6.0167116e-05,-0.0006260204,0.0,0.0,0.0,0.0,0.0,0.0,0.0,0.0,2.1497442e-08,0.00015381211,0.0001537746,5.187816e-05,0.00062088773,0.0006207944,0.004884051,7.191803e-05,7.191346e-05,0.046225775,9.424913e-12,9.427583e-12,2.627743e-11,3.7445568e-06,3.746489e-06,5.000004e-08,0.0,0.0,0.0,0.0,0.0,0.0,0.0,0.0,24
38108000,38028000,0.9999289,-0.0071908687,-0.009507927,0.00041293446,-0.000979661,-0.00077691127,0.010590471,-0.00038630722,6.504313e-05,-0.056832876,-1.0236382e-05,-4.0867264e-05,-4.0955206e-07,-1.8513274e-05,6.0192575e-05,-0.00062108773,0.0,0.0,0.0,0.0,0.0,0.0,0.0,0.0,2.0878256e-08,0.00015383196,0.00015379184,5.1546143e-05,0.0005574928,0.0005574609,0.005360789,5.9378362e-05,5.937702e-05,0.04627377,9.358061e-12,9.360823e-12,2.5504496e-11,3.7444172e-06,3.7464451e-06,5.0000036e-08,0.0,0.0,0.0,0.0,0.0,0.0,0.0,0.0,24
39116000,39036000,0.9999301,-0.007131087,-0.009428708,0.00049555424,-0.0038709654,-0.003084582,0.025807723,-0.00073585886,-0.00050272624,-0.057304084,-1.0238395e-05,-4.0826235e-05,-3.8286586e-07,-1.826355e-05,5.9856342e-05,-0.0006014073,0.0,0.0,0.0,0.0,0.0,0.0,0.0,0.0,2.0396264e-08,0.00015409218,0.00015405119,5.0279454e-05,0.0008245517,0.0008244363,0.0052852924,0.0001225278,0.0001225196,0.047147807,9.412248e-12,9.415152e-12,2.4538788e-11,3.7440634e-06,3.7461357e-06,5.000011e-08,0.0,0.0,0.0,0.0,0.0,0.0,0.0,0.0,24
40116000,40036000,0.9999311,-0.006904827,-0.009487766,0.00039369473,-0.0015490241,-0.0021439265,0.0376748,-0.0007326842,-0.0008187274,-0.057379812,-1.0372725e-05,-4.069822e-05,-3.5717312e-07,-2.1236283e-05,5.6044526e-05,-0.00056355307,0.0,0.0,0.0,0.0,0.0,0.0,0.0,0.0,1.996241e-08,0.00015432686,0.0001542846,4.907216e-05,0.0007583789,0.00075836666,0.005128745,0.00010385016,0.00010384825,0.045757517,9.357272e-12,9.359848e-12,2.3684195e-11,3.7433672e-06,3.7454479e-06,5.0000075e-08,0.0,0.0,0.0,0.0,0.0,0.0,0.0,0.0,24
41116000,41036000,0.99993265,-0.0066836355,-0.009473837,0.0005251516,-0.005363173,0.0007292149,0.042156115,-0.00082646456,-7.081301e-05,-0.055120863,-1.0428827e-05,-4.0620635e-05,-3.2842232e-07,-2.1821279e-05,5.613554e-05,-0.000515302,0.0,0.0,0.0,0.0,0.0,0.0,0.0,0.0,1.9330521e-08,0.00015448933,0.00015444719,4.7948415e-05,0.0006943741,0.0006943055,0.005028108,8.786451e-05,8.786155e-05,0.046510987,9.306367e-12,9.308741e-12,2.2930024e-11,3.7430902e-06,3.7451605e-06,5.0000036e-08,0.0,0.0,0.0,0.0,0.0,0.0,0.0,0.0,24
42108000,42028000,0.99993026,-0.0067241252,-0.00969769,0.0005641678,-0.0018580385,0.0045644687,0.041797385,-0.0007892543,0.0008519209,-0.055312797,-1.036136e-05,-4.041701e-05,-2.987581e-07,-2.17232e-05,5.829836e-05,-0.00046167138,0.0,0.0,0.0,0.0,0.0,0.0,0.0,0.0,1.9259135e-08,0.00015456873,0.00015452714,4.687268e-05,0.00062021887,0.0006201621,0.00485732,7.1880204e-05,7.187736e-05,0.04523406,9.255268e-12,9.257375e-12,2.2258861e-11,3.7430148e-06,3.7450911e-06,5.0000114e-08,0.0,0.0,0.0,0.0,0.0,0.0,0.0,0.0,24
43108000,43028000,0.9999302,-0.006680732,-0.009724808,0.0005983571,0.0010601198,0.0038671372,0.040914025,0.0003629061,0.0006835075,-0.045854416,-1.018519e-05,-4.044475e-05,-2.790764e-07,-2.1641068e-05,5.6934594e-05,-0.00042168627,0.0,0.0,0.0,0.0,0.0,0.0,0.0,0.0,1.881272e-08,0.0001545295,0.00015448853,4.6756093e-05,0.0005691303,0.00056907843,0.0054119607,6.134711e-05,6.134524e-05,0.047375605,9.214368e-12,9.216759e-12,2.1883441e-11,3.742972e-06,3.745045e-06,5.0000075e-08,0.0,0.0,0.0,0.0,0.0,0.0,0.0,0.0,24
44108000,44028000,0.9999306,-0.006669199,-0.009678647,0.0007672722,0.0044058096,0.0018104573,0.037662033,0.0011372984,0.00036516372,-0.047252048,-1.0105837e-05,-4.0521325e-05,-2.5099436e-07,-2.2893797e-05,5.5546894e-05,-0.00037578467,0.0,0.0,0.0,0.0,0.0,0.0,0.0,0.0,1.8681595e-08,0.00015458994,0.00015454965,4.581259e-05,0.00082449336,0.0008244531,0.005252524,0.00012251256,0.00012250882,0.04596754,9.279564e-12,9.282166e-12,2.1348189e-11,3.7429074e-06,3.7449815e-06,5.0000075e-08,0.0,0.0,0.0,0.0,0.0,0.0,0.0,0.0,24
45116000,45036000,0.9999329,-0.006525186,-0.00954486,0.0007540789,-0.002104336,0.00066992675,0.03234224,-0.00031842134,0.0004394593,-0.04619226,-1.0013652e-05,-4.0588166e-05,-2.1910407e-07,-2.4143357e-05,5.4486372e-05,-0.00033325717,0.0,0.0,0.0,0.0,0.0,0.0,0.0,0.0,1.795891e-08,0.00015452372,0.00015448336,4.495688e-05,0.0007716381,0.0007715517,0.00517854,0.000107365915,0.000107361164,0.04684022,9.244794e-12,9.247395e-12,2.0877708e-11,3.7428392e-06,3.744918e-06,5e-08,0.0,0.0,0.0,0.0,0.0,0.0,0.0,0.0,24
46116000,46036000,0.99993485,-0.0064785457,-0.009363681,0.0008336147,-0.0015334163,-0.00201554,0.026845329,-0.0004064584,-0.00017863457,-0.04729014,-9.99621e-06,-4.0545925e-05,-1.8234584e-07,-2.4066834e-05,5.556082e-05,-0.00029718943,0.0,0.0,0.0,0.0,0.0,0.0,0.0,0.0,1.7204492e-08,0.00015438558,0.00015434607,4.4131575e-05,0.0007071319,0.0007070342,0.0050304583,9.086634e-05,9.086106e-05,0.04564518,9.208247e-12,9.2105715e-12,2.0456633e-11,3.7426678e-06,3.744736e-06,5.0000256e-08,0.0,0.0,0.0,0.0,0.0,0.0,0.0,0.0,24
47108000,47028000,0.9999366,-0.0061298073,-0.009410018,0.00087625586,-0.0011506747,-0.0066945055,0.021584272,-0.00019041359,-0.00129255,-0.048804007,-1.0136592e-05,-4.050387e-05,-1.4244814e-07,-2.4815286e-05,6.0247075e-05,-0.0002670557,0.0,0.0,0.0,0.0,0.0,0.0,0.0,0.0,1.6832292e-08,0.00015424094,0.00015420314,4.333531e-05,0.0006324271,0.0006323291,0.004902881,7.4317555e-05,7.431284e-05,0.046132643,9.1698e-12,9.171802e-12,2.007888e-11,3.7425075e-06,3.744499e-06,5.0000075e-08,0.0,0.0,0.0,0.0,0.0,0.0,0.0,0.0,24
48108000,48028000,0.999939,-0.0057786372,-0.00937408,0.00086380995,-0.003393183,0.0017264253,0.021381628,-0.0006219589,4.506572e-05,-0.04681398,-1.026934e-05,-4.040405e-05,-1.0953921e-07,-2.411265e-05,6.5128734e-05,-0.0002474055,0.0,0.0,0.0,0.0,0.0,0.0,0.0,0.0,1.6055155e-08,0.00015409822,0.00015406376,4.3352647e-05,0.00058075617,0.0005807076,0.005411366,6.3396365e-05,6.339442e-05,0.04634336,9.140943e-12,9.14268e-12,1.991265e-11,3.742358e-06,3.7442305e-06,5.000011e-08,0.0,0.0,0.0,0.0,0.0,0.0,0.0,0.0,24
49116000,49036000,0.9999387,-0.005616848,-0.009504365,0.00090273714,-0.0068141394,0.0026530293,0.025470462,-0.0019172531,0.0004529656,-0.047939204,-1.023595e-05,-4.0261468e-05,-7.2137034e-08,-2.396358e-05,6.847344e-05,-0.0002204416,0.0,0.0,0.0,0.0,0.0,0.0,0.0,0.0,1.5629716e-08,0.00015420506,0.00015417727,4.2678468e-05,0.00085099885,0.00085094734,0.0053386996,0.00013074941,0.00013074398,0.047245268,9.2195696e-12,9.221219e-12,1.9614968e-11,3.7423556e-06,3.7440773e-06,5.000022e-08,0.0,0.0,0.0,0.0,0.0,0.0,0.0,0.0,24
50116000,50036000,0.9999381,-0.00549705,-0.00963868,0.0008660178,-0.001990674,0.009424847,0.028596044,-0.00071581925,0.0019877078,-0.048975997,-1.0102146e-05,-4.0119266e-05,-3.4217923e-08,-2.3994156e-05,7.2773364e-05,-0.00018805556,0.0,0.0,0.0,0.0,0.0,0.0,0.0,0.0,1.5101552e-08,0.00015423814,0.00015421545,4.2024374e-05,0.0007842252,0.0007841071,0.005182642,0.00011094915,0.00011094306,0.04586839,9.190664e-12,9.192261e-12,1.9346953e-11,3.7423201e-06,3.7439456e-06,5.0000146e-08,0.0,0.0,0.0,0.0,0.0,0.0,0.0,0.0,24
51116000,51036000,0.9999375,-0.005684512,-0.00961263,0.0007246912,-0.0026596924,0.0058537778,0.029061764,-0.00043189112,0.0019462662,-0.0493064,-9.7745005e-06,-4.008419e-05,-7.163699e-09,-2.363089e-05,7.5117336e-05,-0.00015427479,0.0,0.0,0.0,0.0,0.0,0.0,0.0,0.0,1.46059875e-08,0.00015424444,0.00015422495,4.141057e-05,0.00071945315,0.0007193421,0.005082016,9.393942e-05,9.393308e-05,0.046627015,9.162406e-12,9.164295e-12,1.9108964e-11,3.742309e-06,3.7439147e-06,5.000007e-08,0.0,0.0,0.0,0.0,0.0,0.0,0.0,0.0,24
52108000,52028000,0.99993587,-0.005681209,-0.009773019,0.00075432705,0.00016563307,-2.6497624e-05,0.026658881,-3.111853e-05,2.5347992e-05,-0.050997835,-9.643896e-06,-4.0036866e-05,2.1546043e-08,-2.3836257e-05,7.6527394e-05,-0.00011912139,0.0,0.0,0.0,0.0,0.0,0.0,0.0,0.0,1.4608222e-08,0.00015422305,0.00015420518,4.081384e-05,0.000644431,0.00064432767,0.004905814,7.683425e-05,7.682925e-05,0.045169912,9.130946e-12,9.132883e-12,1.8893973e-11,3.7423022e-06,3.743884e-06,5e-08,0.0,0.0,0.0,0.0,0.0,0.0,0.0,0.0,24
53108000,53028000,0.9999352,-0.005622342,-0.009864972,0.00084098533,0.00082526245,0.0015878505,0.027898006,-9.39602e-05,0.00016626422,-0.05048173,-9.6112935e-06,-4.0016075e-05,4.5142755e-08,-2.3392677e-05,7.821801e-05,-8.481079e-05,0.0,0.0,0.0,0.0,0.0,0.0,0.0,0.0,1.4607065e-08,0.00015418945,0.00015417294,4.0935043e-05,0.0005838495,0.0005837536,0.004812507,6.506596e-05,6.506248e-05,0.04610911,9.104373e-12,9.106326e-12,1.884499e-11,3.7422953e-06,3.7438456e-06,5e-08,0.0,0.0,0.0,0.0,0.0,0.0,0.0,0.0,24
54116000,54036000,0.9999362,-0.0056546843,-0.009754604,0.00081790704,3.201971e-05,0.002805115,0.031848434,9.137775e-05,0.00044598186,-0.047677234,-9.514212e-06,-4.0056144e-05,7.634828e-08,-2.3168019e-05,7.974142e-05,-5.5801793e-05,0.0,0.0,0.0,0.0,0.0,0.0,0.0,0.0,1.4297065e-08,0.0001541935,0.00015417881,4.043674e-05,0.0005453053,0.0005451544,0.0053379685,5.7457488e-05,5.7453093e-05,0.04622352,9.086229e-12,9.088497e-12,1.867929e-11,3.742298e-06,3.7438253e-06,5e-08,0.0,0.0,0.0,0.0,0.0,0.0,0.0,0.0,24
55108000,55028000,0.99993616,-0.0055472297,-0.009811039,0.00089347205,8.9964335e-05,0.0043904237,0.029079445,-0.00018043743,0.0011427843,-0.048558418,-9.4186535e-06,-4.005329e-05,1.0697706e-07,-2.2901708e-05,8.0957325e-05,-1.9850111e-05,0.0,0.0,0.0,0.0,0.0,0.0,0.0,0.0,1.40923095e-08,0.00015429812,0.00015428453,3.992694e-05,0.00078429084,0.00078403857,0.0052100583,0.00011095472,0.00011093628,0.0468721,9.16055e-12,9.1632145e-12,1.8524703e-11,3.742302e-06,3.7438133e-06,5.000011e-08,0.0,0.0,0.0,0.0,0.0,0.0,0.0,0.0,24
56108000,56028000,0.9999357,-0.005409046,-0.009905029,0.0011137093,-0.0004240593,0.009519061,0.041860793,-0.0003379323,0.0077133104,-0.027396865,-9.3888375e-06,-4.005013e-05,1.0641942e-07,-2.2828484e-05,8.095401e-05,-1.1888361e-05,0.0,0.0,0.0,0.0,0.0,0.0,0.0,0.0,1.41256296e-08,0.00015481592,0.00015480224,4.2711097e-05,0.049911123,0.049943432,0.008025922,0.010791086,0.010797346,0.053328086,9.565111e-12,9.567864e-12,1.9036639e-11,3.7422994e-06,3.7438097e-06,5.000007e-08,0.0,0.0,0.0,0.0,0.0,0.0,0.0,0.0,24
57116000,57036000,0.9999352,-0.0054163192,-0.009947253,0.0011543356,-0.010844962,0.0151240565,0.058289666,-0.006684345,0.019669171,0.011486227,-9.388931e-06,-4.005038e-05,1.0639674e-07,-2.2828484e-05,8.095401e-05,-8.261617e-06,0.0,0.0,0.0,0.0,0.0,0.0,0.0,0.0,1.4285379e-08,0.00015500058,0.0001549822,4.5667555e-05,0.2184263,0.21857813,0.012359544,0.2004438,0.20058012,0.07325103,1.0081036e-11,1.0083785e-11,1.9552738e-11,3.7422994e-06,3.7438097e-06,5.0000075e-08,0.0,0.0,0.0,0.0,0.0,0.0,0.0,0.0,24
58116000,58036000,0.99986714,-0.0049149273,0.015512737,0.0009950572,-0.05965496,0.022075683,-0.02376534,-0.026554883,0.039290197,0.030158704,-9.389098e-06,-4.0051073e-05,1.0628688e-07,-2.2828484e-05,8.095401e-05,3.6523834e-06,0.0,0.0,0.0,0.0,0.0,0.0,0.0,0.0,4.7508355e-08,0.00015148363,0.00015140908,4.8774844e-05,0.49396226,0.49440378,0.01568933,1.0390108,1.0399839,0.094762534,1.059187e-11,1.0594605e-11,2.00647e-11,3.7422994e-06,3.7438097e-06,5.000022e-08,0.0,0.0,0.0,0.0,0.0,0.0,0.0,0.0,24
59116000,59036000,0.9998205,-0.006275094,-0.017866058,0.0007216203,-0.14001235,0.040826242,-0.5976979,-0.19815773,0.07372168,-0.39768854,-9.388708e-06,-4.004979e-05,1.064229e-07,-2.2828484e-05,8.095401e-05,1.699388e-05,0.0,0.0,0.0,0.0,0.0,0.0,0.0,0.0,4.0325574e-08,0.00013727524,0.00013717673,5.2010662e-05,0.82461804,0.825502,0.018274466,3.0715563,3.075032,0.12440186,1.1099643e-11,1.1102366e-11,2.0576547e-11,3.7422994e-06,3.7438097e-06,5.000004e-08,0.0,0.0,0.0,0.0,0.0,0.0,0.0,0.0,24
60116000,60036000,0.9998282,-0.006003424,-0.01752261,0.0007172093,0.05761333,0.019000163,-0.63863283,-0.20828508,0.09836277,-1.0984969,-9.387731e-06,-4.004658e-05,1.06727924e-07,-2.2828484e-05,8.095401e-05,3.8313243e-05,0.0,0.0,0.0,0.0,0.0,0.0,0.0,0.0,3.178512e-08,0.00011513136,0.000114999966,5.5406086e-05,1.0739989,1.0756688,0.018017069,6.3746915,6.384286,0.13239235,1.1604562e-11,1.1607281e-11,2.1088305e-11,3.7422994e-06,3.7438097e-06,5.000011e-08,0.0,0.0,0.0,0.0,0.0,0.0,0.0,0.0,24
61108000,61028000,0.99990726,-0.0045778826,-0.012799394,0.00081989355,0.13253029,0.0217036,-0.48297295,-0.06805016,0.09103623,-1.7241462,-9.3855215e-06,-4.0043124e-05,1.0700218e-07,-2.2828484e-05,8.095401e-05,5.3319738e-05,0.0,0.0,0.0,0.0,0.0,0.0,0.0,0.0,1.0830987e-08,8.044871e-05,8.034545e-05,5.893389e-05,1.0549936,1.0567933,0.018411443,9.121255,9.136203,0.14916623,1.2099827e-11,1.210254e-11,2.1595854e-11,3.7422994e-06,3.7438097e-06,5.000004e-08,0.0,0.0,0.0,0.0,0.0,0.0,0.0,0.0,24
62116000,62036000,0.99993753,-0.005589034,-0.0096530365,0.0007637607,0.1018063,0.013833004,-0.15345165,0.03124356,0.0842106,-1.9926965,-9.382722e-06,-4.004254e-05,1.06776135e-07,-2.2828484e-05,8.095401e-05,7.398091e-05,0.0,0.0,0.0,0.0,0.0,0.0,0.0,0.0,4.42262e-09,5.1083236e-05,5.10171e-05,6.269518e-05,0.8777636,0.879281,0.01703439,10.437771,10.455453,0.1412941,1.2602375e-11,1.2605072e-11,2.2111663e-11,3.7422994e-06,3.7438097e-06,5.0000036e-08,0.0,0.0,0.0,0.0,0.0,0.0,0.0,0.0,24
63116000,63036000,0.99990904,-0.0061915144,-0.011943145,0.0010537583,0.07949671,-0.023930628,-0.07413118,0.07163834,0.04904769,-2.1552057,-9.3804065e-06,-4.0043393e-05,1.0648363e-07,-2.2828484e-05,8.095401e-05,8.641998e-05,0.0,0.0,0.0,0.0,0.0,0.0,0.0,0.0,4.523262e-09,3.213033e-05,3.209742e-05,6.660127e-05,0.67988354,0.68078446,0.017578702,10.488586,10.502507,0.15115513,1.3101688e-11,1.3104346e-11,2.2623483e-11,3.7422994e-06,3.7438097e-06,5e-08,0.0,0.0,0.0,0.0,0.0,0.0,0.0,0.0,24
64116000,64036000,0.99990445,-0.006928995,-0.011893786,0.0013003438,0.088127,-0.064496405,-0.014592841,0.09470108,0.00036245893,-2.2697408,-9.3787885e-06,-4.004423e-05,1.0620766e-07,-2.2828484e-05,8.095401e-05,0.00010553654,0.0,0.0,0.0,0.0,0.0,0.0,0.0,0.0,3.4169065e-09,2.1357933e-05,2.1342086e-05,7.0686045e-05,0.5172829,0.5177826,0.016907532,9.954016,9.963953,0.14098017,1.3601129e-11,1.3603702e-11,2.3135382e-11,3.7422994e-06,3.7438097e-06,5.0000075e-08,0.0,0.0,0.0,0.0,0.0,0.0,0.0,0.0,24
65108000,65028000,0.9998993,-0.008219974,-0.011509963,0.0011296844,0.094522886,-0.11094996,0.027916469,0.13134913,-0.06744005,-2.3171446,-9.378679e-06,-4.004537e-05,1.06042975e-07,-2.2828484e-05,8.095401e-05,0.0001203726,0.0,0.0,0.0,0.0,0.0,0.0,0.0,0.0,2.9676728e-09,1.6656712e-05,1.6649414e-05,7.4917254e-05,0.43792093,0.43821883,0.017834367,10.159425,10.167066,0.14971186,1.4097865e-11,1.4100349e-11,2.364324e-11,3.7422994e-06,3.7438097e-06,5.0000075e-08,0.0,0.0,0.0,0.0,0.0,0.0,0.0,0.0,24
66116000,66036000,0.9999381,-0.0058165225,-0.009451873,0.0008731964,0.06744727,-0.13521937,0.051483463,0.14479512,-0.14353126,-2.3481047,-9.380849e-06,-4.0047726e-05,1.0592129e-07,-2.2828484e-05,8.095401e-05,0.00013913073,0.0,0.0,0.0,0.0,0.0,0.0,0.0,0.0,1.5424602e-09,1.3244446e-05,1.32405385e-05,7.9409234e-05,0.34579584,0.3459314,0.017346716,9.346681,9.351418,0.13948904,1.459652e-11,1.4598866e-11,2.4159308e-11,3.7422994e-06,3.7438097e-06,5.0000075e-08,0.0,0.0,0.0,0.0,0.0,0.0,0.0,0.0,24
67116000,67036000,0.9999305,-0.0056771296,-0.010312214,0.0006778745,0.05065142,-0.13551807,0.055940416,0.13397115,-0.20007978,-2.3474288,-9.386417e-06,-4.00513e-05,1.05925494e-07,-2.2828484e-05,8.095401e-05,0.00015344295,0.0,0.0,0.0,0.0,0.0,0.0,0.0,0.0,1.6111801e-09,1.1595287e-05,1.1591148e-05,8.404913e-05,0.28334022,0.28339243,0.018515144,8.588447,8.59122,0.1515713,1.508408e-11,1.508626e-11,2.4671295e-11,3.7422994e-06,3.7438097e-06,5.0000256e-08,0.0,0.0,0.0,0.0,0.0,0.0,0.0,0.0,24
68108000,68028000,0.9999276,-0.005867802,-0.010486234,0.00067087106,0.06098811,-0.1341987,0.04326588,0.12967771,-0.23739919,-2.3619173,-9.395536e-06,-4.0055365e-05,1.06054515e-07,-2.2828484e-05,8.095401e-05,0.00017089015,0.0,0.0,0.0,0.0,0.0,0.0,0.0,0.0,1.6727069e-09,1.095146e-05,1.0947381e-05,8.884288e-05,0.24231488,0.2423248,0.017799275,7.9168043,7.918383,0.14055184,1.5555864e-11,1.5557841e-11,2.5179189e-11,3.7422994e-06,3.7438097e-06,5.0000185e-08,0.0,0.0,0.0,0.0,0.0,0.0,0.0,0.0,24
69108000,69028000,0.9999206,-0.0057320558,-0.011217326,0.00054445345,0.09244367,-0.14074038,0.040750053,0.14939296,-0.27144185,-2.3615744,-9.409128e-06,-4.006193e-05,1.06290436e-07,-2.2828484e-05,8.095401e-05,0.0001829255,0.0,0.0,0.0,0.0,0.0,0.0,0.0,0.0,1.8813142e-09,1.09240755e-05,1.0918176e-05,9.387066e-05,0.21760747,0.21759616,0.018702848,7.373813,7.3746657,0.15121746,1.6013512e-11,1.6015286e-11,2.5691173e-11,3.7422994e-06,3.7438097e-06,5.0000075e-08,0.0,0.0,0.0,0.0,0.0,0.0,0.0,0.0,24
70108000,70028000,0.9999091,-0.0058008465,-0.012162858,0.0005173916,0.13735983,-0.1475733,0.025910571,0.2117171,-0.32677355,-2.3677938,-9.424065e-06,-4.0070332e-05,1.0654695e-07,-2.2828484e-05,8.095401e-05,0.0001932408,0.0,0.0,0.0,0.0,0.0,0.0,0.0,0.0,2.289223e-09,1.14877985e-05,1.1479583e-05,9.909843e-05,0.21674128,0.21672104,0.017876742,7.447836,7.448306,0.14066745,1.646303e-11,1.6464628e-11,2.6203158e-11,3.7422994e-06,3.7438097e-06,5.000011e-08,0.0,0.0,0.0,0.0,0.0,0.0,0.0,0.0,24
71108000,71028000,0.99991304,-0.0060091927,-0.011731924,0.00040247253,0.18380502,-0.14917228,0.011354834,0.2867689,-0.35492623,-2.351845,-9.448863e-06,-4.0088096e-05,1.0693172e-07,-2.2828484e-05,8.095401e-05,0.00019570191,0.0,0.0,0.0,0.0,0.0,0.0,0.0,0.0,2.3361146e-09,1.20323275e-05,1.2024873e-05,0.00010453342,0.21171446,0.21169205,0.018714856,7.042741,7.0429006,0.1513463,1.6863809e-11,1.6865174e-11,2.6715137e-11,3.7422994e-06,3.7438097e-06,5.0000075e-08,0.0,0.0,0.0,0.0,0.0,0.0,0.0,0.0,24
72108000,72028000,0.9999301,-0.005293713,-0.0105599435,0.0005693511,0.19513537,-0.14792259,-0.011448689,0.36805993,-0.37902313,-2.3584216,-9.481551e-06,-4.0117284e-05,1.07367214e-07,-2.2828484e-05,8.095401e-05,0.00019624033,0.0,0.0,0.0,0.0,0.0,0.0,0.0,0.0,2.066737e-09,1.27160165e-05,1.2709702e-05,0.00011017933,0.21444134,0.21441795,0.017853316,6.732325,6.732294,0.14071332,1.7215214e-11,1.7216315e-11,2.7227115e-11,3.7422994e-06,3.7438097e-06,5.0000036e-08,0.0,0.0,0.0,0.0,0.0,0.0,0.0,0.0,24
73108000,73028000,0.99993104,-0.0050928323,-0.010556399,0.0007695577,0.19445096,-0.14187792,-0.031398624,0.4279193,-0.39450032,-2.3687625,-9.522922e-06,-4.0159928e-05,1.0785815e-07,-2.2828484e-05,8.095401e-05,0.00019293583,0.0,0.0,0.0,0.0,0.0,0.0,0.0,0.0,2.2193156e-09,1.3460987e-05,1.3453859e-05,0.000116035095,0.22301602,0.22299296,0.018675586,6.50676,6.5066166,0.1512426,1.7502111e-11,1.7502918e-11,2.7739085e-11,3.7422994e-06,3.7438097e-06,5.0000036e-08,0.0,0.0,0.0,0.0,0.0,0.0,0.0,0.0,24
74108000,74028000,0.9999201,-0.0048971768,-0.0116245095,0.00084241637,0.18186474,-0.13386475,0.7569564,0.46898702,-0.40181607,-2.1355977,-9.573125e-06,-4.021667e-05,1.0841042e-07,-2.2828484e-05,8.095401e-05,0.00018838089,0.0,0.0,0.0,0.0,0.0,0.0,0.0,0.0,2.721046e-09,1.4200249e-05,1.4189608e-05,0.00012210528,0.23075151,0.23072948,0.01782948,6.3520575,6.35185,0.1406136,1.7709495e-11,1.7709972e-11,2.8251046e-11,3.7422994e-06,3.7438097e-06,5.0000075e-08,0.0,0.0,0.0,0.0,0.0,0.0,0.0,0.0,24
75108000,75028000,0.9999215,-0.004265995,-0.0117255235,0.0011438249,0.19429705,-0.14089197,0.64229566,0.530031,-0.43073964,-1.4757528,-9.619228e-06,-4.02718e-05,1.0889557e-07,-2.2828484e-05,8.095401e-05,0.00018621329,0.0,0.0,0.0,0.0,0.0,0.0,0.0,0.0,2.930608e-09,1.5135818e-05,1.5123631e-05,0.00012839855,0.25708815,0.25706708,0.018794278,6.6762443,6.6759706,0.15284267,1.7913428e-11,1.7913624e-11,2.8763004e-11,3.7422994e-06,3.7438097e-06,5.0000256e-08,0.0,0.0,0.0,0.0,0.0,0.0,0.0,0.0,24
76108000,76028000,0.9999188,-0.005603735,-0.011377516,0.001236207,0.19111681,-0.13860433,0.67184967,0.5496972,-0.42984945,-0.7911144,-9.683874e-06,-4.0352406e-05,1.09556346e-07,-2.2828484e-05,8.095401e-05,0.00017935983,0.0,0.0,0.0,0.0,0.0,0.0,0.0,0.0,3.2028014e-09,1.5731925e-05,1.5721664e-05,0.0001349154,0.27395827,0.27394056,0.017913172,6.6353602,6.6350827,0.14173456,1.7952032e-11,1.7951841e-11,2.9274933e-11,3.7422994e-06,3.7438097e-06,5.000022e-08,0.0,0.0,0.0,0.0,0.0,0.0,0.0,0.0,24
77116000,77036000,0.99990046,-0.0057984805,-0.012795872,0.0013472565,0.17086796,-0.1352356,0.7966458,0.5535659,-0.4284975,-0.03723893,-9.7557995e-06,-4.0444655e-05,1.1028671e-07,-2.2828484e-05,8.095401e-05,0.0001722101,0.0,0.0,0.0,0.0,0.0,0.0,0.0,0.0,4.021778e-09,1.6200465e-05,1.618543e-05,0.00014171269,0.29037645,0.2903618,0.018031936,6.6569667,6.656702,0.1527036,1.7893655e-11,1.789307e-11,2.979094e-11,3.7422994e-06,3.7438097e-06,5.0000036e-08,0.0,0.0,0.0,0.0,0.0,0.0,0.0,0.0,24
78108000,78028000,0.99991876,-0.0063408865,-0.01097944,0.0013561766,0.16077249,-0.12201894,0.9894623,0.54014045,-0.41583264,0.3802795,-9.837988e-06,-4.0551855e-05,1.1112863e-07,-2.2828484e-05,8.095401e-05,0.00017437649,0.0,0.0,0.0,0.0,0.0,0.0,0.0,0.0,3.482263e-09,1.6454173e-05,1.644501e-05,0.00014864092,0.30241066,0.30240425,0.013370365,6.6706495,6.6704197,0.13667703,1.7731455e-11,1.7730472e-11,3.029873e-11,3.7422994e-06,3.7438097e-06,5.0000438e-08,0.0,0.0,0.0,0.0,0.0,0.0,0.0,0.0,24
79108000,79028000,0.9999436,-0.0048087905,-0.009358443,0.0014506554,0.13260387,-0.10218385,1.4113969,0.5095977,-0.39024112,1.0726783,-9.925453e-06,-4.066651e-05,1.1204832e-07,-2.2828484e-05,8.095401e-05,0.00019278073,0.0,0.0,0.0,0.0,0.0,0.0,0.0,0.0,2.6557128e-09,1.6551094e-05,1.654345e-05,0.00015586244,0.3100909,0.3100904,0.012803452,6.701774,6.7015934,0.1383667,1.7494431e-11,1.7493049e-11,3.0810587e-11,3.7422994e-06,3.7438097e-06,5.0000036e-08,0.0,0.0,0.0,0.0,0.0,0.0,0.0,0.0,24
80108000,80028000,0.99995464,-0.003823825,-0.008633991,0.0012936579,0.1205741,-0.053598937,1.3861018,0.49319804,-0.35738474,1.7386283,-9.998173e-06,-4.0764568e-05,1.1280301e-07,-2.2828484e-05,8.095401e-05,0.00023224711,0.0,0.0,0.0,0.0,0.0,0.0,0.0,0.0,2.2564897e-09,1.6917005e-05,1.6909602e-05,0.00016332192,0.33277065,0.3327759,0.013290617,7.211029,7.210891,0.12406463,1.73662e-11,1.7364495e-11,3.1322438e-11,3.7422994e-06,3.7438097e-06,5.0000146e-08,0.0,0.0,0.0,0.0,0.0,0.0,0.0,0.0,24
81108000,81028000,0.9999501,-0.001988797,-0.009709081,0.0012400362,0.07615905,-0.006706724,1.9525368,0.42626235,-0.2743209,2.4424663,-1.0070855e-05,-4.0875253e-05,1.13409854e-07,-2.2828484e-05,8.095401e-05,0.00023873469,0.0,0.0,0.0,0.0,0.0,0.0,0.0,0.0,2.3977322e-09,1.6754762e-05,1.674248e-05,0.0001710218,0.33244482,0.3324526,0.012288317,7.228618,7.2285457,0.12952575,1.7046314e-11,1.7044227e-11,3.1834216e-11,3.7422994e-06,3.7438097e-06,5.000114e-08,0.0,0.0,0.0,0.0,0.0,0.0,0.0,0.0,24
82116000,82036000,0.9999552,-0.001928371,-0.009157662,0.0014385993,0.038291726,0.017549418,2.156865,0.34352607,-0.18783209,3.0222867,-1.0121092e-05,-4.097721e-05,1.13517665e-07,-2.2828484e-05,8.095401e-05,0.00030888518,0.0,0.0,0.0,0.0,0.0,0.0,0.0,0.0,2.2474127e-09,1.650748e-05,1.6496218e-05,0.00017903773,0.3317666,0.33177626,0.012108197,7.2360644,7.2360497,0.11828581,1.6718472e-11,1.6716014e-11,3.2350022e-11,3.7422994e-06,3.7438097e-06,5.000004e-08,0.0,0.0,0.0,0.0,0.0,0.0,0.0,0.0,24
83108000,83028000,0.9999449,-0.005206666,-0.009022609,0.0012855832,0.021911103,-0.041910615,1.2370969,0.26900318,-0.16232015,3.3095875,-1.0156841e-05,-4.10522e-05,1.1354727e-07,-2.2828484e-05,8.095401e-05,0.00031065315,0.0,0.0,0.0,0.0,0.0,0.0,0.0,0.0,2.5463216e-09,1.616585e-05,1.6158298e-05,0.00018717478,0.3368719,0.3368853,0.010951443,7.196953,7.196977,0.12433338,1.638788e-11,1.6385055e-11,3.2857578e-11,3.7422994e-06,3.7438097e-06,5.0001795e-08,0.0,0.0,0.0,0.0,0.0,0.0,0.0,0.0,24
84108000,84028000,0.99994713,-0.0050449553,-0.008889711,0.0011879952,-0.004094721,-0.051365435,0.9214435,0.19510557,-0.15208633,2.963736,-1.0196846e-05,-4.1109863e-05,1.1389045e-07,-2.2828484e-05,8.095401e-05,0.000337071,0.0,0.0,0.0,0.0,0.0,0.0,0.0,0.0,2.3613929e-09,1.5798998e-05,1.5791078e-05,0.00019563503,0.33436835,0.33438262,0.0103366515,7.157884,7.1579356,0.114549346,1.6077258e-11,1.6074045e-11,3.336919e-11,3.7422994e-06,3.7438097e-06,5.0000185e-08,0.0,0.0,0.0,0.0,0.0,0.0,0.0,0.0,24
85108000,85028000,0.9999495,-0.0048758117,-0.008710382,0.0012040216,-0.036559597,-0.057166263,0.7190336,0.1210452,-0.14660479,2.8823495,-1.0236739e-05,-4.1144038e-05,1.145269e-07,-2.2828484e-05,8.095401e-05,0.00039980307,0.0,0.0,0.0,0.0,0.0,0.0,0.0,0.0,2.19231e-09,1.5419724e-05,1.5411539e-05,0.00020435605,0.32981214,0.32982758,0.011916449,7.0974483,7.097517,0.119851135,1.5793169e-11,1.5789538e-11,3.3880763e-11,3.7422994e-06,3.7438097e-06,5.000011e-08,0.0,0.0,0.0,0.0,0.0,0.0,0.0,0.0,24
86108000,86028000,0.9999518,-0.004801805,-0.008512014,0.0010161306,-0.06820353,-0.060784865,0.4518145,0.049421374,-0.15320057,2.3902645,-1.0275126e-05,-4.1155134e-05,1.1538564e-07,-2.2828484e-05,8.095401e-05,0.0005498447,0.0,0.0,0.0,0.0,0.0,0.0,0.0,0.0,2.0249935e-09,1.5481797e-05,1.5473574e-05,0.00021334166,0.3412023,0.3412209,0.013711328,7.556509,7.556607,0.1144819,1.5691889e-11,1.5687897e-11,3.439239e-11,3.7422994e-06,3.7438097e-06,5e-08,0.0,0.0,0.0,0.0,0.0,0.0,0.0,0.0,24
87116000,87036000,0.9999502,-0.004093291,-0.009056545,0.0009525268,-0.001349531,-0.0026622324,0.11020602,-0.00033164676,-0.00040234532,1.8044591,-1.0637418e-05,-4.068659e-05,1.2316687e-07,-9.237972e-05,1.1917009e-05,0.0008778788,0.0,0.0,0.0,0.0,0.0,0.0,0.0,0.0,3.5898984e-10,3.0686576e-06,3.0547726e-06,0.00017630428,0.0065254555,0.006528178,0.008210486,0.0002535842,0.00025362978,0.08941842,1.0390774e-11,1.0382533e-11,3.0149924e-11,2.852627e-06,2.8534753e-06,5e-08,0.0,0.0,0.0,0.0,0.0,0.0,0.0,0.0,24
88116000,88036000,0.9999519,-0.0038311742,-0.008988313,0.00086554233,0.00021161244,0.0025628705,-0.035034023,1.6368564e-05,0.00042569137,1.4224421,-1.0640421e-05,-4.0687537e-05,1.1594299e-07,-0.00011039263,-1.4785398e-05,0.0009302472,0.0,0.0,0.0,0.0,0.0,0.0,0.0,0.0,3.907144e-10,3.8496096e-06,3.838779e-06,0.00013535371,0.0012298472,0.0012298753,0.005721505,0.00011611367,0.00011611569,0.06925358,1.0886646e-11,1.0880442e-11,2.5788104e-11,2.1865478e-07,2.1861165e-07,5.0000377e-08,0.0,0.0,0.0,0.0,0.0,0.0,0.0,0.0,24
89116000,89036000,0.99995214,-0.0035986267,-0.009069371,0.00083882234,0.002475676,-0.0019503769,-0.07681755,0.00034620494,-0.00038967765,1.2787491,-1.0648832e-05,-4.0700317e-05,1.0676757e-07,-0.00011063902,-2.9878959e-06,0.0008606641,0.0,0.0,0.0,0.0,0.0,0.0,0.0,0.0,4.6341753e-10,4.744508e-06,4.735199e-06,0.00011072568,0.0006805295,0.0006805306,0.005191116,7.602504e-05,7.602518e-05,0.06270699,1.1369346e-11,1.1364382e-11,2.3266063e-11,1.2860563e-07,1.285826e-07,5.000023e-08,0.0,0.0,0.0,0.0,0.0,0.0,0.0,0.0,24
