timestamp,timestamp_sample,xyz[0],xyz[1],xyz[2],xyz_derivative[0],xyz_derivative[1],xyz_derivative[2]
3388000,3388000,-0.002400531,-0.006402076,0.0011173346,-0.0060656182,-0.13720386,0.11673322
3392000,3392000,-0.0020517786,-0.0059065167,0.0003276486,0.034021247,-0.024967793,-0.018312097
3400000,3400000,-0.00067189656,-0.004898487,-0.00074558373,0.114490256,0.08600895,-0.08183095
3408000,3408000,-0.0014512317,-0.0035903687,-0.0026962685,-0.01928484,0.11464708,-0.18933696
3420000,3420000,-0.0039685196,-0.005253195,-0.0018083802,-0.21419585,-0.0727771,0.014912921
3428000,3428000,-0.0028012274,-0.004375671,0.0004353556,0.027698763,0.03928271,0.19584914
3440000,3440000,-0.002882462,-0.0042213947,-0.00012419978,0.05300135,0.0959537,-0.03930513
3448000,3448000,-0.001751031,-0.003787248,-0.0004329465,0.08036071,0.035712514,-0.019730322
3460000,3460000,-0.0025413737,-0.005804782,0.00040300583,0.038324457,-0.13013586,0.0011424175
3464000,3464000,-0.0014833334,-0.004748809,-0.0009012394,0.13555461,0.03928793,-0.13951229
3476000,3476000,-0.0013156568,-0.0040618316,-0.0016317645,-0.12012474,-0.036512256,-0.0043572416
3484000,3484000,-0.0031697014,-0.007909161,0.0011301171,-0.13260704,-0.3069852,0.21318719
3496000,3496000,0.0020945095,-0.0061673545,7.5552365e-05,0.27457535,-0.029729873,-0.011144132
3504000,3504000,-0.0004096898,-0.008982309,0.0007729441,-0.15523471,-0.20196196,0.07357778
3516000,3516000,0.00020715437,-0.0038496468,0.0001845357,0.11954312,0.14351091,-0.010173251
3524000,3524000,0.00021751873,-0.0062902747,0.0008838692,-0.0010056198,-0.10671027,0.03763371
3536000,3536000,-0.001137214,-0.0038815932,-0.0005117945,0.052604184,0.038008388,-0.16393441
3544000,3544000,-0.000536734,-0.00630744,0.00038157857,0.03251262,-0.17112768,0.054987762
3556000,3556000,-0.00021354754,-0.0031078332,-0.0011464044,0.082710795,0.22109577,-0.08172969
3564000,3564000,-0.00027991907,-0.006979629,-0.00039324648,-0.0097633,-0.2943462,-0.0048879622
3576000,3576000,-0.001220186,-0.0061789444,0.0004958499,0.07913364,0.0399529,0.11759325
3584000,3584000,0.0008304892,-0.0035441667,-0.0005547579,0.18572856,0.24478923,-0.06482789
3596000,3596000,-0.0003359098,-0.0070925183,-0.00055225973,-0.05515825,-0.23619097,0.015064634
3604000,3604000,-0.0006671252,-0.0027631747,-0.001293767,-0.064953335,0.27468288,-0.086895674
3616000,3616000,-0.001846055,-0.006662343,-0.00013275673,-0.068681665,-0.27005416,0.12349916
3624000,3624000,-0.0011301956,-0.005056143,0.0007947716,0.052453674,0.095855586,0.12390292
3636000,3636000,-0.00080277526,-0.0023539192,-8.193244e-05,0.021733206,0.07247125,-0.108282395
3644000,3644000,-0.00050468324,-0.0034752176,0.000457677,0.03461436,-0.059911143,0.04220382
3656000,3656000,-0.0028425197,-0.008674143,0.0012068886,-0.19511488,-0.4316244,0.0040751733
3664000,3664000,-0.003586823,-0.0077544604,-0.00045836126,-0.10102785,-0.041069094,-0.13259847
3676000,3676000,-0.0025654563,-0.0059834938,-0.00016187035,-0.024800926,0.06815615,0.036040317
3684000,3684000,-0.0026097225,-0.004911127,0.00059861573,0.002255192,0.14749686,0.036914025
3696000,3696000,-0.00072187034,-0.00464593,0.00020384713,0.14986278,0.034420475,0.08184651
3704000,3704000,-0.0026370217,-0.003863643,0.002563243,-0.1402961,0.029168408,0.2054989
3716000,3716000,-0.00083833706,-0.005826122,-0.0007799962,0.1260185,-0.07066874,-0.296148
3724000,3724000,0.000844357,-0.0030657374,-0.0021739206,0.20878151,0.23603797,-0.17240804
3736000,3736000,-0.0018867181,-0.003991763,0.00069653464,-0.20884961,-0.063134566,0.17520183
3744000,3744000,-0.0023528864,-0.0027163946,0.0021422827,-0.09031473,0.10772248,0.1379672
3760000,3760000,-0.00044732133,-0.004582869,7.541671e-05,0.05059287,-0.087480254,-0.111281924
3768000,3768000,-0.0022176087,-0.0053170165,0.00069300266,-0.12475991,-0.13552824,0.010558126
3780000,3780000,-0.0001999676,-0.0089360075,-0.0013611657,0.095954746,-0.15363342,-0.14689642
3788000,3788000,-0.0017826734,-0.006157347,-0.0010019175,-0.12302671,0.18522857,-0.0055542258
3800000,3800000,-0.0024246187,-0.004231101,0.0007734337,0.038442038,0.10522586,0.12499096
3804000,3804000,-0.0018654157,-0.0037314063,-4.940864e-05,0.082012974,0.11369333,-0.017167328
3820000,3820000,-9.829927e-05,-0.0061783693,-0.00091565284,0.0041696504,-0.07053997,-0.0027372253
3828000,3828000,0.00072088605,-0.0064182277,0.00018899766,0.0830734,-0.052564435,0.09512775
3840000,3840000,-0.001483813,-0.0075459355,0.00012563937,-0.040181674,-0.033362933,0.018523207
3848000,3848000,0.00031864448,-0.006301506,0.0011646434,0.15142275,0.07157563,0.07914688
3860000,3860000,0.0010866816,-0.007893298,-0.00047416036,-0.032982826,-0.13280654,-0.08024296
3868000,3868000,-9.986049e-05,-0.006476898,-0.0027569088,-0.09652206,0.10242553,-0.22777176
3880000,3880000,0.00061807595,-0.005595376,0.000900052,0.012817452,0.030978385,0.22993004
3884000,3884000,-0.00017677454,-0.0053416006,0.00014357777,-0.07811274,0.04493425,0.049794108
3896000,3896000,-0.00199442,-0.0058442424,-0.0010636084,-0.13412555,-0.01503355,-0.003298499
3908000,3908000,-0.0005162069,-0.007750392,0.0016208328,0.0784293,-0.11697312,0.12939619
3920000,3920000,-0.0013929042,-0.002939788,0.0007010451,-0.03373014,0.36540774,-0.009167448
3928000,3928000,-0.00069175253,-0.0020456186,-0.00015165555,0.05407642,0.15274778,-0.08034788
3940000,3940000,-0.0011627758,-0.004615775,-0.0005932455,-0.08730696,-0.07452442,-0.022945378
3948000,3948000,-0.0024220345,-0.0044111717,-0.0015541246,-0.09090869,-0.013945295,-0.099997796
3960000,3960000,-0.0008581772,-0.0037561136,-0.0011863918,0.06506583,0.06772256,0.039720222
3968000,3968000,-0.0021588993,-0.0037841375,0.0008140286,-0.11909001,-0.010717454,0.17336136
3980000,3980000,-0.001009981,-0.0067851054,-0.0010244232,0.13624726,-0.25629175,-0.021743268
3988000,3988000,-0.003682925,-0.0067207064,0.0020532075,-0.1929225,-0.07743951,0.24025926
4000000,4000000,0.000581874,-0.005831871,-0.0024377264,0.30513486,-0.08338922,-0.25786728
4008000,4008000,-0.0028072621,-0.0058463416,-0.0030082166,-0.23599324,0.046803534,-0.09888953
4020000,4020000,0.00039153677,-0.0024986698,0.0004257029,0.3342109,0.059546556,0.22125757
4028000,4028000,-0.0011688024,-0.006224778,0.0005173547,-0.08434583,-0.2687417,0.053093344
4040000,4040000,-0.0008162618,-0.004241604,1.2331453e-05,0.08446854,0.035549477,0.025320973
4048000,4048000,-0.0023409973,-0.0029889317,0.0027740283,-0.10488656,0.12010265,0.2157343
4060000,4060000,-0.00089114823,-0.0052753263,-0.00064199953,0.08884894,-0.19499318,-0.16773438
4068000,4068000,0.00038831602,-0.007852985,0.00016071238,0.13573223,-0.2532427,0.018244691
4080000,4080000,-0.0021617454,-0.0024495795,0.0026830495,-0.19221398,0.294358,0.10461178
4088000,4088000,-0.0018351423,-0.0036444776,0.00029821438,-0.0055272505,0.00600849,-0.14940588
4100000,4100000,-0.00013109516,-0.0035215023,-0.0014838618,0.08970946,-0.034598712,-0.17166139
4108000,4108000,0.0006869045,-0.0053628655,0.0008346637,0.08778114,-0.13580796,0.15214138
4120000,4120000,0.00016821243,-0.007050243,0.0014057051,0.00565405,-0.17606366,-0.0016359494
4128000,4128000,0.002594242,-0.0055890726,0.0013355293,0.20650676,0.06566273,-0.00048748197
4136000,4136000,0.00039685486,-0.0027431215,0.0010709551,-0.14241229,0.2991108,-0.0048139472
4144000,4144000,-0.0018549105,-0.001877445,-0.0011813907,-0.22327968,0.099355415,-0.22161329
4160000,4160000,-0.0005106246,-0.0065035457,0.003570233,0.1258916,-0.09334693,0.37608477
4168000,4168000,-0.0016232686,-0.0034548144,0.000435032,-0.055755347,0.21724883,-0.16797289
4176000,4176000,-8.8717024e-05,-0.004076601,-5.3506446e-05,0.11723064,0.0118047865,-0.07449891
4184000,4184000,-0.0008224767,-0.004845641,-0.0013345034,-0.060707286,-0.068212755,-0.123432085
4196000,4196000,-0.0017231693,-0.0039086975,-0.00014501726,-0.0018709376,-0.024476154,0.048869755
4204000,4204000,-0.000210685,-0.0035428354,0.00018565563,0.11490646,0.0347303,0.05530054
4220000,4220000,-0.0018013273,-0.0018468779,0.0016321642,0.029780515,-0.009738365,0.0921671
4224000,4224000,-0.0014764923,-0.0025105872,9.85224e-05,0.05188792,-0.076879136,-0.11226888
4240000,4240000,4.445514e-05,-0.00019799918,-0.0019826915,-0.11579387,0.25128356,-0.11509087
4244000,4244000,-0.002057341,-0.0024592439,-0.0022389202,-0.29189184,-0.09974508,-0.093153074
4256000,4256000,-2.394183e-05,-0.0047616023,-0.0014450611,0.1407953,-0.15040733,-0.022985643
4268000,4268000,-0.0024643727,-0.0022545005,-0.0038600916,-0.24478462,0.22255956,-0.19257489
4280000,4280000,-0.004458542,-0.00076024164,-0.0020815302,-0.07463708,0.089418344,0.07709594
4288000,4288000,-0.0032803596,-0.00086269854,-0.0011937474,0.06440262,0.047664236,0.08883111
4300000,4300000,0.00022889742,-0.0043733097,0.0010214781,0.22937432,-0.33222577,0.16253622
4308000,4308000,-0.0033808183,-0.0028369501,-0.0020227984,-0.23060194,0.0652073,-0.22338864
4320000,4320000,-0.0007752889,-0.00069391285,4.0818588e-05,0.20303637,0.095098,0.26852557
4328000,4328000,0.00077247666,-0.0024206846,0.0017052292,0.16002281,-0.11074385,0.19221798
4340000,4340000,-0.00023932921,-0.0046652816,6.2479055e-05,0.035807345,-0.25575355,-0.056447867
4348000,4348000,-0.0005649035,-0.0062137293,0.00042653765,-0.0627408,-0.1762051,0.0035226236
4360000,4360000,-0.00093433785,-0.0001576948,-0.0015666723,0.12611006,0.2696602,-0.10880733
4368000,4368000,0.0014423761,-0.0019184055,0.0009414257,0.21602994,-0.02348357,0.18779728
4380000,4380000,-0.0025274153,-0.003949891,0.0010580795,-0.23714504,-0.2696479,0.041824527
4388000,4388000,-0.0036423127,-0.003446038,-0.00030894735,-0.12235549,0.02978033,-0.13518232
4400000,4400000,0.00068585505,-0.0018100899,0.00096258987,0.204041,-1.8517825e-05,0.17947115
4408000,4408000,-0.0015747298,-0.0011170832,0.0012911013,-0.18058856,-0.031537898,0.040394735
4420000,4420000,0.0015396505,-0.0019317134,-0.0004134613,0.18914837,-0.103780836,-0.106996134
4428000,4428000,0.0009861718,-0.0018097614,6.8859605e-05,0.011166181,-0.0140073225,0.0029400566
4440000,4440000,0.00060181256,-0.0010967087,-0.0023693098,-0.033559218,0.006177018,-0.12287308
4448000,4448000,-0.0012426318,0.0009444682,-0.000838982,-0.14721957,0.17524701,0.07388046
4460000,4460000,-0.0017552795,-0.0031442298,9.617128e-06,-0.12545072,-0.27000344,0.08869282
4468000,4468000,0.00038585236,-0.0023918166,-0.0004888093,0.16709246,0.00040424633,-0.009592799
4480000,4480000,0.0020664935,-0.0024800613,0.0015709046,0.11042644,-0.0038052222,0.16909158
4488000,4488000,0.002417822,-0.0016159648,-0.0025086487,0.032351263,0.07532371,-0.3121455
4500000,4500000,-0.0005847528,-0.002018602,-0.0008011363,-0.14260554,-0.06025196,0.0822736
4508000,4508000,0.00092205073,-0.003305656,0.0005749228,0.079515755,-0.10852074,0.13579455
4520000,4520000,0.0008364548,-0.00020204578,0.00083213043,0.030303488,0.14843434,0.029498452
4528000,4528000,0.0022097384,-0.0017787535,-0.0008733361,0.09500288,-0.09259826,-0.12968454
4540000,4540000,0.0011485358,-0.0022642426,0.0008113816,-0.067826584,0.051728748,0.066912316
4548000,4548000,-0.0014438389,-0.0019747787,-0.0021864828,-0.24109772,0.009255644,-0.23055494
4560000,4560000,0.002174325,-0.0007248176,-0.000789989,0.26092422,0.1740527,0.12510294
4568000,4568000,0.00023050664,0.00027991086,-0.0011909808,-0.08633356,0.13400696,-0.011867047
4580000,4580000,-0.004221121,-0.0006763167,-0.0016567134,-0.31498092,-0.12490145,-0.027943807
4588000,4588000,-0.0025682962,-0.00035274355,-0.0025599757,0.04671605,0.029898698,-0.08895917
4600000,4600000,-0.0016982696,-0.00047223223,-0.0007486918,0.08332789,-0.048011906,0.13848549
4608000,4608000,-0.00073634053,-0.0016683904,0.0014252693,0.091170676,-0.12920664,0.22883196
4620000,4620000,-0.0008774797,-0.0031102463,0.0005780872,-0.028854355,-0.0888137,-0.037460078
4628000,4628000,0.001442208,-0.002606749,-0.00013455882,0.22350697,0.028746711,-0.056889992
4640000,4640000,-0.0017019619,-6.1245635e-05,-0.0005710614,-0.21707429,0.109752566,-0.14887601
4648000,4648000,-0.0024911999,-0.0018314961,-0.00087170186,-0.15536714,-0.15718715,-0.053070847
4660000,4660000,0.0012831524,0.0023513332,-0.001770725,0.2875104,0.24965148,-0.14340466
4668000,4668000,0.0012344384,0.00052478537,-0.0018046349,0.080844134,-0.08543836,-0.02344847
4680000,4680000,-0.0016422301,0.0002562669,0.00024600336,-0.17264934,-0.00021320464,0.14609766
4688000,4688000,-4.4922694e-05,-3.62345e-05,0.0011080037,0.0799409,-0.01290762,0.08849515
4700000,4700000,0.0005084364,0.00051267445,-0.00034303206,-0.017499417,-0.036718234,-0.068933025
4708000,4708000,0.00048779848,0.0019094935,-0.0015229366,0.024446394,0.10481517,-0.1006377
4716000,4716000,0.000858361,-0.0009109862,0.0001530463,0.011384957,-0.21716985,0.11052341
4724000,4724000,-0.0019565667,-0.0019637705,0.0015609836,-0.22664149,-0.15134276,0.15502596
4740000,4740000,0.00027472567,0.00010027271,0.0033248633,0.087031916,0.21855654,0.16921636
4748000,4748000,-0.00019160344,0.00083083985,0.0014629393,-0.05601395,0.08264415,-0.121750414
4760000,4760000,0.00016201136,-0.002568616,0.0026313923,0.07379634,-0.17623232,0.07010159
4768000,4768000,-0.0006343208,-0.00073528243,0.00039322974,-0.057893224,0.114374146,-0.16206232
4780000,4780000,7.828628e-05,-0.00089447154,0.0037520288,0.07484302,-0.087877944,0.27161446
4788000,4788000,-0.00011629588,-0.0016489974,5.216169e-05,-0.010104638,-0.025342891,-0.26835874
4800000,4800000,-0.00061354414,0.0004348685,0.0002398327,-0.005096283,0.011916616,-0.031019956
4808000,4808000,-0.00016171893,-0.001200248,0.00016193089,0.028155355,-0.11971309,0.0016556995
4820000,4820000,-0.00010942062,0.00027533062,0.0043357764,0.091762684,0.057782907,0.2794671
4828000,4828000,0.0013730209,-0.0024136822,0.003755013,0.14321615,-0.23504351,0.036476646
4840000,4840000,-0.00033492153,-0.0036276714,-0.0023643472,-0.13411283,-0.046922248,-0.4018458
4848000,4848000,-0.0009888478,-0.0014697304,-0.00053690036,-0.1102695,0.17023797,0.069582984
4860000,4860000,-0.0019999915,0.0006287438,0.00020789867,-0.063742,0.14661542,-0.09290637
4868000,4868000,-0.0014942188,0.0006979429,0.0006841008,0.013893975,0.08015975,0.038411714
4880000,4880000,0.0013476592,0.0006548399,-0.0053963503,0.24136953,-0.053374335,-0.4700449
4888000,4888000,0.0006232392,0.00050265016,-0.0013495944,0.006191358,-0.03707271,0.23537293
4900000,4900000,-2.992421e-05,0.0026600077,0.00067982986,-0.023007955,0.18268082,0.096628875
4908000,4908000,-0.0017592795,0.0011404403,1.9406929e-05,-0.18066299,-0.08274199,-0.0053964644
4920000,4920000,0.00081917597,-0.00087351445,0.0017769306,0.20814526,-0.066499054,0.09098652
4928000,4928000,-0.00025265745,0.0020654995,0.003013306,-0.050165407,0.18184547,0.11804322
4940000,4940000,0.0006833894,0.0029952358,0.0009087189,0.08136807,0.18367632,-0.1238388
4948000,4948000,0.0011221676,0.0041942107,0.0008006885,0.05766529,0.15837133,-0.022253593
4960000,4960000,-0.00023359177,-0.00054052426,-0.0030850181,-0.101091444,-0.34402537,-0.4332558
4968000,4968000,0.00087896996,-0.0020775818,-0.0018487416,0.08239237,-0.233118,0.024970468
4980000,4980000,-0.00087076146,0.0019133454,-0.0017212009,-0.18807581,0.26460847,-0.013130345
4988000,4988000,0.0029848057,0.0019420758,-0.0012760991,0.29213622,0.05488397,0.023107445
4996000,4996000,0.0052481284,-0.00028024754,-0.000220377,0.275067,-0.17598215,0.104604065
5008000,5008000,0.0018851365,-0.0033190134,-0.0029139682,-0.18209033,-0.20914716,-0.23358124
5020000,5020000,0.00082788547,0.0017699115,-0.0013197069,-0.1459091,0.40582803,0.21188577
5024000,5024000,0.00012640655,0.0028966044,-0.00031661405,-0.1585733,0.35245776,0.22860229
5036000,5036000,0.0028690915,0.0021402913,-0.0007942347,0.21993178,0.09970176,0.100680254
5044000,5044000,0.0039503034,0.0022010293,-0.0017826153,0.11872274,-0.013694702,-0.08478609
5060000,5060000,0.0011420886,-0.00036595715,-0.00037040556,-0.06292021,-0.07975347,0.0970002
5064000,5064000,0.0019909425,0.00033683516,-0.0019190165,0.050789338,0.031355567,-0.16831312
5080000,5080000,-0.00013910781,0.00030891318,0.0001356086,-0.2918271,-0.0064992374,0.11952087
5088000,5088000,-0.0015463884,-0.00038812542,5.1828683e-06,-0.19217561,-0.05796452,0.03447961
5100000,5100000,0.0018252525,0.00048013916,0.00025249622,0.18164167,0.050759003,-0.00019798712
5108000,5108000,0.002499782,-0.0011274777,-0.0012967633,0.15535721,-0.11334714,-0.117200285
5120000,5120000,0.0018701034,6.9830567e-06,-0.0004596981,-0.056805145,0.04460953,0.03606893
5128000,5128000,0.001693482,-0.00043072226,-0.0018311953,-0.06339567,-0.008594851,-0.13399115
5140000,5140000,-0.0027007083,0.003922701,-0.0016935105,-0.24488011,0.29295146,0.048212223
5148000,5148000,0.00026708108,0.0015416795,-0.0028306092,0.19049327,-0.13831526,-0.09293032
5156000,5156000,0.0018948306,0.0012843497,-0.0011146514,0.18280266,-0.026585491,0.15543985
5168000,5168000,0.0011460185,0.00027877511,0.002374163,-0.07628332,-0.008892436,0.19008133
5176000,5176000,-0.00050776976,-0.00024321582,-1.2954057e-05,-0.14043263,-0.07209106,-0.17261748
5188000,5188000,-0.00023768039,0.001981775,-7.205864e-05,0.014402587,0.147818,0.06463322
5200000,5200000,0.0020497781,0.002878486,-0.0027521742,0.10627981,0.0686671,-0.29669335
5208000,5208000,0.00012833648,-0.0012152302,-0.00504805,-0.12759566,-0.32084072,-0.21808755
5220000,5220000,0.0017749482,0.0035053752,0.0011011527,0.14633487,0.30007175,0.23367347
5228000,5228000,0.0036037331,0.0011016722,-0.0026068431,0.1798164,-0.14149131,-0.22246519
5240000,5240000,-1.7188373e-05,0.002603362,0.00034754135,-0.2377134,0.08398196,0.21241193
5248000,5248000,0.00074729195,0.0027256045,-0.00083368673,0.010991134,0.039160036,-0.048338607
5260000,5260000,0.00047235133,0.0005686302,-0.0016697634,-0.082800835,-0.12770234,-0.012378903
5268000,5268000,-0.00078810274,0.0006732447,-0.0027920045,-0.06842679,-0.034162406,-0.09168647
5280000,5280000,0.0011726392,-0.000689324,-0.0011523676,-0.07397771,-0.10845076,0.090701744
5288000,5288000,0.0017392187,-0.0016009151,-0.0009412623,0.0601628,-0.10359003,0.051369794
5300000,5300000,-0.00072065345,0.0010391134,-0.0019064464,-0.1268742,0.21875504,-0.053172138
5308000,5308000,0.0016940824,0.0023681507,-0.0013738294,0.1474862,0.14802907,0.025883337
5320000,5320000,-0.0004224314,0.0017180184,-0.0010378849,-0.15761946,-0.006675542,-0.046190258
5328000,5328000,-0.0018157463,-0.00030395435,-0.000465683,-0.14941142,-0.18841799,0.058869027
5340000,5340000,0.0027922988,0.0028921175,-0.0017174117,0.31161863,0.226266,-0.118544854
5348000,5348000,-0.00040424196,-0.00028270576,-0.002912193,-0.17386611,-0.1935551,-0.122936174
5360000,5360000,-0.00043219049,0.00020715734,-0.0008051407,-0.06364781,-0.010721094,0.17133692
5368000,5368000,-0.0004063882,0.00036911806,5.7989615e-05,0.010938607,-0.01294749,0.11018283
5376000,5376000,0.0017156015,-0.0015321891,0.0012890212,0.16839898,-0.17444539,0.15523417
5388000,5388000,9.702088e-05,-0.0014601941,-0.00042673294,-0.13628264,0.025117252,-0.16763984
5400000,5400000,0.0009378216,-2.9068906e-05,-0.0021334533,0.085008435,0.046410352,-0.044772275
5408000,5408000,0.0003816525,0.00028688833,-0.0025210895,-0.018044643,0.042339854,-0.051132865
5420000,5420000,0.0021257256,-0.001045343,-0.0013982076,0.09619148,-0.029220916,0.019336995
5428000,5428000,0.0008920644,0.0008887504,-0.0018141884,-0.09877263,0.16355377,-0.028839549
5440000,5440000,-0.0006606695,-0.0021337443,0.0042846533,-0.05804761,-0.25555712,0.40519926
5448000,5448000,-0.001211067,0.0017040039,0.0018751188,-0.04298275,0.29232597,-0.079941474
5460000,5460000,0.0032048067,-0.0008196784,0.002147526,0.3011068,-0.23600236,2.3180226e-05
5468000,5468000,0.0037994457,-0.0015161117,-0.00024886278,0.11249974,-0.09955073,-0.18955652
5480000,5480000,0.0014793063,-0.0010214541,-0.006127184,-0.1558227,0.036107015,-0.40520507
5484000,5484000,0.000256747,0.0005988269,-0.005561125,-0.22022441,0.1947128,-0.1701873
5500000,5500000,0.0016471223,0.00041103642,-0.00041997124,0.14453582,-0.01950433,0.17852128
5508000,5508000,0.0033789352,0.0006633606,-0.0028529703,0.1806348,0.014019184,-0.16488566
5520000,5520000,0.0015409061,-0.00010332372,-0.0008550616,-0.09932127,-0.10158292,0.23676422
5528000,5528000,0.0028451928,0.0007999898,0.001565115,0.089107685,0.07569765,0.24008144
5540000,5540000,0.00069353567,0.0010134839,0.0030545262,-0.17044625,-0.11999679,0.22996832
5548000,5548000,-0.0014747628,-0.0045298133,0.00258097,-0.2154019,-0.47975135,-0.009033547
5556000,5556000,-0.0008544824,-0.0012957151,0.00073313084,-0.003566198,0.15599266,-0.14216346
5568000,5568000,0.0012781878,-0.00011596782,-0.00038051652,0.06310022,0.022833297,-0.10068035
5580000,5580000,0.0032466522,-0.00044452446,-0.0028993979,0.062054463,-0.09197755,-0.16459298
5588000,5588000,0.0008978307,-0.0012521176,-0.0018149358,-0.15305373,-0.037551522,0.043924734
5600000,5600000,0.00070127007,-0.00062297797,0.002011416,-0.011229571,-0.059374444,0.2683356
5608000,5608000,0.0024383822,0.0010490548,0.0014846233,0.13608694,0.12924573,0.011152701
5620000,5620000,0.00035728887,0.00030065794,-0.0014879529,-0.16177696,-0.02529688,-0.10732355
5628000,5628000,0.0023964578,0.0011588768,-0.0005704707,0.14455682,0.06127026,0.031579375
5640000,5640000,0.0004128894,-0.00037201727,-0.00081767014,-0.123499334,-0.059876643,-0.008218781
5648000,5648000,-0.0008192633,0.0009246338,0.0014571411,-0.1420966,0.08322559,0.19597004
5660000,5660000,-0.0002396719,-0.0010473132,4.0736515e-05,0.03926285,-0.1619445,-0.12124622
5668000,5668000,-0.0009549542,-0.001172185,-0.0008385431,-0.043113053,-0.041776013,-0.11417616
5680000,5680000,0.00096525555,0.00026542135,-0.0021096724,0.14091614,0.042287212,-0.09641445
5688000,5688000,-0.00066368515,0.0011704653,-0.001282378,-0.088974416,0.07384625,0.09210893
5700000,5700000,0.0012427524,0.0026401768,-0.0021660118,0.09927117,0.15127072,-0.04453313
5708000,5708000,-0.0011464378,0.0022454462,0.0006932791,-0.19498484,-0.010672634,0.24552748
5720000,5720000,0.0023523304,0.0020359082,-0.0017874945,0.2512794,0.03343335,-0.13825622
5728000,5728000,0.0010355529,0.000646343,-0.0013934602,-0.02066684,-0.11650498,-0.012534594
5740000,5740000,0.0022329162,0.0014438983,0.0005666504,0.056826785,0.03502021,0.16784614
5748000,5748000,0.0028245405,-5.406188e-05,-0.0003349469,0.069216676,-0.11779941,-0.04662977
5760000,5760000,-1.3416167e-05,0.0025117458,-0.001919993,-0.18887092,0.18286794,-0.0709634
5768000,5768000,0.00052613416,0.0036688945,-0.0014619982,-0.029339619,0.11796389,0.017111687
5780000,5780000,0.00036904402,-0.0016394281,-0.0008284799,0.046861522,-0.25719613,0.0059658205
5788000,5788000,-0.00090150675,-0.00057361415,-0.0018842795,-0.09121992,0.030942636,-0.070688166
5800000,5800000,0.0014225362,2.2875145e-05,-0.00093782815,0.15004338,-0.020147048,-0.004685555
5808000,5808000,0.002045455,-0.00037512695,-0.00490536,0.07986738,-0.04703801,-0.35275656
5820000,5820000,-0.0026040517,0.0012726868,-0.0031292322,-0.2685854,0.13001905,0.12908316
5828000,5828000,0.00043820718,0.0015826379,-0.0020060432,0.187716,0.0750196,0.1349054
5840000,5840000,-0.0011331239,0.0008754968,-0.002092561,-0.08542666,-0.02919971,-0.041454904
5848000,5848000,0.0016603174,6.785011e-05,-0.00199068,0.2107497,-0.04663459,0.0091976905
5856000,5856000,-0.0008396758,0.0009100167,-0.0024525377,-0.17973885,0.03308171,-0.053476594
5868000,5868000,-0.0010732252,0.0023207804,-0.00033077714,0.018692888,0.10915659,0.17510915
5880000,5880000,-0.00064282166,0.001985685,-0.0026233804,-0.005020907,-0.00843544,-0.15020022
5888000,5888000,0.0009688027,0.004107558,-0.0019120863,0.12898842,0.16738206,0.018630061
5900000,5900000,0.00033982156,0.0017964095,-0.0023835544,0.0041438756,-0.1332345,-0.161047
5908000,5908000,-0.0011962134,-0.00092025055,-0.0031391908,-0.15131763,-0.27564988,-0.092498146
5920000,5920000,9.7177806e-05,-0.0010653655,-0.0008915286,0.20729627,-0.009044991,0.059844922
5928000,5928000,0.0018031844,2.5915448e-05,-0.0016089954,0.15622048,0.07960445,-0.025643954
5940000,5940000,-7.382885e-05,-0.00033494597,-0.0030709768,-0.07478644,-0.07382198,-0.11788207
5948000,5948000,7.150788e-05,0.0015117722,-0.0011692909,-0.010219294,0.16507226,0.14759476
5960000,5960000,0.0010292897,0.0005716169,0.0002968734,0.066804744,-0.08345877,-0.0054186746
5968000,5968000,-0.00020681368,-0.0001372518,-0.0022468711,-0.08301112,-0.06896284,-0.18626757
5980000,5980000,0.00093279674,-0.0015157158,0.0017822981,0.08998727,-0.14658415,0.27706757
5988000,5988000,-0.0010621959,-0.00067376904,-0.00092925044,-0.16487072,0.043290157,-0.18168744
6000000,6000000,-0.00028892572,0.00239481,-0.0025684745,0.0881425,0.25795537,-0.12797791
6004000,6004000,-0.00040474522,0.004045004,-0.0030570996,0.03780599,0.32441014,-0.12547536
6016000,6016000,0.00035376067,-0.00015445473,-0.0009400409,0.13939713,-0.19660103,0.078537665
6028000,6028000,0.0027880254,-0.004326956,-0.0025726417,0.09363187,-0.24803534,-0.079247855
6040000,6040000,0.0033037132,-0.0010724221,-0.001970159,0.08523548,0.10920452,0.078142144
6044000,6044000,0.002659363,-0.0013618474,-0.0013550317,-0.020651136,0.031157177,0.11065726
6060000,6060000,0.0011016019,-0.0014385451,-0.0032585934,-0.07075002,0.052434076,-0.050471906
6068000,6068000,0.0015550418,0.00043634092,0.000764768,0.051872402,0.1661028,0.30159
6080000,6080000,0.0005297068,-3.2903627e-05,-0.0011623679,-0.14025773,0.011854096,-0.0583712
6088000,6088000,0.0003384134,0.0031942227,-0.00078671984,-0.0473397,0.25546402,-0.00035474004
6100000,6100000,0.0022399432,0.0017388542,-0.0033839801,0.13497965,-0.10491201,-0.16151208
6108000,6108000,0.00062171184,0.0009690416,0.0006005438,-0.1103203,-0.04065923,0.29018113
6120000,6120000,0.0004927376,0.00028419634,-0.00046256947,-0.0048019104,-0.115664914,-0.016627772
6128000,6128000,0.0023330052,0.00073182397,-0.0016883307,0.14804548,-0.022309843,-0.119118735
6136000,6136000,-0.00056653586,-0.0001097261,-0.0016309619,-0.21884677,-0.03835423,-0.011190821
6144000,6144000,-0.0023565304,0.0010264879,-0.0008803869,-0.20052986,0.045179337,0.04836859
6156000,6156000,-0.0031750326,-0.00036259228,0.00024970737,-0.13062726,-0.09662671,0.053517774
6164000,6164000,-0.0012623717,-0.0002691471,0.0007530011,0.15014559,-0.014574666,0.08050839
6176000,6176000,0.0007920069,0.001314092,0.00033071009,0.081394345,0.12997171,-0.029601442
6184000,6184000,0.0010206077,0.0013838764,-0.00075267814,0.06986721,0.03369871,-0.10695241
6196000,6196000,0.0009158406,-0.00053885207,-0.0006287413,-0.031463817,-0.15923168,0.016008409
6204000,6204000,0.00216404,-0.0027477876,0.0006656243,0.13155288,-0.20205623,0.12336617
6220000,6220000,0.00024036528,0.00015044445,-0.00041621889,0.017324165,-0.023237767,0.096168414
6224000,6224000,0.00110054,-0.0024975115,0.0005439782,0.10231763,-0.297817,0.15801832
6236000,6236000,0.0006708917,0.0026554246,0.0011784731,0.05513091,0.39886135,0.09256981
6244000,6244000,0.0029790895,0.0017296304,0.0021083965,0.19978514,-0.0030027493,0.08316909
6256000,6256000,0.0003860083,0.0011718334,-0.0010130906,-0.18701558,-0.00738284,-0.21913007
6264000,6264000,7.736427e-05,-0.0004049712,-0.0014960081,-0.053854566,-0.13279706,-0.09158919
6280000,6280000,-0.0013042933,-0.0004771822,-0.0029230902,-0.076970346,-0.038726423,-0.10277879
6288000,6288000,0.00030176295,-0.0021855966,-0.0028040996,0.1235105,-0.11404944,-0.0073742326
6300000,6300000,0.002386203,0.0021744752,-0.0015140314,0.0357686,0.20807165,0.051088545
6308000,6308000,0.00039243547,-0.0010982645,-0.0013999247,-0.14788386,-0.22167847,0.039351027
6320000,6320000,0.0011557606,0.0033799284,-0.00076026417,0.12909557,0.29654512,0.0023072748
6328000,6328000,0.0014853714,-0.0011887853,-0.000104082515,0.00011245906,-0.29121518,0.07821232
6340000,6340000,-0.0020541216,0.003114949,-0.0024115145,-0.104154564,0.29053515,-0.16813803
6348000,6348000,0.0011513557,0.002207074,-0.0037476686,0.23842861,-0.034596335,-0.15858206
6360000,6360000,0.0003459237,-0.002083642,-0.0001835933,-0.10711602,-0.22420122,0.25351763
6368000,6368000,9.860215e-05,0.00077914493,-0.00034599827,-0.013252929,0.18373752,0.062543444
6380000,6380000,0.0029260404,-6.651459e-05,-0.004869195,0.21564135,-0.15080723,-0.4461811
6388000,6388000,0.0029026545,-0.0008404553,-0.005925536,0.050342835,-0.088193156,-0.161114
6400000,6400000,0.0010689811,-0.0023983652,-0.0003568838,-0.11307441,-0.08816756,0.31143436
6408000,6408000,0.0009365934,-0.0022757705,0.0032346707,-0.030061826,-0.024088625,0.39926612
6420000,6420000,0.0011582511,0.0011202986,-0.0014363278,-0.0049575064,0.18188713,-0.30644238
6428000,6428000,0.003460778,0.0015719933,-0.0023952133,0.21278661,0.10611315,-0.12596467
6436000,6436000,0.001851633,0.00078252424,-0.00010202319,-0.10886773,-0.027161386,0.1286498
6444000,6444000,0.0019117658,0.0010559643,0.00010634208,0.011366583,0.0021638628,0.049777254
6456000,6456000,0.0014655133,-0.0051392717,0.000112816284,-0.07790553,-0.4497562,-0.020536177
6464000,6464000,0.00046245544,-0.0030207615,0.0017516136,-0.07878427,0.07712625,0.19714189
6476000,6476000,0.0028467486,0.001099478,-0.00024905748,0.031742096,0.25521016,-0.27151787
6484000,6484000,0.00062386773,0.0014827745,-0.0018262255,-0.15618955,0.08550731,-0.18600559
6500000,6500000,-0.0006155772,-0.0010747025,0.0007810493,-0.16203463,-0.11447297,0.097230874
6504000,6504000,-0.0012066413,-0.0015278328,0.00091254205,-0.155901,-0.113961264,0.06956551
6520000,6520000,-0.00068250555,-0.0029743835,-0.0013356671,-0.14529799,-0.07284944,-0.12994927
6528000,6528000,0.0010673456,0.0006165644,-0.0013236878,0.12356911,0.25513387,-0.024469048
6540000,6540000,0.0009108004,0.00062136305,-0.000114923576,-0.07434696,0.08828583,0.06266775
6548000,6548000,0.00031067233,0.002693579,0.00045018125,-0.05052402,0.17955911,0.06393973
6560000,6560000,0.0021078335,-0.00110455,0.00066177774,0.111691706,-0.2766396,0.12211405
6568000,6568000,0.0007519365,0.00033078436,0.0016913994,-0.08846159,0.06278089,0.080778345
6580000,6580000,0.0019214235,0.0013379748,-0.002411985,0.106710225,-0.05104019,-0.25754076
6588000,6588000,0.0004863533,-0.0021920586,-0.0027710295,-0.085678734,-0.3132768,-0.09048787
6600000,6600000,0.0007019446,-0.0028052703,-0.0005990743,-0.012190717,-0.066636205,0.08688257
6608000,6608000,0.0013273341,0.0006914055,-0.0018373104,0.046686094,0.32134882,-0.053067684
6620000,6620000,0.0018568638,-8.463254e-05,-0.0014169,0.078968436,-0.110984966,-0.028046915
6628000,6628000,0.0018432096,0.0013226131,-0.0026196358,0.016074749,0.09604127,-0.08829888
6640000,6640000,6.224809e-05,0.0004875688,-0.0025393432,-0.11047284,-0.0544589,-0.023752563
6648000,6648000,0.00078298943,0.0025614677,-0.00044613774,0.033364613,0.18121028,0.1812333
6660000,6660000,-0.00026602426,0.0017799591,0.0029392901,-0.040636934,-0.026898958,0.161782
6668000,6668000,0.0009918597,0.00080777425,-0.001707854,0.06863223,-0.12840739,-0.3446154
6680000,6680000,0.0010096817,0.0003275564,-0.002369667,0.05830527,-0.05053866,-0.03254869
6688000,6688000,-4.852703e-05,-0.00022043288,-0.0030038094,-0.08234352,-0.040268622,-0.061646022
6700000,6700000,0.0016643411,0.00064471364,-0.0017576203,0.12185298,0.04808136,0.04798342
6704000,6704000,0.0027717531,-0.0007775277,-0.0017186614,0.18848267,-0.12543163,0.031543646
6716000,6716000,0.0019276703,0.00037447596,-0.0015642145,-0.07781936,0.12078491,0.0048562945
6724000,6724000,0.0008746923,0.0012840321,-0.0016892072,-0.08764503,0.10366553,0.0026809908
6736000,6736000,-0.00010635692,0.001656048,-0.00069455424,-0.1462958,0.08439455,0.058964185
6748000,6748000,0.0038900236,0.0007389169,0.0026857571,0.3337931,-0.05010553,0.26170415
6760000,6760000,0.0039685275,-0.00019200146,-0.0014689434,-0.011965908,-0.15195592,-0.3353146
6768000,6768000,0.001445329,0.0018672929,-0.0018760284,-0.20648132,0.18488535,-0.04960553
6776000,6776000,0.0017876017,-0.00042337505,0.0018981781,-0.015429668,-0.21182781,0.22104718
6784000,6784000,0.0015725602,0.0017756121,-0.001132765,-0.052497156,0.19073644,-0.15813828
6796000,6796000,-5.0684786e-05,0.00039482256,-0.0029166162,-0.024136446,-0.15571757,-0.25695932
6804000,6804000,0.0010510568,0.0004895595,-0.0025450222,0.047781307,-0.054248247,-7.347857e-05
6820000,6820000,0.0021672326,-0.0021882234,0.0028181474,-0.075217955,-0.09371381,0.235894
6828000,6828000,0.00020025729,-0.00021370174,0.0019935705,-0.1654456,0.15253703,-0.030309198
6840000,6840000,0.0004968181,0.0006973585,-0.0024590767,0.0013384484,0.104276046,-0.2319392
6848000,6848000,0.0033397996,-0.0013627433,-0.00064305833,0.2506107,-0.16098957,0.0668517
6860000,6860000,0.0033679921,0.0006574048,-0.0016499115,0.0071297884,0.11568029,-0.035117406
6864000,6864000,0.0019261956,0.0022760096,-0.00026508165,-0.15088093,0.2398999,0.12880228
6876000,6876000,0.00048682897,-0.0013036169,0.00080432644,-0.050147135,-0.32280517,0.046199962
6884000,6884000,-0.00016594469,7.353537e-05,-0.0008272027,-0.07126353,0.062228847,-0.11714845
6900000,6900000,0.00062688673,-0.0013996791,-0.0011760731,-0.019015498,-0.052841157,0.082959965
6908000,6908000,0.00025952712,0.00032167695,-0.0014685794,-0.02375257,0.10317245,-0.04883355
6920000,6920000,0.0042841313,0.001396467,-0.0010903261,0.23841,0.15428035,0.03985633
6928000,6928000,0.0026394902,0.0029065001,-0.00039544737,-0.0931371,0.13569795,0.11040999
6940000,6940000,0.0027888403,-0.0008547432,-0.0022658405,0.09854767,-0.20044781,-0.22264968
6948000,6948000,0.0004696151,0.0008699922,-0.0034876417,-0.20073284,0.108119786,-0.15110971
6960000,6960000,0.00063719513,0.00096282084,0.0016724607,0.10616852,-0.049487513,0.38206404
6968000,6968000,0.0023049545,0.0012493534,0.0012200333,0.13775823,0.039562788,0.045452848
6980000,6980000,0.0010326917,0.00041095074,-0.00025552307,-0.010876168,-0.058933273,-0.021185933
6988000,6988000,0.0013694129,0.0008426411,0.00037766696,0.043135203,0.021553226,0.022804357
7000000,7000000,0.0010251739,-0.0009551267,-0.0037430522,-0.07096856,-0.07906516,-0.2967836
7008000,7008000,0.00041397184,0.0022223692,-0.004086657,-0.04468132,0.23967484,-0.082172036
7020000,7020000,0.00033057376,8.0653466e-05,-0.0002499128,-0.05113042,-0.035144534,0.24719566
7028000,7028000,0.0011964026,0.00010403944,-0.0011451215,0.067926444,-0.047869947,-0.03447535
7040000,7040000,0.0024007647,0.0017431125,-0.0020949063,0.034417138,0.17062528,0.06244829
7048000,7048000,0.0013994684,0.0010069525,-0.0008598827,-0.06988438,-0.034219332,0.10421349
7060000,7060000,0.0002594596,0.002330461,0.0010354694,-0.047371775,0.11554055,0.13326293
7068000,7068000,0.0025542611,0.00064328033,-5.3859083e-05,0.19113106,-0.10170288,-0.045184437
7076000,7076000,0.003742152,-0.000110272784,0.0015025025,0.112753205,-0.1220279,0.13850808
7088000,7088000,-0.0011331959,-0.0010881275,-0.0012391479,-0.2660452,0.05317754,-0.20492542
7100000,7100000,-0.0026391498,-0.00018693181,0.00090222276,-0.118044786,-0.09129076,0.0828357
7108000,7108000,0.0007811342,-0.003431459,-0.001725949,0.26368114,-0.28820413,-0.20093927
7120000,7120000,0.0009707506,-0.0025470518,-0.0009349039,-0.023513384,0.12065411,0.023868086
7128000,7128000,0.0012816237,0.00096037285,-0.0025537717,0.019192526,0.2744663,-0.11826234
7140000,7140000,1.3585668e-07,0.00012109522,0.0010400699,-0.0866805,-0.029306673,0.19075692
7148000,7148000,0.00041050196,-0.00023823418,-0.002219053,-0.0012850547,-0.019741308,-0.22771817
7160000,7160000,0.00085691054,-0.00074809324,-0.0014881433,0.042703457,-0.06610247,0.084474735
7168000,7168000,0.00012047391,0.0025662826,0.00010996411,-0.03780862,0.29417843,0.13308749
7180000,7180000,0.0004069805,0.00083306804,-0.002791137,-0.0404822,-0.22458939,-0.20413801
7188000,7188000,0.00046538247,-0.00013509719,-0.0036183216,0.026487328,-0.11390968,-0.066198535
7200000,7200000,0.001246211,0.0012137485,-0.00065763784,0.06056888,0.09172596,0.06740084
7208000,7208000,0.0034539825,-0.00082131056,-0.0014876677,0.18336688,-0.16345178,-0.03145243
7220000,7220000,0.0016948382,-0.000671247,0.0002490866,-0.07059573,0.06788333,0.09241907
7228000,7228000,0.0017708798,0.0024682889,-0.0016697919,-0.023500962,0.28527144,-0.15494932
7240000,7240000,-0.0012665003,-0.0001759273,-0.0024909421,-0.17136097,-0.19589424,-0.050012913
7248000,7248000,-0.002036973,-0.0006564455,-0.00018643477,-0.1409628,-0.07734229,0.18875961
7260000,7260000,0.00051164674,0.0011239005,-0.0020144123,0.14513297,0.043060496,-0.090725034
7268000,7268000,-0.0015055899,4.5288354e-05,-0.0032670468,-0.10411093,-0.042814765,-0.1301382
7276000,7276000,-0.0022026557,0.00019090297,-0.0017525628,-0.10669989,-0.012253914,0.09931485
7284000,7284000,-0.0008403844,-0.001004165,-0.0018011743,0.11712636,-0.102558926,-0.00036920042
7300000,7300000,0.0020429962,0.00084633427,-0.003435985,0.08373814,-0.08365321,-0.035134077
7308000,7308000,0.0014998054,0.0018165656,-0.0029162574,-0.032499578,0.0914983,0.0026170404
7320000,7320000,0.0012800996,0.004495594,-0.0031759422,0.07822633,0.15972903,0.08349864
7328000,7328000,0.0030706073,-0.0001732232,-0.0018603395,0.15526879,-0.3475933,0.11788781
7340000,7340000,0.0012544561,-0.0012473543,-0.004458297,-0.09382778,-0.097393885,-0.10602665
7348000,7348000,0.00095434935,-0.00080224965,-0.003452246,-0.05498003,-0.014488507,0.06367254
7360000,7360000,4.5491848e-05,-0.0005320776,-0.00012569921,-0.031640485,0.1256204,0.20448823
7368000,7368000,-0.0021489896,0.0019946815,-0.0003684779,-0.20875822,0.24832669,0.038905207
7380000,7380000,0.00051136524,0.0050708265,0.00068374723,0.19203295,0.26305285,0.0139529975
7388000,7388000,0.0015717016,0.0015078562,-0.003337204,0.14153592,-0.26234448,-0.31857914
7400000,7400000,0.001440409,0.0002538585,-0.003587679,0.022988223,0.017614365,0.030320838
7408000,7408000,-0.0009616511,0.00037907623,-0.001302276,-0.20155308,-0.038879473,0.18650904
7420000,7420000,-0.0017623121,0.00076935906,-0.0018002046,-0.043432243,0.05088178,-0.050697844
7428000,7428000,0.0012974651,-0.000880213,-0.0045982706,0.24386978,-0.117242604,-0.24624607
7440000,7440000,0.004770164,0.0005980772,-0.0023706106,0.31126463,0.06791854,0.119632125
7448000,7448000,0.0041616717,-0.00038755639,-0.0015473514,0.020008571,-0.036576375,0.12101973
7460000,7460000,0.002288834,-0.002503193,-0.001847673,-0.07132758,-0.20212951,-0.015594978
7468000,7468000,0.0033832246,-0.00017404463,-0.0018008566,0.05005965,0.1277799,0.004833073
7480000,7480000,0.00081914256,0.0013177511,-0.0028648719,-0.14734171,0.1543118,-0.10355382
7488000,7488000,0.002599318,0.0036011245,-0.0009868224,0.11065377,0.21685506,0.15162274
7500000,7500000,0.0011295136,0.0019254643,-0.00016149704,-0.11302833,-0.009575883,0.09178498
7508000,7508000,0.0011104648,0.003069408,0.00011211401,-0.024050426,0.0632825,0.012990185
7520000,7520000,0.001810745,0.0010012705,-0.0014710946,-0.061644673,-0.09921804,-0.06573799
7528000,7528000,-0.00071085594,-0.0024908371,-0.0008749314,-0.2165272,-0.3210809,0.026654126
7540000,7540000,-0.00040486653,-0.0015927656,-0.00080927333,-0.12504372,0.06924103,0.0012558207
7548000,7548000,-0.0026999954,0.00017654477,-0.0031561875,-0.18235222,0.18990517,-0.19830146
7560000,7560000,0.0011126291,-0.0016605789,-0.00072535255,0.15224135,-0.21580264,0.19686528
7568000,7568000,-0.00085731247,-0.0014817868,-0.00020392414,-0.1297324,-0.036068276,0.08994056
7580000,7580000,-0.0003079716,-0.0021319739,-0.0026970096,0.16975074,-0.03203947,-0.16607282
7588000,7588000,-0.0001639371,0.00089980103,-0.001945515,0.046430465,0.2699531,0.038441945
7600000,7600000,0.00076180324,-0.0008783117,-0.0011371368,0.008407772,-0.12674694,0.025906937
7608000,7608000,-0.0020445867,-0.0020562299,-0.0012778871,-0.21606693,-0.14411464,-0.028013827
7620000,7620000,0.00056235236,-0.0017581573,-0.0009113483,0.08622826,0.09970317,0.12543838
7628000,7628000,0.00034124893,0.00090928236,-0.0020210193,0.023638066,0.27308697,-0.10606559
7640000,7640000,0.0018836507,-0.0013535526,-0.0020066856,0.078184836,-0.24153474,0.0941911
7648000,7648000,-0.0012727114,-0.003531428,-0.0022895804,-0.23048258,-0.24365947,-0.019140434
7660000,7660000,0.0039419453,-0.0020650337,-0.0031960788,0.29210794,0.043617547,0.0075205127
7668000,7668000,0.001986356,-0.00015487708,-0.0017179765,-0.06904842,0.19525816,0.13224633
7680000,7680000,-0.0035794587,-0.00027015107,-0.0027349172,-0.5048092,-0.060426038,-0.13151337
7688000,7688000,-0.003449563,-0.0022701928,-0.0022322522,-0.095747665,-0.15733203,0.02026661
7700000,7700000,-0.0014437358,0.0014702417,-0.0026964764,0.07718982,0.24822068,-0.0772372
7708000,7708000,-0.0014041532,0.001208337,-0.0033703404,0.057761688,0.03639517,-0.073016256
7720000,7720000,0.0003296421,0.002779658,-0.005028457,0.08614569,0.113063306,-0.086824216
7728000,7728000,0.00034907996,0.0021220446,-0.0038470735,0.042214397,-0.0006184149,0.07818787
7740000,7740000,0.0018851268,-0.0005267258,-0.003526831,0.10166028,-0.19481201,-0.02471644
7748000,7748000,0.0021158129,-0.00028148247,-0.003783891,0.03579816,-0.05073913,-0.027931793
7760000,7760000,-0.00027582445,0.0018927851,0.00021325529,-0.21653087,0.16186178,0.24149418
7768000,7768000,-0.00013987429,-0.0014786748,-0.002670397,0.004532978,-0.23526171,-0.18186295
7780000,7780000,0.0014683683,0.0010414072,-0.0066392235,0.004700005,0.121177666,-0.22495194
7788000,7788000,0.0006966962,0.0011926945,-0.0056552775,-0.049727224,0.038877763,0.03683676
7800000,7800000,0.00077332853,-0.00014488399,-0.00079896336,-0.0299459,-0.09706443,0.23435284
7808000,7808000,-0.00048369612,-0.002491206,-0.003575282,-0.11586593,-0.18762869,-0.17150384
7820000,7820000,-0.002024891,0.0012544394,-0.0010518663,-0.10292602,0.18632147,0.18107617
7828000,7828000,-0.0010049916,0.0001863921,-0.0028494769,0.092307925,-0.016881878,-0.087611616
7840000,7840000,0.00079616456,0.0022622566,-0.002501587,-0.018206969,0.13373215,0.022450307
7848000,7848000,0.0023590645,0.0033104108,-0.0013440036,0.17713001,0.13531789,0.096927054
7860000,7860000,-0.0015708194,0.00067877304,-0.0015672054,-0.3359,-0.1592308,-0.08275785
7868000,7868000,0.0008737899,0.001381509,-0.0027086176,0.12803833,0.0048572123,-0.0954301
7880000,7880000,-0.00080951815,0.0022089083,-0.0009307451,-0.12914276,0.062085927,0.08749513
7888000,7888000,-0.0010761966,-0.00027036108,-0.001578297,-0.057173777,-0.21391293,-0.025170429
7900000,7900000,0.00074620044,-0.0024850713,0.002821341,0.12269686,-0.11121517,0.34980375
7908000,7908000,0.00089008827,-0.0025825603,-0.0008059857,0.04223161,-0.033036064,-0.23712188
7920000,7920000,0.0003909045,0.001977949,-0.0025379611,0.017774433,0.29206485,-0.055696953
7928000,7928000,0.00043628097,0.0027422626,-0.0023736458,-0.0027749743,0.1339103,0.0026452956
7940000,7940000,0.0008487277,-0.00032135146,-0.0024939096,0.04956001,-0.16143478,0.024235055
7948000,7948000,0.0012715238,0.0007429747,1.4214311e-07,0.046443064,0.058130465,0.18079092
7960000,7960000,0.00023607735,-0.0015595122,-0.0017559945,-0.13517705,-0.21095328,-0.021549188
7968000,7968000,-0.0010330011,-0.0009903535,-0.0008574311,-0.11837876,0.008513547,0.053440835
7980000,7980000,0.0013342926,-0.0008333288,-0.0035164976,0.049034648,0.019008633,-0.20151587
7988000,7988000,0.00260003,0.0013981885,-0.002178843,0.15531659,0.22498317,0.071697615
8000000,8000000,0.0034669575,0.0011947281,-0.0028413683,0.12109067,-0.117122255,-0.06810901
8008000,8008000,0.0029921317,0.0012679156,-0.0038715855,-0.04843811,0.03752823,-0.07801393
8020000,8020000,-0.00039528543,0.0004996387,0.0010892123,-0.1433698,-0.19723727,0.2593662
8024000,8024000,0.00060111325,0.00064169196,-0.00036175747,0.02534061,-0.097185045,-0.008058893
8036000,8036000,0.0029238705,-0.0007955055,-0.0026132478,0.11837074,-0.27778143,-0.12030234
8044000,8044000,-0.00028943643,-0.0011845455,-0.0031884988,-0.23993272,-0.05947633,-0.086536616
8056000,8056000,0.0031741227,-0.0013502291,-0.00015109044,0.22254193,-0.15234938,0.3155228
8064000,8064000,0.0012249702,-0.00026750704,-0.0012216435,-0.113973305,0.092311196,-0.06253503
8076000,8076000,-0.0013692238,0.0010820623,0.00025309797,-0.11430831,0.01972051,0.050978787
8084000,8084000,-0.00052223133,0.00013493188,-0.002972438,0.015423995,-0.059560116,-0.28105178
8096000,8096000,0.0015177907,0.0011662128,-0.0012434052,0.15198365,0.037687756,0.20944914
8104000,8104000,0.0011713954,-0.0022970163,-0.0034349647,0.025616571,-0.27150068,-0.16169073
8120000,8120000,0.0012332372,-0.0009412295,-0.0021098794,0.011517936,0.0022540968,0.20810595
8128000,8128000,0.00033880747,-0.0006686114,-0.0013729641,-0.07245159,0.041527044,0.1242038
8136000,8136000,0.0016194652,0.00071850466,-0.0020371547,0.07334446,0.107742935,-0.018646674
8144000,8144000,-0.000114639406,2.96426e-05,0.00021195825,-0.100241736,-0.017081995,0.2019121
8160000,8160000,-0.00081157626,0.0007924908,-8.710823e-05,-0.15139869,0.07129052,0.05791948
8168000,8168000,-0.001978409,-0.00073364703,0.00014864065,-0.13935873,-0.09620258,0.028368616
8180000,8180000,0.00044309616,0.0014810329,-0.0011237415,0.15225267,0.03842578,-0.06833114
8184000,8184000,0.00053749664,-0.0003368142,-0.001354441,0.09694895,-0.17345123,-0.06375036
8196000,8196000,0.00014664407,0.00021417718,6.535329e-05,0.045170546,-0.00212896,0.07777575
8204000,8204000,9.6066506e-05,-9.126868e-05,-0.0026112644,-0.0067521147,-0.0071468037,-0.21165423
8220000,8220000,0.0010044158,0.0028841114,-0.00087394053,0.093996726,0.25530115,0.0666842
8224000,8224000,0.00069603114,0.003620381,-0.00085363816,0.020449229,0.22468,0.040200584
8236000,8236000,0.00078545325,-0.0012849434,-0.0027708563,0.017835967,-0.3470417,-0.058509555
8244000,8244000,0.0010979567,-0.00024002418,-0.0009838057,0.04742548,0.003545141,0.09389337
8256000,8256000,0.001078619,0.0011682394,-0.00015764133,-0.10241177,0.052157376,0.11977776
8264000,8264000,-0.0014932518,0.0030887565,-0.00086955575,-0.2320301,0.19684105,-0.049249258
8276000,8276000,0.00076012325,-0.0010250723,-0.0020489206,0.08914574,-0.29539025,-0.021959996
8288000,8288000,0.0008307021,0.00051412033,-0.0012675265,0.03959107,0.03714543,0.061585836
8296000,8296000,0.0010819673,0.0012732008,-0.0027849975,0.039663233,0.06670372,-0.108149186
8304000,8304000,0.0015022471,0.00066060154,-0.0015761992,0.036159053,-0.0070438003,0.066648155
8320000,8320000,0.00034501503,0.0020843586,-0.00022080634,-0.07033417,-0.041873742,0.13830706
8324000,8324000,-0.0008160599,0.0007951311,5.241012e-05,-0.1648772,-0.16242321,0.108214974
8336000,8336000,0.00034739706,-0.00018873718,-0.0028642672,0.103836626,-0.16496484,-0.24669555
8348000,8348000,0.00073173863,-0.0011011907,-0.0012490342,0.17469774,-0.065675914,0.033796787
8356000,8356000,0.003865648,-0.00079941144,-0.0014053377,0.25216365,0.016316472,0.030569293
8364000,8364000,0.00077644305,-0.0026662224,-0.0015574933,-0.17368656,-0.15944263,-0.028010918
8376000,8376000,0.0017266956,0.0014559682,-0.0006828323,0.00996767,0.21380365,0.1634734
8384000,8384000,-0.000954158,0.00093767745,0.0011138092,-0.20433038,0.03709923,0.15746255
8396000,8396000,0.00031798624,0.0039446675,-0.00026684615,0.04512735,0.23381186,-0.04404756
8404000,8404000,0.0007564897,0.00092613185,-0.0007969446,0.069212854,-0.21650484,-0.05913492
8416000,8416000,0.00036991114,0.0021163658,-1.776364e-05,-0.10305837,0.11510185,0.1400328
8424000,8424000,-0.00071208074,0.0008545313,0.0018763347,-0.09304686,-0.07144534,0.15896495
8440000,8440000,-0.0019325343,0.0008537322,-0.004147349,-0.18901151,-0.04798699,-0.3300104
8444000,8444000,-0.0018101711,0.001264439,-0.0041568885,-0.09461133,0.016778627,-0.18917441
8460000,8460000,0.0024201048,0.0010270467,-0.0023083054,0.22946459,0.12410782,0.097896695
8468000,8468000,0.0012345767,0.0014054603,-0.0021681462,-0.07100621,0.006452947,0.051957477
8480000,8480000,-0.0011115066,-0.001344074,0.0005425462,-0.121035054,-0.10598363,0.18374619
8488000,8488000,-0.0016449637,-0.0006689909,-3.3458346e-06,-0.071708046,0.027352396,0.024539132
8500000,8500000,0.000706312,0.00083013205,-0.00030205553,0.052020743,0.12521653,-0.049253445
8508000,8508000,-0.0006605113,0.0026595576,0.00024055218,-0.0564441,0.19862825,0.035301246
8520000,8520000,0.004187283,0.0021089492,-0.00025913113,0.22955824,-0.043555215,-0.049779914
8528000,8528000,0.0016600421,0.0005297768,-0.00079021556,-0.11891283,-0.13497631,-0.05068731
8540000,8540000,0.00434512,0.0029218693,-0.0023125836,0.15489408,0.12577859,-0.115484565
8548000,8548000,0.0013005151,0.0013326672,-0.0020167567,-0.22276947,-0.10219641,-0.032533996
8560000,8560000,0.0016674534,-0.0001697396,-0.0035192752,0.038438115,-0.10852702,-0.030886086
8568000,8568000,0.0020755413,0.00089871837,-0.0005850272,0.02251704,0.048011627,0.24107753
8580000,8580000,0.0016877932,-0.000363681,-0.0017436049,0.067946345,0.0058578863,-0.08816154
8588000,8588000,0.0031183753,0.00063034846,-0.0016967491,0.12407467,0.058105938,-0.013407622
8600000,8600000,0.00073993206,-0.00061114086,-0.0029199691,-0.1517492,-0.03832891,-0.0679173
8608000,8608000,0.00030848396,-0.00055395346,-0.0018307595,-0.0772406,-0.003852498,0.06985042
8620000,8620000,-0.0006337578,-0.00092608994,-0.001943375,-0.14018513,0.04423485,0.049361028
8628000,8628000,-0.0013028722,0.0021662212,-0.0004920332,-0.05966033,0.227417,0.15747984
8640000,8640000,0.0021086826,0.0010024048,0.0011209063,0.22139396,-0.027220353,0.11124185
8644000,8644000,0.0025073884,0.000698213,0.0011177999,0.16907139,-0.04820982,0.063088626
8660000,8660000,-0.00045309332,0.0018448252,-0.0015097151,-0.18904866,0.08247277,-0.15912366
8668000,8668000,0.00057783985,0.001497745,-0.00097313995,0.036175348,0.0067765065,0.0050535128
8680000,8680000,-0.0001740373,0.00024960143,-9.7435724e-05,-0.10978126,-0.06404908,0.09053955
8684000,8684000,-0.0015224066,-0.0005016313,-3.8845814e-05,-0.2074952,-0.117249265,0.05791591
8700000,8700000,0.0018460788,0.0025784553,-0.0009145533,0.068223044,0.14943649,0.15296617
8704000,8704000,0.000744031,0.0017752701,0.0005121368,-0.079537906,-0.0011176732,0.2405332
8716000,8716000,0.00033852697,0.001518616,0.0009976719,-0.057263456,0.0002110747,0.054561935
8724000,8724000,-0.0015371117,-0.001166604,-0.00062264205,-0.16084659,-0.21444798,-0.14110918
8736000,8736000,0.002184553,0.0008582794,-0.0003504772,0.2067942,0.1112643,0.040399298
8744000,8744000,0.002410055,0.0023155285,2.3279805e-05,0.09212626,0.14661905,0.038543705
8760000,8760000,0.0013405434,0.00037028734,-0.0009705372,-0.035220575,-0.05190912,-0.024985177
8768000,8768000,0.0011856102,0.0004671528,-0.00097282045,-0.010088317,-0.0460102,-0.0043920595
8780000,8780000,0.0010071001,0.0006106212,-0.0019808742,-0.06257419,0.06944796,-0.064450696
8788000,8788000,0.0012246161,0.0005618059,0.00088972744,0.019407168,-0.0004921592,0.20877464
8800000,8800000,0.0011857308,-0.0004690555,-0.0011975159,-0.06953487,-0.004408708,-0.09798919
8808000,8808000,0.0020686872,0.0013225782,-0.00024919206,0.06767015,0.13242216,0.060307283
8820000,8820000,0.00033644773,-0.0021203333,-0.000861338,-0.082629755,-0.22823754,-0.10231508
8828000,8828000,0.0012681747,-0.0013306006,0.0014511661,0.035338435,0.0017915595,0.19405532
8840000,8840000,-0.0027696197,-0.0022159745,-0.0014823123,-0.2323156,-0.04418332,-0.18014932
8848000,8848000,0.00014437013,-0.0021119541,-0.0017236597,0.18754515,0.0069886832,-0.07555376
8860000,8860000,0.0023762302,-0.002027112,-0.0017127614,0.15967676,-0.06389255,-0.04717787
8868000,8868000,1.1117547e-05,-0.0017070491,-0.0020793802,-0.16946658,0.05465693,-0.027947389
8876000,8876000,6.8823574e-06,0.0012714886,0.00015920372,-0.0053598583,0.22569057,0.18951432
8884000,8884000,0.0017167607,0.00020660833,0.0010886318,0.11435578,0.0059196004,0.10939337
8896000,8896000,-0.0012937008,-0.00011843862,-0.0033304696,-0.1801113,-0.1269511,-0.21768226
8904000,8904000,0.00054091495,0.0015105428,-0.0024122964,0.0931033,0.1255651,0.009675922
8916000,8916000,-0.0006449601,0.0005158861,0.0007726752,-0.01594045,-0.13424379,0.24028724
8924000,8924000,0.000619093,0.00049965316,0.0017282472,0.06649515,-0.008363727,0.14498718
8936000,8936000,0.000120741664,-0.0019035297,-0.00055709865,-0.026328716,-0.1905077,-0.08585975
8944000,8944000,-0.00050251686,-0.0003255438,-0.00017167348,-0.05107469,0.078454636,-0.036408253
8956000,8956000,0.0008587612,0.0009402782,-0.0026354669,0.099805266,0.02510895,-0.09978127
8964000,8964000,0.0012440574,0.0010646838,-0.0008722497,0.06328955,0.053197257,0.08479709
8976000,8976000,-0.00011863059,0.0008725906,-0.0007421729,-0.07541917,-0.046910625,0.16753702
8984000,8984000,-0.00049133855,0.00052561983,-0.00044679115,-0.047775157,-0.038998265,0.00725612
8996000,8996000,-0.0013014589,0.0024380926,-0.001291249,-0.028190386,0.1402518,0.06704196
9004000,9004000,0.0014137374,-0.00016693631,-0.0010250893,0.20877904,-0.22394273,0.016750641
9020000,9020000,-0.00024210312,-0.00028927065,-0.0022856803,-0.21355289,0.28726202,-0.13914311
9028000,9028000,-0.0012564625,0.002527472,-0.0030679735,-0.1444896,0.2916003,-0.07228278
9036000,9036000,0.00035824947,0.0009705317,-0.0008614259,0.12667188,-0.04192439,0.14948201
9048000,9048000,0.0022313069,-0.00076531013,-0.0009902882,0.11345599,-0.09925588,0.0028470831
9060000,9060000,-9.655068e-05,0.0044500562,-0.00081703253,-0.16344365,0.3303415,0.06397603
9068000,9068000,-0.0015906483,0.0017626153,-0.00046368345,-0.17387065,-0.18190771,0.021459289
9080000,9080000,0.0013966257,-0.0024552587,-0.0015227215,0.20301062,-0.17320895,-0.056352176
9088000,9088000,0.0022907197,0.00038491562,-0.0005941384,0.14557174,0.17521992,0.082430966
9100000,9100000,0.0033585462,-0.00018931925,0.00014302123,-0.07946245,0.029488413,0.01244174
9108000,9108000,-0.0019683223,0.0007406692,-0.00043365048,-0.40358004,0.076649554,-0.0519791
9120000,9120000,-0.002625276,-0.0012957333,-0.001385726,-0.16777605,-0.10595032,-0.039610546
9128000,9128000,3.0789757e-05,0.0010063052,-0.0016345967,0.17944828,0.15121041,-0.016374517
9140000,9140000,-0.00017211307,-0.00035049394,-0.00089825224,-0.01828815,-0.035375975,0.05367461
9148000,9148000,-0.0001233375,0.0015055737,0.00051879097,-0.0028074668,0.1404139,0.12272768
9160000,9160000,0.0020188617,0.001253855,0.00087859307,0.21269456,0.018995902,0.07549201
9168000,9168000,0.0020014867,-0.0009786189,0.00046336942,0.056641743,-0.20257749,-0.012055097
9180000,9180000,0.001718112,-0.00015894184,0.0005194424,-0.07435462,0.11929168,0.029237848
9188000,9188000,0.00045825815,0.0017768166,-0.00079271465,-0.12590407,0.16478519,-0.13262081
9200000,9200000,-0.0022969628,0.002779462,-0.0017393243,-0.21502599,0.19833179,-0.053849325
9208000,9208000,-0.00036487333,0.0032641608,-0.00072689436,0.11233139,0.070129976,0.06317793
9220000,9220000,-0.0022365998,0.0018615713,-0.0009043473,-0.05870666,-0.006686636,0.027856402
9224000,9224000,-0.00091327913,0.0012633549,-0.00055557454,0.10874309,-0.068100914,0.053363435
9240000,9240000,0.0012199153,0.0008964953,-0.001874228,0.072475955,0.1377797,-0.117669255
9248000,9248000,0.0010610671,0.0032347378,-0.0013935808,-0.0050581284,0.22936389,0.016635496
9260000,9260000,-0.0015159503,-0.00083713233,-0.0006555173,-0.15327592,-0.27171773,0.022112278
9268000,9268000,0.0003501072,-0.00057014404,-0.00065990584,0.14122841,-0.042254664,-0.005433607
9280000,9280000,-0.00046398852,0.00228129,-7.5653836e-05,-0.15171225,0.23901902,0.062656246
9284000,9284000,-0.0010429586,0.0031383112,0.00029729347,-0.14871618,0.22837387,0.07580189
9296000,9296000,9.371375e-05,0.0004420611,-0.0008713824,0.039798997,-0.11528078,-0.1155854
9308000,9308000,0.00015134306,0.0014279783,0.0016820703,-0.016931659,-0.003034043,0.14604492
9320000,9320000,0.00070286833,0.003508755,-0.0045467746,0.11297815,0.15341346,-0.39232695
9328000,9328000,0.00042830477,-0.0013480913,-0.0023621046,-0.028959043,-0.39311498,0.08946697
9340000,9340000,-0.002475917,-0.0016609714,0.0007964192,-0.14142345,-0.01921782,0.13725126
9348000,9348000,-0.00037329202,-0.0018559187,-0.0034693375,0.13934623,-0.008997861,-0.29727504
9360000,9360000,-0.000609676,-0.0036857529,0.0003541786,0.013371946,-0.21813479,0.18034649
9368000,9368000,0.00076105556,-0.003629122,-0.0033605092,0.10802498,-0.0148823885,-0.25494292
9380000,9380000,0.0012185739,-0.0008518407,-0.0005187502,0.04603362,0.13413584,0.114117935
9388000,9388000,0.0008941199,0.0010818839,-0.0011872253,-0.019995624,0.18660325,0.0040085516
9400000,9400000,-0.0005255226,0.0014404245,-0.00062902516,-0.09813894,0.112852216,-0.02084549
9404000,9404000,-0.00041870377,0.0016509241,-0.0009940285,-0.044472545,0.08696238,-0.05111056
9420000,9420000,0.00021523214,0.002266257,-0.005420698,0.05792026,0.1438032,-0.24808624
9428000,9428000,0.0025888274,-0.002002487,-0.001429058,0.20283055,-0.34511667,0.29440436
9440000,9440000,-0.00012883986,0.0009235358,0.0022931758,-0.16095637,0.24185719,0.21673045
9444000,9444000,-8.7735476e-05,0.0017316733,0.0030562559,-0.08734887,0.2247386,0.20557088
9460000,9460000,0.0015988707,-0.0014122785,-0.0005945516,-0.012534632,-0.23466985,-0.21879038
9468000,9468000,0.0009539081,-0.0034157848,-0.0014596897,-0.066631205,-0.23343815,-0.15139624
9476000,9476000,0.0018226713,-0.002293698,-0.0004635252,0.06400589,0.05312085,0.07294008
9484000,9484000,0.003501153,0.0021754769,0.0012394052,0.14560656,0.36918533,0.13329193
9496000,9496000,0.00024913205,-0.0006918423,-0.00040782694,-0.19378097,-0.19360194,-0.07815403
9508000,9508000,0.000748113,-0.0005349084,0.0033896375,0.000215929,0.12283538,0.27970892
9516000,9516000,-0.0012835963,0.0029723519,0.0018152359,-0.18857707,0.30562466,-0.08027689
9528000,9528000,0.0006968988,0.0002814941,-0.0025813552,0.14325751,-0.14939062,-0.26077792
9540000,9540000,6.5598055e-05,-0.0021578744,-0.0018614734,0.01701223,-0.22660774,-0.06051534
9548000,9548000,-0.00021909131,-0.0013510375,-0.0004386487,-0.024383068,0.0034826153,0.12438087
9560000,9560000,0.00060624746,-0.0022838712,0.00031830772,0.067343324,-0.059330318,0.10948835
9568000,9568000,-0.0023527495,-0.00075517595,0.001509538,-0.2608406,0.09077829,0.115436
9580000,9580000,0.0015142751,-0.0029366296,-0.0006901432,0.34921706,-0.08097567,-0.096475065
9588000,9588000,0.0007152268,0.0028333701,0.0008914486,-0.004898384,0.47617215,0.08260628
9600000,9600000,0.0004961082,0.0009357147,0.001372614,0.068291605,-0.114303306,0.064757265
9608000,9608000,0.0016558758,0.0016102556,0.0023590908,0.09479159,0.03896763,0.114742115
9620000,9620000,0.0012151165,0.0046212105,0.0006408687,0.024339452,0.19248375,-0.17115447
9628000,9628000,0.00057297293,0.0019584307,-0.00025406416,-0.049836643,-0.18032831,-0.111899205
9640000,9640000,7.73092e-05,0.0016050204,0.0008936848,-0.054714516,-0.06732335,0.01944449
9648000,9648000,-0.00014392426,0.00070075784,-0.0006992738,-0.024400193,-0.10812804,-0.14031076
9660000,9660000,0.0010367038,-0.0019338997,-0.0006583492,0.0095240325,-0.13366227,0.05594941
9668000,9668000,-0.0006936734,-0.0005168505,-0.0011067947,-0.121515974,0.09093011,-0.032787606
9680000,9680000,0.0024311915,0.0010782368,-0.001393896,0.2037313,0.0764949,0.03498316
9688000,9688000,0.0005779278,0.0013904087,-0.0007902287,-0.09762588,0.08128734,0.041126225
9700000,9700000,0.001823019,2.07657e-05,-0.00056631264,0.026768122,-0.14167929,0.07834917
9708000,9708000,-0.0013026469,-0.00056074886,-0.0008027734,-0.21192572,-0.08840485,-0.021002417
9720000,9720000,0.0002485669,0.00038091838,-0.001541121,-0.024117216,0.12449546,-0.04560833
9728000,9728000,-0.00027001253,0.0029497312,-0.0015964806,-0.022134636,0.24392629,-0.0046314406
9736000,9736000,0.0012639367,0.0016034988,-0.00036659944,0.12116764,-0.056525163,0.10317369
9744000,9744000,0.003647078,0.0019217352,-0.0014082809,0.22442049,0.027920684,-0.08399841
9756000,9756000,0.0010715963,-0.0030456819,-0.0013252434,-0.09242829,-0.35499197,0.036857605
9764000,9764000,0.0013120858,9.8802615e-05,-0.00069090293,-0.00532794,0.17282836,0.07214599
9780000,9780000,-0.00015970902,-0.0017403038,-0.000853053,-0.1913942,-0.18129858,0.010658127
9788000,9788000,6.08752e-05,-0.00092584826,-0.00020675348,-0.020963013,0.023109246,0.034537368
9796000,9796000,0.0028101848,-0.00016565667,0.001814455,0.22985107,0.07617779,0.20808797
9808000,9808000,0.0009884607,-0.001442824,0.0005049256,-0.105433784,-0.059571337,-0.17834768
9820000,9820000,0.0008607218,0.0035030618,-0.0019169424,-0.034456305,0.34848034,-0.14571032
9828000,9828000,-0.0021088552,0.004150091,-0.0025990687,-0.27254975,0.1388784,-0.07831001
9840000,9840000,-0.0014586004,0.0013194364,0.0010686383,-0.0049209325,-0.11670551,0.18528509
9844000,9844000,-0.0024177765,0.0009991545,-0.000326111,-0.10588556,-0.100957245,-0.04425302
