timestamp,timestamp_sample,xyz[0],xyz[1],xyz[2]
3388000,3388000,0.0003782765,0.001371923,-0.00022346692
3392000,3392000,0.00020570307,0.0009608809,-6.552972e-05
3408000,3408000,0.0002755393,0.00019461408,0.0005392537
3428000,3428000,0.00033708784,0.0005385026,-8.707112e-05
3448000,3448000,2.1572545e-05,0.00046094967,8.65893e-05
3464000,3464000,-0.00018416381,0.0005944576,0.00018024788
3484000,3484000,0.0008732764,0.00210733,-0.00022602342
3504000,3504000,0.0005271576,0.0019532323,-0.00015458882
3524000,3524000,-2.961095e-05,0.001263672,-0.00017677384
3544000,3544000,-1.7027764e-05,0.001459499,-7.6315715e-05
3564000,3564000,7.127777e-05,0.001929983,7.86493e-05
3584000,3584000,-0.0006817591,-0.0002027427,0.00011095158
3604000,3604000,0.0002949288,-0.0004095724,0.0002587534
3624000,3624000,0.020051638,0.023157641,-2.268618e-05
3644000,3644000,0.019877233,0.023278926,2.111738e-05
3664000,3664000,0.02063962,0.023832163,0.00018070967
3684000,3684000,0.02008539,0.022810683,-1.3328856e-05
3704000,3704000,0.020403855,0.022939382,-0.00043304064
3724000,3724000,0.018740758,0.022175282,0.0005516927
3744000,3744000,0.020012803,0.02245167,-0.00031772302
3768000,3768000,0.020029468,0.023561154,-3.6545458e-05
3788000,3788000,0.019910295,0.02281291,0.00028691752
3804000,3804000,0.019314965,0.022689257,9.366202e-05
3828000,3828000,0.018894276,0.02366294,5.098755e-05
3848000,3848000,0.018752811,0.023372885,-0.00017635197
3868000,3868000,0.019531898,0.023418263,0.0006559402
3884000,3884000,0.019481432,0.023490455,7.392365e-05
3908000,3908000,0.019098459,0.024465987,-0.00021643714
3928000,3928000,0.01923021,0.022878807,0.00013614127
3948000,3948000,0.019959262,0.023810882,0.00043791393
3968000,3968000,0.02003673,0.023782382,-3.7385627e-05
3988000,3988000,0.020561675,0.024565795,-0.0002914799
4008000,4008000,0.020585902,0.02410551,0.000747174
4028000,4028000,0.019934535,0.025108488,2.9042107e-05
4048000,4048000,0.020225374,0.023467358,-0.00042629807
4068000,4068000,0.019134797,0.025335087,0.000103374645
4088000,4088000,0.019938767,0.0239342,7.612458e-05
4108000,4108000,0.019291596,0.024629407,-3.3334887e-05
4128000,4128000,0.018648537,0.02410546,-0.00013400869
4144000,4144000,0.020603979,0.023451418,0.0003890687
4168000,4168000,0.020109555,0.023406593,5.8691192e-05
4184000,4184000,0.02001389,0.024507169,0.000424698
4204000,4204000,0.019428395,0.024050405,0.00012266892
4224000,4224000,0.019823125,0.02415109,0.00015244566
4244000,4244000,0.020909952,0.024128983,0.0006097537
4268000,4268000,0.020811753,0.023072593,0.00093373767
4288000,4288000,0.020054925,0.023278156,0.00043968865
4308000,4308000,0.020954937,0.023447653,0.0005679479
4328000,4328000,0.01916028,0.023828361,-0.00016697643
4348000,4348000,0.020007523,0.024577431,6.264312e-05
4368000,4368000,0.018873679,0.02343925,-2.5397563e-05
4388000,4388000,0.02067,0.023503754,0.00020248028
4408000,4408000,0.020533368,0.023325102,-0.00011702879
4428000,4428000,0.019515263,0.023252634,0.00011440191
4448000,4448000,0.020266118,0.022140281,0.00029329993
4468000,4468000,0.019045431,0.023047315,0.00022268128
4488000,4488000,0.019053226,0.022602566,0.0006274002
4508000,4508000,0.019080449,0.023306623,1.12700045e-05
4528000,4528000,0.01877451,0.022929851,0.00030067144
4548000,4548000,0.020275205,0.022595873,0.0005683076
4568000,4568000,0.019523434,0.021828044,0.0003836434
4588000,4588000,0.019568132,0.022172835,0.0006516012
4608000,4608000,0.019176444,0.022799648,-0.0001422769
4628000,4628000,0.01844158,0.02243062,0.00015324977
4648000,4648000,0.020149477,0.022776539,0.00030668653
4668000,4668000,0.01886394,0.022091955,0.00048893393
4688000,4688000,0.019045118,0.021863218,-0.00010819694
4708000,4708000,0.019103456,0.021107793,0.00042933985
4724000,4724000,0.020209383,0.02238996,-0.00020171356
4748000,4748000,0.019415425,0.021214629,-0.00017776548
4768000,4768000,0.019486021,0.02132972,3.1753774e-05
4788000,4788000,0.019263143,0.02186064,0.000101135636
4808000,4808000,0.01915885,0.022039352,7.484258e-05
4828000,4828000,0.01857822,0.02254158,-0.0006449421
4848000,4848000,0.019646019,0.021191863,0.00023547046
4868000,4868000,0.019346196,0.021092536,-1.7241318e-05
4888000,4888000,0.019011738,0.021407107,0.00041010903
4908000,4908000,0.019891633,0.021377727,0.000118367745
4928000,4928000,0.01924832,0.020402545,-0.00045721396
4948000,4948000,0.018682119,0.020078115,-2.2617867e-05
4968000,4968000,0.018609665,0.022146594,0.00054348394
4988000,4988000,0.017606389,0.020638969,0.00042987335
5008000,5008000,0.019120798,0.02222793,0.0007541093
5024000,5024000,0.019273572,0.019602166,0.00020409706
5044000,5044000,0.017787516,0.020764142,0.0004932919
5064000,5064000,0.01818732,0.020897783,0.0005032987
5088000,5088000,0.01932485,0.021260358,0.00011103208
5108000,5108000,0.017606536,0.021535266,0.00037233924
5128000,5128000,0.01826732,0.021122709,0.0004526062
5148000,5148000,0.017687418,0.021169765,0.0006686776
5168000,5168000,0.018272785,0.020962384,-0.00040406996
5188000,5188000,0.018175839,0.020221999,0.000111626905
5208000,5208000,0.018488983,0.022071064,0.0011040715
5228000,5228000,0.016993945,0.021154858,0.00062008586
5248000,5248000,0.017871648,0.020337697,0.00024434258
5268000,5268000,0.018284703,0.020855464,0.0006707199
5288000,5288000,0.01744607,0.021426544,0.00029781772
5308000,5308000,0.017139107,0.020083167,0.00038766902
5328000,5328000,0.018518323,0.021477051,0.00021296577
5348000,5348000,0.01833631,0.021483142,0.000706607
5368000,5368000,0.01776452,0.02084705,0.00011490698
5388000,5388000,0.018084839,0.021042336,0.0002020048
5408000,5408000,0.0176668,0.02073791,0.00063814956
5428000,5428000,0.017788269,0.020300746,0.0004823331
5448000,5448000,0.017944982,0.01980093,-0.00026654333
5468000,5468000,0.016669922,0.021446787,0.00016384393
5484000,5484000,0.018149486,0.020255854,0.0012706899
5508000,5508000,0.016443875,0.020770665,0.00069492933
5528000,5528000,0.016743314,0.020552872,-0.0001877698
5548000,5548000,0.018278738,0.023015177,-0.00038126102
5568000,5568000,0.017018402,0.020846264,0.00022046575
5588000,5588000,0.017673071,0.021204505,0.00049141137
5608000,5608000,0.016550126,0.020350443,-0.0001681667
5628000,5628000,0.016499821,0.020519085,0.00024293554
5648000,5648000,0.017820464,0.020479187,-0.00014631476
5668000,5668000,0.01757111,0.021169083,0.00029129288
5688000,5688000,0.017686944,0.020457115,0.00040008707
5708000,5708000,0.01809286,0.020505529,-1.665703e-05
5728000,5728000,0.017258154,0.021027116,0.0004172967
5748000,5748000,0.016704645,0.021114197,0.00018272968
5768000,5768000,0.017344018,0.019806538,0.00043325732
5788000,5788000,0.01776784,0.020708425,0.00049893814
5808000,5808000,0.016812915,0.02090495,0.0011184249
5828000,5828000,0.016759327,0.020233946,0.0005061009
5848000,5848000,0.01651713,0.02081043,0.00049843866
5868000,5868000,0.01752904,0.01997905,0.00016320372
5888000,5888000,0.016936306,0.019484218,0.00047571046
5908000,5908000,0.018132769,0.021523913,0.0007213817
5928000,5928000,0.016805975,0.020333892,0.0003983195
5948000,5948000,0.017595153,0.019849557,0.00032706792
5968000,5968000,0.017879236,0.02077687,0.0005296498
5988000,5988000,0.018276569,0.020532679,0.00027547163
6004000,6004000,0.01760496,0.01896349,0.00071047095
6028000,6028000,0.016963167,0.021945577,0.00061416347
6044000,6044000,0.017293928,0.020689126,0.00038023782
6068000,6068000,0.01722503,0.020045675,-4.580829e-05
6088000,6088000,0.017704926,0.01934589,0.00027425252
6108000,6108000,0.017849086,0.020529496,-1.6050972e-05
6128000,6128000,0.016827412,0.020480234,0.00044355975
6144000,6144000,0.018609572,0.02022291,0.00028330614
6164000,6164000,0.017450929,0.020595295,-4.5624514e-05
6184000,6184000,0.017358465,0.020184081,0.00027011448
6204000,6204000,0.016993621,0.021516295,-2.0138292e-05
6224000,6224000,0.01723712,0.021766184,1.2285239e-05
6244000,6244000,0.016654808,0.020235162,-0.00031253128
6264000,6264000,0.017834935,0.020928545,0.0004299623
6288000,6288000,0.017288178,0.021157961,0.0006971715
6308000,6308000,0.018061256,0.021298861,0.00039731074
6328000,6328000,0.017444901,0.021499943,0.00011444348
6348000,6348000,0.016814183,0.02018427,0.0008537584
6368000,6368000,0.017721018,0.019753937,0.00015489921
6388000,6388000,0.017075904,0.020796875,0.0012937546
6408000,6408000,0.01758878,0.020853033,-0.00057133165
6428000,6428000,0.016441872,0.019870982,0.00057225244
6444000,6444000,0.017262656,0.020247113,7.3777155e-05
6464000,6464000,0.017721599,0.020686273,-0.00025627852
6484000,6484000,0.017885769,0.019973425,0.00046721674
6504000,6504000,0.018164326,0.021035802,-8.2456056e-05
6528000,6528000,0.016979508,0.019639978,0.00036979673
6548000,6548000,0.01759534,0.01953809,1.1935376e-05
6568000,6568000,0.017618883,0.020233994,-0.00024707287
6588000,6588000,0.017633691,0.021717846,0.000666358
6608000,6608000,0.01709627,0.019430552,0.00048195067
6628000,6628000,0.017082455,0.019990359,0.0006367468
6648000,6648000,0.017177362,0.019528717,0.00020496784
6668000,6668000,0.017032158,0.020676086,0.0004680757
6688000,6688000,0.017632244,0.020564115,0.0007320232
6704000,6704000,0.016373456,0.02091477,0.00045913877
6724000,6724000,0.017455647,0.019928137,0.00046409603
6748000,6748000,0.015707713,0.02046621,-0.0004459444
6768000,6768000,0.017637784,0.019588765,0.00047617592
6784000,6784000,0.01713307,0.019586982,0.00032977632
6804000,6804000,0.016908495,0.020509096,0.0006185697
6828000,6828000,0.017636467,0.020042388,-0.00030441955
6848000,6848000,0.015902838,0.021163614,0.00023250257
6864000,6864000,0.017260488,0.019415982,0.00014380613
6884000,6884000,0.017334696,0.020281876,0.00025047254
6908000,6908000,0.017117342,0.020143887,0.00038659186
6928000,6928000,0.016909873,0.01965902,0.00016987928
6948000,6948000,0.017531652,0.020071847,0.0007941594
6968000,6968000,0.01624087,0.020221673,-0.00017616466
6988000,6988000,0.016652891,0.020342872,1.3921259e-05
7008000,7008000,0.017041737,0.019503469,0.00092047127
7028000,7028000,0.016576845,0.02068831,0.0003420943
7048000,7048000,0.016921999,0.02051365,0.0003014855
7068000,7068000,0.015954848,0.020758219,0.000126679
7088000,7088000,0.017842196,0.020581428,0.0003675753
7108000,7108000,0.016001195,0.021966215,0.00045876048
7128000,7128000,0.016643753,0.019684978,0.0006370089
7148000,7148000,0.016839532,0.020769246,0.00055529515
7168000,7168000,0.017001,0.019430008,0.00010492931
7188000,7188000,0.016764112,0.021043602,0.0008491678
7208000,7208000,0.015828207,0.021303743,0.00042662528
7228000,7228000,0.016672373,0.019494731,0.0004534538
7248000,7248000,0.017615646,0.021050626,0.00017680951
7268000,7268000,0.017453445,0.020844795,0.00077615917
7284000,7284000,0.016725566,0.021194583,0.00049575197
7308000,7308000,0.016789336,0.02015931,0.0007504783
7328000,7328000,0.015975485,0.021739192,0.0005019107
7348000,7348000,0.016923388,0.02086514,0.00085074996
7368000,7368000,0.017879123,0.019677846,0.00021797458
7388000,7388000,0.016306804,0.021222757,0.00079169264
7408000,7408000,0.017722106,0.020729415,0.0003966399
7428000,7428000,0.016094351,0.021164523,0.0010405681
7448000,7448000,0.016279422,0.020861391,0.00043288767
7468000,7468000,0.016276024,0.020359496,0.0004835887
7488000,7488000,0.016190948,0.019507235,0.0003413097
7508000,7508000,0.016795542,0.020002186,9.0563764e-05
7528000,7528000,0.017622242,0.021976179,0.00028772253
7548000,7548000,0.01787117,0.02008778,0.00074055244
7568000,7568000,0.017472988,0.021026302,0.00014200543
7588000,7588000,0.016901907,0.019786129,0.00048381483
7608000,7608000,0.0180072,0.021476226,0.0003306793
7628000,7628000,0.016971696,0.019817382,0.00048514697
7648000,7648000,0.017995292,0.022061272,0.0005527113
7668000,7668000,0.016998114,0.020270556,0.00043747263
7688000,7688000,0.017942041,0.021652522,0.0005348203
7708000,7708000,0.017228853,0.020544644,0.0007742873
7728000,7728000,0.01702438,0.020483032,0.00086713064
7748000,7748000,0.01677677,0.020980861,0.00085574575
7768000,7768000,0.017240958,0.021701537,0.00062495266
7788000,7788000,0.017286874,0.02046904,0.0012440421
7808000,7808000,0.017685167,0.021705225,0.0008116875
7828000,7828000,0.017208004,0.02078701,0.00067570555
7848000,7848000,0.016460028,0.019823486,0.00036985445
7868000,7868000,0.016842956,0.020466032,0.0006388553
7888000,7888000,0.017714119,0.021335594,0.0003980211
7908000,7908000,0.01713648,0.021181647,0.00025223728
7928000,7928000,0.017345631,0.0198643,0.000565519
7948000,7948000,0.017075172,0.020377949,0.00010202664
7968000,7968000,0.017937135,0.020789359,0.00027988324
7988000,7988000,0.016570836,0.019778065,0.00055376196
8008000,8008000,0.017091442,0.020321377,0.0008626035
8024000,8024000,0.01724847,0.02078966,0.0001570497
8048000,8048000,0.017739512,0.020008508,0.000840142
8064000,8064000,0.017552665,0.020356972,0.000332031
8084000,8084000,0.017457107,0.020732857,0.0006587414
8104000,8104000,0.017166378,0.021727193,0.0007485765
8128000,8128000,0.017569428,0.02057157,0.00036312957
8144000,8144000,0.0177137,0.020635841,4.4893393e-05
8168000,8168000,0.018129388,0.020983994,4.7042653e-05
8184000,8184000,0.01706587,0.021136772,0.00035892427
8204000,8204000,0.017464085,0.020599822,0.00062480866
8224000,8224000,0.017298006,0.019321337,0.00027820675
8244000,8244000,0.017157556,0.02054768,0.00030866291
8264000,8264000,0.018386418,0.019430261,0.0002863136
8288000,8288000,0.017223299,0.020288115,0.0003750034
8304000,8304000,0.017121391,0.02038655,0.00047871153
8324000,8324000,0.018070882,0.020786008,0.00014356022
8348000,8348000,0.016840631,0.020778466,0.0003787317
8364000,8364000,0.01783955,0.021326646,0.00046545747
8384000,8384000,0.01818314,0.020184197,-8.39903e-05
8404000,8404000,0.017117487,0.0208971,0.0002817215
8424000,8424000,0.017822113,0.020454338,-0.0002513489
8444000,8444000,0.018011574,0.020107616,0.0009381892
8468000,8468000,0.017466856,0.020097436,0.00053393195
8488000,8488000,0.017925264,0.020366352,8.086126e-05
8508000,8508000,0.0177398,0.019344067,3.241544e-05
8528000,8528000,0.017533898,0.020623034,0.00021745703
8548000,8548000,0.01784151,0.020365989,0.0004868813
8568000,8568000,0.016962035,0.019971771,0.0001860157
8588000,8588000,0.0164771,0.019989397,0.00042045984
8608000,8608000,0.017481714,0.020370439,0.00043249186
8628000,8628000,0.017685255,0.019280566,0.00018560824
8644000,8644000,0.01641918,0.020314872,-0.00014103139
8668000,8668000,0.017093379,0.020011876,0.00028508398
8684000,8684000,0.018137002,0.020677714,9.689003e-05
8704000,8704000,0.0174006,0.019971654,-1.7061586e-05
8724000,8724000,0.017989965,0.02103907,0.00021506786
8744000,8744000,0.016622126,0.019426672,7.962501e-05
8768000,8768000,0.017079078,0.020257423,0.00028702282
8788000,8788000,0.016964361,0.020107785,-8.3567495e-05
8808000,8808000,0.016665407,0.019602854,0.00013962685
8828000,8828000,0.01686517,0.02041452,-0.00019585523
8848000,8848000,0.01660617,0.020561576,0.00044127955
8868000,8868000,0.017671473,0.020401347,0.00051718013
8884000,8884000,0.016558273,0.020257108,-0.00013211025
8904000,8904000,0.016803585,0.019685552,0.00058501505
8924000,8924000,0.016878506,0.020223428,-0.00025903198
8944000,8944000,0.017401831,0.020104796,0.00012128596
8964000,8964000,0.016786007,0.01995379,0.00026974585
8984000,8984000,0.017381905,0.020296415,0.00017706052
9004000,9004000,0.016339485,0.020924311,0.00030456955
9028000,9028000,0.01778086,0.019009497,0.0007334239
9048000,9048000,0.01647383,0.020664915,0.0003228936
9068000,9068000,0.017898934,0.020479837,0.00020455499
9088000,9088000,0.016351225,0.01964218,0.00024549948
9108000,9108000,0.018589163,0.019883132,0.00019654569
9128000,9128000,0.016567174,0.019623749,0.00045158845
9148000,9148000,0.017133946,0.019574985,2.5526504e-06
9168000,9168000,0.016617825,0.020955233,1.914443e-05
9188000,9188000,0.017360142,0.019446654,0.0002648538
9208000,9208000,0.016789682,0.019466082,0.00026195365
9224000,9224000,0.016907386,0.020151187,0.00022460216
9248000,9248000,0.016932482,0.01895244,0.00038260708
9268000,9268000,0.016614152,0.020325592,0.00022969702
9284000,9284000,0.017682523,0.018941237,3.7255802e-05
9308000,9308000,0.017106304,0.019854942,-0.00024195263
9328000,9328000,0.01709348,0.021402694,0.0005889957
9348000,9348000,0.016740365,0.020368205,0.00080218114
9368000,9368000,0.016667442,0.02070728,0.0007807492
9388000,9388000,0.017010761,0.019412301,0.00034108563
9404000,9404000,0.01728108,0.019610835,0.00030061044
9428000,9428000,0.016077256,0.021435274,0.0003916218
9444000,9444000,0.017335182,0.019179232,-0.0005212959
9468000,9468000,0.017079005,0.021330293,0.00038773453
9484000,9484000,0.016016012,0.018698478,-0.00016493523
9508000,9508000,0.016849395,0.019861601,-0.0005896411
9528000,9528000,0.016437225,0.020520292,0.00061206764
9548000,9548000,0.01707543,0.020325858,0.00018586284
9568000,9568000,0.018105483,0.020003716,-0.00021704251
9588000,9588000,0.016885443,0.018340373,-9.0837784e-05
9608000,9608000,0.016439106,0.01979459,-0.00039746735
9628000,9628000,0.017017387,0.020329209,0.00014260398
9648000,9648000,0.017045628,0.020264907,0.00022179923
9668000,9668000,0.01740866,0.019871578,0.0003142349
9688000,9688000,0.017124845,0.019598424,0.00024357841
9708000,9708000,0.017735992,0.02038105,0.00025359754
9728000,9728000,0.017009981,0.018850386,0.00041492583
9744000,9744000,0.015657563,0.01962074,0.0003387336
9764000,9764000,0.016664086,0.019471806,0.00021937404
9788000,9788000,0.016877849,0.020081377,0.000120207646
9808000,9808000,0.016956728,0.020420443,-6.6605164e-05
9828000,9828000,0.017911434,0.018944493,0.0006021754
9844000,9844000,0.017485777,0.020103654,0.00014074128
9868000,9868000,0.0171932,0.018206157,-9.511597e-06
9888000,9888000,0.016496899,0.020152155,0.00043123524
9908000,9908000,0.016571393,0.019785779,0.000173517
9928000,9928000,0.016511694,0.02002172,-0.0002658302
9948000,9948000,0.017266698,0.01972475,0.0006477144
9968000,9968000,0.016686665,0.018911155,0.00078688835
9984000,9984000,0.016068486,0.02002998,0.0001695312
10004000,10004000,0.01738225,0.01909929,0.00016740202
10024000,10024000,0.016489485,0.020427354,0.0006876492
10044000,10044000,0.017081553,0.02040013,-0.00010577822
10068000,10068000,0.017292332,0.020298706,-3.2138265e-05
10084000,10084000,0.015501151,0.019004136,0.00018761387
10104000,10104000,0.016885214,0.018528676,-0.00017326418
10128000,10128000,0.0151019,0.02001709,0.00010272919
10148000,10148000,0.017640125,0.019534616,-0.00019543893
10168000,10168000,0.015703544,0.018044917,0.00013677796
10188000,10188000,0.016546855,0.019991478,-5.9840015e-05
10208000,10208000,0.017418783,0.019633476,-4.449743e-05
10228000,10228000,0.016845679,0.018998742,0.0005423659
10248000,10248000,0.017396968,0.020534918,0.00025731136
10268000,10268000,0.01653272,0.020479415,0.00056457525
10288000,10288000,0.016110081,0.019791298,8.3846324e-05
10308000,10308000,0.016323838,0.019655235,0.00048511583
10328000,10328000,0.017134776,0.019450981,0.00040305406
10348000,10348000,0.017653344,0.020796634,0.00015507503
10368000,10368000,0.016580166,0.01832363,-6.783299e-05
10388000,10388000,0.016234344,0.019131564,6.231051e-05
10408000,10408000,0.016918,0.020004654,0.000105827465
10424000,10424000,0.015954629,0.02033719,0.000482017
10444000,10444000,0.01708535,0.020617072,-4.3957996e-05
10468000,10468000,0.015459083,0.020766035,0.0004995992
10488000,10488000,0.01819464,0.019209813,2.254264e-05
10508000,10508000,0.016477533,0.01958903,0.0003763295
10528000,10528000,0.017364474,0.018593328,0.00039817058
10548000,10548000,0.016137615,0.019785557,6.3999905e-05
10564000,10564000,0.017924638,0.019811207,-4.013239e-05
10588000,10588000,0.017013997,0.02031399,-3.1697215e-05
10608000,10608000,0.016265515,0.019437611,0.000414927
10628000,10628000,0.016817726,0.019432317,3.2280689e-06
10648000,10648000,0.016717305,0.021073021,-0.0006719769
10668000,10668000,0.016450128,0.019285224,0.00027879202
10688000,10688000,0.017106539,0.018194504,-0.00019114882
10708000,10708000,0.017569955,0.020712517,4.9363207e-05
10724000,10724000,0.01570291,0.019461457,0.00056419894
10748000,10748000,0.015864158,0.019947127,0.0004223147
10768000,10768000,0.016569136,0.020354182,8.3804836e-05
10788000,10788000,0.01653668,0.020624258,0.00041297302
10804000,10804000,0.015939541,0.01934016,-0.00019124376
10828000,10828000,0.016441446,0.02041728,0.00033930058
10844000,10844000,0.016337262,0.019090213,0.0009795083
10868000,10868000,0.01745173,0.020421604,0.00046394096
10888000,10888000,0.016110204,0.01967566,0.00025344553
10908000,10908000,0.015979499,0.019864842,0.00074159884
10928000,10928000,0.017007846,0.019087067,1.8354185e-05
10948000,10948000,0.016527906,0.01989777,-0.00014428634
10968000,10968000,0.016633827,0.018143142,-0.00023245729
10988000,10988000,0.016934294,0.020250246,-0.0002882682
11008000,11008000,0.01614758,0.019236008,-0.00035330467
11028000,11028000,0.01631683,0.018784666,3.4840068e-05
11048000,11048000,0.015975012,0.020680161,0.00033252584
11068000,11068000,0.016405506,0.02020505,0.00020399068
11088000,11088000,0.015528913,0.019055381,0.00070648675
11108000,11108000,0.0166412,0.019801622,0.00016186196
11128000,11128000,0.016790604,0.020376885,-0.00014618771
11148000,11148000,0.016298598,0.019047648,6.286409e-05
11168000,11168000,0.016207501,0.0199675,0.00027021798
11188000,11188000,0.0171909,0.020571915,0.0005039679
11208000,11208000,0.016577967,0.018170774,-0.00023832268
11228000,11228000,0.016692769,0.020153373,9.353991e-05
11248000,11248000,0.017162517,0.019618042,0.00021636354
11268000,11268000,0.016452946,0.020129887,-0.00027980338
11288000,11288000,0.016493525,0.019580746,-2.279298e-05
11308000,11308000,0.016642157,0.019757278,0.00060546835
11328000,11328000,0.015345138,0.019286118,0.00028822382
11348000,11348000,0.016317653,0.018909777,4.864962e-05
11368000,11368000,0.016323792,0.018652663,0.00016810573
11388000,11388000,0.016950175,0.01893561,0.00063684647
11408000,11408000,0.015838878,0.019494614,0.00027043602
11428000,11428000,0.016700823,0.0194899,0.00018242355
11448000,11448000,0.015996488,0.020286703,6.314564e-05
11468000,11468000,0.016421089,0.018436704,-0.00029326926
11488000,11488000,0.015315234,0.020738006,2.9481773e-05
11508000,11508000,0.016834743,0.018975152,-0.00045995475
11528000,11528000,0.016838258,0.019261481,6.2404106e-05
11548000,11548000,0.016095638,0.020939024,3.0941017e-05
11568000,11568000,0.0173019,0.018653393,0.0005372697
11588000,11588000,0.01588596,0.020705065,-0.00025220984
11604000,11604000,0.016802665,0.019498318,0.00042692208
11628000,11628000,0.016815154,0.01945473,-0.00014408995
11648000,11648000,0.016457956,0.018920308,-0.00024812375
11664000,11664000,0.01687541,0.019208645,0.00030248635
11688000,11688000,0.016491322,0.01899028,6.864497e-05
11708000,11708000,0.016287252,0.020382844,0.00025232063
11728000,11728000,0.01694819,0.01851583,0.00018126219
11748000,11748000,0.016398026,0.018485723,0.00018963474
11768000,11768000,0.016056648,0.020176984,0.0002058928
11788000,11788000,0.016274007,0.01985695,-0.00011012673
11808000,11808000,0.015674593,0.01808742,0.00023918967
11828000,11828000,0.017440557,0.02069912,0.00015973975
11848000,11848000,0.016287846,0.01905984,-4.448623e-05
11868000,11868000,0.01667282,0.019460801,0.00040930937
11888000,11888000,0.016555691,0.019054705,0.00041096337
11908000,11908000,0.016718559,0.020124521,4.6244062e-05
11928000,11928000,0.016813276,0.019184474,0.00044241585
11948000,11948000,0.01716711,0.019735357,0.00024257254
11968000,11968000,0.01590439,0.017265096,0.0004004528
11988000,11988000,0.017255343,0.019806845,0.00039176937
12008000,12008000,0.01628168,0.019867757,-6.8567184e-05
12028000,12028000,0.01641784,0.020046737,0.00017055303
12048000,12048000,0.015891958,0.018853672,0.00028608236
12068000,12068000,0.016314069,0.01878405,0.00026098735
12088000,12088000,0.016676318,0.020040324,0.0005799445
12108000,12108000,0.016753903,0.020435534,0.00014311995
12128000,12128000,0.016213765,0.01927281,0.00043572098
12148000,12148000,0.016096773,0.019436134,0.00031871448
12168000,12168000,0.016763013,0.019851025,0.00046439454
12188000,12188000,0.01629409,0.017724425,0.00020468219
12208000,12208000,0.01625427,0.01932545,0.00012020134
12228000,12228000,0.01650873,0.019032408,0.00024470442
12248000,12248000,0.016401054,0.018473657,-0.00053005916
12268000,12268000,0.016313266,0.019822283,5.5719425e-05
12288000,12288000,0.016350245,0.018575631,-0.00026568444
12308000,12308000,0.016400928,0.017747404,0.00052403676
12324000,12324000,0.016231434,0.019480126,4.9977272e-05
12348000,12348000,0.01561832,0.018468373,-3.1401683e-05
12368000,12368000,0.016180284,0.0193005,-0.00012787465
12388000,12388000,0.016128689,0.019647155,0.00051064644
12408000,12408000,0.016058713,0.01956521,0.00019354754
12428000,12428000,0.015938254,0.019153597,0.0003460898
12448000,12448000,0.015904505,0.01930685,-0.0002174526
12468000,12468000,0.01638652,0.019568946,0.00028735911
12488000,12488000,0.016438484,0.01969902,0.00013176123
12508000,12508000,0.016866447,0.02060621,0.00021076486
12528000,12528000,0.015922671,0.017611971,-9.399222e-05
12548000,12548000,0.016083436,0.019791996,-0.000119546945
12568000,12568000,0.01611015,0.018474812,-0.00043245117
12588000,12588000,0.01539794,0.01979963,0.00014619945
12604000,12604000,0.016358988,0.019604836,0.0001592791
12628000,12628000,0.016194321,0.019120043,0.00030282038
12648000,12648000,0.016170211,0.019095046,0.0001654891
12664000,12664000,0.016359283,0.019395994,-0.00075448555
12684000,12684000,0.016720813,0.020043924,6.590879e-05
12704000,12704000,0.016925605,0.01859331,-5.8303645e-05
12724000,12724000,0.0149695845,0.01956919,-0.00053448
12744000,12744000,0.015863253,0.019449158,0.0005879564
12764000,12764000,0.016124409,0.01871916,-0.000118246535
12788000,12788000,0.016007641,0.018768523,5.6204677e-05
12808000,12808000,0.016060969,0.01949563,0.0007615358
12828000,12828000,0.01700078,0.019769581,0.00012112152
12848000,12848000,0.01607342,0.019569505,0.00040637422
12868000,12868000,0.016634082,0.01903347,0.00031538747
12888000,12888000,0.017649274,0.018746328,0.00035734402
12904000,12904000,0.016052287,0.02065796,-0.0003230331
12924000,12924000,0.016640283,0.018603314,0.00017319786
12944000,12944000,0.01656663,0.01865338,-7.761322e-05
12964000,12964000,0.016640823,0.020530608,0.0006503227
12984000,12984000,0.01702423,0.018165017,-0.00021128454
13008000,13008000,0.016328452,0.019224478,-0.00025957008
13024000,13024000,0.016339656,0.018857906,0.00044866264
13044000,13044000,0.015949005,0.018786028,8.831293e-05
13068000,13068000,0.01591953,0.019251555,0.00032298086
13084000,13084000,0.016045537,0.018527862,-9.0032074e-05
13104000,13104000,0.016881144,0.019429127,0.00024110415
13124000,13124000,0.016352298,0.018718341,0.0001558957
13144000,13144000,0.016192444,0.018682852,0.0007133032
13164000,13164000,0.017158981,0.019215582,0.00023976061
13188000,13188000,0.016191043,0.017823808,0.00022299164
13208000,13208000,0.015815156,0.019694751,-4.2398544e-05
13228000,13228000,0.017012924,0.018785927,0.0002814712
13248000,13248000,0.01612426,0.018411016,-3.2635988e-05
13268000,13268000,0.016591342,0.018299488,-0.00022968045
13288000,13288000,0.015996864,0.020498639,0.0002424425
13308000,13308000,0.015958732,0.019707287,-0.000505167
13324000,13324000,0.0161776,0.019108932,-0.00021353806
13344000,13344000,0.015779119,0.019634347,-0.00016160584
13364000,13364000,0.016080245,0.018755082,0.00024009371
13388000,13388000,0.016009314,0.018823272,-0.00020948265
13408000,13408000,0.01606681,0.01914981,-7.203547e-05
13428000,13428000,0.015378635,0.019062055,-2.4462306e-05
13448000,13448000,0.016174527,0.01819469,-5.2964653e-05
13468000,13468000,0.01655761,0.019755537,0.00033845234
13488000,13488000,0.016974993,0.01875588,0.00046448814
13508000,13508000,0.016060378,0.019647837,0.00015171977
13528000,13528000,0.016302476,0.019420851,0.001038792
13548000,13548000,0.015669972,0.019565023,0.00017687636
13568000,13568000,0.016395852,0.018948004,7.6175624e-05
13588000,13588000,0.017137432,0.018650655,0.000638471
13608000,13608000,0.016140759,0.019314572,4.3049873e-05
13628000,13628000,0.015645588,0.01960773,0.00022895157
13648000,13648000,0.01690533,0.018627113,0.00041656
13664000,13664000,0.01569044,0.018506423,-0.00026663372
13684000,13684000,0.016089821,0.019032657,0.00011988005
13708000,13708000,0.0155541,0.019702889,-8.4258456e-05
13724000,13724000,0.017247599,0.018651763,-0.00015999986
13744000,13744000,0.017168727,0.018205525,5.7768833e-05
13768000,13768000,0.01585687,0.019597342,-0.000510113
13788000,13788000,0.015272162,0.018946694,0.00026913104
13808000,13808000,0.015670896,0.019360812,-0.00027389367
13828000,13828000,0.016226884,0.019443067,-0.00012016595
13848000,13848000,0.015406481,0.017624516,0.0007461197
13868000,13868000,0.015703293,0.01919519,-9.0291e-05
13888000,13888000,0.015565243,0.018769307,0.0004964124
13908000,13908000,0.01681298,0.01875584,7.3356285e-05
13928000,13928000,0.016060706,0.019044232,5.92059e-05
13948000,13948000,0.016945522,0.019593429,0.00015826718
13968000,13968000,0.015892114,0.019009283,0.00064251275
13988000,13988000,0.017104654,0.019237015,0.00019970411
14008000,14008000,0.015702963,0.018438576,-0.00023652383
14028000,14028000,0.016018987,0.01911321,0.0003647586
14048000,14048000,0.015624214,0.018523013,0.00034673483
14068000,14068000,0.016559757,0.018299976,0.000119038625
14088000,14088000,0.017135127,0.019663531,-0.00016611
14108000,14108000,0.017296227,0.018665645,-5.3464413e-05
14124000,14124000,0.015164653,0.018775607,0.00042119008
14144000,14144000,0.015952205,0.020084022,-0.00029859567
14164000,14164000,0.017070217,0.018642716,0.0001949527
14188000,14188000,0.017711733,0.018364847,5.7480294e-05
14208000,14208000,0.014714868,0.019316867,2.1936552e-05
14224000,14224000,0.016221596,0.01870961,-9.980309e-06
14244000,14244000,0.017836932,0.019271242,0.0001939677
14264000,14264000,0.015280951,0.01780009,-0.00038709087
14284000,14284000,0.017144151,0.019135641,-7.079728e-06
14304000,14304000,0.014998921,0.01931346,-4.4594217e-05
14328000,14328000,0.016776465,0.018326785,-6.28226e-05
14348000,14348000,0.015028381,0.018638566,0.00014452105
14368000,14368000,0.016402366,0.018255128,8.64544e-05
14388000,14388000,0.015271757,0.019775348,0.00054207345
14408000,14408000,0.016275372,0.019084893,-2.991641e-05
14428000,14428000,0.017367331,0.019503959,0.00034932862
14448000,14448000,0.014905123,0.018160978,0.0005898878
14468000,14468000,0.017249474,0.019079946,0.0002733903
14488000,14488000,0.015635049,0.018480275,0.00028037847
14508000,14508000,0.01685831,0.019457884,0.0004607629
14528000,14528000,0.016496146,0.017985966,0.0002944816
14544000,14544000,0.016390903,0.019233204,0.0002415867
14568000,14568000,0.015755234,0.017279968,9.751901e-05
14588000,14588000,0.016190527,0.01873056,0.00020919021
14604000,14604000,0.016679574,0.018852385,0.00011515535
14624000,14624000,0.01669746,0.018008983,0.00033068226
14648000,14648000,0.015462729,0.019001905,0.0007367793
14668000,14668000,0.016826633,0.017873952,-0.00011918703
14688000,14688000,0.015667498,0.019148225,0.00038062542
14708000,14708000,0.015871484,0.01724786,0.0003607651
14728000,14728000,0.01533123,0.019211737,-1.8960029e-05
14748000,14748000,0.015996214,0.018494211,-7.351232e-05
14768000,14768000,0.01559989,0.018495167,0.0003561762
14788000,14788000,0.015140516,0.018439654,5.0208702e-05
14808000,14808000,0.015701598,0.018644866,0.0004912674
14828000,14828000,0.015779223,0.018650236,-0.00025127525
14848000,14848000,0.015814496,0.018773217,7.5154174e-05
14868000,14868000,0.01618752,0.017582873,-0.00015307109
14888000,14888000,0.01614938,0.017338863,-0.00035197075
14904000,14904000,0.016790142,0.01955162,0.00027944936
14928000,14928000,0.016600251,0.017538672,8.223435e-05
14948000,14948000,0.015728652,0.019078903,-8.1890474e-05
14968000,14968000,0.015763072,0.017787298,0.0004960589
14984000,14984000,0.016787643,0.019753179,0.0002826736
15008000,15008000,0.0154735735,0.019027809,-0.00024577038
15028000,15028000,0.01522543,0.017981153,0.00015945586
15048000,15048000,0.014706088,0.01862845,2.5456417e-05
15064000,15064000,0.016924068,0.01955506,0.00021314107
15084000,15084000,0.016244065,0.01809059,0.00018956716
15108000,15108000,0.015367609,0.018266473,-0.00011005176
15128000,15128000,0.016186416,0.01871055,0.00019370431
15148000,15148000,0.015740314,0.019676246,0.00012153398
15168000,15168000,0.01738469,0.019355891,0.0009428424
15188000,15188000,0.014874097,0.01777602,0.00029379
15208000,15208000,0.015493231,0.019065743,-4.157252e-05
15228000,15228000,0.015521177,0.019023528,-0.000538464
15248000,15248000,0.01541754,0.018583238,0.00037614
15268000,15268000,0.015841905,0.017299665,0.00020349189
15288000,15288000,0.015847826,0.017880427,0.00019802517
15308000,15308000,0.015884027,0.018370789,-0.00016496987
15328000,15328000,0.01660139,0.018762583,0.0004493531
15348000,15348000,0.015688254,0.018214375,0.00028589836
15368000,15368000,0.015493454,0.018465666,0.00033558303
15388000,15388000,0.015686719,0.017773522,0.0010042976
15404000,15404000,0.016136888,0.018921988,6.0287606e-05
15428000,15428000,0.015506036,0.01904208,0.00027576365
15448000,15448000,0.016083589,0.0173153,0.00038729896
15468000,15468000,0.01688382,0.018001577,-6.505971e-05
15488000,15488000,0.015632631,0.018287236,0.00029964928
15508000,15508000,0.015659187,0.018451711,4.7742866e-05
15528000,15528000,0.01598625,0.018156044,8.228276e-05
15548000,15548000,0.015633494,0.017517295,-9.513027e-05
15568000,15568000,0.016957808,0.018133326,0.0004603997
15588000,15588000,0.015192925,0.017539067,-0.00017602944
15608000,15608000,0.015584437,0.018112741,9.202302e-05
15628000,15628000,0.01613799,0.017971406,0.00020519602
15644000,15644000,0.016422251,0.017776959,-4.862327e-05
15668000,15668000,0.014903093,0.017339692,0.00072888297
15688000,15688000,0.01568468,0.017652769,-0.00013186014
15708000,15708000,0.016167834,0.017861508,1.5509304e-05
15728000,15728000,0.014988402,0.018028859,-0.00014491305
15748000,15748000,0.016582677,0.01714334,0.0007757735
15768000,15768000,0.016550766,0.018196559,0.00021703828
15788000,15788000,0.0156252,0.018561786,5.9684575e-05
15808000,15808000,0.015419303,0.018075716,-0.00040807753
15828000,15828000,0.015823958,0.017157964,0.00034528077
15848000,15848000,0.015773987,0.01661487,-0.00018382665
15868000,15868000,0.016406236,0.018564481,0.000112068294
15888000,15888000,0.014860043,0.017540338,0.000110110755
15908000,15908000,0.0155789,0.017131185,-0.0003195196
15928000,15928000,0.01611084,0.016582156,7.108654e-05
15948000,15948000,0.01574811,0.01664346,0.00016606365
15968000,15968000,0.015487136,0.018078834,0.00028155438
15988000,15988000,0.0152780255,0.017779084,0.00038726936
16008000,16008000,0.0153968735,0.017675538,0.00038095587
16028000,16028000,0.016332727,0.017122995,9.255541e-05
16048000,16048000,0.015710574,0.017525526,0.0004481746
16068000,16068000,0.01679984,0.016883167,-7.3116507e-06
16088000,16088000,0.015576461,0.01792198,7.239088e-05
16108000,16108000,0.016225634,0.01617722,-8.869974e-05
16128000,16128000,0.015710114,0.017281448,8.442052e-05
16148000,16148000,0.015723046,0.016845934,0.00018921599
16168000,16168000,0.01511501,0.016307758,0.0005028509
16184000,16184000,0.016372673,0.017208364,0.0006972348
16208000,16208000,0.015993634,0.01663223,-0.00011057585
16228000,16228000,0.016109018,0.01679056,0.00025434102
16244000,16244000,0.015757773,0.016374275,0.00019593458
16264000,16264000,0.016570896,0.018473199,0.0006014241
16284000,16284000,0.016367074,0.015411194,-3.2846106e-05
16308000,16308000,0.015198726,0.017393969,0.00029841406
16328000,16328000,0.014614344,0.01759422,0.00034100024
16344000,16344000,0.017308604,0.016782051,-0.00011659757
16368000,16368000,0.016095137,0.017905435,-2.2224092e-05
16388000,16388000,0.016592247,0.01796407,0.0006774758
16408000,16408000,0.016029378,0.015706023,0.0005331824
16428000,16428000,0.015261671,0.017712109,0.0005543365
16448000,16448000,0.016008899,0.017839182,0.00020269425
16464000,16464000,0.0153035335,0.017095378,0.0003707411
16488000,16488000,0.017459402,0.017079724,-0.00025607977
16508000,16508000,0.015765578,0.01650864,0.00026900036
16528000,16528000,0.016025493,0.01776495,-0.00030612733
16548000,16548000,0.015918558,0.01704879,0.00048989867
16568000,16568000,0.015841173,0.016757814,-0.00022737133
16588000,16588000,0.015809152,0.017926445,0.00041376805
16608000,16608000,0.016196381,0.017270442,0.00022588231
16624000,16624000,0.016128777,0.01747527,-4.1806186e-05
16644000,16644000,0.015764985,0.016984694,0.0003859018
16668000,16668000,0.015614522,0.017800832,-0.00011488915
16688000,16688000,0.015667852,0.01734296,0.00082681066
16708000,16708000,0.016542295,0.017430197,8.614236e-05
16724000,16724000,0.014997327,0.017317483,-8.012868e-05
16748000,16748000,0.015671125,0.018095449,0.00024942993
16768000,16768000,0.016161727,0.017307613,1.737891e-05
16788000,16788000,0.016932437,0.017041393,0.00034501756
16808000,16808000,0.01535623,0.017248128,5.7068875e-05
16828000,16828000,0.016621716,0.018180538,-5.7448993e-05
16848000,16848000,0.016063435,0.018402886,0.0001361123
16868000,16868000,0.014888936,0.016154272,4.992597e-05
16888000,16888000,0.01610487,0.017072786,0.00057725364
16904000,16904000,0.015728036,0.016900731,-8.314714e-05
16928000,16928000,0.016166039,0.0166099,0.0005167894
16948000,16948000,0.015839584,0.016669743,2.8438668e-05
16964000,16964000,0.016060313,0.016441504,-0.00028215488
16984000,16984000,0.015541498,0.018125547,0.00019244866
17004000,17004000,0.016886929,0.017360697,0.00027248147
17028000,17028000,0.017331589,0.017850684,0.00036937604
17048000,17048000,0.015300636,0.016935654,0.00018512567
17068000,17068000,0.015761953,0.0168447,-0.0003367784
17088000,17088000,0.015724959,0.016598294,0.00019369576
17108000,17108000,0.015794173,0.016276246,0.00010887785
17128000,17128000,0.015948355,0.018710034,9.6060125e-05
17148000,17148000,0.016165307,0.016880825,0.00027003846
17168000,17168000,0.016245682,0.01684473,0.00060004694
17188000,17188000,0.01593891,0.017207636,0.00028962878
17208000,17208000,0.015670119,0.016507754,-0.0002708359
17224000,17224000,0.015700737,0.017830888,0.0005047281
17244000,17244000,0.01654056,0.01702758,-0.00021802161
17268000,17268000,0.016213955,0.016917262,0.00019991059
17284000,17284000,0.01558967,0.017395187,-6.6458204e-05
17308000,17308000,0.015326038,0.016469505,6.3735395e-05
17328000,17328000,0.016620107,0.01727647,0.0002810822
17348000,17348000,0.015831076,0.016996147,0.0002915251
17368000,17368000,0.015564801,0.017835405,0.0002599917
17388000,17388000,0.0161924,0.017919198,-0.0002322637
17408000,17408000,0.016283838,0.016205575,0.00023672353
17428000,17428000,0.015299008,0.017046228,0.000119862416
17448000,17448000,0.01590744,0.016752059,0.0006809768
17468000,17468000,0.01667643,0.017066764,-5.2449668e-05
17488000,17488000,0.015451692,0.01781334,-6.571761e-05
17508000,17508000,0.016299745,0.016622227,0.00028645853
17524000,17524000,0.016981427,0.017506875,6.3608524e-05
17544000,17544000,0.015784902,0.016554598,0.0008115251
17568000,17568000,0.016208177,0.016402664,-6.837228e-05
17588000,17588000,0.016343541,0.016038701,0.00042399034
17608000,17608000,0.0154039925,0.017262474,0.0004007142
17624000,17624000,0.015003709,0.015200165,0.00045119846
17644000,17644000,0.016191987,0.017609634,0.00022387643
17664000,17664000,0.015529381,0.017759884,0.00028107013
17688000,17688000,0.015341765,0.017972859,5.5729917e-05
17708000,17708000,0.01577577,0.017073467,0.0005338984
17728000,17728000,0.015158949,0.0167609,0.0004353168
17744000,17744000,0.014397873,0.018265586,0.00084803253
17768000,17768000,0.014939309,0.016528577,1.1517608e-06
17784000,17784000,0.014877407,0.016236272,0.0003271822
17808000,17808000,0.01545676,0.017502211,-0.00010000151
17828000,17828000,0.015904825,0.016095877,0.00043710181
17844000,17844000,0.015035908,0.016555028,-0.00015514584
17864000,17864000,0.016099986,0.017436218,0.00036040612
17884000,17884000,0.015181986,0.015505687,0.00040311692
17904000,17904000,0.015875986,0.016934302,0.00046375752
17928000,17928000,0.015170221,0.017090872,-4.6839683e-05
17948000,17948000,0.015406242,0.016370479,-9.3993105e-05
17968000,17968000,0.015758941,0.016369438,0.00016274667
17988000,17988000,0.0142069515,0.015838243,-0.00080737344
18008000,18008000,0.015181809,0.016956901,0.00029055853
18028000,18028000,0.015921805,0.016535234,0.00014890502
18048000,18048000,0.015366001,0.016532348,6.0709368e-05
18068000,18068000,0.01587949,0.016335424,0.00043786535
18088000,18088000,0.01492831,0.01612863,0.00027041286
18104000,18104000,0.015804412,0.015612302,-0.00033558818
18124000,18124000,0.015400681,0.01607234,0.0008985119
18148000,18148000,0.015241609,0.016987404,-5.081089e-05
18168000,18168000,0.015753957,0.017129883,0.00010255836
18188000,18188000,0.016042858,0.017096287,0.00022352056
18208000,18208000,0.015725384,0.016112918,0.000105805164
18228000,18228000,0.0144322775,0.016225526,-0.0001649711
18248000,18248000,0.015426318,0.016960565,-5.3892938e-05
18268000,18268000,0.015260197,0.017935265,0.00059733045
18288000,18288000,0.015851242,0.017508123,0.00031204123
18308000,18308000,0.015235265,0.01571688,0.00019733382
18328000,18328000,0.01652207,0.017652348,-0.0003586662
18348000,18348000,0.013954533,0.01644882,0.00061556045
18368000,18368000,0.015961397,0.016465649,2.2927421e-05
18388000,18388000,0.015345606,0.016820291,-0.000101937
18408000,18408000,0.015570368,0.016443873,0.000109488166
18424000,18424000,0.01443891,0.016969444,9.7711294e-05
18444000,18444000,0.014849597,0.01622237,0.00043791518
18464000,18464000,0.014845828,0.01575795,0.00038165387
18484000,18484000,0.015516591,0.01686417,0.0006577421
18508000,18508000,0.015776176,0.015490247,0.00034461456
18528000,18528000,0.014758192,0.016341327,-0.00017310043
18548000,18548000,0.016516814,0.016379196,0.0001993744
18564000,18564000,0.014943964,0.01734651,-8.750369e-05
18588000,18588000,0.015019558,0.016522922,0.00073293125
18608000,18608000,0.016189734,0.01568392,-5.4449356e-05
18628000,18628000,0.015355287,0.016123464,-0.00028702346
18648000,18648000,0.015096627,0.017623883,9.230658e-06
18664000,18664000,0.016703721,0.015844485,3.2340973e-05
18688000,18688000,0.0147360945,0.015753612,5.9660753e-05
18708000,18708000,0.015367752,0.016303554,4.423521e-05
18728000,18728000,0.015253286,0.01665887,0.00061350444
18744000,18744000,0.015745297,0.016830401,-9.416228e-05
18768000,18768000,0.014638509,0.016047388,0.00024358791
18784000,18784000,0.017092463,0.016634792,-9.3472845e-05
18808000,18808000,0.01522018,0.016761906,-0.00018120567
18828000,18828000,0.015071525,0.0161307,-0.0001702404
18848000,18848000,0.015822789,0.015630266,0.00035705455
18868000,18868000,0.015438147,0.016512536,2.1627138e-05
18888000,18888000,0.016342983,0.015654754,0.00049405283
18908000,18908000,0.0155798625,0.01615639,-0.00011797736
18924000,18924000,0.014825045,0.0155127775,0.00044420175
18948000,18948000,0.01598742,0.01629847,-1.3425015e-06
18968000,18968000,0.016192077,0.017665638,4.6390098e-05
18984000,18984000,0.015066191,0.015666272,0.0005114073
19004000,19004000,0.015878435,0.017256733,0.00019971482
19024000,19024000,0.015239728,0.015248386,0.00030242323
19044000,19044000,0.015353076,0.015798014,3.942809e-05
19068000,19068000,0.0156953,0.016351817,0.00062543195
19088000,19088000,0.014473925,0.015410088,0.0011577213
19108000,19108000,0.015771577,0.016546847,2.6821543e-05
19128000,19128000,0.01554976,0.015350095,0.00042442005
19148000,19148000,0.015815154,0.015660917,0.00013796028
19164000,19164000,0.015935212,0.017561778,0.000308175
19188000,19188000,0.016132366,0.01614715,-2.9892451e-05
19204000,19204000,0.015392797,0.015456124,0.00038860607
19228000,19228000,0.015338329,0.01748257,-0.00021785405
19248000,19248000,0.01598982,0.015489858,9.101493e-05
19268000,19268000,0.015594541,0.016221663,0.00016292391
19284000,19284000,0.016828228,0.016817804,-5.569018e-05
19304000,19304000,0.015246793,0.0154959345,0.00045943583
19324000,19324000,0.015383663,0.016167646,0.0007572744
19344000,19344000,0.015917467,0.015531983,0.00012566717
19368000,19368000,0.015255482,0.016239826,0.00029370637
19388000,19388000,0.016092151,0.016397854,0.00033786584
19408000,19408000,0.015968427,0.015514453,0.00062162586
19428000,19428000,0.014342492,0.01603364,0.0004547607
19448000,19448000,0.015148938,0.015930638,0.00026076552
19468000,19468000,0.014696215,0.015287955,0.00053177413
19488000,19488000,0.01465006,0.01658427,0.0007743229
19508000,19508000,0.015523308,0.015568507,0.00031629336
19528000,19528000,0.016009107,0.016624125,-0.00024393904
19548000,19548000,0.015131599,0.015628364,0.0007859734
19568000,19568000,0.016159933,0.016217815,6.2045314e-05
19588000,19588000,0.014512161,0.016236393,-1.4024251e-05
19608000,19608000,0.015523386,0.015923163,8.470037e-05
19628000,19628000,0.014698777,0.015294134,-7.255596e-05
19648000,19648000,0.01575382,0.016477332,-0.0002930206
19668000,19668000,0.015062027,0.015740747,0.0008621376
19688000,19688000,0.016165115,0.016002828,0.00022667022
19708000,19708000,0.015432958,0.015339772,0.00013438523
19728000,19728000,0.015349516,0.015918352,0.0005902295
19748000,19748000,0.0157751,0.015528168,0.00017519142
19764000,19764000,0.015410418,0.015909215,0.00040122154
19788000,19788000,0.015847359,0.016257828,6.148638e-05
19808000,19808000,0.016275639,0.015409441,0.00022914038
19828000,19828000,0.014778368,0.01572713,0.00011663507
19848000,19848000,0.015461286,0.0153998025,0.00072385947
19868000,19868000,0.015886374,0.015754046,0.00023419077
19888000,19888000,0.01585253,0.01651719,0.0003414495
19908000,19908000,0.01563736,0.015134552,1.2193318e-05
19924000,19924000,0.013944537,0.015362735,-1.93742e-05
19944000,19944000,0.014844635,0.016939348,-0.0003646352
19968000,19968000,0.01573173,0.015632497,0.00013588122
19988000,19988000,0.015843984,0.014292864,0.00021188856
20008000,20008000,0.014931342,0.015579125,4.7057587e-05
20028000,20028000,0.015956584,0.016617551,-0.00060600153
20048000,20048000,0.015862145,0.016086867,0.00043826137
20068000,20068000,0.015123088,0.014983839,0.00018382107
20088000,20088000,0.014728088,0.0151246,-0.00018664403
20104000,20104000,0.015994035,0.01548625,-0.00054877624
20124000,20124000,0.016906092,0.015580853,0.00017588485
20144000,20144000,0.01587777,0.015938709,0.00015469495
20164000,20164000,0.015732495,0.01648524,0.00016949108
20184000,20184000,0.015949586,0.014940143,0.0006878161
20208000,20208000,0.014103531,0.01480451,0.00064552313
20228000,20228000,0.01574656,0.015319231,-0.0002342437
20248000,20248000,0.014354207,0.016090596,0.00019905316
20268000,20268000,0.015612241,0.014959116,0.00019976786
20288000,20288000,0.014995756,0.015017871,-0.00036982982
20308000,20308000,0.015199284,0.015088178,0.00013337946
20328000,20328000,0.014176805,0.016286759,0.0006101047
20348000,20348000,0.014948446,0.016276278,-0.00017725602
20368000,20368000,0.016147533,0.013966157,0.0002447446
20388000,20388000,0.0133189885,0.014469688,0.0004575947
20408000,20408000,0.016013063,0.0155009525,-0.00013100654
20428000,20428000,0.015474334,0.014603996,7.961207e-05
20448000,20448000,0.015210507,0.015186191,-0.00012039847
20468000,20468000,0.015306083,0.015950482,0.0005059731
20488000,20488000,0.015214381,0.014330892,0.00037167614
20508000,20508000,0.015404706,0.015646966,-0.00015601054
20528000,20528000,0.01432578,0.015266493,0.000100640864
20548000,20548000,0.014307229,0.015367367,0.00043370668
20568000,20568000,0.015621343,0.016286146,-0.000113537884
20588000,20588000,0.014534551,0.016053472,0.00052806723
20608000,20608000,0.01508452,0.01494466,0.00017188027
20628000,20628000,0.013748302,0.015019466,0.00027867244
20648000,20648000,0.014476471,0.01513949,0.0002269621
20668000,20668000,0.014494067,0.0144043965,0.00044238727
20688000,20688000,0.014270106,0.015352521,2.9972614e-05
20708000,20708000,0.015048051,0.015780896,0.00016260042
20728000,20728000,0.015513785,0.013892688,5.522608e-05
20748000,20748000,0.015291673,0.0168988,0.000121756595
20764000,20764000,0.0154708065,0.014718934,-0.00039222004
20784000,20784000,0.014345268,0.015725859,0.00039628288
20808000,20808000,0.015275673,0.015073209,0.00035207495
20824000,20824000,0.0149183255,0.01564642,5.4650776e-05
20844000,20844000,0.0147252185,0.01560406,0.00020347
20864000,20864000,0.015292927,0.015226095,-0.00019978937
20888000,20888000,0.014205213,0.015555984,0.000118477015
20908000,20908000,0.015419195,0.0151698,0.00064601115
20928000,20928000,0.014867485,0.015469633,-3.1519474e-05
20944000,20944000,0.015771797,0.01553617,0.00020370602
20964000,20964000,0.014641254,0.014974915,0.00026198121
20988000,20988000,0.014574581,0.0150943855,0.0005791254
21008000,21008000,0.01475466,0.015114076,8.681999e-05
21028000,21028000,0.01593638,0.015061915,1.4344708e-05
21048000,21048000,0.014905604,0.015805172,0.0010063251
21068000,21068000,0.0147723155,0.014500626,0.00016203888
21088000,21088000,0.016228061,0.015453323,-9.834801e-05
21108000,21108000,0.014763159,0.015826402,-0.00012483855
21128000,21128000,0.014596136,0.015141904,0.0005549087
21148000,21148000,0.015698355,0.014540729,0.00035167803
21168000,21168000,0.014670365,0.013521954,-0.0008957276
21188000,21188000,0.014621178,0.015328861,0.000103672435
21208000,21208000,0.014369291,0.015409949,0.00034351883
21228000,21228000,0.014845242,0.015693348,0.0002357172
21248000,21248000,0.014270262,0.0152769005,0.00023218943
21268000,21268000,0.014907446,0.015146182,4.1155774e-05
21288000,21288000,0.014669721,0.015601103,0.00039660517
21304000,21304000,0.015376736,0.015266797,0.0006643172
21324000,21324000,0.014444285,0.015363998,0.00026574536
21348000,21348000,0.015030654,0.015050758,-0.00017888295
21368000,21368000,0.014155199,0.01378043,0.0003162139
21388000,21388000,0.013556896,0.014233107,0.00011163282
21408000,21408000,0.014818732,0.015218898,0.00053201144
21428000,21428000,0.014962261,0.015629373,-0.00020476057
21448000,21448000,0.015082183,0.015910717,0.00036705378
21468000,21468000,0.014588098,0.015942656,0.0006671948
21488000,21488000,0.015016773,0.0152711235,0.00015411167
21508000,21508000,0.014368701,0.014980005,0.00072016
21528000,21528000,0.015236152,0.01375387,4.9610077e-05
21548000,21548000,0.015222637,0.015342012,0.00018518277
21568000,21568000,0.015144316,0.015125627,-8.4545885e-05
21588000,21588000,0.015560031,0.016025169,-0.00015110195
21608000,21608000,0.014140926,0.015893573,0.0008912288
21628000,21628000,0.015046359,0.015550203,0.00012497239
21648000,21648000,0.015282858,0.015903393,0.00022695686
21668000,21668000,0.014627921,0.015095811,0.00020380085
21688000,21688000,0.015453253,0.01605683,0.00040785625
21708000,21708000,0.015291572,0.015285538,0.00023638949
21724000,21724000,0.014118776,0.015196793,0.00014207051
21744000,21744000,0.014255499,0.015320794,0.0003480175
21768000,21768000,0.014799084,0.014495765,0.000685794
21788000,21788000,0.014977239,0.016181286,0.00052568986
21808000,21808000,0.015345331,0.016057238,0.0001377778
21828000,21828000,0.014003376,0.014973315,-0.00026161698
21848000,21848000,0.013972893,0.015990747,0.00017125737
21868000,21868000,0.01539359,0.0150449425,0.00012647251
21888000,21888000,0.0146160945,0.014920183,0.00048670752
21908000,21908000,0.0143810725,0.015049135,0.00022077575
21928000,21928000,0.014984794,0.015414526,-3.0122372e-05
21948000,21948000,0.015036854,0.014880497,0.00038317387
21968000,21968000,0.01590703,0.015216473,0.00012550538
21984000,21984000,0.013818579,0.015898965,0.00035241363
22004000,22004000,0.014971556,0.0134317605,-7.102974e-05
22024000,22024000,0.015122547,0.015717397,-0.00043099225
22044000,22044000,0.013873734,0.015514171,9.430437e-05
22064000,22064000,0.014578368,0.014249641,-0.00016142458
22084000,22084000,0.0147591345,0.014627111,-0.00022564163
22104000,22104000,0.01430056,0.015415195,0.00013150234
22128000,22128000,0.016046664,0.01531832,0.00038448023
22144000,22144000,0.0146110365,0.014559831,0.00036504344
22168000,22168000,0.015115903,0.0149536235,4.9848484e-05
22184000,22184000,0.0145553425,0.014581617,0.00040649698
22204000,22204000,0.014777604,0.015712585,0.00017079519
22224000,22224000,0.015214808,0.015124636,0.00050484465
22244000,22244000,0.0153472,0.01645773,9.965648e-05
22264000,22264000,0.014130451,0.01472008,0.00033215788
22284000,22284000,0.014870558,0.014186067,-0.00041846986
22304000,22304000,0.014606722,0.015116109,0.00049742375
22324000,22324000,0.015642669,0.015635211,0.0005523803
22348000,22348000,0.01537623,0.014857932,0.0003455185
22368000,22368000,0.014734603,0.015454323,-8.278249e-05
22388000,22388000,0.014275468,0.014213682,0.0001661477
22408000,22408000,0.014196755,0.01574737,0.00062039157
22428000,22428000,0.014450443,0.0153847765,-1.5812018e-05
22448000,22448000,0.014797526,0.014510907,0.0004810608
22468000,22468000,0.013616979,0.015206978,0.00071613764
22488000,22488000,0.015237967,0.014173122,0.00019406273
22508000,22508000,0.01366476,0.014420408,-2.4083187e-05
22528000,22528000,0.015101122,0.014912167,0.000154512
22548000,22548000,0.014774341,0.015765687,0.0006066793
22568000,22568000,0.014371626,0.013689189,-0.000156494
22588000,22588000,0.01541985,0.016505657,-0.00015277167
22608000,22608000,0.014530752,0.015566917,0.000458462
22628000,22628000,0.014738738,0.0152417645,0.0010023089
22644000,22644000,0.014227418,0.014996851,0.0002067616
22668000,22668000,0.014427548,0.015305176,6.9145164e-05
22688000,22688000,0.013411626,0.015380513,-1.94452e-05
22708000,22708000,0.016053194,0.015368501,-4.2120253e-05
22728000,22728000,0.014252341,0.014871992,0.00031039296
22748000,22748000,0.014306747,0.014690013,2.0029e-05
22768000,22768000,0.014299809,0.01591861,-0.00015839018
22788000,22788000,0.014997361,0.014586854,0.00084340334
22808000,22808000,0.0150009645,0.013957687,-0.0002708469
22828000,22828000,0.013189591,0.014687648,-0.00022036306
22848000,22848000,0.0154597545,0.012867191,1.3178494e-05
22868000,22868000,0.014367329,0.015331971,0.00064050517
22888000,22888000,0.015323356,0.014351594,0.00014260998
22908000,22908000,0.0142166605,0.015030437,0.00059729465
22928000,22928000,0.01443982,0.014067035,0.00015364171
22948000,22948000,0.014852119,0.016662447,7.6700635e-05
22968000,22968000,0.014743466,0.014881056,0.00039489754
22988000,22988000,0.014061785,0.015363353,0.00057674496
23008000,23008000,0.0148123745,0.01605597,0.00028530366
23028000,23028000,0.014519323,0.01454992,0.00024690668
23044000,23044000,0.015418193,0.015326389,0.00043165387
23064000,23064000,0.014684985,0.0152729545,0.00012456978
23084000,23084000,0.014207693,0.015186122,-0.00016765567
23104000,23104000,0.014455471,0.015727667,0.00017499596
23124000,23124000,0.013249249,0.015369825,0.00020668651
23144000,23144000,0.015603215,0.015556642,-0.000259327
23168000,23168000,0.014536019,0.014461718,0.00018779805
23188000,23188000,0.0147737255,0.014645456,0.00017487381
23208000,23208000,0.014879375,0.014689523,0.00043638685
23228000,23228000,0.014141585,0.016607696,0.00054213236
23248000,23248000,0.014587928,0.014069522,-0.0003134941
23268000,23268000,0.01460099,0.014989434,0.00040564855
23288000,23288000,0.014264049,0.015262205,0.00022410373
23308000,23308000,0.014878046,0.014761049,0.00042080638
23328000,23328000,0.014199374,0.015221638,0.0005238899
23348000,23348000,0.014292331,0.015996546,0.00013847112
23368000,23368000,0.013740943,0.01539697,0.0003171043
23384000,23384000,0.014587128,0.014160317,-0.00016471313
23404000,23404000,0.0148174595,0.015968492,0.0010823406
23424000,23424000,0.013531864,0.015480715,-0.00027374947
23444000,23444000,0.015122018,0.014621608,-0.00018430273
23464000,23464000,0.014388539,0.016858734,9.362637e-05
23488000,23488000,0.014052323,0.014163292,0.00028695771
23508000,23508000,0.014874641,0.014758006,-0.00028099035
23528000,23528000,0.013974895,0.0147334,-7.201797e-05
23548000,23548000,0.014847074,0.014821437,0.00038835927
23568000,23568000,0.013256858,0.015107521,0.00010445763
23588000,23588000,0.015713375,0.015147973,0.00034904163
23608000,23608000,0.015186729,0.0145515,0.00033124615
23628000,23628000,0.01342521,0.014117431,0.00016804157
23648000,23648000,0.01513381,0.015002054,0.00037503793
23668000,23668000,0.013372539,0.014128926,0.00020027068
23688000,23688000,0.014169828,0.0137694925,-2.322602e-05
23704000,23704000,0.015162073,0.016284287,0.00014060203
23724000,23724000,0.0144443745,0.014197255,6.6202585e-05
23744000,23744000,0.014565218,0.015092962,7.7094526e-05
23764000,23764000,0.0138639,0.014444087,0.00034854264
23788000,23788000,0.014918854,0.0143563505,-0.00025598222
23808000,23808000,0.014431509,0.01478944,0.00017802323
23824000,23824000,0.0143986195,0.01617495,0.00023283587
23844000,23844000,0.013974274,0.01578665,2.9889297e-05
23864000,23864000,0.014579376,0.013968667,9.64175e-07
23884000,23884000,0.014139829,0.014865363,0.00083011965
23908000,23908000,0.01482684,0.014345848,0.00022135166
23928000,23928000,0.014557223,0.015305306,2.2717903e-05
23944000,23944000,0.015006394,0.015031477,0.00054645626
23968000,23968000,0.014263259,0.015150996,0.00013605645
23988000,23988000,0.014319504,0.015432785,-4.0783187e-05
24004000,24004000,0.01406587,0.015442967,0.0002371511
24024000,24024000,0.014798997,0.014667832,0.00027504616
24044000,24044000,0.014520186,0.014685921,-0.0001675535
24064000,24064000,0.013780475,0.014687344,0.00015968159
24088000,24088000,0.014743761,0.014743357,3.6349753e-05
24108000,24108000,0.014598803,0.015007882,0.00031646658
24128000,24128000,0.014785886,0.01452693,0.00041648906
24148000,24148000,0.014409046,0.014295556,0.00051162875
24168000,24168000,0.015108188,0.014025174,0.00012345488
24188000,24188000,0.014368696,0.014287157,0.00024276953
24208000,24208000,0.015094758,0.015300469,0.0004212597
24228000,24228000,0.013830261,0.014173749,0.0005718137
24248000,24248000,0.0135933235,0.014150048,-0.00013844487
24264000,24264000,0.014748024,0.016053146,0.0006837439
24288000,24288000,0.013475245,0.015278448,0.00055822823
24308000,24308000,0.014306381,0.014654617,0.0004025179
24324000,24324000,0.013577521,0.01490352,-5.1522547e-05
24344000,24344000,0.015118229,0.0155135235,0.00017839733
24364000,24364000,0.0155629115,0.015197881,-0.0001197114
24388000,24388000,0.013780833,0.013558491,5.8432574e-06
24408000,24408000,0.013949492,0.014320349,-0.00013603069
24428000,24428000,0.014976043,0.01522955,0.00020744142
24448000,24448000,0.014620701,0.014455848,0.00015674027
24468000,24468000,0.012934407,0.014602684,0.00026884532
24488000,24488000,0.013359229,0.014881564,-0.0001470639
24508000,24508000,0.0141267935,0.015239973,0.00035724044
24528000,24528000,0.01346747,0.015007085,-4.1824183e-06
24548000,24548000,0.014786904,0.014351605,0.00094185286
24568000,24568000,0.013865758,0.014297727,-0.00013624136
24584000,24584000,0.014627466,0.015244069,3.4875993e-05
24608000,24608000,0.014239706,0.014257423,0.0002144969
24628000,24628000,0.014351454,0.014050051,-1.2651854e-05
24648000,24648000,0.014276837,0.014869351,0.00041650198
24668000,24668000,0.014234702,0.015379461,-9.531888e-05
24688000,24688000,0.014479498,0.0133330505,0.0001126512
24708000,24708000,0.013856972,0.014708781,-0.00027397656
24728000,24728000,0.014306331,0.013956757,-6.8499554e-05
24748000,24748000,0.013044856,0.014705637,0.00037019467
24768000,24768000,0.013493086,0.014333568,0.00044743167
24788000,24788000,0.013218748,0.015401508,0.00032937556
24808000,24808000,0.013476564,0.0147847105,-0.00023100936
24828000,24828000,0.014792144,0.013256858,3.5593264e-05
24848000,24848000,0.014784505,0.015375129,0.00019849102
24868000,24868000,0.013610647,0.0148301,-0.00012725849
24888000,24888000,0.013922625,0.014493367,0.00023227658
24908000,24908000,0.013307578,0.014225705,0.00017765144
24928000,24928000,0.01406446,0.014474335,-4.210911e-05
24948000,24948000,0.014308791,0.015002428,-0.00010999719
24968000,24968000,0.013436861,0.014142605,0.00013938353
24988000,24988000,0.014022956,0.014747369,-0.00043551787
25008000,25008000,0.014387955,0.014566028,0.00053499476
25028000,25028000,0.014178653,0.015269121,-0.0004450824
25044000,25044000,0.013649428,0.014151709,9.518732e-05
25068000,25068000,0.014273529,0.0142416265,0.00015883021
25088000,25088000,0.014471741,0.014602743,0.00033081285
25108000,25108000,0.014496136,0.016101532,6.5874796e-05
25124000,25124000,0.013756139,0.013413112,6.384305e-05
