timestamp,data_rate,rate_multiplier,tx_rate_avg,tx_error_rate_avg,tx_message_count,tx_buffer_overruns,rx_rate_avg,rx_message_count,rx_message_lost_count,rx_buffer_overruns,rx_parse_errors,rx_packet_drop_count,rx_message_lost_rate,type,mode,flow_control,forwarding,mavlink_v2,ftp,streams,heartbeat_type_antenna_tracker,heartbeat_type_gcs,heartbeat_type_onboard_controller,heartbeat_type_gimbal,heartbeat_type_adsb,heartbeat_type_camera,heartbeat_type_parachute,heartbeat_type_open_drone_id,heartbeat_component_telemetry_radio,heartbeat_component_log,heartbeat_component_osd,heartbeat_component_obstacle_avoidance,heartbeat_component_vio,heartbeat_component_pairing_manager,heartbeat_component_udp_bridge,heartbeat_component_uart_bridge,avoidance_system_healthy,open_drone_id_system_healthy,parachute_system_healthy
4312000,4000000.0,1.0,13554.781,0.0,297,0,0.0,0,0,0,0,0,0.0,0,0,0,1,1,1,52,0,0,0,0,0,0,0,0,0,0,0,0,0,0,0,0,0,0,0
4572000,4000000.0,1.0,13554.781,0.0,380,0,0.0,0,0,0,0,0,0.0,0,0,0,1,1,1,52,0,0,0,0,0,0,0,0,0,0,0,0,0,0,0,0,0,0,0
5828000,4000000.0,1.0,15085.658,0.0,796,0,0.0,0,0,0,0,0,0.0,0,0,0,1,1,1,52,0,0,0,0,0,0,0,0,0,0,0,0,0,0,0,0,0,0,0
7076000,4000000.0,1.0,15148.407,0.0,1203,0,0.0,0,0,0,0,0,0.0,0,0,0,1,1,1,52,0,0,0,0,0,0,0,0,0,0,0,0,0,0,0,0,0,0,0
8336000,4000000.0,1.0,14878.486,0.0,1625,0,0.0,0,0,0,0,0,0.0,0,0,0,1,1,1,52,0,0,0,0,0,0,0,0,0,0,0,0,0,0,0,0,0,0,0
9336000,4000000.0,1.0,16486.057,0.0,1990,0,0.0,0,0,0,0,0,0.0,0,0,0,1,1,1,52,0,0,0,0,0,0,0,0,0,0,0,0,0,0,0,0,0,0,0
9592000,4000000.0,1.0,16486.057,0.0,2080,0,0.0,0,0,0,0,0,0.0,0,0,0,1,1,1,52,0,0,0,0,0,0,0,0,0,0,0,0,0,0,0,0,0,0,0
10852000,4000000.0,1.0,16870.518,0.0,2551,0,0.0,0,0,0,0,0,0.0,0,0,0,1,1,1,52,0,0,0,0,0,0,0,0,0,0,0,0,0,0,0,0,0,0,0
12108000,4000000.0,1.0,17343.627,0.0,3028,0,0.0,0,0,0,0,0,0.0,0,0,0,1,1,1,52,0,0,0,0,0,0,0,0,0,0,0,0,0,0,0,0,0,0,0
13108000,4000000.0,1.0,17096.613,0.0,3406,0,0.0,0,0,0,0,0,0.0,0,0,0,1,1,1,52,0,0,0,0,0,0,0,0,0,0,0,0,0,0,0,0,0,0,0
13364000,4000000.0,1.0,17180.28,0.0,3517,0,0.0,0,0,0,0,0,0.0,0,0,0,1,1,1,52,0,0,0,0,0,0,0,0,0,0,0,0,0,0,0,0,0,0,0
14616000,4000000.0,1.0,16918.328,0.0,3986,0,0.0,0,0,0,0,0,0.0,0,0,0,1,1,1,52,0,0,0,0,0,0,0,0,0,0,0,0,0,0,0,0,0,0,0
15872000,4000000.0,1.0,17133.467,0.0,4456,0,0.0,0,0,0,0,0,0.0,0,0,0,1,1,1,52,0,0,0,0,0,0,0,0,0,0,0,0,0,0,0,0,0,0,0
17128000,4000000.0,1.0,16919.322,0.0,4926,0,0.0,0,0,0,0,0,0.0,0,0,0,1,1,1,52,0,0,0,0,0,0,0,0,0,0,0,0,0,0,0,0,0,0,0
18128000,4000000.0,1.0,17359.562,0.0,5305,0,0.0,0,0,0,0,0,0.0,0,0,0,1,1,1,52,0,0,0,0,0,0,0,0,0,0,0,0,0,0,0,0,0,0,0
18388000,4000000.0,1.0,16870.518,0.0,5413,0,0.0,0,0,0,0,0,0.0,0,0,0,1,1,1,52,0,0,0,0,0,0,0,0,0,0,0,0,0,0,0,0,0,0,0
19640000,4000000.0,1.0,17181.275,0.0,5885,0,0.0,0,0,0,0,0,0.0,0,0,0,1,1,1,52,0,0,0,0,0,0,0,0,0,0,0,0,0,0,0,0,0,0,0
20896000,4000000.0,1.0,16857.57,0.0,6356,0,0.0,0,0,0,0,0,0.0,0,0,0,1,1,1,52,0,0,0,0,0,0,0,0,0,0,0,0,0,0,0,0,0,0,0
22156000,4000000.0,1.0,17195.219,0.0,6831,0,0.0,0,0,0,0,0,0.0,0,0,0,1,1,1,52,0,0,0,0,0,0,0,0,0,0,0,0,0,0,0,0,0,0,0
23156000,4000000.0,1.0,17096.613,0.0,7207,0,0.0,0,0,0,0,0,0.0,0,0,0,1,1,1,52,0,0,0,0,0,0,0,0,0,0,0,0,0,0,0,0,0,0,0
23412000,4000000.0,1.0,17173.307,0.0,7314,0,0.0,0,0,0,0,0,0.0,0,0,0,1,1,1,52,0,0,0,0,0,0,0,0,0,0,0,0,0,0,0,0,0,0,0
24664000,4000000.0,1.0,16931.275,0.0,7783,0,0.0,0,0,0,0,0,0.0,0,0,0,1,1,1,52,0,0,0,0,0,0,0,0,0,0,0,0,0,0,0,0,0,0,0
25916000,4000000.0,1.0,17120.518,0.0,8256,0,0.0,0,0,0,0,0,0.0,0,0,0,1,1,1,52,0,0,0,0,0,0,0,0,0,0,0,0,0,0,0,0,0,0,0
27172000,4000000.0,1.0,16919.322,0.0,8722,0,0.0,0,0,0,0,0,0.0,0,0,0,1,1,1,52,0,0,0,0,0,0,0,0,0,0,0,0,0,0,0,0,0,0,0
28172000,4000000.0,1.0,17359.562,0.0,9102,0,0.0,0,0,0,0,0,0.0,0,0,0,1,1,1,52,0,0,0,0,0,0,0,0,0,0,0,0,0,0,0,0,0,0,0
28432000,4000000.0,1.0,16870.518,0.0,9208,0,0.0,0,0,0,0,0,0.0,0,0,0,1,1,1,52,0,0,0,0,0,0,0,0,0,0,0,0,0,0,0,0,0,0,0
29692000,4000000.0,1.0,17181.275,0.0,9682,0,0.0,0,0,0,0,0,0.0,0,0,0,1,1,1,52,0,0,0,0,0,0,0,0,0,0,0,0,0,0,0,0,0,0,0
30944000,4000000.0,1.0,16870.518,0.0,10153,0,0.0,0,0,0,0,0,0.0,0,0,0,1,1,1,52,0,0,0,0,0,0,0,0,0,0,0,0,0,0,0,0,0,0,0
32196000,4000000.0,1.0,17169.322,0.0,10625,0,0.0,0,0,0,0,0,0.0,0,0,0,1,1,1,52,0,0,0,0,0,0,0,0,0,0,0,0,0,0,0,0,0,0,0
33196000,4000000.0,1.0,17096.613,0.0,11001,0,0.0,0,0,0,0,0,0.0,0,0,0,1,1,1,52,0,0,0,0,0,0,0,0,0,0,0,0,0,0,0,0,0,0,0
33456000,4000000.0,1.0,17199.203,0.0,11114,0,0.0,0,0,0,0,0,0.0,0,0,0,1,1,1,52,0,0,0,0,0,0,0,0,0,0,0,0,0,0,0,0,0,0,0
34712000,4000000.0,1.0,16905.379,0.0,11579,0,0.0,0,0,0,0,0,0.0,0,0,0,1,1,1,52,0,0,0,0,0,0,0,0,0,0,0,0,0,0,0,0,0,0,0
35964000,4000000.0,1.0,17133.467,0.0,12052,0,0.0,0,0,0,0,0,0.0,0,0,0,1,1,1,52,0,0,0,0,0,0,0,0,0,0,0,0,0,0,0,0,0,0,0
37224000,4000000.0,1.0,16919.322,0.0,12524,0,0.0,0,0,0,0,0,0.0,0,0,0,1,1,1,52,0,0,0,0,0,0,0,0,0,0,0,0,0,0,0,0,0,0,0
38224000,4000000.0,1.0,17359.562,0.0,12903,0,0.0,0,0,0,0,0,0.0,0,0,0,1,1,1,52,0,0,0,0,0,0,0,0,0,0,0,0,0,0,0,0,0,0,0
38480000,4000000.0,1.0,16870.518,0.0,13008,0,0.0,0,0,0,0,0,0.0,0,0,0,1,1,1,52,0,0,0,0,0,0,0,0,0,0,0,0,0,0,0,0,0,0,0
39732000,4000000.0,1.0,17181.275,0.0,13478,0,0.0,0,0,0,0,0,0.0,0,0,0,1,1,1,52,0,0,0,0,0,0,0,0,0,0,0,0,0,0,0,0,0,0,0
40984000,4000000.0,1.0,16870.518,0.0,13948,0,0.0,0,0,0,0,0,0.0,0,0,0,1,1,1,52,0,0,0,0,0,0,0,0,0,0,0,0,0,0,0,0,0,0,0
42240000,4000000.0,1.0,17169.322,0.0,14420,0,0.0,0,0,0,0,0,0.0,0,0,0,1,1,1,52,0,0,0,0,0,0,0,0,0,0,0,0,0,0,0,0,0,0,0
43240000,4000000.0,1.0,17109.562,0.0,14797,0,0.0,0,0,0,0,0,0.0,0,0,0,1,1,1,52,0,0,0,0,0,0,0,0,0,0,0,0,0,0,0,0,0,0,0
43492000,4000000.0,1.0,17173.307,0.0,14904,0,0.0,0,0,0,0,0,0.0,0,0,0,1,1,1,52,0,0,0,0,0,0,0,0,0,0,0,0,0,0,0,0,0,0,0
44748000,4000000.0,1.0,16918.328,0.0,15373,0,0.0,0,0,0,0,0,0.0,0,0,0,1,1,1,52,0,0,0,0,0,0,0,0,0,0,0,0,0,0,0,0,0,0,0
46008000,4000000.0,1.0,17146.414,0.0,15848,0,0.0,0,0,0,0,0,0.0,0,0,0,1,1,1,52,0,0,0,0,0,0,0,0,0,0,0,0,0,0,0,0,0,0,0
47264000,4000000.0,1.0,16906.375,0.0,16319,0,0.0,0,0,0,0,0,0.0,0,0,0,1,1,1,52,0,0,0,0,0,0,0,0,0,0,0,0,0,0,0,0,0,0,0
48264000,4000000.0,1.0,17359.562,0.0,16698,0,0.0,0,0,0,0,0,0.0,0,0,0,1,1,1,52,0,0,0,0,0,0,0,0,0,0,0,0,0,0,0,0,0,0,0
48524000,4000000.0,1.0,16883.467,0.0,16805,0,0.0,0,0,0,0,0,0.0,0,0,0,1,1,1,52,0,0,0,0,0,0,0,0,0,0,0,0,0,0,0,0,0,0,0
49780000,4000000.0,1.0,17168.328,0.0,17278,0,0.0,0,0,0,0,0,0.0,0,0,0,1,1,1,52,0,0,0,0,0,0,0,0,0,0,0,0,0,0,0,0,0,0,0
51036000,4000000.0,1.0,16870.518,0.0,17749,0,0.0,0,0,0,0,0,0.0,0,0,0,1,1,1,52,0,0,0,0,0,0,0,0,0,0,0,0,0,0,0,0,0,0,0
52296000,4000000.0,1.0,17195.219,0.0,18237,0,0.0,0,0,0,0,0,0.0,0,0,0,1,1,1,52,0,0,0,0,0,0,0,0,0,0,0,0,0,0,0,0,0,0,0
53296000,4000000.0,1.0,17083.666,0.0,18618,0,0.0,0,0,0,0,0,0.0,0,0,0,1,1,1,52,0,0,0,0,0,0,0,0,0,0,0,0,0,0,0,0,0,0,0
53548000,4000000.0,1.0,17303.785,0.0,18709,0,0.0,0,0,0,0,0,0.0,0,0,0,1,1,1,52,0,0,0,0,0,0,0,0,0,0,0,0,0,0,0,0,0,0,0
54808000,4000000.0,1.0,16997.012,0.0,19182,0,0.0,0,0,0,0,0,0.0,0,0,0,1,1,1,52,0,0,0,0,0,0,0,0,0,0,0,0,0,0,0,0,0,0,0
56064000,4000000.0,1.0,17246.016,0.0,19657,0,0.0,0,0,0,0,0,0.0,0,0,0,1,1,1,52,0,0,0,0,0,0,0,0,0,0,0,0,0,0,0,0,0,0,0
57324000,4000000.0,1.0,17005.977,0.0,20145,0,0.0,0,0,0,0,0,0.0,0,0,0,1,1,1,52,0,0,0,0,0,0,0,0,0,0,0,0,0,0,0,0,0,0,0
58324000,4000000.0,1.0,17447.21,0.0,20522,0,0.0,0,0,0,0,0,0.0,0,0,0,1,1,1,52,0,0,0,0,0,0,0,0,0,0,0,0,0,0,0,0,0,0,0
58580000,4000000.0,1.0,16957.172,0.0,20617,0,0.0,0,0,0,0,0,0.0,0,0,0,1,1,1,52,0,0,0,0,0,0,0,0,0,0,0,0,0,0,0,0,0,0,0
59832000,4000000.0,1.0,17268.926,0.0,21087,0,0.0,0,0,0,0,0,0.0,0,0,0,1,1,1,52,0,0,0,0,0,0,0,0,0,0,0,0,0,0,0,0,0,0,0
61088000,4000000.0,1.0,16957.172,0.0,21558,0,0.0,0,0,0,0,0,0.0,0,0,0,1,1,1,52,0,0,0,0,0,0,0,0,0,0,0,0,0,0,0,0,0,0,0
62348000,4000000.0,1.0,17256.973,0.0,22044,0,0.0,0,0,0,0,0,0.0,0,0,0,1,1,1,52,0,0,0,0,0,0,0,0,0,0,0,0,0,0,0,0,0,0,0
63348000,4000000.0,1.0,17183.268,0.0,22427,0,0.0,0,0,0,0,0,0.0,0,0,0,1,1,1,52,0,0,0,0,0,0,0,0,0,0,0,0,0,0,0,0,0,0,0
63604000,4000000.0,1.0,17286.854,0.0,22523,0,0.0,0,0,0,0,0,0.0,0,0,0,1,1,1,52,0,0,0,0,0,0,0,0,0,0,0,0,0,0,0,0,0,0,0
64860000,4000000.0,1.0,16992.033,0.0,22995,0,0.0,0,0,0,0,0,0.0,0,0,0,1,1,1,52,0,0,0,0,0,0,0,0,0,0,0,0,0,0,0,0,0,0,0
66120000,4000000.0,1.0,17251.992,0.0,23469,0,0.0,0,0,0,0,0,0.0,0,0,0,1,1,1,52,0,0,0,0,0,0,0,0,0,0,0,0,0,0,0,0,0,0,0
67120000,4000000.0,1.0,17018.926,0.0,23847,0,0.0,0,0,0,0,0,0.0,0,0,0,1,1,1,52,0,0,0,0,0,0,0,0,0,0,0,0,0,0,0,0,0,0,0
67380000,4000000.0,1.0,17018.926,0.0,23957,0,0.0,0,0,0,0,0,0.0,0,0,0,1,1,1,52,0,0,0,0,0,0,0,0,0,0,0,0,0,0,0,0,0,0,0
68636000,4000000.0,1.0,16957.172,0.0,24429,0,0.0,0,0,0,0,0,0.0,0,0,0,1,1,1,52,0,0,0,0,0,0,0,0,0,0,0,0,0,0,0,0,0,0,0
69896000,4000000.0,1.0,17281.873,0.0,24905,0,0.0,0,0,0,0,0,0.0,0,0,0,1,1,1,52,0,0,0,0,0,0,0,0,0,0,0,0,0,0,0,0,0,0,0
71148000,4000000.0,1.0,16944.223,0.0,25371,0,0.0,0,0,0,0,0,0.0,0,0,0,1,1,1,52,0,0,0,0,0,0,0,0,0,0,0,0,0,0,0,0,0,0,0
72148000,4000000.0,1.0,17269.92,0.0,25750,0,0.0,0,0,0,0,0,0.0,0,0,0,1,1,1,52,0,0,0,0,0,0,0,0,0,0,0,0,0,0,0,0,0,0,0
72404000,4000000.0,1.0,17269.92,0.0,25858,0,0.0,0,0,0,0,0,0.0,0,0,0,1,1,1,52,0,0,0,0,0,0,0,0,0,0,0,0,0,0,0,0,0,0,0
73660000,4000000.0,1.0,17285.857,0.0,26336,0,0.0,0,0,0,0,0,0.0,0,0,0,1,1,1,52,0,0,0,0,0,0,0,0,0,0,0,0,0,0,0,0,0,0,0
74916000,4000000.0,1.0,17004.98,0.0,26808,0,0.0,0,0,0,0,0,0.0,0,0,0,1,1,1,52,0,0,0,0,0,0,0,0,0,0,0,0,0,0,0,0,0,0,0
76172000,4000000.0,1.0,17221.115,0.0,27278,0,0.0,0,0,0,0,0,0.0,0,0,0,1,1,1,52,0,0,0,0,0,0,0,0,0,0,0,0,0,0,0,0,0,0,0
77172000,4000000.0,1.0,17005.977,0.0,27655,0,0.0,0,0,0,0,0,0.0,0,0,0,1,1,1,52,0,0,0,0,0,0,0,0,0,0,0,0,0,0,0,0,0,0,0
77424000,4000000.0,1.0,17005.977,0.0,27765,0,0.0,0,0,0,0,0,0.0,0,0,0,1,1,1,52,0,0,0,0,0,0,0,0,0,0,0,0,0,0,0,0,0,0,0
78684000,4000000.0,1.0,16970.12,0.0,28237,0,0.0,0,0,0,0,0,0.0,0,0,0,1,1,1,52,0,0,0,0,0,0,0,0,0,0,0,0,0,0,0,0,0,0,0
79944000,4000000.0,1.0,17268.926,0.0,28712,0,0.0,0,0,0,0,0,0.0,0,0,0,1,1,1,52,0,0,0,0,0,0,0,0,0,0,0,0,0,0,0,0,0,0,0
81200000,4000000.0,1.0,16944.223,0.0,29183,0,0.0,0,0,0,0,0,0.0,0,0,0,1,1,1,52,0,0,0,0,0,0,0,0,0,0,0,0,0,0,0,0,0,0,0
82200000,4000000.0,1.0,17282.87,0.0,29563,0,0.0,0,0,0,0,0,0.0,0,0,0,1,1,1,52,0,0,0,0,0,0,0,0,0,0,0,0,0,0,0,0,0,0,0
82460000,4000000.0,1.0,17282.87,0.0,29671,0,0.0,0,0,0,0,0,0.0,0,0,0,1,1,1,52,0,0,0,0,0,0,0,0,0,0,0,0,0,0,0,0,0,0,0
83716000,4000000.0,1.0,17274.9,0.0,30148,0,0.0,0,0,0,0,0,0.0,0,0,0,1,1,1,52,0,0,0,0,0,0,0,0,0,0,0,0,0,0,0,0,0,0,0
84976000,4000000.0,1.0,17017.93,0.0,30621,0,0.0,0,0,0,0,0,0.0,0,0,0,1,1,1,52,0,0,0,0,0,0,0,0,0,0,0,0,0,0,0,0,0,0,0
86228000,4000000.0,1.0,17208.168,0.0,31089,0,0.0,0,0,0,0,0,0.0,0,0,0,1,1,1,52,0,0,0,0,0,0,0,0,0,0,0,0,0,0,0,0,0,0,0
87228000,4000000.0,1.0,17028.885,0.0,31467,0,0.0,0,0,0,0,0,0.0,0,0,0,1,1,1,52,0,0,0,0,0,0,0,0,0,0,0,0,0,0,0,0,0,0,0
87484000,4000000.0,1.0,17028.885,0.0,31578,0,0.0,0,0,0,0,0,0.0,0,0,0,1,1,1,52,0,0,0,0,0,0,0,0,0,0,0,0,0,0,0,0,0,0,0
88744000,4000000.0,1.0,16962.152,0.0,32050,0,0.0,0,0,0,0,0,0.0,0,0,0,1,1,1,52,0,0,0,0,0,0,0,0,0,0,0,0,0,0,0,0,0,0,0
