timestamp,timestamp_sample,q[0],q[1],q[2],q[3],delta_q_reset[0],delta_q_reset[1],delta_q_reset[2],delta_q_reset[3],quat_reset_counter
3616000,3616000,0.69035715,0.0013163652,-0.015478384,0.723302,1.0,0.0,0.0,0.0,0
3620000,3620000,0.69035804,0.0013214098,-0.015466714,0.72330135,1.0,0.0,0.0,0.0,0
3624000,3624000,0.69035745,0.00132416,-0.015450014,0.7233023,1.0,0.0,0.0,0.0,0
3628000,3628000,0.6903558,0.0013234182,-0.015430006,0.72330433,1.0,0.0,0.0,0.0,0
3632000,3632000,0.68827516,0.0013675039,-0.0154081825,0.7252849,0.999996,-9.313226e-10,-2.8521754e-09,0.0028536618,1
3636000,3636000,0.68826324,0.0013702714,-0.015391255,0.7252965,0.999996,-9.313226e-10,-2.8521754e-09,0.0028536618,1
3640000,3640000,0.6882505,0.0013731308,-0.015374492,0.72530895,0.999996,-9.313226e-10,-2.8521754e-09,0.0028536618,1
3644000,3644000,0.68823546,0.0013763077,-0.015357347,0.72532356,0.999996,-9.313226e-10,-2.8521754e-09,0.0028536618,1
3648000,3648000,0.68821955,0.0013803621,-0.015341841,0.72533894,0.999996,-9.313226e-10,-2.8521754e-09,0.0028536618,1
3652000,3652000,0.68820435,0.0013872558,-0.015333417,0.72535354,0.999996,-9.313226e-10,-2.8521754e-09,0.0028536618,1
3656000,3656000,0.6881898,0.0013954976,-0.015329243,0.7253674,0.999996,-9.313226e-10,-2.8521754e-09,0.0028536618,1
3660000,3660000,0.6881769,0.0014003346,-0.015323272,0.7253798,0.999996,-9.313226e-10,-2.8521754e-09,0.0028536618,1
3664000,3664000,0.68816423,0.0014055915,-0.015315534,0.7253919,0.999996,-9.313226e-10,-2.8521754e-09,0.0028536618,1
3668000,3668000,0.68815166,0.0014122748,-0.015304744,0.7254041,0.999996,-9.313226e-10,-2.8521754e-09,0.0028536618,1
3676000,3676000,0.68812567,0.0014209338,-0.015285406,0.7254292,0.999996,-9.313226e-10,-2.8521754e-09,0.0028536618,1
3684000,3684000,0.6880969,0.0014273351,-0.015263318,0.7254569,0.999996,-9.313226e-10,-2.8521754e-09,0.0028536618,1
3692000,3692000,0.68807346,0.0014357847,-0.015238713,0.7254796,0.999996,-9.313226e-10,-2.8521754e-09,0.0028536618,1
3696000,3696000,0.6880581,0.001440694,-0.015224532,0.72549456,0.999996,-9.313226e-10,-2.8521754e-09,0.0028536618,1
3700000,3700000,0.68804115,0.0014410333,-0.015209721,0.7255109,0.999996,-9.313226e-10,-2.8521754e-09,0.0028536618,1
3704000,3704000,0.68802583,0.0014427182,-0.015202419,0.7255255,0.999996,-9.313226e-10,-2.8521754e-09,0.0028536618,1
3708000,3708000,0.68800974,0.0014481714,-0.015195772,0.7255409,0.999996,-9.313226e-10,-2.8521754e-09,0.0028536618,1
3712000,3712000,0.68799675,0.0014547649,-0.0151853245,0.72555345,0.999996,-9.313226e-10,-2.8521754e-09,0.0028536618,1
3716000,3716000,0.6879879,0.0014614871,-0.0151763735,0.725562,0.999996,-9.313226e-10,-2.8521754e-09,0.0028536618,1
3720000,3720000,0.6879802,0.0014667083,-0.015166324,0.72556955,0.999996,-9.313226e-10,-2.8521754e-09,0.0028536618,1
3724000,3724000,0.687971,0.001471717,-0.0151495,0.7255786,0.999996,-9.313226e-10,-2.8521754e-09,0.0028536618,1
3728000,3728000,0.6879612,0.0014768129,-0.01513605,0.7255881,0.999996,-9.313226e-10,-2.8521754e-09,0.0028536618,1
3736000,3736000,0.68793964,0.0014827978,-0.015122426,0.7256089,0.999996,-9.313226e-10,-2.8521754e-09,0.0028536618,1
3740000,3740000,0.68792546,0.001484211,-0.0151154585,0.7256224,0.999996,-9.313226e-10,-2.8521754e-09,0.0028536618,1
3744000,3744000,0.6879143,0.0014841487,-0.015107368,0.72563314,0.999996,-9.313226e-10,-2.8521754e-09,0.0028536618,1
3748000,3748000,0.68790394,0.0014859545,-0.015098096,0.72564316,0.999996,-9.313226e-10,-2.8521754e-09,0.0028536618,1
3752000,3752000,0.68789303,0.0014912321,-0.015092461,0.72565365,0.999996,-9.313226e-10,-2.8521754e-09,0.0028536618,1
3756000,3756000,0.6878837,0.0014980678,-0.015087536,0.72566265,0.999996,-9.313226e-10,-2.8521754e-09,0.0028536618,1
3760000,3760000,0.6878761,0.0015026621,-0.015082248,0.7256699,0.999996,-9.313226e-10,-2.8521754e-09,0.0028536618,1
3764000,3764000,0.6878674,0.0015046474,-0.015078914,0.72567827,0.999996,-9.313226e-10,-2.8521754e-09,0.0028536618,1
3768000,3768000,0.6878365,0.0015113525,-0.01508064,0.7257075,0.999996,-9.313226e-10,-2.8521754e-09,0.0028536618,1
3772000,3772000,0.6878071,0.001524153,-0.015083705,0.72573525,0.999996,-9.313226e-10,-2.8521754e-09,0.0028536618,1
3776000,3776000,0.6877799,0.0015381319,-0.015087437,0.72576094,0.999996,-9.313226e-10,-2.8521754e-09,0.0028536618,1
3780000,3780000,0.6877531,0.0015494328,-0.015089357,0.72578627,0.999996,-9.313226e-10,-2.8521754e-09,0.0028536618,1
3788000,3788000,0.68769944,0.0015616504,-0.015094538,0.725837,0.999996,-9.313226e-10,-2.8521754e-09,0.0028536618,1
3796000,3796000,0.68764424,0.0015629134,-0.015101561,0.7258891,0.999996,-9.313226e-10,-2.8521754e-09,0.0028536618,1
3800000,3800000,0.6876159,0.00156665,-0.015103069,0.7259159,0.999996,-9.313226e-10,-2.8521754e-09,0.0028536618,1
3804000,3804000,0.68759024,0.0015681637,-0.015103879,0.72594017,0.999996,-9.313226e-10,-2.8521754e-09,0.0028536618,1
3808000,3808000,0.6875663,0.0015731265,-0.015106572,0.7259628,0.999996,-9.313226e-10,-2.8521754e-09,0.0028536618,1
3812000,3812000,0.6875407,0.0015836732,-0.015107985,0.725987,0.999996,-9.313226e-10,-2.8521754e-09,0.0028536618,1
3820000,3820000,0.68749136,0.0015983699,-0.015114209,0.72603357,0.999996,-9.313226e-10,-2.8521754e-09,0.0028536618,1
3824000,3824000,0.68746597,0.0016069823,-0.015117078,0.72605747,0.999996,-9.313226e-10,-2.8521754e-09,0.0028536618,1
3832000,3832000,0.6874145,0.0016232228,-0.015129931,0.7261059,0.999996,-9.313226e-10,-2.8521754e-09,0.0028536618,1
3836000,3836000,0.6873899,0.0016312904,-0.01514103,0.72612894,0.999996,-9.313226e-10,-2.8521754e-09,0.0028536618,1
3840000,3840000,0.6873673,0.0016391297,-0.0151474895,0.72615016,0.999996,-9.313226e-10,-2.8521754e-09,0.0028536618,1
3844000,3844000,0.68734324,0.0016454103,-0.015153241,0.72617286,0.999996,-9.313226e-10,-2.8521754e-09,0.0028536618,1
3848000,3848000,0.68732023,0.0016550547,-0.0151583385,0.7261945,0.999996,-9.313226e-10,-2.8521754e-09,0.0028536618,1
3852000,3852000,0.68729883,0.0016668866,-0.015159605,0.72621477,0.999996,-9.313226e-10,-2.8521754e-09,0.0028536618,1
3860000,3860000,0.68725955,0.0016896735,-0.015174118,0.72625154,0.999996,-9.313226e-10,-2.8521754e-09,0.0028536618,1
3864000,3864000,0.6872437,0.0016990165,-0.015182077,0.7262664,0.999996,-9.313226e-10,-2.8521754e-09,0.0028536618,1
3868000,3868000,0.6872298,0.0017060788,-0.015187834,0.7262793,0.999996,-9.313226e-10,-2.8521754e-09,0.0028536618,1
3872000,3872000,0.6872147,0.0017126736,-0.015192145,0.72629356,0.999996,-9.313226e-10,-2.8521754e-09,0.0028536618,1
3876000,3876000,0.68719596,0.0017214959,-0.015197906,0.72631115,0.999996,-9.313226e-10,-2.8521754e-09,0.0028536618,1
3880000,3880000,0.6871787,0.0017288289,-0.0152040785,0.72632736,0.999996,-9.313226e-10,-2.8521754e-09,0.0028536618,1
3884000,3884000,0.68716407,0.0017339806,-0.015211058,0.72634095,0.999996,-9.313226e-10,-2.8521754e-09,0.0028536618,1
3888000,3888000,0.68715197,0.0017399882,-0.015220598,0.72635216,0.999996,-9.313226e-10,-2.8521754e-09,0.0028536618,1
3892000,3892000,0.6871395,0.0017452142,-0.01522941,0.72636384,0.999996,-9.313226e-10,-2.8521754e-09,0.0028536618,1
3896000,3896000,0.68712676,0.0017493458,-0.015240416,0.72637564,0.999996,-9.313226e-10,-2.8521754e-09,0.0028536618,1
3904000,3904000,0.6870971,0.0017658322,-0.015262478,0.72640324,0.999996,-9.313226e-10,-2.8521754e-09,0.0028536618,1
3908000,3908000,0.6870832,0.0017748743,-0.015273994,0.72641605,0.999996,-9.313226e-10,-2.8521754e-09,0.0028536618,1
3912000,3912000,0.6870739,0.0017816784,-0.015285054,0.7264246,0.999996,-9.313226e-10,-2.8521754e-09,0.0028536618,1
3916000,3916000,0.68706435,0.0017842395,-0.015292845,0.7264335,0.999996,-9.313226e-10,-2.8521754e-09,0.0028536618,1
3920000,3920000,0.68705565,0.0017845057,-0.01529788,0.7264416,0.999996,-9.313226e-10,-2.8521754e-09,0.0028536618,1
3924000,3924000,0.68704814,0.0017843882,-0.015301795,0.7264486,0.999996,-9.313226e-10,-2.8521754e-09,0.0028536618,1
3932000,3932000,0.6870371,0.0017930844,-0.015313843,0.7264588,0.999996,-9.313226e-10,-2.8521754e-09,0.0028536618,1
3940000,3940000,0.68702817,0.0018008844,-0.015330332,0.7264669,0.999996,-9.313226e-10,-2.8521754e-09,0.0028536618,1
3948000,3948000,0.68702394,0.0018052028,-0.0153509015,0.7264704,0.999996,-9.313226e-10,-2.8521754e-09,0.0028536618,1
3952000,3952000,0.6870235,0.0018096255,-0.015358573,0.7264706,0.999996,-9.313226e-10,-2.8521754e-09,0.0028536618,1
3956000,3956000,0.687022,0.0018133129,-0.015367774,0.7264719,0.999996,-9.313226e-10,-2.8521754e-09,0.0028536618,1
3964000,3964000,0.6870175,0.0018183175,-0.0153803555,0.7264758,0.999996,-9.313226e-10,-2.8521754e-09,0.0028536618,1
3968000,3968000,0.6870145,0.0018198651,-0.015391998,0.7264784,0.999996,-9.313226e-10,-2.8521754e-09,0.0028536618,1
3976000,3976000,0.68701696,0.0018261528,-0.015413702,0.72647566,0.999996,-9.313226e-10,-2.8521754e-09,0.0028536618,1
3980000,3980000,0.6870161,0.001836095,-0.0154258935,0.7264762,0.999996,-9.313226e-10,-2.8521754e-09,0.0028536618,1
3984000,3984000,0.68701184,0.0018431772,-0.015442703,0.7264798,0.999996,-9.313226e-10,-2.8521754e-09,0.0028536618,1
3988000,3988000,0.68700683,0.0018453177,-0.0154585205,0.7264842,0.999996,-9.313226e-10,-2.8521754e-09,0.0028536618,1
3992000,3992000,0.68700683,0.0018414201,-0.015464341,0.72648406,0.999996,-9.313226e-10,-2.8521754e-09,0.0028536618,1
3996000,3996000,0.6870087,0.0018424047,-0.015468138,0.7264822,0.999996,-9.313226e-10,-2.8521754e-09,0.0028536618,1
4000000,4000000,0.68701166,0.0018483585,-0.015473637,0.7264793,0.999996,-9.313226e-10,-2.8521754e-09,0.0028536618,1
4004000,4004000,0.6870161,0.0018522127,-0.015483711,0.7264748,0.999996,-9.313226e-10,-2.8521754e-09,0.0028536618,1
4012000,4012000,0.68702084,0.0018347576,-0.015496934,0.7264701,0.999996,-9.313226e-10,-2.8521754e-09,0.0028536618,1
4016000,4016000,0.687022,0.0018303572,-0.015497715,0.72646904,0.999996,-9.313226e-10,-2.8521754e-09,0.0028536618,1
4020000,4020000,0.6870207,0.0018326622,-0.015497561,0.72647023,0.999996,-9.313226e-10,-2.8521754e-09,0.0028536618,1
4024000,4024000,0.68701965,0.0018345207,-0.015501969,0.7264712,0.999996,-9.313226e-10,-2.8521754e-09,0.0028536618,1
4028000,4028000,0.6870201,0.0018323871,-0.015510629,0.7264706,0.999996,-9.313226e-10,-2.8521754e-09,0.0028536618,1
4036000,4036000,0.68702275,0.001825965,-0.015518418,0.7264679,0.999996,-9.313226e-10,-2.8521754e-09,0.0028536618,1
4040000,4040000,0.68702245,0.0018251274,-0.015521594,0.7264681,0.999996,-9.313226e-10,-2.8521754e-09,0.0028536618,1
4044000,4044000,0.6870187,0.0018197192,-0.015525659,0.72647154,0.999996,-9.313226e-10,-2.8521754e-09,0.0028536618,1
4048000,4048000,0.6870159,0.0018131642,-0.015529283,0.72647417,0.999996,-9.313226e-10,-2.8521754e-09,0.0028536618,1
4052000,4052000,0.6870161,0.001808913,-0.015532085,0.7264739,0.999996,-9.313226e-10,-2.8521754e-09,0.0028536618,1
4056000,4056000,0.6870177,0.0018065657,-0.015535111,0.7264724,0.999996,-9.313226e-10,-2.8521754e-09,0.0028536618,1
4060000,4060000,0.6870188,0.0018076716,-0.015540678,0.7264712,0.999996,-9.313226e-10,-2.8521754e-09,0.0028536618,1
4064000,4064000,0.6870191,0.0018121507,-0.015547185,0.72647077,0.999996,-9.313226e-10,-2.8521754e-09,0.0028536618,1
4068000,4068000,0.68701905,0.0018169663,-0.015552553,0.7264707,0.999996,-9.313226e-10,-2.8521754e-09,0.0028536618,1
4076000,4076000,0.68701196,0.0018111048,-0.015556006,0.7264774,0.999996,-9.313226e-10,-2.8521754e-09,0.0028536618,1
4080000,4080000,0.68701017,0.0018051594,-0.015559823,0.72647893,0.999996,-9.313226e-10,-2.8521754e-09,0.0028536618,1
4084000,4084000,0.68701077,0.0018015645,-0.015565081,0.72647834,0.999996,-9.313226e-10,-2.8521754e-09,0.0028536618,1
4088000,4088000,0.68701094,0.0017989126,-0.015567425,0.7264781,0.999996,-9.313226e-10,-2.8521754e-09,0.0028536618,1
4092000,4092000,0.6870111,0.0017965846,-0.015567876,0.72647786,0.999996,-9.313226e-10,-2.8521754e-09,0.0028536618,1
4096000,4096000,0.68701375,0.0017930835,-0.01556849,0.7264755,0.999996,-9.313226e-10,-2.8521754e-09,0.0028536618,1
4100000,4100000,0.68701696,0.0017934049,-0.015570499,0.7264723,0.999996,-9.313226e-10,-2.8521754e-09,0.0028536618,1
4104000,4104000,0.6870171,0.0017973621,-0.01557368,0.72647214,0.999996,-9.313226e-10,-2.8521754e-09,0.0028536618,1
4108000,4108000,0.68701565,0.0017993725,-0.015575788,0.72647345,0.999996,-9.313226e-10,-2.8521754e-09,0.0028536618,1
4112000,4112000,0.68701345,0.001800966,-0.015578852,0.7264755,0.999996,-9.313226e-10,-2.8521754e-09,0.0028536618,1
4120000,4120000,0.6870108,0.0018114706,-0.015590994,0.72647774,0.999996,-9.313226e-10,-2.8521754e-09,0.0028536618,1
4124000,4124000,0.68700933,0.0018171143,-0.015591877,0.7264791,0.999996,-9.313226e-10,-2.8521754e-09,0.0028536618,1
4128000,4128000,0.68701375,0.0018240828,-0.015591815,0.72647494,0.999996,-9.313226e-10,-2.8521754e-09,0.0028536618,1
4132000,4132000,0.6870197,0.0018277493,-0.015593728,0.7264692,0.999996,-9.313226e-10,-2.8521754e-09,0.0028536618,1
4136000,4136000,0.68702424,0.001824491,-0.015593403,0.7264649,0.999996,-9.313226e-10,-2.8521754e-09,0.0028536618,1
4140000,4140000,0.6870307,0.0018186286,-0.01559277,0.7264588,0.999996,-9.313226e-10,-2.8521754e-09,0.0028536618,1
4144000,4144000,0.68704045,0.0018170876,-0.0155974915,0.72644943,0.999996,-9.313226e-10,-2.8521754e-09,0.0028536618,1
4152000,4152000,0.6870564,0.0018208871,-0.015614875,0.726434,0.999996,-9.313226e-10,-2.8521754e-09,0.0028536618,1
4160000,4160000,0.68705916,0.0018302439,-0.01562879,0.72643113,0.999996,-9.313226e-10,-2.8521754e-09,0.0028536618,1
4164000,4164000,0.6870643,0.001829665,-0.0156343,0.7264262,0.999996,-9.313226e-10,-2.8521754e-09,0.0028536618,1
4168000,4168000,0.6870717,0.0018286863,-0.015639273,0.7264191,0.999996,-9.313226e-10,-2.8521754e-09,0.0028536618,1
4172000,4172000,0.6870779,0.0018314258,-0.01564339,0.7264131,0.999996,-9.313226e-10,-2.8521754e-09,0.0028536618,1
4176000,4176000,0.6870837,0.001835199,-0.015646933,0.7264075,0.999996,-9.313226e-10,-2.8521754e-09,0.0028536618,1
4180000,4180000,0.68709147,0.0018390138,-0.01565047,0.72640014,0.999996,-9.313226e-10,-2.8521754e-09,0.0028536618,1
4184000,4184000,0.6870999,0.001841374,-0.015658388,0.726392,0.999996,-9.313226e-10,-2.8521754e-09,0.0028536618,1
4188000,4188000,0.687106,0.0018414675,-0.015667882,0.72638595,0.999996,-9.313226e-10,-2.8521754e-09,0.0028536618,1
4192000,4192000,0.6871113,0.0018432895,-0.015676014,0.72638077,0.999996,-9.313226e-10,-2.8521754e-09,0.0028536618,1
4196000,4196000,0.6871178,0.0018466214,-0.015683347,0.72637445,0.999996,-9.313226e-10,-2.8521754e-09,0.0028536618,1
4200000,4200000,0.68713236,0.0018441585,-0.015679644,0.7263608,0.999996,-9.313226e-10,-2.8521754e-09,0.0028536618,1
4204000,4204000,0.68714577,0.0018405099,-0.015674848,0.7263482,0.999996,-9.313226e-10,-2.8521754e-09,0.0028536618,1
4208000,4208000,0.68715954,0.0018325344,-0.015670246,0.7263352,0.999996,-9.313226e-10,-2.8521754e-09,0.0028536618,1
4212000,4212000,0.687173,0.0018215599,-0.015666481,0.7263226,0.999996,-9.313226e-10,-2.8521754e-09,0.0028536618,1
4216000,4216000,0.68718386,0.0018133305,-0.015662337,0.7263125,0.999996,-9.313226e-10,-2.8521754e-09,0.0028536618,1
4220000,4220000,0.6871958,0.0018077506,-0.015657736,0.7263013,0.999996,-9.313226e-10,-2.8521754e-09,0.0028536618,1
4224000,4224000,0.6872109,0.0018020542,-0.015654316,0.7262871,0.999996,-9.313226e-10,-2.8521754e-09,0.0028536618,1
4228000,4228000,0.6872263,0.0018016361,-0.015650747,0.7262726,0.999996,-9.313226e-10,-2.8521754e-09,0.0028536618,1
4232000,4232000,0.6872407,0.0018031356,-0.015640158,0.7262592,0.999996,-9.313226e-10,-2.8521754e-09,0.0028536618,1
4240000,4240000,0.6872726,0.0017862803,-0.015616887,0.72622955,0.999996,-9.313226e-10,-2.8521754e-09,0.0028536618,1
4244000,4244000,0.68728864,0.0017813974,-0.015615513,0.7262144,0.999996,-9.313226e-10,-2.8521754e-09,0.0028536618,1
4248000,4248000,0.68730205,0.0017772416,-0.015611852,0.7262018,0.999996,-9.313226e-10,-2.8521754e-09,0.0028536618,1
4252000,4252000,0.68731594,0.0017730321,-0.015605933,0.72618884,0.999996,-9.313226e-10,-2.8521754e-09,0.0028536618,1
4256000,4256000,0.6873314,0.0017734718,-0.015600614,0.72617435,0.999996,-9.313226e-10,-2.8521754e-09,0.0028536618,1
4260000,4260000,0.6873464,0.0017735165,-0.01559493,0.7261602,0.999996,-9.313226e-10,-2.8521754e-09,0.0028536618,1
4268000,4268000,0.6873815,0.0017576746,-0.015585057,0.72612727,0.999996,-9.313226e-10,-2.8521754e-09,0.0028536618,1
4276000,4276000,0.6874265,0.0017303401,-0.015578494,0.7260849,0.999996,-9.313226e-10,-2.8521754e-09,0.0028536618,1
4280000,4280000,0.6874485,0.0017187174,-0.01557341,0.72606415,0.999996,-9.313226e-10,-2.8521754e-09,0.0028536618,1
4284000,4284000,0.68746895,0.0017085877,-0.0155690415,0.7260449,0.999996,-9.313226e-10,-2.8521754e-09,0.0028536618,1
4292000,4292000,0.68750817,0.0016862282,-0.01555411,0.7260081,0.999996,-9.313226e-10,-2.8521754e-09,0.0028536618,1
4300000,4300000,0.68753994,0.0016849145,-0.015544029,0.72597826,0.999996,-9.313226e-10,-2.8521754e-09,0.0028536618,1
4304000,4304000,0.68755823,0.0016789378,-0.015543153,0.7259609,0.999996,-9.313226e-10,-2.8521754e-09,0.0028536618,1
4308000,4308000,0.68757933,0.0016688274,-0.015540501,0.72594106,0.999996,-9.313226e-10,-2.8521754e-09,0.0028536618,1
4312000,4312000,0.687601,0.0016593897,-0.015535633,0.7259207,0.999996,-9.313226e-10,-2.8521754e-09,0.0028536618,1
4316000,4316000,0.68761873,0.0016517208,-0.015529593,0.72590405,0.999996,-9.313226e-10,-2.8521754e-09,0.0028536618,1
4320000,4320000,0.68763155,0.0016469355,-0.0155214295,0.72589207,0.999996,-9.313226e-10,-2.8521754e-09,0.0028536618,1
4328000,4328000,0.68765724,0.001643504,-0.0155081535,0.725868,0.999996,-9.313226e-10,-2.8521754e-09,0.0028536618,1
4332000,4332000,0.68767095,0.0016380985,-0.015503223,0.7258551,0.999996,-9.313226e-10,-2.8521754e-09,0.0028536618,1
4340000,4340000,0.6876981,0.0016399353,-0.015499838,0.7258294,0.999996,-9.313226e-10,-2.8521754e-09,0.0028536618,1
4344000,4344000,0.6877069,0.0016456513,-0.015499907,0.72582114,0.999996,-9.313226e-10,-2.8521754e-09,0.0028536618,1
4348000,4348000,0.6877164,0.0016461745,-0.015502375,0.725812,0.999996,-9.313226e-10,-2.8521754e-09,0.0028536618,1
4356000,4356000,0.68773943,0.0016293678,-0.01549803,0.72579044,0.999996,-9.313226e-10,-2.8521754e-09,0.0028536618,1
4360000,4360000,0.68774986,0.0016282309,-0.015492668,0.72578067,0.999996,-9.313226e-10,-2.8521754e-09,0.0028536618,1
4364000,4364000,0.6877579,0.0016300966,-0.015488737,0.7257731,0.999996,-9.313226e-10,-2.8521754e-09,0.0028536618,1
4368000,4368000,0.68776315,0.0016296123,-0.015482822,0.7257682,0.999996,-9.313226e-10,-2.8521754e-09,0.0028536618,1
4372000,4372000,0.68776965,0.0016250422,-0.015478147,0.7257622,0.999996,-9.313226e-10,-2.8521754e-09,0.0028536618,1
4380000,4380000,0.6877802,0.0016230796,-0.015484805,0.7257521,0.999996,-9.313226e-10,-2.8521754e-09,0.0028536618,1
4384000,4384000,0.6877843,0.0016210907,-0.015493976,0.72574794,0.999996,-9.313226e-10,-2.8521754e-09,0.0028536618,1
4388000,4388000,0.68779206,0.0016166951,-0.01549492,0.72574055,0.999996,-9.313226e-10,-2.8521754e-09,0.0028536618,1
4392000,4392000,0.6878006,0.0016144065,-0.015490677,0.7257326,0.999996,-9.313226e-10,-2.8521754e-09,0.0028536618,1
4396000,4396000,0.68780476,0.0016147125,-0.015488253,0.7257287,0.999996,-9.313226e-10,-2.8521754e-09,0.0028536618,1
4404000,4404000,0.68780917,0.001616048,-0.015488907,0.72572446,0.999996,-9.313226e-10,-2.8521754e-09,0.0028536618,1
4412000,4412000,0.6878046,0.0015989534,-0.015464726,0.72572947,0.999996,-9.313226e-10,-2.8521754e-09,0.0028536618,1
4416000,4416000,0.6878028,0.0015964083,-0.015449586,0.72573143,0.999996,-9.313226e-10,-2.8521754e-09,0.0028536618,1
4420000,4420000,0.68780136,0.0015942984,-0.015436318,0.72573304,0.999996,-9.313226e-10,-2.8521754e-09,0.0028536618,1
4428000,4428000,0.68779516,0.001587048,-0.015410062,0.7257395,0.999996,-9.313226e-10,-2.8521754e-09,0.0028536618,1
4432000,4432000,0.6877945,0.0015827001,-0.015396268,0.7257405,0.999996,-9.313226e-10,-2.8521754e-09,0.0028536618,1
4436000,4436000,0.68779534,0.001578751,-0.015382082,0.72574,0.999996,-9.313226e-10,-2.8521754e-09,0.0028536618,1
4440000,4440000,0.68779415,0.0015736042,-0.015368734,0.72574145,0.999996,-9.313226e-10,-2.8521754e-09,0.0028536618,1
4444000,4444000,0.68779105,0.0015627596,-0.015355164,0.72574466,0.999996,-9.313226e-10,-2.8521754e-09,0.0028536618,1
4448000,4448000,0.68778837,0.0015520235,-0.015340271,0.7257476,0.999996,-9.313226e-10,-2.8521754e-09,0.0028536618,1
4452000,4452000,0.6877859,0.0015462195,-0.015326374,0.72575015,0.999996,-9.313226e-10,-2.8521754e-09,0.0028536618,1
4456000,4456000,0.68778116,0.0015406088,-0.015317155,0.7257549,0.999996,-9.313226e-10,-2.8521754e-09,0.0028536618,1
4460000,4460000,0.6877763,0.0015350792,-0.015310948,0.7257596,0.999996,-9.313226e-10,-2.8521754e-09,0.0028536618,1
4464000,4464000,0.6877723,0.0015310725,-0.01530106,0.7257636,0.999996,-9.313226e-10,-2.8521754e-09,0.0028536618,1
4468000,4468000,0.6877679,0.0015280758,-0.015287002,0.725768,0.999996,-9.313226e-10,-2.8521754e-09,0.0028536618,1
4472000,4472000,0.6877629,0.0015270392,-0.015273373,0.72577316,0.999996,-9.313226e-10,-2.8521754e-09,0.0028536618,1
4476000,4476000,0.6877559,0.0015260022,-0.0152612515,0.72578007,0.999996,-9.313226e-10,-2.8521754e-09,0.0028536618,1
4480000,4480000,0.68775207,0.0015248477,-0.015246962,0.72578394,0.999996,-9.313226e-10,-2.8521754e-09,0.0028536618,1
4484000,4484000,0.6877533,0.001525244,-0.015230365,0.72578317,0.999996,-9.313226e-10,-2.8521754e-09,0.0028536618,1
4488000,4488000,0.68775743,0.0015224095,-0.015215782,0.7257796,0.999996,-9.313226e-10,-2.8521754e-09,0.0028536618,1
4492000,4492000,0.68775845,0.0015161728,-0.01520318,0.7257789,0.999996,-9.313226e-10,-2.8521754e-09,0.0028536618,1
4496000,4496000,0.6877584,0.0015110692,-0.015192787,0.7257792,0.999996,-9.313226e-10,-2.8521754e-09,0.0028536618,1
4500000,4500000,0.68775827,0.0015074918,-0.015183107,0.7257795,0.999996,-9.313226e-10,-2.8521754e-09,0.0028536618,1
4504000,4504000,0.68775666,0.0015072458,-0.015174052,0.72578114,0.999996,-9.313226e-10,-2.8521754e-09,0.0028536618,1
4508000,4508000,0.6877547,0.0015065853,-0.01516388,0.7257832,0.999996,-9.313226e-10,-2.8521754e-09,0.0028536618,1
4512000,4512000,0.68775296,0.0015024417,-0.015152242,0.7257851,0.999996,-9.313226e-10,-2.8521754e-09,0.0028536618,1
4516000,4516000,0.68775046,0.0014963897,-0.01514028,0.7257877,0.999996,-9.313226e-10,-2.8521754e-09,0.0028536618,1
4520000,4520000,0.68774897,0.0014932916,-0.015127797,0.7257895,0.999996,-9.313226e-10,-2.8521754e-09,0.0028536618,1
4524000,4524000,0.6877493,0.001493591,-0.015114087,0.7257895,0.999996,-9.313226e-10,-2.8521754e-09,0.0028536618,1
4528000,4528000,0.6877502,0.0014936012,-0.015104136,0.7257888,0.999996,-9.313226e-10,-2.8521754e-09,0.0028536618,1
4532000,4532000,0.68774915,0.0014955247,-0.015096776,0.72578996,0.999996,-9.313226e-10,-2.8521754e-09,0.0028536618,1
4540000,4540000,0.687746,0.0014954362,-0.015079107,0.7257933,0.999996,-9.313226e-10,-2.8521754e-09,0.0028536618,1
4544000,4544000,0.68774855,0.0014917445,-0.015072973,0.725791,0.999996,-9.313226e-10,-2.8521754e-09,0.0028536618,1
4548000,4548000,0.68775225,0.0014885446,-0.015070214,0.7257875,0.999996,-9.313226e-10,-2.8521754e-09,0.0028536618,1
4552000,4552000,0.68776035,0.0014870813,-0.01506814,0.7257799,0.999996,-9.313226e-10,-2.8521754e-09,0.0028536618,1
4556000,4556000,0.6877669,0.0014880287,-0.015058846,0.7257739,0.999996,-9.313226e-10,-2.8521754e-09,0.0028536618,1
4560000,4560000,0.68777263,0.0014869659,-0.015047306,0.7257687,0.999996,-9.313226e-10,-2.8521754e-09,0.0028536618,1
4564000,4564000,0.6877791,0.0014833953,-0.015039976,0.72576267,0.999996,-9.313226e-10,-2.8521754e-09,0.0028536618,1
4568000,4568000,0.68778694,0.0014790648,-0.015032996,0.72575545,0.999996,-9.313226e-10,-2.8521754e-09,0.0028536618,1
4572000,4572000,0.6877944,0.0014713279,-0.01502573,0.7257486,0.999996,-9.313226e-10,-2.8521754e-09,0.0028536618,1
4580000,4580000,0.68780965,0.0014554455,-0.015026933,0.7257341,0.999996,-9.313226e-10,-2.8521754e-09,0.0028536618,1
4584000,4584000,0.6878183,0.00145084,-0.01502698,0.7257259,0.999996,-9.313226e-10,-2.8521754e-09,0.0028536618,1
4588000,4588000,0.6878278,0.0014438909,-0.015023325,0.725717,0.999996,-9.313226e-10,-2.8521754e-09,0.0028536618,1
4592000,4592000,0.68783665,0.0014365097,-0.015021064,0.7257087,0.999996,-9.313226e-10,-2.8521754e-09,0.0028536618,1
4596000,4596000,0.68784386,0.0014317819,-0.015020619,0.72570187,0.999996,-9.313226e-10,-2.8521754e-09,0.0028536618,1
4600000,4600000,0.68785,0.0014284087,-0.015018852,0.7256961,0.999996,-9.313226e-10,-2.8521754e-09,0.0028536618,1
4608000,4608000,0.6878576,0.00142602,-0.015016901,0.7256889,0.999996,-9.313226e-10,-2.8521754e-09,0.0028536618,1
4612000,4612000,0.68786144,0.0014274595,-0.015017832,0.72568524,0.999996,-9.313226e-10,-2.8521754e-09,0.0028536618,1
4616000,4616000,0.6878662,0.0014243175,-0.015010705,0.7256809,0.999996,-9.313226e-10,-2.8521754e-09,0.0028536618,1
4620000,4620000,0.6878714,0.0014189851,-0.015005897,0.7256761,0.999996,-9.313226e-10,-2.8521754e-09,0.0028536618,1
4628000,4628000,0.68787104,0.0014162976,-0.014987863,0.72567683,0.999996,-9.313226e-10,-2.8521754e-09,0.0028536618,1
4632000,4632000,0.68786824,0.0014108714,-0.014976715,0.72567976,0.999996,-9.313226e-10,-2.8521754e-09,0.0028536618,1
4636000,4636000,0.68786657,0.0014006457,-0.014968331,0.7256815,0.999996,-9.313226e-10,-2.8521754e-09,0.0028536618,1
4640000,4640000,0.6878689,0.0013926122,-0.014962122,0.72567946,0.999996,-9.313226e-10,-2.8521754e-09,0.0028536618,1
4644000,4644000,0.6878711,0.0013876709,-0.014958844,0.72567743,0.999996,-9.313226e-10,-2.8521754e-09,0.0028536618,1
4648000,4648000,0.6878704,0.001380411,-0.014955965,0.72567815,0.999996,-9.313226e-10,-2.8521754e-09,0.0028536618,1
4652000,4652000,0.6878697,0.0013707917,-0.014949382,0.7256789,0.999996,-9.313226e-10,-2.8521754e-09,0.0028536618,1
4656000,4656000,0.6878708,0.0013630581,-0.014936619,0.7256782,0.999996,-9.313226e-10,-2.8521754e-09,0.0028536618,1
4660000,4660000,0.6878738,0.0013564434,-0.014921941,0.7256757,0.999996,-9.313226e-10,-2.8521754e-09,0.0028536618,1
4664000,4664000,0.68787605,0.0013507913,-0.014911248,0.7256738,0.999996,-9.313226e-10,-2.8521754e-09,0.0028536618,1
4668000,4668000,0.6878767,0.0013466334,-0.014901271,0.7256733,0.999996,-9.313226e-10,-2.8521754e-09,0.0028536618,1
4676000,4676000,0.68787634,0.0013329783,-0.014886777,0.725674,0.999996,-9.313226e-10,-2.8521754e-09,0.0028536618,1
4680000,4680000,0.6878738,0.0013248788,-0.014879932,0.7256766,0.999996,-9.313226e-10,-2.8521754e-09,0.0028536618,1
4684000,4684000,0.6878696,0.0013201255,-0.014872623,0.7256807,0.999996,-9.313226e-10,-2.8521754e-09,0.0028536618,1
4688000,4688000,0.6878671,0.0013146884,-0.014863973,0.72568333,0.999996,-9.313226e-10,-2.8521754e-09,0.0028536618,1
4692000,4692000,0.6878658,0.0013080346,-0.014851207,0.7256848,0.999996,-9.313226e-10,-2.8521754e-09,0.0028536618,1
4696000,4696000,0.6878636,0.0013033326,-0.014840395,0.72568715,0.999996,-9.313226e-10,-2.8521754e-09,0.0028536618,1
4700000,4700000,0.6878629,0.0012976235,-0.014832999,0.7256879,0.999996,-9.313226e-10,-2.8521754e-09,0.0028536618,1
4708000,4708000,0.68786377,0.0012829176,-0.014810985,0.7256876,0.999996,-9.313226e-10,-2.8521754e-09,0.0028536618,1
4712000,4712000,0.687862,0.0012807702,-0.014802193,0.7256895,0.999996,-9.313226e-10,-2.8521754e-09,0.0028536618,1
4720000,4720000,0.68785596,0.0012739741,-0.014794922,0.7256954,0.999996,-9.313226e-10,-2.8521754e-09,0.0028536618,1
4724000,4724000,0.6878514,0.0012692569,-0.014794186,0.72569966,0.999996,-9.313226e-10,-2.8521754e-09,0.0028536618,1
4728000,4728000,0.6878472,0.0012689453,-0.014792632,0.72570366,0.999996,-9.313226e-10,-2.8521754e-09,0.0028536618,1
4732000,4732000,0.68784344,0.0012682145,-0.014789206,0.72570735,0.999996,-9.313226e-10,-2.8521754e-09,0.0028536618,1
4740000,4740000,0.68782985,0.0012602857,-0.014778164,0.72572047,0.999996,-9.313226e-10,-2.8521754e-09,0.0028536618,1
4748000,4748000,0.68782216,0.0012507177,-0.014765776,0.725728,0.999996,-9.313226e-10,-2.8521754e-09,0.0028536618,1
4752000,4752000,0.6878181,0.0012478519,-0.01476523,0.72573185,0.999996,-9.313226e-10,-2.8521754e-09,0.0028536618,1
4760000,4760000,0.6878062,0.001249007,-0.014761363,0.7257433,0.999996,-9.313226e-10,-2.8521754e-09,0.0028536618,1
4768000,4768000,0.6877978,0.00124336,-0.014756974,0.7257513,0.999996,-9.313226e-10,-2.8521754e-09,0.0028536618,1
4772000,4772000,0.68779147,0.0012387842,-0.014753521,0.72575736,0.999996,-9.313226e-10,-2.8521754e-09,0.0028536618,1
4776000,4776000,0.68778133,0.0012351245,-0.014749694,0.725767,0.999996,-9.313226e-10,-2.8521754e-09,0.0028536618,1
4780000,4780000,0.68776923,0.0012363903,-0.014748372,0.7257785,0.999996,-9.313226e-10,-2.8521754e-09,0.0028536618,1
4784000,4784000,0.68776256,0.0012395926,-0.014749645,0.7257848,0.999996,-9.313226e-10,-2.8521754e-09,0.0028536618,1
4788000,4788000,0.6877591,0.0012367332,-0.01474731,0.7257881,0.999996,-9.313226e-10,-2.8521754e-09,0.0028536618,1
4792000,4792000,0.68775344,0.0012306115,-0.014742797,0.7257936,0.999996,-9.313226e-10,-2.8521754e-09,0.0028536618,1
4800000,4800000,0.6877417,0.0012251199,-0.014738832,0.7258048,0.999996,-9.313226e-10,-2.8521754e-09,0.0028536618,1
4804000,4804000,0.6877372,0.0012249883,-0.014737891,0.72580916,0.999996,-9.313226e-10,-2.8521754e-09,0.0028536618,1
4808000,4808000,0.68773127,0.0012246725,-0.014737655,0.7258148,0.999996,-9.313226e-10,-2.8521754e-09,0.0028536618,1
4816000,4816000,0.6877125,0.0012169363,-0.014737302,0.7258325,0.999996,-9.313226e-10,-2.8521754e-09,0.0028536618,1
4820000,4820000,0.6877012,0.0012169951,-0.014733971,0.7258433,0.999996,-9.313226e-10,-2.8521754e-09,0.0028536618,1
4824000,4824000,0.6876913,0.0012181675,-0.014726773,0.7258529,0.999996,-9.313226e-10,-2.8521754e-09,0.0028536618,1
4828000,4828000,0.68768126,0.0012231858,-0.014722485,0.7258625,0.999996,-9.313226e-10,-2.8521754e-09,0.0028536618,1
4832000,4832000,0.6876747,0.0012307198,-0.014719095,0.7258687,0.999996,-9.313226e-10,-2.8521754e-09,0.0028536618,1
4836000,4836000,0.6876729,0.0012338714,-0.0147173265,0.7258705,0.999996,-9.313226e-10,-2.8521754e-09,0.0028536618,1
4840000,4840000,0.68767554,0.0012363469,-0.014715776,0.72586805,0.999996,-9.313226e-10,-2.8521754e-09,0.0028536618,1
4844000,4844000,0.6876774,0.0012379927,-0.014711989,0.7258663,0.999996,-9.313226e-10,-2.8521754e-09,0.0028536618,1
4848000,4848000,0.68767554,0.0012363208,-0.014708849,0.7258681,0.999996,-9.313226e-10,-2.8521754e-09,0.0028536618,1
4852000,4852000,0.6876698,0.0012331055,-0.014707262,0.7258736,0.999996,-9.313226e-10,-2.8521754e-09,0.0028536618,1
4856000,4856000,0.6876679,0.0012284518,-0.014703339,0.7258755,0.999996,-9.313226e-10,-2.8521754e-09,0.0028536618,1
4860000,4860000,0.6876691,0.0012245934,-0.014698638,0.7258744,0.999996,-9.313226e-10,-2.8521754e-09,0.0028536618,1
4868000,4868000,0.68766594,0.0012177243,-0.014689483,0.7258777,0.999996,-9.313226e-10,-2.8521754e-09,0.0028536618,1
4876000,4876000,0.6876737,0.0012114636,-0.014674116,0.7258706,0.999996,-9.313226e-10,-2.8521754e-09,0.0028536618,1
4884000,4884000,0.6876867,0.0012118148,-0.014656869,0.7258587,0.999996,-9.313226e-10,-2.8521754e-09,0.0028536618,1
4892000,4892000,0.6876862,0.0012106268,-0.0146435965,0.7258594,0.999996,-9.313226e-10,-2.8521754e-09,0.0028536618,1
4900000,4900000,0.6876868,0.0012018796,-0.014624619,0.72585917,0.999996,-9.313226e-10,-2.8521754e-09,0.0028536618,1
4908000,4908000,0.687689,0.001193891,-0.014615126,0.7258573,0.999996,-9.313226e-10,-2.8521754e-09,0.0028536618,1
4916000,4916000,0.6877079,0.0011950416,-0.014610182,0.72583956,0.999996,-9.313226e-10,-2.8521754e-09,0.0028536618,1
4920000,4920000,0.68771744,0.001195913,-0.014602728,0.7258306,0.999996,-9.313226e-10,-2.8521754e-09,0.0028536618,1
4924000,4924000,0.68772477,0.0011914065,-0.014593162,0.7258239,0.999996,-9.313226e-10,-2.8521754e-09,0.0028536618,1
4928000,4928000,0.68773293,0.0011874656,-0.014588013,0.72581625,0.999996,-9.313226e-10,-2.8521754e-09,0.0028536618,1
4932000,4932000,0.6877426,0.0011865878,-0.014583535,0.72580725,0.999996,-9.313226e-10,-2.8521754e-09,0.0028536618,1
4936000,4936000,0.6877528,0.0011837588,-0.014574491,0.7257978,0.999996,-9.313226e-10,-2.8521754e-09,0.0028536618,1
4940000,4940000,0.68776417,0.0011790203,-0.0145636145,0.7257872,0.999996,-9.313226e-10,-2.8521754e-09,0.0028536618,1
4944000,4944000,0.6877764,0.0011750842,-0.014553021,0.72577584,0.999996,-9.313226e-10,-2.8521754e-09,0.0028536618,1
4948000,4948000,0.6877867,0.0011699495,-0.014541331,0.7257663,0.999996,-9.313226e-10,-2.8521754e-09,0.0028536618,1
4952000,4952000,0.68779546,0.0011659921,-0.014531792,0.7257582,0.999996,-9.313226e-10,-2.8521754e-09,0.0028536618,1
4956000,4956000,0.6878095,0.001166049,-0.014527413,0.7257449,0.999996,-9.313226e-10,-2.8521754e-09,0.0028536618,1
4960000,4960000,0.687829,0.0011666853,-0.014525943,0.7257264,0.999996,-9.313226e-10,-2.8521754e-09,0.0028536618,1
4964000,4964000,0.68784547,0.0011687452,-0.014523689,0.725711,0.999996,-9.313226e-10,-2.8521754e-09,0.0028536618,1
4968000,4968000,0.68785805,0.0011737383,-0.014520891,0.7256991,0.999996,-9.313226e-10,-2.8521754e-09,0.0028536618,1
4972000,4972000,0.6878722,0.001177196,-0.014515872,0.72568583,0.999996,-9.313226e-10,-2.8521754e-09,0.0028536618,1
4980000,4980000,0.68791133,0.001168973,-0.01450757,0.7256489,0.999996,-9.313226e-10,-2.8521754e-09,0.0028536618,1
4984000,4984000,0.6879294,0.0011680904,-0.014498341,0.7256319,0.999996,-9.313226e-10,-2.8521754e-09,0.0028536618,1
4988000,4988000,0.68794817,0.0011720869,-0.014487851,0.72561425,0.999996,-9.313226e-10,-2.8521754e-09,0.0028536618,1
4992000,4992000,0.6879658,0.0011768424,-0.014478375,0.7255977,0.999996,-9.313226e-10,-2.8521754e-09,0.0028536618,1
4996000,4996000,0.68798226,0.0011849729,-0.014469188,0.72558236,0.999996,-9.313226e-10,-2.8521754e-09,0.0028536618,1
5000000,5000000,0.68799883,0.0011936215,-0.01446439,0.7255667,0.999996,-9.313226e-10,-2.8521754e-09,0.0028536618,1
5004000,5004000,0.68801737,0.001199397,-0.014463434,0.7255491,0.999996,-9.313226e-10,-2.8521754e-09,0.0028536618,1
5012000,5012000,0.68806106,0.00121524,-0.014460763,0.72550774,0.999996,-9.313226e-10,-2.8521754e-09,0.0028536618,1
5020000,5020000,0.6880947,0.0012122422,-0.014450403,0.7254761,0.999996,-9.313226e-10,-2.8521754e-09,0.0028536618,1
5024000,5024000,0.6881102,0.0012084765,-0.014445501,0.7254615,0.999996,-9.313226e-10,-2.8521754e-09,0.0028536618,1
5028000,5028000,0.68812674,0.001207092,-0.014444303,0.7254458,0.999996,-9.313226e-10,-2.8521754e-09,0.0028536618,1
5036000,5036000,0.6881548,0.001215885,-0.0144184865,0.7254196,0.999996,-9.313226e-10,-2.8521754e-09,0.0028536618,1
5040000,5040000,0.68816817,0.0012205625,-0.0144012105,0.7254073,0.999996,-9.313226e-10,-2.8521754e-09,0.0028536618,1
5044000,5044000,0.68818456,0.0012269658,-0.014389913,0.725392,0.999996,-9.313226e-10,-2.8521754e-09,0.0028536618,1
5048000,5048000,0.6881913,0.0012333655,-0.0143828895,0.7253857,0.999996,-9.313226e-10,-2.8521754e-09,0.0028536618,1
5052000,5052000,0.68819416,0.0012385295,-0.014374773,0.7253831,0.999996,-9.313226e-10,-2.8521754e-09,0.0028536618,1
5060000,5060000,0.6881968,0.0012504356,-0.014361019,0.7253809,0.999996,-9.313226e-10,-2.8521754e-09,0.0028536618,1
5068000,5068000,0.6882064,0.0012655024,-0.014337882,0.72537225,0.999996,-9.313226e-10,-2.8521754e-09,0.0028536618,1
5072000,5072000,0.68820703,0.0012745477,-0.014327886,0.72537184,0.999996,-9.313226e-10,-2.8521754e-09,0.0028536618,1
5080000,5080000,0.6882064,0.0012815696,-0.014316557,0.7253727,0.999996,-9.313226e-10,-2.8521754e-09,0.0028536618,1
5084000,5084000,0.6882062,0.0012848002,-0.014313579,0.7253729,0.999996,-9.313226e-10,-2.8521754e-09,0.0028536618,1
5088000,5088000,0.6882044,0.0012880453,-0.014310672,0.7253746,0.999996,-9.313226e-10,-2.8521754e-09,0.0028536618,1
5092000,5092000,0.6882023,0.0012923628,-0.014305855,0.7253767,0.999996,-9.313226e-10,-2.8521754e-09,0.0028536618,1
5096000,5096000,0.68819904,0.0012988414,-0.014296522,0.72538,0.999996,-9.313226e-10,-2.8521754e-09,0.0028536618,1
5100000,5100000,0.68819696,0.0013046297,-0.014288712,0.7253821,0.999996,-9.313226e-10,-2.8521754e-09,0.0028536618,1
5104000,5104000,0.688196,0.0013117029,-0.014284305,0.72538304,0.999996,-9.313226e-10,-2.8521754e-09,0.0028536618,1
5108000,5108000,0.68819463,0.0013228006,-0.014275649,0.7253845,0.999996,-9.313226e-10,-2.8521754e-09,0.0028536618,1
5112000,5112000,0.68819183,0.0013323657,-0.014265563,0.7253873,0.999996,-9.313226e-10,-2.8521754e-09,0.0028536618,1
5116000,5116000,0.6881891,0.0013382455,-0.0142585905,0.7253901,0.999996,-9.313226e-10,-2.8521754e-09,0.0028536618,1
5120000,5120000,0.6881801,0.0013455348,-0.014251095,0.7253988,0.999996,-9.313226e-10,-2.8521754e-09,0.0028536618,1
5124000,5124000,0.68817145,0.0013554571,-0.014243154,0.7254071,0.999996,-9.313226e-10,-2.8521754e-09,0.0028536618,1
5128000,5128000,0.6881652,0.0013611689,-0.014237468,0.7254131,0.999996,-9.313226e-10,-2.8521754e-09,0.0028536618,1
5132000,5132000,0.6881598,0.001360526,-0.014233081,0.7254183,0.999996,-9.313226e-10,-2.8521754e-09,0.0028536618,1
5136000,5136000,0.68815166,0.0013562207,-0.014227925,0.7254262,0.999996,-9.313226e-10,-2.8521754e-09,0.0028536618,1
5140000,5140000,0.6881435,0.0013511229,-0.014221283,0.72543406,0.999996,-9.313226e-10,-2.8521754e-09,0.0028536618,1
5148000,5148000,0.68813103,0.0013553172,-0.014208498,0.7254461,0.999996,-9.313226e-10,-2.8521754e-09,0.0028536618,1
5156000,5156000,0.6881134,0.0013626439,-0.014192393,0.72546315,0.999996,-9.313226e-10,-2.8521754e-09,0.0028536618,1
5160000,5160000,0.68809986,0.0013695991,-0.014185456,0.7254761,0.999996,-9.313226e-10,-2.8521754e-09,0.0028536618,1
5164000,5164000,0.6880863,0.0013773671,-0.014180757,0.725489,0.999996,-9.313226e-10,-2.8521754e-09,0.0028536618,1
5172000,5172000,0.6880601,0.0013804312,-0.014172194,0.725514,0.999996,-9.313226e-10,-2.8521754e-09,0.0028536618,1
5176000,5176000,0.6880513,0.00138453,-0.014170722,0.7255224,0.999996,-9.313226e-10,-2.8521754e-09,0.0028536618,1
5180000,5180000,0.68804365,0.0013863328,-0.01416705,0.72552973,0.999996,-9.313226e-10,-2.8521754e-09,0.0028536618,1
5184000,5184000,0.6880338,0.0013844689,-0.014163345,0.7255391,0.999996,-9.313226e-10,-2.8521754e-09,0.0028536618,1
5188000,5188000,0.68802243,0.0013847735,-0.014157324,0.72555,0.999996,-9.313226e-10,-2.8521754e-09,0.0028536618,1
5192000,5192000,0.6880081,0.0013867309,-0.014148859,0.72556376,0.999996,-9.313226e-10,-2.8521754e-09,0.0028536618,1
5200000,5200000,0.6879893,0.0013883093,-0.014130711,0.72558194,0.999996,-9.313226e-10,-2.8521754e-09,0.0028536618,1
5204000,5204000,0.6879851,0.0013922891,-0.014128823,0.725586,0.999996,-9.313226e-10,-2.8521754e-09,0.0028536618,1
5208000,5208000,0.68797743,0.0013967839,-0.014129412,0.72559327,0.999996,-9.313226e-10,-2.8521754e-09,0.0028536618,1
5212000,5212000,0.68796366,0.0013980465,-0.01412633,0.7256064,0.999996,-9.313226e-10,-2.8521754e-09,0.0028536618,1
5216000,5216000,0.68794847,0.0013966787,-0.014119012,0.7256209,0.999996,-9.313226e-10,-2.8521754e-09,0.0028536618,1
5220000,5220000,0.68793684,0.0013964179,-0.0141082695,0.7256322,0.999996,-9.313226e-10,-2.8521754e-09,0.0028536618,1
5224000,5224000,0.6879287,0.0014001839,-0.014098744,0.72564,0.999996,-9.313226e-10,-2.8521754e-09,0.0028536618,1
5228000,5228000,0.68792087,0.0014066831,-0.014092537,0.7256475,0.999996,-9.313226e-10,-2.8521754e-09,0.0028536618,1
5236000,5236000,0.6879014,0.001406335,-0.0140785985,0.72566634,0.999996,-9.313226e-10,-2.8521754e-09,0.0028536618,1
5244000,5244000,0.6878798,0.0014094601,-0.014066201,0.72568697,0.999996,-9.313226e-10,-2.8521754e-09,0.0028536618,1
5248000,5248000,0.6878717,0.0014123459,-0.014057479,0.72569484,0.999996,-9.313226e-10,-2.8521754e-09,0.0028536618,1
5252000,5252000,0.6878651,0.0014171943,-0.014050586,0.7257013,0.999996,-9.313226e-10,-2.8521754e-09,0.0028536618,1
5260000,5260000,0.6878497,0.001426301,-0.014041997,0.725716,0.999996,-9.313226e-10,-2.8521754e-09,0.0028536618,1
5264000,5264000,0.68785095,0.0014260369,-0.014041919,0.72571474,0.999996,-9.313226e-10,-2.8521754e-09,0.0028536618,1
5268000,5268000,0.68785185,0.0014305486,-0.014037573,0.72571397,0.999996,-9.313226e-10,-2.8521754e-09,0.0028536618,1
5272000,5272000,0.6878521,0.0014404258,-0.014028973,0.7257139,0.999996,-9.313226e-10,-2.8521754e-09,0.0028536618,1
5276000,5276000,0.68785155,0.0014477436,-0.014023834,0.7257145,0.999996,-9.313226e-10,-2.8521754e-09,0.0028536618,1
5280000,5280000,0.68785125,0.0014524369,-0.014023767,0.7257148,0.999996,-9.313226e-10,-2.8521754e-09,0.0028536618,1
5284000,5284000,0.68785125,0.0014601089,-0.01402211,0.72571474,0.999996,-9.313226e-10,-2.8521754e-09,0.0028536618,1
5288000,5288000,0.6878512,0.0014698625,-0.014018231,0.72571486,0.999996,-9.313226e-10,-2.8521754e-09,0.0028536618,1
5292000,5292000,0.68785155,0.0014759398,-0.014017463,0.72571456,0.999996,-9.313226e-10,-2.8521754e-09,0.0028536618,1
5300000,5300000,0.6878564,0.0014784836,-0.014013703,0.7257101,0.999996,-9.313226e-10,-2.8521754e-09,0.0028536618,1
5308000,5308000,0.6878604,0.001484292,-0.013998692,0.72570646,0.999996,-9.313226e-10,-2.8521754e-09,0.0028536618,1
5316000,5316000,0.68786186,0.0014881149,-0.013988001,0.7257053,0.999996,-9.313226e-10,-2.8521754e-09,0.0028536618,1
5320000,5320000,0.6878658,0.0014878303,-0.013985395,0.72570163,0.999996,-9.313226e-10,-2.8521754e-09,0.0028536618,1
5324000,5324000,0.68786854,0.0014879704,-0.013985419,0.725699,0.999996,-9.313226e-10,-2.8521754e-09,0.0028536618,1
5332000,5332000,0.68787724,0.0014928916,-0.013986349,0.7256908,0.999996,-9.313226e-10,-2.8521754e-09,0.0028536618,1
5340000,5340000,0.68789214,0.0014976547,-0.013967159,0.725677,0.999996,-9.313226e-10,-2.8521754e-09,0.0028536618,1
5344000,5344000,0.68790174,0.0015004728,-0.013967075,0.7256679,0.999996,-9.313226e-10,-2.8521754e-09,0.0028536618,1
5352000,5352000,0.68792033,0.0015046822,-0.013964408,0.7256503,0.999996,-9.313226e-10,-2.8521754e-09,0.0028536618,1
5356000,5356000,0.68792856,0.0015079712,-0.013962906,0.72564256,0.999996,-9.313226e-10,-2.8521754e-09,0.0028536618,1
5360000,5360000,0.6879342,0.0015083983,-0.013962711,0.7256372,0.999996,-9.313226e-10,-2.8521754e-09,0.0028536618,1
5364000,5364000,0.6879399,0.0015072996,-0.013961804,0.72563183,0.999996,-9.313226e-10,-2.8521754e-09,0.0028536618,1
5372000,5372000,0.6879509,0.0015155635,-0.013958013,0.7256214,0.999996,-9.313226e-10,-2.8521754e-09,0.0028536618,1
5376000,5376000,0.68795395,0.0015226882,-0.013957448,0.72561854,0.999996,-9.313226e-10,-2.8521754e-09,0.0028536618,1
5384000,5384000,0.687962,0.0015360523,-0.013957176,0.7256109,0.999996,-9.313226e-10,-2.8521754e-09,0.0028536618,1
5388000,5388000,0.68796974,0.0015382328,-0.013958703,0.7256035,0.999996,-9.313226e-10,-2.8521754e-09,0.0028536618,1
5392000,5392000,0.68798023,0.0015383475,-0.0139584765,0.72559357,0.999996,-9.313226e-10,-2.8521754e-09,0.0028536618,1
5396000,5396000,0.68798953,0.0015413914,-0.0139559135,0.7255848,0.999996,-9.313226e-10,-2.8521754e-09,0.0028536618,1
5400000,5400000,0.6879967,0.0015450089,-0.013954168,0.72557807,0.999996,-9.313226e-10,-2.8521754e-09,0.0028536618,1
5404000,5404000,0.6880058,0.0015460383,-0.013952864,0.7255694,0.999996,-9.313226e-10,-2.8521754e-09,0.0028536618,1
5408000,5408000,0.68801486,0.001547255,-0.013951253,0.72556084,0.999996,-9.313226e-10,-2.8521754e-09,0.0028536618,1
5412000,5412000,0.6880211,0.0015529572,-0.01395028,0.7255549,0.999996,-9.313226e-10,-2.8521754e-09,0.0028536618,1
5416000,5416000,0.6880276,0.0015592355,-0.013948608,0.7255488,0.999996,-9.313226e-10,-2.8521754e-09,0.0028536618,1
5420000,5420000,0.6880353,0.0015636234,-0.013945852,0.7255416,0.999996,-9.313226e-10,-2.8521754e-09,0.0028536618,1
5424000,5424000,0.68804234,0.0015670785,-0.013942432,0.725535,0.999996,-9.313226e-10,-2.8521754e-09,0.0028536618,1
5428000,5428000,0.68804985,0.0015660435,-0.013939884,0.72552794,0.999996,-9.313226e-10,-2.8521754e-09,0.0028536618,1
5432000,5432000,0.68805355,0.0015629876,-0.013940088,0.72552437,0.999996,-9.313226e-10,-2.8521754e-09,0.0028536618,1
5436000,5436000,0.6880514,0.001565517,-0.013942039,0.72552633,0.999996,-9.313226e-10,-2.8521754e-09,0.0028536618,1
5440000,5440000,0.68804973,0.0015694959,-0.013946261,0.7255278,0.999996,-9.313226e-10,-2.8521754e-09,0.0028536618,1
5444000,5444000,0.6880512,0.0015670845,-0.013948765,0.72552633,0.999996,-9.313226e-10,-2.8521754e-09,0.0028536618,1
5448000,5448000,0.68805337,0.001561859,-0.013943432,0.7255244,0.999996,-9.313226e-10,-2.8521754e-09,0.0028536618,1
5452000,5452000,0.6880547,0.0015607298,-0.013936862,0.7255233,0.999996,-9.313226e-10,-2.8521754e-09,0.0028536618,1
5460000,5460000,0.688055,0.0015730358,-0.013928312,0.7255232,0.999996,-9.313226e-10,-2.8521754e-09,0.0028536618,1
5464000,5464000,0.6880587,0.0015823388,-0.013923037,0.7255197,0.999996,-9.313226e-10,-2.8521754e-09,0.0028536618,1
5468000,5468000,0.6880624,0.0015882637,-0.0139182275,0.72551626,0.999996,-9.313226e-10,-2.8521754e-09,0.0028536618,1
5472000,5472000,0.6880753,0.0015948166,-0.013914944,0.72550416,0.999996,-9.313226e-10,-2.8521754e-09,0.0028536618,1
5476000,5476000,0.688092,0.00160185,-0.01391277,0.7254883,0.999996,-9.313226e-10,-2.8521754e-09,0.0028536618,1
5480000,5480000,0.68810964,0.0016042031,-0.013910772,0.7254716,0.999996,-9.313226e-10,-2.8521754e-09,0.0028536618,1
5484000,5484000,0.68812466,0.0016023334,-0.013907759,0.72545743,0.999996,-9.313226e-10,-2.8521754e-09,0.0028536618,1
5488000,5488000,0.68813556,0.0016003166,-0.013904777,0.7254471,0.999996,-9.313226e-10,-2.8521754e-09,0.0028536618,1
5492000,5492000,0.6881461,0.0015998383,-0.013903264,0.7254372,0.999996,-9.313226e-10,-2.8521754e-09,0.0028536618,1
5496000,5496000,0.6881556,0.0016011333,-0.013900591,0.7254283,0.999996,-9.313226e-10,-2.8521754e-09,0.0028536618,1
5500000,5500000,0.6881643,0.0016034734,-0.013895254,0.7254201,0.999996,-9.313226e-10,-2.8521754e-09,0.0028536618,1
5504000,5504000,0.6881751,0.001606902,-0.013888768,0.72541,0.999996,-9.313226e-10,-2.8521754e-09,0.0028536618,1
5508000,5508000,0.6881882,0.0016107414,-0.01388189,0.72539765,0.999996,-9.313226e-10,-2.8521754e-09,0.0028536618,1
5512000,5512000,0.68820196,0.0016122886,-0.01387508,0.7253847,0.999996,-9.313226e-10,-2.8521754e-09,0.0028536618,1
5516000,5516000,0.68821293,0.0016142299,-0.013870903,0.72537434,0.999996,-9.313226e-10,-2.8521754e-09,0.0028536618,1
5520000,5520000,0.6882195,0.0016172274,-0.0138685955,0.7253682,0.999996,-9.313226e-10,-2.8521754e-09,0.0028536618,1
5524000,5524000,0.6882245,0.0016208891,-0.013864013,0.72536355,0.999996,-9.313226e-10,-2.8521754e-09,0.0028536618,1
5532000,5532000,0.68823737,0.0016208218,-0.013846382,0.7253517,0.999996,-9.313226e-10,-2.8521754e-09,0.0028536618,1
5536000,5536000,0.68824166,0.0016190588,-0.013839747,0.7253477,0.999996,-9.313226e-10,-2.8521754e-09,0.0028536618,1
5540000,5540000,0.6882428,0.00162004,-0.013839449,0.7253466,0.999996,-9.313226e-10,-2.8521754e-09,0.0028536618,1
5548000,5548000,0.68826085,0.0016281473,-0.0138531355,0.7253292,0.999996,-9.313226e-10,-2.8521754e-09,0.0028536618,1
5552000,5552000,0.6882721,0.0016294883,-0.01385709,0.72531843,0.999996,-9.313226e-10,-2.8521754e-09,0.0028536618,1
5560000,5560000,0.68829525,0.001629926,-0.013851929,0.7252967,0.999996,-9.313226e-10,-2.8521754e-09,0.0028536618,1
5564000,5564000,0.6883077,0.0016318402,-0.013849141,0.7252849,0.999996,-9.313226e-10,-2.8521754e-09,0.0028536618,1
5568000,5568000,0.68832016,0.0016334121,-0.013848296,0.7252731,0.999996,-9.313226e-10,-2.8521754e-09,0.0028536618,1
5572000,5572000,0.6883346,0.0016367359,-0.0138409985,0.72525954,0.999996,-9.313226e-10,-2.8521754e-09,0.0028536618,1
5576000,5576000,0.68835056,0.0016411577,-0.013831835,0.7252445,0.999996,-9.313226e-10,-2.8521754e-09,0.0028536618,1
5580000,5580000,0.68836564,0.0016461477,-0.01383057,0.7252302,0.999996,-9.313226e-10,-2.8521754e-09,0.0028536618,1
5584000,5584000,0.6883796,0.0016508192,-0.013832755,0.7252169,0.999996,-9.313226e-10,-2.8521754e-09,0.0028536618,1
5588000,5588000,0.6883928,0.0016519603,-0.0138301365,0.7252044,0.999996,-9.313226e-10,-2.8521754e-09,0.0028536618,1
5592000,5592000,0.6884038,0.0016503872,-0.013826511,0.72519404,0.999996,-9.313226e-10,-2.8521754e-09,0.0028536618,1
5596000,5596000,0.68841237,0.0016511267,-0.013826597,0.7251859,0.999996,-9.313226e-10,-2.8521754e-09,0.0028536618,1
5604000,5604000,0.6884266,0.0016553957,-0.01382077,0.7251725,0.999996,-9.313226e-10,-2.8521754e-09,0.0028536618,1
5608000,5608000,0.6884357,0.0016563482,-0.013814541,0.72516394,0.999996,-9.313226e-10,-2.8521754e-09,0.0028536618,1
5612000,5612000,0.6884482,0.0016585455,-0.013810157,0.72515213,0.999996,-9.313226e-10,-2.8521754e-09,0.0028536618,1
5616000,5616000,0.68846506,0.0016591909,-0.013808132,0.7251362,0.999996,-9.313226e-10,-2.8521754e-09,0.0028536618,1
5620000,5620000,0.6884803,0.0016579537,-0.0138072865,0.72512174,0.999996,-9.313226e-10,-2.8521754e-09,0.0028536618,1
5628000,5628000,0.68850994,0.0016604799,-0.013795763,0.72509384,0.999996,-9.313226e-10,-2.8521754e-09,0.0028536618,1
5632000,5632000,0.6885243,0.0016622143,-0.013793422,0.72508025,0.999996,-9.313226e-10,-2.8521754e-09,0.0028536618,1
5640000,5640000,0.6885528,0.0016635348,-0.013792598,0.7250532,0.999996,-9.313226e-10,-2.8521754e-09,0.0028536618,1
5644000,5644000,0.6885643,0.001661119,-0.013791536,0.72504234,0.999996,-9.313226e-10,-2.8521754e-09,0.0028536618,1
5648000,5648000,0.6885736,0.0016579478,-0.013791284,0.72503346,0.999996,-9.313226e-10,-2.8521754e-09,0.0028536618,1
5652000,5652000,0.68858296,0.0016544102,-0.01379142,0.7250246,0.999996,-9.313226e-10,-2.8521754e-09,0.0028536618,1
5656000,5656000,0.688594,0.0016528148,-0.013793664,0.72501403,0.999996,-9.313226e-10,-2.8521754e-09,0.0028536618,1
5660000,5660000,0.6886062,0.0016524,-0.013797006,0.7250024,0.999996,-9.313226e-10,-2.8521754e-09,0.0028536618,1
5664000,5664000,0.68861747,0.0016505126,-0.01380193,0.7249916,0.999996,-9.313226e-10,-2.8521754e-09,0.0028536618,1
5668000,5668000,0.6886299,0.0016478556,-0.013805365,0.72497976,0.999996,-9.313226e-10,-2.8521754e-09,0.0028536618,1
5672000,5672000,0.6886427,0.0016436322,-0.01380586,0.72496766,0.999996,-9.313226e-10,-2.8521754e-09,0.0028536618,1
5676000,5676000,0.6886561,0.001642435,-0.013806273,0.72495484,0.999996,-9.313226e-10,-2.8521754e-09,0.0028536618,1
5680000,5680000,0.688669,0.0016415883,-0.01380558,0.7249425,0.999996,-9.313226e-10,-2.8521754e-09,0.0028536618,1
5684000,5684000,0.6886802,0.0016365736,-0.013805377,0.724932,0.999996,-9.313226e-10,-2.8521754e-09,0.0028536618,1
5688000,5688000,0.6886926,0.001631352,-0.013806995,0.72492015,0.999996,-9.313226e-10,-2.8521754e-09,0.0028536618,1
5692000,5692000,0.6887062,0.00162872,-0.013805904,0.7249072,0.999996,-9.313226e-10,-2.8521754e-09,0.0028536618,1
5696000,5696000,0.6887198,0.0016252876,-0.013802603,0.7248944,0.999996,-9.313226e-10,-2.8521754e-09,0.0028536618,1
5700000,5700000,0.68873346,0.001619944,-0.01379822,0.7248816,0.999996,-9.313226e-10,-2.8521754e-09,0.0028536618,1
5704000,5704000,0.6887437,0.0016134757,-0.01379578,0.7248719,0.999996,-9.313226e-10,-2.8521754e-09,0.0028536618,1
5708000,5708000,0.6887512,0.0016059518,-0.013798268,0.7248647,0.999996,-9.313226e-10,-2.8521754e-09,0.0028536618,1
5712000,5712000,0.68876076,0.0016010941,-0.013799575,0.72485566,0.999996,-9.313226e-10,-2.8521754e-09,0.0028536618,1
5716000,5716000,0.688773,0.0015995126,-0.0137943905,0.72484416,0.999996,-9.313226e-10,-2.8521754e-09,0.0028536618,1
5720000,5720000,0.6887838,0.0015971716,-0.013789246,0.7248339,0.999996,-9.313226e-10,-2.8521754e-09,0.0028536618,1
5724000,5724000,0.6887939,0.0015938113,-0.013789027,0.7248243,0.999996,-9.313226e-10,-2.8521754e-09,0.0028536618,1
5728000,5728000,0.68880373,0.0015927248,-0.013788767,0.724815,0.999996,-9.313226e-10,-2.8521754e-09,0.0028536618,1
5732000,5732000,0.6888136,0.0015923145,-0.013785477,0.7248057,0.999996,-9.313226e-10,-2.8521754e-09,0.0028536618,1
5740000,5740000,0.68882686,0.0015891274,-0.013778244,0.72479326,0.999996,-9.313226e-10,-2.8521754e-09,0.0028536618,1
5748000,5748000,0.6888416,0.0015926613,-0.013773365,0.72477937,0.999996,-9.313226e-10,-2.8521754e-09,0.0028536618,1
5752000,5752000,0.6888506,0.0015921275,-0.013771113,0.72477084,0.999996,-9.313226e-10,-2.8521754e-09,0.0028536618,1
5760000,5760000,0.6888709,0.0015809324,-0.013767191,0.72475153,0.999996,-9.313226e-10,-2.8521754e-09,0.0028536618,1
5764000,5764000,0.6888823,0.001574288,-0.013760523,0.7247409,0.999996,-9.313226e-10,-2.8521754e-09,0.0028536618,1
5772000,5772000,0.68890196,0.0015660634,-0.0137620075,0.7247222,0.999996,-9.313226e-10,-2.8521754e-09,0.0028536618,1
5780000,5780000,0.68892,0.0015675547,-0.013766486,0.724705,0.999996,-9.313226e-10,-2.8521754e-09,0.0028536618,1
5788000,5788000,0.68894017,0.0015629965,-0.013773597,0.72468567,0.999996,-9.313226e-10,-2.8521754e-09,0.0028536618,1
5792000,5792000,0.68894756,0.0015599185,-0.013772578,0.7246787,0.999996,-9.313226e-10,-2.8521754e-09,0.0028536618,1
5796000,5796000,0.6889549,0.0015598712,-0.013772236,0.7246717,0.999996,-9.313226e-10,-2.8521754e-09,0.0028536618,1
5800000,5800000,0.6889637,0.0015610923,-0.013771404,0.7246634,0.999996,-9.313226e-10,-2.8521754e-09,0.0028536618,1
5804000,5804000,0.6889752,0.0015626937,-0.013768672,0.7246525,0.999996,-9.313226e-10,-2.8521754e-09,0.0028536618,1
5808000,5808000,0.68898976,0.0015645295,-0.0137681095,0.7246387,0.999996,-9.313226e-10,-2.8521754e-09,0.0028536618,1
5816000,5816000,0.6890139,0.0015563285,-0.013773237,0.72461563,0.999996,-9.313226e-10,-2.8521754e-09,0.0028536618,1
5824000,5824000,0.6890227,0.0015472774,-0.013775581,0.7246072,0.999996,-9.313226e-10,-2.8521754e-09,0.0028536618,1
5828000,5828000,0.6890209,0.0015455964,-0.013771924,0.724609,0.999996,-9.313226e-10,-2.8521754e-09,0.0028536618,1
5832000,5832000,0.68901706,0.0015437009,-0.013771588,0.72461265,0.999996,-9.313226e-10,-2.8521754e-09,0.0028536618,1
5836000,5836000,0.68901443,0.0015384866,-0.013773217,0.7246151,0.999996,-9.313226e-10,-2.8521754e-09,0.0028536618,1
5840000,5840000,0.68901306,0.0015356424,-0.013773955,0.72461647,0.999996,-9.313226e-10,-2.8521754e-09,0.0028536618,1
5848000,5848000,0.68900734,0.001539297,-0.013770224,0.7246219,0.999996,-9.313226e-10,-2.8521754e-09,0.0028536618,1
5852000,5852000,0.68900436,0.0015368401,-0.013768244,0.7246249,0.999996,-9.313226e-10,-2.8521754e-09,0.0028536618,1
5856000,5856000,0.68900234,0.0015327472,-0.013771125,0.72462666,0.999996,-9.313226e-10,-2.8521754e-09,0.0028536618,1
5860000,5860000,0.68899965,0.0015278488,-0.013772522,0.7246292,0.999996,-9.313226e-10,-2.8521754e-09,0.0028536618,1
5864000,5864000,0.6889938,0.0015195719,-0.013774116,0.72463477,0.999996,-9.313226e-10,-2.8521754e-09,0.0028536618,1
5872000,5872000,0.6889813,0.0015060192,-0.013774161,0.7246467,0.999996,-9.313226e-10,-2.8521754e-09,0.0028536618,1
5876000,5876000,0.68897814,0.0014993795,-0.013775655,0.7246497,0.999996,-9.313226e-10,-2.8521754e-09,0.0028536618,1
5880000,5880000,0.68897456,0.0014924206,-0.013776729,0.72465307,0.999996,-9.313226e-10,-2.8521754e-09,0.0028536618,1
5884000,5884000,0.6889699,0.0014849209,-0.01377217,0.7246576,0.999996,-9.313226e-10,-2.8521754e-09,0.0028536618,1
5888000,5888000,0.68896455,0.0014774749,-0.013767563,0.72466284,0.999996,-9.313226e-10,-2.8521754e-09,0.0028536618,1
5892000,5892000,0.6889576,0.0014708479,-0.013766705,0.72466946,0.999996,-9.313226e-10,-2.8521754e-09,0.0028536618,1
5896000,5896000,0.6889472,0.0014654042,-0.013765478,0.7246794,0.999996,-9.313226e-10,-2.8521754e-09,0.0028536618,1
5900000,5900000,0.68893987,0.0014611768,-0.0137653425,0.7246864,0.999996,-9.313226e-10,-2.8521754e-09,0.0028536618,1
5904000,5904000,0.68893176,0.0014585743,-0.013768143,0.724694,0.999996,-9.313226e-10,-2.8521754e-09,0.0028536618,1
5908000,5908000,0.6889229,0.0014553186,-0.013775483,0.72470236,0.999996,-9.313226e-10,-2.8521754e-09,0.0028536618,1
5912000,5912000,0.6889114,0.0014505963,-0.013785088,0.724713,0.999996,-9.313226e-10,-2.8521754e-09,0.0028536618,1
5916000,5916000,0.6888988,0.0014480345,-0.013791629,0.7247249,0.999996,-9.313226e-10,-2.8521754e-09,0.0028536618,1
5920000,5920000,0.68888915,0.0014487978,-0.013792401,0.72473407,0.999996,-9.313226e-10,-2.8521754e-09,0.0028536618,1
5924000,5924000,0.6888795,0.0014498897,-0.013791282,0.72474325,0.999996,-9.313226e-10,-2.8521754e-09,0.0028536618,1
5928000,5928000,0.6888693,0.0014484221,-0.013792841,0.7247529,0.999996,-9.313226e-10,-2.8521754e-09,0.0028536618,1
5932000,5932000,0.68885994,0.0014446912,-0.013793704,0.72476184,0.999996,-9.313226e-10,-2.8521754e-09,0.0028536618,1
5940000,5940000,0.68884504,0.001441192,-0.013799044,0.72477585,0.999996,-9.313226e-10,-2.8521754e-09,0.0028536618,1
5944000,5944000,0.6888365,0.0014382724,-0.013800598,0.7247839,0.999996,-9.313226e-10,-2.8521754e-09,0.0028536618,1
5948000,5948000,0.6888254,0.0014322131,-0.013799223,0.72479457,0.999996,-9.313226e-10,-2.8521754e-09,0.0028536618,1
5952000,5952000,0.6888115,0.0014273925,-0.013798814,0.7248078,0.999996,-9.313226e-10,-2.8521754e-09,0.0028536618,1
5960000,5960000,0.6887888,0.0014244112,-0.013798814,0.7248294,0.999996,-9.313226e-10,-2.8521754e-09,0.0028536618,1
5964000,5964000,0.68878126,0.0014225655,-0.013801577,0.72483647,0.999996,-9.313226e-10,-2.8521754e-09,0.0028536618,1
5968000,5968000,0.6887724,0.0014197188,-0.013803856,0.7248449,0.999996,-9.313226e-10,-2.8521754e-09,0.0028536618,1
5972000,5972000,0.68876195,0.0014172095,-0.013805754,0.72485477,0.999996,-9.313226e-10,-2.8521754e-09,0.0028536618,1
5976000,5976000,0.6887495,0.0014178163,-0.013808199,0.72486657,0.999996,-9.313226e-10,-2.8521754e-09,0.0028536618,1
5980000,5980000,0.6887347,0.0014202708,-0.013810977,0.7248806,0.999996,-9.313226e-10,-2.8521754e-09,0.0028536618,1
5988000,5988000,0.6887165,0.0014155299,-0.013819139,0.72489774,0.999996,-9.313226e-10,-2.8521754e-09,0.0028536618,1
5992000,5992000,0.68870914,0.001410865,-0.013823337,0.72490466,0.999996,-9.313226e-10,-2.8521754e-09,0.0028536618,1
5996000,5996000,0.68870145,0.0014076215,-0.013824485,0.7249119,0.999996,-9.313226e-10,-2.8521754e-09,0.0028536618,1
6000000,6000000,0.6886964,0.0014014115,-0.013821056,0.72491676,0.999996,-9.313226e-10,-2.8521754e-09,0.0028536618,1
6004000,6004000,0.68869174,0.0013921972,-0.013817706,0.7249212,0.999996,-9.313226e-10,-2.8521754e-09,0.0028536618,1
6008000,6008000,0.68868494,0.0013873397,-0.013819774,0.7249277,0.999996,-9.313226e-10,-2.8521754e-09,0.0028536618,1
6012000,6012000,0.68867654,0.0013851168,-0.013822905,0.72493565,0.999996,-9.313226e-10,-2.8521754e-09,0.0028536618,1
6016000,6016000,0.6886707,0.0013855811,-0.013821695,0.72494125,0.999996,-9.313226e-10,-2.8521754e-09,0.0028536618,1
6024000,6024000,0.6886612,0.001403791,-0.013825861,0.7249501,0.999996,-9.313226e-10,-2.8521754e-09,0.0028536618,1
6028000,6028000,0.68865734,0.0014101582,-0.013828517,0.7249537,0.999996,-9.313226e-10,-2.8521754e-09,0.0028536618,1
6032000,6032000,0.68866104,0.0014130536,-0.013827754,0.72495025,0.999996,-9.313226e-10,-2.8521754e-09,0.0028536618,1
6036000,6036000,0.6886639,0.0014189074,-0.013825411,0.7249476,0.999996,-9.313226e-10,-2.8521754e-09,0.0028536618,1
6040000,6040000,0.6886654,0.0014244696,-0.013823338,0.72494614,0.999996,-9.313226e-10,-2.8521754e-09,0.0028536618,1
6044000,6044000,0.6886669,0.001428584,-0.013823562,0.7249447,0.999996,-9.313226e-10,-2.8521754e-09,0.0028536618,1
6052000,6052000,0.6886745,0.001435661,-0.01382683,0.7249374,0.999996,-9.313226e-10,-2.8521754e-09,0.0028536618,1
6060000,6060000,0.6886857,0.0014421861,-0.013828395,0.72492677,0.999996,-9.313226e-10,-2.8521754e-09,0.0028536618,1
6064000,6064000,0.6886859,0.0014416318,-0.013828056,0.72492653,0.999996,-9.313226e-10,-2.8521754e-09,0.0028536618,1
6068000,6068000,0.68868613,0.0014436261,-0.013824263,0.7249264,0.999996,-9.313226e-10,-2.8521754e-09,0.0028536618,1
6072000,6072000,0.6886892,0.0014447261,-0.013821864,0.72492355,0.999996,-9.313226e-10,-2.8521754e-09,0.0028536618,1
6076000,6076000,0.6886934,0.001444825,-0.013823632,0.72491956,0.999996,-9.313226e-10,-2.8521754e-09,0.0028536618,1
6084000,6084000,0.6886999,0.0014347982,-0.013821628,0.72491336,0.999996,-9.313226e-10,-2.8521754e-09,0.0028536618,1
