timestamp,timestamp_sample,time_last_fuse,device_id,observation,observation_variance,innovation,innovation_variance,test_ratio,estimator_instance,fusion_enabled,innovation_rejected,fused
3388000,3306914,0,0,-0.0015258789,12.25,-4.627742e-06,112.42326,7.619773e-15,3,0,0,0
3452000,3366907,0,0,0.030761719,12.25,-0.02955934,112.25,3.1136022e-07,3,0,0,0
3508000,3427031,0,0,-0.0066833496,12.25,0.0072169355,112.25,1.8560057e-08,3,0,0,0
3572000,3487060,0,0,-0.070617676,12.25,0.0698865,112.25,1.7404445e-06,3,0,0,0
3628000,3547167,0,0,-0.04083252,12.25,0.041787267,62.249985,1.1220409e-06,3,0,0,0
3692000,3607192,0,0,-0.12542725,12.25,0.12633646,62.249985,1.02560025e-05,3,0,0,0
3748000,3667283,0,0,0.034973145,12.25,-0.03417367,62.249985,7.504193e-07,3,0,0,0
3812000,3727305,0,0,0.0057373047,12.25,-0.0054131187,45.58333,2.5712781e-08,3,0,0,0
3868000,3785378,0,0,0.013336182,12.25,-0.013308794,45.58333,1.5542875e-07,3,0,0,0
3932000,3847396,0,0,-0.12362671,12.25,0.12325277,45.58333,1.33305275e-05,3,0,0,0
3988000,3907465,0,0,0.061523438,12.25,-0.062294073,45.58337,3.4052346e-06,3,0,0,0
4052000,3967486,3972000,0,0.033355713,12.25,-0.034363795,37.250053,1.268047e-06,3,0,0,0
4108000,4027540,4028000,0,-0.017242432,12.25,0.015801832,37.250107,2.6813117e-07,3,1,0,1
4172000,4087558,4092000,0,-0.11114502,12.25,0.098555446,20.471523,1.89789e-05,3,1,0,1
4228000,4147608,4148000,0,-0.059509277,12.25,0.0067860186,17.169733,1.0728192e-07,3,1,0,1
4292000,4207620,4212000,0,-0.12054443,12.25,0.06531516,15.760109,1.08275135e-05,3,1,0,1
4348000,4267660,4268000,0,-0.068878174,12.25,-0.0014749989,14.978399,5.810025e-09,3,1,0,1
4412000,4327670,4332000,0,0.14706421,12.25,-0.21787466,14.481504,0.00013111722,3,1,0,1
4468000,4387707,4388000,0,0.024993896,12.25,-0.06261876,14.13773,1.1094028e-05,3,1,0,1
4532000,4447716,4452000,0,-0.22381592,12.25,0.19384763,13.885815,0.00010824544,3,1,0,1
4588000,4506748,4508000,0,-0.050109863,12.25,-0.0033476017,13.693262,3.2735624e-08,3,1,0,1
4644000,4563756,4564000,0,0.043792725,12.25,-0.09759767,13.541327,2.8136994e-05,3,1,0,1
4700000,4615779,4620000,0,-0.031341553,12.25,-0.013338704,13.418316,5.303826e-07,3,1,0,1
4756000,4675790,4676000,0,0.029693604,12.25,-0.07386431,13.316813,1.6388112e-05,3,1,0,1
4820000,4734476,4740000,0,-0.0031738281,12.25,-0.035856657,13.23165,3.8867406e-06,3,1,0,1
4876000,4795820,4796000,0,0.03439331,12.25,-0.07072007,13.158957,1.5202811e-05,3,1,0,1
4940000,4854501,4860000,0,-0.07357788,12.25,0.04143436,13.09651,5.243553e-06,3,1,0,1
4996000,4915845,4916000,0,-0.0031738281,12.25,-0.032276228,13.042137,3.1950433e-06,3,1,0,1
5060000,4975858,4980000,0,-0.0031738281,12.25,-0.031033747,12.994473,2.9646246e-06,3,1,0,1
5116000,5035868,5036000,0,-0.087677,12.25,0.055516988,12.95193,9.518692e-06,3,1,0,1
5180000,5095878,5100000,0,0.006225586,12.25,-0.042043645,12.914359,5.475047e-06,3,1,0,1
5236000,5155885,5156000,0,-0.04071045,12.25,0.0064585917,12.880646,1.2953825e-07,3,1,0,1
5300000,5215895,5220000,0,0.024993896,12.25,-0.059191316,12.849889,1.0906279e-05,3,1,0,1
5356000,5275901,5276000,0,0.100128174,12.25,-0.13209417,12.822351,5.4432672e-05,3,1,0,1
5420000,5335910,5340000,0,-0.097076416,12.25,0.07037753,12.797398,1.5481262e-05,3,1,0,1
5476000,5395915,5396000,0,-0.007843018,12.25,-0.022455325,12.774559,1.5788931e-06,3,1,0,1
5540000,5455923,5460000,0,-0.017242432,12.25,-0.011591593,12.753065,4.21436e-07,3,1,0,1
5596000,5515927,5516000,0,-0.097076416,12.25,0.068197764,12.733783,1.4609751e-05,3,1,0,1
5660000,5575934,5580000,0,-0.04071045,12.25,0.00865978,12.716108,2.3589541e-07,3,1,0,1
5716000,5635938,5636000,0,0.0015258789,12.25,-0.0332246,12.698922,3.4770642e-06,3,1,0,1
5780000,5695943,5700000,0,0.05319214,12.25,-0.08427811,12.683729,2.239972e-05,3,1,0,1
5836000,5755946,5756000,0,0.024993896,12.25,-0.053705692,12.669543,9.106252e-06,3,1,0,1
5900000,5815951,5820000,0,-0.017242432,12.25,-0.009066479,12.655581,2.5980964e-07,3,1,0,1
5956000,5875954,5876000,0,-0.13461304,12.25,0.10814959,12.643198,3.700435e-05,3,1,0,1
6020000,5935958,5940000,0,-0.026641846,12.25,-0.0037366524,12.63173,4.4214282e-08,3,1,0,1
6076000,5995960,5996000,0,0.0015258789,12.25,-0.032297827,12.620913,3.3060987e-06,3,1,0,1
6140000,6054630,6060000,0,-0.045410156,12.25,0.01638522,12.60986,8.516365e-07,3,1,0,1
6196000,6115966,6116000,0,-0.021942139,12.25,-0.008012479,12.600268,2.038046e-07,3,1,0,1
6260000,6175969,6180000,0,-0.012542725,12.25,-0.017751805,12.591364,1.001088e-06,3,1,0,1
6316000,6235971,6236000,0,-0.031341553,12.25,0.0024488233,12.5818205,1.9064764e-08,3,1,0,1
6380000,6295973,6300000,0,0.015625,12.25,-0.04509689,12.573852,6.46971e-06,3,1,0,1
6436000,6355975,6356000,0,-0.03604126,12.25,0.0073057096,12.566244,1.698945e-07,3,1,0,1
6500000,6414643,6420000,0,0.020324707,12.25,-0.04973656,12.559181,7.87862e-06,3,1,0,1
6556000,6473979,6476000,0,-0.03604126,12.25,0.008692306,12.551201,2.4079347e-07,3,1,0,1
6604000,6523980,6524000,0,-0.050109863,12.25,0.02222419,12.544595,1.5749081e-06,3,1,0,1
6668000,6582648,6588000,0,-0.017242432,12.25,-0.011592088,12.538555,4.286826e-07,3,1,0,1
6724000,6643983,6644000,0,-0.068878174,12.25,0.03995566,12.532734,5.095312e-06,3,1,0,1
6788000,6703984,6708000,0,-0.007843018,12.25,-0.021359375,12.526042,1.456878e-06,3,1,0,1
6844000,6763985,6764000,0,-0.007843018,12.25,-0.021188144,12.520725,1.4342219e-06,3,1,0,1
6908000,6823987,6828000,0,-0.05480957,12.25,0.025866196,12.515802,2.1382891e-06,3,1,0,1
6964000,6883987,6884000,0,-0.050109863,12.25,0.021304403,12.509718,1.4512799e-06,3,1,0,1
7028000,6943989,6948000,0,0.010925293,12.25,-0.040446736,12.505197,5.2328273e-06,3,1,0,1
7084000,7003989,7004000,0,0.06726074,12.25,-0.096156165,12.500796,2.9585344e-05,3,1,0,1
7148000,7063990,7068000,0,-0.050109863,12.25,0.023404878,12.49543,1.7535637e-06,3,1,0,1
7204000,7123991,7124000,0,0.04849243,12.25,-0.075829625,12.491365,1.8413142e-05,3,1,0,1
7268000,7183992,7188000,0,-0.0031738281,12.25,-0.022882164,12.487616,1.6771604e-06,3,1,0,1
7324000,7243992,7244000,0,-0.0031738281,12.25,-0.022582784,12.483938,1.6340426e-06,3,1,0,1
7388000,7303993,7308000,0,0.029693604,12.25,-0.054793794,12.479167,9.62359e-06,3,1,0,1
7444000,7363993,7364000,0,-0.031341553,12.25,0.0071600713,12.47575,1.6437207e-07,3,1,0,1
7508000,7423994,7428000,0,0.0015258789,12.25,-0.025945874,12.472617,2.1589321e-06,3,1,0,1
7564000,7483994,7484000,0,-0.021942139,12.25,-0.0017904043,12.468142,1.0283963e-08,3,1,0,1
7628000,7543995,7548000,0,0.020324707,12.25,-0.0440894,12.4652195,6.237756e-06,3,1,0,1
7684000,7603995,7604000,0,-0.07357788,12.25,0.050568927,12.462326,8.2078295e-06,3,1,0,1
7748000,7663996,7668000,0,-0.045410156,12.25,0.021532869,12.459697,1.4885255e-06,3,1,0,1
7804000,7721996,7724000,0,-0.04071045,12.25,0.016477026,12.455616,8.7187135e-07,3,1,0,1
7852000,7771996,7772000,0,0.006225586,12.25,-0.030688934,12.452911,3.0251904e-06,3,1,0,1
7916000,7831997,7836000,0,-0.082977295,12.25,0.05903605,12.450567,1.1197097e-05,3,1,0,1
7972000,7891997,7892000,0,0.0015258789,12.25,-0.026405059,12.448218,2.2404079e-06,3,1,0,1
8036000,7951997,7956000,0,-0.059509277,12.25,0.034985453,12.444602,3.934178e-06,3,1,0,1
8092000,8011997,8012000,0,-0.012542725,12.25,-0.012520397,12.4423895,5.039558e-07,3,1,0,1
8156000,8071998,8076000,0,0.024993896,12.25,-0.049874023,12.440409,7.997866e-06,3,1,0,1
8212000,8131998,8132000,0,-0.068878174,12.25,0.044757314,12.436922,6.4428064e-06,3,1,0,1
8276000,8191998,8196000,0,-0.087677,12.25,0.06288469,12.435048,1.2720447e-05,3,1,0,1
8332000,8251998,8252000,0,-0.05480957,12.25,0.029068796,12.433151,2.718522e-06,3,1,0,1
8396000,8311998,8316000,0,0.010925293,12.25,-0.03693522,12.430012,4.390054e-06,3,1,0,1
8452000,8369999,8372000,0,-0.04071045,12.25,0.015149247,12.428213,7.3864095e-07,3,1,0,1
8500000,8419999,8420000,0,-0.1956482,12.25,0.16977552,12.426375,9.278241e-05,3,1,0,1
8564000,8479999,8484000,0,-0.012542725,12.25,-0.015835773,12.424869,8.073219e-07,3,1,0,1
8620000,8539999,8540000,0,-0.059509277,12.25,0.031465326,12.421823,3.1881527e-06,3,1,0,1
8684000,8599999,8604000,0,-0.031341553,12.25,0.002811741,12.420386,2.5461008e-08,3,1,0,1
8740000,8659999,8660000,0,-0.09237671,12.25,0.06379795,12.418908,1.3109618e-05,3,1,0,1
8804000,8719999,8724000,0,-0.035858154,12.250135,-0.035674177,13.250135,3.841914e-06,3,1,0,1
8860000,8779999,8780000,0,-0.04055786,12.251081,-0.0282842,13.1756315,2.428714e-06,3,1,0,1
8924000,8839999,8844000,0,-0.13446045,12.252164,0.06760299,13.111901,1.39420345e-05,3,1,0,1
8980000,8899999,8900000,0,0.090911865,12.25311,-0.16218692,13.056565,8.058658e-05,3,1,0,1
9044000,8958666,8964000,0,-0.09222412,12.254191,0.030953564,13.00831,2.9461878e-06,3,1,0,1
9100000,9020000,9020000,0,-0.031188965,12.2551365,-0.031847797,12.965675,3.1291304e-06,3,1,0,1
9164000,9080000,9084000,0,-0.12979126,12.256216,0.068529606,12.928008,1.4530643e-05,3,1,0,1
9220000,9138000,9140000,0,-0.0921936,12.257159,0.023228668,12.646339,1.7066473e-06,3,1,0,1
9284000,9198666,9204000,0,-0.10159302,12.258238,0.031954765,12.635567,3.2324854e-06,3,1,0,1
9340000,9260000,9260000,0,-0.15319824,12.259178,0.08268007,12.62541,2.165789e-05,3,1,0,1
9404000,9320000,9324000,0,-0.007598877,12.260254,-0.06523333,12.6160965,1.3491929e-05,3,1,0,1
9460000,9380000,9380000,0,-0.06869507,12.261192,-0.0022886023,12.607122,1.6618227e-08,3,1,0,1
9524000,9440000,9444000,0,-0.054595947,12.262263,-0.01627677,12.598977,8.411261e-07,3,1,0,1
9580000,9500000,9500000,0,-0.017089844,12.263198,-0.053292498,12.591187,9.022471e-06,3,1,0,1
9644000,9558666,9564000,0,-0.031219482,12.264266,-0.03814862,12.506511,4.65459e-06,3,1,0,1
9700000,9620000,9620000,0,-0.1298523,12.265196,0.06128096,12.502986,1.20142695e-05,3,1,0,1
9764000,9678666,9684000,0,0.0016784668,12.266259,-0.0713168,12.499838,1.6275688e-05,3,1,0,1
9820000,9740000,9740000,0,-0.068847656,12.267185,0.00065104663,12.496706,1.356715e-09,3,1,0,1
9884000,9800000,9804000,0,0.0015869141,12.268243,-0.06980259,12.4937105,1.5599535e-05,3,1,0,1
9940000,9860000,9860000,0,-0.03137207,12.269163,-0.03546354,12.490894,4.0274545e-06,3,1,0,1
10004000,9920000,9924000,0,-0.07839966,12.270215,0.012824833,12.449348,5.2846576e-07,3,1,0,1
10060000,9980000,9980000,0,-0.09713745,12.271129,0.031316884,12.447801,3.1515517e-06,3,1,0,1
10124000,10040000,10044000,0,-0.0031738281,12.272175,-0.06287634,12.446712,1.2705151e-05,3,1,0,1
10180000,10100000,10100000,0,-0.0126953125,12.273082,-0.05228086,12.445531,8.784802e-06,3,1,0,1
10244000,10160000,10164000,0,-0.09259033,12.27412,0.028605245,12.444633,2.630082e-06,3,1,0,1
10300000,10220000,10220000,0,-0.03149414,12.27502,-0.033010855,12.443275,3.5029896e-06,3,1,0,1
10364000,10280000,10284000,0,-0.050323486,12.2760515,-0.013404466,12.442503,5.776321e-07,3,1,0,1
10420000,10340000,10340000,0,-0.21939087,12.276943,0.15642387,12.418356,7.881374e-05,3,1,0,1
10484000,10398666,10404000,0,0.053253174,12.2779665,-0.11813661,12.417909,4.495526e-05,3,1,0,1
10540000,10460000,10460000,0,-0.15359497,12.27885,0.090313986,12.417616,2.627434e-05,3,1,0,1
10604000,10518666,10524000,0,-0.08294678,12.279864,0.018954024,12.417579,1.1572466e-06,3,1,0,1
10660000,10580000,10580000,0,-0.04537964,12.280739,-0.018564,12.417399,1.1101265e-06,3,1,0,1
10724000,10638666,10644000,0,-0.10177612,12.281745,0.037847377,12.416995,4.614398e-06,3,1,0,1
10780000,10700000,10700000,0,-0.05001831,12.28261,-0.013980158,12.416868,6.2961067e-07,3,1,0,1
10844000,10760000,10764000,0,0.034454346,12.283606,-0.09835166,12.401351,3.1199983e-05,3,1,0,1
10900000,10820000,10820000,0,-0.08319092,12.284461,0.01989188,12.401121,1.276294e-06,3,1,0,1
10964000,10880000,10884000,0,-0.05026245,12.285447,-0.012804449,12.401546,5.288176e-07,3,1,0,1
11020000,10940000,10940000,0,-0.012756348,12.286292,-0.04977242,12.401807,7.990106e-06,3,1,0,1
11084000,11000000,11004000,0,-0.13027954,12.287268,0.06875725,12.402325,1.5247335e-05,3,1,0,1
11140000,11060000,11060000,0,-0.15823364,12.288102,0.095558666,12.402052,2.9451445e-05,3,1,0,1
11204000,11120000,11124000,0,-0.031158447,12.289066,-0.03216616,12.391024,3.3400368e-06,3,1,0,1
11260000,11180000,11180000,0,-0.040649414,12.289889,-0.02185437,12.39153,1.541742e-06,3,1,0,1
11324000,11240000,11244000,0,-0.13931274,12.290843,0.076413065,12.391699,1.884796e-05,3,1,0,1
11380000,11300000,11300000,0,-0.00289917,12.291655,-0.060043544,12.392216,1.1637071e-05,3,1,0,1
11444000,11360000,11364000,0,0.010986328,12.292596,-0.07271731,12.392983,1.70671e-05,3,1,0,1
11500000,11420000,11420000,0,-0.059692383,12.293396,-0.0007587597,12.39357,1.8581128e-09,3,1,0,1
11564000,11480000,11484000,0,-0.05029297,12.294326,-0.010919895,12.393666,3.8485499e-07,3,1,0,1
11620000,11538000,11540000,0,0.015380859,12.295114,-0.07778706,12.385333,1.9541907e-05,3,1,0,1
11684000,11598666,11604000,0,-0.07879639,12.296031,0.017824847,12.386254,1.0260572e-06,3,1,0,1
11740000,11660000,11660000,0,0.02456665,12.296806,-0.086724296,12.386284,2.428849e-05,3,1,0,1
11804000,11720000,11724000,0,-0.08843994,12.297711,0.027822822,12.387201,2.4997073e-06,3,1,0,1
11860000,11778000,11780000,0,-0.05545044,12.298474,-0.004503172,12.387931,6.547843e-08,3,1,0,1
11908000,11828000,11828000,0,-0.06488037,12.299095,0.0057219565,12.388458,1.0571384e-07,3,1,0,1
11972000,11888000,11892000,0,-0.08831787,12.299982,0.027923629,12.388622,2.517565e-06,3,1,0,1
12028000,11948000,11948000,0,-0.11166382,12.300727,0.05034751,12.382177,8.188776e-06,3,1,0,1
12092000,12008000,12012000,0,-0.055114746,12.301601,-0.0055584796,12.383224,9.980178e-08,3,1,0,1
12148000,12068000,12068000,0,-0.012908936,12.302332,-0.048910763,12.383272,7.727401e-06,3,1,0,1
12212000,12128000,12132000,0,-0.027191162,12.303193,-0.033468686,12.384305,3.617976e-06,3,1,0,1
12268000,12188000,12188000,0,-0.09777832,12.303911,0.03812512,12.38514,4.694415e-06,3,1,0,1
12332000,12248000,12252000,0,-0.14456177,12.304758,0.085601285,12.38624,2.3663613e-05,3,1,0,1
12388000,12308000,12308000,0,0.034210205,12.305462,-0.095016494,12.38617,2.915553e-05,3,1,0,1
12452000,12368000,12372000,0,-0.09768677,12.306295,0.037423585,12.381234,4.524669e-06,3,1,0,1
12508000,12428000,12428000,0,-0.074035645,12.306986,0.0143254325,12.382133,6.629489e-07,3,1,0,1
12572000,12486666,12492000,0,-0.13500977,12.307805,0.07412982,12.382384,1.7751769e-05,3,1,0,1
12628000,12548000,12548000,0,-0.01260376,12.308482,-0.04800129,12.383263,7.442703e-06,3,1,0,1
12692000,12608000,12612000,0,-0.11138916,12.309287,0.051923506,12.384402,8.7078915e-06,3,1,0,1
12748000,12668000,12668000,0,-0.11584473,12.30995,0.05686776,12.385335,1.0444424e-05,3,1,0,1
12812000,12728000,12732000,0,-0.07333374,12.310741,0.011844512,12.380286,4.53277e-07,3,1,0,1
12868000,12788000,12788000,0,-0.16247559,12.31139,0.10167554,12.381206,3.3398734e-05,3,1,0,1
12932000,12848000,12852000,0,-0.058654785,12.312167,-0.0018174276,12.382387,1.0670133e-08,3,1,0,1
12988000,12908000,12908000,0,-0.016418457,12.312801,-0.045374494,12.38236,6.6508956e-06,3,1,0,1
13052000,12968000,12972000,0,-0.06359863,12.313564,0.0029175133,12.383514,2.7494242e-08,3,1,0,1
13108000,13028000,13028000,0,-0.096466064,12.314184,0.036556683,12.3844595,4.3163486e-06,3,1,0,1
13172000,13086666,13092000,0,-0.15731812,12.314933,0.09812008,12.385676,3.1092528e-05,3,1,0,1
13228000,13148000,13148000,0,-0.044128418,12.315539,-0.017927673,12.380968,1.0383726e-06,3,1,0,1
13292000,13208000,13212000,0,-0.091156006,12.316274,0.030023366,12.382148,2.9119424e-06,3,1,0,1
13348000,13268000,13268000,0,0.026367188,12.316866,-0.08690277,12.38312,2.4394792e-05,3,1,0,1
13412000,13328000,13332000,0,0.01651001,12.317586,-0.077887155,12.383272,1.9595494e-05,3,1,0,1
13468000,13386000,13388000,0,-0.049621582,12.318164,-0.0105947405,12.384214,3.6255358e-07,3,1,0,1
13516000,13436000,13436000,0,-0.05908203,12.3186,-0.00043349713,12.384934,6.0693023e-10,3,1,0,1
13580000,13496000,13500000,0,-0.07788086,12.319302,0.01923225,12.386171,1.1944917e-06,3,1,0,1
13636000,13556000,13556000,0,-0.054260254,12.3198595,-0.007119186,12.3819,1.6373194e-07,3,1,0,1
13700000,13616000,13620000,0,-0.12942505,12.320547,0.06886698,12.38309,1.53198e-05,3,1,0,1
13756000,13676000,13676000,0,-0.15249634,12.321092,0.09229994,12.384068,2.75169e-05,3,1,0,1
13820000,13736000,13740000,0,-0.086242676,12.321765,0.024387572,12.384174,1.9210117e-06,3,1,0,1
13876000,13796000,13796000,0,-0.08139038,12.322296,0.020043466,12.385119,1.2974942e-06,3,1,0,1
13940000,13856000,13860000,0,-0.123535156,12.322955,0.06284484,12.386334,1.2754295e-05,3,1,0,1
13996000,13916000,13916000,0,-0.015197754,12.323472,-0.045158517,12.38733,6.5850886e-06,3,1,0,1
14060000,13976000,13980000,0,-0.07650757,12.324118,0.014127631,12.383605,6.4469094e-07,3,1,0,1
14116000,14036000,14036000,0,-0.057617188,12.32462,-0.00425696,12.384557,5.853002e-08,3,1,0,1
14180000,14096000,14100000,0,-0.095214844,12.325253,0.03405037,12.385781,3.7443833e-06,3,1,0,1
14236000,14156000,14156000,0,-0.06213379,12.325742,-0.00042486936,12.38558,5.829811e-10,3,1,0,1
14300000,14216000,14220000,0,-0.010498047,12.32636,-0.051351838,12.3867655,8.515577e-06,3,1,0,1
14356000,14276000,14276000,0,-0.057739258,12.326836,-0.0032189041,12.3877325,3.345679e-08,3,1,0,1
14420000,14334666,14340000,0,0.09246826,12.327441,-0.15377831,12.385433,7.6372846e-05,3,1,0,1
14476000,14392000,14396000,0,0.03515625,12.327903,-0.09699598,12.385229,3.038529e-05,3,1,0,1
14524000,14444000,14444000,0,0.05331421,12.328224,-0.11420165,12.385928,4.211882e-05,3,1,0,1
14588000,14504000,14508000,0,-0.036621094,12.328812,-0.02304329,12.387142,1.7146593e-06,3,1,0,1
14644000,14564000,14564000,0,0.038360596,12.329257,-0.09905116,12.386893,3.1682306e-05,3,1,0,1
14708000,14624000,14628000,0,-0.11251831,12.329831,0.052903734,12.388067,9.0370995e-06,3,1,0,1
14764000,14684000,14684000,0,-0.08401489,12.330263,0.02470338,12.389021,1.9703155e-06,3,1,0,1
14828000,14744000,14748000,0,-0.10266113,12.330825,0.04296409,12.38695,5.9608315e-06,3,1,0,1
14884000,14804000,14804000,0,-0.08828735,12.3312435,0.027289398,12.386696,2.4048747e-06,3,1,0,1
14948000,14864000,14868000,0,-0.10220337,12.331793,0.04158201,12.38787,5.583086e-06,3,1,0,1
15004000,14924000,14924000,0,-0.08312988,12.332199,0.022774093,12.388824,1.6746038e-06,3,1,0,1
15068000,14982666,14988000,0,-0.05480957,12.332735,-0.0065105595,12.388761,1.3685755e-07,3,1,0,1
15124000,15042000,15044000,0,-0.07833862,12.333129,0.017428312,12.389676,9.806425e-07,3,1,0,1
15172000,15092000,15092000,0,-0.04534912,12.333383,-0.015308149,12.390363,7.565216e-07,3,1,0,1
15236000,15152000,15156000,0,-0.11114502,12.333902,0.05009769,12.388468,8.103596e-06,3,1,0,1
15292000,15212000,15212000,0,-0.09674072,12.334281,0.034630444,12.388169,3.8723e-06,3,1,0,1
15356000,15270666,15276000,0,-0.08709717,12.334789,0.025334585,12.389324,2.0722398e-06,3,1,0,1
15412000,15330000,15332000,0,-0.03527832,12.3351555,-0.02614234,12.390259,2.2063202e-06,3,1,0,1
15460000,15380000,15380000,0,-0.026062012,12.3353815,-0.03483811,12.390961,3.9179977e-06,3,1,0,1
15524000,15440000,15444000,0,-0.092041016,12.335875,0.030381057,12.390805,2.9796565e-06,3,1,0,1
15580000,15500000,15500000,0,-0.1105957,12.3362255,0.04924236,12.391722,7.827193e-06,3,1,0,1
15644000,15558666,15564000,0,-0.17599487,12.336707,0.11366566,12.389967,4.171079e-05,3,1,0,1
15700000,15618000,15620000,0,-0.14703369,12.337047,0.08325819,12.3896265,2.2379774e-05,3,1,0,1
15748000,15668000,15668000,0,-0.05255127,12.337246,-0.011202835,12.390264,4.0516815e-07,3,1,0,1
15812000,15728000,15732000,0,-0.01977539,12.337713,-0.04342308,12.391423,6.086674e-06,3,1,0,1
15868000,15788000,15788000,0,-0.01071167,12.338039,-0.05181069,12.39236,8.664524e-06,3,1,0,1
15932000,15848000,15852000,0,-0.025146484,12.338495,-0.038219556,12.392166,4.715026e-06,3,1,0,1
15988000,15908000,15908000,0,-0.08175659,12.33881,0.019049063,12.393061,1.1711936e-06,3,1,0,1
16052000,15966666,15972000,0,-0.10513306,12.339254,0.042606093,12.391417,5.8597957e-06,3,1,0,1
16108000,16028000,16028000,0,-0.11419678,12.339559,0.05059068,12.391038,8.262155e-06,3,1,0,1
16172000,16088000,16092000,0,-0.057495117,12.339993,-0.0058397576,12.392149,1.1007864e-07,3,1,0,1
16228000,16148000,16148000,0,-0.18429565,12.340285,0.12144491,12.393039,4.7603717e-05,3,1,0,1
16292000,16208000,16212000,0,-0.04257202,12.34071,-0.02019348,12.394215,1.3160225e-06,3,1,0,1
16348000,16268000,16268000,0,-0.108428955,12.340992,0.044598624,12.393713,6.4195037e-06,3,1,0,1
16412000,16328000,16332000,0,-0.032989502,12.341405,-0.030968606,12.392143,3.0956858e-06,3,1,0,1
16468000,16388000,16388000,0,0.03253174,12.341678,-0.09584597,12.393026,2.9650384e-05,3,1,0,1
16532000,16448000,16452000,0,-0.1184082,12.342081,0.054424882,12.392847,9.560573e-06,3,1,0,1
16588000,16508000,16508000,0,-0.08984375,12.342343,0.026125602,12.393691,2.2028855e-06,3,1,0,1
16652000,16566666,16572000,0,-0.089660645,12.342736,0.026458167,12.394815,2.2591205e-06,3,1,0,1
16708000,16628000,16628000,0,-0.09887695,12.342989,0.036169678,12.395714,4.221606e-06,3,1,0,1
16772000,16688000,16692000,0,-0.084503174,12.343373,0.020342208,12.395421,1.3353493e-06,3,1,0,1
16828000,16748000,16748000,0,-0.121917725,12.3436165,0.058144055,12.393666,1.0911158e-05,3,1,0,1
16892000,16808000,16812000,0,-0.12619019,12.34399,0.062974356,12.394783,1.2798189e-05,3,1,0,1
16948000,16868000,16868000,0,-0.18203735,12.344224,0.11705207,12.394306,4.4217682e-05,3,1,0,1
17012000,16928000,16932000,0,-0.068481445,12.344589,0.0037774742,12.395381,4.6047187e-08,3,1,0,1
17068000,16988000,16988000,0,0.0019836426,12.344814,-0.066002116,12.396233,1.4056784e-05,3,1,0,1
17132000,17048000,17052000,0,-0.022003174,12.345171,-0.04329115,12.3959675,6.047527e-06,3,1,0,1
17188000,17108000,17108000,0,-0.012969971,12.3453865,-0.051443346,12.396777,8.539051e-06,3,1,0,1
17252000,17168000,17172000,0,-0.008666992,12.345734,-0.054969057,12.395328,9.750762e-06,3,1,0,1
17308000,17228000,17228000,0,-0.16870117,12.345941,0.1060498,12.396172,3.629043e-05,3,1,0,1
17372000,17288000,17292000,0,-0.0552063,12.34628,-0.009426542,12.3959055,2.867388e-07,3,1,0,1
17428000,17348000,17348000,0,-0.1257019,12.346478,0.06181404,12.39671,1.2328998e-05,3,1,0,1
17492000,17408000,17412000,0,-0.04537964,12.346809,-0.017925888,12.3978,1.0367563e-06,3,1,0,1
17548000,17468000,17468000,0,-0.045532227,12.347,-0.019344278,12.397242,1.2073689e-06,3,1,0,1
17612000,17528000,17532000,0,-0.1395874,12.347322,0.07503933,12.395824,1.8170314e-05,3,1,0,1
17668000,17588000,17588000,0,-0.11553955,12.347505,0.051395565,12.396623,8.523303e-06,3,1,0,1
17732000,17648000,17652000,0,-0.021240234,12.347819,-0.042282708,12.397706,5.768252e-06,3,1,0,1
17788000,17708000,17708000,0,0.025360107,12.347994,-0.09026836,12.397146,2.6291138e-05,3,1,0,1
17852000,17768000,17772000,0,-0.069244385,12.348301,0.0053533316,12.398187,9.245919e-08,3,1,0,1
17908000,17828000,17828000,0,-0.012878418,12.348468,-0.050463684,12.399001,8.2154465e-06,3,1,0,1
17972000,17888000,17892000,0,-0.02734375,12.348767,-0.037023142,12.398661,4.4221324e-06,3,1,0,1
18028000,17948000,17948000,0,0.009918213,12.3489275,-0.0741604,12.397029,1.7745428e-05,3,1,0,1
18092000,18008000,18012000,0,-0.02822876,12.349219,-0.035134993,12.398062,3.9827764e-06,3,1,0,1
18148000,18068000,18068000,0,-0.09423828,12.349372,0.031570263,12.398871,3.2153944e-06,3,1,0,1
18212000,18128000,18132000,0,-0.09399414,12.349657,0.030019775,12.398532,2.9073988e-06,3,1,0,1
18268000,18188000,18188000,0,-0.11721802,12.349802,0.053689606,12.399302,9.299149e-06,3,1,0,1
18332000,18248000,18252000,0,0.009979248,12.3500805,-0.07302566,12.400359,1.7201912e-05,3,1,0,1
18388000,18308000,18308000,0,-0.042266846,12.350219,-0.022083923,12.39973,1.5732589e-06,3,1,0,1
18452000,18368000,18372000,0,-0.08468628,12.350491,0.020749636,12.398375,1.3890448e-06,3,1,0,1
18508000,18426000,18428000,0,-0.014099121,12.350622,-0.04924786,12.399139,7.824258e-06,3,1,0,1
18556000,18476000,18476000,0,-0.056732178,12.350617,-0.005843006,12.399673,1.10134266e-07,3,1,0,1
18620000,18536000,18540000,0,-0.019226074,12.350883,-0.04465878,12.39932,6.4339224e-06,3,1,0,1
18676000,18596000,18596000,0,0.032043457,12.351007,-0.09509738,12.40007,2.917245e-05,3,1,0,1
18740000,18654666,18660000,0,-0.015686035,12.351267,-0.04619834,12.401109,6.88418e-06,3,1,0,1
18796000,18716000,18716000,0,-0.04888916,12.351386,-0.01449836,12.400468,6.780469e-07,3,1,0,1
18860000,18776000,18780000,0,-0.11004639,12.351639,0.047363162,12.399139,7.236855e-06,3,1,0,1
18916000,18836000,18836000,0,-0.12844849,12.351752,0.066281915,12.399886,1.417204e-05,3,1,0,1
18980000,18896000,18900000,0,-0.085632324,12.351998,0.024047628,12.40092,1.865308e-06,3,1,0,1
19036000,18956000,18956000,0,-0.1746521,12.352106,0.111321695,12.400281,3.9974966e-05,3,1,0,1
19100000,19016000,19020000,0,-0.03289795,12.352347,-0.030076213,12.401272,2.9176963e-06,3,1,0,1
19156000,19076000,19076000,0,-0.056610107,12.352448,-0.0055173226,12.402036,9.818016e-08,3,1,0,1
19220000,19134666,19140000,0,0.013793945,12.352684,-0.077802174,12.399356,1.9527395e-05,3,1,0,1
19276000,19194000,19196000,0,-0.07608032,12.35278,0.013054043,12.400062,5.4970064e-07,3,1,0,1
19324000,19244000,19244000,0,-0.08532715,12.352739,0.02286186,12.400538,1.6859419e-06,3,1,0,1
19388000,19304000,19308000,0,-0.01473999,12.352969,-0.046997644,12.401555,7.124199e-06,3,1,0,1
19444000,19364000,19364000,0,-0.03390503,12.353061,-0.029267572,12.4009075,2.762994e-06,3,1,0,1
19508000,19424000,19428000,0,-0.029449463,12.353286,-0.03282632,12.401881,3.475496e-06,3,1,0,1
19564000,19484000,19484000,0,0.026611328,12.353373,-0.0880564,12.402631,2.5007372e-05,3,1,0,1
19628000,19544000,19548000,0,-0.08679199,12.353592,0.023779154,12.399976,1.8240298e-06,3,1,0,1
19684000,19604000,19604000,0,-0.13824463,12.353673,0.07577397,12.400665,1.85206e-05,3,1,0,1
19748000,19664000,19668000,0,-0.05307007,12.3538885,-0.008984242,12.401637,2.6034175e-07,3,1,0,1
19804000,19724000,19724000,0,-0.19869995,12.353964,0.13730131,12.402384,6.080009e-05,3,1,0,1
19868000,19784000,19788000,0,-0.06607056,12.354175,0.0028603598,12.401966,2.6388262e-08,3,1,0,1
19924000,19844000,19844000,0,-0.09890747,12.354246,0.036282137,12.402675,4.245515e-06,3,1,0,1
19988000,19904000,19908000,0,0.042266846,12.354451,-0.104310766,12.40367,3.508876e-05,3,1,0,1
20044000,19964000,19964000,0,-0.12765503,12.354518,0.06429551,12.400761,1.3334383e-05,3,1,0,1
20108000,20024000,20028000,0,-0.051971436,12.354718,-0.010964647,12.401688,3.8776494e-07,3,1,0,1
20164000,20084000,20084000,0,-0.019195557,12.354781,-0.043115485,12.402394,5.9954396e-06,3,1,0,1
20228000,20144000,20148000,0,-0.014892578,12.354977,-0.04658834,12.403389,6.999614e-06,3,1,0,1
20284000,20204000,20204000,0,-0.019958496,12.355035,-0.04261288,12.40269,5.8563346e-06,3,1,0,1
20348000,20264000,20268000,0,-0.043823242,12.355227,-0.01792467,12.403643,1.0361273e-06,3,1,0,1
20404000,20324000,20324000,0,-0.0064086914,12.355281,-0.055635188,12.402078,9.983082e-06,3,1,0,1
20468000,20384000,20388000,0,0.09643555,12.355469,-0.15943938,12.401711,8.1991646e-05,3,1,0,1
20524000,20444000,20444000,0,-0.026977539,12.355518,-0.034896523,12.402379,3.927528e-06,3,1,0,1
20588000,20504000,20508000,0,-0.13058472,12.355701,0.06951299,12.403329,1.5583095e-05,3,1,0,1
20644000,20564000,20564000,0,-0.10183716,12.355747,0.041119378,12.404056,5.4524207e-06,3,1,0,1
20708000,20624000,20628000,0,-0.06863403,12.355927,0.006507337,12.403592,1.3655863e-07,3,1,0,1
20764000,20684000,20684000,0,-0.12490845,12.355969,0.06331414,12.40428,1.2926765e-05,3,1,0,1
20828000,20744000,20748000,0,-0.044555664,12.356146,-0.016944565,12.402981,9.259654e-07,3,1,0,1
20884000,20804000,20804000,0,-0.025909424,12.356184,-0.036934793,12.402341,4.3997466e-06,3,1,0,1
20948000,20864000,20868000,0,-0.002746582,12.356356,-0.059274383,12.403249,1.1330749e-05,3,1,0,1
21004000,20924000,20924000,0,-0.05960083,12.35639,-0.0015793778,12.403936,8.044008e-09,3,1,0,1
21068000,20984000,20988000,0,-0.04083252,12.35656,-0.019627627,12.404916,1.2422292e-06,3,1,0,1
21124000,21044000,21044000,0,0.048187256,12.35659,-0.110037535,12.404173,3.904576e-05,3,1,0,1
21188000,21104000,21108000,0,0.023773193,12.356756,-0.084441304,12.405108,2.2991604e-05,3,1,0,1
21244000,21164000,21164000,0,-0.13659668,12.356784,0.07624979,12.403559,1.8749557e-05,3,1,0,1
21308000,21224000,21228000,0,0.03781128,12.356946,-0.09978458,12.4031515,3.2111075e-05,3,1,0,1
21364000,21284000,21284000,0,-0.13208008,12.356971,0.0711203,12.403803,1.631144e-05,3,1,0,1
21428000,21344000,21348000,0,-0.103302,12.357129,0.042867858,12.404737,5.9256495e-06,3,1,0,1
21484000,21404000,21404000,0,-0.037200928,12.357151,-0.022700459,12.405449,1.6615629e-06,3,1,0,1
21548000,21464000,21468000,0,0.042419434,12.3573065,-0.103705466,12.404945,3.467915e-05,3,1,0,1
21604000,21524000,21524000,0,-0.0993042,12.357325,0.038098786,12.403398,4.681032e-06,3,1,0,1
21668000,21584000,21588000,0,-0.080200195,12.357478,0.01961122,12.404333,1.2402118e-06,3,1,0,1
21724000,21644000,21644000,0,-0.13635254,12.357493,0.0741474,12.403654,1.7729735e-05,3,1,0,1
21788000,21704000,21708000,0,-0.00894165,12.357643,-0.05284636,12.40455,9.005528e-06,3,1,0,1
21844000,21764000,21764000,0,0.03286743,12.357656,-0.09384072,12.405222,2.8394754e-05,3,1,0,1
21908000,21824000,21828000,0,-0.04309082,12.357802,-0.01680987,12.406188,9.11067e-07,3,1,0,1
21964000,21884000,21884000,0,-0.09957886,12.357812,0.038345072,12.405408,4.7409794e-06,3,1,0,1
22028000,21944000,21948000,0,-0.061676025,12.357957,0.00062329695,12.40412,1.2528065e-09,3,1,0,1
22084000,22004000,22004000,0,0.004058838,12.357964,-0.064502954,12.404793,1.3416205e-05,3,1,0,1
22148000,22064000,22068000,0,-0.08102417,12.358106,0.019577712,12.404351,1.2359752e-06,3,1,0,1
22204000,22124000,22124000,0,-0.043273926,12.358109,-0.017664012,12.404988,1.0061027e-06,3,1,0,1
22268000,22184000,22188000,0,-0.07159424,12.35825,0.011431925,12.405913,4.2137617e-07,3,1,0,1
22324000,22244000,22244000,0,-0.14660645,12.358251,0.087060034,12.406611,2.4436808e-05,3,1,0,1
22388000,22304000,22308000,0,0.013763428,12.358388,-0.07506027,12.4060755,1.8165436e-05,3,1,0,1
22444000,22364000,22364000,0,-0.02911377,12.358388,-0.031507384,12.404538,3.2011355e-06,3,1,0,1
22508000,22424000,22428000,0,-0.07165527,12.358522,0.011919234,12.405463,4.580825e-07,3,1,0,1
22564000,22484000,22484000,0,-0.07626343,12.35852,0.014944367,12.40475,7.201568e-07,3,1,0,1
22628000,22544000,22548000,0,-0.062042236,12.358651,0.0014530979,12.405635,6.808176e-09,3,1,0,1
22684000,22604000,22604000,0,-0.17941284,12.358646,0.11956031,12.406298,4.6088422e-05,3,1,0,1
22748000,22664000,22668000,0,-0.06100464,12.358776,-0.0008455105,12.405816,2.305009e-09,3,1,0,1
22804000,22724000,22724000,0,-0.046936035,12.358768,-0.014402293,12.404278,6.6888555e-07,3,1,0,1
22868000,22784000,22788000,0,-0.11276245,12.358897,0.05236418,12.405165,8.841504e-06,3,1,0,1
22924000,22844000,22844000,0,-0.07476807,12.358888,0.015009224,12.405828,7.26358e-07,3,1,0,1
22988000,22904000,22908000,0,-0.074645996,12.359013,0.013039306,12.405354,5.482262e-07,3,1,0,1
23044000,22964000,22964000,0,-0.18249512,12.359001,0.12166187,12.405983,4.772411e-05,3,1,0,1
23108000,23024000,23028000,0,-0.045288086,12.359125,-0.014993783,12.406899,7.248016e-07,3,1,0,1
23164000,23082000,23084000,0,-0.14398193,12.359112,0.08164687,12.406149,2.1493248e-05,3,1,0,1
23212000,23132000,23132000,0,-0.08691406,12.358964,0.024331048,12.404368,1.9090046e-06,3,1,0,1
23276000,23192000,23196000,0,-0.072631836,12.359088,0.010994069,12.405247,3.897369e-07,3,1,0,1
23332000,23252000,23252000,0,-0.12887573,12.359075,0.06809588,12.405904,1.4951103e-05,3,1,0,1
23396000,23312000,23316000,0,-0.11886597,12.359198,0.05586546,12.405435,1.0063169e-05,3,1,0,1
23452000,23370000,23372000,0,0.008392334,12.359182,-0.07070879,12.406056,1.6120299e-05,3,1,0,1
23500000,23420000,23420000,0,-0.11428833,12.359033,0.053053994,12.406449,9.075042e-06,3,1,0,1
23564000,23480000,23484000,0,0.017608643,12.359157,-0.07789404,12.407392,1.956086e-05,3,1,0,1
23620000,23540000,23540000,0,-0.04876709,12.359142,-0.014012307,12.404456,6.3314263e-07,3,1,0,1
23684000,23600000,23604000,0,-0.11462402,12.359263,0.052968316,12.405328,9.046573e-06,3,1,0,1
23740000,23660000,23660000,0,-0.07662964,12.359248,0.015734341,12.40598,7.982263e-07,3,1,0,1
23804000,23720000,23724000,0,-0.0013427734,12.359367,-0.061511718,12.405514,1.2200031e-05,3,1,0,1
23860000,23780000,23780000,0,-0.053527832,12.359349,-0.008217726,12.40613,2.1773437e-07,3,1,0,1
23924000,23840000,23844000,0,-0.04888916,12.3594675,-0.011746898,12.407033,4.4487547e-07,3,1,0,1
23980000,23898000,23900000,0,-0.0067443848,12.3594475,-0.052866355,12.40771,9.010048e-06,3,1,0,1
24028000,23948000,23948000,0,-0.09170532,12.359294,0.029480953,12.404528,2.8026109e-06,3,1,0,1
24092000,24008000,24012000,0,-0.0022277832,12.359412,-0.059054445,12.405394,1.1244875e-05,3,1,0,1
24148000,24068000,24068000,0,-0.012145996,12.359394,-0.0479797,12.406039,7.4223585e-06,3,1,0,1
24212000,24128000,24132000,0,0.010925293,12.35951,-0.0728231,12.405577,1.709942e-05,3,1,0,1
24268000,24188000,24188000,0,-0.046081543,12.35949,-0.014704242,12.406187,6.971191e-07,3,1,0,1
24332000,24248000,24252000,0,0.0054626465,12.359606,-0.06525825,12.407084,1.3729701e-05,3,1,0,1
24388000,24308000,24308000,0,-0.013916016,12.359584,-0.044773404,12.407756,6.462595e-06,3,1,0,1
24452000,24366666,24372000,0,-0.17861938,12.359697,0.117741816,12.405085,4.470146e-05,3,1,0,1
24508000,24428000,24428000,0,-0.055511475,12.3596735,-0.0050142594,12.405697,8.106855e-08,3,1,0,1
24572000,24488000,24492000,0,-0.064941406,12.359786,0.0053661615,12.406598,9.283992e-08,3,1,0,1
24628000,24548000,24548000,0,-0.10244751,12.35976,0.041079257,12.405866,5.4409916e-06,3,1,0,1
24692000,24608000,24612000,0,-0.03164673,12.359871,-0.029004704,12.406727,2.712312e-06,3,1,0,1
24748000,24668000,24668000,0,0.0056762695,12.359844,-0.06542076,12.407365,1.3797858e-05,3,1,0,1
24812000,24728000,24732000,0,-0.09820557,12.359954,0.039080244,12.406079,4.9242485e-06,3,1,0,1
24868000,24788000,24788000,0,-0.041534424,12.359925,-0.019569017,12.405358,1.2347774e-06,3,1,0,1
24932000,24848000,24852000,0,-0.055786133,12.360033,-0.0043045804,12.406221,5.974232e-08,3,1,0,1
24988000,24908000,24908000,0,-0.14035034,12.360003,0.081126295,12.406863,2.1218824e-05,3,1,0,1
25052000,24966666,24972000,0,-0.11141968,12.360109,0.05002178,12.406373,8.067396e-06,3,1,0,1
25108000,25028000,25028000,0,0.011108398,12.360079,-0.07184218,12.40698,1.6639982e-05,3,1,0,1
25172000,25088000,25092000,0,-0.05996704,12.360184,0.000511609,12.407874,8.4379903e-10,3,1,0,1
25228000,25148000,25148000,0,0.057403564,12.360152,-0.116186336,12.406331,4.3523796e-05,3,1,0,1
25292000,25208000,25212000,0,0.056365967,12.360255,-0.11664354,12.405851,4.3868706e-05,3,1,0,1
25348000,25268000,25268000,0,-0.14187622,12.360222,0.0829455,12.406461,2.218185e-05,3,1,0,1
25412000,25328000,25332000,0,-0.09887695,12.360324,0.040733565,12.407359,5.3491585e-06,3,1,0,1
25468000,25386000,25388000,0,-0.112579346,12.36029,0.052101124,12.406601,8.751879e-06,3,1,0,1
25516000,25436000,25436000,0,-0.06048584,12.360121,0.0005681515,12.406953,1.0406942e-09,3,1,0,1
25580000,25496000,25500000,0,0.0897522,12.360225,-0.14863731,12.407842,7.1222865e-05,3,1,0,1
25636000,25554000,25556000,0,-0.10406494,12.360191,0.046019558,12.406306,6.8281392e-06,3,1,0,1
25684000,25604000,25604000,0,-0.10366821,12.360024,0.043405816,12.405337,6.075014e-06,3,1,0,1
25748000,25664000,25668000,0,-0.07980347,12.36013,0.020337842,12.406191,1.3336174e-06,3,1,0,1
25804000,25724000,25724000,0,-0.004486084,12.360099,-0.054175336,12.406824,9.462428e-06,3,1,0,1
25868000,25784000,25788000,0,-0.08010864,12.360204,0.019664366,12.406346,1.2467402e-06,3,1,0,1
25924000,25844000,25844000,0,-0.1409607,12.36017,0.08130929,12.406943,2.1314518e-05,3,1,0,1
25988000,25904000,25908000,0,-0.060394287,12.360274,0.0014209561,12.407828,6.5091688e-09,3,1,0,1
26044000,25964000,25964000,0,-0.14022827,12.360241,0.08137629,12.406301,2.1350768e-05,3,1,0,1
26108000,26024000,26028000,0,-0.0925293,12.360342,0.031458724,12.40583,3.1909233e-06,3,1,0,1
26164000,26084000,26084000,0,0.011047363,12.360308,-0.07133177,12.406433,1.6405105e-05,3,1,0,1
26228000,26144000,26148000,0,-0.0881958,12.360408,0.029250126,12.407322,2.7582741e-06,3,1,0,1
26284000,26204000,26204000,0,-0.008117676,12.360373,-0.05320046,12.406576,9.125126e-06,3,1,0,1
26348000,26264000,26268000,0,0.019561768,12.360472,-0.0795967,12.407425,2.0425301e-05,3,1,0,1
26404000,26324000,26324000,0,-0.060943604,12.360435,0.0019302964,12.405892,1.2013789e-08,3,1,0,1
26468000,26384000,26388000,0,-0.018676758,12.360533,-0.03913895,12.406785,4.938773e-06,3,1,0,1
26524000,26444000,26444000,0,-0.14575195,12.360495,0.08572618,12.406048,2.3694825e-05,3,1,0,1
26588000,26504000,26508000,0,-0.088653564,12.360592,0.029469993,12.406901,2.7999915e-06,3,1,0,1
26644000,26564000,26564000,0,-0.0743103,12.360553,0.016094089,12.407534,8.3504005e-07,3,1,0,1
26708000,26624000,26628000,0,-0.13519287,12.360649,0.074531585,12.407029,1.7909066e-05,3,1,0,1
26764000,26684000,26684000,0,-0.10635376,12.360609,0.0464826,12.407626,6.965497e-06,3,1,0,1
26828000,26744000,26748000,0,-0.10592651,12.360704,0.046514083,12.40635,6.9756534e-06,3,1,0,1
26884000,26804000,26804000,0,-0.18530273,12.360663,0.12688495,12.406986,5.190557e-05,3,1,0,1
26948000,26864000,26868000,0,-0.052703857,12.360758,-0.008652799,12.40649,2.4139277e-07,3,1,0,1
27004000,26924000,26924000,0,-0.09976196,12.360715,0.039613154,12.407091,5.059049e-06,3,1,0,1
27068000,26984000,26988000,0,-0.08999634,12.360808,0.031079914,12.407981,3.1139991e-06,3,1,0,1
27124000,27044000,27044000,0,-0.080322266,12.360765,0.01844664,12.407209,1.0970348e-06,3,1,0,1
27188000,27104000,27108000,0,-0.08956909,12.360858,0.02898018,12.408058,2.707437e-06,3,1,0,1
27244000,27164000,27164000,0,-0.07992554,12.360814,0.0198152,12.40653,1.2659207e-06,3,1,0,1
27308000,27222666,27228000,0,-0.051574707,12.360906,-0.0071506575,12.407424,1.6484292e-07,3,1,0,1
27364000,27284000,27284000,0,-0.09390259,12.360861,0.03234853,12.406661,3.3737595e-06,3,1,0,1
27428000,27342666,27348000,0,-0.084228516,12.360952,0.024022363,12.4075165,1.8604011e-06,3,1,0,1
27484000,27400000,27404000,0,-0.004211426,12.360907,-0.054770496,12.408148,9.670443e-06,3,1,0,1
27532000,27452000,27452000,0,-0.046936035,12.360726,-0.015033685,12.407122,7.2865146e-07,3,1,0,1
27596000,27512000,27516000,0,-0.08932495,12.36082,0.028852247,12.407968,2.683605e-06,3,1,0,1
27652000,27572000,27572000,0,0.047058105,12.360776,-0.10658418,12.406446,3.6626723e-05,3,1,0,1
27716000,27632000,27636000,0,-0.014923096,12.360868,-0.04260269,12.407336,5.8513424e-06,3,1,0,1
27772000,27688000,27692000,0,-0.09509277,12.360825,0.03453165,12.406582,3.8445232e-06,3,1,0,1
27820000,27738000,27740000,0,-0.03375244,12.360645,-0.025718499,12.406925,2.1324904e-06,3,1,0,1
27884000,27798666,27804000,0,-0.10910034,12.360741,0.051484317,12.407808,8.545054e-06,3,1,0,1
27940000,27860000,27860000,0,-0.17907715,12.360699,0.12292507,12.408466,4.8710528e-05,3,1,0,1
28004000,27918666,27924000,0,-0.12164307,12.360792,0.06141603,12.405781,1.2161842e-05,3,1,0,1
28060000,27980000,27980000,0,-0.041290283,12.360749,-0.017519902,12.40638,9.896424e-07,3,1,0,1
28124000,28040000,28044000,0,-0.050811768,12.360843,-0.005973723,12.407267,1.1504665e-07,3,1,0,1
28180000,28100000,28100000,0,-0.046173096,12.360799,-0.014372684,12.406518,6.6601774e-07,3,1,0,1
28244000,28160000,28164000,0,0.010040283,12.36089,-0.06868498,12.407366,1.5209116e-05,3,1,0,1
28300000,28220000,28220000,0,-0.0046691895,12.360846,-0.052007742,12.407991,8.7195585e-06,3,1,0,1
28364000,28280000,28284000,0,-0.06616211,12.360937,0.006035436,12.407478,1.17433984e-07,3,1,0,1
28420000,28340000,28340000,0,-0.098968506,12.360891,0.03954427,12.405958,5.04193e-06,3,1,0,1
28484000,28400000,28404000,0,-0.084503174,12.360982,0.02686216,12.40681,2.3263856e-06,3,1,0,1
28540000,28460000,28460000,0,-0.027923584,12.360936,-0.02806076,12.407441,2.5384968e-06,3,1,0,1
28604000,28520000,28524000,0,-0.16900635,12.361026,0.10938898,12.406935,3.857826e-05,3,1,0,1
28660000,28580000,28580000,0,-0.041290283,12.360978,-0.01704704,12.40753,9.3685554e-07,3,1,0,1
28724000,28640000,28644000,0,-0.12124634,12.361067,0.064932026,12.408415,1.359132e-05,3,1,0,1
28780000,28698000,28700000,0,-0.0126953125,12.361019,-0.04775187,12.407634,7.3510905e-06,3,1,0,1
28828000,28748000,28748000,0,-0.14926147,12.360837,0.08999328,12.405869,2.6112773e-05,3,1,0,1
28892000,28808000,28812000,0,-0.0076293945,12.360929,-0.0500327,12.406718,8.070695e-06,3,1,0,1
28948000,28866000,28868000,0,-0.106658936,12.360884,0.05096576,12.407347,8.3741e-06,3,1,0,1
28996000,28916000,28916000,0,-0.12030029,12.360703,0.060204007,12.406351,1.1686022e-05,3,1,0,1
29060000,28976000,28980000,0,-0.0446167,12.360797,-0.013759851,12.407193,6.103992e-07,3,1,0,1
29116000,29036000,29036000,0,-0.11517334,12.360754,0.058654252,12.407814,1.1090822e-05,3,1,0,1
29180000,29094666,29100000,0,-0.048919678,12.360847,-0.0056755133,12.408729,1.03834815e-07,3,1,0,1
29236000,29156000,29156000,0,-0.07247925,12.360804,0.012748066,12.405807,5.2399076e-07,3,1,0,1
29300000,29216000,29220000,0,-0.114593506,12.360895,0.05688251,12.406652,1.0431888e-05,3,1,0,1
29356000,29276000,29276000,0,-0.12817383,12.36085,0.07211101,12.407277,1.6764348e-05,3,1,0,1
29420000,29336000,29340000,0,-0.047698975,12.360942,-0.012403306,12.406785,4.959931e-07,3,1,0,1
29476000,29396000,29396000,0,-0.12295532,12.360896,0.06459991,12.407375,1.3453767e-05,3,1,0,1
29540000,29456000,29460000,0,-0.00030517578,12.360987,-0.056280516,12.408254,1.0210934e-05,3,1,0,1
29596000,29514000,29516000,0,-0.019561768,12.36094,-0.034986306,12.408906,3.9456872e-06,3,1,0,1
29644000,29564000,29564000,0,-0.0715332,12.36076,0.011633448,12.405735,4.3636953e-07,3,1,0,1
29708000,29622666,29628000,0,-0.029174805,12.360852,-0.028780747,12.406578,2.67062e-06,3,1,0,1
29764000,29684000,29684000,0,-0.0904541,12.360808,0.034383103,12.407201,3.811328e-06,3,1,0,1
29828000,29744000,29748000,0,0.017852783,12.3609,-0.077750415,12.4067135,1.9489857e-05,3,1,0,1
29884000,29804000,29804000,0,-0.18005371,12.360855,0.12209089,12.407302,4.805617e-05,3,1,0,1
29948000,29864000,29868000,0,0.037017822,12.360947,-0.093518555,12.408177,2.819341e-05,3,1,0,1
30004000,29924000,29924000,0,-0.1375122,12.360901,0.082375795,12.406641,2.1877868e-05,3,1,0,1
30068000,29982666,29988000,0,-0.10391235,12.360991,0.04499727,12.406165,6.5282206e-06,3,1,0,1
30124000,30044000,30044000,0,-0.061279297,12.360945,0.0037971884,12.406758,4.6486406e-08,3,1,0,1
30188000,30104000,30108000,0,-0.033081055,12.361033,-0.022536721,12.407638,1.6373908e-06,3,1,0,1
30244000,30164000,30164000,0,-0.08493042,12.360987,0.02572938,12.406885,2.1343021e-06,3,1,0,1
30308000,30224000,30228000,0,-0.070617676,12.361075,0.013081852,12.407725,5.517042e-07,3,1,0,1
30364000,30284000,30284000,0,-0.02822876,12.361028,-0.027811281,12.408345,2.4933781e-06,3,1,0,1
30428000,30344000,30348000,0,-0.08010864,12.361115,0.02527731,12.407068,2.0599302e-06,3,1,0,1
30484000,30404000,30404000,0,-0.08929443,12.361067,0.030956678,12.406326,3.0897654e-06,3,1,0,1
30548000,30464000,30468000,0,-0.08432007,12.361154,0.027511474,12.407171,2.440141e-06,3,1,0,1
30604000,30524000,30524000,0,0.0004272461,12.361105,-0.055861764,12.407796,1.0059923e-05,3,1,0,1
30668000,30582666,30588000,0,-0.070495605,12.361192,0.012173656,12.407287,4.77777e-07,3,1,0,1
30724000,30644000,30644000,0,-0.12670898,12.361141,0.06973356,12.407875,1.5676398e-05,3,1,0,1
30788000,30704000,30708000,0,-0.04626465,12.361227,-0.009306364,12.408752,2.791849e-07,3,1,0,1
30844000,30764000,30764000,0,-0.018188477,12.3611765,-0.036147665,12.407218,4.21256e-06,3,1,0,1
30908000,30824000,30828000,0,-0.0513916,12.361262,-0.005982835,12.406719,1.15403e-07,3,1,0,1
30964000,30884000,30884000,0,-0.24865723,12.361211,0.19275758,12.407313,0.00011978575,3,1,0,1
31028000,30944000,30948000,0,-0.09197998,12.361296,0.03703985,12.408196,4.422723e-06,3,1,0,1
31084000,31004000,31004000,0,-0.058776855,12.361243,0.0004650727,12.407419,6.973009e-10,3,1,0,1
31148000,31064000,31068000,0,-0.07284546,12.361328,0.016107228,12.408263,8.3635484e-07,3,1,0,1
31204000,31122000,31124000,0,-0.082092285,12.361276,0.02565131,12.406725,2.1213968e-06,3,1,0,1
31252000,31172000,31172000,0,-0.10531616,12.361089,0.04999519,12.407095,8.058354e-06,3,1,0,1
31316000,31232000,31236000,0,0.012512207,12.361176,-0.07090871,12.406603,1.6210868e-05,3,1,0,1
31372000,31292000,31292000,0,-0.030395508,12.361126,-0.0263752,12.407195,2.2427348e-06,3,1,0,1
31436000,31352000,31356000,0,-0.021240234,12.361212,-0.033814922,12.408075,3.6861447e-06,3,1,0,1
31492000,31412000,31412000,0,-0.13421631,12.361161,0.07610509,12.407307,1.8672818e-05,3,1,0,1
31556000,31472000,31476000,0,0.04486084,12.361247,-0.10172857,12.408147,3.3360993e-05,3,1,0,1
31612000,31532000,31532000,0,0.006378174,12.3611965,-0.062269628,12.406616,1.2501416e-05,3,1,0,1
31676000,31592000,31596000,0,-0.05050659,12.361281,-0.0035858601,12.407501,4.145361e-08,3,1,0,1
31732000,31652000,31652000,0,-0.092803955,12.361229,0.03570372,12.406741,4.1098806e-06,3,1,0,1
31796000,31710666,31716000,0,-0.04083252,12.361314,-0.0149396695,12.407588,7.1953946e-07,3,1,0,1
31852000,31772000,31772000,0,-0.012786865,12.361261,-0.04161136,12.408212,5.581804e-06,3,1,0,1
31916000,31832000,31836000,0,-0.013153076,12.361345,-0.043828845,12.407687,6.1928313e-06,3,1,0,1
31972000,31892000,31892000,0,0.03338623,12.361293,-0.08899437,12.408277,2.5531339e-05,3,1,0,1
32036000,31952000,31956000,0,-0.07070923,12.361376,0.016061503,12.4070015,8.316978e-07,3,1,0,1
32092000,32012000,32012000,0,-0.12689209,12.361322,0.073459,12.40763,1.7396473e-05,3,1,0,1
32156000,32072000,32076000,0,-0.037017822,12.361405,-0.01930929,12.407116,1.2020479e-06,3,1,0,1
32212000,32132000,32132000,0,0.014465332,12.361351,-0.06953648,12.40771,1.5588119e-05,3,1,0,1
32276000,32190666,32196000,0,-0.13171387,12.361434,0.07831225,12.408594,1.976955e-05,3,1,0,1
32332000,32252000,32252000,0,-0.093444824,12.36138,0.036970563,12.407804,4.4063318e-06,3,1,0,1
32396000,32312000,32316000,0,-0.06964111,12.361461,0.014366258,12.408646,6.653083e-07,3,1,0,1
32452000,32372000,32372000,0,-0.121154785,12.361406,0.066125125,12.407118,1.40968505e-05,3,1,0,1
32516000,32432000,32436000,0,-0.007904053,12.361487,-0.04594226,12.408007,6.8042887e-06,3,1,0,1
32572000,32492000,32492000,0,-0.041168213,12.361432,-0.0153005235,12.407226,7.5474094e-07,3,1,0,1
32636000,32552000,32556000,0,-0.050689697,12.361513,-0.0043520816,12.408075,6.1059e-08,3,1,0,1
32692000,32612000,32612000,0,-0.06951904,12.361457,0.01572986,12.408701,7.975967e-07,3,1,0,1
32756000,32672000,32676000,0,-0.022399902,12.361538,-0.03410386,12.408156,3.7493828e-06,3,1,0,1
32812000,32732000,32732000,0,-0.10720825,12.361482,0.051218905,12.406625,8.457985e-06,3,1,0,1
32876000,32792000,32796000,0,-0.059814453,12.361562,0.0049727187,12.407478,7.971944e-08,3,1,0,1
32932000,32852000,32852000,0,-0.0034484863,12.361505,-0.05022398,12.40811,8.131611e-06,3,1,0,1
32996000,32912000,32916000,0,-0.09310913,12.361584,0.037141833,12.407574,4.4473345e-06,3,1,0,1
33052000,32970000,32972000,0,-0.08807373,12.361527,0.03309582,12.408172,3.5310065e-06,3,1,0,1
33100000,33020000,33020000,0,-0.13470459,12.361336,0.080607116,12.408538,2.094528e-05,3,1,0,1
33164000,33080000,33084000,0,-0.11050415,12.361419,0.053514436,12.408002,9.232091e-06,3,1,0,1
33220000,33140000,33140000,0,-0.06777954,12.361364,0.011433244,12.406477,4.2145427e-07,3,1,0,1
33284000,33200000,33204000,0,-0.12402344,12.361446,0.068889156,12.407329,1.5299718e-05,3,1,0,1
33340000,33260000,33260000,0,-0.10461426,12.361392,0.050339125,12.407959,8.169039e-06,3,1,0,1
33404000,33320000,33324000,0,-0.14172363,12.361473,0.08492292,12.407431,2.3250266e-05,3,1,0,1
33460000,33380000,33380000,0,-0.032989502,12.361418,-0.023115396,12.408026,1.7225029e-06,3,1,0,1
33524000,33440000,33444000,0,0.018463135,12.361499,-0.073326424,12.408912,1.7331946e-05,3,1,0,1
33580000,33500000,33500000,0,-0.09490967,12.3614435,0.03804036,12.408109,4.6649134e-06,3,1,0,1
33636000,33556000,33556000,0,-0.047607422,12.361389,-0.008702565,12.406587,2.4417557e-07,3,1,0,1
33692000,33608000,33612000,0,-0.01953125,12.361336,-0.035826672,12.407185,4.138087e-06,3,1,0,1
33748000,33668000,33668000,0,-0.033966064,12.361282,-0.02032571,12.407812,1.3318527e-06,3,1,0,1
33812000,33728000,33732000,0,-0.0670166,12.361366,0.01096743,12.407293,3.8778646e-07,3,1,0,1
33868000,33788000,33788000,0,-0.0058898926,12.361313,-0.04940294,12.407887,7.868061e-06,3,1,0,1
33932000,33848000,33852000,0,-0.06738281,12.361396,0.013215836,12.408771,5.6301576e-07,3,1,0,1
33988000,33908000,33908000,0,-0.081329346,12.361342,0.02521192,12.407976,2.0491364e-06,3,1,0,1
34052000,33968000,33972000,0,-0.15625,12.361424,0.10089582,12.40671,3.282084e-05,3,1,0,1
34108000,34028000,34028000,0,-0.07080078,12.36137,0.015897863,12.407308,8.148167e-07,3,1,0,1
34172000,34088000,34092000,0,0.09365845,12.361452,-0.14768079,12.408197,7.030712e-05,3,1,0,1
34228000,34146000,34148000,0,-0.057891846,12.361398,0.0025907718,12.407411,2.1638996e-08,3,1,0,1
34292000,34208000,34212000,0,0.11117554,12.361479,-0.16564333,12.408259,8.8449844e-05,3,1,0,1
34348000,34267000,34268000,0,-0.054656982,12.361424,0.001560472,12.408886,7.849448e-09,3,1,0,1
34412000,34328000,34332000,0,0.025146484,12.3615055,-0.0807433,12.406252,2.1019981e-05,3,1,0,1
34468000,34388000,34388000,0,-0.069488525,12.361449,0.014795899,12.406821,7.0580086e-07,3,1,0,1
34532000,34448000,34452000,0,-0.1350708,12.361529,0.08100891,12.407675,2.1156078e-05,3,1,0,1
34588000,34508000,34508000,0,-0.02166748,12.361474,-0.032127436,12.408307,3.3273584e-06,3,1,0,1
34652000,34568000,34572000,0,-0.064208984,12.361554,0.009411834,12.407766,2.8557153e-07,3,1,0,1
34708000,34628000,34628000,0,-0.05001831,12.361497,-0.004356589,12.408361,6.1184124e-08,3,1,0,1
34772000,34688000,34692000,0,-0.10638428,12.361577,0.052539207,12.409249,8.897777e-06,3,1,0,1
34828000,34748000,34748000,0,-0.026123047,12.36152,-0.029738203,12.40635,2.8513164e-06,3,1,0,1
34892000,34808000,34812000,0,-0.021697998,12.361599,-0.033612564,12.407171,3.6424242e-06,3,1,0,1
34948000,34868000,34868000,0,-0.04547119,12.361542,-0.009330172,12.407773,2.8063732e-07,3,1,0,1
35012000,34928000,34932000,0,0.05770874,12.361621,-0.11208506,12.408667,4.0497696e-05,3,1,0,1
35068000,34988000,34988000,0,-0.06536865,12.361563,0.01068284,12.407857,3.6790584e-07,3,1,0,1
35132000,35048000,35052000,0,-0.15917969,12.361642,0.10471247,12.4087105,3.5345176e-05,3,1,0,1
35188000,35108000,35108000,0,-0.022064209,12.361584,-0.032562863,12.40934,3.4178777e-06,3,1,0,1
35252000,35168000,35172000,0,-0.017669678,12.361662,-0.037817925,12.406686,4.6110476e-06,3,1,0,1
35308000,35228000,35228000,0,-0.09313965,12.361603,0.037983567,12.407258,4.651314e-06,3,1,0,1
35372000,35288000,35292000,0,0.104400635,12.361681,-0.15946068,12.408117,8.19712e-05,3,1,0,1
35428000,35348000,35348000,0,-0.10360718,12.361622,0.049350597,12.408752,7.85085e-06,3,1,0,1
35492000,35408000,35412000,0,0.061157227,12.361699,-0.11599012,12.408191,4.3370408e-05,3,1,0,1
35548000,35468000,35468000,0,-0.13238525,12.36164,0.07816194,12.408791,1.9693423e-05,3,1,0,1
35612000,35528000,35532000,0,0.013885498,12.361717,-0.06882963,12.407498,1.527308e-05,3,1,0,1
35668000,35588000,35588000,0,-0.108795166,12.361658,0.05373899,12.406764,9.31066e-06,3,1,0,1
35732000,35648000,35652000,0,-0.0050354004,12.361734,-0.05005904,12.407589,8.078628e-06,3,1,0,1
35788000,35708000,35708000,0,-0.038360596,12.361675,-0.016412336,12.408195,8.6834484e-07,3,1,0,1
35852000,35768000,35772000,0,-0.057281494,12.361752,0.0022930726,12.407692,1.6951363e-08,3,1,0,1
35908000,35827000,35828000,0,-0.043151855,12.361691,-0.011723667,12.408263,4.4307373e-07,3,1,0,1
35972000,35888000,35892000,0,0.06942749,12.361768,-0.12414701,12.409121,4.9681134e-05,3,1,0,1
36028000,35948000,35948000,0,-0.119506836,12.361707,0.064564705,12.407572,1.3438895e-05,3,1,0,1
36092000,36008000,36012000,0,-0.12832642,12.361783,0.073046036,12.407082,1.7202188e-05,3,1,0,1
36148000,36068000,36068000,0,-0.03845215,12.361722,-0.017026052,12.407658,9.345404e-07,3,1,0,1
36212000,36128000,36132000,0,0.041229248,12.361798,-0.09657088,12.408522,3.0063e-05,3,1,0,1
36268000,36188000,36188000,0,-0.081726074,12.361737,0.026632968,12.407756,2.2866825e-06,3,1,0,1
36332000,36248000,36252000,0,-0.0345459,12.361813,-0.020597707,12.40858,1.3676522e-06,3,1,0,1
36388000,36308000,36308000,0,-0.07229614,12.361752,0.017261703,12.4091835,9.604705e-07,3,1,0,1
36452000,36368000,36372000,0,0.14382935,12.361826,-0.20016567,12.407897,0.00012916386,3,1,0,1
36508000,36428000,36428000,0,-0.012908936,12.361765,-0.042714424,12.407143,5.882167e-06,3,1,0,1
36572000,36488000,36492000,0,0.014892578,12.361839,-0.07030392,12.407973,1.5933756e-05,3,1,0,1
36628000,36548000,36548000,0,-0.084350586,12.361778,0.02925545,12.408583,2.7589979e-06,3,1,0,1
36692000,36608000,36612000,0,-0.18267822,12.361853,0.12733662,12.408061,5.2271225e-05,3,1,0,1
36748000,36668000,36668000,0,-0.06414795,12.361791,0.008382548,12.408636,2.2651031e-07,3,1,0,1
36812000,36728000,36732000,0,-0.064086914,12.361865,0.0075212717,12.407343,1.8237435e-07,3,1,0,1
36868000,36788000,36788000,0,-0.0874939,12.361803,0.030924842,12.407957,3.0830083e-06,3,1,0,1
36932000,36848000,36852000,0,-0.073150635,12.361877,0.016415179,12.407448,8.6869795e-07,3,1,0,1
36988000,36907000,36908000,0,-0.040130615,12.3618145,-0.016651537,12.408028,8.9385264e-07,3,1,0,1
37052000,36968000,36972000,0,-0.10598755,12.361889,0.049317293,12.408897,7.840166e-06,3,1,0,1
37108000,37027000,37028000,0,-0.105529785,12.361826,0.04850937,12.408111,7.585874e-06,3,1,0,1
37172000,37088000,37092000,0,-0.076934814,12.3619,0.019847788,12.408941,1.2698414e-06,3,1,0,1
37228000,37148000,37148000,0,-0.05328369,12.361837,-0.004401166,12.407396,6.244747e-08,3,1,0,1
37292000,37208000,37212000,0,-0.08148193,12.361911,0.023977198,12.408271,1.8532994e-06,3,1,0,1
37348000,37267000,37268000,0,0.036102295,12.361848,-0.09406538,12.4074955,2.852565e-05,3,1,0,1
37412000,37328000,37332000,0,-0.007019043,12.361921,-0.050385803,12.408332,8.183951e-06,3,1,0,1
37468000,37388000,37388000,0,-0.08258057,12.361858,0.025583412,12.408945,2.1098037e-06,3,1,0,1
37532000,37448000,37452000,0,-0.07296753,12.361932,0.015408374,12.408406,7.653457e-07,3,1,0,1
37588000,37508000,37508000,0,-0.07281494,12.361868,0.015387524,12.408984,7.6324017e-07,3,1,0,1
37652000,37568000,37572000,0,0.030639648,12.361941,-0.088486135,12.4077,2.5241734e-05,3,1,0,1
37708000,37628000,37628000,0,-0.078125,12.361877,0.02085068,12.4083185,1.401482e-06,3,1,0,1
37772000,37688000,37692000,0,0.034729004,12.361951,-0.09262408,12.40779,2.7657528e-05,3,1,0,1
37828000,37748000,37748000,0,-0.031829834,12.361887,-0.025354046,12.408375,2.072238e-06,3,1,0,1
37892000,37808000,37812000,0,0.014923096,12.361959,-0.071533024,12.40925,1.6494061e-05,3,1,0,1
37948000,37867000,37868000,0,-0.08432007,12.361896,0.027008548,12.408445,2.3515006e-06,3,1,0,1
38012000,37928000,37932000,0,-0.1592102,12.361968,0.10177738,12.407153,3.339569e-05,3,1,0,1
38068000,37988000,37988000,0,-0.05029297,12.361904,-0.006970547,12.4077425,1.5663937e-07,3,1,0,1
38132000,38048000,38052000,0,0.076416016,12.361977,-0.13298774,12.408623,5.701112e-05,3,1,0,1
38188000,38108000,38108000,0,-0.05154419,12.361913,-0.0059117116,12.407828,1.1266543e-07,3,1,0,1
38252000,38168000,38172000,0,-0.2253418,12.361984,0.16861217,12.408669,9.164581e-05,3,1,0,1
38308000,38228000,38228000,0,-0.07357788,12.36192,0.016915046,12.409288,9.2227293e-07,3,1,0,1
38372000,38288000,38292000,0,-0.04522705,12.361993,-0.013161417,12.408731,5.5839035e-07,3,1,0,1
38428000,38348000,38348000,0,-0.07354736,12.361928,0.015041545,12.407191,7.2940946e-07,3,1,0,1
38492000,38408000,38412000,0,-0.14852905,12.362,0.090947874,12.408038,2.6665022e-05,3,1,0,1
38548000,38468000,38468000,0,-0.11013794,12.361936,0.053140838,12.408662,9.1031525e-06,3,1,0,1
38612000,38528000,38532000,0,-0.114349365,12.362007,0.055170808,12.408114,9.812347e-06,3,1,0,1
38668000,38588000,38588000,0,-0.04812622,12.361942,-0.010296192,12.408704,3.4173294e-07,3,1,0,1
38732000,38648000,38652000,0,-0.048217773,12.362015,-0.008950487,12.409586,2.5822362e-07,3,1,0,1
38788000,38708000,38708000,0,0.036193848,12.36195,-0.09591936,12.408762,2.9658155e-05,3,1,0,1
38852000,38768000,38772000,0,-0.08673096,12.362021,0.028072726,12.407477,2.540655e-06,3,1,0,1
38908000,38828000,38828000,0,-0.02545166,12.361957,-0.03211845,12.408072,3.3255606e-06,3,1,0,1
38972000,38888000,38892000,0,-0.13372803,12.362028,0.07371752,12.407584,1.7519196e-05,3,1,0,1
39028000,38947000,38948000,0,-0.10018921,12.361962,0.041117363,12.408145,5.4500897e-06,3,1,0,1
39092000,39008000,39012000,0,-0.11859131,12.362034,0.0609068,12.408993,1.1957904e-05,3,1,0,1
39148000,39068000,39068000,0,-0.024139404,12.361969,-0.03232508,12.409616,3.368068e-06,3,1,0,1
39212000,39128000,39132000,0,0.08822632,12.3620405,-0.14889644,12.406942,7.14766e-05,3,1,0,1
39268000,39188000,39188000,0,-0.058654785,12.361975,6.604195e-05,12.407508,1.4060967e-11,3,1,0,1
39332000,39248000,39252000,0,-0.11029053,12.362045,0.053606667,12.4083605,9.263673e-06,3,1,0,1
39388000,39307000,39308000,0,-0.06286621,12.36198,0.002112534,12.407611,1.4387297e-08,3,1,0,1
39452000,39368000,39372000,0,-0.020568848,12.362051,-0.03828264,12.408425,4.7244043e-06,3,1,0,1
39508000,39425000,39428000,0,-0.025604248,12.361986,-0.031317834,12.40902,3.1615928e-06,3,1,0,1
39564000,39484000,39484000,0,-0.15734863,12.361921,0.10241225,12.409645,3.3806835e-05,3,1,0,1
39620000,39534666,39540000,0,-0.0390625,12.361858,-0.02144175,12.406726,1.4822562e-06,3,1,0,1
39676000,39596000,39596000,0,-0.08618164,12.361796,0.027530938,12.407292,2.4435712e-06,3,1,0,1
39740000,39656000,39660000,0,-0.06716919,12.361871,0.010558765,12.408144,3.5940113e-07,3,1,0,1
39796000,39716000,39716000,0,-0.1468811,12.361809,0.09217371,12.408773,2.7387052e-05,3,1,0,1
39860000,39776000,39780000,0,-0.080322266,12.361882,0.021232534,12.408217,1.4532966e-06,3,1,0,1
39916000,39836000,39836000,0,-0.04727173,12.36182,-0.009937242,12.408812,3.1831823e-07,3,1,0,1
39980000,39896000,39900000,0,0.023040771,12.361895,-0.07788099,12.4096985,1.9550675e-05,3,1,0,1
40036000,39956000,39956000,0,-0.104400635,12.361832,0.044277143,12.406778,6.3206267e-06,3,1,0,1
40100000,40014666,40020000,0,-0.052368164,12.361905,-0.0056271143,12.407598,1.02080726e-07,3,1,0,1
40156000,40076000,40076000,0,-0.12756348,12.361842,0.07170875,12.408196,1.6576607e-05,3,1,0,1
40220000,40136000,40140000,0,-0.023620605,12.361916,-0.03710015,12.4077,4.437313e-06,3,1,0,1
40276000,40196000,40196000,0,-0.0051879883,12.361853,-0.05331026,12.408266,9.161582e-06,3,1,0,1
40340000,40256000,40260000,0,-0.1512146,12.361926,0.095402494,12.409118,2.9338544e-05,3,1,0,1
40396000,40316000,40316000,0,-0.117492676,12.361863,0.06358301,12.409746,1.30310455e-05,3,1,0,1
40460000,40376000,40380000,0,0.014556885,12.361937,-0.07440016,12.407074,1.7845894e-05,3,1,0,1
40516000,40436000,40436000,0,0.037353516,12.361873,-0.09475353,12.407644,2.8944196e-05,3,1,0,1
40580000,40496000,40500000,0,0.013031006,12.361945,-0.06747593,12.408503,1.4677036e-05,3,1,0,1
40636000,40556000,40556000,0,-0.029846191,12.361882,-0.029458668,12.4077425,2.7976503e-06,3,1,0,1
40700000,40616000,40620000,0,0.05908203,12.361955,-0.11578676,12.408563,4.3217166e-05,3,1,0,1
40756000,40676000,40676000,0,-0.017059326,12.361891,-0.036900204,12.409161,4.3890964e-06,3,1,0,1
40820000,40736000,40740000,0,-0.045562744,12.361963,-0.0063803643,12.407863,1.3123629e-07,3,1,0,1
40876000,40794000,40796000,0,-0.087890625,12.361899,0.030633625,12.407115,3.0254218e-06,3,1,0,1
40924000,40844000,40844000,0,0.039154053,12.361702,-0.09449777,12.407436,2.8788632e-05,3,1,0,1
40988000,40904000,40908000,0,-0.013366699,12.361777,-0.038827833,12.408293,4.8599777e-06,3,1,0,1
41044000,40964000,40964000,0,-0.21557617,12.361717,0.16606629,12.408927,8.889733e-05,3,1,0,1
41108000,41024000,41028000,0,-0.049743652,12.361793,-0.005735453,12.408361,1.0604276e-07,3,1,0,1
41164000,41084000,41084000,0,-0.054504395,12.3617325,0.0014345646,12.40896,6.633837e-09,3,1,0,1
41228000,41142666,41148000,0,-0.02633667,12.361808,-0.024574231,12.40767,1.9468373e-06,3,1,0,1
