timestamp,timestamp_sample,gps_hvel[0],gps_hvel[1],gps_vvel,gps_hpos[0],gps_hpos[1],gps_vpos,ev_hvel[0],ev_hvel[1],ev_vvel,ev_hpos[0],ev_hpos[1],ev_vpos,rng_vpos,baro_vpos,aux_hvel[0],aux_hvel[1],aux_vvel,flow[0],flow[1],terr_flow[0],terr_flow[1],heading,mag_field[0],mag_field[1],mag_field[2],gravity[0],gravity[1],gravity[2],drag[0],drag[1],airspeed,beta,hagl,hagl_rate
3668000,3588000,1.6787096e-06,0.0,0.00043201586,1.1992647e-10,0.0,186.8585,0.0,0.0,0.0,0.0,0.0,0.0,0.0,1.1220409e-06,0.0,0.0,nan,0.0,0.0,0.0,0.0,0.0,0.0,0.0,0.0,8.550638e-06,0.0,0.0,0.0,0.0,0.0,0.0,0.0,0.0
4164000,4084000,4.1070605e-05,0.0,5.923526e-05,4.1587192e-10,0.0,366.5393,0.0,0.0,0.0,0.0,0.0,0.0,0.0,2.6813117e-07,0.0,0.0,nan,0.0,0.0,0.0,0.0,0.0,0.0,0.0,0.0,0.0003662763,0.0,0.0,0.0,0.0,0.0,0.0,0.0,0.0
4668000,4588000,5.49371e-05,0.0,9.183456e-05,6.66712e-09,0.0,1.10182495e-10,0.0,0.0,0.0,0.0,0.0,0.0,0.0,2.8136994e-05,0.0,0.0,nan,0.0,0.0,0.0,0.0,0.0,0.0,0.0,0.0,0.0010027214,0.0,0.0,0.0,0.0,0.0,0.0,0.0,0.0
5164000,5084000,2.4655134e-05,0.0,6.052298e-05,2.5109264e-06,0.0,2.3069735e-05,0.0,0.0,0.0,0.0,0.0,0.0,0.0,9.518692e-06,0.0,0.0,nan,0.0,0.0,0.0,0.0,0.0,0.0,0.0,0.0,3.7255766e-05,0.0,0.0,0.0,0.0,0.0,0.0,0.0,0.0
5660000,5580000,7.7110866e-07,0.0,8.312805e-05,2.3213518e-06,0.0,3.5505313e-05,0.0,0.0,0.0,0.0,0.0,0.0,0.0,2.3589541e-07,0.0,0.0,nan,0.0,0.0,0.0,0.0,0.0,0.0,0.0,0.0,0.0032256409,0.0,0.0,0.0,0.0,0.0,0.0,0.0,0.0
6164000,6084000,3.6465703e-05,0.0,2.3327086e-05,2.109883e-06,0.0,5.1993284e-05,0.0,0.0,0.0,0.0,0.0,0.0,0.0,8.516365e-07,0.0,0.0,nan,0.0,0.0,0.0,0.0,0.0,0.0,0.0,0.0,0.0002336485,0.0,0.0,0.0,0.0,0.0,0.0,0.0,0.0
6668000,6588000,8.376754e-08,0.0,0.00014501027,2.2660104e-06,0.0,4.1819534e-05,0.0,0.0,0.0,0.0,0.0,0.0,0.0,4.286826e-07,0.0,0.0,nan,0.0,0.0,0.0,0.0,0.0,0.0,0.0,0.0,0.0003301797,0.0,0.0,0.0,0.0,0.0,0.0,0.0,0.0
7164000,7084000,4.415955e-06,0.0,0.0003896226,2.2386416e-06,0.0,7.491774e-05,0.0,0.0,0.0,0.0,0.0,0.0,0.0,1.7535637e-06,0.0,0.0,nan,0.0,0.0,0.0,0.0,0.0,0.0,0.0,0.0,0.00044081887,0.0,0.0,0.0,0.0,0.0,0.0,0.0,0.0
7668000,7588000,1.2269105e-05,0.0,8.542046e-05,1.742702e-06,0.0,8.167559e-05,0.0,0.0,0.0,0.0,0.0,0.0,0.0,6.237756e-06,0.0,0.0,nan,0.0,0.0,0.0,0.0,0.0,0.0,0.0,0.0,0.00011277081,0.0,0.0,0.0,0.0,0.0,0.0,0.0,0.0
8164000,8084000,4.3058255e-05,0.0,7.279521e-05,1.951995e-06,0.0,7.397638e-05,0.0,0.0,0.0,0.0,0.0,0.0,0.0,7.997866e-06,0.0,0.0,nan,0.0,0.0,0.0,0.0,0.0,0.0,0.0,0.0,3.760989e-05,0.0,0.0,0.0,0.0,0.0,0.0,0.0,0.0
8668000,8588000,1.3277795e-06,0.0,1.5473755e-05,4.872974e-06,0.0,8.173207e-05,0.0,0.0,0.0,0.0,0.0,0.0,0.0,3.1881527e-06,0.0,0.0,nan,0.0,0.0,0.0,0.0,0.0,0.0,0.0,0.0,9.912244e-05,0.0,0.0,0.0,0.0,0.0,0.0,0.0,0.0
9164000,9084000,3.3657855e-07,0.0,1.9436517e-05,2.206077e-06,0.0,6.0695234e-05,0.0,0.0,0.0,0.0,0.0,0.0,0.0,1.4530643e-05,0.0,0.0,nan,0.0,0.0,0.0,0.0,0.0,0.0,0.0,0.0,0.00051366206,0.0,0.0,0.0,0.0,0.0,0.0,0.0,0.0
9660000,9580000,0.00023341019,0.0,1.8932896e-07,1.7911639e-06,0.0,7.23883e-08,0.0,0.0,0.0,0.0,0.0,0.0,0.0,4.65459e-06,0.0,0.0,nan,0.0,0.0,0.0,0.0,0.0,0.0,0.0,0.0,0.0012923211,0.0,0.0,0.0,0.0,0.0,0.0,0.0,0.0
10164000,10084000,8.467685e-05,0.0,1.8636392e-06,1.8253066e-06,0.0,2.0758777e-07,0.0,0.0,0.0,0.0,0.0,0.0,0.0,1.2705151e-05,0.0,0.0,nan,0.0,0.0,0.0,0.0,0.0,0.0,0.0,0.0,0.00066890405,0.0,0.0,0.0,0.0,0.0,0.0,0.0,0.0
10660000,10580000,4.55624e-05,0.0,6.3439757e-06,8.575163e-06,0.0,1.1637754e-07,0.0,0.0,0.0,0.0,0.0,0.0,0.0,1.1101265e-06,0.0,0.0,nan,0.0,0.0,0.0,0.0,0.0,0.0,0.0,0.0,0.00027820142,0.0,0.0,0.0,0.0,0.0,0.0,0.0,0.0
11164000,11084000,1.4706193e-06,0.0,0.00013295018,2.424485e-06,0.0,5.065615e-07,0.0,0.0,0.0,0.0,0.0,0.0,0.0,2.9451445e-05,0.0,0.0,nan,0.0,0.0,0.0,0.0,0.0,0.0,0.0,0.0,0.0009724721,0.0,0.0,0.0,0.0,0.0,0.0,0.0,0.0
11660000,11580000,6.920382e-05,0.0,1.1941183e-05,2.725673e-06,0.0,1.7316785e-05,0.0,0.0,0.0,0.0,0.0,0.0,0.0,1.9541907e-05,0.0,0.0,nan,0.0,0.0,0.0,0.0,0.0,0.0,0.0,0.0,0.0006661938,0.0,0.0,0.0,0.0,0.0,0.0,0.0,0.0
12164000,12084000,0.00024501144,0.0,4.3714866e-05,4.443521e-06,0.0,1.3686324e-05,0.0,0.0,0.0,0.0,0.0,0.0,0.0,7.727401e-06,0.0,0.0,nan,0.0,0.0,0.0,0.0,0.0,0.0,0.0,0.0,0.00013113591,0.0,0.0,0.0,0.0,0.0,0.0,0.0,0.0
12660000,12580000,7.5032185e-05,0.0,0.0001040441,2.4026083e-06,0.0,5.747155e-06,0.0,0.0,0.0,0.0,0.0,0.0,0.0,7.442703e-06,0.0,0.0,nan,0.0,0.0,0.0,0.0,0.0,0.0,0.0,0.0,0.00024800037,0.0,0.0,0.0,0.0,0.0,0.0,0.0,0.0
13164000,13084000,0.00017808579,0.0,5.5056313e-05,2.2794623e-06,0.0,6.035208e-06,0.0,0.0,0.0,0.0,0.0,0.0,0.0,4.3163486e-06,0.0,0.0,nan,0.0,0.0,0.0,0.0,0.0,0.0,0.0,0.0,0.0005859236,0.0,0.0,0.0,0.0,0.0,0.0,0.0,0.0
13668000,13588000,0.0004310563,0.0,0.00020517921,1.9170393e-06,0.0,1.180884e-05,0.0,0.0,0.0,0.0,0.0,0.0,0.0,1.6373194e-07,0.0,0.0,nan,0.0,0.0,0.0,0.0,0.0,0.0,0.0,0.0,0.0006068512,0.0,0.0,0.0,0.0,0.0,0.0,0.0,0.0
14164000,14084000,0.00013947267,0.0,6.432094e-05,8.582934e-06,0.0,1.4162926e-05,0.0,0.0,0.0,0.0,0.0,0.0,0.0,5.853002e-08,0.0,0.0,nan,0.0,0.0,0.0,0.0,0.0,0.0,0.0,0.0,0.00054230844,0.0,0.0,0.0,0.0,0.0,0.0,0.0,0.0
14660000,14580000,1.1893272e-06,0.0,8.7857734e-05,1.733162e-09,0.0,1.3673563e-05,0.0,0.0,0.0,0.0,0.0,0.0,0.0,3.1682306e-05,0.0,0.0,nan,0.0,0.0,0.0,0.0,0.0,0.0,0.0,0.0,0.00027177847,0.0,0.0,0.0,0.0,0.0,0.0,0.0,0.0
15164000,15084000,0.00019952384,0.0,1.9939038e-05,2.5365475e-06,0.0,1.0189567e-05,0.0,0.0,0.0,0.0,0.0,0.0,0.0,9.806425e-07,0.0,0.0,nan,0.0,0.0,0.0,0.0,0.0,0.0,0.0,0.0,0.00069624797,0.0,0.0,0.0,0.0,0.0,0.0,0.0,0.0
15668000,15588000,5.8416284e-05,0.0,1.2099615e-05,2.233723e-06,0.0,2.2003833e-05,0.0,0.0,0.0,0.0,0.0,0.0,0.0,4.171079e-05,0.0,0.0,nan,0.0,0.0,0.0,0.0,0.0,0.0,0.0,0.0,3.4557004e-05,0.0,0.0,0.0,0.0,0.0,0.0,0.0,0.0
16164000,16084000,2.1142407e-07,0.0,2.8247962e-07,2.2951106e-06,0.0,1.2862431e-06,0.0,0.0,0.0,0.0,0.0,0.0,0.0,8.262155e-06,0.0,0.0,nan,0.0,0.0,0.0,0.0,0.0,0.0,0.0,0.0,0.0008491569,0.0,0.0,0.0,0.0,0.0,0.0,0.0,0.0
16668000,16588000,6.3627886e-05,0.0,6.9697744e-05,7.79566e-09,0.0,3.7563213e-06,0.0,0.0,0.0,0.0,0.0,0.0,0.0,2.2591205e-06,0.0,0.0,nan,0.0,0.0,0.0,0.0,0.0,0.0,0.0,0.0,0.0010617146,0.0,0.0,0.0,0.0,0.0,0.0,0.0,0.0
17164000,17084000,1.8438148e-05,0.0,8.978129e-05,2.7477472e-06,0.0,4.810347e-07,0.0,0.0,0.0,0.0,0.0,0.0,0.0,6.047527e-06,0.0,0.0,nan,0.0,0.0,0.0,0.0,0.0,0.0,0.0,0.0,0.00019224071,0.0,0.0,0.0,0.0,0.0,0.0,0.0,0.0
17668000,17588000,4.502921e-06,0.0,1.3247784e-06,2.7654996e-06,0.0,4.8838992e-06,0.0,0.0,0.0,0.0,0.0,0.0,0.0,8.523303e-06,0.0,0.0,nan,0.0,0.0,0.0,0.0,0.0,0.0,0.0,0.0,5.045425e-05,0.0,0.0,0.0,0.0,0.0,0.0,0.0,0.0
18164000,18084000,2.920645e-05,0.0,2.1539872e-05,2.448681e-06,0.0,5.070135e-06,0.0,0.0,0.0,0.0,0.0,0.0,0.0,3.2153944e-06,0.0,0.0,nan,0.0,0.0,0.0,0.0,0.0,0.0,0.0,0.0,4.9441453e-05,0.0,0.0,0.0,0.0,0.0,0.0,0.0,0.0
18668000,18588000,2.317751e-06,0.0,2.442918e-05,2.3996465e-06,0.0,2.6690234e-06,0.0,0.0,0.0,0.0,0.0,0.0,0.0,6.4339224e-06,0.0,0.0,nan,0.0,0.0,0.0,0.0,0.0,0.0,0.0,0.0,0.0006421803,0.0,0.0,0.0,0.0,0.0,0.0,0.0,0.0
19164000,19084000,0.00013594881,0.0,1.2507983e-05,1.4630667e-08,0.0,3.9006576e-07,0.0,0.0,0.0,0.0,0.0,0.0,0.0,9.818016e-08,0.0,0.0,nan,0.0,0.0,0.0,0.0,0.0,0.0,0.0,0.0,0.0004891094,0.0,0.0,0.0,0.0,0.0,0.0,0.0,0.0
19668000,19588000,0.00017515908,0.0,3.25531e-05,2.6963917e-06,0.0,5.3538906e-06,0.0,0.0,0.0,0.0,0.0,0.0,0.0,1.8240298e-06,0.0,0.0,nan,0.0,0.0,0.0,0.0,0.0,0.0,0.0,0.0,0.00032694417,0.0,0.0,0.0,0.0,0.0,0.0,0.0,0.0
20164000,20084000,3.1280624e-06,0.0,9.1757334e-05,3.003215e-06,0.0,1.8714842e-06,0.0,0.0,0.0,0.0,0.0,0.0,0.0,5.9954396e-06,0.0,0.0,nan,0.0,0.0,0.0,0.0,0.0,0.0,0.0,0.0,0.0005538567,0.0,0.0,0.0,0.0,0.0,0.0,0.0,0.0
20660000,20580000,5.7960093e-05,0.0,8.002133e-05,2.6772539e-06,0.0,1.5819627e-05,0.0,0.0,0.0,0.0,0.0,0.0,0.0,5.4524207e-06,0.0,0.0,nan,0.0,0.0,0.0,0.0,0.0,0.0,0.0,0.0,1.2372764e-05,0.0,0.0,0.0,0.0,0.0,0.0,0.0,0.0
21164000,21084000,3.132626e-06,0.0,0.00017880915,2.3564119e-06,0.0,1.8877066e-06,0.0,0.0,0.0,0.0,0.0,0.0,0.0,3.904576e-05,0.0,0.0,nan,0.0,0.0,0.0,0.0,0.0,0.0,0.0,0.0,0.00087916414,0.0,0.0,0.0,0.0,0.0,0.0,0.0,0.0
21660000,21580000,7.5320145e-06,0.0,2.7604772e-05,1.7991846e-06,0.0,1.7180339e-05,0.0,0.0,0.0,0.0,0.0,0.0,0.0,4.681032e-06,0.0,0.0,nan,0.0,0.0,0.0,0.0,0.0,0.0,0.0,0.0,0.00040790334,0.0,0.0,0.0,0.0,0.0,0.0,0.0,0.0
22164000,22084000,5.70023e-05,0.0,5.486508e-08,8.453551e-06,0.0,2.1446433e-06,0.0,0.0,0.0,0.0,0.0,0.0,0.0,1.2359752e-06,0.0,0.0,nan,0.0,0.0,0.0,0.0,0.0,0.0,0.0,0.0,8.962591e-06,0.0,0.0,0.0,0.0,0.0,0.0,0.0,0.0
22668000,22588000,1.6920254e-05,0.0,3.8972095e-07,2.1190888e-06,0.0,1.2020591e-06,0.0,0.0,0.0,0.0,0.0,0.0,0.0,6.808176e-09,0.0,0.0,nan,0.0,0.0,0.0,0.0,0.0,0.0,0.0,0.0,0.00019313989,0.0,0.0,0.0,0.0,0.0,0.0,0.0,0.0
23164000,23084000,0.00038948093,0.0,0.0003565864,2.1886544e-06,0.0,6.970652e-07,0.0,0.0,0.0,0.0,0.0,0.0,0.0,2.1493248e-05,0.0,0.0,nan,0.0,0.0,0.0,0.0,0.0,0.0,0.0,0.0,0.0015751539,0.0,0.0,0.0,0.0,0.0,0.0,0.0,0.0
23660000,23580000,4.416865e-05,0.0,5.2816453e-05,1.5825394e-09,0.0,4.506543e-06,0.0,0.0,0.0,0.0,0.0,0.0,0.0,6.3314263e-07,0.0,0.0,nan,0.0,0.0,0.0,0.0,0.0,0.0,0.0,0.0,3.499824e-05,0.0,0.0,0.0,0.0,0.0,0.0,0.0,0.0
24164000,24084000,6.022674e-05,0.0,0.00023099539,5.303815e-10,0.0,4.038258e-06,0.0,0.0,0.0,0.0,0.0,0.0,0.0,7.4223585e-06,0.0,0.0,nan,0.0,0.0,0.0,0.0,0.0,0.0,0.0,0.0,0.00074015715,0.0,0.0,0.0,0.0,0.0,0.0,0.0,0.0
24668000,24588000,4.054035e-05,0.0,0.00081834913,2.2217791e-06,0.0,8.764144e-06,0.0,0.0,0.0,0.0,0.0,0.0,0.0,5.4409916e-06,0.0,0.0,nan,0.0,0.0,0.0,0.0,0.0,0.0,0.0,0.0,0.0011373676,0.0,0.0,0.0,0.0,0.0,0.0,0.0,0.0
25164000,25084000,7.779757e-06,0.0,5.5149426e-06,2.3871594e-06,0.0,6.2006616e-06,0.0,0.0,0.0,0.0,0.0,0.0,0.0,1.6639982e-05,0.0,0.0,nan,0.0,0.0,0.0,0.0,0.0,0.0,0.0,0.0,0.0009645138,0.0,0.0,0.0,0.0,0.0,0.0,0.0,0.0
25660000,25580000,3.6773752e-05,0.0,8.791363e-06,2.3644952e-06,0.0,8.018219e-06,0.0,0.0,0.0,0.0,0.0,0.0,0.0,6.8281392e-06,0.0,0.0,nan,0.0,0.0,0.0,0.0,0.0,0.0,0.0,0.0,0.0010294793,0.0,0.0,0.0,0.0,0.0,0.0,0.0,0.0
26164000,26084000,0.00011984681,0.0,0.00024182259,1.9351285e-06,0.0,1.0618574e-05,0.0,0.0,0.0,0.0,0.0,0.0,0.0,1.6405105e-05,0.0,0.0,nan,0.0,0.0,0.0,0.0,0.0,0.0,0.0,0.0,0.00068188173,0.0,0.0,0.0,0.0,0.0,0.0,0.0,0.0
26668000,26588000,0.00025178463,0.0,0.0002891119,1.5437147e-06,0.0,1.6938691e-06,0.0,0.0,0.0,0.0,0.0,0.0,0.0,8.3504005e-07,0.0,0.0,nan,0.0,0.0,0.0,0.0,0.0,0.0,0.0,0.0,0.0005295133,0.0,0.0,0.0,0.0,0.0,0.0,0.0,0.0
27164000,27084000,1.1521368e-05,0.0,7.466833e-05,1.5713107e-06,0.0,7.624602e-06,0.0,0.0,0.0,0.0,0.0,0.0,0.0,1.0970348e-06,0.0,0.0,nan,0.0,0.0,0.0,0.0,0.0,0.0,0.0,0.0,0.00016929886,0.0,0.0,0.0,0.0,0.0,0.0,0.0,0.0
27660000,27580000,1.1208449e-05,0.0,0.00010260137,1.4311458e-06,0.0,1.3507462e-06,0.0,0.0,0.0,0.0,0.0,0.0,0.0,3.6626723e-05,0.0,0.0,nan,0.0,0.0,0.0,0.0,0.0,0.0,0.0,0.0,8.705877e-05,0.0,0.0,0.0,0.0,0.0,0.0,0.0,0.0
28164000,28084000,2.390312e-05,0.0,6.6055814e-05,5.956665e-06,0.0,3.4446537e-10,0.0,0.0,0.0,0.0,0.0,0.0,0.0,1.1504665e-07,0.0,0.0,nan,0.0,0.0,0.0,0.0,0.0,0.0,0.0,0.0,0.00017054628,0.0,0.0,0.0,0.0,0.0,0.0,0.0,0.0
28668000,28588000,0.00010054713,0.0,0.0004718215,1.5205687e-06,0.0,1.574963e-05,0.0,0.0,0.0,0.0,0.0,0.0,0.0,9.3685554e-07,0.0,0.0,nan,0.0,0.0,0.0,0.0,0.0,0.0,0.0,0.0,0.0008859483,0.0,0.0,0.0,0.0,0.0,0.0,0.0,0.0
29164000,29084000,1.09671155e-05,0.0,0.00015944603,1.8077382e-06,0.0,2.9135988e-06,0.0,0.0,0.0,0.0,0.0,0.0,0.0,1.1090822e-05,0.0,0.0,nan,0.0,0.0,0.0,0.0,0.0,0.0,0.0,0.0,0.00087874214,0.0,0.0,0.0,0.0,0.0,0.0,0.0,0.0
29660000,29580000,0.00012807651,0.0,0.00025589849,2.1349604e-06,0.0,3.022398e-05,0.0,0.0,0.0,0.0,0.0,0.0,0.0,4.3636953e-07,0.0,0.0,nan,0.0,0.0,0.0,0.0,0.0,0.0,0.0,0.0,2.8213348e-05,0.0,0.0,0.0,0.0,0.0,0.0,0.0,0.0
30164000,30084000,2.447827e-05,0.0,0.0002855949,2.3627506e-06,0.0,9.604963e-06,0.0,0.0,0.0,0.0,0.0,0.0,0.0,4.6486406e-08,0.0,0.0,nan,0.0,0.0,0.0,0.0,0.0,0.0,0.0,0.0,0.0027578569,0.0,0.0,0.0,0.0,0.0,0.0,0.0,0.0
30668000,30588000,0.00024522172,0.0,0.00015573094,3.4115335e-06,0.0,9.168178e-06,0.0,0.0,0.0,0.0,0.0,0.0,0.0,4.77777e-07,0.0,0.0,nan,0.0,0.0,0.0,0.0,0.0,0.0,0.0,0.0,0.0007073498,0.0,0.0,0.0,0.0,0.0,0.0,0.0,0.0
31164000,31084000,0.000105187886,0.0,1.9248657e-06,3.2785433e-06,0.0,1.9847078e-06,0.0,0.0,0.0,0.0,0.0,0.0,0.0,8.3635484e-07,0.0,0.0,nan,0.0,0.0,0.0,0.0,0.0,0.0,0.0,0.0,0.0012302302,0.0,0.0,0.0,0.0,0.0,0.0,0.0,0.0
31668000,31588000,9.40026e-06,0.0,3.5585647e-06,3.0520234e-06,0.0,1.1078785e-05,0.0,0.0,0.0,0.0,0.0,0.0,0.0,1.2501416e-05,0.0,0.0,nan,0.0,0.0,0.0,0.0,0.0,0.0,0.0,0.0,6.5354914e-05,0.0,0.0,0.0,0.0,0.0,0.0,0.0,0.0
32164000,32084000,1.5630276e-05,0.0,9.611509e-05,3.1464542e-06,0.0,1.2102768e-05,0.0,0.0,0.0,0.0,0.0,0.0,0.0,1.2020479e-06,0.0,0.0,nan,0.0,0.0,0.0,0.0,0.0,0.0,0.0,0.0,0.0014613902,0.0,0.0,0.0,0.0,0.0,0.0,0.0,0.0
32668000,32588000,9.5479545e-06,0.0,5.4944144e-07,3.0535737e-06,0.0,1.5591186e-05,0.0,0.0,0.0,0.0,0.0,0.0,0.0,6.1059e-08,0.0,0.0,nan,0.0,0.0,0.0,0.0,0.0,0.0,0.0,0.0,0.0009028468,0.0,0.0,0.0,0.0,0.0,0.0,0.0,0.0
33164000,33084000,6.876125e-05,0.0,8.212639e-05,4.250762e-06,0.0,1.1020441e-05,0.0,0.0,0.0,0.0,0.0,0.0,0.0,9.232091e-06,0.0,0.0,nan,0.0,0.0,0.0,0.0,0.0,0.0,0.0,0.0,0.00093831826,0.0,0.0,0.0,0.0,0.0,0.0,0.0,0.0
33668000,33588000,1.3796382e-05,0.0,2.3054029e-06,1.0633485e-05,0.0,8.7088296e-07,0.0,0.0,0.0,0.0,0.0,0.0,0.0,2.4417557e-07,0.0,0.0,nan,0.0,0.0,0.0,0.0,0.0,0.0,0.0,0.0,0.00059310196,0.0,0.0,0.0,0.0,0.0,0.0,0.0,0.0
34164000,34084000,0.00011363027,0.0,0.002513894,2.8842712e-06,0.0,7.772064e-08,0.0,0.0,0.0,0.0,0.0,0.0,0.0,8.148167e-07,0.0,0.0,nan,0.0,0.0,0.0,0.0,0.0,0.0,0.0,0.0,0.0006131089,0.0,0.0,0.0,0.0,0.0,0.0,0.0,0.0
34668000,34588000,7.808606e-05,0.0,2.4623296e-05,2.7285444e-06,0.0,1.9845216e-05,0.0,0.0,0.0,0.0,0.0,0.0,0.0,2.8557153e-07,0.0,0.0,nan,0.0,0.0,0.0,0.0,0.0,0.0,0.0,0.0,0.00033695533,0.0,0.0,0.0,0.0,0.0,0.0,0.0,0.0
35164000,35084000,0.00026570086,0.0,1.2149848e-05,2.6436453e-06,0.0,1.48002655e-05,0.0,0.0,0.0,0.0,0.0,0.0,0.0,3.5345176e-05,0.0,0.0,nan,0.0,0.0,0.0,0.0,0.0,0.0,0.0,0.0,4.191705e-05,0.0,0.0,0.0,0.0,0.0,0.0,0.0,0.0
35660000,35580000,4.9977105e-05,0.0,5.226565e-05,1.968039e-06,0.0,7.69314e-06,0.0,0.0,0.0,0.0,0.0,0.0,0.0,1.527308e-05,0.0,0.0,nan,0.0,0.0,0.0,0.0,0.0,0.0,0.0,0.0,0.00073116826,0.0,0.0,0.0,0.0,0.0,0.0,0.0,0.0
36164000,36084000,0.00035917526,0.0,0.00019297273,1.7832978e-06,0.0,1.14703735e-05,0.0,0.0,0.0,0.0,0.0,0.0,0.0,9.345404e-07,0.0,0.0,nan,0.0,0.0,0.0,0.0,0.0,0.0,0.0,0.0,0.000915708,0.0,0.0,0.0,0.0,0.0,0.0,0.0,0.0
36660000,36580000,0.0002872695,0.0,2.1142845e-05,1.9807023e-06,0.0,2.87856e-05,0.0,0.0,0.0,0.0,0.0,0.0,0.0,2.7589979e-06,0.0,0.0,nan,0.0,0.0,0.0,0.0,0.0,0.0,0.0,0.0,0.00015159135,0.0,0.0,0.0,0.0,0.0,0.0,0.0,0.0
37164000,37084000,1.7475468e-05,0.0,7.250533e-05,1.9884974e-06,0.0,1.2072387e-05,0.0,0.0,0.0,0.0,0.0,0.0,0.0,7.585874e-06,0.0,0.0,nan,0.0,0.0,0.0,0.0,0.0,0.0,0.0,0.0,0.000676675,0.0,0.0,0.0,0.0,0.0,0.0,0.0,0.0
37668000,37588000,2.0883144e-05,0.0,2.4917254e-06,8.448425e-06,0.0,6.5251743e-06,0.0,0.0,0.0,0.0,0.0,0.0,0.0,2.5241734e-05,0.0,0.0,nan,0.0,0.0,0.0,0.0,0.0,0.0,0.0,0.0,0.00020184451,0.0,0.0,0.0,0.0,0.0,0.0,0.0,0.0
38164000,38084000,0.00017838775,0.0,6.956563e-05,2.1381275e-06,0.0,5.99972e-06,0.0,0.0,0.0,0.0,0.0,0.0,0.0,5.701112e-05,0.0,0.0,nan,0.0,0.0,0.0,0.0,0.0,0.0,0.0,0.0,3.91507e-05,0.0,0.0,0.0,0.0,0.0,0.0,0.0,0.0
38668000,38588000,3.9687053e-05,0.0,3.9965864e-05,2.2713805e-06,0.0,1.770308e-05,0.0,0.0,0.0,0.0,0.0,0.0,0.0,3.4173294e-07,0.0,0.0,nan,0.0,0.0,0.0,0.0,0.0,0.0,0.0,0.0,0.000558065,0.0,0.0,0.0,0.0,0.0,0.0,0.0,0.0
39164000,39084000,5.3408527e-05,0.0,2.3668712e-05,2.250935e-06,0.0,5.800914e-06,0.0,0.0,0.0,0.0,0.0,0.0,0.0,3.368068e-06,0.0,0.0,nan,0.0,0.0,0.0,0.0,0.0,0.0,0.0,0.0,6.6995824e-05,0.0,0.0,0.0,0.0,0.0,0.0,0.0,0.0
39668000,39588000,0.00052219117,0.0,0.00018013146,2.7510766e-06,0.0,1.4010568e-05,0.0,0.0,0.0,0.0,0.0,0.0,0.0,1.4822562e-06,0.0,0.0,nan,0.0,0.0,0.0,0.0,0.0,0.0,0.0,0.0,8.5386935e-05,0.0,0.0,0.0,0.0,0.0,0.0,0.0,0.0
40164000,40084000,6.035918e-05,0.0,0.00044546896,2.6421942e-06,0.0,2.307185e-05,0.0,0.0,0.0,0.0,0.0,0.0,0.0,1.6576607e-05,0.0,0.0,nan,0.0,0.0,0.0,0.0,0.0,0.0,0.0,0.0,0.00027328706,0.0,0.0,0.0,0.0,0.0,0.0,0.0,0.0
40668000,40588000,3.6809786e-05,0.0,0.0003253389,2.4212075e-06,0.0,2.266827e-05,0.0,0.0,0.0,0.0,0.0,0.0,0.0,2.7976503e-06,0.0,0.0,nan,0.0,0.0,0.0,0.0,0.0,0.0,0.0,0.0,0.0005486254,0.0,0.0,0.0,0.0,0.0,0.0,0.0,0.0
41164000,41084000,5.6395795e-05,0.0,0.00036218145,2.4772464e-06,0.0,1.4407422e-05,0.0,0.0,0.0,0.0,0.0,0.0,0.0,6.633837e-09,0.0,0.0,nan,0.0,0.0,0.0,0.0,0.0,0.0,0.0,0.0,0.0003784973,0.0,0.0,0.0,0.0,0.0,0.0,0.0,0.0
41660000,41580000,7.497323e-05,0.0,0.00013332862,2.0208129e-06,0.0,1.2969768e-05,0.0,0.0,0.0,0.0,0.0,0.0,0.0,5.8306787e-06,0.0,0.0,nan,0.0,0.0,0.0,0.0,0.0,0.0,0.0,0.0,0.0009451622,0.0,0.0,0.0,0.0,0.0,0.0,0.0,0.0
42164000,42084000,1.4529983e-05,0.0,0.00039390379,1.639606e-06,0.0,3.1737443e-05,0.0,0.0,0.0,0.0,0.0,0.0,0.0,6.1547216e-05,0.0,0.0,nan,0.0,0.0,0.0,0.0,0.0,0.0,0.0,0.0,0.001084922,0.0,0.0,0.0,0.0,0.0,0.0,0.0,0.0
42668000,42588000,0.00010749253,0.0,0.00036631525,1.5367087e-06,0.0,2.1700127e-05,0.0,0.0,0.0,0.0,0.0,0.0,0.0,9.4019794e-07,0.0,0.0,nan,0.0,0.0,0.0,0.0,0.0,0.0,0.0,0.0,0.00013309941,0.0,0.0,0.0,0.0,0.0,0.0,0.0,0.0
43164000,43084000,6.5183674e-05,0.0,0.00030863346,1.635029e-06,0.0,9.533221e-06,0.0,0.0,0.0,0.0,0.0,0.0,0.0,3.1331263e-06,0.0,0.0,nan,0.0,0.0,0.0,0.0,0.0,0.0,0.0,0.0,0.000851665,0.0,0.0,0.0,0.0,0.0,0.0,0.0,0.0
43668000,43588000,2.8540555e-05,0.0,0.0008706392,1.9299164e-06,0.0,1.5078206e-05,0.0,0.0,0.0,0.0,0.0,0.0,0.0,7.5170065e-06,0.0,0.0,nan,0.0,0.0,0.0,0.0,0.0,0.0,0.0,0.0,0.0023699615,0.0,0.0,0.0,0.0,0.0,0.0,0.0,0.0
44164000,44084000,4.9643404e-05,0.0,0.00040392432,8.799633e-06,0.0,8.770001e-06,0.0,0.0,0.0,0.0,0.0,0.0,0.0,0.00010133972,0.0,0.0,nan,0.0,0.0,0.0,0.0,0.0,0.0,0.0,0.0,0.0011692294,0.0,0.0,0.0,0.0,0.0,0.0,0.0,0.0
44668000,44588000,5.0794456e-06,0.0,0.0002514677,1.9471086e-06,0.0,1.0656337e-05,0.0,0.0,0.0,0.0,0.0,0.0,0.0,1.7147183e-06,0.0,0.0,nan,0.0,0.0,0.0,0.0,0.0,0.0,0.0,0.0,0.0005624041,0.0,0.0,0.0,0.0,0.0,0.0,0.0,0.0
45164000,45084000,5.3154206e-05,0.0,0.00021290804,1.9773377e-06,0.0,1.5876092e-05,0.0,0.0,0.0,0.0,0.0,0.0,0.0,5.2919826e-05,0.0,0.0,nan,0.0,0.0,0.0,0.0,0.0,0.0,0.0,0.0,0.0003273748,0.0,0.0,0.0,0.0,0.0,0.0,0.0,0.0
45668000,45588000,4.0761955e-05,0.0,0.00020835594,2.2377226e-06,0.0,2.549257e-05,0.0,0.0,0.0,0.0,0.0,0.0,0.0,5.0689946e-06,0.0,0.0,nan,0.0,0.0,0.0,0.0,0.0,0.0,0.0,0.0,0.0003873526,0.0,0.0,0.0,0.0,0.0,0.0,0.0,0.0
46164000,46084000,2.3622522e-05,0.0,0.00015612325,2.3122604e-06,0.0,1.974527e-05,0.0,0.0,0.0,0.0,0.0,0.0,0.0,1.8828172e-07,0.0,0.0,nan,0.0,0.0,0.0,0.0,0.0,0.0,0.0,0.0,0.00085580035,0.0,0.0,0.0,0.0,0.0,0.0,0.0,0.0
46660000,46580000,1.4551751e-05,0.0,4.374397e-05,2.7876576e-06,0.0,2.3978759e-05,0.0,0.0,0.0,0.0,0.0,0.0,0.0,1.5990365e-05,0.0,0.0,nan,0.0,0.0,0.0,0.0,0.0,0.0,0.0,0.0,0.00015950305,0.0,0.0,0.0,0.0,0.0,0.0,0.0,0.0
47164000,47084000,0.00029764904,0.0,0.000257997,3.1525763e-06,0.0,3.1348016e-05,0.0,0.0,0.0,0.0,0.0,0.0,0.0,4.8700214e-05,0.0,0.0,nan,0.0,0.0,0.0,0.0,0.0,0.0,0.0,0.0,0.00023854892,0.0,0.0,0.0,0.0,0.0,0.0,0.0,0.0
47660000,47580000,0.00022212492,0.0,1.8589963e-05,3.0266337e-06,0.0,3.1912205e-05,0.0,0.0,0.0,0.0,0.0,0.0,0.0,2.1143155e-07,0.0,0.0,nan,0.0,0.0,0.0,0.0,0.0,0.0,0.0,0.0,0.00070234534,0.0,0.0,0.0,0.0,0.0,0.0,0.0,0.0
48164000,48084000,1.0311018e-05,0.0,0.0004912049,2.350988e-06,0.0,3.3913184e-05,0.0,0.0,0.0,0.0,0.0,0.0,0.0,8.28689e-06,0.0,0.0,nan,0.0,0.0,0.0,0.0,0.0,0.0,0.0,0.0,0.0010977408,0.0,0.0,0.0,0.0,0.0,0.0,0.0,0.0
48660000,48580000,0.0005431149,0.0,1.3450789e-05,2.1180076e-06,0.0,3.457848e-05,0.0,0.0,0.0,0.0,0.0,0.0,0.0,8.424495e-06,0.0,0.0,nan,0.0,0.0,0.0,0.0,0.0,0.0,0.0,0.0,0.00079146394,0.0,0.0,0.0,0.0,0.0,0.0,0.0,0.0
49164000,49084000,0.00041919903,0.0,6.0156115e-05,2.1245419e-06,0.0,5.526947e-06,0.0,0.0,0.0,0.0,0.0,0.0,0.0,1.9108816e-06,0.0,0.0,nan,0.0,0.0,0.0,0.0,0.0,0.0,0.0,0.0,0.0015529509,0.0,0.0,0.0,0.0,0.0,0.0,0.0,0.0
49668000,49588000,5.0257195e-06,0.0,5.023998e-05,1.853879e-06,0.0,2.0466712e-05,0.0,0.0,0.0,0.0,0.0,0.0,0.0,1.5711681e-05,0.0,0.0,nan,0.0,0.0,0.0,0.0,0.0,0.0,0.0,0.0,0.00067210605,0.0,0.0,0.0,0.0,0.0,0.0,0.0,0.0
50164000,50084000,1.9452802e-05,0.0,0.00014197984,7.890913e-06,0.0,1.934647e-05,0.0,0.0,0.0,0.0,0.0,0.0,0.0,1.3876779e-05,0.0,0.0,nan,0.0,0.0,0.0,0.0,0.0,0.0,0.0,0.0,0.0006329262,0.0,0.0,0.0,0.0,0.0,0.0,0.0,0.0
50660000,50580000,4.5462068e-05,0.0,0.00030620178,1.4489327e-06,0.0,3.2583954e-05,0.0,0.0,0.0,0.0,0.0,0.0,0.0,2.4539816e-07,0.0,0.0,nan,0.0,0.0,0.0,0.0,0.0,0.0,0.0,0.0,0.0013336794,0.0,0.0,0.0,0.0,0.0,0.0,0.0,0.0
51164000,51084000,2.5522835e-05,0.0,0.00016716478,1.457721e-06,0.0,3.4359724e-05,0.0,0.0,0.0,0.0,0.0,0.0,0.0,1.8487759e-06,0.0,0.0,nan,0.0,0.0,0.0,0.0,0.0,0.0,0.0,0.0,0.0002751689,0.0,0.0,0.0,0.0,0.0,0.0,0.0,0.0
51660000,51580000,2.9946275e-05,0.0,0.000171273,1.6567701e-06,0.0,3.6614492e-05,0.0,0.0,0.0,0.0,0.0,0.0,0.0,2.2070851e-06,0.0,0.0,nan,0.0,0.0,0.0,0.0,0.0,0.0,0.0,0.0,0.00020589495,0.0,0.0,0.0,0.0,0.0,0.0,0.0,0.0
52164000,52084000,1.4479149e-08,0.0,0.00016260248,2.1968062e-06,0.0,4.9943068e-05,0.0,0.0,0.0,0.0,0.0,0.0,0.0,1.7905752e-05,0.0,0.0,nan,0.0,0.0,0.0,0.0,0.0,0.0,0.0,0.0,4.5197474e-05,0.0,0.0,0.0,0.0,0.0,0.0,0.0,0.0
52668000,52588000,1.1272316e-06,0.0,0.0009276162,8.750493e-06,0.0,2.5688163e-05,0.0,0.0,0.0,0.0,0.0,0.0,0.0,6.9241396e-06,0.0,0.0,nan,0.0,0.0,0.0,0.0,0.0,0.0,0.0,0.0,0.0001545176,0.0,0.0,0.0,0.0,0.0,0.0,0.0,0.0
53164000,53084000,4.9418122e-05,0.0,0.00015627647,2.086709e-06,0.0,4.9334467e-05,0.0,0.0,0.0,0.0,0.0,0.0,0.0,5.768827e-06,0.0,0.0,nan,0.0,0.0,0.0,0.0,0.0,0.0,0.0,0.0,0.00042550234,0.0,0.0,0.0,0.0,0.0,0.0,0.0,0.0
53668000,53588000,1.7579743e-05,0.0,0.00030253275,1.8647302e-06,0.0,4.914523e-05,0.0,0.0,0.0,0.0,0.0,0.0,0.0,2.8851657e-06,0.0,0.0,nan,0.0,0.0,0.0,0.0,0.0,0.0,0.0,0.0,0.00016665892,0.0,0.0,0.0,0.0,0.0,0.0,0.0,0.0
54164000,54084000,4.119988e-05,0.0,0.0001735092,1.8811465e-06,0.0,2.4842524e-05,0.0,0.0,0.0,0.0,0.0,0.0,0.0,6.9177368e-06,0.0,0.0,nan,0.0,0.0,0.0,0.0,0.0,0.0,0.0,0.0,8.3517945e-05,0.0,0.0,0.0,0.0,0.0,0.0,0.0,0.0
54660000,54580000,0.00033931417,0.0,0.00029704595,1.9218428e-06,0.0,2.9627685e-05,0.0,0.0,0.0,0.0,0.0,0.0,0.0,1.2434617e-05,0.0,0.0,nan,0.0,0.0,0.0,0.0,0.0,0.0,0.0,0.0,0.00079968653,0.0,0.0,0.0,0.0,0.0,0.0,0.0,0.0
55164000,55084000,3.3392487e-05,0.0,6.85331e-05,1.9036115e-06,0.0,2.1746477e-05,0.0,0.0,0.0,0.0,0.0,0.0,0.0,2.5753485e-07,0.0,0.0,nan,0.0,0.0,0.0,0.0,0.0,0.0,0.0,0.0,0.0010820488,0.0,0.0,0.0,0.0,0.0,0.0,0.0,0.0
55660000,55580000,0.00031119745,0.0,3.1001182e-05,6.9825865e-07,0.0,5.971413e-05,0.0,0.0,0.0,0.0,0.0,0.0,0.0,1.0355411e-05,0.0,0.0,nan,0.0,0.0,0.0,0.0,0.0,0.0,0.0,0.0,0.00038620562,0.0,0.0,0.0,0.0,0.0,0.0,0.0,0.0
56164000,56084000,0.00011906361,0.0,0.00029700727,2.7876439e-08,0.0,9.6110794e-05,0.0,0.0,0.0,0.0,0.0,0.0,0.0,5.451828e-05,0.0,0.0,nan,0.0,0.0,0.0,0.0,0.0,0.0,0.0,0.0,0.00031635148,0.0,0.0,0.0,0.0,0.0,0.0,0.0,0.0
56668000,56588000,0.00021897067,0.0,0.0003991033,3.65185e-07,0.0,0.00015555706,0.0,0.0,0.0,0.0,0.0,0.0,0.0,1.932141e-07,0.0,0.0,nan,0.0,0.0,0.0,0.0,0.0,0.0,0.0,0.0,0.00018259617,0.0,0.0,0.0,0.0,0.0,0.0,0.0,0.0
57164000,57084000,2.5178986e-05,0.0,0.00054205395,8.483036e-06,0.0,0.00017196334,0.0,0.0,0.0,0.0,0.0,0.0,0.0,3.452872e-07,0.0,0.0,nan,0.0,0.0,0.0,0.0,0.0,0.0,0.0,0.0,0.00011179774,0.0,0.0,0.0,0.0,0.0,0.0,0.0,0.0
57668000,57588000,0.00010379557,0.0,0.0007366437,1.1100711e-05,0.0,0.00037759423,0.0,0.0,0.0,0.0,0.0,0.0,0.0,2.0602105e-05,0.0,0.0,nan,0.0,0.0,0.0,0.0,0.0,0.0,0.0,0.0,7.9455946e-05,0.0,0.0,0.0,0.0,0.0,0.0,0.0,0.0
58164000,58084000,5.1350213e-05,0.0,5.8738027e-05,1.7309785e-05,0.0,0.00045472741,0.0,0.0,0.0,0.0,0.0,0.0,0.0,4.399669e-07,0.0,0.0,nan,0.0,0.0,0.0,0.0,0.0,0.0,0.0,0.0,0.3135511,0.0,0.0,0.0,0.0,0.0,0.0,0.0,0.0
58660000,58580000,0.0025990808,0.0,4.668647e-05,9.59488e-05,0.0,0.00051318377,0.0,0.0,0.0,0.0,0.0,0.0,0.0,5.7323956e-05,0.0,0.0,nan,0.0,0.0,0.0,0.0,0.0,0.0,0.0,0.0,0.015488827,0.0,0.0,0.0,0.0,0.0,0.0,0.0,0.0
59164000,59084000,0.002117697,0.0,3.9139613e-05,0.00034047707,0.0,0.0005082166,0.0,0.0,0.0,0.0,0.0,0.0,0.0,9.567693e-06,0.0,0.0,nan,0.0,0.0,0.0,0.0,0.0,0.0,0.0,0.0,0.05291797,0.0,0.0,0.0,0.0,0.0,0.0,0.0,0.0
59660000,59580000,0.00023403415,0.0,0.0008470861,0.00064800674,0.0,0.0005317903,0.0,0.0,0.0,0.0,0.0,0.0,0.0,7.2121664e-05,0.0,0.0,nan,0.0,0.0,0.0,0.0,0.0,0.0,0.0,0.0,0.047758132,0.0,0.0,0.0,0.0,0.0,0.0,0.0,0.0
60164000,60084000,6.3568496e-06,0.0,0.00063586846,0.0005695116,0.0,0.00061121443,0.0,0.0,0.0,0.0,0.0,0.0,0.0,8.143901e-06,0.0,0.0,nan,0.0,0.0,0.0,0.0,0.0,0.0,0.0,0.0,0.014317598,0.0,0.0,0.0,0.0,0.0,0.0,0.0,0.0
60668000,60588000,0.0002559144,0.0,0.0003012694,0.0004350062,0.0,0.0007468204,0.0,0.0,0.0,0.0,0.0,0.0,0.0,8.005241e-06,0.0,0.0,nan,0.0,0.0,0.0,0.0,0.0,0.0,0.0,0.0,0.0016352069,0.0,0.0,0.0,0.0,0.0,0.0,0.0,0.0
61164000,61084000,0.00038901332,0.0,0.0010438719,0.00030321238,0.0,0.0006739907,0.0,0.0,0.0,0.0,0.0,0.0,0.0,1.3687769e-05,0.0,0.0,nan,0.0,0.0,0.0,0.0,0.0,0.0,0.0,0.0,0.0008823603,0.0,0.0,0.0,0.0,0.0,0.0,0.0,0.0
61660000,61580000,0.00070963165,0.0,0.00049582904,0.0001168433,0.0,0.0006937615,0.0,0.0,0.0,0.0,0.0,0.0,0.0,3.1823695e-06,0.0,0.0,nan,0.0,0.0,0.0,0.0,0.0,0.0,0.0,0.0,0.0006421383,0.0,0.0,0.0,0.0,0.0,0.0,0.0,0.0
62164000,62084000,0.00075301895,0.0,0.00027072174,8.1795195e-05,0.0,0.00058440206,0.0,0.0,0.0,0.0,0.0,0.0,0.0,2.4235173e-06,0.0,0.0,nan,0.0,0.0,0.0,0.0,0.0,0.0,0.0,0.0,0.002753964,0.0,0.0,0.0,0.0,0.0,0.0,0.0,0.0
62668000,62588000,0.00034272898,0.0,0.00066484354,5.096742e-05,0.0,0.00065823866,0.0,0.0,0.0,0.0,0.0,0.0,0.0,1.800931e-07,0.0,0.0,nan,0.0,0.0,0.0,0.0,0.0,0.0,0.0,0.0,0.0021578567,0.0,0.0,0.0,0.0,0.0,0.0,0.0,0.0
63164000,63084000,0.00044676778,0.0,0.0014547163,4.163393e-05,0.0,0.0006790951,0.0,0.0,0.0,0.0,0.0,0.0,0.0,1.2711404e-05,0.0,0.0,nan,0.0,0.0,0.0,0.0,0.0,0.0,0.0,0.0,0.0013581356,0.0,0.0,0.0,0.0,0.0,0.0,0.0,0.0
63668000,63588000,0.0004191531,0.0,0.001180972,8.1821876e-05,0.0,0.0007130782,0.0,0.0,0.0,0.0,0.0,0.0,0.0,1.1204292e-07,0.0,0.0,nan,0.0,0.0,0.0,0.0,0.0,0.0,0.0,0.0,0.0032952388,0.0,0.0,0.0,0.0,0.0,0.0,0.0,0.0
64164000,64084000,0.00060773495,0.0,0.0010167089,9.5430485e-05,0.0,0.00085931976,0.0,0.0,0.0,0.0,0.0,0.0,0.0,2.518568e-05,0.0,0.0,nan,0.0,0.0,0.0,0.0,0.0,0.0,0.0,0.0,0.001795499,0.0,0.0,0.0,0.0,0.0,0.0,0.0,0.0
64660000,64580000,0.00083354185,0.0,0.0012562462,0.00010940493,0.0,0.0008460838,0.0,0.0,0.0,0.0,0.0,0.0,0.0,6.0701876e-07,0.0,0.0,nan,0.0,0.0,0.0,0.0,0.0,0.0,0.0,0.0,0.0013544636,0.0,0.0,0.0,0.0,0.0,0.0,0.0,0.0
65164000,65084000,0.0006580523,0.0,0.00092161895,0.00014165335,0.0,0.000888883,0.0,0.0,0.0,0.0,0.0,0.0,0.0,8.63865e-06,0.0,0.0,nan,0.0,0.0,0.0,0.0,0.0,0.0,0.0,0.0,0.0011224219,0.0,0.0,0.0,0.0,0.0,0.0,0.0,0.0
65668000,65588000,0.001941986,0.0,0.0022682666,0.0001253105,0.0,0.00083176454,0.0,0.0,0.0,0.0,0.0,0.0,0.0,1.26365185e-05,0.0,0.0,nan,0.0,0.0,0.0,0.0,0.0,0.0,0.0,0.0,0.00048377732,0.0,0.0,0.0,0.0,0.0,0.0,0.0,0.0
66164000,66084000,0.0022098953,0.0,0.0003219229,0.00011854469,0.0,0.0008614075,0.0,0.0,0.0,0.0,0.0,0.0,0.0,1.6616717e-05,0.0,0.0,nan,0.0,0.0,0.0,0.0,0.0,0.0,0.0,0.0,0.0010972689,0.0,0.0,0.0,0.0,0.0,0.0,0.0,0.0
66660000,66580000,0.0012975445,0.0,0.00084006425,0.00015152612,0.0,0.0008491319,0.0,0.0,0.0,0.0,0.0,0.0,0.0,1.0357238e-05,0.0,0.0,nan,0.0,0.0,0.0,0.0,0.0,0.0,0.0,0.0,0.00019443981,0.0,0.0,0.0,0.0,0.0,0.0,0.0,0.0
67164000,67084000,0.0018666371,0.0,0.00060346426,0.00019288174,0.0,0.0009220456,0.0,0.0,0.0,0.0,0.0,0.0,0.0,1.3106046e-07,0.0,0.0,nan,0.0,0.0,0.0,0.0,0.0,0.0,0.0,0.0,0.0008143807,0.0,0.0,0.0,0.0,0.0,0.0,0.0,0.0
67668000,67588000,0.001436435,0.0,0.00035900145,0.00024715433,0.0,0.0007429812,0.0,0.0,0.0,0.0,0.0,0.0,0.0,1.18289745e-05,0.0,0.0,nan,0.0,0.0,0.0,0.0,0.0,0.0,0.0,0.0,0.0016483577,0.0,0.0,0.0,0.0,0.0,0.0,0.0,0.0
68164000,68084000,0.0012539305,0.0,0.0014079539,0.00023782869,0.0,0.0007093112,0.0,0.0,0.0,0.0,0.0,0.0,0.0,3.4093903e-06,0.0,0.0,nan,0.0,0.0,0.0,0.0,0.0,0.0,0.0,0.0,0.0011925622,0.0,0.0,0.0,0.0,0.0,0.0,0.0,0.0
68660000,68580000,0.0013635562,0.0,2.3944891e-05,0.00024247075,0.0,0.0008063032,0.0,0.0,0.0,0.0,0.0,0.0,0.0,1.5558511e-05,0.0,0.0,nan,0.0,0.0,0.0,0.0,0.0,0.0,0.0,0.0,0.0032369255,0.0,0.0,0.0,0.0,0.0,0.0,0.0,0.0
69164000,69084000,0.0012437836,0.0,6.251983e-06,0.0002299131,0.0,0.00056628656,0.0,0.0,0.0,0.0,0.0,0.0,0.0,2.5200703e-05,0.0,0.0,nan,0.0,0.0,0.0,0.0,0.0,0.0,0.0,0.0,0.0031163853,0.0,0.0,0.0,0.0,0.0,0.0,0.0,0.0
69660000,69580000,0.0017422083,0.0,0.00020207818,0.00025241324,0.0,0.00047373606,0.0,0.0,0.0,0.0,0.0,0.0,0.0,0.0001135274,0.0,0.0,nan,0.0,0.0,0.0,0.0,0.0,0.0,0.0,0.0,0.00488497,0.0,0.0,0.0,0.0,0.0,0.0,0.0,0.0
70164000,70084000,0.002281107,0.0,0.00045502683,0.000270016,0.0,0.00036479844,0.0,0.0,0.0,0.0,0.0,0.0,0.0,5.994048e-07,0.0,0.0,nan,0.0,0.0,0.0,0.0,0.0,0.0,0.0,0.0,0.0013561967,0.0,0.0,0.0,0.0,0.0,0.0,0.0,0.0
70668000,70588000,0.002963789,0.0,1.2739641e-05,0.00030364265,0.0,0.0002736131,0.0,0.0,0.0,0.0,0.0,0.0,0.0,1.0691604e-05,0.0,0.0,nan,0.0,0.0,0.0,0.0,0.0,0.0,0.0,0.0,0.0016097693,0.0,0.0,0.0,0.0,0.0,0.0,0.0,0.0
71164000,71084000,0.0037886233,0.0,0.0007005792,0.0003482549,0.0,0.00016531306,0.0,0.0,0.0,0.0,0.0,0.0,0.0,6.279949e-05,0.0,0.0,nan,0.0,0.0,0.0,0.0,0.0,0.0,0.0,0.0,0.004345584,0.0,0.0,0.0,0.0,0.0,0.0,0.0,0.0
71668000,71588000,0.005004932,0.0,0.00011290031,0.0005246671,0.0,7.287607e-05,0.0,0.0,0.0,0.0,0.0,0.0,0.0,3.580507e-05,0.0,0.0,nan,0.0,0.0,0.0,0.0,0.0,0.0,0.0,0.0,0.0006830477,0.0,0.0,0.0,0.0,0.0,0.0,0.0,0.0
72164000,72084000,0.00447139,0.0,0.00014804833,0.0006898655,0.0,5.5631233e-05,0.0,0.0,0.0,0.0,0.0,0.0,0.0,2.3931054e-05,0.0,0.0,nan,0.0,0.0,0.0,0.0,0.0,0.0,0.0,0.0,0.00015768316,0.0,0.0,0.0,0.0,0.0,0.0,0.0,0.0
72660000,72580000,0.00538955,0.0,0.000800569,0.00080941874,0.0,8.611915e-06,0.0,0.0,0.0,0.0,0.0,0.0,0.0,2.3833283e-05,0.0,0.0,nan,0.0,0.0,0.0,0.0,0.0,0.0,0.0,0.0,0.0015802488,0.0,0.0,0.0,0.0,0.0,0.0,0.0,0.0
73164000,73084000,0.0048715165,0.0,0.00014051802,0.0009229506,0.0,5.2999957e-07,0.0,0.0,0.0,0.0,0.0,0.0,0.0,0.00011554598,0.0,0.0,nan,0.0,0.0,0.0,0.0,0.0,0.0,0.0,0.0,0.0019817231,0.0,0.0,0.0,0.0,0.0,0.0,0.0,0.0
73660000,73580000,0.0043304833,0.0,8.5513506e-07,0.0011370811,0.0,2.1243425e-06,0.0,0.0,0.0,0.0,0.0,0.0,0.0,0.00011730185,0.0,0.0,nan,0.0,0.0,0.0,0.0,0.0,0.0,0.0,0.0,0.00064272515,0.0,0.0,0.0,0.0,0.0,0.0,0.0,0.0
74164000,74084000,0.004603059,0.0,2.5700589e-05,0.0012184917,0.0,4.1003295e-06,0.0,0.0,0.0,0.0,0.0,0.0,0.0,4.305244e-05,0.0,0.0,nan,0.0,0.0,0.0,0.0,0.0,0.0,0.0,0.0,1.0241782e-05,0.0,0.0,0.0,0.0,0.0,0.0,0.0,0.0
74660000,74580000,0.004861317,0.0,0.0012418561,0.0012847281,0.0,9.286454e-06,0.0,0.0,0.0,0.0,0.0,0.0,0.0,7.9773185e-05,0.0,0.0,nan,0.0,0.0,0.0,0.0,0.0,0.0,0.0,0.0,0.0028754994,0.0,0.0,0.0,0.0,0.0,0.0,0.0,0.0
75164000,75084000,0.004396754,0.0,0.00019679207,0.0013570404,0.0,5.8356974e-05,0.0,0.0,0.0,0.0,0.0,0.0,0.0,0.00016032138,0.0,0.0,nan,0.0,0.0,0.0,0.0,0.0,0.0,0.0,0.0,0.00014298907,0.0,0.0,0.0,0.0,0.0,0.0,0.0,0.0
75660000,75580000,0.0055741905,0.0,7.261821e-05,0.0015353308,0.0,0.00013553844,0.0,0.0,0.0,0.0,0.0,0.0,0.0,6.998508e-05,0.0,0.0,nan,0.0,0.0,0.0,0.0,0.0,0.0,0.0,0.0,0.00030594738,0.0,0.0,0.0,0.0,0.0,0.0,0.0,0.0
76164000,76084000,0.0039576413,0.0,0.00031803738,0.0016448973,0.0,0.00019182147,0.0,0.0,0.0,0.0,0.0,0.0,0.0,1.24593e-05,0.0,0.0,nan,0.0,0.0,0.0,0.0,0.0,0.0,0.0,0.0,0.006144086,0.0,0.0,0.0,0.0,0.0,0.0,0.0,0.0
76668000,76588000,0.0038115191,0.0,0.00046490273,0.0016670771,0.0,0.00028258798,0.0,0.0,0.0,0.0,0.0,0.0,0.0,0.00014208621,0.0,0.0,nan,0.0,0.0,0.0,0.0,0.0,0.0,0.0,0.0,0.0023608506,0.0,0.0,0.0,0.0,0.0,0.0,0.0,0.0
77164000,77084000,0.0039085946,0.0,0.00056207366,0.00167813,0.0,0.00037007363,0.0,0.0,0.0,0.0,0.0,0.0,0.0,1.9769406e-05,0.0,0.0,nan,0.0,0.0,0.0,0.0,0.0,0.0,0.0,0.0,0.0073411656,0.0,0.0,0.0,0.0,0.0,0.0,0.0,0.0
77668000,77588000,0.003057462,0.0,0.27142513,0.0017596907,0.0,0.011423395,0.0,0.0,0.0,0.0,0.0,0.0,0.0,0.00085795176,0.0,0.0,nan,0.0,0.0,0.0,0.0,0.0,0.0,0.0,0.0,0.00041678903,0.0,0.0,0.0,0.0,0.0,0.0,0.0,0.0
78164000,78084000,0.0024229758,0.0,0.24471213,0.0016511896,0.0,0.029673832,0.0,0.0,0.0,0.0,0.0,0.0,0.0,0.0025749279,0.0,0.0,nan,0.0,0.0,0.0,0.0,0.0,0.0,0.0,0.0,0.0010961076,0.0,0.0,0.0,0.0,0.0,0.0,0.0,0.0
78660000,78580000,0.002258771,0.0,0.22497466,0.0015933596,0.0,0.049153905,0.0,0.0,0.0,0.0,0.0,0.0,0.0,0.0033139233,0.0,0.0,nan,0.0,0.0,0.0,0.0,0.0,0.0,0.0,0.0,0.00046138116,0.0,0.0,0.0,0.0,0.0,0.0,0.0,0.0
79164000,79084000,0.001430854,0.0,0.20178851,0.0014628778,0.0,0.06751564,0.0,0.0,0.0,0.0,0.0,0.0,0.0,0.0050558313,0.0,0.0,nan,0.0,0.0,0.0,0.0,0.0,0.0,0.0,0.0,0.003267585,0.0,0.0,0.0,0.0,0.0,0.0,0.0,0.0
79668000,79588000,0.0008493337,0.0,0.15793392,0.0011599046,0.0,0.09447332,0.0,0.0,0.0,0.0,0.0,0.0,0.0,0.0034269514,0.0,0.0,nan,0.0,0.0,0.0,0.0,0.0,0.0,0.0,0.0,0.0008125169,0.0,0.0,0.0,0.0,0.0,0.0,0.0,0.0
80164000,80084000,0.0009814436,0.0,0.8087109,0.0010575092,0.0,0.14053772,0.0,0.0,0.0,0.0,0.0,0.0,0.0,0.0089172805,0.0,0.0,nan,0.0,0.0,0.0,0.0,0.0,0.0,0.0,0.0,0.0016990479,0.0,0.0,0.0,0.0,0.0,0.0,0.0,0.0
80660000,80580000,0.0008021419,0.0,0.7824963,0.00095810264,0.0,0.21903972,0.0,0.0,0.0,0.0,0.0,0.0,0.0,0.011969047,0.0,0.0,nan,0.0,0.0,0.0,0.0,0.0,0.0,0.0,0.0,0.00036634132,0.0,0.0,0.0,0.0,0.0,0.0,0.0,0.0
81164000,81084000,0.0007078938,0.0,0.7411741,0.00084625767,0.0,0.28559035,0.0,0.0,0.0,0.0,0.0,0.0,0.0,0.016751137,0.0,0.0,nan,0.0,0.0,0.0,0.0,0.0,0.0,0.0,0.0,0.0013117478,0.0,0.0,0.0,0.0,0.0,0.0,0.0,0.0
81660000,81580000,0.00028243184,0.0,0.5619427,0.00065527944,0.0,0.38387036,0.0,0.0,0.0,0.0,0.0,0.0,0.0,0.013972161,0.0,0.0,nan,0.0,0.0,0.0,0.0,0.0,0.0,0.0,0.0,0.0018706446,0.0,0.0,0.0,0.0,0.0,0.0,0.0,0.0
82164000,82084000,0.0004898651,0.0,0.47339416,0.00058022526,0.0,0.41314498,0.0,0.0,0.0,0.0,0.0,0.0,0.0,0.01353247,0.0,0.0,nan,0.0,0.0,0.0,0.0,0.0,0.0,0.0,0.0,0.00017771627,0.0,0.0,0.0,0.0,0.0,0.0,0.0,0.0
82660000,82580000,0.00019915572,0.0,0.43879077,0.00055856287,0.0,0.42584878,0.0,0.0,0.0,0.0,0.0,0.0,0.0,0.014965112,0.0,0.0,nan,0.0,0.0,0.0,0.0,0.0,0.0,0.0,0.0,0.00046436896,0.0,0.0,0.0,0.0,0.0,0.0,0.0,0.0
83164000,83084000,0.00017191436,0.0,0.33068824,0.00046491867,0.0,0.43056846,0.0,0.0,0.0,0.0,0.0,0.0,0.0,0.012054837,0.0,0.0,nan,0.0,0.0,0.0,0.0,0.0,0.0,0.0,0.0,0.0016488141,0.0,0.0,0.0,0.0,0.0,0.0,0.0,0.0
83660000,83580000,0.0005726191,0.0,0.22942616,0.00029957062,0.0,0.4131607,0.0,0.0,0.0,0.0,0.0,0.0,0.0,0.007891295,0.0,0.0,nan,0.0,0.0,0.0,0.0,0.0,0.0,0.0,0.0,0.0020120644,0.0,0.0,0.0,0.0,0.0,0.0,0.0,0.0
84164000,84084000,0.00048296206,0.0,0.1940872,0.0002317744,0.0,0.39199975,0.0,0.0,0.0,0.0,0.0,0.0,0.0,0.00599346,0.0,0.0,nan,0.0,0.0,0.0,0.0,0.0,0.0,0.0,0.0,0.00124929,0.0,0.0,0.0,0.0,0.0,0.0,0.0,0.0
84660000,84580000,0.00026636512,0.0,0.14693764,0.00017303597,0.0,0.37231526,0.0,0.0,0.0,0.0,0.0,0.0,0.0,0.0055235717,0.0,0.0,nan,0.0,0.0,0.0,0.0,0.0,0.0,0.0,0.0,0.00068371336,0.0,0.0,0.0,0.0,0.0,0.0,0.0,0.0
85164000,85084000,0.00028430487,0.0,0.12764013,0.0001224891,0.0,0.3438903,0.0,0.0,0.0,0.0,0.0,0.0,0.0,0.004517632,0.0,0.0,nan,0.0,0.0,0.0,0.0,0.0,0.0,0.0,0.0,0.00080355175,0.0,0.0,0.0,0.0,0.0,0.0,0.0,0.0
85668000,85588000,0.0003125455,0.0,0.074035816,7.891241e-05,0.0,0.29459172,0.0,0.0,0.0,0.0,0.0,0.0,0.0,0.0016908277,0.0,0.0,nan,0.0,0.0,0.0,0.0,0.0,0.0,0.0,0.0,0.0008337912,0.0,0.0,0.0,0.0,0.0,0.0,0.0,0.0
86164000,86084000,0.00041580616,0.0,0.0477651,8.660609e-05,0.0,0.26203763,0.0,0.0,0.0,0.0,0.0,0.0,0.0,0.0006432518,0.0,0.0,nan,0.0,0.0,0.0,0.0,0.0,0.0,0.0,0.0,0.0009153732,0.0,0.0,0.0,0.0,0.0,0.0,0.0,0.0
86668000,86588000,0.0005628078,0.0,0.032513432,7.7444194e-05,0.0,0.2346873,0.0,0.0,0.0,0.0,0.0,0.0,0.0,7.551368e-05,0.0,0.0,nan,0.0,0.0,0.0,0.0,0.0,0.0,0.0,0.0,0.00052575953,0.0,0.0,0.0,0.0,0.0,0.0,0.0,0.0
87164000,87084000,7.239377e-05,0.0,0.008566784,1.9960793e-05,0.0,0.15616831,0.0,0.0,0.0,0.0,0.0,0.0,0.0,1.3443553e-05,0.0,0.0,nan,0.0,0.0,0.0,0.0,0.0,0.0,0.0,0.0,1.272617e-06,0.0,0.0,0.0,0.0,0.0,0.0,0.0,0.0
87660000,87580000,3.1966792e-07,0.0,0.00015192239,2.017489e-05,0.0,0.109348856,0.0,0.0,0.0,0.0,0.0,0.0,0.0,0.00044300253,0.0,0.0,nan,0.0,0.0,0.0,0.0,0.0,0.0,0.0,0.0,0.0017630229,0.0,0.0,0.0,0.0,0.0,0.0,0.0,0.0
88164000,88084000,8.4535146e-05,0.0,4.326758e-05,2.1489263e-05,0.0,0.09508538,0.0,0.0,0.0,0.0,0.0,0.0,0.0,0.00078622403,0.0,0.0,nan,0.0,0.0,0.0,0.0,0.0,0.0,0.0,0.0,0.00198938,0.0,0.0,0.0,0.0,0.0,0.0,0.0,0.0
88660000,88580000,5.8162237e-05,0.0,0.00045289178,2.1326368e-05,0.0,0.08427959,0.0,0.0,0.0,0.0,0.0,0.0,0.0,0.0005969334,0.0,0.0,nan,0.0,0.0,0.0,0.0,0.0,0.0,0.0,0.0,0.0008804383,0.0,0.0,0.0,0.0,0.0,0.0,0.0,0.0
89164000,89084000,1.7101931e-06,0.0,0.0008839747,2.0150603e-05,0.0,0.0758794,0.0,0.0,0.0,0.0,0.0,0.0,0.0,0.0007339156,0.0,0.0,nan,0.0,0.0,0.0,0.0,0.0,0.0,0.0,0.0,0.00032989334,0.0,0.0,0.0,0.0,0.0,0.0,0.0,0.0
