timestamp,timestamp_sample,time_utc_usec,device_id,lat,lon,alt,alt_ellipsoid,s_variance_m_s,c_variance_rad,eph,epv,hdop,vdop,noise_per_ms,jamming_indicator,vel_m_s,vel_n_m_s,vel_e_m_s,vel_d_m_s,cog_rad,timestamp_time_relative,heading,heading_offset,heading_accuracy,rtcm_injection_rate,automatic_gain_control,fix_type,jamming_state,vel_ned_valid,satellites_used,selected_rtcm_instance
3592000,0,1695621827118943,11468804,473977508,85456074,488104,488104,0.25,0.5,1.0,1.0,0.0,0.0,0,0,0.0,0.0,0.0,0.02,3.021863,0,nan,nan,0.0,0.0,0,3,0,1,10,0
3992000,0,1695621827518943,0,473977508,85456074,488110,488110,0.25,0.5,1.0,1.0,0.0,0.0,0,0,0.0,0.0,-0.01,0.01,5.0005426,0,nan,nan,0.0,0.0,0,3,0,1,10,0
4392000,0,1695621827918943,0,473977508,85456073,488101,488101,0.25,0.5,1.0,1.0,0.0,0.0,0,0,0.0,0.0,0.01,0.01,1.6543976,0,nan,nan,0.0,0.0,0,3,0,1,10,0
4792000,0,1695621828318943,0,473977508,85456074,488103,488103,0.25,0.5,1.0,1.0,0.0,0.0,0,0,0.0,0.01,0.0,-0.03,0.39043012,0,nan,nan,0.0,0.0,0,3,0,1,10,0
5192000,0,1695621828714943,0,473977508,85456074,488101,488101,0.25,0.5,1.0,1.0,0.0,0.0,0,0,0.0,0.01,0.0,-0.03,5.8252106,0,nan,nan,0.0,0.0,0,3,0,1,10,0
5592000,0,1695621829114943,0,473977508,85456074,488098,488098,0.25,0.5,1.0,1.0,0.0,0.0,0,0,0.0,0.0,0.0,-0.03,0.7305948,0,nan,nan,0.0,0.0,0,3,0,1,10,0
5992000,0,1695621829514943,0,473977508,85456074,488103,488103,0.25,0.5,1.0,1.0,0.0,0.0,0,0,0.0,0.0,0.01,-0.02,2.0909042,0,nan,nan,0.0,0.0,0,3,0,1,10,0
6392000,0,1695621829918943,0,473977508,85456074,488096,488096,0.25,0.5,1.0,1.0,0.0,0.0,0,0,0.0,0.0,0.0,0.02,2.1197023,0,nan,nan,0.0,0.0,0,3,0,1,10,0
6792000,0,1695621830318943,0,473977508,85456074,488108,488108,0.25,0.5,1.0,1.0,0.0,0.0,0,0,0.0,0.0,0.0,0.04,5.775469,0,nan,nan,0.0,0.0,0,3,0,1,10,0
7192000,0,1695621830714943,0,473977508,85456074,488109,488109,0.25,0.5,1.0,1.0,0.0,0.0,0,0,0.0,0.0,0.01,0.02,1.362404,0,nan,nan,0.0,0.0,0,3,0,1,10,0
7592000,0,1695621831114943,0,473977508,85456074,488104,488104,0.25,0.5,1.0,1.0,0.0,0.0,0,0,0.0,0.0,0.0,0.02,5.28922,0,nan,nan,0.0,0.0,0,3,0,1,10,0
7992000,0,1695621831514943,0,473977508,85456074,488102,488102,0.25,0.5,1.0,1.0,0.0,0.0,0,0,0.0,0.01,0.0,0.02,6.1915555,0,nan,nan,0.0,0.0,0,3,0,1,10,0
8392000,0,1695621831914943,0,473977507,85456074,488105,488105,0.25,0.5,1.0,1.0,0.0,0.0,0,0,0.0,0.0,0.0,-0.01,4.0828485,0,nan,nan,0.0,0.0,0,3,0,1,10,0
8792000,0,1695621832318943,0,473977508,85456074,488102,488102,0.25,0.5,1.0,1.0,0.0,0.0,0,0,0.0,0.0,0.0,-0.01,0.776846,0,nan,nan,0.0,0.0,0,3,0,1,10,0
9192000,0,1695621832718943,0,473977508,85456074,488106,488106,0.25,0.5,1.0,1.0,0.0,0.0,0,0,0.0,0.0,0.0,-0.01,5.972691,0,nan,nan,0.0,0.0,0,3,0,1,10,0
9592000,0,1695621833114943,0,473977508,85456074,488101,488101,0.25,0.5,1.0,1.0,0.0,0.0,0,0,0.0,0.0,-0.02,0.0,5.0076985,0,nan,nan,0.0,0.0,0,3,0,1,10,0
9992000,0,1695621833518943,0,473977508,85456074,488094,488094,0.25,0.5,1.0,1.0,0.0,0.0,0,0,0.0,-0.01,0.0,0.0,2.9251716,0,nan,nan,0.0,0.0,0,3,0,1,10,0
10392000,0,1695621833914943,0,473977508,85456075,488092,488092,0.25,0.5,1.0,1.0,0.0,0.0,0,0,0.0,-0.01,0.01,0.0,2.3263493,0,nan,nan,0.0,0.0,0,3,0,1,10,0
10792000,0,1695621834318943,0,473977508,85456074,488098,488098,0.25,0.5,1.0,1.0,0.0,0.0,0,0,0.0,0.0,0.0,-0.02,0.47054073,0,nan,nan,0.0,0.0,0,3,0,1,10,0
11192000,0,1695621834718943,0,473977508,85456074,488097,488097,0.25,0.5,1.0,1.0,0.0,0.0,0,0,0.0,0.01,-0.02,0.01,5.4747486,0,nan,nan,0.0,0.0,0,3,0,1,10,0
11592000,0,1695621835114943,0,473977508,85456074,488113,488113,0.25,0.5,1.0,1.0,0.0,0.0,0,0,0.0,0.01,0.0,0.02,0.23980823,0,nan,nan,0.0,0.0,0,3,0,1,10,0
11992000,0,1695621835518943,0,473977507,85456074,488110,488110,0.25,0.5,1.0,1.0,0.0,0.0,0,0,0.0,0.02,0.01,0.0,0.5305801,0,nan,nan,0.0,0.0,0,3,0,1,10,0
12392000,0,1695621835914943,0,473977508,85456074,488103,488103,0.25,0.5,1.0,1.0,0.0,0.0,0,0,0.0,0.01,0.0,-0.01,0.36966074,0,nan,nan,0.0,0.0,0,3,0,1,10,0
12792000,0,1695621836318943,0,473977508,85456074,488104,488104,0.25,0.5,1.0,1.0,0.0,0.0,0,0,0.0,0.02,-0.01,0.03,5.923822,0,nan,nan,0.0,0.0,0,3,0,1,10,0
13192000,0,1695621836718943,0,473977508,85456074,488105,488105,0.25,0.5,1.0,1.0,0.0,0.0,0,0,0.0,0.01,0.0,0.01,0.1436406,0,nan,nan,0.0,0.0,0,3,0,1,10,0
13592000,0,1695621837114943,0,473977508,85456074,488109,488109,0.25,0.5,1.0,1.0,0.0,0.0,0,0,0.0,-0.03,0.0,-0.02,3.249803,0,nan,nan,0.0,0.0,0,3,0,1,10,0
13992000,0,1695621837518943,0,473977508,85456075,488110,488110,0.25,0.5,1.0,1.0,0.0,0.0,0,0,0.0,0.02,0.0,0.03,0.37629297,0,nan,nan,0.0,0.0,0,3,0,1,10,0
14392000,0,1695621837914943,0,473977508,85456073,488110,488110,0.25,0.5,1.0,1.0,0.0,0.0,0,0,0.0,0.0,0.0,-0.01,2.561445,0,nan,nan,0.0,0.0,0,3,0,1,10,0
14792000,0,1695621838318943,0,473977508,85456074,488106,488106,0.25,0.5,1.0,1.0,0.0,0.0,0,0,0.0,0.0,0.02,0.0,1.7037903,0,nan,nan,0.0,0.0,0,3,0,1,10,0
15192000,0,1695621838718943,0,473977508,85456074,488108,488108,0.25,0.5,1.0,1.0,0.0,0.0,0,0,0.0,0.02,0.0,-0.02,0.1940806,0,nan,nan,0.0,0.0,0,3,0,1,10,0
15592000,0,1695621839114943,0,473977508,85456074,488116,488116,0.25,0.5,1.0,1.0,0.0,0.0,0,0,0.0,-0.01,-0.01,0.0,4.0959387,0,nan,nan,0.0,0.0,0,3,0,1,10,0
15992000,0,1695621839518943,0,473977508,85456074,488099,488099,0.25,0.5,1.0,1.0,0.0,0.0,0,0,0.0,0.0,0.0,0.01,2.9141762,0,nan,nan,0.0,0.0,0,3,0,1,10,0
16392000,0,1695621839918943,0,473977508,85456073,488104,488104,0.25,0.5,1.0,1.0,0.0,0.0,0,0,0.0,0.0,0.01,-0.01,1.0936233,0,nan,nan,0.0,0.0,0,3,0,1,10,0
16792000,0,1695621840314943,0,473977508,85456074,488098,488098,0.25,0.5,1.0,1.0,0.0,0.0,0,0,0.0,0.0,-0.01,-0.01,4.272217,0,nan,nan,0.0,0.0,0,3,0,1,10,0
17192000,0,1695621840714943,0,473977508,85456074,488100,488100,0.25,0.5,1.0,1.0,0.0,0.0,0,0,0.0,0.0,0.0,0.0,2.0385444,0,nan,nan,0.0,0.0,0,3,0,1,10,0
17592000,0,1695621841114943,0,473977508,85456074,488106,488106,0.25,0.5,1.0,1.0,0.0,0.0,0,0,0.0,0.0,0.0,0.01,4.1310196,0,nan,nan,0.0,0.0,0,3,0,1,10,0
17992000,0,1695621841518943,0,473977508,85456074,488106,488106,0.25,0.5,1.0,1.0,0.0,0.0,0,0,0.0,-0.01,0.0,0.02,3.6711254,0,nan,nan,0.0,0.0,0,3,0,1,10,0
18392000,0,1695621841918943,0,473977508,85456074,488103,488103,0.25,0.5,1.0,1.0,0.0,0.0,0,0,0.0,0.0,0.0,0.0,3.5236452,0,nan,nan,0.0,0.0,0,3,0,1,10,0
18792000,0,1695621842314943,0,473977508,85456073,488097,488097,0.25,0.5,1.0,1.0,0.0,0.0,0,0,0.0,0.02,0.0,0.02,5.914048,0,nan,nan,0.0,0.0,0,3,0,1,10,0
19192000,0,1695621842714943,0,473977508,85456074,488100,488100,0.25,0.5,1.0,1.0,0.0,0.0,0,0,0.0,-0.01,0.0,0.0,3.5126495,0,nan,nan,0.0,0.0,0,3,0,1,10,0
19592000,0,1695621843114943,0,473977508,85456074,488103,488103,0.25,0.5,1.0,1.0,0.0,0.0,0,0,0.0,0.02,0.0,0.0,6.211278,0,nan,nan,0.0,0.0,0,3,0,1,10,0
19992000,0,1695621843518943,0,473977508,85456074,488099,488099,0.25,0.5,1.0,1.0,0.0,0.0,0,0,0.0,0.0,0.0,-0.01,5.3951616,0,nan,nan,0.0,0.0,0,3,0,1,10,0
20392000,0,1695621843918943,0,473977508,85456074,488112,488112,0.25,0.5,1.0,1.0,0.0,0.0,0,0,0.0,-0.01,0.0,-0.01,3.1372292,0,nan,nan,0.0,0.0,0,3,0,1,10,0
20792000,0,1695621844314943,0,473977508,85456074,488099,488099,0.25,0.5,1.0,1.0,0.0,0.0,0,0,0.0,0.0,0.0,-0.02,0.17470746,0,nan,nan,0.0,0.0,0,3,0,1,10,0
21192000,0,1695621844714943,0,473977508,85456074,488106,488106,0.25,0.5,1.0,1.0,0.0,0.0,0,0,0.0,0.0,0.0,-0.03,1.5330971,0,nan,nan,0.0,0.0,0,3,0,1,10,0
21592000,0,1695621845114943,0,473977508,85456074,488112,488112,0.25,0.5,1.0,1.0,0.0,0.0,0,0,0.0,-0.01,0.0,0.0,3.2347932,0,nan,nan,0.0,0.0,0,3,0,1,10,0
21992000,0,1695621845518943,0,473977508,85456075,488099,488099,0.25,0.5,1.0,1.0,0.0,0.0,0,0,0.0,0.0,-0.01,0.01,5.0015903,0,nan,nan,0.0,0.0,0,3,0,1,10,0
22392000,0,1695621845918943,0,473977508,85456074,488097,488097,0.25,0.5,1.0,1.0,0.0,0.0,0,0,0.0,0.0,0.0,0.01,3.411246,0,nan,nan,0.0,0.0,0,3,0,1,10,0
22792000,0,1695621846314943,0,473977508,85456074,488096,488096,0.25,0.5,1.0,1.0,0.0,0.0,0,0,0.0,-0.01,0.03,-0.03,1.8629644,0,nan,nan,0.0,0.0,0,3,0,1,10,0
23192000,0,1695621846714943,0,473977508,85456074,488108,488108,0.25,0.5,1.0,1.0,0.0,0.0,0,0,0.0,0.02,0.01,0.0,0.61889374,0,nan,nan,0.0,0.0,0,3,0,1,10,0
23592000,0,1695621847114943,0,473977508,85456073,488104,488104,0.25,0.5,1.0,1.0,0.0,0.0,0,0,0.0,0.01,0.01,0.0,1.0025171,0,nan,nan,0.0,0.0,0,3,0,1,10,0
23992000,0,1695621847518943,0,473977508,85456073,488103,488103,0.25,0.5,1.0,1.0,0.0,0.0,0,0,0.0,-0.01,0.0,0.049999997,2.8848546,0,nan,nan,0.0,0.0,0,3,0,1,10,0
24392000,0,1695621847918943,0,473977508,85456074,488104,488104,0.25,0.5,1.0,1.0,0.0,0.0,0,0,0.0,-0.01,-0.01,-0.049999997,3.706032,0,nan,nan,0.0,0.0,0,3,0,1,10,0
24792000,0,1695621848314943,0,473977508,85456074,488102,488102,0.25,0.5,1.0,1.0,0.0,0.0,0,0,0.0,0.0,0.0,0.01,5.8012996,0,nan,nan,0.0,0.0,0,3,0,1,10,0
25192000,0,1695621848714943,0,473977508,85456074,488095,488095,0.25,0.5,1.0,1.0,0.0,0.0,0,0,0.0,0.0,-0.01,0.03,5.2928853,0,nan,nan,0.0,0.0,0,3,0,1,10,0
25592000,0,1695621849114943,0,473977508,85456074,488103,488103,0.25,0.5,1.0,1.0,0.0,0.0,0,0,0.0,0.0,0.01,0.01,1.9065976,0,nan,nan,0.0,0.0,0,3,0,1,10,0
25992000,0,1695621849518943,0,473977508,85456074,488106,488106,0.25,0.5,1.0,1.0,0.0,0.0,0,0,0.0,0.0,0.02,-0.02,2.0202186,0,nan,nan,0.0,0.0,0,3,0,1,10,0
26392000,0,1695621849918943,0,473977508,85456074,488096,488096,0.25,0.5,1.0,1.0,0.0,0.0,0,0,0.0,0.02,0.0,-0.02,5.9458127,0,nan,nan,0.0,0.0,0,3,0,1,10,0
26792000,0,1695621850314943,0,473977508,85456074,488104,488104,0.25,0.5,1.0,1.0,0.0,0.0,0,0,0.0,0.0,0.0,0.0,2.0863667,0,nan,nan,0.0,0.0,0,3,0,1,10,0
27192000,0,1695621850714943,0,473977508,85456074,488105,488105,0.25,0.5,1.0,1.0,0.0,0.0,0,0,0.0,0.0,0.0,0.04,4.772952,0,nan,nan,0.0,0.0,0,3,0,1,10,0
27592000,0,1695621851114943,0,473977508,85456074,488097,488097,0.25,0.5,1.0,1.0,0.0,0.0,0,0,0.0,0.0,0.01,0.0,1.2295843,0,nan,nan,0.0,0.0,0,3,0,1,10,0
27992000,0,1695621851518943,0,473977509,85456074,488091,488091,0.25,0.5,1.0,1.0,0.0,0.0,0,0,0.0,0.0,0.0,0.01,1.3910273,0,nan,nan,0.0,0.0,0,3,0,1,10,0
28392000,0,1695621851918943,0,473977508,85456074,488110,488110,0.25,0.5,1.0,1.0,0.0,0.0,0,0,0.0,-0.01,-0.01,-0.02,3.9097118,0,nan,nan,0.0,0.0,0,3,0,1,10,0
28792000,0,1695621852314943,0,473977508,85456074,488099,488099,0.25,0.5,1.0,1.0,0.0,0.0,0,0,0.0,0.0,0.0,0.0,1.651605,0,nan,nan,0.0,0.0,0,3,0,1,10,0
29192000,0,1695621852714943,0,473977508,85456074,488107,488107,0.25,0.5,1.0,1.0,0.0,0.0,0,0,0.0,0.0,0.0,-0.04,4.954641,0,nan,nan,0.0,0.0,0,3,0,1,10,0
29592000,0,1695621853114943,0,473977508,85456074,488113,488113,0.25,0.5,1.0,1.0,0.0,0.0,0,0,0.0,-0.02,0.0,0.07,2.9492574,0,nan,nan,0.0,0.0,0,3,0,1,10,0
29992000,0,1695621853518943,0,473977508,85456074,488101,488101,0.25,0.5,1.0,1.0,0.0,0.0,0,0,0.0,0.0,-0.01,0.07,5.340533,0,nan,nan,0.0,0.0,0,3,0,1,10,0
30392000,0,1695621853918943,0,473977507,85456073,488101,488101,0.25,0.5,1.0,1.0,0.0,0.0,0,0,0.0,0.0,0.02,0.0,1.6955874,0,nan,nan,0.0,0.0,0,3,0,1,10,0
30792000,0,1695621854314943,0,473977508,85456074,488093,488093,0.25,0.5,1.0,1.0,0.0,0.0,0,0,0.0,0.01,0.0,0.03,5.7709312,0,nan,nan,0.0,0.0,0,3,0,1,10,0
31192000,0,1695621854714943,0,473977508,85456074,488109,488109,0.25,0.5,1.0,1.0,0.0,0.0,0,0,0.0,0.0,0.01,0.06,1.6324065,0,nan,nan,0.0,0.0,0,3,0,1,10,0
31592000,0,1695621855114943,0,473977508,85456074,488103,488103,0.25,0.5,1.0,1.0,0.0,0.0,0,0,0.0,0.0,-0.01,0.02,4.206069,0,nan,nan,0.0,0.0,0,3,0,1,10,0
31992000,0,1695621855518943,0,473977508,85456074,488103,488103,0.25,0.5,1.0,1.0,0.0,0.0,0,0,0.0,-0.01,0.0,0.0,2.5855308,0,nan,nan,0.0,0.0,0,3,0,1,10,0
32392000,0,1695621855918943,0,473977508,85456074,488106,488106,0.25,0.5,1.0,1.0,0.0,0.0,0,0,0.0,0.0,0.0,0.02,3.6255724,0,nan,nan,0.0,0.0,0,3,0,1,10,0
32792000,0,1695621856314943,0,473977507,85456074,488103,488103,0.25,0.5,1.0,1.0,0.0,0.0,0,0,0.0,0.01,0.0,0.0,0.60632735,0,nan,nan,0.0,0.0,0,3,0,1,10,0
33192000,0,1695621856718943,0,473977508,85456074,488093,488093,0.25,0.5,1.0,1.0,0.0,0.0,0,0,0.0,-0.01,0.0,-0.04,2.4294982,0,nan,nan,0.0,0.0,0,3,0,1,10,0
33592000,0,1695621857114943,0,473977508,85456075,488092,488092,0.25,0.5,1.0,1.0,0.0,0.0,0,0,0.0,0.0,0.0,0.02,2.7340581,0,nan,nan,0.0,0.0,0,3,0,1,10,0
33992000,0,1695621857514943,0,473977508,85456074,488088,488088,0.25,0.5,1.0,1.0,0.0,0.0,0,0,0.0,0.0,-0.02,-0.099999994,5.110324,0,nan,nan,0.0,0.0,0,3,0,1,10,0
34392000,0,1695621857918943,0,473977508,85456074,488108,488108,0.25,0.5,1.0,1.0,0.0,0.0,0,0,0.0,0.0,0.01,0.0,1.2868311,0,nan,nan,0.0,0.0,0,3,0,1,10,0
34792000,0,1695621858314943,0,473977508,85456074,488104,488104,0.25,0.5,1.0,1.0,0.0,0.0,0,0,0.0,0.02,-0.01,0.0,5.8163095,0,nan,nan,0.0,0.0,0,3,0,1,10,0
35192000,0,1695621858718943,0,473977508,85456074,488097,488097,0.25,0.5,1.0,1.0,0.0,0.0,0,0,0.0,0.01,0.0,0.01,0.049916413,0,nan,nan,0.0,0.0,0,3,0,1,10,0
35592000,0,1695621859114943,0,473977508,85456074,488099,488099,0.25,0.5,1.0,1.0,0.0,0.0,0,0,0.0,0.0,0.0,0.02,4.8717375,0,nan,nan,0.0,0.0,0,3,0,1,10,0
35992000,0,1695621859514943,0,473977508,85456074,488102,488102,0.25,0.5,1.0,1.0,0.0,0.0,0,0,0.0,0.02,0.01,-0.03,0.5237733,0,nan,nan,0.0,0.0,0,3,0,1,10,0
36392000,0,1695621859918943,0,473977508,85456074,488113,488113,0.25,0.5,1.0,1.0,0.0,0.0,0,0,0.0,0.02,0.01,-0.01,0.750317,0,nan,nan,0.0,0.0,0,3,0,1,10,0
36792000,0,1695621860314943,0,473977508,85456074,488104,488104,0.25,0.5,1.0,1.0,0.0,0.0,0,0,0.0,0.0,0.0,0.02,4.1381755,0,nan,nan,0.0,0.0,0,3,0,1,10,0
37192000,0,1695621860718943,0,473977508,85456074,488102,488102,0.25,0.5,1.0,1.0,0.0,0.0,0,0,0.0,0.0,0.0,0.03,4.5488515,0,nan,nan,0.0,0.0,0,3,0,1,10,0
37592000,0,1695621861114943,0,473977508,85456075,488101,488101,0.25,0.5,1.0,1.0,0.0,0.0,0,0,0.0,-0.01,0.0,0.0,2.8555331,0,nan,nan,0.0,0.0,0,3,0,1,10,0
37992000,0,1695621861514943,0,473977508,85456074,488100,488100,0.25,0.5,1.0,1.0,0.0,0.0,0,0,0.0,0.0,0.02,-0.01,1.2850859,0,nan,nan,0.0,0.0,0,3,0,1,10,0
38392000,0,1695621861918943,0,473977508,85456074,488110,488110,0.25,0.5,1.0,1.0,0.0,0.0,0,0,0.0,0.0,0.01,0.0,1.5428711,0,nan,nan,0.0,0.0,0,3,0,1,10,0
38792000,0,1695621862314943,0,473977508,85456074,488102,488102,0.25,0.5,1.0,1.0,0.0,0.0,0,0,0.0,0.01,0.0,0.03,0.66601765,0,nan,nan,0.0,0.0,0,3,0,1,10,0
39192000,0,1695621862718943,0,473977508,85456075,488114,488114,0.25,0.5,1.0,1.0,0.0,0.0,0,0,0.0,0.0,-0.01,-0.07,4.5382047,0,nan,nan,0.0,0.0,0,3,0,1,10,0
39592000,0,1695621863114943,0,473977508,85456074,488110,488110,0.25,0.5,1.0,1.0,0.0,0.0,0,0,0.0,0.0,0.03,0.0,1.460666,0,nan,nan,0.0,0.0,0,3,0,1,10,0
39992000,0,1695621863514943,0,473977508,85456074,488109,488109,0.25,0.5,1.0,1.0,0.0,0.0,0,0,0.0,0.01,0.0,-0.01,5.8641315,0,nan,nan,0.0,0.0,0,3,0,1,10,0
40396000,0,1695621863918943,0,473977508,85456074,488109,488109,0.25,0.5,1.0,1.0,0.0,0.0,0,0,0.0,-0.01,0.0,0.0,3.3396873,0,nan,nan,0.0,0.0,0,3,0,1,10,0
40792000,0,1695621864314943,0,473977508,85456074,488102,488102,0.25,0.5,1.0,1.0,0.0,0.0,0,0,0.0,0.0,0.01,0.0,1.1185814,0,nan,nan,0.0,0.0,0,3,0,1,10,0
41192000,0,1695621864718943,0,473977508,85456075,488097,488097,0.25,0.5,1.0,1.0,0.0,0.0,0,0,0.0,-0.01,0.0,-0.03,3.278601,0,nan,nan,0.0,0.0,0,3,0,1,10,0
41592000,0,1695621865114943,0,473977508,85456074,488100,488100,0.25,0.5,1.0,1.0,0.0,0.0,0,0,0.0,0.0,-0.01,0.02,4.32161,0,nan,nan,0.0,0.0,0,3,0,1,10,0
41992000,0,1695621865514943,0,473977508,85456074,488110,488110,0.25,0.5,1.0,1.0,0.0,0.0,0,0,0.0,0.0,0.0,0.0,1.1489502,0,nan,nan,0.0,0.0,0,3,0,1,10,0
42392000,0,1695621865918943,0,473977508,85456074,488105,488105,0.25,0.5,1.0,1.0,0.0,0.0,0,0,0.0,0.0,-0.01,0.0,4.2099085,0,nan,nan,0.0,0.0,0,3,0,1,10,0
42792000,0,1695621866314943,0,473977508,85456074,488096,488096,0.25,0.5,1.0,1.0,0.0,0.0,0,0,0.0,-0.01,0.0,0.0,3.401821,0,nan,nan,0.0,0.0,0,3,0,1,10,0
43192000,0,1695621866718943,0,473977508,85456074,488110,488110,0.25,0.5,1.0,1.0,0.0,0.0,0,0,0.0,-0.01,0.0,-0.01,2.878397,0,nan,nan,0.0,0.0,0,3,0,1,10,0
43592000,0,1695621867114943,0,473977508,85456074,488101,488101,0.25,0.5,1.0,1.0,0.0,0.0,0,0,0.0,0.01,0.0,-0.03,0.22602013,0,nan,nan,0.0,0.0,0,3,0,1,10,0
43992000,0,1695621867514943,0,473977508,85456075,488096,488096,0.25,0.5,1.0,1.0,0.0,0.0,0,0,0.0,0.01,-0.01,-0.01,5.541071,0,nan,nan,0.0,0.0,0,3,0,1,10,0
44392000,0,1695621867918943,0,473977508,85456074,488097,488097,0.25,0.5,1.0,1.0,0.0,0.0,0,0,0.0,0.0,0.0,0.0,0.999201,0,nan,nan,0.0,0.0,0,3,0,1,10,0
44792000,0,1695621868314943,0,473977508,85456074,488100,488100,0.25,0.5,1.0,1.0,0.0,0.0,0,0,0.0,0.01,0.0,0.0,0.14329153,0,nan,nan,0.0,0.0,0,3,0,1,10,0
45192000,0,1695621868718943,0,473977508,85456074,488097,488097,0.25,0.5,1.0,1.0,0.0,0.0,0,0,0.0,0.01,-0.01,-0.02,5.4606113,0,nan,nan,0.0,0.0,0,3,0,1,10,0
45592000,0,1695621869114943,0,473977508,85456074,488100,488100,0.25,0.5,1.0,1.0,0.0,0.0,0,0,0.0,0.01,0.0,0.0,6.05699,0,nan,nan,0.0,0.0,0,3,0,1,10,0
45992000,0,1695621869514943,0,473977508,85456074,488098,488098,0.25,0.5,1.0,1.0,0.0,0.0,0,0,0.0,-0.01,0.0,0.0,2.8715901,0,nan,nan,0.0,0.0,0,3,0,1,10,0
46392000,0,1695621869918943,0,473977508,85456074,488100,488100,0.25,0.5,1.0,1.0,0.0,0.0,0,0,0.0,0.0,-0.01,0.01,4.871563,0,nan,nan,0.0,0.0,0,3,0,1,10,0
46792000,0,1695621870314943,0,473977508,85456074,488104,488104,0.25,0.5,1.0,1.0,0.0,0.0,0,0,0.0,0.0,0.02,-0.01,1.4301227,0,nan,nan,0.0,0.0,0,3,0,1,10,0
47192000,0,1695621870718943,0,473977508,85456074,488096,488096,0.25,0.5,1.0,1.0,0.0,0.0,0,0,0.0,0.0,-0.01,0.0,4.357389,0,nan,nan,0.0,0.0,0,3,0,1,10,0
47592000,0,1695621871114943,0,473977508,85456074,488106,488106,0.25,0.5,1.0,1.0,0.0,0.0,0,0,0.0,0.02,0.01,0.01,0.5600762,0,nan,nan,0.0,0.0,0,3,0,1,10,0
47992000,0,1695621871514943,0,473977508,85456074,488108,488108,0.25,0.5,1.0,1.0,0.0,0.0,0,0,0.0,0.0,0.0,-0.03,2.0844467,0,nan,nan,0.0,0.0,0,3,0,1,10,0
48392000,0,1695621871918943,0,473977508,85456074,488109,488109,0.25,0.5,1.0,1.0,0.0,0.0,0,0,0.0,0.03,0.0,0.03,0.27000242,0,nan,nan,0.0,0.0,0,3,0,1,10,0
48792000,0,1695621872314943,0,473977508,85456074,488092,488092,0.25,0.5,1.0,1.0,0.0,0.0,0,0,0.0,0.01,-0.03,0.04,5.0686107,0,nan,nan,0.0,0.0,0,3,0,1,10,0
49192000,0,1695621872718943,0,473977508,85456074,488097,488097,0.25,0.5,1.0,1.0,0.0,0.0,0,0,0.0,0.01,0.0,0.0,0.51365036,0,nan,nan,0.0,0.0,0,3,0,1,10,0
49592000,0,1695621873114943,0,473977508,85456074,488104,488104,0.25,0.5,1.0,1.0,0.0,0.0,0,0,0.0,0.0,0.0,0.01,1.8390534,0,nan,nan,0.0,0.0,0,3,0,1,10,0
49992000,0,1695621873514943,0,473977508,85456075,488104,488104,0.25,0.5,1.0,1.0,0.0,0.0,0,0,0.0,0.0,0.0,0.0,4.610287,0,nan,nan,0.0,0.0,0,3,0,1,10,0
50392000,0,1695621873918943,0,473977508,85456074,488106,488106,0.25,0.5,1.0,1.0,0.0,0.0,0,0,0.0,-0.01,0.01,-0.01,2.21779,0,nan,nan,0.0,0.0,0,3,0,1,10,0
50796000,0,1695621874314943,0,473977508,85456074,488107,488107,0.25,0.5,1.0,1.0,0.0,0.0,0,0,0.0,0.0,0.0,0.0,5.4974375,0,nan,nan,0.0,0.0,0,3,0,1,10,0
51196000,0,1695621874718943,0,473977508,85456074,488103,488103,0.25,0.5,1.0,1.0,0.0,0.0,0,0,0.0,0.0,-0.02,0.0,4.593532,0,nan,nan,0.0,0.0,0,3,0,1,10,0
51592000,0,1695621875114943,0,473977508,85456074,488108,488108,0.25,0.5,1.0,1.0,0.0,0.0,0,0,0.0,-0.01,0.0,0.0,3.6672857,0,nan,nan,0.0,0.0,0,3,0,1,10,0
51992000,0,1695621875514943,0,473977508,85456074,488114,488114,0.25,0.5,1.0,1.0,0.0,0.0,0,0,0.0,0.0,0.0,0.0,1.7729053,0,nan,nan,0.0,0.0,0,3,0,1,10,0
52392000,0,1695621875918943,0,473977508,85456075,488104,488104,0.25,0.5,1.0,1.0,0.0,0.0,0,0,0.0,0.0,0.0,-0.04,4.3561673,0,nan,nan,0.0,0.0,0,3,0,1,10,0
52792000,0,1695621876314943,0,473977508,85456074,488114,488114,0.25,0.5,1.0,1.0,0.0,0.0,0,0,0.0,0.0,-0.01,0.0,4.4793873,0,nan,nan,0.0,0.0,0,3,0,1,10,0
53192000,0,1695621876718943,0,473977508,85456074,488112,488112,0.25,0.5,1.0,1.0,0.0,0.0,0,0,0.0,0.02,0.01,-0.01,0.42882738,0,nan,nan,0.0,0.0,0,3,0,1,10,0
53592000,0,1695621877114943,0,473977508,85456074,488115,488115,0.25,0.5,1.0,1.0,0.0,0.0,0,0,0.0,0.0,0.01,-0.01,2.1731093,0,nan,nan,0.0,0.0,0,3,0,1,10,0
53996000,0,1695621877514943,0,473977508,85456074,488106,488106,0.25,0.5,1.0,1.0,0.0,0.0,0,0,0.0,0.01,0.0,0.0,5.8321924,0,nan,nan,0.0,0.0,0,3,0,1,10,0
54392000,0,1695621877918943,0,473977508,85456074,488109,488109,0.25,0.5,1.0,1.0,0.0,0.0,0,0,0.0,0.0,0.03,-0.01,1.6674876,0,nan,nan,0.0,0.0,0,3,0,1,10,0
54792000,0,1695621878314943,0,473977508,85456074,488106,488106,0.25,0.5,1.0,1.0,0.0,0.0,0,0,0.0,-0.01,0.01,0.01,2.6003659,0,nan,nan,0.0,0.0,0,3,0,1,10,0
55192000,0,1695621878718943,0,473977508,85456074,488107,488107,0.25,0.5,1.0,1.0,0.0,0.0,0,0,0.0,-0.01,0.0,0.0,3.336895,0,nan,nan,0.0,0.0,0,3,0,1,10,0
55592000,0,1695621879114943,0,473977508,85456074,488111,488111,0.25,0.5,1.0,1.0,0.0,0.0,0,0,0.0,-0.01,-0.02,0.02,4.160516,0,nan,nan,0.0,0.0,0,3,0,1,10,0
55992000,0,1695621879514943,0,473977508,85456074,488110,488110,0.25,0.5,1.0,1.0,0.0,0.0,0,0,0.0,-0.02,0.0,0.0,2.9646163,0,nan,nan,0.0,0.0,0,3,0,1,10,0
56392000,0,1695621879918943,0,473977508,85456074,488111,488111,0.25,0.5,1.0,1.0,0.0,0.0,0,0,0.0,0.0,-0.02,0.0,4.822694,0,nan,nan,0.0,0.0,0,3,0,1,10,0
56792000,0,1695621880314943,0,473977508,85456073,488099,488099,0.25,0.5,1.0,1.0,0.0,0.0,0,0,0.0,0.0,0.0,0.0,2.2410026,0,nan,nan,0.0,0.0,0,3,0,1,10,0
57192000,0,1695621880718943,0,473977508,85456073,488101,488101,0.25,0.5,1.0,1.0,0.0,0.0,0,0,0.0,0.0,0.01,0.01,1.1201524,0,nan,nan,0.0,0.0,0,3,0,1,10,0
57592000,0,1695621881114943,0,473977508,85456074,488100,488100,0.25,0.5,1.0,1.0,0.0,0.0,0,0,0.0,0.02,0.0,0.0,5.9840355,0,nan,nan,0.0,0.0,0,3,0,1,10,0
57992000,0,1695621881514943,0,473977508,85456074,488100,488100,0.25,0.5,1.0,1.0,0.0,0.0,0,0,0.0,0.0,0.0,0.0,1.7928022,0,nan,nan,0.0,0.0,0,3,0,1,10,0
58392000,0,1695621881918943,0,473977508,85456069,488155,488155,0.25,0.5,1.0,1.0,0.0,0.0,0,0,0.19,0.0,-0.17,-0.24,4.692318,0,nan,nan,0.0,0.0,0,3,0,1,10,0
58792000,0,1695621882314943,0,473977507,85456059,488336,488336,0.25,0.5,1.0,1.0,0.0,0.0,0,0,0.19,-0.02,-0.17,-0.57,4.550771,0,nan,nan,0.0,0.0,0,3,0,1,10,0
59192000,0,1695621882718943,0,473977507,85456049,488608,488608,0.25,0.5,1.0,1.0,0.0,0.0,0,0,0.13,-0.03,-0.13,-0.65999997,4.479911,0,nan,nan,0.0,0.0,0,3,0,1,10,0
59592000,0,1695621883114943,0,473977506,85456045,488874,488874,0.25,0.5,1.0,1.0,0.0,0.0,0,0,0.04,0.02,-0.049999997,-0.71,5.0865874,0,nan,nan,0.0,0.0,0,3,0,1,10,0
59992000,0,1695621883514943,0,473977506,85456044,489166,489166,0.25,0.5,1.0,1.0,0.0,0.0,0,0,0.02,0.03,0.01,-0.7,0.46303582,0,nan,nan,0.0,0.0,0,3,0,1,10,0
60392000,0,1695621883918943,0,473977507,85456046,489456,489456,0.25,0.5,1.0,1.0,0.0,0.0,0,0,0.06,0.01,0.04,-0.65,1.301841,0,nan,nan,0.0,0.0,0,3,0,1,10,0
60792000,0,1695621884314943,0,473977507,85456050,489707,489707,0.25,0.5,1.0,1.0,0.0,0.0,0,0,0.08,0.02,0.089999996,-0.63,1.3185961,0,nan,nan,0.0,0.0,0,3,0,1,10,0
61192000,0,1695621884718943,0,473977507,85456057,489936,489936,0.25,0.5,1.0,1.0,0.0,0.0,0,0,0.089999996,-0.01,0.089999996,-0.48999998,1.6802284,0,nan,nan,0.0,0.0,0,3,0,1,10,0
61596000,0,1695621885114943,0,473977506,85456061,490049,490049,0.25,0.5,1.0,1.0,0.0,0.0,0,0,0.08,-0.02,0.08,-0.14999999,1.8603463,0,nan,nan,0.0,0.0,0,3,0,1,10,0
61992000,0,1695621885514943,0,473977505,85456064,490115,490115,0.25,0.5,1.0,1.0,0.0,0.0,0,0,0.06,-0.03,0.06,-0.19,2.0909042,0,nan,nan,0.0,0.0,0,3,0,1,10,0
62396000,0,1695621885918943,0,473977505,85456067,490203,490203,0.25,0.5,1.0,1.0,0.0,0.0,0,0,0.04,0.0,0.02,-0.19,1.9444712,0,nan,nan,0.0,0.0,0,3,0,1,10,0
62792000,0,1695621886314943,0,473977504,85456069,490275,490275,0.25,0.5,1.0,1.0,0.0,0.0,0,0,0.03,-0.02,0.0,-0.19,2.8068383,0,nan,nan,0.0,0.0,0,3,0,1,10,0
63196000,0,1695621886718943,0,473977503,85456069,490335,490335,0.25,0.5,1.0,1.0,0.0,0.0,0,0,0.02,-0.01,0.01,-0.14,2.2321014,0,nan,nan,0.0,0.0,0,3,0,1,10,0
63592000,0,1695621887114943,0,473977502,85456071,490384,490384,0.25,0.5,1.0,1.0,0.0,0.0,0,0,0.02,0.0,0.01,-0.12,1.5238469,0,nan,nan,0.0,0.0,0,3,0,1,10,0
63992000,0,1695621887514943,0,473977502,85456072,490433,490433,0.25,0.5,1.0,1.0,0.0,0.0,0,0,0.02,-0.01,0.0,-0.089999996,3.1932542,0,nan,nan,0.0,0.0,0,3,0,1,10,0
64392000,0,1695621887914943,0,473977502,85456073,490463,490463,0.25,0.5,1.0,1.0,0.0,0.0,0,0,0.02,-0.02,0.01,-0.08,2.707878,0,nan,nan,0.0,0.0,0,3,0,1,10,0
64792000,0,1695621888318943,0,473977501,85456076,490487,490487,0.25,0.5,1.0,1.0,0.0,0.0,0,0,0.02,0.0,0.0,-0.049999997,3.0614822,0,nan,nan,0.0,0.0,0,3,0,1,10,0
65192000,0,1695621888718943,0,473977503,85456076,490503,490503,0.25,0.5,1.0,1.0,0.0,0.0,0,0,0.03,0.03,0.049999997,-0.03,0.9930923,0,nan,nan,0.0,0.0,0,3,0,1,10,0
65596000,0,1695621889114943,0,473977504,85456078,490512,490512,0.25,0.5,1.0,1.0,0.0,0.0,0,0,0.03,0.02,0.02,-0.07,0.92170835,0,nan,nan,0.0,0.0,0,3,0,1,10,0
65992000,0,1695621889514943,0,473977505,85456078,490521,490521,0.25,0.5,1.0,1.0,0.0,0.0,0,0,0.03,0.02,0.02,0.01,0.69324476,0,nan,nan,0.0,0.0,0,3,0,1,10,0
66392000,0,1695621889914943,0,473977506,85456078,490523,490523,0.25,0.5,1.0,1.0,0.0,0.0,0,0,0.02,0.01,-0.02,-0.01,5.253441,0,nan,nan,0.0,0.0,0,3,0,1,10,0
66792000,0,1695621890318943,0,473977507,85456077,490533,490533,0.25,0.5,1.0,1.0,0.0,0.0,0,0,0.03,0.02,0.0,0.0,6.007249,0,nan,nan,0.0,0.0,0,3,0,1,10,0
67192000,0,1695621890718943,0,473977507,85456075,490526,490526,0.25,0.5,1.0,1.0,0.0,0.0,0,0,0.03,0.01,-0.02,0.04,5.1160836,0,nan,nan,0.0,0.0,0,3,0,1,10,0
67592000,0,1695621891114943,0,473977507,85456075,490522,490522,0.25,0.5,1.0,1.0,0.0,0.0,0,0,0.03,0.0,-0.02,0.01,4.7879615,0,nan,nan,0.0,0.0,0,3,0,1,10,0
67992000,0,1695621891514943,0,473977507,85456072,490521,490521,0.25,0.5,1.0,1.0,0.0,0.0,0,0,0.03,0.0,-0.03,-0.04,4.866851,0,nan,nan,0.0,0.0,0,3,0,1,10,0
68392000,0,1695621891914943,0,473977507,85456070,490533,490533,0.25,0.5,1.0,1.0,0.0,0.0,0,0,0.03,0.0,-0.03,0.04,4.7808056,0,nan,nan,0.0,0.0,0,3,0,1,10,0
68792000,0,1695621892318943,0,473977508,85456067,490516,490516,0.25,0.5,1.0,1.0,0.0,0.0,0,0,0.03,0.0,-0.04,0.04,4.838402,0,nan,nan,0.0,0.0,0,3,0,1,10,0
69192000,0,1695621892718943,0,473977507,85456065,490507,490507,0.25,0.5,1.0,1.0,0.0,0.0,0,0,0.03,0.0,-0.02,0.02,4.498411,0,nan,nan,0.0,0.0,0,3,0,1,10,0
69596000,0,1695621893114943,0,473977507,85456064,490505,490505,0.25,0.5,1.0,1.0,0.0,0.0,0,0,0.02,0.0,-0.03,0.0,4.764225,0,nan,nan,0.0,0.0,0,3,0,1,10,0
69992000,0,1695621893514943,0,473977508,85456063,490491,490491,0.25,0.5,1.0,1.0,0.0,0.0,0,0,0.01,0.0,-0.03,-0.02,4.4502406,0,nan,nan,0.0,0.0,0,3,0,1,10,0
70392000,0,1695621893914943,0,473977508,85456063,490478,490478,0.25,0.5,1.0,1.0,0.0,0.0,0,0,0.0,0.0,-0.01,0.04,5.148023,0,nan,nan,0.0,0.0,0,3,0,1,10,0
70792000,0,1695621894318943,0,473977507,85456062,490451,490451,0.25,0.5,1.0,1.0,0.0,0.0,0,0,0.0,0.0,0.0,0.089999996,1.0772171,0,nan,nan,0.0,0.0,0,3,0,1,10,0
71192000,0,1695621894718943,0,473977507,85456063,490449,490449,0.25,0.5,1.0,1.0,0.0,0.0,0,0,0.01,0.01,0.03,0.02,1.1334168,0,nan,nan,0.0,0.0,0,3,0,1,10,0
71592000,0,1695621895114943,0,473977508,85456064,490430,490430,0.25,0.5,1.0,1.0,0.0,0.0,0,0,0.01,0.0,0.02,0.02,1.8498744,0,nan,nan,0.0,0.0,0,3,0,1,10,0
71992000,0,1695621895514943,0,473977508,85456065,490425,490425,0.25,0.5,1.0,1.0,0.0,0.0,0,0,0.0,0.01,0.02,0.02,1.1667526,0,nan,nan,0.0,0.0,0,3,0,1,10,0
72392000,0,1695621895914943,0,473977508,85456065,490403,490403,0.25,0.5,1.0,1.0,0.0,0.0,0,0,0.0,-0.01,0.02,0.049999997,1.9868827,0,nan,nan,0.0,0.0,0,3,0,1,10,0
72792000,0,1695621896318943,0,473977508,85456065,490397,490397,0.25,0.5,1.0,1.0,0.0,0.0,0,0,0.0,0.0,-0.01,0.0,4.6680574,0,nan,nan,0.0,0.0,0,3,0,1,10,0
73192000,0,1695621896718943,0,473977508,85456065,490404,490404,0.25,0.5,1.0,1.0,0.0,0.0,0,0,0.0,0.0,-0.01,0.03,3.9849355,0,nan,nan,0.0,0.0,0,3,0,1,10,0
73592000,0,1695621897114943,0,473977508,85456064,490392,490392,0.25,0.5,1.0,1.0,0.0,0.0,0,0,0.0,0.01,0.01,0.04,0.61994094,0,nan,nan,0.0,0.0,0,3,0,1,10,0
73992000,0,1695621897514943,0,473977508,85456064,490258,490258,0.25,0.5,1.0,1.0,0.0,0.0,0,0,0.0,-0.01,0.0,0.69,2.371728,0,nan,nan,0.0,0.0,0,3,0,1,10,0
74392000,0,1695621897914943,0,473977508,85456065,489945,489945,0.25,0.5,1.0,1.0,0.0,0.0,0,0,0.0,-0.01,0.0,0.71999997,3.7932985,0,nan,nan,0.0,0.0,0,3,0,1,10,0
74788000,0,1695621898318943,0,473977508,85456065,489669,489669,0.25,0.5,1.0,1.0,0.0,0.0,0,0,0.0,0.0,0.0,0.65999997,5.889264,0,nan,nan,0.0,0.0,0,3,0,1,10,0
75192000,0,1695621898718943,0,473977508,85456065,489401,489401,0.25,0.5,1.0,1.0,0.0,0.0,0,0,0.01,-0.02,0.02,0.65999997,2.2521727,0,nan,nan,0.0,0.0,0,3,0,1,10,0
75592000,0,1695621899114943,0,473977507,85456065,489119,489119,0.25,0.5,1.0,1.0,0.0,0.0,0,0,0.01,-0.03,-0.01,0.68,3.5243433,0,nan,nan,0.0,0.0,0,3,0,1,10,0
75996000,0,1695621899514943,0,473977506,85456067,488827,488827,0.25,0.5,1.0,1.0,0.0,0.0,0,0,0.01,0.0,0.02,0.71,1.7945476,0,nan,nan,0.0,0.0,0,3,0,1,10,0
76392000,0,1695621899914943,0,473977506,85456068,488538,488538,0.25,0.5,1.0,1.0,0.0,0.0,0,0,0.01,0.0,0.0,0.71999997,2.7000244,0,nan,nan,0.0,0.0,0,3,0,1,10,0
76792000,0,1695621900318943,0,473977506,85456069,488245,488245,0.25,0.5,1.0,1.0,0.0,0.0,0,0,0.01,-0.01,-0.01,0.71999997,3.9573593,0,nan,nan,0.0,0.0,0,3,0,1,10,0
77192000,0,1695621900718943,0,473977506,85456068,488148,488148,0.25,0.5,1.0,1.0,0.0,0.0,0,0,0.0,0.0,0.01,-0.53999996,1.0032152,0,nan,nan,0.0,0.0,0,3,0,1,10,0
77592000,0,1695621901114943,0,473977506,85456068,488389,488389,0.25,0.5,1.0,1.0,0.0,0.0,0,0,0.01,0.0,0.0,-0.51,3.3672636,0,nan,nan,0.0,0.0,0,3,0,1,10,0
77992000,0,1695621901514943,0,473977507,85456069,488541,488541,0.25,0.5,1.0,1.0,0.0,0.0,0,0,0.01,0.01,0.0,-0.19,5.863608,0,nan,nan,0.0,0.0,0,3,0,1,10,0
78392000,0,1695621901914943,0,473977507,85456070,488584,488584,0.25,0.5,1.0,1.0,0.0,0.0,0,0,0.02,0.01,0.03,0.07,1.0494664,0,nan,nan,0.0,0.0,0,3,0,1,10,0
78792000,0,1695621902318943,0,473977508,85456070,488531,488531,0.25,0.5,1.0,1.0,0.0,0.0,0,0,0.03,0.03,0.0,0.29999998,6.0374427,0,nan,nan,0.0,0.0,0,3,0,1,10,0
79192000,0,1695621902718943,0,473977510,85456071,488388,488388,0.25,0.5,1.0,1.0,0.0,0.0,0,0,0.03,0.01,0.0,0.37,5.841966,0,nan,nan,0.0,0.0,0,3,0,1,10,0
79592000,0,1695621903114943,0,473977510,85456071,488190,488190,0.25,0.5,1.0,1.0,0.0,0.0,0,0,0.02,0.03,0.0,0.59,6.1702623,0,nan,nan,0.0,0.0,0,3,0,1,10,0
79992000,0,1695621903514943,0,473977510,85456071,488177,488177,0.25,0.5,1.0,1.0,0.0,0.0,0,0,0.0,0.02,0.0,-0.62,0.2682571,0,nan,nan,0.0,0.0,0,3,0,1,10,0
80392000,0,1695621903914943,0,473977510,85456071,488439,488439,0.25,0.5,1.0,1.0,0.0,0.0,0,0,0.0,0.01,0.0,-0.47,6.128025,0,nan,nan,0.0,0.0,0,3,0,1,10,0
80792000,0,1695621904318943,0,473977510,85456071,488566,488566,0.25,0.5,1.0,1.0,0.0,0.0,0,0,0.0,0.0,-0.01,-0.17999999,5.3066735,0,nan,nan,0.0,0.0,0,3,0,1,10,0
81192000,0,1695621904718943,0,473977510,85456071,488555,488555,0.25,0.5,1.0,1.0,0.0,0.0,0,0,0.02,-0.03,-0.01,0.17,3.5498252,0,nan,nan,0.0,0.0,0,3,0,1,10,0
81592000,0,1695621905114943,0,473977509,85456071,488452,488452,0.25,0.5,1.0,1.0,0.0,0.0,0,0,0.03,0.0,0.0,0.42999998,4.0732493,0,nan,nan,0.0,0.0,0,3,0,1,10,0
81996000,0,1695621905514943,0,473977508,85456070,488251,488251,0.25,0.5,1.0,1.0,0.0,0.0,0,0,0.03,-0.03,0.0,0.62,3.0419343,0,nan,nan,0.0,0.0,0,3,0,1,10,0
82392000,0,1695621905914943,0,473977507,85456070,488100,488100,0.25,0.5,1.0,1.0,0.0,0.0,0,0,0.0,0.0,0.01,-0.06,2.059663,0,nan,nan,0.0,0.0,0,3,0,1,10,0
82792000,0,1695621906318943,0,473977507,85456070,488109,488109,0.25,0.5,1.0,1.0,0.0,0.0,0,0,0.0,-0.01,0.0,0.02,3.0541515,0,nan,nan,0.0,0.0,0,3,0,1,10,0
83192000,0,1695621906718943,0,473977507,85456071,488108,488108,0.25,0.5,1.0,1.0,0.0,0.0,0,0,0.0,0.0,0.0,0.02,3.1241393,0,nan,nan,0.0,0.0,0,3,0,1,10,0
83596000,0,1695621907114943,0,473977507,85456070,488105,488105,0.25,0.5,1.0,1.0,0.0,0.0,0,0,0.0,0.01,0.03,0.01,1.2559389,0,nan,nan,0.0,0.0,0,3,0,1,10,0
83992000,0,1695621907514943,0,473977507,85456070,488097,488097,0.25,0.5,1.0,1.0,0.0,0.0,0,0,0.0,0.01,0.02,-0.01,1.052608,0,nan,nan,0.0,0.0,0,3,0,1,10,0
84392000,0,1695621907914943,0,473977507,85456070,488106,488106,0.25,0.5,1.0,1.0,0.0,0.0,0,0,0.0,0.03,0.0,0.02,6.278996,0,nan,nan,0.0,0.0,0,3,0,1,10,0
84792000,0,1695621908318943,0,473977507,85456070,488090,488090,0.25,0.5,1.0,1.0,0.0,0.0,0,0,0.0,0.0,0.0,-0.02,1.7938493,0,nan,nan,0.0,0.0,0,3,0,1,10,0
85192000,0,1695621908718943,0,473977507,85456070,488097,488097,0.25,0.5,1.0,1.0,0.0,0.0,0,0,0.0,0.01,-0.03,-0.01,5.198812,0,nan,nan,0.0,0.0,0,3,0,1,10,0
85596000,0,1695621909114943,0,473977507,85456070,488105,488105,0.25,0.5,1.0,1.0,0.0,0.0,0,0,0.0,0.0,0.0,-0.01,0.99047434,0,nan,nan,0.0,0.0,0,3,0,1,10,0
85992000,0,1695621909514943,0,473977507,85456071,488096,488096,0.25,0.5,1.0,1.0,0.0,0.0,0,0,0.0,0.0,-0.01,0.02,5.3145275,0,nan,nan,0.0,0.0,0,3,0,1,10,0
86392000,0,1695621909914943,0,473977507,85456070,488103,488103,0.25,0.5,1.0,1.0,0.0,0.0,0,0,0.0,0.0,0.0,0.02,2.2160444,0,nan,nan,0.0,0.0,0,3,0,1,10,0
86792000,0,1695621910318943,0,473977507,85456070,488105,488105,0.25,0.5,1.0,1.0,0.0,0.0,0,0,0.0,0.0,0.01,-0.02,1.562244,0,nan,nan,0.0,0.0,0,3,0,1,10,0
87192000,0,1695621910718943,0,473977507,85456070,488093,488093,0.25,0.5,1.0,1.0,0.0,0.0,0,0,0.0,0.0,-0.02,0.0,4.4189987,0,nan,nan,0.0,0.0,0,3,0,1,10,0
87592000,0,1695621911114943,0,473977507,85456070,488110,488110,0.25,0.5,1.0,1.0,0.0,0.0,0,0,0.0,0.0,0.0,0.0,0.42359138,0,nan,nan,0.0,0.0,0,3,0,1,10,0
87996000,0,1695621911514943,0,473977506,85456070,488103,488103,0.25,0.5,1.0,1.0,0.0,0.0,0,0,0.0,0.0,-0.01,0.0,4.6186647,0,nan,nan,0.0,0.0,0,3,0,1,10,0
88392000,0,1695621911914943,0,473977506,85456070,488101,488101,0.25,0.5,1.0,1.0,0.0,0.0,0,0,0.0,0.01,-0.01,0.0,5.4438567,0,nan,nan,0.0,0.0,0,3,0,1,10,0
88792000,0,1695621912318943,0,473977507,85456070,488103,488103,0.25,0.5,1.0,1.0,0.0,0.0,0,0,0.0,0.0,0.0,0.0,2.450093,0,nan,nan,0.0,0.0,0,3,0,1,10,0
89192000,0,1695621912718943,0,473977507,85456070,488106,488106,0.25,0.5,1.0,1.0,0.0,0.0,0,0,0.0,-0.01,-0.01,-0.02,4.105887,0,nan,nan,0.0,0.0,0,3,0,1,10,0
