timestamp,timestamp_sample,time_last_fuse,device_id,observation,observation_variance,innovation,innovation_variance,test_ratio,estimator_instance,fusion_enabled,innovation_rejected,fused
3388000,3306914,0,0,-0.0015258789,12.25,-4.627742e-06,112.42326,7.619773e-15,0,0,0,0
3452000,3366907,0,0,0.030761719,12.25,-0.02955934,112.25,3.1136022e-07,0,0,0,0
3508000,3427031,0,0,-0.0066833496,12.25,0.0072169374,112.25,1.8560065e-08,0,0,0,0
3572000,3487060,0,0,-0.070617676,12.25,0.0698865,112.25,1.7404445e-06,0,0,0,0
3628000,3547167,0,0,-0.04083252,12.25,0.041787267,62.249985,1.1220409e-06,0,0,0,0
3692000,3607192,0,0,-0.12542725,12.25,0.12633644,62.249985,1.0256e-05,0,0,0,0
3748000,3667283,0,0,0.034973145,12.25,-0.034173705,62.249985,7.504208e-07,0,0,0,0
3812000,3727305,0,0,0.0057373047,12.25,-0.005413157,45.58333,2.5713144e-08,0,0,0,0
3868000,3785378,0,0,0.013336182,12.25,-0.013308858,45.58333,1.5543024e-07,0,0,0,0
3932000,3847396,0,0,-0.12362671,12.25,0.12325268,45.58333,1.33305075e-05,0,0,0,0
3988000,3907470,0,0,0.061523438,12.25,-0.062294196,45.58337,3.405248e-06,0,0,0,0
4052000,3967486,3972000,0,0.033355713,12.25,-0.034363903,37.250053,1.2680549e-06,0,0,0,0
4108000,4027540,4028000,0,-0.017242432,12.25,0.015801726,37.250107,2.681276e-07,0,1,0,1
4172000,4087558,4092000,0,-0.11114502,12.25,0.09855545,20.471523,1.8978904e-05,0,1,0,1
4228000,4147608,4148000,0,-0.059509277,12.25,0.0067860335,17.169733,1.07282396e-07,0,1,0,1
4292000,4207620,4212000,0,-0.12054443,12.25,0.06531517,15.760109,1.0827518e-05,0,1,0,1
4348000,4267663,4268000,0,-0.068878174,12.25,-0.0014749914,14.978399,5.809966e-09,0,1,0,1
4412000,4327673,4332000,0,0.14706421,12.25,-0.21787483,14.481504,0.00013111743,0,1,0,1
4468000,4387707,4388000,0,0.024993896,12.25,-0.06261892,14.13773,1.1094084e-05,0,1,0,1
4532000,4447716,4452000,0,-0.22381592,12.25,0.19384743,13.885815,0.00010824523,0,1,0,1
4588000,4506748,4508000,0,-0.050109863,12.25,-0.0033478178,13.693262,3.273985e-08,0,1,0,1
4644000,4563756,4564000,0,0.043792725,12.25,-0.09759785,13.541327,2.8137098e-05,0,1,0,1
4700000,4615779,4620000,0,-0.031341553,12.25,-0.0133388415,13.418316,5.3039355e-07,0,1,0,1
4756000,4675790,4676000,0,0.029693604,12.25,-0.07386452,13.316813,1.6388205e-05,0,1,0,1
4820000,4734476,4740000,0,-0.0031738281,12.25,-0.035856947,13.23165,3.8868034e-06,0,1,0,1
4876000,4795820,4796000,0,0.03439331,12.25,-0.07071982,13.158957,1.5202706e-05,0,1,0,1
4940000,4854501,4860000,0,-0.07357788,12.25,0.0414346,13.09651,5.243614e-06,0,1,0,1
4996000,4915845,4916000,0,-0.0031738281,12.25,-0.03227602,13.042137,3.1950021e-06,0,1,0,1
5060000,4975858,4980000,0,-0.0031738281,12.25,-0.031032912,12.994473,2.9644652e-06,0,1,0,1
5116000,5035868,5036000,0,-0.087677,12.25,0.055517808,12.95193,9.5189735e-06,0,1,0,1
5180000,5095878,5100000,0,0.006225586,12.25,-0.042042803,12.914359,5.4748275e-06,0,1,0,1
5236000,5155885,5156000,0,-0.04071045,12.25,0.006459426,12.880646,1.2957172e-07,0,1,0,1
5300000,5215896,5220000,0,0.024993896,12.25,-0.05918986,12.849889,1.0905743e-05,0,1,0,1
5356000,5275901,5276000,0,0.100128174,12.25,-0.13209264,12.822351,5.443141e-05,0,1,0,1
5420000,5335910,5340000,0,-0.097076416,12.25,0.07037912,12.797398,1.5481963e-05,0,1,0,1
5476000,5395915,5396000,0,-0.007843018,12.25,-0.022452759,12.774559,1.5785323e-06,0,1,0,1
5540000,5455923,5460000,0,-0.017242432,12.25,-0.011589235,12.753065,4.212646e-07,0,1,0,1
5596000,5515927,5516000,0,-0.097076416,12.25,0.06820029,12.733783,1.4610834e-05,0,1,0,1
5660000,5575934,5580000,0,-0.04071045,12.25,0.008663099,12.716108,2.3607629e-07,0,1,0,1
5716000,5635938,5636000,0,0.0015258789,12.25,-0.03322182,12.698922,3.4764814e-06,0,1,0,1
5780000,5695943,5700000,0,0.05319214,12.25,-0.0842751,12.683729,2.2398119e-05,0,1,0,1
5836000,5755946,5756000,0,0.024993896,12.25,-0.053702556,12.669543,9.105188e-06,0,1,0,1
5900000,5815951,5820000,0,-0.017242432,12.25,-0.009063683,12.655581,2.5964943e-07,0,1,0,1
5956000,5875954,5876000,0,-0.13461304,12.25,0.108152516,12.643198,3.7006354e-05,0,1,0,1
6020000,5935958,5940000,0,-0.026641846,12.25,-0.0037335698,12.63173,4.414136e-08,0,1,0,1
6076000,5995960,5996000,0,0.0015258789,12.25,-0.03229455,12.620913,3.3054275e-06,0,1,0,1
6140000,6054630,6060000,0,-0.045410156,12.25,0.016388081,12.60986,8.5193386e-07,0,1,0,1
6196000,6115966,6116000,0,-0.021942139,12.25,-0.0080094915,12.600268,2.0365265e-07,0,1,0,1
6260000,6175969,6180000,0,-0.012542725,12.25,-0.017748673,12.591364,1.0007348e-06,0,1,0,1
6316000,6235971,6236000,0,-0.031341553,12.25,0.0024516191,12.5818205,1.910832e-08,0,1,0,1
6380000,6295973,6300000,0,0.015625,12.25,-0.045093976,12.573852,6.4688747e-06,0,1,0,1
6436000,6355975,6356000,0,-0.03604126,12.25,0.0073087234,12.566244,1.700347e-07,0,1,0,1
6500000,6414643,6420000,0,0.020324707,12.25,-0.049733333,12.559181,7.877597e-06,0,1,0,1
6556000,6473979,6476000,0,-0.03604126,12.25,0.008695096,12.551201,2.4094808e-07,0,1,0,1
6604000,6523980,6524000,0,-0.050109863,12.25,0.02222704,12.544595,1.5753121e-06,0,1,0,1
6668000,6582648,6588000,0,-0.017242432,12.25,-0.011589132,12.538555,4.2846403e-07,0,1,0,1
6724000,6643983,6644000,0,-0.068878174,12.25,0.03995818,12.532734,5.0959543e-06,0,1,0,1
6788000,6703984,6708000,0,-0.007843018,12.25,-0.021357168,12.526042,1.4565769e-06,0,1,0,1
6844000,6763985,6764000,0,-0.007843018,12.25,-0.021185897,12.520725,1.4339178e-06,0,1,0,1
6908000,6823987,6828000,0,-0.05480957,12.25,0.025867743,12.515802,2.138545e-06,0,1,0,1
6964000,6883988,6884000,0,-0.050109863,12.25,0.021305762,12.509718,1.4514652e-06,0,1,0,1
7028000,6943989,6948000,0,0.010925293,12.25,-0.040445313,12.505197,5.2324594e-06,0,1,0,1
7084000,7003989,7004000,0,0.06726074,12.25,-0.096154734,12.500796,2.9584462e-05,0,1,0,1
7148000,7063990,7068000,0,-0.050109863,12.25,0.023405377,12.495429,1.7536387e-06,0,1,0,1
7204000,7123991,7124000,0,0.04849243,12.25,-0.075829126,12.491365,1.8412898e-05,0,1,0,1
7268000,7183992,7188000,0,-0.0031738281,12.25,-0.022881644,12.487616,1.6770844e-06,0,1,0,1
7324000,7243992,7244000,0,-0.0031738281,12.25,-0.022583172,12.483938,1.6340986e-06,0,1,0,1
7388000,7303993,7308000,0,0.029693604,12.25,-0.054794207,12.479167,9.623735e-06,0,1,0,1
7444000,7363993,7364000,0,-0.031341553,12.25,0.0071596727,12.47575,1.6435376e-07,0,1,0,1
7508000,7423994,7428000,0,0.0015258789,12.25,-0.02594628,12.472617,2.1589997e-06,0,1,0,1
7564000,7483994,7484000,0,-0.021942139,12.25,-0.0017916132,12.468142,1.0297854e-08,0,1,0,1
7628000,7543995,7548000,0,0.020324707,12.25,-0.044090644,12.4652195,6.2381087e-06,0,1,0,1
7684000,7603995,7604000,0,-0.07357788,12.25,0.050567675,12.462326,8.207423e-06,0,1,0,1
7748000,7663996,7668000,0,-0.045410156,12.25,0.021530941,12.459697,1.488259e-06,0,1,0,1
7804000,7721996,7724000,0,-0.04071045,12.25,0.016475247,12.455616,8.716831e-07,0,1,0,1
7852000,7771996,7772000,0,0.006225586,12.25,-0.030690754,12.452911,3.0255492e-06,0,1,0,1
7916000,7831997,7836000,0,-0.082977295,12.25,0.0590342,12.450567,1.1196395e-05,0,1,0,1
7972000,7891997,7892000,0,0.0015258789,12.25,-0.026407305,12.448219,2.240789e-06,0,1,0,1
8036000,7951997,7956000,0,-0.059509277,12.25,0.03498335,12.444603,3.933705e-06,0,1,0,1
8092000,8011997,8012000,0,-0.012542725,12.25,-0.012522545,12.4423895,5.041287e-07,0,1,0,1
8156000,8071998,8076000,0,0.024993896,12.25,-0.04987649,12.440409,7.998657e-06,0,1,0,1
8212000,8131998,8132000,0,-0.068878174,12.25,0.044755075,12.436922,6.4421615e-06,0,1,0,1
8276000,8191998,8196000,0,-0.087677,12.25,0.06288239,12.435049,1.2719517e-05,0,1,0,1
8332000,8251998,8252000,0,-0.05480957,12.25,0.029066471,12.433151,2.7180872e-06,0,1,0,1
8396000,8311998,8316000,0,0.010925293,12.25,-0.036937498,12.430012,4.3905948e-06,0,1,0,1
8452000,8369999,8372000,0,-0.04071045,12.25,0.015146906,12.428213,7.384127e-07,0,1,0,1
8500000,8419999,8420000,0,-0.1956482,12.25,0.16977313,12.426375,9.2779796e-05,0,1,0,1
8564000,8479999,8484000,0,-0.012542725,12.25,-0.015838197,12.424869,8.0756905e-07,0,1,0,1
8620000,8539999,8540000,0,-0.059509277,12.25,0.031462863,12.421823,3.1876536e-06,0,1,0,1
8684000,8599999,8604000,0,-0.031341553,12.25,0.0028092656,12.420386,2.5416192e-08,0,1,0,1
8740000,8659999,8660000,0,-0.09237671,12.25,0.06379546,12.418908,1.3108594e-05,0,1,0,1
8804000,8719999,8724000,0,-0.035858154,12.250135,-0.035754718,13.250149,3.859277e-06,0,1,0,1
8860000,8779999,8780000,0,-0.04055786,12.251081,-0.028920867,13.176425,2.5391305e-06,0,1,0,1
8924000,8839999,8844000,0,-0.13446045,12.252164,0.066371664,13.114882,1.34357215e-05,0,1,0,1
8980000,8899999,8900000,0,0.090911865,12.25311,-0.16391927,13.06232,8.228103e-05,0,1,0,1
9044000,8958666,8964000,0,-0.09222412,12.254191,0.028799057,13.018259,2.5483766e-06,0,1,0,1
9100000,9020000,9020000,0,-0.031188965,12.2551365,-0.034440972,12.979787,3.65547e-06,0,1,0,1
9164000,9080000,9084000,0,-0.12979126,12.256216,0.06550264,12.947782,1.3255077e-05,0,1,0,1
9220000,9138000,9140000,0,-0.0921936,12.257159,0.02088096,12.651247,1.378566e-06,0,1,0,1
9284000,9198666,9204000,0,-0.10159302,12.258238,0.029043667,12.64329,2.6687187e-06,0,1,0,1
9340000,9260000,9260000,0,-0.15319824,12.259178,0.07926242,12.635916,1.9887855e-05,0,1,0,1
9404000,9320000,9324000,0,-0.007598877,12.260254,-0.0692866,12.630304,1.5203539e-05,0,1,0,1
9460000,9380000,9380000,0,-0.06869507,12.261192,-0.0066866577,12.6249275,1.4166066e-07,0,1,0,1
9524000,9440000,9444000,0,-0.054595947,12.262263,-0.021194302,12.6213045,1.4236196e-06,0,1,0,1
9580000,9500000,9500000,0,-0.017089844,12.263198,-0.05860559,12.617609,1.0888323e-05,0,1,0,1
9644000,9558666,9564000,0,-0.031219482,12.264266,-0.041176297,12.518964,5.417341e-06,0,1,0,1
9700000,9620000,9620000,0,-0.12988281,12.265197,0.058014035,12.518167,1.0754381e-05,0,1,0,1
9764000,9678666,9684000,0,0.0016479492,12.266259,-0.075020276,12.51849,1.7983133e-05,0,1,0,1
9820000,9740000,9740000,0,-0.068878174,12.267185,-0.003237471,12.518522,3.3490274e-08,0,1,0,1
9884000,9800000,9804000,0,0.0015563965,12.268243,-0.073875695,12.51973,1.7436858e-05,0,1,0,1
9940000,9860000,9860000,0,-0.031433105,12.269163,-0.03961572,12.520494,5.0138765e-06,0,1,0,1
10004000,9920000,9924000,0,-0.07846069,12.270215,0.009758823,12.466045,3.0558084e-07,0,1,0,1
10060000,9980000,9980000,0,-0.09719849,12.271129,0.028275765,12.467313,2.5651682e-06,0,1,0,1
10124000,10040000,10044000,0,-0.0032348633,12.272175,-0.06620807,12.469503,1.4061534e-05,0,1,0,1
10180000,10100000,10100000,0,-0.012756348,12.273082,-0.05569002,12.471257,9.947284e-06,0,1,0,1
10244000,10160000,10164000,0,-0.09265137,12.27412,0.025089324,12.473986,2.0185182e-06,0,1,0,1
10300000,10220000,10220000,0,-0.031555176,12.275021,-0.036371298,12.476177,4.2412717e-06,0,1,0,1
10364000,10280000,10284000,0,-0.05038452,12.276052,-0.016850226,12.479392,9.100767e-07,0,1,0,1
10420000,10340000,10340000,0,-0.2194519,12.276944,0.15314472,12.441494,7.54035e-05,0,1,0,1
10484000,10398666,10404000,0,0.05319214,12.277967,-0.12142427,12.444431,4.739101e-05,0,1,0,1
10540000,10460000,10460000,0,-0.153656,12.278851,0.08715104,12.446877,2.440871e-05,0,1,0,1
10604000,10518666,10524000,0,-0.08300781,12.279865,0.015419945,12.45019,7.639232e-07,0,1,0,1
10660000,10580000,10580000,0,-0.045440674,12.280741,-0.022277549,12.452934,1.5941276e-06,0,1,0,1
10724000,10638666,10644000,0,-0.10183716,12.281746,0.034594066,12.456587,3.842945e-06,0,1,0,1
10780000,10700000,10700000,0,-0.050079346,12.282612,-0.017446049,12.459597,9.77125e-07,0,1,0,1
10844000,10760000,10764000,0,0.03439331,12.283608,-0.10522805,12.430745,3.5630826e-05,0,1,0,1
10900000,10820000,10820000,0,-0.08325195,12.284464,0.013713136,12.433481,6.0497973e-07,0,1,0,1
10964000,10880000,10884000,0,-0.050354004,12.28545,-0.019244485,12.437014,1.1911226e-06,0,1,0,1
11020000,10940000,10940000,0,-0.012878418,12.286295,-0.05633702,12.439969,1.0205363e-05,0,1,0,1
11084000,11000000,11004000,0,-0.13040161,12.287271,0.062128834,12.443756,1.2407804e-05,0,1,0,1
11140000,11060000,11060000,0,-0.15838623,12.288106,0.0896017,12.446908,2.5800673e-05,0,1,0,1
11204000,11120000,11124000,0,-0.031341553,12.28907,-0.03716544,12.423171,4.447399e-06,0,1,0,1
11260000,11180000,11180000,0,-0.040863037,12.289894,-0.026853189,12.426011,2.3212397e-06,0,1,0,1
11324000,11240000,11244000,0,-0.13955688,12.290848,0.072657116,12.429593,1.698867e-05,0,1,0,1
11380000,11300000,11300000,0,-0.0031433105,12.291659,-0.06407598,12.432601,1.3209564e-05,0,1,0,1
11444000,11360000,11364000,0,0.0107421875,12.292602,-0.07659525,12.436384,1.8869894e-05,0,1,0,1
11500000,11420000,11420000,0,-0.05996704,12.293403,-0.004368879,12.439544,6.137557e-08,0,1,0,1
11564000,11480000,11484000,0,-0.050567627,12.2943325,-0.012945943,12.443508,5.387466e-07,0,1,0,1
11620000,11538000,11540000,0,0.015075684,12.295121,-0.07911478,12.421961,2.0155107e-05,0,1,0,1
11684000,11598666,11604000,0,-0.07910156,12.296039,0.01682204,12.425507,9.109682e-07,0,1,0,1
11740000,11660000,11660000,0,0.024261475,12.296815,-0.085804194,12.428488,2.3695111e-05,0,1,0,1
11804000,11720000,11724000,0,-0.08874512,12.29772,0.029252347,12.432197,2.7531732e-06,0,1,0,1
11860000,11778000,11780000,0,-0.055755615,12.298483,-0.0029869974,12.435298,2.8699443e-08,0,1,0,1
11908000,11828000,11828000,0,-0.06515503,12.299105,0.0073868446,12.437749,1.7548344e-07,0,1,0,1
11972000,11888000,11892000,0,-0.08859253,12.299993,0.032049134,12.441659,3.3022832e-06,0,1,0,1
12028000,11948000,11948000,0,-0.11193848,12.300738,0.05036092,12.422218,8.1667295e-06,0,1,0,1
12092000,12008000,12012000,0,-0.055389404,12.301613,-0.005494047,12.425736,9.716785e-08,0,1,0,1
12148000,12068000,12068000,0,-0.013183594,12.302345,-0.046582494,12.428689,6.983613e-06,0,1,0,1
12212000,12128000,12132000,0,-0.027435303,12.303206,-0.030657515,12.432341,3.0239946e-06,0,1,0,1
12268000,12188000,12188000,0,-0.09799194,12.303925,0.0413331,12.435389,5.495366e-06,0,1,0,1
12332000,12248000,12252000,0,-0.14474487,12.304772,0.088971846,12.439163,2.5455056e-05,0,1,0,1
12388000,12308000,12308000,0,0.034057617,12.305478,-0.08964244,12.442298,2.5833711e-05,0,1,0,1
12452000,12368000,12372000,0,-0.09780884,12.306312,0.037970643,12.424855,4.6415666e-06,0,1,0,1
12508000,12428000,12428000,0,-0.074157715,12.307003,0.015014712,12.4277115,7.256093e-07,0,1,0,1
12572000,12486666,12492000,0,-0.13513184,12.307823,0.077077836,12.431235,1.911634e-05,0,1,0,1
12628000,12548000,12548000,0,-0.0126953125,12.308501,-0.04501777,12.4341755,6.5194504e-06,0,1,0,1
12692000,12608000,12612000,0,-0.11148071,12.309307,0.05553117,12.437808,9.917217e-06,0,1,0,1
12748000,12668000,12668000,0,-0.11590576,12.309971,0.060592506,12.4408245,1.1804529e-05,0,1,0,1
12812000,12728000,12732000,0,-0.07336426,12.310763,0.017770533,12.424708,1.0166575e-06,0,1,0,1
12868000,12788000,12788000,0,-0.16247559,12.311413,0.10800637,12.42746,3.75471e-05,0,1,0,1
12932000,12848000,12852000,0,-0.058654785,12.312191,0.004688341,12.430854,7.072899e-08,0,1,0,1
12988000,12908000,12908000,0,-0.01638794,12.312826,-0.036262672,12.433682,4.230384e-06,0,1,0,1
13052000,12968000,12972000,0,-0.06350708,12.31359,0.012822725,12.437176,5.288091e-07,0,1,0,1
13108000,13028000,13028000,0,-0.09631348,12.314211,0.04696503,12.440075,7.092285e-06,0,1,0,1
13172000,13086666,13092000,0,-0.15710449,12.314961,0.10898005,12.443662,3.8177353e-05,0,1,0,1
13228000,13148000,13148000,0,-0.04385376,12.315569,-0.009078849,12.427655,2.6529705e-07,0,1,0,1
13292000,13208000,13212000,0,-0.09085083,12.316304,0.03961811,12.430922,5.0506133e-06,0,1,0,1
13348000,13268000,13268000,0,0.026733398,12.316897,-0.07687278,12.433642,1.901108e-05,0,1,0,1
13412000,13328000,13332000,0,0.016906738,12.317618,-0.06458014,12.437005,1.3413502e-05,0,1,0,1
13468000,13386000,13388000,0,-0.04916382,12.318197,0.0037023872,12.439793,4.407685e-08,0,1,0,1
13516000,13436000,13436000,0,-0.058532715,12.318635,0.014414817,12.441978,6.68019e-07,0,1,0,1
13580000,13496000,13500000,0,-0.07723999,12.319338,0.034838516,12.445462,3.9009306e-06,0,1,0,1
13636000,13556000,13556000,0,-0.05355835,12.319898,0.0018999204,12.430148,1.1615945e-08,0,1,0,1
13700000,13616000,13620000,0,-0.12869263,12.320586,0.07865511,12.433333,1.9903353e-05,0,1,0,1
13756000,13676000,13676000,0,-0.15170288,12.321132,0.102415904,12.435979,3.373765e-05,0,1,0,1
13820000,13736000,13740000,0,-0.08538818,12.321807,0.036825113,12.439256,4.3606756e-06,0,1,0,1
13876000,13796000,13796000,0,-0.08047485,12.322339,0.033053398,12.441967,3.512394e-06,0,1,0,1
13940000,13856000,13860000,0,-0.122558594,12.323,0.07657421,12.445331,1.8845973e-05,0,1,0,1
13996000,13916000,13916000,0,-0.014129639,12.323518,-0.030725881,12.443603,3.0347476e-06,0,1,0,1
14060000,13976000,13980000,0,-0.0753479,12.324165,0.028811518,12.433805,2.6704734e-06,0,1,0,1
14116000,14036000,14036000,0,-0.056365967,12.324669,0.011110656,12.4363575,3.970509e-07,0,1,0,1
14180000,14096000,14100000,0,-0.09387207,12.325302,0.05032445,12.439526,8.143559e-06,0,1,0,1
14236000,14156000,14156000,0,-0.060699463,12.325793,0.018320266,12.442145,1.079017e-06,0,1,0,1
14300000,14216000,14220000,0,-0.00894165,12.326413,-0.031661034,12.445402,3.2218197e-06,0,1,0,1
14356000,14276000,14276000,0,-0.05606079,12.32689,0.017510355,12.448084,9.852521e-07,0,1,0,1
14420000,14334666,14340000,0,0.09429932,12.327497,-0.14076999,12.434365,6.374653e-05,0,1,0,1
14476000,14392000,14396000,0,0.037078857,12.32796,-0.08075921,12.436833,2.0976564e-05,0,1,0,1
14524000,14444000,14444000,0,0.05532837,12.328282,-0.09690212,12.438765,3.0195992e-05,0,1,0,1
14588000,14504000,14508000,0,-0.034484863,12.328872,-0.004312042,12.441872,5.977785e-08,0,1,0,1
14644000,14564000,14564000,0,0.040618896,12.329318,-0.077694625,12.444434,1.9402907e-05,0,1,0,1
14708000,14624000,14628000,0,-0.11010742,12.329894,0.075723305,12.447631,1.8426057e-05,0,1,0,1
14764000,14684000,14684000,0,-0.081451416,12.330328,0.04810284,12.450259,7.4340087e-06,0,1,0,1
14828000,14744000,14748000,0,-0.09994507,12.330891,0.059642166,12.436851,1.14408e-05,0,1,0,1
14884000,14804000,14804000,0,-0.08544922,12.331311,0.046242718,12.439272,6.876251e-06,0,1,0,1
14948000,14864000,14868000,0,-0.099243164,12.3318615,0.06143424,12.442295,1.2133342e-05,0,1,0,1
15004000,14924000,14924000,0,-0.08004761,12.332269,0.043298546,12.444787,6.0258612e-06,0,1,0,1
15068000,14982666,14988000,0,-0.051605225,12.332807,0.016328935,12.447903,8.5680006e-07,0,1,0,1
15124000,15042000,15044000,0,-0.07498169,12.333202,0.04117454,12.450463,5.446681e-06,0,1,0,1
15172000,15092000,15092000,0,-0.0418396,12.333457,0.009050999,12.45244,2.631471e-07,0,1,0,1
15236000,15152000,15156000,0,-0.10748291,12.33398,0.06548821,12.439258,1.3790875e-05,0,1,0,1
15292000,15212000,15212000,0,-0.09298706,12.334359,0.05191448,12.441643,8.664814e-06,0,1,0,1
15356000,15270666,15276000,0,-0.083221436,12.334868,0.043464534,12.444629,6.072228e-06,0,1,0,1
15412000,15330000,15332000,0,-0.031280518,12.335237,-0.0072845668,12.447087,1.7052957e-07,0,1,0,1
15460000,15380000,15380000,0,-0.021942139,12.335464,-0.015176568,12.448989,7.4007045e-07,0,1,0,1
15524000,15440000,15444000,0,-0.087768555,12.3359585,0.052657753,12.452108,8.907212e-06,0,1,0,1
15580000,15500000,15500000,0,-0.106170654,12.336311,0.07223761,12.454664,1.6759255e-05,0,1,0,1
15644000,15558666,15564000,0,-0.17141724,12.336795,0.12962045,12.441626,5.4016928e-05,0,1,0,1
15700000,15618000,15620000,0,-0.14233398,12.337136,0.10099108,12.443984,3.2784348e-05,0,1,0,1
15748000,15668000,15668000,0,-0.047729492,12.3373375,0.0068701804,12.445811,1.5169562e-07,0,1,0,1
15812000,15728000,15732000,0,-0.014801025,12.337806,-0.024289742,12.448812,1.8957363e-06,0,1,0,1
15868000,15788000,15788000,0,-0.0056152344,12.338133,-0.031593382,12.451276,3.2065527e-06,0,1,0,1
15932000,15848000,15852000,0,-0.019897461,12.338591,-0.015038509,12.454375,7.263528e-07,0,1,0,1
15988000,15908000,15908000,0,-0.07635498,12.338907,0.043335322,12.456912,6.0302273e-06,0,1,0,1
16052000,15966666,15972000,0,-0.09954834,12.339354,0.061750446,12.443946,1.2256941e-05,0,1,0,1
16108000,16028000,16028000,0,-0.10845947,12.339659,0.07178636,12.446286,1.6561666e-05,0,1,0,1
16172000,16088000,16092000,0,-0.051605225,12.340095,0.016228516,12.449233,8.462038e-07,0,1,0,1
16228000,16148000,16148000,0,-0.17825317,12.340388,0.14446276,12.451651,6.7041685e-05,0,1,0,1
16292000,16208000,16212000,0,-0.036376953,12.340815,0.0033557452,12.4547,3.6166348e-08,0,1,0,1
16348000,16268000,16268000,0,-0.10205078,12.341099,0.07084996,12.457195,1.611829e-05,0,1,0,1
16412000,16328000,16332000,0,-0.026428223,12.341514,-0.013201449,12.44441,5.6018166e-07,0,1,0,1
16468000,16388000,16388000,0,0.039215088,12.341787,-0.07704453,12.446706,1.9076084e-05,0,1,0,1
16532000,16448000,16452000,0,-0.11160278,12.342192,0.076410696,12.449603,1.8759134e-05,0,1,0,1
16588000,16508000,16508000,0,-0.082855225,12.342456,0.048768066,12.45198,7.639987e-06,0,1,0,1
16652000,16566666,16572000,0,-0.08248901,12.342851,0.050071772,12.454982,8.051982e-06,0,1,0,1
16708000,16628000,16628000,0,-0.09152222,12.343105,0.060566776,12.457438,1.1778775e-05,0,1,0,1
16772000,16688000,16692000,0,-0.07696533,12.343491,0.047720186,12.460545,7.310166e-06,0,1,0,1
16828000,16748000,16748000,0,-0.11416626,12.343736,0.07663633,12.447059,1.8873943e-05,0,1,0,1
16892000,16808000,16812000,0,-0.11828613,12.344111,0.082281254,12.449909,2.1751819e-05,0,1,0,1
16948000,16868000,16868000,0,-0.17401123,12.344346,0.13924141,12.452246,6.228008e-05,0,1,0,1
17012000,16928000,16932000,0,-0.060272217,12.344713,0.026535511,12.455204,2.2613306e-06,0,1,0,1
17068000,16988000,16988000,0,0.010375977,12.344939,-0.042330932,12.457623,5.7536113e-06,0,1,0,1
17132000,17048000,17052000,0,-0.013427734,12.345297,-0.015739717,12.460688,7.952649e-07,0,1,0,1
17188000,17108000,17108000,0,-0.004180908,12.345515,-0.022684522,12.463186,1.6515442e-06,0,1,0,1
17252000,17168000,17172000,0,0.00033569336,12.345864,-0.033915978,12.450139,3.6956808e-06,0,1,0,1
17308000,17228000,17228000,0,-0.1595459,12.346072,0.12830932,12.452436,5.2883734e-05,0,1,0,1
17372000,17288000,17292000,0,-0.045898438,12.346413,0.01595324,12.455353,8.173382e-07,0,1,0,1
17428000,17348000,17348000,0,-0.11621094,12.346613,0.08824627,12.457735,2.5004236e-05,0,1,0,1
17492000,17408000,17412000,0,-0.035705566,12.346946,0.00941401,12.46076,2.8448852e-07,0,1,0,1
17548000,17468000,17468000,0,-0.03564453,12.347137,0.011476686,12.463223,4.2272958e-07,0,1,0,1
17612000,17528000,17532000,0,-0.12945557,12.347462,0.098418064,12.450282,3.1119343e-05,0,1,0,1
17668000,17588000,17588000,0,-0.10522461,12.347646,0.07545221,12.452543,1.8287143e-05,0,1,0,1
17732000,17648000,17652000,0,-0.0107421875,12.347961,-0.017248679,12.455417,9.55462e-07,0,1,0,1
17788000,17708000,17708000,0,0.036071777,12.348137,-0.061796278,12.457763,1.2261527e-05,0,1,0,1
17852000,17768000,17772000,0,-0.05831909,12.348446,0.035540827,12.460747,4.0548143e-06,0,1,0,1
17908000,17828000,17828000,0,-0.0017089844,12.348615,-0.019277131,12.463178,1.1926583e-06,0,1,0,1
17972000,17888000,17892000,0,-0.015930176,12.348916,-0.0024190154,12.46627,1.8775896e-08,0,1,0,1
18028000,17948000,17948000,0,0.021606445,12.349077,-0.04617036,12.4525585,6.8474355e-06,0,1,0,1
18092000,18008000,18012000,0,-0.016326904,12.349371,-0.005512757,12.45539,9.759789e-08,0,1,0,1
18148000,18068000,18068000,0,-0.082092285,12.3495245,0.062407963,12.4577,1.250553e-05,0,1,0,1
18212000,18128000,18132000,0,-0.081604004,12.349811,0.063843876,12.460642,1.3084527e-05,0,1,0,1
18268000,18188000,18188000,0,-0.10455322,12.349957,0.08843995,12.4630375,2.5103429e-05,0,1,0,1
18332000,18248000,18252000,0,0.022918701,12.350238,-0.03723822,12.466091,4.4494627e-06,0,1,0,1
18388000,18308000,18308000,0,-0.029052734,12.350378,0.017462337,12.46857,9.782461e-07,0,1,0,1
18452000,18368000,18372000,0,-0.071136475,12.350652,0.050193664,12.455268,8.091047e-06,0,1,0,1
18508000,18426000,18428000,0,-0.00033569336,12.350784,-0.018795578,12.4575405,1.134329e-06,0,1,0,1
18556000,18476000,18476000,0,-0.04272461,12.3507805,0.025691219,12.4592705,2.1190285e-06,0,1,0,1
18620000,18536000,18540000,0,-0.0049438477,12.351047,-0.009709494,12.462215,3.0259235e-07,0,1,0,1
18676000,18596000,18596000,0,0.04660034,12.351173,-0.058811504,12.46461,1.10995625e-05,0,1,0,1
18740000,18654666,18660000,0,-0.0008544922,12.351434,-0.008056041,12.467666,2.0821794e-07,0,1,0,1
18796000,18716000,18716000,0,-0.03375244,12.351555,0.023810465,12.465656,1.8192006e-06,0,1,0,1
18860000,18776000,18780000,0,-0.09460449,12.3518095,0.08143315,12.456761,2.1294001e-05,0,1,0,1
18916000,18836000,18836000,0,-0.11273193,12.351924,0.10126427,12.459034,3.292214e-05,0,1,0,1
18980000,18896000,18900000,0,-0.06964111,12.352172,0.060091514,12.461937,1.1590461e-05,0,1,0,1
19036000,18956000,18956000,0,-0.15835571,12.352281,0.1507487,12.464296,7.292885e-05,0,1,0,1
19100000,19016000,19020000,0,-0.01626587,12.352523,0.010166295,12.467311,3.3159853e-07,0,1,0,1
19156000,19076000,19076000,0,-0.039642334,12.352626,0.036011707,12.469754,4.1599633e-06,0,1,0,1
19220000,19134666,19140000,0,0.031097412,12.352862,-0.045169875,12.456458,6.551839e-06,0,1,0,1
19276000,19194000,19196000,0,-0.058502197,12.35296,0.0471948,12.458693,7.151149e-06,0,1,0,1
19324000,19244000,19244000,0,-0.067474365,12.352921,0.057845995,12.460387,1.074175e-05,0,1,0,1
19388000,19304000,19308000,0,0.0034179688,12.353151,-0.010753224,12.463291,3.7111167e-07,0,1,0,1
19444000,19364000,19364000,0,-0.0154418945,12.353244,0.0106994305,12.465649,3.6733852e-07,0,1,0,1
19508000,19424000,19428000,0,-0.010650635,12.353471,0.00871858,12.468665,2.4385494e-07,0,1,0,1
19564000,19484000,19484000,0,0.04574585,12.353559,-0.045178417,12.471107,6.5466184e-06,0,1,0,1
19628000,19544000,19548000,0,-0.06729126,12.35378,0.05736796,12.457733,1.0567197e-05,0,1,0,1
19684000,19604000,19604000,0,-0.11846924,12.353862,0.11042398,12.459966,3.914443e-05,0,1,0,1
19748000,19664000,19668000,0,-0.03302002,12.354077,0.02672162,12.462825,2.2917595e-06,0,1,0,1
19804000,19724000,19724000,0,-0.17837524,12.354155,0.17421988,12.465145,9.7399796e-05,0,1,0,1
19868000,19784000,19788000,0,-0.045440674,12.354366,0.042455688,12.468119,5.782702e-06,0,1,0,1
19924000,19844000,19844000,0,-0.077941895,12.354439,0.07701294,12.470524,1.9024039e-05,0,1,0,1
19988000,19904000,19908000,0,0.063568115,12.354646,-0.062364962,12.473606,1.2472378e-05,0,1,0,1
20044000,19964000,19964000,0,-0.10598755,12.354714,0.09567761,12.459443,2.9388806e-05,0,1,0,1
20108000,20024000,20028000,0,-0.030059814,12.354916,0.021521416,12.462257,1.4866371e-06,0,1,0,1
20164000,20084000,20084000,0,0.0029907227,12.3549795,-0.009440145,12.4645405,2.8598356e-07,0,1,0,1
20228000,20144000,20148000,0,0.0075683594,12.355177,-0.011313454,12.467467,4.106504e-07,0,1,0,1
20284000,20204000,20204000,0,0.0028076172,12.355236,-0.0041128113,12.469835,5.4259633e-08,0,1,0,1
20348000,20264000,20268000,0,-0.020721436,12.355429,0.022196136,12.472872,1.5799679e-06,0,1,0,1
20404000,20324000,20324000,0,0.017028809,12.355484,-0.02908912,12.458828,2.716714e-06,0,1,0,1
20468000,20384000,20388000,0,0.12008667,12.355673,-0.12945347,12.461596,5.3791508e-05,0,1,0,1
20524000,20444000,20444000,0,-0.0030822754,12.355723,-0.0029989611,12.463839,2.8863555e-08,0,1,0,1
20588000,20504000,20508000,0,-0.106414795,12.355908,0.102937296,12.46672,3.3997996e-05,0,1,0,1
20644000,20564000,20564000,0,-0.07736206,12.355954,0.07526867,12.469048,1.8174194e-05,0,1,0,1
20708000,20624000,20628000,0,-0.04385376,12.356136,0.043708242,12.47204,6.1270184e-06,0,1,0,1
20764000,20684000,20684000,0,-0.099823,12.356179,0.1016044,12.474453,3.3102708e-05,0,1,0,1
20828000,20744000,20748000,0,-0.019165039,12.356357,0.0071040783,12.46085,1.6200478e-07,0,1,0,1
20884000,20804000,20804000,0,-0.00030517578,12.356396,-0.009712978,12.463053,3.027892e-07,0,1,0,1
20948000,20864000,20868000,0,0.023071289,12.356568,-0.030528324,12.465885,2.9904932e-06,0,1,0,1
21004000,20924000,20924000,0,-0.03353882,12.356605,0.028554808,12.468176,2.6158664e-06,0,1,0,1
21068000,20984000,20988000,0,-0.014526367,12.356774,0.011831883,12.471121,4.4901648e-07,0,1,0,1
21124000,21044000,21044000,0,0.07476807,12.356807,-0.075262934,12.4734955,1.8164945e-05,0,1,0,1
21188000,21104000,21108000,0,0.05065918,12.356974,-0.047716826,12.476548,7.2997614e-06,0,1,0,1
21244000,21164000,21164000,0,-0.109375,12.357002,0.09723985,12.462192,3.0349682e-05,0,1,0,1
21308000,21224000,21228000,0,0.06518555,12.357165,-0.0757755,12.464977,1.842579e-05,0,1,0,1
21364000,21284000,21284000,0,-0.10449219,12.35719,0.09668457,12.467228,2.999193e-05,0,1,0,1
21428000,21344000,21348000,0,-0.07550049,12.35735,0.06933934,12.470125,1.542228e-05,0,1,0,1
21484000,21404000,21404000,0,-0.009155273,12.357373,0.0045633977,12.472461,6.678585e-08,0,1,0,1
21548000,21464000,21468000,0,0.07067871,12.35753,-0.072784506,12.475467,1.6985608e-05,0,1,0,1
21604000,21524000,21524000,0,-0.07080078,12.35755,0.057764344,12.4612665,1.0710691e-05,0,1,0,1
21668000,21584000,21588000,0,-0.05154419,12.357703,0.040357966,12.4640045,5.2271016e-06,0,1,0,1
21724000,21644000,21644000,0,-0.107543945,12.357718,0.098113246,12.466214,3.0887353e-05,0,1,0,1
21788000,21704000,21708000,0,0.020080566,12.357869,-0.027977811,12.469064,2.51104e-06,0,1,0,1
21844000,21764000,21764000,0,0.06210327,12.3578825,-0.06763432,12.47136,1.46717e-05,0,1,0,1
21908000,21824000,21828000,0,-0.01361084,12.358031,0.011148203,12.47432,3.9852253e-07,0,1,0,1
21964000,21884000,21884000,0,-0.06985474,12.358042,0.06947976,12.476699,1.547665e-05,0,1,0,1
22028000,21944000,21948000,0,-0.031677246,12.358188,0.022101415,12.462976,1.5677558e-06,0,1,0,1
22084000,22004000,22004000,0,0.034240723,12.358195,-0.04195631,12.465147,5.6488125e-06,0,1,0,1
22148000,22064000,22068000,0,-0.05065918,12.358337,0.04567772,12.467948,6.693818e-06,0,1,0,1
22204000,22124000,22124000,0,-0.0126953125,12.358342,0.009436088,12.470205,2.8560797e-07,0,1,0,1
22268000,22184000,22188000,0,-0.040771484,12.358483,0.039917313,12.473119,5.1098427e-06,0,1,0,1
22324000,22244000,22244000,0,-0.11553955,12.358486,0.11654786,12.47546,4.3552394e-05,0,1,0,1
22388000,22304000,22308000,0,0.045074463,12.3586235,-0.042564552,12.478479,5.8075707e-06,0,1,0,1
22444000,22364000,22364000,0,0.0024719238,12.358624,-0.008665729,12.464034,2.40997e-07,0,1,0,1
22508000,22424000,22428000,0,-0.039855957,12.35876,0.03619654,12.466789,4.2037755e-06,0,1,0,1
22564000,22484000,22484000,0,-0.04425049,12.358757,0.04248856,12.469007,5.7912484e-06,0,1,0,1
22628000,22544000,22548000,0,-0.029785156,12.358891,0.030255707,12.471872,2.9359112e-06,0,1,0,1
22684000,22604000,22604000,0,-0.1468811,12.358886,0.14942855,12.474175,7.160037e-05,0,1,0,1
22748000,22664000,22668000,0,-0.028198242,12.359017,0.03206394,12.47715,3.2959329e-06,0,1,0,1
22804000,22724000,22724000,0,-0.0138549805,12.359011,0.0027703634,12.462885,2.4632863e-08,0,1,0,1
22868000,22784000,22788000,0,-0.07952881,12.359139,0.070865445,12.465592,1.6114473e-05,0,1,0,1
22924000,22844000,22844000,0,-0.041381836,12.35913,0.03431894,12.4677725,3.7786688e-06,0,1,0,1
22988000,22904000,22908000,0,-0.04107666,12.359256,0.036311872,12.470591,4.2293173e-06,0,1,0,1
23044000,22964000,22964000,0,-0.14874268,12.359245,0.1459788,12.4728565,6.833978e-05,0,1,0,1
23108000,23024000,23028000,0,-0.0113220215,12.35937,0.009960307,12.475784,3.180809e-07,0,1,0,1
23164000,23082000,23084000,0,-0.109802246,12.359358,0.110815026,12.478133,3.9364764e-05,0,1,0,1
23212000,23132000,23132000,0,-0.052490234,12.359211,0.04048796,12.463242,5.261151e-06,0,1,0,1
23276000,23192000,23196000,0,-0.03805542,12.359335,0.02832289,12.465946,2.574008e-06,0,1,0,1
23332000,23252000,23252000,0,-0.09414673,12.359323,0.08646061,12.468124,2.3982555e-05,0,1,0,1
23396000,23312000,23316000,0,-0.083984375,12.359446,0.078235984,12.4709425,1.9632418e-05,0,1,0,1
23452000,23370000,23372000,0,0.04348755,12.359431,-0.047520276,12.473206,7.2416883e-06,0,1,0,1
23500000,23420000,23420000,0,-0.07901001,12.3592825,0.077547595,12.474888,1.9282352e-05,0,1,0,1
23564000,23480000,23484000,0,0.053100586,12.359406,-0.052358318,12.477858,8.788026e-06,0,1,0,1
23620000,23540000,23540000,0,-0.013061523,12.359394,0.0028480012,12.463611,2.6031337e-08,0,1,0,1
23684000,23600000,23604000,0,-0.07876587,12.359515,0.07124276,12.466317,1.6285581e-05,0,1,0,1
23740000,23660000,23660000,0,-0.04058838,12.3595,0.034858413,12.468495,3.8981734e-06,0,1,0,1
23804000,23720000,23724000,0,0.034851074,12.35962,-0.038119942,12.471313,4.6607115e-06,0,1,0,1
23860000,23780000,23780000,0,-0.017120361,12.359603,0.01666798,12.473577,8.9091236e-07,0,1,0,1
23924000,23840000,23844000,0,-0.012268066,12.359721,0.014583006,12.476503,6.818065e-07,0,1,0,1
23980000,23898000,23900000,0,0.030090332,12.359702,-0.025304558,12.478848,2.052499e-06,0,1,0,1
24028000,23948000,23948000,0,-0.054626465,12.3595495,0.054216377,12.46396,9.433328e-06,0,1,0,1
24092000,24008000,24012000,0,0.035064697,12.359668,-0.032963213,12.466666,3.4863317e-06,0,1,0,1
24148000,24068000,24068000,0,0.025360107,12.35965,-0.020339895,12.468845,1.3271841e-06,0,1,0,1
24212000,24128000,24132000,0,0.048675537,12.359767,-0.04041373,12.471664,5.238337e-06,0,1,0,1
24268000,24188000,24188000,0,-0.008056641,12.359747,0.019381639,12.4739275,1.2045859e-06,0,1,0,1
24332000,24248000,24252000,0,0.043792725,12.359863,-0.029565133,12.476856,2.8022992e-06,0,1,0,1
24388000,24308000,24308000,0,0.024719238,12.359842,-0.0074580256,12.479202,1.7828751e-07,0,1,0,1
24452000,24366666,24372000,0,-0.13964844,12.359957,0.13746089,12.46544,6.063323e-05,0,1,0,1
24508000,24428000,24428000,0,-0.016357422,12.359934,0.015333023,12.467584,7.5428113e-07,0,1,0,1
24572000,24488000,24492000,0,-0.025634766,12.360045,0.027192347,12.47036,2.3717798e-06,0,1,0,1
24628000,24548000,24548000,0,-0.06295776,12.360021,0.06667111,12.4725895,1.4255378e-05,0,1,0,1
24692000,24608000,24612000,0,0.008056641,12.360132,-0.0021495894,12.475476,1.48154164e-08,0,1,0,1
24748000,24668000,24668000,0,0.04559326,12.360106,-0.037165083,12.47779,4.4278463e-06,0,1,0,1
24812000,24728000,24732000,0,-0.058044434,12.360216,0.05644971,12.464189,1.0226322e-05,0,1,0,1
24868000,24788000,24788000,0,-0.0012207031,12.3601885,0.0015403564,12.466298,7.61316e-09,0,1,0,1
24932000,24848000,24852000,0,-0.015289307,12.360295,0.018382229,12.469031,1.0839859e-06,0,1,0,1
24988000,24908000,24908000,0,-0.09967041,12.360267,0.10508449,12.471228,3.541832e-05,0,1,0,1
25052000,24966666,24972000,0,-0.07055664,12.3603735,0.07794679,12.474073,1.9482657e-05,0,1,0,1
25108000,25028000,25028000,0,0.052215576,12.360343,-0.04292508,12.476354,5.9073745e-06,0,1,0,1
25172000,25088000,25092000,0,-0.018585205,12.360449,0.031320095,12.479307,3.1442398e-06,0,1,0,1
25228000,25148000,25148000,0,0.09906006,12.360417,-0.09443701,12.464995,2.861886e-05,0,1,0,1
25292000,25208000,25212000,0,0.098236084,12.360521,-0.08983767,12.467688,2.5893516e-05,0,1,0,1
25348000,25268000,25268000,0,-0.09976196,12.360488,0.11164041,12.46985,3.9979892e-05,0,1,0,1
25412000,25328000,25332000,0,-0.056518555,12.36059,0.070569836,12.472652,1.5971267e-05,0,1,0,1
25468000,25386000,25388000,0,-0.06997681,12.360556,0.08620539,12.4749,2.382823e-05,0,1,0,1
25516000,25436000,25436000,0,-0.017578125,12.360388,0.035435002,12.476564,4.025593e-06,0,1,0,1
25580000,25496000,25500000,0,0.13296509,12.360493,-0.112167865,12.479521,4.0327286e-05,0,1,0,1
25636000,25554000,25556000,0,-0.060546875,12.36046,0.06988636,12.465216,1.5672742e-05,0,1,0,1
25684000,25604000,25604000,0,-0.059936523,12.360292,0.07094535,12.466761,1.614932e-05,0,1,0,1
25748000,25664000,25668000,0,-0.035827637,12.360398,0.049282953,12.4695015,7.791199e-06,0,1,0,1
25804000,25724000,25724000,0,0.039733887,12.360368,-0.023979943,12.471703,1.8442956e-06,0,1,0,1
25868000,25784000,25788000,0,-0.035614014,12.360473,0.054797843,12.474555,9.628572e-06,0,1,0,1
25924000,25844000,25844000,0,-0.09616089,12.36044,0.11771443,12.47684,4.442371e-05,0,1,0,1
25988000,25904000,25908000,0,-0.015289307,12.360544,0.03903065,12.4798,4.8827437e-06,0,1,0,1
26044000,25964000,25964000,0,-0.0947876,12.360512,0.10130511,12.465488,3.2931646e-05,0,1,0,1
26108000,26024000,26028000,0,-0.046936035,12.360614,0.05558476,12.468189,9.912154e-06,0,1,0,1
26164000,26084000,26084000,0,0.056854248,12.360579,-0.046008594,12.470358,6.789832e-06,0,1,0,1
26228000,26144000,26148000,0,-0.042144775,12.36068,0.056524698,12.47317,1.0246125e-05,0,1,0,1
26284000,26204000,26204000,0,0.038146973,12.360644,-0.021450287,12.475426,1.4752676e-06,0,1,0,1
26348000,26264000,26268000,0,0.06613159,12.360744,-0.045911342,12.478347,6.756828e-06,0,1,0,1
26404000,26324000,26324000,0,-0.0140686035,12.360708,0.018856244,12.464198,1.1410535e-06,0,1,0,1
26468000,26384000,26388000,0,0.028320312,12.360806,-0.020644516,12.466859,1.3674528e-06,0,1,0,1
26524000,26444000,26444000,0,-0.098602295,12.360767,0.10918759,12.468995,3.8245034e-05,0,1,0,1
26588000,26504000,26508000,0,-0.041290283,12.360866,0.054109965,12.471768,9.390451e-06,0,1,0,1
26644000,26564000,26564000,0,-0.026733398,12.3608265,0.041935496,12.473991,5.6392078e-06,0,1,0,1
26708000,26624000,26628000,0,-0.087402344,12.360923,0.105599895,12.476874,3.5750425e-05,0,1,0,1
26764000,26684000,26684000,0,-0.058288574,12.360884,0.078525774,12.479181,1.976507e-05,0,1,0,1
26828000,26744000,26748000,0,-0.05758667,12.36098,0.063551836,12.465517,1.2960027e-05,0,1,0,1
26884000,26804000,26804000,0,-0.1368103,12.360938,0.14505711,12.467621,6.750788e-05,0,1,0,1
26948000,26864000,26868000,0,-0.004058838,12.3610325,0.014393303,12.470354,6.6451094e-07,0,1,0,1
27004000,26924000,26924000,0,-0.05090332,12.360991,0.06410962,12.472546,1.3181091e-05,0,1,0,1
27068000,26984000,26988000,0,-0.040924072,12.361084,0.057035804,12.4753895,1.0430402e-05,0,1,0,1
27124000,27044000,27044000,0,-0.03100586,12.361041,0.04972746,12.477666,7.927189e-06,0,1,0,1
27188000,27104000,27108000,0,-0.039978027,12.361135,0.06190394,12.4806185,1.22817555e-05,0,1,0,1
27244000,27164000,27164000,0,-0.030029297,12.361092,0.042255946,12.46624,5.7292814e-06,0,1,0,1
27308000,27222666,27228000,0,-0.0014953613,12.361183,0.016945703,12.468933,9.211914e-07,0,1,0,1
27364000,27284000,27284000,0,-0.04360962,12.361138,0.062168315,12.471093,1.2396345e-05,0,1,0,1
27428000,27342666,27348000,0,-0.03366089,12.361229,0.05548591,12.473898,9.872411e-06,0,1,0,1
27484000,27400000,27404000,0,0.04663086,12.361184,-0.021921769,12.476144,1.5407451e-06,0,1,0,1
27532000,27452000,27452000,0,0.004211426,12.361004,0.023662847,12.477803,1.7949644e-06,0,1,0,1
27596000,27512000,27516000,0,-0.037841797,12.361098,0.060234383,12.476189,1.1632337e-05,0,1,0,1
27652000,27572000,27572000,0,0.098846436,12.361055,-0.08280462,12.466388,2.2000293e-05,0,1,0,1
27716000,27632000,27636000,0,0.037078857,12.361148,-0.016493376,12.469087,8.726588e-07,0,1,0,1
27772000,27688000,27692000,0,-0.042877197,12.361103,0.06709119,12.4712515,1.4437132e-05,0,1,0,1
27820000,27738000,27740000,0,0.01876831,12.360925,0.007933486,12.4728565,2.0184696e-07,0,1,0,1
27884000,27798666,27804000,0,-0.056274414,12.36102,0.08717243,12.475712,2.4364244e-05,0,1,0,1
27940000,27860000,27860000,0,-0.12594604,12.360978,0.15991335,12.477997,8.197559e-05,0,1,0,1
28004000,27918666,27924000,0,-0.06817627,12.361073,0.08707286,12.464498,2.4330488e-05,0,1,0,1
28060000,27980000,27980000,0,0.012390137,12.36103,0.00950202,12.466581,2.896973e-07,0,1,0,1
28124000,28040000,28044000,0,0.003112793,12.361122,0.02306191,12.469286,1.7061177e-06,0,1,0,1
28180000,28100000,28100000,0,0.008026123,12.361078,0.021842627,12.4714575,1.5302152e-06,0,1,0,1
28244000,28160000,28164000,0,0.06454468,12.361171,-0.030324124,12.474275,2.9486362e-06,0,1,0,1
28300000,28220000,28220000,0,0.0501709,12.361126,-0.011575796,12.476531,4.2960352e-07,0,1,0,1
28364000,28280000,28284000,0,-0.010955811,12.3612175,0.05444103,12.479458,9.499854e-06,0,1,0,1
28420000,28340000,28340000,0,-0.04333496,12.361173,0.064952575,12.465239,1.3537926e-05,0,1,0,1
28484000,28400000,28404000,0,-0.028656006,12.361263,0.054118384,12.467906,9.3962835e-06,0,1,0,1
28540000,28460000,28460000,0,0.028167725,12.361217,0.0007615723,12.470046,1.8604336e-09,0,1,0,1
28604000,28520000,28524000,0,-0.1126709,12.361306,0.14622468,12.472825,6.857037e-05,0,1,0,1
28660000,28580000,28580000,0,0.015380859,12.361259,0.020983841,12.475053,1.4118469e-06,0,1,0,1
28724000,28640000,28644000,0,-0.0642395,12.361349,0.10518199,12.477942,3.546499e-05,0,1,0,1
28780000,28698000,28700000,0,0.044677734,12.361301,-0.0004983321,12.480252,7.9592893e-10,0,1,0,1
28828000,28748000,28748000,0,-0.09146118,12.36112,0.11741978,12.46539,4.424219e-05,0,1,0,1
28892000,28808000,28812000,0,0.05041504,12.361211,-0.020889714,12.468063,1.3999933e-06,0,1,0,1
28948000,28866000,28868000,0,-0.048339844,12.361166,0.08214615,12.47021,2.1645154e-05,0,1,0,1
28996000,28916000,28916000,0,-0.061706543,12.360986,0.09837591,12.4718,3.103905e-05,0,1,0,1
29060000,28976000,28980000,0,0.014312744,12.361079,0.026365142,12.474631,2.2289098e-06,0,1,0,1
29116000,29036000,29036000,0,-0.055877686,12.361037,0.10072192,12.476899,3.2523803e-05,0,1,0,1
29180000,29094666,29100000,0,0.0107421875,12.361131,0.03830813,12.479839,4.703627e-06,0,1,0,1
29236000,29156000,29156000,0,-0.012420654,12.361087,0.036487665,12.465602,4.2720753e-06,0,1,0,1
29300000,29216000,29220000,0,-0.05432129,12.361178,0.08276627,12.468284,2.1976579e-05,0,1,0,1
29356000,29276000,29276000,0,-0.06768799,12.361134,0.09958998,12.470436,3.1813368e-05,0,1,0,1
29420000,29336000,29340000,0,0.013031006,12.361225,0.022811271,12.47323,1.6687068e-06,0,1,0,1
29476000,29396000,29396000,0,-0.06188965,12.361179,0.10180991,12.475469,3.3234046e-05,0,1,0,1
29540000,29456000,29460000,0,0.06109619,12.36127,-0.017123956,12.478373,9.399619e-07,0,1,0,1
29596000,29514000,29516000,0,0.042175293,12.361224,0.0048288517,12.476131,7.475974e-08,0,1,0,1
29644000,29564000,29564000,0,-0.009460449,12.361044,0.046917494,12.465798,7.06333e-06,0,1,0,1
29708000,29622666,29628000,0,0.033233643,12.361136,0.008888725,12.468488,2.5346918e-07,0,1,0,1
29764000,29684000,29684000,0,-0.027709961,12.361093,0.07425378,12.470647,1.7685126e-05,0,1,0,1
29828000,29744000,29748000,0,0.080963135,12.361184,-0.029856406,12.473449,2.858568e-06,0,1,0,1
29884000,29804000,29804000,0,-0.11651611,12.361139,0.1725407,12.475694,9.545054e-05,0,1,0,1
29948000,29864000,29868000,0,0.100982666,12.361231,-0.041174445,12.478605,5.434373e-06,0,1,0,1
30004000,29924000,29924000,0,-0.0730896,12.361186,0.12203476,12.464502,4.7791666e-05,0,1,0,1
30068000,29982666,29988000,0,-0.039123535,12.361276,0.09230612,12.467153,2.7337184e-05,0,1,0,1
30124000,30044000,30044000,0,0.0039367676,12.361229,0.053122893,12.469281,9.052781e-06,0,1,0,1
30188000,30104000,30108000,0,0.032592773,12.361319,0.029420778,12.472046,2.7760711e-06,0,1,0,1
30244000,30164000,30164000,0,-0.01876831,12.361271,0.08532917,12.474261,2.3347488e-05,0,1,0,1
30308000,30224000,30228000,0,-0.0039367676,12.361361,0.075323254,12.477138,1.8188763e-05,0,1,0,1
30364000,30284000,30284000,0,0.039001465,12.361313,0.036618486,12.479437,4.297993e-06,0,1,0,1
30428000,30344000,30348000,0,-0.012298584,12.361402,0.066079974,12.465804,1.40113325e-05,0,1,0,1
30484000,30404000,30404000,0,-0.021118164,12.361352,0.07886016,12.467901,1.9951796e-05,0,1,0,1
30548000,30464000,30468000,0,-0.015716553,12.36144,0.07800895,12.470628,1.9519135e-05,0,1,0,1
30604000,30524000,30524000,0,0.069488525,12.36139,-0.0032409355,12.472814,3.3684984e-08,0,1,0,1
30668000,30582666,30588000,0,-0.0009765625,12.361477,0.07265169,12.475652,1.6923423e-05,0,1,0,1
30724000,30644000,30644000,0,-0.056671143,12.361427,0.13248385,12.477922,5.6265686e-05,0,1,0,1
30788000,30704000,30708000,0,0.024353027,12.361513,0.055814303,12.480869,9.984037e-06,0,1,0,1
30844000,30764000,30764000,0,0.053009033,12.361464,0.009024233,12.466513,2.6129769e-07,0,1,0,1
30908000,30824000,30828000,0,0.020233154,12.361548,0.0470832,12.4692,7.1113705e-06,0,1,0,1
30964000,30884000,30884000,0,-0.17654419,12.361497,0.24820994,12.471355,0.00019759897,0,1,0,1
31028000,30944000,30948000,0,-0.019378662,12.361582,0.09432296,12.474155,2.852881e-05,0,1,0,1
31084000,31004000,31004000,0,0.014343262,12.36153,0.06458394,12.4763975,1.33727235e-05,0,1,0,1
31148000,31064000,31068000,0,0.0008544922,12.361615,0.08311351,12.479307,2.2141792e-05,0,1,0,1
31204000,31122000,31124000,0,-0.0078125,12.361563,0.07499138,12.465117,1.8046225e-05,0,1,0,1
31252000,31172000,31172000,0,-0.03060913,12.361376,0.10117865,12.466627,3.2846478e-05,0,1,0,1
31316000,31232000,31236000,0,0.087677,12.361462,-0.012528919,12.46932,5.035521e-07,0,1,0,1
31372000,31292000,31292000,0,0.045288086,12.361412,0.034837388,12.471482,3.89254e-06,0,1,0,1
31436000,31352000,31356000,0,0.054992676,12.361499,0.030485332,12.47429,2.980067e-06,0,1,0,1
31492000,31412000,31412000,0,-0.057403564,12.361448,0.14763407,12.476537,6.987779e-05,0,1,0,1
31556000,31472000,31476000,0,0.12231445,12.361534,-0.027608372,12.479453,2.443127e-06,0,1,0,1
31612000,31532000,31532000,0,0.084503174,12.361484,-0.011566959,12.465258,4.2933584e-07,0,1,0,1
31676000,31592000,31596000,0,0.028076172,12.361568,0.05035337,12.467914,8.134358e-06,0,1,0,1
31732000,31652000,31652000,0,-0.01373291,12.361516,0.09653226,12.470044,2.989076e-05,0,1,0,1
31796000,31710666,31716000,0,0.03878784,12.361601,0.04871782,12.472814,7.6115175e-06,0,1,0,1
31852000,31772000,31772000,0,0.06738281,12.361548,0.024616078,12.475031,1.9429253e-06,0,1,0,1
31916000,31832000,31836000,0,0.067596436,12.361632,0.029866748,12.477911,2.8595255e-06,0,1,0,1
31972000,31892000,31892000,0,0.11480713,12.361581,-0.012570456,12.480213,5.06454e-07,0,1,0,1
32036000,31952000,31956000,0,0.011383057,12.361665,0.066345885,12.466501,1.4123534e-05,0,1,0,1
32092000,32012000,32012000,0,-0.04437256,12.36161,0.12614891,12.4686,5.1051597e-05,0,1,0,1
32156000,32072000,32076000,0,0.045959473,12.361693,0.040049247,12.471332,5.1444135e-06,0,1,0,1
32212000,32132000,32132000,0,0.09799194,12.361639,-0.007607512,12.473519,1.8559074e-07,0,1,0,1
32276000,32190666,32196000,0,-0.04763794,12.361722,0.14359221,12.476361,6.610492e-05,0,1,0,1
32332000,32252000,32252000,0,-0.0087890625,12.361668,0.10829273,12.478634,3.7591664e-05,0,1,0,1
32396000,32312000,32316000,0,0.015655518,12.36175,0.07834823,12.4769945,1.9679243e-05,0,1,0,1
32452000,32372000,32372000,0,-0.03527832,12.361695,0.11577219,12.467155,4.300323e-05,0,1,0,1
32516000,32432000,32436000,0,0.078430176,12.361776,0.0063191727,12.469847,1.2809122e-07,0,1,0,1
32572000,32492000,32492000,0,0.045654297,12.361721,0.043740056,12.472005,6.1359588e-06,0,1,0,1
32636000,32552000,32556000,0,0.03665161,12.361801,0.057787515,12.474809,1.070765e-05,0,1,0,1
32692000,32612000,32612000,0,0.018371582,12.361746,0.080364294,12.477052,2.0704954e-05,0,1,0,1
32756000,32672000,32676000,0,0.06607056,12.361827,0.037514992,12.479966,4.5108286e-06,0,1,0,1
32812000,32732000,32732000,0,-0.018096924,12.361771,0.09607824,12.465711,2.9620544e-05,0,1,0,1
32876000,32792000,32796000,0,0.029693604,12.361851,0.05253695,12.468365,8.85483e-06,0,1,0,1
32932000,32852000,32852000,0,0.08648682,12.3617935,-0.00023563951,12.470491,1.7810357e-10,0,1,0,1
32996000,32912000,32916000,0,-0.0027160645,12.361873,0.094176166,12.473256,2.8442135e-05,0,1,0,1
33052000,32970000,32972000,0,0.0028381348,12.361815,0.09239513,12.475471,2.7371665e-05,0,1,0,1
33100000,33020000,33020000,0,-0.043273926,12.361625,0.14167717,12.477104,6.434961e-05,0,1,0,1
33164000,33080000,33084000,0,-0.01852417,12.361708,0.12105957,12.480024,4.6972404e-05,0,1,0,1
33220000,33140000,33140000,0,0.024810791,12.361654,0.047593586,12.465777,7.268378e-06,0,1,0,1
33284000,33200000,33204000,0,-0.031097412,12.361736,0.1078272,12.468437,3.729964e-05,0,1,0,1
33340000,33260000,33260000,0,-0.0113220215,12.361681,0.09130135,12.470571,2.673795e-05,0,1,0,1
33404000,33320000,33324000,0,-0.048065186,12.361762,0.13207227,12.473343,5.5937166e-05,0,1,0,1
33460000,33380000,33380000,0,0.06109619,12.361708,0.025977075,12.475563,2.163617e-06,0,1,0,1
33524000,33440000,33444000,0,0.11300659,12.361789,-0.021281593,12.478446,1.4518032e-06,0,1,0,1
33580000,33500000,33500000,0,0.00012207031,12.361733,0.09613865,12.48075,2.9622066e-05,0,1,0,1
33636000,33556000,33556000,0,0.047943115,12.36168,0.027701803,12.466427,2.4622607e-06,0,1,0,1
33692000,33608000,33612000,0,0.07635498,12.361626,0.0030136555,12.468524,2.913615e-08,0,1,0,1
33748000,33668000,33668000,0,0.062286377,12.361572,0.021056354,12.470663,1.4221218e-06,0,1,0,1
33812000,33728000,33732000,0,0.02960205,12.361656,0.058132537,12.473444,1.0837077e-05,0,1,0,1
33868000,33788000,33788000,0,0.091156006,12.361603,8.288026e-05,12.47567,2.2024106e-11,0,1,0,1
33932000,33848000,33852000,0,0.03012085,12.361686,0.06578374,12.47856,1.3871792e-05,0,1,0,1
33988000,33908000,33908000,0,0.01663208,12.361633,0.0828064,12.480871,2.197571e-05,0,1,0,1
34052000,33968000,33972000,0,-0.057769775,12.361716,0.121733606,12.46711,4.754613e-05,0,1,0,1
34108000,34028000,34028000,0,0.027862549,12.361661,0.03846676,12.469218,4.746702e-06,0,1,0,1
34172000,34088000,34092000,0,0.19250488,12.361743,-0.12259761,12.471961,4.820469e-05,0,1,0,1
34228000,34146000,34148000,0,0.041168213,12.361689,0.033285297,12.474159,3.5526596e-06,0,1,0,1
34292000,34208000,34212000,0,0.21051025,12.36177,-0.1323596,12.477012,5.616429e-05,0,1,0,1
34348000,34267000,34268000,0,0.04498291,12.361715,0.037937902,12.479294,4.613352e-06,0,1,0,1
34412000,34328000,34332000,0,0.12512207,12.361796,-0.063723445,12.465692,1.30299295e-05,0,1,0,1
34468000,34388000,34388000,0,0.030639648,12.36174,0.034386016,12.467771,3.7934549e-06,0,1,0,1
34532000,34448000,34452000,0,-0.03475952,12.36182,0.10304047,12.470474,3.4055927e-05,0,1,0,1
34588000,34508000,34508000,0,0.078826904,12.361764,-0.008353375,12.472642,2.2378217e-07,0,1,0,1
34652000,34568000,34572000,0,0.036499023,12.361844,0.03756351,12.475458,4.5241377e-06,0,1,0,1
34708000,34628000,34628000,0,0.050933838,12.361788,0.025877036,12.477712,2.1466149e-06,0,1,0,1
34772000,34688000,34692000,0,-0.0051574707,12.361868,0.0852767,12.480638,2.3306873e-05,0,1,0,1
34828000,34748000,34748000,0,0.075408936,12.361812,-0.01630881,12.466324,8.534267e-07,0,1,0,1
34892000,34808000,34812000,0,0.079956055,12.361891,-0.017610405,12.468989,9.948724e-07,0,1,0,1
34948000,34868000,34868000,0,0.05633545,12.361833,0.008904345,12.471127,2.54307e-07,0,1,0,1
35012000,34928000,34932000,0,0.15969849,12.361912,-0.091425315,12.473906,2.6803438e-05,0,1,0,1
35068000,34988000,34988000,0,0.0368042,12.361854,0.035006665,12.476129,3.928996e-06,0,1,0,1
35132000,35048000,35052000,0,-0.056793213,12.361933,0.13136512,12.479018,5.5314587e-05,0,1,0,1
35188000,35108000,35108000,0,0.080566406,12.361875,-0.0045097023,12.481324,6.5177105e-08,0,1,0,1
35252000,35168000,35172000,0,0.085235596,12.361954,-0.026048485,12.467508,2.176934e-06,0,1,0,1
35308000,35228000,35228000,0,0.009857178,12.361895,0.051954847,12.469615,8.658827e-06,0,1,0,1
35372000,35288000,35292000,0,0.20751953,12.361972,-0.14337584,12.472355,6.592703e-05,0,1,0,1
35428000,35348000,35348000,0,-0.00033569336,12.361914,0.06821809,12.474549,1.4922247e-05,0,1,0,1
35492000,35408000,35412000,0,0.1645813,12.361991,-0.09453439,12.477401,2.8649398e-05,0,1,0,1
35548000,35468000,35468000,0,-0.028778076,12.361932,0.10220327,12.479679,3.3480057e-05,0,1,0,1
35612000,35528000,35532000,0,0.1177063,12.36201,-0.060532536,12.466033,1.175735e-05,0,1,0,1
35668000,35588000,35588000,0,-0.00491333,12.36195,0.06483975,12.468109,1.3487829e-05,0,1,0,1
35732000,35648000,35652000,0,0.09893799,12.362026,-0.037002902,12.470811,4.391743e-06,0,1,0,1
35788000,35708000,35708000,0,0.06573486,12.361966,-0.0012142882,12.472975,4.72861e-09,0,1,0,1
35852000,35768000,35772000,0,0.046966553,12.362042,0.020173796,12.475789,1.3048699e-06,0,1,0,1
35908000,35827000,35828000,0,0.06124878,12.361983,0.008009963,12.478039,2.0567177e-07,0,1,0,1
35972000,35888000,35892000,0,0.17398071,12.36206,-0.10217047,12.480962,3.345513e-05,0,1,0,1
36028000,35948000,35948000,0,-0.01473999,12.3619995,0.06532014,12.466613,1.3690073e-05,0,1,0,1
36092000,36008000,36012000,0,-0.02355957,12.362075,0.0756893,12.469275,1.8377557e-05,0,1,0,1
36148000,36068000,36068000,0,0.0663147,12.362014,-0.012972694,12.47141,5.397651e-07,0,1,0,1
36212000,36128000,36132000,0,0.14602661,12.36209,-0.09042691,12.474186,2.622063e-05,0,1,0,1
36268000,36188000,36188000,0,0.023132324,12.362029,0.03515656,12.476407,3.962627e-06,0,1,0,1
36332000,36248000,36252000,0,0.070373535,12.362104,-0.010237686,12.479293,3.359492e-07,0,1,0,1
36388000,36308000,36308000,0,0.032714844,12.362044,0.029421825,12.481597,2.7741444e-06,0,1,0,1
36452000,36368000,36372000,0,0.2489624,12.36212,-0.20588627,12.467753,0.00013599613,0,1,0,1
36508000,36428000,36428000,0,0.092163086,12.362058,-0.045752622,12.469856,6.714761e-06,0,1,0,1
36572000,36488000,36492000,0,0.1199646,12.362132,-0.07129891,12.472594,1.6303056e-05,0,1,0,1
36628000,36548000,36548000,0,0.020721436,12.362071,0.030229524,12.474786,2.9301475e-06,0,1,0,1
36692000,36608000,36612000,0,-0.0776062,12.362145,0.13019058,12.477633,5.4335902e-05,0,1,0,1
36748000,36668000,36668000,0,0.040924072,12.362084,0.01212411,12.47991,4.7113818e-07,0,1,0,1
36812000,36728000,36732000,0,0.041046143,12.362159,-0.00077534094,12.466243,1.9289006e-09,0,1,0,1
36868000,36788000,36788000,0,0.017578125,12.362096,0.024150923,12.468315,1.8711977e-06,0,1,0,1
36932000,36848000,36852000,0,0.03186035,12.36217,0.011337779,12.471015,4.1230084e-07,0,1,0,1
36988000,36907000,36908000,0,0.064819336,12.362107,-0.020255063,12.473176,1.3156795e-06,0,1,0,1
37052000,36968000,36972000,0,-0.0010681152,12.362182,0.047537815,12.4759865,7.245419e-06,0,1,0,1
37108000,37027000,37028000,0,-0.00064086914,12.362119,0.04822117,12.478233,7.45388e-06,0,1,0,1
37172000,37088000,37092000,0,0.027954102,12.362193,0.020994972,12.4811535,1.4126542e-06,0,1,0,1
37228000,37148000,37148000,0,0.051605225,12.362131,-0.013703138,12.466789,6.0248385e-07,0,1,0,1
37292000,37208000,37212000,0,0.02331543,12.362205,0.016401265,12.46945,8.629138e-07,0,1,0,1
37348000,37267000,37268000,0,0.14083862,12.362141,-0.09974113,12.4715805,3.1907082e-05,0,1,0,1
37412000,37328000,37332000,0,0.09768677,12.362214,-0.05390831,12.474354,9.318658e-06,0,1,0,1
37468000,37388000,37388000,0,0.022094727,12.362151,0.02379876,12.476572,1.8158223e-06,0,1,0,1
37532000,37448000,37452000,0,0.031677246,12.362225,0.015863966,12.479455,8.066551e-07,0,1,0,1
37588000,37508000,37508000,0,0.031829834,12.362162,0.017209683,12.481756,9.491394e-07,0,1,0,1
37652000,37568000,37572000,0,0.13528442,12.362235,-0.10093683,12.467901,3.2686312e-05,0,1,0,1
37708000,37628000,37628000,0,0.026397705,12.362171,0.010261111,12.470002,3.3773978e-07,0,1,0,1
37772000,37688000,37692000,0,0.13916016,12.362244,-0.10083109,12.472737,3.260522e-05,0,1,0,1
37828000,37748000,37748000,0,0.072509766,12.362181,-0.03164555,12.474926,3.2110522e-06,0,1,0,1
37892000,37808000,37812000,0,0.11920166,12.362253,-0.07610221,12.477772,1.8565965e-05,0,1,0,1
37948000,37867000,37868000,0,0.019927979,12.362189,0.025636367,12.480044,2.1064777e-06,0,1,0,1
38012000,37928000,37932000,0,-0.05496216,12.362263,0.08458431,12.46637,2.2956181e-05,0,1,0,1
38068000,37988000,37988000,0,0.05380249,12.362198,-0.023301011,12.46844,1.7417965e-06,0,1,0,1
38132000,38048000,38052000,0,0.18035889,12.36227,-0.1477845,12.471137,7.0050584e-05,0,1,0,1
38188000,38108000,38108000,0,0.052246094,12.3622055,-0.016669426,12.473295,8.910869e-07,0,1,0,1
38252000,38168000,38172000,0,-0.12164307,12.362278,0.159406,12.476104,8.146862e-05,0,1,0,1
38308000,38228000,38228000,0,0.030029297,12.362214,0.008141149,12.478349,2.1245859e-07,0,1,0,1
38372000,38288000,38292000,0,0.058288574,12.362287,-0.01794497,12.481266,1.0320168e-06,0,1,0,1
38428000,38348000,38348000,0,0.029937744,12.362223,-0.0048280116,12.466897,7.4789085e-08,0,1,0,1
38492000,38408000,38412000,0,-0.045196533,12.362294,0.07245149,12.469555,1.683851e-05,0,1,0,1
38548000,38468000,38468000,0,-0.0069885254,12.362229,0.03552884,12.4716835,4.048526e-06,0,1,0,1
38612000,38528000,38532000,0,-0.011383057,12.362301,0.041904315,12.474454,5.6306167e-06,0,1,0,1
38668000,38588000,38588000,0,0.054718018,12.362236,-0.022496011,12.476669,1.6224537e-06,0,1,0,1
38732000,38648000,38652000,0,0.054504395,12.3623085,-0.019570544,12.479551,1.2276282e-06,0,1,0,1
38788000,38708000,38708000,0,0.13882446,12.362244,-0.101407014,12.48185,3.2954675e-05,0,1,0,1
38852000,38768000,38772000,0,0.015838623,12.362316,0.012183266,12.467992,4.7620168e-07,0,1,0,1
38908000,38828000,38828000,0,0.07699585,12.36225,-0.046774082,12.47009,7.0177994e-06,0,1,0,1
38972000,38888000,38892000,0,-0.031433105,12.362322,0.064797945,12.472823,1.3465351e-05,0,1,0,1
39028000,38947000,38948000,0,0.0020141602,12.362257,0.033273444,12.47501,3.5498877e-06,0,1,0,1
39092000,39008000,39012000,0,-0.016448975,12.362329,0.054458283,12.477854,9.507098e-06,0,1,0,1
39148000,39068000,39068000,0,0.077941895,12.362264,-0.03768218,12.480124,4.5510656e-06,0,1,0,1
39212000,39128000,39132000,0,0.1902771,12.362335,-0.1755526,12.466448,9.888532e-05,0,1,0,1
39268000,39188000,39188000,0,0.043151855,12.362269,-0.02449696,12.468516,1.925172e-06,0,1,0,1
39332000,39248000,39252000,0,-0.00869751,12.36234,0.030533995,12.4712105,2.9903267e-06,0,1,0,1
39388000,39307000,39308000,0,0.038513184,12.362274,-0.014217377,12.473368,6.482092e-07,0,1,0,1
39452000,39368000,39372000,0,0.08065796,12.362346,-0.052984864,12.476174,9.0008225e-06,0,1,0,1
39508000,39425000,39428000,0,0.07546997,12.36228,-0.044335697,12.478416,6.300973e-06,0,1,0,1
39564000,39484000,39484000,0,-0.056396484,12.362216,0.09101846,12.480699,2.6550952e-05,0,1,0,1
39620000,39534666,39540000,0,0.061798096,12.362154,-0.04425208,12.466406,6.2832755e-06,0,1,0,1
39676000,39596000,39596000,0,0.014465332,12.362091,0.006323384,12.468482,1.2827604e-07,0,1,0,1
39740000,39656000,39660000,0,0.033294678,12.362165,-0.009150898,12.471185,2.6858373e-07,0,1,0,1
39796000,39716000,39716000,0,-0.04660034,12.3621025,0.07389003,12.473348,1.750849e-05,0,1,0,1
39860000,39776000,39780000,0,0.019805908,12.362177,0.0104658175,12.476163,3.5117634e-07,0,1,0,1
39916000,39836000,39836000,0,0.052764893,12.362114,-0.019244935,12.478412,1.1872265e-06,0,1,0,1
39980000,39896000,39900000,0,0.12298584,12.362188,-0.08535314,12.481335,2.3347373e-05,0,1,0,1
40036000,39956000,39956000,0,-0.0045166016,12.362126,0.024580067,12.466975,1.9384966e-06,0,1,0,1
40100000,40014666,40020000,0,0.047332764,12.3622,-0.023735058,12.469641,1.8071185e-06,0,1,0,1
40156000,40076000,40076000,0,-0.028015137,12.362137,0.055226423,12.471775,9.781953e-06,0,1,0,1
40220000,40136000,40140000,0,0.07577515,12.36221,-0.045002542,12.474553,6.4939527e-06,0,1,0,1
40276000,40196000,40196000,0,0.09414673,12.362147,-0.059285026,12.476774,1.1268023e-05,0,1,0,1
40340000,40256000,40260000,0,-0.0519104,12.362221,0.09165951,12.479661,2.6928506e-05,0,1,0,1
40396000,40316000,40316000,0,-0.018218994,12.362158,0.06100504,12.481966,1.1926374e-05,0,1,0,1
40460000,40376000,40380000,0,0.11380005,12.362231,-0.08907236,12.468058,2.5453477e-05,0,1,0,1
40516000,40436000,40436000,0,0.13647461,12.362167,-0.10728478,12.470161,3.6920206e-05,0,1,0,1
40580000,40496000,40500000,0,0.11203003,12.362241,-0.07751863,12.4729,1.927102e-05,0,1,0,1
40636000,40556000,40556000,0,0.06906128,12.362177,-0.029901322,12.475091,2.8667976e-06,0,1,0,1
40700000,40616000,40620000,0,0.1579895,12.362249,-0.113891825,12.47794,4.1581698e-05,0,1,0,1
40756000,40676000,40676000,0,0.081848145,12.362186,-0.032444842,12.480215,3.373877e-06,0,1,0,1
40820000,40736000,40740000,0,0.053375244,12.36226,-0.021876574,12.466548,1.5355797e-06,0,1,0,1
40876000,40794000,40796000,0,0.010925293,12.362195,0.02484624,12.468622,1.9804456e-06,0,1,0,1
40924000,40844000,40844000,0,0.13790894,12.361997,-0.09873384,12.470155,3.1269446e-05,0,1,0,1
40988000,40904000,40908000,0,0.085357666,12.362072,-0.040368,12.472901,5.22597e-06,0,1,0,1
41044000,40964000,40964000,0,-0.116882324,12.362012,0.16668604,12.4751,8.908702e-05,0,1,0,1
41108000,41024000,41028000,0,0.048950195,12.362087,0.0045299493,12.477957,6.5781414e-08,0,1,0,1
41164000,41084000,41084000,0,0.044281006,12.362027,0.013806906,12.48024,6.1098393e-07,0,1,0,1
41228000,41142666,41148000,0,0.0725708,12.362103,-0.037520215,12.4665785,4.51693e-06,0,1,0,1
41284000,41204000,41204000,0,0.058135986,12.362041,-0.018457115,12.46866,1.0928682e-06,0,1,0,1
41348000,41264000,41268000,0,-0.0030517578,12.362116,0.047946684,12.47137,7.3733186e-06,0,1,0,1
