timestamp,gyro_rad[0],gyro_rad[1],gyro_rad[2],gyro_integral_dt,accelerometer_timestamp_relative,accelerometer_m_s2[0],accelerometer_m_s2[1],accelerometer_m_s2[2],accelerometer_integral_dt,accelerometer_clipping,gyro_clipping,accel_calibration_count,gyro_calibration_count
3388000,-0.0023968457,-0.0061252713,0.0013315796,4000,0,-0.21906948,0.19393052,-9.927559,4000,0,0,0,1
3392000,-0.0018642095,-0.0053263237,-0.000532632,4000,0,-0.20470428,0.19273342,-9.940725,4000,0,0,0,1
3396000,-0.00053263194,-0.00559264,-0.000798946,4000,0,-0.20470428,0.17836823,-9.940725,4000,0,0,0,1
3400000,-0.0007989487,-0.004527375,-0.000532633,4000,0,-0.20111299,0.17357981,-9.927559,4000,0,0,0,1
3404000,-0.0018642098,-0.003195794,-0.0023968474,4000,0,-0.19033906,0.17477691,-9.93474,4000,0,0,0,1
3408000,-0.0013315807,-0.0039947433,-0.0029294766,4000,0,-0.18674776,0.1604117,-9.965866,4000,0,0,0,1
3412000,-0.0013315832,-0.0047936896,-0.0015978967,4000,0,-0.18195936,0.15801749,-9.96467,4000,0,0,0,1
3416000,-0.0037284258,-0.0053263213,-0.0018642168,4000,0,-0.18555066,0.17477691,-9.949107,4000,0,0,0,1
3424000,-0.0023968478,-0.003994741,1.5615377e-09,4000,0,-0.18914196,0.19871895,-9.923965,4000,0,0,0,1
3428000,-0.0026631623,-0.0045273746,0.00079894846,4000,0,-0.17238253,0.18555082,-9.926362,4000,0,0,0,1
3436000,-0.0037284256,-0.0053263227,0.00026631585,4000,0,-0.2346318,0.20829575,-9.932346,4000,0,0,0,1
3444000,-0.0010652645,-0.0031957943,-0.0007989474,4000,0,-0.20829557,0.19512762,-9.93474,4000,0,0,0,1
3448000,-0.0023968464,-0.0045273746,-1.0246743e-09,4000,0,-0.19752163,0.1735798,-9.903616,4000,0,0,0,1
3452000,-0.0039947433,-0.0045273746,0.000798946,4000,0,-0.21308395,0.15562329,-9.888055,4000,0,0,0,1
3456000,-0.002929478,-0.005592639,0.0010652675,4000,0,-0.20350717,0.18555082,-9.897632,4000,0,0,0,1
3460000,-0.0018642102,-0.0058589564,-0.00026631402,4000,0,-0.19273323,0.22385804,-9.917982,4000,0,0,0,1
3464000,-0.0010652617,-0.003728427,-0.0015978968,4000,0,-0.20231007,0.20829575,-9.937136,4000,0,0,0,1
3468000,0.0013315817,-0.0029294791,-0.0021305264,4000,0,-0.20231007,0.17477691,-9.9467125,4000,0,0,0,1
3472000,0.0005326324,-0.003195793,-0.0023968462,4000,0,-0.20949265,0.16998853,-9.955093,4000,0,0,0,1
3476000,-0.003195797,-0.005060003,-0.0007989528,4000,0,-0.22146368,0.17238271,-9.953894,4000,0,0,0,1
3480000,-0.0042610625,-0.007989484,0.0010652657,4000,0,-0.21667528,0.16639723,-9.927559,4000,0,0,0,1
3484000,-0.0018642131,-0.007723167,0.0010652705,4000,0,-0.21667528,0.18195954,-9.91439,4000,0,0,0,1
3488000,0.00079895096,-0.005060006,-0.00026631102,4000,0,-0.21787238,0.20231025,-9.926363,4000,0,0,0,1
3492000,0.0015978963,-0.00479369,1.3348199e-09,4000,0,-0.21547818,0.21188705,-9.9383335,4000,0,0,0,1
3496000,0.0018642126,-0.007456852,0.00026631507,4000,0,-0.21547818,0.22146386,-9.950302,4000,0,0,0,1
3500000,0.00079894933,-0.009853696,-4.309229e-09,4000,0,-0.22146368,0.21428125,-9.957487,4000,0,0,0,1
3504000,-0.0015979011,-0.008255801,0.0013315731,4000,0,-0.22385788,0.19033922,-9.944317,4000,0,0,0,1
3508000,-0.0021305294,-0.0031957945,0.00053262804,4000,0,-0.20829557,0.17238271,-9.925163,4000,0,0,0,1
3512000,-0.00026631495,-0.00213053,-0.0007989473,4000,0,-0.21667528,0.18794502,-9.920377,4000,0,0,0,1
3516000,0.0010652624,-0.005858955,0.0007989496,4000,0,-0.22744915,0.21308415,-9.928757,4000,0,0,0,1
3520000,0.0010652641,-0.007456852,0.0013315801,4000,0,-0.21308395,0.19752185,-9.958684,4000,0,0,0,1
3524000,-0.0007989474,-0.0053263227,0.00053262827,4000,0,-0.20111297,0.19393054,-9.970654,4000,0,0,0,1
3528000,-0.0034621118,-0.002929478,0.0015978914,4000,0,-0.19033906,0.23822328,-9.935939,4000,0,0,0,1
3532000,-0.0021305287,-0.002929478,0.00079894974,4000,0,-0.19632454,0.24660295,-9.92277,4000,0,0,0,1
3536000,0.00026631902,-0.005060007,-0.0015978932,4000,0,-0.21428105,0.19273342,-9.9383335,4000,0,0,0,1
3540000,-2.9551783e-09,-0.0063915877,-0.0002663168,4000,0,-0.21308395,0.17238271,-9.931149,4000,0,0,0,1
3544000,-0.0013315842,-0.0061252713,0.0013315778,4000,0,-0.21667528,0.19393052,-9.908405,4000,0,0,0,1
3548000,-0.001597894,-0.005326323,-0.00026631716,4000,0,-0.22146368,0.19632472,-9.900026,4000,0,0,0,1
3552000,-0.0005326288,-0.0037284272,-0.0021305282,4000,0,-0.20231007,0.21906966,-9.901223,4000,0,0,0,1
3556000,0.00026631495,-0.0026631614,-0.00053263153,4000,0,-0.18435356,0.24660295,-9.903616,4000,0,0,0,1
3560000,0.0005326304,-0.0055926396,0.0010652646,4000,0,-0.18195936,0.22266094,-9.914389,4000,0,0,0,1
3564000,-0.0010652592,-0.0085221175,-0.0013315844,4000,0,-0.19393033,0.19512762,-9.914389,4000,0,0,0,1
3568000,-0.0037284247,-0.0069242185,-0.0015979051,4000,0,-0.20470427,0.1747769,-9.908405,4000,0,0,0,1
3572000,-0.0023968497,-0.0058589536,0.0005326339,4000,0,-0.21188685,0.15801749,-9.916786,4000,0,0,0,1
3576000,0.00026631565,-0.0061252704,0.00079895376,4000,0,-0.22266078,0.17836823,-9.917982,4000,0,0,0,1
3580000,0.0002663179,-0.004527375,-0.0002663161,4000,0,-0.22385788,0.18914212,-9.90601,4000,0,0,0,1
3584000,0.00079894986,-0.0029294777,-0.0010652638,4000,0,-0.22146368,0.18794502,-9.913193,4000,0,0,0,1
3588000,0.00053263153,-0.0042610588,-0.00079894916,4000,0,-0.22026658,0.20111315,-9.925163,4000,0,0,0,1
3592000,-0.00053263304,-0.0071905353,-0.00079895055,4000,0,-0.22266078,0.19273342,-9.91918,4000,0,0,0,1
3596000,-0.00026631745,-0.007190536,-0.00026631562,4000,0,-0.2406173,0.17717113,-9.917982,4000,0,0,0,1
3600000,-0.00026631582,-0.003728426,-0.0002663165,4000,0,-0.23463179,0.16998851,-9.928757,4000,0,0,0,1
3604000,-0.001065262,-0.0021305294,-0.0021305305,4000,0,-0.20829557,0.17118563,-9.932346,4000,0,0,0,1
3608000,-0.0018642143,-0.0042610583,-0.0021305291,4000,0,-0.21667528,0.1915363,-9.91918,4000,0,0,0,1
3612000,-0.0018642173,-0.0066579017,-0.0002663148,4000,0,-0.23223759,0.19273342,-9.925163,4000,0,0,0,1
3616000,-0.0018642143,-0.0074568517,0.0002663165,4000,0,-0.22505498,0.17357981,-9.9383335,4000,0,0,0,1
3620000,-0.0018642124,-0.006657903,-6.126724e-10,4000,0,-0.21308395,0.17357981,-9.929954,4000,0,0,0,1
3624000,-0.00079895084,-0.003994742,0.0010652653,4000,0,-0.19871877,0.17956533,-9.93594,4000,0,0,0,1
3628000,-0.0007989503,-0.0015978967,0.0018642123,4000,0,-0.19153613,0.18195954,-9.93594,4000,0,0,0,1
3632000,-0.0013315795,-0.0023968457,0.0005326322,4000,0,-0.20231009,0.18914212,-9.913193,4000,0,0,0,1
3636000,-0.0007989472,-0.0037284265,-0.00079894747,4000,0,-0.20590138,0.19273342,-9.923965,4000,0,0,0,1
3640000,-0.00079894916,-0.0037284258,-0.00026631623,4000,0,-0.21308395,0.19393052,-9.9467125,4000,0,0,0,1
3644000,-0.0005326343,-0.0037284256,0.0013315808,4000,0,-0.2346318,0.19991605,-9.937136,4000,0,0,0,1
3648000,-0.00079894875,-0.004527375,0.0018642127,4000,0,-0.22026658,0.20829575,-9.93474,4000,0,0,0,1
3652000,-0.002396842,-0.007989486,0.0013315792,4000,0,-0.18674776,0.21906966,-9.94791,4000,0,0,0,1
3656000,-0.0034621076,-0.009853697,0.00079894694,4000,0,-0.18674776,0.21787256,-9.956289,4000,0,0,0,1
3660000,-0.003994739,-0.007989487,-0.0002663202,4000,0,-0.19512744,0.20470445,-9.9383335,4000,0,0,0,1
3664000,-0.003195793,-0.0074568526,-0.00053263095,4000,0,-0.19393034,0.20350735,-9.908405,4000,0,0,0,1
3668000,-0.0015978968,-0.006924219,-0.00053262897,4000,0,-0.20949265,0.20350735,-9.913193,4000,0,0,0,1
3676000,-0.0034621132,-0.0069242176,0.00053263037,4000,0,-0.21188685,0.18674792,-9.92277,4000,0,0,0,1
3684000,-0.002396842,-0.00426106,-0.00026631742,4000,0,-0.22026658,0.20590155,-9.94312,4000,0,0,0,1
3692000,-0.0013315828,-0.0061252713,-0.0007989456,4000,0,-0.237026,0.20111316,-9.968261,4000,0,0,0,1
3696000,-0.0005326362,-0.004527374,0.0013315814,4000,0,-0.2346318,0.21667546,-9.950302,4000,0,0,0,1
3700000,-0.0018642152,-0.0026631616,0.0023968427,4000,0,-0.2262521,0.18195954,-9.9515,4000,0,0,0,1
3704000,-0.003728424,-0.0053263237,0.002396845,4000,0,-0.2262521,0.17118561,-9.952697,4000,0,0,0,1
3708000,-0.002663161,-0.006924218,0.002929481,4000,0,-0.21308395,0.20470443,-9.931149,4000,0,0,0,1
3712000,-0.0005326286,-0.0055926396,0.0007989521,4000,0,-0.19871877,0.21547836,-9.929954,4000,0,0,0,1
3716000,-0.0010652591,-0.006125272,-0.0021305303,4000,0,-0.19512743,0.19033922,-9.9383335,4000,0,0,0,1
3720000,-0.000798947,-0.0047936905,-0.002396845,4000,0,-0.19632453,0.16879141,-9.925163,4000,0,0,0,1
3724000,0.0015978971,-0.002396847,-0.0013315774,4000,0,-0.21308395,0.17836823,-9.917982,4000,0,0,0,1
3728000,0.0007989474,-0.0031957938,-0.0005326334,4000,0,-0.21428105,0.19991605,-9.9383335,4000,0,0,0,1
3736000,-0.002396848,-0.0045273737,0.0013315799,4000,0,-0.20709848,0.21188705,-9.965866,4000,0,0,0,1
3740000,-0.002396848,-0.0037284247,0.002929477,4000,0,-0.20590138,0.19752185,-9.937136,4000,0,0,0,1
3744000,-0.0021305287,-0.0023968462,0.0013315801,4000,0,-0.20709848,0.17717113,-9.923966,4000,0,0,0,1
3748000,-0.0010652641,-0.0026631611,0.00079894945,4000,0,-0.20709848,0.1675943,-9.933543,4000,0,0,0,1
3752000,-0.0007989486,-0.0047936896,0.0015978978,4000,0,-0.19153613,0.17956533,-9.926363,4000,0,0,0,1
3756000,-0.00053263025,-0.0055926396,0.0005326328,4000,0,-0.19512744,0.18076244,-9.911995,4000,0,0,0,1
3760000,-0.00079894724,-0.0042610588,-0.00026631696,4000,0,-0.20829557,0.18794502,-9.9108,4000,0,0,0,1
3764000,-0.0023968464,-0.003994742,0.00053262996,4000,0,-0.225055,0.19033922,-9.935939,4000,0,0,0,1
3768000,-0.0023968448,-0.0069242194,0.0007989506,4000,0,-0.25737667,0.17118561,-9.945516,4000,0,0,0,1
3772000,-0.0007989452,-0.00958738,-0.0002663105,4000,0,-0.24660277,0.1735798,-9.913193,4000,0,0,0,1
3776000,-0.0002663128,-0.009853696,-0.001331579,4000,0,-0.22505498,0.20111315,-9.92277,4000,0,0,0,1
3780000,-0.00053263066,-0.008255801,-0.0015978981,4000,0,-0.2358289,0.21787256,-9.94791,4000,0,0,0,1
3788000,-0.002663162,-0.0061252704,-0.0007989527,4000,0,-0.21308395,0.21906966,-9.916786,4000,0,0,0,1
3792000,-0.0042610588,-0.0042610583,-0.00053263735,4000,0,-0.21906948,0.21188705,-9.9108,4000,0,0,0,1
3796000,-0.0031957952,-0.005060005,0.00026631873,4000,0,-0.22026658,0.20111315,-9.914389,4000,0,0,0,1
3800000,-0.0015978978,-0.004793689,0.0007989508,4000,0,-0.21906948,0.20111315,-9.921572,4000,0,0,0,1
3804000,-0.0021305264,-0.0037284272,-0.001065266,4000,0,-0.21667528,0.21188705,-9.940725,4000,0,0,0,1
3808000,-0.0013315803,-0.005326323,-0.0018642109,4000,0,-0.22625208,0.22026676,-9.941923,4000,0,0,0,1
3812000,0.0010652617,-0.00692422,-0.0007989436,4000,0,-0.22026658,0.21906966,-9.913193,4000,0,0,0,1
3820000,-0.0013315803,-0.0061252704,-0.0010652695,4000,0,-0.20949265,0.21068995,-9.923965,4000,0,0,0,1
3824000,0.0005326304,-0.0066579035,-0.0002663122,4000,0,-0.22146368,0.18794502,-9.901223,4000,0,0,0,1
3832000,-0.0026631607,-0.007989486,-9.3596e-09,4000,0,-0.19752163,0.20709865,-9.8988285,4000,0,0,0,1
3836000,-0.0023968436,-0.009054751,-0.0005326308,4000,0,-0.18555066,0.20709865,-9.916785,4000,0,0,0,1
3840000,-0.00053263444,-0.007190536,0.00026632016,4000,0,-0.19632454,0.18794502,-9.933542,4000,0,0,0,1
3844000,-0.0007989511,-0.0063915877,0.0013315799,4000,0,-0.21667528,0.18794502,-9.944317,4000,0,0,0,1
3848000,0.00079894986,-0.0071905353,0.000798952,4000,0,-0.21308395,0.18794502,-9.93953,4000,0,0,0,1
3852000,0.00292948,-0.006657902,-0.000266311,4000,0,-0.21308395,0.16639723,-9.928757,4000,0,0,0,1
3860000,-1.4184857e-10,-0.008788433,-0.0005326372,4000,0,-0.19991587,0.18914212,-9.929954,4000,0,0,0,1
3864000,4.870134e-09,-0.007723167,-0.0021305296,4000,0,-0.22146368,0.1915363,-9.928757,4000,0,0,0,1
3872000,0.00053262943,-0.0053263227,-0.0015978958,4000,0,-0.22984336,0.18076244,-9.921572,4000,0,0,0,1
3876000,0.0007989435,-0.0066579035,0.0007989486,4000,0,-0.21428105,0.19752185,-9.917982,4000,0,0,0,1
3880000,0.00026631603,-0.0061252713,0.00079894735,4000,0,-0.19273323,0.19393052,-9.917982,4000,0,0,0,1
3884000,-0.00079894485,-0.0055926396,-0.0010652668,4000,0,-0.19153613,0.18914212,-9.914389,4000,0,0,0,1
3888000,-0.0013315796,-0.006657903,-0.0018642138,4000,0,-0.21188685,0.18914212,-9.921572,4000,0,0,0,1
3892000,-0.0013315808,-0.0061252713,-0.0015978973,4000,0,-0.23582889,0.18555082,-9.944317,4000,0,0,0,1
3900000,-0.0015979004,-0.007723166,0.0010652671,4000,0,-0.22385788,0.21428125,-9.940725,4000,0,0,0,1
3904000,-0.00026631745,-0.007989484,0.0015979002,4000,0,-0.20231007,0.20590153,-9.921572,4000,0,0,0,1
3908000,-0.00079894694,-0.008255801,0.0010652631,4000,0,-0.20709848,0.19033922,-9.889252,4000,0,0,0,1
3912000,-0.0013315789,-0.0071905362,0.00026631425,4000,0,-0.20350718,0.21188705,-9.888055,4000,0,0,0,1
3916000,-0.0015978978,-0.004527375,0.0005326304,4000,0,-0.21068975,0.23942037,-9.916785,4000,0,0,0,1
3920000,-0.0013315813,-0.002663161,0.00079894776,4000,0,-0.21787238,0.21667546,-9.929954,4000,0,0,0,1
3924000,-0.0010652641,-0.0021305296,-3.7184752e-11,4000,0,-0.19393034,0.1747769,-9.91918,4000,0,0,0,1
3928000,-0.00053263194,-0.0034621097,-0.0005326315,4000,0,-0.19752167,0.1735798,-9.91918,4000,0,0,0,1
3932000,-2.3641353e-11,-0.0053263223,-0.0007989475,4000,0,-0.22266078,0.20590155,-9.915586,4000,0,0,0,1
3940000,-0.0021305296,-0.0045273746,-0.00053263566,4000,0,-0.22026658,0.20829575,-9.90601,4000,0,0,0,1
3948000,-0.0015978952,-0.005060008,-0.002130526,4000,0,-0.20709848,0.20350733,-9.920377,4000,0,0,0,1
3952000,-0.0007989482,-0.0047936905,-0.0021305282,4000,0,-0.22744916,0.21428125,-9.941923,4000,0,0,0,1
3956000,-0.0015978984,-0.005060005,-0.001331582,4000,0,-0.21428105,0.19393054,-9.969456,4000,0,0,0,1
3964000,-0.0010652664,-0.0034621092,0.0005326319,4000,0,-0.20111299,0.17357981,-9.917982,4000,0,0,0,1
3968000,-0.0031957938,-0.0050600064,0.0007989465,4000,0,-0.21188685,0.1915363,-9.895235,4000,0,0,0,1
3972000,-0.0034621055,-0.0047936933,-0.0018642138,4000,0,-0.20829557,0.21068995,-9.902418,4000,0,0,0,1
3976000,-0.0013315813,-0.005858957,-0.0018642085,4000,0,-0.19752167,0.20949285,-9.920377,4000,0,0,0,1
3980000,-0.00053263694,-0.008255802,-0.0002663137,4000,0,-0.20350718,0.19991605,-9.916786,4000,0,0,0,1
3984000,-0.0031957992,-0.008788433,0.0015978896,4000,0,-0.21308395,0.1915363,-9.897633,4000,0,0,0,1
3988000,-0.004527378,-0.006657903,0.0021305229,4000,0,-0.21428105,0.17956533,-9.900026,4000,0,0,0,1
3992000,-0.0023968401,-0.0047936933,-0.0007989466,4000,0,-0.23223759,0.17836823,-9.927559,4000,0,0,0,1
3996000,1.8440313e-09,-0.0058589573,-0.0021305243,4000,0,-0.23343469,0.18674792,-9.929954,4000,0,0,0,1
4000000,0.001065264,-0.008255802,-0.0026631597,4000,0,-0.20111297,0.18435374,-9.9108,4000,0,0,0,1
4004000,-0.0013315785,-0.009054747,-0.003728433,4000,0,-0.20231007,0.16998853,-9.908405,4000,0,0,0,1
4008000,-0.004527374,-0.0050600017,-0.0023968567,4000,0,-0.22385788,0.16879141,-9.92277,4000,0,0,0,1
4012000,-0.004261058,-0.0015978954,-0.0013315853,4000,0,-0.2346318,0.18195954,-9.928757,4000,0,0,0,1
4016000,-0.00079894933,-0.0029294784,-0.0007989448,4000,0,-0.2442086,0.18914212,-9.927559,4000,0,0,0,1
4020000,0.0018642108,-0.0050600064,0.00079895154,4000,0,-0.22146368,0.18195954,-9.911995,4000,0,0,0,1
4024000,5.673944e-10,-0.0071905362,0.00079894386,4000,0,-0.18555066,0.17836823,-9.894039,4000,0,0,0,1
4028000,-0.0029294752,-0.0071905367,-0.0002663233,4000,0,-0.18435356,0.19033922,-9.909603,4000,0,0,0,1
4032000,-0.0026631607,-0.0050600064,-0.0005326338,4000,0,-0.19273323,0.20231025,-9.925163,4000,0,0,0,1
4036000,-0.00053263194,-0.0053263227,-0.0007989448,4000,0,-0.17956513,0.20470443,-9.928757,4000,0,0,0,1
4040000,-0.00053263485,-0.005858955,0.00053263234,4000,0,-0.16998835,0.20829575,-9.931149,4000,0,0,0,1
4044000,-0.0023968504,-0.004527375,0.0029294735,4000,0,-0.19632453,0.20949285,-9.920377,4000,0,0,0,1
4048000,-0.002663161,-0.0039947433,0.002396844,4000,0,-0.22146368,0.20111315,-9.920377,4000,0,0,0,1
4052000,-0.0015978937,-0.004527376,0.00026631795,4000,0,-0.21428105,0.19033922,-9.93953,4000,0,0,0,1
4056000,-0.0010652628,-0.0053263227,-0.00079894735,4000,0,-0.22984335,0.17597403,-9.961077,4000,0,0,0,1
4060000,-0.0007989495,-0.007456852,-0.0005326311,4000,0,-0.25378537,0.17717113,-9.96347,4000,0,0,0,1
4064000,-1.6076174e-09,-0.00905475,2.2533908e-09,4000,0,-0.23104046,0.18914212,-9.950302,4000,0,0,0,1
4068000,0.0005326315,-0.008788434,0.00026631763,4000,0,-0.18315646,0.19512762,-9.9515,4000,0,0,0,1
4076000,-0.001597902,-0.003195795,0.0034621065,4000,0,-0.19033906,0.20111315,-9.93594,4000,0,0,0,1
4080000,-0.0026631583,-0.004261061,0.0015978961,4000,0,-0.21428105,0.18435374,-9.941923,4000,0,0,0,1
4084000,-0.002396842,-0.0055926405,1.4627242e-09,4000,0,-0.21188685,0.17597403,-9.949107,4000,0,0,0,1
4088000,-0.0010652652,-0.00479369,0.0002663179,4000,0,-0.19991587,0.17597403,-9.9515,4000,0,0,0,1
4092000,-0.00026631623,-0.0042610588,0.00026631716,4000,0,-0.19871876,0.17597403,-9.949107,4000,0,0,0,1
4096000,-0.00079894625,-0.0037284263,-0.0013315815,4000,0,-0.20829557,0.17836823,-9.94312,4000,0,0,0,1
4100000,-1.6549001e-10,-0.00559264,-0.0018642116,4000,0,-0.20829557,0.19393052,-9.928757,4000,0,0,0,1
4104000,0.0007989435,-0.0071905362,0.00026631754,4000,0,-0.20949265,0.20949285,-9.91918,4000,0,0,0,1
4108000,0.00053262967,-0.006125272,0.0013315803,4000,0,-0.21906948,0.22146386,-9.908405,4000,0,0,0,1
4112000,-1.0875056e-09,-0.006125272,0.0018642118,4000,0,-0.22146368,0.23822328,-9.907208,4000,0,0,0,1
4116000,-0.00026631483,-0.008255801,0.0018642123,4000,0,-0.22625208,0.22984356,-9.933542,4000,0,0,0,1
4120000,0.00053263607,-0.0085221175,0.0005326344,4000,0,-0.2418144,0.19871895,-9.950302,4000,0,0,0,1
4124000,0.0021305266,-0.006657903,0.0013315853,4000,0,-0.22505498,0.18435374,-9.9383335,4000,0,0,0,1
4128000,0.0029294777,-0.0066579026,0.0013315823,4000,0,-0.20350717,0.17836823,-9.927559,4000,0,0,0,1
4132000,0.0010652667,-0.0061252713,0.00026631245,4000,0,-0.21428105,0.16879141,-9.925163,4000,0,0,0,1
4136000,-0.00053263485,-0.0026631616,0.0013315787,4000,0,-0.22744916,0.18555082,-9.909603,4000,0,0,0,1
4140000,-0.0013315801,-0.0015978975,-9.2626284e-10,4000,0,-0.22744916,0.21068995,-9.917982,4000,0,0,0,1
4144000,-0.0018642118,-0.004793691,-0.0023968439,4000,0,-0.22146368,0.21308415,-9.940725,4000,0,0,0,1
4152000,-0.0023968501,-0.007723166,-0.00026631702,4000,0,-0.22625208,0.1915363,-9.903616,4000,0,0,0,1
4160000,-3.4989318e-09,-0.006924218,0.0037284284,4000,0,-0.21308395,0.19632474,-9.931149,4000,0,0,0,1
4164000,-0.0018642086,-0.0050600083,0.00079894403,4000,0,-0.21428105,0.20111315,-9.957487,4000,0,0,0,1
4168000,-0.0018642104,-0.004527376,-0.00079894887,4000,0,-0.2262521,0.20111315,-9.953894,4000,0,0,0,1
4172000,-0.00026631763,-0.0055926396,2.975776e-09,4000,0,-0.22026658,0.18555082,-9.93474,4000,0,0,0,1
4176000,0.00026631565,-0.0055926396,0.00026631705,4000,0,-0.21547818,0.19273342,-9.926362,4000,0,0,0,1
4180000,0.00026631865,-0.0055926396,-0.0010652648,4000,0,-0.22146368,0.21188705,-9.931149,4000,0,0,0,1
4184000,-0.0018642123,-0.0063915867,-0.001597901,4000,0,-0.21428105,0.20470445,-9.937136,4000,0,0,0,1
4188000,-0.003195797,-0.0061252695,-3.1093679e-09,4000,0,-0.19752163,0.20590155,-9.932346,4000,0,0,0,1
4192000,-0.0021305305,-0.006125271,0.0005326344,4000,0,-0.20709848,0.22026676,-9.932346,4000,0,0,0,1
4196000,-0.001331579,-0.006391588,-0.00026631443,4000,0,-0.2358289,0.21068995,-9.9383335,4000,0,0,0,1
4200000,-0.0005326328,-0.0063915877,1.5906285e-09,4000,0,-0.23104046,0.18195954,-9.921572,4000,0,0,0,1
4204000,-0.000532634,-0.0055926396,0.00079894817,4000,0,-0.21308395,0.16520013,-9.89045,4000,0,0,0,1
4208000,-0.0021305294,-0.003994743,0.00053262897,4000,0,-0.22266078,0.17717113,-9.891646,4000,0,0,0,1
4212000,-0.00346211,-0.0031957938,0.0007989461,4000,0,-0.23343469,0.19991605,-9.916785,4000,0,0,0,1
4216000,-0.002396847,-0.00399474,0.0023968474,4000,0,-0.22864626,0.19632474,-9.925163,4000,0,0,0,1
4220000,-0.001331579,-0.00479369,0.0015978989,4000,0,-0.22744916,0.17238271,-9.92277,4000,0,0,0,1
4224000,-0.0018642091,-0.0050600073,-0.00079894933,4000,0,-0.22146368,0.17717113,-9.911995,4000,0,0,0,1
4228000,-4.728282e-11,-0.0069242194,-0.0010652605,4000,0,-0.20709848,0.21547836,-9.901223,4000,0,0,0,1
4232000,0.0026631604,-0.006657904,-0.00053262623,4000,0,-0.21308395,0.22625224,-9.915586,4000,0,0,0,1
4240000,-0.0021305287,-0.002929476,-0.002130532,4000,0,-0.2262521,0.17836823,-9.93953,4000,0,0,0,1
4244000,-0.0029294807,-0.007456851,-0.0018642107,4000,0,-0.21667528,0.1735798,-9.93953,4000,0,0,0,1
4248000,-0.0018642166,-0.0069242185,-0.0002663141,4000,0,-0.22625208,0.18076244,-9.953894,4000,0,0,0,1
4252000,-0.001065264,-0.006125272,-0.000532631,4000,0,-0.22984336,0.1915363,-9.94312,4000,0,0,0,1
4256000,0.00026631856,-0.007989486,-0.0018642097,4000,0,-0.23104046,0.19512764,-9.911995,4000,0,0,0,1
4260000,0.0002663156,-0.007723168,-0.001597897,4000,0,-0.23223759,0.1915363,-9.916786,4000,0,0,0,1
4268000,-0.003994738,-0.0039947405,-0.0039947475,4000,0,-0.21906948,0.21667546,-9.923966,4000,0,0,0,1
4276000,-0.0050600064,-0.0037284258,-0.001864212,4000,0,-0.19991587,0.17836823,-9.9515,4000,0,0,0,1
4280000,-0.0039947424,-0.0037284268,-0.0018642118,4000,0,-0.21547818,0.17717113,-9.91918,4000,0,0,0,1
4284000,-0.003728428,-0.0045273737,-0.0007989471,4000,0,-0.22864626,0.1747769,-9.916786,4000,0,0,0,1
4292000,-0.00213053,-0.0026631607,-0.000266315,4000,0,-0.19033906,0.18076244,-9.952696,4000,0,0,0,1
4300000,-0.00053263037,-0.007989485,0.0010652626,4000,0,-0.23104046,0.18914212,-9.933543,4000,0,0,0,1
4304000,-0.0034621055,-0.006391589,-0.00079895667,4000,0,-0.21428105,0.22864644,-9.94791,4000,0,0,0,1
4308000,-0.0042610536,-0.0042610606,-0.0026631656,4000,0,-0.19871877,0.24420878,-9.96347,4000,0,0,0,1
4312000,-0.0031957917,-0.0034621116,-0.0034621092,4000,0,-0.19871877,0.22984356,-9.9467125,4000,0,0,0,1
4316000,-0.0021305324,-0.0037284244,-0.000798947,4000,0,-0.20590138,0.22026676,-9.93594,4000,0,0,0,1
4320000,-0.0002663198,-0.0037284244,0.0021305312,4000,0,-0.22505498,0.21547836,-9.93474,4000,0,0,0,1
4328000,-0.0002663151,-0.0053263227,0.0015978948,4000,0,-0.20111297,0.20590155,-9.909603,4000,0,0,0,1
4332000,-0.0015978965,-0.0042610597,0.0010652619,4000,0,-0.20350718,0.19632472,-9.914389,4000,0,0,0,1
4340000,0.00026631606,-0.0085221175,0.00079895253,4000,0,-0.19393033,0.18435374,-9.923965,4000,0,0,0,1
4344000,0.00053263095,-0.009321064,0.0013315812,4000,0,-0.19393033,0.18435374,-9.927559,4000,0,0,0,1
4352000,-0.004527372,-0.00426106,-0.00053264183,4000,0,-0.23223759,0.21068995,-9.941923,4000,0,0,0,1
4356000,-0.0023968439,-0.0018642142,-0.0010652653,4000,0,-0.25139117,0.21188705,-9.953894,4000,0,0,0,1
4360000,0.00026631515,-0.0042610597,-0.00079894497,4000,0,-0.237026,0.20829575,-9.92277,4000,0,0,0,1
4364000,0.0007989457,-0.005858956,0.000798949,4000,0,-0.2226608,0.19752182,-9.892841,4000,0,0,0,1
4368000,0.0007989453,-0.003994743,0.0021305298,4000,0,-0.2322376,0.19393052,-9.8988285,4000,0,0,0,1
4372000,-0.0010652643,-0.002929479,0.0013315786,4000,0,-0.2382231,0.20829575,-9.916785,4000,0,0,0,1
4376000,-0.0021305282,-0.0050600064,0.0010652643,4000,0,-0.21188685,0.22146386,-9.9383335,4000,0,0,0,1
4380000,-0.003195794,-0.008255801,0.0018642134,4000,0,-0.17956513,0.21667546,-9.944317,4000,0,0,0,1
4384000,-0.0050600055,-0.007989487,0.0015978912,4000,0,-0.19033906,0.19752185,-9.92277,4000,0,0,0,1
4388000,-0.002929473,-0.0042610615,-0.00079894916,4000,0,-0.20949265,0.18315664,-9.897632,4000,0,0,0,1
4392000,-0.00026631425,-0.0029294796,-0.0018642104,4000,0,-0.20231009,0.17956533,-9.901223,4000,0,0,0,1
4396000,-3.8535535e-09,-0.004527375,0.001065265,4000,0,-0.20231009,0.18076244,-9.925163,4000,0,0,0,1
4400000,-1.7258245e-09,-0.0053263223,0.002396845,4000,0,-0.20350718,0.18435374,-9.941923,4000,0,0,0,1
4404000,-0.0015978948,-0.0053263237,0.0013315778,4000,0,-0.18914196,0.19393052,-9.940725,4000,0,0,0,1
4412000,-0.0010652643,-0.0045273746,0.00079895154,4000,0,-0.20470428,0.20350735,-9.9108,4000,0,0,0,1
4416000,0.001065266,-0.005592639,3.4958876e-09,4000,0,-0.20111297,0.19033922,-9.94312,4000,0,0,0,1
4420000,0.0005326328,-0.0063915877,-0.00026631757,4000,0,-0.19393033,0.18914212,-9.9515,4000,0,0,0,1
4428000,4.7282867e-10,-0.0055926396,0.00026631608,4000,0,-0.21428105,0.16400301,-9.921572,4000,0,0,0,1
4432000,3.4280074e-09,-0.005060006,-0.001597897,4000,0,-0.2226608,0.1628059,-9.923966,4000,0,0,0,1
4436000,0.00026631792,-0.005060006,-0.0026631607,4000,0,-0.21787238,0.17956533,-9.932346,4000,0,0,0,1
4440000,-0.0005326346,-0.005592639,-0.0015978984,4000,0,-0.20829557,0.19273342,-9.93474,4000,0,0,0,1
4444000,-0.0023968467,-0.0034621088,-0.00026632007,4000,0,-0.20231007,0.19273342,-9.933543,4000,0,0,0,1
4448000,-0.0018642123,-0.0029294782,-0.00079894834,4000,0,-0.20231007,0.20111315,-9.93474,4000,0,0,0,1
4452000,-0.00053263264,-0.0050600064,-0.001065262,4000,0,-0.19393033,0.22505514,-9.921572,4000,0,0,0,1
4456000,-0.0021305317,-0.006657902,0.00026631364,4000,0,-0.20949265,0.23104066,-9.90601,4000,0,0,0,1
4460000,-0.0031957938,-0.007723167,0.00026631437,4000,0,-0.24540567,0.21188705,-9.925163,4000,0,0,0,1
4464000,-0.0013315788,-0.0069242194,-0.00053262844,4000,0,-0.22984335,0.19632474,-9.943119,4000,0,0,0,1
4468000,0.00053263194,-0.0058589554,-0.00026631245,4000,0,-0.19871877,0.20111316,-9.935939,4000,0,0,0,1
4472000,0.0010652641,-0.006657903,7.8217194e-10,4000,0,-0.20350718,0.20470445,-9.937136,4000,0,0,0,1
4476000,0.0005326293,-0.0071905362,0.0013315793,4000,0,-0.21547818,0.18794502,-9.941923,4000,0,0,0,1
4480000,0.0013315785,-0.0063915877,0.0021305312,4000,0,-0.20949265,0.17597403,-9.928757,4000,0,0,0,1
4484000,0.0026631688,-0.006125269,-0.0013315779,4000,0,-0.20590138,0.17956533,-9.923965,4000,0,0,0,1
4488000,0.000798953,-0.0055926368,-0.0034621132,4000,0,-0.225055,0.18315664,-9.933542,4000,0,0,0,1
4492000,-0.001065268,-0.0050600045,-0.0013315842,4000,0,-0.2238579,0.19393052,-9.931149,4000,0,0,0,1
4496000,-0.0013315823,-0.005858955,-0.00053263264,4000,0,-0.20829557,0.19991605,-9.929954,4000,0,0,0,1
4500000,-0.0010652648,-0.006657903,-0.00053263153,4000,0,-0.21906948,0.20709865,-9.94791,4000,0,0,0,1
4504000,-2.5532747e-09,-0.007723168,0.00053263496,4000,0,-0.2346318,0.21428125,-9.959879,4000,0,0,0,1
4508000,0.00026631536,-0.007190536,0.00079894904,4000,0,-0.2442086,0.19512764,-9.958684,4000,0,0,0,1
4512000,-0.0002663167,-0.005060006,0.0007989473,4000,0,-0.25258827,0.17238271,-9.953894,4000,0,0,0,1
4516000,-0.0007989496,-0.0042610588,0.0013315796,4000,0,-0.24779987,0.17597403,-9.937136,4000,0,0,0,1
4520000,0.0005326332,-0.0047936896,0.0007989504,4000,0,-0.21906948,0.19991605,-9.920377,4000,0,0,0,1
4524000,0.0021305312,-0.005592639,-0.0005326301,4000,0,-0.19871877,0.19752185,-9.913193,4000,0,0,0,1
4528000,0.0007989488,-0.006391587,-0.00079895166,4000,0,-0.20829557,0.17956533,-9.920377,4000,0,0,0,1
4532000,0.000532629,-0.007989486,0.0005326312,4000,0,-0.21906948,0.17717113,-9.928757,4000,0,0,0,1
4540000,-0.00026631463,-0.0053263227,0.00053262914,4000,0,-0.21667528,0.17956533,-9.928757,4000,0,0,0,1
4544000,-0.0015978931,-0.00559264,-0.0015978995,4000,0,-0.22026658,0.18435374,-9.928757,4000,0,0,0,1
4548000,-0.0026631607,-0.006924219,-0.002396847,4000,0,-0.22146368,0.18794502,-9.916786,4000,0,0,0,1
4552000,-0.0021305312,-0.0074568517,-0.0015978952,4000,0,-0.19752167,0.18914212,-9.931149,4000,0,0,0,1
4556000,0.0013315789,-0.0058589564,-0.000532625,4000,0,-0.17597383,0.20350733,-9.952697,4000,0,0,0,1
4560000,0.0015978955,-0.003994743,0.00026631745,4000,0,-0.19393033,0.20949285,-9.93953,4000,0,0,0,1
4564000,-0.00079894764,-0.004527375,-0.00026631972,4000,0,-0.21667528,0.18315664,-9.933542,4000,0,0,0,1
4568000,-0.0010652633,-0.0039947424,-0.0010652654,4000,0,-0.21787238,0.16520013,-9.93474,4000,0,0,0,1
4572000,-0.0021305291,-0.0026631607,-0.0007989503,4000,0,-0.21188685,0.17477691,-9.925163,4000,0,0,0,1
4580000,-0.005060006,-0.005858956,-0.001065262,4000,0,-0.16400284,0.21547836,-9.929954,4000,0,0,0,1
4584000,-0.0034621088,-0.0055926405,-0.0015978945,4000,0,-0.17238253,0.19871895,-9.941923,4000,0,0,0,1
4588000,-0.0029294756,-0.0034621104,-0.0021305308,4000,0,-0.20111297,0.18076244,-9.9467125,4000,0,0,0,1
4592000,-0.0034621102,-0.003462109,-0.0015978976,4000,0,-0.21906948,0.17597403,-9.935939,4000,0,0,0,1
4596000,-0.003195796,-0.005060005,-0.0005326303,4000,0,-0.21188685,0.18914212,-9.923965,4000,0,0,0,1
4600000,-0.0021305308,-0.0047936896,0.00026631757,4000,0,-0.19871877,0.20829575,-9.941923,4000,0,0,0,1
4608000,-0.0018642143,-0.006391587,0.0023968448,4000,0,-0.2262521,0.18195954,-9.91439,4000,0,0,0,1
4612000,-0.0013315789,-0.007190536,0.0018642143,4000,0,-0.22385788,0.17357981,-9.885659,4000,0,0,0,1
4616000,-0.00079894724,-0.007190536,0.0013315817,4000,0,-0.21188685,0.17717113,-9.894039,4000,0,0,0,1
4620000,-0.0023968443,-0.0071905367,0.0010652607,4000,0,-0.20350717,0.18076244,-9.933542,4000,0,0,0,1
4628000,0.0018642116,-0.006391587,0.0007989547,4000,0,-0.20709848,0.18435374,-9.940725,4000,0,0,0,1
4632000,-3.9008348e-09,-0.0045273765,0.0023968422,4000,0,-0.21428105,0.15801749,-9.9467125,4000,0,0,0,1
4636000,-0.0026631607,-0.0037284282,0.0015978928,4000,0,-0.20829557,0.16520011,-9.957487,4000,0,0,0,1
4640000,-0.0026631572,-0.0050600087,-0.0013315798,4000,0,-0.20470428,0.20231025,-9.931149,4000,0,0,0,1
4644000,-0.002663162,-0.007190536,-0.0013315789,4000,0,-0.21787238,0.21068995,-9.904813,4000,0,0,0,1
4648000,-0.00372843,-0.0066579003,0.00053262914,4000,0,-0.225055,0.20709865,-9.9108,4000,0,0,0,1
4652000,-0.0031957943,-0.004527375,0.0005326307,4000,0,-0.22984336,0.19991605,-9.937136,4000,0,0,0,1
4656000,-0.0002663144,-0.0029294787,-0.0007989457,4000,0,-0.23104046,0.1735798,-9.957487,4000,0,0,0,1
4660000,0.00079894986,-0.0026631616,-0.0021305284,4000,0,-0.23104046,0.17118561,-9.956289,4000,0,0,0,1
4664000,-0.00026631754,-0.004261058,-0.0018642144,4000,0,-0.23463179,0.1915363,-9.935939,4000,0,0,0,1
4668000,-2.009521e-09,-0.005060006,-0.00079894805,4000,0,-0.23463179,0.20111315,-9.913193,4000,0,0,0,1
4672000,-0.0007989489,-0.005060006,-0.00053263374,4000,0,-0.2382231,0.19632472,-9.91918,4000,0,0,0,1
4676000,-0.0029294782,-0.0047936896,-0.00026631993,4000,0,-0.22984336,0.18914212,-9.929954,4000,0,0,0,1
4680000,-0.0023968474,-0.0045273737,0.0010652652,4000,0,-0.21308395,0.20829575,-9.932346,4000,0,0,0,1
4684000,-0.0010652657,-0.005592638,0.002130532,4000,0,-0.22266078,0.21906966,-9.949107,4000,0,0,0,1
4688000,-0.00079894654,-0.0047936905,0.00079894863,4000,0,-0.23104046,0.19393054,-9.935939,4000,0,0,0,1
4692000,0.0002663169,-0.0029294777,1.1545839e-09,4000,0,-0.21428105,0.17597403,-9.908405,4000,0,0,0,1
4696000,0.00026631536,-0.0042610588,0.0007989482,4000,0,-0.20949265,0.17238271,-9.913193,4000,0,0,0,1
4700000,-0.001331579,-0.0050600064,-0.0002663186,4000,0,-0.21068975,0.1616088,-9.927559,4000,0,0,0,1
4708000,0.00026631536,-0.0029294782,-0.000798947,4000,0,-0.21547818,0.15801749,-9.93474,4000,0,0,0,1
4712000,0.00053263054,-0.0053263223,0.00026631614,4000,0,-0.22146368,0.1628059,-9.93474,4000,0,0,0,1
4720000,-0.0026631625,-0.006391588,0.0013315763,4000,0,-0.21428105,0.20231026,-9.945516,4000,0,0,0,1
4724000,-0.0031957952,-0.0069242185,0.0021305284,4000,0,-0.21667528,0.21428125,-9.94791,4000,0,0,0,1
4728000,-0.0013315794,-0.007989484,0.0018642184,4000,0,-0.2238579,0.20111315,-9.920377,4000,0,0,0,1
4732000,-0.00079894817,-0.007190536,0.0015978978,4000,0,-0.21906948,0.17717113,-9.91918,4000,0,0,0,1
4740000,-0.00026631972,-0.00399474,0.0039947433,4000,0,-0.21428105,0.1448494,-9.929954,4000,0,0,0,1
4744000,0.00026631722,-0.0031957934,0.0023968457,4000,0,-0.21906948,0.16759431,-9.911995,4000,0,0,0,1
4748000,-0.0023968418,-0.005326324,0.0010652613,4000,0,-0.20350717,0.18315664,-9.908405,4000,0,0,0,1
4756000,-0.0007989523,-0.0071905334,0.0037284293,4000,0,-0.21906948,0.1616088,-9.921572,4000,0,0,0,1
4760000,-0.00053262943,-0.007456852,0.0026631616,4000,0,-0.21188685,0.19033922,-9.897633,4000,0,0,0,1
4768000,-0.0021305291,-0.0050600064,0.00053262996,4000,0,-0.17717093,0.21787256,-9.950302,4000,0,0,0,1
4772000,-0.0018642136,-0.0045273746,0.00079894846,4000,0,-0.17118545,0.22864646,-9.973047,4000,0,0,0,1
4776000,-0.0013315848,-0.004527373,0.0034621104,4000,0,-0.19991587,0.20231025,-9.959879,4000,0,0,0,1
4780000,-0.0005326312,-0.0071905344,0.004793693,4000,0,-0.22984336,0.16759431,-9.9383335,4000,0,0,0,1
4784000,-0.0007989374,-0.008522118,0.0010652641,4000,0,-0.22266078,0.16879141,-9.93474,4000,0,0,0,1
4788000,-0.0015978921,-0.005060007,-0.0010652678,4000,0,-0.19991587,0.1735798,-9.943119,4000,0,0,0,1
4792000,-0.0018642148,-0.0029294768,0.0005326306,4000,0,-0.20470427,0.17836823,-9.955092,4000,0,0,0,1
4800000,-0.0013315782,-0.00559264,1.486366e-09,4000,0,-0.22026658,0.1628059,-9.909603,4000,0,0,0,1
4804000,-0.0010652642,-0.0061252713,-0.0002663155,4000,0,-0.21547818,0.14604652,-9.909603,4000,0,0,0,1
4808000,-0.0013315829,-0.006125271,0.0007989477,4000,0,-0.19991587,0.1496378,-9.91918,4000,0,0,0,1
4816000,-0.0023968492,-0.0045273723,0.0042610588,4000,0,-0.2418144,0.18794502,-9.952697,4000,0,0,0,1
4820000,3.5461997e-10,-0.005060002,0.0045273793,4000,0,-0.2442086,0.18555082,-9.952697,4000,0,0,0,1
4824000,2.955179e-09,-0.0061252713,0.003728426,4000,0,-0.2442086,0.19632474,-9.945517,4000,0,0,0,1
4828000,0.0002663191,-0.0085221175,0.0037284263,4000,0,-0.24899697,0.18914212,-9.955093,4000,0,0,0,1
4832000,0.0007989566,-0.009587379,0.0013315819,4000,0,-0.23343469,0.16400301,-9.968261,4000,0,0,0,1
4836000,-0.0013315708,-0.0085221175,-0.0018642194,4000,0,-0.21068975,0.18195954,-9.9467125,4000,0,0,0,1
4840000,-0.0015978959,-0.008255801,-0.0021305305,4000,0,-0.20949265,0.19632472,-9.917982,4000,0,0,0,1
4844000,-0.0010652654,-0.007190536,-0.001597896,4000,0,-0.22744915,0.18315664,-9.913193,4000,0,0,0,1
4848000,-0.0023968508,-0.0061252695,0.0010652608,4000,0,-0.22625208,0.17597403,-9.891646,4000,0,0,0,1
4852000,-0.0034621153,-0.0061252695,0.0037284237,4000,0,-0.21787238,0.18195954,-9.891646,4000,0,0,0,1
4856000,-0.0034621067,-0.0047936933,0.001331579,4000,0,-0.22266078,0.20709865,-9.911995,4000,0,0,0,1
4860000,-0.002929474,-0.004793693,-0.0007989476,4000,0,-0.22744916,0.20829575,-9.917982,4000,0,0,0,1
4868000,-0.00292948,-0.0039947415,0.0018642107,4000,0,-0.21667528,0.16759431,-9.967064,4000,0,0,0,1
4872000,-0.0026631593,-0.0029294796,-0.00026631687,4000,0,-0.20350717,0.1616088,-9.941923,4000,0,0,0,1
4876000,-0.0005326285,-0.0047936942,-0.004261055,4000,0,-0.20111297,0.16639721,-9.94312,4000,0,0,0,1
4884000,-0.00079895277,-0.004261057,-0.0021305312,4000,0,-0.19512744,0.18674792,-9.9108,4000,0,0,0,1
4892000,-0.0010652652,-0.005060006,0.0010652646,4000,0,-0.19991587,0.19033922,-9.9383335,4000,0,0,0,1
4896000,-0.0015978977,-0.002929478,0.0010652628,4000,0,-0.20590137,0.16759431,-9.944317,4000,0,0,0,1
4900000,-0.0010652643,-0.002396845,0.0005326325,4000,0,-0.22266078,0.14724362,-9.91918,4000,0,0,0,1
4908000,-0.0039947433,-0.0047936896,0.0007989461,4000,0,-0.2442086,0.16879141,-9.917982,4000,0,0,0,1
4912000,-0.0031957957,-0.0061252695,0.002130532,4000,0,-0.23223759,0.18076244,-9.920377,4000,0,0,0,1
4916000,-0.000798947,-0.0074568507,0.0018642192,4000,0,-0.20231007,0.18674792,-9.914389,4000,0,0,0,1
4920000,-2.1513702e-09,-0.0050600055,0.0021305308,4000,0,-0.19393033,0.17956533,-9.925163,4000,0,0,0,1
4924000,-0.0010652692,-0.0023968457,0.0037284242,4000,0,-0.21547818,0.1628059,-9.927559,4000,0,0,0,1
4928000,-0.0023968425,-0.0039947433,0.0031957934,4000,0,-0.2382231,0.1604117,-9.91918,4000,0,0,0,1
4932000,-0.0015978941,-0.0053263223,0.0021305312,4000,0,-0.2358289,0.17477691,-9.92277,4000,0,0,0,1
4936000,-0.0005326335,-0.002929477,0.0018642136,4000,0,-0.21308395,0.18794502,-9.945517,4000,0,0,0,1
4940000,-0.0005326324,-0.001597897,0.0010652645,4000,0,-0.21308395,0.19632474,-9.96467,4000,0,0,0,1
4944000,-0.00026631576,-0.001864213,0.00053263246,4000,0,-0.2382231,0.20709865,-9.944317,4000,0,0,0,1
4948000,-0.00026631713,-0.0010652646,0.0018642129,4000,0,-0.25139117,0.22026676,-9.917982,4000,0,0,0,1
4952000,-0.00053263205,-0.0021305294,0.0029294777,4000,0,-0.22984336,0.21428125,-9.921572,4000,0,0,0,1
4956000,-0.0010652589,-0.0053263237,-0.0007989484,4000,0,-0.20590138,0.19871895,-9.915586,4000,0,0,0,1
4960000,-0.0018642066,-0.0063915886,-0.004527376,4000,0,-0.21547818,0.19752185,-9.8988285,4000,0,0,0,1
4964000,-0.0010652696,-0.006657903,-0.0023968432,4000,0,-0.237026,0.20231025,-9.920377,4000,0,0,0,1
4968000,0.0002663096,-0.007456852,0.00026631926,4000,0,-0.2346318,0.19752182,-9.940725,4000,0,0,0,1
4972000,0.0005326349,-0.0061252713,-0.0007989477,4000,0,-0.20470428,0.19991605,-9.925163,4000,0,0,0,1
4976000,-0.0015978938,-0.004261058,-0.002130533,4000,0,-0.17597383,0.20709865,-9.921572,4000,0,0,0,1
4980000,-0.0029294782,-0.002929476,-0.0010652671,4000,0,-0.17717093,0.18794502,-9.916786,4000,0,0,0,1
4984000,0.0007989479,-0.0029294787,-0.0005326287,4000,0,-0.19273323,0.16879141,-9.908405,4000,0,0,0,1
4988000,0.002929478,-0.004261059,-0.001065263,4000,0,-0.20709848,0.16998851,-9.941923,4000,0,0,0,1
4992000,0.0029294763,-0.004793691,-0.00026631673,4000,0,-0.22385788,0.18315664,-9.96467,4000,0,0,0,1
4996000,0.003994741,-0.0061252723,0.00053263264,4000,0,-0.25258827,0.19393054,-9.941923,4000,0,0,0,1
5000000,0.0026631625,-0.007723166,-4.981286e-09,4000,0,-0.272939,0.17477691,-9.93474,4000,0,0,0,1
5004000,0.0002663196,-0.007989484,-0.0013315871,4000,0,-0.25977093,0.17836823,-9.9467125,4000,0,0,0,1
5012000,0.0015979005,-0.008255802,-0.0045273723,4000,0,-0.23223759,0.22744936,-9.958684,4000,0,0,0,1
5020000,-0.0007989511,-0.0023968443,0.00053263106,4000,0,-0.22146368,0.18914212,-9.97185,4000,0,0,0,1
5024000,-0.0013315801,-0.002929478,-0.00026631646,4000,0,-0.21906948,0.1628059,-9.9515,4000,0,0,0,1
5032000,0.0002663145,-0.004527375,3.1834997e-09,4000,0,-0.18794486,0.20231026,-9.907208,4000,0,0,0,1
5036000,0.0021305282,-0.0021305294,0.0007989514,4000,0,-0.19632453,0.20470445,-9.913193,4000,0,0,0,1
5040000,0.002929478,-0.0018642126,0.0005326329,4000,0,-0.20709848,0.20231025,-9.92277,4000,0,0,0,1
5044000,0.0013315825,-0.004527373,-0.0015979005,4000,0,-0.19871877,0.19033922,-9.92277,4000,0,0,0,1
5048000,-0.00026631565,-0.005858954,-0.0023968483,4000,0,-0.20709848,0.17477691,-9.91439,4000,0,0,0,1
5052000,-0.0002663207,-0.0050600055,0.00026631603,4000,0,-0.22026658,0.17956533,-9.92277,4000,0,0,0,1
5060000,-0.00026631152,-0.005858956,-0.0002663157,4000,0,-0.20949265,0.1628059,-9.973047,4000,0,0,0,1
5068000,0.002396843,-0.004527377,-0.0013315785,4000,0,-0.22505498,0.17597403,-9.940725,4000,0,0,0,1
5072000,0.0015978941,-0.0055926405,0.000266314,4000,0,-0.20829557,0.17597403,-9.9383335,4000,0,0,0,1
5080000,-0.0026631607,-0.0050600064,0.00053262955,4000,0,-0.20709848,0.1915363,-9.93474,4000,0,0,0,1
5084000,-0.002929477,-0.005858956,0.00026631632,4000,0,-0.23702599,0.19752185,-9.935939,4000,0,0,0,1
5088000,-0.002929479,-0.005858955,0.00079894834,4000,0,-0.23104046,0.20231026,-9.943119,4000,0,0,0,1
5092000,-0.0018642136,-0.005592639,0.0010652662,4000,0,-0.20949265,0.19512764,-9.941923,4000,0,0,0,1
5096000,0.0005326315,-0.004793689,0.0013315846,4000,0,-0.21308395,0.16879141,-9.93953,4000,0,0,0,1
5100000,-0.00026631478,-0.005060006,0.00053263083,4000,0,-0.20709848,0.17238271,-9.928757,4000,0,0,0,1
5104000,-0.001065262,-0.0066579035,-0.0007989498,4000,0,-0.19871877,0.20231025,-9.923965,4000,0,0,0,1
5108000,0.0018642124,-0.006657904,-0.0005326259,4000,0,-0.18435356,0.20350733,-9.9383335,4000,0,0,0,1
5112000,0.001864212,-0.00559264,5.643501e-10,4000,0,-0.17956513,0.19393052,-9.961077,4000,0,0,0,1
5116000,-0.00053263234,-0.0053263223,-4.3957016e-09,4000,0,-0.20111297,0.19273342,-9.959879,4000,0,0,0,1
5120000,0.00026631565,-0.0055926396,0.00026631757,4000,0,-0.20949265,0.20231025,-9.937136,4000,0,0,0,1
5124000,0.0013315812,-0.0063915877,1.8034014e-09,4000,0,-0.19752163,0.22505514,-9.920377,4000,0,0,0,1
5128000,-0.0007989439,-0.0055926386,-0.002130533,4000,0,-0.18914196,0.22026676,-9.91918,4000,0,0,0,1
5132000,-0.0034621076,-0.0037284242,-0.002663167,4000,0,-0.20949265,0.20590153,-9.925163,4000,0,0,0,1
5136000,-0.0042610597,-0.0021305261,-0.00079895137,4000,0,-0.22146368,0.19632472,-9.917982,4000,0,0,0,1
5140000,-0.0039947424,-0.0013315807,-0.00079894945,4000,0,-0.20709848,0.17717113,-9.907209,4000,0,0,0,1
5148000,-0.0005326328,-0.005060008,-0.002663158,4000,0,-0.19752167,0.1915363,-9.923966,4000,0,0,0,1
5156000,-3.262517e-09,-0.0031957938,0.0007989487,4000,0,-0.21188685,0.18674792,-9.944317,4000,0,0,0,1
5160000,0.0007989471,-0.0055926396,0.002663162,4000,0,-0.21068975,0.17717113,-9.932346,4000,0,0,0,1
5164000,0.00026631707,-0.0066579035,0.0026631602,4000,0,-0.20709848,0.16759431,-9.932346,4000,0,0,0,1
5172000,-0.0023968434,-0.0050600073,0.0021305284,4000,0,-0.20829557,0.1628059,-9.931149,4000,0,0,0,1
5176000,-0.0018642076,-0.0063915895,-0.0005326304,4000,0,-0.17477673,0.18195954,-9.943119,4000,0,0,0,1
5180000,-0.001864211,-0.0047936905,-0.0013315817,4000,0,-0.18674776,0.19512762,-9.949107,4000,0,0,0,1
5184000,-0.0029294798,-0.0034621086,0.00026631358,4000,0,-0.20470428,0.18674792,-9.940725,4000,0,0,0,1
5188000,-0.0013315819,-0.0034621088,0.0013315823,4000,0,-0.20111297,0.20111315,-9.925163,4000,0,0,0,1
5192000,0.00026631606,-0.003195793,0.0013315823,4000,0,-0.21667528,0.21068995,-9.911995,4000,0,0,0,1
5200000,2.3877842e-09,-0.0029294775,-0.0037284263,4000,0,-0.20829557,0.19273342,-9.927559,4000,0,0,0,1
5204000,-0.0013315829,-0.0061252695,-0.0055926405,4000,0,-0.21428105,0.17238271,-9.940725,4000,0,0,0,1
5208000,-0.0018642202,-0.0071905334,-0.0029294787,4000,0,-0.21547818,0.152032,-9.925163,4000,0,0,0,1
5212000,-0.0015979046,-0.0047936877,0.0013315799,4000,0,-0.20470427,0.1628059,-9.925163,4000,0,0,0,1
5216000,-0.00079895166,-0.0023968439,0.0026631611,4000,0,-0.21547818,0.18076244,-9.949107,4000,0,0,0,1
5220000,0.0007989497,-0.001597896,0.0002663172,4000,0,-0.21667528,0.18914212,-9.9515,4000,0,0,0,1
5224000,0.0018642143,-0.0034621092,-0.001864213,4000,0,-0.21667528,0.17836823,-9.937136,4000,0,0,0,1
5228000,0.0015978958,-0.005592639,-0.002130531,4000,0,-0.22146368,0.16639723,-9.945517,4000,0,0,0,1
5236000,-0.0010652667,-0.002130529,0.0007989467,4000,0,-0.16998835,0.17717113,-9.9862175,4000,0,0,0,1
5240000,-0.0021305294,-0.0031957938,0.0013315803,4000,0,-0.17717093,0.16759431,-9.989807,4000,0,0,0,1
5244000,-0.0013315795,-0.0029294784,6.10831e-10,4000,0,-0.19512743,0.1616088,-9.968261,4000,0,0,0,1
5248000,-0.00026631536,-0.0026631616,-0.0007989475,4000,0,-0.19871877,0.17717113,-9.932346,4000,0,0,0,1
5252000,-0.00026631553,-0.0039947424,-0.001864213,4000,0,-0.20590138,0.20111315,-9.914389,4000,0,0,0,1
5256000,-0.00026631803,-0.00479369,-0.00079894846,4000,0,-0.22266078,0.18674792,-9.944317,4000,0,0,0,1
5260000,-0.0021305294,-0.0047936896,-0.0007989515,4000,0,-0.22864626,0.16759431,-9.988609,4000,0,0,0,1
5264000,-0.004261056,-0.0045273756,-0.002396849,4000,0,-0.21906948,0.17477691,-9.9945965,4000,0,0,0,1
5268000,-0.0010652653,-0.004793693,-0.0021305238,4000,0,-0.19632454,0.17956533,-9.967064,4000,0,0,0,1
5272000,0.0023968434,-0.0053263246,-0.0013315752,4000,0,-0.19153613,0.17717113,-9.929954,4000,0,0,0,1
5276000,0.00026631512,-0.005592639,-0.0007989525,4000,0,-0.22744915,0.19033922,-9.904813,4000,0,0,0,1
5280000,-0.0023968457,-0.0063915867,-0.0005326375,4000,0,-0.2382231,0.20590155,-9.895236,4000,0,0,0,1
5288000,0.00079894724,-0.0069242194,-0.0002663126,4000,0,-0.20350718,0.18315664,-9.916786,4000,0,0,0,1
5292000,-0.0015978961,-0.0066579026,-0.0005326378,4000,0,-0.21906948,0.18315664,-9.940725,4000,0,0,0,1
5300000,-0.0018642131,-0.0034621097,-0.001065264,4000,0,-0.237026,0.15682039,-9.90601,4000,0,0,0,1
5304000,-2.3641353e-11,-0.0026631616,-0.0007989469,4000,0,-0.20709848,0.16520013,-9.911995,4000,0,0,0,1
5308000,-0.0002663164,-0.003728426,-0.00079894875,4000,0,-0.17118545,0.18435374,-9.94791,4000,0,0,0,1
5316000,-0.0015978962,-0.00346211,0.00026631507,4000,0,-0.20231007,0.18555082,-9.940725,4000,0,0,0,1
5320000,-0.0029294759,-0.003728427,-0.0013315821,4000,0,-0.21068975,0.17717113,-9.932346,4000,0,0,0,1
5324000,-0.0037284275,-0.004793689,-0.00053263234,4000,0,-0.22385788,0.1448494,-9.94312,4000,0,0,0,1
5332000,-0.002396844,-0.0053263227,0.00026631713,4000,0,-0.19871876,0.21188705,-9.957487,4000,0,0,0,1
5340000,0.0010652654,-0.002396845,-0.0015978963,4000,0,-0.21068975,0.20470443,-9.945516,4000,0,0,0,1
5348000,-0.0029294784,-0.006125271,-0.0021305303,4000,0,-0.22864625,0.18435374,-9.96347,4000,0,0,0,1
5352000,-0.0013315794,-0.0042610597,-0.002130528,4000,0,-0.22744915,0.19752185,-9.93953,4000,0,0,0,1
5356000,-0.001597899,-0.005592639,-0.0013315805,4000,0,-0.21547818,0.19632472,-9.93953,4000,0,0,0,1
5360000,-0.0029294805,-0.0050600045,0.00053262943,4000,0,-0.22385788,0.20231025,-9.956289,4000,0,0,0,1
5368000,-0.0015978962,-0.0055926396,0.00026631978,4000,0,-0.21906948,0.18794502,-9.920377,4000,0,0,0,1
5372000,-0.00026631763,-0.006125271,0.0010652671,4000,0,-0.20231007,0.16998851,-9.923965,4000,0,0,0,1
5380000,-0.00026631597,-0.007723168,0.0023968448,4000,0,-0.19393033,0.20949285,-9.913193,4000,0,0,0,1
5384000,-0.0007989454,-0.0071905362,0.0010652631,4000,0,-0.2418144,0.18914212,-9.903616,4000,0,0,0,1
5388000,-0.0026631574,-0.006391589,-0.00079895323,4000,0,-0.237026,0.18555082,-9.895235,4000,0,0,0,1
5392000,-0.0026631572,-0.005060008,-0.0026631623,4000,0,-0.20231009,0.20829575,-9.902418,4000,0,0,0,1
5396000,-0.00079895,-0.005326323,-0.0018642097,4000,0,-0.20111299,0.20949285,-9.926362,4000,0,0,0,1
5400000,-0.0007989506,-0.005858955,-0.00079894846,4000,0,-0.21188685,0.22026676,-9.93474,4000,0,0,0,1
5404000,-0.00186421,-0.005060006,-0.0021305312,4000,0,-0.20709848,0.23942037,-9.93594,4000,0,0,0,1
5408000,-0.0015978969,-0.005060006,-0.002130529,4000,0,-0.19153613,0.24780005,-9.932346,4000,0,0,0,1
5412000,-0.0002663206,-0.0069242185,-0.000266313,4000,0,-0.19273323,0.24899715,-9.90601,4000,0,0,0,1
5416000,0.00026631675,-0.0069242185,-0.0005326311,4000,0,-0.20231007,0.22744936,-9.884462,4000,0,0,0,1
5420000,2.0331625e-09,-0.0058589554,-0.0013315813,4000,0,-0.21428105,0.18674792,-9.909603,4000,0,0,0,1
5424000,-2.8369715e-10,-0.0053263223,-0.0010652648,4000,0,-0.2238579,0.18195954,-9.940725,4000,0,0,0,1
5428000,-0.0018642121,-0.003994742,-0.0013315842,4000,0,-0.21667528,0.20111315,-9.940725,4000,0,0,0,1
5432000,-0.0034621132,-0.0042610564,0.0010652625,4000,0,-0.21188685,0.19273342,-9.932346,4000,0,0,0,1
5436000,-0.0021305338,-0.006924215,0.0050600115,4000,0,-0.20949265,0.18555082,-9.923966,4000,0,0,0,1
5440000,-0.0023968415,-0.008255802,0.0045273756,4000,0,-0.21068975,0.17597403,-9.9383335,4000,0,0,0,1
5444000,-0.003994741,-0.0053263265,0.0023968385,4000,0,-0.22385788,0.16400303,-9.958684,4000,0,0,0,1
5448000,-0.002663163,-0.0018642127,0.0018642107,4000,0,-0.22744916,0.17717113,-9.9515,4000,0,0,0,1
5452000,-0.00079894805,-0.002929476,0.0023968474,4000,0,-0.2238579,0.19632472,-9.949107,4000,0,0,0,1
5456000,8.274497e-10,-0.0055926386,0.0037284277,4000,0,-0.22744916,0.21787256,-9.958684,4000,0,0,0,1
5460000,0.001864218,-0.0071905334,0.0021305322,4000,0,-0.22266078,0.22505514,-9.967064,4000,0,0,0,1
5464000,0.00239685,-0.0071905344,0.00026631734,4000,0,-0.21308395,0.20709865,-9.98023,4000,0,0,0,1
5468000,0.0010652646,-0.0061252713,0.00026631373,4000,0,-0.21188685,0.19033922,-9.975443,4000,0,0,0,1
5472000,0.0007989528,-0.0069242185,-0.001864214,4000,0,-0.21188685,0.18315664,-9.944317,4000,0,0,0,1
5476000,0.00053263805,-0.007456851,-0.004527376,4000,0,-0.21188685,0.18195954,-9.932346,4000,0,0,0,1
5480000,-0.0010652603,-0.0058589526,-0.005326326,4000,0,-0.21906948,0.17477691,-9.945517,4000,0,0,0,1
5484000,-0.0021305296,-0.0039947396,-0.0034621125,4000,0,-0.22266078,0.16998851,-9.94791,4000,0,0,0,1
5488000,-0.0021305326,-0.0039947405,-0.0007989485,4000,0,-0.20709848,0.19273342,-9.953894,4000,0,0,0,1
5492000,-0.00213053,-0.005060006,-0.00053263165,4000,0,-0.19393034,0.21428125,-9.959879,4000,0,0,0,1
5496000,-0.0010652656,-0.0053263223,1.8929178e-09,4000,0,-0.19871877,0.21308415,-9.931149,4000,0,0,0,1
5500000,0.0002663152,-0.00479369,0.00053263444,4000,0,-0.18914196,0.21068995,-9.91918,4000,0,0,0,1
5504000,0.001065267,-0.0047936896,-0.0010652634,4000,0,-0.18435356,0.20590155,-9.93953,4000,0,0,0,1
5508000,0.0013315832,-0.0047936896,-0.0026631607,4000,0,-0.20590138,0.19393052,-9.940725,4000,0,0,0,1
5512000,0.0005326338,-0.0039947415,-0.0031957948,4000,0,-0.21547818,0.17717113,-9.921572,4000,0,0,0,1
5516000,-0.00026631978,-0.0050600055,-0.001331582,4000,0,-0.22146368,0.18674792,-9.909603,4000,0,0,0,1
5520000,-0.0005326377,-0.006125271,0.0015978963,4000,0,-0.22984336,0.20111315,-9.920377,4000,0,0,0,1
5524000,0.0005326299,-0.0055926386,0.0026631632,4000,0,-0.22984336,0.1915363,-9.927559,4000,0,0,0,1
5528000,0.0013315805,-0.0037284251,0.0018642145,4000,0,-0.2406173,0.19393052,-9.923966,4000,0,0,0,1
5532000,0.00026631565,-0.0018642135,0.0013315803,4000,0,-0.237026,0.19273342,-9.93594,4000,0,0,0,1
5536000,-0.0005326328,-0.0029294782,0.002929477,4000,0,-0.21188685,0.19033922,-9.952697,4000,0,0,0,1
5540000,-0.001864212,-0.0061252723,0.005060005,4000,0,-0.20350717,0.19871895,-9.9515,4000,0,0,0,1
5544000,-0.0034621034,-0.0093210675,0.0045273737,4000,0,-0.20231007,0.19871895,-9.935939,4000,0,0,0,1
5548000,-0.0031957862,-0.010120014,0.002396847,4000,0,-0.20231007,0.20829575,-9.911995,4000,0,0,0,1
5552000,-0.003195794,-0.007723169,0.0018642102,4000,0,-0.20949265,0.21547836,-9.908405,4000,0,0,0,1
5556000,-0.002396847,-0.005326322,0.0018642124,4000,0,-0.21188685,0.19393054,-9.929954,4000,0,0,0,1
5560000,6.146769e-10,-0.004793689,0.0013315845,4000,0,-0.21787238,0.19512764,-9.940725,4000,0,0,0,1
5564000,-0.00053263106,-0.00559264,0.0007989474,4000,0,-0.21428105,0.20231025,-9.944317,4000,0,0,0,1
5568000,-0.0013315801,-0.006125272,0.0005326307,4000,0,-0.20590138,0.17597401,-9.9467125,4000,0,0,0,1
5572000,0.0015978994,-0.004527375,-0.00079894316,4000,0,-0.22984336,0.18315664,-9.940725,4000,0,0,0,1
5576000,0.0026631632,-0.0042610583,-0.0021305275,4000,0,-0.26455933,0.20590153,-9.93474,4000,0,0,0,1
5580000,-2.8369715e-09,-0.007190535,-0.0015979034,4000,0,-0.2765303,0.19991605,-9.937136,4000,0,0,0,1
5584000,-0.0013315825,-0.008255801,-0.0010652678,4000,0,-0.24540567,0.18914212,-9.94791,4000,0,0,0,1
5588000,-0.00079894887,-0.0053263223,-0.0005326323,4000,0,-0.19991587,0.18794502,-9.955092,4000,0,0,0,1
5592000,-0.0013315829,-0.003994742,0.0007989471,4000,0,-0.19153613,0.19752182,-9.96347,4000,0,0,0,1
5596000,-0.0018642144,-0.006125271,0.0023968453,4000,0,-0.20949265,0.1915363,-9.973047,4000,0,0,0,1
5600000,-0.0007989497,-0.0066579017,0.0031957964,4000,0,-0.20829557,0.17118563,-9.956289,4000,0,0,0,1
5604000,0.0002663139,-0.004527374,0.0031957957,4000,0,-0.18674776,0.16400303,-9.94791,4000,0,0,0,1
5608000,0.0005326341,-0.003994742,0.0015978973,4000,0,-0.19991589,0.17118563,-9.968261,4000,0,0,0,1
5612000,0.00026631993,-0.0050600055,-0.00079894916,4000,0,-0.22744916,0.18195954,-9.974246,4000,0,0,0,1
5616000,-0.0010652648,-0.005326322,-0.00079895084,4000,0,-0.22385788,0.16998851,-9.959879,4000,0,0,0,1
5620000,-0.0021305312,-0.0050600055,0.00026631405,4000,0,-0.21428105,0.15562329,-9.949107,4000,0,0,0,1
5624000,-0.00026631664,-0.0042610583,0.00053263485,4000,0,-0.21188685,0.1747769,-9.93953,4000,0,0,0,1
5628000,0.0013315809,-0.0042610583,0.00026631835,4000,0,-0.20709848,0.18674792,-9.9383335,4000,0,0,0,1
5632000,-0.0005326322,-0.0055926396,0.0002663128,4000,0,-0.19273323,0.16400303,-9.950302,4000,0,0,0,1
5640000,-0.0015978975,-0.0053263223,0.00026631547,4000,0,-0.18674776,0.17118561,-9.91918,4000,0,0,0,1
5644000,-0.0023968483,-0.004527374,0.001864211,4000,0,-0.19153613,0.20709865,-9.927559,4000,0,0,0,1
5648000,-0.0029294793,-0.0045273746,0.0029294768,4000,0,-0.18794486,0.20709865,-9.944317,4000,0,0,0,1
5652000,-0.0031957938,-0.0045273756,0.0029294773,4000,0,-0.19393033,0.19512762,-9.944317,4000,0,0,0,1
5656000,-0.0021305252,-0.006125272,0.001331584,4000,0,-0.19153613,0.19752182,-9.9467125,4000,0,0,0,1
5660000,-0.0021305273,-0.0069242194,0.00053263275,4000,0,-0.19273323,0.20949285,-9.9383335,4000,0,0,0,1
5664000,-0.0031957945,-0.006924219,0.0007989459,4000,0,-0.22146368,0.20470445,-9.9515,4000,0,0,0,1
5668000,-0.002929476,-0.0061252723,-3.4332037e-10,4000,0,-0.23104048,0.18914212,-9.976641,4000,0,0,0,1
5672000,-0.0023968439,-0.0045273756,-0.0005326328,4000,0,-0.19991589,0.18555082,-9.959879,4000,0,0,0,1
5676000,-0.0013315802,-0.00559264,-0.0010652621,4000,0,-0.17238253,0.18076244,-9.94791,4000,0,0,0,1
5680000,-0.00079894834,-0.0053263223,-0.0010652639,4000,0,-0.18195936,0.18555082,-9.9515,4000,0,0,0,1
5684000,-0.0023968471,-0.0039947415,0.00026631288,4000,0,-0.20111297,0.19393052,-9.944317,4000,0,0,0,1
5688000,-0.002929478,-0.004527375,0.000532632,4000,0,-0.21188685,0.18555082,-9.945517,4000,0,0,0,1
5692000,-0.0010652633,-0.0045273756,-0.0002663134,4000,0,-0.22505498,0.18914212,-9.9467125,4000,0,0,0,1
5700000,-0.0007989482,-0.002396845,-0.00053263287,4000,0,-0.19632454,0.18195954,-9.926363,4000,0,0,0,1
5704000,-0.0018642144,-0.0026631607,0.00133158,4000,0,-0.18435356,0.17956533,-9.945517,4000,0,0,0,1
5708000,-0.0039947433,-0.0039947424,0.0031957924,4000,0,-0.18555066,0.18914212,-9.94791,4000,0,0,0,1
5716000,0.0007989508,-0.0034621097,-0.00053262804,4000,0,-0.19991587,0.16998851,-9.91918,4000,0,0,0,1
5720000,0.0005326317,-0.0031957938,-2.9219147e-10,4000,0,-0.20470428,0.17836823,-9.927559,4000,0,0,0,1
5728000,-0.0007989478,-0.0053263223,0.00026631766,4000,0,-0.22266078,0.16520013,-9.92277,4000,0,0,0,1
5732000,0.0005326323,-0.004527375,0.0002663182,4000,0,-0.22146368,0.17717113,-9.927559,4000,0,0,0,1
5740000,0.00026631512,-0.0042610588,0.0026631611,4000,0,-0.19512743,0.20350735,-9.93594,4000,0,0,0,1
5748000,0.0010652672,-0.005858955,0.0005326326,4000,0,-0.19512743,0.18674792,-9.93953,4000,0,0,0,1
5756000,-0.0018642129,-0.0034621092,-0.00026631917,4000,0,-0.19752167,0.1532291,-9.953894,4000,0,0,0,1
5760000,-0.0018642133,-0.002663161,-5.429509e-10,4000,0,-0.2358289,0.17238271,-9.926363,4000,0,0,0,1
5764000,-0.00053263234,-0.0010652647,1.7053906e-10,4000,0,-0.2442086,0.19991605,-9.928757,4000,0,0,0,1
5768000,-0.001597897,-0.0026631611,0.00026631603,4000,0,-0.2334347,0.20231026,-9.944317,4000,0,0,0,1
5772000,-0.0031957943,-0.006391587,0.0010652652,4000,0,-0.2322376,0.18076244,-9.931149,4000,0,0,0,1
5780000,-0.0010652621,-0.0066579035,0.00026631713,4000,0,-0.2394202,0.19033922,-9.94312,4000,0,0,0,1
5788000,-0.0029294787,-0.005326322,-1.6532962e-09,4000,0,-0.17597383,0.18555082,-9.955093,4000,0,0,0,1
5792000,-0.0015978994,-0.0042610574,0.0013315819,4000,0,-0.19871877,0.17118561,-9.961077,4000,0,0,0,1
5796000,-0.0007989478,-0.005592639,0.0013315823,4000,0,-0.19632454,0.18315664,-9.941923,4000,0,0,0,1
5800000,-0.00026631358,-0.0058589554,9.616064e-10,4000,0,-0.18555066,0.19273342,-9.917982,4000,0,0,0,1
5804000,0.0005326359,-0.0053263223,-0.0018642116,4000,0,-0.19871877,0.17477691,-9.914389,4000,0,0,0,1
5812000,-0.0026631623,-0.0061252676,-0.0037284307,4000,0,-0.2334347,0.1592146,-9.915586,4000,0,0,0,1
5816000,-0.0042610606,-0.003994738,-0.0015979022,4000,0,-0.22864626,0.16998851,-9.931149,4000,0,0,0,1
5824000,-0.0021305294,-0.004527376,-0.0010652612,4000,0,-0.20590138,0.1616088,-9.944317,4000,0,0,0,1
5828000,-0.00053263316,-0.003728426,-0.00026631434,4000,0,-0.22744915,0.18195954,-9.957487,4000,0,0,0,1
5832000,-0.0018642143,-0.0047936896,0.00079894694,4000,0,-0.23223759,0.20829575,-9.96347,4000,0,0,0,1
5836000,-0.003728425,-0.0042610597,-3.384169e-09,4000,0,-0.22146368,0.21787256,-9.9515,4000,0,0,0,1
5840000,-0.00266316,-0.0047936914,-0.0010652625,4000,0,-0.22266078,0.19273342,-9.964669,4000,0,0,0,1
5844000,-0.0005326337,-0.006391588,-0.00053262763,4000,0,-0.22984336,0.16759431,-9.982624,4000,0,0,0,1
5848000,0.00026631527,-0.00479369,1.33482e-09,4000,0,-0.21667528,0.17597403,-9.970654,4000,0,0,0,1
5852000,-0.0015978963,-0.0039947424,-0.00026631908,4000,0,-0.20829557,0.17836823,-9.941923,4000,0,0,0,1
5856000,-0.003994741,-0.0050600064,-0.0013315835,4000,0,-0.21547818,0.16879141,-9.929954,4000,0,0,0,1
5860000,-0.0037284265,-0.0042610583,-0.00079894916,4000,0,-0.21188685,0.17956533,-9.937136,4000,0,0,0,1
5868000,-0.0023968455,-0.0031957927,0.0015978977,4000,0,-0.19632453,0.19033922,-9.904812,4000,0,0,0,1
5872000,-0.0018642122,-0.0031957943,0.000798949,4000,0,-0.18435356,0.18794502,-9.91918,4000,0,0,0,1
5876000,-0.0026631595,-0.0037284275,-0.0010652654,4000,0,-0.18195936,0.18195954,-9.932346,4000,0,0,0,1
5880000,-0.0026631611,-0.0034621095,-0.001065265,4000,0,-0.19033906,0.18435374,-9.940725,4000,0,0,0,1
5884000,-0.00079894863,-0.0013315806,-0.00026631594,4000,0,-0.22266078,0.1915363,-9.9515,4000,0,0,0,1
5888000,-0.0007989486,-0.0013315805,-2.3240465e-11,4000,0,-0.24899697,0.17477691,-9.941923,4000,0,0,0,1
5892000,-0.0018642135,-0.0029294775,0.0010652647,4000,0,-0.22505498,0.16520013,-9.950302,4000,0,0,0,1
5896000,-0.0013315794,-0.0031957945,-0.0002663155,4000,0,-0.18914196,0.17238271,-9.982624,4000,0,0,0,1
5900000,-0.0013315786,-0.0039947433,-0.0023968446,4000,0,-0.19033906,0.17597403,-9.9862175,4000,0,0,0,1
5904000,-0.0018642144,-0.005592639,-0.0021305294,4000,0,-0.20709848,0.1604117,-9.964669,4000,0,0,0,1
5908000,-0.0037284282,-0.006924218,-0.0015978997,4000,0,-0.20590138,0.16639723,-9.952696,4000,0,0,0,1
5912000,-0.0050600106,-0.0071905325,0.0002663133,4000,0,-0.19393033,0.19991605,-9.94791,4000,0,0,0,1
5916000,-0.003195796,-0.0069242185,0.0010652685,4000,0,-0.20470427,0.19991605,-9.941923,4000,0,0,0,1
5920000,4.019043e-09,-0.0061252723,-0.00079894206,4000,0,-0.22146368,0.18435374,-9.933543,4000,0,0,0,1
5924000,0.0007989486,-0.0055926396,-0.00079894694,4000,0,-0.20829557,0.17118561,-9.927559,4000,0,0,0,1
5928000,-0.0010652656,-0.005592639,-0.00026631972,4000,0,-0.19991587,0.1675943,-9.928757,4000,0,0,0,1
5932000,-0.0015978956,-0.004527375,-0.00079894986,4000,0,-0.21068975,0.16998851,-9.937136,4000,0,0,0,1
5936000,-0.0013315793,-0.0050600064,-0.0018642124,4000,0,-0.20111297,0.1616088,-9.945517,4000,0,0,0,1
5940000,-0.0018642136,-0.006657903,-0.0021305296,4000,0,-0.19393033,0.18195954,-9.9383335,4000,0,0,0,1
5944000,-0.0015978982,-0.0050600055,-0.0010652653,4000,0,-0.20470428,0.20111315,-9.920377,4000,0,0,0,1
5948000,-0.0015978994,-0.0029294768,0.0007989473,4000,0,-0.18555066,0.19273342,-9.913193,4000,0,0,0,1
5952000,-0.0015978988,-0.003728425,0.0029294782,4000,0,-0.16759415,0.19273342,-9.929954,4000,0,0,0,1
5956000,-0.00053263054,-0.004793689,0.0023968471,4000,0,-0.19871877,0.19512764,-9.962273,4000,0,0,0,1
5960000,-0.0007989442,-0.0053263227,-4.239418e-10,4000,0,-0.21906948,0.19632474,-9.971849,4000,0,0,0,1
5964000,-0.0018642105,-0.005858956,-0.0013315825,4000,0,-0.21308395,0.19033922,-9.957487,4000,0,0,0,1
5968000,-0.0021305303,-0.005326322,-0.00079894945,4000,0,-0.22505498,0.18195954,-9.949107,4000,0,0,0,1
5972000,-0.0018642148,-0.0053263213,0.00026631652,4000,0,-0.22505498,0.17956533,-9.9467125,4000,0,0,0,1
5976000,-0.0010652672,-0.006657902,0.001864215,4000,0,-0.21068975,0.18195954,-9.937136,4000,0,0,0,1
5980000,-0.0005326353,-0.007456851,0.0034621106,4000,0,-0.20590138,0.19393052,-9.926363,4000,0,0,0,1
5984000,-0.0018642087,-0.0066579054,0.0013315771,4000,0,-0.19991587,0.19752185,-9.925163,4000,0,0,0,1
5988000,-0.0037284202,-0.005592641,-0.0013315855,4000,0,-0.19991587,0.19632474,-9.931149,4000,0,0,0,1
5992000,-0.003728427,-0.005326322,-0.0007989489,4000,0,-0.20709848,0.18315664,-9.9467125,4000,0,0,0,1
5996000,-0.0021305296,-0.00479369,-0.00053263025,4000,0,-0.20829557,0.1604117,-9.952697,4000,0,0,0,1
6000000,-0.0015978944,-0.0021305305,-0.0018642141,4000,0,-0.19153613,0.15682039,-9.941923,4000,0,0,0,1
6004000,-0.0026631607,-0.0010652641,-0.0021305308,4000,0,-0.18555066,0.16639721,-9.944317,4000,0,0,0,1
6008000,-0.003195797,-0.004527373,-0.00026631335,4000,0,-0.20709848,0.16639721,-9.965866,4000,0,0,0,1
6016000,-0.0002663137,-0.0053263227,-0.00053262815,4000,0,-0.24899697,0.1508349,-9.965866,4000,0,0,0,1
6020000,0.0015978978,-0.008255801,-0.0013315772,4000,0,-0.2394202,0.15442619,-9.953894,4000,0,0,0,1
6024000,0.0013315788,-0.010918962,-0.0010652669,4000,0,-0.21787238,0.17477691,-9.945516,4000,0,0,0,1
6028000,0.00026631885,-0.008788433,-0.0015978998,4000,0,-0.20470428,0.19033922,-9.933542,4000,0,0,0,1
6032000,0.00026631897,-0.0063915877,-0.0021305291,4000,0,-0.21188685,0.17357981,-9.926362,4000,0,0,0,1
6036000,0.0018642115,-0.0069242204,-0.0015978937,4000,0,-0.22146368,0.17597403,-9.933542,4000,0,0,0,1
