timestamp,timestamp_sample,ref_timestamp,ref_lat,ref_lon,x,y,z,delta_xy[0],delta_xy[1],delta_z,vx,vy,vz,z_deriv,delta_vxy[0],delta_vxy[1],delta_vz,ax,ay,az,heading,delta_heading,ref_alt,dist_bottom,eph,epv,evh,evv,vxy_max,vz_max,hagl_min,hagl_max,xy_valid,z_valid,v_xy_valid,v_z_valid,xy_reset_counter,z_reset_counter,vxy_reset_counter,vz_reset_counter,heading_reset_counter,heading_good_for_control,xy_global,z_global,dist_bottom_valid,dist_bottom_sensor_bitfield,dead_reckoning
3804000,3804000,0,nan,nan,0.00048354143,0.00090760255,-0.00649102,-6.300118e-08,1.5656e-08,0.0,0.0014381349,0.004411548,-0.02242884,-0.018014288,-1.0500196e-05,2.609333e-06,0.0017587617,-0.016199365,0.010640811,-0.033277083,1.6252722,0.005707331,nan,0.10685218,0.011622261,5.7735023,0.09525532,0.023151772,inf,inf,inf,inf,0,0,0,0,1,1,1,1,1,0,0,0,0,0,1
4300000,4300000,0,nan,nan,0.00030772123,0.0023257716,-0.03034546,-6.300118e-08,1.5656e-08,0.0,0.0019302452,0.007941532,-0.01222857,-0.028820446,-1.0500196e-05,2.609333e-06,0.0017587617,0.012007337,0.0028249777,-0.017327255,1.6254109,0.005707331,nan,0.1,0.022680277,1.6517692,0.143361,0.05980794,inf,inf,inf,inf,0,1,0,1,1,1,1,1,1,0,0,0,0,0,1
4804000,4804000,4392000,47.3977508,8.5456073,0.0006116381,0.0018764794,-0.04872529,-6.300118e-08,1.5656e-08,0.0,0.0035309114,0.0042366125,-0.012021312,-0.030966576,-1.0500196e-05,2.609333e-06,0.0017587617,0.04981215,0.0038988215,0.014896504,1.6248679,0.005707331,488.0305,0.109892376,0.03379414,0.9907411,0.16004169,0.08644542,inf,inf,inf,inf,0,1,0,1,1,1,1,1,1,0,1,1,0,0,1
5300000,5300000,4392000,47.3977508,8.5456073,0.0011534855,-0.0002877924,-0.03978113,-6.300118e-08,1.5656e-08,0.0,0.0026396604,-0.0007064719,-0.010347956,-0.01055348,-1.0500196e-05,2.609333e-06,0.0017587617,0.028033143,-0.024840511,0.024060717,1.6245375,0.005707331,488.0305,0.10834841,0.015800757,0.7562298,0.07009231,0.0897859,inf,inf,inf,inf,0,1,0,1,1,1,1,1,1,0,1,1,0,0,1
5804000,5804000,4392000,47.3977508,8.5456073,-0.0011712699,-0.00085689314,-0.033679232,-6.300118e-08,1.5656e-08,0.0,-0.004743386,-0.00084444013,-0.008866344,-0.000800261,-1.0500196e-05,2.609333e-06,0.0017587617,0.003234556,0.010606221,0.019475816,1.6214509,0.005707331,488.0305,0.10525927,0.019591654,0.64743,0.06898962,0.09422768,inf,inf,inf,inf,0,1,0,1,1,1,1,1,1,0,1,1,0,0,1
6300000,6300000,4392000,47.3977508,8.5456073,-0.001411841,-0.00071165495,-0.031707447,-6.300118e-08,1.5656e-08,0.0,-0.0020334264,-0.0009575843,-0.008471067,0.0008265273,-1.0500196e-05,2.609333e-06,0.0017587617,-0.016184319,0.018052204,0.022715887,1.6216804,0.005707331,488.0305,0.10152902,0.0126053635,0.57676756,0.046799257,0.09479535,inf,inf,inf,inf,0,1,0,1,1,1,1,1,1,0,1,1,0,0,1
6804000,6804000,4392000,47.3977508,8.5456073,-0.0006785503,-0.0018891233,-0.029540686,-6.300118e-08,1.5656e-08,0.0,-0.001658468,-0.005526071,-0.004749702,0.00454278,-1.0500196e-05,2.609333e-06,0.0017587617,0.0008511997,-0.004159781,0.006546266,1.621921,0.005707331,488.0305,0.10072822,0.015465168,0.5197807,0.050186682,0.08566836,inf,inf,inf,inf,0,1,0,1,1,1,1,1,1,0,1,1,0,0,1
7300000,7300000,4392000,47.3977508,8.5456073,-0.0020573926,-0.0019832507,-0.026793966,-6.300118e-08,1.5656e-08,0.0,-0.00839205,-0.0034534305,-0.00026757037,0.00833338,-1.0500196e-05,2.609333e-06,0.0017587617,-0.0013952084,-0.042321377,0.0003604218,1.6207242,0.005707331,488.0305,0.10109534,0.018444154,0.48329037,0.05343872,0.084924825,inf,inf,inf,inf,0,1,0,1,1,1,1,1,1,0,1,1,0,0,1
7804000,7804000,4392000,47.3977508,8.5456073,-0.0032139614,-0.00031782943,-0.022532145,-6.300118e-08,1.5656e-08,0.0,-0.0069614877,0.00025778968,0.0020968819,0.00999778,-1.0500196e-05,2.609333e-06,0.0017587617,-0.019934246,0.028395908,-0.024490057,1.619425,0.005707331,488.0305,0.1,0.013348296,0.4496905,0.042597823,0.07782677,inf,inf,inf,inf,0,1,0,1,1,1,1,1,1,0,1,1,0,0,1
8300000,8300000,4392000,47.3977508,8.5456073,-0.0014306938,2.4152083e-05,-0.02289428,-6.300118e-08,1.5656e-08,0.0,-0.0022021136,-0.0015212676,0.0006762127,0.00450351,-1.0500196e-05,2.609333e-06,0.0017587617,-0.026295047,-0.028795153,-0.029382294,1.6209276,0.005707331,488.0305,0.1,0.015977895,0.42738298,0.046398453,0.07774073,inf,inf,inf,inf,0,1,0,1,1,1,1,1,1,0,1,1,0,0,1
8804000,8804000,4392000,47.3977508,8.5456073,8.77036e-05,0.0072053806,-0.06871169,9.129138e-05,0.0076843225,-0.042087145,-0.0005630713,-0.0005311697,-0.008678508,-0.009358831,0.0008538942,0.00039706597,-0.010066556,-0.046025727,0.0022950843,0.017863696,1.6217897,0.005707331,488.0305,0.1,1.4142176,0.9615301,0.4242828,0.45000857,inf,inf,inf,inf,1,1,1,1,2,2,2,2,1,0,1,1,0,0,0
9300000,9300000,4392000,47.3977508,8.5456073,3.027033e-05,0.008331614,-0.070343606,9.129138e-05,0.0076843225,-0.042087145,-0.0024551733,0.003301368,-0.00729027,-0.0052083856,0.0008538942,0.00039706597,-0.010066556,0.010426272,-0.0124711795,-0.0030137596,1.6212714,0.005707331,488.0305,0.1,1.0059514,0.6117478,0.30063438,0.317043,inf,inf,inf,inf,1,1,1,1,2,2,2,2,1,0,1,1,0,0,0
9804000,9804000,4392000,47.3977508,8.5456073,-0.00072891,0.0058221985,-0.0743953,9.129138e-05,0.0076843225,-0.042087145,-0.004869967,0.0013436517,-0.004300264,-0.002442043,0.0008538942,0.00039706597,-0.010066556,-0.02582099,-0.0008315255,0.018286517,1.6228471,0.005707331,488.0305,0.10235423,0.83162767,0.500098,0.24846768,0.2573348,inf,inf,inf,inf,1,1,1,1,2,2,2,2,1,0,1,1,0,0,0
10300000,10300000,4392000,47.3977508,8.5456073,-0.0039236275,0.003496654,-0.068808146,9.129138e-05,0.0076843225,-0.042087145,-0.0076088165,-9.483829e-05,0.0026632987,0.008644304,0.0008538942,0.00039706597,-0.010066556,0.013975906,-0.0054939296,0.0045187767,1.623831,0.005707331,488.0305,0.10146809,0.73409414,0.44487438,0.22200546,0.22097118,inf,inf,inf,inf,1,1,1,1,2,2,2,2,1,0,1,1,0,0,0
10804000,10804000,4392000,47.3977508,8.5456073,-0.007749486,0.007988078,-0.06588676,9.129138e-05,0.0076843225,-0.042087145,-0.009187067,0.0023444786,0.0054123164,0.009597393,0.0008538942,0.00039706597,-0.010066556,0.027814558,0.01040718,0.020587815,1.6227168,0.005707331,488.0305,0.1,0.6037479,0.3803164,0.18756501,0.176946,inf,inf,inf,inf,1,1,1,1,2,2,2,2,1,0,1,1,0,0,0
11300000,11300000,4392000,47.3977508,8.5456073,-0.0064651477,0.008224343,-0.06556303,9.129138e-05,0.0076843225,-0.042087145,-0.0053039705,0.0022117253,0.0099425195,0.010397733,0.0008538942,0.00039706597,-0.010066556,-0.039031405,0.023268715,0.02226792,1.6240627,0.005707331,488.0305,0.1,0.5743451,0.3703713,0.18847254,0.16294251,inf,inf,inf,inf,1,1,1,1,2,2,2,2,1,0,1,1,0,0,0
11804000,11804000,4392000,47.3977508,8.5456073,-0.0015864611,0.004508566,-0.05815556,9.129138e-05,0.0076843225,-0.042087145,0.0011616375,-0.0018110957,0.01960466,0.020279039,0.0008538942,0.00039706597,-0.010066556,0.008939197,0.0033170362,0.0023171303,1.6229279,0.005707331,488.0305,0.1,0.55622566,0.36472163,0.1963592,0.15207049,inf,inf,inf,inf,1,1,1,1,2,2,2,2,1,0,1,1,0,0,0
12300000,12300000,4392000,47.3977508,8.5456073,0.004060654,0.0058452655,-0.052473113,9.129138e-05,0.0076843225,-0.042087145,0.004356639,-0.0021422543,0.022080332,0.018463437,0.0008538942,0.00039706597,-0.010066556,-0.01622262,0.009175564,0.0019883735,1.6227309,0.005707331,488.0305,0.1,0.5461638,0.36360756,0.20800465,0.14411132,inf,inf,inf,inf,1,1,1,1,2,2,2,2,1,0,1,1,0,0,0
12804000,12804000,4392000,47.3977508,8.5456073,0.009179277,0.006979863,-0.050577994,9.129138e-05,0.0076843225,-0.042087145,0.004472784,0.00067164266,0.02416399,0.01490238,0.0008538942,0.00039706597,-0.010066556,-0.006466929,0.019397993,0.018903052,1.6237843,0.005707331,488.0305,0.1,0.49682188,0.3368978,0.19463718,0.12909313,inf,inf,inf,inf,1,1,1,1,2,2,2,2,1,0,1,1,0,0,0
13300000,13300000,4392000,47.3977508,8.5456073,0.014600892,0.0045335223,-0.045033418,9.129138e-05,0.0076843225,-0.042087145,0.0062592453,-0.0011916091,0.02851505,0.017183272,0.0008538942,0.00039706597,-0.010066556,0.0030783992,-0.011856507,0.049409453,1.6225046,0.005707331,488.0305,0.1,0.4973277,0.3376526,0.20551038,0.1257499,inf,inf,inf,inf,1,1,1,1,2,2,2,2,1,0,1,1,0,0,0
13804000,13804000,4392000,47.3977508,8.5456073,0.009236912,0.0051423386,-0.041711915,9.129138e-05,0.0076843225,-0.042087145,-0.0004665074,0.0024809376,0.02921632,0.013221372,0.0008538942,0.00039706597,-0.010066556,-0.0024431937,0.0071323733,0.013384036,1.6219827,0.005707331,488.0305,0.1,0.5027693,0.3413505,0.21614438,0.1241747,inf,inf,inf,inf,1,1,1,1,2,2,2,2,1,0,1,1,0,0,0
14300000,14300000,4392000,47.3977508,8.5456073,0.0077220313,0.006756299,-0.037923433,9.129138e-05,0.0076843225,-0.042087145,0.0008547133,0.0033896447,0.031308457,0.013941205,0.0008538942,0.00039706597,-0.010066556,0.00030644875,-0.015757002,0.006924383,1.6217262,0.005707331,488.0305,0.1,0.51077986,0.34329477,0.22477424,0.123298444,inf,inf,inf,inf,1,1,1,1,2,2,2,2,1,0,1,1,0,0,0
14804000,14804000,4392000,47.3977508,8.5456073,0.008306001,0.007643106,-0.03147942,9.129138e-05,0.0076843225,-0.042087145,0.0013094252,0.0066636438,0.031315677,0.014199125,0.0008538942,0.00039706597,-0.010066556,0.03768926,0.05719115,-0.02645049,1.6200342,0.005707331,488.0305,0.1,0.472456,0.32362774,0.20080426,0.11632257,inf,inf,inf,inf,1,1,1,1,2,2,2,2,1,0,1,1,0,0,0
15300000,15300000,4392000,47.3977508,8.5456073,0.0093539655,0.0149996895,-0.03216831,9.129138e-05,0.0076843225,-0.042087145,0.0008753834,0.010612702,0.030762864,0.008229262,0.0008538942,0.00039706597,-0.010066556,0.011691954,0.006187474,0.01820363,1.6197759,0.005707331,488.0305,0.1,0.48143542,0.3267667,0.20626408,0.11721421,inf,inf,inf,inf,1,1,1,1,2,2,2,2,1,0,1,1,0,0,0
15804000,15804000,4392000,47.3977508,8.5456073,0.0109520145,0.0135029955,-0.03418353,9.129138e-05,0.0076843225,-0.042087145,0.0025929618,0.009026251,0.031672068,0.0049077617,0.0008538942,0.00039706597,-0.010066556,-0.02235356,-0.030770939,0.034630295,1.61874,0.005707331,488.0305,0.1,0.49295735,0.33251154,0.2114642,0.118952535,inf,inf,inf,inf,1,1,1,1,2,2,2,2,1,0,1,1,0,0,0
16300000,16300000,4392000,47.3977508,8.5456073,0.008737338,0.011060482,-0.030736824,9.129138e-05,0.0076843225,-0.042087145,0.0025194725,0.008158751,0.03277871,0.0075428123,0.0008538942,0.00039706597,-0.010066556,-0.02981258,-0.01878591,-0.0098291775,1.6188227,0.005707331,488.0305,0.1,0.50475395,0.33660468,0.21544634,0.120519035,inf,inf,inf,inf,1,1,1,1,2,2,2,2,1,0,1,1,0,0,0
16804000,16804000,4392000,47.3977508,8.5456073,0.00813688,0.013107129,-0.027648527,9.129138e-05,0.0076843225,-0.042087145,0.0047214963,0.008077362,0.037601236,0.01176116,0.0008538942,0.00039706597,-0.010066556,0.0117663145,-0.0053927647,0.025804153,1.618231,0.005707331,488.0305,0.1,0.4676823,0.31952506,0.19119324,0.115321696,inf,inf,inf,inf,1,1,1,1,2,2,2,2,1,0,1,1,0,0,0
17300000,17300000,4392000,47.3977508,8.5456073,0.0073453686,0.008770145,-0.026267968,9.129138e-05,0.0076843225,-0.042087145,0.0067720013,0.0046310914,0.0388807,0.010145288,0.0008538942,0.00039706597,-0.010066556,0.008908798,-0.0013906537,0.006116926,1.6177223,0.005707331,488.0305,0.1,0.47837177,0.32547605,0.19459811,0.117335044,inf,inf,inf,inf,1,1,1,1,2,2,2,2,1,0,1,1,0,0,0
17804000,17804000,4392000,47.3977508,8.5456073,0.006656844,0.0074923523,-0.0220824,9.129138e-05,0.0076843225,-0.042087145,0.0072620106,0.0019653519,0.037458476,0.008392988,0.0008538942,0.00039706597,-0.010066556,0.013882395,-0.016757242,0.0114198765,1.617312,0.005707331,488.0305,0.1,0.49073872,0.33099467,0.19830883,0.11925927,inf,inf,inf,inf,1,1,1,1,2,2,2,2,1,0,1,1,0,0,0
18300000,18300000,4392000,47.3977508,8.5456073,0.0030523266,0.007560321,-0.014276582,9.129138e-05,0.0076843225,-0.042087145,0.0063645244,0.004559552,0.042256076,0.016051814,0.0008538942,0.00039706597,-0.010066556,0.014452219,-0.0034889816,0.0053318213,1.6171012,0.005707331,488.0305,0.1,0.5027178,0.33754322,0.20141536,0.121204175,inf,inf,inf,inf,1,1,1,1,2,2,2,2,1,0,1,1,0,0,0
18804000,18804000,4392000,47.3977508,8.5456073,0.003332892,0.008873788,-0.0069298823,9.129138e-05,0.0076843225,-0.042087145,0.011126441,0.007096628,0.044428572,0.018017031,0.0008538942,0.00039706597,-0.010066556,0.005714275,-0.00019132857,0.0042300667,1.6160271,0.005707331,488.0305,0.1,0.46664062,0.3193566,0.1806509,0.1154484,inf,inf,inf,inf,1,1,1,1,2,2,2,2,1,0,1,1,0,0,0
19300000,19300000,4392000,47.3977508,8.5456073,0.009532053,0.008053378,-0.002291949,9.129138e-05,0.0076843225,-0.042087145,0.017007802,0.0043451977,0.04599244,0.01583428,0.0008538942,0.00039706597,-0.010066556,0.013952593,0.0063476176,0.0072754915,1.6158924,0.005707331,488.0305,0.1,0.4772994,0.32579353,0.18391052,0.1172891,inf,inf,inf,inf,1,1,1,1,2,2,2,2,1,0,1,1,0,0,0
19804000,19804000,4392000,47.3977508,8.5456073,0.012260859,0.008154789,0.0007348299,9.129138e-05,0.0076843225,-0.042087145,0.019599635,0.005662825,0.044304434,0.010695992,0.0008538942,0.00039706597,-0.010066556,0.013957992,-0.018110119,0.009717419,1.6146444,0.005707331,488.0305,0.1,0.48935914,0.33166653,0.18764248,0.11900386,inf,inf,inf,inf,1,1,1,1,2,2,2,2,1,0,1,1,0,0,0
20300000,20300000,4392000,47.3977508,8.5456073,0.01538414,0.0087831095,0.001122796,9.129138e-05,0.0076843225,-0.042087145,0.021283364,0.0064065866,0.04277548,0.006185584,0.0008538942,0.00039706597,-0.010066556,0.01122635,0.0030205408,0.0008353963,1.6143241,0.005707331,488.0305,0.1,0.5008988,0.33838806,0.19100891,0.12074316,inf,inf,inf,inf,1,1,1,1,2,2,2,2,1,0,1,1,0,0,0
20804000,20804000,4392000,47.3977508,8.5456073,0.011484685,0.008255328,0.0020176433,9.129138e-05,0.0076843225,-0.042087145,0.01739806,0.0008938732,0.042808887,0.0056326543,0.0008538942,0.00039706597,-0.010066556,0.02154373,0.0077746366,0.0029560176,1.6138176,0.005707331,488.0305,0.1,0.4659148,0.3212643,0.17326096,0.114994474,inf,inf,inf,inf,1,1,1,1,2,2,2,2,1,0,1,1,0,0,0
21300000,21300000,4392000,47.3977508,8.5456073,0.007992641,0.0062216367,-0.001893522,9.129138e-05,0.0076843225,-0.042087145,0.012575877,-0.0052780905,0.04117711,-5.7506026e-05,0.0008538942,0.00039706597,-0.010066556,0.010021627,0.02068022,0.012813135,1.6136578,0.005707331,488.0305,0.1,0.4762374,0.32766736,0.1768307,0.1167185,inf,inf,inf,inf,1,1,1,1,2,2,2,2,1,0,1,1,0,0,0
21804000,21804000,4392000,47.3977508,8.5456073,0.004195803,0.004395905,-0.004523435,9.129138e-05,0.0076843225,-0.042087145,0.009104011,-0.010254417,0.037952665,-0.003970212,0.0008538942,0.00039706597,-0.010066556,-0.009445167,-0.031692293,0.037254762,1.6139143,0.005707331,488.0305,0.1,0.48789135,0.33335775,0.18089966,0.118336156,inf,inf,inf,inf,1,1,1,1,2,2,2,2,1,0,1,1,0,0,0
22300000,22300000,4392000,47.3977508,8.5456073,0.0021222143,0.00012355178,-0.0013263209,9.129138e-05,0.0076843225,-0.042087145,0.006957427,-0.01779404,0.039539237,0.0023439245,0.0008538942,0.00039706597,-0.010066556,-0.032597378,-0.011699477,0.0139838075,1.6140305,0.005707331,488.0305,0.10137509,0.49904943,0.33986205,0.1846728,0.120033205,inf,inf,inf,inf,1,1,1,1,2,2,2,2,1,0,1,1,0,0,0
22804000,22804000,4392000,47.3977508,8.5456073,0.001609522,-0.0028497074,0.003350384,9.129138e-05,0.0076843225,-0.042087145,0.005986955,-0.022546748,0.043502744,0.008899266,0.0008538942,0.00039706597,-0.010066556,0.014011529,-0.007861017,0.023899598,1.6133045,0.005707331,488.0305,0.1,0.46503386,0.32094952,0.168857,0.114064366,inf,inf,inf,inf,1,1,1,1,2,2,2,2,1,0,1,1,0,0,0
23300000,23300000,4392000,47.3977508,8.5456073,0.0010791045,0.008763523,-0.0010448461,9.129138e-05,0.0076843225,-0.042087145,0.0069143246,-0.014252823,0.04392359,0.0026639693,0.0008538942,0.00039706597,-0.010066556,0.0065505295,-0.020552294,0.0011734663,1.6133465,0.005707331,488.0305,0.1,0.4750947,0.32713386,0.17272031,0.11583058,inf,inf,inf,inf,1,1,1,1,2,2,2,2,1,0,1,1,0,0,0
23804000,23804000,4392000,47.3977508,8.5456073,0.0075147925,0.014104302,-0.0008757902,9.129138e-05,0.0076843225,-0.042087145,0.0076612616,-0.011273468,0.044913758,0.0029110552,0.0008538942,0.00039706597,-0.010066556,-0.0060551534,0.01644186,0.010382383,1.6137363,0.005707331,488.0305,0.1,0.48648548,0.33270514,0.17705896,0.117538504,inf,inf,inf,inf,1,1,1,1,2,2,2,2,1,0,1,1,0,0,0
24300000,24300000,4392000,47.3977508,8.5456073,0.006833269,0.013750226,0.009586247,9.129138e-05,0.0076843225,-0.042087145,0.007151744,-0.012000218,0.04715882,0.012733557,0.0008538942,0.00039706597,-0.010066556,-0.002483939,-0.027146116,-0.020311212,1.613206,0.005707331,488.0305,0.10309921,0.49743173,0.33918455,0.18111636,0.119357914,inf,inf,inf,inf,1,1,1,1,2,2,2,2,1,0,1,1,0,0,0
24804000,24804000,4392000,47.3977508,8.5456073,0.0031304213,0.0070070154,0.0096884845,9.129138e-05,0.0076843225,-0.042087145,0.007426893,-0.01875265,0.04638356,0.0077663125,0.0008538942,0.00039706597,-0.010066556,-0.00424085,-0.0068548685,0.02233032,1.6130537,0.005707331,488.0305,0.1,0.46415985,0.32178897,0.16641368,0.11384123,inf,inf,inf,inf,1,1,1,1,2,2,2,2,1,0,1,1,0,0,0
25300000,25300000,4392000,47.3977508,8.5456073,0.0019105942,0.0034218458,0.012015113,9.129138e-05,0.0076843225,-0.042087145,0.0059707523,-0.02163858,0.04880928,0.009699057,0.0008538942,0.00039706597,-0.010066556,0.020703997,-0.020637685,0.019589437,1.6127064,0.005707331,488.0305,0.1,0.4740857,0.3266249,0.17044333,0.11544871,inf,inf,inf,inf,1,1,1,1,2,2,2,2,1,0,1,1,0,0,0
25804000,25804000,4392000,47.3977508,8.5456073,0.0012683317,0.0011855904,0.018877748,9.129138e-05,0.0076843225,-0.042087145,0.0026928582,-0.025138268,0.05066193,0.012554385,0.0008538942,0.00039706597,-0.010066556,-0.03784403,-0.031368136,-0.0061932947,1.6125584,0.005707331,488.0305,0.1,0.48535183,0.33217663,0.1749217,0.117228866,inf,inf,inf,inf,1,1,1,1,2,2,2,2,1,0,1,1,0,0,0
26300000,26300000,4392000,47.3977508,8.5456073,-2.5129302e-05,0.00542623,0.019888382,9.129138e-05,0.0076843225,-0.042087145,-0.0033290528,-0.024513476,0.052856077,0.01036795,0.0008538942,0.00039706597,-0.010066556,-0.03890169,0.011370924,0.029239802,1.6125124,0.005707331,488.0305,0.1,0.49620962,0.3386456,0.1790898,0.11910694,inf,inf,inf,inf,1,1,1,1,2,2,2,2,1,0,1,1,0,0,0
26804000,26804000,4392000,47.3977508,8.5456073,0.004873746,0.0048601124,0.021163097,9.129138e-05,0.0076843225,-0.042087145,-0.0034499487,-0.027640566,0.055585902,0.01057525,0.0008538942,0.00039706597,-0.010066556,0.015007186,-0.03583748,0.055923123,1.6120915,0.005707331,488.0305,0.1,0.46345696,0.3213435,0.16497467,0.11367225,inf,inf,inf,inf,1,1,1,1,2,2,2,2,1,0,1,1,0,0,0
27300000,27300000,4392000,47.3977508,8.5456073,0.0038643165,0.0032505242,0.02127064,9.129138e-05,0.0076843225,-0.042087145,-0.009471462,-0.031689484,0.059584122,0.011257171,0.0008538942,0.00039706597,-0.010066556,-0.028448192,0.010493618,0.019539146,1.6120664,0.005707331,488.0305,0.1,0.47332606,0.3275765,0.16905886,0.11557407,inf,inf,inf,inf,1,1,1,1,2,2,2,2,1,0,1,1,0,0,0
27804000,27804000,4392000,47.3977508,8.5456073,0.0006604028,0.0027505232,0.029892635,9.129138e-05,0.0076843225,-0.042087145,-0.017539276,-0.033051956,0.06772782,0.020676784,0.0008538942,0.00039706597,-0.010066556,0.0046381173,0.013365846,0.0537103,1.6123261,0.005707331,488.0305,0.1,0.4845375,0.33317277,0.17355989,0.11738957,inf,inf,inf,inf,1,1,1,1,2,2,2,2,1,0,1,1,0,0,0
28300000,28300000,4392000,47.3977508,8.5456073,-0.0018894835,0.00077394384,0.04058195,9.129138e-05,0.0076843225,-0.042087145,-0.022157136,-0.03474575,0.07477706,0.026943814,0.0008538942,0.00039706597,-0.010066556,0.011699055,-0.015842421,0.0067735086,1.6126041,0.005707331,488.0305,0.1,0.4953568,0.33813876,0.17775527,0.118997246,inf,inf,inf,inf,1,1,1,1,2,2,2,2,1,0,1,1,0,0,0
28804000,28804000,4392000,47.3977508,8.5456073,-0.0073593254,-0.0061463015,0.046545893,9.129138e-05,0.0076843225,-0.042087145,-0.025650442,-0.040752474,0.07805189,0.024615064,0.0008538942,0.00039706597,-0.010066556,-0.050072525,-0.023633225,0.05098525,1.6122087,0.005707331,488.0305,0.1,0.4629525,0.32093236,0.1640009,0.113598965,inf,inf,inf,inf,1,1,1,1,2,2,2,2,1,0,1,1,0,0,0
29300000,29300000,4392000,47.3977508,8.5456073,-0.008628794,-0.0077920184,0.046393514,9.129138e-05,0.0076843225,-0.042087145,-0.02682875,-0.041624747,0.07990097,0.016586185,0.0008538942,0.00039706597,-0.010066556,-0.01159741,0.00684637,0.007014721,1.6121054,0.005707331,488.0305,0.1,0.4727957,0.3258601,0.16809517,0.11527661,inf,inf,inf,inf,1,1,1,1,2,2,2,2,1,0,1,1,0,0,0
29804000,29804000,4392000,47.3977508,8.5456073,-0.013155873,-0.0092338715,0.052497085,9.129138e-05,0.0076843225,-0.042087145,-0.024718199,-0.042530473,0.08195304,0.018608196,0.0008538942,0.00039706597,-0.010066556,-0.023444299,0.00033665853,0.024007631,1.611785,0.005707331,488.0305,0.1,0.48397845,0.33297297,0.17262496,0.117389396,inf,inf,inf,inf,1,1,1,1,2,2,2,2,1,0,1,1,0,0,0
30300000,30300000,4392000,47.3977508,8.5456073,-0.016332693,-0.014999062,0.07111927,9.129138e-05,0.0076843225,-0.042087145,-0.022043826,-0.047416914,0.08701949,0.031009022,0.0008538942,0.00039706597,-0.010066556,-0.06204466,-0.015377648,0.032030042,1.6117212,0.005707331,488.0305,0.1,0.49477804,0.33954746,0.17685921,0.119306274,inf,inf,inf,inf,1,1,1,1,2,2,2,2,1,0,1,1,0,0,0
30804000,30804000,4392000,47.3977508,8.5456073,-0.015513481,-0.013419549,0.08108009,9.129138e-05,0.0076843225,-0.042087145,-0.013329631,-0.045807928,0.089027785,0.029435823,0.0008538942,0.00039706597,-0.010066556,-0.036733747,-0.031144109,0.02699997,1.6122963,0.005707331,488.0305,0.1,0.4626059,0.3208096,0.16333878,0.11359842,inf,inf,inf,inf,1,1,1,1,2,2,2,2,1,0,1,1,0,0,0
31300000,31300000,4392000,47.3977508,8.5456073,-0.009534917,-0.009614987,0.086390786,9.129138e-05,0.0076843225,-0.042087145,-0.0078032184,-0.041507162,0.08907398,0.023453247,0.0008538942,0.00039706597,-0.010066556,-0.028640728,-0.009881623,0.033546235,1.6122663,0.005707331,488.0305,0.1,0.47243428,0.32706612,0.16745107,0.11550533,inf,inf,inf,inf,1,1,1,1,2,2,2,2,1,0,1,1,0,0,0
31804000,31804000,4392000,47.3977508,8.5456073,-0.0063515054,-0.010112491,0.095568165,9.129138e-05,0.0076843225,-0.042087145,0.0002530032,-0.042531993,0.08896935,0.021136403,0.0008538942,0.00039706597,-0.010066556,0.031152345,-0.032755703,0.039756294,1.6123861,0.005707331,488.0305,0.1,0.48359928,0.3326865,0.17198242,0.11732059,inf,inf,inf,inf,1,1,1,1,2,2,2,2,1,0,1,1,0,0,0
32300000,32300000,4392000,47.3977508,8.5456073,-0.0061602117,-0.013515783,0.10085847,9.129138e-05,0.0076843225,-0.042087145,0.00361957,-0.044019375,0.088286124,0.01715775,0.0008538942,0.00039706597,-0.010066556,-0.02966792,-0.014165969,0.0519203,1.6124146,0.005707331,488.0305,0.1,0.49438405,0.33914796,0.17621928,0.11920049,inf,inf,inf,inf,1,1,1,1,2,2,2,2,1,0,1,1,0,0,0
32804000,32804000,4392000,47.3977508,8.5456073,-0.003250458,-0.015506281,0.10433525,9.129138e-05,0.0076843225,-0.042087145,0.01285023,-0.041631266,0.08678233,0.013644729,0.0008538942,0.00039706597,-0.010066556,0.0023539758,-0.0060282033,0.02083089,1.6121975,0.005707331,488.0305,0.1,0.46236935,0.32173926,0.16285309,0.11373759,inf,inf,inf,inf,1,1,1,1,2,2,2,2,1,0,1,1,0,0,0
33300000,33300000,4392000,47.3977508,8.5456073,0.00036422443,-0.013520069,0.0959877,9.129138e-05,0.0076843225,-0.042087145,0.0194079,-0.039904617,0.08037042,-0.0027934406,0.0008538942,0.00039706597,-0.010066556,-0.0035193951,-0.072200455,0.026996246,1.6128956,0.005707331,488.0305,0.1,0.4721855,0.32659364,0.16697198,0.115384564,inf,inf,inf,inf,1,1,1,1,2,2,2,2,1,0,1,1,0,0,0
33804000,33804000,4392000,47.3977508,8.5456073,0.0011562605,-0.013111487,0.08935686,9.129138e-05,0.0076843225,-0.042087145,0.022966722,-0.03843775,0.071333975,-0.012248019,0.0008538942,0.00039706597,-0.010066556,0.03671352,-0.016744582,0.02853386,1.612835,0.005707331,488.0305,0.1,0.4833349,0.333652,0.1715201,0.11747718,inf,inf,inf,inf,1,1,1,1,2,2,2,2,1,0,1,1,0,0,0
34300000,34300000,4392000,47.3977508,8.5456073,0.003882472,-0.018957801,0.07861333,9.129138e-05,0.0076843225,-0.042087145,0.027034609,-0.04071795,0.061518032,-0.023709139,0.0008538942,0.00039706597,-0.010066556,0.0230504,-0.051973354,-0.0033909453,1.6125681,0.005707331,488.0305,0.10126669,0.49410668,0.3386104,0.17576689,0.11907617,inf,inf,inf,inf,1,1,1,1,2,2,2,2,1,0,1,1,0,0,0
34804000,34804000,4392000,47.3977508,8.5456073,0.007451741,-0.02031049,0.071728155,9.129138e-05,0.0076843225,-0.042087145,0.029255921,-0.043018322,0.05193355,-0.024828957,0.0008538942,0.00039706597,-0.010066556,0.032446004,-0.0069039813,0.0012433155,1.6123384,0.005707331,488.0305,0.1,0.4622023,0.32130462,0.1625396,0.11364721,inf,inf,inf,inf,1,1,1,1,2,2,2,2,1,0,1,1,0,0,0
35300000,35300000,4392000,47.3977508,8.5456073,0.014444223,-0.021745944,0.062480938,9.129138e-05,0.0076843225,-0.042087145,0.028988592,-0.04602409,0.043000612,-0.027774254,0.0008538942,0.00039706597,-0.010066556,0.0014946999,0.0012535164,0.021625308,1.6129013,0.005707331,488.0305,0.1,0.4720098,0.32753128,0.16667457,0.11554941,inf,inf,inf,inf,1,1,1,1,2,2,2,2,1,0,1,1,0,0,0
35804000,35804000,4392000,47.3977508,8.5456073,0.017164055,-0.022804387,0.059574794,9.129138e-05,0.0076843225,-0.042087145,0.026555791,-0.04864366,0.038158737,-0.022560537,0.0008538942,0.00039706597,-0.010066556,0.010758128,-0.050975762,0.012912787,1.613274,0.005707331,488.0305,0.105607316,0.48314947,0.33307505,0.17121647,0.117346376,inf,inf,inf,inf,1,1,1,1,2,2,2,2,1,0,1,1,0,0,0
36300000,36300000,4392000,47.3977508,8.5456073,0.022240218,-0.021535197,0.05256826,9.129138e-05,0.0076843225,-0.042087145,0.027756052,-0.047156148,0.031336986,-0.025105277,0.0008538942,0.00039706597,-0.010066556,0.009507668,-0.041376635,0.00946503,1.6136396,0.005707331,488.0305,0.106482565,0.49391216,0.3394708,0.17546782,0.11921312,inf,inf,inf,inf,1,1,1,1,2,2,2,2,1,0,1,1,0,0,0
36804000,36804000,4392000,47.3977508,8.5456073,0.029237682,-0.019649874,0.04445441,9.129138e-05,0.0076843225,-0.042087145,0.025831157,-0.04826167,0.02622628,-0.024949837,0.0008538942,0.00039706597,-0.010066556,-0.011578463,-0.032928903,0.013905576,1.6141894,0.005707331,488.0305,0.1,0.4620858,0.3219617,0.16229713,0.11373586,inf,inf,inf,inf,1,1,1,1,2,2,2,2,1,0,1,1,0,0,0
37300000,37300000,4392000,47.3977508,8.5456073,0.02622565,-0.017471928,0.03731078,9.129138e-05,0.0076843225,-0.042087145,0.020980643,-0.047214285,0.025798753,-0.02081176,0.0008538942,0.00039706597,-0.010066556,-0.013565382,-0.038393013,0.013328156,1.6144258,0.005707331,488.0305,0.10248214,0.4718847,0.32674485,0.1664075,0.11536757,inf,inf,inf,inf,1,1,1,1,2,2,2,2,1,0,1,1,0,0,0
37804000,37804000,4392000,47.3977508,8.5456073,0.021136217,-0.016941305,0.03525031,9.129138e-05,0.0076843225,-0.042087145,0.016004039,-0.044885617,0.028347217,-0.012746625,0.0008538942,0.00039706597,-0.010066556,0.009084527,-0.0013828975,0.00899285,1.6142952,0.005707331,488.0305,0.104901075,0.48301068,0.33368787,0.17092408,0.1174302,inf,inf,inf,inf,1,1,1,1,2,2,2,2,1,0,1,1,0,0,0
38300000,38300000,4392000,47.3977508,8.5456073,0.017529689,-0.012532185,0.033998583,9.129138e-05,0.0076843225,-0.042087145,0.012994159,-0.03958818,0.034458943,-0.004310118,0.0008538942,0.00039706597,-0.010066556,0.0022154562,-0.020419363,0.01369696,1.6146846,0.005707331,488.0305,0.10389915,0.49375787,0.34007293,0.17513835,0.1192979,inf,inf,inf,inf,1,1,1,1,2,2,2,2,1,0,1,1,0,0,0
38804000,38804000,4392000,47.3977508,8.5456073,0.015834574,-0.008321602,0.032412656,9.129138e-05,0.0076843225,-0.042087145,0.012235643,-0.036186494,0.04173087,0.0023285518,0.0008538942,0.00039706597,-0.010066556,0.023720356,-0.030275097,0.030570662,1.6143864,0.005707331,488.0305,0.1,0.46199653,0.32111102,0.16201232,0.11355354,inf,inf,inf,inf,1,1,1,1,2,2,2,2,1,0,1,1,0,0,0
39300000,39300000,4392000,47.3977508,8.5456073,0.017541917,-0.007777867,0.03273485,9.129138e-05,0.0076843225,-0.042087145,0.0160999,-0.03578426,0.05308139,0.009493304,0.0008538942,0.00039706597,-0.010066556,0.021608872,-0.05843049,0.018743796,1.6146165,0.005707331,488.0305,0.1,0.47178033,0.32724515,0.16608815,0.115439184,inf,inf,inf,inf,1,1,1,1,2,2,2,2,1,0,1,1,0,0,0
39804000,39804000,4392000,47.3977508,8.5456073,0.017716762,-0.004744997,0.031127824,9.129138e-05,0.0076843225,-0.042087145,0.016442034,-0.03260196,0.05963757,0.010219433,0.0008538942,0.00039706597,-0.010066556,0.021283353,0.03126745,0.046981495,1.6147193,0.005707331,488.0305,0.1,0.48288643,0.3327343,0.1705955,0.11723194,inf,inf,inf,inf,1,1,1,1,2,2,2,2,1,0,1,1,0,0,0
40300000,40300000,4392000,47.3977508,8.5456073,0.0195443,-0.0017683974,0.037123475,9.129138e-05,0.0076843225,-0.042087145,0.016519917,-0.028892737,0.06860361,0.018712472,0.0008538942,0.00039706597,-0.010066556,0.014644843,-0.013228665,0.032969747,1.6148164,0.005707331,488.0305,0.1,0.4936142,0.33912617,0.17480499,0.11910783,inf,inf,inf,inf,1,1,1,1,2,2,2,2,1,0,1,1,0,0,0
40804000,40804000,4392000,47.3977508,8.5456073,0.016925154,-0.0035329121,0.049170136,9.129138e-05,0.0076843225,-0.042087145,0.014855382,-0.030028591,0.07966725,0.031196699,0.0008538942,0.00039706597,-0.010066556,-0.010759613,-0.011268086,0.032855194,1.6149905,0.005707331,488.0305,0.1,0.46181554,0.32162052,0.16170414,0.11362876,inf,inf,inf,inf,1,1,1,1,2,2,2,2,1,0,1,1,0,0,0
41300000,41300000,4392000,47.3977508,8.5456073,0.012569706,-0.0010434891,0.05693354,9.129138e-05,0.0076843225,-0.042087145,0.010466802,-0.031949148,0.08544661,0.029949151,0.0008538942,0.00039706597,-0.010066556,0.0047916323,-0.011193129,0.058979724,1.615249,0.005707331,488.0305,0.1,0.47159094,0.3264674,0.1658222,0.11528863,inf,inf,inf,inf,1,1,1,1,2,2,2,2,1,0,1,1,0,0,0
41804000,41804000,4392000,47.3977508,8.5456073,0.007990451,-0.0040132906,0.067469634,9.129138e-05,0.0076843225,-0.042087145,0.0026906685,-0.033198383,0.09362889,0.033293486,0.0008538942,0.00039706597,-0.010066556,-0.008615286,-0.018450052,0.053859312,1.6153085,0.005707331,488.0305,0.1,0.48269168,0.33347672,0.17034744,0.117374584,inf,inf,inf,inf,1,1,1,1,2,2,2,2,1,0,1,1,0,0,0
42300000,42300000,4392000,47.3977508,8.5456073,0.005340968,-0.0073350933,0.080356315,9.129138e-05,0.0076843225,-0.042087145,-0.0029038927,-0.02938827,0.09917237,0.0354631,0.0008538942,0.00039706597,-0.010066556,-0.01812118,0.009485738,0.04066806,1.6151365,0.005707331,488.0305,0.1,0.49341956,0.33839476,0.1745972,0.11896816,inf,inf,inf,inf,1,1,1,1,2,2,2,2,1,0,1,1,0,0,0
42804000,42804000,4392000,47.3977508,8.5456073,0.0029079218,-0.010822827,0.09364785,9.129138e-05,0.0076843225,-0.042087145,-0.007550568,-0.026609715,0.10203596,0.03599398,0.0008538942,0.00039706597,-0.010066556,-0.0005797046,0.015774988,0.037946735,1.6153238,0.005707331,488.0305,0.1,0.46179065,0.3211328,0.16164343,0.113561705,inf,inf,inf,inf,1,1,1,1,2,2,2,2,1,0,1,1,0,0,0
43300000,43300000,4392000,47.3977508,8.5456073,-0.0030880393,-0.00908488,0.09699727,9.129138e-05,0.0076843225,-0.042087145,-0.012027266,-0.022152724,0.10344886,0.027018793,0.0008538942,0.00039706597,-0.010066556,-0.016771277,-0.006117261,0.047447156,1.6151888,0.005707331,488.0305,0.1,0.47156408,0.32735488,0.1657644,0.11546438,inf,inf,inf,inf,1,1,1,1,2,2,2,2,1,0,1,1,0,0,0
43804000,43804000,4392000,47.3977508,8.5456073,-0.004669097,-0.0069678174,0.09879161,9.129138e-05,0.0076843225,-0.042087145,-0.01310797,-0.014568221,0.1037143,0.018271785,0.0008538942,0.00039706597,-0.010066556,-5.9852024e-05,0.027771208,-0.005359761,1.6155481,0.005707331,488.0305,0.1,0.48266256,0.33289093,0.17029525,0.11725864,inf,inf,inf,inf,1,1,1,1,2,2,2,2,1,0,1,1,0,0,0
44300000,44300000,4392000,47.3977508,8.5456073,-0.0024826026,-0.007154055,0.10530164,9.129138e-05,0.0076843225,-0.042087145,-0.015727777,-0.012919974,0.10598519,0.020322187,0.0008538942,0.00039706597,-0.010066556,-0.013256685,-0.023555286,0.06716698,1.6157807,0.005707331,488.0305,0.1,0.49338856,0.33928356,0.17454173,0.11912345,inf,inf,inf,inf,1,1,1,1,2,2,2,2,1,0,1,1,0,0,0
44804000,44804000,4392000,47.3977508,8.5456073,-0.0026792376,-0.0073139607,0.11543441,9.129138e-05,0.0076843225,-0.042087145,-0.015285122,-0.012062537,0.10607399,0.02266176,0.0008538942,0.00039706597,-0.010066556,0.013183962,-0.040996104,0.013321637,1.6161935,0.005707331,488.0305,0.1,0.4617723,0.32181284,0.1615952,0.11365948,inf,inf,inf,inf,1,1,1,1,2,2,2,2,1,0,1,1,0,0,0
45300000,45300000,4392000,47.3977508,8.5456073,0.0014150309,-0.0067843157,0.11383654,9.129138e-05,0.0076843225,-0.042087145,-0.012535782,-0.010896904,0.10178638,0.010588901,0.0008538942,0.00039706597,-0.010066556,-0.0363201,0.0015793483,0.04754774,1.6165053,0.005707331,488.0305,0.1,0.47154412,0.3265943,0.1657261,0.115289114,inf,inf,inf,inf,1,1,1,1,2,2,2,2,1,0,1,1,0,0,0
45804000,45804000,4392000,47.3977508,8.5456073,0.005310515,-0.0075363764,0.11524873,9.129138e-05,0.0076843225,-0.042087145,-0.009875288,-0.010982331,0.099322766,0.0061604297,0.0008538942,0.00039706597,-0.010066556,0.01692491,-0.0011582159,0.004386529,1.6169877,0.005707331,488.0305,0.1,0.48264137,0.3335622,0.17026149,0.11735999,inf,inf,inf,inf,1,1,1,1,2,2,2,2,1,0,1,1,0,0,0
46300000,46300000,4392000,47.3977508,8.5456073,0.0041886526,-0.0069819978,0.11964859,9.129138e-05,0.0076843225,-0.042087145,-0.0058627604,-0.009845551,0.09553988,0.00563985,0.0008538942,0.00039706597,-0.010066556,-0.023383908,-0.018649647,0.030622816,1.6171898,0.005707331,488.0305,0.101408735,0.49336654,0.33843115,0.17451823,0.11893962,inf,inf,inf,inf,1,1,1,1,2,2,2,2,1,0,1,1,0,0,0
46804000,46804000,4392000,47.3977508,8.5456073,0.0035508503,-0.008287521,0.12537263,9.129138e-05,0.0076843225,-0.042087145,-0.00021067113,-0.009315968,0.097794384,0.011563984,0.0008538942,0.00039706597,-0.010066556,0.0716818,0.02838118,0.04470441,1.6171726,0.005707331,488.0305,0.1,0.46175876,0.3212179,0.16157058,0.11355861,inf,inf,inf,inf,1,1,1,1,2,2,2,2,1,0,1,1,0,0,0
47300000,47300000,4392000,47.3977508,8.5456073,0.004712104,-0.0023517893,0.11788033,9.129138e-05,0.0076843225,-0.042087145,0.0035728074,-0.00902707,0.08765756,-0.005345087,0.0008538942,0.00039706597,-0.010066556,0.03545514,-0.02499217,-0.009923241,1.6176169,0.005707331,488.0305,0.1,0.47152916,0.3262005,0.16570662,0.11525564,inf,inf,inf,inf,1,1,1,1,2,2,2,2,1,0,1,1,0,0,0
47804000,47804000,4392000,47.3977508,8.5456073,0.008400455,-0.001396396,0.11698329,9.129138e-05,0.0076843225,-0.042087145,0.004876938,-0.009080809,0.0860028,-0.004451015,0.0008538942,0.00039706597,-0.010066556,-0.00029604413,-0.030327484,0.056262124,1.6176822,0.005707331,488.0305,0.1,0.4826256,0.3333414,0.17024195,0.11737369,inf,inf,inf,inf,1,1,1,1,2,2,2,2,1,0,1,1,0,0,0
48300000,48300000,4392000,47.3977508,8.5456073,0.010834366,-0.0009312605,0.115054764,9.129138e-05,0.0076843225,-0.042087145,0.0057888567,-0.012418531,0.085306056,-0.004138965,0.0008538942,0.00039706597,-0.010066556,0.05020519,0.007551134,0.03406405,1.6180849,0.005707331,488.0305,0.10197411,0.49334878,0.3383319,0.17447703,0.11897687,inf,inf,inf,inf,1,1,1,1,2,2,2,2,1,0,1,1,0,0,0
48804000,48804000,4392000,47.3977508,8.5456073,0.019369073,-0.0025762157,0.11956005,9.129138e-05,0.0076843225,-0.042087145,0.008984752,-0.016385313,0.087085046,0.004472686,0.0008538942,0.00039706597,-0.010066556,-0.0030284135,-0.036981113,0.01577474,1.6181774,0.005707331,488.0305,0.1,0.4617489,0.3211,0.16153392,0.113565095,inf,inf,inf,inf,1,1,1,1,2,2,2,2,1,0,1,1,0,0,0
49300000,49300000,4392000,47.3977508,8.5456073,0.022333268,-0.01182411,0.11941915,9.129138e-05,0.0076843225,-0.042087145,0.0057614762,-0.021502756,0.08864539,0.0039526075,0.0008538942,0.00039706597,-0.010066556,0.016590806,-0.015251003,0.014678574,1.6184348,0.005707331,488.0305,0.1,0.47151664,0.3259574,0.16564244,0.11520916,inf,inf,inf,inf,1,1,1,1,2,2,2,2,1,0,1,1,0,0,0
49804000,49804000,4392000,47.3977508,8.5456073,0.02097654,-0.012603517,0.12164246,9.129138e-05,0.0076843225,-0.042087145,-8.493792e-05,-0.022965403,0.09225509,0.0067496146,0.0008538942,0.00039706597,-0.010066556,-0.026616383,-0.008692702,0.025966203,1.6183623,0.005707331,488.0305,0.1,0.48260716,0.33298984,0.17015533,0.11728988,inf,inf,inf,inf,1,1,1,1,2,2,2,2,1,0,1,1,0,0,0
50300000,50300000,4392000,47.3977508,8.5456073,0.015154491,-0.011704684,0.12488883,9.129138e-05,0.0076843225,-0.042087145,-0.010600142,-0.02137674,0.092593975,0.0073345974,0.0008538942,0.00039706597,-0.010066556,-0.0006523623,0.0062171454,0.019998288,1.6181861,0.005707331,488.0305,0.100824334,0.49332404,0.33944768,0.17439303,0.11916841,inf,inf,inf,inf,1,1,1,1,2,2,2,2,1,0,1,1,0,0,0
50804000,50804000,4392000,47.3977508,8.5456073,0.005561942,-0.007990514,0.12639992,9.129138e-05,0.0076843225,-0.042087145,-0.021230146,-0.01936716,0.09258641,0.007882256,0.0008538942,0.00039706597,-0.010066556,-0.013146934,-0.036873735,0.011228024,1.6180841,0.005707331,488.0305,0.1,0.4616279,0.32056713,0.16139086,0.11341645,inf,inf,inf,inf,1,1,1,1,2,2,2,2,1,0,1,1,0,0,0
51300000,51300000,4392000,47.3977508,8.5456073,0.001359968,-0.008273799,0.12201609,9.129138e-05,0.0076843225,-0.042087145,-0.023220435,-0.020475056,0.0913662,0.0017362416,0.0008538942,0.00039706597,-0.010066556,-0.021380728,-0.0039263684,-0.0071479003,1.618238,0.005707331,488.0305,0.1,0.4712799,0.32666066,0.16542903,0.115273274,inf,inf,inf,inf,1,1,1,1,2,2,2,2,1,0,1,1,0,0,0
51804000,51804000,4392000,47.3977508,8.5456073,-0.0028195234,-0.01136689,0.12167605,9.129138e-05,0.0076843225,-0.042087145,-0.022833541,-0.019434247,0.09001274,2.8141541e-05,0.0008538942,0.00039706597,-0.010066556,-0.054559086,-0.046881802,0.022300517,1.6186031,0.005707331,488.0305,0.1,0.4823759,0.33364958,0.16998968,0.11735654,inf,inf,inf,inf,1,1,1,1,2,2,2,2,1,0,1,1,0,0,0
52300000,52300000,4392000,47.3977508,8.5456073,-0.006869877,-0.011374608,0.12285995,9.129138e-05,0.0076843225,-0.042087145,-0.025584681,-0.01964226,0.090456866,0.0022249343,0.0008538942,0.00039706597,-0.010066556,-0.029383821,0.009912735,0.072242685,1.6185545,0.005707331,488.0305,0.102052055,0.49310452,0.3385353,0.17425866,0.11894858,inf,inf,inf,inf,1,1,1,1,2,2,2,2,1,0,1,1,0,0,0
52804000,52804000,4392000,47.3977508,8.5456073,-0.009046897,-0.010155181,0.12146579,9.129138e-05,0.0076843225,-0.042087145,-0.024400285,-0.017526412,0.088068515,0.00038221618,0.0008538942,0.00039706597,-0.010066556,-0.042558316,-0.04856256,0.00018347053,1.6189317,0.005707331,488.0305,0.1,0.46159548,0.32129443,0.16139749,0.11356687,inf,inf,inf,inf,1,1,1,1,2,2,2,2,1,0,1,1,0,0,0
53300000,53300000,4392000,47.3977508,8.5456073,-0.0068852594,-0.0094201425,0.11644048,9.129138e-05,0.0076843225,-0.042087145,-0.02531356,-0.014512983,0.087940454,-0.002859175,0.0008538942,0.00039706597,-0.010066556,-0.03758012,0.00025425103,0.024607403,1.6192187,0.005707331,488.0305,0.1,0.47136876,0.32615292,0.16552249,0.11522911,inf,inf,inf,inf,1,1,1,1,2,2,2,2,1,0,1,1,0,0,0
53804000,53804000,4392000,47.3977508,8.5456073,-0.0037647507,-0.003802988,0.11399704,9.129138e-05,0.0076843225,-0.042087145,-0.024057064,-0.010816815,0.08627278,-0.0049308036,0.0008538942,0.00039706597,-0.010066556,-0.04220742,0.012871576,0.009843147,1.6193786,0.005707331,488.0305,0.1,0.48246592,0.33315867,0.17006125,0.11731551,inf,inf,inf,inf,1,1,1,1,2,2,2,2,1,0,1,1,0,0,0
54300000,54300000,4392000,47.3977508,8.5456073,-0.0030558472,-0.0012079587,0.11540895,9.129138e-05,0.0076843225,-0.042087145,-0.023472913,-0.007829623,0.08814442,0.00021616556,0.0008538942,0.00039706597,-0.010066556,0.0010181465,-0.0040169396,0.045382414,1.6194758,0.005707331,488.0305,0.10274995,0.49305683,0.33954427,0.17421654,0.119173795,inf,inf,inf,inf,1,1,1,1,2,2,2,2,1,0,1,1,0,0,0
54804000,54804000,4392000,47.3977508,8.5456073,-0.0049888236,0.008331104,0.11586069,9.129138e-05,0.0076843225,-0.042087145,-0.026699355,-0.0035758824,0.08762636,0.0017583449,0.0008538942,0.00039706597,-0.010066556,-0.016593898,-0.001899636,0.029941088,1.6194929,0.005707331,488.0305,0.1,0.46156523,0.3207894,0.161365,0.11349129,inf,inf,inf,inf,1,1,1,1,2,2,2,2,1,0,1,1,0,0,0
55300000,55300000,4392000,47.3977508,8.5456073,-0.010152541,0.013826111,0.113541685,9.129138e-05,0.0076843225,-0.042087145,-0.030818827,-0.00038191475,0.08541713,-0.0014332628,0.0008538942,0.00039706597,-0.010066556,-0.0418206,-0.04947453,0.0103777265,1.619585,0.005707331,488.0305,0.1,0.4713403,0.3270104,0.16550133,0.11540229,inf,inf,inf,inf,1,1,1,1,2,2,2,2,1,0,1,1,0,0,0
55804000,55804000,4392000,47.3977508,8.5456073,-0.016433362,0.009556645,0.114750475,9.129138e-05,0.0076843225,-0.042087145,-0.03194368,-0.0029776655,0.08463994,-0.00029957434,0.0008538942,0.00039706597,-0.010066556,-0.038976103,0.022702035,0.030823981,1.6201166,0.005707331,488.0305,0.11156356,0.48243964,0.33259428,0.17004725,0.11722063,inf,inf,inf,inf,1,1,1,1,2,2,2,2,1,0,1,1,0,0,0
56300000,56300000,4392000,47.3977508,8.5456073,-0.0244214,0.00504508,0.1173257,9.129138e-05,0.0076843225,-0.042087145,-0.033690605,-0.006624641,0.08510078,0.002253466,0.0008538942,0.00039706597,-0.010066556,0.006974871,-0.0013048265,0.030286608,1.619924,0.005707331,488.0305,0.110953026,0.4931679,0.33904877,0.17429653,0.11911136,inf,inf,inf,inf,1,1,1,1,2,2,2,2,1,0,1,1,0,0,0
56804000,56804000,4392000,47.3977508,8.5456073,-0.026911525,-0.0037582144,0.118488856,9.129138e-05,0.0076843225,-0.042087145,-0.0319562,-0.01409945,0.085265644,0.0039587086,0.0008538942,0.00039706597,-0.010066556,-0.032395646,0.015926853,0.02235826,1.619884,0.005707331,488.0305,0.10978987,0.4616353,0.32166418,0.16141087,0.113671206,inf,inf,inf,inf,1,1,1,1,2,2,2,2,1,0,1,1,0,0,0
57300000,57300000,4392000,47.3977508,8.5456073,-0.024332171,-0.005020083,0.11503294,9.129138e-05,0.0076843225,-0.042087145,-0.029058902,-0.015088954,0.08150948,-0.0022617457,0.0008538942,0.00039706597,-0.010066556,-0.017486934,-0.0032592504,0.007435679,1.6202762,0.005707331,488.0305,0.113245785,0.47140682,0.32651904,0.16553485,0.115325056,inf,inf,inf,inf,1,1,1,1,2,2,2,2,1,0,1,1,0,0,0
57804000,57804000,4392000,47.3977508,8.5456073,-0.018654985,-0.002998459,0.11331146,9.129138e-05,0.0076843225,-0.042087145,-0.025433209,-0.014377733,0.06401617,-0.019013347,0.0008538942,0.00039706597,-0.010066556,-0.015815595,-0.06998691,-0.22140424,1.6205235,0.005707331,488.0305,0.114967264,0.4825018,0.33355442,0.17007713,0.11741445,inf,inf,inf,inf,1,1,1,1,2,2,2,2,1,0,1,1,0,0,0
58300000,58300000,4392000,47.3977508,8.5456073,-0.014571257,-0.034573283,0.060711503,9.129138e-05,0.0076843225,-0.042087145,-0.022545964,-0.19661279,-0.20203686,-0.27795693,0.0008538942,0.00039706597,-0.010066556,-0.009498239,-0.29919618,-0.8656494,1.6198802,0.005707331,488.0305,0.16756722,0.4932634,0.33844224,0.17526835,0.11898985,inf,inf,inf,inf,1,1,1,1,2,2,2,2,1,0,1,1,0,0,0
58804000,58804000,4392000,47.3977508,8.5456073,-0.015732333,-0.121433534,-0.18608,9.129138e-05,0.0076843225,-0.042087145,-0.024841173,-0.16386116,-0.6135767,-0.68243736,0.0008538942,0.00039706597,-0.010066556,-0.028803514,0.1383764,-0.16363895,1.6199788,0.005707331,488.0305,0.41435874,0.46164283,0.32112703,0.16397832,0.11356708,inf,inf,inf,inf,1,1,1,1,2,2,2,2,1,0,1,1,0,0,0
59300000,59300000,4392000,47.3977508,8.5456073,-0.025546407,-0.17979993,-0.5162883,9.129138e-05,0.0076843225,-0.042087145,-0.025174305,-0.06884118,-0.6220156,-0.6887767,0.0008538942,0.00039706597,-0.010066556,-0.018679725,0.22255032,-0.07786694,1.6200923,0.005707331,488.0305,0.74456704,0.4715576,0.3273098,0.16764766,0.11546141,inf,inf,inf,inf,1,1,1,1,2,2,2,2,1,0,1,1,0,0,0
59804000,59804000,4392000,47.3977508,8.5456073,-0.026909191,-0.20051873,-0.87644196,9.129138e-05,0.0076843225,-0.042087145,-0.009429536,0.02494268,-0.64088035,-0.71293926,0.0008538942,0.00039706597,-0.010066556,0.012799886,0.17266455,0.05963165,1.6199802,0.005707331,488.0305,1.1047207,0.4827808,0.33283415,0.1717668,0.117258,inf,inf,inf,inf,1,1,1,1,2,2,2,2,1,0,1,1,0,0,0
60300000,60300000,4392000,47.3977508,8.5456073,-0.01563643,-0.18659922,-1.226788,9.129138e-05,0.0076843225,-0.042087145,-0.0023439168,0.07892226,-0.6098663,-0.6833389,0.0008538942,0.00039706597,-0.010066556,0.00067237846,0.06053116,0.15745963,1.6204904,0.005707331,488.0305,1.4550668,0.49358174,0.33926257,0.17537633,0.11914005,inf,inf,inf,inf,1,1,1,1,2,2,2,2,1,0,1,1,0,0,0
60804000,60804000,4392000,47.3977508,8.5456073,-0.0097921025,-0.15804483,-1.5527288,9.129138e-05,0.0076843225,-0.042087145,-0.005399192,0.09804345,-0.5409095,-0.61104184,0.0008538942,0.00039706597,-0.010066556,-0.02448764,0.03839118,0.15877372,1.6214441,-0.00034564736,488.0305,1.7810075,0.46239036,0.32051736,0.1637542,0.11345303,inf,inf,inf,inf,1,1,1,1,2,2,2,2,2,0,1,1,0,0,0
61300000,61300000,4392000,47.3977508,8.5456073,-0.006495111,-0.11560798,-1.806908,9.129138e-05,0.0076843225,-0.042087145,-0.011502953,0.08927565,-0.20071897,-0.27520823,0.0008538942,0.00039706597,-0.010066556,0.016832767,-0.06508057,1.0065864,1.619651,-0.00034564736,488.0305,2.0351868,0.47147322,0.32672724,0.23805505,0.115364,inf,inf,inf,inf,1,1,1,1,2,2,2,2,2,0,1,1,0,0,0
61804000,61804000,4392000,47.3977508,8.5456073,-0.014121209,-0.07618522,-1.9092493,9.129138e-05,0.0076843225,-0.042087145,-0.009724126,0.0734342,-0.15382935,-0.22689627,0.0008538942,0.00039706597,-0.010066556,0.015336546,-0.008177986,-0.072777264,1.6237515,-0.00034564736,488.0305,2.137528,0.4829674,0.33225083,0.30888417,0.11716803,inf,inf,inf,inf,1,1,1,1,2,2,2,2,2,1,1,1,0,0,0
62300000,62300000,4392000,47.3977508,8.5456073,-0.027360586,-0.048095852,-2.0140266,9.129138e-05,0.0076843225,-0.042087145,-0.007138699,0.047934353,-0.13972186,-0.20615497,0.0008538942,0.00039706597,-0.010066556,0.052148808,-0.045098085,0.07807928,1.6228678,-0.00034564736,488.0305,2.2423053,0.498201,0.3386993,0.3375865,0.11907131,inf,inf,inf,inf,1,1,1,1,2,2,2,2,2,1,1,1,0,0,0
62804000,62804000,4392000,47.3977508,8.5456073,-0.028464355,-0.04082153,-2.1046984,9.129138e-05,0.0076843225,-0.042087145,0.008653234,0.022445802,-0.104771875,-0.16653794,0.0008538942,0.00039706597,-0.010066556,0.03767975,-0.0321345,0.09559932,1.6219342,-0.00034564736,488.0305,2.332977,0.46238288,0.3213775,0.26411363,0.113666326,inf,inf,inf,inf,1,1,1,1,2,2,2,2,2,1,1,1,0,0,0
63300000,63300000,4392000,47.3977508,8.5456073,-0.038726173,-0.041546956,-2.1844118,9.129138e-05,0.0076843225,-0.042087145,0.0088902535,0.01400277,-0.07246734,-0.13811599,0.0008538942,0.00039706597,-0.010066556,0.035774775,-0.021440718,0.061841678,1.6236101,-0.00034564736,488.0305,2.4126904,0.47441855,0.32618165,0.263935,0.11531949,inf,inf,inf,inf,1,1,1,1,2,2,2,2,2,1,1,1,0,0,0
63804000,63804000,4392000,47.3977508,8.5456073,-0.044107508,-0.03546809,-2.2454872,9.129138e-05,0.0076843225,-0.042087145,0.015409728,0.013762469,-0.041213654,-0.106508814,0.0008538942,0.00039706597,-0.010066556,0.035957925,-0.029496381,0.09408127,1.62292,-0.00034564736,488.0305,2.4737659,0.4891583,0.33321795,0.26174074,0.11744665,inf,inf,inf,inf,1,1,1,1,2,2,2,2,2,1,1,1,0,0,0
64300000,64300000,4392000,47.3977508,8.5456073,-0.04923541,-0.031055659,-2.2890134,9.129138e-05,0.0076843225,-0.042087145,0.01853369,0.009575703,-0.018595777,-0.08052782,0.0008538942,0.00039706597,-0.010066556,-0.00015374097,0.010593954,0.06826594,1.6234161,-0.00034564736,488.0305,2.517292,0.5036174,0.33969113,0.2570866,0.11937493,inf,inf,inf,inf,1,1,1,1,2,2,2,2,2,1,1,1,0,0,0
64804000,64804000,4392000,47.3977508,8.5456073,-0.058562983,-0.02345554,-2.3232627,9.129138e-05,0.0076843225,-0.042087145,0.02327074,0.0092740655,-0.0005799788,-0.059804827,0.0008538942,0.00039706597,-0.010066556,0.023942031,-0.029073225,0.0320496,1.6230872,-0.00034564736,488.0305,2.5515413,0.46564987,0.3208553,0.21347079,0.1136793,inf,inf,inf,inf,1,1,1,1,2,2,2,2,2,1,1,1,0,0,0
65300000,65300000,4392000,47.3977508,8.5456073,-0.05664831,-0.011019689,-2.3515413,9.129138e-05,0.0076843225,-0.042087145,0.033686664,0.008374769,0.008977873,-0.050590225,0.0008538942,0.00039706597,-0.010066556,0.04595662,0.033864938,0.061648894,1.6231428,-0.00034564736,488.0305,2.57982,0.4775168,0.32704887,0.2115766,0.115608424,inf,inf,inf,inf,1,1,1,1,2,2,2,2,2,1,1,1,0,0,0
65804000,65804000,4392000,47.3977508,8.5456073,-0.042363547,0.011077,-2.3735147,9.129138e-05,0.0076843225,-0.042087145,0.035546966,0.0011584425,0.0184082,-0.040865354,0.0008538942,0.00039706597,-0.010066556,-0.0005199399,-0.062659435,0.07220171,1.6233777,-0.00034564736,488.0305,2.6017933,0.490762,0.332574,0.21000113,0.11743325,inf,inf,inf,inf,1,1,1,1,2,2,2,2,2,1,1,1,0,0,0
66300000,66300000,4392000,47.3977508,8.5456073,-0.031668026,0.020628275,-2.3824232,9.129138e-05,0.0076843225,-0.042087145,0.031099465,-0.013850831,0.028126558,-0.023887552,0.0008538942,0.00039706597,-0.010066556,-0.00951482,-0.05117028,0.0058831642,1.6230166,-0.00034564736,488.0305,2.6107018,0.5031671,0.33902174,0.20803614,0.11934595,inf,inf,inf,inf,1,1,1,1,2,2,2,2,2,1,1,1,0,0,0
66804000,66804000,4392000,47.3977508,8.5456073,-0.025203926,0.0148026915,-2.3890522,9.129138e-05,0.0076843225,-0.042087145,0.022940675,-0.023435501,0.028188478,-0.018581849,0.0008538942,0.00039706597,-0.010066556,0.017754463,-0.018380698,-0.015525146,1.623419,-0.00034564736,488.0305,2.6173308,0.46685773,0.32162738,0.182029,0.11390003,inf,inf,inf,inf,1,1,1,1,2,2,2,2,2,1,1,1,0,0,0
67300000,67300000,4392000,47.3977508,8.5456073,-0.017088119,0.013164626,-2.3951604,9.129138e-05,0.0076843225,-0.042087145,0.016475173,-0.020523136,0.028830294,-0.014867141,0.0008538942,0.00039706597,-0.010066556,-0.02587096,-0.01653668,0.031931322,1.622959,-0.00034564736,488.0305,2.623439,0.47753012,0.32644755,0.18204138,0.11555617,inf,inf,inf,inf,1,1,1,1,2,2,2,2,2,1,1,1,0,0,0
67804000,67804000,4392000,47.3977508,8.5456073,-0.014466524,0.005015137,-2.3955216,9.129138e-05,0.0076843225,-0.042087145,0.009271218,-0.014991517,0.022194318,-0.01512454,0.0008538942,0.00039706597,-0.010066556,0.006406968,0.028096851,0.021684913,1.6230878,-0.00034564736,488.0305,2.6238003,0.4892797,0.33348015,0.18280442,0.11765817,inf,inf,inf,inf,1,1,1,1,2,2,2,2,2,1,1,1,0,0,0
68300000,68300000,4392000,47.3977508,8.5456073,-0.013724525,-0.005780555,-2.3999717,9.129138e-05,0.0076843225,-0.042087145,0.008320207,-0.008393629,0.025431106,-0.010234816,0.0008538942,0.00039706597,-0.010066556,-0.007494978,0.04020202,0.035138797,1.6230651,-0.00034564736,488.0305,2.6282504,0.5002122,0.33996427,0.18364683,0.11956141,inf,inf,inf,inf,1,1,1,1,2,2,2,2,2,1,1,1,0,0,0
68804000,68804000,4392000,47.3977508,8.5456073,-0.012726281,-0.018014297,-2.3985794,9.129138e-05,0.0076843225,-0.042087145,0.008238878,0.0032209132,0.023266701,-0.0069985967,0.0008538942,0.00039706597,-0.010066556,0.04595224,0.013221564,-0.010862014,1.623156,-0.00034564736,488.0305,2.626858,0.46591663,0.3210727,0.1661403,0.11381139,inf,inf,inf,inf,1,1,1,1,2,2,2,2,2,1,1,1,0,0,0
69300000,69300000,4392000,47.3977508,8.5456073,-0.011008817,-0.03563676,-2.3957584,9.129138e-05,0.0076843225,-0.042087145,0.007980303,0.011590284,0.018301623,-0.006478263,0.0008538942,0.00039706597,-0.010066556,0.018593185,0.026636727,-0.01600664,1.6228244,-0.00034564736,488.0305,2.624037,0.47561604,0.3272709,0.16847643,0.11571546,inf,inf,inf,inf,1,1,1,1,2,2,2,2,2,1,1,1,0,0,0
69804000,69804000,4392000,47.3977508,8.5456073,-0.010741938,-0.04723157,-2.3942313,9.129138e-05,0.0076843225,-0.042087145,0.0051562693,0.021606538,0.012856524,-0.0076556723,0.0008538942,0.00039706597,-0.010066556,0.011052143,0.010275397,-0.014339573,1.6232355,-0.00034564736,488.0305,2.62251,0.48641816,0.33278245,0.17167261,0.1175116,inf,inf,inf,inf,1,1,1,1,2,2,2,2,2,1,1,1,0,0,0
70300000,70300000,4392000,47.3977508,8.5456073,-0.010194878,-0.058424667,-2.3949862,9.129138e-05,0.0076843225,-0.042087145,0.0027879758,0.029250607,0.014683109,-0.0041067144,0.0008538942,0.00039706597,-0.010066556,0.019317215,0.06016249,0.017174518,1.6232069,-0.00034564736,488.0305,2.6232648,0.49663296,0.33927864,0.17502141,0.11942054,inf,inf,inf,inf,1,1,1,1,2,2,2,2,2,1,1,1,0,0,0
70804000,70804000,4392000,47.3977508,8.5456073,-0.009002053,-0.060204607,-2.3853467,9.129138e-05,0.0076843225,-0.042087145,0.0007770082,0.04127419,0.010547838,0.0018172618,0.0008538942,0.00039706597,-0.010066556,-0.006782247,0.046240587,-0.033720393,1.6229504,-0.00034564736,488.0305,2.6136253,0.46395442,0.3206009,0.16160329,0.11373024,inf,inf,inf,inf,1,1,1,1,2,2,2,2,2,1,1,1,0,0,0
71300000,71300000,4392000,47.3977508,8.5456073,-0.0077777593,-0.05565555,-2.3717375,9.129138e-05,0.0076843225,-0.042087145,0.0033861075,0.049023226,-0.008013254,-0.0043657976,0.0008538942,0.00039706597,-0.010066556,0.001027125,0.029040368,-0.048911195,1.6229402,-0.00034564736,488.0305,2.600016,0.47326794,0.32687154,0.16581917,0.11565446,inf,inf,inf,inf,1,1,1,1,2,2,2,2,2,1,1,1,0,0,0
71804000,71804000,4392000,47.3977508,8.5456073,-0.004959797,-0.044236533,-2.3687775,9.129138e-05,0.0076843225,-0.042087145,0.0027055305,0.044625722,-0.012960768,-0.005226467,0.0008538942,0.00039706597,-0.010066556,-0.012527976,0.008595059,0.006338581,1.6229737,-0.00034564736,488.0305,2.5970562,0.48386458,0.33249515,0.17067665,0.11748067,inf,inf,inf,inf,1,1,1,1,2,2,2,2,2,1,1,1,0,0,0
72300000,72300000,4392000,47.3977508,8.5456073,-0.0012454507,-0.03577557,-2.364276,9.129138e-05,0.0076843225,-0.042087145,0.0028262092,0.036262956,-0.017590543,-0.0048728064,0.0008538942,0.00039706597,-0.010066556,-0.017402306,0.033058703,0.01812726,1.6228857,-0.00034564736,488.0305,2.5925546,0.49411872,0.33901778,0.17545338,0.11938899,inf,inf,inf,inf,1,1,1,1,2,2,2,2,2,1,1,1,0,0,0
72804000,72804000,4392000,47.3977508,8.5456073,-0.0025049297,-0.02900691,-2.3591208,9.129138e-05,0.0076843225,-0.042087145,0.0010548452,0.031570617,-0.02618073,-0.007649533,0.0008538942,0.00039706597,-0.010066556,-0.014361983,0.00024770267,-0.05926657,1.6229281,-0.00034564736,488.0305,2.5873995,0.46234548,0.32039517,0.16299391,0.11370329,inf,inf,inf,inf,1,1,1,1,2,2,2,2,2,1,1,1,0,0,0
73300000,73300000,4392000,47.3977508,8.5456073,-0.0024919696,-0.036198225,-2.3600101,9.129138e-05,0.0076843225,-0.042087145,0.0019509034,0.02371763,-0.02423932,-0.004660462,0.0008538942,0.00039706597,-0.010066556,-0.0021474988,-0.03756299,0.007574446,1.6229265,-0.00034564736,488.0305,2.5882888,0.47181165,0.32670894,0.16776936,0.11563674,inf,inf,inf,inf,1,1,1,1,2,2,2,2,2,1,1,1,0,0,0
73804000,73804000,4392000,47.3977508,8.5456073,4.102949e-07,-0.042020403,-2.2721772,9.129138e-05,0.0076843225,-0.042087145,0.0005330805,0.0049075605,0.5458224,0.56544024,0.0008538942,0.00039706597,-0.010066556,-0.046647888,-0.02360127,2.0600152,1.6226218,-0.00034564736,488.0305,2.5004559,0.48264873,0.33237264,0.17136997,0.11746901,inf,inf,inf,inf,1,1,1,1,2,2,2,2,2,1,1,1,0,0,0
74300000,74300000,4392000,47.3977508,8.5456073,-0.0008043765,-0.04593421,-1.9211776,9.129138e-05,0.0076843225,-0.042087145,0.0020882918,0.008332666,0.6518795,0.6616671,0.0008538942,0.00039706597,-0.010066556,0.0070500313,0.02787393,-0.43110266,1.6227263,-0.00034564736,488.0305,2.1494563,0.493098,0.33890942,0.17558657,0.11937661,inf,inf,inf,inf,1,1,1,1,2,2,2,2,2,1,1,1,0,0,0
74804000,74804000,4392000,47.3977508,8.5456073,-0.0028399683,-0.045578394,-1.5937111,9.129138e-05,0.0076843225,-0.042087145,0.005446273,0.0091721155,0.6441743,0.6556936,0.0008538942,0.00039706597,-0.010066556,0.028833626,-0.0058160946,0.048680227,1.6230739,-0.00034564736,488.0305,1.8219899,0.4616382,0.3216099,0.16354595,0.11392658,inf,inf,inf,inf,1,1,1,1,2,2,2,2,2,1,1,1,0,0,0
75300000,75300000,4392000,47.3977508,8.5456073,-0.0040143738,-0.045000672,-1.2622246,9.129138e-05,0.0076843225,-0.042087145,0.0062874346,0.0107443025,0.66660863,0.67764956,0.0008538942,0.00039706597,-0.010066556,-0.02351684,-0.019829443,0.03737304,1.622868,-0.00034564736,488.0305,1.4905033,0.47130695,0.32650483,0.16842356,0.115585394,inf,inf,inf,inf,1,1,1,1,2,2,2,2,2,1,1,1,0,0,0
75804000,75804000,4392000,47.3977508,8.5456073,-0.013634568,-0.044123292,-0.9184232,9.129138e-05,0.0076843225,-0.042087145,0.0036766282,0.008067884,0.6798573,0.6894848,0.0008538942,0.00039706597,-0.010066556,0.029771456,-0.010433766,0.017801298,1.6230034,-0.00034564736,488.0305,1.1467019,0.48241952,0.3335762,0.17370509,0.11768318,inf,inf,inf,inf,1,1,1,1,2,2,2,2,2,1,1,1,0,0,0
76300000,76300000,4392000,47.3977508,8.5456073,-0.017496927,-0.039960608,-0.5722152,9.129138e-05,0.0076843225,-0.042087145,0.010128943,0.010316549,0.6834997,0.69544625,0.0008538942,0.00039706597,-0.010066556,0.002446999,0.032173425,-0.033744607,1.6228477,-0.00034564736,488.0305,0.80049396,0.4931445,0.3384399,0.17853679,0.11924259,inf,inf,inf,inf,1,1,1,1,2,2,2,2,2,1,1,1,0,0,0
76804000,76804000,4392000,47.3977508,8.5456073,-0.016835596,-0.03727453,-0.21600886,9.129138e-05,0.0076843225,-0.042087145,0.012131587,0.007435411,0.67933464,0.6960559,0.0008538942,0.00039706597,-0.010066556,-0.011187701,-0.0046170023,0.0013420357,1.6227934,-0.00034564736,488.0305,0.4442876,0.4615718,0.32115486,0.16527271,0.113808915,inf,inf,inf,inf,1,1,1,1,2,2,2,2,2,1,1,1,0,0,0
77300000,77300000,4392000,47.3977508,8.5456073,-0.020172982,-0.04029445,0.109112814,9.129138e-05,0.0076843225,-0.042087145,0.010514245,0.008113206,0.5663449,0.5207581,0.0008538942,0.00039706597,-0.010066556,-0.0506073,-0.018449951,0.36242697,1.6229566,-0.00034564736,488.0305,0.11916591,0.47143695,0.32720214,0.18074907,0.11001763,inf,inf,inf,inf,1,1,1,1,2,2,2,2,2,1,1,1,0,0,0
77804000,77804000,4392000,47.3977508,8.5456073,-0.021010175,-0.03784702,0.2013708,9.129138e-05,0.0076843225,-0.042087145,0.0055632936,-0.00013126137,0.8137714,0.5840658,0.0008538942,0.00039706597,-0.010066556,-0.025822874,-0.016879741,0.8886661,1.6229243,-0.00034564736,488.0305,0.1,0.48303187,0.3310532,0.23418427,0.10474547,inf,inf,inf,inf,1,1,1,1,2,2,2,2,2,1,1,1,0,0,0
78300000,78300000,4392000,47.3977508,8.5456073,-0.018087538,-0.03763916,0.369559,9.129138e-05,0.0076843225,-0.042087145,0.0047497978,-0.0038645596,1.0571924,0.6931662,0.0008538942,0.00039706597,-0.010066556,0.0040249648,-0.020192163,0.6283875,1.6228653,-0.00034564736,488.0305,0.1,0.4963321,0.3344657,0.2844696,0.102290146,inf,inf,inf,inf,1,1,1,1,2,2,2,2,2,1,1,1,0,0,0
78804000,78804000,4392000,47.3977508,8.5456073,-0.012435654,-0.024741407,0.62354106,9.129138e-05,0.0076843225,-0.042087145,0.003197892,0.004222267,1.2250171,0.7713476,0.0008538942,0.00039706597,-0.010066556,-0.011056727,0.019394778,0.23595709,1.6230115,-0.00034564736,488.0305,0.1,0.46235517,0.3150443,0.2507557,0.096940145,inf,inf,inf,inf,1,1,1,1,2,2,2,2,2,1,1,1,0,0,0
79300000,79300000,4392000,47.3977508,8.5456073,0.0019142934,-0.02410057,0.8857747,9.129138e-05,0.0076843225,-0.042087145,0.0025570814,-0.0055472595,1.2864492,0.7389416,0.0008538942,0.00039706597,-0.010066556,-0.028396184,0.0014109827,0.31831765,1.6230487,-0.00034564736,488.0305,0.1,0.47401783,0.31791666,0.2605286,0.09892618,inf,inf,inf,inf,1,1,1,1,2,2,2,2,2,1,1,1,0,0,0
79804000,79804000,4392000,47.3977508,8.5456073,0.009316351,-0.024545856,1.2809904,9.129138e-05,0.0076843225,-0.042087145,-0.019774245,-0.005884368,1.4722842,0.8876936,0.0008538942,0.00039706597,-0.010066556,0.070929244,0.11108997,-2.920468,1.6231606,-0.00034564736,488.0305,0.1,0.488379,0.32157686,0.2574993,0.10850278,inf,inf,inf,inf,1,1,1,1,2,2,2,2,2,1,1,1,0,0,0
80300000,80300000,4392000,47.3977508,8.5456073,0.020687299,-0.024767542,1.4777421,9.129138e-05,0.0076843225,-0.042087145,-0.0057156356,-0.011477565,1.3310268,0.6391202,0.0008538942,0.00039706597,-0.010066556,-0.031975735,-0.023741012,0.83912253,1.6228381,-0.00034564736,488.0305,0.1,0.50232273,0.32378194,0.24869244,0.104016036,inf,inf,inf,inf,1,1,1,1,2,2,2,2,2,1,1,1,0,0,0
80804000,80804000,4392000,47.3977508,8.5456073,0.026412984,-0.026528724,1.644873,9.129138e-05,0.0076843225,-0.042087145,-0.008675859,-0.014384087,1.5458231,0.72001135,0.0008538942,0.00039706597,-0.010066556,-0.05090293,0.010093732,0.40341538,1.6228431,-0.00034564736,488.0305,0.1,0.46590802,0.30836788,0.22076344,0.09700092,inf,inf,inf,inf,1,1,1,1,2,2,2,2,2,1,1,1,0,0,0
81300000,81300000,4392000,47.3977508,8.5456073,0.021985278,-0.030303765,1.8034718,9.129138e-05,0.0076843225,-0.042087145,-0.013500933,-0.016073894,1.6947645,0.7051579,0.0008538942,0.00039706597,-0.010066556,-0.007379607,0.006940972,0.6721494,1.6227287,-0.00034564736,488.0305,0.1,0.4770715,0.31076655,0.23909189,0.09680019,inf,inf,inf,inf,1,1,1,1,2,2,2,2,2,1,1,1,0,0,0
81804000,81804000,4392000,47.3977508,8.5456073,0.013782687,-0.031313848,2.0928915,9.129138e-05,0.0076843225,-0.042087145,-0.0064277193,-0.01310404,1.7983638,0.74557406,0.0008538942,0.00039706597,-0.010066556,0.059373774,-0.047919367,0.48441717,1.6230829,-0.00034564736,488.0305,0.1,0.48999977,0.31501332,0.25613126,0.0986399,inf,inf,inf,inf,1,1,1,1,2,2,2,2,2,1,1,1,0,0,0
82300000,82300000,4392000,47.3977508,8.5456073,0.01486938,-0.025322761,2.3087227,9.129138e-05,0.0076843225,-0.042087145,0.04971562,0.012857551,1.0620935,0.015761625,0.0008538942,0.00039706597,-0.010066556,0.070025876,0.0014446413,-0.016158445,1.6233481,-0.00034564736,488.0305,0.1,0.503305,0.31781822,0.26373065,0.099918954,inf,inf,inf,inf,1,1,1,1,2,2,2,2,2,1,1,1,0,0,0
