timestamp,timestamp_sample,control_mode_flags,output_tracking_error[0],output_tracking_error[1],output_tracking_error[2],filter_fault_flags,pos_horiz_accuracy,pos_vert_accuracy,mag_test_ratio,vel_test_ratio,pos_test_ratio,hgt_test_ratio,tas_test_ratio,hagl_test_ratio,beta_test_ratio,time_slip,accel_device_id,gyro_device_id,baro_device_id,mag_device_id,gps_check_fail_flags,innovation_check_flags,solution_status_flags,reset_count_vel_ne,reset_count_vel_d,reset_count_pos_ne,reset_count_pod_d,reset_count_quat,pre_flt_fail_innov_heading,pre_flt_fail_innov_vel_horiz,pre_flt_fail_innov_vel_vert,pre_flt_fail_innov_height,pre_flt_fail_mag_field_disturbed,health_flags,timeout_flags
3388000,3308000,13488881664,0.0007547682,0.017667945,0.0014608809,0,14.172738,10.008659,nan,nan,nan,nan,0.0,0.0,0.0,0.0,1310988,1310988,6620172,197388,0,0,128,1,1,1,1,0,0,0,0,0,0,0,0
3396000,3316000,13488881664,0.0006873336,0.0047688293,0.0015482885,0,14.142143,10.0,nan,nan,nan,nan,0.0,0.0,0.0,0.0,1310988,1310988,6620172,197388,0,0,128,1,1,1,1,0,0,0,0,0,0,0,0
3404000,3324000,13488881664,0.00062599336,0.0046765795,0.0015427815,0,14.142143,10.0,nan,nan,nan,nan,0.0,0.0,0.0,0.0,1310988,1310988,6620172,197388,0,0,128,1,1,1,1,0,0,0,0,0,0,0,0
3412000,3332000,13488881664,0.000100323916,0.0011482467,4.0655308e-05,0,14.142143,10.0,nan,nan,nan,nan,0.0,0.0,0.0,0.0,1310988,1310988,6620172,197388,0,0,128,1,1,1,1,0,0,0,0,0,0,0,0
3420000,3340000,13488881664,0.00015552684,0.0011368518,6.874134e-05,0,14.142143,10.0,nan,nan,nan,nan,0.0,0.0,0.0,0.0,1310988,1310988,6620172,197388,0,0,128,1,1,1,1,0,0,0,0,0,0,0,0
3428000,3348000,13488881664,0.00020963703,0.0012141095,9.735422e-05,0,14.142143,10.0,nan,nan,nan,nan,0.0,0.0,0.0,0.0,1310988,1310988,6620172,197388,0,0,128,1,1,1,1,0,0,0,0,0,0,0,0
3436000,3356000,13488881664,0.00026280587,0.0010952565,0.00012573902,0,14.142143,10.0,nan,nan,nan,nan,0.0,0.0,0.0,0.0,1310988,1310988,6620172,197388,0,0,128,1,1,1,1,0,0,0,0,0,0,0,0
3444000,3364000,13488881664,0.00031523404,0.001078579,0.00015394393,0,14.142143,10.0,nan,nan,nan,nan,0.0,0.0,0.0,0.0,1310988,1310988,6620172,197388,0,0,128,1,1,1,1,0,0,0,0,0,0,0,0
3452000,3372000,13488881664,0.00036710605,0.0011064707,0.00018199289,0,14.142143,10.0,nan,nan,nan,nan,0.0,0.0,0.0,0.0,1310988,1310988,6620172,197388,0,0,128,1,1,1,1,0,0,0,0,0,0,0,0
3460000,3380000,13488881664,0.0004142036,0.001105108,0.0002105175,0,14.142143,10.0,nan,nan,nan,nan,0.0,0.0,0.0,0.0,1310988,1310988,6620172,197388,0,0,128,1,1,1,1,0,0,0,0,0,0,0,0
3468000,3388000,13488881664,0.00045581776,0.0011414161,0.00024001575,0,14.142143,10.0,nan,nan,nan,nan,0.0,0.0,0.0,0.0,1310988,1310988,6620172,197388,0,0,128,1,1,1,1,0,0,0,0,0,0,0,0
3476000,3396000,13488881664,0.00049356994,0.0012114538,0.00027107267,0,14.142142,10.0,nan,nan,nan,nan,0.0,0.0,0.0,0.0,1310988,1310988,6620172,197388,0,0,128,1,1,1,1,0,0,0,0,0,0,0,0
3484000,3404000,13488881664,0.0005279004,0.0014323032,0.00030019664,0,14.142142,10.0,nan,nan,nan,nan,0.0,0.0,0.0,0.0,1310988,1310988,6620172,197388,0,0,128,1,1,1,1,0,0,0,0,0,0,0,0
3492000,3412000,13488881664,0.00049687736,0.0014972738,0.00018839298,0,14.142142,10.0,nan,nan,nan,nan,0.0,0.0,0.0,0.0,1310988,1310988,6620172,197388,0,0,128,1,1,1,1,0,0,0,0,0,0,0,0
3500000,3420000,13488881664,0.00049197633,0.0014121087,0.00018216818,0,14.142142,10.0,nan,nan,nan,nan,0.0,0.0,0.0,0.0,1310988,1310988,6620172,197388,0,0,128,1,1,1,1,0,0,0,0,0,0,0,0
3508000,3428000,13488881664,0.00048430832,0.0013302349,0.0001767309,0,14.142142,10.0,nan,nan,nan,nan,0.0,0.0,0.0,0.0,1310988,1310988,6620172,197388,0,0,128,1,1,1,1,0,0,0,0,0,0,0,0
3516000,3436000,13488881664,0.00047386778,0.0012511008,0.00017202302,0,14.142142,10.0,nan,nan,nan,nan,0.0,0.0,0.0,0.0,1310988,1310988,6620172,197388,0,0,128,1,1,1,1,0,0,0,0,0,0,0,0
3524000,3444000,13488881664,0.00046078663,0.0011757546,0.00016816087,0,14.142142,10.0,nan,nan,nan,nan,0.0,0.0,0.0,0.0,1310988,1310988,6620172,197388,0,0,128,1,1,1,1,0,0,0,0,0,0,0,0
3532000,3452000,13488881664,0.00044503933,0.0011036384,0.0001649879,0,14.142142,10.0,nan,nan,nan,nan,0.0,0.0,0.0,0.0,1310988,1310988,6620172,197388,0,0,128,1,1,1,1,0,0,0,0,0,0,0,0
3540000,3460000,13488881664,0.0004267385,0.0010349966,0.00016200732,0,14.142143,10.0,nan,nan,nan,nan,0.0,0.0,0.0,0.0,1310988,1310988,6620172,197388,0,0,128,1,1,1,1,0,0,0,0,0,0,0,0
3548000,3468000,13488881664,0.00040609323,0.00097043073,0.00015982662,0,14.142144,10.0,nan,nan,nan,nan,0.0,0.0,0.0,0.0,1310988,1310988,6620172,197388,0,0,128,1,1,1,1,0,0,0,0,0,0,0,0
3556000,3476000,13488881664,0.0003834092,0.00090925925,0.00015799023,0,14.142145,10.0,nan,nan,nan,nan,0.0,0.0,0.0,0.0,1310988,1310988,6620172,197388,0,0,128,1,1,1,1,0,0,0,0,0,0,0,0
3564000,3484000,13488881664,0.0003587959,0.0008513125,0.00015653043,0,14.142147,10.0,nan,nan,nan,nan,0.0,0.0,0.0,0.0,1310988,1310988,6620172,197388,0,0,128,1,1,1,1,0,0,0,0,0,0,0,0
3572000,3492000,13488881664,0.0003325086,0.0007979457,0.0004808497,0,0.014084185,7.071068,nan,nan,nan,nan,0.0,0.0,0.0,0.0,1310988,1310988,6620172,197388,0,0,128,1,1,1,1,0,0,0,0,0,0,0,0
3580000,3500000,13488881664,0.000307714,0.0007477541,0.00046249008,0,0.014298914,7.071068,nan,nan,nan,nan,0.0,0.0,0.0,0.0,1310988,1310988,6620172,197388,0,0,128,1,1,1,1,0,0,0,0,0,0,0,0
3588000,3508000,13488881664,0.0002831777,0.00070106215,0.00044524632,0,0.014962205,7.071068,nan,nan,nan,nan,0.0,0.0,0.0,0.0,1310988,1310988,6620172,197388,0,0,128,1,1,1,1,0,0,0,0,0,0,0,0
3596000,3516000,13488881664,0.00025918797,0.00065819616,0.000428636,0,0.01607267,7.071068,nan,nan,nan,nan,0.0,0.0,0.0,0.0,1310988,1310988,6620172,197388,0,0,128,1,1,1,1,0,0,0,0,0,0,0,0
3604000,3524000,13488881664,0.0018526039,0.028470822,0.0025836981,0,0.01408681,7.071067,nan,nan,nan,nan,0.0,0.0,0.0,0.0,1310988,1310988,6620172,197388,0,0,128,1,1,1,1,0,0,0,0,0,0,0,0
3612000,3532000,13488881665,0.0018360107,0.028396752,0.0027302091,0,0.0140868835,7.071067,nan,nan,nan,nan,0.0,0.0,0.0,0.0,1310988,1310988,6620172,197388,0,0,128,1,1,1,1,0,0,0,0,0,0,0,0
3620000,3540000,13488881665,0.0018201619,0.028323,0.0028784717,0,0.014086941,7.071067,nan,nan,nan,nan,0.0,0.0,0.0,0.0,1310988,1310988,6620172,197388,0,0,128,1,1,1,1,0,0,0,0,0,0,0,0
3628000,3548000,13488881683,0.0023172144,0.028250141,0.0030284906,0,0.014087189,7.071067,0.01845823,nan,nan,nan,0.0,0.0,0.0,0.0,1310988,1310988,6620172,197388,0,0,129,1,1,1,1,1,0,0,0,0,0,0,0
3636000,3556000,13488881683,0.0023108367,0.028178308,0.0031801073,0,0.0140879005,7.071067,0.01845823,nan,nan,nan,0.0,0.0,0.0,0.0,1310988,1310988,6620172,197388,0,0,129,1,1,1,1,1,0,0,0,0,0,0,0
3644000,3564000,13488881683,0.0023049475,0.028106874,0.0033333597,0,0.014089408,7.071067,0.01845823,nan,nan,nan,0.0,0.0,0.0,0.0,1310988,1310988,6620172,197388,0,0,129,1,1,1,1,1,0,0,0,0,0,0,0
3652000,3572000,13488881683,0.00229986,0.028035685,0.0034881087,0,0.014092242,7.071067,0.01845823,nan,nan,nan,0.0,0.0,0.0,0.0,1310988,1310988,6620172,197388,0,0,129,1,1,1,1,1,0,0,0,0,0,0,0
3660000,3580000,13488881683,0.0022955637,0.02796541,0.0036445323,0,0.014097294,7.071067,0.01845823,nan,nan,nan,0.0,0.0,0.0,0.0,1310988,1310988,6620172,197388,0,0,129,1,1,1,1,1,0,0,0,0,0,0,0
3668000,3588000,13488881683,0.0022918822,0.027895933,0.0038022103,0,0.01410582,7.071067,0.01845823,nan,nan,nan,0.0,0.0,0.0,0.0,1310988,1310988,6620172,197388,0,0,129,1,1,1,1,1,0,0,0,0,0,0,0
3676000,3596000,13488881683,0.002288689,0.02782708,0.003961386,0,0.01411943,7.071067,0.01845823,nan,nan,nan,0.0,0.0,0.0,0.0,1310988,1310988,6620172,197388,0,0,129,1,1,1,1,1,0,0,0,0,0,0,0
3684000,3604000,13488881683,0.0022861022,0.027758585,0.0041218554,0,0.014140085,7.071067,0.01845823,nan,nan,nan,0.0,0.0,0.0,0.0,1310988,1310988,6620172,197388,0,0,129,1,1,1,1,1,0,0,0,0,0,0,0
3692000,3612000,13488881683,0.002220917,0.026883235,0.0042730323,0,0.014170079,7.071067,0.01845823,nan,nan,nan,0.0,0.0,0.0,0.0,1310988,1310988,6620172,197388,0,0,129,1,1,1,1,1,0,0,0,0,0,0,0
3700000,3620000,13488881683,0.0020281612,0.026032494,0.00441207,0,0.014212024,7.071067,0.0025633194,nan,nan,nan,0.0,0.0,0.0,0.0,1310988,1310988,6620172,197388,0,0,129,1,1,1,1,1,0,0,0,0,0,0,0
3708000,3628000,13488881683,0.0019632732,0.025205791,0.0045391633,0,0.014268834,7.071067,0.0025633194,nan,nan,nan,0.0,0.0,0.0,0.0,1310988,1310988,6620172,197388,0,0,129,1,1,1,1,1,0,0,0,0,0,0,0
3716000,3636000,13488881683,0.0018482239,0.024402503,0.0046546524,0,0.014343689,7.071067,0.0025633194,nan,nan,nan,0.0,0.0,0.0,0.0,1310988,1310988,6620172,197388,0,0,129,1,1,1,1,1,0,0,0,0,0,0,0
3724000,3644000,13488881683,0.0017333754,0.023622008,0.0047591417,0,0.014439984,7.071067,0.0025633194,nan,nan,nan,0.0,0.0,0.0,0.0,1310988,1310988,6620172,197388,0,0,129,1,1,1,1,1,0,0,0,0,0,0,0
3732000,3652000,13488881683,0.0016188895,0.02286346,0.0048525976,0,0.0145613095,7.071067,0.0025633194,nan,nan,nan,0.0,0.0,0.0,0.0,1310988,1310988,6620172,197388,0,0,129,1,1,1,1,1,0,0,0,0,0,0,0
3740000,3660000,13488881683,0.0015046062,0.02212609,0.0049358034,0,0.014711366,7.071067,0.0025633194,nan,nan,nan,0.0,0.0,0.0,0.0,1310988,1310988,6620172,197388,0,0,129,1,1,1,1,1,0,0,0,0,0,0,0
3748000,3668000,13488881683,0.0013905533,0.021409161,0.0050086435,0,0.014893906,7.071067,0.0025633194,nan,nan,nan,0.0,0.0,0.0,0.0,1310988,1310988,6620172,197388,0,0,129,1,1,1,1,1,0,0,0,0,0,0,0
3756000,3676000,13488881683,0.0012766903,0.02071208,0.005071642,0,0.015112626,7.071067,0.0025633194,nan,nan,nan,0.0,0.0,0.0,0.0,1310988,1310988,6620172,197388,0,0,129,1,1,1,1,1,0,0,0,0,0,0,0
3764000,3684000,13488881683,0.00335057,0.020034827,0.0051249564,0,0.015371152,7.071067,0.03525193,nan,nan,nan,0.0,0.0,0.0,0.0,1310988,1310988,6620172,197388,0,0,129,1,1,1,1,1,0,0,0,0,0,0,0
3772000,3692000,13488881683,0.0032588968,0.019375749,0.0051690657,0,0.01567294,7.071067,0.03525193,nan,nan,nan,0.0,0.0,0.0,0.0,1310988,1310988,6620172,197388,0,0,129,1,1,1,1,1,0,0,0,0,0,0,0
3780000,3700000,13488881683,0.003170796,0.018737566,0.0049703727,0,0.010602418,5.7735023,0.03525193,nan,nan,nan,0.0,0.0,0.0,0.0,1310988,1310988,6620172,197388,0,0,129,1,1,1,1,1,0,0,0,0,0,0,0
3788000,3708000,13488881683,0.0030926347,0.018114336,0.0050051343,0,0.010879039,5.7735023,0.03525193,nan,nan,nan,0.0,0.0,0.0,0.0,1310988,1310988,6620172,197388,0,0,129,1,1,1,1,1,0,0,0,0,0,0,0
3796000,3716000,13488881683,0.0030160944,0.017508265,0.005031525,0,0.011218091,5.7735023,0.03525193,nan,nan,nan,0.0,0.0,0.0,0.0,1310988,1310988,6620172,197388,0,0,129,1,1,1,1,1,0,0,0,0,0,0,0
3804000,3724000,13488881683,0.002945159,0.016918639,0.0050504026,0,0.011622261,5.7735023,0.03525193,nan,nan,nan,0.0,0.0,0.0,0.0,1310988,1310988,6620172,197388,0,0,129,1,1,1,1,1,0,0,0,0,0,0,0
3812000,3732000,13488881683,0.0028853412,0.016429337,0.0050685173,0,0.011882985,5.7735023,0.03525193,nan,nan,nan,0.0,0.0,0.0,0.0,1310988,1310988,6620172,197388,0,0,129,1,1,1,1,1,0,0,0,0,0,0,0
3820000,3740000,13488881683,0.0028244401,0.015871422,0.0050738845,0,0.012371538,5.7735023,0.03525193,nan,nan,nan,0.0,0.0,0.0,0.0,1310988,1310988,6620172,197388,0,0,129,1,1,1,1,1,0,0,0,0,0,0,0
3828000,3748000,13488881683,0.0027685938,0.015328731,0.005072476,0,0.012923469,5.7735023,0.03525193,nan,nan,nan,0.0,0.0,0.0,0.0,1310988,1310988,6620172,197388,0,0,129,1,1,1,1,1,0,0,0,0,0,0,0
3836000,3756000,13488881683,0.0024259582,0.01480108,0.0050651673,0,0.013538725,5.7735023,0.0045659724,nan,nan,nan,0.0,0.0,0.0,0.0,1310988,1310988,6620172,197388,0,0,129,1,1,1,1,1,0,0,0,0,0,0,0
3844000,3764000,13488881683,0.002379022,0.014288177,0.0050518094,0,0.014216802,5.7735023,0.0045659724,nan,nan,nan,0.0,0.0,0.0,0.0,1310988,1310988,6620172,197388,0,0,129,1,1,1,1,1,0,0,0,0,0,0,0
3852000,3772000,13488881683,0.0022143638,0.013789618,0.0050334907,0,0.014956888,5.7735023,0.0045659724,nan,nan,nan,0.0,0.0,0.0,0.0,1310988,1310988,6620172,197388,0,0,129,1,1,1,1,1,0,0,0,0,0,0,0
3860000,3780000,13488881683,0.0020540429,0.013305081,0.0050096456,0,0.015757956,5.7735023,0.0045659724,nan,nan,nan,0.0,0.0,0.0,0.0,1310988,1310988,6620172,197388,0,0,129,1,1,1,1,1,0,0,0,0,0,0,0
3868000,3788000,13488881683,0.0018978431,0.012834006,0.00498135,0,0.016618863,5.7735023,0.0045659724,nan,nan,nan,0.0,0.0,0.0,0.0,1310988,1310988,6620172,197388,0,0,129,1,1,1,1,1,0,0,0,0,0,0,0
3876000,3796000,13488881683,0.001745258,0.0123761175,0.0049484037,0,0.017538387,5.7735023,0.0045659724,nan,nan,nan,0.0,0.0,0.0,0.0,1310988,1310988,6620172,197388,0,0,129,1,1,1,1,1,0,0,0,0,0,0,0
3884000,3804000,13488881683,0.0015962812,0.01193109,0.00491115,0,0.018515313,5.7735023,0.0045659724,nan,nan,nan,0.0,0.0,0.0,0.0,1310988,1310988,6620172,197388,0,0,129,1,1,1,1,1,0,0,0,0,0,0,0
3892000,3812000,13488881683,0.0014508525,0.011498676,0.004870348,0,0.019548558,5.7735023,0.0045659724,nan,nan,nan,0.0,0.0,0.0,0.0,1310988,1310988,6620172,197388,0,0,129,1,1,1,1,1,0,0,0,0,0,0,0
3900000,3820000,13488881683,0.0013081726,0.011077165,0.0048255525,0,0.020637074,5.7735023,0.0045659724,nan,nan,nan,0.0,0.0,0.0,0.0,1310988,1310988,6620172,197388,0,0,129,1,1,1,1,1,0,0,0,0,0,0,0
3908000,3828000,13488881683,0.0009471212,0.010667461,0.004777472,0,0.0217799,5.7735023,0.003673633,nan,nan,nan,0.0,0.0,0.0,0.0,1310988,1310988,6620172,197388,0,0,129,1,1,1,1,1,0,0,0,0,0,0,0
3916000,3836000,13488881683,0.00081025274,0.01026967,0.0047259433,0,0.022976153,5.7735023,0.003673633,nan,nan,nan,0.0,0.0,0.0,0.0,1310988,1310988,6620172,197388,0,0,129,1,1,1,1,1,0,0,0,0,0,0,0
3924000,3844000,13488881683,0.00069092115,0.009883185,0.0046715215,0,0.024225142,5.7735023,0.003673633,nan,nan,nan,0.0,0.0,0.0,0.0,1310988,1310988,6620172,197388,0,0,129,1,1,1,1,1,0,0,0,0,0,0,0
3932000,3852000,13488881683,0.0005739875,0.009507751,0.0046144836,0,0.02552635,5.7735023,0.003673633,nan,nan,nan,0.0,0.0,0.0,0.0,1310988,1310988,6620172,197388,0,0,129,1,1,1,1,1,0,0,0,0,0,0,0
3940000,3860000,13488881683,0.00046590096,0.009143188,0.004554806,0,0.026879275,5.7735023,0.003673633,nan,nan,nan,0.0,0.0,0.0,0.0,1310988,1310988,6620172,197388,0,0,129,1,1,1,1,1,0,0,0,0,0,0,0
3948000,3868000,13488881683,0.0003664568,0.008789136,0.004492825,0,0.028283505,5.7735023,0.003673633,nan,nan,nan,0.0,0.0,0.0,0.0,1310988,1310988,6620172,197388,0,0,129,1,1,1,1,1,0,0,0,0,0,0,0
3956000,3876000,13488881683,0.00027621922,0.008445299,0.004428665,0,0.029738732,5.7735033,0.003673633,nan,nan,nan,0.0,0.0,0.0,0.0,1310988,1310988,6620172,197388,0,0,129,1,1,1,1,1,0,0,0,0,0,0,0
3964000,3884000,13488881683,0.00019646884,0.008111457,0.004362519,0,0.031244723,5.773504,0.003673633,nan,nan,nan,0.0,0.0,0.0,0.0,1310988,1310988,6620172,197388,0,0,129,1,1,1,1,1,0,0,0,0,0,0,0
3972000,3892000,13488881683,0.00013127156,0.0077873752,0.0042943708,0,0.03280133,5.7735047,0.003673633,nan,nan,nan,0.0,0.0,0.0,0.0,1310988,1310988,6620172,197388,0,0,129,1,1,1,1,1,0,0,0,0,0,0,0
3980000,3900000,13488881683,0.00019037515,0.0074729,0.004224791,0,0.034408536,5.773505,0.0025496827,nan,nan,nan,0.0,0.0,0.0,0.0,1310988,1310988,6620172,197388,0,0,129,1,1,1,1,1,0,0,0,0,0,0,0
3988000,3908000,13488881683,0.0005387023,0.007782665,0.0044023166,0,0.01316614,5.000002,0.0025496827,nan,nan,nan,0.0,0.0,0.0,0.0,1310988,1310988,6620172,197388,0,0,129,1,1,1,1,1,0,0,0,0,0,0,0
3996000,3916000,13488881683,0.000532598,0.0074927947,0.0043251626,0,0.013800311,5.0000024,0.0025496827,nan,nan,nan,0.0,0.0,0.0,0.0,1310988,1310988,6620172,197388,0,0,129,1,1,1,1,1,0,0,0,0,0,0,0
4004000,3924000,13488881683,0.00053122005,0.007211969,0.0042473148,0,0.0144737465,5.000003,0.0025496827,nan,nan,nan,0.0,0.0,0.0,0.0,1310988,1310988,6620172,197388,0,0,129,1,1,1,1,1,0,0,0,0,0,0,0
4012000,3932000,13488881683,0.0005330957,0.006940313,0.004168723,0,0.015186225,5.0000033,0.0025496827,nan,nan,nan,0.0,0.0,0.0,0.0,1310988,1310988,6620172,197388,0,0,129,1,1,1,1,1,0,0,0,0,0,0,0
4020000,3940000,13488881683,0.0006189169,0.0070483494,0.0041459505,0,0.015264791,5.0000033,0.0025496827,nan,nan,nan,0.0,0.0,0.0,0.0,1310988,1310988,6620172,197388,0,0,129,1,1,1,1,1,0,0,0,0,0,0,0
4028000,3948000,13488881683,0.0006251845,0.0067895604,0.004067048,0,0.015986029,5.000004,0.0025496827,nan,nan,nan,0.0,0.0,0.0,0.0,1310988,1310988,6620172,197388,0,0,129,1,1,1,1,1,0,0,0,0,0,0,0
4036000,3956000,13488881683,0.0006319232,0.0065396135,0.0039875065,0,0.016743587,5.0000043,0.0025496827,nan,nan,nan,0.0,0.0,0.0,0.0,1310988,1310988,6620172,197388,0,0,129,1,1,1,1,1,0,0,0,0,0,0,0
4044000,3964000,13488881683,0.0006387843,0.0062979655,0.003908205,0,0.017537626,5.000005,0.0025496827,nan,nan,nan,0.0,0.0,0.0,0.0,1310988,1310988,6620172,197388,0,0,129,1,1,1,1,1,0,0,0,0,0,0,0
4052000,3972000,4898947603,0.00064111664,0.006064749,0.0038283567,0,0.018368263,5.0000057,0.00051993865,nan,nan,0.0011260795,0.0,0.0,0.0,0.0,1310988,1310988,6620172,197388,0,0,165,1,1,1,1,1,0,0,0,0,0,0,0
4060000,3980000,4898947603,0.000647375,0.005839875,0.003748504,0,0.019235639,5.000006,0.00051993865,nan,nan,0.0011260795,0.0,0.0,0.0,0.0,1310988,1310988,6620172,197388,0,0,165,1,1,1,1,1,0,0,0,0,0,0,0
4068000,3988000,4898947603,0.00065450335,0.005623124,0.0036685995,0,0.020140039,5.000007,0.00051993865,nan,nan,0.0011260795,0.0,0.0,0.0,0.0,1310988,1310988,6620172,197388,0,0,165,1,1,1,1,1,0,0,0,0,0,0,0
4076000,3996000,4898947603,0.00063088804,0.005405968,0.0035886513,0,0.021081733,5.0000076,0.00051993865,nan,nan,0.0011260795,0.0,0.0,0.0,0.0,1310988,1310988,6620172,197388,0,0,165,1,1,1,1,1,0,0,0,0,0,0,0
4084000,4004000,4898947603,0.00060700666,0.0051952223,0.0035087436,0,0.02206113,5.0000086,0.00051993865,nan,nan,0.0011260795,0.0,0.0,0.0,0.0,1310988,1310988,6620172,197388,0,0,165,1,1,1,1,1,0,0,0,0,0,0,0
4092000,4012000,4898947603,0.0005827775,0.0049902243,0.0034288869,0,0.023078585,5.0000095,0.00051993865,nan,nan,0.0011260795,0.0,0.0,0.0,0.0,1310988,1310988,6620172,197388,0,0,165,1,1,1,1,1,0,0,0,0,0,0,0
4100000,4020000,4898947603,0.0005581533,0.004791152,0.003349277,0,0.024134574,5.00001,0.00051993865,nan,nan,0.0011260795,0.0,0.0,0.0,0.0,1310988,1310988,6620172,197388,0,0,165,1,1,1,1,1,0,0,0,0,0,0,0
4108000,4028000,4898947603,0.0005278528,0.004594412,0.0075412374,0,0.02522956,2.8673136,0.00051993865,nan,nan,0.0005178104,0.0,0.0,0.0,0.0,1310988,1310988,6620172,197388,0,0,165,1,1,1,1,1,0,0,0,0,0,0,0
4116000,4036000,4898947603,0.00049713405,0.004403116,0.007283757,0,0.026364002,2.8673143,0.00051993865,nan,nan,0.0005178104,0.0,0.0,0.0,0.0,1310988,1310988,6620172,197388,0,0,165,1,1,1,1,1,0,0,0,0,0,0,0
4124000,4044000,4898947603,0.00084921886,0.004215376,0.007035685,0,0.027538506,2.8673148,0.011723731,nan,nan,0.0005178104,0.0,0.0,0.0,0.0,1310988,1310988,6620172,197388,0,0,165,1,1,1,1,1,0,0,0,0,0,0,0
4132000,4052000,4898947603,0.00082919124,0.0040342906,0.0067970366,0,0.028753646,2.8673155,0.011723731,nan,nan,0.0005178104,0.0,0.0,0.0,0.0,1310988,1310988,6620172,197388,0,0,165,1,1,1,1,1,0,0,0,0,0,0,0
4140000,4060000,4898947603,0.000810674,0.0038584713,0.0065671443,0,0.03001003,2.8673162,0.011723731,nan,nan,0.0005178104,0.0,0.0,0.0,0.0,1310988,1310988,6620172,197388,0,0,165,1,1,1,1,1,0,0,0,0,0,0,0
4148000,4068000,4898947603,0.00079283124,0.0036874071,0.006345676,0,0.03130838,2.867317,0.011723731,nan,nan,0.0005178104,0.0,0.0,0.0,0.0,1310988,1310988,6620172,197388,0,0,165,1,1,1,1,1,0,0,0,0,0,0,0
4156000,4076000,4898947603,0.00077525567,0.0035202696,0.0061324383,0,0.03264931,2.8673182,0.011723731,nan,nan,0.0005178104,0.0,0.0,0.0,0.0,1310988,1310988,6620172,197388,0,0,165,1,1,1,1,1,0,0,0,0,0,0,0
4164000,4084000,4898947603,0.00075898686,0.0033577264,0.0059272074,0,0.034033448,2.867319,0.011723731,nan,nan,0.0005178104,0.0,0.0,0.0,0.0,1310988,1310988,6620172,197388,0,0,165,1,1,1,1,1,0,0,0,0,0,0,0
4172000,4092000,4898947603,0.0007439514,0.0031982095,0.045247484,0,0.0354615,2.2180388,0.011723731,nan,nan,0.0043564783,0.0,0.0,0.0,0.0,1310988,1310988,6620172,197388,0,0,165,1,1,1,1,1,0,0,0,0,0,0,0
4180000,4100000,4898947603,0.00073014066,0.0030442243,0.043785557,0,0.036934182,2.2180395,0.011723731,nan,nan,0.0043564783,0.0,0.0,0.0,0.0,1310988,1310988,6620172,197388,0,0,165,1,1,1,1,1,0,0,0,0,0,0,0
4188000,4108000,4898947603,0.0007177666,0.0028945438,0.042367548,0,0.03845215,2.2180405,0.011723731,nan,nan,0.0043564783,0.0,0.0,0.0,0.0,1310988,1310988,6620172,197388,0,0,165,1,1,1,1,1,0,0,0,0,0,0,0
4196000,4116000,4898947603,0.0018469028,0.005092535,0.041010015,0,0.01333393,2.2180417,0.0166457,nan,nan,0.0043564783,0.0,0.0,0.0,0.0,1310988,1310988,6620172,197388,0,0,165,1,1,1,1,1,0,0,0,0,0,0,0
4204000,4124000,4898947603,0.0018383652,0.004961633,0.03967642,0,0.013883892,2.2180429,0.0166457,nan,nan,0.0043564783,0.0,0.0,0.0,0.0,1310988,1310988,6620172,197388,0,0,165,1,1,1,1,1,0,0,0,0,0,0,0
4212000,4132000,4898947603,0.0018031084,0.004835083,0.038383026,0,0.014476787,2.218044,0.0166457,nan,nan,0.0043564783,0.0,0.0,0.0,0.0,1310988,1310988,6620172,197388,0,0,165,1,1,1,1,1,0,0,0,0,0,0,0
4220000,4140000,4898947603,0.0017687391,0.0047121923,0.037128627,0,0.015113529,2.2180457,0.0166457,nan,nan,0.0043564783,0.0,0.0,0.0,0.0,1310988,1310988,6620172,197388,0,0,165,1,1,1,1,1,0,0,0,0,0,0,0
4228000,4148000,4898947603,0.0018522243,0.0051938673,0.03778566,0,0.015216192,1.8735139,0.0166457,nan,nan,0.00032753992,0.0,0.0,0.0,0.0,1310988,1310988,6620172,197388,0,0,165,1,1,1,1,1,0,0,0,0,0,0,0
4236000,4156000,4898947603,0.0018230162,0.0050658747,0.036539447,0,0.015869888,1.8735152,0.0166457,nan,nan,0.00032753992,0.0,0.0,0.0,0.0,1310988,1310988,6620172,197388,0,0,165,1,1,1,1,1,0,0,0,0,0,0,0
4244000,4164000,4898947603,0.0017951707,0.0049428367,0.035330884,0,0.016565952,1.8735167,0.0166457,nan,nan,0.00032753992,0.0,0.0,0.0,0.0,1310988,1310988,6620172,197388,0,0,165,1,1,1,1,1,0,0,0,0,0,0,0
4252000,4172000,4898947603,0.0017684994,0.0048247986,0.034158256,0,0.01730519,1.8735183,0.0166457,nan,nan,0.00032753992,0.0,0.0,0.0,0.0,1310988,1310988,6620172,197388,0,0,165,1,1,1,1,1,0,0,0,0,0,0,0
4260000,4180000,4898947603,0.0017429565,0.0047115847,0.033021074,0,0.018088264,1.87352,0.0166457,nan,nan,0.00032753992,0.0,0.0,0.0,0.0,1310988,1310988,6620172,197388,0,0,165,1,1,1,1,1,0,0,0,0,0,0,0
4268000,4188000,4898947603,0.0023531562,0.0046009375,0.031917986,0,0.018915744,1.8735219,0.014887522,nan,nan,0.00032753992,0.0,0.0,0.0,0.0,1310988,1310988,6620172,197388,0,0,165,1,1,1,1,1,0,0,0,0,0,0,0
4276000,4196000,4898947603,0.0023274873,0.0044975635,0.030848194,0,0.019788207,1.8735241,0.014887522,nan,nan,0.00032753992,0.0,0.0,0.0,0.0,1310988,1310988,6620172,197388,0,0,165,1,1,1,1,1,0,0,0,0,0,0,0
4284000,4204000,4898947603,0.002238327,0.0043933103,0.02981024,0,0.02070617,1.8735262,0.014887522,nan,nan,0.00032753992,0.0,0.0,0.0,0.0,1310988,1310988,6620172,197388,0,0,165,1,1,1,1,1,0,0,0,0,0,0,0
4292000,4212000,4898947603,0.0021496885,0.0042892015,0.043338973,0,0.021670042,1.6517669,0.014887522,nan,nan,0.0032905194,0.0,0.0,0.0,0.0,1310988,1310988,6620172,197388,0,0,165,1,1,1,1,1,0,0,0,0,0,0,0
4300000,4220000,4898947603,0.0020627065,0.004187245,0.041895445,0,0.022680277,1.6517692,0.014887522,nan,nan,0.0032905194,0.0,0.0,0.0,0.0,1310988,1310988,6620172,197388,0,0,165,1,1,1,1,1,0,0,0,0,0,0,0
4308000,4228000,4898947603,0.0019776032,0.0040863813,0.040494736,0,0.02373739,1.6517715,0.014887522,nan,nan,0.0032905194,0.0,0.0,0.0,0.0,1310988,1310988,6620172,197388,0,0,165,1,1,1,1,1,0,0,0,0,0,0,0
4316000,4236000,4898947603,0.0018879651,0.003985923,0.03913613,0,0.024841763,1.6517742,0.014887522,nan,nan,0.0032905194,0.0,0.0,0.0,0.0,1310988,1310988,6620172,197388,0,0,165,1,1,1,1,1,0,0,0,0,0,0,0
4324000,4244000,4898947603,0.0018000295,0.003886705,0.037817944,0,0.025993906,1.651777,0.014887522,nan,nan,0.0032905194,0.0,0.0,0.0,0.0,1310988,1310988,6620172,197388,0,0,165,1,1,1,1,1,0,0,0,0,0,0,0
4332000,4252000,4898947603,0.0017135999,0.0037880722,0.0365391,0,0.027194304,1.65178,0.014887522,nan,nan,0.0032905194,0.0,0.0,0.0,0.0,1310988,1310988,6620172,197388,0,0,165,1,1,1,1,1,0,0,0,0,0,0,0
4340000,4260000,4898947603,0.0013420986,0.0036914528,0.03529866,0,0.028443435,1.6517832,0.006456827,nan,nan,0.0032905194,0.0,0.0,0.0,0.0,1310988,1310988,6620172,197388,0,0,165,1,1,1,1,1,0,0,0,0,0,0,0
4348000,4268000,4898947603,0.0012565545,0.0035931102,0.033826794,0,0.029741626,1.4937891,0.006456827,nan,nan,7.622313e-05,0.0,0.0,0.0,0.0,1310988,1310988,6620172,197388,0,0,165,1,1,1,1,1,0,0,0,0,0,0,0
4356000,4276000,4898947603,0.0011383727,0.0034953102,0.03266817,0,0.031089371,1.4937924,0.006456827,nan,nan,7.622313e-05,0.0,0.0,0.0,0.0,1310988,1310988,6620172,197388,0,0,165,1,1,1,1,1,0,0,0,0,0,0,0
4364000,4284000,4898947603,0.0010214029,0.0033979656,0.031544168,0,0.03248721,1.4937959,0.006456827,nan,nan,7.622313e-05,0.0,0.0,0.0,0.0,1310988,1310988,6620172,197388,0,0,165,1,1,1,1,1,0,0,0,0,0,0,0
4372000,4292000,4898947603,0.00090904156,0.0033010857,0.030453883,0,0.033935484,1.4937997,0.006456827,nan,nan,7.622313e-05,0.0,0.0,0.0,0.0,1310988,1310988,6620172,197388,0,0,165,1,1,1,1,1,0,0,0,0,0,0,0
4380000,4300000,4898947603,0.0008011893,0.0032055832,0.02939625,0,0.035434823,1.4938036,0.006456827,nan,nan,7.622313e-05,0.0,0.0,0.0,0.0,1310988,1310988,6620172,197388,0,0,165,1,1,1,1,1,0,0,0,0,0,0,0
4388000,4308000,4898947603,0.0006978546,0.003110658,0.028370498,0,0.036985647,1.4938079,0.006456827,nan,nan,7.622313e-05,0.0,0.0,0.0,0.0,1310988,1310988,6620172,197388,0,0,165,1,1,1,1,1,0,0,0,0,0,0,0
4396000,4316000,4898947603,0.00059888256,0.0030166805,0.027375333,0,0.038588528,1.4938123,0.006456827,nan,nan,7.622313e-05,0.0,0.0,0.0,0.0,1310988,1310988,6620172,197388,0,0,165,1,1,1,1,1,0,0,0,0,0,0,0
4404000,4324000,4898947603,0.0013457865,0.0057750046,0.026444701,0,0.013342295,1.4938171,0.011159105,nan,nan,7.622313e-05,0.0,0.0,0.0,0.0,1310988,1310988,6620172,197388,0,0,165,1,1,1,1,1,0,0,0,0,0,0,0
4412000,4332000,4898947603,0.0013278247,0.005662751,0.008336575,0,0.013923554,1.3739157,0.011159105,nan,nan,0.011450652,0.0,0.0,0.0,0.0,1310988,1310988,6620172,197388,0,0,165,1,1,1,1,1,0,0,0,0,0,0,0
4420000,4340000,4898947603,0.0013174262,0.0055534192,0.008168818,0,0.0145522235,1.3739206,0.011159105,nan,nan,0.011450652,0.0,0.0,0.0,0.0,1310988,1310988,6620172,197388,0,0,165,1,1,1,1,1,0,0,0,0,0,0,0
4428000,4348000,4898947603,0.0013087697,0.0054464084,0.008004876,0,0.015228312,1.3739257,0.011159105,nan,nan,0.011450652,0.0,0.0,0.0,0.0,1310988,1310988,6620172,197388,0,0,165,1,1,1,1,1,0,0,0,0,0,0,0
4436000,4356000,4898947603,0.0014038864,0.0055927527,0.008086989,0,0.015276269,1.3739246,0.011159105,nan,nan,0.011450652,0.0,0.0,0.0,0.0,1310988,1310988,6620172,197388,0,0,165,1,1,1,1,1,0,0,0,0,0,0,0
4444000,4364000,4898947603,0.0014027497,0.0054696705,0.007933513,0,0.015962187,1.3739297,0.011159105,nan,nan,0.011450652,0.0,0.0,0.0,0.0,1310988,1310988,6620172,197388,0,0,165,1,1,1,1,1,0,0,0,0,0,0,0
4452000,4372000,4898947603,0.0014042846,0.0053496775,0.0077831927,0,0.016691413,1.3739351,0.011159105,nan,nan,0.011450652,0.0,0.0,0.0,0.0,1310988,1310988,6620172,197388,0,0,165,1,1,1,1,1,0,0,0,0,0,0,0
4460000,4380000,4898947603,0.001407949,0.005234146,0.007636323,0,0.01746387,1.3739407,0.011159105,nan,nan,0.011450652,0.0,0.0,0.0,0.0,1310988,1310988,6620172,197388,0,0,165,1,1,1,1,1,0,0,0,0,0,0,0
4468000,4388000,4898947603,0.0014130916,0.005122019,0.015740417,0,0.018279526,1.2789339,0.011159105,nan,nan,0.0033307783,0.0,0.0,0.0,0.0,1310988,1310988,6620172,197388,0,0,165,1,1,1,1,1,0,0,0,0,0,0,0
4476000,4396000,4898947603,0.001281683,0.0050110333,0.015331759,0,0.019138182,1.2789397,0.009485534,nan,nan,0.0033307783,0.0,0.0,0.0,0.0,1310988,1310988,6620172,197388,0,0,165,1,1,1,1,1,0,0,0,0,0,0,0
4484000,4404000,4898947603,0.0012794263,0.004905896,0.014934315,0,0.020039707,1.2789458,0.009485534,nan,nan,0.0033307783,0.0,0.0,0.0,0.0,1310988,1310988,6620172,197388,0,0,165,1,1,1,1,1,0,0,0,0,0,0,0
4492000,4412000,4898947603,0.0012137551,0.0048064385,0.01454756,0,0.020984061,1.2789522,0.009485534,nan,nan,0.0033307783,0.0,0.0,0.0,0.0,1310988,1310988,6620172,197388,0,0,165,1,1,1,1,1,0,0,0,0,0,0,0
4500000,4420000,4898947603,0.001149033,0.004706293,0.014171027,0,0.021971054,1.278959,0.009485534,nan,nan,0.0033307783,0.0,0.0,0.0,0.0,1310988,1310988,6620172,197388,0,0,165,1,1,1,1,1,0,0,0,0,0,0,0
4508000,4428000,4898947603,0.0010851308,0.004604976,0.0138047235,0,0.023000695,1.2789662,0.009485534,nan,nan,0.0033307783,0.0,0.0,0.0,0.0,1310988,1310988,6620172,197388,0,0,165,1,1,1,1,1,0,0,0,0,0,0,0
4516000,4436000,4898947603,0.001022217,0.004502759,0.013448046,0,0.02407286,1.2789736,0.009485534,nan,nan,0.0033307783,0.0,0.0,0.0,0.0,1310988,1310988,6620172,197388,0,0,165,1,1,1,1,1,0,0,0,0,0,0,0
4524000,4444000,4898947603,0.00095393363,0.0044009304,0.01310058,0,0.02518751,1.2789814,0.009485534,nan,nan,0.0033307783,0.0,0.0,0.0,0.0,1310988,1310988,6620172,197388,0,0,165,1,1,1,1,1,0,0,0,0,0,0,0
4532000,4452000,4898947603,0.00088663993,0.0042990893,0.010320402,0,0.026344653,1.2012942,0.009485534,nan,nan,0.010404097,0.0,0.0,0.0,0.0,1310988,1310988,6620172,197388,0,0,165,1,1,1,1,1,0,0,0,0,0,0,0
4540000,4460000,4898947603,0.000820433,0.0041965176,0.0099209715,0,0.027544284,1.2013022,0.009485534,nan,nan,0.010404097,0.0,0.0,0.0,0.0,1310988,1310988,6620172,197388,0,0,165,1,1,1,1,1,0,0,0,0,0,0,0
4548000,4468000,4898947603,0.0009244764,0.004090967,0.009533789,0,0.028786397,1.2013105,0.010797832,nan,nan,0.010404097,0.0,0.0,0.0,0.0,1310988,1310988,6620172,197388,0,0,165,1,1,1,1,1,0,0,0,0,0,0,0
4556000,4476000,4898947603,0.0008937877,0.0039873994,0.009159056,0,0.030071149,1.2013193,0.010797832,nan,nan,0.010404097,0.0,0.0,0.0,0.0,1310988,1310988,6620172,197388,0,0,165,1,1,1,1,1,0,0,0,0,0,0,0
4564000,4484000,4898947603,0.0008519155,0.0038833835,0.008796077,0,0.031398628,1.2013285,0.010797832,nan,nan,0.010404097,0.0,0.0,0.0,0.0,1310988,1310988,6620172,197388,0,0,165,1,1,1,1,1,0,0,0,0,0,0,0
4572000,4492000,4898947603,0.0008138943,0.0037790993,0.008444605,0,0.0327689,1.201338,0.010797832,nan,nan,0.010404097,0.0,0.0,0.0,0.0,1310988,1310988,6620172,197388,0,0,165,1,1,1,1,1,0,0,0,0,0,0,0
4580000,4500000,4898947603,0.0007809429,0.0036750282,0.00810442,0,0.03418214,1.2013481,0.010797832,nan,nan,0.010404097,0.0,0.0,0.0,0.0,1310988,1310988,6620172,197388,0,0,165,1,1,1,1,1,0,0,0,0,0,0,0
4588000,4508000,4898947603,0.0007530636,0.003571515,0.0074292817,0,0.035638522,1.1362847,0.010797832,nan,nan,0.00018094157,0.0,0.0,0.0,0.0,1310988,1310988,6620172,197388,0,0,165,1,1,1,1,1,0,0,0,0,0,0,0
4596000,4516000,4898947603,0.0007293729,0.0034685058,0.0071214875,0,0.03713832,1.136295,0.010797832,nan,nan,0.00018094157,0.0,0.0,0.0,0.0,1310988,1310988,6620172,197388,0,0,165,1,1,1,1,1,0,0,0,0,0,0,0
4604000,4524000,4898947603,0.00070971606,0.003366356,0.006823505,0,0.03868168,1.1363057,0.010797832,nan,nan,0.00018094157,0.0,0.0,0.0,0.0,1310988,1310988,6620172,197388,0,0,165,1,1,1,1,1,0,0,0,0,0,0,0
4612000,4532000,4898947603,0.0011434038,0.005212756,0.006641949,0,0.013343196,1.1363168,0.010797832,nan,nan,0.00018094157,0.0,0.0,0.0,0.0,1310988,1310988,6620172,197388,0,0,165,1,1,1,1,1,0,0,0,0,0,0,0
4620000,4540000,4898947603,0.0009128687,0.0050886967,0.006366642,0,0.013894252,1.1363285,0.012472717,nan,nan,0.00018094157,0.0,0.0,0.0,0.0,1310988,1310988,6620172,197388,0,0,165,1,1,1,1,1,0,0,0,0,0,0,0
4628000,4548000,4898947603,0.0008784661,0.004965957,0.00610027,0,0.014480969,1.1363405,0.012472717,nan,nan,0.00018094157,0.0,0.0,0.0,0.0,1310988,1310988,6620172,197388,0,0,165,1,1,1,1,1,0,0,0,0,0,0,0
4636000,4556000,4898947603,0.0008474803,0.0048455773,0.005842888,0,0.015103033,1.136353,0.012472717,nan,nan,0.00018094157,0.0,0.0,0.0,0.0,1310988,1310988,6620172,197388,0,0,165,1,1,1,1,1,0,0,0,0,0,0,0
4644000,4564000,4898947603,0.0008688455,0.0047753025,0.004812607,0,0.015183879,1.0807997,0.012472717,nan,nan,0.0053044413,0.0,0.0,0.0,0.0,1310988,1310988,6620172,197388,0,0,165,1,1,1,1,1,0,0,0,0,0,0,0
4652000,4572000,4898947603,0.00084683904,0.0046308567,0.0047569745,0,0.015816148,1.0808108,0.012472717,nan,nan,0.0053044413,0.0,0.0,0.0,0.0,1310988,1310988,6620172,197388,0,0,165,1,1,1,1,1,0,0,0,0,0,0,0
4660000,4580000,4898947603,0.0008293505,0.004490377,0.0047017597,0,0.016480865,1.0808222,0.012472717,nan,nan,0.0053044413,0.0,0.0,0.0,0.0,1310988,1310988,6620172,197388,0,0,165,1,1,1,1,1,0,0,0,0,0,0,0
4668000,4588000,4898947603,0.0008163143,0.004353637,0.004647308,0,0.01717778,1.0808343,0.012472717,nan,nan,0.0053044413,0.0,0.0,0.0,0.0,1310988,1310988,6620172,197388,0,0,165,1,1,1,1,1,0,0,0,0,0,0,0
4676000,4596000,4898947603,0.0008076604,0.0042206794,0.004593513,0,0.017906696,1.0808467,0.012472717,nan,nan,0.0053044413,0.0,0.0,0.0,0.0,1310988,1310988,6620172,197388,0,0,165,1,1,1,1,1,0,0,0,0,0,0,0
4684000,4604000,4898947603,0.0008032075,0.0040919366,0.004540233,0,0.018667359,1.0808595,0.012472717,nan,nan,0.0053044413,0.0,0.0,0.0,0.0,1310988,1310988,6620172,197388,0,0,165,1,1,1,1,1,0,0,0,0,0,0,0
4692000,4612000,4898947603,0.00078615145,0.0039672176,0.0044878214,0,0.019459592,1.0808729,0.0012060893,nan,nan,0.0053044413,0.0,0.0,0.0,0.0,1310988,1310988,6620172,197388,0,0,165,1,1,1,1,1,0,0,0,0,0,0,0
4700000,4620000,4898947603,0.0007503421,0.003850072,0.0055294526,0,0.02028311,1.0327595,0.0012060893,nan,nan,0.0007282812,0.0,0.0,0.0,0.0,1310988,1310988,6620172,197388,0,0,165,1,1,1,1,1,0,0,0,0,0,0,0
4708000,4628000,4898947603,0.00070803176,0.0037341143,0.0054428885,0,0.021137765,1.0327733,0.0012060893,nan,nan,0.0007282812,0.0,0.0,0.0,0.0,1310988,1310988,6620172,197388,0,0,165,1,1,1,1,1,0,0,0,0,0,0,0
4716000,4636000,4898947603,0.00066759245,0.0036191118,0.005357672,0,0.02202348,1.0327876,0.0012060893,nan,nan,0.0007282812,0.0,0.0,0.0,0.0,1310988,1310988,6620172,197388,0,0,165,1,1,1,1,1,0,0,0,0,0,0,0
4724000,4644000,4898947603,0.000628407,0.003505897,0.005274319,0,0.022940144,1.0328022,0.0012060893,nan,nan,0.0007282812,0.0,0.0,0.0,0.0,1310988,1310988,6620172,197388,0,0,165,1,1,1,1,1,0,0,0,0,0,0,0
4732000,4652000,4898947603,0.00058768527,0.0033951954,0.005191536,0,0.023887577,1.0328175,0.0012060893,nan,nan,0.0007282812,0.0,0.0,0.0,0.0,1310988,1310988,6620172,197388,0,0,165,1,1,1,1,1,0,0,0,0,0,0,0
4740000,4660000,4898947603,0.0005477962,0.0032860402,0.0051099253,0,0.024865711,1.0328333,0.0012060893,nan,nan,0.0007282812,0.0,0.0,0.0,0.0,1310988,1310988,6620172,197388,0,0,165,1,1,1,1,1,0,0,0,0,0,0,0
4748000,4668000,4898947603,0.000508513,0.0031792584,0.0050294497,0,0.02587457,1.0328497,0.0012060893,nan,nan,0.0007282812,0.0,0.0,0.0,0.0,1310988,1310988,6620172,197388,0,0,165,1,1,1,1,1,0,0,0,0,0,0,0
4756000,4676000,4898947603,0.0004695712,0.0030733345,0.010742765,0,0.026914034,0.99063146,0.0012060893,nan,nan,0.004048235,0.0,0.0,0.0,0.0,1310988,1310988,6620172,197388,0,0,165,1,1,1,1,1,0,0,0,0,0,0,0
4764000,4684000,4898947603,0.0007151636,0.0029716063,0.010477632,0,0.02798409,0.9906482,0.0079746125,nan,nan,0.004048235,0.0,0.0,0.0,0.0,1310988,1310988,6620172,197388,0,0,165,1,1,1,1,1,0,0,0,0,0,0,0
4772000,4692000,4898947603,0.0006877762,0.0028715339,0.010219341,0,0.029084783,0.9906656,0.0079746125,nan,nan,0.004048235,0.0,0.0,0.0,0.0,1310988,1310988,6620172,197388,0,0,165,1,1,1,1,1,0,0,0,0,0,0,0
4780000,4700000,4898947603,0.00066307274,0.0027741718,0.009967077,0,0.03021608,0.99068356,0.0079746125,nan,nan,0.004048235,0.0,0.0,0.0,0.0,1310988,1310988,6620172,197388,0,0,165,1,1,1,1,1,0,0,0,0,0,0,0
4788000,4708000,4898947603,0.00063932734,0.002679411,0.009721144,0,0.031378012,0.9907021,0.0079746125,nan,nan,0.004048235,0.0,0.0,0.0,0.0,1310988,1310988,6620172,197388,0,0,165,1,1,1,1,1,0,0,0,0,0,0,0
4796000,4716000,4898947603,0.0006175459,0.0025882996,0.009481199,0,0.032570675,0.9907213,0.0079746125,nan,nan,0.004048235,0.0,0.0,0.0,0.0,1310988,1310988,6620172,197388,0,0,165,1,1,1,1,1,0,0,0,0,0,0,0
4804000,4724000,4898947603,0.0005977125,0.0025009243,0.009247151,0,0.03379414,0.9907411,0.0079746125,nan,nan,0.004048235,0.0,0.0,0.0,0.0,1310988,1310988,6620172,197388,0,0,165,1,1,1,1,1,0,0,0,0,0,0,0
4812000,4732000,4898947603,0.0005796689,0.0024171134,0.009018865,0,0.035048515,0.9907615,0.0079746125,nan,nan,0.004048235,0.0,0.0,0.0,0.0,1310988,1310988,6620172,197388,0,0,165,1,1,1,1,1,0,0,0,0,0,0,0
4820000,4740000,4898947603,0.0007561584,0.003546642,0.011470506,0,0.013179026,0.9533215,0.0079746125,nan,nan,0.0019714977,0.0,0.0,0.0,0.0,1310988,1310988,6620172,197388,0,0,165,1,1,1,1,1,0,0,0,0,0,0,0
4828000,4748000,4898947603,0.00073572696,0.0034432076,0.011168848,0,0.013663527,0.95334244,0.0079746125,nan,nan,0.0019714977,0.0,0.0,0.0,0.0,1310988,1310988,6620172,197388,0,0,165,1,1,1,1,1,0,0,0,0,0,0,0
4836000,4756000,4898947603,0.0005069849,0.0033442327,0.010875041,0,0.0141731715,0.9533641,0.007866456,nan,nan,0.0019714977,0.0,0.0,0.0,0.0,1310988,1310988,6620172,197388,0,0,165,1,1,1,1,1,0,0,0,0,0,0,0
4844000,4764000,4898947603,0.0004891182,0.0032484778,0.010588668,0,0.014707749,0.9533863,0.007866456,nan,nan,0.0019714977,0.0,0.0,0.0,0.0,1310988,1310988,6620172,197388,0,0,165,1,1,1,1,1,0,0,0,0,0,0,0
4852000,4772000,4898947603,0.0005102681,0.0032115525,0.010996617,0,0.01484494,0.95333135,0.007866456,nan,nan,0.0019714977,0.0,0.0,0.0,0.0,1310988,1310988,6620172,197388,0,0,165,1,1,1,1,1,0,0,0,0,0,0,0
4860000,4780000,4898947603,0.0004954082,0.0030724911,0.010719757,0,0.015392277,0.953351,0.007866456,nan,nan,0.0019714977,0.0,0.0,0.0,0.0,1310988,1310988,6620172,197388,0,0,165,1,1,1,1,1,0,0,0,0,0,0,0
4868000,4788000,4898947603,0.00048416675,0.0029382228,0.010449854,0,0.01596296,0.95337135,0.007866456,nan,nan,0.0019714977,0.0,0.0,0.0,0.0,1310988,1310988,6620172,197388,0,0,165,1,1,1,1,1,0,0,0,0,0,0,0
4876000,4796000,4898947603,0.00047646524,0.002811606,0.015043344,0,0.016556803,0.9198752,0.007866456,nan,nan,0.0038990648,0.0,0.0,0.0,0.0,1310988,1310988,6620172,197388,0,0,165,1,1,1,1,1,0,0,0,0,0,0,0
4884000,4804000,4898947603,0.0004721828,0.002686432,0.014631405,0,0.017173657,0.919896,0.007866456,nan,nan,0.0038990648,0.0,0.0,0.0,0.0,1310988,1310988,6620172,197388,0,0,165,1,1,1,1,1,0,0,0,0,0,0,0
4892000,4812000,4898947603,0.00047113103,0.0025663197,0.014230626,0,0.017813308,0.91991746,0.007866456,nan,nan,0.0038990648,0.0,0.0,0.0,0.0,1310988,1310988,6620172,197388,0,0,165,1,1,1,1,1,0,0,0,0,0,0,0
4900000,4820000,4898947603,0.0004731073,0.0024512606,0.013840868,0,0.018475628,0.9199395,0.007866456,nan,nan,0.0038990648,0.0,0.0,0.0,0.0,1310988,1310988,6620172,197388,0,0,165,1,1,1,1,1,0,0,0,0,0,0,0
4908000,4828000,4898947603,0.0012811563,0.0023454158,0.013461695,0,0.019160528,0.9199622,0.020368518,nan,nan,0.0038990648,0.0,0.0,0.0,0.0,1310988,1310988,6620172,197388,0,0,165,1,1,1,1,1,0,0,0,0,0,0,0
4916000,4836000,4898947603,0.0013032806,0.0022417638,0.013093043,0,0.019867884,0.9199856,0.020368518,nan,nan,0.0038990648,0.0,0.0,0.0,0.0,1310988,1310988,6620172,197388,0,0,165,1,1,1,1,1,0,0,0,0,0,0,0
4924000,4844000,4898947603,0.0013052035,0.0021413215,0.012734324,0,0.020597601,0.9200096,0.020368518,nan,nan,0.0038990648,0.0,0.0,0.0,0.0,1310988,1310988,6620172,197388,0,0,165,1,1,1,1,1,0,0,0,0,0,0,0
4932000,4852000,4898947603,0.0013072207,0.0020445597,0.012385329,0,0.02134952,0.9200343,0.020368518,nan,nan,0.0038990648,0.0,0.0,0.0,0.0,1310988,1310988,6620172,197388,0,0,165,1,1,1,1,1,0,0,0,0,0,0,0
4940000,4860000,4898947603,0.001307688,0.0019516407,0.00938163,0,0.022123514,0.8898284,0.020368518,nan,nan,0.0022898938,0.0,0.0,0.0,0.0,1310988,1310988,6620172,197388,0,0,165,1,1,1,1,1,0,0,0,0,0,0,0
4948000,4868000,4898947603,0.001307299,0.0018642788,0.009135513,0,0.022919554,0.8898537,0.020368518,nan,nan,0.0022898938,0.0,0.0,0.0,0.0,1310988,1310988,6620172,197388,0,0,165,1,1,1,1,1,0,0,0,0,0,0,0
4956000,4876000,4898947603,0.0013061551,0.0017815985,0.008895518,0,0.023737663,0.88987964,0.020368518,nan,nan,0.0022898938,0.0,0.0,0.0,0.0,1310988,1310988,6620172,197388,0,0,165,1,1,1,1,1,0,0,0,0,0,0,0
4964000,4884000,4898947603,0.0013038466,0.0017038757,0.0086616585,0,0.024577774,0.88990635,0.020368518,nan,nan,0.0022898938,0.0,0.0,0.0,0.0,1310988,1310988,6620172,197388,0,0,165,1,1,1,1,1,0,0,0,0,0,0,0
4972000,4892000,4898947603,0.0017240208,0.0016324687,0.008432907,0,0.025439834,0.88993376,0.00818913,nan,nan,0.0022898938,0.0,0.0,0.0,0.0,1310988,1310988,6620172,197388,0,0,165,1,1,1,1,1,0,0,0,0,0,0,0
4980000,4900000,4898947603,0.001722555,0.0015660437,0.008210166,0,0.026323812,0.88996196,0.00818913,nan,nan,0.0022898938,0.0,0.0,0.0,0.0,1310988,1310988,6620172,197388,0,0,165,1,1,1,1,1,0,0,0,0,0,0,0
4988000,4908000,4898947603,0.0017199949,0.0015059765,0.007992523,0,0.02722972,0.8899909,0.00818913,nan,nan,0.0022898938,0.0,0.0,0.0,0.0,1310988,1310988,6620172,197388,0,0,165,1,1,1,1,1,0,0,0,0,0,0,0
4996000,4916000,4898947603,0.0016590988,0.0014488676,0.009730216,0,0.028157525,0.86256886,0.00818913,nan,nan,0.0017874569,0.0,0.0,0.0,0.0,1310988,1310988,6620172,197388,0,0,165,1,1,1,1,1,0,0,0,0,0,0,0
5004000,4924000,4898947603,0.0015968577,0.001400317,0.009460721,0,0.02910725,0.8625984,0.00818913,nan,nan,0.0017874569,0.0,0.0,0.0,0.0,1310988,1310988,6620172,197388,0,0,165,1,1,1,1,1,0,0,0,0,0,0,0
5012000,4932000,4898947603,0.0015344333,0.0013589001,0.009198076,0,0.030078936,0.8626288,0.00818913,nan,nan,0.0017874569,0.0,0.0,0.0,0.0,1310988,1310988,6620172,197388,0,0,165,1,1,1,1,1,0,0,0,0,0,0,0
5020000,4940000,4898947603,0.0014716259,0.0013236054,0.008941999,0,0.031072607,0.86266,0.00818913,nan,nan,0.0017874569,0.0,0.0,0.0,0.0,1310988,1310988,6620172,197388,0,0,165,1,1,1,1,1,0,0,0,0,0,0,0
5028000,4948000,4898947603,0.0015123169,0.0027870843,0.008725795,0,0.01294105,0.86269206,0.00818913,nan,nan,0.0017874569,0.0,0.0,0.0,0.0,1310988,1310988,6620172,197388,0,0,165,1,1,1,1,1,0,0,0,0,0,0,0
5036000,4956000,4898947603,0.0014510363,0.0027270827,0.008483168,0,0.013364507,0.8627249,0.00818913,nan,nan,0.0017874569,0.0,0.0,0.0,0.0,1310988,1310988,6620172,197388,0,0,165,1,1,1,1,1,0,0,0,0,0,0,0
5044000,4964000,4898947603,0.000590606,0.002669666,0.008246526,0,0.013806553,0.86275864,0.019585865,nan,nan,0.0017874569,0.0,0.0,0.0,0.0,1310988,1310988,6620172,197388,0,0,165,1,1,1,1,1,0,0,0,0,0,0,0
5052000,4972000,4898947603,0.00055838854,0.0026179326,0.008016306,0,0.014267032,0.86279315,0.019585865,nan,nan,0.0017874569,0.0,0.0,0.0,0.0,1310988,1310988,6620172,197388,0,0,165,1,1,1,1,1,0,0,0,0,0,0,0
5060000,4980000,4898947603,0.00056244247,0.0026784784,0.010358463,0,0.0144376885,0.8375954,0.019585865,nan,nan,0.0017217622,0.0,0.0,0.0,0.0,1310988,1310988,6620172,197388,0,0,165,1,1,1,1,1,0,0,0,0,0,0,0
5068000,4988000,4898947603,0.00054948713,0.002571794,0.010073618,0,0.014911434,0.83762413,0.019585865,nan,nan,0.0017217622,0.0,0.0,0.0,0.0,1310988,1310988,6620172,197388,0,0,165,1,1,1,1,1,0,0,0,0,0,0,0
5076000,4996000,4898947603,0.00055212766,0.0024709408,0.009796832,0,0.015402683,0.83765364,0.019585865,nan,nan,0.0017217622,0.0,0.0,0.0,0.0,1310988,1310988,6620172,197388,0,0,165,1,1,1,1,1,0,0,0,0,0,0,0
5084000,5004000,4898947603,0.0005691459,0.0023762556,0.009527146,0,0.01591135,0.83768386,0.019585865,nan,nan,0.0017217622,0.0,0.0,0.0,0.0,1310988,1310988,6620172,197388,0,0,165,1,1,1,1,1,0,0,0,0,0,0,0
5092000,5012000,4898947603,0.0005979002,0.0022877385,0.009264739,0,0.016437316,0.83771485,0.019585865,nan,nan,0.0017217622,0.0,0.0,0.0,0.0,1310988,1310988,6620172,197388,0,0,165,1,1,1,1,1,0,0,0,0,0,0,0
5100000,5020000,4898947603,0.0006355704,0.0022054752,0.0090093305,0,0.016980493,0.8377466,0.019585865,nan,nan,0.0017217622,0.0,0.0,0.0,0.0,1310988,1310988,6620172,197388,0,0,165,1,1,1,1,1,0,0,0,0,0,0,0
5108000,5028000,4898947603,0.00067953573,0.0021293552,0.008761097,0,0.017540798,0.83777916,0.019585865,nan,nan,0.0017217622,0.0,0.0,0.0,0.0,1310988,1310988,6620172,197388,0,0,165,1,1,1,1,1,0,0,0,0,0,0,0
5116000,5036000,4898947603,0.0011408007,0.0020580806,0.005533202,0,0.0181181,0.81479365,0.009858726,nan,nan,0.0030852833,0.0,0.0,0.0,0.0,1310988,1310988,6620172,197388,0,0,165,1,1,1,1,1,0,0,0,0,0,0,0
5124000,5044000,4898947603,0.0011967707,0.001995002,0.0053936657,0,0.018712291,0.81482685,0.009858726,nan,nan,0.0030852833,0.0,0.0,0.0,0.0,1310988,1310988,6620172,197388,0,0,165,1,1,1,1,1,0,0,0,0,0,0,0
5132000,5052000,4898947603,0.0012001671,0.0019363873,0.005257613,0,0.019323308,0.8148608,0.009858726,nan,nan,0.0030852833,0.0,0.0,0.0,0.0,1310988,1310988,6620172,197388,0,0,165,1,1,1,1,1,0,0,0,0,0,0,0
5140000,5060000,4898947603,0.0012014896,0.0018821236,0.005124895,0,0.019951079,0.81489563,0.009858726,nan,nan,0.0030852833,0.0,0.0,0.0,0.0,1310988,1310988,6620172,197388,0,0,165,1,1,1,1,1,0,0,0,0,0,0,0
5148000,5068000,4898947603,0.0011986627,0.0018315958,0.00499534,0,0.020595595,0.8149313,0.009858726,nan,nan,0.0030852833,0.0,0.0,0.0,0.0,1310988,1310988,6620172,197388,0,0,165,1,1,1,1,1,0,0,0,0,0,0,0
5156000,5076000,4898947603,0.0011922331,0.0017862766,0.004868242,0,0.021256799,0.81496775,0.009858726,nan,nan,0.0030852833,0.0,0.0,0.0,0.0,1310988,1310988,6620172,197388,0,0,165,1,1,1,1,1,0,0,0,0,0,0,0
5164000,5084000,4898947603,0.0011823047,0.0017459688,0.0047438825,0,0.021934634,0.8150051,0.009858726,nan,nan,0.0030852833,0.0,0.0,0.0,0.0,1310988,1310988,6620172,197388,0,0,165,1,1,1,1,1,0,0,0,0,0,0,0
5172000,5092000,4898947603,0.0011684974,0.001710262,0.0046221446,0,0.022629056,0.81504333,0.009858726,nan,nan,0.0030852833,0.0,0.0,0.0,0.0,1310988,1310988,6620172,197388,0,0,165,1,1,1,1,1,0,0,0,0,0,0,0
5180000,5100000,4898947603,0.0011514153,0.0016764501,0.0066482993,0,0.023340048,0.7938402,0.009858726,nan,nan,0.002339835,0.0,0.0,0.0,0.0,1310988,1310988,6620172,197388,0,0,165,1,1,1,1,1,0,0,0,0,0,0,0
5188000,5108000,4898947603,0.0014383658,0.001648425,0.006462677,0,0.024067577,0.79387915,0.005847398,nan,nan,0.002339835,0.0,0.0,0.0,0.0,1310988,1310988,6620172,197388,0,0,165,1,1,1,1,1,0,0,0,0,0,0,0
5196000,5116000,4898947603,0.0014167988,0.001625492,0.0062816977,0,0.024811625,0.793919,0.005847398,nan,nan,0.002339835,0.0,0.0,0.0,0.0,1310988,1310988,6620172,197388,0,0,165,1,1,1,1,1,0,0,0,0,0,0,0
5204000,5124000,4898947603,0.0013639153,0.0016065849,0.006105251,0,0.025572231,0.7939598,0.005847398,nan,nan,0.002339835,0.0,0.0,0.0,0.0,1310988,1310988,6620172,197388,0,0,165,1,1,1,1,1,0,0,0,0,0,0,0
5212000,5132000,4898947603,0.0013078642,0.001592413,0.005932887,0,0.026349347,0.79400146,0.005847398,nan,nan,0.002339835,0.0,0.0,0.0,0.0,1310988,1310988,6620172,197388,0,0,165,1,1,1,1,1,0,0,0,0,0,0,0
5220000,5140000,4898947603,0.0012513769,0.0015826821,0.005764857,0,0.02714297,0.7940441,0.005847398,nan,nan,0.002339835,0.0,0.0,0.0,0.0,1310988,1310988,6620172,197388,0,0,165,1,1,1,1,1,0,0,0,0,0,0,0
5228000,5148000,4898947603,0.0011947866,0.0015765929,0.0056007467,0,0.027953098,0.79408765,0.005847398,nan,nan,0.002339835,0.0,0.0,0.0,0.0,1310988,1310988,6620172,197388,0,0,165,1,1,1,1,1,0,0,0,0,0,0,0
5236000,5156000,4898947603,0.0012060622,0.0028186052,0.0051790723,0,0.012692511,0.77444756,0.005847398,nan,nan,0.00035996072,0.0,0.0,0.0,0.0,1310988,1310988,6620172,197388,0,0,165,1,1,1,1,1,0,0,0,0,0,0,0
5244000,5164000,4898947603,0.0011489791,0.0027804475,0.0050342903,0,0.013068073,0.7744919,0.005847398,nan,nan,0.00035996072,0.0,0.0,0.0,0.0,1310988,1310988,6620172,197388,0,0,165,1,1,1,1,1,0,0,0,0,0,0,0
5252000,5172000,4898947603,0.0010925193,0.002745509,0.0048931246,0,0.013458222,0.77453727,0.005847398,nan,nan,0.00035996072,0.0,0.0,0.0,0.0,1310988,1310988,6620172,197388,0,0,165,1,1,1,1,1,0,0,0,0,0,0,0
5260000,5180000,4898947603,0.00050315954,0.002713555,0.0047554853,0,0.013862857,0.77458364,0.011607252,nan,nan,0.00035996072,0.0,0.0,0.0,0.0,1310988,1310988,6620172,197388,0,0,165,1,1,1,1,1,0,0,0,0,0,0,0
5268000,5188000,4898947603,0.0004578856,0.0027150533,0.005596841,0,0.014048254,0.7743637,0.011607252,nan,nan,0.00035996072,0.0,0.0,0.0,0.0,1310988,1310988,6620172,197388,0,0,165,1,1,1,1,1,0,0,0,0,0,0,0
5276000,5196000,4898947603,0.00040745037,0.0026243338,0.0054507,0,0.01446565,0.77440274,0.011607252,nan,nan,0.00035996072,0.0,0.0,0.0,0.0,1310988,1310988,6620172,197388,0,0,165,1,1,1,1,1,0,0,0,0,0,0,0
5284000,5204000,4898947603,0.0003665171,0.002539195,0.005308156,0,0.014896911,0.7744426,0.011607252,nan,nan,0.00035996072,0.0,0.0,0.0,0.0,1310988,1310988,6620172,197388,0,0,165,1,1,1,1,1,0,0,0,0,0,0,0
5292000,5212000,4898947603,0.00033819678,0.0024596404,0.0051694205,0,0.015341976,0.7744834,0.011607252,nan,nan,0.00035996072,0.0,0.0,0.0,0.0,1310988,1310988,6620172,197388,0,0,165,1,1,1,1,1,0,0,0,0,0,0,0
5300000,5220000,4898947603,0.00032399685,0.002391035,0.0077698035,0,0.015800757,0.7562298,0.011607252,nan,nan,0.0033023844,0.0,0.0,0.0,0.0,1310988,1310988,6620172,197388,0,0,165,1,1,1,1,1,0,0,0,0,0,0,0
5308000,5228000,4898947603,0.0003239397,0.0023216312,0.0075492254,0,0.016273204,0.7562712,0.011607252,nan,nan,0.0033023844,0.0,0.0,0.0,0.0,1310988,1310988,6620172,197388,0,0,165,1,1,1,1,1,0,0,0,0,0,0,0
5316000,5236000,4898947603,0.00033636807,0.0022583362,0.0073345494,0,0.016759237,0.75631356,0.011607252,nan,nan,0.0033023844,0.0,0.0,0.0,0.0,1310988,1310988,6620172,197388,0,0,165,1,1,1,1,1,0,0,0,0,0,0,0
5324000,5244000,4898947603,0.00053630874,0.002202557,0.007125961,0,0.017258823,0.7563568,0.004942195,nan,nan,0.0033023844,0.0,0.0,0.0,0.0,1310988,1310988,6620172,197388,0,0,165,1,1,1,1,1,0,0,0,0,0,0,0
5332000,5252000,4898947603,0.000575244,0.0021507144,0.006922982,0,0.017771903,0.75640094,0.004942195,nan,nan,0.0033023844,0.0,0.0,0.0,0.0,1310988,1310988,6620172,197388,0,0,165,1,1,1,1,1,0,0,0,0,0,0,0
5340000,5260000,4898947603,0.00061547715,0.0021031697,0.0067249583,0,0.018298374,0.75644594,0.004942195,nan,nan,0.0033023844,0.0,0.0,0.0,0.0,1310988,1310988,6620172,197388,0,0,165,1,1,1,1,1,0,0,0,0,0,0,0
5348000,5268000,4898947603,0.00062431965,0.002059814,0.006532906,0,0.018838225,0.75649196,0.004942195,nan,nan,0.0033023844,0.0,0.0,0.0,0.0,1310988,1310988,6620172,197388,0,0,165,1,1,1,1,1,0,0,0,0,0,0,0
5356000,5276000,4898947603,0.00063155807,0.0020212366,0.012214312,0,0.019391421,0.73946124,0.004942195,nan,nan,0.0073777647,0.0,0.0,0.0,0.0,1310988,1310988,6620172,197388,0,0,165,1,1,1,1,1,0,0,0,0,0,0,0
5364000,5284000,4898947603,0.00063648715,0.0019840805,0.0118417945,0,0.019957868,0.73950803,0.004942195,nan,nan,0.0073777647,0.0,0.0,0.0,0.0,1310988,1310988,6620172,197388,0,0,165,1,1,1,1,1,0,0,0,0,0,0,0
5372000,5292000,4898947603,0.0006386923,0.0019513859,0.011478907,0,0.020537503,0.7395558,0.004942195,nan,nan,0.0073777647,0.0,0.0,0.0,0.0,1310988,1310988,6620172,197388,0,0,165,1,1,1,1,1,0,0,0,0,0,0,0
5380000,5300000,4898947603,0.00063796015,0.0019237576,0.0111259995,0,0.021130329,0.7396045,0.004942195,nan,nan,0.0073777647,0.0,0.0,0.0,0.0,1310988,1310988,6620172,197388,0,0,165,1,1,1,1,1,0,0,0,0,0,0,0
5388000,5308000,4898947603,0.0006347494,0.0019002239,0.010782012,0,0.021736309,0.7396542,0.004942195,nan,nan,0.0073777647,0.0,0.0,0.0,0.0,1310988,1310988,6620172,197388,0,0,165,1,1,1,1,1,0,0,0,0,0,0,0
5396000,5316000,4898947603,0.0005706848,0.0018810002,0.010447577,0,0.022355437,0.7397049,0.0010956449,nan,nan,0.0073777647,0.0,0.0,0.0,0.0,1310988,1310988,6620172,197388,0,0,165,1,1,1,1,1,0,0,0,0,0,0,0
5404000,5324000,4898947603,0.00056155573,0.001865868,0.010121757,0,0.022987716,0.7397566,0.0010956449,nan,nan,0.0073777647,0.0,0.0,0.0,0.0,1310988,1310988,6620172,197388,0,0,165,1,1,1,1,1,0,0,0,0,0,0,0
5412000,5332000,4898947603,0.00053595763,0.0018542841,0.00980468,0,0.023633122,0.7398093,0.0010956449,nan,nan,0.0073777647,0.0,0.0,0.0,0.0,1310988,1310988,6620172,197388,0,0,165,1,1,1,1,1,0,0,0,0,0,0,0
5420000,5340000,4898947603,0.000507936,0.001854463,0.006502043,0,0.024291668,0.72386664,0.0010956449,nan,nan,0.0039347126,0.0,0.0,0.0,0.0,1310988,1310988,6620172,197388,0,0,165,1,1,1,1,1,0,0,0,0,0,0,0
5428000,5348000,4898947603,0.0004774273,0.0018505753,0.0062984386,0,0.02496335,0.7239202,0.0010956449,nan,nan,0.0039347126,0.0,0.0,0.0,0.0,1310988,1310988,6620172,197388,0,0,165,1,1,1,1,1,0,0,0,0,0,0,0
5436000,5356000,4898947603,0.00044645352,0.0018498002,0.0061001643,0,0.025648175,0.7239749,0.0010956449,nan,nan,0.0039347126,0.0,0.0,0.0,0.0,1310988,1310988,6620172,197388,0,0,165,1,1,1,1,1,0,0,0,0,0,0,0
5444000,5364000,4898947603,0.00043439656,0.001987155,0.005916511,0,0.0124604665,0.7240306,0.0010956449,nan,nan,0.0039347126,0.0,0.0,0.0,0.0,1310988,1310988,6620172,197388,0,0,165,1,1,1,1,1,0,0,0,0,0,0,0
5452000,5372000,4898947603,0.00040258677,0.0019765801,0.005728099,0,0.012799731,0.7240874,0.0010956449,nan,nan,0.0039347126,0.0,0.0,0.0,0.0,1310988,1310988,6620172,197388,0,0,165,1,1,1,1,1,0,0,0,0,0,0,0
5460000,5380000,4898947603,0.0003706881,0.0019688234,0.005544735,0,0.013151034,0.72414535,0.0010956449,nan,nan,0.0039347126,0.0,0.0,0.0,0.0,1310988,1310988,6620172,197388,0,0,165,1,1,1,1,1,0,0,0,0,0,0,0
5468000,5388000,4898947603,0.000973591,0.0019645493,0.00536612,0,0.013514299,0.7242043,0.011873456,nan,nan,0.0039347126,0.0,0.0,0.0,0.0,1310988,1310988,6620172,197388,0,0,165,1,1,1,1,1,0,0,0,0,0,0,0
5476000,5396000,4898947603,0.00094383495,0.001955663,0.0071511716,0,0.01370449,0.7088593,0.011873456,nan,nan,0.0012563965,0.0,0.0,0.0,0.0,1310988,1310988,6620172,197388,0,0,165,1,1,1,1,1,0,0,0,0,0,0,0
5484000,5404000,4898947603,0.0009178373,0.0018731658,0.00693377,0,0.014079689,0.7089075,0.011873456,nan,nan,0.0012563965,0.0,0.0,0.0,0.0,1310988,1310988,6620172,197388,0,0,165,1,1,1,1,1,0,0,0,0,0,0,0
5492000,5412000,4898947603,0.0008923191,0.0017971231,0.0067223776,0,0.014466432,0.70895654,0.011873456,nan,nan,0.0012563965,0.0,0.0,0.0,0.0,1310988,1310988,6620172,197388,0,0,165,1,1,1,1,1,0,0,0,0,0,0,0
5500000,5420000,4898947603,0.0008680404,0.0017274261,0.006516201,0,0.014864645,0.70900655,0.011873456,nan,nan,0.0012563965,0.0,0.0,0.0,0.0,1310988,1310988,6620172,197388,0,0,165,1,1,1,1,1,0,0,0,0,0,0,0
5508000,5428000,4898947603,0.00084505515,0.0016647375,0.006315819,0,0.0152742565,0.7090575,0.011873456,nan,nan,0.0012563965,0.0,0.0,0.0,0.0,1310988,1310988,6620172,197388,0,0,165,1,1,1,1,1,0,0,0,0,0,0,0
5516000,5436000,4898947603,0.00082353223,0.0016088063,0.0061208853,0,0.015695233,0.7091094,0.011873456,nan,nan,0.0012563965,0.0,0.0,0.0,0.0,1310988,1310988,6620172,197388,0,0,165,1,1,1,1,1,0,0,0,0,0,0,0
5524000,5444000,4898947603,0.0008035834,0.0015594213,0.0059309746,0,0.016127516,0.70916224,0.011873456,nan,nan,0.0012563965,0.0,0.0,0.0,0.0,1310988,1310988,6620172,197388,0,0,165,1,1,1,1,1,0,0,0,0,0,0,0
5532000,5452000,4898947603,0.00078448997,0.0015174511,0.005746418,0,0.016571062,0.70921606,0.011873456,nan,nan,0.0012563965,0.0,0.0,0.0,0.0,1310988,1310988,6620172,197388,0,0,165,1,1,1,1,1,0,0,0,0,0,0,0
5540000,5460000,4898947603,0.0013616924,0.0014835534,0.0060194726,0,0.017025828,0.69514096,0.010891709,nan,nan,0.000649049,0.0,0.0,0.0,0.0,1310988,1310988,6620172,197388,0,0,165,1,1,1,1,1,0,0,0,0,0,0,0
5548000,5468000,4898947603,0.0013485474,0.0014536408,0.00583008,0,0.017491778,0.6951957,0.010891709,nan,nan,0.000649049,0.0,0.0,0.0,0.0,1310988,1310988,6620172,197388,0,0,165,1,1,1,1,1,0,0,0,0,0,0,0
5556000,5476000,4898947603,0.0013019537,0.00142985,0.005645948,0,0.017968882,0.69525135,0.010891709,nan,nan,0.000649049,0.0,0.0,0.0,0.0,1310988,1310988,6620172,197388,0,0,165,1,1,1,1,1,0,0,0,0,0,0,0
5564000,5484000,4898947603,0.001256969,0.0014125879,0.005466216,0,0.01845707,0.695308,0.010891709,nan,nan,0.000649049,0.0,0.0,0.0,0.0,1310988,1310988,6620172,197388,0,0,165,1,1,1,1,1,0,0,0,0,0,0,0
5572000,5492000,4898947603,0.0012130598,0.0014023541,0.0052908952,0,0.018956318,0.6953658,0.010891709,nan,nan,0.000649049,0.0,0.0,0.0,0.0,1310988,1310988,6620172,197388,0,0,165,1,1,1,1,1,0,0,0,0,0,0,0
5580000,5500000,4898947603,0.0011706408,0.0013983123,0.0051200157,0,0.019466601,0.69542456,0.010891709,nan,nan,0.000649049,0.0,0.0,0.0,0.0,1310988,1310988,6620172,197388,0,0,165,1,1,1,1,1,0,0,0,0,0,0,0
5588000,5508000,4898947603,0.0011294147,0.0013999374,0.0049532168,0,0.019987868,0.69548434,0.010891709,nan,nan,0.000649049,0.0,0.0,0.0,0.0,1310988,1310988,6620172,197388,0,0,165,1,1,1,1,1,0,0,0,0,0,0,0
5596000,5516000,4898947603,0.0010891444,0.0014139962,0.0022755673,0,0.020520106,0.68220466,0.010891709,nan,nan,0.003822412,0.0,0.0,0.0,0.0,1310988,1310988,6620172,197388,0,0,165,1,1,1,1,1,0,0,0,0,0,0,0
5604000,5524000,4898947603,0.0010500684,0.0014268116,0.0022022135,0,0.021063274,0.6822654,0.010891709,nan,nan,0.003822412,0.0,0.0,0.0,0.0,1310988,1310988,6620172,197388,0,0,165,1,1,1,1,1,0,0,0,0,0,0,0
5612000,5532000,4898947603,0.0014865205,0.0014454959,0.0021306658,0,0.02161736,0.6823273,0.008652699,nan,nan,0.003822412,0.0,0.0,0.0,0.0,1310988,1310988,6620172,197388,0,0,165,1,1,1,1,1,0,0,0,0,0,0,0
5620000,5540000,4898947603,0.0014514169,0.0014659539,0.002060928,0,0.022182362,0.6823902,0.008652699,nan,nan,0.003822412,0.0,0.0,0.0,0.0,1310988,1310988,6620172,197388,0,0,165,1,1,1,1,1,0,0,0,0,0,0,0
5628000,5548000,4898947603,0.0013848434,0.0014887403,0.0019930825,0,0.022758283,0.6824542,0.008652699,nan,nan,0.003822412,0.0,0.0,0.0,0.0,1310988,1310988,6620172,197388,0,0,165,1,1,1,1,1,0,0,0,0,0,0,0
5636000,5556000,4898947603,0.0013189865,0.0015145098,0.0019266163,0,0.02334509,0.6825194,0.008652699,nan,nan,0.003822412,0.0,0.0,0.0,0.0,1310988,1310988,6620172,197388,0,0,165,1,1,1,1,1,0,0,0,0,0,0,0
5644000,5564000,4898947603,0.0012553354,0.0015424095,0.001862102,0,0.023942782,0.6825856,0.008652699,nan,nan,0.003822412,0.0,0.0,0.0,0.0,1310988,1310988,6620172,197388,0,0,165,1,1,1,1,1,0,0,0,0,0,0,0
5652000,5572000,4898947603,0.0012065953,0.0016449387,0.0017594885,0,0.01225449,0.682653,0.008652699,nan,nan,0.003822412,0.0,0.0,0.0,0.0,1310988,1310988,6620172,197388,0,0,165,1,1,1,1,1,0,0,0,0,0,0,0
5660000,5580000,4898947603,0.0011486153,0.0016873649,0.0014151714,0,0.012566184,0.67009217,0.008652699,nan,nan,0.00048587684,0.0,0.0,0.0,0.0,1310988,1310988,6620172,197388,0,0,165,1,1,1,1,1,0,0,0,0,0,0,0
5668000,5588000,4898947603,0.0010925423,0.0017273797,0.0013696435,0,0.012888235,0.6701606,0.008652699,nan,nan,0.00048587684,0.0,0.0,0.0,0.0,1310988,1310988,6620172,197388,0,0,165,1,1,1,1,1,0,0,0,0,0,0,0
5676000,5596000,4898947603,0.0010386693,0.0017673654,0.0013255618,0,0.013220594,0.6702302,0.008652699,nan,nan,0.00048587684,0.0,0.0,0.0,0.0,1310988,1310988,6620172,197388,0,0,165,1,1,1,1,1,0,0,0,0,0,0,0
5684000,5604000,4898947603,0.0012183042,0.0017700014,0.0023448141,0,0.013410835,0.669779,0.004207276,nan,nan,0.00048587684,0.0,0.0,0.0,0.0,1310988,1310988,6620172,197388,0,0,165,1,1,1,1,1,0,0,0,0,0,0,0
5692000,5612000,4898947603,0.0011692757,0.001728849,0.0022757081,0,0.013754416,0.6698369,0.004207276,nan,nan,0.00048587684,0.0,0.0,0.0,0.0,1310988,1310988,6620172,197388,0,0,165,1,1,1,1,1,0,0,0,0,0,0,0
5700000,5620000,4898947603,0.0010971171,0.0016940936,0.0022088147,0,0.014107988,0.66989565,0.004207276,nan,nan,0.00048587684,0.0,0.0,0.0,0.0,1310988,1310988,6620172,197388,0,0,165,1,1,1,1,1,0,0,0,0,0,0,0
5708000,5628000,4898947603,0.0010266663,0.0016663247,0.0021437726,0,0.014471492,0.66995543,0.004207276,nan,nan,0.00048587684,0.0,0.0,0.0,0.0,1310988,1310988,6620172,197388,0,0,165,1,1,1,1,1,0,0,0,0,0,0,0
5716000,5636000,4898947603,0.0009596448,0.0016481557,0.0032059622,0,0.014844869,0.65806675,0.004207276,nan,nan,0.0018645325,0.0,0.0,0.0,0.0,1310988,1310988,6620172,197388,0,0,165,1,1,1,1,1,0,0,0,0,0,0,0
5724000,5644000,4898947603,0.00089623546,0.0016315083,0.0031046078,0,0.015228076,0.6581274,0.004207276,nan,nan,0.0018645325,0.0,0.0,0.0,0.0,1310988,1310988,6620172,197388,0,0,165,1,1,1,1,1,0,0,0,0,0,0,0
5732000,5652000,4898947603,0.0008361676,0.0016204313,0.0030062338,0,0.015621052,0.6581892,0.004207276,nan,nan,0.0018645325,0.0,0.0,0.0,0.0,1310988,1310988,6620172,197388,0,0,165,1,1,1,1,1,0,0,0,0,0,0,0
5740000,5660000,4898947603,0.000776688,0.0016149535,0.0029107498,0,0.016023766,0.6582519,0.004207276,nan,nan,0.0018645325,0.0,0.0,0.0,0.0,1310988,1310988,6620172,197388,0,0,165,1,1,1,1,1,0,0,0,0,0,0,0
5748000,5668000,4898947603,0.0007200583,0.0016135928,0.0028177984,0,0.016436176,0.65831566,0.004207276,nan,nan,0.0018645325,0.0,0.0,0.0,0.0,1310988,1310988,6620172,197388,0,0,165,1,1,1,1,1,0,0,0,0,0,0,0
5756000,5676000,4898947603,0.0009766663,0.0016172765,0.0027280005,0,0.016858254,0.6583805,0.0058063944,nan,nan,0.0018645325,0.0,0.0,0.0,0.0,1310988,1310988,6620172,197388,0,0,165,1,1,1,1,1,0,0,0,0,0,0,0
5764000,5684000,4898947603,0.00092642015,0.0016237863,0.0026407018,0,0.017289959,0.6584464,0.0058063944,nan,nan,0.0018645325,0.0,0.0,0.0,0.0,1310988,1310988,6620172,197388,0,0,165,1,1,1,1,1,0,0,0,0,0,0,0
5772000,5692000,4898947603,0.00086628436,0.0016338611,0.0025555007,0,0.017731251,0.6585133,0.0058063944,nan,nan,0.0018645325,0.0,0.0,0.0,0.0,1310988,1310988,6620172,197388,0,0,165,1,1,1,1,1,0,0,0,0,0,0,0
5780000,5700000,4898947603,0.00080858765,0.0016430682,0.005284185,0,0.0181821,0.647223,0.0058063944,nan,nan,0.004732665,0.0,0.0,0.0,0.0,1310988,1310988,6620172,197388,0,0,165,1,1,1,1,1,0,0,0,0,0,0,0
