timestamp,timestamp_sample,control_mode_flags,output_tracking_error[0],output_tracking_error[1],output_tracking_error[2],filter_fault_flags,pos_horiz_accuracy,pos_vert_accuracy,mag_test_ratio,vel_test_ratio,pos_test_ratio,hgt_test_ratio,tas_test_ratio,hagl_test_ratio,beta_test_ratio,time_slip,accel_device_id,gyro_device_id,baro_device_id,mag_device_id,gps_check_fail_flags,innovation_check_flags,solution_status_flags,reset_count_vel_ne,reset_count_vel_d,reset_count_pos_ne,reset_count_pod_d,reset_count_quat,pre_flt_fail_innov_heading,pre_flt_fail_innov_vel_horiz,pre_flt_fail_innov_vel_vert,pre_flt_fail_innov_height,pre_flt_fail_mag_field_disturbed,health_flags,timeout_flags
3200000,3120000,13488881664,0.0007547682,0.017667945,0.0014608809,0,14.172738,10.008659,nan,nan,nan,nan,0.0,0.0,0.0,0.0,1310988,1310988,6620172,0,0,0,128,1,1,1,1,0,0,0,0,0,0,0,0
3208000,3128000,13488881664,0.0006873336,0.0047688293,0.0015482885,0,14.142143,10.0,nan,nan,nan,nan,0.0,0.0,0.0,0.0,1310988,1310988,6620172,0,0,0,128,1,1,1,1,0,0,0,0,0,0,0,0
3392000,3312000,13488881664,6.6384666e-05,0.0025553145,0.0016360712,0,0.014314709,7.071068,nan,nan,nan,nan,0.0,0.0,0.0,0.0,1310988,1310988,6620172,0,0,0,128,1,1,1,1,0,0,0,0,0,0,0,0
3600000,3520000,13488881665,0.00061935507,0.019083658,0.005757243,0,0.010514579,5.7735023,nan,nan,nan,nan,0.0,0.0,0.0,0.0,1310988,1310988,6620172,0,0,0,128,1,1,1,1,0,0,0,0,0,0,0,0
3800000,3720000,13488881665,0.0010841141,0.008135645,0.0047461,0,0.012888844,5.000002,nan,nan,nan,nan,0.0,0.0,0.0,0.0,1310988,1310988,6620172,0,0,0,128,1,1,1,1,0,0,0,0,0,0,0,0
3992000,3912000,4898947585,0.0004685632,0.0034891376,0.042529274,0,0.037665486,2.2180402,nan,nan,nan,0.0043597915,0.0,0.0,0.0,0.0,1310988,1310988,6620172,0,0,0,164,1,1,1,1,0,0,0,0,0,0,0,0
4192000,4112000,4898947585,0.0003065927,0.0030706613,0.021915745,0,0.03080069,1.4938072,nan,nan,nan,0.0012605333,0.0,0.0,0.0,0.0,1310988,1310988,6620172,0,0,0,164,1,1,1,1,0,0,0,0,0,0,0,0
4400000,4320000,4898947585,0.00015097718,0.002243349,0.0012353892,0,0.027566241,1.1362997,nan,nan,nan,0.00011211181,0.0,0.0,0.0,0.0,1310988,1310988,6620172,0,0,0,164,1,1,1,1,0,0,0,0,0,0,0,0
4600000,4520000,4898947585,0.00016378041,0.0017544645,0.007045091,0,0.025163596,0.9907301,nan,nan,nan,0.0037148322,0.0,0.0,0.0,0.0,1310988,1310988,6620172,0,0,0,164,1,1,1,1,0,0,0,0,0,0,0,0
4800000,4720000,4898947585,0.00021774863,0.0016837199,0.005897811,0,0.023342503,0.8625875,nan,nan,nan,0.00093647017,0.0,0.0,0.0,0.0,1310988,1310988,6620172,0,0,0,164,1,1,1,1,0,0,0,0,0,0,0,0
5000000,4920000,4898947585,0.00027793314,0.0021520932,0.004905547,0,0.021709137,0.79394597,nan,nan,nan,0.0009141752,0.0,0.0,0.0,0.0,1310988,1310988,6620172,0,0,0,164,1,1,1,1,0,0,0,0,0,0,0,0
5200000,5120000,4898947585,0.00020633223,0.002146924,0.008392284,0,0.020255867,0.7237551,nan,nan,nan,0.0013827969,0.0,0.0,0.0,0.0,1310988,1310988,6620172,0,0,0,164,1,1,1,1,0,0,0,0,0,0,0,0
5400000,5320000,4898947585,0.00014412474,0.0015411809,0.0037530805,0,0.019008892,0.68226326,nan,nan,nan,0.00012692252,0.0,0.0,0.0,0.0,1310988,1310988,6620172,0,0,0,164,1,1,1,1,0,0,0,0,0,0,0,0
5592000,5512000,4898947585,6.998e-05,0.00072466285,0.0014824691,0,0.0175392,0.6473653,nan,nan,nan,0.0016103687,0.0,0.0,0.0,0.0,1310988,1310988,6620172,0,0,0,164,1,1,1,1,0,0,0,0,0,0,0,0
5792000,5712000,4898947585,0.00012160416,0.0015819861,0.0033071458,0,0.016694969,0.60821635,nan,nan,nan,0.0030535255,0.0,0.0,0.0,0.0,1310988,1310988,6620172,0,0,0,164,1,1,1,1,0,0,0,0,0,0,0,0
5992000,5912000,4898947585,8.088354e-05,0.0018586597,0.0028104505,0,0.01597927,0.58356994,nan,nan,nan,0.002356122,0.0,0.0,0.0,0.0,1310988,1310988,6620172,0,0,0,164,1,1,1,1,0,0,0,0,0,0,0,0
6192000,6112000,4898947585,5.1806022e-05,0.0015791015,0.0039135334,0,0.015363714,0.5619081,nan,nan,nan,0.0013599356,0.0,0.0,0.0,0.0,1310988,1310988,6620172,0,0,0,164,1,1,1,1,0,0,0,0,0,0,0,0
6400000,6320000,4898947585,1.366317e-05,0.0014491096,0.0013114682,0,0.015142354,0.5363816,nan,nan,nan,0.001289781,0.0,0.0,0.0,0.0,1310988,1310988,6620172,0,0,0,164,1,1,1,1,0,0,0,0,0,0,0,0
6600000,6520000,4898947585,0.000101588696,0.0021301273,0.0020696064,0,0.014648077,0.51980025,nan,nan,nan,0.003467196,0.0,0.0,0.0,0.0,1310988,1310988,6620172,0,0,0,164,1,1,1,1,0,0,0,0,0,0,0,0
6800000,6720000,4898947585,0.00014700028,0.0027910867,0.001626392,0,0.014205,0.5048507,nan,nan,nan,0.0013183573,0.0,0.0,0.0,0.0,1310988,1310988,6620172,0,0,0,164,1,1,1,1,0,0,0,0,0,0,0,0
7000000,6920000,4898947585,0.00015893848,0.0032659157,0.0017508614,0,0.013802048,0.48652828,nan,nan,nan,0.0016241804,0.0,0.0,0.0,0.0,1310988,1310988,6620172,0,0,0,164,1,1,1,1,0,0,0,0,0,0,0,0
7200000,7120000,4898947585,0.00020330698,0.0035982067,0.0019295207,0,0.013432954,0.4745325,nan,nan,nan,0.006418548,0.0,0.0,0.0,0.0,1310988,1310988,6620172,0,0,0,164,1,1,1,1,0,0,0,0,0,0,0,0
7400000,7320000,4898947585,0.0002567013,0.0040638214,0.0021359578,0,0.013091882,0.46354422,nan,nan,nan,0.0010080497,0.0,0.0,0.0,0.0,1310988,1310988,6620172,0,0,0,164,1,1,1,1,0,0,0,0,0,0,0,0
7592000,7512000,4898947585,0.00025572145,0.0044197906,0.0029519403,0,0.012531571,0.44956106,nan,nan,nan,0.0011465735,0.0,0.0,0.0,0.0,1310988,1310988,6620172,0,0,0,164,1,1,1,1,0,0,0,0,0,0,0,0
7800000,7720000,4898947585,0.00018955489,0.0038713638,0.0026582137,0,0.012476707,0.44059506,nan,nan,nan,0.00014817627,0.0,0.0,0.0,0.0,1310988,1310988,6620172,0,0,0,164,1,1,1,1,0,0,0,0,0,0,0,0
7992000,7912000,4898947585,0.0001320735,0.0031664548,0.0017328224,0,0.011971287,0.43204963,nan,nan,nan,4.138144e-05,0.0,0.0,0.0,0.0,1310988,1310988,6620172,0,0,0,164,1,1,1,1,0,0,0,0,0,0,0,0
8200000,8120000,4898947585,7.9467936e-05,0.002220306,0.0021558974,0,0.01193263,0.42128488,nan,nan,nan,0.00039471898,0.0,0.0,0.0,0.0,1310988,1310988,6620172,0,0,0,164,1,1,1,1,0,0,0,0,0,0,0,0
8400000,8320000,4898947585,8.3337014e-05,0.0020137872,0.0031016925,0,0.011735532,0.41591752,nan,nan,nan,0.0022067162,0.0,0.0,0.0,0.0,1310988,1310988,6620172,0,0,0,164,1,1,1,1,0,0,0,0,0,0,0,0
8592000,8512000,4898947585,7.3757816e-05,0.001850408,0.0028344505,0,0.011286115,0.409174,nan,nan,nan,0.002148509,0.0,0.0,0.0,0.0,1310988,1310988,6620172,0,0,0,164,1,1,1,1,0,0,0,0,0,0,0,0
8792000,8712000,4898949633,6.497523e-05,0.0016059917,0.0051741754,0,0.011061461,0.8683394,nan,nan,nan,0.0052248836,0.0,0.0,0.0,0.0,1310988,1310988,6620172,0,0,0,164,1,1,1,2,0,0,0,0,0,0,0,0
8992000,8912000,4898949633,3.8821712e-05,0.0014266986,0.00436779,0,0.017354678,0.79808295,nan,nan,nan,0.005601326,0.0,0.0,0.0,0.0,1310988,1310988,6620172,0,0,0,164,1,1,1,2,0,0,0,0,0,0,0,0
9192000,9112000,4898949633,4.8524937e-05,0.0012680733,0.0030887893,0,0.016974509,0.596447,nan,nan,nan,0.0013538265,0.0,0.0,0.0,0.0,1310988,1310988,6620172,0,0,0,164,1,1,1,2,0,0,0,0,0,0,0,0
9400000,9320000,4898949633,5.2845266e-05,0.0012321413,0.00058180164,0,0.016908068,0.565231,nan,nan,nan,0.0007657591,0.0,0.0,0.0,0.0,1310988,1310988,6620172,0,0,0,164,1,1,1,2,0,0,0,0,0,0,0,0
9600000,9520000,4898949633,5.5599572e-05,0.0013419832,0.0011115321,0,0.016552478,0.4788954,nan,nan,nan,0.0014695426,0.0,0.0,0.0,0.0,1310988,1310988,6620172,0,0,0,164,1,1,1,2,0,0,0,0,0,0,0,0
9792000,9712000,4898949633,6.2239524e-05,0.0014212363,0.0012063108,0,0.015925748,0.4669587,nan,nan,nan,0.00095596904,0.0,0.0,0.0,0.0,1310988,1310988,6620172,0,0,0,164,1,1,1,2,0,0,0,0,0,0,0,0
10000000,9920000,4898949633,6.479842e-05,0.0015126572,0.00093877997,0,0.0158797,0.41244838,nan,nan,nan,0.001991045,0.0,0.0,0.0,0.0,1310988,1310988,6620172,0,0,0,164,1,1,1,2,0,0,0,0,0,0,0,0
10200000,10120000,4898949633,5.742501e-05,0.0014223293,0.0013508378,0,0.015560599,0.4054766,nan,nan,nan,0.0048072785,0.0,0.0,0.0,0.0,1310988,1310988,6620172,0,0,0,164,1,1,1,2,0,0,0,0,0,0,0,0
10400000,10320000,4898949633,5.1268435e-05,0.0012899177,0.00057884504,0,0.015252427,0.370925,nan,nan,nan,0.0009858101,0.0,0.0,0.0,0.0,1310988,1310988,6620172,0,0,0,164,1,1,1,2,0,0,0,0,0,0,0,0
10600000,10520000,4898949633,5.021873e-05,0.0014003738,0.00200795,0,0.014953993,0.36452407,nan,nan,nan,0.0010962652,0.0,0.0,0.0,0.0,1310988,1310988,6620172,0,0,0,164,1,1,1,2,0,0,0,0,0,0,0,0
10792000,10712000,4898949633,5.7768655e-05,0.0018320197,0.0011291282,0,0.014408071,0.33933967,nan,nan,nan,0.000673373,0.0,0.0,0.0,0.0,1310988,1310988,6620172,0,0,0,164,1,1,1,2,0,0,0,0,0,0,0,0
11000000,10920000,4898949633,5.7653084e-05,0.002215435,0.0023485713,0,0.014382682,0.33669496,nan,nan,nan,0.0024171702,0.0,0.0,0.0,0.0,1310988,1310988,6620172,0,0,0,164,1,1,1,2,0,0,0,0,0,0,0,0
11200000,11120000,4898949633,6.724474e-05,0.002595956,0.0035368842,0,0.014109109,0.31594718,nan,nan,nan,0.0016800584,0.0,0.0,0.0,0.0,1310988,1310988,6620172,0,0,0,164,1,1,1,2,0,0,0,0,0,0,0,0
11392000,11312000,4898949633,8.42599e-05,0.0029207382,0.002989865,0,0.0136023015,0.31418273,nan,nan,nan,0.00082191837,0.0,0.0,0.0,0.0,1310988,1310988,6620172,0,0,0,164,1,1,1,2,0,0,0,0,0,0,0,0
11592000,11512000,4898949633,9.05118e-05,0.0033086904,0.0038638373,0,0.013348522,0.29872572,nan,nan,nan,0.0022454301,0.0,0.0,0.0,0.0,1310988,1310988,6620172,0,0,0,164,1,1,1,2,0,0,0,0,0,0,0,0
11792000,11712000,4898949633,0.000100925325,0.0035611496,0.00395527,0,0.013101641,0.29681116,nan,nan,nan,0.0024801162,0.0,0.0,0.0,0.0,1310988,1310988,6620172,0,0,0,164,1,1,1,2,0,0,0,0,0,0,0,0
12000000,11920000,4898949633,0.00010117403,0.003405966,0.0041177343,0,0.013088145,0.28340936,nan,nan,nan,0.0032985408,0.0,0.0,0.0,0.0,1310988,1310988,6620172,0,0,0,164,1,1,1,2,0,0,0,0,0,0,0,0
12200000,12120000,4898949633,9.8414275e-05,0.0030978804,0.0037327271,0,0.012849872,0.2831881,nan,nan,nan,0.003041414,0.0,0.0,0.0,0.0,1310988,1310988,6620172,0,0,0,164,1,1,1,2,0,0,0,0,0,0,0,0
12400000,12320000,4898949633,9.185404e-05,0.0028265393,0.0038016445,0,0.012617537,0.27263132,nan,nan,nan,0.0036167041,0.0,0.0,0.0,0.0,1310988,1310988,6620172,0,0,0,164,1,1,1,2,0,0,0,0,0,0,0,0
12600000,12520000,4898949633,7.47678e-05,0.002536336,0.0034860813,0,0.012390873,0.2720434,nan,nan,nan,0.0014099029,0.0,0.0,0.0,0.0,1310988,1310988,6620172,0,0,0,164,1,1,1,2,0,0,0,0,0,0,0,0
12800000,12720000,4898949633,5.8646365e-05,0.002173895,0.003719826,0,0.012169809,0.26304445,nan,nan,nan,0.0033011353,0.0,0.0,0.0,0.0,1310988,1310988,6620172,0,0,0,164,1,1,1,2,0,0,0,0,0,0,0,0
12992000,12912000,4898949633,8.689488e-05,0.0025440934,0.0032547608,0,0.01175139,0.26344886,nan,nan,nan,0.0033023458,0.0,0.0,0.0,0.0,1310988,1310988,6620172,0,0,0,164,1,1,1,2,0,0,0,0,0,0,0,0
13192000,13112000,4898949633,0.000102451406,0.0030443761,0.0031144763,0,0.0115461545,0.2555853,nan,nan,nan,0.0043172706,0.0,0.0,0.0,0.0,1310988,1310988,6620172,0,0,0,164,1,1,1,2,0,0,0,0,0,0,0,0
13392000,13312000,4898949633,9.9789344e-05,0.0025725712,0.0018055532,0,0.01138794,0.25796735,nan,nan,nan,0.0023617651,0.0,0.0,0.0,0.0,1310988,1310988,6620172,0,0,0,164,1,1,1,2,0,0,0,0,0,0,0,0
13600000,13520000,4898949633,0.00010103089,0.0026495417,0.0021195884,0,0.011382346,0.25126657,nan,nan,nan,0.004804496,0.0,0.0,0.0,0.0,1310988,1310988,6620172,0,0,0,164,1,1,1,2,0,0,0,0,0,0,0,0
13800000,13720000,4898949633,0.00010235107,0.0026987218,0.0021244176,0,0.01118605,0.25189656,nan,nan,nan,0.0048995414,0.0,0.0,0.0,0.0,1310988,1310988,6620172,0,0,0,164,1,1,1,2,0,0,0,0,0,0,0,0
13992000,13912000,4898949633,8.164654e-05,0.002348211,0.001938244,0,0.010812875,0.24550444,nan,nan,nan,0.0042503215,0.0,0.0,0.0,0.0,1310988,1310988,6620172,0,0,0,164,1,1,1,2,0,0,0,0,0,0,0,0
14200000,14120000,4898949633,4.7805504e-05,0.0015902234,0.001357613,0,0.010808833,0.24719708,nan,nan,nan,0.002795516,0.0,0.0,0.0,0.0,1310988,1310988,6620172,0,0,0,164,1,1,1,2,0,0,0,0,0,0,0,0
14400000,14320000,4898949633,1.9417208e-05,0.00079547265,0.0013328942,0,0.016471151,0.24103749,nan,nan,nan,0.0021305673,0.0,0.0,0.0,0.0,1310988,1310988,6620172,0,0,0,164,1,1,1,2,0,0,0,0,0,0,0,0
14600000,14520000,4898949633,2.3624356e-05,0.0008743732,0.0011708412,0,0.016186174,0.24264248,nan,nan,nan,0.002584869,0.0,0.0,0.0,0.0,1310988,1310988,6620172,0,0,0,164,1,1,1,2,0,0,0,0,0,0,0,0
14792000,14712000,4832889473,1.375634e-05,0.0013018171,0.0014831285,0,0.016043546,0.2402597,nan,nan,nan,0.0021038614,0.0,0.0,0.0,0.0,1310988,1310988,6620172,0,0,0,164,1,1,1,2,0,0,0,0,0,0,0,0
14992000,14912000,4832889473,1.2828454e-05,0.0013218935,0.0020485143,0,0.030339062,0.24521953,nan,nan,nan,0.0017535839,0.0,0.0,0.0,0.0,1310988,1310988,6620172,0,0,0,164,1,1,1,2,0,0,0,0,0,0,0,0
15200000,15120000,4832889473,1.1491186e-05,0.0012239565,0.0015554011,0,0.06065771,0.2448338,nan,nan,nan,0.0028268017,0.0,0.0,0.0,0.0,1310988,1310988,6620172,0,0,0,164,1,1,1,2,0,0,0,0,0,0,0,0
15392000,15312000,4832889473,1.143613e-05,0.0012088311,0.00177951,0,0.10276425,0.2511765,nan,nan,nan,0.0035499204,0.0,0.0,0.0,0.0,1310988,1310988,6620172,0,0,0,164,1,1,1,2,0,0,0,0,0,0,0,0
15600000,15520000,4832889473,1.0983075e-05,0.0009514098,0.0007655332,0,0.16319634,0.2521689,nan,nan,nan,0.0029432802,0.0,0.0,0.0,0.0,1310988,1310988,6620172,0,0,0,164,1,1,1,2,0,0,0,0,0,0,0,0
15800000,15720000,4832889473,1.1637444e-05,0.001052153,0.001613717,0,0.23560959,0.26144558,nan,nan,nan,0.0034885579,0.0,0.0,0.0,0.0,1310988,1310988,6620172,0,0,0,164,1,1,1,2,0,0,0,0,0,0,0,0
16000000,15920000,4832889473,1.0997499e-05,0.00087311096,0.0011210473,0,0.3219384,0.26234603,nan,nan,nan,0.0016875336,0.0,0.0,0.0,0.0,1310988,1310988,6620172,0,0,0,164,1,1,1,2,0,0,0,0,0,0,0,0
16192000,16112000,4832889473,1.09334815e-05,0.00078417466,0.0010144182,0,0.4178055,0.27293456,nan,nan,nan,0.0031824603,0.0,0.0,0.0,0.0,1310988,1310988,6620172,0,0,0,164,1,1,1,2,0,0,0,0,0,0,0,0
16392000,16312000,4832889473,1.0692036e-05,0.0006194337,0.0005569078,0,0.53108984,0.27512187,nan,nan,nan,0.0043006614,0.0,0.0,0.0,0.0,1310988,1310988,6620172,0,0,0,164,1,1,1,2,0,0,0,0,0,0,0,0
16592000,16512000,4832889473,1.0682153e-05,0.00058135414,0.0006219299,0,0.65789926,0.28707698,nan,nan,nan,0.0034176926,0.0,0.0,0.0,0.0,1310988,1310988,6620172,0,0,0,164,1,1,1,2,0,0,0,0,0,0,0,0
16800000,16720000,4832889473,1.1237881e-05,0.0003305744,0.00070862315,0,0.8038599,0.289977,nan,nan,nan,0.0050568786,0.0,0.0,0.0,0.0,1310988,1310988,6620172,0,0,0,164,1,1,1,2,0,0,0,0,0,0,0,0
16992000,16912000,4832889473,1.1196096e-05,0.0005576796,0.00077957776,0,0.9508459,0.3025737,nan,nan,nan,0.0022218684,0.0,0.0,0.0,0.0,1310988,1310988,6620172,0,0,0,164,1,1,1,2,0,0,0,0,0,0,0,0
17200000,17120000,4832889473,1.1784803e-05,0.00035744056,0.0006859007,0,1.1229873,0.30385882,nan,nan,nan,0.005258642,0.0,0.0,0.0,0.0,1310988,1310988,6620172,0,0,0,164,1,1,1,2,0,0,0,0,0,0,0,0
17400000,17320000,4832889473,1.0725451e-05,0.00040073678,0.00048632734,0,1.3002363,0.31931162,nan,nan,nan,0.0039993227,0.0,0.0,0.0,0.0,1310988,1310988,6620172,0,0,0,164,1,1,1,2,0,0,0,0,0,0,0,0
17592000,17512000,4832889473,1.455338e-05,0.00021505273,0.0015782565,0,1.4801224,0.3190552,nan,nan,nan,0.0047369874,0.0,0.0,0.0,0.0,1310988,1310988,6620172,0,0,0,164,1,1,1,2,0,0,0,0,0,0,0,0
17792000,17712000,4832889473,1.0769187e-05,0.0006512026,0.00052755285,0,1.6773423,0.3338798,nan,nan,nan,0.004039259,0.0,0.0,0.0,0.0,1310988,1310988,6620172,0,0,0,164,1,1,1,2,0,0,0,0,0,0,0,0
17992000,17912000,4832889473,1.1386813e-05,0.0007559464,0.0011243474,0,1.882675,0.33275288,nan,nan,nan,0.0060050627,0.0,0.0,0.0,0.0,1310988,1310988,6620172,0,0,0,164,1,1,1,2,0,0,0,0,0,0,0,0
18192000,18112000,4832889473,2.7499676e-05,0.0002425382,0.0009310811,0,2.0946915,0.34773007,nan,nan,nan,0.0056200163,0.0,0.0,0.0,0.0,1310988,1310988,6620172,0,0,0,164,1,1,1,2,0,0,0,0,0,0,0,0
18400000,18320000,4832889473,4.7718433e-05,0.0009946253,0.0026488868,0,2.3202052,0.34559664,nan,nan,nan,0.003800183,0.0,0.0,0.0,0.0,1310988,1310988,6620172,0,0,0,164,1,1,1,2,0,0,0,0,0,0,0,0
18592000,18512000,4832889473,7.49195e-05,0.0026058846,0.005641811,0,2.5261009,0.3615295,nan,nan,nan,0.004276164,0.0,0.0,0.0,0.0,1310988,1310988,6620172,0,0,0,164,1,1,1,2,0,0,0,0,0,0,0,0
18792000,18712000,4832889473,7.772383e-05,0.003546574,0.008028663,0,2.738983,0.35467532,nan,nan,nan,0.0062953765,0.0,0.0,0.0,0.0,1310988,1310988,6620172,0,0,0,164,1,1,1,2,0,0,0,0,0,0,0,0
18992000,18912000,4832889473,0.00010330778,0.005077585,0.011158145,0,2.9466302,0.37137648,nan,nan,nan,0.003188351,0.0,0.0,0.0,0.0,1310988,1310988,6620172,0,0,0,164,1,1,1,2,0,0,0,0,0,0,0,0
19192000,19112000,4832889473,9.7154174e-05,0.0054496597,0.012597876,0,3.1453302,0.36446777,nan,nan,nan,0.0075431503,0.0,0.0,0.0,0.0,1310988,1310988,6620172,0,0,0,164,1,1,1,2,0,0,0,0,0,0,0,0
19392000,19312000,4832889473,2.6534766e-05,0.0021157935,0.005140188,0,3.4304378,0.37898186,nan,nan,nan,0.0037346801,0.0,0.0,0.0,0.0,1310988,1310988,6620172,0,0,0,164,1,1,1,2,0,0,0,0,0,0,0,0
19600000,19520000,4832889473,1.0369224e-05,0.0014540913,0.004554017,0,3.633354,0.37132502,nan,nan,nan,0.0077235056,0.0,0.0,0.0,0.0,1310988,1310988,6620172,0,0,0,164,1,1,1,2,0,0,0,0,0,0,0,0
19792000,19712000,4832889473,1.5899197e-05,0.0012003593,0.0037160206,0,3.798157,0.38674936,nan,nan,nan,0.009118831,0.0,0.0,0.0,0.0,1310988,1310988,6620172,0,0,0,164,1,1,1,2,0,0,0,0,0,0,0,0
19992000,19912000,4832889473,1.0692327e-05,0.0009223933,0.003523936,0,3.9573061,0.37451583,nan,nan,nan,0.0051551587,0.0,0.0,0.0,0.0,1310988,1310988,6620172,0,0,0,164,1,1,1,2,0,0,0,0,0,0,0,0
20192000,20112000,4832889473,1.4814364e-05,0.0005924582,0.0015513129,0,4.0992093,0.39045027,nan,nan,nan,0.005772965,0.0,0.0,0.0,0.0,1310988,1310988,6620172,0,0,0,164,1,1,1,2,0,0,0,0,0,0,0,0
20400000,20320000,4832889473,1.5539588e-05,0.0021648172,0.0066011553,0,4.233753,0.3779203,nan,nan,nan,0.010458728,0.0,0.0,0.0,0.0,1310988,1310988,6620172,0,0,0,164,1,1,1,2,0,0,0,0,0,0,0,0
20592000,20512000,4832889473,1.9174277e-05,0.0027550943,0.00815916,0,4.327035,0.3925268,nan,nan,nan,0.010426183,0.0,0.0,0.0,0.0,1310988,1310988,6620172,0,0,0,164,1,1,1,2,0,0,0,0,0,0,0,0
20792000,20712000,4832889473,3.150799e-05,0.0039351536,0.012169047,0,4.4136634,0.38049135,nan,nan,nan,0.006285648,0.0,0.0,0.0,0.0,1310988,1310988,6620172,0,0,0,164,1,1,1,2,0,0,0,0,0,0,0,0
20992000,20912000,4832889473,3.1482166e-05,0.0041700318,0.013192452,0,4.4837556,0.39582205,nan,nan,nan,0.007574792,0.0,0.0,0.0,0.0,1310988,1310988,6620172,0,0,0,164,1,1,1,2,0,0,0,0,0,0,0,0
21200000,21120000,4832889473,5.2338255e-05,0.005571795,0.018470135,0,4.5480957,0.38163808,nan,nan,nan,0.0114798825,0.0,0.0,0.0,0.0,1310988,1310988,6620172,0,0,0,164,1,1,1,2,0,0,0,0,0,0,0,0
21400000,21320000,4832889473,4.706026e-05,0.00526885,0.018038422,0,4.5877914,0.3966728,nan,nan,nan,0.011132484,0.0,0.0,0.0,0.0,1310988,1310988,6620172,0,0,0,164,1,1,1,2,0,0,0,0,0,0,0,0
21600000,21520000,4832889473,6.491648e-05,0.0062753474,0.022315672,0,4.6147985,0.3813002,nan,nan,nan,0.009142365,0.0,0.0,0.0,0.0,1310988,1310988,6620172,0,0,0,164,1,1,1,2,0,0,0,0,0,0,0,0
21800000,21720000,4832889473,5.892848e-05,0.005644867,0.02059621,0,4.6316385,0.39601466,nan,nan,nan,0.011755568,0.0,0.0,0.0,0.0,1310988,1310988,6620172,0,0,0,164,1,1,1,2,0,0,0,0,0,0,0,0
21992000,21912000,4832889473,7.654241e-05,0.0062542283,0.023499805,0,4.628521,0.3818866,nan,nan,nan,0.010430856,0.0,0.0,0.0,0.0,1310988,1310988,6620172,0,0,0,164,1,1,1,2,0,0,0,0,0,0,0,0
22200000,22120000,4832889473,6.726426e-05,0.005357829,0.020841777,0,4.63789,0.3949456,nan,nan,nan,0.00862692,0.0,0.0,0.0,0.0,1310988,1310988,6620172,0,0,0,164,1,1,1,2,0,0,0,0,0,0,0,0
22400000,22320000,4832889473,7.3289884e-05,0.0053282925,0.021500513,0,4.6299686,0.38165665,nan,nan,nan,0.010128819,0.0,0.0,0.0,0.0,1310988,1310988,6620172,0,0,0,164,1,1,1,2,0,0,0,0,0,0,0,0
22592000,22512000,4832889473,7.049634e-05,0.004934764,0.020552278,0,4.6072793,0.39526978,nan,nan,nan,0.008714917,0.0,0.0,0.0,0.0,1310988,1310988,6620172,0,0,0,164,1,1,1,2,0,0,0,0,0,0,0,0
22800000,22720000,4832889473,7.035528e-05,0.0045656357,0.019863654,0,4.598139,0.38043895,nan,nan,nan,0.009622759,0.0,0.0,0.0,0.0,1310988,1310988,6620172,0,0,0,164,1,1,1,2,0,0,0,0,0,0,0,0
22992000,22912000,4832889473,6.360853e-05,0.0041100658,0.0185739,0,4.567209,0.39389125,nan,nan,nan,0.009873936,0.0,0.0,0.0,0.0,1310988,1310988,6620172,0,0,0,164,1,1,1,2,0,0,0,0,0,0,0,0
23192000,23112000,4832889473,6.346133e-05,0.00397755,0.01863659,0,4.5419416,0.38058034,nan,nan,nan,0.01243227,0.0,0.0,0.0,0.0,1310988,1310988,6620172,0,0,0,164,1,1,1,2,0,0,0,0,0,0,0,0
23400000,23320000,4832889473,5.2872463e-05,0.0029678112,0.014653757,0,4.5226016,0.3933945,nan,nan,nan,0.009337874,0.0,0.0,0.0,0.0,1310988,1310988,6620172,0,0,0,164,1,1,1,2,0,0,0,0,0,0,0,0
23592000,23512000,4832889473,5.4067918e-05,0.0028915987,0.01504202,0,4.484455,0.37937793,nan,nan,nan,0.010142457,0.0,0.0,0.0,0.0,1310988,1310988,6620172,0,0,0,164,1,1,1,2,0,0,0,0,0,0,0,0
23800000,23720000,4832889473,4.5339268e-05,0.0022706697,0.012004483,0,4.4610887,0.39456874,nan,nan,nan,0.011265622,0.0,0.0,0.0,0.0,1310988,1310988,6620172,0,0,0,164,1,1,1,2,0,0,0,0,0,0,0,0
24000000,23920000,4832889473,4.377676e-05,0.0017702885,0.010724049,0,4.428364,0.3791036,nan,nan,nan,0.011662262,0.0,0.0,0.0,0.0,1310988,1310988,6620172,0,0,0,164,1,1,1,2,0,0,0,0,0,0,0,0
24200000,24120000,4832889473,3.762821e-05,0.0019573309,0.010091464,0,4.394934,0.39338866,nan,nan,nan,0.009721319,0.0,0.0,0.0,0.0,1310988,1310988,6620172,0,0,0,164,1,1,1,2,0,0,0,0,0,0,0,0
24400000,24320000,4832889473,3.7154303e-05,0.0012773245,0.008594341,0,4.360893,0.3781176,nan,nan,nan,0.01035264,0.0,0.0,0.0,0.0,1310988,1310988,6620172,0,0,0,164,1,1,1,2,0,0,0,0,0,0,0,0
24592000,24512000,4832889473,9.217102e-06,0.0025305655,0.0091662295,0,4.5371065,0.39154828,nan,nan,nan,0.011275902,0.0,0.0,0.0,0.0,1310988,1310988,6620172,0,0,0,164,1,1,1,2,0,0,0,0,0,0,0,0
24792000,24712000,4832889473,9.759896e-06,0.002341823,0.008514964,0,4.4982004,0.3787007,nan,nan,nan,0.012434111,0.0,0.0,0.0,0.0,1310988,1310988,6620172,0,0,0,164,1,1,1,2,0,0,0,0,0,0,0,0
24992000,24912000,4832889473,9.1753545e-06,0.0026856905,0.010030519,0,4.4594584,0.39079034,nan,nan,nan,0.011752896,0.0,0.0,0.0,0.0,1310988,1310988,6620172,0,0,0,164,1,1,1,2,0,0,0,0,0,0,0,0
25200000,25120000,4832889473,9.271806e-06,0.002580665,0.009737238,0,4.4278293,0.37898213,nan,nan,nan,0.011627538,0.0,0.0,0.0,0.0,1310988,1310988,6620172,0,0,0,164,1,1,1,2,0,0,0,0,0,0,0,0
25392000,25312000,4832889473,9.267355e-06,0.0028128475,0.010648924,0,4.3829074,0.3902601,nan,nan,nan,0.012550842,0.0,0.0,0.0,0.0,1310988,1310988,6620172,0,0,0,164,1,1,1,2,0,0,0,0,0,0,0,0
25592000,25512000,4832889473,9.933088e-06,0.0024962649,0.009280919,0,4.3453584,0.3777157,nan,nan,nan,0.013630794,0.0,0.0,0.0,0.0,1310988,1310988,6620172,0,0,0,164,1,1,1,2,0,0,0,0,0,0,0,0
25800000,25720000,4832889473,9.328553e-06,0.0026769068,0.010125697,0,4.3148394,0.393117,nan,nan,nan,0.013598921,0.0,0.0,0.0,0.0,1310988,1310988,6620172,0,0,0,164,1,1,1,2,0,0,0,0,0,0,0,0
26000000,25920000,4832889473,9.938743e-06,0.0023446404,0.008652024,0,4.2784414,0.3781717,nan,nan,nan,0.0117813265,0.0,0.0,0.0,0.0,1310988,1310988,6620172,0,0,0,164,1,1,1,2,0,0,0,0,0,0,0,0
26200000,26120000,4832889473,9.8448745e-06,0.002531464,0.009391075,0,4.2428055,0.392717,nan,nan,nan,0.012647717,0.0,0.0,0.0,0.0,1310988,1310988,6620172,0,0,0,164,1,1,1,2,0,0,0,0,0,0,0,0
26392000,26312000,4832889473,1.1169958e-05,0.0019265984,0.006736181,0,4.201964,0.3791943,nan,nan,nan,0.015035992,0.0,0.0,0.0,0.0,1310988,1310988,6620172,0,0,0,164,1,1,1,2,0,0,0,0,0,0,0,0
26600000,26520000,4832889473,1.0908466e-05,0.0020312895,0.0071252575,0,4.1739345,0.39241183,nan,nan,nan,0.014118565,0.0,0.0,0.0,0.0,1310988,1310988,6620172,0,0,0,164,1,1,1,2,0,0,0,0,0,0,0,0
26792000,26712000,4832889473,1.2442632e-05,0.0017804857,0.005808265,0,4.135028,0.37896845,nan,nan,nan,0.013782481,0.0,0.0,0.0,0.0,1310988,1310988,6620172,0,0,0,164,1,1,1,2,0,0,0,0,0,0,0,0
27000000,26920000,4831840897,1.2140028e-05,0.0017521925,0.005693453,0,4.1085157,0.39219952,nan,nan,nan,0.0138183525,0.0,0.0,0.0,0.0,1310988,1310988,6620172,0,0,0,164,1,1,1,2,0,0,0,0,0,0,0,0
27200000,27120000,4831840897,1.3052314e-05,0.001371441,0.0039714556,0,4.0771594,0.37964523,nan,nan,nan,0.015627144,0.0,0.0,0.0,0.0,1310988,1310988,6620172,0,0,0,164,1,1,1,2,0,0,0,0,0,0,0,0
27400000,27320000,4831840897,1.3616474e-05,0.0018265632,0.00596487,0,4.0467405,0.39443433,nan,nan,nan,0.014059631,0.0,0.0,0.0,0.0,1310988,1310988,6620172,0,0,0,164,1,1,1,2,0,0,0,0,0,0,0,0
27600000,27520000,4831840897,1.4498523e-05,0.00096656254,0.0020575076,0,4.0172644,0.37942323,nan,nan,nan,0.015195729,0.0,0.0,0.0,0.0,1310988,1310988,6620172,0,0,0,164,1,1,1,2,0,0,0,0,0,0,0,0
27800000,27720000,4831840897,1.5171695e-05,0.0014623018,0.004669763,0,3.9887438,0.3941596,nan,nan,nan,0.016805377,0.0,0.0,0.0,0.0,1310988,1310988,6620172,0,0,0,164,1,1,1,2,0,0,0,0,0,0,0,0
28000000,27920000,4831840897,1.5203381e-05,0.0008918804,0.0021485444,0,3.961181,0.37915567,nan,nan,nan,0.014299167,0.0,0.0,0.0,0.0,1310988,1310988,6620172,0,0,0,164,1,1,1,2,0,0,0,0,0,0,0,0
28200000,28120000,4831840897,1.5051562e-05,0.0016366319,0.0055898153,0,3.9345858,0.39388317,nan,nan,nan,0.015353742,0.0,0.0,0.0,0.0,1310988,1310988,6620172,0,0,0,164,1,1,1,2,0,0,0,0,0,0,0,0
28400000,28320000,4831840897,1.4980297e-05,0.0007501665,0.0022531613,0,3.9089558,0.3811374,nan,nan,nan,0.016562302,0.0,0.0,0.0,0.0,1310988,1310988,6620172,0,0,0,164,1,1,1,2,0,0,0,0,0,0,0,0
28592000,28512000,4831840897,1.5064538e-05,0.000952524,0.0035720319,0,3.8792987,0.3926797,nan,nan,nan,0.016728058,0.0,0.0,0.0,0.0,1310988,1310988,6620172,0,0,0,164,1,1,1,2,0,0,0,0,0,0,0,0
28792000,28712000,4831840897,1.4860616e-05,0.00095782214,0.0039989282,0,3.8556585,0.37995753,nan,nan,nan,0.01836859,0.0,0.0,0.0,0.0,1310988,1310988,6620172,0,0,0,164,1,1,1,2,0,0,0,0,0,0,0,0
28992000,28912000,4831840897,1.4725537e-05,0.0009765845,0.0041109384,0,3.83298,0.39476565,nan,nan,nan,0.020675017,0.0,0.0,0.0,0.0,1310988,1310988,6620172,0,0,0,164,1,1,1,2,0,0,0,0,0,0,0,0
29192000,29112000,4831840897,1.4558359e-05,0.0014567883,0.006052601,0,3.8112638,0.3795908,nan,nan,nan,0.019146493,0.0,0.0,0.0,0.0,1310988,1310988,6620172,0,0,0,164,1,1,1,2,0,0,0,0,0,0,0,0
29392000,29312000,4831840897,1.4551605e-05,0.0012630722,0.0053384188,0,3.7905097,0.39437026,nan,nan,nan,0.017089013,0.0,0.0,0.0,0.0,1310988,1310988,6620172,0,0,0,164,1,1,1,2,0,0,0,0,0,0,0,0
29592000,29512000,4831840897,1.4466554e-05,0.0010800244,0.005320065,0,3.7706912,0.38144696,nan,nan,nan,0.020268155,0.0,0.0,0.0,0.0,1310988,1310988,6620172,0,0,0,164,1,1,1,2,0,0,0,0,0,0,0,0
29800000,29720000,4832889473,1.4098546e-05,0.0015516066,0.00640744,0,3.7563496,0.39479458,nan,nan,nan,0.019553903,0.0,0.0,0.0,0.0,1310988,1310988,6620172,0,0,0,164,1,1,1,2,0,0,0,0,0,0,0,0
29992000,29912000,4832889473,9.653446e-06,0.001883428,0.00852916,0,3.871179,0.38100094,nan,nan,nan,0.021199748,0.0,0.0,0.0,0.0,1310988,1310988,6620172,0,0,0,164,1,1,1,2,0,0,0,0,0,0,0,0
30200000,30120000,4832889473,9.66275e-06,0.0018929107,0.008514936,0,3.8566768,0.3942443,nan,nan,nan,0.021791633,0.0,0.0,0.0,0.0,1310988,1310988,6620172,0,0,0,164,1,1,1,2,0,0,0,0,0,0,0,0
30400000,30320000,4832889473,9.469827e-06,0.0019403588,0.0086068995,0,3.8385372,0.38133428,nan,nan,nan,0.022753261,0.0,0.0,0.0,0.0,1310988,1310988,6620172,0,0,0,164,1,1,1,2,0,0,0,0,0,0,0,0
30592000,30512000,4832889473,9.108913e-06,0.0020314013,0.00858037,0,3.8167934,0.39524215,nan,nan,nan,0.023816008,0.0,0.0,0.0,0.0,1310988,1310988,6620172,0,0,0,164,1,1,1,2,0,0,0,0,0,0,0,0
30792000,30712000,4832889473,8.9400055e-06,0.001670023,0.00760067,0,3.800951,0.38213414,nan,nan,nan,0.023990441,0.0,0.0,0.0,0.0,1310988,1310988,6620172,0,0,0,164,1,1,1,2,0,0,0,0,0,0,0,0
30992000,30912000,4832889473,8.8620845e-06,0.0017402137,0.0075961323,0,3.7861714,0.39455912,nan,nan,nan,0.024059104,0.0,0.0,0.0,0.0,1310988,1310988,6620172,0,0,0,164,1,1,1,2,0,0,0,0,0,0,0,0
31200000,31120000,4832889473,8.822735e-06,0.0015310886,0.0071867746,0,3.7772126,0.382368,nan,nan,nan,0.025340894,0.0,0.0,0.0,0.0,1310988,1310988,6620172,0,0,0,164,1,1,1,2,0,0,0,0,0,0,0,0
31392000,31312000,4832889473,8.819134e-06,0.0023306361,0.009266926,0,3.759741,0.39633164,nan,nan,nan,0.023259737,0.0,0.0,0.0,0.0,1310988,1310988,6620172,0,0,0,164,1,1,1,2,0,0,0,0,0,0,0,0
31592000,31512000,4832889473,8.87626e-06,0.0013435009,0.0063619926,0,3.74807,0.38082758,nan,nan,nan,0.025557932,0.0,0.0,0.0,0.0,1310988,1310988,6620172,0,0,0,164,1,1,1,2,0,0,0,0,0,0,0,0
31800000,31720000,4832889473,8.855503e-06,0.002951872,0.011487519,0,3.7421925,0.3964593,nan,nan,nan,0.022604473,0.0,0.0,0.0,0.0,1310988,1310988,6620172,0,0,0,164,1,1,1,2,0,0,0,0,0,0,0,0
32000000,31920000,4832889473,9.061816e-06,0.0011128731,0.005884033,0,3.732518,0.38097554,nan,nan,nan,0.024971439,0.0,0.0,0.0,0.0,1310988,1310988,6620172,0,0,0,164,1,1,1,2,0,0,0,0,0,0,0,0
32192000,32112000,4832889473,9.580584e-06,0.002097638,0.008761213,0,3.7189872,0.39476177,nan,nan,nan,0.026206898,0.0,0.0,0.0,0.0,1310988,1310988,6620172,0,0,0,164,1,1,1,2,0,0,0,0,0,0,0,0
32400000,32320000,4832889473,9.822875e-06,0.0010776733,0.006039952,0,3.716021,0.38253385,nan,nan,nan,0.023699475,0.0,0.0,0.0,0.0,1310988,1310988,6620172,0,0,0,164,1,1,1,2,0,0,0,0,0,0,0,0
32600000,32520000,4832889473,1.0406428e-05,0.0025310013,0.0103619015,0,3.7091444,0.3949167,nan,nan,nan,0.026505392,0.0,0.0,0.0,0.0,1310988,1310988,6620172,0,0,0,164,1,1,1,2,0,0,0,0,0,0,0,0
32792000,32712000,4832889473,1.207101e-05,0.0011336548,0.006665758,0,3.6982646,0.3810184,nan,nan,nan,0.023570223,0.0,0.0,0.0,0.0,1310988,1310988,6620172,0,0,0,164,1,1,1,2,0,0,0,0,0,0,0,0
33000000,32920000,4832889473,1.2592622e-05,0.0027157732,0.011306051,0,3.6979787,0.3966735,nan,nan,nan,0.026515279,0.0,0.0,0.0,0.0,1310988,1310988,6620172,0,0,0,164,1,1,1,2,0,0,0,0,0,0,0,0
33200000,33120000,4832889473,1.3852243e-05,0.0013991962,0.007904055,0,3.69362,0.38118643,nan,nan,nan,0.025440702,0.0,0.0,0.0,0.0,1310988,1310988,6620172,0,0,0,164,1,1,1,2,0,0,0,0,0,0,0,0
33392000,33312000,4832889473,1.4971053e-05,0.003046308,0.01292958,0,3.6850655,0.39501256,nan,nan,nan,0.024796797,0.0,0.0,0.0,0.0,1310988,1310988,6620172,0,0,0,164,1,1,1,2,0,0,0,0,0,0,0,0
33592000,33512000,4832889473,1.682367e-05,0.0015709866,0.009312093,0,3.6821613,0.38187304,nan,nan,nan,0.023288755,0.0,0.0,0.0,0.0,1310988,1310988,6620172,0,0,0,164,1,1,1,2,0,0,0,0,0,0,0,0
33792000,33712000,4832889473,1.8610976e-05,0.00251784,0.012241491,0,3.6795776,0.39404,nan,nan,nan,0.030983733,0.0,0.0,0.0,0.0,1310988,1310988,6620172,0,0,0,164,1,1,1,2,0,0,0,0,0,0,0,0
34000000,33920000,4832889473,2.12107e-05,0.0055994573,0.023645397,0,3.683157,0.38118142,nan,nan,nan,0.05174479,0.0,0.0,0.0,0.0,1310988,1310988,6620172,0,0,0,164,1,1,1,2,0,0,0,0,0,0,0,0
34192000,34112000,4832889473,2.3449158e-05,0.0031342143,0.016276743,0,3.6771867,0.3939217,nan,nan,nan,0.059471853,0.0,0.0,0.0,0.0,1310988,1310988,6620172,0,0,0,164,1,1,1,2,0,0,0,0,0,0,0,0
34392000,34312000,4832889473,2.8274117e-05,0.0173684,0.072783604,0,3.676661,0.37726486,nan,nan,nan,0.10373571,0.0,0.0,0.0,0.0,1310988,1310988,6620172,0,0,0,164,1,1,1,2,0,0,0,0,0,0,0,0
34592000,34512000,4832889473,2.9393275e-05,0.008825454,0.04115961,0,3.6764646,0.38983977,nan,nan,nan,0.1105187,0.0,0.0,0.0,0.0,1310988,1310988,6620172,0,0,0,164,1,1,1,2,0,0,0,0,0,0,0,0
34792000,34712000,4832889473,3.527979e-05,0.021941345,0.09743169,0,3.6765554,0.37528265,nan,nan,nan,0.14221926,0.0,0.0,0.0,0.0,1310988,1310988,6620172,0,0,0,164,1,1,1,2,0,0,0,0,0,0,0,0
34992000,34912000,4832889473,1.0957064e-05,0.011292289,0.054198377,0,3.8082612,0.38491416,nan,nan,nan,0.14748615,0.0,0.0,0.0,0.0,1310988,1310988,6620172,0,0,0,164,1,1,1,2,0,0,0,0,0,0,0,0
35200000,35120000,4832889473,1.2825919e-05,0.023148105,0.10752969,0,3.8147266,0.37132198,nan,nan,nan,0.16912463,0.0,0.0,0.0,0.0,1310988,1310988,6620172,0,0,0,164,1,1,1,2,0,0,0,0,0,0,0,0
35392000,35312000,4832889473,1.2681026e-05,0.008022746,0.04337464,0,3.810623,0.38197124,nan,nan,nan,0.17608501,0.0,0.0,0.0,0.0,1310988,1310988,6620172,0,0,0,164,1,1,1,2,0,0,0,0,0,0,0,0
35592000,35512000,4832889473,1.905313e-05,0.024982534,0.11912195,0,3.8121536,0.36592785,nan,nan,nan,0.19165885,0.0,0.0,0.0,0.0,1310988,1310988,6620172,0,0,0,164,1,1,1,2,0,0,0,0,0,0,0,0
35792000,35712000,4832889473,1.6373442e-05,0.005978907,0.035848863,0,3.8138947,0.37694827,nan,nan,nan,0.19427155,0.0,0.0,0.0,0.0,1310988,1310988,6620172,0,0,0,164,1,1,1,2,0,0,0,0,0,0,0,0
35992000,35912000,4832889473,2.4934241e-05,0.020158377,0.099609084,0,3.8158164,0.3635792,nan,nan,nan,0.20629716,0.0,0.0,0.0,0.0,1310988,1310988,6620172,0,0,0,164,1,1,1,2,0,0,0,0,0,0,0,0
36192000,36112000,4832889473,2.2463464e-05,0.003735009,0.025328344,0,3.8178978,0.37253612,nan,nan,nan,0.21088399,0.0,0.0,0.0,0.0,1310988,1310988,6620172,0,0,0,164,1,1,1,2,0,0,0,0,0,0,0,0
36400000,36320000,4832889473,2.9960198e-05,0.016016776,0.0809233,0,3.8265975,0.3605212,nan,nan,nan,0.21426937,0.0,0.0,0.0,0.0,1310988,1310988,6620172,0,0,0,164,1,1,1,2,0,0,0,0,0,0,0,0
36592000,36512000,4832889473,2.9505223e-05,0.00188985,0.014466816,0,3.8242,0.3686402,nan,nan,nan,0.22080338,0.0,0.0,0.0,0.0,1310988,1310988,6620172,0,0,0,164,1,1,1,2,0,0,0,0,0,0,0,0
36800000,36720000,4832889473,3.8304614e-05,0.0132407695,0.06915749,0,3.8331509,0.3569473,nan,nan,nan,0.22045165,0.0,0.0,0.0,0.0,1310988,1310988,6620172,0,0,0,164,1,1,1,2,0,0,0,0,0,0,0,0
36992000,36912000,4832889473,3.601045e-05,0.0056334124,0.018569695,0,3.830701,0.36675242,nan,nan,nan,0.22526816,0.0,0.0,0.0,0.0,1310988,1310988,6620172,0,0,0,164,1,1,1,2,0,0,0,0,0,0,0,0
37192000,37112000,4832889473,5.1438143e-05,0.011600636,0.06293711,0,3.8338754,0.35273966,nan,nan,nan,0.2212358,0.0,0.0,0.0,0.0,1310988,1310988,6620172,0,0,0,164,1,1,1,2,0,0,0,0,0,0,0,0
37392000,37312000,4832889473,4.4861656e-05,0.008317035,0.03043647,0,3.8369446,0.36283055,nan,nan,nan,0.22374889,0.0,0.0,0.0,0.0,1310988,1310988,6620172,0,0,0,164,1,1,1,2,0,0,0,0,0,0,0,0
37600000,37520000,4832889473,5.5599237e-05,0.0054678577,0.03492696,0,3.8456612,0.35157552,nan,nan,nan,0.22285393,0.0,0.0,0.0,0.0,1310988,1310988,6620172,0,0,0,164,1,1,1,2,0,0,0,0,0,0,0,0
37792000,37712000,4832889473,5.455949e-05,0.010349031,0.040198214,0,3.8426015,0.3590536,nan,nan,nan,0.22514358,0.0,0.0,0.0,0.0,1310988,1310988,6620172,0,0,0,164,1,1,1,2,0,0,0,0,0,0,0,0
37992000,37912000,4832889473,7.052783e-05,0.0047260243,0.030259136,0,3.8451164,0.34765643,nan,nan,nan,0.21962935,0.0,0.0,0.0,0.0,1310988,1310988,6620172,0,0,0,164,1,1,1,2,0,0,0,0,0,0,0,0
38192000,38112000,4832889473,6.162212e-05,0.012570406,0.0516268,0,3.8473828,0.3557104,nan,nan,nan,0.22311579,0.0,0.0,0.0,0.0,1310988,1310988,6620172,0,0,0,164,1,1,1,2,0,0,0,0,0,0,0,0
38392000,38312000,4832889473,7.502672e-05,0.003977579,0.023050603,0,3.8493686,0.34484407,nan,nan,nan,0.21860696,0.0,0.0,0.0,0.0,1310988,1310988,6620172,0,0,0,164,1,1,1,2,0,0,0,0,0,0,0,0
38592000,38512000,4832889473,6.40107e-05,0.016398085,0.07132636,0,3.8510544,0.35477644,nan,nan,nan,0.21863234,0.0,0.0,0.0,0.0,1310988,1310988,6620172,0,0,0,164,1,1,1,2,0,0,0,0,0,0,0,0
38792000,38712000,4832889473,7.956926e-05,0.00419241,0.020513581,0,3.8524153,0.34266433,nan,nan,nan,0.21539873,0.0,0.0,0.0,0.0,1310988,1310988,6620172,0,0,0,164,1,1,1,2,0,0,0,0,0,0,0,0
38992000,38912000,4832889473,6.893987e-05,0.017212296,0.07773279,0,3.8534377,0.3527971,nan,nan,nan,0.21312514,0.0,0.0,0.0,0.0,1310988,1310988,6620172,0,0,0,164,1,1,1,2,0,0,0,0,0,0,0,0
39200000,39120000,4832889473,8.176375e-05,0.0046472987,0.021960337,0,3.8600075,0.34188834,nan,nan,nan,0.20906627,0.0,0.0,0.0,0.0,1310988,1310988,6620172,0,0,0,164,1,1,1,2,0,0,0,0,0,0,0,0
39392000,39312000,4832889473,7.403879e-05,0.017512312,0.08190873,0,3.854399,0.35175326,nan,nan,nan,0.21151933,0.0,0.0,0.0,0.0,1310988,1310988,6620172,0,0,0,164,1,1,1,2,0,0,0,0,0,0,0,0
39600000,39520000,4832889473,8.592397e-05,0.0058167023,0.02984187,0,3.8602376,0.3430627,nan,nan,nan,0.20308013,0.0,0.0,0.0,0.0,1310988,1310988,6620172,0,0,0,164,1,1,1,2,0,0,0,0,0,0,0,0
39792000,39712000,4832889473,7.8682744e-05,0.019191638,0.091730654,0,3.8538702,0.3535218,nan,nan,nan,0.20321204,0.0,0.0,0.0,0.0,1310988,1310988,6620172,0,0,0,164,1,1,1,2,0,0,0,0,0,0,0,0
40000000,39920000,4832889473,9.140233e-05,0.0061246445,0.034266997,0,3.8589456,0.34357947,nan,nan,nan,0.19651215,0.0,0.0,0.0,0.0,1310988,1310988,6620172,0,0,0,164,1,1,1,2,0,0,0,0,0,0,0,0
40200000,40120000,4832889473,8.262919e-05,0.019507721,0.095179975,0,3.8577228,0.3552746,nan,nan,nan,0.19857031,0.0,0.0,0.0,0.0,1310988,1310988,6620172,0,0,0,164,1,1,1,2,0,0,0,0,0,0,0,0
40392000,40312000,4832889473,3.094954e-05,0.002177818,0.021873366,0,4.0023394,0.34437567,nan,nan,nan,0.18643665,0.0,0.0,0.0,0.0,1310988,1310988,6620172,0,0,0,164,1,1,1,2,0,0,0,0,0,0,0,0
40600000,40520000,4832889473,1.894591e-05,0.019648748,0.095828876,0,4.0067444,0.35740435,nan,nan,nan,0.18866445,0.0,0.0,0.0,0.0,1310988,1310988,6620172,0,0,0,164,1,1,1,2,0,0,0,0,0,0,0,0
40792000,40712000,4832889473,3.573475e-05,0.0032629732,0.029561987,0,3.998455,0.34841964,nan,nan,nan,0.1762343,0.0,0.0,0.0,0.0,1310988,1310988,6620172,0,0,0,164,1,1,1,2,0,0,0,0,0,0,0,0
40992000,40912000,4832889473,2.780456e-05,0.018524889,0.091720566,0,3.9958916,0.3596283,nan,nan,nan,0.1801939,0.0,0.0,0.0,0.0,1310988,1310988,6620172,0,0,0,164,1,1,1,2,0,0,0,0,0,0,0,0
41200000,41120000,4832889473,3.7493493e-05,0.0038392784,0.03389254,0,3.9990299,0.35222498,nan,nan,nan,0.17177638,0.0,0.0,0.0,0.0,1310988,1310988,6620172,0,0,0,164,1,1,1,2,0,0,0,0,0,0,0,0
41400000,41320000,4898949633,0.0021282325,0.13518776,0.47269705,0,2.3674774,0.33221224,nan,nan,nan,0.16436157,0.0,0.0,0.0,0.0,1310988,1310988,6620172,0,0,0,164,1,1,1,2,0,0,0,0,0,0,0,0
41592000,41512000,4898949633,0.00026649117,0.07233491,0.088976525,0,0.031274967,0.3069964,nan,nan,nan,0.13286768,0.0,0.0,0.0,0.0,1310988,1310988,6620172,0,0,0,164,1,1,1,2,0,0,0,0,0,0,0,0
41792000,41712000,4898949633,0.000104764265,0.028515702,0.019829698,0,0.023947708,0.3022016,nan,nan,nan,0.13384068,0.0,0.0,0.0,0.0,1310988,1310988,6620172,0,0,0,164,1,1,1,2,0,0,0,0,0,0,0,0
42000000,41920000,4898949633,1.6074273e-05,0.0055912584,0.059780765,0,0.021872228,0.28665033,nan,nan,nan,0.11490003,0.0,0.0,0.0,0.0,1310988,1310988,6620172,0,0,0,164,1,1,1,2,0,0,0,0,0,0,0,0
42192000,42112000,4898949633,8.599221e-06,0.02227143,0.11343337,0,0.020022329,0.28499985,nan,nan,nan,0.117042795,0.0,0.0,0.0,0.0,1310988,1310988,6620172,0,0,0,164,1,1,1,2,0,0,0,0,0,0,0,0
42400000,42320000,4898949633,1.2592269e-05,0.031661186,0.119571455,0,0.019163089,0.27341664,nan,nan,nan,0.10769545,0.0,0.0,0.0,0.0,1310988,1310988,6620172,0,0,0,164,1,1,1,2,0,0,0,0,0,0,0,0
42600000,42520000,4898949633,1.5798823e-05,0.03917638,0.1494567,0,0.01758507,0.2734887,nan,nan,nan,0.105890125,0.0,0.0,0.0,0.0,1310988,1310988,6620172,0,0,0,164,1,1,1,2,0,0,0,0,0,0,0,0
42792000,42712000,4898949633,2.089799e-05,0.038699076,0.13362539,0,0.015856875,0.2641707,nan,nan,nan,0.10067801,0.0,0.0,0.0,0.0,1310988,1310988,6620172,0,0,0,164,1,1,1,2,0,0,0,0,0,0,0,0
43000000,42920000,4898949633,1.5088378e-05,0.04139091,0.15278327,0,0.015132262,0.26441425,nan,nan,nan,0.10110901,0.0,0.0,0.0,0.0,1310988,1310988,6620172,0,0,0,164,1,1,1,2,0,0,0,0,0,0,0,0
43200000,43120000,4898949633,1.1102473e-05,0.038733035,0.13119756,0,0.014275725,0.25668114,nan,nan,nan,0.09675672,0.0,0.0,0.0,0.0,1310988,1310988,6620172,0,0,0,164,1,1,1,2,0,0,0,0,0,0,0,0
43392000,43312000,4898949633,2.5934887e-05,0.0393447,0.14144136,0,0.013353029,0.2574759,nan,nan,nan,0.09600429,0.0,0.0,0.0,0.0,1310988,1310988,6620172,0,0,0,164,1,1,1,2,0,0,0,0,0,0,0,0
43592000,43512000,4898949633,3.1513933e-05,0.036462095,0.11987349,0,0.01284222,0.24998352,nan,nan,nan,0.09208505,0.0,0.0,0.0,0.0,1310988,1310988,6620172,0,0,0,164,1,1,1,2,0,0,0,0,0,0,0,0
43800000,43720000,4898949633,3.7193982e-05,0.03674687,0.12901558,0,0.01265188,0.2514768,nan,nan,nan,0.09687692,0.0,0.0,0.0,0.0,1310988,1310988,6620172,0,0,0,164,1,1,1,2,0,0,0,0,0,0,0,0
43992000,43912000,4898949633,9.01203e-06,0.031594764,0.10475318,0,0.012144494,0.24729435,nan,nan,nan,0.090849355,0.0,0.0,0.0,0.0,1310988,1310988,6620172,0,0,0,164,1,1,1,2,0,0,0,0,0,0,0,0
44200000,44120000,4898949633,1.597764e-05,0.031041311,0.11042375,0,0.012056566,0.24895018,nan,nan,nan,0.086559966,0.0,0.0,0.0,0.0,1310988,1310988,6620172,0,0,0,164,1,1,1,2,0,0,0,0,0,0,0,0
