timestamp,timestamp_sample,time_last_fuse,device_id,observation,observation_variance,innovation,innovation_variance,test_ratio,estimator_instance,fusion_enabled,innovation_rejected,fused
3408000,3289167,0,0,-488.10403,1.0,488.10306,51.0,186.8585,0,0,1,0
3808000,3689496,0,0,-488.11102,1.0,488.11038,26.000025,366.5408,0,0,1,0
4208000,4089695,0,0,-0.061187744,1.0,0.008861132,2.8876317,1.0876687e-06,0,0,0,0
4608000,4489816,0,0,-0.062194824,1.0,0.029103126,1.9087666,1.7749513e-05,0,0,0,0
5008000,4889889,0,0,-0.062194824,1.0,0.028952133,1.6304154,2.0564721e-05,0,0,0,0
5408000,5289933,0,0,-0.05718994,1.0,0.028080177,1.4655669,2.1520584e-05,0,0,0,0
5808000,5689960,0,0,-0.063201904,1.0,0.037410736,1.3701158,4.0859704e-05,0,0,0,0
6208000,6089976,0,0,-0.05819702,1.0,0.035797555,1.315948,3.895184e-05,0,0,0,0
6608000,6489986,0,0,-0.06918335,1.0,0.048113305,1.2703001,7.28927e-05,0,0,0,0
7008000,6889991,0,0,-0.07019043,1.0,0.048218094,1.2368195,7.5192365e-05,0,0,0,0
7408000,7289995,0,0,-0.064208984,1.0,0.04377778,1.2149858,6.309518e-05,0,0,0,0
7808000,7689997,0,0,-0.062194824,1.0,0.042296253,1.1942369,5.9920203e-05,0,0,0,0
8208000,8089999,0,0,-0.063201904,1.0,0.043986097,1.1775937,6.571967e-05,0,0,0,0
8608000,8489999,8528000,0,-0.063201904,1.0,0.04104034,1.1676853,5.7697376e-05,0,0,0,0
9008000,8890000,8928000,0,-0.06619263,1.0,0.010150876,1.6475871,2.5016043e-06,0,1,0,1
9408000,9290000,9328000,0,-0.061187744,1.0,0.007230889,1.3369149,1.5643706e-06,0,1,0,1
9808000,9690000,9728000,0,-0.05218506,1.0,-0.0036474243,1.2427888,4.2818874e-07,0,1,0,1
10208000,10090000,10128000,0,-0.051208496,1.0,-0.0017087758,1.194853,9.7749755e-08,0,1,0,1
10608000,10490000,10528000,0,-0.05618286,1.0,0.006845437,1.1684338,1.604199e-06,0,1,0,1
11008000,10890000,10928000,0,-0.05718994,1.0,0.012093764,1.1542205,5.0686717e-06,0,1,0,1
11408000,11290000,11328000,0,-0.07321167,1.0,0.03327723,1.1433834,3.874025e-05,0,1,0,1
11808000,11690000,11728000,0,-0.07019043,1.0,0.030953627,1.1358823,3.3740365e-05,0,1,0,1
12208000,12090000,12128000,0,-0.061187744,1.0,0.022075877,1.130485,1.7243725e-05,0,1,0,1
12608000,12490000,12528000,0,-0.063201904,1.0,0.020093843,1.1263456,1.433885e-05,0,1,0,1
13008000,12890000,12928000,0,-0.06518555,1.0,0.024535716,1.1242838,2.1418127e-05,0,1,0,1
13408000,13290000,13328000,0,-0.06918335,1.0,0.029851776,1.1215177,3.178295e-05,0,1,0,1
13808000,13690000,13728000,0,-0.07019043,1.0,0.028136648,1.1192093,2.829394e-05,0,1,0,1
14208000,14090000,14128000,0,-0.07220459,1.0,0.03269784,1.1172963,3.8276285e-05,0,1,0,1
14608000,14490000,14528000,0,-0.06719971,1.0,0.031348,1.1167895,3.519722e-05,0,1,0,1
15008000,14890000,14928000,0,-0.06820679,1.0,0.030568808,1.1154251,3.351017e-05,0,1,0,1
15408000,15290000,15328000,0,-0.07620239,1.0,0.039069884,1.1143037,5.479496e-05,0,1,0,1
15808000,15690000,15728000,0,-0.0592041,1.0,0.020759571,1.1144794,1.5467662e-05,0,1,0,1
16208000,16090000,16128000,0,-0.064208984,1.0,0.02556476,1.1138035,2.3471177e-05,0,1,0,1
16608000,16490000,16528000,0,-0.0592041,1.0,0.020969365,1.1132847,1.5798807e-05,0,1,0,1
17008000,16886000,16928000,0,-0.06021118,1.0,0.024988301,1.112934,2.244213e-05,0,1,0,1
17408000,17290000,17328000,0,-0.06619263,1.0,0.036975786,1.1127636,4.914642e-05,0,1,0,1
17808000,17690000,17728000,0,-0.10119629,1.0,0.029995762,1.112686,3.2345e-05,0,1,0,1
18208000,18090000,18128000,0,-0.24319458,1.0,0.025949642,1.1126724,2.4207806e-05,0,1,0,1
18608000,18490000,18528000,0,-0.4751892,1.0,0.022673488,1.1126698,1.8481207e-05,0,1,0,1
19008000,18890000,18928000,0,-0.7301941,1.0,0.027135074,1.1136962,2.6445712e-05,0,1,0,1
19408000,19290000,19328000,0,-1.0061951,1.0,0.0380584,1.1136531,5.202489e-05,0,1,0,1
19808000,19690000,19728000,0,-1.2761841,1.0,0.029953003,1.113583,3.222687e-05,0,1,0,1
20208000,20090000,20128000,0,-1.5592041,1.0,0.0505023,1.1145602,9.153322e-05,0,1,0,1
20608000,20490000,20528000,0,-1.7951965,1.0,0.038332343,1.1144397,5.2739277e-05,0,1,0,1
21008000,20890000,20928000,0,-2.0032043,1.0,0.04576397,1.1142681,7.518267e-05,0,1,0,1
21408000,21290000,21328000,0,-2.089203,1.0,0.058187723,1.1140798,0.0001215644,0,1,0,1
21808000,21690000,21728000,0,-2.1542053,1.0,0.04382181,1.114935,6.889553e-05,0,1,0,1
22208000,22090000,22128000,0,-2.2282104,1.0,0.04605198,1.1146902,7.610311e-05,0,1,0,1
22608000,22490000,22528000,0,-2.2941895,1.0,0.055387735,1.1144098,0.000110113935,0,1,0,1
23008000,22890000,22928000,0,-2.366211,1.0,0.0686903,1.1151767,0.0001692416,0,1,0,1
23408000,23290000,23328000,0,-2.418213,1.0,0.06743121,1.1148548,0.00016314119,0,1,0,1
23808000,23690000,23728000,0,-2.4661865,1.0,0.07034373,1.1145141,0.00017759275,0,1,0,1
24208000,24086000,24128000,0,-2.505188,1.0,0.066192865,1.1152366,0.00015715034,0,1,0,1
24608000,24490000,24528000,0,-2.5332031,1.0,0.066174984,1.1149067,0.00015711194,0,1,0,1
25008000,24890000,24928000,0,-2.5491943,1.0,0.06676245,1.1146092,0.00015995649,0,1,0,1
25408000,25290000,25328000,0,-2.5772095,1.0,0.080948114,1.1143523,0.00023520736,0,1,0,1
25808000,25690000,25728000,0,-2.5982056,1.0,0.079404116,1.1140822,0.00022637518,0,1,0,1
26208000,26090000,26128000,0,-2.605194,1.0,0.06759095,1.1148636,0.00016391373,0,1,0,1
26608000,26490000,26528000,0,-2.6271973,1.0,0.07521272,1.1145983,0.00020301317,0,1,0,1
27008000,26890000,26928000,0,-2.6362,1.0,0.08164096,1.114358,0.00023924974,0,1,0,1
27408000,27290000,27328000,0,-2.6362,1.0,0.07717323,1.1141058,0.00021382916,0,1,0,1
27808000,27690000,27728000,0,-2.6412048,1.0,0.07975364,1.1149027,0.0002282044,0,1,0,1
28208000,28090000,28128000,0,-2.6712036,1.0,0.10079241,1.1146455,0.0003645683,0,1,0,1
28608000,28490000,28528000,0,-2.6741943,1.0,0.090545416,1.1143862,0.00029427762,0,1,0,1
29008000,28890000,28928000,0,-2.6951904,1.0,0.098044634,1.115173,0.00034479855,0,1,0,1
29408000,29290000,29328000,0,-2.7112122,1.0,0.11891818,1.1149136,0.0005073589,0,1,0,1
29808000,29690000,29728000,0,-2.663208,1.0,0.11596537,1.1146439,0.00048259238,0,1,0,1
30208000,30090000,30128000,0,-2.4002075,1.0,0.12989235,1.114358,0.0006056231,0,1,0,1
30608000,30490000,30528000,0,-2.1261902,1.0,0.12240553,1.1151246,0.0005374508,0,1,0,1
31008000,30890000,30928000,0,-1.8822021,1.0,0.1471566,1.1148117,0.00077699457,0,1,0,1
31408000,31290000,31328000,0,-1.6091919,1.0,0.14589167,1.1144891,0.00076391525,0,1,0,1
31808000,31690000,31728000,0,-1.3381958,1.0,0.15074193,1.1152273,0.0008150134,0,1,0,1
32208000,32090000,32128000,0,-1.0671997,1.0,0.15461957,1.114889,0.00085774326,0,1,0,1
32608000,32490000,32528000,0,-0.7932129,1.0,0.152906,1.1145824,0.0008390674,0,1,0,1
33008000,32890000,32928000,0,-0.505188,1.0,0.13088205,1.1142702,0.0006149357,0,1,0,1
33408000,33290000,33328000,0,-0.22821045,1.0,0.13496274,1.1150185,0.00065343996,0,1,0,1
33808000,33690000,33728000,0,-0.07720947,1.0,0.15898049,1.1147609,0.00090691366,0,1,0,1
34208000,34090000,34128000,0,-0.32720947,1.0,0.4679221,1.1139818,0.007861926,0,1,0,1
34608000,34490000,34528000,0,-0.4711914,1.0,0.7039444,1.113711,0.017797712,0,1,0,1
35008000,34886000,34928000,0,-0.49920654,1.0,0.88858163,1.112026,0.028401397,0,1,0,1
35408000,35290000,35328000,0,-0.4342041,1.0,1.0392302,1.1101849,0.038912416,0,1,0,1
35808000,35690000,35728000,0,-0.28518677,1.0,1.1601944,1.1093433,0.04853506,0,1,0,1
36208000,36090000,36128000,0,-0.08920288,1.0,1.2959563,1.1076871,0.06064899,0,1,0,1
36608000,36490000,36528000,0,-0.064208984,1.0,1.3175652,1.1062288,0.06277103,0,1,0,1
37008000,36890000,36928000,0,-0.062194824,1.0,1.3425654,1.1047586,0.06526247,0,1,0,1
37408000,37290000,37328000,0,-0.061187744,1.0,1.3585168,1.1041449,0.066859625,0,1,0,1
37808000,37690000,37728000,0,-0.061187744,1.0,1.3531265,1.1026667,0.066419035,0,1,0,1
38208000,38090000,38128000,0,-0.07019043,1.0,1.3465149,1.1013356,0.06585104,0,1,0,1
38608000,38490000,38528000,0,-0.062194824,1.0,1.317779,1.100221,0.063134275,0,1,0,1
39008000,38890000,38928000,0,-0.07418823,1.0,1.2960637,1.1001904,0.061072372,0,1,0,1
39408000,39290000,39328000,0,-0.07019043,1.0,1.2539178,1.0996772,0.05719169,0,1,0,1
39808000,39690000,39728000,0,-0.06918335,1.0,1.20572,1.0995262,0.052886806,0,1,0,1
40208000,40090000,40128000,0,-0.06918335,1.0,1.1565939,1.1005453,0.04861988,0,1,0,1
40608000,40490000,40528000,0,-0.062194824,1.0,1.0955634,1.1011062,0.04360194,0,1,0,1
41008000,40890000,40928000,0,-0.05718994,1.0,1.0262239,1.1019385,0.038228467,0,1,0,1
41408000,41290000,41328000,0,-0.06021118,1.0,0.9675585,1.1029716,0.03395081,0,1,0,1
41808000,41690000,41728000,0,-0.07220459,1.0,0.91634935,1.1050247,0.03039556,0,1,0,1
42208000,42090000,42128000,0,-0.06518555,1.0,0.84001184,1.1062782,0.02551329,0,1,0,1
42608000,42490000,42528000,0,-0.05618286,1.0,0.76656395,1.1075327,0.02122268,0,1,0,1
43008000,42890000,42928000,0,-0.07019043,1.0,0.71546334,1.1087167,0.018467758,0,1,0,1
43408000,43290000,43328000,0,-0.061187744,1.0,0.6386245,1.1097534,0.014700248,0,1,0,1
43808000,43690000,43728000,0,-0.05819702,1.0,0.58131534,1.1106211,0.012170758,0,1,0,1
44208000,44090000,44128000,0,-0.05819702,1.0,0.52305543,1.1123961,0.009837754,0,1,0,1
