timestamp,timestamp_sample,time_last_fuse,device_id,observation[0],observation[1],observation_variance[0],observation_variance[1],innovation[0],innovation[1],innovation_variance[0],innovation_variance[1],test_ratio[0],test_ratio[1],estimator_instance,fusion_enabled,innovation_rejected,fused
3096000,3096000,3096000,0,0.0,0.0,0.25,0.25,6.300118e-08,-1.5656e-08,0.500009,0.500009,8.820172e-16,5.4467977e-17,3,0,0,0
3384000,3304000,3304000,0,0.0,0.0,1e-04,1e-04,6.776161e-05,-0.00017330487,100.000175,100.000175,5.1018087e-12,3.3371694e-11,3,1,0,1
3592000,3512000,3512000,0,0.0,0.0,1e-04,1e-04,0.000103601335,7.4243515e-05,0.00021538291,0.00021538565,5.537031e-06,2.8435297e-06,3,1,0,1
3800000,3720000,3720000,0,0.0,0.0,1e-04,1e-04,0.0005341755,8.892167e-05,0.000590316,0.0005904018,5.3708227e-05,1.4880758e-06,3,1,0,1
4008000,3928000,3928000,0,0.0,0.0,1e-04,1e-04,0.0006146898,-0.00013915595,0.0009318705,0.00093192025,4.5051984e-05,2.3087787e-06,3,1,0,1
4216000,4136000,4136000,0,0.0,0.0,1e-04,1e-04,0.00042741207,-0.0002770889,0.000681102,0.0006811116,2.9801555e-05,1.2524993e-05,3,1,0,1
4424000,4344000,4344000,0,0.0,0.0,1e-04,1e-04,0.00045674448,-0.000255924,0.00055828854,0.0005582918,4.1518855e-05,1.3035218e-05,3,1,0,1
4632000,4552000,4552000,0,0.0,0.0,1e-04,1e-04,0.00050560955,-0.00047886994,0.0005019682,0.00050196593,5.6586374e-05,5.0759623e-05,3,1,0,1
4840000,4760000,4760000,0,0.0,0.0,1e-04,1e-04,0.00037244207,-0.0008999469,0.00046184787,0.0004618404,3.3371518e-05,0.00019484952,3,1,0,1
5048000,4968000,4968000,0,0.0,0.0,1e-04,1e-04,0.00012599694,-0.000868372,0.00042523423,0.00042522774,4.1481007e-06,0.00019703688,3,1,0,1
5256000,5176000,5176000,0,0.0,0.0,1e-04,1e-04,0.00029802998,-0.00061179104,0.00039288632,0.00039288137,2.5119469e-05,0.00010585278,3,1,0,1
5464000,5384000,5384000,0,0.0,0.0,1e-04,1e-04,0.0002656356,4.4887893e-06,0.00036616088,0.0003661579,2.1412045e-05,6.114311e-09,3,1,0,1
5672000,5592000,5592000,0,0.0,0.0,1e-04,1e-04,0.00019989104,0.00042538042,0.00034498863,0.00034498618,1.2868839e-05,5.8278827e-05,3,1,0,1
5880000,5800000,5800000,0,0.0,0.0,1e-04,1e-04,0.00019693866,0.00031939097,0.00032839773,0.0003283955,1.31225825e-05,3.4514815e-05,3,1,0,1
6088000,6008000,6008000,0,0.0,0.0,1e-04,1e-04,0.0002279438,8.0305545e-05,0.00031537213,0.0003153697,1.8305844e-05,2.2721063e-06,3,1,0,1
6296000,6216000,6216000,0,0.0,0.0,1e-04,1e-04,0.00011421761,-5.0292467e-05,0.00030500212,0.0003049994,4.7524854e-06,9.214343e-07,3,1,0,1
6504000,6424000,6424000,0,0.0,0.0,1e-04,1e-04,-0.0005063568,9.439111e-06,0.00029661355,0.0002966119,9.6046126e-05,3.3375755e-08,3,1,0,1
6712000,6632000,6632000,0,0.0,0.0,1e-04,1e-04,-0.0008005757,9.762599e-05,0.00028971836,0.0002897174,0.0002458025,3.6552224e-06,3,1,0,1
6920000,6840000,6840000,0,0.0,0.0,1e-04,1e-04,-0.00076088915,0.00046722862,0.00028398616,0.0002839855,0.0002265182,8.541226e-05,3,1,0,1
7128000,7048000,7048000,0,0.0,0.0,1e-04,1e-04,-0.00051670766,0.0010730566,0.00027914473,0.0002791435,0.00010627175,0.00045832674,3,1,0,1
7336000,7256000,7256000,0,0.0,0.0,1e-04,1e-04,-0.00016394565,0.0016012556,0.00027502162,0.00027501956,1.0859015e-05,0.0010358938,3,1,0,1
7544000,7464000,7464000,0,0.0,0.0,1e-04,1e-04,0.00016568204,0.0016748264,0.0002714701,0.00027146845,1.1235343e-05,0.0011480947,3,1,0,1
7752000,7672000,7672000,0,0.0,0.0,1e-04,1e-04,0.00025508285,0.0012442124,0.00026837926,0.0002683787,2.6938356e-05,0.0006409121,3,1,0,1
7960000,7880000,7880000,0,0.0,0.0,1e-04,1e-04,0.00011524507,0.00088786945,0.00026568546,0.00026568497,5.5543655e-06,0.00032967707,3,1,0,1
8168000,8088000,8088000,0,0.0,0.0,1e-04,1e-04,-9.490769e-05,0.00049250614,0.0002633112,0.00026331053,3.8009398e-06,0.00010235582,3,1,0,1
8376000,8296000,8296000,0,0.0,0.0,1e-04,1e-04,-0.0004287529,0.00040071938,0.0002612105,0.0002612102,7.819537e-05,6.83043e-05,3,1,0,1
8584000,8504000,8504000,0,0.0,0.0,1e-04,1e-04,-0.00037441368,0.00023653377,0.00025930392,0.00025930424,6.0069196e-05,2.3973651e-05,3,1,0,1
8792000,8712000,8712000,0,0.0,0.0,1e-04,1e-04,-0.0001444454,0.00034586218,0.00025758485,0.0002575864,9.000044e-06,5.1598934e-05,3,1,0,1
9000000,8920000,8920000,0,0.0,0.0,1e-04,1e-04,0.00025795898,0.00059219357,0.00025603644,0.00025603911,2.8877328e-05,0.00015218735,3,1,0,1
9208000,9128000,9128000,0,0.0,0.0,1e-04,1e-04,0.000687225,0.00075963687,0.0002546361,0.0002546393,0.0002060798,0.00025179327,3,1,0,1
9416000,9336000,9336000,0,0.0,0.0,1e-04,1e-04,0.00088725635,0.000859432,0.00025337518,0.00025337804,0.00034521657,0.00032390046,3,1,0,1
9624000,9544000,9544000,0,0.0,0.0,1e-04,1e-04,0.00089719694,0.0008490909,0.00025222157,0.0002522237,0.0003546099,0.00031759965,3,1,0,1
9832000,9752000,9752000,0,0.0,0.0,1e-04,1e-04,0.0010264402,0.00084151636,0.0002511602,0.00025116195,0.00046609447,0.0003132772,3,1,0,1
10040000,9960000,9960000,0,0.0,0.0,1e-04,1e-04,0.0009071674,0.0006503211,0.000250184,0.0002501841,0.00036548774,0.00018782503,3,1,0,1
10248000,10168000,10168000,0,0.0,0.0,1e-04,1e-04,0.00044527365,0.0004242646,0.0002492853,0.00024928252,8.837203e-05,8.0230464e-05,3,1,0,1
10456000,10376000,10376000,0,0.0,0.0,1e-04,1e-04,7.6953984e-07,-3.650991e-05,0.00024847256,0.00024846694,2.648142e-10,5.960881e-07,3,1,0,1
10664000,10584000,10584000,0,0.0,0.0,1e-04,1e-04,-0.00033598286,-0.00036579053,0.00024771795,0.00024770995,5.063307e-05,6.001765e-05,3,1,0,1
10872000,10792000,10792000,0,0.0,0.0,1e-04,1e-04,-0.00024499444,-0.00060859753,0.00024701393,0.00024700363,2.6999052e-05,0.00016661518,3,1,0,1
11080000,11000000,11000000,0,0.0,0.0,1e-04,1e-04,-0.00018684533,-0.00084019656,0.00024635327,0.00024634096,1.574576e-05,0.00031840702,3,1,0,1
11288000,11208000,11208000,0,0.0,0.0,1e-04,1e-04,-0.00043093518,-0.0009630403,0.00024574102,0.00024572737,8.396605e-05,0.00041936568,3,1,0,1
11496000,11416000,11416000,0,0.0,0.0,1e-04,1e-04,-0.0006542838,-0.0010832025,0.00024517567,0.000245161,0.00019400477,0.000531772,3,1,0,1
11704000,11624000,11624000,0,0.0,0.0,1e-04,1e-04,-0.0007187613,-0.0012145026,0.00024464552,0.0002446297,0.00023463328,0.0006699544,3,1,0,1
11912000,11832000,11832000,0,0.0,0.0,1e-04,1e-04,-0.00096293987,-0.0010206365,0.00024416225,0.00024414578,0.00042196587,0.00047407878,3,1,0,1
12120000,12040000,12040000,0,0.0,0.0,1e-04,1e-04,-0.0011468473,-0.0005364049,0.0002437259,0.0002437089,0.00059960736,0.0001311812,3,1,0,1
12328000,12248000,12248000,0,0.0,0.0,1e-04,1e-04,-0.001084612,-0.00033039838,0.00024331626,0.00024329874,0.00053719897,4.9853246e-05,3,1,0,1
12536000,12456000,12456000,0,0.0,0.0,1e-04,1e-04,-0.00086900697,-0.0002949725,0.00024292633,0.00024290945,0.00034540563,3.9799368e-05,3,1,0,1
12744000,12664000,12664000,0,0.0,0.0,1e-04,1e-04,-0.00037159526,0.0003779701,0.0002425501,0.00024253567,6.325522e-05,6.5448054e-05,3,1,0,1
12952000,12872000,12872000,0,0.0,0.0,1e-04,1e-04,-2.645186e-05,0.0011011652,0.0002421944,0.0002421824,3.210006e-07,0.00055631384,3,1,0,1
13160000,13080000,13080000,0,0.0,0.0,1e-04,1e-04,1.4242083e-05,0.0013016263,0.00024186369,0.00024185338,9.3182386e-08,0.00077835546,3,1,0,1
13368000,13288000,13288000,0,0.0,0.0,1e-04,1e-04,0.0002142055,0.0012075145,0.00024155038,0.00024154142,2.1106247e-05,0.00067073444,3,1,0,1
13576000,13496000,13496000,0,0.0,0.0,1e-04,1e-04,0.00047743847,0.0011816751,0.0002412588,0.00024125032,0.00010498062,0.0006431108,3,1,0,1
13784000,13704000,13704000,0,0.0,0.0,1e-04,1e-04,0.0008324773,0.00095535035,0.00024098722,0.0002409791,0.00031952752,0.00042082687,3,1,0,1
13992000,13912000,13912000,0,0.0,0.0,1e-04,1e-04,0.0006902008,0.0005495219,0.0002407314,0.00024072223,0.00021987487,0.00013938347,3,1,0,1
14200000,14120000,14120000,0,0.0,0.0,1e-04,1e-04,0.0004859726,6.841761e-05,0.00024047951,0.00024046816,0.00010911965,2.1628966e-06,3,1,0,1
14408000,14328000,14328000,0,0.0,0.0,1e-04,1e-04,0.00050743774,-0.00030248816,0.00024024499,0.00024023064,0.000119088196,4.2320018e-05,3,1,0,1
14616000,14536000,14536000,0,0.0,0.0,1e-04,1e-04,0.0005205855,-0.00043002356,0.00024002619,0.00024000875,0.00012545356,8.560811e-05,3,1,0,1
14824000,14744000,14744000,0,0.0,0.0,100.0,100.0,0.0007883312,-0.00039762535,100.00015,100.00015,6.9051687e-10,1.7567298e-10,3,1,0,1
15032000,14952000,14952000,0,0.0,0.0,100.0,100.0,0.0014152246,-0.00051707274,100.00061,100.00061,2.2253872e-09,2.9706954e-10,3,1,0,1
15240000,15160000,15160000,0,0.0,0.0,100.0,100.0,0.002077445,-0.0004789271,100.002335,100.002335,4.7951962e-09,2.5485092e-10,3,1,0,1
15448000,15368000,15368000,0,0.0,0.0,100.0,100.0,0.0028846767,-0.0005986988,100.006905,100.006905,9.245317e-09,3.9823944e-10,3,1,0,1
15656000,15576000,15576000,0,0.0,0.0,100.0,100.0,0.0041488213,-0.0006261674,100.01657,100.01658,1.9122073e-08,4.3557846e-10,3,1,0,1
15864000,15784000,15784000,0,0.0,0.0,100.0,100.0,0.0051028067,-0.000885373,100.03425,100.034256,2.8921914e-08,8.706854e-10,3,1,0,1
16072000,15992000,15992000,0,0.0,0.0,100.0,100.0,0.006272897,-0.0014533177,100.06352,100.06353,4.3693618e-08,2.3453237e-09,3,1,0,1
16280000,16200000,16200000,0,0.0,0.0,100.0,100.0,0.007553189,-0.002104881,100.108604,100.10861,6.332086e-08,4.9174633e-09,3,1,0,1
16488000,16408000,16408000,0,0.0,0.0,100.0,100.0,0.009011395,-0.0031271363,100.17434,100.17436,9.0071026e-08,1.0846622e-08,3,1,0,1
16696000,16616000,16616000,0,0.0,0.0,100.0,100.0,0.010250525,-0.0044179354,100.26609,100.26613,1.1643822e-07,2.1629274e-08,3,1,0,1
16904000,16824000,16824000,0,0.0,0.0,100.0,100.0,0.011507368,-0.006100751,100.389725,100.389786,1.4656162e-07,4.119406e-08,3,1,0,1
17112000,17032000,17032000,0,0.0,0.0,100.0,100.0,0.012659654,-0.00795478,100.5513,100.55141,1.7709793e-07,6.992391e-08,3,1,0,1
17320000,17240000,17240000,0,0.0,0.0,100.0,100.0,0.013872691,-0.01027951,100.75713,100.757286,2.1222822e-07,1.1652682e-07,3,1,0,1
17528000,17448000,17448000,0,0.0,0.0,100.0,100.0,0.0140612805,-0.011381174,101.01325,101.013504,2.1748478e-07,1.4247945e-07,3,1,0,1
17736000,17656000,17656000,0,0.0,0.0,100.0,100.0,0.011217577,-0.007388541,101.32607,101.32643,1.3798582e-07,5.9862124e-08,3,1,0,1
17944000,17864000,17864000,0,0.0,0.0,100.0,100.0,-0.012758137,0.017572869,101.70009,101.70068,1.7783232e-07,3.3737967e-07,3,1,0,1
18152000,18072000,18072000,0,0.0,0.0,100.0,100.0,-0.04945828,0.054232173,102.13988,102.140686,2.6609712e-06,3.199431e-06,3,1,0,1
18360000,18280000,18280000,0,0.0,0.0,100.0,100.0,-0.083462894,0.08872955,102.645035,102.64626,7.5406087e-06,8.5221845e-06,3,1,0,1
18568000,18488000,18488000,0,0.0,0.0,100.0,100.0,-0.110281676,0.11492141,103.21212,103.21366,1.309283e-05,1.4217466e-05,3,1,0,1
18776000,18696000,18696000,0,0.0,0.0,100.0,100.0,-0.1291103,0.13063514,103.83349,103.83563,1.7837823e-05,1.8261275e-05,3,1,0,1
18984000,18904000,18904000,0,0.0,0.0,100.0,100.0,-0.13605481,0.13253878,104.50192,104.504456,1.9681627e-05,1.8677065e-05,3,1,0,1
19192000,19112000,19112000,0,0.0,0.0,100.0,100.0,-0.13434495,0.12376693,105.20235,105.2056,1.9062276e-05,1.6178114e-05,3,1,0,1
19400000,19320000,19320000,0,0.0,0.0,100.0,100.0,-0.121174365,0.1032836,105.922226,105.92585,1.5402524e-05,1.1189695e-05,3,1,0,1
19608000,19528000,19528000,0,0.0,0.0,100.0,100.0,-0.1033071,0.077379204,106.641495,106.64586,1.1119662e-05,6.238239e-06,3,1,0,1
19816000,19736000,19736000,0,0.0,0.0,100.0,100.0,-0.08038027,0.046472397,107.34407,107.3492,6.6877237e-06,2.235367e-06,3,1,0,1
20024000,19944000,19944000,0,0.0,0.0,100.0,100.0,-0.05060328,0.010213645,108.01776,108.02302,2.6340238e-06,1.0730074e-07,3,1,0,1
20232000,20152000,20152000,0,0.0,0.0,100.0,100.0,-0.022527678,-0.022705927,108.641815,108.647675,5.1903106e-07,5.2724874e-07,3,1,0,1
20440000,20360000,20360000,0,0.0,0.0,100.0,100.0,0.009139791,-0.05649095,109.21234,109.21815,8.498814e-08,3.2465377e-06,3,1,0,1
20648000,20568000,20568000,0,0.0,0.0,100.0,100.0,0.034562524,-0.08226595,109.714066,109.720314,1.2097792e-06,6.8534723e-06,3,1,0,1
20856000,20776000,20776000,0,0.0,0.0,100.0,100.0,0.061942164,-0.10866209,110.1501,110.15612,3.8703065e-06,1.1909814e-05,3,1,0,1
21064000,20984000,20984000,0,0.0,0.0,100.0,100.0,0.0804563,-0.1254318,110.508995,110.51526,6.5084864e-06,1.5817965e-05,3,1,0,1
21272000,21192000,21192000,0,0.0,0.0,100.0,100.0,0.0999512,-0.14192055,110.800514,110.80643,1.0018247e-05,2.0196827e-05,3,1,0,1
21480000,21400000,21400000,0,0.0,0.0,100.0,100.0,0.11115381,-0.14979656,111.02483,111.030846,1.23647715e-05,2.2455231e-05,3,1,0,1
21688000,21608000,21608000,0,0.0,0.0,100.0,100.0,0.12472292,-0.15995714,111.19468,111.20026,1.5544116e-05,2.5565774e-05,3,1,0,1
21896000,21816000,21816000,0,0.0,0.0,100.0,100.0,0.13028458,-0.16347656,111.30868,111.31424,1.6943943e-05,2.6675818e-05,3,1,0,1
22104000,22024000,22024000,0,0.0,0.0,100.0,100.0,0.13614792,-0.16858402,111.378204,111.38329,1.8491804e-05,2.8351122e-05,3,1,0,1
22312000,22232000,22232000,0,0.0,0.0,100.0,100.0,0.13567428,-0.16945635,111.40423,111.40919,1.8359078e-05,2.8638626e-05,3,1,0,1
22520000,22440000,22440000,0,0.0,0.0,100.0,100.0,0.1354787,-0.17205907,111.39706,111.401535,1.8307366e-05,2.9527146e-05,3,1,0,1
22728000,22648000,22648000,0,0.0,0.0,100.0,100.0,0.13041054,-0.17096618,111.358246,111.36251,1.6969165e-05,2.916345e-05,3,1,0,1
22936000,22856000,22856000,0,0.0,0.0,100.0,100.0,0.12713784,-0.1719486,111.29616,111.29998,1.6137155e-05,2.9516148e-05,3,1,0,1
23144000,23064000,23064000,0,0.0,0.0,100.0,100.0,0.11920116,-0.16918203,111.21232,111.21588,1.4195985e-05,2.8595596e-05,3,1,0,1
23352000,23272000,23272000,0,0.0,0.0,100.0,100.0,0.113372,-0.16889581,111.113075,111.11625,1.2852983e-05,2.8524477e-05,3,1,0,1
23560000,23480000,23480000,0,0.0,0.0,100.0,100.0,0.10371083,-0.16476132,110.99971,111.00262,1.0766732e-05,2.7172826e-05,3,1,0,1
23768000,23688000,23688000,0,0.0,0.0,100.0,100.0,0.09615877,-0.16179857,110.87678,110.87936,9.266052e-06,2.6233494e-05,3,1,0,1
23976000,23896000,23896000,0,0.0,0.0,100.0,100.0,0.086242005,-0.15567479,110.74549,110.74782,7.462239e-06,2.4314138e-05,3,1,0,1
24184000,24104000,24104000,0,0.0,0.0,100.0,100.0,0.0783672,-0.15137823,110.609055,110.611115,6.1692945e-06,2.3018954e-05,3,1,0,1
24392000,24312000,24312000,0,0.0,0.0,100.0,100.0,0.067751065,-0.14437807,110.46832,110.47016,4.616916e-06,2.0965968e-05,3,1,0,1
24600000,24520000,24520000,0,0.0,0.0,100.0,100.0,0.05997762,-0.13981031,110.325584,110.3272,3.6229283e-06,1.968581e-05,3,1,0,1
24808000,24728000,24728000,0,0.0,0.0,100.0,100.0,0.05188376,-0.13423964,110.18137,110.18281,2.7146395e-06,1.8172104e-05,3,1,0,1
25016000,24936000,24936000,0,0.0,0.0,100.0,100.0,0.046252348,-0.1300969,110.03716,110.03842,2.1601586e-06,1.7090195e-05,3,1,0,1
25224000,25144000,25144000,0,0.0,0.0,100.0,100.0,0.044171114,-0.12859541,109.89394,109.895035,1.9726972e-06,1.6719772e-05,3,1,0,1
25432000,25352000,25352000,0,0.0,0.0,100.0,100.0,0.042564403,-0.12667355,109.75209,109.75305,1.8341625e-06,1.6244741e-05,3,1,0,1
25640000,25560000,25560000,0,0.0,0.0,100.0,100.0,0.04401624,-0.12662093,109.612465,109.6133,1.963918e-06,1.6251943e-05,3,1,0,1
25848000,25768000,25768000,0,0.0,0.0,100.0,100.0,0.045506265,-0.12590924,109.475266,109.47598,2.1017636e-06,1.608992e-05,3,1,0,1
26056000,25976000,25976000,0,0.0,0.0,100.0,100.0,0.04890928,-0.12670064,109.34106,109.341675,2.4308422e-06,1.6312833e-05,3,1,0,1
26264000,26184000,26184000,0,0.0,0.0,100.0,100.0,0.051971495,-0.12697256,109.20995,109.21048,2.7480569e-06,1.6402608e-05,3,1,0,1
26472000,26392000,26392000,0,0.0,0.0,100.0,100.0,0.056480903,-0.12875487,109.08236,109.082794,3.2494231e-06,1.688607e-05,3,1,0,1
26680000,26600000,26600000,0,0.0,0.0,100.0,100.0,0.060330946,-0.13029851,108.95834,108.95871,3.7117375e-06,1.7313083e-05,3,1,0,1
26888000,26808000,26808000,0,0.0,0.0,100.0,100.0,0.06526224,-0.13238384,108.83817,108.83847,4.348107e-06,1.7891427e-05,3,1,0,1
27096000,27016000,27016000,0,0.0,0.0,100.0,100.0,0.069179304,-0.13362323,108.72188,108.72213,4.890947e-06,1.8247505e-05,3,1,0,1
27304000,27224000,27224000,0,0.0,0.0,100.0,100.0,0.07291845,-0.1355431,108.60966,108.60985,5.439562e-06,1.8795032e-05,3,1,0,1
27512000,27432000,27432000,0,0.0,0.0,100.0,100.0,0.07517082,-0.13674799,108.50154,108.501686,5.7865564e-06,1.9149738e-05,3,1,0,1
27720000,27640000,27640000,0,0.0,0.0,100.0,100.0,0.07696148,-0.13845979,108.39763,108.39772,6.0713396e-06,1.9651001e-05,3,1,0,1
27928000,27848000,27848000,0,0.0,0.0,100.0,100.0,0.076991275,-0.1396472,108.297905,108.29796,6.0816365e-06,2.0007908e-05,3,1,0,1
28136000,28056000,28056000,0,0.0,0.0,100.0,100.0,0.07618117,-0.14109185,108.202446,108.20245,5.959581e-06,2.0442041e-05,3,1,0,1
28344000,28264000,28264000,0,0.0,0.0,100.0,100.0,0.0738346,-0.14166011,108.11123,108.1112,5.602818e-06,2.062443e-05,3,1,0,1
28552000,28472000,28472000,0,0.0,0.0,100.0,100.0,0.07031035,-0.1421229,108.024284,108.024216,5.0848084e-06,2.077612e-05,3,1,0,1
28760000,28680000,28680000,0,0.0,0.0,100.0,100.0,0.065623984,-0.14182234,107.94159,107.94148,4.4329604e-06,2.0704198e-05,3,1,0,1
28968000,28888000,28888000,0,0.0,0.0,100.0,100.0,0.06071406,-0.14153235,107.863144,107.86301,3.7971954e-06,2.0634616e-05,3,1,0,1
29176000,29096000,29096000,0,0.0,0.0,100.0,100.0,0.055907577,-0.14063723,107.788956,107.78878,3.2219928e-06,2.0388467e-05,3,1,0,1
29384000,29304000,29304000,0,0.0,0.0,100.0,100.0,0.051425368,-0.13949981,107.719025,107.71883,2.7278463e-06,2.007304e-05,3,1,0,1
29592000,29512000,29512000,0,0.0,0.0,100.0,100.0,0.04693025,-0.1380493,107.65324,107.65301,2.2731922e-06,1.9669793e-05,3,1,0,1
29800000,29720000,29720000,0,0.0,0.0,100.0,100.0,0.04207661,-0.1361544,107.59074,107.59048,1.8283699e-06,1.9144632e-05,3,1,0,1
30008000,29928000,29928000,0,0.0,0.0,100.0,100.0,0.036207188,-0.1337078,107.530785,107.5305,1.35461e-06,1.8473082e-05,3,1,0,1
30216000,30136000,30136000,0,0.0,0.0,100.0,100.0,0.030971833,-0.13196017,107.474464,107.47416,9.917129e-07,1.8002762e-05,3,1,0,1
30424000,30344000,30344000,0,0.0,0.0,100.0,100.0,0.027453043,-0.13166504,107.423,107.42267,7.79545e-07,1.7930915e-05,3,1,0,1
30632000,30552000,30552000,0,0.0,0.0,100.0,100.0,0.024260005,-0.1316924,107.3762,107.37585,6.0901954e-07,1.794619e-05,3,1,0,1
30840000,30760000,30760000,0,0.0,0.0,100.0,100.0,0.020079594,-0.1313295,107.33372,107.33334,4.1737954e-07,1.7854489e-05,3,1,0,1
31048000,30968000,30968000,0,0.0,0.0,100.0,100.0,0.015571314,-0.13041118,107.295456,107.29507,2.510884e-07,1.7611947e-05,3,1,0,1
31256000,31176000,31176000,0,0.0,0.0,100.0,100.0,0.010178966,-0.12901975,107.2614,107.26099,1.0733007e-07,1.7243607e-05,3,1,0,1
31464000,31384000,31384000,0,0.0,0.0,100.0,100.0,0.0039450144,-0.12778899,107.231514,107.23108,1.6126208e-08,1.6920909e-05,3,1,0,1
31672000,31592000,31592000,0,0.0,0.0,100.0,100.0,-0.0036942274,-0.1260207,107.20577,107.20532,1.4144467e-08,1.6459813e-05,3,1,0,1
31880000,31800000,31800000,0,0.0,0.0,100.0,100.0,-0.011731069,-0.12408069,107.18408,107.18362,1.4266004e-07,1.5960168e-05,3,1,0,1
32088000,32008000,32008000,0,0.0,0.0,100.0,100.0,-0.020530066,-0.12176914,107.16641,107.16593,4.3699805e-07,1.5373585e-05,3,1,0,1
32296000,32216000,32216000,0,0.0,0.0,100.0,100.0,-0.029745156,-0.11940249,107.15265,107.15215,9.174599e-07,1.4783708e-05,3,1,0,1
32504000,32424000,32424000,0,0.0,0.0,100.0,100.0,-0.04010053,-0.117303416,107.14272,107.14221,1.6676122e-06,1.4269811e-05,3,1,0,1
32712000,32632000,32632000,0,0.0,0.0,100.0,100.0,-0.05064489,-0.11573683,107.136536,107.13602,2.6600583e-06,1.3892012e-05,3,1,0,1
32920000,32840000,32840000,0,0.0,0.0,100.0,100.0,-0.06181691,-0.11390208,107.134,107.13347,3.963188e-06,1.3455368e-05,3,1,0,1
33128000,33048000,33048000,0,0.0,0.0,100.0,100.0,-0.07299963,-0.11279987,107.13498,107.13443,5.52672e-06,1.3196101e-05,3,1,0,1
33336000,33256000,33256000,0,0.0,0.0,100.0,100.0,-0.08543642,-0.11166214,107.13936,107.13881,7.5699763e-06,1.2930716e-05,3,1,0,1
33544000,33464000,33464000,0,0.0,0.0,100.0,100.0,-0.09764623,-0.1115879,107.14697,107.14642,9.887547e-06,1.2912609e-05,3,1,0,1
33752000,33672000,33672000,0,0.0,0.0,100.0,100.0,-0.10999694,-0.115737505,107.15635,107.15579,1.254587e-05,1.3889611e-05,3,1,0,1
33960000,33880000,33880000,0,0.0,0.0,100.0,100.0,-0.12022886,-0.122418135,107.170265,107.1697,1.4986513e-05,1.5537353e-05,3,1,0,1
34168000,34088000,34088000,0,0.0,0.0,100.0,100.0,-0.13207631,-0.12684251,107.18722,107.18665,1.8082745e-05,1.6678097e-05,3,1,0,1
34376000,34296000,34296000,0,0.0,0.0,100.0,100.0,-0.14327689,-0.13095963,107.20608,107.20551,2.1276019e-05,1.777523e-05,3,1,0,1
34584000,34504000,34504000,0,0.0,0.0,100.0,100.0,-0.15622301,-0.1340513,107.22664,107.226074,2.5289768e-05,1.8620833e-05,3,1,0,1
34792000,34712000,34712000,0,0.0,0.0,100.0,100.0,-0.1673166,-0.13765052,107.248695,107.24814,2.900304e-05,1.963014e-05,3,1,0,1
35000000,34920000,34920000,0,0.0,0.0,100.0,100.0,-0.18134952,-0.14112233,107.272194,107.27165,3.4064586e-05,2.0628326e-05,3,1,0,1
35208000,35128000,35128000,0,0.0,0.0,100.0,100.0,-0.19275028,-0.14545104,107.29702,107.296486,3.847334e-05,2.1908147e-05,3,1,0,1
35416000,35336000,35336000,0,0.0,0.0,100.0,100.0,-0.20366144,-0.15040319,107.32306,107.32255,4.294198e-05,2.3419661e-05,3,1,0,1
35624000,35544000,35544000,0,0.0,0.0,100.0,100.0,-0.21979277,-0.15587738,107.350334,107.34984,5.0001254e-05,2.5149091e-05,3,1,0,1
35832000,35752000,35752000,0,0.0,0.0,100.0,100.0,-0.23134932,-0.16197023,107.37868,107.378204,5.5382927e-05,2.7146369e-05,3,1,0,1
36040000,35960000,35960000,0,0.0,0.0,100.0,100.0,-0.24850902,-0.16947299,107.40811,107.40765,6.388586e-05,2.9711411e-05,3,1,0,1
36248000,36168000,36168000,0,0.0,0.0,100.0,100.0,-0.25877428,-0.17671046,107.43912,107.43869,6.925279e-05,3.2293956e-05,3,1,0,1
36456000,36376000,36376000,0,0.0,0.0,100.0,100.0,-0.270926,-0.1848713,107.47418,107.47377,7.588479e-05,3.5334095e-05,3,1,0,1
36664000,36584000,36584000,0,0.0,0.0,100.0,100.0,-0.2767034,-0.190597,107.50987,107.50948,7.9129444e-05,3.75442e-05,3,1,0,1
36872000,36792000,36792000,0,0.0,0.0,100.0,100.0,-0.2887785,-0.19727522,107.546005,107.54563,8.615747e-05,4.020775e-05,3,1,0,1
37080000,37000000,37000000,0,0.0,0.0,100.0,100.0,-0.2942537,-0.20096262,107.58233,107.581985,8.942531e-05,4.17108e-05,3,1,0,1
37288000,37208000,37208000,0,0.0,0.0,100.0,100.0,-0.3061511,-0.20647247,107.61868,107.618355,9.6770156e-05,4.401447e-05,3,1,0,1
37496000,37416000,37416000,0,0.0,0.0,100.0,100.0,-0.31083947,-0.2087188,107.654854,107.65456,9.97232e-05,4.496227e-05,3,1,0,1
37704000,37624000,37624000,0,0.0,0.0,100.0,100.0,-0.32210687,-0.21316762,107.69067,107.690384,0.00010704821,4.6883826e-05,3,1,0,1
37912000,37832000,37832000,0,0.0,0.0,100.0,100.0,-0.32604715,-0.21415955,107.725914,107.72567,0.00010964735,4.730567e-05,3,1,0,1
38120000,38040000,38040000,0,0.0,0.0,100.0,100.0,-0.3364117,-0.21769685,107.760475,107.76025,0.000116691765,4.8865597e-05,3,1,0,1
38328000,38248000,38248000,0,0.0,0.0,100.0,100.0,-0.33978885,-0.21745728,107.79414,107.793945,0.00011900921,4.8742862e-05,3,1,0,1
38536000,38456000,38456000,0,0.0,0.0,100.0,100.0,-0.34971607,-0.22004753,107.82682,107.82664,0.0001260265,4.989585e-05,3,1,0,1
38744000,38664000,38664000,0,0.0,0.0,100.0,100.0,-0.3522802,-0.21895042,107.858345,107.85819,0.00012784396,4.9385097e-05,3,1,0,1
38952000,38872000,38872000,0,0.0,0.0,100.0,100.0,-0.36212927,-0.22134405,107.88863,107.888504,0.0001350545,5.0456605e-05,3,1,0,1
39160000,39080000,39080000,0,0.0,0.0,100.0,100.0,-0.36440462,-0.21996708,107.917534,107.91744,0.00013672037,4.981742e-05,3,1,0,1
39368000,39288000,39288000,0,0.0,0.0,100.0,100.0,-0.3741224,-0.22253521,107.945015,107.94494,0.00014407291,5.0974464e-05,3,1,0,1
39576000,39496000,39496000,0,0.0,0.0,100.0,100.0,-0.37605062,-0.22117245,107.97096,107.97092,0.00014552686,5.0339946e-05,3,1,0,1
39784000,39704000,39704000,0,0.0,0.0,100.0,100.0,-0.3855169,-0.22332156,107.99535,107.99533,0.00015291119,5.1311392e-05,3,1,0,1
39992000,39912000,39912000,0,0.0,0.0,100.0,100.0,-0.38683134,-0.221444,108.0181,108.01811,0.00015392328,5.0441584e-05,3,1,0,1
40200000,40120000,40120000,0,0.0,0.0,100.0,100.0,-0.39562237,-0.22306386,108.03919,108.03923,0.00016096736,5.117224e-05,3,1,0,1
40408000,40328000,40328000,0,0.0,0.0,100.0,100.0,-0.39683703,-0.22088674,108.058586,108.058655,0.00016192824,5.0169205e-05,3,1,0,1
40616000,40536000,40536000,0,0.0,0.0,100.0,100.0,-0.39806372,-0.21887684,108.07628,108.076385,0.00016290421,4.925227e-05,3,1,0,1
40824000,40744000,40744000,0,0.0,0.0,100.0,100.0,-0.40685856,-0.22002555,108.09228,108.0924,0.00017015697,4.9763235e-05,3,1,0,1
41032000,40952000,40952000,0,0.0,0.0,100.0,100.0,-0.40868285,-0.21766585,108.106544,108.10672,0.00017166365,4.8695118e-05,3,1,0,1
41240000,41160000,41160000,0,0.0,0.0,100.0,100.0,-0.4182405,-0.21829651,108.119156,108.11935,0.00017976576,4.8971982e-05,3,1,0,1
41448000,41368000,41368000,0,0.0,0.0,1e-04,1e-04,0.25616667,0.059667356,2.8156877,2.8157675,0.002589514,0.0001404864,3,1,0,1
41656000,41576000,41576000,0,0.0,0.0,1e-04,1e-04,-0.003901263,-0.0008956322,0.0010428037,0.0010428168,0.0016216807,8.546905e-05,3,1,0,1
41864000,41784000,41784000,0,0.0,0.0,1e-04,1e-04,-0.0012381937,0.000444775,0.0006081314,0.00060814625,0.00028011558,3.61435e-05,3,1,0,1
42072000,41992000,41992000,0,0.0,0.0,1e-04,1e-04,-0.00014459905,0.0007738291,0.0005217207,0.0005217504,4.4529756e-06,0.00012752191,3,1,0,1
42280000,42200000,42200000,0,0.0,0.0,1e-04,1e-04,0.00053626066,0.0008170705,0.00049002015,0.00049005006,6.520718e-05,0.00015136872,3,1,0,1
42488000,42408000,42408000,0,0.0,0.0,1e-04,1e-04,0.0007199156,0.0005473186,0.00043387638,0.00043389547,0.00013272559,7.6710145e-05,3,1,0,1
42696000,42616000,42616000,0,0.0,0.0,1e-04,1e-04,0.00031606076,0.0004372183,0.000377003,0.00037701213,2.9441086e-05,5.633766e-05,3,1,0,1
42904000,42824000,42824000,0,0.0,0.0,1e-04,1e-04,0.00012554905,0.00037930653,0.00033319864,0.00033320312,5.2563123e-06,4.7976555e-05,3,1,0,1
43112000,43032000,43032000,0,0.0,0.0,1e-04,1e-04,-6.489591e-05,0.00040901083,0.0003022267,0.00030222925,1.548315e-06,6.150219e-05,3,1,0,1
43320000,43240000,43240000,0,0.0,0.0,1e-04,1e-04,-0.0001386354,9.111259e-05,0.00028088922,0.00028089038,7.60275e-06,3.2838054e-06,3,1,0,1
43528000,43448000,43448000,0,0.0,0.0,1e-04,1e-04,3.0876632e-05,-0.00012958211,0.00026634388,0.00026634394,3.9771743e-07,7.0049464e-06,3,1,0,1
43736000,43656000,43656000,0,0.0,0.0,1e-04,1e-04,0.00043734477,-0.00020241583,0.00025650533,0.00025650504,8.285314e-05,1.7748045e-05,3,1,0,1
43944000,43864000,43864000,0,0.0,0.0,1e-04,1e-04,0.0004994722,-0.000140521,0.00024989244,0.00024989215,0.000110924375,8.779855e-06,3,1,0,1
44152000,44072000,44072000,0,0.0,0.0,1e-04,1e-04,0.00034081104,0.00042071787,0.0002454551,0.0002454552,5.2579046e-05,8.0124846e-05,3,1,0,1
