timestamp,timestamp_sample,time_last_fuse,device_id,observation,observation_variance,innovation,innovation_variance,test_ratio,estimator_instance,fusion_enabled,innovation_rejected,fused
3096000,3071000,0,0,1.6134449,0.0,-1.6138344,0.0,0.0,0,0,0,0
3224000,3141474,3144000,0,1.6307114,0.0,-1.6308472,0.0,inf,0,0,1,0
3296000,3214950,3144000,0,1.6596174,0.0,-0.04240322,0.0,inf,0,0,1,0
3368000,3286378,3144000,0,1.623798,0.0,-0.006640196,0.0,inf,0,0,1,0
3440000,3359124,3360000,0,1.6380816,0.0,-0.015185833,0.100126825,0.00034070626,0,1,0,1
3512000,3431262,3432000,0,1.6262652,0.0,-0.0018743277,0.09912703,5.242667e-06,0,1,0,1
3584000,3503269,3504000,0,1.6388564,0.0,-0.014272332,0.09835506,0.0003063702,0,1,0,1
3656000,3575378,3576000,0,1.6223354,0.0,0.00351727,0.097754285,1.8720999e-05,0,1,0,1
3728000,3647390,3648000,0,1.6312572,0.0,-0.005718589,0.09728594,4.972571e-05,0,1,0,1
3800000,3718753,3720000,0,1.6299437,0.0,-0.00398767,0.09692248,2.4269857e-05,0,1,0,1
3872000,3791491,3792000,0,1.6080388,0.0,0.018176436,0.09664353,0.00050570595,0,1,0,1
3944000,3862112,3864000,0,1.6154639,0.0,0.009481072,0.09643368,0.00013789214,0,1,0,1
4016000,3935575,3936000,0,1.6160605,0.0,0.008284807,0.0962806,0.00010545796,0,1,0,1
4088000,4006183,4008000,0,1.61582,0.0,0.007969499,0.09617457,9.769113e-05,0,1,0,1
4160000,4079646,4080000,0,1.6290221,0.0,-0.0058344603,0.09610734,5.2396004e-05,0,1,0,1
4232000,4150243,4152000,0,1.6275587,0.0,-0.004046321,0.09607188,2.5210282e-05,0,1,0,1
4304000,4223704,4224000,0,1.6161305,0.0,0.007665038,0.096062325,9.047506e-05,0,1,0,1
4376000,4295020,4296000,0,1.6225287,0.0,0.0007247925,0.09607337,8.0886804e-07,0,1,0,1
4448000,4367753,4368000,0,1.6164432,0.0,0.0067042112,0.096100315,6.9186906e-05,0,1,0,1
4520000,4439426,4440000,0,1.6259283,0.0,-0.0032621622,0.09613921,1.6374344e-05,0,1,0,1
4592000,4511794,4512000,0,1.6250654,0.0,-0.0022355318,0.0961864,7.686018e-06,0,1,0,1
4664000,4583461,4584000,0,1.6175982,0.0,0.0054416656,0.0962387,4.5516335e-05,0,1,0,1
4736000,4655828,4656000,0,1.5855085,0.0,0.037222862,0.09629348,0.0021285114,0,1,0,1
4808000,4726399,4728000,0,1.6223586,0.0,-0.0021891594,0.09634834,7.3580695e-06,0,1,0,1
4880000,4799857,4800000,0,1.6657137,0.0,-0.045514822,0.09640132,0.0031788943,0,1,0,1
4952000,4870423,4872000,0,1.6313589,0.0,-0.008212447,0.09645094,0.00010344084,0,1,0,1
5024000,4943881,4944000,0,1.6219795,0.0,0.0016931295,0.09649584,4.394659e-06,0,1,0,1
5096000,5015171,5016000,0,1.6173476,0.0,0.006175518,0.09653498,5.8440703e-05,0,1,0,1
5168000,5087900,5088000,0,1.6290132,0.0,-0.0059860945,0.096567795,5.4891887e-05,0,1,0,1
5240000,5158460,5160000,0,1.6192409,0.0,0.004127383,0.09659375,2.6088788e-05,0,1,0,1
5312000,5231917,5232000,0,1.5990422,0.0,0.023991108,0.09661258,0.0008812929,0,1,0,1
5384000,5302838,5304000,0,1.6159097,0.0,0.005419731,0.09662421,4.497e-05,0,1,0,1
5456000,5375931,5376000,0,1.6170378,0.0,0.003908515,0.09662871,2.3386798e-05,0,1,0,1
5528000,5447214,5448000,0,1.6175954,0.0,0.003001213,0.09662624,1.3789609e-05,0,1,0,1
5600000,5519942,5520000,0,1.6730915,0.0,-0.052765608,0.0966171,0.0042628613,0,1,0,1
5672000,5590132,5592000,0,1.6292205,0.0,-0.0052244663,0.09660162,4.1797743e-05,0,1,0,1
5744000,5663952,5664000,0,1.6393192,0.0,-0.014995098,0.09658018,0.00034440067,0,1,0,1
5816000,5735231,5736000,0,1.6186911,0.0,0.0066837072,0.096553214,6.8441805e-05,0,1,0,1
5888000,5807960,5808000,0,1.6329317,0.0,-0.007961154,0.09652121,9.713654e-05,0,1,0,1
5960000,5879238,5880000,0,1.623382,0.0,0.0021238327,0.096484564,6.9157e-06,0,1,0,1
6032000,5951967,5952000,0,1.6186403,0.0,0.006772399,0.09644376,7.0350034e-05,0,1,0,1
6104000,6023244,6024000,0,1.6232913,0.0,0.0017678738,0.0963992,4.7960357e-06,0,1,0,1
6176000,6095972,6096000,0,1.6055237,0.0,0.019492865,0.09635135,0.00058337377,0,1,0,1
6248000,6166886,6168000,0,1.6199738,0.0,0.003718853,0.09630059,2.12443e-05,0,1,0,1
6320000,6239977,6240000,0,1.6157343,0.0,0.007680416,0.096247286,9.066389e-05,0,1,0,1
6392000,6310161,6312000,0,1.6255965,0.0,-0.0026171207,0.096191816,1.0533258e-05,0,1,0,1
6464000,6383981,6384000,0,1.6239905,0.0,-0.00080037117,0.096134506,9.857276e-07,0,1,0,1
6536000,6455256,6456000,0,1.61989,0.0,0.0032736063,0.096075654,1.650034e-05,0,1,0,1
6608000,6527984,6528000,0,1.6442454,0.0,-0.021325469,0.09601556,0.0007006626,0,1,0,1
6680000,6598896,6600000,0,1.6190001,0.0,0.0053275824,0.09595447,4.3757096e-05,0,1,0,1
6752000,6671987,6672000,0,1.6673,0.0,-0.04326427,0.09589257,0.0028875342,0,1,0,1
6824000,6743625,6744000,0,1.6219919,0.0,0.0047967434,0.09583014,3.551765e-05,0,1,0,1
6896000,6815989,6816000,0,1.6416352,0.0,-0.015090108,0.095767364,0.00035173897,0,1,0,1
6968000,6887263,6888000,0,1.6150457,0.0,0.012515068,0.09570436,0.00024209626,0,1,0,1
7040000,6959991,6960000,0,1.655989,0.0,-0.029089212,0.095641345,0.001308795,0,1,0,1
7112000,7030537,7032000,0,1.6190271,0.0,0.009677649,0.09557838,0.00014495506,0,1,0,1
7184000,7103993,7104000,0,1.6137863,0.0,0.014370918,0.095515616,0.00031985124,0,1,0,1
7256000,7174539,7176000,0,1.6244849,0.0,0.0028351545,0.09545319,1.2457084e-05,0,1,0,1
7328000,7247994,7248000,0,1.6548889,0.0,-0.027689815,0.09539113,0.0011890098,0,1,0,1
7400000,7319267,7320000,0,1.621689,0.0,0.0071980953,0.095329486,8.0400976e-05,0,1,0,1
7472000,7391995,7392000,0,1.6227615,0.0,0.005841136,0.09526846,5.2978397e-05,0,1,0,1
7544000,7461814,7464000,0,1.6245389,0.0,0.0038163662,0.095208034,2.2629754e-05,0,1,0,1
7616000,7535996,7536000,0,1.6352338,0.0,-0.0071041584,0.095148206,7.846536e-05,0,1,0,1
7688000,7606906,7608000,0,1.6098613,0.0,0.018636227,0.09508912,0.00054030435,0,1,0,1
7760000,7679997,7680000,0,1.6288307,0.0,-0.0013004541,0.09503077,2.6325654e-06,0,1,0,1
7832000,7751633,7752000,0,1.6222694,0.0,0.0054284334,0.09497319,4.58988e-05,0,1,0,1
7904000,7823997,7824000,0,1.6046342,0.0,0.022831202,0.09491642,0.00081239926,0,1,0,1
7976000,7895634,7896000,0,1.6204522,0.0,0.0058689117,0.09486042,5.37135e-05,0,1,0,1
8048000,7967998,7968000,0,1.6384765,0.0,-0.012518883,0.09480526,0.0002445412,0,1,0,1
8120000,8039998,8040000,0,1.6146129,0.0,0.0120078325,0.09475092,0.00022511226,0,1,0,1
8192000,8111998,8112000,0,1.6363448,0.0,-0.010357618,0.0946974,0.00016758498,0,1,0,1
8264000,8183271,8184000,0,1.6414874,0.0,-0.014993787,0.09464475,0.000351382,0,1,0,1
8336000,8255999,8256000,0,1.5861275,0.0,0.041170478,0.09459293,0.0026507361,0,1,0,1
8408000,8326180,8328000,0,1.6183798,0.0,0.006935239,0.094541945,7.525783e-05,0,1,0,1
8480000,8399999,8400000,0,1.6300423,0.0,-0.005114317,0.09449182,4.0948165e-05,0,1,0,1
8552000,8470544,8472000,0,1.6282302,0.0,-0.003062725,0.094442524,1.4692706e-05,0,1,0,1
8624000,8543999,8544000,0,1.6025869,0.0,0.022759795,0.094394036,0.0008117933,0,1,0,1
8696000,8615271,8616000,0,1.62649,0.0,-0.0021954775,0.09434639,7.5576377e-06,0,1,0,1
8768000,8687999,8688000,0,1.6233042,0.0,0.0011000633,0.09429958,1.8983618e-06,0,1,0,1
8840000,8758545,8760000,0,1.6204351,0.0,0.0039274693,0.094253555,2.4209243e-05,0,1,0,1
8912000,8832000,8832000,0,1.6402881,0.0,-0.01615572,0.09420833,0.00040984218,0,1,0,1
8984000,8902545,8904000,0,1.627186,0.0,-0.0023481846,0.09416389,8.662304e-06,0,1,0,1
9056000,8976000,8976000,0,1.6077513,0.0,0.017209768,0.09412022,0.0004655008,0,1,0,1
9128000,9048000,9048000,0,1.625339,0.0,-0.00113976,0.09407732,2.042656e-06,0,1,0,1
9200000,9120000,9120000,0,1.6387286,0.0,-0.014458656,0.09403516,0.00032886598,0,1,0,1
9272000,9190545,9192000,0,1.6236457,0.0,0.0011814833,0.09399374,2.1968963e-06,0,1,0,1
9344000,9264000,9264000,0,1.6201798,0.0,0.0046089888,0.093953036,3.344674e-05,0,1,0,1
9416000,9334181,9336000,0,1.6293701,0.0,-0.0047078133,0.09391305,3.491129e-05,0,1,0,1
9488000,9408000,9408000,0,1.6177173,0.0,0.007182598,0.093873754,8.129658e-05,0,1,0,1
9560000,9479636,9480000,0,1.6267897,0.0,-0.0021145344,0.09383516,7.048833e-06,0,1,0,1
9632000,9552000,9552000,0,1.6378341,0.0,-0.013102174,0.09379722,0.00027073856,0,1,0,1
9704000,9622545,9624000,0,1.6238325,0.0,0.0014644861,0.09375994,3.3838146e-06,0,1,0,1
9776000,9696000,9696000,0,1.615591,0.0,0.009639621,0.09372331,0.00014666471,0,1,0,1
9848000,9767636,9768000,0,1.6243349,0.0,0.0004863739,0.093687296,3.735194e-07,0,1,0,1
9920000,9840000,9840000,0,1.6422561,0.0,-0.017505646,0.09365191,0.00048405305,0,1,0,1
9992000,9910545,9912000,0,1.620383,0.0,0.005105257,0.09361715,4.118444e-05,0,1,0,1
10064000,9980000,9984000,0,1.6345453,0.0,-0.009232998,0.09358297,0.0001347541,0,1,0,1
10136000,10050000,10056000,0,1.625001,0.0,0.00066554546,0.09354938,7.0043507e-07,0,1,0,1
10208000,10122000,10128000,0,1.6180003,0.0,0.0075923204,0.09351635,9.118321e-05,0,1,0,1
10280000,10194000,10200000,0,1.621401,0.0,0.0038866997,0.09348387,2.3904442e-05,0,1,0,1
10352000,10266000,10272000,0,1.6247013,0.0,0.00043463707,0.09345195,2.990326e-07,0,1,0,1
10424000,10337600,10344000,0,1.6152039,0.0,0.009838462,0.093420565,0.00015327286,0,1,0,1
10488000,10408000,10408000,0,1.6212549,0.0,0.003460884,0.09337913,1.8974819e-05,0,1,0,1
10560000,10475555,10480000,0,1.6280783,0.0,-0.0034532547,0.09334935,1.8897279e-05,0,1,0,1
10632000,10548000,10552000,0,1.6101862,0.0,0.014541626,0.093320034,0.0003352003,0,1,0,1
10704000,10620000,10624000,0,1.6288457,0.0,-0.0046464205,0.09329118,3.423338e-05,0,1,0,1
10776000,10692000,10696000,0,1.6235608,0.0,0.0007508993,0.093262784,8.9435184e-07,0,1,0,1
10848000,10763111,10768000,0,1.6210265,0.0,0.0032385588,0.09323483,1.6640974e-05,0,1,0,1
10920000,10834666,10840000,0,1.6313511,0.0,-0.0071395636,0.09320732,8.0899656e-05,0,1,0,1
10984000,10902000,10904000,0,1.6218873,0.0,0.0025461912,0.093170896,1.0293312e-05,0,1,0,1
11056000,10972000,10976000,0,1.6203475,0.0,0.0039738417,0.09314469,2.5079356e-05,0,1,0,1
11128000,11044500,11048000,0,1.6284223,0.0,-0.004242778,0.09311888,2.8596716e-05,0,1,0,1
11200000,11116000,11120000,0,1.6252389,0.0,-0.000893116,0.09309345,1.2675059e-06,0,1,0,1
11264000,11183428,11184000,0,1.6210396,0.0,0.0033038855,0.093059674,1.735169e-05,0,1,0,1
11336000,11255200,11256000,0,1.6258031,0.0,-0.0016615391,0.093035415,4.389612e-06,0,1,0,1
11408000,11327428,11328000,0,1.6143748,0.0,0.009914875,0.09301149,0.00015634761,0,1,0,1
11480000,11398400,11400000,0,1.623874,0.0,8.225441e-05,0.092987895,1.0763297e-08,0,1,0,1
11552000,11466000,11472000,0,1.6259629,0.0,-0.0019649267,0.09296463,6.1436763e-06,0,1,0,1
11624000,11536666,11544000,0,1.625862,0.0,-0.001837492,0.092941694,5.373951e-06,0,1,0,1
11688000,11608000,11608000,0,1.6243681,0.0,-0.00027930737,0.092911184,1.2420816e-07,0,1,0,1
11760000,11675200,11680000,0,1.6352339,0.0,-0.011142254,0.09288924,0.00019771245,0,1,0,1
11832000,11746857,11752000,0,1.6203002,0.0,0.004110813,0.092867576,2.691812e-05,0,1,0,1
11896000,11814000,11816000,0,1.6197815,0.0,0.004456997,0.092838705,3.1652566e-05,0,1,0,1
11968000,11885500,11888000,0,1.6190892,0.0,0.004987359,0.09281796,3.9642644e-05,0,1,0,1
12040000,11957000,11960000,0,1.6235396,0.0,0.00034844875,0.092797495,1.9355079e-07,0,1,0,1
12112000,12029500,12032000,0,1.62185,0.0,0.0019698143,0.092777275,6.186746e-06,0,1,0,1
12184000,12101000,12104000,0,1.6323816,0.0,-0.00852263,0.092757314,0.00011583837,0,1,0,1
12256000,12173500,12176000,0,1.6189396,0.0,0.005147934,0.09273759,4.227304e-05,0,1,0,1
12328000,12246000,12248000,0,1.6217507,0.0,0.002126217,0.09271813,7.212798e-06,0,1,0,1
12400000,12317500,12320000,0,1.6192377,0.0,0.004570961,0.09269891,3.334216e-05,0,1,0,1
12472000,12390000,12392000,0,1.6181183,0.0,0.005654216,0.09267994,5.1028448e-05,0,1,0,1
12544000,12462000,12464000,0,1.6219916,0.0,0.001536727,0.0926612,3.770065e-06,0,1,0,1
12616000,12534000,12536000,0,1.6110493,0.0,0.012536645,0.09264268,0.00025096023,0,1,0,1
12688000,12605000,12608000,0,1.6229808,0.0,0.00022482872,0.09262441,8.072935e-08,0,1,0,1
12760000,12677000,12680000,0,1.6079878,0.0,0.01512754,0.092606366,0.00036555197,0,1,0,1
12832000,12748500,12752000,0,1.6186254,0.0,0.0040255785,0.092588544,2.5891231e-05,0,1,0,1
12904000,12821000,12824000,0,1.6249791,0.0,-0.002421856,0.09257094,9.372929e-06,0,1,0,1
12976000,12892000,12896000,0,1.6334368,0.0,-0.0108447075,0.092553556,0.0001879732,0,1,0,1
13040000,12958666,12960000,0,1.6085726,0.0,0.014265776,0.09253043,0.00032535655,0,1,0,1
13112000,13031111,13032000,0,1.6244193,0.0,-0.0020022392,0.09251372,6.410311e-06,0,1,0,1
13184000,13101333,13104000,0,1.6257951,0.0,-0.0033499002,0.0924972,1.7946862e-05,0,1,0,1
13256000,13168500,13176000,0,1.61798,0.0,0.0045827627,0.092480876,3.359357e-05,0,1,0,1
13320000,13240000,13240000,0,1.6193919,0.0,0.003042817,0.09245911,1.48134195e-05,0,1,0,1
13392000,13307428,13312000,0,1.6323397,0.0,-0.01001811,0.09244339,0.00016060131,0,1,0,1
13464000,13378400,13384000,0,1.6178806,0.0,0.004667878,0.09242783,3.4873025e-05,0,1,0,1
13536000,13450285,13456000,0,1.6236366,0.0,-0.001254797,0.092412464,2.5204015e-06,0,1,0,1
13608000,13522400,13528000,0,1.6108917,0.0,0.011555433,0.092397265,0.00021377983,0,1,0,1
13680000,13594857,13600000,0,1.6373296,0.0,-0.0151433945,0.09238225,0.00036720728,0,1,0,1
13752000,13666400,13672000,0,1.6153386,0.0,0.007191062,0.092367396,8.2817234e-05,0,1,0,1
13824000,13738285,13744000,0,1.6148965,0.0,0.007463813,0.0923527,8.923293e-05,0,1,0,1
13888000,13805000,13808000,0,1.612906,0.0,0.009169698,0.09233311,0.0001347119,0,1,0,1
13960000,13877000,13880000,0,1.6233222,0.0,-0.0015295744,0.09231894,3.7488992e-06,0,1,0,1
14032000,13948000,13952000,0,1.6116219,0.0,0.010190964,0.092304915,0.0001664405,0,1,0,1
14096000,14015428,14016000,0,1.6147923,0.0,0.0068176985,0.09228617,7.450618e-05,0,1,0,1
14168000,14088000,14088000,0,1.6165503,0.0,0.004921198,0.09227264,3.8825947e-05,0,1,0,1
14240000,14158285,14160000,0,1.620048,0.0,0.0012583733,0.09225925,2.5389982e-06,0,1,0,1
14312000,14225000,14232000,0,1.6037911,0.0,0.017442465,0.092245996,0.00048788957,0,1,0,1
14376000,14292000,14296000,0,1.6280636,0.0,-0.007330537,0.09222823,8.619083e-05,0,1,0,1
14448000,14364000,14368000,0,1.623693,0.0,-0.0028617382,0.09221541,1.3137407e-05,0,1,0,1
14520000,14436000,14440000,0,1.6161107,0.0,0.0047318935,0.09220273,3.592357e-05,0,1,0,1
14592000,14508000,14512000,0,1.6219131,0.0,-0.0012520552,0.09219017,2.5154498e-06,0,1,0,1
14664000,14579428,14584000,0,1.6188126,0.0,0.0018607378,0.092177734,5.5564533e-06,0,1,0,1
14736000,14652000,14656000,0,1.6163944,0.0,0.004224181,0.092165425,2.8639824e-05,0,1,0,1
14808000,14724000,14728000,0,1.6175573,0.0,0.0029639006,0.092153236,1.41016535e-05,0,1,0,1
14880000,14792800,14800000,0,1.6053035,0.0,0.015139699,0.092141174,0.0003679884,0,1,0,1
14944000,14862000,14864000,0,1.6167442,0.0,0.0033472776,0.092125006,1.7991168e-05,0,1,0,1
15016000,14934000,14936000,0,1.6268462,0.0,-0.006904602,0.09211333,7.6561104e-05,0,1,0,1
15088000,15005333,15008000,0,1.6265414,0.0,-0.0064975023,0.09210176,6.780759e-05,0,1,0,1
15160000,15076666,15080000,0,1.6161871,0.0,0.004014015,0.0920903,2.5881978e-05,0,1,0,1
15224000,15144000,15144000,0,1.6151079,0.0,0.0050017834,0.09207492,4.019405e-05,0,1,0,1
15296000,15213714,15216000,0,1.6210904,0.0,-0.0011534691,0.09206382,2.1378453e-06,0,1,0,1
15368000,15286400,15288000,0,1.6034517,0.0,0.01646161,0.092052825,0.00043547267,0,1,0,1
15440000,15357714,15360000,0,1.6070535,0.0,0.012440443,0.09204191,0.00024873644,0,1,0,1
15512000,15426000,15432000,0,1.6047872,0.0,0.014456868,0.092031114,0.00033594418,0,1,0,1
15584000,15496500,15504000,0,1.6146184,0.0,0.004274249,0.092020415,2.9368979e-05,0,1,0,1
15648000,15564000,15568000,0,1.6176524,0.0,0.0011134148,0.09200605,1.9932002e-06,0,1,0,1
15720000,15634222,15640000,0,1.6138709,0.0,0.0048799515,0.09199568,3.8292783e-05,0,1,0,1
15792000,15706666,15712000,0,1.6074806,0.0,0.0111682415,0.0919854,0.00020058759,0,1,0,1
15864000,15777333,15784000,0,1.6177517,0.0,0.0006426573,0.091975205,6.642651e-07,0,1,0,1
15928000,15846000,15848000,0,1.6366751,0.0,-0.018335938,0.091961496,0.00054082106,0,1,0,1
16000000,15916000,15920000,0,1.6082755,0.0,0.010457635,0.0919516,0.00017593855,0,1,0,1
16064000,15984000,15984000,0,1.6051787,0.0,0.013276219,0.09193827,0.00028359977,0,1,0,1
16136000,16054909,16056000,0,1.6100847,0.0,0.008031964,0.09192866,0.000103811624,0,1,0,1
16208000,16128000,16128000,0,1.6030207,0.0,0.01485765,0.09191913,0.00035526115,0,1,0,1
16280000,16199272,16200000,0,1.6102842,0.0,0.0072448254,0.09190966,8.447886e-05,0,1,0,1
16352000,16268000,16272000,0,1.6465933,0.0,-0.029342294,0.091900304,0.0013858764,0,1,0,1
16424000,16337200,16344000,0,1.6185787,0.0,-0.00070750713,0.09189101,8.0582726e-07,0,1,0,1
16488000,16404000,16408000,0,1.5924567,0.0,0.025388598,0.09187849,0.0010378079,0,1,0,1
16560000,16475272,16480000,0,1.6165211,0.0,0.0007792711,0.09186945,9.778211e-07,0,1,0,1
16624000,16544000,16544000,0,1.6165988,0.0,0.00067567825,0.09185723,7.352244e-07,0,1,0,1
16696000,16613600,16616000,0,1.6246396,0.0,-0.007436037,0.091848455,8.905629e-05,0,1,0,1
16768000,16684000,16688000,0,1.5874282,0.0,0.029905796,0.091839746,0.0014405668,0,1,0,1
16832000,16751111,16752000,0,1.618137,0.0,-0.0014796257,0.091827944,3.5268115e-06,0,1,0,1
16904000,16818000,16824000,0,1.6249062,0.0,-0.0082188845,0.09181945,0.00010882895,0,1,0,1
16968000,16888000,16888000,0,1.6131309,0.0,0.0037183762,0.09180796,2.2278178e-05,0,1,0,1
17040000,16960000,16960000,0,1.6170702,0.0,-0.00030636787,0.09179968,1.5125113e-07,0,1,0,1
17112000,17026666,17032000,0,1.6162927,0.0,0.00044572353,0.09179148,3.201711e-07,0,1,0,1
17184000,17097333,17104000,0,1.6188201,0.0,-0.002076745,0.091783345,6.9511366e-06,0,1,0,1
17248000,17165000,17168000,0,1.6097838,0.0,0.006930828,0.09177231,7.743048e-05,0,1,0,1
17320000,17237000,17240000,0,1.6257071,0.0,-0.009157181,0.09176438,0.00013517699,0,1,0,1
17392000,17308500,17312000,0,1.6192628,0.0,-0.0025798082,0.091756515,1.0729793e-05,0,1,0,1
17464000,17381000,17384000,0,1.6118462,0.0,0.0049397945,0.09174873,3.9343326e-05,0,1,0,1
17536000,17453000,17456000,0,1.6221561,0.0,-0.004848838,0.091741115,3.791095e-05,0,1,0,1
17608000,17525000,17528000,0,1.6368074,0.0,-0.017772794,0.091733396,0.0005093746,0,1,0,1
17680000,17597000,17600000,0,1.6181034,0.0,0.0032978058,0.09172609,1.7539236e-05,0,1,0,1
17744000,17664000,17664000,0,1.6363989,0.0,-0.013992786,0.09171613,0.0003158028,0,1,0,1
17816000,17735111,17736000,0,1.6154581,0.0,0.005733609,0.091708794,5.3027183e-05,0,1,0,1
17888000,17806666,17808000,0,1.6250778,0.0,-0.0034102201,0.0917008,1.8760527e-05,0,1,0,1
17960000,17873500,17880000,0,1.6248347,0.0,-0.0027809143,0.09169292,1.2476499e-05,0,1,0,1
18032000,17945000,17952000,0,1.6098593,0.0,0.012216091,0.091685295,0.00024077878,0,1,0,1
18104000,18016500,18024000,0,1.6324114,0.0,-0.010766745,0.09167791,0.00018704988,0,1,0,1
18168000,18084000,18088000,0,1.6170284,0.0,0.004620433,0.09166807,3.4450903e-05,0,1,0,1
18240000,18155555,18160000,0,1.6215043,0.0,-0.00023186207,0.09166014,8.676254e-08,0,1,0,1
18312000,18226666,18232000,0,1.6179655,0.0,0.003563404,0.091653354,2.0494395e-05,0,1,0,1
18384000,18298666,18304000,0,1.6183723,0.0,0.0028579235,0.09164643,1.31837505e-05,0,1,0,1
18448000,18366000,18368000,0,1.6185443,0.0,0.0025082827,0.09163703,1.0156295e-05,0,1,0,1
18520000,18437600,18440000,0,1.6238267,0.0,-0.0029517412,0.09163027,1.406601e-05,0,1,0,1
18592000,18510000,18512000,0,1.6165817,0.0,0.0042886734,0.091623574,2.9695597e-05,0,1,0,1
18664000,18581600,18584000,0,1.6165419,0.0,0.004091263,0.09161686,2.702668e-05,0,1,0,1
18736000,18652000,18656000,0,1.6258504,0.0,-0.0053673983,0.09161025,4.6519704e-05,0,1,0,1
18800000,18719555,18720000,0,1.620264,0.0,0.00016021729,0.09160125,4.1454403e-08,0,1,0,1
18872000,18792000,18792000,0,1.6087377,0.0,0.011548042,0.091594785,0.00021537702,0,1,0,1
18944000,18863555,18864000,0,1.6200454,0.0,-0.00015461445,0.091588356,3.8611194e-08,0,1,0,1
19016000,18936000,18936000,0,1.6079047,0.0,0.011752367,0.091581635,0.00022309799,0,1,0,1
19088000,19008000,19008000,0,1.6179603,0.0,0.0014432669,0.091575295,3.36487e-06,0,1,0,1
19160000,19080000,19080000,0,1.6230464,0.0,-0.0037887096,0.091569,2.3189294e-05,0,1,0,1
19232000,19151111,19152000,0,1.6099937,0.0,0.009156704,0.09156274,0.00013546056,0,1,0,1
19304000,19218000,19224000,0,1.6262677,0.0,-0.0074338913,0.09155652,8.92887e-05,0,1,0,1
19376000,19288400,19296000,0,1.6173325,0.0,0.0014691353,0.09155035,3.4875218e-06,0,1,0,1
19440000,19360000,19360000,0,1.6149685,0.0,0.0036661625,0.09154097,2.172007e-05,0,1,0,1
19512000,19427555,19432000,0,1.6232017,0.0,-0.004655242,0.09153495,3.5022804e-05,0,1,0,1
19584000,19500000,19504000,0,1.6261141,0.0,-0.0075998306,0.09152896,9.3347495e-05,0,1,0,1
19656000,19571111,19576000,0,1.6134105,0.0,0.0051021576,0.091523014,4.2075644e-05,0,1,0,1
19720000,19638000,19640000,0,1.6214203,0.0,-0.0029970407,0.09151495,1.4519331e-05,0,1,0,1
19792000,19709200,19712000,0,1.6191494,0.0,-0.0007972717,0.09150914,1.0275468e-06,0,1,0,1
19856000,19776000,19776000,0,1.6088617,0.0,0.008657098,0.09150009,0.0001211648,0,1,0,1
19928000,19846545,19848000,0,1.6224194,0.0,-0.0050162077,0.09149442,4.0682702e-05,0,1,0,1
20000000,19920000,19920000,0,1.6234392,0.0,-0.005935669,0.091488786,5.6967194e-05,0,1,0,1
20072000,19990909,19992000,0,1.627241,0.0,-0.009697676,0.09148319,0.00015207134,0,1,0,1
20144000,20064000,20064000,0,1.6167696,0.0,0.00093233585,0.09147763,1.4056694e-06,0,1,0,1
20216000,20134545,20136000,0,1.6126121,0.0,0.005108714,0.09147098,4.220785e-05,0,1,0,1
20288000,20208000,20208000,0,1.6050036,0.0,0.005436301,0.101465486,4.3086584e-05,0,1,0,1
20360000,20279272,20280000,0,1.615794,0.0,-0.005975604,0.10017008,5.273257e-05,0,1,0,1
20432000,20352000,20352000,0,1.6018285,0.0,0.008538961,0.09913788,0.00010879873,0,1,0,1
20504000,20423272,20424000,0,1.6239117,0.0,-0.014473796,0.09829607,0.0003152696,0,1,0,1
20576000,20496000,20496000,0,1.6528366,0.0,-0.042207718,0.09759648,0.0027002436,0,1,0,1
20648000,20566909,20568000,0,1.6239429,0.0,-0.0100739,0.09700584,0.00015475716,0,1,0,1
20720000,20640000,20640000,0,1.6119192,0.0,0.002616763,0.096500665,1.0496678e-05,0,1,0,1
20792000,20710181,20712000,0,1.6123081,0.0,0.0020272732,0.09606365,6.3287625e-06,0,1,0,1
20864000,20784000,20784000,0,1.6087139,0.0,0.005454421,0.095681906,4.5996083e-05,0,1,0,1
20936000,20855272,20856000,0,1.6137258,0.0,1.7642975e-05,0.095345594,4.829435e-10,0,1,0,1
21008000,20928000,20928000,0,1.6191171,0.0,-0.005330682,0.09504709,4.4226246e-05,0,1,0,1
21080000,20998545,21000000,0,1.6137108,0.0,0.00038266182,0.094780244,2.2854186e-07,0,1,0,1
21152000,21072000,21072000,0,1.6333553,0.0,-0.019257307,0.09454054,0.00058026507,0,1,0,1
21224000,21142545,21144000,0,1.6204568,0.0,-0.005540967,0.09432391,4.815071e-05,0,1,0,1
21296000,21216000,21216000,0,1.617007,0.0,-0.0018216372,0.094127245,5.2150895e-06,0,1,0,1
21368000,21286909,21288000,0,1.6181662,0.0,-0.0029146671,0.0939479,1.33765525e-05,0,1,0,1
21440000,21360000,21360000,0,1.5832527,0.0,0.03209114,0.09378361,0.0016244141,0,1,0,1
21512000,21430909,21432000,0,1.6202669,0.0,-0.0062884092,0.09363277,6.247512e-05,0,1,0,1
21584000,21504000,21504000,0,1.6118754,0.0,0.0022292137,0.09349371,7.862748e-06,0,1,0,1
21656000,21575272,21576000,0,1.6226109,0.0,-0.008474112,0.09336527,0.000113777496,0,1,0,1
21728000,21648000,21648000,0,1.6226556,0.0,-0.008279681,0.09324602,0.00010875526,0,1,0,1
21800000,21718545,21720000,0,1.6212865,0.0,-0.006621957,0.093135156,6.9648595e-05,0,1,0,1
21872000,21792000,21792000,0,1.6536201,0.0,-0.038648725,0.09303175,0.002375158,0,1,0,1
21944000,21862181,21864000,0,1.6214604,0.0,-0.0050439835,0.092935234,4.0496754e-05,0,1,0,1
22016000,21936000,21936000,0,1.6284132,0.0,-0.011685133,0.09284491,0.00021755174,0,1,0,1
22088000,22006545,22008000,0,1.6139761,0.0,0.0030745268,0.09276018,1.5074688e-05,0,1,0,1
22160000,22080000,22080000,0,1.6050836,0.0,0.011792898,0.09268059,0.00022197583,0,1,0,1
22232000,22150545,22152000,0,1.6270967,0.0,-0.010686278,0.09260562,0.00018241855,0,1,0,1
22304000,22224000,22224000,0,1.6103703,0.0,0.0060454607,0.09253499,5.8426e-05,0,1,0,1
22376000,22295272,22296000,0,1.6137129,0.0,0.0022993088,0.092468314,8.457753e-06,0,1,0,1
22448000,22368000,22368000,0,1.6050062,0.0,0.010735273,0.092405275,0.00018449425,0,1,0,1
22520000,22438545,22440000,0,1.6179514,0.0,-0.002702713,0.092345595,1.1701379e-05,0,1,0,1
22592000,22512000,22512000,0,1.6107941,0.0,0.004349947,0.09228902,3.0329918e-05,0,1,0,1
22664000,22582909,22584000,0,1.6133184,0.0,0.0016325712,0.09223529,4.2746497e-06,0,1,0,1
22736000,22656000,22656000,0,1.6425015,0.0,-0.02758193,0.09218428,0.0012208036,0,1,0,1
22808000,22726909,22728000,0,1.6225295,0.0,-0.007057309,0.092135765,7.996563e-05,0,1,0,1
22880000,22800000,22800000,0,1.6053461,0.0,0.010250449,0.09208957,0.000168783,0,1,0,1
22952000,22870909,22872000,0,1.623862,0.0,-0.008512616,0.092045546,0.00011645996,0,1,0,1
23024000,22944000,22944000,0,1.6054598,0.0,0.010150671,0.09200354,0.0001656679,0,1,0,1
23096000,23015272,23016000,0,1.6247013,0.0,-0.009274244,0.09196345,0.00013835508,0,1,0,1
23168000,23088000,23088000,0,1.6398077,0.0,-0.02423966,0.09192515,0.0009455229,0,1,0,1
23240000,23158909,23160000,0,1.6166066,0.0,-0.0006016493,0.09188852,5.827455e-07,0,1,0,1
23312000,23232000,23232000,0,1.6384507,0.0,-0.022482514,0.09185348,0.00081404333,0,1,0,1
23384000,23302181,23304000,0,1.6239175,0.0,-0.007537365,0.09181992,9.152833e-05,0,1,0,1
23456000,23376000,23376000,0,1.6314954,0.0,-0.015034437,0.091787755,0.0003642864,0,1,0,1
23528000,23446909,23448000,0,1.6299896,0.0,-0.013368607,0.091756925,0.00028812888,0,1,0,1
23600000,23520000,23520000,0,1.6481079,0.0,-0.031380177,0.091727346,0.0015880542,0,1,0,1
23672000,23590909,23592000,0,1.6236604,0.0,-0.0065042973,0.09169896,6.8247966e-05,0,1,0,1
23744000,23664000,23664000,0,1.6090975,0.0,0.007981539,0.091671705,0.00010279957,0,1,0,1
23816000,23734909,23736000,0,1.6163237,0.0,0.00029456615,0.0916455,1.4005799e-07,0,1,0,1
23888000,23808000,23808000,0,1.6295557,0.0,-0.013201952,0.09162033,0.00028140887,0,1,0,1
23960000,23880000,23880000,0,1.6160811,0.0,0.0002487898,0.09159611,9.996349e-08,0,1,0,1
24032000,23952000,23952000,0,1.6481313,0.0,-0.032066345,0.091572806,0.0016610617,0,1,0,1
24104000,24024000,24024000,0,1.6189084,0.0,-0.0024750233,0.09155037,9.898099e-06,0,1,0,1
24176000,24096000,24096000,0,1.5815489,0.0,0.03475356,0.09152879,0.0019520649,0,1,0,1
24248000,24167272,24168000,0,1.6162585,0.0,-0.0006933212,0.091507964,7.7707597e-07,0,1,0,1
24320000,24240000,24240000,0,1.6020201,0.0,0.013447285,0.09148792,0.0002923875,0,1,0,1
24392000,24311272,24312000,0,1.6093818,0.0,0.005470276,0.091468655,4.839489e-05,0,1,0,1
24464000,24384000,24384000,0,1.6021523,0.0,0.012429714,0.09145003,0.00024991468,0,1,0,1
24536000,24455636,24456000,0,1.613533,0.0,0.00076520443,0.09143205,9.473486e-07,0,1,0,1
24608000,24528000,24528000,0,1.5946004,0.0,0.019681811,0.09141471,0.0006268554,0,1,0,1
24680000,24599636,24600000,0,1.6151285,0.0,-0.0011571646,0.09139798,2.1672402e-06,0,1,0,1
24752000,24672000,24672000,0,1.6121,0.0,0.001961112,0.09138183,6.2258446e-06,0,1,0,1
24824000,24743272,24744000,0,1.6105518,0.0,0.0035924911,0.09136624,2.08958e-05,0,1,0,1
24896000,24816000,24816000,0,1.6262419,0.0,-0.01199317,0.09135118,0.0002329202,0,1,0,1
24968000,24886545,24888000,0,1.6156958,0.0,-0.0012017488,0.09133663,2.3390298e-06,0,1,0,1
25040000,24960000,24960000,0,1.5974857,0.0,0.017144084,0.09132258,0.0004761061,0,1,0,1
25112000,25031272,25032000,0,1.6140119,0.0,0.0004168749,0.091309,2.8154722e-07,0,1,0,1
25184000,25104000,25104000,0,1.6304457,0.0,-0.01592958,0.09129588,0.00041115997,0,1,0,1
25256000,25174909,25176000,0,1.6084641,0.0,0.0064002275,0.09128321,6.6382454e-05,0,1,0,1
25328000,25248000,25248000,0,1.6231701,0.0,-0.008302331,0.09127095,0.0001117174,0,1,0,1
25400000,25319636,25320000,0,1.6203411,0.0,-0.005286336,0.09125909,4.5298802e-05,0,1,0,1
25472000,25392000,25392000,0,1.6187007,0.0,-0.0035761595,0.09124762,2.0733165e-05,0,1,0,1
25544000,25462909,25464000,0,1.6181812,0.0,-0.003052473,0.091236554,1.51073455e-05,0,1,0,1
25616000,25536000,25536000,0,1.6084194,0.0,0.0066969395,0.09122584,7.272575e-05,0,1,0,1
25688000,25606909,25608000,0,1.6127273,0.0,0.0022439957,0.09121548,8.166367e-06,0,1,0,1
25760000,25680000,25680000,0,1.6331109,0.0,-0.018116951,0.09120547,0.0005323567,0,1,0,1
25832000,25751272,25752000,0,1.6198514,0.0,-0.0046623945,0.09119575,3.5261175e-05,0,1,0,1
25904000,25824000,25824000,0,1.6235912,0.0,-0.008429766,0.09118638,0.00011528012,0,1,0,1
25976000,25895272,25896000,0,1.6201817,0.0,-0.0050373077,0.09117733,4.1168347e-05,0,1,0,1
26048000,25964000,25968000,0,1.6057267,0.0,0.009477258,0.09116856,0.00014573829,0,1,0,1
26120000,26033200,26040000,0,1.6120354,0.0,0.0030511618,0.09116008,1.510703e-05,0,1,0,1
26184000,26100000,26104000,0,1.6127905,0.0,0.002280593,0.091151156,8.44086e-06,0,1,0,1
26256000,26170545,26176000,0,1.6205732,0.0,-0.005571604,0.0911432,5.0383638e-05,0,1,0,1
26328000,26244000,26248000,0,1.6096644,0.0,0.005322814,0.09113554,4.5988385e-05,0,1,0,1
26400000,26315636,26320000,0,1.6147074,0.0,0.00013148785,0.091128126,2.806546e-08,0,1,0,1
26472000,26388000,26392000,0,1.6105227,0.0,0.0042932034,0.09112095,2.992251e-05,0,1,0,1
26544000,26459272,26464000,0,1.6112024,0.0,0.003583908,0.091114014,2.085364e-05,0,1,0,1
26616000,26532000,26536000,0,1.622851,0.0,-0.008211017,0.091107294,0.00010946973,0,1,0,1
26688000,26602909,26608000,0,1.612846,0.0,0.001860261,0.09110081,5.619256e-06,0,1,0,1
26752000,26672000,26672000,0,1.6283303,0.0,-0.013557792,0.091093756,0.00029849884,0,1,0,1
26824000,26741200,26744000,0,1.6187428,0.0,-0.0037903786,0.091087714,2.3332363e-05,0,1,0,1
26888000,26808000,26808000,0,1.6215072,0.0,-0.0064145327,0.09108105,6.682752e-05,0,1,0,1
26960000,26879636,26880000,0,1.6225681,0.0,-0.007113576,0.09107538,8.219176e-05,0,1,0,1
27032000,26952000,26952000,0,1.6261809,0.0,-0.010661244,0.09106991,0.00018462658,0,1,0,1
27104000,27022909,27024000,0,1.6189399,0.0,-0.0033785105,0.09106464,1.8541896e-05,0,1,0,1
27176000,27096000,27096000,0,1.5971113,0.0,0.01850605,0.09105954,0.0005563593,0,1,0,1
27248000,27166909,27168000,0,1.6151224,0.0,0.00023448467,0.09105462,8.932649e-08,0,1,0,1
27320000,27240000,27240000,0,1.6475426,0.0,-0.03226447,0.091049865,0.0016913097,0,1,0,1
27392000,27311272,27312000,0,1.6201012,0.0,-0.0045204163,0.09104528,3.3201122e-05,0,1,0,1
27464000,27384000,27384000,0,1.63424,0.0,-0.018588185,0.09104086,0.00056142407,0,1,0,1
27536000,27454909,27456000,0,1.6216809,0.0,-0.005872965,0.09103658,5.604698e-05,0,1,0,1
27608000,27528000,27528000,0,1.6197652,0.0,-0.003922105,0.09103246,2.4997435e-05,0,1,0,1
27680000,27597818,27600000,0,1.6159016,0.0,-7.104874e-05,0.091028474,8.203305e-09,0,1,0,1
27752000,27672000,27672000,0,1.5797707,0.0,0.03605926,0.09102464,0.0021131388,0,1,0,1
27824000,27742909,27744000,0,1.6069021,0.0,0.008463621,0.09102095,0.00011641914,0,1,0,1
27896000,27816000,27816000,0,1.6709862,0.0,-0.055838466,0.09101738,0.005067526,0,1,0,1
27968000,27885818,27888000,0,1.6174711,0.0,-0.0018199682,0.091013946,5.383603e-06,0,1,0,1
28040000,27960000,27960000,0,1.6238018,0.0,-0.008229852,0.091010645,0.00011008931,0,1,0,1
28112000,28031272,28032000,0,1.6061963,0.0,0.00940752,0.09100746,0.00014385556,0,1,0,1
28184000,28104000,28104000,0,1.6016802,0.0,0.013833046,0.091004394,0.00031104745,0,1,0,1
28256000,28174181,28176000,0,1.611639,0.0,0.0036815405,0.091001436,2.2032524e-05,0,1,0,1
28328000,28244000,28248000,0,1.6057516,0.0,0.00938797,0.0909986,0.00014327223,0,1,0,1
28400000,28313200,28320000,0,1.6218055,0.0,-0.006813407,0.09099586,7.546757e-05,0,1,0,1
28464000,28380000,28384000,0,1.5871643,0.0,0.027837038,0.090992324,0.0012597797,0,1,0,1
28536000,28451272,28456000,0,1.6093923,0.0,0.005339861,0.090989806,4.6357552e-05,0,1,0,1
28608000,28524000,28528000,0,1.6022899,0.0,0.012442827,0.09098739,0.00025171568,0,1,0,1
28680000,28595272,28600000,0,1.6180124,0.0,-0.0033730268,0.09098506,1.8497918e-05,0,1,0,1
28752000,28668000,28672000,0,1.6274793,0.0,-0.012742162,0.09098284,0.0002639855,0,1,0,1
28824000,28738909,28744000,0,1.6112435,0.0,0.0036526918,0.09098069,2.169353e-05,0,1,0,1
28896000,28812000,28816000,0,1.6176935,0.0,-0.0028073788,0.09097865,1.28149195e-05,0,1,0,1
28968000,28883636,28888000,0,1.6173059,0.0,-0.0026086569,0.090976775,1.1065135e-05,0,1,0,1
29032000,28952000,28952000,0,1.5974159,0.0,0.017379522,0.09097392,0.0004911477,0,1,0,1
29104000,29021200,29024000,0,1.6208836,0.0,-0.006180167,0.09097213,6.210769e-05,0,1,0,1
29168000,29088000,29088000,0,1.5987812,0.0,0.015985012,0.09096945,0.00041551213,0,1,0,1
29240000,29159636,29160000,0,1.6119021,0.0,0.0026983023,0.09096782,1.1839866e-05,0,1,0,1
29312000,29232000,29232000,0,1.591476,0.0,0.023135304,0.09096626,0.00087040913,0,1,0,1
29384000,29303272,29304000,0,1.6129643,0.0,0.0013911724,0.09096478,3.1473278e-06,0,1,0,1
29456000,29376000,29376000,0,1.6334143,0.0,-0.019056797,0.09096334,0.00059059093,0,1,0,1
29528000,29447272,29448000,0,1.6196011,0.0,-0.0049563646,0.090962,3.9950282e-05,0,1,0,1
29600000,29520000,29520000,0,1.597906,0.0,0.016760468,0.09096072,0.00045684807,0,1,0,1
29672000,29590545,29592000,0,1.6214358,0.0,-0.0065686703,0.09095942,7.0171474e-05,0,1,0,1
29744000,29664000,29664000,0,1.5827887,0.0,0.03216827,0.09095826,0.0016829321,0,1,0,1
29816000,29734909,29736000,0,1.6236684,0.0,-0.009043932,0.09095714,0.00013302435,0,1,0,1
29888000,29808000,29808000,0,1.6091018,0.0,0.005607605,0.09095609,5.1141844e-05,0,1,0,1
29960000,29880000,29880000,0,1.6206788,0.0,-0.0063842535,0.09095521,6.6289685e-05,0,1,0,1
30032000,29952000,29952000,0,1.6075724,0.0,0.0067842007,0.090954274,7.485617e-05,0,1,0,1
30104000,30023636,30024000,0,1.6200829,0.0,-0.0057376623,0.09095338,5.354322e-05,0,1,0,1
30176000,30096000,30096000,0,1.5898347,0.0,0.024499655,0.09095254,0.0009762442,0,1,0,1
30248000,30166545,30168000,0,1.6238443,0.0,-0.009690404,0.09095173,0.00015273063,0,1,0,1
30320000,30240000,30240000,0,1.6318359,0.0,-0.017467856,0.09095098,0.00049627817,0,1,0,1
30392000,30310909,30312000,0,1.6148646,0.0,-0.00030839443,0.09095027,1.5469006e-07,0,1,0,1
30464000,30384000,30384000,0,1.6141152,0.0,0.0004441738,0.0909496,3.2089167e-07,0,1,0,1
30536000,30456000,30456000,0,1.6272613,0.0,-0.012580037,0.09094899,0.00025740638,0,1,0,1
30608000,30528000,30528000,0,1.6147557,0.0,0.00015306473,0.09094841,3.8107327e-08,0,1,0,1
30680000,30599272,30600000,0,1.6144462,0.0,0.00043702126,0.090947874,3.1064613e-07,0,1,0,1
30752000,30672000,30672000,0,1.6128263,0.0,0.001964569,0.09094736,6.277661e-06,0,1,0,1
30824000,30742909,30744000,0,1.6203363,0.0,-0.0055526495,0.09094689,5.0149432e-05,0,1,0,1
30896000,30816000,30816000,0,1.606396,0.0,0.008494496,0.090946466,0.00011736612,0,1,0,1
30968000,30887272,30888000,0,1.6141174,0.0,0.00068712234,0.09094606,7.679582e-07,0,1,0,1
31040000,30960000,30960000,0,1.6238631,0.0,-0.009069443,0.09094568,0.00013379271,0,1,0,1
31112000,31030545,31032000,0,1.622017,0.0,-0.0071485043,0.09094534,8.3119565e-05,0,1,0,1
31184000,31104000,31104000,0,1.6155641,0.0,-0.0007224083,0.09094503,8.488674e-07,0,1,0,1
31256000,31174909,31176000,0,1.6175636,0.0,-0.0027515888,0.090944745,1.2315239e-05,0,1,0,1
31328000,31248000,31248000,0,1.6474643,0.0,-0.032635927,0.09094447,0.0017324829,0,1,0,1
31400000,31319272,31320000,0,1.6243235,0.0,-0.009171963,0.09094424,0.00013683674,0,1,0,1
31472000,31392000,31392000,0,1.6243502,0.0,-0.009100676,0.090944014,0.00013471827,0,1,0,1
31544000,31462545,31464000,0,1.6160876,0.0,-0.00076699257,0.09094383,9.56891e-07,0,1,0,1
31616000,31536000,31536000,0,1.6305759,0.0,-0.015324831,0.09094366,0.0003820079,0,1,0,1
31688000,31607272,31608000,0,1.6132987,0.0,0.0020065308,0.09094351,6.5489744e-06,0,1,0,1
31760000,31680000,31680000,0,1.6191115,0.0,-0.0038580894,0.09094338,2.4211786e-05,0,1,0,1
31832000,31750545,31752000,0,1.6222136,0.0,-0.006991267,0.090943255,7.9505044e-05,0,1,0,1
31904000,31824000,31824000,0,1.6387972,0.0,-0.023489356,0.09094316,0.0008974816,0,1,0,1
31976000,31894909,31896000,0,1.6166677,0.0,-0.0011131763,0.09094308,2.0156335e-06,0,1,0,1
32048000,31968000,31968000,0,1.631188,0.0,-0.015729785,0.090943016,0.00040246634,0,1,0,1
32120000,32038545,32040000,0,1.6171906,0.0,-0.0016819239,0.090942964,4.601474e-06,0,1,0,1
32192000,32112000,32112000,0,1.6167058,0.0,-0.0012748241,0.090942934,2.6435341e-06,0,1,0,1
32264000,32183272,32184000,0,1.6165419,0.0,-0.0010617971,0.09094284,1.8338675e-06,0,1,0,1
32336000,32256000,32256000,0,1.6000617,0.0,0.01531589,0.09094282,0.0003815658,0,1,0,1
32408000,32327272,32328000,0,1.6147498,0.0,0.00011718273,0.09094289,2.233633e-08,0,1,0,1
32480000,32400000,32400000,0,1.6413462,0.0,-0.026565313,0.09094289,0.0011479275,0,1,0,1
32552000,32470181,32472000,0,1.6280057,0.0,-0.012940049,0.090942904,0.00027236817,0,1,0,1
32624000,32544000,32544000,0,1.5837922,0.0,0.031374335,0.09094291,0.0016011558,0,1,0,1
32696000,32614545,32616000,0,1.6177131,0.0,-0.0028414726,0.09094296,1.313322e-05,0,1,0,1
32768000,32688000,32688000,0,1.6387056,0.0,-0.023796678,0.090943,0.00092112104,0,1,0,1
32840000,32758909,32760000,0,1.6295393,0.0,-0.014437795,0.09094303,0.0003390671,0,1,0,1
32912000,32832000,32832000,0,1.6214169,0.0,-0.00627923,0.09094309,6.4135194e-05,0,1,0,1
32984000,32903272,32904000,0,1.6249524,0.0,-0.00984323,0.09094315,0.00015760088,0,1,0,1
33056000,32976000,32976000,0,1.6128002,0.0,0.0024285316,0.090943195,9.593357e-06,0,1,0,1
33128000,33046545,33048000,0,1.6198826,0.0,-0.0046830177,0.09094325,3.5672576e-05,0,1,0,1
33200000,33120000,33120000,0,1.6251446,0.0,-0.009991884,0.09094332,0.00016239674,0,1,0,1
33272000,33191636,33192000,0,1.6236482,0.0,-0.008492351,0.09094338,0.000117310825,0,1,0,1
33344000,33264000,33264000,0,1.6221628,0.0,-0.0070599318,0.090943456,8.107425e-05,0,1,0,1
33416000,33335272,33336000,0,1.6211983,0.0,-0.0061234236,0.090943515,6.0991628e-05,0,1,0,1
33488000,33408000,33408000,0,1.6278447,0.0,-0.012698412,0.09094358,0.00026228902,0,1,0,1
33560000,33478909,33480000,0,1.6147714,0.0,0.0005444288,0.09094365,4.8212894e-07,0,1,0,1
33632000,33552000,33552000,0,1.6138525,0.0,0.0013802052,0.090943724,3.0986168e-06,0,1,0,1
33704000,33622909,33624000,0,1.62469,0.0,-0.009420514,0.09094378,0.00014435424,0,1,0,1
33776000,33696000,33696000,0,1.6235477,0.0,-0.008170009,0.09094385,0.0001085738,0,1,0,1
33848000,33766909,33768000,0,1.6247349,0.0,-0.009423494,0.09094389,0.00014444542,0,1,0,1
33920000,33840000,33840000,0,1.5882007,0.0,0.027086854,0.09094395,0.0011934292,0,1,0,1
33992000,33911272,33912000,0,1.6234398,0.0,-0.008525968,0.09094401,0.00011824059,0,1,0,1
34064000,33984000,33984000,0,1.6151483,0.0,-0.00022900105,0.09094407,8.530096e-08,0,1,0,1
34136000,34054545,34056000,0,1.6142818,0.0,0.0005339384,0.09094411,4.6372557e-07,0,1,0,1
34208000,34128000,34128000,0,1.5629593,0.0,0.051832438,0.090944156,0.004370004,0,1,0,1
34280000,34198909,34200000,0,1.6136554,0.0,0.0005251169,0.0909442,4.485288e-07,0,1,0,1
34352000,34272000,34272000,0,1.6278034,0.0,-0.013593078,0.09094422,0.000300548,0,1,0,1
34424000,34342909,34344000,0,1.6168517,0.0,-0.0025582314,0.09094425,1.0645294e-05,0,1,0,1
34496000,34416000,34416000,0,1.6205372,0.0,-0.0062634945,0.09094428,6.381332e-05,0,1,0,1
34568000,34486909,34488000,0,1.6217982,0.0,-0.007389426,0.09094429,8.8817666e-05,0,1,0,1
34640000,34560000,34560000,0,1.6006634,0.0,0.013852358,0.090944305,0.0003121226,0,1,0,1
34712000,34630909,34632000,0,1.622576,0.0,-0.008103371,0.09094431,0.00010680934,0,1,0,1
34784000,34704000,34704000,0,1.6550404,0.0,-0.040433526,0.090944305,0.0026592617,0,1,0,1
34856000,34774545,34776000,0,1.6326163,0.0,-0.017532587,0.09094429,0.0004999999,0,1,0,1
34928000,34848000,34848000,0,1.5978469,0.0,0.017403483,0.09094427,0.00049266353,0,1,0,1
35000000,34918909,34920000,0,1.6223099,0.0,-0.006896496,0.0909442,7.736335e-05,0,1,0,1
35072000,34992000,34992000,0,1.6427647,0.0,-0.027246952,0.090944156,0.0012075758,0,1,0,1
35144000,35062909,35064000,0,1.6212572,0.0,-0.005505085,0.09094412,4.9295446e-05,0,1,0,1
35216000,35136000,35136000,0,1.6206201,0.0,-0.0049157143,0.09094406,3.9305403e-05,0,1,0,1
35288000,35206909,35208000,0,1.6181012,0.0,-0.0024340153,0.090944,9.636646e-06,0,1,0,1
35360000,35280000,35280000,0,1.6308995,0.0,-0.015361309,0.090943925,0.00038382752,0,1,0,1
35432000,35351636,35352000,0,1.6255099,0.0,-0.009903312,0.09094384,0.00015952949,0,1,0,1
35504000,35424000,35424000,0,1.6371573,0.0,-0.021560311,0.09094375,0.00075611967,0,1,0,1
35576000,35494545,35496000,0,1.6241633,0.0,-0.00832212,0.09094365,0.0001126546,0,1,0,1
35648000,35568000,35568000,0,1.6104754,0.0,0.0053532124,0.09094354,4.6613368e-05,0,1,0,1
35720000,35639272,35640000,0,1.6197938,0.0,-0.004135728,0.09094341,2.782185e-05,0,1,0,1
35792000,35712000,35712000,0,1.6075971,0.0,0.00807631,0.090943284,0.00010609836,0,1,0,1
35864000,35781818,35784000,0,1.6284652,0.0,-0.013010144,0.09094314,0.00027532622,0,1,0,1
35936000,35856000,35856000,0,1.611903,0.0,0.0034667253,0.090942994,1.954893e-05,0,1,0,1
36008000,35926545,35928000,0,1.6282213,0.0,-0.013013482,0.09094283,0.0002754685,0,1,0,1
36080000,36000000,36000000,0,1.6312044,0.0,-0.015861273,0.09094265,0.00040922465,0,1,0,1
36152000,36070545,36072000,0,1.6160951,0.0,-0.0007073879,0.090942465,8.1395785e-07,0,1,0,1
36224000,36144000,36144000,0,1.6483734,0.0,-0.033296466,0.09094233,0.0018033646,0,1,0,1
36296000,36214909,36216000,0,1.6220769,0.0,-0.0066800117,0.09094213,7.25843e-05,0,1,0,1
36368000,36288000,36288000,0,1.6182514,0.0,-0.0028586388,0.090941906,1.3292536e-05,0,1,0,1
36440000,36358909,36360000,0,1.6260926,0.0,-0.010683656,0.09094167,0.00018566508,0,1,0,1
36512000,36432000,36432000,0,1.6802824,0.0,-0.064723015,0.09094143,0.0068141087,0,1,0,1
36584000,36502545,36504000,0,1.6234522,0.0,-0.007225871,0.090941176,8.493236e-05,0,1,0,1
36656000,36576000,36576000,0,1.6383597,0.0,-0.02209568,0.09094091,0.0007941615,0,1,0,1
36728000,36648000,36648000,0,1.6163744,0.0,9.381771e-05,0.090940624,1.4317431e-08,0,1,0,1
36800000,36716000,36720000,0,1.6222744,0.0,-0.005892396,0.09094035,5.6478166e-05,0,1,0,1
36872000,36784400,36792000,0,1.6221107,0.0,-0.005669117,0.09094004,5.227921e-05,0,1,0,1
36936000,36852000,36856000,0,1.6091776,0.0,0.0073485374,0.09093869,8.784287e-05,0,1,0,1
37008000,36922909,36928000,0,1.629962,0.0,-0.013537049,0.09093838,0.00029809462,0,1,0,1
37080000,36996000,37000000,0,1.6022371,0.0,0.0143117905,0.090938054,0.00033319282,0,1,0,1
37152000,37066909,37072000,0,1.6262175,0.0,-0.009859681,0.09093772,0.00015813755,0,1,0,1
37216000,37136000,37136000,0,1.6093009,0.0,0.0070809126,0.09093633,8.156322e-05,0,1,0,1
37288000,37204800,37208000,0,1.6191751,0.0,-0.0028510094,0.09093599,1.3222539e-05,0,1,0,1
37352000,37272000,37272000,0,1.6205515,0.0,-0.004224539,0.09093461,2.9032388e-05,0,1,0,1
37424000,37343636,37344000,0,1.6209339,0.0,-0.0046037436,0.09093425,3.4478482e-05,0,1,0,1
37496000,37416000,37416000,0,1.6081675,0.0,0.008227229,0.09093388,0.00011011205,0,1,0,1
37568000,37487636,37488000,0,1.6143516,0.0,0.0020005703,0.0909335,6.5108406e-06,0,1,0,1
37640000,37560000,37560000,0,1.617928,0.0,-0.0016194582,0.090933114,4.2664906e-06,0,1,0,1
37712000,37631636,37632000,0,1.6277919,0.0,-0.01144135,0.09093272,0.00021295492,0,1,0,1
37784000,37704000,37704000,0,1.6489637,0.0,-0.032454133,0.09093231,0.0017134647,0,1,0,1
37856000,37773454,37776000,0,1.6192936,0.0,-0.0024194717,0.090931885,9.523098e-06,0,1,0,1
37928000,37848000,37848000,0,1.5979166,0.0,0.018966675,0.09093145,0.0005852233,0,1,0,1
38000000,37917818,37920000,0,1.6192483,0.0,-0.0025532246,0.090931006,1.0605213e-05,0,1,0,1
38072000,37992000,37992000,0,1.629975,0.0,-0.013243437,0.09093055,0.00028532834,0,1,0,1
38144000,38064000,38064000,0,1.6192148,0.0,-0.0023260117,0.090930074,8.8017605e-06,0,1,0,1
38216000,38136000,38136000,0,1.59797,0.0,0.018957734,0.0909296,0.0005846837,0,1,0,1
38288000,38207272,38208000,0,1.6196394,0.0,-0.0029525757,0.090929106,1.418249e-05,0,1,0,1
38360000,38280000,38280000,0,1.6367155,0.0,-0.019953609,0.0909286,0.0006477326,0,1,0,1
38432000,38351272,38352000,0,1.6094426,0.0,0.0075558424,0.090928085,9.287976e-05,0,1,0,1
38504000,38424000,38424000,0,1.6172407,0.0,-0.00031459332,0.09092756,1.6101146e-07,0,1,0,1
38576000,38495272,38496000,0,1.6225104,0.0,-0.0055156946,0.09092702,4.949494e-05,0,1,0,1
38648000,38568000,38568000,0,1.6174268,0.0,-0.0004916191,0.09092647,3.9320636e-07,0,1,0,1
38720000,38639636,38640000,0,1.6171484,0.0,-0.00019097328,0.09092591,5.9334997e-08,0,1,0,1
38792000,38712000,38712000,0,1.6445351,0.0,-0.02757883,0.090925336,0.0012374285,0,1,0,1
38864000,38782181,38784000,0,1.6225284,0.0,-0.0052678585,0.09092476,4.514809e-05,0,1,0,1
38936000,38856000,38856000,0,1.6062598,0.0,0.011015654,0.090924166,0.00019742156,0,1,0,1
39008000,38926181,38928000,0,1.6178042,0.0,-0.00068342686,0.09092357,7.5990783e-07,0,1,0,1
39080000,39000000,39000000,0,1.6101536,0.0,0.0069174767,0.09092296,7.785297e-05,0,1,0,1
39152000,39070909,39072000,0,1.6220998,0.0,-0.0051306486,0.09092234,4.2827953e-05,0,1,0,1
39224000,39144000,39144000,0,1.6377013,0.0,-0.020668268,0.0909217,0.00069501466,0,1,0,1
39296000,39214545,39216000,0,1.6189952,0.0,-0.0017489195,0.09092106,4.9765513e-06,0,1,0,1
39368000,39288000,39288000,0,1.6570314,0.0,-0.039793253,0.09092041,0.0025763854,0,1,0,1
39440000,39359272,39360000,0,1.6080989,0.0,0.009518623,0.09091974,0.00014741559,0,1,0,1
39512000,39432000,39432000,0,1.6039978,0.0,0.013494849,0.09091906,0.00029630194,0,1,0,1
39584000,39502545,39504000,0,1.6192452,0.0,-0.0018903017,0.090918384,5.8138507e-06,0,1,0,1
39656000,39576000,39576000,0,1.6033285,0.0,0.014024377,0.09091769,0.00032001632,0,1,0,1
39728000,39647636,39648000,0,1.6192452,0.0,-0.002043128,0.09091699,6.7920273e-06,0,1,0,1
39800000,39720000,39720000,0,1.5972662,0.0,0.01995778,0.090916276,0.0006480913,0,1,0,1
39872000,39789454,39792000,0,1.6258806,0.0,-0.008904338,0.09091555,0.00012900852,0,1,0,1
39944000,39864000,39864000,0,1.610814,0.0,0.0062896013,0.09091482,6.436724e-05,0,1,0,1
40016000,39934545,39936000,0,1.6154453,0.0,0.0016359091,0.09091408,4.354523e-06,0,1,0,1
40088000,40008000,40008000,0,1.6187664,0.0,-0.0017386675,0.09091333,4.918796e-06,0,1,0,1
40160000,40080000,40080000,0,1.61676,0.0,0.00034987926,0.09091257,1.991892e-07,0,1,0,1
40232000,40152000,40152000,0,1.6590427,0.0,-0.041866064,0.090911806,0.0028520513,0,1,0,1
40304000,40222909,40224000,0,1.6200684,0.0,-0.0024405718,0.09091102,9.692147e-06,0,1,0,1
40376000,40296000,40296000,0,1.6176606,0.0,6.854534e-05,0.09091024,7.645333e-09,0,1,0,1
40448000,40366545,40368000,0,1.6316963,0.0,-0.013897181,0.090909444,0.00031426625,0,1,0,1
40520000,40440000,40440000,0,1.6281649,0.0,-0.010200858,0.09090864,0.00016932521,0,1,0,1
40592000,40511636,40512000,0,1.6161495,0.0,0.0018994808,0.090907834,5.871132e-06,0,1,0,1
40664000,40584000,40584000,0,1.5991569,0.0,0.018875718,0.09090701,0.0005797797,0,1,0,1
40736000,40655636,40656000,0,1.6230844,0.0,-0.0053095818,0.09090619,4.5875473e-05,0,1,0,1
40808000,40728000,40728000,0,1.6213042,0.0,-0.0035005808,0.09090535,1.994087e-05,0,1,0,1
40880000,40798545,40800000,0,1.6191965,0.0,-0.0013904572,0.090904504,3.146177e-06,0,1,0,1
40952000,40872000,40872000,0,1.6115164,0.0,0.0063188076,0.09090365,6.497441e-05,0,1,0,1
41024000,40943636,40944000,0,1.6165141,0.0,0.0012537241,0.09090279,2.5578795e-06,0,1,0,1
41096000,41016000,41016000,0,1.6021531,0.0,0.015622497,0.090901926,0.0003971743,0,1,0,1
41168000,41087272,41088000,0,1.6095616,0.0,0.007982373,0.09090105,0.000103692786,0,1,0,1
41240000,41160000,41160000,0,1.6031743,0.0,0.0143454075,0.09090017,0.00033489944,0,1,0,1
41312000,41231636,41232000,0,1.6266167,0.0,-0.009235263,0.090899274,0.00013880063,0,1,0,1
41384000,41304000,41304000,0,1.6173581,0.0,0.00017976761,0.09089838,5.259205e-08,0,1,0,1
41456000,41373818,41376000,0,1.626744,0.0,-0.009159327,0.09089747,0.00013653017,0,1,0,1
41528000,41448000,41448000,0,1.6086183,0.0,0.008993268,0.09089656,0.00013162578,0,1,0,1
41600000,41518181,41520000,0,1.6234423,0.0,-0.0059560537,0.090895645,5.7733443e-05,0,1,0,1
41672000,41592000,41592000,0,1.6496518,0.0,-0.03207481,0.09089472,0.001674337,0,1,0,1
41744000,41662909,41664000,0,1.6233504,0.0,-0.005425453,0.09089379,4.7906142e-05,0,1,0,1
41816000,41736000,41736000,0,1.6240358,0.0,-0.0060875416,0.090892844,6.031253e-05,0,1,0,1
41888000,41807636,41808000,0,1.6152543,0.0,0.0027399063,0.090891905,1.22179845e-05,0,1,0,1
41960000,41876000,41880000,0,1.59557,0.0,0.0223881,0.090890944,0.000815769,0,1,0,1
42032000,41946000,41952000,0,1.6182715,0.0,-0.00057685375,0.09089,5.4158755e-07,0,1,0,1
42096000,42016000,42016000,0,1.6377895,0.0,-0.020074248,0.090888165,0.0006558804,0,1,0,1
42176000,42088400,42096000,0,1.6145382,0.0,0.0033435822,0.09088807,1.8195773e-05,0,1,0,1
42240000,42160000,42160000,0,1.6057951,0.0,0.012010574,0.09088623,0.00023479173,0,1,0,1
42312000,42227555,42232000,0,1.6243498,0.0,-0.006568074,0.09088526,7.021599e-05,0,1,0,1
42384000,42300000,42304000,0,1.6303935,0.0,-0.012541652,0.09088428,0.0002560201,0,1,0,1
42456000,42371555,42376000,0,1.6182094,0.0,-0.00018632412,0.09088331,5.650767e-08,0,1,0,1
42528000,42442666,42448000,0,1.6043786,0.0,0.013688207,0.090882316,0.00030497697,0,1,0,1
42592000,42510000,42512000,0,1.615972,0.0,0.00196743,0.090880476,6.3005928e-06,0,1,0,1
42664000,42582000,42584000,0,1.600967,0.0,0.016949773,0.09087949,0.00046764384,0,1,0,1
42736000,42653500,42656000,0,1.6194744,0.0,-0.0016487837,0.090878494,4.425064e-06,0,1,0,1
42808000,42725000,42728000,0,1.6107651,0.0,0.007075906,0.0908775,8.150065e-05,0,1,0,1
42880000,42797500,42800000,0,1.6083434,0.0,0.009425163,0.0908765,0.00014460375,0,1,0,1
42952000,42869000,42872000,0,1.6148629,0.0,0.0027583838,0.09087549,1.2385569e-05,0,1,0,1
43024000,42940500,42944000,0,1.6253945,0.0,-0.0077855587,0.09087447,9.867134e-05,0,1,0,1
43088000,43008000,43008000,0,1.6081386,0.0,0.00948441,0.09087262,0.00014643367,0,1,0,1
43160000,43079111,43080000,0,1.6196239,0.0,-0.0020883083,0.09087162,7.09928e-06,0,1,0,1
43232000,43146000,43152000,0,1.6245612,0.0,-0.006976843,0.0908706,7.924062e-05,0,1,0,1
43296000,43216000,43216000,0,1.6278616,0.0,-0.010164499,0.09086876,0.00016819409,0,1,0,1
43368000,43284000,43288000,0,1.6069732,0.0,0.010891318,0.09086775,0.00019310988,0,1,0,1
43440000,43355272,43360000,0,1.6147825,0.0,0.0030212402,0.09086673,1.4860006e-05,0,1,0,1
43504000,43424000,43424000,0,1.6406534,0.0,-0.022841334,0.09086489,0.0008493764,0,1,0,1
43576000,43492800,43496000,0,1.6264449,0.0,-0.008453369,0.090863876,0.000116338044,0,1,0,1
43640000,43560000,43560000,0,1.5899179,0.0,0.02819252,0.09086206,0.0012940128,0,1,0,1
43712000,43630545,43632000,0,1.6190569,0.0,-0.0012532473,0.09086104,2.5571087e-06,0,1,0,1
43784000,43704000,43704000,0,1.6654165,0.0,-0.047523856,0.09086002,0.0036770867,0,1,0,1
43856000,43774909,43776000,0,1.6126986,0.0,0.0057241917,0.09085899,5.3347467e-05,0,1,0,1
43928000,43848000,43848000,0,1.5921761,0.0,0.026248217,0.09085796,0.0011217342,0,1,0,1
44000000,43918909,43920000,0,1.6327281,0.0,-0.014618516,0.09085693,0.000347938,0,1,0,1
44072000,43992000,43992000,0,1.6226062,0.0,-0.0043199062,0.09085589,3.0384279e-05,0,1,0,1
44144000,44062909,44064000,0,1.6241988,0.0,-0.0058606863,0.09085485,5.592451e-05,0,1,0,1
