timestamp,timestamp_sample,ref_timestamp,ref_lat,ref_lon,x,y,z,delta_xy[0],delta_xy[1],delta_z,vx,vy,vz,z_deriv,delta_vxy[0],delta_vxy[1],delta_vz,ax,ay,az,heading,delta_heading,ref_alt,dist_bottom,eph,epv,evh,evv,vxy_max,vz_max,hagl_min,hagl_max,xy_valid,z_valid,v_xy_valid,v_z_valid,xy_reset_counter,z_reset_counter,vxy_reset_counter,vz_reset_counter,heading_reset_counter,heading_good_for_control,xy_global,z_global,dist_bottom_valid,dist_bottom_sensor_bitfield,dead_reckoning
3200000,3200000,0,nan,nan,6.4737483e-06,3.239104e-05,-0.0007653879,-6.300118e-08,1.5656e-08,0.0,3.773439e-07,4.315565e-05,-0.014996991,-0.016583199,-1.0500196e-05,2.609333e-06,0.0017587617,-0.0008971255,-0.007980372,-0.12521538,0.00025845124,0.0,nan,0.1,14.172738,10.008659,7.074017,3.1623116,inf,inf,inf,inf,0,0,0,0,1,1,1,1,0,0,0,0,0,0,1
3208000,3208000,0,nan,nan,5.191523e-06,3.1677897e-05,-0.0008579114,-6.300118e-08,1.5656e-08,0.0,0.00011319925,-9.8077064e-05,-0.016008053,-0.017508836,-1.0500196e-05,2.609333e-06,0.0017587617,0.014536955,-0.023984727,-0.13774446,0.00026455865,0.0,nan,0.10228416,14.142143,10.0,0.001953125,0.001,inf,inf,inf,inf,0,0,0,0,1,1,1,1,0,0,0,0,0,0,1
3216000,3216000,0,nan,nan,4.875562e-06,2.9231636e-05,-0.0009547903,-6.300118e-08,1.5656e-08,0.0,0.00030252794,-0.00033085258,-0.016931862,-0.018338686,-1.0500196e-05,2.609333e-06,0.0017587617,0.029394183,-0.027632484,-0.1313677,0.0002630773,0.0,nan,0.102376886,14.142143,10.0,0.012884433,0.0041894484,inf,inf,inf,inf,0,0,0,0,1,1,1,1,0,0,0,0,0,0,1
3224000,3224000,0,nan,nan,-7.4523974e-05,-2.870703e-06,0.00053806923,-6.300118e-08,1.5656e-08,0.0,0.00038574397,-0.0005809653,-0.013488658,-0.019425942,-1.0500196e-05,2.609333e-06,0.0017587617,0.03907528,-0.045170844,-0.16075371,1.617797,0.0,nan,0.10087117,14.142143,10.0,0.024560349,0.0064846408,inf,inf,inf,inf,0,0,0,0,1,1,1,1,0,0,0,0,0,0,1
3232000,3232000,0,nan,nan,-7.0698e-05,-6.4498e-06,0.00042698896,-6.300118e-08,1.5656e-08,0.0,0.0005383933,-0.0003082315,-0.014622826,-0.02036782,-1.0500196e-05,2.609333e-06,0.0017587617,0.010538147,0.027178552,-0.14269817,1.6177826,0.0,nan,0.100959636,14.142143,10.0,0.033518244,0.008631178,inf,inf,inf,inf,0,0,0,0,1,1,1,1,0,0,0,0,0,0,1
3240000,3240000,0,nan,nan,-6.617444e-05,-7.884469e-06,0.0003084154,-6.300118e-08,1.5656e-08,0.0,0.0006136151,4.6891495e-05,-0.0155791715,-0.021127716,-1.0500196e-05,2.609333e-06,0.0017587617,0.016214266,0.05482671,-0.12277718,1.6177853,0.0,nan,0.10104591,14.142143,10.0,0.0438021,0.010718806,inf,inf,inf,inf,0,0,0,0,1,1,1,1,0,0,0,0,0,0,1
3248000,3248000,0,nan,nan,-6.0844915e-05,-7.2828534e-06,0.000182627,-6.300118e-08,1.5656e-08,0.0,0.00067363615,0.00013333958,-0.016629007,-0.021979185,-1.0500196e-05,2.609333e-06,0.0017587617,-0.0031968665,-0.0078952,-0.13064685,1.6177874,0.0,nan,0.10113053,14.142143,10.0,0.054680146,0.012776459,inf,inf,inf,inf,0,0,0,0,1,1,1,1,0,0,0,0,0,0,1
3256000,3256000,0,nan,nan,-5.553476e-05,-6.84367e-06,4.92642e-05,-6.300118e-08,1.5656e-08,0.0,0.0006849267,0.00016435428,-0.017695861,-0.022847509,-1.0500196e-05,2.609333e-06,0.0017587617,0.0088509545,0.019209996,-0.13216583,1.6177799,0.0,nan,0.10121327,14.142143,10.0,0.06588992,0.014816625,inf,inf,inf,inf,0,0,0,0,1,1,1,1,0,0,0,0,0,0,1
3264000,3264000,0,nan,nan,-4.889475e-05,-5.322401e-06,-9.040755e-05,-6.300118e-08,1.5656e-08,0.0,0.00100347,0.0003420799,-0.018418437,-0.023372743,-1.0500196e-05,2.609333e-06,0.0017587617,0.047822393,0.015374316,-0.08479691,1.6177802,0.0,nan,0.10129279,14.142143,10.0,0.0772614,0.01684571,inf,inf,inf,inf,0,0,0,0,1,1,1,1,0,0,0,0,0,0,1
3272000,3272000,0,nan,nan,-4.041828e-05,-2.4578967e-06,-0.00023502445,-6.300118e-08,1.5656e-08,0.0,0.001004231,0.0005756618,-0.019242402,-0.024001587,-1.0500196e-05,2.609333e-06,0.0017587617,-0.020561986,0.033526372,-0.11564977,1.6177802,0.0,nan,0.10136812,14.142143,10.0,0.088759385,0.018867312,inf,inf,inf,inf,0,0,0,0,1,1,1,1,0,0,0,0,0,0,1
3280000,3280000,0,nan,nan,-3.193618e-05,2.2404492e-06,-0.00038642276,-6.300118e-08,1.5656e-08,0.0,0.0011199277,0.00079178956,-0.020338155,-0.024905216,-1.0500196e-05,2.609333e-06,0.0017587617,0.029399887,0.02699917,-0.14357361,1.6177611,0.0,nan,0.10144158,14.142143,10.0,0.100318044,0.020883594,inf,inf,inf,inf,0,0,0,0,1,1,1,1,0,0,0,0,0,0,1
3288000,3288000,0,nan,nan,-2.1433212e-05,8.431426e-06,-0.00054601446,-6.300118e-08,1.5656e-08,0.0,0.0014050195,0.0009214444,-0.02153388,-0.025912393,-1.0500196e-05,2.609333e-06,0.0017587617,0.032872804,0.008273462,-0.15114154,1.6177436,0.0,nan,0.10151483,14.142142,10.0,0.111956164,0.022896,inf,inf,inf,inf,0,0,0,0,1,1,1,1,0,0,0,0,0,0,1
3296000,3296000,0,nan,nan,-8.503734e-06,1.5639549e-05,-0.00071320107,-6.300118e-08,1.5656e-08,0.0,0.0016635294,0.0010501085,-0.02246269,-0.02665665,-1.0500196e-05,2.609333e-06,0.0017587617,0.022478255,0.012067786,-0.1117438,1.6177474,0.0,nan,0.10158717,14.142142,10.0,0.12363595,0.024905518,inf,inf,inf,inf,0,0,0,0,1,1,1,1,0,0,0,0,0,0,1
3304000,3304000,0,nan,nan,5.6544013e-06,2.3956472e-05,-0.0008914636,-6.300118e-08,1.5656e-08,0.0,0.0016702949,0.0011796082,-0.023528751,-0.02750199,-1.0500196e-05,2.609333e-06,0.0017587617,-0.007163704,0.012582894,-0.13626552,1.6177409,0.0,nan,0.10166133,14.142142,10.0,0.13539812,0.026912868,inf,inf,inf,inf,0,0,0,0,1,1,1,1,0,0,0,0,0,0,1
3312000,3312000,0,nan,nan,1.9588819e-05,3.363767e-05,-0.0010791633,-6.300118e-08,1.5656e-08,0.0,0.001592583,0.0012955697,-0.024768667,-0.028526617,-1.0500196e-05,2.609333e-06,0.0017587617,-0.009085037,0.0074040433,-0.15559699,1.617736,0.0,nan,0.10173515,14.142142,10.0,0.14718007,0.028918354,inf,inf,inf,inf,0,0,0,0,1,1,1,1,0,0,0,0,0,0,1
3320000,3320000,0,nan,nan,3.4172303e-05,4.451343e-05,-0.0012765394,-6.300118e-08,1.5656e-08,0.0,0.00180197,0.0014413884,-0.025848376,-0.029396622,-1.0500196e-05,2.609333e-06,0.0017587617,0.03159158,0.021956408,-0.122119665,1.6177372,0.0,nan,0.10181013,14.142142,10.0,0.15897301,0.030922426,inf,inf,inf,inf,0,0,0,0,1,1,1,1,0,0,0,0,0,0,1
3328000,3328000,0,nan,nan,5.0330727e-05,5.6831257e-05,-0.001482195,-6.300118e-08,1.5656e-08,0.0,0.001857902,0.0015286234,-0.026850402,-0.030194603,-1.0500196e-05,2.609333e-06,0.0017587617,-0.008181159,0.0011154333,-0.1269914,1.6177307,0.0,nan,0.101885214,14.142142,10.0,0.17081237,0.032925207,inf,inf,inf,inf,0,0,0,0,1,1,1,1,0,0,0,0,0,0,1
3336000,3336000,0,nan,nan,6.704878e-05,7.0463095e-05,-0.0016973012,-6.300118e-08,1.5656e-08,0.0,0.001950979,0.0017452787,-0.028168948,-0.031314787,-1.0500196e-05,2.609333e-06,0.0017587617,0.0104529895,0.029596135,-0.16786715,1.6177322,0.0,nan,0.10196113,14.142142,10.0,0.1826859,0.034926996,inf,inf,inf,inf,0,0,0,0,1,1,1,1,0,0,0,0,0,0,1
3344000,3344000,0,nan,nan,8.324923e-05,8.658492e-05,-0.0019222286,-6.300118e-08,1.5656e-08,0.0,0.001660652,0.002046483,-0.029209677,-0.032162823,-1.0500196e-05,2.609333e-06,0.0017587617,-0.04314161,0.030809255,-0.12098252,1.6177353,0.0,nan,0.10203957,14.142142,10.0,0.1945426,0.03692819,inf,inf,inf,inf,0,0,0,0,1,1,1,1,0,0,0,0,0,0,1
3352000,3352000,0,nan,nan,9.899756e-05,0.00010474433,-0.002155785,-6.300118e-08,1.5656e-08,0.0,0.0018559799,0.002208002,-0.03028675,-0.033052824,-1.0500196e-05,2.609333e-06,0.0017587617,0.031857226,0.017968908,-0.12821238,1.6177219,0.0,nan,0.1021203,14.142143,10.0,0.20644277,0.0389286,inf,inf,inf,inf,0,0,0,0,1,1,1,1,0,0,0,0,0,0,1
3360000,3360000,0,nan,nan,0.000116236464,0.000124279,-0.0023971933,-6.300118e-08,1.5656e-08,0.0,0.0019475403,0.002316456,-0.031122206,-0.03370676,-1.0500196e-05,2.609333e-06,0.0017587617,0.0077867,0.00800137,-0.09779166,1.6177206,0.0,nan,0.10220107,14.142144,10.0,0.21841148,0.040928494,inf,inf,inf,inf,0,0,0,0,1,1,1,1,0,0,0,0,0,0,1
3368000,3368000,0,nan,nan,0.00013331258,0.00014548867,-0.0026453405,-6.300118e-08,1.5656e-08,0.0,0.0017270728,0.002615515,-0.031944167,-0.03435266,-1.0500196e-05,2.609333e-06,0.0017587617,-0.044137906,0.04288196,-0.10155886,1.6177039,0.0,nan,0.102279276,14.142145,10.0,0.23042439,0.04292795,inf,inf,inf,inf,0,0,0,0,1,1,1,1,0,0,0,0,0,0,1
3376000,3376000,0,nan,nan,0.0001490647,0.00016973079,-0.0029006384,-6.300118e-08,1.5656e-08,0.0,0.0016965152,0.0029693623,-0.03285629,-0.035094094,-1.0500196e-05,2.609333e-06,0.0017587617,0.00788948,0.03634959,-0.11148396,1.6176981,0.0,nan,0.10235599,14.142147,10.0,0.24242868,0.044926986,inf,inf,inf,inf,0,0,0,0,1,1,1,1,0,0,0,0,0,0,1
3384000,3384000,0,nan,nan,0.0001630745,0.00019324185,-0.003151754,-6.300118e-08,1.5656e-08,0.0,0.0020134023,0.0031778445,-0.033750243,-0.035811115,-1.0500196e-05,2.609333e-06,0.0017587617,0.046025086,0.020550199,-0.113528214,1.617689,0.0,nan,0.10278089,0.014084185,7.071068,0.25447538,0.046925534,inf,inf,inf,inf,0,0,0,0,1,1,1,1,0,0,0,0,0,0,1
3392000,3392000,0,nan,nan,0.00017951352,0.00021813606,-0.0034106937,-6.300118e-08,1.5656e-08,0.0,0.0021963096,0.0032612146,-0.034644473,-0.036533955,-1.0500196e-05,2.609333e-06,0.0017587617,0.015219804,0.0071590473,-0.103677616,1.6176866,0.0,nan,0.102844276,0.014298914,7.071068,0.2665769,0.048923735,inf,inf,inf,inf,0,0,0,0,1,1,1,1,0,0,0,0,0,0,1
3400000,3400000,0,nan,nan,0.00019727627,0.00024397219,-0.0036773155,-6.300118e-08,1.5656e-08,0.0,0.0022919895,0.0033610193,-0.035596922,-0.03732043,-1.0500196e-05,2.609333e-06,0.0017587617,0.0033740215,0.010795818,-0.122985795,1.6176747,0.0,nan,0.10290625,0.014962205,7.071068,0.27868664,0.05092184,inf,inf,inf,inf,0,0,0,0,1,1,1,1,0,0,0,0,0,0,1
3408000,3408000,0,nan,nan,0.00021605751,0.00027063186,-0.0039521195,-6.300118e-08,1.5656e-08,0.0,0.0024672407,0.003380091,-0.03654448,-0.038107306,-1.0500196e-05,2.609333e-06,0.0017587617,0.028076172,-0.008148417,-0.1157876,1.617667,0.0,nan,0.10296826,0.01607267,7.071068,0.29081526,0.05291961,inf,inf,inf,inf,0,0,0,0,1,1,1,1,0,0,0,0,0,0,1
3416000,3416000,0,nan,nan,0.00023413659,0.00029500193,-0.004165771,-6.300118e-08,1.5656e-08,0.0,0.0026728916,0.0034120947,-0.03667323,-0.037923444,-1.0500196e-05,2.609333e-06,0.0017587617,0.032836743,0.024872016,-0.12927036,1.6176536,0.0,nan,0.105127946,0.01408681,7.071067,0.0016506996,0.0010583706,inf,inf,inf,inf,0,0,0,0,1,1,1,1,0,0,0,0,0,0,1
3424000,3424000,0,nan,nan,0.00025269066,0.0003194111,-0.004371966,-6.300118e-08,1.5656e-08,0.0,0.0026972883,0.0034005097,-0.03592609,-0.036870323,-1.0500196e-05,2.609333e-06,0.0017587617,0.011209398,-0.001279899,-0.021529382,1.6176382,0.0,nan,0.10533319,0.0140868835,7.071067,0.00535818,0.0036031494,inf,inf,inf,inf,0,0,0,0,1,1,1,1,0,0,0,0,0,0,1
3432000,3432000,0,nan,nan,0.00027157375,0.00034330357,-0.0045676394,-6.300118e-08,1.5656e-08,0.0,0.0028649105,0.0034378853,-0.03526878,-0.03591354,-1.0500196e-05,2.609333e-06,0.0017587617,0.029071974,0.018686201,-0.025304964,1.6176342,0.0,nan,0.10552611,0.014086941,7.071067,0.007829974,0.0050632213,inf,inf,inf,inf,0,0,0,0,1,1,1,1,0,0,0,0,0,0,1
3440000,3440000,0,nan,nan,0.00029106377,0.00036784072,-0.0047529335,-6.300118e-08,1.5656e-08,0.0,0.0029612388,0.0036592071,-0.034620747,-0.034972403,-1.0500196e-05,2.609333e-06,0.0017587617,0.019283062,0.039464064,-0.030791385,1.6233478,0.005707331,nan,0.10570768,0.014087189,7.071067,0.0100724865,0.006251514,inf,inf,inf,inf,0,0,0,0,1,1,1,1,1,0,0,0,0,0,1
3448000,3448000,0,nan,nan,0.000310492,0.0003934481,-0.0049272534,-6.300118e-08,1.5656e-08,0.0,0.0029706033,0.0037962678,-0.033835426,-0.033900224,-1.0500196e-05,2.609333e-06,0.0017587617,0.008317511,0.023913816,-0.019208526,1.6234185,0.005707331,nan,0.10587834,0.0140879005,7.071067,0.012028935,0.0073019755,inf,inf,inf,inf,0,0,0,0,1,1,1,1,1,0,0,0,0,0,1
3456000,3456000,0,nan,nan,0.00032935527,0.00041918055,-0.0050909906,-6.300118e-08,1.5656e-08,0.0,0.0029387001,0.0037726217,-0.033239603,-0.03302366,-1.0500196e-05,2.609333e-06,0.0017587617,0.0023728497,-0.005235328,-0.03301445,1.623495,0.005707331,nan,0.10603816,0.014089408,7.071067,0.015031049,0.008267337,inf,inf,inf,inf,0,0,0,0,1,1,1,1,1,0,0,0,0,0,1
3464000,3464000,0,nan,nan,0.00034692243,0.00044438962,-0.0052444814,-6.300118e-08,1.5656e-08,0.0,0.0027591907,0.003900548,-0.032636162,-0.032145463,-1.0500196e-05,2.609333e-06,0.0017587617,-0.019541241,0.04162559,-0.042898577,1.6235806,0.005707331,nan,0.10618722,0.014092242,7.071067,0.018577712,0.009174504,inf,inf,inf,inf,0,0,0,0,1,1,1,1,1,0,0,0,0,0,1
3472000,3472000,0,nan,nan,0.000362363,0.00047084258,-0.0053882212,-6.300118e-08,1.5656e-08,0.0,0.002590676,0.004129707,-0.032076064,-0.031316474,-1.0500196e-05,2.609333e-06,0.0017587617,-0.0052581453,0.033803005,-0.033061016,1.6236564,0.005707331,nan,0.10632607,0.014097294,7.071067,0.022413094,0.010039303,inf,inf,inf,inf,0,0,0,0,1,1,1,1,1,0,0,0,0,0,1
3480000,3480000,0,nan,nan,0.00037624012,0.0004982872,-0.0055207275,-6.300118e-08,1.5656e-08,0.0,0.0024794275,0.004266896,-0.031222928,-0.030200182,-1.0500196e-05,2.609333e-06,0.0017587617,-0.004197616,0.0188064,-0.008075497,1.6237258,0.005707331,nan,0.10645302,0.01410582,7.071067,0.026415585,0.0108718695,inf,inf,inf,inf,0,0,0,0,1,1,1,1,1,0,0,0,0,0,1
3488000,3488000,0,nan,nan,0.00038932974,0.0005255713,-0.0056413985,-6.300118e-08,1.5656e-08,0.0,0.0025209403,0.004282527,-0.030468464,-0.029188173,-1.0500196e-05,2.609333e-06,0.0017587617,0.01246549,0.017360404,-0.017199663,1.6237974,0.005707331,nan,0.10656725,0.01411943,7.071067,0.03052165,0.011679111,inf,inf,inf,inf,0,0,0,0,1,1,1,1,1,0,0,0,0,0,1
3496000,3496000,0,nan,nan,0.00040126048,0.00055267615,-0.005750804,-6.300118e-08,1.5656e-08,0.0,0.0023582643,0.004315984,-0.029816112,-0.02828377,-1.0500196e-05,2.609333e-06,0.0017587617,-0.006210713,0.008242277,-0.03795698,1.6238767,0.005707331,nan,0.10666899,0.014140085,7.071067,0.034701113,0.012465971,inf,inf,inf,inf,0,0,0,0,1,1,1,1,1,0,0,0,0,0,1
3504000,3504000,0,nan,nan,0.00041212596,0.00057891343,-0.005850818,-6.300118e-08,1.5656e-08,0.0,0.0023427655,0.0042112703,-0.029432746,-0.027656347,-1.0500196e-05,2.609333e-06,0.0017587617,-0.0005129113,-0.00787618,-0.06321258,1.6239412,0.005707331,nan,0.10676001,0.014170079,7.071067,0.038930804,0.013236096,inf,inf,inf,inf,0,0,0,0,1,1,1,1,1,0,0,0,0,0,1
3512000,3512000,0,nan,nan,0.0004216767,0.00060364854,-0.0059424406,-6.300118e-08,1.5656e-08,0.0,0.0022670443,0.0041168802,-0.028949114,-0.026936486,-1.0500196e-05,2.609333e-06,0.0017587617,0.017262833,0.0031329107,-0.0456674,1.6240302,0.005707331,nan,0.106841214,0.014212024,7.071067,0.04320484,0.013992268,inf,inf,inf,inf,0,0,0,0,1,1,1,1,1,0,0,0,0,0,1
3520000,3520000,0,nan,nan,0.0004309668,0.0006274263,-0.006025574,-6.300118e-08,1.5656e-08,0.0,0.0022735205,0.0041094823,-0.028412737,-0.026171546,-1.0500196e-05,2.609333e-06,0.0017587617,-0.0068121585,0.01447738,-0.025318934,1.624135,0.005707331,nan,0.10691209,0.014268834,7.071067,0.0475145,0.014736649,inf,inf,inf,inf,0,0,0,0,1,1,1,1,1,0,0,0,0,0,1
3528000,3528000,0,nan,nan,0.00043877575,0.0006513464,-0.006099801,-6.300118e-08,1.5656e-08,0.0,0.0021461486,0.00427482,-0.027834559,-0.025372304,-1.0500196e-05,2.609333e-06,0.0017587617,0.0062590693,0.03323231,-0.031639818,1.6242135,0.005707331,nan,0.10697274,0.014343689,7.071067,0.051851414,0.015470949,inf,inf,inf,inf,0,0,0,0,1,1,1,1,1,0,0,0,0,0,1
3536000,3536000,0,nan,nan,0.00044625884,0.0006760274,-0.006165317,-6.300118e-08,1.5656e-08,0.0,0.0022508237,0.0043864036,-0.02717412,-0.024498142,-1.0500196e-05,2.609333e-06,0.0017587617,0.018282486,0.0152013665,-0.011314637,1.6242784,0.005707331,nan,0.10702315,0.014439984,7.071067,0.056224152,0.016196549,inf,inf,inf,inf,0,0,0,0,1,1,1,1,1,0,0,0,0,0,1
3544000,3544000,0,nan,nan,0.00045305127,0.0007006994,-0.0062228343,-6.300118e-08,1.5656e-08,0.0,0.0020809632,0.004453687,-0.026784988,-0.023902467,-1.0500196e-05,2.609333e-06,0.0017587617,-0.019984405,0.023685351,-0.059563663,1.6243505,0.005707331,nan,0.107063286,0.0145613095,7.071067,0.060625613,0.016914587,inf,inf,inf,inf,0,0,0,0,1,1,1,1,1,0,0,0,0,0,1
3552000,3552000,0,nan,nan,0.00045787453,0.00072556635,-0.006274547,-6.300118e-08,1.5656e-08,0.0,0.0019370399,0.004540628,-0.026410334,-0.023328295,-1.0500196e-05,2.609333e-06,0.0017587617,-0.0014952819,0.021485567,-0.03036577,1.6244407,0.005707331,nan,0.1070952,0.014711366,7.071067,0.06505745,0.017626,inf,inf,inf,inf,0,0,0,0,1,1,1,1,1,0,0,0,0,0,1
3560000,3560000,0,nan,nan,0.0004621379,0.0007506641,-0.0063194092,-6.300118e-08,1.5656e-08,0.0,0.0020467308,0.0046307766,-0.025868434,-0.022593748,-1.0500196e-05,2.609333e-06,0.0017587617,0.028125985,0.02156636,-0.026052816,1.6245183,0.005707331,nan,0.10711885,0.014893906,7.071067,0.06950861,0.018331565,inf,inf,inf,inf,0,0,0,0,1,1,1,1,1,0,0,0,0,0,1
3568000,3568000,0,nan,nan,0.00046664348,0.00077648164,-0.0063573252,-6.300118e-08,1.5656e-08,0.0,0.002085109,0.004825771,-0.025267769,-0.021807155,-1.0500196e-05,2.609333e-06,0.0017587617,0.013623779,0.03230759,-0.0043511386,1.6245925,0.005707331,nan,0.10713491,0.015112626,7.071067,0.07399303,0.019031934,inf,inf,inf,inf,0,0,0,0,1,1,1,1,1,0,0,0,0,0,1
3576000,3576000,0,nan,nan,0.0004707887,0.0008027568,-0.00638809,-6.300118e-08,1.5656e-08,0.0,0.0020611617,0.004831823,-0.024724815,-0.021084845,-1.0500196e-05,2.609333e-06,0.0017587617,0.0059099253,0.0024554173,-0.02900604,1.6246558,0.005707331,nan,0.10714235,0.015371152,7.071067,0.078511804,0.01972768,inf,inf,inf,inf,0,0,0,0,1,1,1,1,1,0,0,0,0,0,1
3584000,3584000,0,nan,nan,0.00047495757,0.000827357,-0.0064132875,-6.300118e-08,1.5656e-08,0.0,0.0021867042,0.004566519,-0.024251517,-0.020438615,-1.0500196e-05,2.609333e-06,0.0017587617,0.023186147,-0.018388527,-0.0062827016,1.6247172,0.005707331,nan,0.10714139,0.01567294,7.071067,0.083071336,0.020419275,inf,inf,inf,inf,0,0,0,0,1,1,1,1,1,0,0,0,0,0,1
3592000,3592000,0,nan,nan,0.00048019455,0.00084854686,-0.006440403,-6.300118e-08,1.5656e-08,0.0,0.0020102886,0.0044585527,-0.023845427,-0.019873438,-1.0500196e-05,2.609333e-06,0.0017587617,-0.021235988,-0.008762727,-0.041462477,1.6248224,0.005707331,nan,0.10690264,0.010602418,5.7735023,0.082090564,0.021107137,inf,inf,inf,inf,0,0,0,0,1,1,1,1,1,0,0,0,0,0,1
3600000,3600000,0,nan,nan,0.00048317233,0.000868671,-0.006462733,-6.300118e-08,1.5656e-08,0.0,0.0017482534,0.0044361125,-0.02337917,-0.019253964,-1.0500196e-05,2.609333e-06,0.0017587617,-0.024074309,0.013081298,-0.009703449,1.6249269,0.005707331,nan,0.10689299,0.010879039,5.7735023,0.0864454,0.021791639,inf,inf,inf,inf,0,0,0,0,1,1,1,1,1,0,0,0,0,0,1
3608000,3608000,0,nan,nan,0.00048405162,0.00088836876,-0.006479413,-6.300118e-08,1.5656e-08,0.0,0.0015915494,0.0044140015,-0.022822045,-0.01854936,-1.0500196e-05,2.609333e-06,0.0017587617,-0.0057095457,0.006918111,-0.0069700177,1.6250345,0.005707331,nan,0.10687575,0.011218091,5.7735023,0.090833604,0.022473097,inf,inf,inf,inf,0,0,0,0,1,1,1,1,1,0,0,0,0,0,1
3616000,3616000,0,nan,nan,0.00048353896,0.00090761716,-0.0064910217,-6.300118e-08,1.5656e-08,0.0,0.0014380445,0.004411874,-0.022428857,-0.018014302,-1.0500196e-05,2.609333e-06,0.0017587617,-0.01620088,0.01064589,-0.033277083,1.6251378,0.005707331,nan,0.10685218,0.011622261,5.7735023,0.09525534,0.023151774,inf,inf,inf,inf,0,0,0,0,1,1,1,1,1,0,0,0,0,0,1
3624000,3624000,0,nan,nan,0.00048110925,0.0009259742,-0.0064987354,-6.300118e-08,1.5656e-08,0.0,0.0011834516,0.0043578045,-0.022023313,-0.017471967,-1.0500196e-05,2.609333e-06,0.0017587617,-0.023836458,0.0062631,-0.0058375294,1.625228,0.005707331,nan,0.10682885,0.011882985,5.7735023,0.09405008,0.023660585,inf,inf,inf,inf,0,0,0,0,1,1,1,1,1,0,0,0,0,0,1
3632000,3632000,0,nan,nan,0.00047645878,0.0009443565,-0.006501955,-6.300118e-08,1.5656e-08,0.0,0.00096286566,0.004463597,-0.02156014,-0.016877364,-1.0500196e-05,2.609333e-06,0.0017587617,-0.015884956,0.017731493,-0.015906056,1.6253166,0.005707331,nan,0.10679281,0.012371537,5.7735023,0.09831619,0.024332767,inf,inf,inf,inf,0,0,0,0,1,1,1,1,1,0,0,0,0,0,1
3640000,3640000,0,nan,nan,0.0004707499,0.0009627667,-0.0065004257,-6.300118e-08,1.5656e-08,0.0,0.00096425344,0.0044846837,-0.02091315,-0.016104182,-1.0500196e-05,2.609333e-06,0.0017587617,0.008374699,0.018542137,0.020627862,1.6254101,0.005707331,nan,0.10674998,0.012923469,5.7735023,0.10261707,0.025002781,inf,inf,inf,inf,0,0,0,0,1,1,1,1,1,0,0,0,0,0,1
3648000,3648000,0,nan,nan,0.00046417594,0.0009818247,-0.0064936406,-6.300118e-08,1.5656e-08,0.0,0.00079638395,0.0046955682,-0.020384328,-0.015454285,-1.0500196e-05,2.609333e-06,0.0017587617,-0.013819269,0.042448036,-0.007814727,1.6254984,0.005707331,nan,0.106700964,0.013538725,5.7735023,0.10695799,0.025670819,inf,inf,inf,inf,0,0,0,0,1,1,1,1,1,0,0,0,0,0,1
3656000,3656000,0,nan,nan,0.00045672164,0.0010021729,-0.006483617,-6.300118e-08,1.5656e-08,0.0,0.00079425453,0.004805972,-0.020117808,-0.0150716845,-1.0500196e-05,2.609333e-06,0.0017587617,0.00748891,0.013436641,-0.03553554,1.6255918,0.005707331,nan,0.10664791,0.014216802,5.7735023,0.11134476,0.026337015,inf,inf,inf,inf,0,0,0,0,1,1,1,1,1,0,0,0,0,0,1
3664000,3664000,0,nan,nan,0.00044928226,0.0010228303,-0.0064715897,-6.300118e-08,1.5656e-08,0.0,0.0008809021,0.0048719365,-0.019825788,-0.014668464,-1.0500196e-05,2.609333e-06,0.0017587617,0.028308216,0.018185353,-0.01933146,1.6256639,0.005707331,nan,0.106591724,0.014956888,5.7735023,0.11577973,0.027001504,inf,inf,inf,inf,0,0,0,0,1,1,1,1,1,0,0,0,0,0,1
3672000,3672000,0,nan,nan,0.00044279962,0.0010440007,-0.0064572184,-6.300118e-08,1.5656e-08,0.0,0.0009731707,0.0050046435,-0.019501915,-0.014238154,-1.0500196e-05,2.609333e-06,0.0017587617,0.0047829086,0.030626686,-0.020529142,1.6257266,0.005707331,nan,0.10653166,0.015757956,5.7735023,0.120264456,0.02766444,inf,inf,inf,inf,0,0,0,0,1,1,1,1,1,0,0,0,0,0,1
3680000,3680000,0,nan,nan,0.0004364305,0.0010654555,-0.0064406847,-6.300118e-08,1.5656e-08,0.0,0.0010346235,0.0049342494,-0.019177005,-0.013811455,-1.0500196e-05,2.609333e-06,0.0017587617,0.024794033,-0.008761344,-0.014998949,1.6257656,0.005707331,nan,0.106468014,0.016618863,5.7735023,0.124795824,0.028325938,inf,inf,inf,inf,0,0,0,0,1,1,1,1,1,0,0,0,0,0,1
3688000,3688000,0,nan,nan,0.00043050875,0.0010862035,-0.006421904,-6.300118e-08,1.5656e-08,0.0,0.0010301237,0.0049351407,-0.018811092,-0.0133482935,-1.0500196e-05,2.609333e-06,0.0017587617,-0.003128647,0.01628905,-0.008785165,1.6258178,0.005707331,nan,0.10640144,0.017538387,5.7735023,0.12937416,0.028986093,inf,inf,inf,inf,0,0,0,0,1,1,1,1,1,0,0,0,0,0,1
3696000,3696000,0,nan,nan,0.0004241696,0.0011078863,-0.006400775,-6.300118e-08,1.5656e-08,0.0,0.0009942121,0.005177807,-0.01842297,-0.01286735,-1.0500196e-05,2.609333e-06,0.0017587617,0.0039280853,0.039709132,-0.004358589,1.6258669,0.005707331,nan,0.106331706,0.018515313,5.7735023,0.13401125,0.029645003,inf,inf,inf,inf,0,0,0,0,1,1,1,1,1,0,0,0,0,0,1
3704000,3704000,0,nan,nan,0.0004176926,0.0011306092,-0.0063777114,-6.300118e-08,1.5656e-08,0.0,0.0010104672,0.005177012,-0.018185511,-0.012541391,-1.0500196e-05,2.609333e-06,0.0017587617,0.010596879,-0.003168956,-0.035102475,1.6258982,0.005707331,nan,0.106258735,0.019548558,5.7735023,0.13870169,0.030302752,inf,inf,inf,inf,0,0,0,0,1,1,1,1,1,0,0,0,0,0,1
3712000,3712000,0,nan,nan,0.00041100514,0.0011524395,-0.0063542784,-6.300118e-08,1.5656e-08,0.0,0.00089787546,0.0050754216,-0.018045591,-0.012317191,-1.0500196e-05,2.609333e-06,0.0017587617,-0.018655568,0.007591021,-0.031664964,1.6259408,0.005707331,nan,0.106184475,0.020637074,5.7735023,0.14344512,0.030959427,inf,inf,inf,inf,0,0,0,0,1,1,1,1,1,0,0,0,0,0,1
3720000,3720000,0,nan,nan,0.00040325525,0.0011746275,-0.0063297777,-6.300118e-08,1.5656e-08,0.0,0.0008203205,0.0052286405,-0.017607847,-0.011799281,-1.0500196e-05,2.609333e-06,0.0017587617,0.003415058,0.02491503,0.02078805,1.6259872,0.005707331,nan,0.10610933,0.021779904,5.7735023,0.14823748,0.031615082,inf,inf,inf,inf,0,0,0,0,1,1,1,1,1,0,0,0,0,0,1
3728000,3728000,0,nan,nan,0.00039435236,0.0011979003,-0.0063023814,-6.300118e-08,1.5656e-08,0.0,0.00052582426,0.0053553865,-0.017161384,-0.011276667,-1.0500196e-05,2.609333e-06,0.0017587617,-0.044751428,0.019711208,-0.00765454,1.6260211,0.005707331,nan,0.10603186,0.022976154,5.7735023,0.15309305,0.03226981,inf,inf,inf,inf,0,0,0,0,1,1,1,1,1,0,0,0,0,0,1
3736000,3736000,0,nan,nan,0.00038355452,0.0012219915,-0.0062737106,-6.300118e-08,1.5656e-08,0.0,0.0004756126,0.0055121738,-0.016897129,-0.010940173,-1.0500196e-05,2.609333e-06,0.0017587617,0.019026047,0.040159646,-0.0082412725,1.626072,0.005707331,nan,0.10595227,0.024225144,5.7735023,0.15802017,0.032923643,inf,inf,inf,inf,0,0,0,0,1,1,1,1,1,0,0,0,0,0,1
3744000,3744000,0,nan,nan,0.00037316748,0.0012476239,-0.006243978,-6.300118e-08,1.5656e-08,0.0,0.00047597627,0.005640132,-0.016585056,-0.010559675,-1.0500196e-05,2.609333e-06,0.0017587617,-0.010483403,0.009971626,-0.005813315,1.6261104,0.005707331,nan,0.10586996,0.025526356,5.7735023,0.16300757,0.033576645,inf,inf,inf,inf,0,0,0,0,1,1,1,1,1,0,0,0,0,0,1
3752000,3752000,0,nan,nan,0.00036158445,0.0012734922,-0.006212821,-6.300118e-08,1.5656e-08,0.0,0.0002630078,0.0056433496,-0.0161938,-0.010103715,-1.0500196e-05,2.609333e-06,0.0017587617,-0.013068827,0.012328935,0.0038975847,1.6261456,0.005707331,nan,0.105784886,0.026879279,5.7735023,0.16805625,0.03422888,inf,inf,inf,inf,0,0,0,0,1,1,1,1,1,0,0,0,0,0,1
3760000,3760000,0,nan,nan,0.00034927056,0.0013002695,-0.0061803977,-6.300118e-08,1.5656e-08,0.0,0.00021313579,0.0058298423,-0.015904961,-0.009753796,-1.0500196e-05,2.609333e-06,0.0017587617,-0.00853477,0.02643949,-0.009926035,1.62617,0.005707331,nan,0.10569747,0.028283508,5.7735023,0.17316894,0.034880362,inf,inf,inf,inf,0,0,0,0,1,1,1,1,1,0,0,0,0,0,1
3768000,3768000,0,nan,nan,0.00033617247,0.0013278746,-0.006148317,-6.300118e-08,1.5656e-08,0.0,0.0001166106,0.0058861575,-0.015931072,-0.0097223595,-1.0500196e-05,2.609333e-06,0.0017587617,0.002443281,0.021360522,-0.05883537,1.6261904,0.005707331,nan,0.10560958,0.029738735,5.7735033,0.178345,0.03553117,inf,inf,inf,inf,0,0,0,0,1,1,1,1,1,0,0,0,0,0,1
3776000,3776000,0,nan,nan,0.0003235194,0.00135691,-0.0061179474,-6.300118e-08,1.5656e-08,0.0,0.0002580672,0.0061328425,-0.015798721,-0.009535902,-1.0500196e-05,2.609333e-06,0.0017587617,0.02117727,0.03458891,-0.0065416093,1.6262197,0.005707331,nan,0.10552296,0.031244729,5.773504,0.18358663,0.036181364,inf,inf,inf,inf,0,0,0,0,1,1,1,1,1,0,0,0,0,0,1
3784000,3784000,0,nan,nan,0.0003113537,0.0013874875,-0.006086752,-6.300118e-08,1.5656e-08,0.0,0.00017751586,0.0062731695,-0.015384611,-0.009071036,-1.0500196e-05,2.609333e-06,0.0017587617,-0.015480384,0.025356304,0.008233822,1.6262447,0.005707331,nan,0.105434634,0.032801334,5.7735047,0.18890378,0.036830924,inf,inf,inf,inf,0,0,0,0,1,1,1,1,1,0,0,0,0,0,1
3792000,3792000,0,nan,nan,0.00029830984,0.0014196783,-0.0060547492,-6.300118e-08,1.5656e-08,0.0,6.928861e-05,0.0064974795,-0.0151353115,-0.008774247,-1.0500196e-05,2.609333e-06,0.0017587617,-0.0046433993,0.031607356,-0.0056726853,1.6262637,0.005707331,nan,0.10534375,0.034408547,5.773505,0.19429521,0.037479896,inf,inf,inf,inf,0,0,0,0,1,1,1,1,1,0,0,0,0,0,1
3800000,3800000,0,nan,nan,0.00028826282,0.0014402831,-0.006015814,-6.300118e-08,1.5656e-08,0.0,0.0001361796,0.0065589524,-0.014735436,-0.008323993,-1.0500196e-05,2.609333e-06,0.0017587617,0.016269287,0.022138612,0.011353753,1.6263043,0.005707331,nan,0.10543487,0.013166143,5.000002,0.094269685,0.03812813,inf,inf,inf,inf,0,0,0,0,1,1,1,1,1,0,0,0,0,0,1
3808000,3808000,0,nan,nan,0.00027925562,0.0014606989,-0.0059767235,-6.300118e-08,1.5656e-08,0.0,0.0002462913,0.006464786,-0.014585686,-0.008127173,-1.0500196e-05,2.609333e-06,0.0017587617,0.011311363,0.0018206482,-0.019039957,1.6263306,0.005707331,nan,0.105336465,0.013800314,5.0000024,0.097486846,0.038776066,inf,inf,inf,inf,0,0,0,0,1,1,1,1,1,0,0,0,0,0,1
3816000,3816000,0,nan,nan,0.00027125515,0.0014812999,-0.005937943,-6.300118e-08,1.5656e-08,0.0,0.0003841269,0.0066216616,-0.014283343,-0.0077809836,-1.0500196e-05,2.609333e-06,0.0017587617,0.025982268,0.033623975,0.0036982817,1.6263422,0.005707331,nan,0.105238214,0.014473748,5.000003,0.10079835,0.039423518,inf,inf,inf,inf,0,0,0,0,1,1,1,1,1,0,0,0,0,0,1
3824000,3824000,0,nan,nan,0.00026488947,0.0015023261,-0.005899349,-6.300118e-08,1.5656e-08,0.0,0.0005547766,0.0065650498,-0.014122352,-0.007579281,-1.0500196e-05,2.609333e-06,0.0017587617,0.016630815,0.0011625815,-0.017534008,1.6263614,0.005707331,nan,0.105139546,0.015186228,5.0000033,0.10419736,0.040070515,inf,inf,inf,inf,0,0,0,0,1,1,1,1,1,0,0,0,0,0,1
3832000,3832000,0,nan,nan,0.00025967005,0.0015215569,-0.0058599794,-6.300118e-08,1.5656e-08,0.0,0.0006472994,0.0064675626,-0.013913177,-0.0073298635,-1.0500196e-05,2.609333e-06,0.0017587617,0.015625788,0.013864337,-0.00034645197,1.6263933,0.005707331,nan,0.10509192,0.015264792,5.0000033,0.10063681,0.03989863,inf,inf,inf,inf,0,0,0,0,1,1,1,1,1,0,0,0,0,0,1
3840000,3840000,0,nan,nan,0.000255488,0.0015416185,-0.0058202296,-6.300118e-08,1.5656e-08,0.0,0.0007270967,0.006751416,-0.0135544995,-0.006933977,-1.0500196e-05,2.609333e-06,0.0017587617,0.0053441613,0.050490864,0.0033155081,1.6264262,0.005707331,nan,0.10499447,0.01598603,5.000004,0.10399925,0.04053671,inf,inf,inf,inf,0,0,0,0,1,1,1,1,1,0,0,0,0,0,1
3848000,3848000,0,nan,nan,0.00025151952,0.0015637288,-0.0057807323,-6.300118e-08,1.5656e-08,0.0,0.00066099147,0.0070241806,-0.0134067815,-0.0067520007,-1.0500196e-05,2.609333e-06,0.0017587617,-0.008709903,0.054979548,-0.015881842,1.6264495,0.005707331,nan,0.10489568,0.01674359,5.0000043,0.107466236,0.041174375,inf,inf,inf,inf,0,0,0,0,1,1,1,1,1,0,0,0,0,0,1
3856000,3856000,0,nan,nan,0.0002470554,0.0015883449,-0.005742333,-6.300118e-08,1.5656e-08,0.0,0.00055235706,0.007319815,-0.013256239,-0.0065700696,-1.0500196e-05,2.609333e-06,0.0017587617,-0.012527539,0.037790652,-0.007885507,1.6264902,0.005707331,nan,0.10479586,0.017537627,5.000005,0.11102044,0.04181166,inf,inf,inf,inf,0,0,0,0,1,1,1,1,1,0,0,0,0,0,1
3864000,3864000,0,nan,nan,0.0002423647,0.0016138848,-0.005704889,-6.300118e-08,1.5656e-08,0.0,0.00056780694,0.007345711,-0.013150003,-0.006435236,-1.0500196e-05,2.609333e-06,0.0017587617,0.008192305,0.021345273,-0.026961787,1.6265265,0.005707331,nan,0.1046967,0.018368267,5.0000057,0.11465675,0.04244858,inf,inf,inf,inf,0,1,0,1,1,1,1,1,1,0,0,0,0,0,1
3872000,3872000,0,nan,nan,0.00023880815,0.0016391156,-0.005670012,-6.300118e-08,1.5656e-08,0.0,0.0007537293,0.0071970816,-0.013309767,-0.0065691145,-1.0500196e-05,2.609333e-06,0.0017587617,0.02411974,-0.016656151,-0.05145557,1.6265454,0.005707331,nan,0.10460036,0.01923564,5.000006,0.1183948,0.043085158,inf,inf,inf,inf,0,1,0,1,1,1,1,1,1,0,0,0,0,0,1
3880000,3880000,0,nan,nan,0.00023649908,0.0016635867,-0.00563832,-6.300118e-08,1.5656e-08,0.0,0.00079928176,0.007319862,-0.013380288,-0.0066163875,-1.0500196e-05,2.609333e-06,0.0017587617,0.002056491,0.05284733,-0.03804173,1.6265056,0.005707331,nan,0.10450746,0.020140044,5.000007,0.1222216,0.043721396,inf,inf,inf,inf,0,1,0,1,1,1,1,1,1,0,0,0,0,0,1
3888000,3888000,0,nan,nan,0.00023429154,0.0016905295,-0.0056091975,-6.300118e-08,1.5656e-08,0.0,0.0007449174,0.0076818154,-0.013371016,-0.006586429,-1.0500196e-05,2.609333e-06,0.0017587617,-0.0036769342,0.044923462,-0.02266932,1.6264851,0.005707331,nan,0.10441707,0.021081736,5.0000076,0.12615614,0.044357315,inf,inf,inf,inf,0,1,0,1,1,1,1,1,1,0,0,0,0,0,1
3896000,3896000,0,nan,nan,0.00023267743,0.0017189557,-0.005582319,-6.300118e-08,1.5656e-08,0.0,0.00089171017,0.00776438,-0.013408869,-0.006606085,-1.0500196e-05,2.609333e-06,0.0017587617,0.023125043,0.025129745,-0.035727393,1.6264466,0.005707331,nan,0.10432853,0.022061132,5.0000086,0.13018039,0.044992954,inf,inf,inf,inf,0,1,0,1,1,1,1,1,1,0,0,0,0,0,1
3904000,3904000,0,nan,nan,0.00023266856,0.0017484813,-0.005558245,-6.300118e-08,1.5656e-08,0.0,0.0010682432,0.007961288,-0.013487003,-0.00666844,-1.0500196e-05,2.609333e-06,0.0017587617,0.022503225,0.038243376,-0.035298984,1.626402,0.005707331,nan,0.10424251,0.023078589,5.0000095,0.13430902,0.045628294,inf,inf,inf,inf,0,1,0,1,1,1,1,1,1,0,0,0,0,0,1
3912000,3912000,0,nan,nan,0.00023413115,0.0017792825,-0.005536726,-6.300118e-08,1.5656e-08,0.0,0.0011665156,0.008080498,-0.013458794,-0.0066267997,-1.0500196e-05,2.609333e-06,0.0017587617,0.004807574,0.027178377,-0.015439465,1.6263409,0.005707331,nan,0.104158424,0.024134578,5.00001,0.13853377,0.04626337,inf,inf,inf,inf,0,1,0,1,1,1,1,1,1,0,0,0,0,0,1
3920000,3920000,0,nan,nan,0.00023564888,0.0018108686,-0.005857014,-6.300118e-08,1.5656e-08,0.0,0.001030291,0.008137378,-0.013264489,-0.0067607216,-1.0500196e-05,2.609333e-06,0.0017587617,-0.022475999,0.014553355,0.004199333,1.6262976,0.005707331,nan,0.1,0.025229564,2.8673136,0.14284925,0.046898145,inf,inf,inf,inf,0,1,0,1,1,1,1,1,1,0,0,0,0,0,1
3928000,3928000,0,nan,nan,0.0002355818,0.0018425622,-0.006168134,-6.300118e-08,1.5656e-08,0.0,0.00075176253,0.008113993,-0.013132607,-0.0069472576,-1.0500196e-05,2.609333e-06,0.0017587617,-0.02992575,0.007766793,-0.021158716,1.6262616,0.005707331,nan,0.1,0.026364006,2.8673143,0.14727473,0.047532756,inf,inf,inf,inf,0,1,0,1,1,1,1,1,1,0,0,0,0,0,1
3936000,3936000,0,nan,nan,0.00023488278,0.0018737438,-0.006471983,-6.300118e-08,1.5656e-08,0.0,0.0008205743,0.008041629,-0.01319193,-0.0073154643,-1.0500196e-05,2.609333e-06,0.0017587617,0.015431723,0.011833122,-0.024891457,1.6262168,0.005707331,nan,0.1,0.027538512,2.8673148,0.15179941,0.048167143,inf,inf,inf,inf,0,1,0,1,1,1,1,1,1,0,0,0,0,0,1
3944000,3944000,0,nan,nan,0.00023551317,0.0019054587,-0.0067686248,-6.300118e-08,1.5656e-08,0.0,0.0010183544,0.008172762,-0.013104682,-0.007527831,-1.0500196e-05,2.609333e-06,0.0017587617,0.029994057,0.023279134,-0.011048279,1.6261691,0.005707331,nan,0.1,0.028753651,2.8673155,0.1564263,0.048801284,inf,inf,inf,inf,0,1,0,1,1,1,1,1,1,0,0,0,0,0,1
3952000,3952000,0,nan,nan,0.00023748237,0.0019375863,-0.0070573683,-6.300118e-08,1.5656e-08,0.0,0.0010272079,0.0081437845,-0.012928935,-0.0076426896,-1.0500196e-05,2.609333e-06,0.0017587617,-0.011130817,0.0075233253,-0.0049248333,1.6260855,0.005707331,nan,0.1,0.030010035,2.8673162,0.16116896,0.049435195,inf,inf,inf,inf,0,1,0,1,1,1,1,1,1,0,0,0,0,0,1
3960000,3960000,0,nan,nan,0.00023912235,0.0019697312,-0.0073390515,-6.300118e-08,1.5656e-08,0.0,0.0009389506,0.008139655,-0.012921695,-0.007917299,-1.0500196e-05,2.609333e-06,0.0017587617,-0.0083997,0.008075993,-0.014342367,1.625978,0.005707331,nan,0.1,0.031308383,2.867317,0.16600704,0.050068937,inf,inf,inf,inf,0,1,0,1,1,1,1,1,1,0,0,0,0,0,1
3968000,3968000,0,nan,nan,0.00024096009,0.002001933,-0.0076133367,-6.300118e-08,1.5656e-08,0.0,0.0010189214,0.0081576165,-0.0126707265,-0.007939668,-1.0500196e-05,2.609333e-06,0.0017587617,0.012343414,0.01736998,0.010332092,1.6259015,0.005707331,nan,0.1,0.032649312,2.8673182,0.17094098,0.050702523,inf,inf,inf,inf,0,1,0,1,1,1,1,1,1,0,0,0,0,0,1
3976000,3976000,0,nan,nan,0.00024343589,0.0020348001,-0.009152292,-6.300118e-08,1.5656e-08,0.0,0.0010253534,0.00825529,-0.012749131,-0.009550684,-1.0500196e-05,2.609333e-06,0.0017587617,-0.00115727,0.02293306,-0.043581236,1.6258343,0.005707331,nan,0.1,0.034033455,2.2180383,0.17597882,0.051335845,inf,inf,inf,inf,0,1,0,1,1,1,1,1,1,0,0,0,0,0,1
3984000,3984000,0,nan,nan,0.00024622245,0.00206826,-0.010649699,-6.300118e-08,1.5656e-08,0.0,0.0010802284,0.008281853,-0.01283245,-0.0111136325,-1.0500196e-05,2.609333e-06,0.0017587617,0.014373493,0.01738737,-0.020574776,1.6257479,0.005707331,nan,0.1,0.035461508,2.2180393,0.18112041,0.051969066,inf,inf,inf,inf,0,1,0,1,1,1,1,1,1,0,0,0,0,0,1
3992000,3992000,0,nan,nan,0.00024962178,0.002102346,-0.012105793,-6.300118e-08,1.5656e-08,0.0,0.0010590729,0.008343127,-0.012795662,-0.012504984,-1.0500196e-05,2.609333e-06,0.0017587617,-0.011936528,0.0148748355,-0.017442739,1.6256638,0.005707331,nan,0.1,0.03693419,2.2180402,0.18635623,0.052602116,inf,inf,inf,inf,0,1,0,1,1,1,1,1,1,0,0,0,0,0,1
4000000,4000000,0,nan,nan,0.0002528156,0.0021373348,-0.013521808,-6.300118e-08,1.5656e-08,0.0,0.0010105923,0.008508734,-0.012808449,-0.013895877,-1.0500196e-05,2.609333e-06,0.0017587617,-0.00705276,0.039413627,-0.017836688,1.6255789,0.005707331,nan,0.1,0.038452156,2.2180412,0.19168192,0.053234983,inf,inf,inf,inf,0,1,0,1,1,1,1,1,1,0,0,0,0,0,1
4008000,4008000,0,nan,nan,0.0002527434,0.0021544988,-0.014899031,-6.300118e-08,1.5656e-08,0.0,0.00087677554,0.0084621925,-0.012834368,-0.015251306,-1.0500196e-05,2.609333e-06,0.0017587617,-0.009491777,0.0013590615,-0.024744308,1.625504,0.005707331,nan,0.1,0.013333927,2.2180424,0.09541038,0.053867396,inf,inf,inf,inf,0,1,0,1,1,1,1,1,1,0,0,0,0,0,1
4016000,4016000,0,nan,nan,0.00025307218,0.002171015,-0.016238103,-6.300118e-08,1.5656e-08,0.0,0.0010734787,0.008421455,-0.012622536,-0.016321743,-1.0500196e-05,2.609333e-06,0.0017587617,0.033727933,0.0246822,0.024686566,1.6254327,0.005707331,nan,0.1,0.013883891,2.2180438,0.09932646,0.054499954,inf,inf,inf,inf,0,1,0,1,1,1,1,1,1,0,0,0,0,0,1
4024000,4024000,0,nan,nan,0.00025497566,0.0021872825,-0.0175384,-6.300118e-08,1.5656e-08,0.0,0.0011538316,0.008325741,-0.012403267,-0.017338846,-1.0500196e-05,2.609333e-06,0.0017587617,0.0008216593,0.0027854692,-0.0027334315,1.6253375,0.005707331,nan,0.1,0.014476786,2.218045,0.10333508,0.055132393,inf,inf,inf,inf,0,1,0,1,1,1,1,1,1,0,0,0,0,0,1
4032000,4032000,0,nan,nan,0.00025746666,0.0022027616,-0.018735522,-6.300118e-08,1.5656e-08,0.0,0.0012716566,0.008235395,-0.01234445,-0.01840522,-1.0500196e-05,2.609333e-06,0.0017587617,0.028167587,0.0100878235,-0.007913447,1.6252556,0.005707331,nan,0.1,0.015113528,1.873514,0.107438006,0.055764608,inf,inf,inf,inf,0,1,0,1,1,1,1,1,1,0,0,0,0,0,1
4040000,4040000,0,nan,nan,0.00026082492,0.002216735,-0.019896798,-6.300118e-08,1.5656e-08,0.0,0.001282305,0.00823538,-0.012125076,-0.019265372,-1.0500196e-05,2.609333e-06,0.0017587617,-0.016386533,0.02735952,0.013336538,1.6251549,0.005707331,nan,0.1,0.015216191,1.8735148,0.103851244,0.05428001,inf,inf,inf,inf,0,1,0,1,1,1,1,1,1,0,0,0,0,0,1
4048000,4048000,0,nan,nan,0.0002633548,0.0022306829,-0.021025047,-6.300118e-08,1.5656e-08,0.0,0.0011644351,0.008166537,-0.012069532,-0.020249676,-1.0500196e-05,2.609333e-06,0.0017587617,0.001008273,0.003810215,-0.023109837,1.6250588,0.005707331,nan,0.1,0.015869888,1.8735162,0.10785973,0.054894697,inf,inf,inf,inf,0,1,0,1,1,1,1,1,1,0,0,0,0,0,1
4056000,4056000,0,nan,nan,0.0002664462,0.002243981,-0.022122715,-6.300118e-08,1.5656e-08,0.0,0.0013443156,0.008124149,-0.012111624,-0.021293076,-1.0500196e-05,2.609333e-06,0.0017587617,0.026551204,0.02044234,-0.023300758,1.6249577,0.005707331,nan,0.1,0.016565952,1.8735179,0.111981265,0.05550926,inf,inf,inf,inf,0,1,0,1,1,1,1,1,1,0,0,0,0,0,1
4064000,4064000,0,nan,nan,0.00027091443,0.0022568488,-0.023191303,-6.300118e-08,1.5656e-08,0.0,0.0014472754,0.008026839,-0.012231674,-0.022377,-1.0500196e-05,2.609333e-06,0.0017587617,0.009385766,0.0061774184,-0.027475877,1.6248735,0.005707331,nan,0.1,0.017305192,1.8735195,0.11619688,0.056123704,inf,inf,inf,inf,0,1,0,1,1,1,1,1,1,0,0,0,0,0,1
4072000,4072000,0,nan,nan,0.00027595152,0.0022687663,-0.02423075,-6.300118e-08,1.5656e-08,0.0,0.0014881769,0.007891436,-0.012083929,-0.023156771,-1.0500196e-05,2.609333e-06,0.0017587617,0.0088519445,0.002980523,-0.0011166557,1.624783,0.005707331,nan,0.1,0.018088266,1.8735214,0.12049828,0.05673803,inf,inf,inf,inf,0,1,0,1,1,1,1,1,1,0,0,0,0,0,1
4080000,4080000,0,nan,nan,0.00028096186,0.002279764,-0.02524144,-6.300118e-08,1.5656e-08,0.0,0.0013840632,0.0078125205,-0.012036356,-0.024001408,-1.0500196e-05,2.609333e-06,0.0017587617,-0.016738819,0.014614313,-0.0083912155,1.6246823,0.005707331,nan,0.1,0.01891575,1.8735234,0.12489505,0.057352256,inf,inf,inf,inf,0,1,0,1,1,1,1,1,1,0,0,0,0,0,1
4088000,4088000,0,nan,nan,0.00028581513,0.0022909015,-0.026654597,-6.300118e-08,1.5656e-08,0.0,0.0014766481,0.007918755,-0.012146317,-0.025397472,-1.0500196e-05,2.609333e-06,0.0017587617,0.021284765,0.036009397,-0.03458466,1.6245968,0.005707331,nan,0.1,0.019788211,1.6517648,0.1293844,0.057966243,inf,inf,inf,inf,0,1,0,1,1,1,1,1,1,0,0,0,0,0,1
4096000,4096000,0,nan,nan,0.00029195726,0.0023024308,-0.028028997,-6.300118e-08,1.5656e-08,0.0,0.0016561694,0.007864314,-0.012031546,-0.026520329,-1.0500196e-05,2.609333e-06,0.0017587617,0.025921324,0.006230897,-0.00041071323,1.6244935,0.005707331,nan,0.1,0.020706175,1.6517668,0.13394979,0.05858025,inf,inf,inf,inf,0,1,0,1,1,1,1,1,1,0,0,0,0,0,1
4104000,4104000,0,nan,nan,0.0002995732,0.0023140952,-0.029365867,-6.300118e-08,1.5656e-08,0.0,0.0018080116,0.008000039,-0.01218835,-0.027867682,-1.0500196e-05,2.609333e-06,0.0017587617,0.018678896,0.04453769,-0.035420056,1.6243987,0.005707331,nan,0.1,0.021670049,1.651769,0.13860506,0.059194162,inf,inf,inf,inf,0,1,0,1,1,1,1,1,1,0,0,0,0,0,1
4112000,4112000,0,nan,nan,0.0003084477,0.002326431,-0.030667005,-6.300118e-08,1.5656e-08,0.0,0.0019333024,0.007944407,-0.012228521,-0.029052682,-1.0500196e-05,2.609333e-06,0.0017587617,0.012001735,0.0028271023,-0.017326323,1.6243256,0.005707331,nan,0.1,0.022680286,1.6517714,0.14336115,0.05980798,inf,inf,inf,inf,0,1,0,1,1,1,1,1,1,0,0,0,0,0,1
4120000,4120000,0,nan,nan,0.00031672607,0.0023385696,-0.031933445,-6.300118e-08,1.5656e-08,0.0,0.0016301438,0.0079948325,-0.012430083,-0.030354675,-1.0500196e-05,2.609333e-06,0.0017587617,-0.043965697,0.032660317,-0.047495585,1.6242324,0.005707331,nan,0.1,0.023737399,1.6517739,0.14819764,0.060421716,inf,inf,inf,inf,0,1,0,1,1,1,1,1,1,0,0,0,0,0,1
4128000,4128000,0,nan,nan,0.00032281707,0.0023515353,-0.03316681,-6.300118e-08,1.5656e-08,0.0,0.0014148891,0.008079881,-0.012516848,-0.03149878,-1.0500196e-05,2.609333e-06,0.0017587617,-0.020115271,0.025694592,-0.019575467,1.6241399,0.005707331,nan,0.1,0.024841772,1.6517767,0.15313518,0.061035365,inf,inf,inf,inf,0,1,0,1,1,1,1,1,1,0,0,0,0,0,1
4136000,4136000,0,nan,nan,0.00032772147,0.0023645833,-0.034367066,-6.300118e-08,1.5656e-08,0.0,0.0013013218,0.008004375,-0.012502841,-0.03250027,-1.0500196e-05,2.609333e-06,0.0017587617,-0.010197399,0.011195282,-0.0052722166,1.6240861,0.005707331,nan,0.1,0.025993917,1.6517797,0.15816891,0.06164894,inf,inf,inf,inf,0,1,0,1,1,1,1,1,1,0,0,0,0,0,1
4144000,4144000,0,nan,nan,0.0003320861,0.0023778942,-0.0355341,-6.300118e-08,1.5656e-08,0.0,0.0012715926,0.008093637,-0.012356331,-0.03332864,-1.0500196e-05,2.609333e-06,0.0017587617,0.003075649,0.028262058,0.00268314,1.6240301,0.005707331,nan,0.1,0.027194317,1.6517828,0.16329716,0.06226243,inf,inf,inf,inf,0,1,0,1,1,1,1,1,1,0,0,0,0,0,1
4152000,4152000,0,nan,nan,0.00033684899,0.0023922466,-0.03652621,-6.300118e-08,1.5656e-08,0.0,0.0013652854,0.008236118,-0.012294819,-0.034060385,-1.0500196e-05,2.609333e-06,0.0017587617,0.014621298,0.038669966,-0.0063320617,1.6239729,0.005707331,nan,0.1,0.028443454,1.4937887,0.16849433,0.06287562,inf,inf,inf,inf,0,1,0,1,1,1,1,1,1,0,0,0,0,0,1
4160000,4160000,0,nan,nan,0.00034239303,0.002408026,-0.037491597,-6.300118e-08,1.5656e-08,0.0,0.0014212073,0.008371299,-0.012274947,-0.03480053,-1.0500196e-05,2.609333e-06,0.0017587617,0.0031237577,0.029885048,-0.010277144,1.6239228,0.005707331,nan,0.1,0.029741643,1.493792,0.1737869,0.06348897,inf,inf,inf,inf,0,1,0,1,1,1,1,1,1,0,0,0,0,0,1
4168000,4168000,0,nan,nan,0.00034779587,0.0024237824,-0.03843181,-6.300118e-08,1.5656e-08,0.0,0.0013328736,0.008153888,-0.012431749,-0.03568509,-1.0500196e-05,2.609333e-06,0.0017587617,-0.009132607,-0.019568367,-0.037991438,1.6238799,0.005707331,nan,0.1,0.031089388,1.4937954,0.17917947,0.06410226,inf,inf,inf,inf,0,1,0,1,1,1,1,1,1,0,0,0,0,0,1
4176000,4176000,0,nan,nan,0.00035271584,0.0024381443,-0.039347466,-6.300118e-08,1.5656e-08,0.0,0.0012998249,0.0080286525,-0.012266452,-0.03621624,-1.0500196e-05,2.609333e-06,0.0017587617,0.0023862084,0.008238697,0.024085863,1.6238472,0.005707331,nan,0.1,0.032487225,1.4937991,0.18464255,0.06471549,inf,inf,inf,inf,0,1,0,1,1,1,1,1,1,0,0,0,0,0,1
4184000,4184000,0,nan,nan,0.000357693,0.002451777,-0.040237304,-6.300118e-08,1.5656e-08,0.0,0.00128264,0.00786244,-0.0121040065,-0.036719866,-1.0500196e-05,2.609333e-06,0.0017587617,-0.0071665267,-0.007490889,-0.00034552065,1.6238325,0.005707331,nan,0.1,0.033935506,1.493803,0.19021426,0.06532867,inf,inf,inf,inf,0,1,0,1,1,1,1,1,1,0,0,0,0,0,1
4192000,4192000,0,nan,nan,0.0003618518,0.002465319,-0.041103613,-6.300118e-08,1.5656e-08,0.0,0.0011111798,0.008013136,-0.012207052,-0.037459508,-1.0500196e-05,2.609333e-06,0.0017587617,-0.018004283,0.05137584,-0.02656318,1.6238204,0.005707331,nan,0.1,0.035434846,1.4938072,0.1958641,0.06594179,inf,inf,inf,inf,0,1,0,1,1,1,1,1,1,0,0,0,0,0,1
4200000,4200000,0,nan,nan,0.00036552988,0.0024807008,-0.041947283,-6.300118e-08,1.5656e-08,0.0,0.0011682477,0.008140065,-0.012059331,-0.037919786,-1.0500196e-05,2.609333e-06,0.0017587617,0.016385209,0.022163292,0.020153819,1.6238039,0.005707331,nan,0.1,0.036985666,1.4938116,0.20161383,0.06655483,inf,inf,inf,inf,0,1,0,1,1,1,1,1,1,0,0,0,0,0,1
4208000,4208000,4204000,47.3977508,8.5456073,0.0003701989,0.0024972234,-0.04248001,-6.300118e-08,1.5656e-08,0.0,0.0013082016,0.008254495,-0.011936141,-0.038090322,-1.0500196e-05,2.609333e-06,0.0017587617,0.018852688,0.030017486,-0.0070640813,1.6237845,0.005707331,488.03983,0.1,0.03858855,1.373911,0.20744127,0.06716748,inf,inf,inf,inf,0,1,0,1,1,1,1,1,1,0,1,1,0,0,1
4216000,4216000,4204000,47.3977508,8.5456073,0.00037042936,0.00249705,-0.042999815,-6.300118e-08,1.5656e-08,0.0,0.0013512501,0.008332472,-0.0120401215,-0.038471296,-1.0500196e-05,2.609333e-06,0.0017587617,0.0052920654,0.042882193,-0.022489576,1.6237869,0.005707331,488.03983,0.1,0.013342295,1.3739157,0.102995925,0.06778029,inf,inf,inf,inf,0,1,0,1,1,1,1,1,1,0,1,1,0,0,1
4224000,4224000,4204000,47.3977508,8.5456073,0.00037040794,0.0024978959,-0.043506935,-6.300118e-08,1.5656e-08,0.0,0.0012679419,0.008403631,-0.011923444,-0.038615387,-1.0500196e-05,2.609333e-06,0.0017587617,-0.0038314462,0.026220338,0.006942078,1.6237838,0.005707331,488.03983,0.1,0.013923554,1.3739204,0.10672648,0.06839319,inf,inf,inf,inf,0,1,0,1,1,1,1,1,1,0,1,1,0,0,1
4232000,4232000,4204000,47.3977508,8.5456073,0.00037024257,0.002499312,-0.044001844,-6.300118e-08,1.5656e-08,0.0,0.0013079093,0.008477202,-0.012079117,-0.039016105,-1.0500196e-05,2.609333e-06,0.0017587617,0.010396223,0.038260795,-0.033115964,1.6237755,0.005707331,488.03983,0.1,0.0145522235,1.3739256,0.11052589,0.06900604,inf,inf,inf,inf,0,1,0,1,1,1,1,1,1,0,1,1,0,0,1
4240000,4240000,4204000,47.3977508,8.5456073,0.00037076784,0.0025013203,-0.04448561,-6.300118e-08,1.5656e-08,0.0,0.0014766995,0.008466827,-0.012073142,-0.03923995,-1.0500196e-05,2.609333e-06,0.0017587617,0.035759393,0.018051272,-0.003095716,1.623788,0.005707331,488.03983,0.1,0.015228312,1.3739309,0.11439147,0.06961885,inf,inf,inf,inf,0,1,0,1,1,1,1,1,1,0,1,1,0,0,1
4248000,4248000,4204000,47.3977508,8.5456073,0.00037296824,0.0025022407,-0.044949528,-6.300118e-08,1.5656e-08,0.0,0.0016675313,0.0083541395,-0.01203722,-0.03940681,-1.0500196e-05,2.609333e-06,0.0017587617,0.02035609,0.0134004215,-0.0141859045,1.6237831,0.005707331,488.03983,0.1,0.015276269,1.3739295,0.10916252,0.066264726,inf,inf,inf,inf,0,1,0,1,1,1,1,1,1,0,1,1,0,0,1
4256000,4256000,4204000,47.3977508,8.5456073,0.00037584885,0.0025028652,-0.04476745,-6.300118e-08,1.5656e-08,0.0,0.0016798099,0.00835271,-0.012042229,-0.038968,-1.0500196e-05,2.609333e-06,0.0017587617,0.006292728,0.027814237,-0.013984739,1.6237893,0.005707331,488.03983,0.11190191,0.015962187,1.2789243,0.11285023,0.06684989,inf,inf,inf,inf,0,1,0,1,1,1,1,1,1,0,1,1,0,0,1
4264000,4264000,4204000,47.3977508,8.5456073,0.0003783458,0.0025038272,-0.04459274,-6.300118e-08,1.5656e-08,0.0,0.0015250185,0.008396508,-0.012003634,-0.038494527,-1.0500196e-05,2.609333e-06,0.0017587617,-0.026799155,0.03355443,-0.0023897735,1.6237969,0.005707331,488.03983,0.111641444,0.016691413,1.2789296,0.11659753,0.06743541,inf,inf,inf,inf,0,1,0,1,1,1,1,1,1,0,1,1,0,0,1
4272000,4272000,4204000,47.3977508,8.5456073,0.0003790018,0.0025046954,-0.044424307,-6.300118e-08,1.5656e-08,0.0,0.0013133625,0.008199502,-0.01187366,-0.03793842,-1.0500196e-05,2.609333e-06,0.0017587617,-0.01090375,-0.017430704,-0.0068368386,1.6238159,0.005707331,488.03983,0.11138691,0.01746387,1.2789351,0.12041878,0.068020895,inf,inf,inf,inf,0,1,0,1,1,1,1,1,1,0,1,1,0,0,1
4280000,4280000,4204000,47.3977508,8.5456073,0.00037889814,0.002504126,-0.044262823,-6.300118e-08,1.5656e-08,0.0,0.0012805101,0.008121479,-0.011931249,-0.037578426,-1.0500196e-05,2.609333e-06,0.0017587617,-0.0026384948,0.029565735,-0.016227363,1.6238304,0.005707331,488.03983,0.111138925,0.018279528,1.2789409,0.12428516,0.06860634,inf,inf,inf,inf,0,1,0,1,1,1,1,1,1,0,1,1,0,0,1
4288000,4288000,4204000,47.3977508,8.5456073,0.00037838577,0.00250361,-0.044108555,-6.300118e-08,1.5656e-08,0.0,0.0012625525,0.008082058,-0.011989732,-0.037227686,-1.0500196e-05,2.609333e-06,0.0017587617,0.011194933,0.013271448,-0.022259539,1.6238545,0.005707331,488.03983,0.11089869,0.019138182,1.2789471,0.12821172,0.06919174,inf,inf,inf,inf,0,1,0,1,1,1,1,1,1,0,1,1,0,0,1
4296000,4296000,4204000,47.3977508,8.5456073,0.00037845407,0.0025029383,-0.043961067,-6.300118e-08,1.5656e-08,0.0,0.0013874482,0.008061465,-0.011941708,-0.036778614,-1.0500196e-05,2.609333e-06,0.0017587617,0.018310513,0.02238518,-0.003846362,1.6238769,0.005707331,488.03983,0.11066477,0.020039711,1.2789536,0.13221003,0.0697771,inf,inf,inf,inf,0,1,0,1,1,1,1,1,1,0,1,1,0,0,1
4304000,4304000,4204000,47.3977508,8.5456073,0.0003792442,0.0025017904,-0.04381989,-6.300118e-08,1.5656e-08,0.0,0.0014320449,0.007902311,-0.011948391,-0.03639224,-1.0500196e-05,2.609333e-06,0.0017587617,0.0048159123,0.0033665563,-0.011656432,1.6238775,0.005707331,488.03983,0.11043672,0.020984063,1.2789603,0.1362539,0.07036243,inf,inf,inf,inf,0,1,0,1,1,1,1,1,1,0,1,1,0,0,1
4312000,4312000,4204000,47.3977508,8.5456073,0.00037985088,0.0025000249,-0.04368515,-6.300118e-08,1.5656e-08,0.0,0.0013526214,0.007823283,-0.012010079,-0.036068693,-1.0500196e-05,2.609333e-06,0.0017587617,-0.008423695,0.0074562263,-0.028486362,1.6238676,0.005707331,488.03983,0.11021444,0.021971054,1.2789674,0.14037232,0.07094772,inf,inf,inf,inf,0,1,0,1,1,1,1,1,1,0,1,1,0,0,1
4320000,4320000,4204000,47.3977508,8.5456073,0.00037962903,0.0024970667,-0.04385131,-6.300118e-08,1.5656e-08,0.0,0.0012761713,0.00754239,-0.012241508,-0.036215022,-1.0500196e-05,2.609333e-06,0.0017587617,0.0048172073,-0.017041383,-0.039522532,1.6238678,0.005707331,488.03983,0.10115221,0.023000697,1.201282,0.14453931,0.07153232,inf,inf,inf,inf,0,1,0,1,1,1,1,1,1,0,1,1,0,0,1
4328000,4328000,4204000,47.3977508,8.5456073,0.00037996203,0.0024917452,-0.04401652,-6.300118e-08,1.5656e-08,0.0,0.0014448465,0.0071850023,-0.012361813,-0.03624733,-1.0500196e-05,2.609333e-06,0.0017587617,0.023556115,-0.020615201,-0.017615965,1.6238698,0.005707331,488.03983,0.10122829,0.024072861,1.2012893,0.14876512,0.07211753,inf,inf,inf,inf,0,1,0,1,1,1,1,1,1,0,1,1,0,0,1
4336000,4336000,4204000,47.3977508,8.5456073,0.00038073002,0.0024850045,-0.044179317,-6.300118e-08,1.5656e-08,0.0,0.0013940503,0.007140902,-0.012250756,-0.036045544,-1.0500196e-05,2.609333e-06,0.0017587617,-0.0013204116,0.026263615,0.0070855017,1.6238639,0.005707331,488.03983,0.10130125,0.025187513,1.2012969,0.15305185,0.07270272,inf,inf,inf,inf,0,1,0,1,1,1,1,1,1,0,1,1,0,0,1
4344000,4344000,4204000,47.3977508,8.5456073,0.0003817345,0.002478386,-0.04433905,-6.300118e-08,1.5656e-08,0.0,0.0015070951,0.0070693004,-0.012201559,-0.035903003,-1.0500196e-05,2.609333e-06,0.0017587617,0.020106671,0.007167851,-0.008461996,1.6238554,0.005707331,488.03983,0.101370454,0.026344657,1.201305,0.15739353,0.07328789,inf,inf,inf,inf,0,1,0,1,1,1,1,1,1,0,1,1,0,0,1
4352000,4352000,4204000,47.3977508,8.5456073,0.0003837106,0.002471321,-0.044496354,-6.300118e-08,1.5656e-08,0.0,0.0016207745,0.006966093,-0.012178976,-0.035784584,-1.0500196e-05,2.609333e-06,0.0017587617,0.017353289,0.009177034,-0.008383765,1.6238551,0.005707331,488.03983,0.101437084,0.027544286,1.2013135,0.16178693,0.07387301,inf,inf,inf,inf,0,1,0,1,1,1,1,1,1,0,1,1,0,0,1
4360000,4360000,4204000,47.3977508,8.5456073,0.00038637672,0.0024637473,-0.04465135,-6.300118e-08,1.5656e-08,0.0,0.0016728096,0.006835741,-0.012121742,-0.03562914,-1.0500196e-05,2.609333e-06,0.0017587617,0.008994582,0.0034499825,0.0033751128,1.6238294,0.005707331,488.03983,0.1015009,0.028786404,1.2013223,0.1662499,0.074458115,inf,inf,inf,inf,0,1,0,1,1,1,1,1,1,0,1,1,0,0,1
4368000,4368000,4204000,47.3977508,8.5456073,0.00038920823,0.0024564494,-0.044804204,-6.300118e-08,1.5656e-08,0.0,0.0016318918,0.0069791754,-0.012214805,-0.03562173,-1.0500196e-05,2.609333e-06,0.0017587617,-0.008436152,0.048737403,-0.031715255,1.62381,0.005707331,488.03983,0.101561345,0.030071156,1.2013315,0.1707704,0.0750432,inf,inf,inf,inf,0,1,0,1,1,1,1,1,1,0,1,1,0,0,1
4376000,4376000,4204000,47.3977508,8.5456073,0.0003914235,0.002450482,-0.04496295,-6.300118e-08,1.5656e-08,0.0,0.0015967144,0.0069740624,-0.0122699365,-0.035581227,-1.0500196e-05,2.609333e-06,0.0017587617,0.01349025,0.008384726,-0.013029202,1.6237978,0.005707331,488.03983,0.10140829,0.03139863,1.13627,0.17534126,0.07562733,inf,inf,inf,inf,0,1,0,1,1,1,1,1,1,0,1,1,0,0,1
4384000,4384000,4204000,47.3977508,8.5456073,0.0003945431,0.0024444524,-0.045119893,-6.300118e-08,1.5656e-08,0.0,0.0017751284,0.0069028223,-0.012271664,-0.03548502,-1.0500196e-05,2.609333e-06,0.0017587617,0.021422265,0.013041338,-0.004312023,1.6237742,0.005707331,488.03983,0.101471454,0.03276891,1.1362795,0.17997292,0.076212354,inf,inf,inf,inf,0,1,0,1,1,1,1,1,1,0,1,1,0,0,1
4392000,4392000,4204000,47.3977508,8.5456073,0.0003978608,0.002439334,-0.04527464,-6.300118e-08,1.5656e-08,0.0,0.0016281095,0.007121653,-0.012245477,-0.035358716,-1.0500196e-05,2.609333e-06,0.0017587617,-0.02142183,0.058628395,-0.008746981,1.6237499,0.005707331,488.03983,0.10153146,0.034182142,1.1362895,0.1846654,0.076797366,inf,inf,inf,inf,0,1,0,1,1,1,1,1,1,0,1,1,0,0,1
4400000,4400000,4204000,47.3977508,8.5456073,0.00040043044,0.0024366137,-0.045427874,-6.300118e-08,1.5656e-08,0.0,0.0016428941,0.0072726957,-0.012363246,-0.03537428,-1.0500196e-05,2.609333e-06,0.0017587617,0.015625788,0.023594605,-0.025588086,1.623718,0.005707331,488.03983,0.10158808,0.035638526,1.1362997,0.1894266,0.07738234,inf,inf,inf,inf,0,1,0,1,1,1,1,1,1,0,1,1,0,0,1
4408000,4408000,4204000,47.3977508,8.5456073,0.00040371148,0.0024344455,-0.045579925,-6.300118e-08,1.5656e-08,0.0,0.0017267333,0.0071960324,-0.012371724,-0.035278574,-1.0500196e-05,2.609333e-06,0.0017587617,0.0075374404,0.0116584115,-0.0031953675,1.6236925,0.005707331,488.03983,0.10164145,0.037138324,1.1363106,0.1942374,0.07796729,inf,inf,inf,inf,0,1,0,1,1,1,1,1,1,0,1,1,0,0,1
4416000,4416000,4204000,47.3977508,8.5456073,0.00040680682,0.002432694,-0.04573066,-6.300118e-08,1.5656e-08,0.0,0.0016180101,0.0072055506,-0.012512614,-0.035313394,-1.0500196e-05,2.609333e-06,0.0017587617,-0.0076228604,0.013726341,-0.02971105,1.6236823,0.005707331,488.03983,0.10169281,0.038681682,1.1363218,0.1990889,0.07855225,inf,inf,inf,inf,0,1,0,1,1,1,1,1,1,0,1,1,0,0,1
4424000,4424000,4204000,47.3977508,8.5456073,0.0004082405,0.00241755,-0.04587969,-6.300118e-08,1.5656e-08,0.0,0.0017330742,0.0069908905,-0.012285663,-0.034978602,-1.0500196e-05,2.609333e-06,0.0017587617,0.023014288,-0.00048398212,0.035258938,1.6236831,0.005707331,488.03983,0.10174219,0.013343196,1.1363335,0.09326065,0.07913713,inf,inf,inf,inf,0,1,0,1,1,1,1,1,1,0,1,1,0,0,1
4432000,4432000,4204000,47.3977508,8.5456073,0.00041067885,0.0024016872,-0.046025187,-6.300118e-08,1.5656e-08,0.0,0.0018345276,0.0069244024,-0.012167162,-0.03475057,-1.0500196e-05,2.609333e-06,0.0017587617,0.015727898,0.020962004,-0.012216157,1.6236758,0.005707331,488.03983,0.101788,0.013894252,1.1363456,0.09605414,0.079722054,inf,inf,inf,inf,0,1,0,1,1,1,1,1,1,0,1,1,0,0,1
4440000,4440000,4204000,47.3977508,8.5456073,0.00041365775,0.00238599,-0.046086777,-6.300118e-08,1.5656e-08,0.0,0.0018726251,0.006886308,-0.012323461,-0.03471304,-1.0500196e-05,2.609333e-06,0.0017587617,0.012260861,0.01706391,-0.01948606,1.6236635,0.005707331,488.03983,0.1043334,0.01448097,1.080819,0.09888272,0.08030558,inf,inf,inf,inf,0,1,0,1,1,1,1,1,1,0,1,1,0,0,1
4448000,4448000,4204000,47.3977508,8.5456073,0.000417937,0.0023702327,-0.046150472,-6.300118e-08,1.5656e-08,0.0,0.0021194029,0.006807357,-0.01251163,-0.034708798,-1.0500196e-05,2.609333e-06,0.0017587617,0.03171978,0.016775709,-0.035821456,1.6236628,0.005707331,488.03983,0.10429647,0.015103033,1.0808315,0.10175399,0.08089046,inf,inf,inf,inf,0,1,0,1,1,1,1,1,1,0,1,1,0,0,1
4456000,4456000,4204000,47.3977508,8.5456073,0.0004225905,0.0023539911,-0.046200857,-6.300118e-08,1.5656e-08,0.0,0.0020017754,0.0067003355,-0.012376871,-0.03436249,-1.0500196e-05,2.609333e-06,0.0017587617,-0.014120567,0.003281282,0.015775671,1.6236131,0.005707331,488.03983,0.10471116,0.015183879,1.0808158,0.09815578,0.07545449,inf,inf,inf,inf,0,1,0,1,1,1,1,1,1,0,1,1,0,0,1
4464000,4464000,4204000,47.3977508,8.5456073,0.00042636562,0.0023368043,-0.046250775,-6.300118e-08,1.5656e-08,0.0,0.0019176463,0.0064683356,-0.012283673,-0.034059774,-1.0500196e-05,2.609333e-06,0.0017587617,-0.0019794386,-0.007643684,-0.015120952,1.6235785,0.005707331,488.03983,0.10467313,0.015816148,1.0808274,0.10092381,0.07600436,inf,inf,inf,inf,0,1,0,1,1,1,1,1,1,0,1,1,0,0,1
4472000,4472000,4204000,47.3977508,8.5456073,0.00043059388,0.002318199,-0.04630207,-6.300118e-08,1.5656e-08,0.0,0.00208855,0.006226101,-0.012451845,-0.034020443,-1.0500196e-05,2.609333e-06,0.0017587617,0.026957145,-0.007472379,-0.033660788,1.6235279,0.005707331,488.03983,0.10463615,0.016480865,1.0808394,0.10372514,0.076554224,inf,inf,inf,inf,0,1,0,1,1,1,1,1,1,0,1,1,0,0,1
4480000,4480000,4204000,47.3977508,8.5456073,0.000435581,0.0022979893,-0.04635472,-6.300118e-08,1.5656e-08,0.0,0.0020644257,0.005938832,-0.012368324,-0.03373142,-1.0500196e-05,2.609333e-06,0.0017587617,-0.0036758573,-0.014060918,0.008804723,1.6234792,0.005707331,488.03983,0.104599744,0.01717778,1.0808519,0.1065669,0.07710407,inf,inf,inf,inf,0,1,0,1,1,1,1,1,1,0,1,1,0,0,1
4488000,4488000,4204000,47.3977508,8.5456073,0.00044042175,0.0022759507,-0.04640727,-6.300118e-08,1.5656e-08,0.0,0.0020689857,0.0056582033,-0.012286373,-0.033445954,-1.0500196e-05,2.609333e-06,0.0017587617,0.0083342595,-0.0086546345,-0.0075409184,1.6234387,0.005707331,488.03983,0.10456234,0.017906694,1.0808648,0.10943858,0.07765389,inf,inf,inf,inf,0,1,0,1,1,1,1,1,1,0,1,1,0,0,1
4496000,4496000,4204000,47.3977508,8.5456073,0.00044482783,0.0022528379,-0.04647018,-6.300118e-08,1.5656e-08,0.0,0.0019027805,0.005501222,-0.012336237,-0.033303957,-1.0500196e-05,2.609333e-06,0.0017587617,-0.021574697,-0.0029745859,-0.027052125,1.6234145,0.005707331,488.03983,0.10423183,0.018667359,1.0327522,0.11235012,0.07820223,inf,inf,inf,inf,0,1,0,1,1,1,1,1,1,0,1,1,0,0,1
4504000,4504000,4204000,47.3977508,8.5456073,0.00044868843,0.0022286742,-0.046533775,-6.300118e-08,1.5656e-08,0.0,0.0019653046,0.0053145103,-0.01223616,-0.033013638,-1.0500196e-05,2.609333e-06,0.0017587617,0.020142177,0.0062169707,0.014727934,1.6233814,0.005707331,488.03983,0.10420447,0.019459592,1.0327654,0.115280375,0.07875202,inf,inf,inf,inf,0,1,0,1,1,1,1,1,1,0,1,1,0,0,1
4512000,4512000,4204000,47.3977508,8.5456073,0.00045372575,0.0022041453,-0.0465967,-6.300118e-08,1.5656e-08,0.0,0.0021653916,0.005234943,-0.012118674,-0.03270752,-1.0500196e-05,2.609333e-06,0.0017587617,0.03455566,0.010595176,-0.0039925794,1.6233476,0.005707331,488.03983,0.104177475,0.020283109,1.0327792,0.11824938,0.0793018,inf,inf,inf,inf,0,1,0,1,1,1,1,1,1,0,1,1,0,0,1
4520000,4520000,4204000,47.3977508,8.5456073,0.00046084245,0.002179551,-0.04665984,-6.300118e-08,1.5656e-08,0.0,0.0024407352,0.0051422655,-0.012126617,-0.03252844,-1.0500196e-05,2.609333e-06,0.0017587617,0.038438153,0.0056539574,-0.011148862,1.6233026,0.005707331,488.03983,0.104150206,0.021137763,1.0327935,0.12126445,0.07985156,inf,inf,inf,inf,0,1,0,1,1,1,1,1,1,0,1,1,0,0,1
4528000,4528000,4204000,47.3977508,8.5456073,0.0004699538,0.0021544553,-0.04672356,-6.300118e-08,1.5656e-08,0.0,0.0026002196,0.004967505,-0.012145327,-0.03236173,-1.0500196e-05,2.609333e-06,0.0017587617,0.013658558,-0.0029994843,-0.015337951,1.6232836,0.005707331,488.03983,0.10412183,0.022023479,1.0328083,0.124315195,0.08040131,inf,inf,inf,inf,0,1,0,1,1,1,1,1,1,0,1,1,0,0,1
4536000,4536000,4204000,47.3977508,8.5456073,0.00047924035,0.0021287487,-0.046788305,-6.300118e-08,1.5656e-08,0.0,0.0024774459,0.0048342715,-0.012251647,-0.03228423,-1.0500196e-05,2.609333e-06,0.0017587617,-0.017457029,0.0014063406,-0.025331972,1.6232749,0.005707331,488.03983,0.104093716,0.022940144,1.0328237,0.12738818,0.08095105,inf,inf,inf,inf,0,1,0,1,1,1,1,1,1,0,1,1,0,0,1
