timestamp,timestamp_sample,time_last_fuse,device_id,observation[0],observation[1],observation[2],observation_variance[0],observation_variance[1],observation_variance[2],innovation[0],innovation[1],innovation[2],innovation_variance[0],innovation_variance[1],innovation_variance[2],test_ratio[0],test_ratio[1],test_ratio[2],estimator_instance,fusion_enabled,innovation_rejected,fused
3408000,3289167,0,0,0.0,0.0,0.02,0.09,0.09,0.20250002,0.0024845034,0.0022121726,-0.047088493,0.13232005,0.13225448,0.2053005,1.8660082e-06,1.4800883e-06,0.00043201572,0,1,0,0
3808000,3689496,0,0,0.0,0.0,-0.02,0.09,0.09,0.20250002,3.6248384e-05,0.0015204675,0.012618538,0.09475164,0.09475205,0.2040036,5.546903e-10,9.759457e-07,3.122053e-05,0,1,0,0
4208000,4089695,0,0,0.0,0.01,0.01,0.09,0.09,0.20250002,0.0010850045,-0.0061612856,-0.02179853,0.11151658,0.111515306,0.20701154,4.222636e-07,1.36165845e-05,9.181633e-05,0,1,0,0
4608000,4489816,0,0,0.02,0.01,-0.04,0.09,0.09,0.20250002,-0.018033244,-0.008781688,0.0278138,0.1022642,0.10226518,0.2098782,0.0001271991,3.0163952e-05,0.00014743932,0,1,0,0
5008000,4889889,0,0,0.0,0.0,-0.01,0.09,0.09,0.20250002,0.0018207962,-0.0007044537,-0.0007991027,0.0951666,0.095167674,0.21131268,1.3934716e-06,2.0858133e-07,1.2087588e-07,0,1,0,0
5408000,5289933,0,0,-0.01,0.01,0.03,0.09,0.09,0.20250002,0.00709831,-0.009774095,-0.039045252,0.09285934,0.09286005,0.21148658,2.1704227e-05,4.115136e-05,0.0002883458,0,1,0,0
5808000,5689960,0,0,0.0,0.01,-0.02,0.09,0.09,0.20250002,-0.001678539,-0.009859072,0.011144098,0.091943,0.091943435,0.21104869,1.2257564e-06,4.2287433e-05,2.353787e-05,0,1,0,0
6208000,6089976,0,0,0.0,0.0,0.0,0.09,0.09,0.20250002,-0.0002197684,0.00010355306,-0.007550068,0.09149094,0.0914912,0.21042609,2.1116037e-08,4.688204e-09,1.0835829e-05,0,1,0,0
6608000,6489986,0,0,-0.01,-0.01,-0.01,0.09,0.09,0.20250002,0.009429204,0.006617816,0.004887139,0.09122791,0.09122804,0.20979741,3.8983635e-05,1.9202645e-05,4.5537504e-06,0,1,0,0
7008000,6889991,0,0,-0.01,-0.01,-0.01,0.09,0.09,0.20250002,0.005565468,0.008191948,0.0068227146,0.09105653,0.09105664,0.20922911,1.3606683e-05,2.9479681e-05,8.899227e-06,0,1,0,0
7408000,7289995,0,0,0.01,0.0,0.049999997,0.09,0.09,0.20250002,-0.015471601,0.00075557054,-0.05114574,0.090934955,0.09093502,0.20874183,0.00010529304,2.5111856e-07,0.0005012674,0,1,0,0
7808000,7689997,0,0,0.01,0.0,0.02,0.09,0.09,0.20250002,-0.011516779,2.5370566e-05,-0.019458186,0.090842925,0.09084297,0.20833926,5.8402435e-05,2.83419e-10,7.269316e-05,0,1,0,0
8208000,8089999,0,0,0.02,0.0,0.0,0.09,0.09,0.20250002,-0.02078822,-0.0017847297,-0.0009499341,0.09077017,0.090770215,0.20802161,0.00019043707,1.4036586e-06,1.735156e-07,0,1,0,0
8608000,8489999,8528000,0,-0.02,0.0,0.049999997,0.09,0.09,0.20250002,0.019144647,-0.00040193996,-0.049837828,0.09072276,0.09072281,0.20858756,0.00016159892,7.123048e-08,0.00047631015,0,1,0,0
9008000,8890000,8928000,0,0.0,0.0,-0.01,0.09,0.09,0.20250002,-0.022811,0.0023369854,0.06006807,0.18064223,0.18064225,0.4046595,0.00011522039,1.2093519e-06,0.00035666264,0,1,0,1
9408000,9290000,9328000,0,0.0,-0.02,0.0,0.09,0.09,0.20250002,-0.013965272,0.023507155,0.020742923,0.13598853,0.13598856,0.30274758,5.736626e-05,0.00016253907,5.6848527e-05,0,1,0,1
9808000,9690000,9728000,0,-0.02,0.01,-0.03,0.09,0.09,0.20250002,0.0070380038,-0.010847015,0.046609268,0.12167776,0.12167776,0.2686774,1.62835e-05,3.867847e-05,0.00032342484,0,1,0,1
10208000,10090000,10128000,0,0.02,0.01,0.0,0.09,0.09,0.20250002,-0.03587664,-0.0076090554,0.009301213,0.11523562,0.11523591,0.25140402,0.00044678312,2.0097112e-05,1.3764705e-05,0,1,0,1
10608000,10490000,10528000,0,0.0,0.0,0.02,0.09,0.09,0.20250002,-0.008180736,0.0047328025,-0.010753658,0.11220378,0.11220441,0.24102065,2.3858174e-05,7.985219e-06,1.9191908e-05,0,1,0,1
11008000,10890000,10928000,0,0.01,-0.02,0.01,0.09,0.09,0.20250002,-0.0154301915,0.026236545,0.006316213,0.11108029,0.11108137,0.23428264,8.573648e-05,0.00024787462,6.811353e-06,0,1,0,1
11408000,11290000,11328000,0,0.01,0.0,0.02,0.09,0.09,0.20250002,-0.01054004,2.4944542e-05,0.0011099372,0.11116378,0.111165635,0.22946617,3.9974333e-05,2.2389299e-10,2.1475246e-07,0,1,0,1
11808000,11690000,11728000,0,0.0,0.0,0.0,0.09,0.09,0.20250002,0.0030584447,-0.0014380177,0.027497012,0.11199921,0.11200167,0.22599281,3.3407675e-06,7.3852283e-07,0.00013382472,0,1,0,1
12208000,12090000,12128000,0,0.0,0.0,0.0,0.09,0.09,0.20250002,0.002288123,-0.0024043713,0.026192259,0.11322945,0.113232136,0.2234559,1.8495209e-06,2.042177e-06,0.00012280444,0,1,0,1
12608000,12490000,12528000,0,-0.01,0.01,-0.03,0.09,0.09,0.20250002,0.010484722,-0.010992842,0.057166874,0.114530265,0.1145328,0.22157834,3.8393136e-05,4.2203657e-05,0.0005899586,0,1,0,1
13008000,12890000,12928000,0,0.01,0.0,0.01,0.09,0.09,0.20250002,-0.016071822,0.0015941028,0.01608855,0.115666285,0.1156684,0.22028139,8.932715e-05,8.787755e-07,4.7001966e-05,0,1,0,1
13408000,13290000,13328000,0,-0.03,0.0,-0.02,0.09,0.09,0.20250002,0.025548097,0.0028201202,0.04891926,0.11649385,0.116495654,0.21926881,0.00022411664,2.7307724e-06,0.00043655894,0,1,0,1
13808000,13690000,13728000,0,-0.01,0.0,-0.01,0.09,0.09,0.20250002,-0.002596015,0.005170244,0.035917312,0.11696261,0.11696404,0.21854684,2.3047687e-06,9.141757e-06,0.00023611475,0,1,0,1
14208000,14090000,14128000,0,0.01,0.0,-0.01,0.09,0.09,0.20250002,-0.021883475,0.005045806,0.036818452,0.1170799,0.11708119,0.2181274,0.00016361015,8.698292e-06,0.0002485884,0,1,0,1
14608000,14490000,14528000,0,0.01,-0.01,0.0,0.09,0.09,0.20250002,-0.017745432,0.016427638,0.027127706,0.11690946,0.11691036,0.21779734,0.00010774161,9.233306e-05,0.00013515545,0,1,0,1
15008000,14890000,14928000,0,0.02,0.0,-0.02,0.09,0.09,0.20250002,-0.024670362,0.0043765632,0.045482103,0.1165224,0.116523065,0.21759164,0.0002089304,6.575284e-06,0.00038027592,0,1,0,1
15408000,15290000,15328000,0,-0.01,-0.01,0.0,0.09,0.09,0.20250002,0.011315907,0.015088851,0.025656633,0.11597797,0.11597857,0.21747574,4.4163473e-05,7.8522586e-05,0.00012107333,0,1,0,1
15808000,15690000,15728000,0,0.0,0.0,-0.01,0.09,0.09,0.20250002,-0.00060431863,0.001543176,0.037622236,0.11534156,0.115342215,0.21749751,1.2665028e-07,8.258528e-07,0.00026031243,0,1,0,1
16208000,16090000,16128000,0,0.0,0.01,-0.01,0.09,0.09,0.20250002,0.0014785837,-0.0067176265,0.03821814,0.11466122,0.11466183,0.2174881,7.626675e-07,1.5742467e-05,0.00026863563,0,1,0,1
16608000,16490000,16528000,0,0.0,0.0,-0.01,0.09,0.09,0.20250002,0.004664315,0.005515565,0.041552924,0.113964535,0.11396529,0.21749789,7.636001e-06,1.0677447e-05,0.0003175471,0,1,0,1
17008000,16886000,16928000,0,0.0,0.0,0.0,0.09,0.09,0.20250002,0.0065179057,0.0048107766,0.033873748,0.11328161,0.11328244,0.21751922,1.5000879e-05,8.171989e-06,0.00021100312,0,1,0,1
17408000,17290000,17328000,0,0.0,0.0,0.0,0.09,0.09,0.20250002,0.0056620724,0.0025663762,0.015989803,0.112653956,0.11265481,0.21754739,1.1383202e-05,2.3385728e-06,4.7010228e-05,0,1,0,1
17808000,17690000,17728000,0,-0.11,-0.089999996,-0.22999999,0.09,0.09,0.20250002,0.0069460794,-0.012243323,0.05718738,0.11230036,0.112300254,0.21756716,1.7185348e-05,5.3392207e-05,0.0006012665,0,1,0,1
18208000,18090000,18128000,0,-0.21,-0.19,-0.53,0.09,0.09,0.20250002,0.037097424,0.013218507,0.003894627,0.11218267,0.11217792,0.21757779,0.0004907064,6.2304214e-05,2.7885421e-06,0,1,0,1
18608000,18490000,18528000,0,-0.14,-0.14,-0.61,0.09,0.09,0.20250002,0.023690231,0.017462462,0.044784307,0.111471854,0.111470744,0.21765105,0.00020138788,0.00010942336,0.00036859626,0,1,0,1
19008000,18890000,18928000,0,-0.07,-0.07,-0.65999997,0.09,0.09,0.20250002,0.04668581,0.031162858,0.036922455,0.11089406,0.11089955,0.21762837,0.00078617915,0.00035027144,0.000250568,0,1,0,1
19408000,19290000,19328000,0,0.04,0.0,-0.68,0.09,0.09,0.20250002,0.005639944,0.033306997,0.036265552,0.11034853,0.11035371,0.21758722,1.1530365e-05,0.0004021092,0.0002417771,0,1,0,1
19808000,19690000,19728000,0,0.099999994,0.04,-0.71,0.09,0.09,0.20250002,-0.0039143264,0.038992673,0.075980544,0.10982576,0.10982682,0.21753322,5.580458e-06,0.0005537549,0.0010615471,0,1,0,1
20208000,20090000,20128000,0,0.07,0.08,-0.65999997,0.09,0.09,0.20250002,0.043888457,0.021244556,0.061021924,0.10933599,0.10932851,0.21755472,0.000704689,0.00016512844,0.0006846416,0,1,0,1
20608000,20490000,20528000,0,0.089999996,0.07,-0.61,0.09,0.09,0.20250002,0.0081235245,0.03425303,0.06835961,0.113141224,0.113131545,0.2174894,2.3330718e-05,0.00041483398,0.0008594509,0,1,0,1
21008000,20890000,20928000,0,0.07,0.089999996,-0.37,0.09,0.09,0.20250002,0.010084502,-0.0057827085,0.11016491,0.13182545,0.13181524,0.21742149,3.0858137e-05,1.0147452e-05,0.0022327704,0,1,0,1
21408000,21290000,21328000,0,0.04,0.07,-0.16,0.09,0.09,0.20250002,0.020714018,0.006131716,0.027761191,0.14995867,0.14994985,0.21743692,0.00011445035,1.0029472e-05,0.00014177606,0,1,0,1
21808000,21690000,21728000,0,0.03,0.06,-0.21,0.09,0.09,0.20250002,0.009020736,-0.0033602454,0.04547958,0.15585992,0.15585306,0.2173759,2.08838e-05,2.8979218e-06,0.00038061113,0,1,0,1
22208000,22090000,22128000,0,0.03,0.04,-0.16,0.09,0.09,0.20250002,-0.0020334069,-0.002940055,0.019117653,0.15186903,0.1518636,0.21731728,1.0890287e-06,2.2767597e-06,6.727209e-05,0,1,0,1
22608000,22490000,22528000,0,0.02,0.04,-0.099999994,0.09,0.09,0.20250002,0.0032775402,-0.019687228,-0.018115304,0.14504765,0.14504412,0.21734294,2.9624114e-06,0.000106888016,6.0395658e-05,0,1,0,1
23008000,22890000,22928000,0,0.04,0.02,-0.14,0.09,0.09,0.20250002,-0.024215579,-0.0052182246,0.04098747,0.13835289,0.13835104,0.2172929,0.00016953582,7.872689e-06,0.00030925495,0,1,0,1
23408000,23290000,23328000,0,0.02,0.01,-0.12,0.09,0.09,0.20250002,-0.004821333,-0.009170056,0.040271387,0.13256614,0.13256504,0.21724743,7.013934e-06,2.5373185e-05,0.00029860597,0,1,0,1
23808000,23690000,23728000,0,0.01,0.0,-0.11,0.09,0.09,0.20250002,-0.0075545204,-0.005139471,0.05228124,0.12775922,0.12775908,0.21728617,1.786823e-05,8.269991e-06,0.00050317566,0,1,0,1
24208000,24086000,24128000,0,-0.02,-0.04,-0.14,0.09,0.09,0.20250002,0.01591093,0.02644755,0.101149954,0.1238046,0.12380501,0.21724854,8.1792656e-05,0.00022599178,0.0018837989,0,1,0,1
24608000,24490000,24528000,0,-0.02,-0.04,-0.049999997,0.09,0.09,0.20250002,0.0071874885,0.01602229,0.03128675,0.12053421,0.12053515,0.2172173,1.7143677e-05,8.519133e-05,0.00018025466,0,1,0,1
25008000,24890000,24928000,0,0.0,-0.03,-0.01,0.09,0.09,0.20250002,-0.0120584825,0.013031701,0.0069619883,0.117829494,0.11783042,0.21719296,4.9361835e-05,5.7650723e-05,8.926492e-06,0,1,0,1
25408000,25290000,25328000,0,-0.01,0.0,-0.03,0.09,0.09,0.20250002,0.004594665,-0.0058274195,0.032460228,0.11558214,0.11558237,0.21717522,7.3059546e-06,1.1752249e-05,0.00019406751,0,1,0,1
25808000,25690000,25728000,0,-0.01,-0.01,-0.07,0.09,0.09,0.20250002,0.003909953,0.01639435,0.07630655,0.11369878,0.11369836,0.21723586,5.378328e-06,9.4557116e-05,0.0010721415,0,1,0,1
26208000,26090000,26128000,0,0.01,0.0,-0.06,0.09,0.09,0.20250002,-0.017547013,0.008558629,0.077659175,0.112113774,0.1121133,0.2172156,0.00010985187,2.6134323e-05,0.0011105919,0,1,0,1
26608000,26490000,26528000,0,0.0,0.04,-0.049999997,0.09,0.09,0.20250002,-0.00044666888,-0.029142214,0.07694596,0.11079238,0.11079224,0.2171974,7.203134e-08,0.00030661662,0.0010903778,0,1,0,1
27008000,26890000,26928000,0,0.0,0.02,0.02,0.09,0.09,0.20250002,-0.004548836,-0.002563892,0.01593953,0.10969699,0.109697096,0.21718208,7.5451144e-06,2.3969794e-06,4.679366e-05,0,1,0,1
27408000,27290000,27328000,0,0.01,0.04,-0.02,0.09,0.09,0.20250002,-0.016736796,-0.029693194,0.06050493,0.108804435,0.10880527,0.21724436,0.00010298123,0.0003241335,0.00067405135,0,1,0,1
27808000,27690000,27728000,0,0.02,0.04,-0.01,0.09,0.09,0.20250002,-0.025288027,-0.03431462,0.05020228,0.10808741,0.10808872,0.21722439,0.0002366545,0.00043575067,0.00046408584,0,1,0,1
28208000,28090000,28128000,0,0.0,0.0,-0.049999997,0.09,0.09,0.20250002,-0.0049592126,-0.0006384948,0.09064506,0.107525386,0.10752703,0.2172053,9.149017e-06,1.516551e-07,0.0015131357,0,1,0,1
28608000,28490000,28528000,0,0.02,0.0,-0.049999997,0.09,0.09,0.20250002,-0.029832762,-0.016755834,0.09360495,0.10709744,0.107099175,0.21718532,0.00033240524,0.00010485907,0.0016137162,0,1,0,1
29008000,28890000,28928000,0,0.01,0.0,-0.07,0.09,0.09,0.20250002,-0.019366805,-0.019940108,0.12362074,0.10678728,0.106789365,0.21724275,0.00014049355,0.00014893165,0.002813827,0,1,0,1
29408000,29290000,29328000,0,-0.01,0.0,0.049999997,0.09,0.09,0.20250002,-0.0011706594,-0.019029755,0.01111877,0.106585525,0.106588036,0.21722251,5.143076e-07,0.00013589952,2.2765049e-05,0,1,0,1
29808000,29690000,29728000,0,0.01,0.0,0.35,0.09,0.09,0.20250002,-0.028405488,-0.024642969,0.1473051,0.10619756,0.10620032,0.21720076,0.0003039135,0.00022872847,0.0039960807,0,1,0,1
30208000,30090000,30128000,0,0.01,0.04,0.76,0.09,0.09,0.20250002,-0.02082917,-0.06007596,0.07346636,0.106019124,0.106021896,0.2171767,0.00016368907,0.0013616511,0.0009940857,0,1,0,1
30608000,30490000,30528000,0,0.0,0.01,0.62,0.09,0.09,0.20250002,-0.0041053435,-0.019605288,0.0953334,0.10618757,0.10619038,0.2172313,6.3487073e-06,0.00014478424,0.0016735076,0,1,0,1
31008000,30890000,30928000,0,0.01,0.04,0.71999997,0.09,0.09,0.20250002,-0.018790247,-0.0549169,0.018506885,0.10631542,0.106318414,0.2172045,0.00013283995,0.0011346542,6.307508e-05,0,1,0,1
31408000,31290000,31328000,0,0.0,0.0,0.69,0.09,0.09,0.20250002,-0.0072504575,-0.017106397,0.06509924,0.10648693,0.106489755,0.21717688,1.97467e-05,0.00010991812,0.00078054547,0,1,0,1
31808000,31690000,31728000,0,-0.01,0.03,0.7,0.09,0.09,0.20250002,-0.00044255052,-0.056464385,0.059566677,0.10668498,0.10668769,0.21722941,7.34315e-08,0.0011953495,0.00065335335,0,1,0,1
32208000,32090000,32128000,0,-0.01,0.0,0.71,0.09,0.09,0.20250002,-0.0028515495,-0.027035356,0.0536384,0.106887154,0.106889665,0.21720111,3.0429605e-06,0.0002735196,0.0005298458,0,1,0,1
32608000,32490000,32528000,0,-0.01,0.01,0.68,0.09,0.09,0.20250002,0.001290014,-0.04253959,0.0866676,0.10708335,0.10708534,0.21717744,6.2162275e-07,0.0006759531,0.0013834352,0,1,0,1
33008000,32890000,32928000,0,-0.04,0.0,0.64,0.09,0.09,0.20250002,0.033084158,-0.033625014,0.1313203,0.10725868,0.10726036,0.2172332,0.00040819505,0.00042164375,0.0031753932,0,1,0,1
33408000,33290000,33328000,0,-0.03,0.0,0.71999997,0.09,0.09,0.20250002,0.02150634,-0.03859148,0.05841446,0.10740613,0.1074074,0.21720852,0.00017225186,0.0005546368,0.0006283822,0,1,0,1
33808000,33690000,33728000,0,0.01,-0.01,-0.42,0.09,0.09,0.20250002,0.013523247,-0.018900292,1.2294658,0.10839827,0.10840033,0.2163239,6.748381e-05,0.00013181548,0.27950427,0,1,0,1
34208000,34090000,34128000,0,-0.02,0.0,-0.5,0.09,0.09,0.20250002,0.029258074,-0.03981889,1.2581944,0.115938246,0.1159363,0.2148191,0.00029534168,0.00054703973,0.29476953,0,1,0,1
34608000,34490000,34528000,0,-0.01,-0.01,-0.22,0.09,0.09,0.20250002,0.008068033,-0.028519986,1.1784304,0.12756726,0.12756097,0.21377383,2.0410613e-05,0.00025505907,0.25984442,0,1,0,1
35008000,34886000,34928000,0,-0.01,0.0,0.07,0.09,0.09,0.20250002,0.007114384,-0.039299168,1.0726508,0.1365448,0.13653733,0.21316785,1.482721e-05,0.00045245487,0.21590118,0,1,0,1
35408000,35290000,35328000,0,-0.01,-0.01,0.31,0.09,0.09,0.20250002,0.010520209,-0.023904363,0.98250455,0.1396674,0.13966174,0.21296781,3.169667e-05,0.00016365787,0.18130724,0,1,0,1
35808000,35690000,35728000,0,0.0,0.0,0.5,0.09,0.09,0.20250002,0.002780993,-0.03315952,0.87627363,0.13840678,0.13840358,0.21299666,2.235128e-06,0.0003177819,0.14420047,0,1,0,1
36208000,36090000,36128000,0,0.03,0.0,0.57,0.09,0.09,0.20250002,-0.037082702,0.010958424,0.36859077,0.13599849,0.13599467,0.21324188,0.00040445355,3.5321103e-05,0.025484517,0,1,0,1
36608000,36490000,36528000,0,0.0,0.0,0.02,0.09,0.09,0.20250002,0.015580471,-0.0016445344,0.73469955,0.12733714,0.12733518,0.21235092,7.62546e-05,8.495668e-07,0.10167762,0,1,0,1
37008000,36890000,36928000,0,0.0,0.0,0.03,0.09,0.09,0.20250002,0.0059206486,-9.123495e-05,0.65316975,0.12510471,0.12510121,0.21170829,1.1207916e-05,2.6614664e-09,0.08060728,0,1,0,1
37408000,37290000,37328000,0,-0.01,0.0,0.0,0.09,0.09,0.20250002,0.011270073,0.0026302696,0.61651254,0.12727594,0.12727006,0.21136156,3.9917846e-05,2.1743742e-06,0.07193128,0,1,0,1
37808000,37690000,37728000,0,0.0,0.0,0.0,0.09,0.09,0.20250002,-0.0050460724,0.0040606377,0.55768937,0.1299574,0.12995003,0.21130997,7.8372905e-06,5.0754215e-06,0.05887416,0,1,0,1
38208000,38090000,38128000,0,0.0,0.01,0.0,0.09,0.09,0.20250002,-0.0070260772,-0.004315468,0.5037653,0.13129115,0.13128366,0.21150728,1.5040087e-05,5.6742065e-06,0.047994465,0,1,0,1
38608000,38490000,38528000,0,0.01,0.0,0.03,0.09,0.09,0.20250002,-0.0161209,0.0087342085,0.42279202,0.1309637,0.1309571,0.21190211,7.9375706e-05,2.3301189e-05,0.03374258,0,1,0,1
39008000,38890000,38928000,0,0.0,-0.01,-0.07,0.09,0.09,0.20250002,0.0009415991,0.013473196,0.4789789,0.12942316,0.12941788,0.21248038,2.740186e-07,5.61057e-05,0.04318908,0,1,0,1
39408000,39290000,39328000,0,0.0,0.03,0.0,0.09,0.09,0.20250002,0.003995502,-0.033254996,0.3604248,0.1272459,0.12724186,0.2131215,5.0183257e-06,0.00034765122,0.02438159,0,1,0,1
39808000,39690000,39728000,0,-0.01,0.0,-0.01,0.09,0.09,0.20250002,0.012687839,0.0050333776,0.32451153,0.12485218,0.12484905,0.21381444,5.157499e-05,8.1169665e-06,0.019700773,0,1,0,1
40208000,40090000,40128000,0,-0.01,0.0,0.0,0.09,0.09,0.20250002,0.008954231,0.0015883083,0.27031234,0.12248642,0.12248393,0.21456058,2.6183554e-05,8.238544e-07,0.013622029,0,1,0,1
40608000,40490000,40528000,0,0.0,0.01,0.0,0.09,0.09,0.20250002,-0.0029701912,-0.013900759,0.22765592,0.120274745,0.12027271,0.21523872,2.9339612e-06,6.426432e-05,0.009631579,0,1,0,1
41008000,40890000,40928000,0,-0.01,0.0,-0.03,0.09,0.09,0.20250002,0.006146618,-0.0092856875,0.21591423,0.11826958,0.1182678,0.21585697,1.27778985e-05,2.916229e-05,0.008638861,0,1,0,1
41408000,41290000,41328000,0,0.0,-0.01,0.02,0.09,0.09,0.20250002,-0.007911883,-0.0042287605,0.12568724,0.11648421,0.11648268,0.21639325,2.1495753e-05,6.1407977e-06,0.0029201065,0,1,0,1
41808000,41690000,41728000,0,-0.01,0.0,0.0,0.09,0.09,0.20250002,-0.00062720943,-0.019081948,0.10952664,0.11491571,0.11491451,0.21689911,1.3693224e-07,0.00012674493,0.0022122886,0,1,0,1
42208000,42090000,42128000,0,0.0,-0.01,0.0,0.09,0.09,0.20250002,-0.01474794,-0.007993897,0.07342593,0.1135495,0.11354864,0.21724951,7.661917e-05,2.251102e-05,0.0009926591,0,1,0,1
42608000,42490000,42528000,0,-0.01,0.0,0.0,0.09,0.09,0.20250002,-0.0051296186,-0.020337109,0.039649103,0.1123705,0.11236986,0.2175065,9.36651e-06,0.00014722737,0.00028910424,0,1,0,1
43008000,42890000,42928000,0,-0.01,0.0,-0.01,0.09,0.09,0.20250002,-0.00805934,-0.019860927,0.020948747,0.1113603,0.111359864,0.21767591,2.3330742e-05,0.00014168711,8.064282e-05,0,1,0,1
43408000,43290000,43328000,0,0.01,0.0,-0.03,0.09,0.09,0.20250002,-0.028145311,-0.019056402,0.016590467,0.1105029,0.110502586,0.21776502,0.00028674668,0.00013145265,5.055791e-05,0,1,0,1
43808000,43690000,43728000,0,0.0,-0.01,0.01,0.09,0.09,0.20250002,-0.014706356,-0.0062610563,-0.045824707,0.10978489,0.1097847,0.2178688,7.880025e-05,1.4282801e-05,0.00038553547,0,1,0,1
44208000,44090000,44128000,0,0.0,0.0,0.0,0.09,0.09,0.20250002,-0.0173412,-0.019892963,-0.049828388,0.10919077,0.109190665,0.21785536,0.00011016214,0.00014496842,0.00045587463,0,1,0,1
