timestamp,data_rate,rate_multiplier,tx_rate_avg,tx_error_rate_avg,tx_message_count,tx_buffer_overruns,rx_rate_avg,rx_message_count,rx_message_lost_count,rx_buffer_overruns,rx_parse_errors,rx_packet_drop_count,rx_message_lost_rate,type,mode,flow_control,forwarding,mavlink_v2,ftp,streams,heartbeat_type_antenna_tracker,heartbeat_type_gcs,heartbeat_type_onboard_controller,heartbeat_type_gimbal,heartbeat_type_adsb,heartbeat_type_camera,heartbeat_type_parachute,heartbeat_type_open_drone_id,heartbeat_component_telemetry_radio,heartbeat_component_log,heartbeat_component_osd,heartbeat_component_obstacle_avoidance,heartbeat_component_vio,heartbeat_component_pairing_manager,heartbeat_component_udp_bridge,heartbeat_component_uart_bridge,avoidance_system_healthy,open_drone_id_system_healthy,parachute_system_healthy
3200000,4000.0,0.14012119,0.0,0.0,2,0,0.0,0,0,0,0,0,0.0,0,2,0,1,1,1,60,0,0,0,0,0,0,0,0,0,0,0,0,0,0,0,0,0,0,0
4460000,4000.0,0.13333982,3023.9045,0.0,70,0,0.0,0,0,0,0,0,0.0,0,2,0,1,1,1,60,0,0,0,0,0,0,0,0,0,0,0,0,0,0,0,0,0,0,0
5716000,4000.0,0.13333982,3453.1873,0.0,159,0,0.0,0,0,0,0,0,0.0,0,2,0,1,1,1,60,0,0,0,0,0,0,0,0,0,0,0,0,0,0,0,0,0,0,0
6976000,4000.0,0.13333982,3650.3984,0.0,240,0,0.0,0,0,0,0,0,0.0,0,2,0,1,1,1,60,0,0,0,0,0,0,0,0,0,0,0,0,0,0,0,0,0,0,0
7976000,4000.0,0.13333982,3223.1077,0.0,300,0,0.0,0,0,0,0,0,0.0,0,2,0,1,1,1,60,0,0,0,0,0,0,0,0,0,0,0,0,0,0,0,0,0,0,0
8232000,4000.0,0.13333982,3242.032,0.0,315,0,0.0,0,0,0,0,0,0.0,0,2,0,1,1,1,60,0,0,0,0,0,0,0,0,0,0,0,0,0,0,0,0,0,0,0
9488000,4000.0,0.13333982,4081.6733,0.0,411,0,0.0,0,0,0,0,0,0.0,0,2,0,1,1,1,60,0,0,0,0,0,0,0,0,0,0,0,0,0,0,0,0,0,0,0
10748000,4000.0,0.13333982,3530.8767,0.0,509,0,0.0,0,0,0,0,0,0.0,0,2,0,1,1,1,60,0,0,0,0,0,0,0,0,0,0,0,0,0,0,0,0,0,0,0
12008000,4000.0,0.13333982,4006.9722,0.0,594,0,0.0,0,0,0,0,0,0.0,0,2,0,1,1,1,60,0,0,0,0,0,0,0,0,0,0,0,0,0,0,0,0,0,0,0
13008000,4000.0,0.13333982,3995.02,0.0,674,0,0.0,0,0,0,0,0,0.0,0,2,0,1,1,1,60,0,0,0,0,0,0,0,0,0,0,0,0,0,0,0,0,0,0,0
13264000,4000.0,0.13333982,3609.5618,0.0,690,0,0.0,0,0,0,0,0,0.0,0,2,0,1,1,1,60,0,0,0,0,0,0,0,0,0,0,0,0,0,0,0,0,0,0,0
14524000,4000.0,0.13333982,3668.327,0.0,782,0,0.0,0,0,0,0,0,0.0,0,2,0,1,1,1,60,0,0,0,0,0,0,0,0,0,0,0,0,0,0,0,0,0,0,0
15776000,4000.0,0.13333982,4139.4424,0.0,866,0,0.0,0,0,0,0,0,0.0,0,2,0,1,1,1,60,0,0,0,0,0,0,0,0,0,0,0,0,0,0,0,0,0,0,0
17036000,4000.0,0.13333982,3638.4463,0.0,959,0,0.0,0,0,0,0,0,0.0,0,2,0,1,1,1,60,0,0,0,0,0,0,0,0,0,0,0,0,0,0,0,0,0,0,0
18036000,4000.0,0.13333982,3588.6455,0.0,1027,0,0.0,0,0,0,0,0,0.0,0,2,0,1,1,1,60,0,0,0,0,0,0,0,0,0,0,0,0,0,0,0,0,0,0,0
18292000,4000.0,0.13333982,4599.6016,0.0,1064,0,0.0,0,0,0,0,0,0.0,0,2,0,1,1,1,60,0,0,0,0,0,0,0,0,0,0,0,0,0,0,0,0,0,0,0
19544000,4000.0,0.13333982,3583.6655,0.0,1145,0,0.0,0,0,0,0,0,0.0,0,2,0,1,1,1,60,0,0,0,0,0,0,0,0,0,0,0,0,0,0,0,0,0,0,0
20796000,4000.0,0.13333982,3717.1316,0.0,1236,0,0.0,0,0,0,0,0,0.0,0,2,0,1,1,1,60,0,0,0,0,0,0,0,0,0,0,0,0,0,0,0,0,0,0,0
22056000,4000.0,0.13333982,4111.5537,0.0,1330,0,0.0,0,0,0,0,0,0.0,0,2,0,1,1,1,60,0,0,0,0,0,0,0,0,0,0,0,0,0,0,0,0,0,0,0
23056000,4000.0,0.13333982,3607.5698,0.0,1397,0,0.0,0,0,0,0,0,0.0,0,2,0,1,1,1,60,0,0,0,0,0,0,0,0,0,0,0,0,0,0,0,0,0,0,0
23312000,4000.0,0.13333982,3609.5618,0.0,1415,0,0.0,0,0,0,0,0,0.0,0,2,0,1,1,1,60,0,0,0,0,0,0,0,0,0,0,0,0,0,0,0,0,0,0,0
24568000,4000.0,0.13333982,4179.283,0.0,1507,0,0.0,0,0,0,0,0,0.0,0,2,0,1,1,1,60,0,0,0,0,0,0,0,0,0,0,0,0,0,0,0,0,0,0,0
25820000,4000.0,0.13333982,3552.789,0.0,1607,0,0.0,0,0,0,0,0,0.0,0,2,0,1,1,1,60,0,0,0,0,0,0,0,0,0,0,0,0,0,0,0,0,0,0,0
27072000,4000.0,0.13333982,3998.008,0.0,1688,0,0.0,0,0,0,0,0,0.0,0,2,0,1,1,1,60,0,0,0,0,0,0,0,0,0,0,0,0,0,0,0,0,0,0,0
28072000,4000.0,0.13333982,4061.7532,0.0,1765,0,0.0,0,0,0,0,0,0.0,0,2,0,1,1,1,60,0,0,0,0,0,0,0,0,0,0,0,0,0,0,0,0,0,0,0
28332000,4000.0,0.13333982,3594.6216,0.0,1782,0,0.0,0,0,0,0,0,0.0,0,2,0,1,1,1,60,0,0,0,0,0,0,0,0,0,0,0,0,0,0,0,0,0,0,0
29588000,4000.0,0.13333982,3750.0,0.0,1875,0,0.0,0,0,0,0,0,0.0,0,2,0,1,1,1,60,0,0,0,0,0,0,0,0,0,0,0,0,0,0,0,0,0,0,0
30848000,4000.0,0.13333982,4076.6934,0.0,1959,0,0.0,0,0,0,0,0,0.0,0,2,0,1,1,1,60,0,0,0,0,0,0,0,0,0,0,0,0,0,0,0,0,0,0,0
32104000,4000.0,0.13333982,3539.8408,0.0,2051,0,0.0,0,0,0,0,0,0.0,0,2,0,1,1,1,60,0,0,0,0,0,0,0,0,0,0,0,0,0,0,0,0,0,0,0
33104000,4000.0,0.13333982,3779.8806,0.0,2118,0,0.0,0,0,0,0,0,0.0,0,2,0,1,1,1,60,0,0,0,0,0,0,0,0,0,0,0,0,0,0,0,0,0,0,0
33364000,4000.0,0.13333982,4526.8926,0.0,2156,0,0.0,0,0,0,0,0,0.0,0,2,0,1,1,1,60,0,0,0,0,0,0,0,0,0,0,0,0,0,0,0,0,0,0,0
34620000,4000.0,0.13333982,3604.5818,0.0,2239,0,0.0,0,0,0,0,0,0.0,0,2,0,1,1,1,60,0,0,0,0,0,0,0,0,0,0,0,0,0,0,0,0,0,0,0
35872000,4000.0,0.13333982,3681.275,0.0,2329,0,0.0,0,0,0,0,0,0.0,0,2,0,1,1,1,60,0,0,0,0,0,0,0,0,0,0,0,0,0,0,0,0,0,0,0
37128000,4000.0,0.13333982,4097.61,0.0,2422,0,0.0,0,0,0,0,0,0.0,0,2,0,1,1,1,60,0,0,0,0,0,0,0,0,0,0,0,0,0,0,0,0,0,0,0
38128000,4000.0,0.13333982,3562.749,0.0,2489,0,0.0,0,0,0,0,0,0.0,0,2,0,1,1,1,60,0,0,0,0,0,0,0,0,0,0,0,0,0,0,0,0,0,0,0
38388000,4000.0,0.13333982,3723.1077,0.0,2507,0,0.0,0,0,0,0,0,0.0,0,2,0,1,1,1,60,0,0,0,0,0,0,0,0,0,0,0,0,0,0,0,0,0,0,0
39644000,4000.0,0.13333982,4095.6177,0.0,2600,0,0.0,0,0,0,0,0,0.0,0,2,0,1,1,1,60,0,0,0,0,0,0,0,0,0,0,0,0,0,0,0,0,0,0,0
40900000,4000.0,0.13333982,3577.6895,0.0,2698,0,0.0,0,0,0,0,0,0.0,0,2,0,1,1,1,60,0,0,0,0,0,0,0,0,0,0,0,0,0,0,0,0,0,0,0
42156000,4000.0,0.13333982,3964.1436,0.0,2792,0,0.0,0,0,0,0,0,0.0,0,2,0,1,1,1,60,0,0,0,0,0,0,0,0,0,0,0,0,0,0,0,0,0,0,0
43156000,4000.0,0.13333982,4146.4146,0.0,2860,0,0.0,0,0,0,0,0,0.0,0,2,0,1,1,1,60,0,0,0,0,0,0,0,0,0,0,0,0,0,0,0,0,0,0,0
43408000,4000.0,0.13333982,3607.5698,0.0,2877,0,0.0,0,0,0,0,0,0.0,0,2,0,1,1,1,60,0,0,0,0,0,0,0,0,0,0,0,0,0,0,0,0,0,0,0
