timestamp,timestamp_sample,accel_device_id,gyro_device_id,delta_angle[0],delta_angle[1],delta_angle[2],delta_velocity[0],delta_velocity[1],delta_velocity[2],delta_angle_dt,delta_velocity_dt,delta_angle_clipping,delta_velocity_clipping,accel_calibration_count,gyro_calibration_count
3364000,3364000,1310988,1310988,-2.1305152e-06,-1.4913709e-05,-8.522113e-06,-0.0008092403,0.0008762786,-0.03960489,4000,4000,0,0,0,1
3864000,3864000,1310988,1310988,-6.3915745e-06,-1.8109504e-05,1.0652718e-06,-0.0008571242,0.0007613569,-0.03975812,4000,4000,0,0,0,1
4364000,4364000,1310988,1310988,-8.522125e-06,-2.9827406e-05,-6.391581e-06,-0.0007900867,0.0007565685,-0.039724596,4000,4000,0,0,0,1
4864000,4864000,1310988,1310988,-1.0652828e-06,-2.0240022e-05,1.0652641e-06,-0.0008810663,0.0007182613,-0.03969108,4000,4000,0,0,0,1
5364000,5364000,1310988,1310988,-1.2783176e-05,-3.0892676e-05,7.456841e-06,-0.00083797064,0.00086191343,-0.03963362,4000,4000,0,0,0,1
5864000,5864000,1310988,1310988,-1.0652566e-06,-2.982741e-05,-7.456847e-06,-0.00061770406,0.0008475482,-0.039782066,4000,4000,0,0,0,1
6364000,6364000,1310988,1310988,-2.1305218e-06,-1.3848439e-05,-1.0652634e-06,-0.00092416187,0.0007422033,-0.039700653,4000,4000,0,0,0,1
6864000,6864000,1310988,1310988,-5.32633e-06,-1.917476e-05,3.195786e-06,-0.0008044519,0.0008906438,-0.039724596,4000,4000,0,0,0,1
7364000,7364000,1310988,1310988,-3.1957925e-06,-1.3848443e-05,-6.391578e-06,-0.00077093294,0.00072783814,-0.039681505,4000,4000,0,0,0,1
7864000,7864000,1310988,1310988,6.391572e-06,-2.3435827e-05,-2.1305168e-06,-0.00080445193,0.0006512236,-0.039829947,4000,4000,0,0,0,1
8364000,8364000,1310988,1310988,-2.1305186e-06,-1.9174762e-05,-1.4913702e-05,-0.00080924033,0.00081402936,-0.03969108,4000,4000,0,0,0,1
8864000,8864000,1310988,1310988,2.130535e-06,-1.3848437e-05,-4.26106e-06,-0.00080445193,0.0007996642,-0.03980121,4000,4000,0,0,0,1
9364000,9364000,1310988,1310988,-4.261048e-06,-2.8762144e-05,-1.0652589e-06,-0.0007852982,0.0007038961,-0.039628834,4000,4000,0,0,0,1
9864000,9864000,1310988,1310988,3.195797e-06,-1.0652645e-05,-1.065257e-06,-0.0008044519,0.0006655888,-0.039796427,4000,4000,0,0,0,1
10364000,10364000,1310988,1310988,4.261062e-06,-2.556635e-05,-2.130525e-06,-0.00086191273,0.00078051054,-0.039528277,4000,4000,0,0,0,1
10864000,10864000,1310988,1310988,1.0652353e-06,-2.982741e-05,5.326315e-06,-0.00073741423,0.0007517801,-0.039724596,4000,4000,0,0,0,1
11364000,11364000,1310988,1310988,1.0652654e-05,-3.0892672e-05,-2.1304993e-06,-0.00064643443,0.00059855124,-0.039628834,4000,4000,0,0,0,1
11864000,11864000,1310988,1310988,2.1305354e-06,-2.0240024e-05,-9.587378e-06,-0.00084275904,0.0008427598,-0.039772477,4000,4000,0,0,0,1
12364000,12364000,1310988,1310988,-1.1717921e-05,-3.3023203e-05,1.2783163e-05,-0.00073262583,0.00067995413,-0.03969108,4000,4000,0,0,0,1
12864000,12864000,1310988,1310988,-3.1957925e-06,-2.343582e-05,-4.2610686e-06,-0.00073741423,0.0007182613,-0.03967672,4000,4000,0,0,0,1
13364000,13364000,1310988,1310988,-3.1957943e-06,-2.3435821e-05,-4.26106e-06,-0.00066079973,0.0006129164,-0.039662346,4000,4000,0,0,0,1
13864000,13864000,1310988,1310988,6.391583e-06,-2.4501087e-05,-6.3915877e-06,-0.00084275904,0.0006943192,-0.03973896,4000,4000,0,0,0,1
14364000,14364000,1310988,1310988,3.1957827e-06,-2.5566353e-05,-1.065257e-06,-0.0008092403,0.00058418605,-0.039762903,4000,4000,0,0,0,1
14864000,14864000,1310988,1310988,7.4568584e-06,-1.9174757e-05,-2.1305375e-06,-0.0009050083,0.0006751657,-0.03973896,4000,4000,0,0,0,1
15364000,15364000,1310988,1310988,4.261058e-06,-1.4913705e-05,1.171791e-05,-0.00068953016,0.00072783814,-0.039662346,4000,4000,0,0,0,1
15864000,15864000,1310988,1310988,-3.195801e-06,-2.7696877e-05,6.4198954e-12,-0.00058897375,0.0006751657,-0.03969108,4000,4000,0,0,0,1
16364000,16364000,1310988,1310988,3.1957823e-06,-2.450109e-05,-6.3915754e-06,-0.00062249246,0.0006416468,-0.03961925,4000,4000,0,0,0,1
16864000,16864000,1310988,1310988,-1.0652666e-06,-2.6631613e-05,1.0652761e-06,-0.00071347214,0.0006703773,-0.039580945,4000,4000,0,0,0,1
17364000,17364000,1310988,1310988,0.0004324975,0.00011185251,1.0654732e-06,-0.00069431856,0.00073262653,-0.04135266,4000,4000,0,0,0,1
17864000,17864000,1310988,1310988,-0.00080853596,-0.00095128105,5.326361e-06,-0.0003351883,0.00039743827,-0.04324408,4000,4000,0,0,0,1
18364000,18364000,1310988,1310988,-0.00019600861,-0.00014274556,-1.4913653e-05,-0.00051235914,0.00047405268,-0.039149992,4000,4000,0,0,0,1
18864000,18864000,1310988,1310988,-1.4913706e-05,-5.326316e-06,-3.1957984e-06,-0.00067995343,0.0004836295,-0.04002627,4000,4000,0,0,0,1
19364000,19364000,1310988,1310988,4.6871646e-05,2.6631604e-05,-5.3263375e-06,-0.0005410897,0.00062249316,-0.039671928,4000,4000,0,0,0,1
19864000,19864000,1310988,1310988,6.0720082e-05,2.9827417e-05,-8.5220945e-06,-0.0006799534,0.0007805105,-0.03931758,4000,4000,0,0,0,1
20364000,20364000,1310988,1310988,1.5978969e-05,3.1957861e-06,-6.3915895e-06,-0.00064164604,0.00084275973,-0.039226606,4000,4000,0,0,0,1
20864000,20864000,1310988,1310988,-1.1717965e-05,-4.7936894e-05,1.065232e-06,-0.00092416187,0.0007900873,-0.034581855,4000,4000,0,0,0,1
21364000,21364000,1310988,1310988,1.0652648e-05,2.8762142e-05,1.0652457e-06,-0.00071826053,0.0008667018,-0.040562566,4000,4000,0,0,0,1
21864000,21864000,1310988,1310988,-7.45685e-06,-4.474112e-05,1.2783158e-05,-0.0009002199,0.0007996642,-0.039432503,4000,4000,0,0,0,1
22364000,22364000,1310988,1310988,1.38484465e-05,-3.515375e-05,-2.237053e-05,-0.00059855054,0.0008427598,-0.039499544,4000,4000,0,0,0,1
22864000,22864000,1310988,1310988,-6.3915886e-06,1.7044234e-05,-2.1305327e-06,-0.0007517794,0.0005746092,-0.039389405,4000,4000,0,0,0,1
23364000,23364000,1310988,1310988,8.522117e-06,-4.5806377e-05,-7.4568575e-06,-0.00071347214,0.00062249316,-0.03948997,4000,4000,0,0,0,1
23864000,23864000,1310988,1310988,-1.597897e-05,-3.4088473e-05,-1.06526295e-05,-0.00064643443,0.0006751657,-0.03963841,4000,4000,0,0,0,1
24364000,24364000,1310988,1310988,-5.4328488e-05,-6.498114e-05,-2.0239999e-05,-0.00058897375,0.0005937628,-0.03921703,4000,4000,0,0,0,1
24864000,24864000,1310988,1310988,-1.7044247e-05,-4.048004e-05,4.261063e-06,-0.00077572133,0.00063206995,-0.0395187,4000,4000,0,0,0,1
25364000,25364000,1310988,1310988,9.587385e-06,-1.8109498e-05,7.4568497e-06,-0.00069910695,0.00072304974,-0.039667144,4000,4000,0,0,0,1
25864000,25864000,1310988,1310988,2.130526e-06,-9.587387e-06,-6.3915804e-06,-0.00058418536,0.0007086845,-0.039571367,4000,4000,0,0,0,1
26364000,26364000,1310988,1310988,2.982741e-05,-1.4913699e-05,3.1958054e-06,-0.00084754743,0.0007134729,-0.039451662,4000,4000,0,0,0,1
26864000,26864000,1310988,1310988,-1.7044236e-05,2.343582e-05,-1.0652685e-06,-0.0007852981,0.00069431926,-0.03933674,4000,4000,0,0,0,1
27364000,27364000,1310988,1310988,-1.5978963e-05,-1.8109504e-05,9.4242e-12,-0.0007996635,0.0007565685,-0.039595313,4000,4000,0,0,0,1
27864000,27864000,1310988,1310988,-1.278314e-05,-2.2370585e-05,-1.9174751e-05,-0.0008092403,0.00076614524,-0.03974376,4000,4000,0,0,0,1
28364000,28364000,1310988,1310988,9.587383e-06,-4.900217e-05,-1.0652896e-06,-0.000746991,0.0006655888,-0.0395187,4000,4000,0,0,0,1
28864000,28864000,1310988,1310988,2.6631631e-05,-3.834951e-05,8.52211e-06,-0.00065601134,0.00069910765,-0.039442085,4000,4000,0,0,0,1
29364000,29364000,1310988,1310988,9.5873565e-06,-3.1957945e-05,1.0652641e-05,-0.0008858547,0.00074220326,-0.03923139,4000,4000,0,0,0,1
29864000,29864000,1310988,1310988,-3.195795e-05,-7.776431e-05,5.326333e-06,-0.0007613562,0.00078051037,-0.034136534,4000,4000,0,0,0,1
30364000,30364000,1310988,1310988,9.587378e-06,4.4741115e-05,3.1957907e-06,-0.0008236055,0.0007134729,-0.039997537,4000,4000,0,0,0,1
30864000,30864000,1310988,1310988,3.1957918e-06,4.9302484e-13,4.26106e-06,-0.00073741423,0.0006655888,-0.0391883,4000,4000,0,0,0,1
31364000,31364000,1310988,1310988,2.024003e-05,-2.2370554e-05,-3.195785e-06,-0.00089543156,0.00068953086,-0.039461236,4000,4000,0,0,0,1
31864000,31864000,1310988,1310988,-5.326364e-06,-3.408845e-05,1.2783206e-05,-0.0008906431,0.00048841786,-0.039585732,4000,4000,0,0,0,1
32364000,32364000,1310988,1310988,2.1305443e-06,-3.6218997e-05,-3.195812e-06,-0.00077572133,0.0005793976,-0.03940857,4000,4000,0,0,0,1
32864000,32864000,1310988,1310988,-4.261062e-06,4.26106e-06,-4.2610536e-06,-0.0007948751,0.0005698208,-0.03935589,4000,4000,0,0,0,1
33364000,33364000,1310988,1310988,-1.0652634e-05,-1.8109506e-05,-5.32633e-06,-0.0008331823,0.0005506671,-0.03946602,4000,4000,0,0,0,1
33864000,33864000,1310988,1310988,-7.350325e-05,7.4568643e-06,2.1304857e-06,-0.000746991,0.0004836295,-0.040016692,4000,4000,0,0,0,1
34364000,34364000,1310988,1310988,-5.5393753e-05,3.903544e-11,-4.261063e-06,-0.00070868374,0.00064164674,-0.035975274,4000,4000,0,0,0,1
34864000,34864000,1310988,1310988,-3.5153727e-05,1.0652443e-06,-6.391621e-06,-0.0007517794,0.0006512235,-0.0363392,4000,4000,0,0,0,1
35364000,35364000,1310988,1310988,-2.343582e-05,-5.3263266e-06,-1.1440847e-11,-0.0007422026,0.00070868444,-0.038091753,4000,4000,0,0,0,1
35864000,35864000,1310988,1310988,1.065268e-06,-2.9827408e-05,-4.261061e-06,-0.0008140287,0.00074699166,-0.039111685,4000,4000,0,0,0,1
36364000,36364000,1310988,1310988,1.0652473e-06,-1.9174762e-05,-3.19579e-06,-0.00069910695,0.0007517801,-0.03947081,4000,4000,0,0,0,1
36864000,36864000,1310988,1310988,-9.587392e-06,-2.6631618e-05,9.5873565e-06,-0.0007422026,0.0006368584,-0.039494753,4000,4000,0,0,0,1
37364000,37364000,1310988,1310988,-9.587385e-06,-2.5566354e-05,9.5873675e-06,-0.0008858547,0.0006751657,-0.0396432,4000,4000,0,0,0,1
37864000,37864000,1310988,1310988,7.1869954e-12,-2.4501083e-05,-7.456857e-06,-0.0007613562,0.0006608005,-0.039432503,4000,4000,0,0,0,1
38364000,38364000,1310988,1310988,-4.2610554e-06,-1.917476e-05,1.7821954e-11,-0.0008092403,0.0006368584,-0.03942293,4000,4000,0,0,0,1
38864000,38864000,1310988,1310988,-9.587391e-06,-2.024002e-05,-9.5873775e-06,-0.00072304904,0.0005650324,-0.03937026,4000,4000,0,0,0,1
39364000,39364000,1310988,1310988,1.0652499e-06,-2.7696877e-05,1.2783177e-05,-0.0008236055,0.0006129164,-0.039389405,4000,4000,0,0,0,1
39864000,39864000,1310988,1310988,-5.3263e-06,-2.4501092e-05,-1.1717904e-05,-0.000746991,0.0007086845,-0.039475597,4000,4000,0,0,0,1
40364000,40364000,1310988,1310988,-1.06526495e-05,-2.1305292e-05,5.326304e-06,-0.0008283939,0.00053151353,-0.039351102,4000,4000,0,0,0,1
40864000,40864000,1310988,1310988,-2.1305455e-06,-1.9174759e-05,4.2610604e-06,-0.0010055647,0.0006608005,-0.039480392,4000,4000,0,0,0,1
41364000,41364000,1310988,1310988,-5.3263307e-06,-8.52212e-06,1.1717905e-05,-0.00064164604,0.0006129164,-0.039288856,4000,4000,0,0,0,1
41864000,41864000,1310988,1310988,-1.1717925e-05,-2.4501076e-05,5.326331e-06,-0.00077093294,0.00072783814,-0.03933674,4000,4000,0,0,0,1
42364000,42364000,1310988,1310988,3.1957914e-06,-1.3848437e-05,-8.522119e-06,-0.0007517794,0.0006991076,-0.0391883,4000,4000,0,0,0,1
42864000,42864000,1310988,1310988,3.1957866e-06,-1.4913704e-05,4.2610645e-06,-0.0006703766,0.00047405268,-0.039341528,4000,4000,0,0,0,1
43364000,43364000,1310988,1310988,-7.4568466e-06,-1.704424e-05,8.52211e-06,-0.0007565678,0.00058897445,-0.039279275,4000,4000,0,0,0,1
43864000,43864000,1310988,1310988,6.391585e-06,-1.9174762e-05,-4.2610545e-06,-0.00064164604,0.0007182613,-0.039279275,4000,4000,0,0,0,1
