timestamp,timestamp_sample,time_last_fuse,device_id,observation[0],observation[1],observation_variance[0],observation_variance[1],innovation[0],innovation[1],innovation_variance[0],innovation_variance[1],test_ratio[0],test_ratio[1],estimator_instance,fusion_enabled,innovation_rejected,fused
3408000,3289167,0,0,0.0,0.0,1.0,1.0,5.3183605e-05,-5.4759068e-05,1.0001314,1.0001314,1.13124975e-10,1.1992647e-10,3,1,0,0
3808000,3689496,0,0,0.0,0.0,1.0,1.0,0.00010196937,1.3162312e-05,1.0000918,1.0000918,4.1587192e-10,6.9292224e-12,3,1,0,0
4208000,4089695,0,0,0.0,0.0,1.0,1.0,0.0004083743,-0.0002638875,1.0005435,1.0005435,6.6671593e-09,2.7839513e-09,3,1,0,0
4608000,4489816,0,0,0.0,0.0075268387,1.0,1.0,0.00044871678,-0.007924283,1.0003363,1.0003363,8.051162e-09,2.510926e-06,3,1,0,0
5008000,4889889,0,0,0.0,0.0075268387,1.0,1.0,9.576413e-05,-0.00825713,1.0002489,1.0002489,3.667395e-10,2.7265294e-06,3,1,0,0
5408000,5289933,0,0,0.0,0.0075268387,1.0,1.0,0.00021592194,-0.0076187127,1.0001898,1.0001898,1.8645376e-09,2.3213508e-06,3,1,0,0
5808000,5689960,0,0,0.0,0.0075268387,1.0,1.0,0.00013501152,-0.0072632753,1.0001527,1.0001527,7.2901307e-10,2.1098845e-06,3,1,0,0
6208000,6089976,0,0,0.0,0.0075268387,1.0,1.0,0.00010293901,-0.0075271246,1.0001287,1.0001287,4.2380302e-10,2.2660124e-06,3,1,0,0
6608000,6489986,0,0,0.0,0.0075268387,1.0,1.0,-0.0004674869,-0.007481466,1.0001118,1.0001118,8.740783e-09,2.238643e-06,3,1,0,0
7008000,6889991,0,0,0.0,0.0075268387,1.0,1.0,-0.00037707275,-0.007066878,1.0000992,1.0000992,5.6867906e-09,1.9974325e-06,3,1,0,0
7408000,7289995,0,0,0.0,0.0075268387,1.0,1.0,-8.858098e-06,-0.0066008684,1.000089,1.000089,3.138357e-12,1.7427034e-06,3,1,0,0
7808000,7689997,0,0,0.0,0.0075268387,1.0,1.0,0.00012302915,-0.00698598,1.0000808,1.0000808,6.05398e-10,1.9519991e-06,3,1,0,0
8208000,8089999,0,0,0.0,0.0075268387,1.0,1.0,-8.167727e-05,-0.0073289205,1.0000739,1.0000739,2.6682734e-10,2.1483643e-06,3,1,0,0
8608000,8489999,0,0,0.0,0.0075268387,1.0,1.0,-0.00015454636,-0.0074266936,1.0000685,1.0000685,9.553177e-10,2.20608e-06,3,1,0,0
9008000,8890000,0,0,0.0,0.0075268387,1.0,1.0,0.0001150989,-0.0072776913,1.0000632,1.0000632,5.2987675e-10,2.1184578e-06,3,1,0,0
9408000,9290000,0,0,0.0,0.0075268387,1.0,1.0,0.0008609863,-0.00669221,1.000148,1.000148,2.9647506e-08,1.7911618e-06,3,1,0,0
9808000,9690000,0,0,0.0,0.0075268387,1.0,1.0,0.00092844176,-0.006755631,1.0001361,1.0001361,3.4475473e-08,1.8252936e-06,3,1,0,0
10208000,10090000,0,0,0.0,0.015053677,1.0,1.0,0.00044575616,-0.014642583,1.0001254,1.0001254,7.946945e-09,8.575134e-06,3,1,0,0
10608000,10490000,0,0,0.0,0.0075268387,1.0,1.0,-0.000237268,-0.0077858167,1.0001159,1.0001159,2.2515834e-09,2.4244766e-06,3,1,0,0
11008000,10890000,0,0,0.0,0.0075268387,1.0,1.0,-0.00010900482,-0.008120871,1.0001072,1.0001072,4.752311e-10,2.637659e-06,3,1,0,0
11408000,11290000,0,0,0.0,0.0075268387,1.0,1.0,-0.0004154608,-0.008255207,1.0000993,1.0000992,6.9036212e-09,2.7256674e-06,3,1,0,0
11808000,11690000,0,0,-0.011119492,0.0075268387,1.0,1.0,0.010540324,-0.008278011,1.000092,1.000092,4.4435287e-06,2.7407666e-06,3,1,0,0
12208000,12090000,0,0,0.0,0.0075268387,1.0,1.0,-0.00070128683,-0.0077504977,1.0000855,1.0000855,1.9670448e-08,2.4026033e-06,3,1,0,0
12608000,12490000,0,0,0.0,0.0075268387,1.0,1.0,-0.0003884864,-0.0075492356,1.0000795,1.0000795,6.0363874e-09,2.279457e-06,3,1,0,0
13008000,12890000,0,0,0.0,0.0075268387,1.0,1.0,1.5159693e-05,-0.006860179,1.0000739,1.0000739,9.191973e-12,1.882343e-06,3,1,0,0
13408000,13290000,0,0,0.0,0.0075268387,1.0,1.0,0.00013526672,-0.0069198445,1.0000689,1.0000689,7.31833e-10,1.915238e-06,3,1,0,0
13808000,13690000,0,0,0.0,0.015053677,1.0,1.0,0.0004043119,-0.014637665,1.0000647,1.0000647,6.5383015e-09,8.569895e-06,3,1,0,0
14208000,14090000,0,0,0.0,0.0,1.0,1.0,0.00021083248,1.6739463e-05,1.0000604,1.0000604,1.7779059e-09,1.1207707e-11,3,1,0,0
14608000,14490000,0,0,0.0,0.0075268387,1.0,1.0,0.0005007475,-0.007946611,1.0001354,1.0001354,1.00285655e-08,2.5256033e-06,3,1,0,0
15008000,14890000,0,0,0.0,0.0075268387,1.0,1.0,0.0013406313,-0.008047123,1.000515,1.000515,7.1854686e-08,2.5889146e-06,3,1,0,0
15408000,15290000,0,0,0.0,0.0075268387,1.0,1.0,0.0027052776,-0.00811416,1.0057105,1.0057107,2.910789e-07,2.6186294e-06,3,1,0,0
15808000,15690000,0,0,0.0,0.0,1.0,1.0,0.0048674825,-0.000814619,1.0285107,1.0285134,9.21425e-07,2.5808282e-08,3,1,0,0
16208000,16090000,0,0,0.0,0.0,1.0,1.0,0.0071054804,-0.001887318,1.0908955,1.0909054,1.8512442e-06,1.3060597e-07,3,1,0,0
16608000,16490000,0,0,0.0,0.0075268387,1.0,1.0,0.009803889,-0.011461194,1.2235522,1.2235804,3.1422032e-06,4.294249e-06,3,1,0,0
17008000,16886000,0,0,0.0,0.0075268387,1.0,1.0,0.01218984,-0.014598584,1.4644204,1.4644918,4.0587306e-06,5.820958e-06,3,1,0,0
17408000,17290000,0,0,0.0,0.0075268387,1.0,1.0,0.014281044,-0.018761158,1.8550674,1.8552377,4.397645e-06,7.5889157e-06,3,1,0,0
17808000,17690000,0,0,-0.011119492,0.0,1.0,1.0,0.016966874,-0.0014360782,2.435507,2.4359007,4.727965e-06,3.386543e-08,3,1,0,0
18208000,18090000,0,0,-0.08895594,-0.06774155,1.0,1.0,0.030768711,0.13079748,3.233812,3.234657,1.1710187e-05,0.00021155851,3,1,0,0
18608000,18490000,0,0,-0.1667924,-0.14300995,1.0,1.0,0.05527386,0.25867224,4.2424493,4.243959,2.8805998e-05,0.00063065,3,1,0,0
19008000,18890000,0,0,-0.20015086,-0.1731173,1.0,1.0,0.069277406,0.29989302,5.4050207,5.4073834,3.5517784e-05,0.00066528167,3,1,0,0
19408000,19290000,0,0,-0.20015086,-0.18817097,1.0,1.0,0.08617687,0.2849404,6.629134,6.6323857,4.4811e-05,0.0004896641,3,1,0,0
19808000,19690000,0,0,-0.17791188,-0.1731173,1.0,1.0,0.099087104,0.21861625,8.301165,8.305775,4.731025e-05,0.00023016789,3,1,0,0
20208000,20090000,0,0,-0.14455341,-0.14300995,1.0,1.0,0.122594304,0.120844,9.497001,9.502236,6.3301515e-05,6.147299e-05,3,1,0,0
20608000,20490000,0,0,-0.11119492,-0.11290258,1.0,1.0,0.14352487,0.033851556,10.460389,10.465945,7.8771016e-05,4.3796445e-06,3,1,0,0
21008000,20890000,0,0,-0.07783645,-0.07526839,1.0,1.0,0.15561289,-0.04659546,11.150706,11.156265,8.686578e-05,7.784459e-06,3,1,0,0
21408000,21290000,0,0,-0.05559746,-0.037634194,1.0,1.0,0.16317113,-0.10806164,11.57117,11.576447,9.203847e-05,4.0348543e-05,3,1,0,0
21808000,21690000,0,0,-0.033358477,-0.0075268387,1.0,1.0,0.1584383,-0.14977688,11.771697,11.776577,8.5298474e-05,7.61957e-05,3,1,0,0
22208000,22090000,0,0,-0.011119492,0.0075268387,1.0,1.0,0.14186841,-0.16937019,11.798553,11.802931,6.823429e-05,9.721742e-05,3,1,0,0
22608000,22490000,0,0,0.0,0.022580516,1.0,1.0,0.12700209,-0.18539381,11.697685,11.701464,5.5154607e-05,0.000117492535,3,1,0,0
23008000,22890000,0,0,0.0,0.030107355,1.0,1.0,0.117278315,-0.19076432,11.508762,11.511953,4.7804282e-05,0.00012644606,3,1,0,0
23408000,23290000,0,0,0.011119493,0.030107355,1.0,1.0,0.09225565,-0.18637876,11.263372,11.266013,3.022578e-05,0.00012333393,3,1,0,0
23808000,23690000,0,0,0.022238987,0.022580516,1.0,1.0,0.06493235,-0.17087692,10.984785,10.986915,1.5352907e-05,0.00010630436,3,1,0,0
24208000,24086000,0,0,0.011119493,0.0075268387,1.0,1.0,0.059711933,-0.14555165,10.689701,10.691398,1.334187e-05,7.926104e-05,3,1,0,0
24608000,24490000,0,0,0.011119493,-0.0075268387,1.0,1.0,0.043212738,-0.11955202,10.389836,10.391165,7.1891054e-06,5.5018612e-05,3,1,0,0
25008000,24890000,0,0,0.011119493,-0.015053677,1.0,1.0,0.036479197,-0.11600031,11.005752,11.006997,4.836496e-06,4.8900063e-05,3,1,0,0
25408000,25290000,0,0,0.0,-0.022580516,1.0,1.0,0.043342035,-0.10403791,10.663353,10.664305,7.046684e-06,4.0598567e-05,3,1,0,0
25808000,25690000,0,0,0.0,-0.030107355,1.0,1.0,0.04533685,-0.09466998,10.336203,10.336907,7.954294e-06,3.4681187e-05,3,1,0,0
26208000,26090000,0,0,-0.011119492,-0.022580516,1.0,1.0,0.061684743,-0.10196215,10.026424,10.026942,1.5179918e-05,4.147338e-05,3,1,0,0
26608000,26490000,0,0,-0.011119492,-0.015053677,1.0,1.0,0.06894554,-0.11144805,9.735194,9.735559,1.9531148e-05,5.1032166e-05,3,1,0,0
27008000,26890000,0,0,0.0,0.0,1.0,1.0,0.06571629,-0.12888603,9.463034,9.463286,1.8254741e-05,7.021496e-05,3,1,0,0
27408000,27290000,0,0,0.0,0.0075268387,1.0,1.0,0.0715287,-0.1385311,9.210043,9.210194,2.2220765e-05,8.33462e-05,3,1,0,0
27808000,27690000,0,0,0.011119493,0.0075268387,1.0,1.0,0.06274066,-0.14043204,8.976067,8.976132,1.7541715e-05,8.788266e-05,3,1,0,0
28208000,28090000,0,0,0.011119493,0.015053677,1.0,1.0,0.06074571,-0.14950001,8.760675,8.76067,1.6848204e-05,0.00010204815,3,1,0,0
28608000,28490000,0,0,0.011119493,0.022580516,1.0,1.0,0.05423919,-0.15700562,8.563349,8.563278,1.3741773e-05,0.000115146395,3,1,0,0
29008000,28890000,0,0,0.011119493,0.022580516,1.0,1.0,0.045122553,-0.1556875,8.38349,8.38336,9.714546e-06,0.00011565098,3,1,0,0
29408000,29290000,0,0,0.022238987,0.022580516,1.0,1.0,0.025435982,-0.15311939,8.220565,8.220383,3.1481497e-06,0.00011408494,3,1,0,0
29808000,29690000,0,0,0.03335848,0.022580516,1.0,1.0,0.005664453,-0.149417,8.072956,8.072729,1.5898031e-07,0.00011062153,3,1,0,0
30208000,30090000,0,0,0.03335848,0.022580516,1.0,1.0,-0.0023802891,-0.15418074,8.455774,8.455471,2.6801928e-08,0.00011245594,3,1,0,0
30608000,30490000,0,0,0.04447797,0.037634194,1.0,1.0,-0.020129384,-0.16818918,8.320813,8.320469,1.9478487e-06,0.00013599041,3,1,0,0
31008000,30890000,0,0,0.055597465,0.05268787,1.0,1.0,-0.039512873,-0.18145105,8.203987,8.2036085,7.612236e-06,0.0001605366,3,1,0,0
31408000,31290000,0,0,0.055597465,0.06021471,1.0,1.0,-0.050189056,-0.18584037,8.104019,8.103606,1.2433046e-05,0.00017047542,3,1,0,0
31808000,31690000,0,0,0.055597465,0.06774155,1.0,1.0,-0.064556316,-0.18944626,8.020184,8.019743,2.0785148e-05,0.00017900765,3,1,0,0
32208000,32090000,0,0,0.04447797,0.06774155,1.0,1.0,-0.0697384,-0.1845662,7.9515605,7.9510965,2.446536e-05,0.00017137098,3,1,0,0
32608000,32490000,0,0,0.03335848,0.07526839,1.0,1.0,-0.07744938,-0.1877356,7.897163,7.8966804,3.038259e-05,0.00017852896,3,1,0,0
33008000,32890000,0,0,0.03335848,0.07526839,1.0,1.0,-0.09750599,-0.18414775,7.855943,7.855444,4.840879e-05,0.00017267207,3,1,0,0
33408000,33290000,0,0,0.022238987,0.07526839,1.0,1.0,-0.10823049,-0.18179277,7.8267307,7.826222,5.98658e-05,0.00016891221,3,1,0,0
33808000,33690000,0,0,0.011119493,0.06774155,1.0,1.0,-0.11866714,-0.17965817,7.806906,7.806398,7.215094e-05,0.00016538773,3,1,0,0
34208000,34090000,0,0,3.5366154e-10,0.06774155,1.0,1.0,-0.1273449,-0.1883782,7.7985873,7.7980804,8.317776e-05,0.00018202607,3,1,0,0
34608000,34490000,0,0,-0.011119492,0.06774155,1.0,1.0,-0.13732564,-0.19408646,7.796312,7.7958155,9.6755146e-05,0.0001932809,3,1,0,0
35008000,34886000,0,0,-0.022238985,0.06021471,1.0,1.0,-0.14784776,-0.19225779,7.798365,7.7978883,0.000112120724,0.00018960547,3,1,0,0
35408000,35290000,0,0,-0.033358477,0.06021471,1.0,1.0,-0.17354214,-0.20990522,8.302208,8.301693,0.00014510295,0.00021229501,3,1,0,0
35808000,35690000,0,0,-0.033358477,0.052687872,1.0,1.0,-0.19920895,-0.2129575,8.31516,8.314683,0.0001909005,0.00021817259,3,1,0,0
36208000,36090000,0,0,-0.033358477,0.04516103,1.0,1.0,-0.2253252,-0.21893898,8.330923,8.330494,0.00024377345,0.00023016294,3,1,0,0
36608000,36490000,0,0,-0.022238987,0.04516103,1.0,1.0,-0.25186336,-0.23185611,8.355841,8.355452,0.00030366855,0.00025735176,3,1,0,0
37008000,36890000,0,0,-0.033358477,0.04516103,1.0,1.0,-0.25600776,-0.24145451,8.381231,8.380888,0.000312794,0.0002782535,3,1,0,0
37408000,37290000,0,0,-0.033358477,0.052687872,1.0,1.0,-0.27000403,-0.25575998,8.4056225,8.405323,0.00034692104,0.00031129402,3,1,0,0
37808000,37690000,0,0,-0.033358477,0.052687872,1.0,1.0,-0.28232142,-0.26012227,8.427729,8.427477,0.00037830067,0.00032115707,3,1,0,0
38208000,38090000,0,0,-0.033358477,0.052687872,1.0,1.0,-0.29330936,-0.26261765,8.4464245,8.44622,0.00040741678,0.00032662196,3,1,0,0
38608000,38490000,0,0,-0.033358477,0.04516103,1.0,1.0,-0.30266494,-0.25538647,8.460793,8.460634,0.00043308505,0.0003083563,3,1,0,0
39008000,38890000,0,0,-0.033358477,0.052687872,1.0,1.0,-0.31182712,-0.26272997,8.470129,8.4700165,0.00045919564,0.000325983,3,1,0,0
39408000,39290000,0,0,-0.033358477,0.052687872,1.0,1.0,-0.32006824,-0.26233727,8.4739065,8.473844,0.0004835724,0.00032486246,3,1,0,0
39808000,39690000,0,0,-0.033358477,0.052687872,1.0,1.0,-0.32770947,-0.2614875,8.471865,8.471848,0.00050705957,0.00032283735,3,1,0,0
40208000,40090000,0,0,-0.033358477,0.052687872,1.0,1.0,-0.33428508,-0.2598496,8.463854,8.463884,0.00052811176,0.00031910557,3,1,0,0
40608000,40490000,0,0,-0.033358477,0.04516103,1.0,1.0,-0.3707082,-0.266765,9.051591,9.051679,0.00060729467,0.00031447678,3,1,0,0
41008000,40890000,0,0,-0.033358477,0.052687872,1.0,1.0,-0.37787923,-0.27143422,9.032508,9.032654,0.0006323503,0.0003262675,3,1,0,0
41408000,41290000,0,0,-0.033358477,0.04516103,1.0,1.0,0.29049677,0.014629714,3.804618,3.804698,0.00088722043,2.2501501e-06,3,1,0,0
41808000,41690000,0,0,-0.033358477,0.04516103,1.0,1.0,0.032349538,-0.04492088,1.0003273,1.0003273,4.1846004e-05,8.0689e-05,3,1,0,0
42208000,42090000,0,0,-0.033358477,0.04516103,1.0,1.0,0.033638984,-0.044634204,1.0002272,1.0002272,4.5252968e-05,7.967038e-05,3,1,0,0
42608000,42490000,0,0,-0.033358477,0.052687872,1.0,1.0,0.033615753,-0.05242935,1.0001626,1.0001626,4.5193407e-05,0.00010993559,3,1,0,0
43008000,42890000,0,0,-0.033358477,0.04516103,1.0,1.0,0.033324055,-0.04489869,1.0001194,1.0001194,4.44144e-05,8.062606e-05,3,1,0,0
43408000,43290000,0,0,-0.033358477,0.052687872,1.0,1.0,0.033283263,-0.05267429,1.0000961,1.0000961,4.430677e-05,0.00011097258,3,1,0,0
43808000,43690000,0,0,-0.033358477,0.052687872,1.0,1.0,0.033630893,-0.05282784,1.0000829,1.0000829,4.5237728e-05,0.00011162197,3,1,0,0
