timestamp,timestamp_sample,ref_timestamp,ref_lat,ref_lon,x,y,z,delta_xy[0],delta_xy[1],delta_z,vx,vy,vz,z_deriv,delta_vxy[0],delta_vxy[1],delta_vz,ax,ay,az,heading,delta_heading,ref_alt,dist_bottom,eph,epv,evh,evv,vxy_max,vz_max,hagl_min,hagl_max,xy_valid,z_valid,v_xy_valid,v_z_valid,xy_reset_counter,z_reset_counter,vxy_reset_counter,vz_reset_counter,heading_reset_counter,heading_good_for_control,xy_global,z_global,dist_bottom_valid,dist_bottom_sensor_bitfield,dead_reckoning
3640000,3640000,0,nan,nan,0.0004707499,0.0009627667,-0.0065004257,-6.300118e-08,1.5656e-08,0.0,0.00096425344,0.0044846837,-0.02091315,-0.016104182,-1.0500196e-05,2.609333e-06,0.0017587617,0.008374699,0.018542137,0.020627862,1.6254101,0.005707331,nan,0.10674998,0.012923469,5.7735023,0.10261707,0.025002781,inf,inf,inf,inf,0,0,0,0,1,1,1,1,1,0,0,0,0,0,1
4136000,4136000,0,nan,nan,0.00032772147,0.0023645833,-0.034367066,-6.300118e-08,1.5656e-08,0.0,0.0013013218,0.008004375,-0.012502841,-0.03250027,-1.0500196e-05,2.609333e-06,0.0017587617,-0.010197399,0.011195282,-0.0052722166,1.6240861,0.005707331,nan,0.1,0.025993917,1.6517797,0.15816891,0.06164894,inf,inf,inf,inf,0,1,0,1,1,1,1,1,1,0,0,0,0,0,1
4640000,4640000,4204000,47.3977508,8.5456073,0.0006620439,0.0017879603,-0.044990506,-6.300118e-08,1.5656e-08,0.0,0.0038241805,0.0034906454,-0.01229577,-0.027509196,-1.0500196e-05,2.609333e-06,0.0017587617,0.009489275,-0.030749738,-0.03199931,1.623382,0.005707331,488.03983,0.11150387,0.013663527,0.9533756,0.0821368,0.08809243,inf,inf,inf,inf,0,1,0,1,1,1,1,1,1,0,1,1,0,0,1
5136000,5136000,4204000,47.3977508,8.5456073,0.001113825,-0.00033857222,-0.03755063,-6.300118e-08,1.5656e-08,0.0,0.0026241133,-0.00045792072,-0.010257429,-0.009383265,-1.0500196e-05,2.609333e-06,0.0017587617,0.039383374,-0.010526913,-0.012442469,1.6237859,0.005707331,488.03983,0.11019441,0.017258829,0.73936075,0.074026234,0.091072775,inf,inf,inf,inf,0,1,0,1,1,1,1,1,1,0,1,1,0,0,1
5640000,5640000,4204000,47.3977508,8.5456073,-0.0012820871,-0.0008572759,-0.03272067,-6.300118e-08,1.5656e-08,0.0,-0.004363558,-0.0010691133,-0.008710637,-0.001002125,-1.0500196e-05,2.609333e-06,0.0017587617,-0.001461667,-0.017691024,-0.024274921,1.6214539,0.005707331,488.03983,0.10790156,0.021086236,0.63698876,0.072006755,0.09530788,inf,inf,inf,inf,0,1,0,1,1,1,1,1,1,0,1,1,0,0,1
6136000,6136000,4204000,47.3977508,8.5456073,-0.0013639936,-0.00070555264,-0.027515959,-6.300118e-08,1.5656e-08,0.0,-0.0019420094,-0.0007413003,-0.008049656,0.003630503,-1.0500196e-05,2.609333e-06,0.0017587617,0.025475992,0.008763992,-0.008426606,1.6257163,0.005707331,488.03983,0.10506183,0.013368675,0.56866276,0.04823319,0.086455986,inf,inf,inf,inf,0,1,0,1,1,1,1,1,1,0,1,1,0,0,1
6640000,6640000,4204000,47.3977508,8.5456073,-0.0006766639,-0.0019546205,-0.022815054,-6.300118e-08,1.5656e-08,0.0,-0.0022845431,-0.0056005735,-0.0052336613,0.0073706987,-1.0500196e-05,2.609333e-06,0.0017587617,-0.015470649,-0.009888753,-0.024944542,1.6236639,0.005707331,488.03983,0.10166309,0.01647287,0.51467574,0.052084878,0.086411566,inf,inf,inf,inf,0,1,0,1,1,1,1,1,1,0,1,1,0,0,1
7136000,7136000,4204000,47.3977508,8.5456073,-0.0021671555,-0.0019365146,-0.02153618,-6.300118e-08,1.5656e-08,0.0,-0.008908042,-0.003479272,-0.00031566597,0.008699891,-1.0500196e-05,2.609333e-06,0.0017587617,-0.031327985,-0.0026975612,-0.0028209758,1.6284587,0.005707331,488.03983,0.1,0.011607197,0.47937712,0.040103726,0.085580915,inf,inf,inf,inf,0,1,0,1,1,1,1,1,1,0,1,1,0,0,1
7640000,7640000,4204000,47.3977508,8.5456073,-0.0031684772,-0.00026630622,-0.018704621,-6.300118e-08,1.5656e-08,0.0,-0.006214439,0.00039461223,0.0020007575,0.009001721,-1.0500196e-05,2.609333e-06,0.0017587617,0.009024835,0.0028155625,0.0065481286,1.6287265,0.005707331,488.03983,0.1,0.014152477,0.45031688,0.044125896,0.078433156,inf,inf,inf,inf,0,1,0,1,1,1,1,1,1,0,1,1,0,0,1
8136000,8136000,4204000,47.3977508,8.5456073,-0.0013520862,-2.0225882e-05,-0.017133506,-6.300118e-08,1.5656e-08,0.0,-0.0023837003,-0.0020163718,0.00046177165,0.005362806,-1.0500196e-05,2.609333e-06,0.0017587617,0.013113341,-0.0007541966,-0.0328673,1.6265922,0.005707331,488.03983,0.1,0.016903317,0.424894,0.047860827,0.07829159,inf,inf,inf,inf,0,1,0,1,1,1,1,1,1,0,1,1,0,0,1
8640000,8640000,4204000,47.3977508,8.5456073,-0.0005612626,0.007240827,-0.058859866,9.1231275e-05,0.0076847686,-0.04104034,-0.020601586,-0.00036205727,0.051416263,0.052299604,-0.019144647,0.00040193996,0.049837828,0.0033168907,0.02223064,0.0011660157,1.6254646,0.005707331,488.03983,0.1,1.4142787,0.9616282,0.4243414,0.4500355,inf,inf,inf,inf,1,1,1,1,2,2,2,2,1,0,1,1,0,0,0
9136000,9136000,4204000,47.3977508,8.5456073,-0.007920128,0.00837393,-0.039801896,9.1231275e-05,0.0076847686,-0.04104034,-0.018631756,0.0035605999,0.039048135,0.030405255,-0.019144647,0.00040193996,0.049837828,-0.052184418,-0.0041120797,-0.01345761,1.6249083,0.005707331,488.03983,0.1,1.0066307,0.612942,0.30080166,0.31709808,inf,inf,inf,inf,1,1,1,1,2,2,2,2,1,0,1,1,0,0,0
9640000,9640000,4204000,47.3977508,8.5456073,-0.0056838775,0.005530025,-0.045569345,9.1231275e-05,0.0076847686,-0.04104034,-0.013012782,0.0011109257,0.018799882,0.0015960264,-0.019144647,0.00040193996,0.049837828,-0.0036738345,0.009251525,-0.03628898,1.625109,0.005707331,488.03983,0.1,0.8327055,0.49690136,0.24882692,0.25718462,inf,inf,inf,inf,1,1,1,1,2,2,2,2,1,0,1,1,0,0,0
10136000,10136000,4204000,47.3977508,8.5456073,-0.00939725,0.0057724873,-0.051616553,9.1231275e-05,0.0076847686,-0.04104034,-0.01392147,0.0014538328,0.009705946,-0.008443847,-0.019144647,0.00040193996,0.049837828,0.0038198046,-0.009184776,-0.01506973,1.6257693,0.005707331,488.03983,0.1,0.7354708,0.447103,0.22264135,0.22109872,inf,inf,inf,inf,1,1,1,1,2,2,2,2,1,0,1,1,0,0,0
10640000,10640000,4204000,47.3977508,8.5456073,-0.005060837,0.011164748,-0.05111089,9.1231275e-05,0.0076847686,-0.04104034,-0.007583438,0.005123142,0.008327941,-0.0032878115,-0.019144647,0.00040193996,0.049837828,-0.001434484,0.007748676,0.03433693,1.6249596,0.005707331,488.03983,0.10112722,0.60497516,0.38226447,0.18848616,0.17711511,inf,inf,inf,inf,1,1,1,1,2,2,2,2,1,0,1,1,0,0,0
11136000,11136000,4204000,47.3977508,8.5456073,-0.001703378,0.010583788,-0.04333513,9.1231275e-05,0.0076847686,-0.04104034,-0.002196115,0.0042441282,0.017101001,0.011210495,-0.019144647,0.00040193996,0.049837828,0.006760121,0.0031359666,0.0607511,1.6245941,0.005707331,488.03983,0.1,0.5758495,0.37040114,0.18974666,0.16288802,inf,inf,inf,inf,1,1,1,1,2,2,2,2,1,0,1,1,0,0,0
11640000,11640000,4204000,47.3977508,8.5456073,0.003006275,0.0066530393,-0.036739256,9.1231275e-05,0.0076847686,-0.04104034,0.0038910452,-0.0005930326,0.025242375,0.018278211,-0.019144647,0.00040193996,0.049837828,-0.007442955,0.0102455225,0.0044051553,1.6243287,0.005707331,488.03983,0.1,0.55805194,0.36692652,0.19795926,0.15233779,inf,inf,inf,inf,1,1,1,1,2,2,2,2,1,0,1,1,0,0,0
12136000,12136000,4204000,47.3977508,8.5456073,0.003434265,0.0054038297,-0.033244066,9.1231275e-05,0.0076847686,-0.04104034,0.0041416204,-0.0030929358,0.025513353,0.013621293,-0.019144647,0.00040193996,0.049837828,0.0035581177,-0.005060457,-0.014971941,1.6242384,0.005707331,488.03983,0.1,0.54834926,0.36400566,0.20986398,0.14414597,inf,inf,inf,inf,1,1,1,1,2,2,2,2,1,0,1,1,0,0,0
12640000,12640000,4204000,47.3977508,8.5456073,0.0023341288,0.005806704,-0.032697335,9.1231275e-05,0.0076847686,-0.04104034,-5.5014796e-05,-0.00031876966,0.027239852,0.010141162,-0.019144647,0.00040193996,0.049837828,0.016914563,0.006196685,0.029122455,1.6238014,0.005707331,488.03983,0.1,0.4987961,0.3375557,0.19646907,0.12927823,inf,inf,inf,inf,1,1,1,1,2,2,2,2,1,0,1,1,0,0,0
13136000,13136000,4204000,47.3977508,8.5456073,-0.0011300951,0.009109399,-0.0364687,9.1231275e-05,0.0076847686,-0.04104034,-0.0037509317,0.0018047207,0.026366016,0.0036605736,-0.019144647,0.00040193996,0.049837828,0.012703109,-0.0061160387,0.013090669,1.6228447,0.005707331,488.03983,0.1,0.49964067,0.3384133,0.20743322,0.1259807,inf,inf,inf,inf,1,1,1,1,2,2,2,2,1,0,1,1,0,0,0
13640000,13640000,4204000,47.3977508,8.5456073,-0.007072253,0.0104199415,-0.03501492,9.1231275e-05,0.0076847686,-0.04104034,-0.009068465,0.0054850443,0.026168026,0.0031719485,-0.019144647,0.00040193996,0.049837828,0.03621052,-0.00052554236,0.03951322,1.6227475,0.005707331,488.03983,0.1,0.5054455,0.34215647,0.21811254,0.12442993,inf,inf,inf,inf,1,1,1,1,2,2,2,2,1,0,1,1,0,0,0
14136000,14136000,4204000,47.3977508,8.5456073,-0.0146356635,0.011453975,-0.036311265,9.1231275e-05,0.0076847686,-0.04104034,-0.011360912,0.0053342157,0.025773365,0.0014045881,-0.019144647,0.00040193996,0.049837828,-0.0056634014,0.024115084,0.0066924836,1.62194,0.005707331,488.03983,0.1,0.51379144,0.34581497,0.2267484,0.12387016,inf,inf,inf,inf,1,1,1,1,2,2,2,2,1,0,1,1,0,0,0
14640000,14640000,4204000,47.3977508,8.5456073,-0.010614841,0.010543144,-0.03331875,9.1231275e-05,0.0076847686,-0.04104034,-0.006913848,0.007924269,0.024832461,0.0030319353,-0.019144647,0.00040193996,0.049837828,-0.013862837,0.026927736,-0.015566125,1.6209548,0.005707331,488.03983,0.1,0.47499165,0.3245156,0.20254603,0.11665777,inf,inf,inf,inf,1,1,1,1,2,2,2,2,1,0,1,1,0,0,0
15136000,15136000,4204000,47.3977508,8.5456073,-0.001604402,0.0069659115,-0.033958465,9.1231275e-05,0.0076847686,-0.04104034,-0.0018265208,0.0041400273,0.024903033,0.001606127,-0.019144647,0.00040193996,0.049837828,-0.0038574215,-0.015076497,0.019144265,1.6203429,0.005707331,488.03983,0.102404736,0.48421893,0.3290592,0.20797686,0.11778186,inf,inf,inf,inf,1,1,1,1,2,2,2,2,1,0,1,1,0,0,0
15640000,15640000,4204000,47.3977508,8.5456073,0.0026227997,0.0042880843,-0.035290647,9.1231275e-05,0.0076847686,-0.04104034,0.0012534056,0.0021935466,0.026439331,0.0015227853,-0.019144647,0.00040193996,0.049837828,-0.018505553,-0.01936093,0.035346482,1.6191802,0.005707331,488.03983,0.10373692,0.4959853,0.33327138,0.21315187,0.11924361,inf,inf,inf,inf,1,1,1,1,2,2,2,2,1,0,1,1,0,0,0
16136000,16136000,4204000,47.3977508,8.5456073,0.0022490164,0.0024813458,-0.034123227,9.1231275e-05,0.0076847686,-0.04104034,0.0025212648,0.0028019906,0.027705956,0.0034652348,-0.019144647,0.00040193996,0.049837828,-0.0063420297,0.015032492,0.03454275,1.618497,0.005707331,488.03983,0.1025695,0.5079893,0.33882505,0.21710072,0.121059746,inf,inf,inf,inf,1,1,1,1,2,2,2,2,1,0,1,1,0,0,0
16640000,16640000,4204000,47.3977508,8.5456073,0.0028526464,0.005888873,-0.032802433,9.1231275e-05,0.0076847686,-0.04104034,0.005847432,0.0044176006,0.031543072,0.00685965,-0.019144647,0.00040193996,0.049837828,-0.019617304,-0.015929952,0.01955591,1.6175951,0.005707331,488.03983,0.101248704,0.47037107,0.3202026,0.19265805,0.11562614,inf,inf,inf,inf,1,1,1,1,2,2,2,2,1,0,1,1,0,0,0
17136000,17136000,4204000,47.3977508,8.5456073,0.0031509781,0.006614654,-0.030783413,9.1231275e-05,0.0076847686,-0.04104034,0.008489663,0.0042071603,0.03382749,0.008088716,-0.019144647,0.00040193996,0.049837828,0.030586284,0.037656732,0.024404375,1.6169913,0.005707331,488.03983,0.10001057,0.4812261,0.3262348,0.19604105,0.11766613,inf,inf,inf,inf,1,1,1,1,2,2,2,2,1,0,1,1,0,0,0
17640000,17640000,4204000,47.3977508,8.5456073,-0.002387775,0.0033411423,-0.0521282,9.1231275e-05,0.0076847686,-0.04104034,-0.054416914,-0.047787108,-0.11886188,-0.14292139,-0.019144647,0.00040193996,0.049837828,-0.54912835,-0.5431157,-0.5294289,1.6218723,0.005707331,488.03983,0.12501252,0.49378505,0.3319862,0.20042652,0.11966541,inf,inf,inf,inf,1,1,1,1,2,2,2,2,1,0,1,1,0,0,0
18136000,18136000,4204000,47.3977508,8.5456073,-0.077982105,-0.06859127,-0.22167134,9.1231275e-05,0.0076847686,-0.04104034,-0.17097445,-0.17608544,-0.53220344,-0.55702835,-0.019144647,0.00040193996,0.049837828,0.095226295,0.12961915,-0.6878953,1.6217079,0.005707331,488.03983,0.29455566,0.5060743,0.33728138,0.20593944,0.12138916,inf,inf,inf,inf,1,1,1,1,2,2,2,2,1,0,1,1,0,0,0
18640000,18640000,4204000,47.3977508,8.5456073,-0.16247253,-0.14413312,-0.5157689,9.1231275e-05,0.0076847686,-0.04104034,-0.08811798,-0.097362824,-0.5864216,-0.6085163,-0.019144647,0.00040193996,0.049837828,0.22979642,0.2704194,-0.15013012,1.6206074,0.005707331,488.03983,0.5886532,0.46930385,0.32082778,0.18395609,0.11600814,inf,inf,inf,inf,1,1,1,1,2,2,2,2,1,0,1,1,0,0,0
19136000,19136000,4204000,47.3977508,8.5456073,-0.19778262,-0.17880388,-0.8368479,9.1231275e-05,0.0076847686,-0.04104034,0.015880601,0.001161153,-0.64009875,-0.66484797,-0.019144647,0.00040193996,0.049837828,0.21551405,0.22103432,-0.042657364,1.6191955,0.005707331,488.03983,0.9097322,0.48020136,0.32745552,0.1869756,0.117877886,inf,inf,inf,inf,1,1,1,1,2,2,2,2,1,0,1,1,0,0,0
19640000,19640000,4204000,47.3977508,8.5456073,-0.18364882,-0.17392385,-1.1760353,9.1231275e-05,0.0076847686,-0.04104034,0.087674156,0.07142953,-0.63943315,-0.66583407,-0.019144647,0.00040193996,0.049837828,0.10609983,0.1034464,0.093755305,1.618399,0.005707331,488.03983,1.2489196,0.49248412,0.333418,0.19023524,0.11957357,inf,inf,inf,inf,1,1,1,1,2,2,2,2,1,0,1,1,0,0,0
20136000,20136000,4204000,47.3977508,8.5456073,-0.13328247,-0.14609687,-1.5053294,9.1231275e-05,0.0076847686,-0.04104034,0.112198524,0.10221158,-0.598432,-0.63019377,-0.019144647,0.00040193996,0.049837828,0.012609423,0.06718175,0.11478643,1.6180087,0.005707331,488.03983,1.5782137,0.50416964,0.34028152,0.19289504,0.12130864,inf,inf,inf,inf,1,1,1,1,2,2,2,2,1,0,1,1,0,0,0
20640000,20640000,4204000,47.3977508,8.5456073,-0.094861895,-0.105698906,-1.8109711,9.1231275e-05,0.0076847686,-0.04104034,0.09540901,0.099997215,-0.5196812,-0.5552285,-0.019144647,0.00040193996,0.049837828,-0.05194674,-0.01879339,0.31385756,1.6118878,-0.007138686,488.03983,1.8838555,0.46934763,0.32174334,0.19510819,0.115290806,inf,inf,inf,inf,1,1,1,1,2,2,2,2,2,0,1,1,0,0,0
21136000,21136000,4204000,47.3977508,8.5456073,-0.06089665,-0.071332954,-1.9932271,9.1231275e-05,0.0076847686,-0.04104034,0.06885763,0.07812611,-0.12669297,-0.16822456,-0.019144647,0.00040193996,0.049837828,-0.0440776,-0.059501424,0.26658174,1.6142124,-0.007138686,488.03983,2.0661113,0.47861728,0.32817662,0.26927906,0.11700162,inf,inf,inf,inf,1,1,1,1,2,2,2,2,2,0,1,1,0,0,0
21640000,21640000,4204000,47.3977508,8.5456073,-0.039278958,-0.034380857,-2.090272,9.1231275e-05,0.0076847686,-0.04104034,0.044183716,0.0593451,-0.17049718,-0.21261425,-0.019144647,0.00040193996,0.049837828,-0.016024642,-0.032726366,0.01766905,1.6140856,-0.007138686,488.03983,2.1631563,0.49102026,0.33544415,0.3217883,0.118920185,inf,inf,inf,inf,1,1,1,1,2,2,2,2,2,1,1,1,0,0,0
22136000,22136000,4204000,47.3977508,8.5456073,-0.027943695,-0.0076022446,-2.1843474,9.1231275e-05,0.0076847686,-0.04104034,0.0268968,0.034655172,-0.14189573,-0.17923272,-0.019144647,0.00040193996,0.049837828,-0.02173471,-0.02384596,0.062217932,1.6168394,-0.007138686,488.03983,2.2572317,0.5062272,0.3404902,0.3374655,0.12034365,inf,inf,inf,inf,1,1,1,1,2,2,2,2,2,1,1,1,0,0,0
22640000,22640000,4204000,47.3977508,8.5456073,-0.014571973,0.009948697,-2.2607841,9.1231275e-05,0.0076847686,-0.04104034,0.01965111,0.015592703,-0.11381167,-0.14495546,-0.019144647,0.00040193996,0.049837828,0.0009104842,-0.033853836,0.03944244,1.6149731,-0.007138686,488.03983,2.3336685,0.46781,0.3230538,0.26278847,0.11470312,inf,inf,inf,inf,1,1,1,1,2,2,2,2,2,1,1,1,0,0,0
23136000,23136000,4204000,47.3977508,8.5456073,-0.00097113743,0.02674818,-2.324373,9.1231275e-05,0.0076847686,-0.04104034,0.014306132,0.006591896,-0.09405868,-0.12325005,-0.019144647,0.00040193996,0.049837828,-0.03469022,-0.060940556,0.081283964,1.6154264,-0.007138686,488.03983,2.3972573,0.4798053,0.32933336,0.2618087,0.11651011,inf,inf,inf,inf,1,1,1,1,2,2,2,2,2,1,1,1,0,0,0
23640000,23640000,4204000,47.3977508,8.5456073,0.01307456,0.032503508,-2.3830848,9.1231275e-05,0.0076847686,-0.04104034,0.0030679607,-0.005191276,-0.063747555,-0.09654378,-0.019144647,0.00040193996,0.049837828,-0.036874942,-0.033117842,0.069060355,1.6164944,-0.007138686,488.03983,2.455969,0.49420667,0.33489054,0.25892434,0.118231185,inf,inf,inf,inf,1,1,1,1,2,2,2,2,2,1,1,1,0,0,0
24136000,24136000,4204000,47.3977508,8.5456073,0.018015167,0.03089963,-2.4278111,9.1231275e-05,0.0076847686,-0.04104034,-0.0054734335,-0.013666202,-0.039597124,-0.07418453,-0.019144647,0.00040193996,0.049837828,-0.028398672,0.0038844733,0.05076639,1.61597,-0.007138686,488.03983,2.5006955,0.508259,0.3413022,0.2540755,0.12005025,inf,inf,inf,inf,1,1,1,1,2,2,2,2,2,1,1,1,0,0,0
24640000,24640000,4204000,47.3977508,8.5456073,0.008325726,0.009272,-2.4697003,9.1231275e-05,0.0076847686,-0.04104034,-0.0124517055,-0.020003201,-0.014002204,-0.055876926,-0.019144647,0.00040193996,0.049837828,0.010839809,0.029839791,0.0069197263,1.6145474,-0.007138686,488.03983,2.5425847,0.46940884,0.32231778,0.21191485,0.11427559,inf,inf,inf,inf,1,1,1,1,2,2,2,2,2,1,1,1,0,0,0
25136000,25136000,4204000,47.3977508,8.5456073,0.0014114849,-0.010641454,-2.491979,9.1231275e-05,0.0076847686,-0.04104034,-0.0086521655,-0.010104422,-0.0011639209,-0.04059587,-0.019144647,0.00040193996,0.049837828,0.00019311845,0.04441202,0.026552936,1.614979,-0.007138686,488.03983,2.5648632,0.4810963,0.32858604,0.20994702,0.11618576,inf,inf,inf,inf,1,1,1,1,2,2,2,2,2,1,1,1,0,0,0
25640000,25640000,4204000,47.3977508,8.5456073,-0.00016084997,-0.016620338,-2.5082083,9.1231275e-05,0.0076847686,-0.04104034,-0.0064568794,0.0038393144,0.004301072,-0.032494295,-0.019144647,0.00040193996,0.049837828,-0.02517439,0.03151943,0.03123097,1.6154035,-0.007138686,488.03983,2.5810926,0.4941713,0.33422363,0.20840846,0.11801177,inf,inf,inf,inf,1,1,1,1,2,2,2,2,2,1,1,1,0,0,0
26136000,26136000,4204000,47.3977508,8.5456073,-0.004715893,-0.018885503,-2.5280113,9.1231275e-05,0.0076847686,-0.04104034,-0.007640251,0.008804644,0.017228905,-0.024115145,-0.019144647,0.00040193996,0.049837828,-0.0097543225,0.0023555765,0.043882053,1.6154821,-0.007138686,488.03983,2.6008956,0.5064197,0.34072167,0.20656104,0.11990892,inf,inf,inf,inf,1,1,1,1,2,2,2,2,2,1,1,1,0,0,0
26640000,26640000,4204000,47.3977508,8.5456073,-0.0019926992,-0.016934197,-2.544764,9.1231275e-05,0.0076847686,-0.04104034,-0.0023819916,0.012626153,0.028191676,-0.0179971,-0.019144647,0.00040193996,0.049837828,-0.018464604,0.02379823,0.050507482,1.6149898,-0.007138686,488.03983,2.6176484,0.46967053,0.32192826,0.18131134,0.114214785,inf,inf,inf,inf,1,1,1,1,2,2,2,2,2,1,1,1,0,0,0
27136000,27136000,4204000,47.3977508,8.5456073,-0.0029778124,-0.000846645,-2.556297,9.1231275e-05,0.0076847686,-0.04104034,-0.0047581107,0.013101556,0.037534792,-0.011214276,-0.019144647,0.00040193996,0.049837828,-0.0053192633,0.0075272107,-0.019247642,1.6155807,-0.007138686,488.03983,2.6291814,0.48028848,0.32825783,0.18152846,0.116152875,inf,inf,inf,inf,1,1,1,1,2,2,2,2,2,1,1,1,0,0,0
27640000,27640000,4204000,47.3977508,8.5456073,-0.0011421056,0.013322381,-2.5582533,9.1231275e-05,0.0076847686,-0.04104034,-0.005857864,0.006437506,0.03841426,-0.006997276,-0.019144647,0.00040193996,0.049837828,-0.028883135,-0.031219328,0.033868473,1.615749,-0.007138686,488.03983,2.6311376,0.49200544,0.33539867,0.1826354,0.11826431,inf,inf,inf,inf,1,1,1,1,2,2,2,2,2,1,1,1,0,0,0
28136000,28136000,4204000,47.3977508,8.5456073,0.0063693365,0.027250333,-2.5616455,9.1231275e-05,0.0076847686,-0.04104034,-0.0059791273,-0.0024428847,0.0392589,-0.0049598604,-0.019144647,0.00040193996,0.049837828,-0.012531061,-0.06070599,0.028522683,1.6155689,-0.007138686,488.03983,2.6345298,0.50293225,0.34039345,0.18398936,0.11986754,inf,inf,inf,inf,1,1,1,1,2,2,2,2,2,1,1,1,0,0,0
28640000,28640000,4204000,47.3977508,8.5456073,0.008642619,0.025085371,-2.5735123,9.1231275e-05,0.0076847686,-0.04104034,-0.010754064,-0.017634183,0.044319376,-0.0069990577,-0.019144647,0.00040193996,0.049837828,-0.03247987,-0.044461496,0.009539536,1.6148229,-0.007138686,488.03983,2.6463966,0.4683106,0.32301944,0.16708966,0.11442865,inf,inf,inf,inf,1,1,1,1,2,2,2,2,2,1,1,1,0,0,0
29136000,29136000,4204000,47.3977508,8.5456073,0.014698762,0.022259975,-2.5885751,9.1231275e-05,0.0076847686,-0.04104034,-0.0123464,-0.018761737,0.050145946,-0.011917971,-0.019144647,0.00040193996,0.049837828,0.0073152618,-0.009029259,0.063983716,1.6150814,-0.007138686,488.03983,2.6614594,0.47806183,0.327913,0.17001338,0.11607897,inf,inf,inf,inf,1,1,1,1,2,2,2,2,2,1,1,1,0,0,0
29640000,29640000,4204000,47.3977508,8.5456073,0.013324121,0.020367103,-2.5651603,9.1231275e-05,0.0076847686,-0.04104034,-0.016209202,-0.022122528,0.32649675,0.26578507,-0.019144647,0.00040193996,0.049837828,-0.0042625614,-0.06276818,1.6936482,1.6149465,-0.007138686,488.03983,2.6380446,0.48896372,0.3350341,0.17336617,0.11817871,inf,inf,inf,inf,1,1,1,1,2,2,2,2,2,1,1,1,0,0,0
30136000,30136000,4204000,47.3977508,8.5456073,0.014456888,0.016892359,-2.254402,9.1231275e-05,0.0076847686,-0.04104034,-0.010457903,-0.01967595,0.82910925,0.7639074,-0.019144647,0.00040193996,0.049837828,0.049568404,0.0450912,-0.48297548,1.6147555,-0.007138686,488.03983,2.3272862,0.4991945,0.34157312,0.175635,0.120073035,inf,inf,inf,inf,1,1,1,1,2,2,2,2,2,1,1,1,0,0,0
30640000,30640000,4204000,47.3977508,8.5456073,0.02250314,0.031123927,-1.921951,9.1231275e-05,0.0076847686,-0.04104034,-0.0047526713,-0.012176177,0.71764874,0.65005875,-0.019144647,0.00040193996,0.049837828,-0.015791025,-0.0044030016,0.012931413,1.61511,-0.007138686,488.03983,1.9948354,0.46622705,0.3225973,0.16354537,0.1143133,inf,inf,inf,inf,1,1,1,1,2,2,2,2,2,1,1,1,0,0,0
31136000,31136000,4204000,47.3977508,8.5456073,0.027190207,0.04135859,-1.5961213,9.1231275e-05,0.0076847686,-0.04104034,-0.008596468,-0.014269016,0.74618,0.6770161,-0.019144647,0.00040193996,0.049837828,0.0055322014,-0.028117776,0.0562109,1.61499,-0.007138686,488.03983,1.6690056,0.4756705,0.3288379,0.1685816,0.116209686,inf,inf,inf,inf,1,1,1,1,2,2,2,2,2,1,1,1,0,0,0
31640000,31640000,4204000,47.3977508,8.5456073,0.03201344,0.04797486,-1.2486721,9.1231275e-05,0.0076847686,-0.04104034,-0.008520797,-0.023210254,0.7540904,0.6882439,-0.019144647,0.00040193996,0.049837828,-0.019537196,-0.008767805,0.025320796,1.6154592,-0.007138686,488.03983,1.3215564,0.48649785,0.33436927,0.17444566,0.11799314,inf,inf,inf,inf,1,1,1,1,2,2,2,2,2,1,1,1,0,0,0
32136000,32136000,4204000,47.3977508,8.5456073,0.031279925,0.054393418,-0.90360385,9.1231275e-05,0.0076847686,-0.04104034,-0.0117434645,-0.027439773,0.7619529,0.69858545,-0.019144647,0.00040193996,0.049837828,-0.009575451,-0.05491801,0.034325752,1.6155254,-0.007138686,488.03983,0.9764882,0.49707782,0.3407749,0.18018198,0.11985486,inf,inf,inf,inf,1,1,1,1,2,2,2,2,2,1,1,1,0,0,0
32640000,32640000,4204000,47.3977508,8.5456073,0.029176744,0.055253282,-0.55547917,9.1231275e-05,0.0076847686,-0.04104034,-0.0084703555,-0.03211072,0.76322955,0.6974214,-0.019144647,0.00040193996,0.049837828,-0.027420245,-0.006223039,-0.018104909,1.6153158,-0.007138686,488.03983,0.6283635,0.46480316,0.323266,0.16755737,0.11439164,inf,inf,inf,inf,1,1,1,1,2,2,2,2,2,1,1,1,0,0,0
33136000,33136000,4204000,47.3977508,8.5456073,0.021529473,0.058182046,-0.2207001,9.1231275e-05,0.0076847686,-0.04104034,-0.007705307,-0.035642304,0.76772857,0.6919486,-0.019144647,0.00040193996,0.049837828,0.007227179,-0.03237305,0.11392123,1.6153607,-0.007138686,488.03983,0.2935844,0.47459227,0.328108,0.17297167,0.11603523,inf,inf,inf,inf,1,1,1,1,2,2,2,2,2,1,1,1,0,0,0
33640000,33640000,4204000,47.3977508,8.5456073,0.010995717,0.057248488,0.17489786,9.1231275e-05,0.0076847686,-0.04104034,0.02543927,-0.03131703,1.070417,0.9942596,-0.019144647,0.00040193996,0.049837828,0.041602716,0.04429866,-4.0499163,1.6155436,-0.007138686,488.03983,0.1,0.48588082,0.3351254,0.17618099,0.11780328,inf,inf,inf,inf,1,1,1,1,2,2,2,2,2,1,1,1,0,0,0
34136000,34136000,4204000,47.3977508,8.5456073,0.012503087,0.053085536,0.36855802,9.1231275e-05,0.0076847686,-0.04104034,0.010073936,-0.03809917,0.7789906,0.5873272,-0.019144647,0.00040193996,0.049837828,-0.014875243,-0.043434523,0.6451606,1.6150246,-0.007138686,488.03983,0.1,0.49713427,0.3405275,0.21517397,0.11081511,inf,inf,inf,inf,1,1,1,1,2,2,2,2,2,1,1,1,0,0,0
34640000,34640000,4204000,47.3977508,8.5456073,0.0023154363,0.049710527,0.4860265,9.1231275e-05,0.0076847686,-0.04104034,-0.00017974319,-0.039082836,1.0141364,0.64596385,-0.019144647,0.00040193996,0.049837828,0.026947366,-0.008642993,0.421904,1.6148641,-0.007138686,488.03983,0.1,0.46466032,0.32055122,0.23360877,0.10044514,inf,inf,inf,inf,1,1,1,1,2,2,2,2,2,1,1,1,0,0,0
35136000,35136000,4204000,47.3977508,8.5456073,-0.006306458,0.048475023,0.6520326,9.1231275e-05,0.0076847686,-0.04104034,0.00010464838,-0.034145687,1.2060459,0.6873929,-0.019144647,0.00040193996,0.049837828,0.028170353,-0.028373336,0.69071907,1.6154802,-0.007138686,488.03983,0.1,0.47545874,0.32380915,0.26725093,0.09919258,inf,inf,inf,inf,1,1,1,1,2,2,2,2,2,1,1,1,0,0,0
35640000,35640000,4204000,47.3977508,8.5456073,-0.013794471,0.048426483,0.9283559,9.1231275e-05,0.0076847686,-0.04104034,0.0018630855,-0.030703498,1.3523159,0.75784385,-0.019144647,0.00040193996,0.049837828,0.008269082,-0.034789946,0.53968745,1.6156181,-0.007138686,488.03983,0.1,0.4898527,0.3257384,0.28542528,0.09994218,inf,inf,inf,inf,1,1,1,1,2,2,2,2,2,1,1,1,0,0,0
36136000,36136000,4204000,47.3977508,8.5456073,-0.016970135,0.049211726,1.2622886,9.1231275e-05,0.0076847686,-0.04104034,0.00501021,0.005943863,0.81069535,0.19553918,-0.019144647,0.00040193996,0.049837828,0.13980858,-0.14705339,-0.09122956,1.6153146,-0.007138686,488.03983,0.1,0.5052666,0.32854882,0.29069847,0.102442026,inf,inf,inf,inf,1,1,1,1,2,2,2,2,2,1,1,1,0,0,0
36640000,36640000,4204000,47.3977508,8.5456073,-0.0034029465,0.0498115,1.3350321,9.1231275e-05,0.0076847686,-0.04104034,0.010663464,0.0037385789,0.7255097,0.12480649,-0.019144647,0.00040193996,0.049837828,-0.0353209,0.0012607051,-0.017888842,1.6163635,-0.007138686,488.03983,0.1,0.46709454,0.31196052,0.22876959,0.09476925,inf,inf,inf,inf,1,1,1,1,2,2,2,2,2,1,1,1,0,0,0
37136000,37136000,4204000,47.3977508,8.5456073,-0.00594256,0.048546895,1.3237715,9.1231275e-05,0.0076847686,-0.04104034,0.0033606046,0.0046778913,0.6329682,0.0042217225,-0.019144647,0.00040193996,0.049837828,-0.009844719,0.02802252,0.0014090909,1.6166888,-0.007138686,488.03983,0.12846732,0.47930533,0.31363776,0.23610106,0.09214557,inf,inf,inf,inf,1,1,1,1,2,2,2,2,2,1,1,1,0,0,0
37640000,37640000,4204000,47.3977508,8.5456073,-0.014239612,0.048648898,1.3071102,9.1231275e-05,0.0076847686,-0.04104034,-0.0038760556,0.007050625,0.553194,-0.06635014,-0.019144647,0.00040193996,0.049837828,0.030395543,0.0010898947,-0.015792435,1.6166786,-0.007138686,488.03983,0.14906621,0.49301773,0.31682688,0.2578564,0.092125066,inf,inf,inf,inf,1,1,1,1,2,2,2,2,2,1,1,1,0,0,0
38136000,38136000,4204000,47.3977508,8.5456073,-0.020643516,0.04945796,1.2879581,9.1231275e-05,0.0076847686,-0.04104034,-0.008254457,0.008281284,0.48852274,-0.096929945,-0.019144647,0.00040193996,0.049837828,-0.0076086577,-0.0049042134,-0.016862525,1.6171641,-0.007138686,488.03983,0.16821826,0.50675577,0.31825298,0.27700463,0.093886286,inf,inf,inf,inf,1,1,1,1,2,2,2,2,2,1,1,1,0,0,0
38640000,38640000,4204000,47.3977508,8.5456073,-0.023148766,0.05359005,1.2426243,9.1231275e-05,0.0076847686,-0.04104034,-0.0057469476,0.009055792,0.4244525,-0.13468464,-0.019144647,0.00040193996,0.049837828,0.015838217,-0.011593932,0.013379379,1.6172537,-0.007138686,488.03983,0.21355212,0.46910504,0.30375275,0.23791987,0.09346232,inf,inf,inf,inf,1,1,1,1,2,2,2,2,2,1,1,1,0,0,0
39136000,39136000,4204000,47.3977508,8.5456073,-0.019994287,0.050316922,1.1744437,9.1231275e-05,0.0076847686,-0.04104034,0.0024493015,0.0021346018,0.36409914,-0.17966376,-0.019144647,0.00040193996,0.049837828,0.035692643,-0.019219063,0.009579583,1.6173617,-0.007138686,488.03983,0.28173268,0.48042536,0.30749583,0.24424186,0.09797891,inf,inf,inf,inf,1,1,1,1,2,2,2,2,2,1,1,1,0,0,0
39640000,39640000,4204000,47.3977508,8.5456073,-0.020221105,0.05342909,1.1103822,9.1231275e-05,0.0076847686,-0.04104034,0.003375696,0.0028947887,0.30467713,-0.2037132,-0.019144647,0.00040193996,0.049837828,-0.0010296934,-0.0020000588,-0.017371027,1.6177309,-0.007138686,488.03983,0.3457942,0.49386355,0.3114784,0.24800147,0.103057325,inf,inf,inf,inf,1,1,1,1,2,2,2,2,2,1,1,1,0,0,0
40136000,40136000,4204000,47.3977508,8.5456073,-0.025546229,0.05791332,1.0521427,9.1231275e-05,0.0076847686,-0.04104034,-0.0004342271,0.00289198,0.25257242,-0.20740877,-0.019144647,0.00040193996,0.049837828,-0.032674678,0.016480144,-0.012045725,1.6174653,-0.007138686,488.03983,0.40403366,0.50714564,0.31724122,0.24866983,0.10829974,inf,inf,inf,inf,1,1,1,1,2,2,2,2,2,1,1,1,0,0,0
40640000,40640000,4204000,47.3977508,8.5456073,-0.03233115,0.056408245,0.97562885,9.1231275e-05,0.0076847686,-0.04104034,-0.0033783286,-0.0034610748,0.2002075,-0.22204171,-0.019144647,0.00040193996,0.049837828,0.004553789,-0.00087120855,0.008403323,1.6182715,-0.007138686,488.03983,0.48054755,0.46946514,0.30411983,0.2116234,0.10781601,inf,inf,inf,inf,1,1,1,1,2,2,2,2,2,1,1,1,0,0,0
41136000,41136000,4204000,47.3977508,8.5456073,-0.035757024,0.056036517,0.8808076,9.1231275e-05,0.0076847686,-0.04104034,-0.005559427,-0.010759602,0.14435655,-0.25356966,-0.019144647,0.00040193996,0.049837828,-0.015148776,-0.013288401,0.0063404436,1.6180493,-0.007138686,488.03983,0.5753688,0.48067197,0.31120163,0.21217069,0.11228898,inf,inf,inf,inf,1,1,1,1,2,2,2,2,2,1,1,1,0,0,0
41640000,41640000,4204000,47.3977508,8.5456073,-0.039122127,0.050757762,0.79405075,9.1231275e-05,0.0076847686,-0.04104034,-0.010765481,-0.018057793,0.09678859,-0.26015827,-0.019144647,0.00040193996,0.049837828,-0.027738713,0.0030590743,-0.02399925,1.6179048,-0.007138686,488.03983,0.14722228,0.49343088,0.31848848,0.21279535,0.116329774,inf,inf,inf,inf,1,1,1,1,2,2,2,2,2,0,1,1,0,0,0
42136000,42136000,4204000,47.3977508,8.5456073,-0.043348137,0.046422012,0.7146343,9.1231275e-05,0.0076847686,-0.04104034,-0.015386237,-0.01804347,0.05490078,-0.25444224,-0.019144647,0.00040193996,0.049837828,-0.005685113,0.0020612204,-0.020369885,1.6180367,-0.007138686,488.03983,0.16479236,0.50560313,0.32709014,0.21278255,0.11993153,inf,inf,inf,inf,1,1,1,1,2,2,2,2,2,0,1,1,0,0,0
42640000,42640000,4204000,47.3977508,8.5456073,-0.04469563,0.0419652,0.6279688,9.1231275e-05,0.0076847686,-0.04104034,-0.01663357,-0.019698873,0.0135379555,-0.2541947,-0.019144647,0.00040193996,0.049837828,0.022167688,-0.011606796,-0.01631025,1.6183466,-0.007138686,488.03983,0.10926348,0.46927747,0.31293607,0.1872245,0.11579644,inf,inf,inf,inf,1,1,1,1,2,2,2,2,2,0,1,1,0,0,0
43136000,43136000,4204000,47.3977508,8.5456073,-0.048144124,0.042094786,0.53755796,9.1231275e-05,0.0076847686,-0.04104034,-0.018318616,-0.019292511,-0.021299817,-0.25567004,-0.019144647,0.00040193996,0.049837828,-0.015651181,-0.0018925201,-0.018847173,1.6179211,-0.007138686,488.03983,0.13978738,0.4798579,0.32117173,0.1884902,0.11835496,inf,inf,inf,inf,1,1,1,1,2,2,2,2,2,0,1,1,0,0,0
43640000,43640000,4204000,47.3977508,8.5456073,-0.046897575,0.042896695,0.45609105,9.1231275e-05,0.0076847686,-0.04104034,-0.016046453,-0.01575999,-0.04991492,-0.24539872,-0.019144647,0.00040193996,0.049837828,0.01100781,-0.014084012,-0.032446343,1.618311,-0.007138686,488.03983,0.1579557,0.49171478,0.328746,0.19041838,0.12050044,inf,inf,inf,inf,1,1,1,1,2,2,2,2,2,0,1,1,0,0,0
44136000,44136000,4204000,47.3977508,8.5456073,-0.04525255,0.04042338,0.3925512,9.1231275e-05,0.0076847686,-0.04104034,-0.018045094,-0.019260783,-0.06750376,-0.21606754,-0.019144647,0.00040193996,0.049837828,-0.056022078,-0.052409783,-0.03958493,1.6185186,-0.007138686,488.03983,0.1670647,0.50293815,0.3370486,0.19230968,0.12248829,inf,inf,inf,inf,1,1,1,1,2,2,2,2,2,0,1,1,0,0,0
