timestamp,timestamp_sample,time_last_fuse,device_id,observation[0],observation[1],observation[2],observation_variance[0],observation_variance[1],observation_variance[2],innovation[0],innovation[1],innovation[2],innovation_variance[0],innovation_variance[1],innovation_variance[2],test_ratio[0],test_ratio[1],test_ratio[2],estimator_instance,fusion_enabled,innovation_rejected,fused
3096000,3071000,0,0,0.011738754,-0.21862462,0.43377897,0.0,0.0,0.0,-0.011738754,0.21862462,-0.43377897,0.0,0.0,0.0,0.0,0.0,0.0,0,0,0,0
3224000,3141474,0,0,0.008519081,-0.21514972,0.42938918,0.0,0.0,0.0,-0.008519081,0.21514972,-0.42938918,0.0,0.0,0.0,inf,inf,inf,0,0,1,0
3296000,3214950,0,0,0.0027137452,-0.21149588,0.42485708,0.0,0.0,0.0,0.008852759,-0.0068249404,0.008456916,0.0,0.0,0.0,inf,inf,inf,0,0,1,0
3368000,3286378,0,0,0.010215499,-0.21695213,0.42849964,0.0,0.0,0.0,0.0015023788,-0.0014377832,0.0047754943,0.0,0.0,0.0,inf,inf,inf,0,0,1,0
3440000,3359124,0,0,0.0068642152,-0.21714018,0.42641777,0.0,0.0,0.0,0.004524951,-0.00075666606,0.007114351,0.0,0.0,0.0,inf,inf,inf,0,0,1,0
3512000,3431262,0,0,0.009524569,-0.2153887,0.42825085,0.0,0.0,0.0,0.00046467036,-0.0021277517,0.0032670498,0.0,0.0,0.0,inf,inf,inf,0,0,1,0
3584000,3503269,0,0,0.0072510135,-0.21221271,0.43433037,0.0,0.0,0.0,0.0028533223,-0.0053604245,-0.0028437674,0.0,0.0,0.0,inf,inf,inf,0,0,1,0
3656000,3575378,0,0,0.0105542205,-0.21638994,0.4278632,0.0,0.0,0.0,-0.0006491877,-0.0012472123,0.0035957992,0.0,0.0,0.0,inf,inf,inf,0,0,1,0
3728000,3647390,0,0,0.0091030365,-0.21295635,0.4362645,0.0,0.0,0.0,0.0010608518,-0.004717529,-0.004830092,0.0,0.0,0.0,inf,inf,inf,0,0,1,0
3800000,3718753,0,0,0.009402629,-0.21744989,0.4297937,0.0,0.0,0.0,0.0008719079,-0.00022616982,0.0016370118,0.0,0.0,0.0,inf,inf,inf,0,0,1,0
3872000,3791491,0,0,0.013768298,-0.21510878,0.42906365,0.0,0.0,0.0,-0.0036996277,-0.002647385,0.002331525,0.0,0.0,0.0,inf,inf,inf,0,0,1,0
3944000,3862112,0,0,0.012391784,-0.21607064,0.4295886,0.0,0.0,0.0,-0.001922504,-0.001738891,0.0017700493,0.0,0.0,0.0,inf,inf,inf,0,0,1,0
4016000,3935575,0,0,0.012004624,-0.20963396,0.42926964,0.0,0.0,0.0,-0.001600082,-0.008114919,0.0021211803,0.0,0.0,0.0,inf,inf,inf,0,0,1,0
4088000,4006183,0,0,0.012130593,-0.2163999,0.4289341,0.0,0.0,0.0,-0.00159615,-0.0013400465,0.002458036,0.0,0.0,0.0,inf,inf,inf,0,0,1,0
4160000,4079646,0,0,0.009440147,-0.21114962,0.42707536,0.0,0.0,0.0,0.0013034632,-0.006614968,0.004299253,0.0,0.0,0.0,inf,inf,inf,0,0,1,0
4232000,4150243,0,0,0.009405896,-0.21710737,0.42862043,0.0,0.0,0.0,0.0009089038,-0.00055877864,0.002814293,0.0,0.0,0.0,inf,inf,inf,0,0,1,0
4304000,4223704,0,0,0.011842655,-0.22168736,0.42954606,0.0,0.0,0.0,-0.001602279,0.004006788,0.0018832088,0.0,0.0,0.0,inf,inf,inf,0,0,1,0
4376000,4295020,0,0,0.010496135,-0.21601486,0.42918757,0.0,0.0,0.0,-9.461772e-05,-0.0016455352,0.002248019,0.0,0.0,0.0,inf,inf,inf,0,0,1,0
4448000,4367753,0,0,0.0115292715,-0.21229427,0.43061873,0.0,0.0,0.0,-0.0013305442,-0.005290523,0.0008598268,0.0,0.0,0.0,inf,inf,inf,0,0,1,0
4520000,4439426,0,0,0.00951471,-0.21667302,0.42743295,0.0,0.0,0.0,0.00077148713,-0.0009264201,0.004036069,0.0,0.0,0.0,inf,inf,inf,0,0,1,0
4592000,4511794,0,0,0.009593707,-0.21537589,0.42354137,0.0,0.0,0.0,0.0006445609,-0.0022320747,0.007924557,0.0,0.0,0.0,inf,inf,inf,0,0,1,0
4664000,4583461,0,0,0.011200298,-0.21657638,0.43113324,0.0,0.0,0.0,-0.0011214726,-0.0009274334,0.0003889203,0.0,0.0,0.0,inf,inf,inf,0,0,1,0
4736000,4655828,0,0,0.017634215,-0.21182914,0.42742392,0.0,0.0,0.0,-0.007471362,-0.005648032,0.0041097105,0.0,0.0,0.0,inf,inf,inf,0,0,1,0
4808000,4726399,0,0,0.01016707,-0.21609513,0.42932573,0.0,0.0,0.0,0.00051078945,-0.0014009625,0.002185911,0.0,0.0,0.0,inf,inf,inf,0,0,1,0
4880000,4799857,0,0,0.0014270293,-0.21375047,0.44027957,0.0,0.0,0.0,0.009191479,-0.0035028607,-0.008644193,0.0,0.0,0.0,inf,inf,inf,0,0,1,0
4952000,4870423,0,0,0.0081674885,-0.21672525,0.42640454,0.0,0.0,0.0,0.0018296558,-0.00045251846,0.005283773,0.0,0.0,0.0,inf,inf,inf,0,0,1,0
5024000,4943881,0,0,0.0101843355,-0.21177225,0.4302635,0.0,0.0,0.0,-0.00029918086,-0.0053633302,0.0014486015,0.0,0.0,0.0,inf,inf,inf,0,0,1,0
5096000,5015171,0,0,0.011170092,-0.21734884,0.42967686,0.0,0.0,0.0,-0.0012496216,0.00035269558,0.0021044612,0.0,0.0,0.0,inf,inf,inf,0,0,1,0
5168000,5087900,0,0,0.008684722,-0.21455692,0.4293879,0.0,0.0,0.0,0.0012975363,-0.0023946017,0.0024144351,0.0,0.0,0.0,inf,inf,inf,0,0,1,0
5240000,5158460,0,0,0.010674906,-0.21631621,0.42829007,0.0,0.0,0.0,-0.0007836865,-0.000623405,0.0035203695,0.0,0.0,0.0,inf,inf,inf,0,0,1,0
5312000,5231917,0,0,0.014808082,-0.21133718,0.4310706,0.0,0.0,0.0,-0.00485053,-0.005544603,0.0007673204,0.0,0.0,0.0,inf,inf,inf,0,0,1,0
5384000,5302838,0,0,0.011376785,-0.21561755,0.42923963,0.0,0.0,0.0,-0.0010651816,-0.0012324452,0.002605915,0.0,0.0,0.0,inf,inf,inf,0,0,1,0
5456000,5375931,0,0,0.01116129,-0.21576543,0.43019813,0.0,0.0,0.0,-0.0007722005,-0.0010427386,0.0016666651,0.0,0.0,0.0,inf,inf,inf,0,0,1,0
5528000,5447214,0,0,0.011032428,-0.21546504,0.430469,0.0,0.0,0.0,-0.00058629643,-0.0013789833,0.0013763607,0.0,0.0,0.0,inf,inf,inf,0,0,1,0
5600000,5519942,0,0,-0.00038428605,-0.20912348,0.42361706,0.0,0.0,0.0,0.010862574,-0.007728249,0.008223653,0.0,0.0,0.0,inf,inf,inf,0,0,1,0
5672000,5590132,0,0,0.008554788,-0.21605429,0.43035245,0.0,0.0,0.0,0.0011228379,-0.00076165795,0.0015249252,0.0,0.0,0.0,inf,inf,inf,0,0,1,0
5744000,5663952,0,0,0.006396198,-0.22248529,0.43262073,0.0,0.0,0.0,0.0031903894,0.005548969,-0.0008017719,0.0,0.0,0.0,inf,inf,inf,0,0,1,0
5816000,5735231,0,0,0.010631564,-0.21536028,0.42791632,0.0,0.0,0.0,-0.0013036905,-0.0015893579,0.0039016306,0.0,0.0,0.0,inf,inf,inf,0,0,1,0
5888000,5807960,0,0,0.0077666994,-0.21636182,0.43319273,0.0,0.0,0.0,0.0016306061,-0.0006611347,-0.0014131069,0.0,0.0,0.0,inf,inf,inf,0,0,1,0
5960000,5879238,0,0,0.0096557755,-0.21635234,0.42726678,0.0,0.0,0.0,-0.00034665503,-0.0006275922,0.0045363307,0.0,0.0,0.0,inf,inf,inf,0,0,1,0
6032000,5951967,0,0,0.010584283,-0.21636824,0.42612374,0.0,0.0,0.0,-0.0012927977,-0.0005878359,0.005691707,0.0,0.0,0.0,inf,inf,inf,0,0,1,0
6104000,6023244,0,0,0.009664528,-0.21468827,0.4295678,0.0,0.0,0.0,-0.00031583756,-0.002300948,0.0022298098,0.0,0.0,0.0,inf,inf,inf,0,0,1,0
6176000,6095972,0,0,0.013444149,-0.21912412,0.43026313,0.0,0.0,0.0,-0.0040900344,0.002147913,0.0015408695,0.0,0.0,0.0,inf,inf,inf,0,0,1,0
6248000,6166886,0,0,0.010314512,-0.21345939,0.42959383,0.0,0.0,0.0,-0.00070910435,-0.003493175,0.0022165477,0.0,0.0,0.0,inf,inf,inf,0,0,1,0
6320000,6239977,0,0,0.011156017,-0.21321467,0.42791042,0.0,0.0,0.0,-0.0014854018,-0.0037000477,0.003917545,0.0,0.0,0.0,inf,inf,inf,0,0,1,0
6392000,6310161,0,0,0.009139683,-0.21623439,0.42732188,0.0,0.0,0.0,0.0006427206,-0.00063735247,0.004525095,0.0,0.0,0.0,inf,inf,inf,0,0,1,0
6464000,6383981,0,0,0.009645332,-0.22416125,0.43466383,0.0,0.0,0.0,9.0967864e-05,0.007315129,-0.0028029084,0.0,0.0,0.0,inf,inf,inf,0,0,1,0
6536000,6455256,0,0,0.010424283,-0.21557698,0.42935997,0.0,0.0,0.0,-0.00062373746,-0.0012480617,0.0025101006,0.0,0.0,0.0,inf,inf,inf,0,0,1,0
6608000,6527984,0,0,0.0054610367,-0.21231653,0.4319994,0.0,0.0,0.0,0.0043775965,-0.0044775456,-0.000114649534,0.0,0.0,0.0,inf,inf,inf,0,0,1,0
6680000,6598896,0,0,0.0105250785,-0.21762085,0.4269039,0.0,0.0,0.0,-0.0010159547,0.0008841455,0.005017042,0.0,0.0,0.0,inf,inf,inf,0,0,1,0
6752000,6671987,0,0,0.00060439704,-0.21949978,0.4369037,0.0,0.0,0.0,0.009057725,0.0027971715,-0.0049690306,0.0,0.0,0.0,inf,inf,inf,0,0,1,0
6824000,6743625,0,0,0.010045794,-0.21615216,0.43060535,0.0,0.0,0.0,-0.00097210426,-0.0005117059,0.0013614297,0.0,0.0,0.0,inf,inf,inf,0,0,1,0
6896000,6815989,0,0,0.00588824,-0.21735843,0.42946404,0.0,0.0,0.0,0.003220959,0.00072963536,0.0025196373,0.0,0.0,0.0,inf,inf,inf,0,0,1,0
6968000,6887263,0,0,0.011505157,-0.2165429,0.42952067,0.0,0.0,0.0,-0.0025643408,-8.714199e-05,0.0024658442,0.0,0.0,0.0,inf,inf,inf,0,0,1,0
7040000,6959991,0,0,0.003160603,-0.21196882,0.43184137,0.0,0.0,0.0,0.00595022,-0.0046598315,0.00014230609,0.0,0.0,0.0,inf,inf,inf,0,0,1,0
7112000,7030537,0,0,0.010664139,-0.21430296,0.42878225,0.0,0.0,0.0,-0.0019385628,-0.0022894442,0.003227532,0.0,0.0,0.0,inf,inf,inf,0,0,1,0
7184000,7103993,0,0,0.01187652,-0.21686226,0.4322296,0.0,0.0,0.0,-0.0030132346,0.00015854836,-0.0002784431,0.0,0.0,0.0,inf,inf,inf,0,0,1,0
7256000,7174539,0,0,0.009569169,-0.21478322,0.42997196,0.0,0.0,0.0,-0.0005468065,-0.0018851161,0.001993686,0.0,0.0,0.0,inf,inf,inf,0,0,1,0
7328000,7247994,0,0,0.003278942,-0.21783587,0.4360972,0.0,0.0,0.0,0.005735903,0.001176253,-0.0041270256,0.0,0.0,0.0,inf,inf,inf,0,0,1,0
7400000,7319267,0,0,0.010154157,-0.21296513,0.43275696,0.0,0.0,0.0,-0.0015046215,-0.0037430525,-0.00080373883,0.0,0.0,0.0,inf,inf,inf,0,0,1,0
7472000,7391995,0,0,0.009924958,-0.21518709,0.43048048,0.0,0.0,0.0,-0.0011847569,-0.0015259832,0.0014685392,0.0,0.0,0.0,inf,inf,inf,0,0,1,0
7544000,7461814,0,0,0.009595607,-0.21694316,0.43069094,0.0,0.0,0.0,-0.00077168364,0.00023569167,0.0012591481,0.0,0.0,0.0,inf,inf,inf,0,0,1,0
7616000,7535996,0,0,0.007318845,-0.21248591,0.42779717,0.0,0.0,0.0,0.0015350152,-0.004355684,0.004085034,0.0,0.0,0.0,inf,inf,inf,0,0,1,0
7688000,7606906,0,0,0.012586972,-0.21656722,0.4286452,0.0,0.0,0.0,-0.0038250964,-0.00024181604,0.0032552183,0.0,0.0,0.0,inf,inf,inf,0,0,1,0
7760000,7679997,0,0,0.008516494,-0.20877181,0.42463115,0.0,0.0,0.0,0.00040577725,-0.008118048,0.0072253644,0.0,0.0,0.0,inf,inf,inf,0,0,1,0
7832000,7751633,0,0,0.00993039,-0.21497025,0.42810875,0.0,0.0,0.0,-0.0010481356,-0.0019220561,0.003747344,0.0,0.0,0.0,inf,inf,inf,0,0,1,0
7904000,7823997,0,0,0.013440996,-0.21423693,0.42271763,0.0,0.0,0.0,-0.004528083,-0.0026138276,0.0091587305,0.0,0.0,0.0,inf,inf,inf,0,0,1,0
7976000,7895634,0,0,0.010314337,-0.2164245,0.42956752,0.0,0.0,0.0,-0.0011765277,-0.0004619509,0.0022862554,0.0,0.0,0.0,inf,inf,inf,0,0,1,0
8048000,7967998,0,0,0.006526925,-0.21950491,0.4297858,0.0,0.0,0.0,0.0026943753,0.002644509,0.0020791888,0.0,0.0,0.0,inf,inf,inf,0,0,1,0
8120000,8039998,0,0,0.011488497,-0.2170135,0.42801437,0.0,0.0,0.0,-0.0024325475,0.00014834106,0.0038518012,0.0,0.0,0.0,inf,inf,inf,0,0,1,0
8192000,8111998,0,0,0.0069146124,-0.21704523,0.4275402,0.0,0.0,0.0,0.0022594887,0.00017562509,0.0043212473,0.0,0.0,0.0,inf,inf,inf,0,0,1,0
8264000,8183271,0,0,0.0058934814,-0.21650033,0.43016517,0.0,0.0,0.0,0.003166961,-0.00034494698,0.0017109215,0.0,0.0,0.0,inf,inf,inf,0,0,1,0
8336000,8255999,0,0,0.017270694,-0.21502483,0.42616236,0.0,0.0,0.0,-0.008425007,-0.0018239617,0.0057163835,0.0,0.0,0.0,inf,inf,inf,0,0,1,0
8408000,8326180,0,0,0.01062981,-0.2160078,0.42810616,0.0,0.0,0.0,-0.001365371,-0.0008457601,0.003761381,0.0,0.0,0.0,inf,inf,inf,0,0,1,0
8480000,8399999,0,0,0.008198794,-0.21276331,0.42868945,0.0,0.0,0.0,0.0011220239,-0.004025072,0.0032096505,0.0,0.0,0.0,inf,inf,inf,0,0,1,0
8552000,8470544,0,0,0.008597828,-0.21486348,0.43071613,0.0,0.0,0.0,0.0006618947,-0.0019067526,0.0011933744,0.0,0.0,0.0,inf,inf,inf,0,0,1,0
8624000,8543999,0,0,0.013859456,-0.21663918,0.4261825,0.0,0.0,0.0,-0.0046403613,-0.00013013184,0.0057283044,0.0,0.0,0.0,inf,inf,inf,0,0,1,0
8696000,8615271,0,0,0.00885827,-0.2162616,0.42699668,0.0,0.0,0.0,0.0005616257,-0.00046099722,0.004933268,0.0,0.0,0.0,inf,inf,inf,0,0,1,0
8768000,8687999,0,0,0.009697637,-0.21708962,0.4334617,0.0,0.0,0.0,-0.00026303343,0.00037641823,-0.0015273988,0.0,0.0,0.0,inf,inf,inf,0,0,1,0
8840000,8758545,0,0,0.0101951985,-0.21650085,0.42928037,0.0,0.0,0.0,-0.00076500606,-0.00021217763,0.0026541054,0.0,0.0,0.0,inf,inf,inf,0,0,1,0
8912000,8832000,0,0,0.0061369957,-0.21197225,0.4309753,0.0,0.0,0.0,0.003333236,-0.0047308356,0.0009633601,0.0,0.0,0.0,inf,inf,inf,0,0,1,0
8984000,8902545,0,0,0.008696108,-0.21560605,0.42631072,0.0,0.0,0.0,0.0006075585,-0.0010717362,0.005644202,0.0,0.0,0.0,inf,inf,inf,0,0,1,0
9056000,8976000,0,0,0.012817852,-0.20985359,0.4358544,0.0,0.0,0.0,-0.00355158,-0.006823644,-0.0038983822,0.0,0.0,0.0,inf,inf,inf,0,0,1,0
9128000,9048000,0,0,0.009106402,-0.21695137,0.4292605,0.0,0.0,0.0,0.00029370468,0.0002744794,0.002692759,0.0,0.0,0.0,inf,inf,inf,0,0,1,0
9200000,9120000,0,0,0.006172988,-0.21530227,0.42388856,0.0,0.0,0.0,0.0031747785,-0.0013709813,0.0080676675,0.0,0.0,0.0,inf,inf,inf,0,0,1,0
9272000,9190545,0,0,0.009472956,-0.21627867,0.42995447,0.0,0.0,0.0,-0.000204687,-0.00039929152,0.0020011365,0.0,0.0,0.0,inf,inf,inf,0,0,1,0
9344000,9264000,0,0,0.010214683,-0.21909148,0.43090725,0.0,0.0,0.0,-0.0009572394,0.0024362206,0.0010599792,0.0,0.0,0.0,inf,inf,inf,0,0,1,0
9416000,9334181,0,0,0.008236949,-0.21692011,0.42916116,0.0,0.0,0.0,0.0010436205,0.00028896332,0.0028176606,0.0,0.0,0.0,inf,inf,inf,0,0,1,0
9488000,9408000,0,0,0.010632495,-0.21023965,0.42876405,0.0,0.0,0.0,-0.0013804911,-0.0063972175,0.0032125115,0.0,0.0,0.0,inf,inf,inf,0,0,1,0
9560000,9479636,0,0,0.008803033,-0.21604618,0.4312148,0.0,0.0,0.0,0.00045783725,-0.00057142973,0.0007712543,0.0,0.0,0.0,inf,inf,inf,0,0,1,0
9632000,9552000,0,0,0.006391156,-0.21607572,0.42739695,0.0,0.0,0.0,0.0028295782,-0.000513345,0.0046042204,0.0,0.0,0.0,inf,inf,inf,0,0,1,0
9704000,9622545,0,0,0.009332885,-0.2150517,0.4276697,0.0,0.0,0.0,-0.00021303166,-0.0014941841,0.0043552816,0.0,0.0,0.0,inf,inf,inf,0,0,1,0
9776000,9696000,0,0,0.011131325,-0.22021656,0.4322163,0.0,0.0,0.0,-0.0020593936,0.003633663,-0.00020885468,0.0,0.0,0.0,inf,inf,inf,0,0,1,0
9848000,9767636,0,0,0.009156987,-0.21597007,0.42763725,0.0,0.0,0.0,-1.1347234e-05,-0.00059725344,0.004376471,0.0,0.0,0.0,inf,inf,inf,0,0,1,0
9920000,9840000,0,0,0.0053058416,-0.21631216,0.42225766,0.0,0.0,0.0,0.0038590431,-0.00024339557,0.009761512,0.0,0.0,0.0,inf,inf,inf,0,0,1,0
9992000,9910545,0,0,0.010014792,-0.21715191,0.4300034,0.0,0.0,0.0,-0.0010302188,0.00062294304,0.002032876,0.0,0.0,0.0,inf,inf,inf,0,0,1,0
10064000,9980000,0,0,0.0070475615,-0.2195546,0.43012306,0.0,0.0,0.0,0.0019954094,0.0030653328,0.001931876,0.0,0.0,0.0,inf,inf,inf,0,0,1,0
10136000,10050000,0,0,0.009075749,-0.21677406,0.42965373,0.0,0.0,0.0,-9.045284e-05,0.00029714406,0.0024086535,0.0,0.0,0.0,inf,inf,inf,0,0,1,0
10208000,10122000,0,0,0.010484052,-0.21157849,0.42817047,0.0,0.0,0.0,-0.0014674263,-0.0049040616,0.0038883984,0.0,0.0,0.0,inf,inf,inf,0,0,1,0
10280000,10194000,0,0,0.009811519,-0.21493399,0.4282239,0.0,0.0,0.0,-0.0007271748,-0.0016151369,0.0038001537,0.0,0.0,0.0,inf,inf,inf,0,0,1,0
10352000,10266000,0,0,0.009223371,-0.21900332,0.43348336,0.0,0.0,0.0,-0.00012490805,0.0024502873,-0.0014615059,0.0,0.0,0.0,inf,inf,inf,0,0,1,0
10424000,10337600,0,0,0.011038928,-0.21478811,0.42924806,0.0,0.0,0.0,-0.0019819206,-0.0017488301,0.0027827322,0.0,0.0,0.0,inf,inf,inf,0,0,1,0
10488000,10408000,0,0,0.009842793,-0.21442088,0.43132377,0.0,0.0,0.0,-0.00069867354,-0.0021410137,0.0006926358,0.0,0.0,0.0,inf,inf,inf,0,0,1,0
10560000,10475555,0,0,0.0083644735,-0.21510725,0.42904416,0.0,0.0,0.0,0.00078054797,-0.0014203042,0.0029895008,0.0,0.0,0.0,inf,inf,inf,0,0,1,0
10632000,10548000,0,0,0.012100088,-0.21862423,0.42789453,0.0,0.0,0.0,-0.0029923273,0.0020804405,0.0041317344,0.0,0.0,0.0,inf,inf,inf,0,0,1,0
10704000,10620000,0,0,0.008239203,-0.21484254,0.4303067,0.0,0.0,0.0,0.0010028696,-0.0016661733,0.0017343462,0.0,0.0,0.0,inf,inf,inf,0,0,1,0
10776000,10692000,0,0,0.009400332,-0.21682358,0.43263787,0.0,0.0,0.0,-0.00017008372,0.0003079027,-0.00060009956,0.0,0.0,0.0,inf,inf,inf,0,0,1,0
10848000,10763111,0,0,0.009776593,-0.2133324,0.428728,0.0,0.0,0.0,-0.00059320126,-0.003125593,0.0033396482,0.0,0.0,0.0,inf,inf,inf,0,0,1,0
10920000,10834666,0,0,0.00755642,-0.21999995,0.42712316,0.0,0.0,0.0,0.0016109385,0.0035671592,0.0049574673,0.0,0.0,0.0,inf,inf,inf,0,0,1,0
10984000,10902000,0,0,0.0096356515,-0.21614279,0.43009406,0.0,0.0,0.0,-0.0004909802,-0.00026217103,0.0020009875,0.0,0.0,0.0,inf,inf,inf,0,0,1,0
11056000,10972000,0,0,0.009836346,-0.2159766,0.42673966,0.0,0.0,0.0,-0.0007215664,-0.0004746616,0.0053328574,0.0,0.0,0.0,inf,inf,inf,0,0,1,0
11128000,11044500,0,0,0.008227961,-0.21590951,0.4308416,0.0,0.0,0.0,0.00091118924,-0.00051538646,0.0012436211,0.0,0.0,0.0,inf,inf,inf,0,0,1,0
11200000,11116000,0,0,0.008946203,-0.21719274,0.4325547,0.0,0.0,0.0,0.00017608702,0.00073088706,-0.0004876554,0.0,0.0,0.0,inf,inf,inf,0,0,1,0
11264000,11183428,0,0,0.009773057,-0.21727999,0.4307865,0.0,0.0,0.0,-0.00066959485,0.000840649,0.0012922287,0.0,0.0,0.0,inf,inf,inf,0,0,1,0
11336000,11255200,0,0,0.008682789,-0.21648005,0.42801985,0.0,0.0,0.0,0.00042853318,4.258752e-05,0.0040596128,0.0,0.0,0.0,inf,inf,inf,0,0,1,0
11408000,11327428,0,0,0.011069069,-0.21641934,0.4300581,0.0,0.0,0.0,-0.0020334665,-8.791685e-06,0.0020276606,0.0,0.0,0.0,inf,inf,inf,0,0,1,0
11480000,11398400,0,0,0.009109063,-0.21545516,0.43091503,0.0,0.0,0.0,8.428469e-06,-0.0009817034,0.001164645,0.0,0.0,0.0,inf,inf,inf,0,0,1,0
11552000,11466000,0,0,0.008672683,-0.21445331,0.4300254,0.0,0.0,0.0,0.00045261718,-0.0019948035,0.0020484328,0.0,0.0,0.0,inf,inf,inf,0,0,1,0
11624000,11536666,0,0,0.008665918,-0.21818373,0.4277696,0.0,0.0,0.0,0.0004692087,0.0017287582,0.0043005943,0.0,0.0,0.0,inf,inf,inf,0,0,1,0
11688000,11608000,0,0,0.008995626,-0.21517956,0.42830938,0.0,0.0,0.0,0.00013624504,-0.0012618154,0.0037677288,0.0,0.0,0.0,inf,inf,inf,0,0,1,0
11760000,11675200,0,0,0.0067256973,-0.21604267,0.42937356,0.0,0.0,0.0,0.0023814975,-0.00036661327,0.0027200878,0.0,0.0,0.0,inf,inf,inf,0,0,1,0
11832000,11746857,0,0,0.009821598,-0.21448293,0.43007797,0.0,0.0,0.0,-0.0008080425,-0.0019496232,0.0020059943,0.0,0.0,0.0,inf,inf,inf,0,0,1,0
11896000,11814000,0,0,0.009838993,-0.21608359,0.4275287,0.0,0.0,0.0,-0.000840107,-0.0003361106,0.0045620203,0.0,0.0,0.0,inf,inf,inf,0,0,1,0
11968000,11885500,0,0,0.0099288635,-0.21391484,0.42718512,0.0,0.0,0.0,-0.0009285398,-0.0024941266,0.004910946,0.0,0.0,0.0,inf,inf,inf,0,0,1,0
12040000,11957000,0,0,0.00906735,-0.2169843,0.43016005,0.0,0.0,0.0,-3.6329962e-05,0.0006008446,0.0019481778,0.0,0.0,0.0,inf,inf,inf,0,0,1,0
12112000,12029500,0,0,0.009323747,-0.21424504,0.4280054,0.0,0.0,0.0,-0.00032201502,-0.002115056,0.0041151643,0.0,0.0,0.0,inf,inf,inf,0,0,1,0
12184000,12101000,0,0,0.0071847206,-0.21309072,0.43026397,0.0,0.0,0.0,0.0017995918,-0.0032431781,0.0018700063,0.0,0.0,0.0,inf,inf,inf,0,0,1,0
12256000,12173500,0,0,0.009992785,-0.21744104,0.42949945,0.0,0.0,0.0,-0.001033402,0.0011370331,0.0026500523,0.0,0.0,0.0,inf,inf,inf,0,0,1,0
12328000,12246000,0,0,0.0093921395,-0.2197776,0.4271957,0.0,0.0,0.0,-0.000363742,0.0034846514,0.0049578846,0.0,0.0,0.0,inf,inf,inf,0,0,1,0
12400000,12317500,0,0,0.009988083,-0.21621299,0.42993227,0.0,0.0,0.0,-0.0009117406,-8.316338e-05,0.0022187233,0.0,0.0,0.0,inf,inf,inf,0,0,1,0
12472000,12390000,0,0,0.010173658,-0.21816494,0.42659315,0.0,0.0,0.0,-0.0010889042,0.0018825531,0.0055645406,0.0,0.0,0.0,inf,inf,inf,0,0,1,0
12544000,12462000,0,0,0.009392139,-0.21672632,0.428049,0.0,0.0,0.0,-0.0002422966,0.0004607588,0.0041157305,0.0,0.0,0.0,inf,inf,inf,0,0,1,0
12616000,12534000,0,0,0.011737077,-0.21511157,0.43025213,0.0,0.0,0.0,-0.002566656,-0.0011469424,0.0019156337,0.0,0.0,0.0,inf,inf,inf,0,0,1,0
12688000,12605000,0,0,0.009187548,-0.21668386,0.42710143,0.0,0.0,0.0,5.157385e-05,0.00041252375,0.005058527,0.0,0.0,0.0,inf,inf,inf,0,0,1,0
12760000,12677000,0,0,0.012355779,-0.21797541,0.4280595,0.0,0.0,0.0,-0.0031154277,0.0017225444,0.004109651,0.0,0.0,0.0,inf,inf,inf,0,0,1,0
12832000,12748500,0,0,0.010093296,-0.21492766,0.4276325,0.0,0.0,0.0,-0.00074225105,-0.0013447851,0.0045244694,0.0,0.0,0.0,inf,inf,inf,0,0,1,0
12904000,12821000,0,0,0.00879066,-0.21919096,0.42833614,0.0,0.0,0.0,0.0005780654,0.002941519,0.0038319826,0.0,0.0,0.0,inf,inf,inf,0,0,1,0
12976000,12892000,0,0,0.007042936,-0.21524619,0.4294097,0.0,0.0,0.0,0.0023161555,-0.0009769946,0.002771765,0.0,0.0,0.0,inf,inf,inf,0,0,1,0
13040000,12958666,0,0,0.012151096,-0.21428709,0.4284498,0.0,0.0,0.0,-0.002876211,-0.0019598007,0.0037216246,0.0,0.0,0.0,inf,inf,inf,0,0,1,0
13112000,13031111,0,0,0.008864944,-0.21398246,0.42837864,0.0,0.0,0.0,0.0004978804,-0.0022647977,0.0037906766,0.0,0.0,0.0,inf,inf,inf,0,0,1,0
13184000,13101333,0,0,0.008588813,-0.2178852,0.429801,0.0,0.0,0.0,0.0007459447,0.0016215891,0.0023607612,0.0,0.0,0.0,inf,inf,inf,0,0,1,0
13256000,13168500,0,0,0.010195644,-0.21641606,0.42811012,0.0,0.0,0.0,-0.000880369,0.00018811226,0.0040699244,0.0,0.0,0.0,inf,inf,inf,0,0,1,0
13320000,13240000,0,0,0.009896759,-0.21687594,0.428724,0.0,0.0,0.0,-0.0005733408,0.00065010786,0.0034568906,0.0,0.0,0.0,inf,inf,inf,0,0,1,0
13392000,13307428,0,0,0.0072266324,-0.21769603,0.43179262,0.0,0.0,0.0,0.0021111504,0.0014623106,0.00038403273,0.0,0.0,0.0,inf,inf,inf,0,0,1,0
13464000,13378400,0,0,0.01025037,-0.21778052,0.431149,0.0,0.0,0.0,-0.0009692116,0.001636222,0.0010735989,0.0,0.0,0.0,inf,inf,inf,0,0,1,0
13536000,13450285,0,0,0.009014774,-0.21627367,0.43127623,0.0,0.0,0.0,0.00028036907,0.00011371076,0.0009382367,0.0,0.0,0.0,inf,inf,inf,0,0,1,0
13608000,13522400,0,0,0.011670085,-0.21666983,0.42997342,0.0,0.0,0.0,-0.0023812298,0.000510931,0.0022417307,0.0,0.0,0.0,inf,inf,inf,0,0,1,0
13680000,13594857,0,0,0.00615056,-0.21648622,0.43097404,0.0,0.0,0.0,0.0031950981,0.00034040213,0.0012464225,0.0,0.0,0.0,inf,inf,inf,0,0,1,0
13752000,13666400,0,0,0.010706554,-0.21759498,0.4276732,0.0,0.0,0.0,-0.0014316617,0.0014844239,0.0045664012,0.0,0.0,0.0,inf,inf,inf,0,0,1,0
13824000,13738285,0,0,0.010786208,-0.21566589,0.42918387,0.0,0.0,0.0,-0.0014966456,-0.00044083595,0.0030573308,0.0,0.0,0.0,inf,inf,inf,0,0,1,0
13888000,13805000,0,0,0.011216863,-0.21754467,0.4288075,0.0,0.0,0.0,-0.001870661,0.0014089048,0.0034179688,0.0,0.0,0.0,inf,inf,inf,0,0,1,0
13960000,13877000,0,0,0.009038271,-0.21438344,0.430365,0.0,0.0,0.0,0.00036158226,-0.0017297268,0.0018706024,0.0,0.0,0.0,inf,inf,inf,0,0,1,0
14032000,13948000,0,0,0.011449475,-0.22002216,0.42545712,0.0,0.0,0.0,-0.0020584054,0.003892824,0.0067706406,0.0,0.0,0.0,inf,inf,inf,0,0,1,0
14096000,14015428,0,0,0.010818301,-0.21650288,0.43054527,0.0,0.0,0.0,-0.0013976675,0.00038188696,0.001685977,0.0,0.0,0.0,inf,inf,inf,0,0,1,0
14168000,14088000,0,0,0.01043841,-0.21749978,0.43080544,0.0,0.0,0.0,-0.0010152878,0.0013871789,0.0014299452,0.0,0.0,0.0,inf,inf,inf,0,0,1,0
14240000,14158285,0,0,0.009616643,-0.21476302,0.42914605,0.0,0.0,0.0,-0.00019541383,-0.0014211833,0.003053546,0.0,0.0,0.0,inf,inf,inf,0,0,1,0
14312000,14225000,0,0,0.012913177,-0.21419139,0.42577744,0.0,0.0,0.0,-0.0034818072,-0.0019610375,0.006437838,0.0,0.0,0.0,inf,inf,inf,0,0,1,0
14376000,14292000,0,0,0.007855456,-0.21476845,0.4266342,0.0,0.0,0.0,0.0016376413,-0.0014145225,0.005564451,0.0,0.0,0.0,inf,inf,inf,0,0,1,0
14448000,14364000,0,0,0.008853299,-0.2189796,0.43182275,0.0,0.0,0.0,0.00059802365,0.002798155,0.00037762523,0.0,0.0,0.0,inf,inf,inf,0,0,1,0
14520000,14436000,0,0,0.010347258,-0.21330981,0.42934686,0.0,0.0,0.0,-0.0009058006,-0.0028604865,0.0028592348,0.0,0.0,0.0,inf,inf,inf,0,0,1,0
14592000,14508000,0,0,0.009135476,-0.21661754,0.42852408,0.0,0.0,0.0,0.0003299648,0.0004554242,0.0036856234,0.0,0.0,0.0,inf,inf,inf,0,0,1,0
14664000,14579428,0,0,0.00967441,-0.21387932,0.43010932,0.0,0.0,0.0,-0.00033251476,-0.0023360103,0.0020764172,0.0,0.0,0.0,inf,inf,inf,0,0,1,0
14736000,14652000,0,0,0.010198755,-0.21790044,0.42952248,0.0,0.0,0.0,-0.0008505564,0.0016963929,0.0026687682,0.0,0.0,0.0,inf,inf,inf,0,0,1,0
14808000,14724000,0,0,0.009903895,-0.21610482,0.42813456,0.0,0.0,0.0,-0.0005432088,-7.4252486e-05,0.004068911,0.0,0.0,0.0,inf,inf,inf,0,0,1,0
14880000,14792800,0,0,0.012453271,-0.21478419,0.43010393,0.0,0.0,0.0,-0.0030982178,-0.0014029592,0.0020956397,0.0,0.0,0.0,inf,inf,inf,0,0,1,0
14944000,14862000,0,0,0.010125636,-0.21580121,0.43187773,0.0,0.0,0.0,-0.00069028046,-0.00036233664,0.00033193827,0.0,0.0,0.0,inf,inf,inf,0,0,1,0
15016000,14934000,0,0,0.00801892,-0.21654966,0.43156368,0.0,0.0,0.0,0.0014552828,0.00030228496,0.000603199,0.0,0.0,0.0,inf,inf,inf,0,0,1,0
15088000,15005333,0,0,0.008047334,-0.21371214,0.42982817,0.0,0.0,0.0,0.0014022449,-0.0025414228,0.0023361444,0.0,0.0,0.0,inf,inf,inf,0,0,1,0
15160000,15076666,0,0,0.010191089,-0.2157594,0.42896017,0.0,0.0,0.0,-0.00077470206,-0.0004811287,0.003211379,0.0,0.0,0.0,inf,inf,inf,0,0,1,0
15224000,15144000,0,0,0.010384976,-0.21359423,0.43068472,0.0,0.0,0.0,-0.0009885347,-0.0026474297,0.0014866889,0.0,0.0,0.0,inf,inf,inf,0,0,1,0
15296000,15213714,0,0,0.009156069,-0.21573095,0.43293893,0.0,0.0,0.0,0.00022991188,-0.00046731532,-0.0007455349,0.0,0.0,0.0,inf,inf,inf,0,0,1,0
15368000,15286400,0,0,0.012738853,-0.21507016,0.42866358,0.0,0.0,0.0,-0.0033529988,-0.0011190772,0.0035343468,0.0,0.0,0.0,inf,inf,inf,0,0,1,0
15440000,15357714,0,0,0.011975392,-0.21468195,0.4318754,0.0,0.0,0.0,-0.0025675884,-0.0014320165,0.00035962462,0.0,0.0,0.0,inf,inf,inf,0,0,1,0
15512000,15426000,0,0,0.012387618,-0.2162371,0.42884177,0.0,0.0,0.0,-0.0029653981,0.00013446808,0.0033986568,0.0,0.0,0.0,inf,inf,inf,0,0,1,0
15584000,15496500,0,0,0.010297313,-0.21650667,0.43016514,0.0,0.0,0.0,-0.00086124986,0.00040994585,0.0020779073,0.0,0.0,0.0,inf,inf,inf,0,0,1,0
15648000,15564000,0,0,0.009571849,-0.21346466,0.4279111,0.0,0.0,0.0,-0.00013182964,-0.002627179,0.0043343306,0.0,0.0,0.0,inf,inf,inf,0,0,1,0
15720000,15634222,0,0,0.010405058,-0.21535431,0.43020794,0.0,0.0,0.0,-0.0009747762,-0.00074213743,0.0020353794,0.0,0.0,0.0,inf,inf,inf,0,0,1,0
15792000,15706666,0,0,0.011718707,-0.21640289,0.42993277,0.0,0.0,0.0,-0.0023006145,0.0003130734,0.0023141205,0.0,0.0,0.0,inf,inf,inf,0,0,1,0
15864000,15777333,0,0,0.009535146,-0.21564245,0.43002787,0.0,0.0,0.0,-9.0968795e-05,-0.00043082237,0.0022266805,0.0,0.0,0.0,inf,inf,inf,0,0,1,0
15928000,15846000,0,0,0.00554246,-0.2177722,0.4297964,0.0,0.0,0.0,0.0038962262,0.0017051399,0.0024614334,0.0,0.0,0.0,inf,inf,inf,0,0,1,0
16000000,15916000,0,0,0.01145128,-0.21610259,0.42896762,0.0,0.0,0.0,-0.002129605,4.157424e-06,0.0032770336,0.0,0.0,0.0,inf,inf,inf,0,0,1,0
16064000,15984000,0,0,0.012269312,-0.21770336,0.43848005,0.0,0.0,0.0,-0.002919496,0.0016047806,-0.0062360764,0.0,0.0,0.0,inf,inf,inf,0,0,1,0
16136000,16054909,0,0,0.011020796,-0.21688703,0.42985007,0.0,0.0,0.0,-0.0016509537,0.000788033,0.0023932755,0.0,0.0,0.0,inf,inf,inf,0,0,1,0
16208000,16128000,0,0,0.012415825,-0.21545258,0.42721695,0.0,0.0,0.0,-0.0030052355,-0.00067541003,0.005011022,0.0,0.0,0.0,inf,inf,inf,0,0,1,0
16280000,16199272,0,0,0.010986732,-0.2149989,0.43151623,0.0,0.0,0.0,-0.0014844779,-0.0011368245,0.0007058382,0.0,0.0,0.0,inf,inf,inf,0,0,1,0
16352000,16268000,0,0,0.0033522604,-0.21809418,0.4306381,0.0,0.0,0.0,0.006203266,0.001931861,0.0015695095,0.0,0.0,0.0,inf,inf,inf,0,0,1,0
16424000,16337200,0,0,0.00918795,-0.21603529,0.42920333,0.0,0.0,0.0,0.00020149536,-0.00010918081,0.0030168295,0.0,0.0,0.0,inf,inf,inf,0,0,1,0
16488000,16404000,0,0,0.014825291,-0.22202082,0.42780498,0.0,0.0,0.0,-0.0054362183,0.0058950037,0.004424542,0.0,0.0,0.0,inf,inf,inf,0,0,1,0
16560000,16475272,0,0,0.009554782,-0.21731317,0.42737684,0.0,0.0,0.0,-9.062234e-05,0.0011566728,0.004835725,0.0,0.0,0.0,inf,inf,inf,0,0,1,0
16624000,16544000,0,0,0.009687205,-0.22502172,0.43145946,0.0,0.0,0.0,-0.00021524448,0.008899659,0.0007701218,0.0,0.0,0.0,inf,inf,inf,0,0,1,0
16696000,16613600,0,0,0.007883265,-0.21631281,0.42914638,0.0,0.0,0.0,0.001608544,0.00020717084,0.0030910075,0.0,0.0,0.0,inf,inf,inf,0,0,1,0
16768000,16684000,0,0,0.015594691,-0.21488217,0.4261995,0.0,0.0,0.0,-0.006106332,-0.0012542009,0.0060226023,0.0,0.0,0.0,inf,inf,inf,0,0,1,0
16832000,16751111,0,0,0.0093023805,-0.21698342,0.43065304,0.0,0.0,0.0,0.0003296705,0.00083485246,0.001559794,0.0,0.0,0.0,inf,inf,inf,0,0,1,0
16904000,16818000,0,0,0.007829829,-0.21563676,0.42844325,0.0,0.0,0.0,0.0017852718,-0.00053071976,0.003760457,0.0,0.0,0.0,inf,inf,inf,0,0,1,0
16968000,16888000,0,0,0.010312873,-0.21493123,0.4308524,0.0,0.0,0.0,-0.0007376624,-0.0012610704,0.0013397336,0.0,0.0,0.0,inf,inf,inf,0,0,1,0
17040000,16960000,0,0,0.009480519,-0.21715692,0.43013668,0.0,0.0,0.0,9.069033e-05,0.000966534,0.0020565689,0.0,0.0,0.0,inf,inf,inf,0,0,1,0
17112000,17026666,0,0,0.009542759,-0.21363197,0.42742208,0.0,0.0,0.0,1.5054829e-05,-0.0025565475,0.0047723353,0.0,0.0,0.0,inf,inf,inf,0,0,1,0
17184000,17097333,0,0,0.009076696,-0.21596967,0.43015513,0.0,0.0,0.0,0.00047117844,-0.00021927059,0.0020394027,0.0,0.0,0.0,inf,inf,inf,0,0,1,0
17248000,17165000,0,0,0.010903806,-0.21351096,0.4302789,0.0,0.0,0.0,-0.0013722861,-0.002662152,0.0019238293,0.0,0.0,0.0,inf,inf,inf,0,0,1,0
17320000,17237000,0,0,0.007660674,-0.21646598,0.4303824,0.0,0.0,0.0,0.0019463655,0.00030238926,0.0018234253,0.0,0.0,0.0,inf,inf,inf,0,0,1,0
17392000,17308500,0,0,0.008977875,-0.21538182,0.4312165,0.0,0.0,0.0,0.0005633533,6.596744e-05,0.0014137626,0.0,0.0,0.0,inf,inf,inf,0,0,1,0
17464000,17381000,0,0,0.009840427,-0.21188436,0.43290854,0.0,0.0,0.0,-0.0010075178,-0.000466004,0.0011999607,0.0,0.0,0.0,inf,inf,inf,0,0,1,0
17536000,17453000,0,0,0.0045282934,-0.20689344,0.43340147,0.0,0.0,0.0,0.0010425281,-0.00086413324,0.00297755,0.0,0.0,0.0,inf,inf,inf,0,0,1,0
17608000,17525000,0,0,-0.0047263484,-0.20090678,0.43808532,0.0,0.0,0.0,0.0037002098,-0.0008517206,0.0011336803,0.0,0.0,0.0,inf,inf,inf,0,0,1,0
17680000,17597000,0,0,-0.009666604,-0.19578955,0.44065753,0.0,0.0,0.0,-0.0007445095,0.0012243092,0.0016736686,0.0,0.0,0.0,inf,inf,inf,0,0,1,0
17744000,17664000,0,0,-0.019659994,-0.19053528,0.44004282,0.0,0.0,0.0,0.0027692672,9.414554e-05,0.0038802922,0.0,0.0,0.0,inf,inf,inf,0,0,1,0
17816000,17735111,0,0,-0.016574873,-0.19190785,0.43954885,0.0,0.0,0.0,-0.0013696495,0.00042641163,0.00388515,0.0,0.0,0.0,inf,inf,inf,0,0,1,0
17888000,17806666,0,0,-0.013872909,-0.19927272,0.43685293,0.0,0.0,0.0,0.0005645184,0.0026500523,0.0044896603,0.0,0.0,0.0,inf,inf,inf,0,0,1,0
17960000,17873500,0,0,-0.0066206804,-0.20561229,0.43561068,0.0,0.0,0.0,0.0005296371,0.0026153773,0.002996236,0.0,0.0,0.0,inf,inf,inf,0,0,1,0
18032000,17945000,0,0,0.0031894392,-0.20589936,0.4353163,0.0,0.0,0.0,-0.0025084561,-0.0027923882,0.0006518066,0.0,0.0,0.0,inf,inf,inf,0,0,1,0
18104000,18016500,0,0,0.0033667814,-0.21273571,0.43236604,0.0,0.0,0.0,0.0022670645,-0.0001219064,0.001547277,0.0,0.0,0.0,inf,inf,inf,0,0,1,0
18168000,18084000,0,0,0.00907285,-0.21404305,0.43303025,0.0,0.0,0.0,-0.0009603305,-0.0012520552,-0.0003605187,0.0,0.0,0.0,inf,inf,inf,0,0,1,0
18240000,18155555,0,0,0.009287374,-0.21606775,0.42825437,0.0,0.0,0.0,0.00012048893,-0.0010368377,0.003483981,0.0,0.0,0.0,inf,inf,inf,0,0,1,0
18312000,18226666,0,0,0.010674253,-0.21976148,0.42856514,0.0,0.0,0.0,-0.00070635974,0.0013208836,0.0024861693,0.0,0.0,0.0,inf,inf,inf,0,0,1,0
18384000,18298666,0,0,0.011169301,-0.2180503,0.43046272,0.0,0.0,0.0,-0.00058488734,-0.0016066432,-4.4703484e-05,0.0,0.0,0.0,inf,inf,inf,0,0,1,0
18448000,18366000,0,0,0.011805801,-0.22200426,0.42363513,0.0,0.0,0.0,-0.00039066188,0.0010819435,0.0061134696,0.0,0.0,0.0,inf,inf,inf,0,0,1,0
18520000,18437600,0,0,0.011912714,-0.22271314,0.42608824,0.0,0.0,0.0,0.0006905468,0.00024431944,0.0028285682,0.0,0.0,0.0,inf,inf,inf,0,0,1,0
18592000,18510000,0,0,0.014653131,-0.22474024,0.42362,0.0,0.0,0.0,-0.0007753745,0.0009863675,0.004588455,0.0,0.0,0.0,inf,inf,inf,0,0,1,0
18664000,18581600,0,0,0.015661528,-0.22451857,0.4245442,0.0,0.0,0.0,-0.00075549446,4.61936e-06,0.0032317042,0.0,0.0,0.0,inf,inf,inf,0,0,1,0
18736000,18652000,0,0,0.014354574,-0.22272784,0.4248059,0.0,0.0,0.0,0.0012162086,-0.0022084415,0.0027243495,0.0,0.0,0.0,inf,inf,inf,0,0,1,0
18800000,18719555,0,0,0.015751354,-0.22382954,0.42418513,0.0,0.0,0.0,8.395314e-05,-0.0012603551,0.003254503,0.0,0.0,0.0,inf,inf,inf,0,0,1,0
18872000,18792000,0,0,0.018405858,-0.22304094,0.4256211,0.0,0.0,0.0,-0.002316866,-0.0021567345,0.001752317,0.0,0.0,0.0,inf,inf,inf,0,0,1,0
18944000,18863555,0,0,0.016058475,-0.22568835,0.42374587,0.0,0.0,0.0,0.00015062839,0.00044251978,0.003597647,0.0,0.0,0.0,inf,inf,inf,0,0,1,0
19016000,18936000,0,0,0.018502641,-0.22287498,0.42518383,0.0,0.0,0.0,-0.0023408048,-0.0021738112,0.0022652745,0.0,0.0,0.0,inf,inf,inf,0,0,1,0
19088000,19008000,0,0,0.016510779,-0.225733,0.42516938,0.0,0.0,0.0,-0.00023028441,0.00088883936,0.0023829043,0.0,0.0,0.0,inf,inf,inf,0,0,1,0
19160000,19080000,0,0,0.015298652,-0.22561803,0.42286408,0.0,0.0,0.0,0.0009511011,0.0010698736,0.004844904,0.0,0.0,0.0,inf,inf,inf,0,0,1,0
19232000,19151111,0,0,0.017900378,-0.22536762,0.4238122,0.0,0.0,0.0,-0.001801908,0.0009393245,0.003965378,0.0,0.0,0.0,inf,inf,inf,0,0,1,0
19304000,19218000,0,0,0.014315413,-0.22525024,0.42404747,0.0,0.0,0.0,0.0016790163,0.00092186034,0.0037864447,0.0,0.0,0.0,inf,inf,inf,0,0,1,0
19376000,19288400,0,0,0.015995353,-0.2234441,0.42375764,0.0,0.0,0.0,-0.00016567111,-0.0008058846,0.004123479,0.0,0.0,0.0,inf,inf,inf,0,0,1,0
19440000,19360000,0,0,0.016165452,-0.2214387,0.4244842,0.0,0.0,0.0,-0.0006231982,-0.0025596768,0.0035392344,0.0,0.0,0.0,inf,inf,inf,0,0,1,0
19512000,19427555,0,0,0.014030073,-0.2223777,0.42577022,0.0,0.0,0.0,0.0010558255,-0.001157105,0.0025117993,0.0,0.0,0.0,inf,inf,inf,0,0,1,0
19584000,19500000,0,0,0.012874588,-0.22063994,0.42580897,0.0,0.0,0.0,0.0016756505,-0.0022784472,0.0028127432,0.0,0.0,0.0,inf,inf,inf,0,0,1,0
19656000,19571111,0,0,0.015149433,-0.22246936,0.42534295,0.0,0.0,0.0,-0.0009672679,9.214878e-05,0.0035721362,0.0,0.0,0.0,inf,inf,inf,0,0,1,0
19720000,19638000,0,0,0.013307296,-0.22418115,0.42628157,0.0,0.0,0.0,0.0006954074,0.002344489,0.002919197,0.0,0.0,0.0,inf,inf,inf,0,0,1,0
19792000,19709200,0,0,0.01362555,-0.22076344,0.42690784,0.0,0.0,0.0,0.00024278183,-0.0004943311,0.0025960207,0.0,0.0,0.0,inf,inf,inf,0,0,1,0
19856000,19776000,0,0,0.015428277,-0.2224911,0.43059635,0.0,0.0,0.0,-0.0018634144,0.0017374605,-0.0008234978,0.0,0.0,0.0,inf,inf,inf,0,0,1,0
19928000,19846545,0,0,0.012093447,-0.21911013,0.42609835,0.0,0.0,0.0,0.0011586174,-0.0010183156,0.004004836,0.0,0.0,0.0,inf,inf,inf,0,0,1,0
20000000,19920000,0,0,0.011484372,-0.21977648,0.4283852,0.0,0.0,0.0,0.0012919055,0.00021746755,0.0020233095,0.0,0.0,0.0,inf,inf,inf,0,0,1,0
20072000,19990909,0,0,0.010403899,-0.21785843,0.42893848,0.0,0.0,0.0,0.0020706384,-0.0011450052,0.0017618537,0.0,0.0,0.0,inf,inf,inf,0,0,1,0
20144000,20064000,0,0,0.012254809,-0.22233059,0.425721,0.0,0.0,0.0,-0.00010692049,0.004004523,0.00533247,0.0,0.0,0.0,inf,inf,inf,0,0,1,0
20216000,20134545,0,0,0.012907826,-0.21765542,0.4296333,0.0,0.0,0.0,-0.0010276819,-3.477931e-05,0.0017490387,0.0,0.0,0.0,inf,inf,inf,0,0,1,0
20288000,20208000,0,0,0.014478018,-0.22326015,0.4344864,0.0,0.0,0.0,-0.0028237896,0.0060757846,-0.0028429925,0.0,0.0,0.0,inf,inf,inf,0,0,1,0
20360000,20279272,0,0,0.011619832,-0.21676704,0.42825866,0.0,0.0,0.0,0.0013077073,-0.0037927479,-0.00024837255,0.0,0.0,0.0,inf,inf,inf,0,0,1,0
20432000,20352000,0,0,0.014079042,-0.21154341,0.42591003,0.0,0.0,0.0,-0.0015562102,-0.008832008,0.0022072494,0.0,0.0,0.0,inf,inf,inf,0,0,1,0
20504000,20423272,0,0,0.00943947,-0.21412204,0.42908216,0.0,0.0,0.0,0.0030783992,-0.006250724,-0.0009633601,0.0,0.0,0.0,inf,inf,inf,0,0,1,0
20576000,20496000,0,0,0.0031746284,-0.2182806,0.43268284,0.0,0.0,0.0,0.008842153,-0.0020694435,-0.0045380294,0.0,0.0,0.0,inf,inf,inf,0,0,1,0
20648000,20566909,0,0,0.0087603945,-0.21716617,0.42875943,0.0,0.0,0.0,0.0021425616,-0.0031414926,-0.0005629957,0.0,0.0,0.0,inf,inf,inf,0,0,1,0
20720000,20640000,0,0,0.011048913,-0.2177906,0.4305865,0.0,0.0,0.0,-0.00056517124,-0.0023971647,-0.0023179352,0.0,0.0,0.0,inf,inf,inf,0,0,1,0
20792000,20710181,0,0,0.010685474,-0.21552208,0.42940518,0.0,0.0,0.0,-0.00038725883,-0.0044508576,-0.001021713,0.0,0.0,0.0,inf,inf,inf,0,0,1,0
20864000,20784000,0,0,0.011197374,-0.2130156,0.42485753,0.0,0.0,0.0,-0.000978359,-0.0068131536,0.0036018193,0.0,0.0,0.0,inf,inf,inf,0,0,1,0
20936000,20855272,0,0,0.010335022,-0.21441948,0.42900586,0.0,0.0,0.0,5.4902397e-05,-0.0053717345,-0.0005313754,0.0,0.0,0.0,inf,inf,inf,0,0,1,0
21008000,20928000,0,0,0.009364914,-0.20991273,0.42859665,0.0,0.0,0.0,0.0012049936,-0.009923175,-0.00014945865,0.0,0.0,0.0,inf,inf,inf,0,0,1,0
21080000,20998545,0,0,0.010665136,-0.21283883,0.43035096,0.0,0.0,0.0,-2.818834e-05,-0.006912768,-0.0018621683,0.0,0.0,0.0,inf,inf,inf,0,0,1,0
21152000,21072000,0,0,0.0066480422,-0.2152664,0.42808804,0.0,0.0,0.0,0.0040784692,-0.0044519156,0.00041556358,0.0,0.0,0.0,inf,inf,inf,0,0,1,0
21224000,21142545,0,0,0.009225123,-0.21413715,0.42933545,0.0,0.0,0.0,0.00119818,-0.005558297,-0.0008126199,0.0,0.0,0.0,inf,inf,inf,0,0,1,0
21296000,21216000,0,0,0.0097176,-0.21944506,0.43329445,0.0,0.0,0.0,0.00030620955,-0.00016647577,-0.0047191083,0.0,0.0,0.0,inf,inf,inf,0,0,1,0
21368000,21286909,0,0,0.008996546,-0.21627863,0.42777315,0.0,0.0,0.0,0.00066191703,-0.0033113211,0.0008216202,0.0,0.0,0.0,inf,inf,inf,0,0,1,0
21440000,21360000,0,0,0.015601767,-0.20984209,0.42439097,0.0,0.0,0.0,-0.0063610505,-0.009550631,0.004314065,0.0,0.0,0.0,inf,inf,inf,0,0,1,0
21512000,21430909,0,0,0.0079135625,-0.21551184,0.4295692,0.0,0.0,0.0,0.001350035,-0.0037807226,-0.0008134842,0.0,0.0,0.0,inf,inf,inf,0,0,1,0
21584000,21504000,0,0,0.009432262,-0.21677855,0.42876485,0.0,0.0,0.0,-0.00043866597,-0.0024657995,2.130866e-05,0.0,0.0,0.0,inf,inf,inf,0,0,1,0
21656000,21575272,0,0,0.007050941,-0.21538934,0.43056315,0.0,0.0,0.0,0.0017945743,-0.0038989782,-0.0017963648,0.0,0.0,0.0,inf,inf,inf,0,0,1,0
21728000,21648000,0,0,0.006953567,-0.2190091,0.4262742,0.0,0.0,0.0,0.0017993976,-0.00047892332,0.0023922622,0.0,0.0,0.0,inf,inf,inf,0,0,1,0
21800000,21718545,0,0,0.007205557,-0.21427311,0.4286963,0.0,0.0,0.0,0.0014373772,-0.0054059178,-0.00012549758,0.0,0.0,0.0,inf,inf,inf,0,0,1,0
21872000,21792000,0,0,0.00055193674,-0.21348199,0.42841744,0.0,0.0,0.0,0.008061888,-0.0063521117,7.44462e-05,0.0,0.0,0.0,inf,inf,inf,0,0,1,0
21944000,21862181,0,0,0.0072535626,-0.21542905,0.4301171,0.0,0.0,0.0,0.0010737204,-0.0045021027,-0.0016693175,0.0,0.0,0.0,inf,inf,inf,0,0,1,0
22016000,21936000,0,0,0.0058314553,-0.21319297,0.42915648,0.0,0.0,0.0,0.0024653994,-0.00685139,-0.0007662475,0.0,0.0,0.0,inf,inf,inf,0,0,1,0
22088000,22006545,0,0,0.008760317,-0.21547587,0.42807585,0.0,0.0,0.0,-0.0005918434,-0.004693821,0.00025248528,0.0,0.0,0.0,inf,inf,inf,0,0,1,0
22160000,22080000,0,0,0.010594134,-0.21884339,0.42679012,0.0,0.0,0.0,-0.0024612444,-0.0014018714,0.0015000105,0.0,0.0,0.0,inf,inf,inf,0,0,1,0
22232000,22150545,0,0,0.005968639,-0.2149127,0.43003336,0.0,0.0,0.0,0.0022487477,-0.005345568,-0.0017515719,0.0,0.0,0.0,inf,inf,inf,0,0,1,0
22304000,22224000,0,0,0.009382768,-0.21363065,0.43369403,0.0,0.0,0.0,-0.0012537595,-0.0066033006,-0.005398065,0.0,0.0,0.0,inf,inf,inf,0,0,1,0
22376000,22295272,0,0,0.008656533,-0.21604784,0.4290359,0.0,0.0,0.0,-0.00044600107,-0.0041416585,-0.0007185936,0.0,0.0,0.0,inf,inf,inf,0,0,1,0
22448000,22368000,0,0,0.010499632,-0.21394609,0.4285973,0.0,0.0,0.0,-0.0021568667,-0.0061587244,-0.00023898482,0.0,0.0,0.0,inf,inf,inf,0,0,1,0
22520000,22438545,0,0,0.007864013,-0.21633728,0.42817673,0.0,0.0,0.0,0.00061070174,-0.0036818236,0.00022301078,0.0,0.0,0.0,inf,inf,inf,0,0,1,0
22592000,22512000,0,0,0.009451658,-0.22139378,0.43173283,0.0,0.0,0.0,-0.0009952197,0.0014866292,-0.0032752752,0.0,0.0,0.0,inf,inf,inf,0,0,1,0
22664000,22582909,0,0,0.008848871,-0.21479362,0.42887083,0.0,0.0,0.0,-0.00028594863,-0.005030364,-0.00037273765,0.0,0.0,0.0,inf,inf,inf,0,0,1,0
22736000,22656000,0,0,0.0026443978,-0.22135533,0.42606938,0.0,0.0,0.0,0.005935624,0.00161466,0.0024711192,0.0,0.0,0.0,inf,inf,inf,0,0,1,0
22808000,22726909,0,0,0.0068125483,-0.2148637,0.42902106,0.0,0.0,0.0,0.0015166719,-0.004777923,-0.0004248619,0.0,0.0,0.0,inf,inf,inf,0,0,1,0
22880000,22800000,0,0,0.0101491,-0.21290268,0.43270895,0.0,0.0,0.0,-0.0020945305,-0.0066726357,-0.004073441,0.0,0.0,0.0,inf,inf,inf,0,0,1,0
22952000,22870909,0,0,0.00599372,-0.21610391,0.43039006,0.0,0.0,0.0,0.0018004067,-0.0034898221,-0.0017592311,0.0,0.0,0.0,inf,inf,inf,0,0,1,0
23024000,22944000,0,0,0.009571472,-0.21536095,0.4278412,0.0,0.0,0.0,-0.0020618606,-0.0043376386,0.00074100494,0.0,0.0,0.0,inf,inf,inf,0,0,1,0
23096000,23015272,0,0,0.0054490967,-0.21543913,0.42846036,0.0,0.0,0.0,0.0019844742,-0.0042828172,0.00011113286,0.0,0.0,0.0,inf,inf,inf,0,0,1,0
23168000,23088000,0,0,0.0022637188,-0.21751706,0.4298674,0.0,0.0,0.0,0.0051182494,-0.0021722168,-0.0012782216,0.0,0.0,0.0,inf,inf,inf,0,0,1,0
23240000,23158909,0,0,0.007119704,-0.21573393,0.42816043,0.0,0.0,0.0,0.00017190352,-0.0037861317,0.0005169511,0.0,0.0,0.0,inf,inf,inf,0,0,1,0
23312000,23232000,0,0,0.0026688299,-0.21406002,0.43291864,0.0,0.0,0.0,0.0046783444,-0.005116001,-0.004066199,0.0,0.0,0.0,inf,inf,inf,0,0,1,0
23384000,23302181,0,0,0.005751442,-0.21327156,0.43106756,0.0,0.0,0.0,0.001595173,-0.0056424737,-0.0020813048,0.0,0.0,0.0,inf,inf,inf,0,0,1,0
23456000,23376000,0,0,0.0042638425,-0.21271597,0.42824644,0.0,0.0,0.0,0.003181858,-0.0060723424,0.0008022487,0.0,0.0,0.0,inf,inf,inf,0,0,1,0
23528000,23446909,0,0,0.0047555957,-0.21479343,0.4318979,0.0,0.0,0.0,0.0027973559,-0.0039785653,-0.002842784,0.0,0.0,0.0,inf,inf,inf,0,0,1,0
23600000,23520000,0,0,0.000966767,-0.21144861,0.42266148,0.0,0.0,0.0,0.006609155,-0.007330194,0.0063897967,0.0,0.0,0.0,inf,inf,inf,0,0,1,0
23672000,23590909,0,0,0.006122829,-0.2145008,0.43096837,0.0,0.0,0.0,0.0013733865,-0.00424093,-0.0018968284,0.0,0.0,0.0,inf,inf,inf,0,0,1,0
23744000,23664000,0,0,0.009333183,-0.22134002,0.43828642,0.0,0.0,0.0,-0.0018602731,0.0025883913,-0.009219468,0.0,0.0,0.0,inf,inf,inf,0,0,1,0
23816000,23734909,0,0,0.0075076544,-0.21644878,0.42905557,0.0,0.0,0.0,-3.8693193e-05,-0.0023820698,-2.8967857e-05,0.0,0.0,0.0,inf,inf,inf,0,0,1,0
23888000,23808000,0,0,0.0046741846,-0.21552801,0.42862856,0.0,0.0,0.0,0.0028061015,-0.003360957,0.0003682077,0.0,0.0,0.0,inf,inf,inf,0,0,1,0
23960000,23880000,0,0,0.0074761803,-0.2137905,0.42903945,0.0,0.0,0.0,3.2084063e-07,-0.005170703,-7.95424e-05,0.0,0.0,0.0,inf,inf,inf,0,0,1,0
24032000,23952000,0,0,0.0009281078,-0.21605861,0.43711084,0.0,0.0,0.0,0.0066634454,-0.0028834343,-0.008143127,0.0,0.0,0.0,inf,inf,inf,0,0,1,0
24104000,24024000,0,0,0.0070587276,-0.21525252,0.42752075,0.0,0.0,0.0,0.00057362486,-0.0036422014,0.001470387,0.0,0.0,0.0,inf,inf,inf,0,0,1,0
24176000,24096000,0,0,0.015337425,-0.218803,0.43337613,0.0,0.0,0.0,-0.0074612005,-3.1158328e-05,-0.00435853,0.0,0.0,0.0,inf,inf,inf,0,0,1,0
24248000,24167272,0,0,0.007878696,-0.2138203,0.42808586,0.0,0.0,0.0,0.00021152478,-0.00495629,0.0009571016,0.0,0.0,0.0,inf,inf,inf,0,0,1,0
24320000,24240000,0,0,0.011060779,-0.2147798,0.43516034,0.0,0.0,0.0,-0.002846961,-0.004042268,-0.0061428547,0.0,0.0,0.0,inf,inf,inf,0,0,1,0
24392000,24311272,0,0,0.009630688,-0.21476568,0.42895067,0.0,0.0,0.0,-0.0010943338,-0.0041549355,1.0222197e-05,0.0,0.0,0.0,inf,inf,inf,0,0,1,0
24464000,24384000,0,0,0.0113965925,-0.20916916,0.4310716,0.0,0.0,0.0,-0.0024374332,-0.010051593,-0.0022726655,0.0,0.0,0.0,inf,inf,inf,0,0,1,0
24536000,24455636,0,0,0.009584001,-0.2151053,0.4304089,0.0,0.0,0.0,-0.00013423618,-0.0044206977,-0.0017766953,0.0,0.0,0.0,inf,inf,inf,0,0,1,0
24608000,24528000,0,0,0.014165327,-0.22138508,0.43297055,0.0,0.0,0.0,-0.004319124,0.0016333014,-0.004462987,0.0,0.0,0.0,inf,inf,inf,0,0,1,0
24680000,24599636,0,0,0.009872557,-0.21566509,0.42839965,0.0,0.0,0.0,0.00029452797,-0.0041876733,4.8667192e-05,0.0,0.0,0.0,inf,inf,inf,0,0,1,0
24752000,24672000,0,0,0.010756988,-0.2153776,0.4342396,0.0,0.0,0.0,-0.00045565888,-0.0045697093,-0.005843073,0.0,0.0,0.0,inf,inf,inf,0,0,1,0
24824000,24743272,0,0,0.011132629,-0.21544766,0.42922625,0.0,0.0,0.0,-0.0007079104,-0.004645258,-0.0009074509,0.0,0.0,0.0,inf,inf,inf,0,0,1,0
24896000,24816000,0,0,0.00801346,-0.21541458,0.43139064,0.0,0.0,0.0,0.0024966197,-0.0048563033,-0.0031654239,0.0,0.0,0.0,inf,inf,inf,0,0,1,0
24968000,24886545,0,0,0.010325386,-0.2162112,0.42936182,0.0,0.0,0.0,0.00027830247,-0.004157141,-0.0011890829,0.0,0.0,0.0,inf,inf,inf,0,0,1,0
25040000,24960000,0,0,0.014147975,-0.21734956,0.42394546,0.0,0.0,0.0,-0.0034852773,-0.0031189024,0.0041742623,0.0,0.0,0.0,inf,inf,inf,0,0,1,0
25112000,25031272,0,0,0.010902188,-0.21491002,0.4291535,0.0,0.0,0.0,-3.9770268e-05,-0.005580753,-0.0010502934,0.0,0.0,0.0,inf,inf,inf,0,0,1,0
25184000,25104000,0,0,0.0074049444,-0.21713665,0.42428425,0.0,0.0,0.0,0.0034533455,-0.0033850074,0.0038031638,0.0,0.0,0.0,inf,inf,inf,0,0,1,0
25256000,25174909,0,0,0.012194361,-0.21674445,0.42996377,0.0,0.0,0.0,-0.0013320846,-0.0037543774,-0.0018646717,0.0,0.0,0.0,inf,inf,inf,0,0,1,0
25328000,25248000,0,0,0.009143048,-0.21262121,0.4260282,0.0,0.0,0.0,0.0018355912,-0.0077760667,0.0021202266,0.0,0.0,0.0,inf,inf,inf,0,0,1,0
25400000,25319636,0,0,0.009947166,-0.21655099,0.43046224,0.0,0.0,0.0,0.0011031479,-0.0037734956,-0.0022782087,0.0,0.0,0.0,inf,inf,inf,0,0,1,0
25472000,25392000,0,0,0.0101431245,-0.21611792,0.4248757,0.0,0.0,0.0,0.0008604666,-0.004100591,0.0033639967,0.0,0.0,0.0,inf,inf,inf,0,0,1,0
25544000,25462909,0,0,0.010238127,-0.21541438,0.42694578,0.0,0.0,0.0,0.0007154336,-0.0047742724,0.0013106167,0.0,0.0,0.0,inf,inf,inf,0,0,1,0
25616000,25536000,0,0,0.012233149,-0.21411598,0.42928272,0.0,0.0,0.0,-0.0013371594,-0.0061060786,-0.0010420978,0.0,0.0,0.0,inf,inf,inf,0,0,1,0
25688000,25606909,0,0,0.011270868,-0.21556465,0.42984796,0.0,0.0,0.0,-0.000445107,-0.004734054,-0.0016449094,0.0,0.0,0.0,inf,inf,inf,0,0,1,0
25760000,25680000,0,0,0.0067888447,-0.21796669,0.42409545,0.0,0.0,0.0,0.0039221323,-0.002383396,0.004083991,0.0,0.0,0.0,inf,inf,inf,0,0,1,0
25832000,25751272,0,0,0.009546152,-0.21700624,0.4300946,0.0,0.0,0.0,0.0009787465,-0.0033847839,-0.0019316077,0.0,0.0,0.0,inf,inf,inf,0,0,1,0
25904000,25824000,0,0,0.008530652,-0.2153991,0.42449903,0.0,0.0,0.0,0.0018776972,-0.00502868,0.0036478639,0.0,0.0,0.0,inf,inf,inf,0,0,1,0
25976000,25895272,0,0,0.009203471,-0.21781564,0.4291621,0.0,0.0,0.0,0.0010706335,-0.0026217103,-0.0010168254,0.0,0.0,0.0,inf,inf,inf,0,0,1,0
26048000,25964000,0,0,0.012067362,-0.21314032,0.4227844,0.0,0.0,0.0,-0.0017706221,-0.0073254853,0.0053456724,0.0,0.0,0.0,inf,inf,inf,0,0,1,0
26120000,26033200,0,0,0.011068103,-0.2152907,0.42853594,0.0,0.0,0.0,-0.00058241654,-0.0053421855,-0.0004965663,0.0,0.0,0.0,inf,inf,inf,0,0,1,0
26184000,26100000,0,0,0.01099938,-0.21681358,0.42657387,0.0,0.0,0.0,-0.0004057046,-0.0039488077,0.00139606,0.0,0.0,0.0,inf,inf,inf,0,0,1,0
26256000,26170545,0,0,0.00947758,-0.21583627,0.4277308,0.0,0.0,0.0,0.0012195017,-0.0050465614,0.00017440319,0.0,0.0,0.0,inf,inf,inf,0,0,1,0
26328000,26244000,0,0,0.011683406,-0.22035323,0.4227007,0.0,0.0,0.0,-0.0010261182,-0.00059376657,0.005172372,0.0,0.0,0.0,inf,inf,inf,0,0,1,0
26400000,26315636,0,0,0.010528008,-0.21485475,0.42599463,0.0,0.0,0.0,7.845182e-05,-0.006012112,0.0019210577,0.0,0.0,0.0,inf,inf,inf,0,0,1,0
26472000,26388000,0,0,0.011400319,-0.21325782,0.42962396,0.0,0.0,0.0,-0.0008266708,-0.00742203,-0.0016109645,0.0,0.0,0.0,inf,inf,inf,0,0,1,0
26544000,26459272,0,0,0.011299361,-0.21669297,0.4283542,0.0,0.0,0.0,-0.0007104762,-0.003755495,-0.00022235513,0.0,0.0,0.0,inf,inf,inf,0,0,1,0
26616000,26532000,0,0,0.008992017,-0.21939713,0.43037933,0.0,0.0,0.0,0.0017108237,-0.00086680055,-0.0021553338,0.0,0.0,0.0,inf,inf,inf,0,0,1,0
26688000,26602909,0,0,0.011054497,-0.21443227,0.42850408,0.0,0.0,0.0,-0.0003224425,-0.0058544874,-0.0002925694,0.0,0.0,0.0,inf,inf,inf,0,0,1,0
26752000,26672000,0,0,0.007856568,-0.21705057,0.4295778,0.0,0.0,0.0,0.0028549377,-0.003251493,-0.0013736486,0.0,0.0,0.0,inf,inf,inf,0,0,1,0
26824000,26741200,0,0,0.009656592,-0.21569991,0.4263738,0.0,0.0,0.0,0.00087687466,-0.0046922266,0.0017883778,0.0,0.0,0.0,inf,inf,inf,0,0,1,0
26888000,26808000,0,0,0.008938719,-0.20796306,0.43547827,0.0,0.0,0.0,0.0012939312,-0.012486026,-0.0073381066,0.0,0.0,0.0,inf,inf,inf,0,0,1,0
26960000,26879636,0,0,0.008304233,-0.215458,0.42731902,0.0,0.0,0.0,0.0015495252,-0.005129397,0.00075879693,0.0,0.0,0.0,inf,inf,inf,0,0,1,0
27032000,26952000,0,0,0.0073108277,-0.22354254,0.42912552,0.0,0.0,0.0,0.0022509494,0.002875775,-0.0010819733,0.0,0.0,0.0,inf,inf,inf,0,0,1,0
27104000,27022909,0,0,0.008646071,-0.21651644,0.43004853,0.0,0.0,0.0,0.00071936846,-0.0041410327,-0.0019958317,0.0,0.0,0.0,inf,inf,inf,0,0,1,0
27176000,27096000,0,0,0.013295789,-0.21931675,0.4367108,0.0,0.0,0.0,-0.0040375935,-0.0013663173,-0.008668989,0.0,0.0,0.0,inf,inf,inf,0,0,1,0
27248000,27166909,0,0,0.009315127,-0.21678346,0.42738092,0.0,0.0,0.0,5.698763e-06,-0.0039038062,0.0006573796,0.0,0.0,0.0,inf,inf,inf,0,0,1,0
27320000,27240000,0,0,0.0024231502,-0.21459924,0.42175612,0.0,0.0,0.0,0.006848352,-0.0060715973,0.0062917173,0.0,0.0,0.0,inf,inf,inf,0,0,1,0
27392000,27311272,0,0,0.0080989245,-0.21671776,0.426335,0.0,0.0,0.0,0.0010155495,-0.004035786,0.0016735792,0.0,0.0,0.0,inf,inf,inf,0,0,1,0
27464000,27384000,0,0,0.0052166902,-0.2134026,0.425375,0.0,0.0,0.0,0.003944186,-0.0074418187,0.0025856793,0.0,0.0,0.0,inf,inf,inf,0,0,1,0
27536000,27454909,0,0,0.007963589,-0.21994595,0.4273743,0.0,0.0,0.0,0.0012641931,-0.0010578036,0.0005027056,0.0,0.0,0.0,inf,inf,inf,0,0,1,0
27608000,27528000,0,0,0.00829447,-0.2204124,0.4276262,0.0,0.0,0.0,0.000843429,-0.00060746074,0.00024443865,0.0,0.0,0.0,inf,inf,inf,0,0,1,0
27680000,27597818,0,0,0.008939608,-0.21682794,0.42941046,0.0,0.0,0.0,3.630761e-05,-0.0040450394,-0.0014606118,0.0,0.0,0.0,inf,inf,inf,0,0,1,0
27752000,27672000,0,0,0.016556714,-0.2222809,0.4286191,0.0,0.0,0.0,-0.007767368,0.0015398413,-0.00059729815,0.0,0.0,0.0,inf,inf,inf,0,0,1,0
27824000,27742909,0,0,0.010504923,-0.21692528,0.42877,0.0,0.0,0.0,-0.0017390167,-0.0037555546,-0.00071662664,0.0,0.0,0.0,inf,inf,inf,0,0,1,0
27896000,27816000,0,0,-0.0028431115,-0.21429381,0.4296001,0.0,0.0,0.0,0.011591196,-0.00637874,-0.001542151,0.0,0.0,0.0,inf,inf,inf,0,0,1,0
27968000,27885818,0,0,0.008295694,-0.21762085,0.43163165,0.0,0.0,0.0,0.00036365353,-0.0030717552,-0.0035822093,0.0,0.0,0.0,inf,inf,inf,0,0,1,0
28040000,27960000,0,0,0.006910123,-0.21126543,0.4304043,0.0,0.0,0.0,0.0017459169,-0.009285763,-0.0022819042,0.0,0.0,0.0,inf,inf,inf,0,0,1,0
28112000,28031272,0,0,0.010423837,-0.21746148,0.4286489,0.0,0.0,0.0,-0.0019501131,-0.002934724,-0.00044307113,0.0,0.0,0.0,inf,inf,inf,0,0,1,0
28184000,28104000,0,0,0.011141742,-0.21327855,0.42640778,0.0,0.0,0.0,-0.0027475972,-0.0069541037,0.0018838346,0.0,0.0,0.0,inf,inf,inf,0,0,1,0
28256000,28174181,0,0,0.009050958,-0.2154911,0.43008563,0.0,0.0,0.0,-0.00073748827,-0.0047168583,-0.0017797947,0.0,0.0,0.0,inf,inf,inf,0,0,1,0
28328000,28244000,0,0,0.010225491,-0.21622154,0.42750898,0.0,0.0,0.0,-0.0019058594,-0.003988713,0.000795573,0.0,0.0,0.0,inf,inf,inf,0,0,1,0
28400000,28313200,0,0,0.00690251,-0.21630059,0.42902276,0.0,0.0,0.0,0.0014600963,-0.003935814,-0.0007325113,0.0,0.0,0.0,inf,inf,inf,0,0,1,0
28464000,28380000,0,0,0.014368367,-0.21839476,0.4259489,0.0,0.0,0.0,-0.0058295773,-0.0017982572,0.002360195,0.0,0.0,0.0,inf,inf,inf,0,0,1,0
28536000,28451272,0,0,0.0099907005,-0.21591967,0.4298533,0.0,0.0,0.0,-0.0010863626,-0.0042616725,-0.0015456975,0.0,0.0,0.0,inf,inf,inf,0,0,1,0
28608000,28524000,0,0,0.011834826,-0.2184714,0.42889544,0.0,0.0,0.0,-0.0026170127,-0.001775369,-0.00062808394,0.0,0.0,0.0,inf,inf,inf,0,0,1,0
28680000,28595272,0,0,0.00873813,-0.21849564,0.4284394,0.0,0.0,0.0,0.00073082745,-0.0019112974,-0.00025996566,0.0,0.0,0.0,inf,inf,inf,0,0,1,0
28752000,28668000,0,0,0.0068929447,-0.21732032,0.4314717,0.0,0.0,0.0,0.0026562707,-0.0032126904,-0.0033589005,0.0,0.0,0.0,inf,inf,inf,0,0,1,0
28824000,28738909,0,0,0.010351569,-0.2161845,0.42821407,0.0,0.0,0.0,-0.00071229134,-0.0043851137,-0.00012215972,0.0,0.0,0.0,inf,inf,inf,0,0,1,0
28896000,28812000,0,0,0.009197321,-0.2262055,0.42871606,0.0,0.0,0.0,0.0005366467,0.0057615787,-0.00056159496,0.0,0.0,0.0,inf,inf,inf,0,0,1,0
28968000,28883636,0,0,0.009213512,-0.21571684,0.42888507,0.0,0.0,0.0,0.0005861698,-0.0045317113,-0.0006315708,0.0,0.0,0.0,inf,inf,inf,0,0,1,0
29032000,28952000,0,0,0.01354485,-0.21938223,0.4296865,0.0,0.0,0.0,-0.003704019,-0.0007559955,-0.0013771653,0.0,0.0,0.0,inf,inf,inf,0,0,1,0
29104000,29021200,0,0,0.008506407,-0.21628375,0.42996,0.0,0.0,0.0,0.0013096882,-0.0037996024,-0.0016219616,0.0,0.0,0.0,inf,inf,inf,0,0,1,0
29168000,29088000,0,0,0.013054237,-0.21300796,0.42813694,0.0,0.0,0.0,-0.0032057837,-0.007130325,0.00017213821,0.0,0.0,0.0,inf,inf,inf,0,0,1,0
29240000,29159636,0,0,0.010458329,-0.21753895,0.43011713,0.0,0.0,0.0,-0.00056719873,-0.0027020276,-0.0018618107,0.0,0.0,0.0,inf,inf,inf,0,0,1,0
29312000,29232000,0,0,0.014693201,-0.21316905,0.4377335,0.0,0.0,0.0,-0.0048398003,-0.0070678145,-0.009475231,0.0,0.0,0.0,inf,inf,inf,0,0,1,0
29384000,29303272,0,0,0.010188672,-0.21653816,0.42992553,0.0,0.0,0.0,-0.00027525704,-0.0036181062,-0.0016272068,0.0,0.0,0.0,inf,inf,inf,0,0,1,0
29456000,29376000,0,0,0.0061519016,-0.21176867,0.43853012,0.0,0.0,0.0,0.003823867,-0.008253202,-0.010164142,0.0,0.0,0.0,inf,inf,inf,0,0,1,0
29528000,29447272,0,0,0.009064592,-0.2159679,0.43076134,0.0,0.0,0.0,0.0010406822,-0.004168391,-0.0024572015,0.0,0.0,0.0,inf,inf,inf,0,0,1,0
29600000,29520000,0,0,0.013723125,-0.21707124,0.42018023,0.0,0.0,0.0,-0.003329222,-0.003529504,0.007877976,0.0,0.0,0.0,inf,inf,inf,0,0,1,0
29672000,29590545,0,0,0.0091561815,-0.21611656,0.42853475,0.0,0.0,0.0,0.0014120573,-0.004923567,-0.00070756674,0.0,0.0,0.0,inf,inf,inf,0,0,1,0
29744000,29664000,0,0,0.017508678,-0.21908821,0.4306033,0.0,0.0,0.0,-0.006813824,-0.0021830052,-0.002898693,0.0,0.0,0.0,inf,inf,inf,0,0,1,0
29816000,29734909,0,0,0.009057944,-0.2161744,0.42886692,0.0,0.0,0.0,0.0019179462,-0.00530152,-0.0012754202,0.0,0.0,0.0,inf,inf,inf,0,0,1,0
29888000,29808000,0,0,0.01249817,-0.22685084,0.43011436,0.0,0.0,0.0,-0.0013385266,0.0052297115,-0.002602905,0.0,0.0,0.0,inf,inf,inf,0,0,1,0
29960000,29880000,0,0,0.010207172,-0.21877937,0.43077293,0.0,0.0,0.0,0.0013070228,-0.0030570477,-0.0033825338,0.0,0.0,0.0,inf,inf,inf,0,0,1,0
30032000,29952000,0,0,0.01313011,-0.21565254,0.42780697,0.0,0.0,0.0,-0.0013366155,-0.0063354373,-0.0005028844,0.0,0.0,0.0,inf,inf,inf,0,0,1,0
30104000,30023636,0,0,0.010741569,-0.21712965,0.42716298,0.0,0.0,0.0,0.0012559444,-0.0048387945,0.00014555454,0.0,0.0,0.0,inf,inf,inf,0,0,1,0
30176000,30096000,0,0,0.0171544,-0.22307013,0.42223504,0.0,0.0,0.0,-0.0051598214,0.0013403744,0.005197525,0.0,0.0,0.0,inf,inf,inf,0,0,1,0
30248000,30166545,0,0,0.009667382,-0.21683626,0.42834955,0.0,0.0,0.0,0.0020618588,-0.0043447465,-0.00062543154,0.0,0.0,0.0,inf,inf,inf,0,0,1,0
30320000,30240000,0,0,0.007550798,-0.22063716,0.42873532,0.0,0.0,0.0,0.0037064855,4.030764e-05,-0.0006969571,0.0,0.0,0.0,inf,inf,inf,0,0,1,0
30392000,30310909,0,0,0.010781002,-0.21711686,0.42919016,0.0,0.0,0.0,8.3285384e-05,-0.0031362176,-0.0009647012,0.0,0.0,0.0,inf,inf,inf,0,0,1,0
30464000,30384000,0,0,0.010426445,-0.22063139,0.42781523,0.0,0.0,0.0,-9.206496e-05,0.00051292777,0.0004926622,0.0,0.0,0.0,inf,inf,inf,0,0,1,0
30536000,30456000,0,0,0.0072577037,-0.21524124,0.42762905,0.0,0.0,0.0,0.0026879944,-0.0047867596,0.00073447824,0.0,0.0,0.0,inf,inf,inf,0,0,1,0
30608000,30528000,0,0,0.009674251,-0.21436483,0.43164197,0.0,0.0,0.0,-2.1256506e-05,-0.005584851,-0.0032314956,0.0,0.0,0.0,inf,inf,inf,0,0,1,0
30680000,30599272,0,0,0.0096789105,-0.21521543,0.4306981,0.0,0.0,0.0,-7.4307434e-05,-0.004696235,-0.0022670627,0.0,0.0,0.0,inf,inf,inf,0,0,1,0
30752000,30672000,0,0,0.010104513,-0.21518631,0.4288215,0.0,0.0,0.0,-0.00036102347,-0.0046980977,-0.00037962198,0.0,0.0,0.0,inf,inf,inf,0,0,1,0
30824000,30742909,0,0,0.008699516,-0.21546473,0.43111128,0.0,0.0,0.0,0.001163533,-0.004455492,-0.0026905239,0.0,0.0,0.0,inf,inf,inf,0,0,1,0
30896000,30816000,0,0,0.011627823,-0.2210178,0.42565578,0.0,0.0,0.0,-0.0017838329,0.0010202676,0.0027257204,0.0,0.0,0.0,inf,inf,inf,0,0,1,0
30968000,30887272,0,0,0.009796958,-0.2158082,0.4297098,0.0,0.0,0.0,-0.00011694804,-0.0041884035,-0.0013241172,0.0,0.0,0.0,inf,inf,inf,0,0,1,0
31040000,30960000,0,0,0.007748729,-0.21143286,0.42912474,0.0,0.0,0.0,0.0019405945,-0.008626699,-0.0007715523,0.0,0.0,0.0,inf,inf,inf,0,0,1,0
31112000,31030545,0,0,0.008146203,-0.21584813,0.4272206,0.0,0.0,0.0,0.0015599513,-0.0042366832,0.0011192262,0.0,0.0,0.0,inf,inf,inf,0,0,1,0
31184000,31104000,0,0,0.009618411,-0.21657012,0.42676297,0.0,0.0,0.0,0.00021879934,-0.0035181344,0.0015721023,0.0,0.0,0.0,inf,inf,inf,0,0,1,0
31256000,31174909,0,0,0.0090819765,-0.21549596,0.42807484,0.0,0.0,0.0,0.0006310623,-0.0045305043,0.00029480457,0.0,0.0,0.0,inf,inf,inf,0,0,1,0
31328000,31248000,0,0,0.0026438911,-0.21534115,0.43214357,0.0,0.0,0.0,0.006796106,-0.0044768453,-0.003660798,0.0,0.0,0.0,inf,inf,inf,0,0,1,0
31400000,31319272,0,0,0.007220625,-0.21508703,0.430094,0.0,0.0,0.0,0.0019387687,-0.0046003163,-0.0015381575,0.0,0.0,0.0,inf,inf,inf,0,0,1,0
31472000,31392000,0,0,0.0073188976,-0.21535021,0.43894637,0.0,0.0,0.0,0.0017851233,-0.004217282,-0.010327935,0.0,0.0,0.0,inf,inf,inf,0,0,1,0
31544000,31462545,0,0,0.008874865,-0.21379645,0.43003765,0.0,0.0,0.0,0.00020064227,-0.0056592673,-0.0013613403,0.0,0.0,0.0,inf,inf,inf,0,0,1,0
31616000,31536000,0,0,0.0060775066,-0.20600213,0.4312134,0.0,0.0,0.0,0.0031660786,-0.013513431,-0.0025713742,0.0,0.0,0.0,inf,inf,inf,0,0,1,0
31688000,31607272,0,0,0.009710046,-0.21406183,0.42938334,0.0,0.0,0.0,-0.000367756,-0.00547646,-0.00075507164,0.0,0.0,0.0,inf,inf,inf,0,0,1,0
31760000,31680000,0,0,0.008538238,-0.21921581,0.4255973,0.0,0.0,0.0,0.00087352935,-0.00027675927,0.0030528307,0.0,0.0,0.0,inf,inf,inf,0,0,1,0
31832000,31750545,0,0,0.008057824,-0.21513246,0.42902496,0.0,0.0,0.0,0.0015008906,-0.004387662,-0.00039210916,0.0,0.0,0.0,inf,inf,inf,0,0,1,0
31904000,31824000,0,0,0.004917017,-0.21294622,0.43985927,0.0,0.0,0.0,0.004728035,-0.006594941,-0.011239171,0.0,0.0,0.0,inf,inf,inf,0,0,1,0
31976000,31894909,0,0,0.009427717,-0.21548419,0.43034187,0.0,0.0,0.0,0.00024727918,-0.004082635,-0.0017355382,0.0,0.0,0.0,inf,inf,inf,0,0,1,0
32048000,31968000,0,0,0.006355909,-0.21579845,0.4347775,0.0,0.0,0.0,0.0032276385,-0.0037406534,-0.006155014,0.0,0.0,0.0,inf,inf,inf,0,0,1,0
32120000,32038545,0,0,0.008949642,-0.21575673,0.42872876,0.0,0.0,0.0,0.00039141905,-0.0037579834,-8.839369e-05,0.0,0.0,0.0,inf,inf,inf,0,0,1,0
32192000,32112000,0,0,0.008741793,-0.21153642,0.42798683,0.0,0.0,0.0,0.0003593145,-0.008032128,0.0006311238,0.0,0.0,0.0,inf,inf,inf,0,0,1,0
32264000,32183272,0,0,0.008796118,-0.21530113,0.42827234,0.0,0.0,0.0,0.00027482212,-0.004361689,0.00029793382,0.0,0.0,0.0,inf,inf,inf,0,0,1,0
32336000,32256000,0,0,0.012279137,-0.21571828,0.42927703,0.0,0.0,0.0,-0.003167524,-0.0040154904,-0.0007439554,0.0,0.0,0.0,inf,inf,inf,0,0,1,0
32408000,32327272,0,0,0.009212318,-0.21523646,0.42961976,0.0,0.0,0.0,1.0137446e-05,-0.0044145286,-0.001046598,0.0,0.0,0.0,inf,inf,inf,0,0,1,0
32480000,32400000,0,0,0.0037342526,-0.21743838,0.42704788,0.0,0.0,0.0,0.0056531737,-0.0020646155,0.0015974939,0.0,0.0,0.0,inf,inf,inf,0,0,1,0
32552000,32470181,0,0,0.006582498,-0.21446164,0.42951617,0.0,0.0,0.0,0.0027351757,-0.0049063563,-0.00080016255,0.0,0.0,0.0,inf,inf,inf,0,0,1,0
32624000,32544000,0,0,0.015846767,-0.21288143,0.43086427,0.0,0.0,0.0,-0.006446846,-0.0064122975,-0.0021120906,0.0,0.0,0.0,inf,inf,inf,0,0,1,0
32696000,32614545,0,0,0.008903667,-0.21364687,0.4301723,0.0,0.0,0.0,0.00063098967,-0.0056813955,-0.0014407337,0.0,0.0,0.0,inf,inf,inf,0,0,1,0
32768000,32688000,0,0,0.0046424298,-0.21362072,0.42700827,0.0,0.0,0.0,0.0050247954,-0.0058276653,0.0016588569,0.0,0.0,0.0,inf,inf,inf,0,0,1,0
32840000,32758909,0,0,0.0065462515,-0.21553181,0.4307324,0.0,0.0,0.0,0.0030266047,-0.0040399134,-0.002126366,0.0,0.0,0.0,inf,inf,inf,0,0,1,0
32912000,32832000,0,0,0.008064946,-0.22049616,0.42802545,0.0,0.0,0.0,0.001342075,0.0008761883,0.0005595386,0.0,0.0,0.0,inf,inf,inf,0,0,1,0
32984000,32903272,0,0,0.0071434183,-0.21451695,0.43156365,0.0,0.0,0.0,0.0020570802,-0.0050481707,-0.002946049,0.0,0.0,0.0,inf,inf,inf,0,0,1,0
33056000,32976000,0,0,0.009582411,-0.21065049,0.428356,0.0,0.0,0.0,-0.00039254408,-0.008797988,0.00032156706,0.0,0.0,0.0,inf,inf,inf,0,0,1,0
33128000,33046545,0,0,0.0083368365,-0.21656631,0.42859197,0.0,0.0,0.0,0.0010177102,-0.0027688146,0.00014001131,0.0,0.0,0.0,inf,inf,inf,0,0,1,0
33200000,33120000,0,0,0.007491482,-0.2184969,0.43332893,0.0,0.0,0.0,0.0020518997,-0.00092099607,-0.00464347,0.0,0.0,0.0,inf,inf,inf,0,0,1,0
33272000,33191636,0,0,0.007854604,-0.214977,0.4317614,0.0,0.0,0.0,0.0017677089,-0.004695803,-0.0032082498,0.0,0.0,0.0,inf,inf,inf,0,0,1,0
33344000,33264000,0,0,0.008202738,-0.20857884,0.43183818,0.0,0.0,0.0,0.0014934922,-0.011435136,-0.0034617484,0.0,0.0,0.0,inf,inf,inf,0,0,1,0
