timestamp,roll,pitch,yaw,thrust_body[0],thrust_body[1],thrust_body[2],reset_integral
4312000,0.12979695,0.14998692,0.0006725788,0.0,0.0,-0.001,0
4320000,0.1296242,0.14980602,0.00064337254,0.0,0.0,-0.001,0
4336000,0.12927209,0.14923692,0.00065630674,0.0,0.0,-0.001,0
4352000,0.12892629,0.14894114,0.00063711405,0.0,0.0,-0.001,0
4372000,0.12869689,0.14858109,0.0006483793,0.0,0.0,-0.001,0
4396000,0.1288194,0.14806573,0.000674665,0.0,0.0,-0.001,0
4416000,0.128929,0.14774658,0.0006596446,0.0,0.0,-0.001,0
4436000,0.12885626,0.14750612,0.000649631,0.0,0.0,-0.001,0
4456000,0.12873244,0.14686775,0.0007664561,0.0,0.0,-0.001,0
4472000,0.12866327,0.14624333,0.0007660389,0.0,0.0,-0.001,0
4496000,0.12852308,0.14545928,0.0006875992,0.0,0.0,-0.001,0
4516000,0.1283344,0.14472365,0.0006830096,0.0,0.0,-0.001,0
4536000,0.1282416,0.14427465,0.0006379485,0.0,0.0,-0.001,0
4552000,0.12817456,0.14404333,0.0005828738,0.0,0.0,-0.001,0
4576000,0.12811641,0.14374931,0.0006108284,0.0,0.0,-0.001,0
4596000,0.12810434,0.14358091,0.00059998035,0.0,0.0,-0.001,0
4616000,0.12812923,0.14333346,0.00060999393,0.0,0.0,-0.001,0
4632000,0.12816976,0.14321765,0.0005044341,0.0,0.0,-0.001,0
4656000,0.12778096,0.1432136,0.0006375313,0.0,0.0,-0.001,0
4672000,0.12777656,0.14296618,0.0006412864,0.0,0.0,-0.001,0
4692000,0.12755981,0.14256011,0.00068593025,0.0,0.0,-0.001,0
4712000,0.12727796,0.1420927,0.000626266,0.0,0.0,-0.001,0
4736000,0.12706673,0.14171971,0.00057953596,0.0,0.0,-0.001,0
4756000,0.12682691,0.14121294,0.00079858303,0.0,0.0,-0.001,0
4776000,0.12659723,0.14089943,0.0010881424,0.0,0.0,-0.001,0
4792000,0.12643045,0.14076872,0.0010476708,0.0,0.0,-0.001,0
4816000,0.12572154,0.14067915,0.0009988546,0.0,0.0,-0.001,0
4832000,0.12546888,0.14069681,0.0009829998,0.0,0.0,-0.001,0
4852000,0.12491432,0.14034964,0.00073850155,0.0,0.0,-0.001,0
4872000,0.124264635,0.14027491,0.00084489584,0.0,0.0,-0.001,0
4896000,0.12350275,0.14018103,0.00033712387,0.0,0.0,-0.001,0
4916000,0.12298803,0.14017123,0.00043684244,0.0,0.0,-0.001,0
4936000,0.12221048,0.14021425,0.00024408102,0.0,0.0,-0.001,0
4956000,0.12199542,0.13990659,0.00036257505,0.0,0.0,-0.001,0
4976000,0.12143856,0.13985234,5.2154064e-05,0.0,0.0,-0.001,0
4996000,0.12122278,0.13975346,0.00035256147,0.0,0.0,-0.001,0
5012000,0.12088907,0.13949057,0.0004093051,0.0,0.0,-0.001,0
5032000,0.120612055,0.13936014,0.00019234419,0.0,0.0,-0.001,0
5056000,0.12010967,0.13909732,0.00027161837,0.0,0.0,-0.001,0
5076000,0.119739585,0.13903032,0.00047814846,0.0,0.0,-0.001,0
5092000,0.11933156,0.1391175,0.00047522783,0.0,0.0,-0.001,0
5112000,0.11900284,0.13927379,0.00052279234,0.0,0.0,-0.001,0
5136000,0.11864903,0.13911204,0.0005565882,0.0,0.0,-0.001,0
5156000,0.118357815,0.13907121,0.00058579445,0.0,0.0,-0.001,0
5176000,0.11823873,0.13909552,0.0005182028,0.0,0.0,-0.001,0
5196000,0.11793329,0.13932921,0.00053197145,0.0,0.0,-0.001,0
5216000,0.11779497,0.13939187,0.00058203936,0.0,0.0,-0.001,0
5236000,0.1175007,0.13950345,0.00055742264,0.0,0.0,-0.001,0
5256000,0.117558025,0.13956213,0.0005106926,0.0,0.0,-0.001,0
5272000,0.11731125,0.13943572,0.00052279234,0.0,0.0,-0.001,0
5296000,0.116843134,0.13953851,0.00068718195,0.0,0.0,-0.001,0
5312000,0.11670596,0.13944507,0.0005816221,0.0,0.0,-0.001,0
5336000,0.116247185,0.13933644,0.0007852316,0.0,0.0,-0.001,0
5352000,0.11601996,0.13911098,0.0007405877,0.0,0.0,-0.001,0
5376000,0.11599448,0.13931826,0.00080400705,0.0,0.0,-0.001,0
5392000,0.115681924,0.13929462,0.0009212494,0.0,0.0,-0.001,0
5416000,0.11549467,0.13930392,0.00077980757,0.0,0.0,-0.001,0
5436000,0.11528607,0.13917904,0.0006646514,0.0,0.0,-0.001,0
5456000,0.11514189,0.13911763,0.00075894594,0.0,0.0,-0.001,0
5476000,0.11532387,0.13911982,0.0006471276,0.0,0.0,-0.001,0
5496000,0.11547062,0.1390283,0.00076019764,0.0,0.0,-0.001,0
5512000,0.11554166,0.13881646,0.00073599815,0.0,0.0,-0.001,0
5532000,0.11565028,0.13853078,0.0006245971,0.0,0.0,-0.001,0
5552000,0.1156108,0.13836329,0.00064629316,0.0,0.0,-0.001,0
5572000,0.11557118,0.13819483,0.00059497356,0.0,0.0,-0.001,0
5596000,0.11572635,0.13810387,0.00058829784,0.0,0.0,-0.001,0
5616000,0.11572005,0.13806143,9.638071e-05,0.0,0.0,-0.001,0
5632000,0.11588885,0.13801719,8.678436e-05,0.0,0.0,-0.001,0
5656000,0.11597545,0.13788877,5.2154064e-05,0.0,0.0,-0.001,0
5676000,0.116145834,0.13771687,0.00023406744,0.0,0.0,-0.001,0
5696000,0.11643691,0.13737558,-6.67572e-06,0.0,0.0,-0.001,0
5716000,0.11664282,0.13708588,0.00031125546,0.0,0.0,-0.001,0
5736000,0.11694472,0.13720722,0.00011265278,0.0,0.0,-0.001,0
5756000,0.11714436,0.13717578,0.0002862215,0.0,0.0,-0.001,0
5776000,0.11730073,0.13703233,8.59499e-05,0.0,0.0,-0.001,0
5796000,0.11745745,0.1371137,0.00032669306,0.0,0.0,-0.001,0
5812000,0.117690295,0.13699523,0.00038677454,0.0,0.0,-0.001,0
5832000,0.117778234,0.13691856,0.00032544136,0.0,0.0,-0.001,0
5852000,0.117510445,0.13723011,0.00046020746,0.0,0.0,-0.001,0
5872000,0.11739507,0.13744695,0.00047397614,0.0,0.0,-0.001,0
5896000,0.11739321,0.13732186,0.00038719177,0.0,0.0,-0.001,0
5912000,0.117382124,0.13705553,0.00047647953,0.0,0.0,-0.001,0
5932000,0.11747256,0.13692,0.00048357248,0.0,0.0,-0.001,0
5952000,0.11758343,0.13680884,0.0004618764,0.0,0.0,-0.001,0
5972000,0.11804953,0.13679098,0.0005056858,0.0,0.0,-0.001,0
5992000,0.11810945,0.13666973,0.00048691034,0.0,0.0,-0.001,0
6016000,0.117988124,0.13675736,0.00048565865,0.0,0.0,-0.001,0
6036000,0.11801371,0.13680138,0.0005482435,0.0,0.0,-0.001,0
6056000,0.11790911,0.13661386,0.00053071976,0.0,0.0,-0.001,0
6076000,0.117851436,0.1365293,0.0005682707,0.0,0.0,-0.001,0
6096000,0.11799462,0.13664046,0.00065255165,0.0,0.0,-0.001,0
6112000,0.117820576,0.13651305,0.0006337762,0.0,0.0,-0.001,0
6136000,0.11775827,0.13637184,0.00061291456,0.0,0.0,-0.001,0
6152000,0.11798407,0.13622302,0.00063586235,0.0,0.0,-0.001,0
6176000,0.11794754,0.13619666,0.00057411194,0.0,0.0,-0.001,0
6196000,0.11772554,0.13608834,0.0007163882,0.0,0.0,-0.001,0
6216000,0.11757459,0.13630527,0.0007172227,0.0,0.0,-0.001,0
6236000,0.11741713,0.13626052,0.00066798925,0.0,0.0,-0.001,0
6256000,0.11713535,0.13609326,0.0007585287,0.0,0.0,-0.001,0
6276000,0.11699179,0.13650352,0.00058954954,0.0,0.0,-0.001,0
6292000,0.11674468,0.13640642,0.0006366968,0.0,0.0,-0.001,0
6312000,0.116725765,0.13642548,0.0006684065,0.0,0.0,-0.001,0
6336000,0.11672533,0.13668208,0.00076144934,0.0,0.0,-0.001,0
6352000,0.11658886,0.1366443,0.0007072091,0.0,0.0,-0.001,0
6376000,0.11643325,0.13650711,0.0006162524,0.0,0.0,-0.001,0
6396000,0.11632159,0.13635544,0.0006041527,0.0,0.0,-0.001,0
6416000,0.11622774,0.13668224,0.0006375313,0.0,0.0,-0.001,0
6436000,0.116039045,0.13653961,0.0005803704,0.0,0.0,-0.001,0
6456000,0.11595745,0.13640438,0.0005891323,0.0,0.0,-0.001,0
6472000,0.11595745,0.13616458,0.0004618764,0.0,0.0,-0.001,0
6496000,0.115842536,0.13609788,0.00056409836,0.0,0.0,-0.001,0
6516000,0.11568652,0.13617589,0.0005261302,0.0,0.0,-0.001,0
6536000,0.1154792,0.13624349,0.00052571297,0.0,0.0,-0.001,0
6556000,0.11538793,0.13621384,0.0004956722,0.0,0.0,-0.001,0
6576000,0.114915825,0.13626027,0.0005874634,0.0,0.0,-0.001,0
6596000,0.11472709,0.13620186,0.00052571297,0.0,0.0,-0.001,0
6616000,0.114707656,0.13618068,0.00036799908,0.0,0.0,-0.001,0
6636000,0.11444736,0.13648793,0.00038009882,0.0,0.0,-0.001,0
6652000,0.11440858,0.1365153,0.00043350458,0.0,0.0,-0.001,0
6676000,0.11395507,0.1365518,0.00040388107,0.0,0.0,-0.001,0
6696000,0.11394913,0.13656923,0.00037133694,0.0,0.0,-0.001,0
6716000,0.11387536,0.1367164,0.00044894218,0.0,0.0,-0.001,0
6736000,0.11351604,0.13674083,0.00043600798,0.0,0.0,-0.001,0
6752000,0.11333991,0.1368474,0.00046771765,0.0,0.0,-0.001,0
6772000,0.11336072,0.13687524,0.00025075674,0.0,0.0,-0.001,0
6796000,0.113214895,0.13694008,0.00027620792,0.0,0.0,-0.001,0
6812000,0.11308091,0.13710544,0.00034046173,0.0,0.0,-0.001,0
6832000,0.11303581,0.13713495,0.00012975931,0.0,0.0,-0.001,0
6852000,0.11280325,0.13715932,0.0003492236,0.0,0.0,-0.001,0
6876000,0.11269124,0.13705997,0.0003709197,0.0,0.0,-0.001,0
6896000,0.1124386,0.1372518,0.0002657771,0.0,0.0,-0.001,0
6912000,0.112662144,0.13723731,0.00015228987,0.0,0.0,-0.001,0
6936000,0.1125622,0.13775706,0.00026869774,0.0,0.0,-0.001,0
6956000,0.11258601,0.13790414,0.00040721893,0.0,0.0,-0.001,0
6972000,0.11261102,0.13805942,0.0004643798,0.0,0.0,-0.001,0
6992000,0.11265749,0.13791962,0.0004823208,0.0,0.0,-0.001,0
7016000,0.11257449,0.13801673,0.0005031824,0.0,0.0,-0.001,0
7032000,0.11241941,0.13824059,0.0004877448,0.0,0.0,-0.001,0
7052000,0.11246597,0.1381808,0.00041890144,0.0,0.0,-0.001,0
7072000,0.11262673,0.13820733,0.00032001734,0.0,0.0,-0.001,0
7092000,0.11292604,0.1382937,0.00041222572,0.0,0.0,-0.001,0
7112000,0.11276664,0.1382233,0.00035381317,0.0,0.0,-0.001,0
7136000,0.11263195,0.13786028,0.00039720535,0.0,0.0,-0.001,0
7156000,0.112579696,0.13806579,0.00049108267,0.0,0.0,-0.001,0
7176000,0.112780325,0.13825877,0.00040388107,0.0,0.0,-0.001,0
7196000,0.1130258,0.13785937,0.0005661845,0.0,0.0,-0.001,0
7216000,0.11306483,0.13791376,0.0006058216,0.0,0.0,-0.001,0
7232000,0.11336953,0.13795108,0.00061124563,0.0,0.0,-0.001,0
7256000,0.11306284,0.13807023,0.0006366968,0.0,0.0,-0.001,0
7272000,0.11288046,0.13822758,0.0006517172,0.0,0.0,-0.001,0
7296000,0.11266003,0.13811038,0.0006546378,0.0,0.0,-0.001,0
7312000,0.11251901,0.13790427,0.0005941391,0.0,0.0,-0.001,0
7336000,0.11234588,0.13772334,0.00035881996,0.0,0.0,-0.001,0
7356000,0.11269964,0.13802679,0.00044435263,0.0,0.0,-0.001,0
7376000,0.11293819,0.1381131,0.00030332804,0.0,0.0,-0.001,0
7392000,0.11328784,0.13833538,0.00034338236,0.0,0.0,-0.001,0
7416000,0.113586575,0.13838713,0.0003425479,0.0,0.0,-0.001,0
7436000,0.11383876,0.13868137,0.00044184923,0.0,0.0,-0.001,0
7456000,0.113917224,0.13873945,0.00039428473,0.0,0.0,-0.001,0
7476000,0.11383201,0.13904905,0.00050610304,0.0,0.0,-0.001,0
7496000,0.1141559,0.13909681,0.00051528215,0.0,0.0,-0.001,0
7512000,0.11443269,0.13910104,0.00052404404,0.0,0.0,-0.001,0
7536000,0.11459724,0.13882902,0.00057953596,0.0,0.0,-0.001,0
7556000,0.11457725,0.13873757,0.00056409836,0.0,0.0,-0.001,0
7572000,0.11470388,0.13863924,0.0005298853,0.0,0.0,-0.001,0
7592000,0.11483034,0.13864987,0.0006696582,0.0,0.0,-0.001,0
7612000,0.11496234,0.13856024,0.0005453229,0.0,0.0,-0.001,0
7632000,0.115365714,0.13861375,0.00048983097,0.0,0.0,-0.001,0
7656000,0.11555173,0.13837163,0.000500679,0.0,0.0,-0.001,0
7672000,0.115616806,0.13816765,0.0004877448,0.0,0.0,-0.001,0
7696000,0.11579585,0.13789192,0.0006225109,0.0,0.0,-0.001,0
7716000,0.11589995,0.1381732,0.00055241585,0.0,0.0,-0.001,0
7736000,0.115942724,0.1380545,0.00064253807,0.0,0.0,-0.001,0
7756000,0.11595885,0.1379669,0.0005519986,0.0,0.0,-0.001,0
7776000,0.11610652,0.13798901,0.0006016493,0.0,0.0,-0.001,0
7796000,0.11616076,0.13804308,0.00057828426,0.0,0.0,-0.001,0
7816000,0.11590761,0.13780037,0.000638783,0.0,0.0,-0.001,0
7836000,0.11603135,0.13752016,0.0005707741,0.0,0.0,-0.001,0
7856000,0.11600518,0.13749452,0.0006325245,0.0,0.0,-0.001,0
7876000,0.115901835,0.13751967,0.00057411194,0.0,0.0,-0.001,0
7896000,0.11610949,0.13738972,0.0006250143,0.0,0.0,-0.001,0
7916000,0.11604944,0.13741219,0.000680089,0.0,0.0,-0.001,0
7936000,0.11596359,0.13752785,0.0007535219,0.0,0.0,-0.001,0
7952000,0.11591861,0.13748868,0.0007364154,0.0,0.0,-0.001,0
7976000,0.11604809,0.13745931,0.0006875992,0.0,0.0,-0.001,0
7996000,0.116218746,0.13736036,0.0006412864,0.0,0.0,-0.001,0
8016000,0.116342455,0.13732456,0.0007593632,0.0,0.0,-0.001,0
8032000,0.11637959,0.13715163,0.000703454,0.0,0.0,-0.001,0
8056000,0.11638442,0.13704823,0.0005761981,0.0,0.0,-0.001,0
8072000,0.116344705,0.13689768,0.0005336404,0.0,0.0,-0.001,0
8096000,0.11639846,0.1367501,0.0005403161,0.0,0.0,-0.001,0
8112000,0.11631906,0.1366741,0.00052946806,0.0,0.0,-0.001,0
8136000,0.116309434,0.13636762,0.00054323673,0.0,0.0,-0.001,0
8156000,0.1164472,0.13635787,0.0005286336,0.0,0.0,-0.001,0
8176000,0.11618191,0.13657568,0.0005661845,0.0,0.0,-0.001,0
8196000,0.11616496,0.13646774,0.00048983097,0.0,0.0,-0.001,0
8216000,0.11618495,0.13618213,0.00047314167,0.0,0.0,-0.001,0
8236000,0.11620229,0.1360344,0.0004760623,0.0,0.0,-0.001,0
8256000,0.11636162,0.13587233,0.0005336404,0.0,0.0,-0.001,0
8272000,0.11626532,0.13585682,0.00038677454,0.0,0.0,-0.001,0
8296000,0.11636855,0.13591865,0.00033587217,0.0,0.0,-0.001,0
8316000,0.11642246,0.13585742,0.00043016672,0.0,0.0,-0.001,0
8336000,0.116121374,0.13558161,0.0003592372,0.0,0.0,-0.001,0
8356000,0.11573788,0.13532299,0.00059455633,0.0,0.0,-0.001,0
8376000,0.11555863,0.13526082,0.00070762634,0.0,0.0,-0.001,0
8396000,0.11539946,0.13531034,0.0006195903,0.0,0.0,-0.001,0
8416000,0.11526437,0.13542195,0.00080025196,0.0,0.0,-0.001,0
8436000,0.11536015,0.13550062,0.000649631,0.0,0.0,-0.001,0
8456000,0.11525603,0.13540456,0.0007017851,0.0,0.0,-0.001,0
8476000,0.115212865,0.13529018,0.00062167645,0.0,0.0,-0.001,0
8492000,0.115196794,0.13524823,0.0005761981,0.0,0.0,-0.001,0
8512000,0.11511418,0.13513882,0.00063711405,0.0,0.0,-0.001,0
8532000,0.115135,0.13504657,0.00054198503,0.0,0.0,-0.001,0
8552000,0.1150234,0.13499968,0.00056034327,0.0,0.0,-0.001,0
8572000,0.11481598,0.13487859,0.0005194545,0.0,0.0,-0.001,0
8592000,0.11467503,0.13485955,0.0005373955,0.0,0.0,-0.001,0
8616000,0.11448043,0.13489789,0.0004927516,0.0,0.0,-0.001,0
8632000,0.1144061,0.13500214,0.0006375313,0.0,0.0,-0.001,0
8656000,0.1145607,0.13534367,0.00064504147,0.0,0.0,-0.001,0
8672000,0.11441057,0.13554475,0.00065129995,0.0,0.0,-0.001,0
8692000,0.114377506,0.1356205,0.0005482435,0.0,0.0,-0.001,0
8712000,0.11440115,0.1355544,0.000662148,0.0,0.0,-0.001,0
8732000,0.11442427,0.1354253,0.0005328059,0.0,0.0,-0.001,0
8752000,0.1144475,0.1355106,0.0005565882,0.0,0.0,-0.001,0
8772000,0.11440627,0.1354373,0.0005386472,0.0,0.0,-0.001,0
8796000,0.11440281,0.13527471,0.00055366755,0.0,0.0,-0.001,0
8816000,0.11444085,0.1351308,0.00056117773,0.0,0.0,-0.001,0
8832000,0.11433605,0.13538064,0.00057786703,0.0,0.0,-0.001,0
8856000,0.114284195,0.13525152,0.00056159496,0.0,0.0,-0.001,0
8872000,0.11418535,0.1349926,0.0005557537,0.0,0.0,-0.001,0
8896000,0.11416793,0.13507408,0.0005645156,0.0,0.0,-0.001,0
8916000,0.11384489,0.13506559,0.00046271086,0.0,0.0,-0.001,0
8936000,0.11402321,0.13509513,0.0004543662,0.0,0.0,-0.001,0
8956000,0.11400259,0.13505377,0.00045228004,0.0,0.0,-0.001,0
8976000,0.11387404,0.13491336,0.00038719177,0.0,0.0,-0.001,0
8996000,0.11362874,0.13495946,0.00044184923,0.0,0.0,-0.001,0
9016000,0.11376873,0.13468471,0.00041764975,0.0,0.0,-0.001,0
9032000,0.11393851,0.13448672,0.00041639805,0.0,0.0,-0.001,0
9056000,0.11381309,0.13441473,0.00045019388,0.0,0.0,-0.001,0
9076000,0.11391403,0.13432977,0.0005232096,0.0,0.0,-0.001,0
9096000,0.11386998,0.13414083,0.00053948164,0.0,0.0,-0.001,0
9116000,0.11384743,0.13397191,0.00050485134,0.0,0.0,-0.001,0
9136000,0.113804616,0.13371116,0.0006467104,0.0,0.0,-0.001,0
9156000,0.11401991,0.1339884,0.0005707741,0.0,0.0,-0.001,0
9176000,0.1140461,0.13435699,0.00059330463,0.0,0.0,-0.001,0
9196000,0.11391085,0.13446383,0.0005528331,0.0,0.0,-0.001,0
9216000,0.11391546,0.13432702,0.00047814846,0.0,0.0,-0.001,0
9236000,0.113842085,0.13423187,0.00050777197,0.0,0.0,-0.001,0
9256000,0.11374025,0.13428454,0.0003721714,0.0,0.0,-0.001,0
9276000,0.11349811,0.1343523,0.00047522783,0.0,0.0,-0.001,0
9296000,0.11320375,0.13445064,0.00040346384,0.0,0.0,-0.001,0
9316000,0.113098934,0.13456745,0.0004376769,0.0,0.0,-0.001,0
9336000,0.11316069,0.13433066,0.0004760623,0.0,0.0,-0.001,0
9356000,0.113146625,0.13445917,0.00050359964,0.0,0.0,-0.001,0
9376000,0.11315081,0.13465306,0.00045019388,0.0,0.0,-0.001,0
9392000,0.11324163,0.13489799,0.00050485134,0.0,0.0,-0.001,0
9412000,0.11321567,0.1346286,0.00048607588,0.0,0.0,-0.001,0
9432000,0.11306834,0.13418832,0.00046020746,0.0,0.0,-0.001,0
9452000,0.11302902,0.13390951,0.00048315525,0.0,0.0,-0.001,0
9472000,0.11295113,0.13398024,0.00048190355,0.0,0.0,-0.001,0
9492000,0.1128583,0.13391334,0.0005156994,0.0,0.0,-0.001,0
9516000,0.11275778,0.13377076,0.00050860643,0.0,0.0,-0.001,0
9536000,0.11275311,0.13372172,0.00055909157,0.0,0.0,-0.001,0
9552000,0.11259179,0.13350612,0.00052279234,0.0,0.0,-0.001,0
9576000,0.11233937,0.13355464,0.0005223751,0.0,0.0,-0.001,0
9596000,0.11224281,0.13362968,0.00049483776,0.0,0.0,-0.001,0
9616000,0.11201215,0.13371626,0.00043809414,0.0,0.0,-0.001,0
9636000,0.11193845,0.1334379,0.00049316883,0.0,0.0,-0.001,0
9656000,0.11220564,0.13319395,0.00042057037,0.0,0.0,-0.001,0
9676000,0.112275764,0.13310705,0.00044226646,0.0,0.0,-0.001,0
9696000,0.11251639,0.1327933,0.0004748106,0.0,0.0,-0.001,0
9716000,0.112469085,0.13257445,0.00046104193,0.0,0.0,-0.001,0
9736000,0.11248605,0.13236807,0.0003901124,0.0,0.0,-0.001,0
9756000,0.112403475,0.13233711,0.0004877448,0.0,0.0,-0.001,0
9772000,0.11228885,0.132545,0.00048273802,0.0,0.0,-0.001,0
9792000,0.11228785,0.13261227,0.0005136132,0.0,0.0,-0.001,0
9812000,0.11224072,0.13271366,0.0004956722,0.0,0.0,-0.001,0
9832000,0.112197444,0.13258085,0.000536561,0.0,0.0,-0.001,0
9856000,0.11224267,0.13270152,0.0005069375,0.0,0.0,-0.001,0
9872000,0.1120342,0.13256575,0.0005353093,0.0,0.0,-0.001,0
9896000,0.11195372,0.13245878,0.00054115057,0.0,0.0,-0.001,0
9916000,0.111703716,0.13215792,0.00049984455,0.0,0.0,-0.001,0
9932000,0.111580245,0.13237827,0.0004685521,0.0,0.0,-0.001,0
9952000,0.1112136,0.13251938,0.00031667948,0.0,0.0,-0.001,0
9976000,0.11118022,0.13279825,0.0004093051,0.0,0.0,-0.001,0
9996000,0.111060396,0.13261364,0.0004543662,0.0,0.0,-0.001,0
10016000,0.11092888,0.13266845,0.00041556358,0.0,0.0,-0.001,0
10032000,0.11103699,0.13289717,0.00045770407,0.0,0.0,-0.001,0
10056000,0.1109133,0.13286032,0.00045645237,0.0,0.0,-0.001,0
10072000,0.110971846,0.13292982,0.00042933226,0.0,0.0,-0.001,0
10092000,0.111041024,0.13303785,0.00047689676,0.0,0.0,-0.001,0
10112000,0.111021295,0.13315845,0.00045228004,0.0,0.0,-0.001,0
10132000,0.11098553,0.13309367,0.00048607588,0.0,0.0,-0.001,0
10156000,0.11104338,0.13306054,0.00047063828,0.0,0.0,-0.001,0
10176000,0.111247614,0.1332825,0.0004310012,0.0,0.0,-0.001,0
10196000,0.11135585,0.13312975,0.0004723072,0.0,0.0,-0.001,0
10216000,0.11132994,0.1328652,0.0005303025,0.0,0.0,-0.001,0
10236000,0.11140995,0.13295405,0.0005232096,0.0,0.0,-0.001,0
10256000,0.11158824,0.13294508,0.0005040169,0.0,0.0,-0.001,0
10276000,0.11162501,0.1329252,0.0005194545,0.0,0.0,-0.001,0
10296000,0.11144098,0.13273183,0.0005303025,0.0,0.0,-0.001,0
10316000,0.11168311,0.1323391,0.0005361438,0.0,0.0,-0.001,0
10336000,0.111619174,0.13208917,0.0005649328,0.0,0.0,-0.001,0
10356000,0.11178235,0.13203654,0.0005111098,0.0,0.0,-0.001,0
10372000,0.111668736,0.1321558,0.0004990101,0.0,0.0,-0.001,0
10392000,0.112051316,0.13221665,0.0005144477,0.0,0.0,-0.001,0
10416000,0.112126924,0.13221975,0.00055491924,0.0,0.0,-0.001,0
10436000,0.11207453,0.13214661,0.000513196,0.0,0.0,-0.001,0
10456000,0.11201087,0.13185641,0.0004981756,0.0,0.0,-0.001,0
10472000,0.111805305,0.13203196,0.0005607605,0.0,0.0,-0.001,0
10492000,0.11151983,0.13205658,0.00051152706,0.0,0.0,-0.001,0
10512000,0.11154791,0.13177882,0.0005532503,0.0,0.0,-0.001,0
10536000,0.11163474,0.13202816,0.0005970597,0.0,0.0,-0.001,0
10552000,0.111755945,0.13189438,0.0005315542,0.0,0.0,-0.001,0
10576000,0.11174254,0.13193664,0.0005353093,0.0,0.0,-0.001,0
10596000,0.11157475,0.13207063,0.00051528215,0.0,0.0,-0.001,0
10616000,0.11136624,0.13223585,0.0004698038,0.0,0.0,-0.001,0
10632000,0.11120444,0.132316,0.00051403046,0.0,0.0,-0.001,0
10656000,0.11113659,0.13244432,0.00065630674,0.0,0.0,-0.001,0
10676000,0.111165754,0.1323578,0.0005398989,0.0,0.0,-0.001,0
10696000,0.11141597,0.1323485,0.0005532503,0.0,0.0,-0.001,0
10712000,0.11129386,0.13205086,0.0005649328,0.0,0.0,-0.001,0
10736000,0.11091918,0.13171904,0.0005323887,0.0,0.0,-0.001,0
10752000,0.11075571,0.13153198,0.0004969239,0.0,0.0,-0.001,0
10776000,0.1105164,0.13136971,0.00044101477,0.0,0.0,-0.001,0
10792000,0.110507004,0.13109663,0.0004927516,0.0,0.0,-0.001,0
10816000,0.11049388,0.13101761,0.00047188997,0.0,0.0,-0.001,0
10832000,0.11032173,0.1310932,0.00048732758,0.0,0.0,-0.001,0
10856000,0.11006795,0.13114953,0.0004969239,0.0,0.0,-0.001,0
10876000,0.10988262,0.1312318,0.00048315525,0.0,0.0,-0.001,0
10896000,0.10992042,0.1313462,0.00052404404,0.0,0.0,-0.001,0
10916000,0.10985612,0.13140363,0.0004877448,0.0,0.0,-0.001,0
10936000,0.10998729,0.13131428,0.0004068017,0.0,0.0,-0.001,0
10956000,0.11012866,0.13138716,0.00046104193,0.0,0.0,-0.001,0
10976000,0.11009444,0.13146207,0.00047773123,0.0,0.0,-0.001,0
10996000,0.10989597,0.13175686,0.0004927516,0.0,0.0,-0.001,0
11016000,0.10978485,0.13188644,0.0004310012,0.0,0.0,-0.001,0
11032000,0.10975551,0.13132158,0.0004889965,0.0,0.0,-0.001,0
11052000,0.10977548,0.1311471,0.00048941374,0.0,0.0,-0.001,0
11076000,0.11014358,0.13098119,0.0004735589,0.0,0.0,-0.001,0
11096000,0.110336326,0.13093923,0.00047314167,0.0,0.0,-0.001,0
11112000,0.11047877,0.13102266,0.00049191713,0.0,0.0,-0.001,0
11136000,0.11038517,0.13092919,0.00049483776,0.0,0.0,-0.001,0
11152000,0.11029388,0.13088349,0.00046938658,0.0,0.0,-0.001,0
11172000,0.110332325,0.13077715,0.0004798174,0.0,0.0,-0.001,0
11192000,0.110342465,0.1303041,0.00047522783,0.0,0.0,-0.001,0
11212000,0.11046568,0.13007008,0.00047940016,0.0,0.0,-0.001,0
11232000,0.110357225,0.13000403,0.00052154064,0.0,0.0,-0.001,0
11256000,0.11034808,0.12991273,0.00046396255,0.0,0.0,-0.001,0
11276000,0.1104652,0.12970743,0.00045728683,0.0,0.0,-0.001,0
11292000,0.11041018,0.12944059,0.000477314,0.0,0.0,-0.001,0
11312000,0.11019942,0.12940149,0.0004093051,0.0,0.0,-0.001,0
11336000,0.11021849,0.12928782,0.00049108267,0.0,0.0,-0.001,0
11352000,0.110239945,0.12913446,0.00047814846,0.0,0.0,-0.001,0
11376000,0.11003736,0.12921557,0.0005219579,0.0,0.0,-0.001,0
11392000,0.109989375,0.12924288,0.00041806698,0.0,0.0,-0.001,0
11416000,0.10999907,0.12952682,0.0005519986,0.0,0.0,-0.001,0
11432000,0.10999142,0.12955406,0.00048482418,0.0,0.0,-0.001,0
11456000,0.11006784,0.12965877,0.00048440695,0.0,0.0,-0.001,0
11476000,0.11027201,0.12970637,0.0005148649,0.0,0.0,-0.001,0
11496000,0.11036541,0.12955979,0.0005156994,0.0,0.0,-0.001,0
11516000,0.11031114,0.12966028,0.0004969239,0.0,0.0,-0.001,0
11536000,0.11045515,0.12995735,0.0005232096,0.0,0.0,-0.001,0
11556000,0.110551186,0.12995645,0.00048691034,0.0,0.0,-0.001,0
11572000,0.11050931,0.12984598,0.00045770407,0.0,0.0,-0.001,0
11596000,0.11032795,0.1299713,0.0004735589,0.0,0.0,-0.001,0
11616000,0.110346936,0.13006462,0.00049984455,0.0,0.0,-0.001,0
11636000,0.11013881,0.12978463,0.00048148632,0.0,0.0,-0.001,0
11656000,0.10999475,0.12975514,0.000477314,0.0,0.0,-0.001,0
11672000,0.10992007,0.12973446,0.0004685521,0.0,0.0,-0.001,0
11696000,0.110102974,0.12954651,0.0005056858,0.0,0.0,-0.001,0
11712000,0.11025263,0.12940189,0.00041222572,0.0,0.0,-0.001,0
11736000,0.11034634,0.12934871,0.0005065203,0.0,0.0,-0.001,0
11752000,0.110444255,0.129254,0.00046646595,0.0,0.0,-0.001,0
11776000,0.110367216,0.1293006,0.00044226646,0.0,0.0,-0.001,0
11792000,0.110158026,0.12881322,0.00044226646,0.0,0.0,-0.001,0
11816000,0.110233426,0.12849501,0.00038844347,0.0,0.0,-0.001,0
11836000,0.11028892,0.12833457,0.00045394897,0.0,0.0,-0.001,0
11852000,0.11028832,0.12844644,0.00045019388,0.0,0.0,-0.001,0
11872000,0.110096365,0.12828392,0.00047314167,0.0,0.0,-0.001,0
11896000,0.109917395,0.12798253,0.00048273802,0.0,0.0,-0.001,0
11916000,0.10985467,0.12791432,0.00046521425,0.0,0.0,-0.001,0
11936000,0.10987284,0.12803736,0.00046521425,0.0,0.0,-0.001,0
11956000,0.10958033,0.12793949,0.0004977584,0.0,0.0,-0.001,0
11976000,0.10936371,0.12781549,0.00057661533,0.0,0.0,-0.001,0
11996000,0.109348446,0.12779701,0.0004852414,0.0,0.0,-0.001,0
12016000,0.10930074,0.1273417,0.00052946806,0.0,0.0,-0.001,0
12036000,0.109128684,0.127268,0.00050777197,0.0,0.0,-0.001,0
12056000,0.10896007,0.127297,0.00040763617,0.0,0.0,-0.001,0
12076000,0.10885815,0.12719025,0.0004785657,0.0,0.0,-0.001,0
12096000,0.10877311,0.12715761,0.00042682886,0.0,0.0,-0.001,0
12116000,0.10867946,0.12711282,0.00048691034,0.0,0.0,-0.001,0
12136000,0.108728364,0.12698752,0.0004810691,0.0,0.0,-0.001,0
12156000,0.108660646,0.12725607,0.00045770407,0.0,0.0,-0.001,0
12176000,0.10843956,0.12735248,0.00048315525,0.0,0.0,-0.001,0
12196000,0.10843952,0.1273455,0.00047147274,0.0,0.0,-0.001,0
12212000,0.10851561,0.12747593,0.00044059753,0.0,0.0,-0.001,0
12232000,0.10837466,0.12774885,0.000459373,0.0,0.0,-0.001,0
12252000,0.10822825,0.12775728,0.00043225288,0.0,0.0,-0.001,0
12272000,0.1081813,0.12786737,0.00043934584,0.0,0.0,-0.001,0
12296000,0.10818959,0.1282003,0.0004339218,0.0,0.0,-0.001,0
12312000,0.108159,0.1281533,0.0004798174,0.0,0.0,-0.001,0
12336000,0.10797666,0.12819183,0.00044602156,0.0,0.0,-0.001,0
12352000,0.10807583,0.12826443,0.0004823208,0.0,0.0,-0.001,0
12372000,0.108057946,0.12845586,0.0004581213,0.0,0.0,-0.001,0
12396000,0.10791076,0.12841159,0.0004631281,0.0,0.0,-0.001,0
12416000,0.10780962,0.12847078,0.00049608946,0.0,0.0,-0.001,0
12432000,0.10779083,0.12834848,0.0005649328,0.0,0.0,-0.001,0
12456000,0.107790366,0.12852247,0.0004990101,0.0,0.0,-0.001,0
12472000,0.10767609,0.12874593,0.00043308735,0.0,0.0,-0.001,0
12492000,0.10780439,0.12889455,0.00048065186,0.0,0.0,-0.001,0
12512000,0.10796027,0.1288771,0.00046813488,0.0,0.0,-0.001,0
12532000,0.108269535,0.12847775,0.00043809414,0.0,0.0,-0.001,0
12552000,0.108272634,0.1283774,0.0005386472,0.0,0.0,-0.001,0
12576000,0.10839708,0.12821913,0.0004760623,0.0,0.0,-0.001,0
12592000,0.1084833,0.12833163,0.0005119443,0.0,0.0,-0.001,0
12612000,0.10832976,0.12833345,0.0004965067,0.0,0.0,-0.001,0
12632000,0.108060345,0.12822148,0.0005457401,0.0,0.0,-0.001,0
12652000,0.10794963,0.12825549,0.00052696466,0.0,0.0,-0.001,0
12672000,0.10785156,0.12830535,0.0004710555,0.0,0.0,-0.001,0
12692000,0.10782643,0.12836497,0.00048398972,0.0,0.0,-0.001,0
12712000,0.10788831,0.12862794,0.00050735474,0.0,0.0,-0.001,0
12732000,0.10768961,0.12884592,0.00047522783,0.0,0.0,-0.001,0
12756000,0.10796118,0.12870616,0.00047397614,0.0,0.0,-0.001,0
12772000,0.107798845,0.12862751,0.00054490566,0.0,0.0,-0.001,0
12792000,0.10774633,0.12877995,0.00052446127,0.0,0.0,-0.001,0
12812000,0.10762981,0.12882997,0.00045144558,0.0,0.0,-0.001,0
12832000,0.107412174,0.12865426,0.00055366755,0.0,0.0,-0.001,0
12852000,0.10727107,0.12867054,0.0004965067,0.0,0.0,-0.001,0
12872000,0.107168965,0.1287938,0.00048440695,0.0,0.0,-0.001,0
12892000,0.10713303,0.1288367,0.00046896935,0.0,0.0,-0.001,0
12912000,0.10693614,0.1289289,0.0005519986,0.0,0.0,-0.001,0
12936000,0.106730506,0.12853342,0.00048983097,0.0,0.0,-0.001,0
12952000,0.10660806,0.12850823,0.00052529573,0.0,0.0,-0.001,0
12976000,0.10652432,0.12849532,0.0004864931,0.0,0.0,-0.001,0
12992000,0.106533326,0.12864311,0.00046521425,0.0,0.0,-0.001,0
13016000,0.10653776,0.12839362,0.00040596724,0.0,0.0,-0.001,0
13032000,0.106680244,0.12844439,0.00038844347,0.0,0.0,-0.001,0
13056000,0.10701449,0.12833029,0.00047439337,0.0,0.0,-0.001,0
13076000,0.10720566,0.12811099,0.00044310093,0.0,0.0,-0.001,0
13096000,0.107347265,0.12801757,0.00048482418,0.0,0.0,-0.001,0
13112000,0.10720684,0.12789534,0.0005223751,0.0,0.0,-0.001,0
13136000,0.10710969,0.1279426,0.0004310012,0.0,0.0,-0.001,0
13152000,0.107170984,0.1283206,0.00045770407,0.0,0.0,-0.001,0
13176000,0.10711095,0.12803887,0.00048065186,0.0,0.0,-0.001,0
13192000,0.10709839,0.12791081,0.0004506111,0.0,0.0,-0.001,0
13212000,0.10713293,0.12780552,0.0004426837,0.0,0.0,-0.001,0
13232000,0.107279204,0.12775248,0.0004785657,0.0,0.0,-0.001,0
13256000,0.10731452,0.12760583,0.00042307377,0.0,0.0,-0.001,0
13272000,0.10738798,0.12746228,0.0004914999,0.0,0.0,-0.001,0
13296000,0.10739201,0.12770772,0.0004451871,0.0,0.0,-0.001,0
13312000,0.107335486,0.12759699,0.0005015135,0.0,0.0,-0.001,0
13336000,0.10734682,0.1275642,0.0005661845,0.0,0.0,-0.001,0
13352000,0.10757352,0.12756221,0.00043851137,0.0,0.0,-0.001,0
13376000,0.10748869,0.12762357,0.00047314167,0.0,0.0,-0.001,0
13396000,0.10760757,0.12719047,0.00044810772,0.0,0.0,-0.001,0
13416000,0.10746537,0.12711447,0.0004339218,0.0,0.0,-0.001,0
13436000,0.107400805,0.1272802,0.0004556179,0.0,0.0,-0.001,0
13456000,0.10726477,0.1272135,0.00044810772,0.0,0.0,-0.001,0
13472000,0.10724169,0.12701923,0.00041556358,0.0,0.0,-0.001,0
13496000,0.10710697,0.12713969,0.00044226646,0.0,0.0,-0.001,0
13516000,0.106798254,0.12710574,0.00043475628,0.0,0.0,-0.001,0
13536000,0.10661006,0.1272879,0.00041639805,0.0,0.0,-0.001,0
13556000,0.10657662,0.1274042,0.00044727325,0.0,0.0,-0.001,0
13576000,0.10638223,0.12742974,0.0003838539,0.0,0.0,-0.001,0
13596000,0.10610271,0.12731066,0.00044935942,0.0,0.0,-0.001,0
13616000,0.105888784,0.12724413,0.0004631281,0.0,0.0,-0.001,0
13632000,0.10562817,0.12718135,0.00049859285,0.0,0.0,-0.001,0
13656000,0.10549333,0.12734911,0.00052028894,0.0,0.0,-0.001,0
13676000,0.105321236,0.1273237,0.00044727325,0.0,0.0,-0.001,0
13696000,0.10523623,0.12728342,0.00047439337,0.0,0.0,-0.001,0
13712000,0.105122074,0.12741683,0.00039052963,0.0,0.0,-0.001,0
13736000,0.105113454,0.12739141,0.00043058395,0.0,0.0,-0.001,0
13756000,0.10513048,0.12726516,0.0004389286,0.0,0.0,-0.001,0
13776000,0.105246246,0.12733123,0.0005207062,0.0,0.0,-0.001,0
13792000,0.08905674,0.13206989,0.0005745292,0.0,0.0,-0.008257834,0
13816000,0.09049137,0.13146807,0.0005248785,0.0,0.0,-0.011152658,0
13832000,0.09071316,0.13209477,0.00057411194,0.0,0.0,-0.013236829,0
13852000,0.08956884,0.13434824,0.0005661845,0.0,0.0,-0.016485065,0
13872000,0.089391455,0.13357553,0.0005736947,0.0,0.0,-0.018691814,0
13896000,0.0917268,0.13236356,0.0005991459,0.0,0.0,-0.021960048,0
13912000,0.090566024,0.1326093,0.0005791187,0.0,0.0,-0.024231331,0
13936000,0.089852795,0.13319045,0.0006337762,0.0,0.0,-0.027838865,0
13956000,0.08848584,0.13302723,0.0005453229,0.0,0.0,-0.031613953,0
13976000,0.08920287,0.13261244,0.00059580803,0.0,0.0,-0.034168996,0
13996000,0.088099845,0.13497768,0.0005620122,0.0,0.0,-0.038030557,0
14016000,0.08693657,0.13202195,0.000572443,0.0,0.0,-0.04068804,0
14036000,0.086905286,0.13296941,0.0005699396,0.0,0.0,-0.04472398,0
14056000,0.0873211,0.13335146,0.0006108284,0.0,0.0,-0.04745156,0
14076000,0.08705525,0.13498165,0.00055617094,0.0,0.0,-0.051680375,0
14096000,0.0886265,0.13594706,0.0005828738,0.0,0.0,-0.054580253,0
14116000,0.08761786,0.13532701,0.0005828738,0.0,0.0,-0.05888916,0
14136000,0.087094344,0.13441543,0.00061917305,0.0,0.0,-0.061858885,0
14152000,0.086998746,0.13494073,0.0006079078,0.0,0.0,-0.06491863,0
14172000,0.0850701,0.13488735,0.00057536364,0.0,0.0,-0.06951816,0
14196000,0.08551989,0.13518192,0.0006133318,0.0,0.0,-0.07424181,0
14216000,0.087099634,0.13503969,0.00059872866,0.0,0.0,-0.0774749,0
14236000,0.08747527,0.13443746,0.00057786703,0.0,0.0,-0.082421884,0
14256000,0.08764764,0.13468426,0.00069510937,0.0,0.0,-0.0857618,0
14276000,0.089082986,0.13441789,0.0005686879,0.0,0.0,-0.090842985,0
14296000,0.09017281,0.13422652,0.00059247017,0.0,0.0,-0.09425996,0
14316000,0.091046326,0.13238616,0.00059205294,0.0,0.0,-0.09947312,0
14336000,0.092952795,0.13251229,0.0006150007,0.0,0.0,-0.103004746,0
14352000,0.093317226,0.13329953,0.0006033182,0.0,0.0,-0.10662778,0
14376000,0.09424425,0.13170643,0.0005699396,0.0,0.0,-0.11207699,0
14396000,0.09498893,0.13062005,0.00053322315,0.0,0.0,-0.11778739,0
14416000,0.09286812,0.13078037,0.0005557537,0.0,0.0,-0.12161501,0
14436000,0.09282768,0.1307988,0.00054866076,0.0,0.0,-0.12734719,0
14456000,0.0936704,0.1319557,0.00057411194,0.0,0.0,-0.13135706,0
14476000,0.09578829,0.13263746,0.00050234795,0.0,0.0,-0.13733178,0
14496000,0.0942502,0.1319413,0.0005507469,0.0,0.0,-0.14139178,0
14516000,0.094363034,0.13453129,0.00054115057,0.0,0.0,-0.14760898,0
14536000,0.09355711,0.13459496,0.0005482435,0.0,0.0,-0.15178426,0
14556000,0.09342416,0.1330936,0.00052529573,0.0,0.0,-0.1581414,0
14576000,0.09398135,0.1337,0.0005661845,0.0,0.0,-0.16240802,0
14596000,0.09416567,0.1346497,0.00052279234,0.0,0.0,-0.16886555,0
14616000,0.096168324,0.13370687,0.0005532503,0.0,0.0,-0.17324501,0
14636000,0.10030476,0.13420516,0.00048482418,0.0,0.0,-0.1798332,0
14656000,0.10021053,0.13283189,0.00048398972,0.0,0.0,-0.18423463,0
14676000,0.09998578,0.13068503,0.0004810691,0.0,0.0,-0.19107345,0
14696000,0.099088676,0.1282703,0.0004735589,0.0,0.0,-0.19571958,0
14712000,0.09912447,0.12746786,0.00049066544,0.0,0.0,-0.20048013,0
14736000,0.10013765,0.12630266,0.0004956722,0.0,0.0,-0.20758094,0
14752000,0.10036707,0.12677231,0.00043350458,0.0,0.0,-0.21241044,0
14772000,0.10179473,0.124970146,0.00047314167,0.0,0.0,-0.21965908,0
14792000,0.10267973,0.12525621,0.00050610304,0.0,0.0,-0.22456765,0
14812000,0.104171865,0.1262912,0.00045895576,0.0,0.0,-0.2319506,0
14832000,0.10396827,0.12559457,0.00048398972,0.0,0.0,-0.23698679,0
14856000,0.10288327,0.12618947,0.0004969239,0.0,0.0,-0.24458495,0
14876000,0.10177838,0.12521666,0.00048691034,0.0,0.0,-0.2523906,0
14896000,0.10292462,0.12606993,0.0005386472,0.0,0.0,-0.257632,0
14916000,0.10337841,0.12568277,0.0004748106,0.0,0.0,-0.26561332,0
14936000,0.10231128,0.12549555,0.0005503297,0.0,0.0,-0.27098832,0
14956000,0.10000636,0.12498882,0.00050860643,0.0,0.0,-0.27913207,0
14976000,0.10004647,0.12589076,0.000608325,0.0,0.0,-0.28462124,0
14992000,0.1016118,0.12380678,0.0005169511,0.0,0.0,-0.29018787,0
15016000,0.10432606,0.12320141,0.00048315525,0.0,0.0,-0.2986008,0
15032000,0.10656959,0.12244362,0.00046479702,0.0,0.0,-0.30419546,0
15056000,0.10817578,0.124035895,0.00048565865,0.0,0.0,-0.31282744,0
15072000,0.1108221,0.124317825,0.00044435263,0.0,0.0,-0.31857985,0
15096000,0.111284494,0.122925766,0.00034588575,0.0,0.0,-0.32434312,0
15112000,0.11362545,0.123266146,0.0003746748,0.0,0.0,-0.3260162,0
15136000,0.115409955,0.12236255,0.0003926158,0.0,0.0,-0.3282167,0
15156000,0.11553401,0.12139817,0.00039803982,0.0,0.0,-0.3298972,0
15176000,0.11588669,0.12058014,0.00038719177,0.0,0.0,-0.3323188,0
15196000,0.1156756,0.12082466,0.00044685602,0.0,0.0,-0.33393744,0
15216000,0.11800171,0.12121313,0.0003709197,0.0,0.0,-0.3363501,0
15232000,0.11865494,0.12225836,0.00039762259,0.0,0.0,-0.33811533,0
15252000,0.119511776,0.123497285,0.0003913641,0.0,0.0,-0.34061906,0
15272000,0.11928909,0.12306869,0.00042015314,0.0,0.0,-0.34234366,0
15292000,0.11884225,0.12389599,0.00039178133,0.0,0.0,-0.34491974,0
15312000,0.11879648,0.12330164,0.0004723072,0.0,0.0,-0.3466624,0
15332000,0.11863525,0.122963935,0.00042307377,0.0,0.0,-0.3493211,0
15352000,0.11961383,0.12280237,0.00041264296,0.0,0.0,-0.3510475,0
15372000,0.11821069,0.12365846,0.00042182207,0.0,0.0,-0.3538741,0
15392000,0.11950976,0.12443688,0.00043600798,0.0,0.0,-0.35561836,0
15416000,0.11877391,0.1226621,0.00044476986,0.0,0.0,-0.35847136,0
15436000,0.117481135,0.12251829,0.00040471554,0.0,0.0,-0.3602275,0
15456000,0.11700167,0.12194005,0.0004606247,0.0,0.0,-0.36310428,0
15472000,0.11686638,0.121521525,0.0004877448,0.0,0.0,-0.3648521,0
15496000,0.11519859,0.122491844,0.00041139126,0.0,0.0,-0.36775985,0
15516000,0.1166493,0.12026991,0.00041764975,0.0,0.0,-0.3695542,0
15536000,0.11730187,0.11897226,0.0004810691,0.0,0.0,-0.37256366,0
15552000,0.11750746,0.11757536,0.00047898293,0.0,0.0,-0.37435964,0
15576000,0.11949118,0.11556626,0.0004310012,0.0,0.0,-0.3775147,0
15592000,0.118574135,0.11307615,0.00044310093,0.0,0.0,-0.37921864,0
15612000,0.11753328,0.111644074,0.00037008524,0.0,0.0,-0.3826166,0
15632000,0.116941944,0.110496856,0.00037676096,0.0,0.0,-0.38439012,0
15656000,0.115932204,0.11033245,0.00041347742,0.0,0.0,-0.38768262,0
15672000,0.11624188,0.111658424,0.0003771782,0.0,0.0,-0.38936877,0
15696000,0.11568941,0.11301099,0.0003901124,0.0,0.0,-0.39284274,0
15712000,0.114689775,0.11223591,0.00032043457,0.0,0.0,-0.39463043,0
15732000,0.115235224,0.11095964,0.0003851056,0.0,0.0,-0.39807224,0
15752000,0.114045516,0.111025795,0.0003784299,0.0,0.0,-0.39981776,0
15776000,0.116459146,0.112063326,0.0004209876,0.0,0.0,-0.40339532,0
15796000,0.11588002,0.11373145,0.00039887428,0.0,0.0,-0.40532765,0
15816000,0.11589145,0.11524229,0.00043475628,0.0,0.0,-0.40861714,0
15832000,0.11638707,0.11435238,0.00036257505,0.0,0.0,-0.41030008,0
15856000,0.118222214,0.11275668,0.00043851137,0.0,0.0,-0.41404954,0
15872000,0.11766836,0.11340368,0.00038176775,0.0,0.0,-0.4157523,0
15896000,0.117406346,0.11212869,0.00039052963,0.0,0.0,-0.41961345,0
15916000,0.116722524,0.11171236,0.00035256147,0.0,0.0,-0.42157778,0
15936000,0.11652943,0.110569455,0.0003016591,0.0,0.0,-0.4252573,0
15952000,0.1156293,0.10937189,0.00034797192,0.0,0.0,-0.42707813,0
15976000,0.116360895,0.10914524,0.00033044815,0.0,0.0,-0.43117958,0
15992000,0.116606176,0.110039316,0.00038594007,0.0,0.0,-0.4329539,0
16016000,0.115488544,0.110489786,0.00032252073,0.0,0.0,-0.43702668,0
16036000,0.11640461,0.10988066,0.00035089254,0.0,0.0,-0.43913028,0
16056000,0.11606767,0.1097638,0.000351727,0.0,0.0,-0.44296712,0
16072000,0.11510004,0.111060895,0.00042557716,0.0,0.0,-0.44473,0
16096000,0.116840266,0.11197422,0.00038719177,0.0,0.0,-0.44893366,0
16112000,0.11712948,0.11254059,0.00042515993,0.0,0.0,-0.45062086,0
16136000,0.116111435,0.1100515,0.00044602156,0.0,0.0,-0.45501834,0
16152000,0.11603155,0.1110749,0.00044810772,0.0,0.0,-0.45683762,0
16176000,0.11603544,0.11074163,0.0004030466,0.0,0.0,-0.46116835,0
16196000,0.117402084,0.11157652,0.00039428473,0.0,0.0,-0.46340755,0
16216000,0.11775862,0.11076133,0.00048983097,0.0,0.0,-0.46746242,0
16236000,0.1169782,0.11169944,0.00041097403,0.0,0.0,-0.46959466,0
16256000,0.11751597,0.11325766,0.00045728683,0.0,0.0,-0.47369078,0
16272000,0.11944358,0.11453578,0.00046271086,0.0,0.0,-0.47543332,0
16292000,0.11836967,0.11570914,0.00038844347,0.0,0.0,-0.4800595,0
16312000,0.11910297,0.115813114,0.0004451871,0.0,0.0,-0.48179537,0
16332000,0.11954713,0.11360914,0.0003671646,0.0,0.0,-0.48653954,0
16352000,0.11899692,0.11261815,0.00039762259,0.0,0.0,-0.48839316,0
16376000,0.11969654,0.11360887,0.0002553463,0.0,0.0,-0.49331385,0
16396000,0.120526,0.11295101,0.0003271103,0.0,0.0,-0.4955732,0
16416000,0.12243088,0.11360717,0.00028663874,0.0,0.0,-0.50005406,0
16432000,0.12293668,0.11407374,0.00024324656,0.0,0.0,-0.5018162,0
16456000,0.121450886,0.1148103,0.0003116727,0.0,0.0,-0.50693154,0
16472000,0.12157784,0.113986954,0.00029331446,0.0,0.0,-0.5086776,0
16492000,0.12042479,0.11497647,0.00037050247,0.0,0.0,-0.5137871,0
16512000,0.11967197,0.11510708,0.000369668,0.0,0.0,-0.5155791,0
16532000,0.12082692,0.115272224,0.0003567338,0.0,0.0,-0.52086496,0
16552000,0.12080236,0.11508436,0.00042766333,0.0,0.0,-0.5226968,0
16576000,0.120062076,0.116216704,0.00040972233,0.0,0.0,-0.52797246,0
16592000,0.12049689,0.11670174,0.00042933226,0.0,0.0,-0.52977216,0
16612000,0.12024303,0.115289524,0.00037175417,0.0,0.0,-0.5351118,0
16632000,0.1214968,0.114927374,0.00038468838,0.0,0.0,-0.5368266,0
16652000,0.121829666,0.11532032,0.0003659129,0.0,0.0,-0.5422373,0
16672000,0.12337865,0.11541175,0.000387609,0.0,0.0,-0.5440358,0
16696000,0.12255974,0.114631005,0.00045645237,0.0,0.0,-0.5494939,0
16716000,0.122280054,0.11473243,0.00032919645,0.0,0.0,-0.5518005,0
16736000,0.12137437,0.1161224,0.0003709197,0.0,0.0,-0.5567637,0
16752000,0.12186252,0.11661007,0.0003325343,0.0,0.0,-0.55851346,0
16776000,0.12437865,0.115106076,0.0003709197,0.0,0.0,-0.56421524,0
16796000,0.12429775,0.11408579,0.0003721714,0.0,0.0,-0.5667163,0
16816000,0.123873346,0.115388684,0.00042933226,0.0,0.0,-0.5973458,0
16836000,0.123150036,0.11646713,0.00039678812,0.0,0.0,-0.59983486,0
16856000,0.12364935,0.11715722,0.0004310012,0.0,0.0,-0.60496384,0
16876000,0.12424719,0.117707536,0.0003592372,0.0,0.0,-0.60749936,0
16896000,0.12343125,0.11866827,0.00040513277,0.0,0.0,-0.61267996,0
16916000,0.12293518,0.1175172,0.00037133694,0.0,0.0,-0.61516875,0
16936000,0.12533285,0.1162551,0.00033044815,0.0,0.0,-0.6204235,0
16952000,0.12501207,0.116451964,0.00037008524,0.0,0.0,-0.622294,0
16976000,0.12562624,0.11600821,0.00041139126,0.0,0.0,-0.6283077,0
16996000,0.12747361,0.115025915,0.00033921003,0.0,0.0,-0.6309843,0
17016000,0.1279276,0.116252415,0.0003079176,0.0,0.0,-0.63630974,0
17036000,0.12661357,0.11820931,0.00036674738,0.0,0.0,-0.63888645,0
17056000,0.12776509,0.11870718,0.0003091693,0.0,0.0,-0.6443891,0
17076000,0.12413035,0.11685644,0.0003604889,0.0,0.0,-0.64684933,0
17096000,0.12431707,0.114963055,0.00032877922,0.0,0.0,-0.6523775,0
17112000,0.12476711,0.11491814,0.00038093328,0.0,0.0,-0.6541269,0
17132000,0.12585191,0.11538607,0.00033336878,0.0,0.0,-0.660525,0
17156000,0.12823543,0.11635829,0.00033962727,0.0,0.0,-0.66316277,0
17172000,0.12778509,0.11482206,0.00036215782,0.0,0.0,-0.668739,0
17192000,0.12815832,0.1161759,0.00028413534,0.0,0.0,-0.6705531,0
17212000,0.12849414,0.11676489,0.00034087896,0.0,0.0,-0.6771915,0
17232000,0.12978566,0.11564079,0.00029873848,0.0,0.0,-0.67899704,0
17252000,0.12677313,0.1145245,0.00038218498,0.0,0.0,-0.68536514,0
17276000,0.121531464,0.11523542,0.00032752752,0.0,0.0,-0.68726224,0
17296000,0.11634307,0.11546365,0.0003183484,0.0,0.0,-0.6924324,0
17316000,0.10481891,0.112892084,0.00033712387,0.0,0.0,-0.69387907,0
17332000,0.09639001,0.11047512,0.00027537346,0.0,0.0,-0.69870776,0
17352000,0.08278748,0.10687525,0.00026994944,0.0,0.0,-0.6993413,0
17372000,0.065000065,0.103911415,0.00017023087,0.0,0.0,-0.70417815,0
17396000,0.04304796,0.09475221,6.467104e-05,0.0,0.0,-0.70473355,0
17412000,0.026310451,0.084711656,2.2530556e-05,0.0,0.0,-0.7093968,0
17436000,-0.0012109554,0.06785708,-8.3863735e-05,0.0,0.0,-0.7095844,0
17456000,-0.025353199,0.04853987,-0.00033795834,0.0,0.0,-0.7143066,0
17476000,-0.05239044,0.026430067,-0.00024199486,0.0,0.0,-0.7144057,0
17492000,-0.073438175,0.004473569,-0.00027912855,0.0,0.0,-0.7190654,0
17512000,-0.101034805,-0.026222885,-0.00048190355,0.0,0.0,-0.719085,0
17536000,-0.13760798,-0.06729478,-0.0004685521,0.0,0.0,-0.72394913,0
17556000,-0.18049572,-0.1107489,0.00012600422,0.0,0.0,-0.72409004,0
17576000,-0.22816241,-0.16220415,4.839897e-05,0.0,0.0,-0.7293736,0
17592000,-0.27092347,-0.21202365,0.00035840273,0.0,0.0,-0.72977847,0
17612000,-0.3245786,-0.27562875,0.0009967685,0.0,0.0,-0.7348696,0
17632000,-0.3644786,-0.32699117,0.0011407137,0.0,0.0,-0.7349382,0
17656000,-0.41035476,-0.38230377,0.0013288856,0.0,0.0,-0.73962116,0
17672000,-0.43349826,-0.41519257,0.0014711618,0.0,0.0,-0.73936397,0
17696000,-0.45643035,-0.4546343,0.0013718605,0.0,0.0,-0.7436731,0
17712000,-0.4682864,-0.47210467,0.0011707544,0.0,0.0,-0.74304837,0
17732000,-0.47571167,-0.49061415,0.00076937675,0.0,0.0,-0.74691916,0
17752000,-0.47146147,-0.4935816,0.00028455257,0.0,0.0,-0.74600357,0
17772000,-0.46692088,-0.4953532,-0.00017523766,0.0,0.0,-0.74940795,0
17792000,-0.4535625,-0.48335022,-0.00069469213,0.0,0.0,-0.7480907,0
17812000,-0.44174325,-0.46998638,-0.0012821555,0.0,0.0,-0.75118005,0
17832000,-0.4244272,-0.44682145,-0.0016547441,0.0,0.0,-0.74966675,0
17856000,-0.40093234,-0.41947228,-0.0021041036,0.0,0.0,-0.75251585,0
17876000,-0.38173473,-0.39415154,-0.002437055,0.0,0.0,-0.7497547,0
17896000,-0.35974476,-0.3673272,-0.0025972724,0.0,0.0,-0.7534576,0
17912000,-0.34472004,-0.34697706,-0.002786696,0.0,0.0,-0.751665,0
17932000,-0.32445583,-0.32207447,-0.0028021336,0.0,0.0,-0.7541007,0
17956000,-0.3023321,-0.2918384,-0.0028972626,0.0,0.0,-0.75084585,0
17976000,-0.28413644,-0.26886356,-0.0028025508,0.0,0.0,-0.75466156,0
17992000,-0.2715807,-0.25210005,-0.0027967095,0.0,0.0,-0.75259787,0
18016000,-0.2554824,-0.23058447,-0.0027291179,0.0,0.0,-0.75495255,0
18032000,-0.24480672,-0.2171841,-0.0026832223,0.0,0.0,-0.7529778,0
18052000,-0.23491171,-0.20216484,-0.0025401115,0.0,0.0,-0.75237024,0
18072000,-0.2238361,-0.19089903,-0.002444148,0.0,0.0,-0.7469375,0
18096000,-0.21379393,-0.17868538,-0.002368629,0.0,0.0,-0.74397063,0
18116000,-0.20763996,-0.17418742,-0.0023999214,0.0,0.0,-0.7369425,0
18136000,-0.20017423,-0.16980386,-0.0023924112,0.0,0.0,-0.7352294,0
18152000,-0.19472206,-0.1673604,-0.002384901,0.0,0.0,-0.7295553,0
18172000,-0.18919685,-0.16687341,-0.0024132729,0.0,0.0,-0.726757,0
18192000,-0.1831494,-0.16457787,-0.0024065971,0.0,0.0,-0.7214142,0
18216000,-0.18263172,-0.16481678,-0.0024704337,0.0,0.0,-0.7189857,0
18232000,-0.1808522,-0.16447039,-0.0024775267,0.0,0.0,-0.7137687,0
18252000,-0.1816689,-0.16557516,-0.002558887,0.0,0.0,-0.71160114,0
18272000,-0.17894846,-0.16555573,-0.002583921,0.0,0.0,-0.7065375,0
18296000,-0.1778689,-0.1639613,-0.0025668144,0.0,0.0,-0.7092965,0
18312000,-0.17709653,-0.16400598,-0.0026444197,0.0,0.0,-0.7082596,0
18336000,-0.17239249,-0.16243453,-0.002720356,0.0,0.0,-0.7145612,0
18356000,-0.16981798,-0.16128434,-0.0027466416,0.0,0.0,-0.7136865,0
18376000,-0.16464512,-0.15928988,-0.0027424693,0.0,0.0,-0.7196961,0
18396000,-0.1581784,-0.15617175,-0.002696991,0.0,0.0,-0.7178951,0
18416000,-0.15086919,-0.15146674,-0.002657771,0.0,0.0,-0.7233661,0
18432000,-0.14494422,-0.14768055,-0.00261271,0.0,0.0,-0.72099066,0
18456000,-0.13732077,-0.14101616,-0.0025638938,0.0,0.0,-0.7256429,0
18472000,-0.13151021,-0.13637662,-0.0024595857,0.0,0.0,-0.7226789,0
18496000,-0.12377605,-0.12745662,-0.0022830963,0.0,0.0,-0.7267972,0
18512000,-0.11842632,-0.1230351,-0.0022242665,0.0,0.0,-0.7234892,0
18532000,-0.110438816,-0.117189,-0.0021437407,0.0,0.0,-0.7273347,0
18556000,-0.10263493,-0.107737266,-0.0020052195,0.0,0.0,-0.7233012,0
18576000,-0.097830534,-0.10304413,-0.0018596053,0.0,0.0,-0.72754526,0
18596000,-0.09254801,-0.09771615,-0.0018003583,0.0,0.0,-0.7232511,0
18616000,-0.09027726,-0.09319775,-0.0017135739,0.0,0.0,-0.7272612,0
18636000,-0.08864209,-0.090004236,-0.0016847849,0.0,0.0,-0.72275156,0
18656000,-0.08704646,-0.08553992,-0.0015491843,0.0,0.0,-0.7266882,0
18672000,-0.085954316,-0.08508753,-0.0015454292,0.0,0.0,-0.7228178,0
18696000,-0.08180182,-0.08285412,-0.0014790893,0.0,0.0,-0.7261069,0
18716000,-0.07882476,-0.08162219,-0.0014836788,0.0,0.0,-0.7216799,0
18736000,-0.07792962,-0.0787442,-0.0013693571,0.0,0.0,-0.7256151,0
18752000,-0.07658873,-0.07598424,-0.0013885498,0.0,0.0,-0.7218779,0
18776000,-0.07379811,-0.071458995,-0.0012667179,0.0,0.0,-0.72516006,0
18796000,-0.06940889,-0.06920818,-0.001234591,0.0,0.0,-0.72092265,0
18816000,-0.06623954,-0.06705445,-0.0011949539,0.0,0.0,-0.7249025,0
18836000,-0.06353332,-0.06637926,-0.001186192,0.0,0.0,-0.72064066,0
18856000,-0.061718404,-0.06554321,-0.0011599064,0.0,0.0,-0.7245996,0
18872000,-0.059178945,-0.065331884,-0.0011649132,0.0,0.0,-0.72114915,0
18896000,-0.05414562,-0.064320244,-0.001001358,0.0,0.0,-0.724414,0
18916000,-0.051955163,-0.062176675,-0.0010889769,0.0,0.0,-0.72032034,0
18936000,-0.050607633,-0.059318837,-0.0009729862,0.0,0.0,-0.72420824,0
18956000,-0.04868775,-0.056981742,-0.0009796619,0.0,0.0,-0.72002536,0
18976000,-0.04650245,-0.054992884,-0.0009012222,0.0,0.0,-0.723856,0
18996000,-0.04249695,-0.049459614,-0.00085532665,0.0,0.0,-0.71970856,0
19016000,-0.043578513,-0.048463035,-0.00076144934,0.0,0.0,-0.72359586,0
19036000,-0.045662764,-0.04573243,-0.00076812506,0.0,0.0,-0.7193955,0
19056000,-0.04631699,-0.045742847,-0.0007343292,0.0,0.0,-0.7230041,0
19072000,-0.049073942,-0.044704136,-0.000692606,0.0,0.0,-0.71937764,0
19096000,-0.04811176,-0.042745363,-0.0006738305,0.0,0.0,-0.7224728,0
19112000,-0.046991214,-0.042577174,-0.0006341934,0.0,0.0,-0.7190231,0
19132000,-0.044184476,-0.04089423,-0.00062793493,0.0,0.0,-0.7220612,0
19152000,-0.042473923,-0.039344516,-0.0005991459,0.0,0.0,-0.7186623,0
19172000,-0.041753255,-0.038037416,-0.0005966425,0.0,0.0,-0.7217892,0
19192000,-0.041038275,-0.037843138,-0.0006054044,0.0,0.0,-0.7183749,0
19212000,-0.03834755,-0.035829093,-0.0005649328,0.0,0.0,-0.7214957,0
19232000,-0.036703512,-0.035164062,-0.00047689676,0.0,0.0,-0.71819556,0
19256000,-0.033150125,-0.032282516,-0.00045728683,0.0,0.0,-0.7212602,0
19272000,-0.030907461,-0.028252654,-0.0004339218,0.0,0.0,-0.71791464,0
19296000,-0.025375249,-0.024343418,-0.00030624866,0.0,0.0,-0.7209758,0
19312000,-0.023531929,-0.022889202,-0.00033295155,0.0,0.0,-0.71768993,0
19336000,-0.020482514,-0.02070533,-0.00036132336,0.0,0.0,-0.72078097,0
19356000,-0.015910015,-0.01756373,-0.00024032593,0.0,0.0,-0.7167914,0
19376000,-0.014267819,-0.016313175,-0.00028413534,0.0,0.0,-0.72052747,0
19396000,-0.012015881,-0.016044432,-0.0002503395,0.0,0.0,-0.7165905,0
19412000,-0.012899682,-0.017272023,-0.0002603531,0.0,0.0,-0.720204,0
19432000,-0.013084559,-0.019132199,-0.00022822618,0.0,0.0,-0.7168289,0
19456000,-0.014916498,-0.02046935,-0.00030583143,0.0,0.0,-0.7196338,0
19472000,-0.014078099,-0.022699332,-0.0002757907,0.0,0.0,-0.71622837,0
19496000,-0.012523197,-0.024611142,-0.00028538704,0.0,0.0,-0.7190454,0
19516000,-0.009693721,-0.02296813,-0.000310421,0.0,0.0,-0.71505123,0
19536000,-0.008327231,-0.024627885,-0.00027620792,0.0,0.0,-0.7186572,0
19556000,-0.0077591855,-0.021519862,-0.00028330088,0.0,0.0,-0.71475214,0
19576000,-0.008389837,-0.021359395,-0.00024658442,0.0,0.0,-0.7183351,0
19592000,-0.008066769,-0.021397963,-0.0003784299,0.0,0.0,-0.71506935,0
19616000,-0.008225918,-0.02114569,-0.00029832125,0.0,0.0,-0.71815735,0
19632000,-0.0072984705,-0.021720035,-0.00021612644,0.0,0.0,-0.71502125,0
19656000,-0.0072030537,-0.019688876,-0.00021737814,0.0,0.0,-0.71807605,0
19676000,-0.0061693657,-0.015707279,-0.00019109249,0.0,0.0,-0.7142637,0
19692000,-0.0060083764,-0.0137543045,-0.00017732382,0.0,0.0,-0.7178521,0
19712000,-0.004761759,-0.01130491,-0.000115156174,0.0,0.0,-0.714704,0
19732000,-0.003628078,-0.010302733,-0.0001347661,0.0,0.0,-0.7176418,0
19752000,-0.0035560885,-0.008874462,-0.00011640787,0.0,0.0,-0.71449834,0
19776000,-0.0027574496,-0.0057655373,-6.467104e-05,0.0,0.0,-0.71738243,0
19792000,-0.0012061307,-0.0030320745,-1.168251e-05,0.0,0.0,-0.71417856,0
19812000,-0.0008715,-0.0027523926,-3.504753e-05,0.0,0.0,-0.7169924,0
19832000,-0.0013581486,-0.0054333303,-2.9206276e-05,0.0,0.0,-0.71369594,0
19852000,-0.00031706318,-0.0081877075,-7.927418e-05,0.0,0.0,-0.7161886,0
19872000,-0.0009098314,-0.010032765,-2.5868416e-05,0.0,0.0,-0.71280426,0
19896000,0.00041440502,-0.011417324,-7.5519085e-05,0.0,0.0,-0.7154141,0
19916000,0.0014095558,-0.01006237,-0.00011265278,0.0,0.0,-0.71149355,0
19936000,0.0029802583,-0.010008519,-5.00679e-05,0.0,0.0,-0.71470577,0
19956000,0.0033966973,-0.008583728,-6.467104e-05,0.0,0.0,-0.71092224,0
19976000,0.0037169447,-0.007621511,-2.6285648e-05,0.0,0.0,-0.71433413,0
19996000,0.00307984,-0.008040754,-5.13196e-05,0.0,0.0,-0.7107808,0
20012000,0.0030023176,-0.008263952,-5.8829784e-05,0.0,0.0,-0.7142981,0
20032000,0.0032996219,-0.009235535,-0.00012224913,0.0,0.0,-0.71132314,0
20052000,0.0028117746,-0.008612078,-7.8856945e-05,0.0,0.0,-0.7142159,0
20076000,0.0020723157,-0.0056282952,-5.966425e-05,0.0,0.0,-0.7107005,0
20092000,0.0028377566,-0.0060980483,-8.678436e-05,0.0,0.0,-0.7141363,0
20116000,0.002311118,-0.005265877,-3.9219856e-05,0.0,0.0,-0.71063334,0
20136000,0.0009767478,-0.0033163675,0.0,0.0,0.0,-0.7139677,0
20156000,0.0014701765,-0.0009765723,-1.3768673e-05,0.0,0.0,-0.7105058,0
20176000,0.00010113139,-0.002178756,-5.841255e-06,0.0,0.0,-0.71394825,0
20196000,0.0005147131,0.0006392326,1.835823e-05,0.0,0.0,-0.71047026,0
20216000,-0.0012955181,8.226535e-05,-1.41859055e-05,0.0,0.0,-0.713757,0
20236000,-0.004107777,-0.0008288176,-1.5437603e-05,0.0,0.0,-0.7099478,0
20256000,-0.00550209,-0.0036142576,-5.173683e-05,0.0,0.0,-0.7130692,0
20276000,-0.008365792,-0.004188267,-6.67572e-06,0.0,0.0,-0.709279,0
20296000,-0.009745782,-0.0035245782,-0.019878209,0.0,0.0,-0.7124419,0
20316000,-0.008299929,-0.0036059655,-3.7550926e-06,0.0,0.0,-0.7087887,0
20332000,-0.009099767,-0.0034191895,3.7133694e-05,0.0,0.0,-0.7120474,0
20356000,-0.011154539,-0.005196094,3.2126904e-05,0.0,0.0,-0.70846415,0
20376000,-0.011986158,-0.0028779767,6.2584877e-06,0.0,0.0,-0.7115879,0
20396000,-0.01068639,-0.001064702,2.4616718e-05,0.0,0.0,-0.7081289,0
20416000,-0.010414741,-0.001077917,2.4199486e-05,0.0,0.0,-0.71136,0
20432000,-0.009243031,-0.0007740053,-2.0444393e-05,0.0,0.0,-0.7084853,0
20452000,-0.0063374983,0.0006590702,5.6743622e-05,0.0,0.0,-0.7111495,0
20472000,-0.005520832,0.0011085952,5.2571297e-05,0.0,0.0,-0.7083289,0
20492000,-0.0042446973,0.0005887713,2.5868416e-05,0.0,0.0,-0.7111279,0
20512000,-0.003098812,7.8328245e-05,-7.593632e-05,0.0,0.0,-0.7082723,0
20532000,-0.0033196108,0.0014612996,-3.963709e-05,0.0,0.0,-0.7110117,0
20552000,-0.0022750022,0.0014772547,-4.172325e-05,0.0,0.0,-0.7098959,0
20576000,0.0009188391,0.0019685214,-0.00012767315,0.0,0.0,-0.70590216,0
20592000,0.00042962376,0.0009196851,-0.0005553365,0.0,0.0,-0.70300657,0
20616000,0.0007942682,-0.0010143323,-0.00050902367,0.0,0.0,-0.6982863,0
20636000,0.0026078653,-0.0037669959,-0.00029331446,0.0,0.0,-0.6944952,0
20656000,0.0005168561,-0.0049168086,-0.0006508827,0.0,0.0,-0.68966126,0
20672000,0.00021773577,-0.006264531,-0.00068217516,0.0,0.0,-0.68626153,0
20696000,-0.0020997263,-0.008287777,-0.0005457401,0.0,0.0,-0.6811719,0
20712000,-0.002982716,-0.0097052455,-0.0005056858,0.0,0.0,-0.67787534,0
20736000,-0.0030778302,-0.011819086,-0.0004222393,0.0,0.0,-0.6729997,0
20752000,-0.0037478786,-0.011525571,-0.00039052963,0.0,0.0,-0.6697932,0
20776000,-0.004366447,-0.011265036,-0.00027370453,0.0,0.0,-0.66510713,0
20796000,-0.0057318723,-0.013095861,-0.00012516975,0.0,0.0,-0.6630624,0
20816000,-0.005460974,-0.013120636,-0.00016397238,0.0,0.0,-0.65759134,0
20836000,-0.006509118,-0.010399847,-9.930134e-05,0.0,0.0,-0.65597075,0
20856000,-0.0056180526,-0.008602552,4.339218e-05,0.0,0.0,-0.6549537,0
20876000,-0.0046739094,-0.00969177,-2.503395e-05,0.0,0.0,-0.6596598,0
20896000,-0.0042598797,-0.008118024,7.927418e-06,0.0,0.0,-0.6629999,0
20912000,-0.0030807601,-0.007862062,-1.2516975e-05,0.0,0.0,-0.6665771,0
20936000,-0.003499996,-0.006816822,6.759167e-05,0.0,0.0,-0.6718594,0
20956000,-0.0024393816,-0.0047341133,3.9219856e-05,0.0,0.0,-0.6769103,0
20976000,-0.00117826,-0.0028121953,-6.67572e-06,0.0,0.0,-0.6803446,0
20992000,-0.000582017,-0.0025238837,1.6272068e-05,0.0,0.0,-0.68342865,0
21016000,-0.0011573993,-0.0014015908,4.631281e-05,0.0,0.0,-0.6876568,0
21036000,-0.0018276293,0.0010489536,3.7133694e-05,0.0,0.0,-0.69090277,0
21052000,8.1420876e-05,0.002570196,-4.5895576e-06,0.0,0.0,-0.693692,0
21072000,-0.00066521764,0.0037259033,-4.2140484e-05,0.0,0.0,-0.6959049,0
21092000,-0.00067698583,0.006116306,6.0915947e-05,0.0,0.0,-0.6992017,0
21112000,0.0003268458,0.00798814,9.512901e-05,0.0,0.0,-0.70140934,0
21136000,-0.00021601655,0.010193818,6.80089e-05,0.0,0.0,-0.704573,0
21152000,-0.0006453255,0.009017306,5.6743622e-05,0.0,0.0,-0.70655024,0
21176000,-0.0012783622,0.009424724,-6.80089e-05,0.0,0.0,-0.70934826,0
21192000,-0.0015909337,0.010193204,-8.928776e-05,0.0,0.0,-0.711051,0
21216000,-0.0017814767,0.009374941,-4.631281e-05,0.0,0.0,-0.7135148,0
21236000,-0.0009794598,0.00917446,-5.13196e-05,0.0,0.0,-0.7148417,0
21252000,-0.000806896,0.0080110505,-6.2584877e-06,0.0,0.0,-0.7169786,0
21272000,-0.00043376442,0.008767184,-0.000102221966,0.0,0.0,-0.7180422,0
21296000,0.00074380543,0.0069384845,-7.677078e-05,0.0,0.0,-0.7195097,0
21316000,0.00028099585,0.008279711,-0.000108897686,0.0,0.0,-0.7194794,0
21336000,0.00061482674,0.0064488063,-0.0019475861,0.0,0.0,-0.72027016,0
21356000,0.0010975095,0.0065070377,-0.0027500761,0.0,0.0,-0.71937954,0
21376000,0.00032629355,0.006746277,-0.0020048164,0.0,0.0,-0.71941066,0
21396000,0.0030390045,0.0064962483,-0.002745532,0.0,0.0,-0.71778035,0
21416000,0.0021976857,0.005270143,-0.0020256427,0.0,0.0,-0.7174112,0
21436000,-0.0018229486,0.0035909428,-0.002361375,0.0,0.0,-0.7152104,0
21452000,-0.0030589974,0.0039973683,-0.0014325255,0.0,0.0,-0.71449935,0
21472000,-0.0040483163,0.0026434853,-0.0012187167,0.0,0.0,-0.71315885,0
21496000,-0.007968885,0.00035499647,-0.0001463007,0.0,0.0,-0.7119803,0
21512000,-0.007097477,0.00058003573,-5.4292264e-05,0.0,0.0,-0.71094435,0
21532000,-0.008210303,-0.0008679439,0.00077861274,0.0,0.0,-0.71031266,0
21552000,-0.007462495,-0.0006803918,0.0010130715,0.0,0.0,-0.70953935,0
21572000,-0.008368332,2.6676458e-05,0.001649477,0.0,0.0,-0.70924014,0
21596000,-0.008334461,-0.00032175833,0.0019232426,0.0,0.0,-0.70834243,0
21612000,-0.0073653837,-0.0013853072,0.0024080686,0.0,0.0,-0.7086274,0
21632000,-0.006807588,-0.0023506626,0.0024263514,0.0,0.0,-0.7082987,0
21652000,-0.0076710396,-0.0008928855,0.0027242769,0.0,0.0,-0.708486,0
21676000,-0.0070613585,-0.00021419961,0.0025073118,0.0,0.0,-0.70800006,0
21692000,-0.006599918,0.00022833131,0.0026708914,0.0,0.0,-0.70841426,0
21716000,-0.0076057236,-1.8242916e-05,0.0025257673,0.0,0.0,-0.7079679,0
21736000,-0.0058181123,-0.00011823877,0.0024441537,0.0,0.0,-0.70850605,0
21752000,-0.005064615,-0.00083495764,0.002050057,0.0,0.0,-0.70829064,0
21776000,-0.0034976113,-0.00040506167,0.0019086368,0.0,0.0,-0.70860374,0
21796000,-0.0015884606,-0.002629184,0.0016134595,0.0,0.0,-0.7082347,0
21816000,-0.001065759,-0.0031947757,0.0013053548,0.0,0.0,-0.7085986,0
21836000,-0.0034660697,-0.0016472429,0.00084800343,0.0,0.0,-0.7076427,0
21856000,-0.0036784115,9.799559e-05,0.00063890446,0.0,0.0,-0.707962,0
21872000,-0.0038173175,0.000112984366,0.0002945033,0.0,0.0,-0.707488,0
21892000,-0.0044243718,0.001962132,-0.00043681025,0.0,0.0,-0.7075348,0
21916000,-0.0041931937,0.003638946,-0.0012084226,0.0,0.0,-0.70693266,0
21936000,-0.004813837,0.0029027688,-0.0017627975,0.0,0.0,-0.7074609,0
21952000,-0.0038109405,0.001896787,-0.002217206,0.0,0.0,-0.70704925,0
21976000,-0.0028450321,0.0018662104,-0.0027341936,0.0,0.0,-0.70742446,0
21992000,-0.0018906987,0.0018783256,-0.0031184682,0.0,0.0,-0.70713866,0
22012000,-0.000800545,0.0011965134,-0.0034818386,0.0,0.0,-0.7075845,0
22032000,0.0003966034,0.001857565,-0.0039118095,0.0,0.0,-0.7072178,0
22052000,-0.00035762062,0.0011866989,-0.0042071864,0.0,0.0,-0.70764536,0
22072000,-6.146488e-05,0.00078627054,-0.004411303,0.0,0.0,-0.7074833,0
22096000,0.0018673056,0.0024999133,-0.004641138,0.0,0.0,-0.70789343,0
22112000,0.0024098933,0.0032102994,-0.004683565,0.0,0.0,-0.70760965,0
22132000,0.0013788162,0.0028047543,-0.004720358,0.0,0.0,-0.7081098,0
22152000,5.9656745e-06,0.0036378237,-0.0046267468,0.0,0.0,-0.7077462,0
22172000,0.00060686626,0.0015147787,-0.0043819877,0.0,0.0,-0.7081577,0
22192000,0.0018127642,-4.627208e-05,-0.004106534,0.0,0.0,-0.7078037,0
22212000,0.0011534971,-0.0001731386,-0.0037292729,0.0,0.0,-0.7082918,0
22232000,0.0011137561,-0.00014392313,-0.0032736508,0.0,0.0,-0.7076518,0
22252000,0.0013434704,-0.002593497,-0.0031166738,0.0,0.0,-0.7080441,0
22272000,0.0028582795,-0.0025874563,-0.0029226632,0.0,0.0,-0.7075304,0
22292000,0.0016252295,-0.0009215495,-0.0026758807,0.0,0.0,-0.7078248,0
22312000,0.003929373,-0.0007126356,-0.0024771583,0.0,0.0,-0.7074547,0
22336000,0.0023600785,-0.0011229321,-0.002273668,0.0,0.0,-0.70799583,0
22352000,0.0026467186,-0.0009130223,-0.002148077,0.0,0.0,-0.70753056,0
22376000,0.00089388754,0.0011351189,-0.0018990817,0.0,0.0,-0.7080963,0
22392000,0.0015632855,0.0006767053,-0.0017687964,0.0,0.0,-0.7076939,0
22416000,0.0024302453,0.0010710945,-0.0015219932,0.0,0.0,-0.70811725,0
22432000,0.0025655879,8.972995e-05,-0.0013083194,0.0,0.0,-0.70762944,0
22452000,0.003063596,0.0019286594,-0.00085443957,0.0,0.0,-0.708063,0
22472000,0.0008279052,0.001749571,-0.00058630086,0.0,0.0,-0.70753497,0
22492000,0.00094252,0.0020309736,-0.00035239602,0.0,0.0,-0.7081672,0
22512000,0.0010514373,0.00036512007,-0.00021056537,0.0,0.0,-0.7076798,0
22532000,0.0018337225,0.0026325202,-5.3821864e-06,0.0,0.0,-0.70837235,0
22556000,0.0013997531,3.1821906e-05,0.00016943131,0.0,0.0,-0.7078491,0
22576000,0.00082671986,0.00041927418,0.00029762677,0.0,0.0,-0.70866627,0
22592000,0.0028972314,-6.776901e-05,0.00034346088,0.0,0.0,-0.7081355,0
22616000,0.0016987693,0.001212946,0.0004974177,0.0,0.0,-0.7086885,0
22632000,0.0020567891,0.0035400675,0.0005698373,0.0,0.0,-0.70812625,0
22656000,0.002725583,0.006490865,0.0005339371,0.0,0.0,-0.7087642,0
22676000,0.0023479613,0.008871343,0.0007150851,0.0,0.0,-0.70794183,0
22692000,1.1557444e-05,0.00952386,0.0008169305,0.0,0.0,-0.7086788,0
22712000,-0.0002716735,0.009798329,0.0009144196,0.0,0.0,-0.708028,0
22736000,-0.00012576187,0.011177481,0.0010518508,0.0,0.0,-0.7085205,0
22752000,-0.00024035524,0.0120396465,0.0008695463,0.0,0.0,-0.70793855,0
22776000,-0.0014266623,0.010720556,0.0006658537,0.0,0.0,-0.7086563,0
22792000,-0.0009859995,0.0098736575,0.0005087232,0.0,0.0,-0.7080228,0
