timestamp,timestamp_sample,device_id,x,y,z,temperature,error_count,clip_counter[0],clip_counter[1],clip_counter[2],samples
3200000,3200000,1310988,-0.20829555,0.19632454,-9.935937,11.832727,0,0,0,0,1
3204000,3204000,1310988,-0.20111294,0.18914193,-9.945514,11.832727,0,0,0,0,1
3208000,3208000,1310988,-0.20829555,0.16759412,-9.935937,11.832727,0,0,0,0,1
3212000,3212000,1310988,-0.19393034,0.17956513,-9.919178,11.832727,0,0,0,0,1
3216000,3216000,1310988,-0.18674773,0.16998832,-9.950302,11.832727,0,0,0,0,1
3220000,3220000,1310988,-0.18674773,0.15083471,-9.981427,11.832727,0,0,0,0,1
3224000,3224000,1310988,-0.17717093,0.16519992,-9.947908,11.832727,0,0,0,0,1
3228000,3228000,1310988,-0.19393034,0.18435353,-9.950302,11.832727,0,0,0,0,1
3232000,3232000,1310988,-0.20590134,0.20111294,-9.940725,11.832727,0,0,0,0,1
3236000,3236000,1310988,-0.17238252,0.19632454,-9.907207,11.832727,0,0,0,0,1
3240000,3240000,1310988,-0.17238252,0.17477672,-9.945514,11.832727,0,0,0,0,1
3244000,3244000,1310988,-0.22266077,0.19393034,-9.933543,11.832727,0,0,0,0,1
3248000,3248000,1310988,-0.24660277,0.22266077,-9.931149,11.832727,0,0,0,0,1
3252000,3252000,1310988,-0.22744916,0.20111294,-9.950302,11.832727,0,0,0,0,1
3256000,3256000,1310988,-0.18914193,0.18914193,-9.919178,11.832727,0,0,0,0,1
3260000,3260000,1310988,-0.20590134,0.15801731,-9.888053,11.832727,0,0,0,0,1
3264000,3264000,1310988,-0.22026655,0.15322891,-9.888053,11.832727,0,0,0,0,1
3268000,3268000,1310988,-0.18674773,0.21787235,-9.907207,11.832727,0,0,0,0,1
3272000,3272000,1310988,-0.19871874,0.22984336,-9.928755,11.832727,0,0,0,0,1
3276000,3276000,1310988,-0.20590134,0.18674773,-9.945514,11.832727,0,0,0,0,1
3280000,3280000,1310988,-0.19871874,0.16280572,-9.947908,11.832727,0,0,0,0,1
3284000,3284000,1310988,-0.22026655,0.17717093,-9.962274,11.832727,0,0,0,0,1
3288000,3288000,1310988,-0.22266077,0.16759412,-9.945514,11.832727,0,0,0,0,1
3292000,3292000,1310988,-0.21068975,0.16519992,-9.909601,11.832727,0,0,0,0,1
3296000,3296000,1310988,-0.22266077,0.19871874,-9.919178,11.832727,0,0,0,0,1
3300000,3300000,1310988,-0.21308395,0.20590134,-9.933543,11.832727,0,0,0,0,1
3304000,3304000,1310988,-0.21787235,0.21787235,-9.94312,11.832727,0,0,0,0,1
3308000,3308000,1310988,-0.21308395,0.22505496,-9.957485,11.832727,0,0,0,0,1
3312000,3312000,1310988,-0.22984336,0.20350714,-9.957485,11.832727,0,0,0,0,1
3316000,3316000,1310988,-0.21787235,0.17717093,-9.931149,11.832727,0,0,0,0,1
3320000,3320000,1310988,-0.19871874,0.16759412,-9.919178,11.832727,0,0,0,0,1
3324000,3324000,1310988,-0.23463176,0.20829555,-9.921572,11.832727,0,0,0,0,1
3328000,3328000,1310988,-0.22026655,0.21787235,-9.935937,11.832727,0,0,0,0,1
3332000,3332000,1310988,-0.20590134,0.17717093,-9.981427,11.832727,0,0,0,0,1
3336000,3336000,1310988,-0.19632454,0.21068975,-9.959879,11.832727,0,0,0,0,1
3340000,3340000,1310988,-0.18435353,0.2657564,-9.911995,11.832727,0,0,0,0,1
3344000,3344000,1310988,-0.20829555,0.22744916,-9.933543,11.832727,0,0,0,0,1
3348000,3348000,1310988,-0.22026655,0.15801731,-9.94312,11.832727,0,0,0,0,1
3352000,3352000,1310988,-0.20590134,0.18674773,-9.919178,11.832727,0,0,0,0,1
3356000,3356000,1310988,-0.22744916,0.20111294,-9.89763,11.832727,0,0,0,0,1
3360000,3360000,1310988,-0.21547815,0.19153613,-9.902418,11.832727,0,0,0,0,1
3364000,3364000,1310988,-0.18914193,0.24660277,-9.900024,11.832727,0,0,0,0,1
3368000,3368000,1310988,-0.17956513,0.24660277,-9.907207,11.832727,0,0,0,0,1
3372000,3372000,1310988,-0.18435353,0.19871874,-9.921572,11.832727,0,0,0,0,1
3376000,3376000,1310988,-0.20350714,0.19153613,-9.907207,11.832727,0,0,0,0,1
3380000,3380000,1310988,-0.20590134,0.15801731,-9.909601,11.832727,0,0,0,0,1
3384000,3384000,1310988,-0.21787235,0.15801731,-9.923966,11.832727,0,0,0,0,1
3388000,3388000,1310988,-0.22744916,0.19871874,-9.911995,11.832727,0,0,0,0,1
3392000,3392000,1310988,-0.22026655,0.17956513,-9.900024,11.832727,0,0,0,0,1
3396000,3396000,1310988,-0.22266077,0.19632454,-9.92636,11.832727,0,0,0,0,1
3400000,3400000,1310988,-0.21787235,0.20590134,-9.923966,11.832727,0,0,0,0,1
3404000,3404000,1310988,-0.22744916,0.17956513,-9.91439,11.832727,0,0,0,0,1
3408000,3408000,1310988,-0.25378537,0.17477672,-9.921572,11.832727,0,0,0,0,1
3412000,3412000,1310988,-0.21547815,0.16519992,-9.935937,11.832727,0,0,0,0,1
3416000,3416000,1310988,-0.20111294,0.17717093,-9.928755,11.832727,0,0,0,0,1
3420000,3420000,1310988,-0.23223756,0.20590134,-9.909601,11.832727,0,0,0,0,1
3424000,3424000,1310988,-0.23223756,0.17956513,-9.940725,11.832727,0,0,0,0,1
3428000,3428000,1310988,-0.21787235,0.16759412,-9.935937,11.832727,0,0,0,0,1
3432000,3432000,1310988,-0.20829555,0.17956513,-9.923966,11.832727,0,0,0,0,1
3436000,3436000,1310988,-0.18914193,0.17956513,-9.947908,11.832727,0,0,0,0,1
3440000,3440000,1310988,-0.19393034,0.18435353,-9.923966,11.832727,0,0,0,0,1
3444000,3444000,1310988,-0.21068975,0.19393034,-9.902418,11.832727,0,0,0,0,1
3448000,3448000,1310988,-0.20111294,0.19153613,-9.945514,11.832727,0,0,0,0,1
3452000,3452000,1310988,-0.22505496,0.19632454,-9.947908,11.832727,0,0,0,0,1
3456000,3456000,1310988,-0.24420857,0.20350714,-9.92636,11.832727,0,0,0,0,1
3460000,3460000,1310988,-0.19632454,0.21308395,-9.94312,11.832727,0,0,0,0,1
3464000,3464000,1310988,-0.17717093,0.22505496,-9.952697,11.832727,0,0,0,0,1
3468000,3468000,1310988,-0.19632454,0.21068975,-9.959879,11.832727,0,0,0,0,1
3472000,3472000,1310988,-0.19393034,0.19871874,-9.916783,11.832727,0,0,0,0,1
3476000,3476000,1310988,-0.19393034,0.20829555,-9.900024,11.832727,0,0,0,0,1
3480000,3480000,1310988,-0.22505496,0.19871874,-9.92636,11.832727,0,0,0,0,1
3484000,3484000,1310988,-0.22266077,0.16759412,-9.921572,11.832727,0,0,0,0,1
3488000,3488000,1310988,-0.20111294,0.20590134,-9.923966,11.832727,0,0,0,0,1
3492000,3492000,1310988,-0.21547815,0.22266077,-9.933543,11.832727,0,0,0,0,1
3496000,3496000,1310988,-0.22505496,0.18914193,-9.952697,11.832727,0,0,0,0,1
3500000,3500000,1310988,-0.23223756,0.17956513,-9.976639,11.832727,0,0,0,0,1
3504000,3504000,1310988,-0.24181437,0.22266077,-9.959879,11.832727,0,0,0,0,1
3508000,3508000,1310988,-0.22744916,0.21068975,-9.940725,11.832727,0,0,0,0,1
3512000,3512000,1310988,-0.22505496,0.15322891,-9.962274,11.832727,0,0,0,0,1
3516000,3516000,1310988,-0.22744916,0.18914193,-9.94312,11.832727,0,0,0,0,1
3520000,3520000,1310988,-0.19871874,0.22026655,-9.919178,11.832727,0,0,0,0,1
3524000,3524000,1310988,-0.19871874,0.21068975,-9.940725,11.832727,0,0,0,0,1
3528000,3528000,1310988,-0.19153613,0.16998832,-9.935937,11.832727,0,0,0,0,1
3532000,3532000,1310988,-0.20111294,0.16759412,-9.91439,11.832727,0,0,0,0,1
3536000,3536000,1310988,-0.22505496,0.18914193,-9.921572,11.832727,0,0,0,0,1
3540000,3540000,1310988,-0.20350714,0.21068975,-9.9550905,11.832727,0,0,0,0,1
3544000,3544000,1310988,-0.20350714,0.22266077,-9.976639,11.832727,0,0,0,0,1
3548000,3548000,1310988,-0.21068975,0.20111294,-9.9550905,11.832727,0,0,0,0,1
3552000,3552000,1310988,-0.20111294,0.19393034,-9.919178,11.832727,0,0,0,0,1
3556000,3556000,1310988,-0.21308395,0.1604115,-9.928755,11.832727,0,0,0,0,1
3560000,3560000,1310988,-0.20111294,0.17477672,-9.938332,11.832727,0,0,0,0,1
3564000,3564000,1310988,-0.18195933,0.18435353,-9.91439,11.832727,0,0,0,0,1
3568000,3568000,1310988,-0.20829555,0.17717093,-9.909601,11.832727,0,0,0,0,1
3572000,3572000,1310988,-0.20829555,0.19871874,-9.911995,11.832727,0,0,0,0,1
3576000,3576000,1310988,-0.24181437,0.18195933,-9.959879,11.832727,0,0,0,0,1
3580000,3580000,1310988,-0.272939,0.1604115,-9.931149,11.832727,0,0,0,0,1
3584000,3584000,1310988,-0.22026655,0.18674773,-9.895236,11.832727,0,0,0,0,1
3588000,3588000,1310988,-0.22984336,0.21547815,-9.950302,11.832727,0,0,0,0,1
3592000,3592000,1310988,-0.24181437,0.22026655,-9.945514,11.832727,0,0,0,0,1
3596000,3596000,1310988,-0.20829555,0.22026655,-9.923966,11.832727,0,0,0,0,1
3600000,3600000,1310988,-0.21787235,0.21787235,-9.909601,11.832727,0,0,0,0,1
3604000,3604000,1310988,-0.22026655,0.20590134,-9.911995,11.832727,0,0,0,0,1
3608000,3608000,1310988,-0.22026655,0.19632454,-9.916783,11.832727,0,0,0,0,1
3612000,3612000,1310988,-0.21787235,0.20590134,-9.92636,11.832727,0,0,0,0,1
3616000,3616000,1310988,-0.21547815,0.21787235,-9.9550905,11.832727,0,0,0,0,1
3620000,3620000,1310988,-0.23702596,0.22266077,-9.928755,11.832727,0,0,0,0,1
3624000,3624000,1310988,-0.20350714,0.21547815,-9.89763,11.832727,0,0,0,0,1
3628000,3628000,1310988,-0.19153613,0.22026655,-9.931149,11.832727,0,0,0,0,1
3632000,3632000,1310988,-0.22744916,0.20111294,-9.916783,11.832727,0,0,0,0,1
3636000,3636000,1310988,-0.21547815,0.17477672,-9.885659,11.832727,0,0,0,0,1
3640000,3640000,1310988,-0.20350714,0.19632454,-9.890448,11.832727,0,0,0,0,1
3644000,3644000,1310988,-0.19153613,0.21787235,-9.907207,11.832727,0,0,0,0,1
3648000,3648000,1310988,-0.17956513,0.19632454,-9.92636,11.832727,0,0,0,0,1
3652000,3652000,1310988,-0.21308395,0.17956513,-9.940725,11.832727,0,0,0,0,1
3656000,3656000,1310988,-0.22026655,0.19632454,-9.947908,11.832727,0,0,0,0,1
3660000,3660000,1310988,-0.20590134,0.17956513,-9.931149,11.832727,0,0,0,0,1
3664000,3664000,1310988,-0.22026655,0.15322891,-9.92636,11.832727,0,0,0,0,1
3668000,3668000,1310988,-0.20111294,0.17238252,-9.928755,11.832727,0,0,0,0,1
3672000,3672000,1310988,-0.19871874,0.20590134,-9.931149,11.832727,0,0,0,0,1
3676000,3676000,1310988,-0.24420857,0.17717093,-9.92636,11.832727,0,0,0,0,1
3680000,3680000,1310988,-0.23702596,0.16519992,-9.921572,11.832727,0,0,0,0,1
3684000,3684000,1310988,-0.22266077,0.19632454,-9.921572,11.832727,0,0,0,0,1
3688000,3688000,1310988,-0.20590134,0.19871874,-9.91439,11.832727,0,0,0,0,1
3692000,3692000,1310988,-0.17956513,0.18914193,-9.921572,11.832727,0,0,0,0,1
3696000,3696000,1310988,-0.20350714,0.18914193,-9.907207,11.832727,0,0,0,0,1
3700000,3700000,1310988,-0.22026655,0.18914193,-9.935937,11.832727,0,0,0,0,1
3704000,3704000,1310988,-0.25139117,0.18195933,-9.952697,11.832727,0,0,0,0,1
3708000,3708000,1310988,-0.24660277,0.20829555,-9.938332,11.832727,0,0,0,0,1
3712000,3712000,1310988,-0.20111294,0.22026655,-9.94312,11.832727,0,0,0,0,1
3716000,3716000,1310988,-0.20350714,0.19153613,-9.900024,11.832727,0,0,0,0,1
3720000,3720000,1310988,-0.21068975,0.18914193,-9.878476,11.832727,0,0,0,0,1
3724000,3724000,1310988,-0.19632454,0.23463176,-9.89763,11.832727,0,0,0,0,1
3728000,3728000,1310988,-0.22505496,0.24420857,-9.935937,11.832727,0,0,0,0,1
3732000,3732000,1310988,-0.21068975,0.18914193,-9.923966,11.832727,0,0,0,0,1
3736000,3736000,1310988,-0.17717093,0.1604115,-9.91439,11.832727,0,0,0,0,1
3740000,3740000,1310988,-0.21787235,0.18674773,-9.923966,11.832727,0,0,0,0,1
3744000,3744000,1310988,-0.22744916,0.22505496,-9.907207,11.832727,0,0,0,0,1
3748000,3748000,1310988,-0.22984336,0.22744916,-9.902418,11.832727,0,0,0,0,1
3752000,3752000,1310988,-0.21068975,0.18914193,-9.909601,11.832727,0,0,0,0,1
3756000,3756000,1310988,-0.18914193,0.18914193,-9.921572,11.832727,0,0,0,0,1
3760000,3760000,1310988,-0.22505496,0.21787235,-9.919178,11.832727,0,0,0,0,1
3764000,3764000,1310988,-0.22984336,0.21068975,-9.964667,11.832727,0,0,0,0,1
3768000,3768000,1310988,-0.19871874,0.17717093,-9.974244,11.832727,0,0,0,0,1
3772000,3772000,1310988,-0.19393034,0.16759412,-9.933543,11.832727,0,0,0,0,1
3776000,3776000,1310988,-0.20829555,0.17956513,-9.902418,11.832727,0,0,0,0,1
3780000,3780000,1310988,-0.21547815,0.20350714,-9.888053,11.832727,0,0,0,0,1
3784000,3784000,1310988,-0.20111294,0.21787235,-9.916783,11.832727,0,0,0,0,1
3788000,3788000,1310988,-0.19393034,0.20111294,-9.923966,11.832727,0,0,0,0,1
3792000,3792000,1310988,-0.21308395,0.19871874,-9.909601,11.832727,0,0,0,0,1
3796000,3796000,1310988,-0.21308395,0.18435353,-9.885659,11.832727,0,0,0,0,1
3800000,3800000,1310988,-0.21547815,0.17477672,-9.91439,11.832727,0,0,0,0,1
3804000,3804000,1310988,-0.24899697,0.18195933,-9.940725,11.832727,0,0,0,0,1
3808000,3808000,1310988,-0.21787235,0.19153613,-9.919178,11.832727,0,0,0,0,1
3812000,3812000,1310988,-0.18435353,0.17717093,-9.902418,11.832727,0,0,0,0,1
3816000,3816000,1310988,-0.22026655,0.16280572,-9.91439,11.832727,0,0,0,0,1
3820000,3820000,1310988,-0.22744916,0.17477672,-9.931149,11.832727,0,0,0,0,1
3824000,3824000,1310988,-0.24181437,0.18914193,-9.92636,11.832727,0,0,0,0,1
3828000,3828000,1310988,-0.24660277,0.18914193,-9.928755,11.832727,0,0,0,0,1
3832000,3832000,1310988,-0.19632454,0.17477672,-9.895236,11.832727,0,0,0,0,1
3836000,3836000,1310988,-0.17477672,0.18195933,-9.892841,11.832727,0,0,0,0,1
3840000,3840000,1310988,-0.19393034,0.19871874,-9.92636,11.832727,0,0,0,0,1
3844000,3844000,1310988,-0.19153613,0.20590134,-9.923966,11.832727,0,0,0,0,1
3848000,3848000,1310988,-0.16759412,0.20350714,-9.933543,11.832727,0,0,0,0,1
3852000,3852000,1310988,-0.17238252,0.21308395,-9.928755,11.832727,0,0,0,0,1
3856000,3856000,1310988,-0.22026655,0.20590134,-9.911995,11.832727,0,0,0,0,1
3860000,3860000,1310988,-0.22266077,0.19632454,-9.928755,11.832727,0,0,0,0,1
3864000,3864000,1310988,-0.20590134,0.18435353,-9.950302,11.832727,0,0,0,0,1
3868000,3868000,1310988,-0.25378537,0.16759412,-9.97185,11.832727,0,0,0,0,1
3872000,3872000,1310988,-0.25378537,0.18674773,-9.9550905,11.832727,0,0,0,0,1
3876000,3876000,1310988,-0.20829555,0.19153613,-9.945514,11.832727,0,0,0,0,1
3880000,3880000,1310988,-0.15801731,0.19871874,-9.957485,11.832727,0,0,0,0,1
3884000,3884000,1310988,-0.16759412,0.21068975,-9.933543,11.832727,0,0,0,0,1
3888000,3888000,1310988,-0.21308395,0.19153613,-9.938332,11.832727,0,0,0,0,1
3892000,3892000,1310988,-0.21547815,0.17717093,-9.945514,11.832727,0,0,0,0,1
3896000,3896000,1310988,-0.20829555,0.17477672,-9.952697,11.832727,0,0,0,0,1
3900000,3900000,1310988,-0.19153613,0.17717093,-9.950302,11.832727,0,0,0,0,1
3904000,3904000,1310988,-0.20590134,0.17477672,-9.947908,11.832727,0,0,0,0,1
3908000,3908000,1310988,-0.21068975,0.18195933,-9.938332,11.832727,0,0,0,0,1
3912000,3912000,1310988,-0.20590134,0.20590134,-9.919178,11.832727,0,0,0,0,1
3916000,3916000,1310988,-0.21308395,0.21308395,-9.919178,11.832727,0,0,0,0,1
3920000,3920000,1310988,-0.22505496,0.22984336,-9.89763,11.832727,0,0,0,0,1
3924000,3924000,1310988,-0.21787235,0.24660277,-9.916783,11.832727,0,0,0,0,1
3928000,3928000,1310988,-0.23463176,0.21308395,-9.950302,11.832727,0,0,0,0,1
3932000,3932000,1310988,-0.24899697,0.18435353,-9.950302,11.832727,0,0,0,0,1
3936000,3936000,1310988,-0.20111294,0.18435353,-9.92636,11.832727,0,0,0,0,1
3940000,3940000,1310988,-0.20590134,0.17238252,-9.928755,11.832727,0,0,0,0,1
3944000,3944000,1310988,-0.22266077,0.16519992,-9.921572,11.832727,0,0,0,0,1
3948000,3948000,1310988,-0.23223756,0.20590134,-9.89763,11.832727,0,0,0,0,1
3952000,3952000,1310988,-0.22266077,0.21547815,-9.938332,11.832727,0,0,0,0,1
3956000,3956000,1310988,-0.22026655,0.21068975,-9.94312,11.832727,0,0,0,0,1
3960000,3960000,1310988,-0.23463176,0.20590134,-9.911995,11.832727,0,0,0,0,1
3964000,3964000,1310988,-0.21787235,0.17717093,-9.895236,11.832727,0,0,0,0,1
3968000,3968000,1310988,-0.22026655,0.19632454,-9.911995,11.832727,0,0,0,0,1
3972000,3972000,1310988,-0.20590134,0.19632454,-9.950302,11.832727,0,0,0,0,1
3976000,3976000,1310988,-0.22266077,0.20590134,-9.964667,11.832727,0,0,0,0,1
3980000,3980000,1310988,-0.22984336,0.19632454,-9.94312,11.832727,0,0,0,0,1
3984000,3984000,1310988,-0.21068975,0.17477672,-9.92636,11.832727,0,0,0,0,1
3988000,3988000,1310988,-0.22026655,0.21068975,-9.92636,11.832727,0,0,0,0,1
3992000,3992000,1310988,-0.22266077,0.21308395,-9.935937,11.832727,0,0,0,0,1
3996000,3996000,1310988,-0.20590134,0.19632454,-9.938332,11.832727,0,0,0,0,1
4000000,4000000,1310988,-0.18914193,0.21547815,-9.92636,11.832727,0,0,0,0,1
4004000,4004000,1310988,-0.22505496,0.22505496,-9.938332,11.832727,0,0,0,0,1
4008000,4008000,1310988,-0.24660277,0.19632454,-9.938332,11.832727,0,0,0,0,1
4012000,4012000,1310988,-0.21547815,0.16759412,-9.904813,11.832727,0,0,0,0,1
4016000,4016000,1310988,-0.21068975,0.16280572,-9.876082,11.832727,0,0,0,0,1
4020000,4020000,1310988,-0.23463176,0.19153613,-9.907207,11.832727,0,0,0,0,1
4024000,4024000,1310988,-0.23223756,0.20829555,-9.92636,11.832727,0,0,0,0,1
4028000,4028000,1310988,-0.22505496,0.18435353,-9.923966,11.832727,0,0,0,0,1
4032000,4032000,1310988,-0.22984336,0.1604115,-9.921572,11.832727,0,0,0,0,1
4036000,4036000,1310988,-0.21308395,0.19393034,-9.902418,11.832727,0,0,0,0,1
4040000,4040000,1310988,-0.20111294,0.23702596,-9.900024,11.832727,0,0,0,0,1
4044000,4044000,1310988,-0.22505496,0.21547815,-9.931149,11.832727,0,0,0,0,1
4048000,4048000,1310988,-0.23942018,0.18435353,-9.945514,11.832727,0,0,0,0,1
4052000,4052000,1310988,-0.21308395,0.17238252,-9.933543,11.832727,0,0,0,0,1
4056000,4056000,1310988,-0.22026655,0.17477672,-9.945514,11.832727,0,0,0,0,1
4060000,4060000,1310988,-0.23223756,0.18674773,-9.962274,11.832727,0,0,0,0,1
4064000,4064000,1310988,-0.22744916,0.19632454,-9.923966,11.832727,0,0,0,0,1
4068000,4068000,1310988,-0.23463176,0.19393034,-9.900024,11.832727,0,0,0,0,1
4072000,4072000,1310988,-0.22984336,0.18914193,-9.933543,11.832727,0,0,0,0,1
4076000,4076000,1310988,-0.22744916,0.22266077,-9.923966,11.832727,0,0,0,0,1
4080000,4080000,1310988,-0.21068975,0.21068975,-9.923966,11.832727,0,0,0,0,1
4084000,4084000,1310988,-0.19871874,0.17717093,-9.959879,11.832727,0,0,0,0,1
4088000,4088000,1310988,-0.20111294,0.17956513,-9.94312,11.832727,0,0,0,0,1
4092000,4092000,1310988,-0.22984336,0.17477672,-9.895236,11.832727,0,0,0,0,1
4096000,4096000,1310988,-0.22744916,0.17477672,-9.938332,11.832727,0,0,0,0,1
4100000,4100000,1310988,-0.18674773,0.17956513,-9.964667,11.832727,0,0,0,0,1
4104000,4104000,1310988,-0.19393034,0.18195933,-9.940725,11.832727,0,0,0,0,1
4108000,4108000,1310988,-0.23223756,0.17238252,-9.938332,11.832727,0,0,0,0,1
4112000,4112000,1310988,-0.22984336,0.20590134,-9.928755,11.832727,0,0,0,0,1
4116000,4116000,1310988,-0.19871874,0.25139117,-9.967062,11.832727,0,0,0,0,1
4120000,4120000,1310988,-0.19871874,0.23702596,-9.959879,11.832727,0,0,0,0,1
4124000,4124000,1310988,-0.19871874,0.22266077,-9.933543,11.832727,0,0,0,0,1
4128000,4128000,1310988,-0.21308395,0.21787235,-9.938332,11.832727,0,0,0,0,1
4132000,4132000,1310988,-0.23702596,0.21308395,-9.931149,11.832727,0,0,0,0,1
4136000,4136000,1310988,-0.20350714,0.20829555,-9.911995,11.832727,0,0,0,0,1
4140000,4140000,1310988,-0.19871874,0.20350714,-9.907207,11.832727,0,0,0,0,1
4144000,4144000,1310988,-0.20829555,0.18914193,-9.921572,11.832727,0,0,0,0,1
4148000,4148000,1310988,-0.19153613,0.18435353,-9.921572,11.832727,0,0,0,0,1
4152000,4152000,1310988,-0.19632454,0.18435353,-9.92636,11.832727,0,0,0,0,1
4156000,4156000,1310988,-0.19153613,0.18435353,-9.928755,11.832727,0,0,0,0,1
4160000,4160000,1310988,-0.21308395,0.20829555,-9.92636,11.832727,0,0,0,0,1
4164000,4164000,1310988,-0.25139117,0.21308395,-9.957485,11.832727,0,0,0,0,1
4168000,4168000,1310988,-0.25139117,0.21068975,-9.950302,11.832727,0,0,0,0,1
4172000,4172000,1310988,-0.22266077,0.20590134,-9.895236,11.832727,0,0,0,0,1
4176000,4176000,1310988,-0.22266077,0.18914193,-9.890448,11.832727,0,0,0,0,1
4180000,4180000,1310988,-0.24181437,0.19871874,-9.907207,11.832727,0,0,0,0,1
4184000,4184000,1310988,-0.23463176,0.21787235,-9.92636,11.832727,0,0,0,0,1
4188000,4188000,1310988,-0.18914193,0.22505496,-9.950302,11.832727,0,0,0,0,1
4192000,4192000,1310988,-0.16998832,0.20829555,-9.938332,11.832727,0,0,0,0,1
4196000,4196000,1310988,-0.21068975,0.18674773,-9.907207,11.832727,0,0,0,0,1
4200000,4200000,1310988,-0.20829555,0.17956513,-9.888053,11.832727,0,0,0,0,1
4204000,4204000,1310988,-0.19632454,0.17956513,-9.91439,11.832727,0,0,0,0,1
4208000,4208000,1310988,-0.20829555,0.18195933,-9.935937,11.832727,0,0,0,0,1
4212000,4212000,1310988,-0.19871874,0.18674773,-9.947908,11.832727,0,0,0,0,1
4216000,4216000,1310988,-0.17956513,0.20111294,-9.933543,11.832727,0,0,0,0,1
4220000,4220000,1310988,-0.19632454,0.21068975,-9.89763,11.832727,0,0,0,0,1
4224000,4224000,1310988,-0.21308395,0.19632454,-9.923966,11.832727,0,0,0,0,1
4228000,4228000,1310988,-0.18914193,0.18435353,-9.962274,11.832727,0,0,0,0,1
4232000,4232000,1310988,-0.19871874,0.19393034,-9.940725,11.832727,0,0,0,0,1
4236000,4236000,1310988,-0.20590134,0.17238252,-9.923966,11.832727,0,0,0,0,1
4240000,4240000,1310988,-0.22266077,0.15562311,-9.919178,11.832727,0,0,0,0,1
4244000,4244000,1310988,-0.22266077,0.16998832,-9.928755,11.832727,0,0,0,0,1
4248000,4248000,1310988,-0.21308395,0.18914193,-9.935937,11.832727,0,0,0,0,1
4252000,4252000,1310988,-0.20350714,0.19632454,-9.933543,11.832727,0,0,0,0,1
4256000,4256000,1310988,-0.20111294,0.18914193,-9.933543,11.832727,0,0,0,0,1
4260000,4260000,1310988,-0.20350714,0.21308395,-9.935937,11.832727,0,0,0,0,1
4264000,4264000,1310988,-0.18435353,0.23702596,-9.907207,11.832727,0,0,0,0,1
4268000,4268000,1310988,-0.23463176,0.22505496,-9.904813,11.832727,0,0,0,0,1
4272000,4272000,1310988,-0.25617957,0.19871874,-9.945514,11.832727,0,0,0,0,1
4276000,4276000,1310988,-0.20350714,0.19393034,-9.940725,11.832727,0,0,0,0,1
4280000,4280000,1310988,-0.19393034,0.20829555,-9.931149,11.832727,0,0,0,0,1
4284000,4284000,1310988,-0.21308395,0.20111294,-9.94312,11.832727,0,0,0,0,1
4288000,4288000,1310988,-0.21787235,0.17477672,-9.940725,11.832727,0,0,0,0,1
4292000,4292000,1310988,-0.20111294,0.17717093,-9.916783,11.832727,0,0,0,0,1
4296000,4296000,1310988,-0.21068975,0.18195933,-9.931149,11.832727,0,0,0,0,1
4300000,4300000,1310988,-0.23942018,0.18435353,-9.935937,11.832727,0,0,0,0,1
4304000,4304000,1310988,-0.20829555,0.20350714,-9.92636,11.832727,0,0,0,0,1
4308000,4308000,1310988,-0.20829555,0.19632454,-9.933543,11.832727,0,0,0,0,1
4312000,4312000,1310988,-0.22984336,0.21787235,-9.962274,11.832727,0,0,0,0,1
4316000,4316000,1310988,-0.23942018,0.21068975,-9.957485,11.832727,0,0,0,0,1
4320000,4320000,1310988,-0.24899697,0.17956513,-9.959879,11.832727,0,0,0,0,1
4324000,4324000,1310988,-0.25617957,0.16519992,-9.947908,11.832727,0,0,0,0,1
4328000,4328000,1310988,-0.23942018,0.18674773,-9.92636,11.832727,0,0,0,0,1
4332000,4332000,1310988,-0.19871874,0.21308395,-9.91439,11.832727,0,0,0,0,1
4336000,4336000,1310988,-0.19871874,0.18195933,-9.911995,11.832727,0,0,0,0,1
4340000,4340000,1310988,-0.21787235,0.17717093,-9.928755,11.832727,0,0,0,0,1
4344000,4344000,1310988,-0.22026655,0.17717093,-9.928755,11.832727,0,0,0,0,1
4348000,4348000,1310988,-0.21787235,0.17717093,-9.923966,11.832727,0,0,0,0,1
4352000,4352000,1310988,-0.21547815,0.18195933,-9.933543,11.832727,0,0,0,0,1
4356000,4356000,1310988,-0.22505496,0.18674773,-9.923966,11.832727,0,0,0,0,1
4360000,4360000,1310988,-0.21787235,0.18914193,-9.909601,11.832727,0,0,0,0,1
4364000,4364000,1310988,-0.17717093,0.18914193,-9.952697,11.832727,0,0,0,0,1
4368000,4368000,1310988,-0.17477672,0.21787235,-9.952697,11.832727,0,0,0,0,1
4372000,4372000,1310988,-0.21308395,0.20111294,-9.92636,11.832727,0,0,0,0,1
4376000,4376000,1310988,-0.22026655,0.16519992,-9.940725,11.832727,0,0,0,0,1
4380000,4380000,1310988,-0.21547815,0.16519992,-9.928755,11.832727,0,0,0,0,1
4384000,4384000,1310988,-0.20829555,0.18435353,-9.921572,11.832727,0,0,0,0,1
4388000,4388000,1310988,-0.16998832,0.22026655,-9.923966,11.832727,0,0,0,0,1
4392000,4392000,1310988,-0.15801731,0.21068975,-9.935937,11.832727,0,0,0,0,1
4396000,4396000,1310988,-0.18674773,0.18674773,-9.947908,11.832727,0,0,0,0,1
4400000,4400000,1310988,-0.21547815,0.17477672,-9.945514,11.832727,0,0,0,0,1
4404000,4404000,1310988,-0.22266077,0.17717093,-9.92636,11.832727,0,0,0,0,1
4408000,4408000,1310988,-0.20111294,0.20111294,-9.921572,11.832727,0,0,0,0,1
4412000,4412000,1310988,-0.19632454,0.21547815,-9.962274,11.832727,0,0,0,0,1
4416000,4416000,1310988,-0.22266077,0.19393034,-9.938332,11.832727,0,0,0,0,1
4420000,4420000,1310988,-0.22984336,0.16998832,-9.890448,11.832727,0,0,0,0,1
4424000,4424000,1310988,-0.21787235,0.17717093,-9.880871,11.832727,0,0,0,0,1
4428000,4428000,1310988,-0.20590134,0.17717093,-9.907207,11.832727,0,0,0,0,1
4432000,4432000,1310988,-0.20111294,0.18435353,-9.959879,11.832727,0,0,0,0,1
4436000,4436000,1310988,-0.20350714,0.19632454,-9.950302,11.832727,0,0,0,0,1
4440000,4440000,1310988,-0.21068975,0.17238252,-9.931149,11.832727,0,0,0,0,1
4444000,4444000,1310988,-0.21787235,0.1436521,-9.962274,11.832727,0,0,0,0,1
4448000,4448000,1310988,-0.19871874,0.18674773,-9.952697,11.832727,0,0,0,0,1
4452000,4452000,1310988,-0.21068975,0.21787235,-9.909601,11.832727,0,0,0,0,1
4456000,4456000,1310988,-0.22505496,0.20350714,-9.900024,11.832727,0,0,0,0,1
4460000,4460000,1310988,-0.22505496,0.21068975,-9.921572,11.832727,0,0,0,0,1
4464000,4464000,1310988,-0.23463176,0.18914193,-9.952697,11.832727,0,0,0,0,1
4468000,4468000,1310988,-0.22744916,0.15801731,-9.962274,11.832727,0,0,0,0,1
4472000,4472000,1310988,-0.23463176,0.18435353,-9.950302,11.832727,0,0,0,0,1
4476000,4476000,1310988,-0.23463176,0.19871874,-9.921572,11.832727,0,0,0,0,1
4480000,4480000,1310988,-0.23463176,0.20350714,-9.904813,11.832727,0,0,0,0,1
4484000,4484000,1310988,-0.24181437,0.18914193,-9.933543,11.832727,0,0,0,0,1
4488000,4488000,1310988,-0.21787235,0.18914193,-9.92636,11.832727,0,0,0,0,1
4492000,4492000,1310988,-0.20829555,0.22744916,-9.938332,11.832727,0,0,0,0,1
4496000,4496000,1310988,-0.23702596,0.21068975,-9.959879,11.832727,0,0,0,0,1
4500000,4500000,1310988,-0.22505496,0.17717093,-9.911995,11.832727,0,0,0,0,1
4504000,4504000,1310988,-0.20350714,0.17477672,-9.904813,11.832727,0,0,0,0,1
4508000,4508000,1310988,-0.21547815,0.16998832,-9.921572,11.832727,0,0,0,0,1
4512000,4512000,1310988,-0.20590134,0.15322891,-9.933543,11.832727,0,0,0,0,1
4516000,4516000,1310988,-0.21308395,0.16280572,-9.940725,11.832727,0,0,0,0,1
4520000,4520000,1310988,-0.21787235,0.15322891,-9.928755,11.832727,0,0,0,0,1
4524000,4524000,1310988,-0.22505496,0.17238252,-9.940725,11.832727,0,0,0,0,1
4528000,4528000,1310988,-0.22026655,0.19393034,-9.935937,11.832727,0,0,0,0,1
4532000,4532000,1310988,-0.20829555,0.21068975,-9.9550905,11.832727,0,0,0,0,1
4536000,4536000,1310988,-0.22505496,0.21787235,-9.940725,11.832727,0,0,0,0,1
4540000,4540000,1310988,-0.22266077,0.18435353,-9.900024,11.832727,0,0,0,0,1
4544000,4544000,1310988,-0.21547815,0.16998832,-9.938332,11.832727,0,0,0,0,1
4548000,4548000,1310988,-0.20590134,0.1388637,-9.940725,11.832727,0,0,0,0,1
4552000,4552000,1310988,-0.22266077,0.15083471,-9.919178,11.832727,0,0,0,0,1
4556000,4556000,1310988,-0.21547815,0.18435353,-9.904813,11.832727,0,0,0,0,1
4560000,4560000,1310988,-0.19153613,0.18195933,-9.911995,11.832727,0,0,0,0,1
4564000,4564000,1310988,-0.21068975,0.15801731,-9.938332,11.832727,0,0,0,0,1
4568000,4568000,1310988,-0.22744916,0.16519992,-9.904813,11.832727,0,0,0,0,1
4572000,4572000,1310988,-0.19632454,0.21547815,-9.890448,11.832727,0,0,0,0,1
4576000,4576000,1310988,-0.18674773,0.21068975,-9.931149,11.832727,0,0,0,0,1
4580000,4580000,1310988,-0.16759412,0.22505496,-9.969456,11.832727,0,0,0,0,1
4584000,4584000,1310988,-0.17477672,0.23223756,-9.976639,11.832727,0,0,0,0,1
4588000,4588000,1310988,-0.22505496,0.17238252,-9.94312,11.832727,0,0,0,0,1
4592000,4592000,1310988,-0.23463176,0.16280572,-9.933543,11.832727,0,0,0,0,1
4596000,4596000,1310988,-0.21068975,0.17477672,-9.935937,11.832727,0,0,0,0,1
4600000,4600000,1310988,-0.18914193,0.17238252,-9.950302,11.832727,0,0,0,0,1
4604000,4604000,1310988,-0.22026655,0.18435353,-9.959879,11.832727,0,0,0,0,1
4608000,4608000,1310988,-0.22026655,0.17477672,-9.921572,11.832727,0,0,0,0,1
4612000,4612000,1310988,-0.22026655,0.15083471,-9.89763,11.832727,0,0,0,0,1
4616000,4616000,1310988,-0.21068975,0.1412579,-9.921572,11.832727,0,0,0,0,1
4620000,4620000,1310988,-0.18914193,0.15801731,-9.916783,11.832727,0,0,0,0,1
4624000,4624000,1310988,-0.23223756,0.18914193,-9.94312,11.832727,0,0,0,0,1
4628000,4628000,1310988,-0.25139117,0.18674773,-9.962274,11.832727,0,0,0,0,1
4632000,4632000,1310988,-0.23702596,0.18435353,-9.94312,11.832727,0,0,0,0,1
4636000,4636000,1310988,-0.25139117,0.20829555,-9.947908,11.832727,0,0,0,0,1
4640000,4640000,1310988,-0.24660277,0.16998832,-9.962274,11.832727,0,0,0,0,1
4644000,4644000,1310988,-0.22026655,0.15801731,-9.974244,11.832727,0,0,0,0,1
4648000,4648000,1310988,-0.20111294,0.20590134,-9.919178,11.832727,0,0,0,0,1
4652000,4652000,1310988,-0.21787235,0.18674773,-9.916783,11.832727,0,0,0,0,1
4656000,4656000,1310988,-0.23702596,0.17956513,-9.909601,11.832727,0,0,0,0,1
4660000,4660000,1310988,-0.21547815,0.17238252,-9.873688,11.832727,0,0,0,0,1
4664000,4664000,1310988,-0.22026655,0.19153613,-9.909601,11.832727,0,0,0,0,1
4668000,4668000,1310988,-0.22505496,0.22266077,-9.91439,11.832727,0,0,0,0,1
4672000,4672000,1310988,-0.22984336,0.19393034,-9.921572,11.832727,0,0,0,0,1
4676000,4676000,1310988,-0.22984336,0.16998832,-9.974244,11.832727,0,0,0,0,1
4680000,4680000,1310988,-0.20350714,0.16519992,-9.959879,11.832727,0,0,0,0,1
4684000,4684000,1310988,-0.20350714,0.15801731,-9.923966,11.832727,0,0,0,0,1
4688000,4688000,1310988,-0.19871874,0.17477672,-9.962274,11.832727,0,0,0,0,1
4692000,4692000,1310988,-0.19632454,0.18674773,-9.938332,11.832727,0,0,0,0,1
4696000,4696000,1310988,-0.19393034,0.18674773,-9.883265,11.832727,0,0,0,0,1
4700000,4700000,1310988,-0.19393034,0.19632454,-9.923966,11.832727,0,0,0,0,1
4704000,4704000,1310988,-0.20590134,0.18435353,-9.952697,11.832727,0,0,0,0,1
4708000,4708000,1310988,-0.20590134,0.15083471,-9.935937,11.832727,0,0,0,0,1
4712000,4712000,1310988,-0.23942018,0.1436521,-9.902418,11.832727,0,0,0,0,1
4716000,4716000,1310988,-0.24420857,0.16280572,-9.907207,11.832727,0,0,0,0,1
4720000,4720000,1310988,-0.24420857,0.17477672,-9.928755,11.832727,0,0,0,0,1
4724000,4724000,1310988,-0.22026655,0.18674773,-9.911995,11.832727,0,0,0,0,1
4728000,4728000,1310988,-0.18435353,0.18674773,-9.916783,11.832727,0,0,0,0,1
4732000,4732000,1310988,-0.20350714,0.17238252,-9.933543,11.832727,0,0,0,0,1
4736000,4736000,1310988,-0.22744916,0.15322891,-9.921572,11.832727,0,0,0,0,1
4740000,4740000,1310988,-0.24899697,0.16759412,-9.916783,11.832727,0,0,0,0,1
4744000,4744000,1310988,-0.22266077,0.18195933,-9.928755,11.832727,0,0,0,0,1
4748000,4748000,1310988,-0.20350714,0.19393034,-9.962274,11.832727,0,0,0,0,1
4752000,4752000,1310988,-0.22266077,0.19871874,-9.967062,11.832727,0,0,0,0,1
4756000,4756000,1310988,-0.25378537,0.21547815,-9.921572,11.832727,0,0,0,0,1
4760000,4760000,1310988,-0.24899697,0.22505496,-9.91439,11.832727,0,0,0,0,1
4764000,4764000,1310988,-0.21068975,0.20350714,-9.928755,11.832727,0,0,0,0,1
4768000,4768000,1310988,-0.20111294,0.19393034,-9.902418,11.832727,0,0,0,0,1
4772000,4772000,1310988,-0.22984336,0.20111294,-9.895236,11.832727,0,0,0,0,1
4776000,4776000,1310988,-0.24420857,0.20350714,-9.945514,11.832727,0,0,0,0,1
4780000,4780000,1310988,-0.22505496,0.19153613,-9.935937,11.832727,0,0,0,0,1
4784000,4784000,1310988,-0.18435353,0.20829555,-9.91439,11.832727,0,0,0,0,1
4788000,4788000,1310988,-0.16759412,0.20590134,-9.928755,11.832727,0,0,0,0,1
4792000,4792000,1310988,-0.18674773,0.16998832,-9.904813,11.832727,0,0,0,0,1
4796000,4796000,1310988,-0.19871874,0.16759412,-9.911995,11.832727,0,0,0,0,1
4800000,4800000,1310988,-0.21547815,0.17238252,-9.97185,11.832727,0,0,0,0,1
4804000,4804000,1310988,-0.23223756,0.19393034,-9.957485,11.832727,0,0,0,0,1
4808000,4808000,1310988,-0.272939,0.19393034,-9.92636,11.832727,0,0,0,0,1
4812000,4812000,1310988,-0.272939,0.15562311,-9.94312,11.832727,0,0,0,0,1
4816000,4816000,1310988,-0.24660277,0.20111294,-9.950302,11.832727,0,0,0,0,1
4820000,4820000,1310988,-0.24899697,0.23942018,-9.959879,11.832727,0,0,0,0,1
4824000,4824000,1310988,-0.21547815,0.21547815,-9.957485,11.832727,0,0,0,0,1
4828000,4828000,1310988,-0.21068975,0.20590134,-9.97185,11.832727,0,0,0,0,1
4832000,4832000,1310988,-0.23223756,0.17238252,-9.97185,11.832727,0,0,0,0,1
4836000,4836000,1310988,-0.20590134,0.15322891,-9.931149,11.832727,0,0,0,0,1
4840000,4840000,1310988,-0.18914193,0.19632454,-9.907207,11.832727,0,0,0,0,1
4844000,4844000,1310988,-0.18674773,0.20829555,-9.907207,11.832727,0,0,0,0,1
4848000,4848000,1310988,-0.20590134,0.20111294,-9.919178,11.832727,0,0,0,0,1
4852000,4852000,1310988,-0.20829555,0.20350714,-9.92636,11.832727,0,0,0,0,1
4856000,4856000,1310988,-0.18914193,0.17717093,-9.919178,11.832727,0,0,0,0,1
4860000,4860000,1310988,-0.22505496,0.17238252,-9.909601,11.832727,0,0,0,0,1
4864000,4864000,1310988,-0.21547815,0.18674773,-9.935937,11.832727,0,0,0,0,1
4868000,4868000,1310988,-0.19153613,0.17477672,-9.97185,11.832727,0,0,0,0,1
4872000,4872000,1310988,-0.22744916,0.15083471,-9.974244,11.832727,0,0,0,0,1
4876000,4876000,1310988,-0.23702596,0.16519992,-9.952697,11.832727,0,0,0,0,1
4880000,4880000,1310988,-0.21308395,0.18674773,-9.928755,11.832727,0,0,0,0,1
4884000,4884000,1310988,-0.20350714,0.16519992,-9.947908,11.832727,0,0,0,0,1
4888000,4888000,1310988,-0.19393034,0.18435353,-9.94312,11.832727,0,0,0,0,1
4892000,4892000,1310988,-0.22026655,0.19871874,-9.92636,11.832727,0,0,0,0,1
4896000,4896000,1310988,-0.25378537,0.19632454,-9.945514,11.832727,0,0,0,0,1
4900000,4900000,1310988,-0.20829555,0.20829555,-9.940725,11.832727,0,0,0,0,1
4904000,4904000,1310988,-0.21068975,0.18195933,-9.94312,11.832727,0,0,0,0,1
4908000,4908000,1310988,-0.21547815,0.15562311,-9.935937,11.832727,0,0,0,0,1
4912000,4912000,1310988,-0.19871874,0.18914193,-9.921572,11.832727,0,0,0,0,1
4916000,4916000,1310988,-0.19871874,0.21547815,-9.92636,11.832727,0,0,0,0,1
4920000,4920000,1310988,-0.16998832,0.19153613,-9.950302,11.832727,0,0,0,0,1
4924000,4924000,1310988,-0.18914193,0.19632454,-9.97185,11.832727,0,0,0,0,1
4928000,4928000,1310988,-0.21308395,0.18914193,-9.947908,11.832727,0,0,0,0,1
4932000,4932000,1310988,-0.20590134,0.21547815,-9.92636,11.832727,0,0,0,0,1
4936000,4936000,1310988,-0.18914193,0.23463176,-9.91439,11.832727,0,0,0,0,1
4940000,4940000,1310988,-0.18914193,0.20590134,-9.923966,11.832727,0,0,0,0,1
4944000,4944000,1310988,-0.22984336,0.20590134,-9.92636,11.832727,0,0,0,0,1
4948000,4948000,1310988,-0.21308395,0.18674773,-9.909601,11.832727,0,0,0,0,1
4952000,4952000,1310988,-0.20111294,0.16759412,-9.904813,11.832727,0,0,0,0,1
4956000,4956000,1310988,-0.20111294,0.17477672,-9.909601,11.832727,0,0,0,0,1
4960000,4960000,1310988,-0.19393034,0.20829555,-9.938332,11.832727,0,0,0,0,1
4964000,4964000,1310988,-0.21068975,0.19632454,-9.952697,11.832727,0,0,0,0,1
4968000,4968000,1310988,-0.21308395,0.17717093,-9.935937,11.832727,0,0,0,0,1
4972000,4972000,1310988,-0.20829555,0.17717093,-9.928755,11.832727,0,0,0,0,1
4976000,4976000,1310988,-0.20590134,0.15801731,-9.935937,11.832727,0,0,0,0,1
4980000,4980000,1310988,-0.23223756,0.1604115,-9.92636,11.832727,0,0,0,0,1
4984000,4984000,1310988,-0.18435353,0.16519992,-9.935937,11.832727,0,0,0,0,1
4988000,4988000,1310988,-0.16519992,0.19871874,-9.950302,11.832727,0,0,0,0,1
4992000,4992000,1310988,-0.20829555,0.19153613,-9.947908,11.832727,0,0,0,0,1
4996000,4996000,1310988,-0.20111294,0.18195933,-9.933543,11.832727,0,0,0,0,1
5000000,5000000,1310988,-0.20111294,0.22026655,-9.916783,11.832727,0,0,0,0,1
5004000,5004000,1310988,-0.23223756,0.20111294,-9.907207,11.832727,0,0,0,0,1
5008000,5008000,1310988,-0.21547815,0.19393034,-9.909601,11.832727,0,0,0,0,1
5012000,5012000,1310988,-0.20111294,0.19153613,-9.945514,11.832727,0,0,0,0,1
5016000,5016000,1310988,-0.22744916,0.15322891,-9.935937,11.832727,0,0,0,0,1
5020000,5020000,1310988,-0.20350714,0.15083471,-9.91439,11.832727,0,0,0,0,1
5024000,5024000,1310988,-0.20590134,0.17477672,-9.935937,11.832727,0,0,0,0,1
5028000,5028000,1310988,-0.22505496,0.18674773,-9.962274,11.832727,0,0,0,0,1
5032000,5032000,1310988,-0.20829555,0.19153613,-9.940725,11.832727,0,0,0,0,1
5036000,5036000,1310988,-0.22505496,0.16519992,-9.933543,11.832727,0,0,0,0,1
5040000,5040000,1310988,-0.21787235,0.16759412,-9.957485,11.832727,0,0,0,0,1
5044000,5044000,1310988,-0.17477672,0.18435353,-9.976639,11.832727,0,0,0,0,1
5048000,5048000,1310988,-0.16519992,0.16998832,-9.995792,11.832727,0,0,0,0,1
5052000,5052000,1310988,-0.18914193,0.16519992,-9.983821,11.832727,0,0,0,0,1
5056000,5056000,1310988,-0.20111294,0.15801731,-9.952697,11.832727,0,0,0,0,1
5060000,5060000,1310988,-0.19632454,0.19632454,-9.911995,11.832727,0,0,0,0,1
5064000,5064000,1310988,-0.21547815,0.20590134,-9.916783,11.832727,0,0,0,0,1
5068000,5068000,1310988,-0.22984336,0.16759412,-9.97185,11.832727,0,0,0,0,1
5072000,5072000,1310988,-0.22744916,0.16759412,-10.005369,11.832727,0,0,0,0,1
5076000,5076000,1310988,-0.21068975,0.18195933,-9.983821,11.832727,0,0,0,0,1
5080000,5080000,1310988,-0.18195933,0.17717093,-9.950302,11.832727,0,0,0,0,1
5084000,5084000,1310988,-0.20111294,0.17717093,-9.909601,11.832727,0,0,0,0,1
5088000,5088000,1310988,-0.25378537,0.20350714,-9.900024,11.832727,0,0,0,0,1
5092000,5092000,1310988,-0.22266077,0.20829555,-9.890448,11.832727,0,0,0,0,1
5096000,5096000,1310988,-0.19393034,0.18674773,-9.895236,11.832727,0,0,0,0,1
5100000,5100000,1310988,-0.21308395,0.17956513,-9.938332,11.832727,0,0,0,0,1
5104000,5104000,1310988,-0.22505496,0.18674773,-9.94312,11.832727,0,0,0,0,1
5108000,5108000,1310988,-0.24181437,0.16519992,-9.91439,11.832727,0,0,0,0,1
5112000,5112000,1310988,-0.23223756,0.14844051,-9.89763,11.832727,0,0,0,0,1
5116000,5116000,1310988,-0.18195933,0.18195933,-9.92636,11.832727,0,0,0,0,1
5120000,5120000,1310988,-0.1604115,0.18674773,-9.969456,11.832727,0,0,0,0,1
5124000,5124000,1310988,-0.19871874,0.17956513,-9.9550905,11.832727,0,0,0,0,1
5128000,5128000,1310988,-0.20590134,0.19153613,-9.92636,11.832727,0,0,0,0,1
5132000,5132000,1310988,-0.21547815,0.16280572,-9.938332,11.832727,0,0,0,0,1
5136000,5136000,1310988,-0.23223756,0.12689269,-9.947908,11.832727,0,0,0,0,1
5140000,5140000,1310988,-0.20590134,0.19393034,-9.950302,11.832727,0,0,0,0,1
5144000,5144000,1310988,-0.19153613,0.22984336,-9.964667,11.832727,0,0,0,0,1
5148000,5148000,1310988,-0.20590134,0.20590134,-9.950302,11.832727,0,0,0,0,1
5152000,5152000,1310988,-0.21547815,0.20350714,-9.940725,11.832727,0,0,0,0,1
5156000,5156000,1310988,-0.22026655,0.17477672,-9.974244,11.832727,0,0,0,0,1
5160000,5160000,1310988,-0.23702596,0.19393034,-9.952697,11.832727,0,0,0,0,1
5164000,5164000,1310988,-0.21787235,0.20111294,-9.92636,11.832727,0,0,0,0,1
5168000,5168000,1310988,-0.21308395,0.19153613,-9.952697,11.832727,0,0,0,0,1
5172000,5172000,1310988,-0.23463176,0.21308395,-9.959879,11.832727,0,0,0,0,1
5176000,5176000,1310988,-0.22505496,0.20350714,-9.928755,11.832727,0,0,0,0,1
5180000,5180000,1310988,-0.21308395,0.17238252,-9.911995,11.832727,0,0,0,0,1
5184000,5184000,1310988,-0.19153613,0.16759412,-9.935937,11.832727,0,0,0,0,1
5188000,5188000,1310988,-0.16759412,0.20829555,-9.921572,11.832727,0,0,0,0,1
5192000,5192000,1310988,-0.22026655,0.21068975,-9.904813,11.832727,0,0,0,0,1
5196000,5196000,1310988,-0.2633622,0.16759412,-9.902418,11.832727,0,0,0,0,1
5200000,5200000,1310988,-0.21068975,0.20350714,-9.888053,11.832727,0,0,0,0,1
5204000,5204000,1310988,-0.19393034,0.21308395,-9.916783,11.832727,0,0,0,0,1
5208000,5208000,1310988,-0.20829555,0.20590134,-9.935937,11.832727,0,0,0,0,1
5212000,5212000,1310988,-0.21547815,0.23463176,-9.933543,11.832727,0,0,0,0,1
5216000,5216000,1310988,-0.19871874,0.24420857,-9.938332,11.832727,0,0,0,0,1
5220000,5220000,1310988,-0.18435353,0.25139117,-9.92636,11.832727,0,0,0,0,1
5224000,5224000,1310988,-0.20111294,0.24660277,-9.885659,11.832727,0,0,0,0,1
5228000,5228000,1310988,-0.20350714,0.20829555,-9.883265,11.832727,0,0,0,0,1
5232000,5232000,1310988,-0.22505496,0.16519992,-9.935937,11.832727,0,0,0,0,1
5236000,5236000,1310988,-0.22266077,0.19871874,-9.945514,11.832727,0,0,0,0,1
5240000,5240000,1310988,-0.21068975,0.20350714,-9.935937,11.832727,0,0,0,0,1
5244000,5244000,1310988,-0.21308395,0.18195933,-9.928755,11.832727,0,0,0,0,1
5248000,5248000,1310988,-0.20590134,0.18914193,-9.919178,11.832727,0,0,0,0,1
5252000,5252000,1310988,-0.21547815,0.16280572,-9.957485,11.832727,0,0,0,0,1
5256000,5256000,1310988,-0.23223756,0.16519992,-9.959879,11.832727,0,0,0,0,1
5260000,5260000,1310988,-0.22266077,0.18914193,-9.94312,11.832727,0,0,0,0,1
5264000,5264000,1310988,-0.22505496,0.20350714,-9.9550905,11.832727,0,0,0,0,1
5268000,5268000,1310988,-0.22984336,0.23223756,-9.962274,11.832727,0,0,0,0,1
5272000,5272000,1310988,-0.21547815,0.21787235,-9.97185,11.832727,0,0,0,0,1
5276000,5276000,1310988,-0.21068975,0.19632454,-9.988609,11.832727,0,0,0,0,1
5280000,5280000,1310988,-0.21308395,0.18435353,-9.962274,11.832727,0,0,0,0,1
5284000,5284000,1310988,-0.21068975,0.18195933,-9.92636,11.832727,0,0,0,0,1
5288000,5288000,1310988,-0.21308395,0.18195933,-9.938332,11.832727,0,0,0,0,1
5292000,5292000,1310988,-0.22505496,0.16759412,-9.952697,11.832727,0,0,0,0,1
5296000,5296000,1310988,-0.22026655,0.17238252,-9.94312,11.832727,0,0,0,0,1
5300000,5300000,1310988,-0.19393034,0.21308395,-9.964667,11.832727,0,0,0,0,1
5304000,5304000,1310988,-0.19393034,0.21547815,-9.9550905,11.832727,0,0,0,0,1
5308000,5308000,1310988,-0.20350714,0.21068975,-9.907207,11.832727,0,0,0,0,1
5312000,5312000,1310988,-0.17477672,0.21068975,-9.931149,11.832727,0,0,0,0,1
5316000,5316000,1310988,-0.19393034,0.20111294,-9.947908,11.832727,0,0,0,0,1
5320000,5320000,1310988,-0.21787235,0.18674773,-9.933543,11.832727,0,0,0,0,1
5324000,5324000,1310988,-0.21308395,0.16759412,-9.909601,11.832727,0,0,0,0,1
5328000,5328000,1310988,-0.22984336,0.20590134,-9.909601,11.832727,0,0,0,0,1
5332000,5332000,1310988,-0.22984336,0.19632454,-9.931149,11.832727,0,0,0,0,1
5336000,5336000,1310988,-0.22984336,0.18674773,-9.923966,11.832727,0,0,0,0,1
5340000,5340000,1310988,-0.25139117,0.20111294,-9.923966,11.832727,0,0,0,0,1
5344000,5344000,1310988,-0.22266077,0.18435353,-9.947908,11.832727,0,0,0,0,1
5348000,5348000,1310988,-0.20111294,0.19632454,-9.957485,11.832727,0,0,0,0,1
5352000,5352000,1310988,-0.20590134,0.20111294,-9.945514,11.832727,0,0,0,0,1
5356000,5356000,1310988,-0.19871874,0.19632454,-9.92636,11.832727,0,0,0,0,1
5360000,5360000,1310988,-0.20590134,0.22026655,-9.89763,11.832727,0,0,0,0,1
5364000,5364000,1310988,-0.21308395,0.21068975,-9.919178,11.832727,0,0,0,0,1
5368000,5368000,1310988,-0.21068975,0.17717093,-9.940725,11.832727,0,0,0,0,1
5372000,5372000,1310988,-0.22505496,0.21308395,-9.940725,11.832727,0,0,0,0,1
5376000,5376000,1310988,-0.20350714,0.19153613,-9.947908,11.832727,0,0,0,0,1
5380000,5380000,1310988,-0.20829555,0.1604115,-9.945514,11.832727,0,0,0,0,1
5384000,5384000,1310988,-0.25139117,0.20590134,-9.935937,11.832727,0,0,0,0,1
5388000,5388000,1310988,-0.2777274,0.20590134,-9.933543,11.832727,0,0,0,0,1
5392000,5392000,1310988,-0.2753332,0.19393034,-9.940725,11.832727,0,0,0,0,1
5396000,5396000,1310988,-0.21547815,0.18435353,-9.9550905,11.832727,0,0,0,0,1
5400000,5400000,1310988,-0.18435353,0.19153613,-9.9550905,11.832727,0,0,0,0,1
5404000,5404000,1310988,-0.19871874,0.20350714,-9.97185,11.832727,0,0,0,0,1
5408000,5408000,1310988,-0.22026655,0.17956513,-9.974244,11.832727,0,0,0,0,1
5412000,5412000,1310988,-0.19632454,0.16280572,-9.938332,11.832727,0,0,0,0,1
5416000,5416000,1310988,-0.17717093,0.16519992,-9.957485,11.832727,0,0,0,0,1
5420000,5420000,1310988,-0.22266077,0.17717093,-9.9790325,11.832727,0,0,0,0,1
5424000,5424000,1310988,-0.23223756,0.18674773,-9.969456,11.832727,0,0,0,0,1
5428000,5428000,1310988,-0.21547815,0.15322891,-9.950302,11.832727,0,0,0,0,1
5432000,5432000,1310988,-0.21308395,0.15801731,-9.947908,11.832727,0,0,0,0,1
5436000,5436000,1310988,-0.21068975,0.19153613,-9.931149,11.832727,0,0,0,0,1
5440000,5440000,1310988,-0.20350714,0.18195933,-9.945514,11.832727,0,0,0,0,1
5444000,5444000,1310988,-0.18195933,0.14604631,-9.9550905,11.832727,0,0,0,0,1
5448000,5448000,1310988,-0.17956513,0.1436521,-9.92636,11.832727,0,0,0,0,1
5452000,5452000,1310988,-0.19393034,0.19871874,-9.911995,11.832727,0,0,0,0,1
5456000,5456000,1310988,-0.18914193,0.21547815,-9.94312,11.832727,0,0,0,0,1
5460000,5460000,1310988,-0.18674773,0.19871874,-9.945514,11.832727,0,0,0,0,1
5464000,5464000,1310988,-0.20111294,0.19153613,-9.94312,11.832727,0,0,0,0,1
5468000,5468000,1310988,-0.18195933,0.20350714,-9.950302,11.832727,0,0,0,0,1
5472000,5472000,1310988,-0.20350714,0.21547815,-9.92636,11.832727,0,0,0,0,1
5476000,5476000,1310988,-0.23942018,0.19393034,-9.976639,11.832727,0,0,0,0,1
5480000,5480000,1310988,-0.22266077,0.18435353,-9.976639,11.832727,0,0,0,0,1
5484000,5484000,1310988,-0.17717093,0.18674773,-9.94312,11.832727,0,0,0,0,1
5488000,5488000,1310988,-0.16759412,0.17477672,-9.952697,11.832727,0,0,0,0,1
5492000,5492000,1310988,-0.19632454,0.19632454,-9.950302,11.832727,0,0,0,0,1
5496000,5496000,1310988,-0.20590134,0.19153613,-9.938332,11.832727,0,0,0,0,1
5500000,5500000,1310988,-0.21787235,0.17956513,-9.952697,11.832727,0,0,0,0,1
5504000,5504000,1310988,-0.23223756,0.19871874,-9.940725,11.832727,0,0,0,0,1
5508000,5508000,1310988,-0.21068975,0.19393034,-9.919178,11.832727,0,0,0,0,1
5512000,5512000,1310988,-0.18195933,0.16998832,-9.933543,11.832727,0,0,0,0,1
5516000,5516000,1310988,-0.18674773,0.18914193,-9.957485,11.832727,0,0,0,0,1
5520000,5520000,1310988,-0.18435353,0.18914193,-9.938332,11.832727,0,0,0,0,1
5524000,5524000,1310988,-0.18914193,0.15801731,-9.909601,11.832727,0,0,0,0,1
5528000,5528000,1310988,-0.21068975,0.18195933,-9.928755,11.832727,0,0,0,0,1
5532000,5532000,1310988,-0.19871874,0.17477672,-9.92636,11.832727,0,0,0,0,1
5536000,5536000,1310988,-0.21308395,0.16519992,-9.923966,11.832727,0,0,0,0,1
5540000,5540000,1310988,-0.23223756,0.16519992,-9.921572,11.832727,0,0,0,0,1
5544000,5544000,1310988,-0.21068975,0.18914193,-9.933543,11.832727,0,0,0,0,1
5548000,5548000,1310988,-0.18914193,0.21068975,-9.94312,11.832727,0,0,0,0,1
5552000,5552000,1310988,-0.20111294,0.19632454,-9.928755,11.832727,0,0,0,0,1
5556000,5556000,1310988,-0.21787235,0.19632454,-9.92636,11.832727,0,0,0,0,1
5560000,5560000,1310988,-0.17238252,0.17717093,-9.952697,11.832727,0,0,0,0,1
5564000,5564000,1310988,-0.16998832,0.15083471,-9.969456,11.832727,0,0,0,0,1
5568000,5568000,1310988,-0.22505496,0.15562311,-9.938332,11.832727,0,0,0,0,1
5572000,5572000,1310988,-0.24660277,0.18914193,-9.91439,11.832727,0,0,0,0,1
5576000,5576000,1310988,-0.24181437,0.21068975,-9.94312,11.832727,0,0,0,0,1
5580000,5580000,1310988,-0.22505496,0.19393034,-9.945514,11.832727,0,0,0,0,1
5584000,5584000,1310988,-0.23942018,0.16759412,-9.916783,11.832727,0,0,0,0,1
5588000,5588000,1310988,-0.260968,0.17238252,-9.933543,11.832727,0,0,0,0,1
5592000,5592000,1310988,-0.21787235,0.20829555,-9.952697,11.832727,0,0,0,0,1
5596000,5596000,1310988,-0.16519992,0.20350714,-9.947908,11.832727,0,0,0,0,1
5600000,5600000,1310988,-0.18674773,0.16759412,-9.962274,11.832727,0,0,0,0,1
5604000,5604000,1310988,-0.21068975,0.17477672,-9.959879,11.832727,0,0,0,0,1
5608000,5608000,1310988,-0.18195933,0.19153613,-9.923966,11.832727,0,0,0,0,1
5612000,5612000,1310988,-0.18914193,0.19393034,-9.911995,11.832727,0,0,0,0,1
5616000,5616000,1310988,-0.20829555,0.15562311,-9.916783,11.832727,0,0,0,0,1
5620000,5620000,1310988,-0.22266077,0.14844051,-9.916783,11.832727,0,0,0,0,1
5624000,5624000,1310988,-0.24420857,0.16998832,-9.91439,11.832727,0,0,0,0,1
5628000,5628000,1310988,-0.21308395,0.16998832,-9.947908,11.832727,0,0,0,0,1
5632000,5632000,1310988,-0.19393034,0.15801731,-9.947908,11.832727,0,0,0,0,1
5636000,5636000,1310988,-0.21787235,0.16519992,-9.940725,11.832727,0,0,0,0,1
5640000,5640000,1310988,-0.23702596,0.19871874,-9.974244,11.832727,0,0,0,0,1
5644000,5644000,1310988,-0.22744916,0.21787235,-9.952697,11.832727,0,0,0,0,1
5648000,5648000,1310988,-0.21547815,0.21787235,-9.950302,11.832727,0,0,0,0,1
5652000,5652000,1310988,-0.22984336,0.16759412,-9.9790325,11.832727,0,0,0,0,1
5656000,5656000,1310988,-0.22984336,0.16759412,-9.986216,11.832727,0,0,0,0,1
5660000,5660000,1310988,-0.20350714,0.18435353,-9.9550905,11.832727,0,0,0,0,1
5664000,5664000,1310988,-0.21308395,0.17238252,-9.928755,11.832727,0,0,0,0,1
5668000,5668000,1310988,-0.21787235,0.16519992,-9.931149,11.832727,0,0,0,0,1
5672000,5672000,1310988,-0.20590134,0.19393034,-9.94312,11.832727,0,0,0,0,1
5676000,5676000,1310988,-0.20590134,0.19632454,-9.907207,11.832727,0,0,0,0,1
5680000,5680000,1310988,-0.18674773,0.18435353,-9.902418,11.832727,0,0,0,0,1
5684000,5684000,1310988,-0.18195933,0.19153613,-9.935937,11.832727,0,0,0,0,1
5688000,5688000,1310988,-0.18195933,0.17238252,-9.928755,11.832727,0,0,0,0,1
5692000,5692000,1310988,-0.19871874,0.19632454,-9.952697,11.832727,0,0,0,0,1
5696000,5696000,1310988,-0.24660277,0.18674773,-9.950302,11.832727,0,0,0,0,1
5700000,5700000,1310988,-0.25139117,0.16280572,-9.933543,11.832727,0,0,0,0,1
5704000,5704000,1310988,-0.19871874,0.16759412,-9.967062,11.832727,0,0,0,0,1
5708000,5708000,1310988,-0.17956513,0.17717093,-9.998186,11.832727,0,0,0,0,1
5712000,5712000,1310988,-0.20111294,0.17477672,-9.974244,11.832727,0,0,0,0,1
5716000,5716000,1310988,-0.21308395,0.14604631,-9.9550905,11.832727,0,0,0,0,1
5720000,5720000,1310988,-0.19871874,0.18674773,-9.950302,11.832727,0,0,0,0,1
5724000,5724000,1310988,-0.18914193,0.21308395,-9.945514,11.832727,0,0,0,0,1
5728000,5728000,1310988,-0.22026655,0.18674773,-9.938332,11.832727,0,0,0,0,1
5732000,5732000,1310988,-0.22266077,0.18195933,-9.928755,11.832727,0,0,0,0,1
5736000,5736000,1310988,-0.19393034,0.1604115,-9.92636,11.832727,0,0,0,0,1
5740000,5740000,1310988,-0.20590134,0.17477672,-9.931149,11.832727,0,0,0,0,1
5744000,5744000,1310988,-0.21547815,0.16519992,-9.94312,11.832727,0,0,0,0,1
5748000,5748000,1310988,-0.18674773,0.15801731,-9.947908,11.832727,0,0,0,0,1
5752000,5752000,1310988,-0.20111294,0.20590134,-9.928755,11.832727,0,0,0,0,1
5756000,5756000,1310988,-0.20829555,0.19632454,-9.911995,11.832727,0,0,0,0,1
5760000,5760000,1310988,-0.16280572,0.18914193,-9.91439,11.832727,0,0,0,0,1
5764000,5764000,1310988,-0.17238252,0.19632454,-9.945514,11.832727,0,0,0,0,1
5768000,5768000,1310988,-0.22505496,0.19393034,-9.9790325,11.832727,0,0,0,0,1
5772000,5772000,1310988,-0.21308395,0.19871874,-9.964667,11.832727,0,0,0,0,1
5776000,5776000,1310988,-0.21308395,0.18195933,-9.950302,11.832727,0,0,0,0,1
5780000,5780000,1310988,-0.23702596,0.18195933,-9.947908,11.832727,0,0,0,0,1
5784000,5784000,1310988,-0.21308395,0.17717093,-9.945514,11.832727,0,0,0,0,1
5788000,5788000,1310988,-0.20829555,0.18674773,-9.928755,11.832727,0,0,0,0,1
5792000,5792000,1310988,-0.20350714,0.20111294,-9.923966,11.832727,0,0,0,0,1
5796000,5796000,1310988,-0.19632454,0.19393034,-9.92636,11.832727,0,0,0,0,1
5800000,5800000,1310988,-0.20350714,0.19871874,-9.935937,11.832727,0,0,0,0,1
5804000,5804000,1310988,-0.21068975,0.16759412,-9.957485,11.832727,0,0,0,0,1
5808000,5808000,1310988,-0.20590134,0.15322891,-9.947908,11.832727,0,0,0,0,1
5812000,5812000,1310988,-0.17717093,0.1604115,-9.935937,11.832727,0,0,0,0,1
5816000,5816000,1310988,-0.19393034,0.17238252,-9.952697,11.832727,0,0,0,0,1
5820000,5820000,1310988,-0.22026655,0.1604115,-9.9790325,11.832727,0,0,0,0,1
5824000,5824000,1310988,-0.24420857,0.14604631,-9.974244,11.832727,0,0,0,0,1
5828000,5828000,1310988,-0.25378537,0.15562311,-9.957485,11.832727,0,0,0,0,1
5832000,5832000,1310988,-0.22505496,0.15322891,-9.950302,11.832727,0,0,0,0,1
5836000,5836000,1310988,-0.21068975,0.19632454,-9.940725,11.832727,0,0,0,0,1
5840000,5840000,1310988,-0.19871874,0.18435353,-9.92636,11.832727,0,0,0,0,1
5844000,5844000,1310988,-0.22505496,0.16280572,-9.92636,11.832727,0,0,0,0,1
5848000,5848000,1310988,-0.21787235,0.18914193,-9.940725,11.832727,0,0,0,0,1
5852000,5852000,1310988,-0.19871874,0.16759412,-9.938332,11.832727,0,0,0,0,1
5856000,5856000,1310988,-0.19393034,0.16519992,-9.947908,11.832727,0,0,0,0,1
5860000,5860000,1310988,-0.1436521,0.20590134,-9.957485,11.832727,0,0,0,0,1
5864000,5864000,1310988,-0.16519992,0.21787235,-9.933543,11.832727,0,0,0,0,1
5868000,5868000,1310988,-0.22026655,0.21547815,-9.92636,11.832727,0,0,0,0,1
5872000,5872000,1310988,-0.21547815,0.19153613,-9.923966,11.832727,0,0,0,0,1
5876000,5876000,1310988,-0.19153613,0.15322891,-9.904813,11.832727,0,0,0,0,1
5880000,5880000,1310988,-0.18674773,0.14844051,-9.940725,11.832727,0,0,0,0,1
5884000,5884000,1310988,-0.21068975,0.19393034,-9.97185,11.832727,0,0,0,0,1
5888000,5888000,1310988,-0.21787235,0.19393034,-9.950302,11.832727,0,0,0,0,1
5892000,5892000,1310988,-0.21787235,0.18435353,-9.950302,11.832727,0,0,0,0,1
5896000,5896000,1310988,-0.24660277,0.19153613,-9.959879,11.832727,0,0,0,0,1
5900000,5900000,1310988,-0.22266077,0.16519992,-9.957485,11.832727,0,0,0,0,1
5904000,5904000,1310988,-0.15322891,0.18195933,-9.945514,11.832727,0,0,0,0,1
5908000,5908000,1310988,-0.16998832,0.21068975,-9.938332,11.832727,0,0,0,0,1
5912000,5912000,1310988,-0.20590134,0.21068975,-9.94312,11.832727,0,0,0,0,1
5916000,5916000,1310988,-0.20590134,0.21547815,-9.9550905,11.832727,0,0,0,0,1
5920000,5920000,1310988,-0.21308395,0.22266077,-9.957485,11.832727,0,0,0,0,1
5924000,5924000,1310988,-0.23223756,0.19632454,-9.952697,11.832727,0,0,0,0,1
5928000,5928000,1310988,-0.21787235,0.16280572,-9.945514,11.832727,0,0,0,0,1
5932000,5932000,1310988,-0.17956513,0.17956513,-9.964667,11.832727,0,0,0,0,1
5936000,5936000,1310988,-0.17477672,0.18914193,-9.981427,11.832727,0,0,0,0,1
5940000,5940000,1310988,-0.17477672,0.18435353,-9.945514,11.832727,0,0,0,0,1
5944000,5944000,1310988,-0.17477672,0.18914193,-9.909601,11.832727,0,0,0,0,1
5948000,5948000,1310988,-0.20829555,0.20829555,-9.89763,11.832727,0,0,0,0,1
5952000,5952000,1310988,-0.21787235,0.20590134,-9.904813,11.832727,0,0,0,0,1
5956000,5956000,1310988,-0.23223756,0.16998832,-9.909601,11.832727,0,0,0,0,1
5960000,5960000,1310988,-0.23942018,0.17477672,-9.931149,11.832727,0,0,0,0,1
5964000,5964000,1310988,-0.21547815,0.22266077,-9.962274,11.832727,0,0,0,0,1
5968000,5968000,1310988,-0.21787235,0.22266077,-9.976639,11.832727,0,0,0,0,1
5972000,5972000,1310988,-0.21787235,0.17238252,-9.9550905,11.832727,0,0,0,0,1
5976000,5976000,1310988,-0.24181437,0.16759412,-9.933543,11.832727,0,0,0,0,1
5980000,5980000,1310988,-0.21787235,0.1604115,-9.935937,11.832727,0,0,0,0,1
5984000,5984000,1310988,-0.19153613,0.16759412,-9.935937,11.832727,0,0,0,0,1
5988000,5988000,1310988,-0.20590134,0.20590134,-9.928755,11.832727,0,0,0,0,1
5992000,5992000,1310988,-0.22026655,0.20829555,-9.938332,11.832727,0,0,0,0,1
5996000,5996000,1310988,-0.22026655,0.18674773,-9.969456,11.832727,0,0,0,0,1
6000000,6000000,1310988,-0.21068975,0.17956513,-9.952697,11.832727,0,0,0,0,1
6004000,6004000,1310988,-0.23223756,0.17717093,-9.9550905,11.832727,0,0,0,0,1
6008000,6008000,1310988,-0.21787235,0.15322891,-9.974244,11.832727,0,0,0,0,1
6012000,6012000,1310988,-0.18435353,0.15801731,-9.923966,11.832727,0,0,0,0,1
6016000,6016000,1310988,-0.19393034,0.19871874,-9.933543,11.832727,0,0,0,0,1
6020000,6020000,1310988,-0.22505496,0.18435353,-9.957485,11.832727,0,0,0,0,1
6024000,6024000,1310988,-0.22505496,0.18195933,-9.962274,11.832727,0,0,0,0,1
6028000,6028000,1310988,-0.20829555,0.20350714,-9.974244,11.832727,0,0,0,0,1
6032000,6032000,1310988,-0.19871874,0.19632454,-9.950302,11.832727,0,0,0,0,1
6036000,6036000,1310988,-0.19153613,0.18674773,-9.957485,11.832727,0,0,0,0,1
6040000,6040000,1310988,-0.20590134,0.17956513,-9.964667,11.832727,0,0,0,0,1
6044000,6044000,1310988,-0.21787235,0.17956513,-9.94312,11.832727,0,0,0,0,1
6048000,6048000,1310988,-0.19632454,0.17717093,-9.931149,11.832727,0,0,0,0,1
6052000,6052000,1310988,-0.20111294,0.16759412,-9.962274,11.832727,0,0,0,0,1
6056000,6056000,1310988,-0.22744916,0.1604115,-9.969456,11.832727,0,0,0,0,1
6060000,6060000,1310988,-0.21308395,0.15801731,-9.909601,11.832727,0,0,0,0,1
6064000,6064000,1310988,-0.22026655,0.17238252,-9.902418,11.832727,0,0,0,0,1
6068000,6068000,1310988,-0.23702596,0.18195933,-9.938332,11.832727,0,0,0,0,1
6072000,6072000,1310988,-0.20590134,0.17956513,-9.928755,11.832727,0,0,0,0,1
6076000,6076000,1310988,-0.20829555,0.18195933,-9.923966,11.832727,0,0,0,0,1
6080000,6080000,1310988,-0.21308395,0.17717093,-9.945514,11.832727,0,0,0,0,1
6084000,6084000,1310988,-0.19393034,0.1604115,-9.959879,11.832727,0,0,0,0,1
6088000,6088000,1310988,-0.20829555,0.14844051,-9.935937,11.832727,0,0,0,0,1
6092000,6092000,1310988,-0.22266077,0.16759412,-9.919178,11.832727,0,0,0,0,1
6096000,6096000,1310988,-0.22266077,0.17238252,-9.928755,11.832727,0,0,0,0,1
6100000,6100000,1310988,-0.20350714,0.18435353,-9.950302,11.832727,0,0,0,0,1
6104000,6104000,1310988,-0.17956513,0.20350714,-9.923966,11.832727,0,0,0,0,1
6108000,6108000,1310988,-0.17238252,0.20590134,-9.895236,11.832727,0,0,0,0,1
6112000,6112000,1310988,-0.20350714,0.18674773,-9.931149,11.832727,0,0,0,0,1
6116000,6116000,1310988,-0.21787235,0.17956513,-9.900024,11.832727,0,0,0,0,1
6120000,6120000,1310988,-0.20111294,0.19393034,-9.911995,11.832727,0,0,0,0,1
6124000,6124000,1310988,-0.19153613,0.20590134,-9.952697,11.832727,0,0,0,0,1
6128000,6128000,1310988,-0.17717093,0.19393034,-9.947908,11.832727,0,0,0,0,1
6132000,6132000,1310988,-0.19153613,0.15322891,-9.952697,11.832727,0,0,0,0,1
6136000,6136000,1310988,-0.20829555,0.15801731,-9.938332,11.832727,0,0,0,0,1
6140000,6140000,1310988,-0.21787235,0.18674773,-9.933543,11.832727,0,0,0,0,1
6144000,6144000,1310988,-0.22984336,0.18674773,-9.923966,11.832727,0,0,0,0,1
6148000,6148000,1310988,-0.21068975,0.18435353,-9.933543,11.832727,0,0,0,0,1
6152000,6152000,1310988,-0.18195933,0.17717093,-9.923966,11.832727,0,0,0,0,1
6156000,6156000,1310988,-0.19153613,0.16759412,-9.904813,11.832727,0,0,0,0,1
6160000,6160000,1310988,-0.23463176,0.19393034,-9.919178,11.832727,0,0,0,0,1
6164000,6164000,1310988,-0.24660277,0.19393034,-9.91439,11.832727,0,0,0,0,1
6168000,6168000,1310988,-0.24660277,0.17717093,-9.921572,11.832727,0,0,0,0,1
6172000,6172000,1310988,-0.24181437,0.16280572,-9.94312,11.832727,0,0,0,0,1
6176000,6176000,1310988,-0.21787235,0.1604115,-9.9550905,11.832727,0,0,0,0,1
6180000,6180000,1310988,-0.21787235,0.17717093,-9.940725,11.832727,0,0,0,0,1
6184000,6184000,1310988,-0.21308395,0.16998832,-9.92636,11.832727,0,0,0,0,1
6188000,6188000,1310988,-0.21547815,0.16519992,-9.959879,11.832727,0,0,0,0,1
6192000,6192000,1310988,-0.22026655,0.16519992,-9.97185,11.832727,0,0,0,0,1
6196000,6196000,1310988,-0.23463176,0.19153613,-9.940725,11.832727,0,0,0,0,1
6200000,6200000,1310988,-0.22744916,0.21787235,-9.952697,11.832727,0,0,0,0,1
6204000,6204000,1310988,-0.18435353,0.19632454,-9.967062,11.832727,0,0,0,0,1
6208000,6208000,1310988,-0.17477672,0.18195933,-9.964667,11.832727,0,0,0,0,1
6212000,6212000,1310988,-0.22744916,0.19153613,-9.967062,11.832727,0,0,0,0,1
6216000,6216000,1310988,-0.2633622,0.21787235,-9.940725,11.832727,0,0,0,0,1
6220000,6220000,1310988,-0.22744916,0.21547815,-9.9550905,11.832727,0,0,0,0,1
6224000,6224000,1310988,-0.23223756,0.20350714,-9.97185,11.832727,0,0,0,0,1
6228000,6228000,1310988,-0.25617957,0.21787235,-9.931149,11.832727,0,0,0,0,1
6232000,6232000,1310988,-0.23942018,0.21068975,-9.919178,11.832727,0,0,0,0,1
6236000,6236000,1310988,-0.22026655,0.19871874,-9.950302,11.832727,0,0,0,0,1
6240000,6240000,1310988,-0.23463176,0.17956513,-9.967062,11.832727,0,0,0,0,1
6244000,6244000,1310988,-0.2825158,0.17238252,-9.935937,11.832727,0,0,0,0,1
6248000,6248000,1310988,-0.2633622,0.19871874,-9.933543,11.832727,0,0,0,0,1
6252000,6252000,1310988,-0.22984336,0.17477672,-9.962274,11.832727,0,0,0,0,1
6256000,6256000,1310988,-0.20350714,0.19153613,-9.962274,11.832727,0,0,0,0,1
6260000,6260000,1310988,-0.22026655,0.18435353,-9.957485,11.832727,0,0,0,0,1
6264000,6264000,1310988,-0.2681506,0.18435353,-9.935937,11.832727,0,0,0,0,1
6268000,6268000,1310988,-0.25139117,0.22266077,-9.916783,11.832727,0,0,0,0,1
6272000,6272000,1310988,-0.22984336,0.19393034,-9.904813,11.832727,0,0,0,0,1
6276000,6276000,1310988,-0.20111294,0.20350714,-9.931149,11.832727,0,0,0,0,1
6280000,6280000,1310988,-0.20829555,0.18435353,-9.959879,11.832727,0,0,0,0,1
6284000,6284000,1310988,-0.20829555,0.16519992,-9.947908,11.832727,0,0,0,0,1
6288000,6288000,1310988,-0.21787235,0.17717093,-9.907207,11.832727,0,0,0,0,1
6292000,6292000,1310988,-0.23223756,0.17477672,-9.904813,11.832727,0,0,0,0,1
6296000,6296000,1310988,-0.23702596,0.17956513,-9.957485,11.832727,0,0,0,0,1
6300000,6300000,1310988,-0.20590134,0.18914193,-9.94312,11.832727,0,0,0,0,1
6304000,6304000,1310988,-0.16519992,0.1604115,-9.911995,11.832727,0,0,0,0,1
6308000,6308000,1310988,-0.19153613,0.1364695,-9.94312,11.832727,0,0,0,0,1
6312000,6312000,1310988,-0.21308395,0.17477672,-9.947908,11.832727,0,0,0,0,1
