timestamp,timestamp_sample,lat,lon,alt,alt_ellipsoid,delta_alt,eph,epv,terrain_alt,lat_lon_reset_counter,alt_reset_counter,terrain_alt_valid,dead_reckoning
8608000,8608000,47.397750800645106,8.545607395619573,488.10028,488.10303,0.04104034,1.7320508,1.4142135,nan,2,2,0,0
8616000,8616000,47.39775079930339,8.545607395762811,488.0999,488.10266,0.04104034,1.7320541,1.387278,nan,2,2,0,0
8624000,8624000,47.39775079790018,8.545607395906021,488.09952,488.10226,0.04104034,1.7320641,1.3872913,nan,2,2,0,0
8632000,8632000,47.39775079645065,8.545607396051068,488.0991,488.10184,0.04104034,1.7320807,1.387314,nan,2,2,0,0
8640000,8640000,47.39775079495244,8.545607396200111,488.0987,488.10144,0.04104034,1.7321041,1.387346,nan,2,2,0,0
8648000,8648000,47.397750793415945,8.545607396363916,488.09827,488.101,0.04104034,1.732134,1.3873873,nan,2,2,0,0
8656000,8656000,47.397750791842746,8.545607396524858,488.0978,488.10056,0.04104034,1.7321706,1.387438,nan,2,2,0,0
8664000,8664000,47.397750790236465,8.545607396682696,488.09735,488.1001,0.04104034,1.7322139,1.387498,nan,2,2,0,0
8672000,8672000,47.39775078858402,8.545607396841769,488.09692,488.09967,0.04104034,1.7322638,1.3639499,nan,2,2,0,0
8680000,8680000,47.39775078687441,8.545607397016214,488.09647,488.0992,0.04104034,1.7323204,1.3640246,nan,2,2,0,0
8688000,8688000,47.39775078512668,8.545607397203993,488.09598,488.09872,0.04104034,1.7323836,1.364109,nan,2,2,0,0
8696000,8696000,47.39775078339328,8.545607397387496,488.09552,488.09827,0.04104034,1.7324536,1.3642027,nan,2,2,0,0
8704000,8704000,47.397750781679065,8.545607397568649,488.09506,488.0978,0.04104034,1.73253,1.3643061,nan,2,2,0,0
8712000,8712000,47.39775077997853,8.545607397748526,488.09457,488.09732,0.04104034,1.7326132,1.364419,nan,2,2,0,0
8720000,8720000,47.39775077826868,8.545607397937948,488.09412,488.09686,0.04104034,1.7327031,1.3645413,nan,2,2,0,0
8728000,8728000,47.39775077655013,8.54560739813583,488.09366,488.0964,0.04104034,1.7327996,1.364673,nan,2,2,0,0
8736000,8736000,47.397750774834854,8.545607398346888,488.09305,488.0958,0.04104034,1.7329028,1.3438629,nan,2,2,0,0
8744000,8744000,47.39775077312366,8.545607398556271,488.09244,488.09518,0.04104034,1.7330127,1.3440062,nan,2,2,0,0
8752000,8752000,47.397750771417854,8.545607398754102,488.09186,488.0946,0.04104034,1.7331291,1.3441592,nan,2,2,0,0
8760000,8760000,47.397750769721874,8.545607398965984,488.09125,488.094,0.04104034,1.7332523,1.3443218,nan,2,2,0,0
8768000,8768000,47.39775076802347,8.545607399196728,488.09067,488.0934,0.04104034,1.7333821,1.3444942,nan,2,2,0,0
8776000,8776000,47.3977507663191,8.545607399432365,488.0901,488.09283,0.04104034,1.7335185,1.3446761,nan,2,2,0,0
8784000,8784000,47.397750764616134,8.545607399683867,488.0895,488.09225,0.04104034,1.7336617,1.3448676,nan,2,2,0,0
8792000,8792000,47.3977507629214,8.54560739996564,488.08887,488.0916,0.04104034,1.7338114,1.3263029,nan,2,2,0,0
8800000,8800000,47.39775076122903,8.545607400270388,488.08823,488.09097,0.04104034,1.7339678,1.3265038,nan,2,2,0,0
8808000,8808000,47.397750759522964,8.54560740057767,488.0876,488.09033,0.04104034,1.7341309,1.3267143,nan,2,2,0,0
8816000,8816000,47.39775075780543,8.54560740089359,488.08694,488.0897,0.04104034,1.7343006,1.3269346,nan,2,2,0,0
8824000,8824000,47.3977507560843,8.545607401214358,488.08633,488.08908,0.04104034,1.7344769,1.3271646,nan,2,2,0,0
8832000,8832000,47.397750754356025,8.545607401534964,488.0857,488.08844,0.04104034,1.7346599,1.3274044,nan,2,2,0,0
8840000,8840000,47.39775075262506,8.545607401856492,488.08508,488.08783,0.04104034,1.7348496,1.3276539,nan,2,2,0,0
8848000,8848000,47.39775075089548,8.545607402175522,488.08447,488.08722,0.04104034,1.7350459,1.327913,nan,2,2,0,0
8856000,8856000,47.397750749169184,8.545607402481364,488.08398,488.08673,0.04104034,1.7352488,1.3111913,nan,2,2,0,0
8864000,8864000,47.3977507474326,8.54560740278437,488.08347,488.0862,0.04104034,1.7354585,1.3114574,nan,2,2,0,0
8872000,8872000,47.39775074568497,8.54560740308023,488.08295,488.0857,0.04104034,1.7356746,1.3117331,nan,2,2,0,0
8880000,8880000,47.397750743926125,8.54560740337558,488.08246,488.0852,0.04104034,1.7358975,1.3120188,nan,2,2,0,0
8888000,8888000,47.39775074216732,8.545607403678474,488.08197,488.08472,0.04104034,1.736127,1.3123143,nan,2,2,0,0
8896000,8896000,47.39775074042057,8.545607403972806,488.08145,488.0842,0.04104034,1.7363632,1.3126196,nan,2,2,0,0
8904000,8904000,47.39775073868566,8.545607404266425,488.08096,488.0837,0.04104034,1.736606,1.3129345,nan,2,2,0,0
8912000,8912000,47.39775073694817,8.545607404559538,488.08057,488.0833,0.04104034,1.7368554,1.2977649,nan,2,2,0,0
8920000,8920000,47.397750735206714,8.545607404851351,488.08017,488.08292,0.04104034,1.7371114,1.298085,nan,2,2,0,0
8928000,8928000,47.39775073347261,8.54560740516697,488.07977,488.08252,0.04104034,1.7373741,1.2984148,nan,2,2,0,0
8936000,8936000,47.397750731751465,8.545607405514637,488.07938,488.08212,0.04104034,1.7376434,1.2987547,nan,2,2,0,0
8944000,8944000,47.397750730022,8.545607405867464,488.07898,488.08173,0.04104034,1.7379194,1.2991043,nan,2,2,0,0
8952000,8952000,47.397750728279675,8.54560740623072,488.07858,488.08133,0.04104034,1.738202,1.299464,nan,2,2,0,0
8960000,8960000,47.39775072654181,8.545607406606637,488.0782,488.08093,0.04104034,1.7384912,1.2998334,nan,2,2,0,0
8968000,8968000,47.397750724806414,8.545607406978457,488.0778,488.08054,0.04104034,1.738787,1.3002127,nan,2,2,0,0
8976000,8976000,47.39775072306707,8.545607407361336,488.0775,488.08026,0.04104034,1.7390895,1.2863233,nan,2,2,0,0
8984000,8984000,47.3977507213131,8.54560740776013,488.07724,488.08,0.04104034,1.7393985,1.2867054,nan,2,2,0,0
8992000,8992000,47.3977507195576,8.545607408175664,488.07697,488.0797,0.04104034,1.7397143,1.2870976,nan,2,2,0,0
9000000,9000000,47.39775071779465,8.545607408592597,488.0767,488.07944,0.04104034,1.7400365,1.2874995,nan,2,2,0,0
9008000,9008000,47.39775071858225,8.54560740871883,488.07687,488.0807,0.04104034,1.4167632,1.1802762,nan,2,2,0,0
9016000,9016000,47.39775071936143,8.54560740884474,488.07703,488.08084,0.04104034,1.4168669,1.1804171,nan,2,2,0,0
9024000,9024000,47.39775072012233,8.545607408971666,488.0772,488.08102,0.04104034,1.4169747,1.1805633,nan,2,2,0,0
9032000,9032000,47.39775072085766,8.545607409096466,488.07742,488.08124,0.04104034,1.4170865,1.1755052,nan,2,2,0,0
9040000,9040000,47.39775072157775,8.54560740921781,488.07764,488.08145,0.04104034,1.4172024,1.1756581,nan,2,2,0,0
9048000,9048000,47.39775072228566,8.545607409345653,488.07785,488.08167,0.04104034,1.4173223,1.1758167,nan,2,2,0,0
9056000,9056000,47.39775072297515,8.545607409507694,488.07806,488.08188,0.04104034,1.4174464,1.1759806,nan,2,2,0,0
9064000,9064000,47.39775072364882,8.545607409676268,488.0783,488.08212,0.04104034,1.4175744,1.1761501,nan,2,2,0,0
9072000,9072000,47.39775072431557,8.54560740983075,488.07852,488.08234,0.04104034,1.4177065,1.1763248,nan,2,2,0,0
9080000,9080000,47.39775072496038,8.545607409990836,488.0787,488.08252,0.04104034,1.4178427,1.1765051,nan,2,2,0,0
9088000,9088000,47.397750725576124,8.545607410161724,488.07892,488.08273,0.04104034,1.4179829,1.1766909,nan,2,2,0,0
9096000,9096000,47.397750726159536,8.545607410342189,488.07904,488.08286,0.04104034,1.4181273,1.1718893,nan,2,2,0,0
9104000,9104000,47.39775072672388,8.545607410517531,488.07916,488.08298,0.04104034,1.4182757,1.1720809,nan,2,2,0,0
9112000,9112000,47.39775072727191,8.545607410692751,488.07928,488.0831,0.04104034,1.4184281,1.1722778,nan,2,2,0,0
9120000,9120000,47.39775072780396,8.545607410864381,488.0794,488.08322,0.04104034,1.4185847,1.1724802,nan,2,2,0,0
9128000,9128000,47.39775072830688,8.54560741105054,488.0795,488.0833,0.04104034,1.4187452,1.1726881,nan,2,2,0,0
9136000,9136000,47.39775072877257,8.545607411254279,488.07962,488.08344,0.04104034,1.4189099,1.1729015,nan,2,2,0,0
9144000,9144000,47.39775072919104,8.545607411450336,488.07974,488.08356,0.04104034,1.4190786,1.1731203,nan,2,2,0,0
9152000,9152000,47.397750729571634,8.545607411642072,488.0799,488.0837,0.04104034,1.4192514,1.1685482,nan,2,2,0,0
9160000,9160000,47.39775072992736,8.545607411840566,488.08005,488.08386,0.04104034,1.4194282,1.168772,nan,2,2,0,0
9168000,9168000,47.39775073027207,8.545607412043687,488.0802,488.084,0.04104034,1.4196092,1.1690013,nan,2,2,0,0
9176000,9176000,47.39775073060383,8.545607412264278,488.08035,488.08417,0.04104034,1.4197941,1.1692361,nan,2,2,0,0
9184000,9184000,47.39775073091128,8.545607412505138,488.0805,488.08432,0.04104034,1.4199831,1.1694763,nan,2,2,0,0
9192000,9192000,47.3977507311885,8.54560741272922,488.08066,488.08447,0.04104034,1.4201763,1.169722,nan,2,2,0,0
9200000,9200000,47.397750731451396,8.54560741294865,488.0808,488.08463,0.04104034,1.4203734,1.169973,nan,2,2,0,0
9208000,9208000,47.39775073170205,8.545607413185376,488.08093,488.08475,0.04104034,1.4205748,1.1702296,nan,2,2,0,0
9216000,9216000,47.39775073194837,8.545607413408257,488.08102,488.08484,0.04104034,1.4207802,1.165851,nan,2,2,0,0
9224000,9224000,47.39775073218791,8.545607413632808,488.0811,488.0849,0.04104034,1.4209895,1.1661118,nan,2,2,0,0
9232000,9232000,47.397750732406344,8.54560741386397,488.08118,488.085,0.04104034,1.4212029,1.1663779,nan,2,2,0,0
9240000,9240000,47.39775073259299,8.5456074140759,488.08124,488.08505,0.04104034,1.4214206,1.1666496,nan,2,2,0,0
9248000,9248000,47.3977507327655,8.545607414279267,488.0813,488.0851,0.04104034,1.4216421,1.1669266,nan,2,2,0,0
9256000,9256000,47.397750732933794,8.545607414511553,488.08136,488.08517,0.04104034,1.4218678,1.1672091,nan,2,2,0,0
9264000,9264000,47.397750733078404,8.545607414760617,488.08142,488.08524,0.04104034,1.4220974,1.1674972,nan,2,2,0,0
9272000,9272000,47.39775073319938,8.545607415014517,488.08145,488.08527,0.04104034,1.4223313,1.163295,nan,2,2,0,0
9280000,9280000,47.39775073330822,8.545607415285334,488.08148,488.0853,0.04104034,1.4225692,1.1635865,nan,2,2,0,0
9288000,9288000,47.39775073340353,8.54560741557086,488.08154,488.08536,0.04104034,1.4228113,1.1638833,nan,2,2,0,0
9296000,9296000,47.39775073346453,8.545607415850016,488.08157,488.0854,0.04104034,1.4230573,1.1641858,nan,2,2,0,0
9304000,9304000,47.397750733489424,8.545607416141916,488.0816,488.08542,0.04104034,1.4233075,1.1644936,nan,2,2,0,0
9312000,9312000,47.39775073348107,8.54560741644416,488.08163,488.08545,0.04104034,1.4235617,1.1648068,nan,2,2,0,0
9320000,9320000,47.39775073344741,8.545607416741763,488.08167,488.08548,0.04104034,1.4238201,1.1651255,nan,2,2,0,0
9328000,9328000,47.39775073339946,8.54560741702223,488.08167,488.08548,0.04104034,1.4240824,1.1654496,nan,2,2,0,0
9336000,9336000,47.39775073332633,8.545607417309082,488.08173,488.08554,0.04104034,1.424349,1.1613903,nan,2,2,0,0
9344000,9344000,47.39775073322866,8.545607417585774,488.0818,488.0856,0.04104034,1.4246194,1.161717,nan,2,2,0,0
9352000,9352000,47.39775073309683,8.545607417853486,488.08182,488.08563,0.04104034,1.4248941,1.1620493,nan,2,2,0,0
9360000,9360000,47.39775073292906,8.545607418127778,488.08185,488.08566,0.04104034,1.4251728,1.1623869,nan,2,2,0,0
9368000,9368000,47.39775073273812,8.545607418407984,488.0819,488.08572,0.04104034,1.4254557,1.16273,nan,2,2,0,0
9376000,9376000,47.39775073253676,8.545607418676337,488.08194,488.08575,0.04104034,1.4257425,1.1630785,nan,2,2,0,0
9384000,9384000,47.39775073230803,8.545607418942451,488.08197,488.0858,0.04104034,1.4260335,1.1634324,nan,2,2,0,0
9392000,9392000,47.39775073204795,8.545607419233436,488.08197,488.0858,0.04104034,1.4263285,1.159507,nan,2,2,0,0
9400000,9400000,47.39775073176439,8.545607419562394,488.082,488.08582,0.04104034,1.4266276,1.1598629,nan,2,2,0,0
9408000,9408000,47.397750732739034,8.545607417792088,488.08218,488.08658,0.04104034,1.2957758,1.1189321,nan,2,2,0,0
9416000,9416000,47.397750733690714,8.545607416013926,488.08237,488.08676,0.04104034,1.2959247,1.119123,nan,2,2,0,0
9424000,9424000,47.397750734624246,8.54560741422532,488.08255,488.08694,0.04104034,1.2960764,1.1193174,nan,2,2,0,0
9432000,9432000,47.39775073553594,8.54560741245124,488.08273,488.08713,0.04104034,1.2962313,1.1195157,nan,2,2,0,0
9440000,9440000,47.397750736422864,8.545607410699384,488.08292,488.0873,0.04104034,1.2963891,1.1197176,nan,2,2,0,0
9448000,9448000,47.39775073726987,8.54560740896954,488.08307,488.08746,0.04104034,1.2965498,1.1199234,nan,2,2,0,0
9456000,9456000,47.39775073807564,8.545607407263995,488.0832,488.0876,0.04104034,1.2967136,1.1178174,nan,2,2,0,0
9464000,9464000,47.39775073885382,8.545607405581455,488.0833,488.0877,0.04104034,1.2968802,1.1180267,nan,2,2,0,0
9472000,9472000,47.39775073959975,8.545607403910667,488.08344,488.08783,0.04104034,1.29705,1.1182399,nan,2,2,0,0
9480000,9480000,47.39775074032313,8.54560740225904,488.08353,488.08792,0.04104034,1.2972226,1.1184567,nan,2,2,0,0
9488000,9488000,47.39775074102367,8.545607400621378,488.08365,488.08804,0.04104034,1.2973983,1.1186773,nan,2,2,0,0
9496000,9496000,47.39775074170763,8.545607399018428,488.08374,488.08813,0.04104034,1.297577,1.1189016,nan,2,2,0,0
9504000,9504000,47.39775074235804,8.545607397433573,488.08386,488.08826,0.04104034,1.2977586,1.1191297,nan,2,2,0,0
9512000,9512000,47.39775074296766,8.545607395872402,488.08395,488.08835,0.04104034,1.2979432,1.1170757,nan,2,2,0,0
9520000,9520000,47.397750743552805,8.545607394330064,488.08405,488.08844,0.04104034,1.298131,1.117307,nan,2,2,0,0
9528000,9528000,47.39775074412058,8.54560739280217,488.08414,488.08853,0.04104034,1.2983216,1.117542,nan,2,2,0,0
9536000,9536000,47.39775074466181,8.545607391306277,488.08423,488.08862,0.04104034,1.2985152,1.1177808,nan,2,2,0,0
9544000,9544000,47.39775074516401,8.545607389847142,488.08432,488.0887,0.04104034,1.2987118,1.1180234,nan,2,2,0,0
9552000,9552000,47.39775074564331,8.545607388408918,488.0844,488.0888,0.04104034,1.2989115,1.1182697,nan,2,2,0,0
9560000,9560000,47.39775074610269,8.545607386980556,488.0845,488.0889,0.04104034,1.2991141,1.1185197,nan,2,2,0,0
9568000,9568000,47.39775074653048,8.545607385551445,488.0846,488.089,0.04104034,1.2993197,1.1187735,nan,2,2,0,0
9576000,9576000,47.39775074693091,8.545607384135199,488.0847,488.08908,0.04104034,1.2995284,1.1167579,nan,2,2,0,0
9584000,9584000,47.39775074729708,8.545607382733099,488.0848,488.0892,0.04104034,1.2997401,1.1170144,nan,2,2,0,0
9592000,9592000,47.397750747620755,8.54560738133653,488.0849,488.0893,0.04104034,1.2999548,1.1172746,nan,2,2,0,0
9600000,9600000,47.39775074791202,8.545607379962636,488.08502,488.08942,0.04104034,1.3001726,1.1175387,nan,2,2,0,0
9608000,9608000,47.39775074817926,8.545607378623387,488.0851,488.0895,0.04104034,1.3003932,1.1178064,nan,2,2,0,0
9616000,9616000,47.39775074841017,8.545607377310866,488.0852,488.0896,0.04104034,1.300617,1.1180778,nan,2,2,0,0
9624000,9624000,47.397750748602164,8.545607376012665,488.08527,488.08966,0.04104034,1.3008438,1.118353,nan,2,2,0,0
9632000,9632000,47.39775074875874,8.545607374731212,488.08533,488.08972,0.04104034,1.3010736,1.1163741,nan,2,2,0,0
9640000,9640000,47.39775074888366,8.545607373470752,488.0854,488.08978,0.04104034,1.3013065,1.1166517,nan,2,2,0,0
9648000,9648000,47.39775074898405,8.5456073722348,488.08545,488.08984,0.04104034,1.3015423,1.116933,nan,2,2,0,0
9656000,9656000,47.39775074905353,8.545607371024346,488.0855,488.0899,0.04104034,1.3017812,1.117218,nan,2,2,0,0
9664000,9664000,47.39775074909137,8.545607369853467,488.08554,488.08994,0.04104034,1.3020232,1.1175067,nan,2,2,0,0
9672000,9672000,47.39775074910687,8.545607368716592,488.0856,488.09,0.04104034,1.3022681,1.1177992,nan,2,2,0,0
9680000,9680000,47.397750749104084,8.545607367596556,488.08563,488.09003,0.04104034,1.3025161,1.1180953,nan,2,2,0,0
9688000,9688000,47.3977507490856,8.545607366478547,488.08566,488.09006,0.04104034,1.3027672,1.1183952,nan,2,2,0,0
9696000,9696000,47.39775074903708,8.545607365377208,488.08566,488.09006,0.04104034,1.3030213,1.1164387,nan,2,2,0,0
9704000,9704000,47.397750748952355,8.545607364298542,488.08563,488.09003,0.04104034,1.3032784,1.1167405,nan,2,2,0,0
9712000,9712000,47.39775074884688,8.545607363246095,488.08563,488.09003,0.04104034,1.3035387,1.117046,nan,2,2,0,0
9720000,9720000,47.397750748724285,8.545607362219446,488.0856,488.09,0.04104034,1.303802,1.1173552,nan,2,2,0,0
9728000,9728000,47.3977507485756,8.545607361215659,488.08557,488.08997,0.04104034,1.3040683,1.1176682,nan,2,2,0,0
9736000,9736000,47.3977507484135,8.545607360248063,488.08557,488.08997,0.04104034,1.3043377,1.1179848,nan,2,2,0,0
9744000,9744000,47.3977507482448,8.54560735931023,488.08554,488.08994,0.04104034,1.3046101,1.1183051,nan,2,2,0,0
9752000,9752000,47.39775074805734,8.54560735839308,488.08548,488.08987,0.04104034,1.3048856,1.1163719,nan,2,2,0,0
9760000,9760000,47.39775074786451,8.545607357487617,488.08542,488.0898,0.04104034,1.3051642,1.1166937,nan,2,2,0,0
9768000,9768000,47.397750747653255,8.545607356591123,488.0854,488.08978,0.04104034,1.3054459,1.1170193,nan,2,2,0,0
9776000,9776000,47.39775074741396,8.545607355714168,488.08533,488.08972,0.04104034,1.3057306,1.1173486,nan,2,2,0,0
9784000,9784000,47.397750747159016,8.545607354863828,488.08527,488.08966,0.04104034,1.3060185,1.1176815,nan,2,2,0,0
9792000,9792000,47.39775074688594,8.545607354053107,488.0852,488.0896,0.04104034,1.3063093,1.1180182,nan,2,2,0,0
9800000,9800000,47.39775074658907,8.545607353285142,488.08514,488.08954,0.04104034,1.3066033,1.1183585,nan,2,2,0,0
9808000,9808000,47.397750746204736,8.545607354055988,488.08536,488.08984,0.04104034,1.2321477,1.0933243,nan,2,2,0,0
9816000,9816000,47.39775074579991,8.545607354814836,488.0856,488.0901,0.04104034,1.2323228,1.0921329,nan,2,2,0,0
9824000,9824000,47.39775074538106,8.54560735554,488.08588,488.09036,0.04104034,1.2325003,1.0923486,nan,2,2,0,0
9832000,9832000,47.397750744939536,8.54560735623279,488.08615,488.09064,0.04104034,1.2326802,1.0925671,nan,2,2,0,0
9840000,9840000,47.39775074449024,8.545607356898545,488.0864,488.09088,0.04104034,1.2328625,1.0927885,nan,2,2,0,0
9848000,9848000,47.3977507440299,8.545607357539108,488.08664,488.09113,0.04104034,1.2330471,1.0930127,nan,2,2,0,0
9856000,9856000,47.39775074355267,8.545607358171559,488.08688,488.09137,0.04104034,1.2332343,1.0932397,nan,2,2,0,0
9864000,9864000,47.397750743053386,8.545607358786286,488.08713,488.0916,0.04104034,1.2334238,1.0934695,nan,2,2,0,0
9872000,9872000,47.39775074253484,8.54560735940076,488.08734,488.09183,0.04104034,1.2336158,1.0922898,nan,2,2,0,0
9880000,9880000,47.39775074199391,8.545607360024741,488.08755,488.09204,0.04104034,1.2338102,1.0925219,nan,2,2,0,0
9888000,9888000,47.397750741423806,8.545607360629557,488.08777,488.09225,0.04104034,1.234007,1.0927567,nan,2,2,0,0
9896000,9896000,47.397750740833494,8.545607361201707,488.08795,488.09244,0.04104034,1.2342063,1.0929945,nan,2,2,0,0
9904000,9904000,47.397750740222776,8.54560736175528,488.08817,488.09265,0.04104034,1.2344079,1.0932349,nan,2,2,0,0
9912000,9912000,47.397750739588716,8.54560736230587,488.08835,488.09283,0.04104034,1.2346121,1.0934782,nan,2,2,0,0
9920000,9920000,47.39775073893081,8.545607362862683,488.08853,488.09302,0.04104034,1.2348187,1.0937244,nan,2,2,0,0
9928000,9928000,47.3977507382586,8.545607363430923,488.0887,488.0932,0.04104034,1.2350277,1.0939733,nan,2,2,0,0
9936000,9936000,47.39775073757312,8.54560736398984,488.08884,488.09332,0.04104034,1.2352391,1.0927972,nan,2,2,0,0
9944000,9944000,47.39775073687553,8.545607364543349,488.08896,488.09344,0.04104034,1.2354531,1.0930481,nan,2,2,0,0
9952000,9952000,47.39775073617389,8.54560736509613,488.08908,488.09357,0.04104034,1.2356695,1.0933018,nan,2,2,0,0
9960000,9960000,47.397750735462196,8.545607365647301,488.0892,488.0937,0.04104034,1.2358884,1.0935582,nan,2,2,0,0
9968000,9968000,47.397750734733414,8.545607366182304,488.08932,488.0938,0.04104034,1.2361097,1.0938175,nan,2,2,0,0
9976000,9976000,47.397750733982164,8.545607366710636,488.08945,488.09393,0.04104034,1.2363336,1.0940796,nan,2,2,0,0
9984000,9984000,47.3977507332031,8.545607367228065,488.08954,488.09402,0.04104034,1.2365599,1.0943445,nan,2,2,0,0
9992000,9992000,47.39775073240584,8.545607367734382,488.0897,488.09418,0.04104034,1.2367887,1.0931728,nan,2,2,0,0
10000000,10000000,47.39775073158104,8.545607368231451,488.0898,488.0943,0.04104034,1.2370199,1.0934393,nan,2,2,0,0
10008000,10008000,47.39775073073102,8.545607368735986,488.08994,488.09442,0.04104034,1.2372537,1.0937088,nan,2,2,0,0
10016000,10016000,47.397750729864214,8.54560736924012,488.09006,488.09454,0.04104034,1.23749,1.0939809,nan,2,2,0,0
10024000,10024000,47.3977507289699,8.545607369734189,488.09018,488.09467,0.04104034,1.2377288,1.0942559,nan,2,2,0,0
10032000,10032000,47.397750728059286,8.545607370228337,488.0903,488.0948,0.04104034,1.2379701,1.0945337,nan,2,2,0,0
10040000,10040000,47.39775072714881,8.545607370735693,488.09042,488.0949,0.04104034,1.2382139,1.0948142,nan,2,2,0,0
10048000,10048000,47.3977507262257,8.545607371241827,488.0905,488.095,0.04104034,1.2384602,1.0950977,nan,2,2,0,0
10056000,10056000,47.39775072528808,8.545607371729226,488.0906,488.0951,0.04104034,1.238709,1.0939211,nan,2,2,0,0
10064000,10064000,47.39775072432853,8.545607372227623,488.0907,488.09518,0.04104034,1.2389604,1.0942059,nan,2,2,0,0
10072000,10072000,47.39775072335823,8.545607372736459,488.09082,488.0953,0.04104034,1.2392142,1.0944934,nan,2,2,0,0
10080000,10080000,47.397750722385176,8.545607373235063,488.0909,488.0954,0.04104034,1.2394706,1.0947837,nan,2,2,0,0
10088000,10088000,47.39775072140438,8.54560737373322,488.091,488.0955,0.04104034,1.2397295,1.0950768,nan,2,2,0,0
10096000,10096000,47.3977507204179,8.545607374233445,488.09106,488.09555,0.04104034,1.2399911,1.0953727,nan,2,2,0,0
10104000,10104000,47.39775071943522,8.545607374741618,488.09116,488.09564,0.04104034,1.2402551,1.0956714,nan,2,2,0,0
10112000,10112000,47.397750718453445,8.545607375255086,488.09122,488.0957,0.04104034,1.2405218,1.0944922,nan,2,2,0,0
10120000,10120000,47.397750717474054,8.545607375758653,488.0913,488.0958,0.04104034,1.2407908,1.094792,nan,2,2,0,0
10128000,10128000,47.3977507164879,8.54560737623758,488.09137,488.09586,0.04104034,1.2410626,1.0950946,nan,2,2,0,0
10136000,10136000,47.3977507154885,8.545607376692056,488.09143,488.09592,0.04104034,1.241337,1.0954,nan,2,2,0,0
10144000,10144000,47.397750714482925,8.545607377138195,488.09152,488.096,0.04104034,1.2416137,1.0957081,nan,2,2,0,0
10152000,10152000,47.39775071347392,8.545607377593232,488.09158,488.09607,0.04104034,1.2418932,1.096019,nan,2,2,0,0
10160000,10160000,47.397750712463726,8.54560737803446,488.09164,488.09613,0.04104034,1.2421752,1.0963328,nan,2,2,0,0
10168000,10168000,47.39775071145132,8.545607378459355,488.0917,488.0962,0.04104034,1.2424599,1.0966493,nan,2,2,0,0
10176000,10176000,47.39775071043109,8.545607378893646,488.09167,488.09616,0.04104034,1.2427471,1.0954573,nan,2,2,0,0
10184000,10184000,47.397750709404285,8.545607379341536,488.09164,488.09613,0.04104034,1.243037,1.0957747,nan,2,2,0,0
10192000,10192000,47.397750708373756,8.545607379792076,488.0916,488.0961,0.04104034,1.2433294,1.0960946,nan,2,2,0,0
10200000,10200000,47.39775070733745,8.545607380233259,488.09158,488.09607,0.04104034,1.2436244,1.0964174,nan,2,2,0,0
10208000,10208000,47.39775070905225,8.54560738207921,488.0916,488.09592,0.04104034,1.1934621,1.0784605,nan,2,2,0,0
10216000,10216000,47.397750710718796,8.54560738388439,488.0916,488.09592,0.04104034,1.1936551,1.0786858,nan,2,2,0,0
10224000,10224000,47.39775071233551,8.545607385648763,488.09164,488.09595,0.04104034,1.1938504,1.0789132,nan,2,2,0,0
10232000,10232000,47.39775071391368,8.545607387380041,488.0917,488.096,0.04104034,1.1940476,1.0781342,nan,2,2,0,0
10240000,10240000,47.39775071544731,8.545607389081782,488.09174,488.09604,0.04104034,1.1942469,1.0783633,nan,2,2,0,0
10248000,10248000,47.39775071693876,8.545607390760585,488.09177,488.09607,0.04104034,1.1944485,1.0785947,nan,2,2,0,0
10256000,10256000,47.39775071839119,8.545607392404188,488.09183,488.09613,0.04104034,1.194652,1.0788283,nan,2,2,0,0
10264000,10264000,47.39775071980247,8.545607394000418,488.09186,488.09616,0.04104034,1.1948577,1.0790641,nan,2,2,0,0
10272000,10272000,47.39775072117067,8.545607395576717,488.0919,488.0962,0.04104034,1.1950656,1.0793022,nan,2,2,0,0
10280000,10280000,47.397750722505236,8.545607397147421,488.09192,488.09622,0.04104034,1.1952755,1.0795424,nan,2,2,0,0
10288000,10288000,47.397750723808144,8.545607398720446,488.09195,488.09625,0.04104034,1.1954877,1.079785,nan,2,2,0,0
10296000,10296000,47.397750725079405,8.54560740028343,488.09192,488.09622,0.04104034,1.195702,1.0789983,nan,2,2,0,0
10304000,10304000,47.39775072631578,8.545607401841284,488.09192,488.09622,0.04104034,1.1959184,1.0792423,nan,2,2,0,0
10312000,10312000,47.39775072752022,8.54560740340698,488.09192,488.09622,0.04104034,1.1961371,1.0794885,nan,2,2,0,0
10320000,10320000,47.397750728692145,8.545607404954644,488.0919,488.0962,0.04104034,1.1963578,1.0797368,nan,2,2,0,0
10328000,10328000,47.39775072982818,8.545607406481258,488.0919,488.0962,0.04104034,1.1965808,1.0799874,nan,2,2,0,0
10336000,10336000,47.39775073092658,8.545607407974968,488.09186,488.09616,0.04104034,1.1968058,1.0802402,nan,2,2,0,0
10344000,10344000,47.397750731986186,8.54560740944261,488.09186,488.09616,0.04104034,1.1970332,1.0804954,nan,2,2,0,0
10352000,10352000,47.3977507330149,8.545607410890256,488.09186,488.09616,0.04104034,1.1972628,1.0797027,nan,2,2,0,0
10360000,10360000,47.39775073401303,8.545607412301473,488.09186,488.09616,0.04104034,1.1974944,1.079959,nan,2,2,0,0
10368000,10368000,47.39775073497044,8.545607413676711,488.09186,488.09616,0.04104034,1.1977283,1.0802176,nan,2,2,0,0
10376000,10376000,47.39775073589453,8.545607415035924,488.09183,488.09613,0.04104034,1.1979644,1.0804783,nan,2,2,0,0
10384000,10384000,47.397750736790265,8.545607416397216,488.09183,488.09613,0.04104034,1.1982028,1.0807413,nan,2,2,0,0
10392000,10392000,47.397750737659635,8.545607417755265,488.09183,488.09613,0.04104034,1.1984434,1.0810064,nan,2,2,0,0
10400000,10400000,47.397750738499035,8.545607419087442,488.0918,488.0961,0.04104034,1.1986862,1.0812738,nan,2,2,0,0
10408000,10408000,47.397750739302694,8.545607420398165,488.0918,488.0961,0.04104034,1.1989312,1.0815434,nan,2,2,0,0
10416000,10416000,47.39775074008437,8.545607421693976,488.09177,488.09607,0.04104034,1.1991786,1.0807378,nan,2,2,0,0
10424000,10424000,47.39775074083982,8.545607422973927,488.09174,488.09604,0.04104034,1.1994281,1.0810084,nan,2,2,0,0
10432000,10432000,47.39775074156789,8.545607424216273,488.0917,488.096,0.04104034,1.1996799,1.0812813,nan,2,2,0,0
10440000,10440000,47.39775074227278,8.545607425419952,488.09167,488.09598,0.04104034,1.199934,1.0815563,nan,2,2,0,0
10448000,10448000,47.397750742937234,8.545607426601844,488.0916,488.09592,0.04104034,1.2001903,1.0818337,nan,2,2,0,0
10456000,10456000,47.39775074357147,8.545607427749287,488.09158,488.0959,0.04104034,1.200449,1.0821131,nan,2,2,0,0
10464000,10464000,47.39775074417945,8.54560742886044,488.09155,488.09586,0.04104034,1.2007099,1.082395,nan,2,2,0,0
10472000,10472000,47.39775074474835,8.545607429965008,488.0915,488.0958,0.04104034,1.2009732,1.0815787,nan,2,2,0,0
10480000,10480000,47.397750745287716,8.545607431051488,488.09146,488.09576,0.04104034,1.2012388,1.0818613,nan,2,2,0,0
10488000,10488000,47.39775074579784,8.545607432126497,488.0914,488.0957,0.04104034,1.2015066,1.0821459,nan,2,2,0,0
10496000,10496000,47.397750746282995,8.545607433212085,488.09137,488.09567,0.04104034,1.2017767,1.0824329,nan,2,2,0,0
10504000,10504000,47.39775074674482,8.545607434312883,488.0913,488.0956,0.04104034,1.2020493,1.0827221,nan,2,2,0,0
10512000,10512000,47.397750747182435,8.54560743540118,488.09128,488.09558,0.04104034,1.2023242,1.0830134,nan,2,2,0,0
10520000,10520000,47.39775074759341,8.545607436480273,488.09122,488.09552,0.04104034,1.2026013,1.083307,nan,2,2,0,0
10528000,10528000,47.39775074797134,8.54560743754995,488.0912,488.0955,0.04104034,1.2028809,1.0836029,nan,2,2,0,0
10536000,10536000,47.39775074832702,8.545607438595239,488.0912,488.0955,0.04104034,1.2031628,1.0827683,nan,2,2,0,0
10544000,10544000,47.3977507486697,8.545607439631013,488.0912,488.0955,0.04104034,1.2034471,1.0830646,nan,2,2,0,0
10552000,10552000,47.39775074899966,8.545607440670436,488.0912,488.0955,0.04104034,1.2037337,1.0833632,nan,2,2,0,0
10560000,10560000,47.39775074931501,8.54560744169923,488.09116,488.09546,0.04104034,1.2040228,1.083664,nan,2,2,0,0
10568000,10568000,47.39775074960946,8.545607442737555,488.09116,488.09546,0.04104034,1.2043142,1.083967,nan,2,2,0,0
10576000,10576000,47.397750749868436,8.545607443777843,488.09116,488.09546,0.04104034,1.2046081,1.0842721,nan,2,2,0,0
10584000,10584000,47.39775075009611,8.545607444816389,488.09116,488.09546,0.04104034,1.2049043,1.0845796,nan,2,2,0,0
10592000,10592000,47.397750750293625,8.545607445849873,488.09116,488.09546,0.04104034,1.205203,1.08373,nan,2,2,0,0
10600000,10600000,47.397750750464986,8.545607446876096,488.09113,488.09543,0.04104034,1.2055041,1.0840377,nan,2,2,0,0
10608000,10608000,47.39775075132811,8.54560744713919,488.0911,488.0954,0.04104034,1.1679153,1.0696511,nan,2,2,0,0
10616000,10616000,47.397750752152334,8.545607447404759,488.09106,488.09537,0.04104034,1.168123,1.0698788,nan,2,2,0,0
10624000,10624000,47.397750752958686,8.545607447682602,488.09103,488.09534,0.04104034,1.1683327,1.0701083,nan,2,2,0,0
10632000,10632000,47.39775075374014,8.545607447992927,488.09097,488.09528,0.04104034,1.1685443,1.0703397,nan,2,2,0,0
10640000,10640000,47.3977507544868,8.545607448332502,488.09094,488.09525,0.04104034,1.1687579,1.0705729,nan,2,2,0,0
10648000,10648000,47.39775075520087,8.54560744868539,488.09088,488.09518,0.04104034,1.1689734,1.0708078,nan,2,2,0,0
10656000,10656000,47.39775075587997,8.54560744906071,488.0908,488.0951,0.04104034,1.169191,1.0702313,nan,2,2,0,0
10664000,10664000,47.39775075654025,8.545607449439027,488.09067,488.09497,0.04104034,1.1694106,1.0704675,nan,2,2,0,0
10672000,10672000,47.3977507571967,8.545607449824779,488.09055,488.09485,0.04104034,1.1696322,1.0707053,nan,2,2,0,0
10680000,10680000,47.39775075784314,8.545607450226578,488.09042,488.09473,0.04104034,1.1698557,1.070945,nan,2,2,0,0
10688000,10688000,47.39775075848072,8.545607450659757,488.09033,488.09464,0.04104034,1.1700814,1.0711865,nan,2,2,0,0
10696000,10696000,47.3977507591061,8.545607451100397,488.0902,488.0945,0.04104034,1.1703091,1.07143,nan,2,2,0,0
10704000,10704000,47.3977507597036,8.545607451545205,488.0901,488.0944,0.04104034,1.1705388,1.0716752,nan,2,2,0,0
10712000,10712000,47.397750760264636,8.545607452013252,488.08997,488.09427,0.04104034,1.1707706,1.0710889,nan,2,2,0,0
10720000,10720000,47.39775076079913,8.545607452483626,488.0898,488.09412,0.04104034,1.1710044,1.0713351,nan,2,2,0,0
10728000,10728000,47.397750761318875,8.545607452950385,488.0897,488.094,0.04104034,1.1712403,1.071583,nan,2,2,0,0
10736000,10736000,47.397750761832874,8.545607453439418,488.08957,488.09387,0.04104034,1.1714784,1.0718329,nan,2,2,0,0
10744000,10744000,47.397750762348004,8.545607453938164,488.08945,488.09375,0.04104034,1.1717185,1.0720844,nan,2,2,0,0
10752000,10752000,47.39775076284897,8.545607454443788,488.0893,488.0936,0.04104034,1.1719606,1.072338,nan,2,2,0,0
10760000,10760000,47.39775076331859,8.545607454971934,488.08917,488.09348,0.04104034,1.172205,1.0725932,nan,2,2,0,0
10768000,10768000,47.397750763766034,8.545607455509135,488.08902,488.09332,0.04104034,1.1724514,1.0728505,nan,2,2,0,0
10776000,10776000,47.397750764184984,8.545607456042971,488.0889,488.0932,0.04104034,1.1726999,1.0722485,nan,2,2,0,0
10784000,10784000,47.39775076458123,8.545607456579615,488.08875,488.09305,0.04104034,1.1729506,1.0725063,nan,2,2,0,0
10792000,10792000,47.39775076495387,8.545607457119848,488.0886,488.0929,0.04104034,1.1732035,1.0727661,nan,2,2,0,0
10800000,10800000,47.39775076529989,8.54560745767055,488.08847,488.09277,0.04104034,1.1734585,1.0730276,nan,2,2,0,0
10808000,10808000,47.39775076562113,8.545607458234318,488.08832,488.09262,0.04104034,1.1737157,1.073291,nan,2,2,0,0
10816000,10816000,47.397750765937516,8.54560745881229,488.08817,488.09247,0.04104034,1.173975,1.0735562,nan,2,2,0,0
10824000,10824000,47.39775076623867,8.54560745941059,488.08804,488.09235,0.04104034,1.1742365,1.0738232,nan,2,2,0,0
10832000,10832000,47.39775076651572,8.545607460014361,488.08792,488.09222,0.04104034,1.1745002,1.073208,nan,2,2,0,0
10840000,10840000,47.39775076676383,8.545607460606538,488.08777,488.09207,0.04104034,1.1747662,1.0734756,nan,2,2,0,0
10848000,10848000,47.39775076697919,8.545607461194443,488.08765,488.09195,0.04104034,1.1750344,1.0737451,nan,2,2,0,0
10856000,10856000,47.397750767180504,8.545607461770475,488.08752,488.09183,0.04104034,1.1753048,1.0740163,nan,2,2,0,0
10864000,10864000,47.39775076738524,8.545607462341863,488.0874,488.0917,0.04104034,1.1755774,1.0742894,nan,2,2,0,0
10872000,10872000,47.39775076756061,8.54560746291897,488.08725,488.09155,0.04104034,1.1758523,1.0745645,nan,2,2,0,0
10880000,10880000,47.39775076770728,8.545607463497634,488.08713,488.09143,0.04104034,1.1761295,1.0748413,nan,2,2,0,0
10888000,10888000,47.39775076784324,8.545607464083771,488.08698,488.09128,0.04104034,1.1764089,1.0751199,nan,2,2,0,0
10896000,10896000,47.39775076797866,8.545607464671109,488.08685,488.09116,0.04104034,1.1766906,1.074485,nan,2,2,0,0
10904000,10904000,47.39775076810888,8.54560746525669,488.0867,488.091,0.04104034,1.1769745,1.074764,nan,2,2,0,0
10912000,10912000,47.397750768231376,8.54560746582771,488.08655,488.09085,0.04104034,1.1772608,1.0750449,nan,2,2,0,0
10920000,10920000,47.397750768347514,8.545607466397662,488.0864,488.0907,0.04104034,1.1775494,1.0753275,nan,2,2,0,0
10928000,10928000,47.39775076844722,8.545607466974076,488.08624,488.09055,0.04104034,1.1778404,1.075612,nan,2,2,0,0
10936000,10936000,47.39775076853294,8.5456074675459,488.0861,488.0904,0.04104034,1.1781336,1.0758983,nan,2,2,0,0
10944000,10944000,47.39775076859884,8.545607468114083,488.08594,488.09024,0.04104034,1.1784291,1.0761865,nan,2,2,0,0
10952000,10952000,47.39775076865504,8.545607468672666,488.08582,488.09012,0.04104034,1.1787271,1.075535,nan,2,2,0,0
10960000,10960000,47.39775076871111,8.545607469219432,488.0857,488.09,0.04104034,1.1790274,1.0758234,nan,2,2,0,0
10968000,10968000,47.39775076876094,8.545607469767114,488.08557,488.08987,0.04104034,1.1793301,1.0761137,nan,2,2,0,0
10976000,10976000,47.397750768794964,8.545607470315451,488.08545,488.08975,0.04104034,1.1796353,1.0764056,nan,2,2,0,0
10984000,10984000,47.39775076881711,8.54560747085524,488.08533,488.08963,0.04104034,1.1799427,1.0766996,nan,2,2,0,0
10992000,10992000,47.39775076884504,8.545607471394185,488.0852,488.0895,0.04104034,1.1802527,1.0769953,nan,2,2,0,0
11000000,11000000,47.39775076885547,8.545607471953957,488.08508,488.0894,0.04104034,1.180565,1.0772928,nan,2,2,0,0
11008000,11008000,47.39775076998133,8.545607469850125,488.08502,488.08963,0.04104034,1.1501639,1.0647134,nan,2,2,0,0
11016000,11016000,47.39775077107799,8.5456074677754,488.08493,488.08954,0.04104034,1.1503855,1.0642618,nan,2,2,0,0
11024000,11024000,47.39775077215779,8.54560746571479,488.0848,488.08942,0.04104034,1.1506091,1.0644894,nan,2,2,0,0
11032000,11032000,47.397750773214206,8.545607463672345,488.0847,488.0893,0.04104034,1.1508347,1.0647186,nan,2,2,0,0
11040000,11040000,47.39775077424068,8.545607461656887,488.08456,488.08917,0.04104034,1.1510623,1.0649493,nan,2,2,0,0
11048000,11048000,47.397750775238265,8.545607459683584,488.08444,488.08905,0.04104034,1.1512917,1.0651816,nan,2,2,0,0
11056000,11056000,47.39775077621598,8.545607457737352,488.08432,488.08893,0.04104034,1.1515234,1.0654154,nan,2,2,0,0
11064000,11064000,47.39775077717213,8.545607455828517,488.08423,488.08884,0.04104034,1.1517569,1.0656508,nan,2,2,0,0
11072000,11072000,47.39775077810673,8.545607453960164,488.08408,488.08868,0.04104034,1.1519924,1.065188,nan,2,2,0,0
11080000,11080000,47.39775077901395,8.545607452111447,488.08395,488.08856,0.04104034,1.1522299,1.0654242,nan,2,2,0,0
11088000,11088000,47.39775077989507,8.545607450292813,488.08383,488.08844,0.04104034,1.1524695,1.0656618,nan,2,2,0,0
11096000,11096000,47.3977507807566,8.54560744851361,488.0837,488.08832,0.04104034,1.1527113,1.0659009,nan,2,2,0,0
11104000,11104000,47.39775078160351,8.545607446804812,488.0836,488.0882,0.04104034,1.1529549,1.0661417,nan,2,2,0,0
11112000,11112000,47.39775078241267,8.545607445165974,488.08347,488.08807,0.04104034,1.1532009,1.066384,nan,2,2,0,0
11120000,11120000,47.39775078318761,8.545607443587926,488.0833,488.08792,0.04104034,1.1534487,1.0666279,nan,2,2,0,0
11128000,11128000,47.39775078394437,8.5456074420771,488.0832,488.0878,0.04104034,1.1536988,1.0668733,nan,2,2,0,0
11136000,11136000,47.39775078468114,8.545607440613988,488.08316,488.08777,0.04104034,1.1539508,1.0663944,nan,2,2,0,0
11144000,11144000,47.39775078540194,8.545607439182145,488.08313,488.08774,0.04104034,1.1542052,1.0666404,nan,2,2,0,0
11152000,11152000,47.397750786101554,8.545607437761312,488.0831,488.0877,0.04104034,1.1544615,1.0668879,nan,2,2,0,0
11160000,11160000,47.39775078677633,8.545607436340875,488.08304,488.08765,0.04104034,1.1547201,1.0671369,nan,2,2,0,0
11168000,11168000,47.397750787435264,8.545607434938033,488.083,488.08762,0.04104034,1.1549808,1.0673876,nan,2,2,0,0
11176000,11176000,47.39775078807425,8.545607433557551,488.08298,488.0876,0.04104034,1.1552436,1.0676397,nan,2,2,0,0
11184000,11184000,47.39775078870159,8.545607432191977,488.08292,488.08752,0.04104034,1.1555086,1.0678935,nan,2,2,0,0
11192000,11192000,47.39775078931376,8.545607430827468,488.08286,488.08746,0.04104034,1.1557759,1.0674007,nan,2,2,0,0
11200000,11200000,47.397750789918554,8.545607429472055,488.08276,488.08737,0.04104034,1.1560453,1.0676548,nan,2,2,0,0
11208000,11208000,47.39775079050809,8.545607428145358,488.0827,488.0873,0.04104034,1.156317,1.0679106,nan,2,2,0,0
11216000,11216000,47.39775079107395,8.54560742684691,488.0826,488.08722,0.04104034,1.1565909,1.0681679,nan,2,2,0,0
11224000,11224000,47.39775079162288,8.545607425576463,488.08252,488.08713,0.04104034,1.1568671,1.0684267,nan,2,2,0,0
11232000,11232000,47.39775079216094,8.54560742434685,488.08246,488.08707,0.04104034,1.1571455,1.0686872,nan,2,2,0,0
11240000,11240000,47.397750792696385,8.54560742314364,488.08237,488.08698,0.04104034,1.1574262,1.0689491,nan,2,2,0,0
11248000,11248000,47.39775079322244,8.545607421966933,488.08228,488.08688,0.04104034,1.1577091,1.0692127,nan,2,2,0,0
11256000,11256000,47.397750793733124,8.545607420801845,488.08215,488.08676,0.04104034,1.1579944,1.0687003,nan,2,2,0,0
11264000,11264000,47.397750794225686,8.545607419661925,488.082,488.0866,0.04104034,1.1582819,1.0689642,nan,2,2,0,0
11272000,11272000,47.39775079471542,8.54560741854945,488.08188,488.0865,0.04104034,1.158572,1.0692296,nan,2,2,0,0
11280000,11280000,47.3977507951969,8.545607417464614,488.08176,488.08636,0.04104034,1.1588641,1.0694965,nan,2,2,0,0
11288000,11288000,47.39775079566764,8.545607416407423,488.0816,488.0862,0.04104034,1.1591587,1.0697651,nan,2,2,0,0
11296000,11296000,47.39775079611588,8.545607415365994,488.08148,488.0861,0.04104034,1.1594557,1.0700351,nan,2,2,0,0
11304000,11304000,47.39775079654879,8.545607414336592,488.08133,488.08594,0.04104034,1.159755,1.0703068,nan,2,2,0,0
11312000,11312000,47.39775079698405,8.545607413333881,488.0812,488.08582,0.04104034,1.1600568,1.0697778,nan,2,2,0,0
11320000,11320000,47.397750797419505,8.545607412344928,488.08105,488.08566,0.04104034,1.1603609,1.0700496,nan,2,2,0,0
11328000,11328000,47.39775079785386,8.545607411365925,488.08093,488.08554,0.04104034,1.1606675,1.070323,nan,2,2,0,0
11336000,11336000,47.3977507982882,8.545607410400455,488.0808,488.08542,0.04104034,1.1609765,1.0705979,nan,2,2,0,0
11344000,11344000,47.3977507987156,8.545607409431845,488.08066,488.08527,0.04104034,1.161288,1.0708743,nan,2,2,0,0
11352000,11352000,47.39775079912951,8.545607408458604,488.08054,488.08514,0.04104034,1.1616019,1.0711523,nan,2,2,0,0
11360000,11360000,47.39775079954382,8.545607407499187,488.08038,488.085,0.04104034,1.1619183,1.071432,nan,2,2,0,0
11368000,11368000,47.39775079995639,8.545607406581233,488.08023,488.08484,0.04104034,1.1622372,1.0717132,nan,2,2,0,0
11376000,11376000,47.397750800347,8.545607405718773,488.08008,488.0847,0.04104034,1.1625586,1.0711615,nan,2,2,0,0
11384000,11384000,47.39775080071985,8.5456074048882,488.07993,488.08453,0.04104034,1.1628826,1.0714427,nan,2,2,0,0
11392000,11392000,47.39775080107758,8.545607404093236,488.07977,488.08438,0.04104034,1.163209,1.0717254,nan,2,2,0,0
11400000,11400000,47.39775080141004,8.545607403338474,488.07962,488.08423,0.04104034,1.163538,1.0720097,nan,2,2,0,0
11408000,11408000,47.39775080244881,8.54560740268344,488.0796,488.08536,0.04104034,1.1374383,1.06085,nan,2,2,0,0
11416000,11416000,47.397750803471126,8.545607402024602,488.07956,488.08533,0.04104034,1.1376748,1.0610743,nan,2,2,0,0
11424000,11424000,47.39775080448666,8.545607401377989,488.07953,488.0853,0.04104034,1.1379133,1.0613,nan,2,2,0,0
11432000,11432000,47.397750805499165,8.545607400746807,488.07947,488.08524,0.04104034,1.1381539,1.0609168,nan,2,2,0,0
11440000,11440000,47.39775080649132,8.545607400125089,488.0794,488.08517,0.04104034,1.1383966,1.0611429,nan,2,2,0,0
11448000,11448000,47.39775080746804,8.545607399520192,488.07935,488.0851,0.04104034,1.1386414,1.0613705,nan,2,2,0,0
11456000,11456000,47.39775080843478,8.545607398933608,488.07925,488.08502,0.04104034,1.1388881,1.0615994,nan,2,2,0,0
11464000,11464000,47.397750809379474,8.545607398351912,488.0792,488.08496,0.04104034,1.139137,1.0618297,nan,2,2,0,0
11472000,11472000,47.39775081029703,8.545607397794488,488.0791,488.08487,0.04104034,1.1393881,1.0620612,nan,2,2,0,0
11480000,11480000,47.39775081119496,8.545607397261826,488.079,488.08478,0.04104034,1.1396412,1.0622942,nan,2,2,0,0
11488000,11488000,47.3977508120753,8.545607396749853,488.07892,488.0847,0.04104034,1.1398965,1.0625285,nan,2,2,0,0
11496000,11496000,47.39775081293123,8.54560739625005,488.07883,488.0846,0.04104034,1.140154,1.0621294,nan,2,2,0,0
11504000,11504000,47.39775081378107,8.54560739577891,488.07874,488.0845,0.04104034,1.1404136,1.0623641,nan,2,2,0,0
11512000,11512000,47.39775081462789,8.5456073953275,488.0786,488.08438,0.04104034,1.1406754,1.0626001,nan,2,2,0,0
11520000,11520000,47.39775081546797,8.545607394875198,488.07852,488.0843,0.04104034,1.1409395,1.0628376,nan,2,2,0,0
11528000,11528000,47.39775081630047,8.545607394422635,488.0784,488.08417,0.04104034,1.1412057,1.0630764,nan,2,2,0,0
11536000,11536000,47.3977508171267,8.545607393976317,488.07828,488.08405,0.04104034,1.1414741,1.0633166,nan,2,2,0,0
11544000,11544000,47.3977508179517,8.545607393541244,488.07816,488.08392,0.04104034,1.1417449,1.0635581,nan,2,2,0,0
11552000,11552000,47.397750818776345,8.545607393102095,488.07803,488.0838,0.04104034,1.1420177,1.0631452,nan,2,2,0,0
11560000,11560000,47.39775081958554,8.545607392672022,488.0779,488.08368,0.04104034,1.142293,1.0633869,nan,2,2,0,0
11568000,11568000,47.39775082038069,8.545607392246644,488.0778,488.08356,0.04104034,1.1425705,1.0636302,nan,2,2,0,0
11576000,11576000,47.39775082117701,8.54560739181797,488.07767,488.08344,0.04104034,1.1428503,1.0638747,nan,2,2,0,0
11584000,11584000,47.39775082197013,8.545607391381957,488.07755,488.0833,0.04104034,1.1431324,1.0641207,nan,2,2,0,0
11592000,11592000,47.39775082274879,8.545607390953196,488.0774,488.08316,0.04104034,1.1434169,1.064368,nan,2,2,0,0
11600000,11600000,47.39775082350926,8.54560739053627,488.07727,488.08304,0.04104034,1.1437037,1.0646166,nan,2,2,0,0
11608000,11608000,47.39775082424655,8.54560739010989,488.07712,488.0829,0.04104034,1.1439928,1.0641888,nan,2,2,0,0
11616000,11616000,47.39775082496945,8.545607389666898,488.077,488.08276,0.04104034,1.1442844,1.0644376,nan,2,2,0,0
11624000,11624000,47.3977508256778,8.545607389228758,488.07684,488.0826,0.04104034,1.1445782,1.064688,nan,2,2,0,0
11632000,11632000,47.39775082636491,8.545607388801006,488.07672,488.0825,0.04104034,1.1448746,1.0649395,nan,2,2,0,0
11640000,11640000,47.39775082703608,8.545607388390884,488.07657,488.08234,0.04104034,1.1451733,1.0651925,nan,2,2,0,0
11648000,11648000,47.39775082769514,8.545607387996645,488.07642,488.08218,0.04104034,1.1454746,1.0654469,nan,2,2,0,0
11656000,11656000,47.397750828342296,8.545607387619413,488.07626,488.08203,0.04104034,1.1457782,1.0657026,nan,2,2,0,0
11664000,11664000,47.39775082897927,8.545607387243058,488.0761,488.08188,0.04104034,1.1460843,1.065259,nan,2,2,0,0
11672000,11672000,47.397750829601605,8.545607386853376,488.076,488.08176,0.04104034,1.146393,1.0655148,nan,2,2,0,0
11680000,11680000,47.39775083019998,8.545607386451428,488.07584,488.0816,0.04104034,1.1467041,1.0657719,nan,2,2,0,0
11688000,11688000,47.39775083078259,8.545607386033376,488.07568,488.08145,0.04104034,1.1470177,1.0660305,nan,2,2,0,0
11696000,11696000,47.39775083135144,8.545607385623304,488.07553,488.0813,0.04104034,1.1473339,1.0662904,nan,2,2,0,0
11704000,11704000,47.39775083191416,8.545607385216517,488.07538,488.08115,0.04104034,1.1476526,1.0665517,nan,2,2,0,0
11712000,11712000,47.39775083246765,8.545607384804827,488.07523,488.081,0.04104034,1.1479739,1.0668144,nan,2,2,0,0
11720000,11720000,47.39775083301915,8.545607384397291,488.07507,488.08084,0.04104034,1.1482978,1.066354,nan,2,2,0,0
11728000,11728000,47.39775083356906,8.545607383982512,488.07492,488.0807,0.04104034,1.1486243,1.0666167,nan,2,2,0,0
11736000,11736000,47.39775083411898,8.545607383572744,488.07477,488.08054,0.04104034,1.1489534,1.0668807,nan,2,2,0,0
11744000,11744000,47.39775083465897,8.545607383167187,488.0746,488.08035,0.04104034,1.1492852,1.0671462,nan,2,2,0,0
11752000,11752000,47.397750835186514,8.5456073827518,488.07443,488.0802,0.04104034,1.1496195,1.067413,nan,2,2,0,0
11760000,11760000,47.39775083569727,8.54560738233415,488.07428,488.08005,0.04104034,1.1499566,1.0676812,nan,2,2,0,0
11768000,11768000,47.3977508361997,8.545607381939119,488.0741,488.07986,0.04104034,1.1502963,1.0672073,nan,2,2,0,0
11776000,11776000,47.39775083668765,8.545607381569633,488.07394,488.0797,0.04104034,1.1506388,1.0674754,nan,2,2,0,0
11784000,11784000,47.39775083717007,8.545607381207619,488.07376,488.07953,0.04104034,1.150984,1.067745,nan,2,2,0,0
11792000,11792000,47.397750837643024,8.545607380844881,488.0736,488.07938,0.04104034,1.1513319,1.0680158,nan,2,2,0,0
11800000,11800000,47.397750838102134,8.545607380493596,488.07343,488.0792,0.04104034,1.1516826,1.068288,nan,2,2,0,0
11808000,11808000,47.39775083783209,8.545607380361838,488.07352,488.08054,0.04104034,1.1281567,1.0581243,nan,2,2,0,0
11816000,11816000,47.39775083757217,8.545607380236032,488.0736,488.08063,0.04104034,1.1284095,1.0583434,nan,2,2,0,0
11824000,11824000,47.397750837323805,8.545607380109372,488.07367,488.0807,0.04104034,1.1286645,1.0585638,nan,2,2,0,0
11832000,11832000,47.397750837093135,8.545607379957735,488.07376,488.08078,0.04104034,1.1289216,1.0582284,nan,2,2,0,0
11840000,11840000,47.39775083687709,8.545607379780655,488.07385,488.08087,0.04104034,1.129181,1.058449,nan,2,2,0,0
11848000,11848000,47.39775083667474,8.54560737958367,488.0739,488.08093,0.04104034,1.1294427,1.058671,nan,2,2,0,0
11856000,11856000,47.39775083647578,8.54560737939726,488.07397,488.081,0.04104034,1.1297065,1.058894,nan,2,2,0,0
11864000,11864000,47.397750836266674,8.545607379204192,488.07407,488.0811,0.04104034,1.1299726,1.0591184,nan,2,2,0,0
11872000,11872000,47.3977508360434,8.545607379001355,488.0741,488.08112,0.04104034,1.1302409,1.0593439,nan,2,2,0,0
11880000,11880000,47.3977508358096,8.545607378803604,488.07416,488.08118,0.04104034,1.1305115,1.0595707,nan,2,2,0,0
11888000,11888000,47.397750835569845,8.545607378598238,488.07422,488.08124,0.04104034,1.1307845,1.0592223,nan,2,2,0,0
11896000,11896000,47.39775083533008,8.545607378379861,488.07425,488.08127,0.04104034,1.1310596,1.0594494,nan,2,2,0,0
11904000,11904000,47.397750835081816,8.545607378162863,488.07428,488.0813,0.04104034,1.1313373,1.0596777,nan,2,2,0,0
11912000,11912000,47.39775083483209,8.54560737794289,488.0743,488.08133,0.04104034,1.1316172,1.0599072,nan,2,2,0,0
11920000,11920000,47.397750834583604,8.545607377725755,488.07434,488.08136,0.04104034,1.1318995,1.0601379,nan,2,2,0,0
11928000,11928000,47.39775083433682,8.545607377516813,488.07437,488.0814,0.04104034,1.132184,1.0603697,nan,2,2,0,0
11936000,11936000,47.39775083410319,8.54560737732051,488.07437,488.0814,0.04104034,1.1324711,1.060011,nan,2,2,0,0
11944000,11944000,47.39775083388655,8.545607377118701,488.0744,488.08142,0.04104034,1.1327605,1.0602431,nan,2,2,0,0
11952000,11952000,47.397750833693685,8.545607376897138,488.0744,488.08142,0.04104034,1.1330525,1.0604765,nan,2,2,0,0
11960000,11960000,47.3977508335183,8.545607376662488,488.0744,488.08142,0.04104034,1.1333468,1.060711,nan,2,2,0,0
11968000,11968000,47.3977508333528,8.545607376408142,488.07437,488.0814,0.04104034,1.1336436,1.0609468,nan,2,2,0,0
11976000,11976000,47.39775083319242,8.545607376143426,488.07437,488.0814,0.04104034,1.1339428,1.0611838,nan,2,2,0,0
11984000,11984000,47.39775083303498,8.54560737588405,488.07434,488.08136,0.04104034,1.1342446,1.061422,nan,2,2,0,0
11992000,11992000,47.39775083287693,8.545607375624307,488.0743,488.08133,0.04104034,1.1345489,1.0616615,nan,2,2,0,0
12000000,12000000,47.39775083272041,8.5456073753656,488.07428,488.0813,0.04104034,1.1348557,1.0612849,nan,2,2,0,0
12008000,12008000,47.39775083257033,8.545607375137267,488.07422,488.08124,0.04104034,1.1351651,1.0615244,nan,2,2,0,0
12016000,12016000,47.397750832427235,8.54560737494044,488.07416,488.08118,0.04104034,1.1354771,1.0617652,nan,2,2,0,0
12024000,12024000,47.397750832281936,8.545607374757264,488.0741,488.08112,0.04104034,1.1357915,1.0620073,nan,2,2,0,0
12032000,12032000,47.39775083213514,8.545607374584502,488.07404,488.08105,0.04104034,1.1361086,1.0622505,nan,2,2,0,0
12040000,12040000,47.397750831990294,8.545607374404598,488.07397,488.081,0.04104034,1.1364285,1.062495,nan,2,2,0,0
12048000,12048000,47.39775083185335,8.545607374217624,488.07388,488.0809,0.04104034,1.1367508,1.0627407,nan,2,2,0,0
12056000,12056000,47.39775083172207,8.545607374031368,488.07382,488.08084,0.04104034,1.1370759,1.0623487,nan,2,2,0,0
12064000,12064000,47.39775083159337,8.545607373836432,488.07376,488.08078,0.04104034,1.1374036,1.0625944,nan,2,2,0,0
12072000,12072000,47.3977508314709,8.545607373629098,488.07367,488.0807,0.04104034,1.1377339,1.0628414,nan,2,2,0,0
12080000,12080000,47.397750831357385,8.545607373416066,488.0736,488.08063,0.04104034,1.1380671,1.0630896,nan,2,2,0,0
12088000,12088000,47.39775083125908,8.545607373206098,488.07352,488.08054,0.04104034,1.1384029,1.063339,nan,2,2,0,0
12096000,12096000,47.39775083117777,8.545607372990608,488.07343,488.08044,0.04104034,1.1387416,1.0635897,nan,2,2,0,0
12104000,12104000,47.397750831106286,8.545607372754963,488.07333,488.08035,0.04104034,1.139083,1.0638417,nan,2,2,0,0
12112000,12112000,47.397750831035474,8.54560737250381,488.07324,488.08026,0.04104034,1.1394272,1.0640948,nan,2,2,0,0
12120000,12120000,47.39775083096494,8.545607372267169,488.07318,488.0802,0.04104034,1.1397742,1.0636824,nan,2,2,0,0
12128000,12128000,47.39775083091925,8.545607372037756,488.07312,488.08014,0.04104034,1.140124,1.0639355,nan,2,2,0,0
12136000,12136000,47.39775083088508,8.545607371794148,488.07306,488.08008,0.04104034,1.1404766,1.0641899,nan,2,2,0,0
12144000,12144000,47.397750830855635,8.545607371549892,488.073,488.08002,0.04104034,1.1408321,1.0644455,nan,2,2,0,0
12152000,12152000,47.3977508308306,8.545607371307801,488.07294,488.07996,0.04104034,1.1411905,1.0647023,nan,2,2,0,0
12160000,12160000,47.39775083081018,8.545607371063829,488.07285,488.07986,0.04104034,1.1415519,1.0649604,nan,2,2,0,0
12168000,12168000,47.39775083080356,8.545607370831847,488.07275,488.07977,0.04104034,1.141916,1.0652196,nan,2,2,0,0
12176000,12176000,47.3977508308082,8.545607370604511,488.07266,488.07968,0.04104034,1.1422832,1.0647899,nan,2,2,0,0
12184000,12184000,47.39775083081579,8.54560737038549,488.07257,488.0796,0.04104034,1.1426535,1.065049,nan,2,2,0,0
12192000,12192000,47.39775083082652,8.54560737015458,488.07245,488.07947,0.04104034,1.1430266,1.0653094,nan,2,2,0,0
12200000,12200000,47.397750830849915,8.545607369917036,488.07236,488.07938,0.04104034,1.1434027,1.0655711,nan,2,2,0,0
12208000,12208000,47.397750830711104,8.545607370004237,488.07245,488.08032,0.04104034,1.1213384,1.0561364,nan,2,2,0,0
12216000,12216000,47.39775083057195,8.545607370094093,488.07254,488.0804,0.04104034,1.1216087,1.0563501,nan,2,2,0,0
12224000,12224000,47.3977508304277,8.54560737016389,488.07263,488.0805,0.04104034,1.1218814,1.0565648,nan,2,2,0,0
12232000,12232000,47.3977508302914,8.545607370232341,488.0727,488.08057,0.04104034,1.1221565,1.0567808,nan,2,2,0,0
12240000,12240000,47.39775083016441,8.54560737030596,488.07278,488.08066,0.04104034,1.1224339,1.0564742,nan,2,2,0,0
12248000,12248000,47.397750830040216,8.545607370364301,488.07288,488.08075,0.04104034,1.1227137,1.0566905,nan,2,2,0,0
12256000,12256000,47.39775082991831,8.545607370416846,488.07294,488.0808,0.04104034,1.1229959,1.0569078,nan,2,2,0,0
12264000,12264000,47.39775082980542,8.545607370468003,488.073,488.08087,0.04104034,1.1232805,1.057126,nan,2,2,0,0
12272000,12272000,47.397750829691496,8.5456073705092,488.07306,488.08093,0.04104034,1.1235675,1.0573456,nan,2,2,0,0
12280000,12280000,47.397750829586194,8.54560737052992,488.0731,488.08096,0.04104034,1.123857,1.0575662,nan,2,2,0,0
12288000,12288000,47.397750829490455,8.545607370555624,488.07315,488.08102,0.04104034,1.124149,1.0577879,nan,2,2,0,0
12296000,12296000,47.397750829402774,8.545607370583587,488.07318,488.08105,0.04104034,1.1244433,1.0574684,nan,2,2,0,0
12304000,12304000,47.397750829330064,8.545607370613613,488.0732,488.0811,0.04104034,1.1247404,1.0576904,nan,2,2,0,0
12312000,12312000,47.39775082928071,8.545607370659413,488.0732,488.0811,0.04104034,1.1250398,1.0579133,nan,2,2,0,0
12320000,12320000,47.39775082924638,8.545607370706277,488.07324,488.08112,0.04104034,1.1253418,1.0581374,nan,2,2,0,0
12328000,12328000,47.39775082921629,8.545607370739969,488.07324,488.08112,0.04104034,1.1256464,1.0583626,nan,2,2,0,0
12336000,12336000,47.397750829193754,8.545607370756315,488.07324,488.08112,0.04104034,1.1259534,1.058589,nan,2,2,0,0
12344000,12344000,47.397750829175166,8.545607370750504,488.0732,488.0811,0.04104034,1.1262633,1.0588164,nan,2,2,0,0
12352000,12352000,47.39775082915302,8.54560737073883,488.0732,488.0811,0.04104034,1.1265756,1.059045,nan,2,2,0,0
12360000,12360000,47.39775082913577,8.545607370728574,488.0732,488.0811,0.04104034,1.1268907,1.0587087,nan,2,2,0,0
12368000,12368000,47.397750829121044,8.545607370723122,488.07324,488.08112,0.04104034,1.1272082,1.0589374,nan,2,2,0,0
12376000,12376000,47.39775082910395,8.5456073707059,488.07324,488.08112,0.04104034,1.1275287,1.0591671,nan,2,2,0,0
12384000,12384000,47.3977508290854,8.545607370684346,488.07324,488.08112,0.04104034,1.1278516,1.059398,nan,2,2,0,0
12392000,12392000,47.39775082906367,8.545607370662333,488.07324,488.08112,0.04104034,1.1281773,1.0596302,nan,2,2,0,0
12400000,12400000,47.39775082904205,8.545607370657278,488.0732,488.0811,0.04104034,1.1285058,1.0598632,nan,2,2,0,0
12408000,12408000,47.3977508290105,8.545607370655391,488.07318,488.08105,0.04104034,1.128837,1.0600976,nan,2,2,0,0
12416000,12416000,47.397750828966196,8.545607370636713,488.07315,488.08102,0.04104034,1.129171,1.0597467,nan,2,2,0,0
12424000,12424000,47.397750828916635,8.545607370607549,488.0731,488.08096,0.04104034,1.1295078,1.059981,nan,2,2,0,0
12432000,12432000,47.39775082887309,8.545607370569408,488.07303,488.0809,0.04104034,1.1298474,1.0602164,nan,2,2,0,0
12440000,12440000,47.39775082882856,8.545607370549995,488.07297,488.08084,0.04104034,1.1301898,1.060453,nan,2,2,0,0
12448000,12448000,47.397750828766156,8.54560737055281,488.0729,488.08078,0.04104034,1.130535,1.0606908,nan,2,2,0,0
12456000,12456000,47.397750828678404,8.545607370560766,488.07285,488.08072,0.04104034,1.1308831,1.0609295,nan,2,2,0,0
12464000,12464000,47.39775082857389,8.545607370580607,488.07275,488.08063,0.04104034,1.1312342,1.0611695,nan,2,2,0,0
12472000,12472000,47.39775082846329,8.545607370602154,488.07266,488.08054,0.04104034,1.131588,1.0614107,nan,2,2,0,0
12480000,12480000,47.39775082834945,8.545607370607996,488.0726,488.08047,0.04104034,1.1319449,1.0610409,nan,2,2,0,0
12488000,12488000,47.39775082823004,8.545607370613471,488.07254,488.0804,0.04104034,1.1323047,1.0612818,nan,2,2,0,0
12496000,12496000,47.397750828094196,8.5456073706247,488.07245,488.08032,0.04104034,1.1326674,1.061524,nan,2,2,0,0
12504000,12504000,47.39775082795199,8.545607370632457,488.0724,488.08026,0.04104034,1.1330332,1.0617673,nan,2,2,0,0
12512000,12512000,47.39775082781027,8.545607370636256,488.0723,488.08017,0.04104034,1.133402,1.0620118,nan,2,2,0,0
12520000,12520000,47.39775082767525,8.545607370638947,488.0722,488.08008,0.04104034,1.1337737,1.0622574,nan,2,2,0,0
12528000,12528000,47.39775082753985,8.545607370663527,488.0721,488.08,0.04104034,1.1341486,1.0625042,nan,2,2,0,0
12536000,12536000,47.397750827403826,8.545607370699479,488.07205,488.07993,0.04104034,1.1345265,1.0621182,nan,2,2,0,0
12544000,12544000,47.3977508272608,8.545607370716583,488.072,488.07986,0.04104034,1.1349075,1.0623648,nan,2,2,0,0
12552000,12552000,47.397750827111814,8.545607370705095,488.0719,488.07977,0.04104034,1.1352916,1.0626125,nan,2,2,0,0
12560000,12560000,47.397750826950215,8.545607370677377,488.07184,488.0797,0.04104034,1.1356789,1.0628614,nan,2,2,0,0
12568000,12568000,47.39775082677315,8.545607370654173,488.07175,488.07962,0.04104034,1.1360693,1.0631115,nan,2,2,0,0
12576000,12576000,47.39775082658847,8.5456073706405,488.07166,488.07953,0.04104034,1.1364629,1.0633628,nan,2,2,0,0
12584000,12584000,47.397750826394116,8.5456073706344,488.07156,488.07944,0.04104034,1.1368597,1.0636152,nan,2,2,0,0
12592000,12592000,47.39775082618209,8.545607370636516,488.07144,488.0793,0.04104034,1.1372597,1.0638688,nan,2,2,0,0
12600000,12600000,47.39775082596013,8.545607370656628,488.07135,488.07922,0.04104034,1.137663,1.0634615,nan,2,2,0,0
12608000,12608000,47.39775082494639,8.545607371965946,488.07162,488.08044,0.04104034,1.1163279,1.0545962,nan,2,2,0,0
12616000,12616000,47.397750823947085,8.545607373269497,488.07187,488.0807,0.04104034,1.1166161,1.0548044,nan,2,2,0,0
12624000,12624000,47.397750822956226,8.545607374569176,488.07208,488.0809,0.04104034,1.116907,1.0550137,nan,2,2,0,0
12632000,12632000,47.397750821968216,8.545607375869436,488.07233,488.08115,0.04104034,1.1172003,1.0552241,nan,2,2,0,0
12640000,12640000,47.39775082099132,8.545607377146652,488.0725,488.08133,0.04104034,1.1174961,1.0554354,nan,2,2,0,0
12648000,12648000,47.39775082003251,8.545607378407267,488.07272,488.08154,0.04104034,1.1177945,1.0556477,nan,2,2,0,0
12656000,12656000,47.397750819083214,8.545607379648509,488.07294,488.08176,0.04104034,1.1180954,1.0553584,nan,2,2,0,0
12664000,12664000,47.39775081813451,8.545607380881352,488.07315,488.08197,0.04104034,1.1183989,1.055571,nan,2,2,0,0
12672000,12672000,47.39775081718556,8.54560738208203,488.07336,488.08218,0.04104034,1.118705,1.0557845,nan,2,2,0,0
12680000,12680000,47.397750816226754,8.545607383254364,488.07355,488.08237,0.04104034,1.1190137,1.0559992,nan,2,2,0,0
12688000,12688000,47.39775081525155,8.545607384397673,488.07373,488.08255,0.04104034,1.119325,1.0562148,nan,2,2,0,0
12696000,12696000,47.39775081428118,8.54560738552344,488.0739,488.08273,0.04104034,1.1196389,1.0564314,nan,2,2,0,0
12704000,12704000,47.39775081331407,8.54560738663188,488.07407,488.0829,0.04104034,1.1199557,1.0566491,nan,2,2,0,0
12712000,12712000,47.39775081234102,8.54560738771009,488.07422,488.08304,0.04104034,1.120275,1.0568678,nan,2,2,0,0
12720000,12720000,47.39775081136291,8.545607388765623,488.07434,488.08316,0.04104034,1.1205971,1.0565627,nan,2,2,0,0
12728000,12728000,47.39775081037018,8.545607389788524,488.0745,488.0833,0.04104034,1.1209219,1.0567815,nan,2,2,0,0
12736000,12736000,47.397750809379865,8.54560739079397,488.07462,488.08344,0.04104034,1.1212493,1.0570015,nan,2,2,0,0
12744000,12744000,47.39775080841887,8.545607391785348,488.0747,488.08353,0.04104034,1.1215796,1.0572224,nan,2,2,0,0
