timestamp,timestamp_sample,baro_device_id,baro_alt_meter,baro_temp_celcius,baro_pressure_pa,rho,calibration_count
3184000,3184000,6620172,487.29526,11.832727,95607.26,1.1359724,0
3280000,3244000,6620172,487.33282,11.832727,95606.83,1.1359673,0
3304000,3304000,6620172,487.40326,11.832727,95606.055,1.1359581,0
3400000,3364000,6620172,487.3798,11.832727,95606.3,1.1359609,0
3424000,3424000,6620172,487.47836,11.832727,95605.195,1.1359478,0
3520000,3484000,6620172,487.31406,11.832727,95607.02,1.1359696,0
3544000,3544000,6620172,487.34222,11.832727,95606.7,1.1359658,0
3640000,3604000,6620172,487.33282,11.832727,95606.836,1.1359674,0
3664000,3664000,6620172,487.48306,11.832727,95605.11,1.1359469,0
3760000,3724000,6620172,487.2906,11.832727,95607.34,1.1359733,0
3784000,3784000,6620172,487.31876,11.832727,95606.96,1.1359688,0
3880000,3844000,6620172,487.3657,11.832727,95606.44,1.1359626,0
3900000,3900000,6620172,487.4596,11.832727,95605.4,1.1359503,0
3976000,3950666,6620172,487.39386,11.832728,95606.125,1.1359589,0
4024000,4012000,6620172,487.4596,11.832727,95605.39,1.1359502,0
4096000,4072000,6620172,487.38916,11.832728,95606.19,1.1359596,0
4140000,4128000,6620172,487.35162,11.832727,95606.625,1.1359649,0
4192000,4180000,6620172,487.25302,11.832727,95607.734,1.1359781,0
4264000,4240000,6620172,487.4596,11.832728,95605.414,1.1359504,0
4312000,4300000,6620172,487.39386,11.832727,95606.125,1.1359589,0
4384000,4358666,6620172,487.3657,11.832728,95606.43,1.1359626,0
4428000,4418000,6620172,487.39386,11.832727,95606.125,1.1359589,0
4480000,4468000,6620172,487.32346,11.832727,95606.94,1.1359686,0
4552000,4526666,6620172,487.31876,11.832728,95606.96,1.1359688,0
4600000,4588000,6620172,487.32812,11.832727,95606.89,1.135968,0
4672000,4648000,6620172,487.41733,11.832728,95605.84,1.1359556,0
4720000,4708000,6620172,487.39856,11.832727,95606.06,1.1359582,0
4788000,4765333,6620172,487.31406,11.832728,95607.02,1.1359696,0
4840000,4826000,6620172,487.42203,11.832727,95605.79,1.135955,0
4912000,4886666,6620172,487.3657,11.832728,95606.445,1.1359627,0
4960000,4948000,6620172,487.3563,11.832727,95606.58,1.1359643,0
5028000,5005333,6620172,487.3798,11.832728,95606.305,1.135961,0
5056000,5056000,6620172,487.2718,11.832727,95607.53,1.1359757,0
5152000,5116000,6620172,487.35162,11.832727,95606.61,1.1359646,0
5176000,5176000,6620172,487.42673,11.832727,95605.75,1.1359544,0
5272000,5235000,6620172,487.361,11.832727,95606.516,1.1359636,0
5296000,5296000,6620172,487.3751,11.832727,95606.375,1.1359619,0
5392000,5356000,6620172,487.40796,11.832727,95605.97,1.135957,0
5416000,5416000,6620172,487.42203,11.832727,95605.79,1.135955,0
5512000,5476000,6620172,487.35162,11.832727,95606.64,1.1359651,0
5536000,5536000,6620172,487.1732,11.832727,95608.63,1.1359887,0
5632000,5596000,6620172,487.34222,11.832727,95606.72,1.135966,0
5656000,5656000,6620172,487.3751,11.832727,95606.36,1.1359618,0
5752000,5716000,6620172,487.42673,11.832727,95605.766,1.1359546,0
5776000,5776000,6620172,487.3751,11.832727,95606.336,1.1359614,0
5872000,5836000,6620172,487.3845,11.832727,95606.234,1.1359602,0
5896000,5896000,6620172,487.33282,11.832727,95606.85,1.1359675,0
5992000,5956000,6620172,487.38916,11.832727,95606.19,1.1359596,0
6016000,6016000,6620172,487.26242,11.832727,95607.63,1.1359768,0
6112000,6076000,6620172,487.34692,11.832727,95606.69,1.1359656,0
6136000,6136000,6620172,487.3798,11.832727,95606.305,1.135961,0
6232000,6196000,6620172,487.33752,11.832727,95606.77,1.1359667,0
6256000,6256000,6620172,487.39856,11.832727,95606.06,1.1359582,0
6352000,6314000,6620172,487.39386,11.832727,95606.17,1.1359594,0
6376000,6376000,6620172,487.2812,11.832727,95607.43,1.1359744,0
6472000,6436000,6620172,487.41733,11.832727,95605.9,1.1359562,0
6496000,6496000,6620172,487.30936,11.832727,95607.12,1.1359707,0
6592000,6556000,6620172,487.3657,11.832727,95606.445,1.1359627,0
6616000,6616000,6620172,487.43143,11.832727,95605.7,1.1359539,0
6712000,6676000,6620172,487.39386,11.832727,95606.12,1.1359588,0
6736000,6736000,6620172,487.3563,11.832727,95606.56,1.1359642,0
6832000,6796000,6620172,487.30936,11.832727,95607.13,1.1359708,0
6856000,6856000,6620172,487.42203,11.832727,95605.82,1.1359552,0
6952000,6915000,6620172,487.34222,11.832727,95606.71,1.135966,0
6976000,6976000,6620172,487.4502,11.832727,95605.445,1.1359508,0
7072000,7036000,6620172,487.32346,11.832727,95606.9,1.1359681,0
7096000,7096000,6620172,487.25772,11.832727,95607.67,1.1359774,0
7192000,7155000,6620172,487.361,11.832727,95606.5,1.1359634,0
7216000,7216000,6620172,487.3845,11.832727,95606.234,1.1359602,0
7312000,7276000,6620172,487.35162,11.832727,95606.66,1.1359652,0
7336000,7336000,6620172,487.33752,11.832727,95606.75,1.1359663,0
7428000,7395000,6620172,487.3704,11.832727,95606.39,1.135962,0
7456000,7456000,6620172,487.39856,11.832727,95606.07,1.1359583,0
7552000,7515000,6620172,487.38916,11.832727,95606.18,1.1359595,0
7576000,7576000,6620172,487.25772,11.832727,95607.69,1.1359774,0
7672000,7636000,6620172,487.42673,11.832727,95605.734,1.1359543,0
7696000,7696000,6620172,487.3657,11.832727,95606.445,1.1359627,0
7792000,7756000,6620172,487.38916,11.832727,95606.18,1.1359595,0
7816000,7816000,6620172,487.22485,11.832727,95608.08,1.1359822,0
7912000,7876000,6620172,487.3657,11.832727,95606.42,1.1359625,0
7936000,7936000,6620172,487.3751,11.832727,95606.34,1.1359615,0
8032000,7996000,6620172,487.44083,11.832727,95605.625,1.135953,0
8056000,8056000,6620172,487.3845,11.832727,95606.234,1.1359602,0
8152000,8116000,6620172,487.361,11.832727,95606.516,1.1359636,0
8176000,8176000,6620172,487.3704,11.832727,95606.414,1.1359624,0
8272000,8236000,6620172,487.44553,11.832727,95605.516,1.1359516,0
8296000,8296000,6620172,487.40796,11.832727,95605.984,1.1359572,0
8392000,8356000,6620172,487.40326,11.832727,95606.03,1.1359577,0
8416000,8416000,6620172,487.3751,11.832727,95606.36,1.1359618,0
8512000,8476000,6620172,487.40796,11.832727,95605.95,1.1359569,0
8536000,8536000,6620172,487.3657,11.832727,95606.42,1.1359625,0
8632000,8596000,6620172,487.3751,11.832727,95606.35,1.1359617,0
8656000,8656000,6620172,487.29526,11.832727,95607.29,1.1359727,0
8752000,8716000,6620172,487.31406,11.832727,95607.07,1.1359701,0
8776000,8776000,6620172,487.39856,11.832727,95606.09,1.1359586,0
8872000,8836000,6620172,487.40326,11.832727,95606.0,1.1359575,0
8896000,8896000,6620172,487.43143,11.832727,95605.695,1.1359538,0
8992000,8956000,6620172,487.42673,11.832727,95605.75,1.1359544,0
9016000,9016000,6620172,487.2765,11.832727,95607.48,1.1359749,0
9112000,9076000,6620172,487.40796,11.832727,95605.96,1.1359569,0
9136000,9136000,6620172,487.29996,11.832727,95607.2,1.1359717,0
9232000,9196000,6620172,487.33752,11.832727,95606.8,1.1359669,0
9256000,9256000,6620172,487.38916,11.832727,95606.18,1.1359595,0
9352000,9316000,6620172,487.35162,11.832727,95606.61,1.1359646,0
9376000,9376000,6620172,487.29996,11.832727,95607.17,1.1359714,0
9472000,9436000,6620172,487.3704,11.832727,95606.39,1.135962,0
9496000,9496000,6620172,487.41733,11.832727,95605.84,1.1359556,0
9592000,9556000,6620172,487.32346,11.832727,95606.94,1.1359686,0
9616000,9616000,6620172,487.29526,11.832727,95607.24,1.1359723,0
9712000,9676000,6620172,487.33282,11.832727,95606.82,1.1359671,0
9736000,9736000,6620172,487.53473,11.832727,95604.5,1.1359396,0
9832000,9796000,6620172,487.30936,11.832727,95607.13,1.1359708,0
9856000,9856000,6620172,487.2718,11.832727,95607.55,1.1359757,0
9952000,9916000,6620172,487.41733,11.832727,95605.84,1.1359556,0
9976000,9976000,6620172,487.361,11.832727,95606.48,1.1359631,0
10072000,10036000,6620172,487.3657,11.832727,95606.46,1.1359628,0
10096000,10096000,6620172,487.21075,11.832727,95608.234,1.135984,0
10192000,10156000,6620172,487.42673,11.832727,95605.76,1.1359545,0
10216000,10216000,6620172,487.26242,11.832727,95607.65,1.135977,0
10312000,10276000,6620172,487.3845,11.832727,95606.21,1.13596,0
10336000,10336000,6620172,487.33752,11.832727,95606.766,1.1359665,0
10432000,10396000,6620172,487.361,11.832727,95606.51,1.1359634,0
10456000,10456000,6620172,487.469,11.832727,95605.26,1.1359487,0
10552000,10516000,6620172,487.38916,11.832727,95606.2,1.1359599,0
10576000,10576000,6620172,487.1967,11.832727,95608.4,1.135986,0
10672000,10636000,6620172,487.33282,11.832727,95606.87,1.1359677,0
10696000,10696000,6620172,487.34222,11.832727,95606.71,1.135966,0
10792000,10756000,6620172,487.40796,11.832727,95605.94,1.1359568,0
10816000,10816000,6620172,487.31876,11.832727,95606.984,1.1359692,0
10912000,10876000,6620172,487.43613,11.832727,95605.66,1.1359534,0
10936000,10936000,6620172,487.1779,11.832727,95608.61,1.1359885,0
11032000,10996000,6620172,487.34692,11.832727,95606.68,1.1359655,0
11056000,11056000,6620172,487.6568,11.832727,95603.14,1.1359234,0
11152000,11116000,6620172,487.31876,11.832727,95606.96,1.1359688,0
11176000,11176000,6620172,487.25302,11.832727,95607.74,1.1359782,0
11272000,11236000,6620172,487.3845,11.832727,95606.22,1.1359601,0
11296000,11296000,6620172,487.34692,11.832727,95606.68,1.1359655,0
11392000,11356000,6620172,487.2812,11.832727,95607.41,1.1359742,0
11416000,11416000,6620172,487.3563,11.832727,95606.57,1.1359643,0
11512000,11476000,6620172,487.361,11.832727,95606.5,1.1359634,0
11532000,11532000,6620172,487.3657,11.832727,95606.45,1.1359627,0
11608000,11584000,6620172,487.3845,11.832728,95606.21,1.13596,0
11652000,11642000,6620172,487.3704,11.832727,95606.4,1.1359621,0
11704000,11692000,6620172,487.34692,11.832727,95606.664,1.1359653,0
11776000,11750666,6620172,487.44083,11.832728,95605.6,1.1359527,0
11820000,11810000,6620172,487.35162,11.832727,95606.64,1.1359651,0
11872000,11860000,6620172,487.361,11.832727,95606.484,1.1359632,0
11944000,11920000,6620172,487.30936,11.832728,95607.125,1.1359708,0
11992000,11980000,6620172,487.3751,11.832727,95606.33,1.1359613,0
12064000,12040000,6620172,487.4643,11.832728,95605.32,1.1359494,0
12112000,12100000,6620172,487.31876,11.832727,95607.016,1.1359695,0
12184000,12160000,6620172,487.39856,11.832728,95606.086,1.1359586,0
12232000,12220000,6620172,487.33282,11.832727,95606.81,1.1359671,0
12304000,12280000,6620172,487.4502,11.832728,95605.46,1.135951,0
12352000,12340000,6620172,487.29526,11.832727,95607.25,1.1359723,0
12420000,12398666,6620172,487.40326,11.832728,95606.02,1.1359577,0
12472000,12460000,6620172,487.44083,11.832727,95605.58,1.1359525,0
12544000,12520000,6620172,487.3751,11.832728,95606.375,1.1359619,0
12592000,12580000,6620172,487.4737,11.832727,95605.22,1.1359482,0
12664000,12640000,6620172,487.34222,11.832728,95606.72,1.135966,0
12712000,12700000,6620172,487.43613,11.832727,95605.65,1.1359533,0
12784000,12760000,6620172,487.3845,11.832728,95606.23,1.1359601,0
12832000,12820000,6620172,487.29526,11.832727,95607.234,1.1359721,0
12904000,12880000,6620172,487.43613,11.832728,95605.65,1.1359533,0
12952000,12940000,6620172,487.3798,11.832727,95606.32,1.1359612,0
13024000,13000000,6620172,487.42673,11.832728,95605.74,1.1359544,0
13072000,13060000,6620172,487.25302,11.832727,95607.75,1.1359782,0
13144000,13120000,6620172,487.33282,11.832728,95606.836,1.1359674,0
13192000,13180000,6620172,487.2765,11.832727,95607.48,1.1359749,0
13264000,13240000,6620172,487.38916,11.832728,95606.19,1.1359596,0
13312000,13300000,6620172,487.31876,11.832727,95607.016,1.1359695,0
13384000,13360000,6620172,487.41266,11.832728,95605.91,1.1359563,0
13432000,13420000,6620172,487.40326,11.832727,95606.0,1.1359575,0
13504000,13480000,6620172,487.469,11.832728,95605.25,1.1359485,0
13552000,13540000,6620172,487.3563,11.832727,95606.58,1.1359643,0
13624000,13600000,6620172,487.41733,11.832728,95605.87,1.1359559,0
13668000,13658000,6620172,487.38916,11.832727,95606.195,1.1359597,0
13720000,13708000,6620172,487.4737,11.832727,95605.23,1.1359482,0
13792000,13768000,6620172,487.30936,11.832728,95607.1,1.1359705,0
13840000,13828000,6620172,487.40326,11.832727,95606.0,1.1359575,0
13912000,13888000,6620172,487.4502,11.832728,95605.47,1.1359512,0
13960000,13948000,6620172,487.2812,11.832727,95607.39,1.1359739,0
14032000,14008000,6620172,487.32812,11.832728,95606.875,1.1359679,0
14080000,14068000,6620172,487.39856,11.832727,95606.08,1.1359584,0
14152000,14128000,6620172,487.21545,11.832728,95608.18,1.1359833,0
14200000,14188000,6620172,487.2812,11.832727,95607.43,1.1359744,0
14272000,14248000,6620172,487.2671,11.832728,95607.625,1.1359767,0
14320000,14308000,6620172,487.3563,11.832727,95606.56,1.1359642,0
14392000,14368000,6620172,487.2812,11.832728,95607.4,1.135974,0
14440000,14428000,6620172,487.44083,11.832727,95605.586,1.1359526,0
14512000,14488000,6620172,487.3798,11.832728,95606.27,1.1359607,0
14560000,14548000,6620172,487.3845,11.832727,95606.22,1.1359601,0
14632000,14608000,6620172,487.40796,11.832728,95605.945,1.1359569,0
14680000,14668000,6620172,487.3798,11.832727,95606.27,1.1359607,0
14752000,14728000,6620172,487.40796,11.832728,95605.94,1.1359568,0
14800000,14788000,6620172,487.35162,11.832727,95606.63,1.135965,0
14868000,14846666,6620172,487.3798,11.832728,95606.27,1.1359607,0
14920000,14908000,6620172,487.35162,11.832727,95606.61,1.1359646,0
14992000,14968000,6620172,487.41733,11.832728,95605.9,1.1359562,0
15040000,15026000,6620172,487.40326,11.832727,95606.016,1.1359577,0
15112000,15086666,6620172,487.39386,11.832728,95606.125,1.1359589,0
15160000,15148000,6620172,487.34222,11.832727,95606.72,1.135966,0
15232000,15208000,6620172,487.3751,11.832728,95606.34,1.1359615,0
15280000,15266000,6620172,487.3657,11.832727,95606.47,1.135963,0
15328000,15316000,6620172,487.41733,11.832727,95605.86,1.1359558,0
15400000,15376000,6620172,487.48306,11.832728,95605.125,1.135947,0
15448000,15436000,6620172,487.4549,11.832727,95605.44,1.1359508,0
15520000,15494666,6620172,487.3563,11.832728,95606.56,1.1359642,0
15568000,15556000,6620172,487.31876,11.832727,95606.99,1.1359692,0
15640000,15616000,6620172,487.2906,11.832728,95607.32,1.1359731,0
15688000,15676000,6620172,487.3798,11.832727,95606.305,1.135961,0
15760000,15736000,6620172,487.43143,11.832728,95605.71,1.135954,0
15808000,15794000,6620172,487.3563,11.832727,95606.55,1.1359639,0
15856000,15844000,6620172,487.42203,11.832727,95605.8,1.1359551,0
15928000,15902666,6620172,487.3657,11.832728,95606.46,1.1359628,0
15976000,15964000,6620172,487.49246,11.832727,95605.016,1.1359457,0
16048000,16024000,6620172,487.35162,11.832728,95606.66,1.1359652,0
16096000,16084000,6620172,487.41733,11.832727,95605.84,1.1359556,0
16168000,16144000,6620172,487.34222,11.832728,95606.73,1.1359661,0
16216000,16204000,6620172,487.2765,11.832727,95607.5,1.1359752,0
16288000,16264000,6620172,487.42673,11.832728,95605.75,1.1359544,0
16336000,16324000,6620172,487.39856,11.832727,95606.11,1.1359587,0
16408000,16384000,6620172,487.39856,11.832728,95606.06,1.1359582,0
16456000,16444000,6620172,487.40796,11.832727,95605.94,1.1359568,0
16528000,16502666,6620172,487.39386,11.832728,95606.164,1.1359593,0
16576000,16562000,6620172,487.43143,11.832727,95605.72,1.1359541,0
16624000,16612000,6620172,487.4643,11.832727,95605.336,1.1359495,0
16696000,16670666,6620172,487.4549,11.832728,95605.44,1.1359508,0
16740000,16730000,6620172,487.3845,11.832727,95606.25,1.1359603,0
16812000,16789333,6620172,487.32812,11.832728,95606.88,1.135968,0
16840000,16840000,6620172,487.2671,11.832727,95607.59,1.1359764,0
16936000,16899000,6620172,487.34692,11.832727,95606.68,1.1359655,0
16956000,16956000,6620172,487.2906,11.832727,95607.35,1.1359735,0
17032000,17008000,6620172,487.3657,11.832728,95606.47,1.135963,0
17076000,17066000,6620172,487.3845,11.832727,95606.25,1.1359603,0
17128000,17116000,6620172,487.43143,11.832727,95605.73,1.1359543,0
17200000,17176000,6620172,487.40796,11.832728,95605.945,1.1359569,0
17248000,17236000,6620172,487.3563,11.832727,95606.59,1.1359645,0
17320000,17296000,6620172,487.3845,11.832728,95606.22,1.1359601,0
17368000,17356000,6620172,487.4596,11.832697,95605.39,1.1359502,0
17440000,17414666,6620172,487.3798,11.832687,95606.32,1.1359612,0
17488000,17474000,6620172,487.3798,11.832666,95606.32,1.1359612,0
17536000,17524000,6620172,487.29996,11.832636,95607.2,1.1359717,0
17608000,17582666,6620172,487.40796,11.832585,95605.99,1.1359574,0
17656000,17644000,6620172,487.361,11.832529,95606.53,1.1359637,0
17728000,17702666,6620172,487.3798,11.832454,95606.29,1.1359609,0
17776000,17764000,6620172,487.35162,11.8323765,95606.6,1.1359645,0
17844000,17821333,6620172,487.40796,11.83228,95605.96,1.1359569,0
17872000,17872000,6620172,487.49716,11.832178,95604.95,1.135945,0
17968000,17932000,6620172,487.51123,11.832026,95604.805,1.1359432,0
17992000,17992000,6620172,487.5582,11.831873,95604.24,1.1359365,0
18088000,18051000,6620172,487.49246,11.831682,95605.0,1.1359456,0
18112000,18112000,6620172,487.58636,11.831476,95603.914,1.1359327,0
18208000,18172000,6620172,487.59576,11.831247,95603.79,1.1359311,0
18232000,18232000,6620172,487.5441,11.831018,95604.42,1.1359388,0
18328000,18291000,6620172,487.6474,11.830782,95603.24,1.1359247,0
18352000,18352000,6620172,487.8211,11.83053,95601.26,1.1359011,0
18448000,18412000,6620172,487.67087,11.830301,95602.98,1.1359215,0
18472000,18472000,6620172,487.69434,11.830072,95602.71,1.1359183,0
18568000,18532000,6620172,487.8211,11.8298435,95601.21,1.1359005,0
18592000,18592000,6620172,487.70374,11.829615,95602.58,1.1359167,0
18688000,18652000,6620172,488.0042,11.829355,95599.14,1.1358759,0
18712000,18712000,6620172,487.99014,11.829096,95599.305,1.135878,0
18808000,18772000,6620172,487.97134,11.828852,95599.49,1.1358801,0
18832000,18832000,6620172,488.0089,11.828608,95599.06,1.135875,0
18928000,18892000,6620172,487.99014,11.828341,95599.33,1.1358781,0
18952000,18952000,6620172,488.0136,11.828089,95599.04,1.1358747,0
19048000,19012000,6620172,488.13098,11.827814,95597.7,1.1358589,0
19072000,19072000,6620172,488.24835,11.827539,95596.33,1.1358426,0
19164000,19131000,6620172,488.17325,11.82728,95597.22,1.1358532,0
19192000,19192000,6620172,488.21548,11.827021,95596.72,1.1358471,0
19288000,19251000,6620172,488.23898,11.826746,95596.484,1.1358443,0
19312000,19312000,6620172,488.27182,11.826471,95596.08,1.1358395,0
19404000,19371000,6620172,488.408,11.826212,95594.53,1.1358212,0
19432000,19432000,6620172,488.5019,11.825953,95593.43,1.1358081,0
19524000,19491000,6620172,488.4972,11.825678,95593.49,1.1358088,0
19552000,19552000,6620172,488.5958,11.825403,95592.36,1.1357954,0
19648000,19612000,6620172,488.53946,11.825144,95593.0,1.135803,0
19668000,19668000,6620172,488.66623,11.824884,95591.555,1.1357858,0
19744000,19720000,6620172,488.5066,11.824661,95593.38,1.1358075,0
19792000,19780000,6620172,488.71786,11.824396,95590.95,1.1357785,0
19864000,19838666,6620172,488.685,11.824132,95591.31,1.1357828,0
19912000,19900000,6620172,488.6944,11.823862,95591.234,1.135782,0
19984000,19960000,6620172,488.72726,11.823613,95590.85,1.1357775,0
20032000,20020000,6620172,488.7695,11.823343,95590.34,1.1357714,0
20104000,20080000,6620172,488.83054,11.823105,95589.65,1.135763,0
20152000,20140000,6620172,488.83524,11.822855,95589.61,1.1357627,0
20224000,20200000,6620172,488.7742,11.822597,95590.32,1.1357712,0
20272000,20260000,6620172,488.92444,11.822367,95588.58,1.1357504,0
20340000,20318666,6620172,489.06528,11.822108,95586.96,1.1357312,0
20392000,20380000,6620172,489.07938,11.821878,95586.83,1.1357297,0
20464000,20440000,6620172,489.07938,11.8216505,95586.82,1.1357296,0
20512000,20500000,6620172,489.16858,11.821421,95585.8,1.1357174,0
20584000,20560000,6620172,489.1263,11.821193,95586.27,1.135723,0
20632000,20620000,6620172,489.1451,11.820963,95586.08,1.1357207,0
20704000,20678666,6620172,489.1545,11.8207445,95585.97,1.1357194,0
20752000,20740000,6620172,489.239,11.820536,95584.96,1.1357074,0
20824000,20800000,6620172,489.24838,11.820358,95584.87,1.1357063,0
20872000,20860000,6620172,489.18735,11.820185,95585.56,1.1357145,0
20944000,20920000,6620172,489.2296,11.820073,95585.12,1.1357093,0
20992000,20980000,6620172,489.40332,11.819956,95583.08,1.1356851,0
21064000,21040000,6620172,489.24838,11.8198805,95584.91,1.1357068,0
21108000,21098000,6620172,489.42212,11.819803,95582.875,1.1356826,0
21160000,21148000,6620172,489.37515,11.819742,95583.44,1.1356894,0
21232000,21208000,6620172,489.39395,11.819687,95583.25,1.1356871,0
21280000,21268000,6620172,489.21555,11.81962,95585.26,1.135711,0
21352000,21328000,6620172,489.42682,11.819565,95582.836,1.1356822,0
21400000,21388000,6620172,489.4362,11.819498,95582.766,1.1356814,0
21472000,21448000,6620172,489.4597,11.819423,95582.44,1.1356775,0
21520000,21508000,6620172,489.37985,11.819345,95583.4,1.1356889,0
21592000,21568000,6620172,489.36108,11.81927,95583.62,1.1356915,0
21640000,21628000,6620172,489.40332,11.819193,95583.11,1.1356854,0
21712000,21686666,6620172,489.50192,11.819118,95582.0,1.1356723,0
21760000,21748000,6620172,489.50192,11.81904,95581.97,1.1356719,0
21832000,21808000,6620172,489.42212,11.818965,95582.87,1.1356826,0
21880000,21868000,6620172,489.5395,11.818888,95581.56,1.1356671,0
21952000,21928000,6620172,489.48785,11.818812,95582.16,1.1356741,0
22000000,21988000,6620172,489.5442,11.818735,95581.52,1.1356666,0
22068000,22046666,6620172,489.58176,11.81866,95581.086,1.1356614,0
22120000,22108000,6620172,489.4597,11.818583,95582.46,1.1356777,0
22192000,22168000,6620172,489.51132,11.818517,95581.84,1.1356704,0
22240000,22228000,6620172,489.5395,11.81846,95581.55,1.1356668,0
22312000,22288000,6620172,489.60522,11.818385,95580.81,1.1356581,0
22360000,22348000,6620172,489.6146,11.818323,95580.69,1.1356567,0
22432000,22406666,6620172,489.65216,11.818263,95580.27,1.1356517,0
22480000,22468000,6620172,489.58176,11.818186,95581.09,1.1356615,0
22552000,22528000,6620172,489.6146,11.818141,95580.66,1.1356562,0
22600000,22588000,6620172,489.66626,11.818064,95580.08,1.1356494,0
22672000,22646666,6620172,489.65686,11.818019,95580.195,1.1356509,0
22720000,22708000,6620172,489.65216,11.817957,95580.26,1.1356516,0
22792000,22766666,6620172,489.73666,11.817897,95579.27,1.1356398,0
22840000,22828000,6620172,489.68503,11.81785,95579.89,1.1356472,0
22912000,22888000,6620172,489.68503,11.817784,95579.87,1.1356469,0
22960000,22948000,6620172,489.70383,11.817728,95579.68,1.1356447,0
23032000,23008000,6620172,489.69913,11.817673,95579.73,1.1356453,0
23080000,23068000,6620172,489.76486,11.817606,95578.95,1.1356361,0
23152000,23128000,6620172,489.76016,11.817561,95579.0,1.1356366,0
23200000,23188000,6620172,489.64746,11.817514,95580.33,1.1356524,0
23272000,23248000,6620172,489.7132,11.817449,95579.56,1.1356432,0
23320000,23306000,6620172,489.67096,11.817408,95580.03,1.1356488,0
23392000,23366666,6620172,489.76016,11.817357,95578.99,1.1356364,0
23440000,23428000,6620172,489.76953,11.817301,95578.91,1.1356355,0
23512000,23488000,6620172,489.74136,11.817256,95579.23,1.1356393,0
23560000,23548000,6620172,489.69443,11.817209,95579.75,1.1356455,0
23632000,23608000,6620172,489.73666,11.817174,95579.31,1.1356404,0
23680000,23668000,6620172,489.79303,11.817118,95578.67,1.1356328,0
23752000,23726666,6620172,489.7226,11.817082,95579.44,1.1356418,0
23800000,23788000,6620172,489.8165,11.817041,95578.41,1.1356295,0
23872000,23848000,6620172,489.74606,11.817001,95579.195,1.135639,0
23920000,23908000,6620172,489.67563,11.816965,95579.97,1.1356481,0
23992000,23968000,6620172,489.75546,11.81693,95579.086,1.1356376,0
24040000,24028000,6620172,489.75546,11.816889,95579.08,1.1356375,0
24108000,24086666,6620172,489.75546,11.816849,95579.086,1.1356376,0
24160000,24148000,6620172,489.8916,11.816828,95577.52,1.1356192,0
24232000,24208000,6620172,489.901,11.816788,95577.44,1.1356181,0
24276000,24266000,6620172,489.84467,11.8167515,95578.08,1.1356257,0
24328000,24316000,6620172,489.77893,11.816736,95578.8,1.1356342,0
24400000,24376000,6620172,489.84467,11.816707,95578.07,1.1356256,0
24448000,24436000,6620172,489.8212,11.816675,95578.31,1.1356285,0
24520000,24496000,6620172,489.8212,11.816646,95578.305,1.1356283,0
24568000,24556000,6620172,489.86343,11.816629,95577.81,1.1356225,0
24640000,24616000,6620172,489.8165,11.816605,95578.4,1.1356294,0
24688000,24674000,6620172,489.88223,11.816584,95577.64,1.1356205,0
24736000,24724000,6620172,489.93387,11.816553,95577.016,1.1356131,0
24808000,24782666,6620172,489.9104,11.816544,95577.32,1.1356167,0
24852000,24842000,6620172,489.7977,11.816523,95578.625,1.1356322,0
24924000,24901333,6620172,489.86343,11.816503,95577.85,1.135623,0
24976000,24962000,6620172,489.74606,11.816492,95579.18,1.1356388,0
25024000,25012000,6620172,489.74136,11.816462,95579.2,1.135639,0
25096000,25072000,6620172,489.88223,11.816452,95577.6,1.13562,0
25144000,25132000,6620172,489.87753,11.816431,95577.7,1.1356212,0
25216000,25192000,6620172,489.94797,11.816411,95576.875,1.1356114,0
25264000,25252000,6620172,489.87753,11.816401,95577.69,1.135621,0
25336000,25312000,6620172,489.732,11.816371,95579.35,1.1356407,0
25384000,25372000,6620172,489.92917,11.816355,95577.08,1.1356138,0
25456000,25432000,6620172,489.9151,11.81634,95577.25,1.1356158,0
25504000,25492000,6620172,489.92447,11.816309,95577.125,1.1356143,0
25572000,25550666,6620172,489.85406,11.816299,95577.94,1.135624,0
25624000,25612000,6620172,489.92917,11.816278,95577.08,1.1356138,0
25696000,25670666,6620172,489.92447,11.816269,95577.15,1.1356146,0
25744000,25732000,6620172,489.95264,11.816248,95576.83,1.1356108,0
25812000,25790666,6620172,489.94797,11.816228,95576.85,1.135611,0
25864000,25852000,6620172,489.97614,11.816217,95576.53,1.1356072,0
25936000,25912000,6620172,489.85873,11.816197,95577.875,1.1356233,0
25984000,25972000,6620172,489.96674,11.816187,95576.625,1.1356084,0
26056000,26032000,6620172,489.85406,11.816157,95577.93,1.1356239,0
26104000,26092000,6620172,489.8259,11.816156,95578.266,1.1356279,0
26176000,26150666,6620172,489.8963,11.816136,95577.49,1.1356187,0
26224000,26210000,6620172,489.8963,11.816126,95577.45,1.1356183,0
26272000,26260000,6620172,490.009,11.816111,95576.164,1.1356028,0
26344000,26320000,6620172,489.95264,11.816096,95576.82,1.1356107,0
26392000,26380000,6620172,489.93857,11.816095,95576.984,1.1356126,0
26464000,26440000,6620172,489.9996,11.816075,95576.27,1.1356043,0
26512000,26500000,6620172,489.97614,11.816065,95576.55,1.1356075,0
26584000,26560000,6620172,489.97614,11.816066,95576.555,1.1356076,0
26628000,26618000,6620172,490.06534,11.816034,95575.53,1.1355954,0
26680000,26668000,6620172,489.93857,11.816034,95577.0,1.1356128,0
26752000,26728000,6620172,489.95264,11.816035,95576.805,1.1356106,0
26800000,26788000,6620172,489.95734,11.816019,95576.766,1.1356101,0
26872000,26848000,6620172,489.97614,11.816005,95576.555,1.1356076,0
26920000,26908000,6620172,489.93387,11.816004,95577.016,1.1356131,0
26992000,26968000,6620172,489.9902,11.816005,95576.4,1.1356057,0
27040000,27028000,6620172,489.8963,11.815989,95577.48,1.1356184,0
27112000,27088000,6620172,489.9996,11.815974,95576.28,1.1356044,0
27160000,27148000,6620172,489.96674,11.815973,95576.65,1.1356087,0
27232000,27208000,6620172,489.92447,11.815974,95577.164,1.1356149,0
27280000,27268000,6620172,489.93857,11.815958,95576.97,1.1356125,0
27352000,27328000,6620172,489.9808,11.815944,95576.48,1.1356066,0
27400000,27388000,6620172,489.84467,11.815943,95578.05,1.1356252,0
27472000,27448000,6620172,489.9104,11.815944,95577.32,1.1356167,0
27520000,27508000,6620172,489.9902,11.815912,95576.375,1.1356055,0
27592000,27566666,6620172,489.9949,11.815913,95576.336,1.135605,0
27640000,27628000,6620172,489.94797,11.815912,95576.87,1.1356113,0
27712000,27688000,6620172,490.04184,11.815883,95575.81,1.1355987,0
27760000,27748000,6620172,490.06064,11.815882,95575.59,1.1355962,0
27832000,27808000,6620172,489.9151,11.815872,95577.25,1.1356158,0
27880000,27866000,6620172,490.01367,11.815851,95576.11,1.1356022,0
27928000,27916000,6620172,489.95264,11.815851,95576.805,1.1356106,0
28000000,27974666,6620172,489.901,11.815822,95577.44,1.1356181,0
28048000,28036000,6620172,489.9151,11.815821,95577.25,1.1356158,0
28120000,28096000,6620172,489.9808,11.815801,95576.5,1.1356069,0
28168000,28156000,6620172,490.01367,11.81579,95576.086,1.135602,0
28240000,28216000,6620172,489.9996,11.815781,95576.29,1.1356045,0
28288000,28276000,6620172,489.94797,11.81576,95576.84,1.135611,0
28360000,28336000,6620172,490.0888,11.81575,95575.25,1.1355921,0
28408000,28396000,6620172,489.96674,11.815729,95576.67,1.1356089,0
28480000,28456000,6620172,490.05124,11.81573,95575.72,1.1355977,0
28528000,28516000,6620172,489.94797,11.815699,95576.88,1.1356114,0
28600000,28574666,6620172,490.02307,11.8157,95576.0,1.135601,0
28648000,28636000,6620172,489.95264,11.815683,95576.81,1.1356106,0
28716000,28694666,6620172,490.03247,11.815669,95575.875,1.1355995,0
28768000,28756000,6620172,490.05124,11.815668,95575.695,1.1355973,0
28840000,28816000,6620172,489.96674,11.815639,95576.664,1.1356089,0
28888000,28876000,6620172,490.10757,11.815638,95575.05,1.1355897,0
28960000,28936000,6620172,489.96204,11.815628,95576.695,1.1356093,0
29008000,28994000,6620172,490.11697,11.815607,95574.91,1.135588,0
29056000,29044000,6620172,490.02307,11.815607,95576.016,1.1356012,0
29128000,29104000,6620172,490.009,11.815598,95576.19,1.1356032,0
29176000,29164000,6620172,490.0747,11.815577,95575.44,1.1355944,0
29248000,29224000,6620172,490.05124,11.8155775,95575.69,1.1355972,0
29296000,29284000,6620172,489.92917,11.815577,95577.09,1.135614,0
29368000,29344000,6620172,489.9855,11.815557,95576.414,1.1356059,0
29416000,29404000,6620172,490.02307,11.815546,95575.99,1.1356009,0
29488000,29464000,6620172,490.0043,11.815557,95576.25,1.1356039,0
29536000,29524000,6620172,489.9902,11.815577,95576.41,1.1356058,0
29604000,29582666,6620172,490.0043,11.815639,95576.26,1.135604,0
29656000,29644000,6620172,490.02777,11.815714,95575.984,1.1356008,0
29728000,29704000,6620172,489.91977,11.815842,95577.22,1.1356155,0
29776000,29764000,6620172,490.05594,11.816004,95575.6,1.1355963,0
29848000,29824000,6620172,489.901,11.816228,95577.4,1.1356176,0
29896000,29884000,6620172,489.86343,11.816492,95577.86,1.1356231,0
29968000,29944000,6620172,489.8071,11.816768,95578.445,1.13563,0
30016000,30004000,6620172,489.8024,11.817072,95578.56,1.1356314,0
30088000,30064000,6620172,489.78833,11.817378,95578.695,1.135633,0
30136000,30124000,6620172,489.68503,11.817667,95579.89,1.1356472,0
30208000,30184000,6620172,489.64746,11.817958,95580.336,1.1356525,0
30256000,30244000,6620172,489.65216,11.818232,95580.28,1.1356518,0
30328000,30304000,6620172,489.55356,11.818486,95581.375,1.1356648,0
30376000,30364000,6620172,489.50662,11.818735,95581.91,1.1356711,0
30448000,30424000,6620172,489.49252,11.818985,95582.09,1.1356734,0
30496000,30484000,6620172,489.46436,11.819223,95582.414,1.1356772,0
30568000,30544000,6620172,489.39395,11.819484,95583.26,1.1356872,0
30616000,30604000,6620172,489.40332,11.819727,95583.125,1.1356857,0
30688000,30662666,6620172,489.37515,11.819982,95583.43,1.1356893,0
30736000,30724000,6620172,489.39865,11.8202305,95583.16,1.135686,0
30808000,30784000,6620172,489.27658,11.82048,95584.57,1.1357028,0
30856000,30844000,6620172,489.24838,11.820734,95584.92,1.135707,0
30928000,30904000,6620172,489.20615,11.820999,95585.38,1.1357125,0
30976000,30964000,6620172,489.1451,11.821253,95586.086,1.1357208,0
31048000,31024000,6620172,489.06528,11.821518,95587.0,1.1357317,0
31096000,31084000,6620172,489.09348,11.821772,95586.66,1.1357276,0
31168000,31144000,6620172,488.92914,11.822037,95588.555,1.1357502,0
31216000,31204000,6620172,489.07468,11.822306,95586.87,1.1357301,0
31288000,31264000,6620172,488.88217,11.822556,95589.07,1.1357564,0
31336000,31324000,6620172,488.81177,11.8228245,95589.86,1.1357657,0
31408000,31382666,6620172,488.854,11.823094,95589.43,1.1357605,0
31456000,31444000,6620172,488.80707,11.823359,95589.95,1.1357667,0
31528000,31504000,6620172,488.81177,11.823613,95589.91,1.1357663,0
31576000,31564000,6620172,488.6897,11.823877,95591.28,1.1357826,0
31648000,31624000,6620172,488.63803,11.824142,95591.9,1.1357899,0
31696000,31684000,6620172,488.56293,11.824411,95592.734,1.1357999,0
31768000,31744000,6620172,488.55823,11.824681,95592.76,1.1358,0
31816000,31804000,6620172,488.63336,11.82493,95591.94,1.1357903,0
31888000,31864000,6620172,488.53006,11.8252,95593.12,1.1358043,0
31936000,31924000,6620172,488.4878,11.825464,95593.6,1.1358101,0
32008000,31984000,6620172,488.44556,11.825729,95594.086,1.1358159,0
32056000,32042000,6620172,488.53006,11.825998,95593.15,1.1358048,0
32128000,32102666,6620172,488.3939,11.826268,95594.69,1.135823,0
32176000,32162000,6620172,488.408,11.826532,95594.516,1.135821,0
32224000,32212000,6620172,488.18732,11.826746,95597.03,1.1358509,0
32296000,32272000,6620172,488.20612,11.827011,95596.805,1.1358482,0
32344000,32332000,6620172,488.30002,11.82728,95595.74,1.1358355,0
32416000,32392000,6620172,488.14038,11.82755,95597.57,1.1358573,0
32464000,32452000,6620172,488.1122,11.827814,95597.91,1.1358613,0
32536000,32512000,6620172,488.12158,11.828079,95597.805,1.13586,0
32584000,32572000,6620172,487.97604,11.828348,95599.42,1.1358793,0
32656000,32632000,6620172,488.04178,11.828618,95598.72,1.1358709,0
32704000,32692000,6620172,487.89154,11.828882,95600.42,1.1358912,0
32776000,32752000,6620172,487.95728,11.829147,95599.69,1.1358824,0
32824000,32812000,6620172,488.0183,11.829416,95598.96,1.1358738,0
32896000,32872000,6620172,487.87744,11.829686,95600.59,1.1358932,0
32944000,32932000,6620172,487.8211,11.829966,95601.266,1.1359011,0
33016000,32992000,6620172,487.8164,11.8302355,95601.32,1.1359018,0
33064000,33052000,6620172,487.80234,11.8305,95601.48,1.1359036,0
33136000,33112000,6620172,487.7319,11.830765,95602.28,1.1359133,0
33184000,33172000,6620172,487.6521,11.831049,95603.2,1.1359242,0
33256000,33232000,6620172,487.53003,11.831314,95604.586,1.1359406,0
33304000,33292000,6620172,487.57227,11.831598,95604.08,1.1359346,0
33376000,33352000,6620172,487.5488,11.831863,95604.375,1.135938,0
33424000,33412000,6620172,487.3845,11.832148,95606.22,1.1359601,0
33496000,33472000,6620172,487.39386,11.832423,95606.125,1.1359589,0
33544000,33532000,6620172,487.3798,11.832682,95606.31,1.135961,0
33616000,33592000,6620172,487.31876,11.832707,95607.0,1.1359693,0
33664000,33652000,6620172,487.38916,11.832636,95606.2,1.1359599,0
33736000,33712000,6620172,487.42203,11.832474,95605.836,1.1359555,0
33784000,33772000,6620172,487.5441,11.832254,95604.44,1.1359388,0
33856000,33832000,6620172,487.47836,11.8320265,95605.18,1.1359477,0
33904000,33892000,6620172,487.48306,11.831781,95605.086,1.1359465,0
33976000,33950666,6620172,487.57227,11.831538,95604.055,1.1359344,0
34024000,34012000,6620172,487.47836,11.831308,95605.16,1.1359473,0
34096000,34072000,6620172,487.6474,11.8311,95603.22,1.1359243,0
34144000,34132000,6620172,487.57227,11.830912,95604.1,1.1359348,0
34216000,34192000,6620172,487.67087,11.830734,95602.93,1.1359209,0
34264000,34252000,6620172,487.77417,11.830561,95601.77,1.1359072,0
34336000,34310666,6620172,487.68497,11.830409,95602.805,1.1359195,0
34384000,34372000,6620172,487.7507,11.830271,95602.05,1.1359105,0
34456000,34432000,6620172,487.76477,11.830165,95601.875,1.1359084,0
34504000,34492000,6620172,487.80234,11.830057,95601.44,1.1359032,0
34576000,34552000,6620172,487.7366,11.829991,95602.22,1.1359125,0
34624000,34612000,6620172,487.81174,11.829935,95601.336,1.1359019,0
34696000,34672000,6620172,487.79764,11.82988,95601.53,1.1359043,0
34744000,34732000,6620172,487.76477,11.8298435,95601.89,1.1359086,0
34816000,34792000,6620172,487.87277,11.829829,95600.625,1.1358936,0
34864000,34852000,6620172,487.80704,11.829828,95601.41,1.1359028,0
34936000,34912000,6620172,487.77887,11.829849,95601.72,1.1359066,0
34980000,34970000,6620172,487.78354,11.829889,95601.66,1.1359059,0
35056000,35030666,6620172,487.8399,11.82993,95601.02,1.1358984,0
35104000,35092000,6620172,487.7272,11.829996,95602.31,1.1359136,0
35176000,35152000,6620172,487.80234,11.830073,95601.47,1.1359036,0
35224000,35212000,6620172,487.77417,11.830149,95601.766,1.135907,0
35296000,35272000,6620172,487.78824,11.830246,95601.625,1.1359054,0
35344000,35332000,6620172,487.80234,11.830362,95601.47,1.1359036,0
35416000,35392000,6620172,487.78824,11.830501,95601.625,1.1359054,0
35460000,35450000,6620172,487.66617,11.830622,95603.016,1.135922,0
35512000,35500000,6620172,487.67087,11.830744,95602.984,1.1359216,0
35584000,35560000,6620172,487.62863,11.830897,95603.44,1.135927,0
35632000,35620000,6620172,487.60983,11.831049,95603.67,1.1359297,0
35704000,35680000,6620172,487.5582,11.831223,95604.24,1.1359365,0
35752000,35740000,6620172,487.61923,11.831415,95603.56,1.1359285,0
35824000,35800000,6620172,487.61453,11.831599,95603.586,1.1359288,0
35872000,35860000,6620172,487.48776,11.831797,95605.03,1.1359459,0
35944000,35920000,6620172,487.44083,11.831996,95605.586,1.1359526,0
35992000,35978000,6620172,487.5535,11.832193,95604.31,1.1359373,0
36040000,36028000,6620172,487.3751,11.8323765,95606.33,1.1359613,0
36112000,36086666,6620172,487.3845,11.832606,95606.21,1.13596,0
36160000,36148000,6620172,487.39386,11.832727,95606.125,1.1359589,0
36232000,36208000,6620172,487.31406,11.832728,95607.03,1.1359696,0
36280000,36268000,6620172,487.25772,11.832727,95607.7,1.1359776,0
36352000,36328000,6620172,487.361,11.832728,95606.5,1.1359634,0
36400000,36388000,6620172,487.39386,11.832727,95606.17,1.1359594,0
36472000,36448000,6620172,487.42673,11.832728,95605.74,1.1359544,0
36520000,36508000,6620172,487.3563,11.832727,95606.59,1.1359645,0
36592000,36568000,6620172,487.42203,11.832728,95605.836,1.1359555,0
36640000,36628000,6620172,487.35162,11.832727,95606.61,1.1359646,0
36712000,36688000,6620172,487.3657,11.832728,95606.43,1.1359626,0
36760000,36748000,6620172,487.34222,11.832727,95606.71,1.135966,0
36832000,36808000,6620172,487.38916,11.832728,95606.18,1.1359595,0
36880000,36868000,6620172,487.4502,11.832727,95605.46,1.135951,0
36952000,36928000,6620172,487.3563,11.832728,95606.59,1.1359645,0
37000000,36988000,6620172,487.39386,11.832727,95606.16,1.1359593,0
37072000,37048000,6620172,487.2812,11.832728,95607.4,1.135974,0
37120000,37108000,6620172,487.32812,11.832727,95606.875,1.1359679,0
37192000,37168000,6620172,487.3751,11.832728,95606.35,1.1359617,0
37240000,37228000,6620172,487.3845,11.832727,95606.266,1.1359606,0
37312000,37286666,6620172,487.33282,11.832728,95606.836,1.1359674,0
37360000,37348000,6620172,487.4643,11.832727,95605.32,1.1359494,0
37432000,37408000,6620172,487.3657,11.832728,95606.47,1.135963,0
37480000,37468000,6620172,487.3751,11.832727,95606.375,1.1359619,0
37552000,37528000,6620172,487.29526,11.832728,95607.25,1.1359723,0
37600000,37588000,6620172,487.3845,11.832727,95606.266,1.1359606,0
37672000,37648000,6620172,487.38916,11.832728,95606.19,1.1359596,0
37716000,37706000,6620172,487.3563,11.832727,95606.586,1.1359644,0
37768000,37756000,6620172,487.361,11.832727,95606.516,1.1359636,0
37840000,37816000,6620172,487.39856,11.832728,95606.086,1.1359586,0
37888000,37876000,6620172,487.34222,11.832727,95606.7,1.1359658,0
37960000,37936000,6620172,487.32346,11.832728,95606.9,1.1359681,0
38008000,37994000,6620172,487.40796,11.832727,95605.96,1.1359569,0
38056000,38044000,6620172,487.4596,11.832727,95605.375,1.13595,0
38128000,38104000,6620172,487.3798,11.832728,95606.28,1.1359608,0
38176000,38164000,6620172,487.361,11.832727,95606.5,1.1359634,0
38248000,38224000,6620172,487.41266,11.832728,95605.914,1.1359564,0
38296000,38284000,6620172,487.40326,11.832727,95606.04,1.1359578,0
38368000,38344000,6620172,487.40796,11.832728,95605.98,1.1359571,0
38416000,38404000,6620172,487.41266,11.832727,95605.91,1.1359563,0
38488000,38464000,6620172,487.33752,11.832728,95606.77,1.1359667,0
38536000,38524000,6620172,487.21075,11.832727,95608.26,1.1359842,0
38608000,38584000,6620172,487.31406,11.832728,95607.02,1.1359696,0
38656000,38644000,6620172,487.32346,11.832727,95606.95,1.1359688,0
38728000,38704000,6620172,487.4596,11.832728,95605.4,1.1359503,0
38776000,38764000,6620172,487.43613,11.832727,95605.66,1.1359534,0
38848000,38824000,6620172,487.39856,11.832728,95606.1,1.1359586,0
38896000,38884000,6620172,487.32346,11.832727,95606.91,1.1359682,0
38968000,38944000,6620172,487.2859,11.832728,95607.38,1.1359739,0
39016000,39004000,6620172,487.3657,11.832727,95606.42,1.1359625,0
39084000,39062666,6620172,487.42673,11.832728,95605.74,1.1359544,0
39136000,39124000,6620172,487.35162,11.832727,95606.61,1.1359646,0
39208000,39184000,6620172,487.34222,11.832728,95606.71,1.135966,0
39256000,39244000,6620172,487.2859,11.832727,95607.375,1.1359738,0
39328000,39304000,6620172,487.3751,11.832728,95606.336,1.1359614,0
39376000,39364000,6620172,487.39386,11.832727,95606.16,1.1359593,0
39448000,39424000,6620172,487.39856,11.832728,95606.1,1.1359586,0
39496000,39484000,6620172,487.3798,11.832727,95606.31,1.135961,0
39568000,39544000,6620172,487.4643,11.832728,95605.336,1.1359495,0
39616000,39604000,6620172,487.35162,11.832727,95606.625,1.1359649,0
39688000,39664000,6620172,487.32812,11.832728,95606.88,1.135968,0
39736000,39724000,6620172,487.29996,11.832727,95607.21,1.1359718,0
39808000,39784000,6620172,487.44083,11.832728,95605.59,1.1359526,0
39856000,39844000,6620172,487.30466,11.832727,95607.164,1.1359713,0
39928000,39904000,6620172,487.39386,11.832728,95606.16,1.1359593,0
39976000,39964000,6620172,487.361,11.832727,95606.5,1.1359634,0
40048000,40024000,6620172,487.39856,11.832728,95606.06,1.1359582,0
40096000,40084000,6620172,487.41733,11.832727,95605.875,1.135956,0
40168000,40144000,6620172,487.41266,11.832728,95605.914,1.1359564,0
40212000,40202000,6620172,487.2671,11.832727,95607.61,1.1359766,0
40264000,40252000,6620172,487.2765,11.832727,95607.484,1.135975,0
40336000,40312000,6620172,487.29996,11.832728,95607.195,1.1359717,0
40384000,40372000,6620172,487.34222,11.832727,95606.7,1.1359658,0
40456000,40430666,6620172,487.25302,11.832728,95607.77,1.1359785,0
40504000,40492000,6620172,487.32812,11.832727,95606.89,1.135968,0
40576000,40552000,6620172,487.3563,11.832728,95606.54,1.1359638,0
40624000,40612000,6620172,487.39856,11.832727,95606.09,1.1359586,0
40696000,40672000,6620172,487.2718,11.832728,95607.54,1.1359757,0
40744000,40732000,6620172,487.3563,11.832727,95606.59,1.1359645,0
40816000,40790666,6620172,487.4596,11.832728,95605.37,1.13595,0
40864000,40852000,6620172,487.3798,11.832727,95606.31,1.135961,0
40936000,40912000,6620172,487.35162,11.832728,95606.66,1.1359652,0
40984000,40972000,6620172,487.35162,11.832727,95606.64,1.1359651,0
41056000,41032000,6620172,487.32812,11.832728,95606.875,1.1359679,0
41104000,41092000,6620172,487.4737,11.832727,95605.23,1.1359482,0
41176000,41152000,6620172,487.2812,11.832728,95607.44,1.1359745,0
41220000,41210000,6620172,487.39386,11.832727,95606.14,1.1359591,0
41272000,41260000,6620172,487.4643,11.832727,95605.33,1.1359495,0
41344000,41318666,6620172,487.3798,11.832728,95606.305,1.135961,0
41392000,41380000,6620172,487.31876,11.832727,95606.984,1.1359692,0
41464000,41440000,6620172,487.41266,11.832728,95605.914,1.1359564,0
41512000,41500000,6620172,487.361,11.832727,95606.53,1.1359637,0
41584000,41560000,6620172,487.29996,11.832728,95607.21,1.1359718,0
41632000,41620000,6620172,487.3563,11.832727,95606.57,1.1359643,0
41704000,41680000,6620172,487.361,11.832728,95606.52,1.1359637,0
41752000,41738000,6620172,487.44083,11.832727,95605.58,1.1359525,0
41800000,41788000,6620172,487.48306,11.832727,95605.09,1.1359466,0
41872000,41848000,6620172,487.33282,11.832728,95606.84,1.1359675,0
41920000,41908000,6620172,487.42673,11.832727,95605.77,1.1359547,0
41992000,41968000,6620172,487.3563,11.832728,95606.555,1.135964,0
42040000,42028000,6620172,487.41733,11.832727,95605.875,1.135956,0
42112000,42088000,6620172,487.3563,11.832728,95606.57,1.1359643,0
42160000,42146000,6620172,487.23422,11.832727,95607.97,1.1359807,0
42208000,42196000,6620172,487.2718,11.832727,95607.54,1.1359757,0
42280000,42256000,6620172,487.38916,11.832728,95606.18,1.1359595,0
42328000,42316000,6620172,487.34222,11.832727,95606.7,1.1359658,0
42400000,42376000,6620172,487.39386,11.832728,95606.125,1.1359589,0
42448000,42434000,6620172,487.33752,11.832727,95606.8,1.1359669,0
42496000,42484000,6620172,487.39856,11.832727,95606.06,1.1359582,0
42568000,42544000,6620172,487.3845,11.832728,95606.21,1.13596,0
42616000,42604000,6620172,487.39386,11.832727,95606.14,1.1359591,0
42688000,42664000,6620172,487.361,11.832728,95606.52,1.1359637,0
42736000,42724000,6620172,487.30466,11.832727,95607.14,1.135971,0
42808000,42784000,6620172,487.3798,11.832728,95606.31,1.135961,0
42856000,42844000,6620172,487.34692,11.832727,95606.67,1.1359653,0
42928000,42902666,6620172,487.33282,11.832728,95606.82,1.1359671,0
42976000,42964000,6620172,487.2765,11.832727,95607.47,1.1359749,0
43048000,43024000,6620172,487.361,11.832728,95606.52,1.1359637,0
43096000,43084000,6620172,487.39386,11.832727,95606.17,1.1359594,0
43168000,43142666,6620172,487.3845,11.832728,95606.23,1.1359601,0
43212000,43202000,6620172,487.34692,11.832727,95606.69,1.1359656,0
43288000,43262666,6620172,487.40796,11.832728,95605.99,1.1359574,0
43336000,43324000,6620172,487.44553,11.832727,95605.55,1.135952,0
43408000,43384000,6620172,487.3657,11.832728,95606.44,1.1359626,0
43456000,43444000,6620172,487.3563,11.832727,95606.555,1.135964,0
43528000,43504000,6620172,487.39386,11.832728,95606.15,1.1359593,0
43576000,43564000,6620172,487.34692,11.832727,95606.67,1.1359653,0
43648000,43624000,6620172,487.35162,11.832728,95606.625,1.1359649,0
43692000,43680000,6620172,487.21075,11.832727,95608.2,1.1359836,0
43744000,43730000,6620172,487.23892,11.832727,95607.89,1.1359799,0
43792000,43780000,6620172,487.44083,11.832727,95605.61,1.1359527,0
43864000,43840000,6620172,487.3751,11.832728,95606.35,1.1359617,0
43912000,43900000,6620172,487.30936,11.832727,95607.1,1.1359705,0
43984000,43960000,6620172,487.34692,11.832728,95606.68,1.1359655,0
44032000,44020000,6620172,487.39386,11.832727,95606.17,1.1359594,0
44104000,44080000,6620172,487.44553,11.832728,95605.53,1.1359519,0
44152000,44140000,6620172,487.41733,11.832727,95605.85,1.1359557,0
