timestamp,timestamp_sample,time_last_fuse,device_id,observation,observation_variance,innovation,innovation_variance,test_ratio,estimator_instance,fusion_enabled,innovation_rejected,fused
3200000,3118923,0,0,-0.0015258789,12.25,-4.627742e-06,112.42326,7.619773e-15,3,0,0,0
3264000,3178896,0,0,0.030761719,12.25,-0.02955934,112.25,3.1136022e-07,3,0,0,0
3320000,3239021,0,0,-0.0066833496,12.25,0.0072169355,112.25,1.8560057e-08,3,0,0,0
3384000,3299060,0,0,-0.070617676,12.25,0.0698865,112.25,1.7404445e-06,3,0,0,0
3440000,3359158,0,0,-0.04083252,12.25,0.041787267,62.249985,1.1220409e-06,3,0,0,0
3504000,3419183,0,0,-0.12542725,12.25,0.12633646,62.249985,1.02560025e-05,3,0,0,0
3560000,3479283,0,0,0.034973145,12.25,-0.03417367,62.249985,7.504193e-07,3,0,0,0
3624000,3539305,0,0,0.0057373047,12.25,-0.0054131187,45.58333,2.5712781e-08,3,0,0,0
3680000,3599378,0,0,0.013336182,12.25,-0.013308794,45.58333,1.5542875e-07,3,0,0,0
3744000,3659396,0,0,-0.12362671,12.25,0.12325277,45.58333,1.33305275e-05,3,0,0,0
3800000,3719465,0,0,0.061523438,12.25,-0.062294073,45.58337,3.4052346e-06,3,0,0,0
3864000,3779481,3784000,0,0.033355713,12.25,-0.034363795,37.250053,1.268047e-06,3,0,0,0
3920000,3839540,3840000,0,-0.017242432,12.25,0.015801832,37.250107,2.6813117e-07,3,1,0,1
3976000,3895553,3896000,0,-0.11114502,12.25,0.09863039,20.47152,1.900778e-05,3,1,0,1
4032000,3946258,3952000,0,-0.045410156,12.25,-0.0072620176,17.169731,1.2286016e-07,3,1,0,1
4088000,4007616,4008000,0,-0.11114502,12.25,0.060077034,15.7600975,9.160476e-06,3,1,0,1
4152000,4067649,4072000,0,-0.04071045,12.25,-0.024392538,14.978397,1.5889442e-06,3,1,0,1
4208000,4123670,4128000,0,-0.0031738281,12.25,-0.058106553,14.481487,9.326035e-06,3,1,0,1
4256000,4175689,4176000,0,0.09542847,12.25,-0.14806367,14.137697,6.202665e-05,3,1,0,1
4320000,4235716,4240000,0,-0.11114502,12.25,0.077585876,13.8857765,1.7340242e-05,3,1,0,1
4376000,4295733,4296000,0,-0.045410156,12.25,0.0020743124,13.69322,1.2569059e-08,3,1,0,1
4440000,4354422,4360000,0,-0.017242432,12.25,-0.02709455,13.54131,2.168519e-06,3,1,0,1
4496000,4413770,4416000,0,-0.045410156,12.25,0.003474407,13.418298,3.59852e-08,3,1,0,1
4544000,4463786,4464000,0,0.024993896,12.25,-0.067781076,13.316757,1.3799979e-05,3,1,0,1
4608000,4522470,4528000,0,0.029693604,12.25,-0.06781602,13.2315855,1.3903134e-05,3,1,0,1
4664000,4583814,4584000,0,0.020324707,12.25,-0.054105897,13.159057,8.898657e-06,3,1,0,1
4728000,4643830,4648000,0,-0.068878174,12.25,0.03881245,13.096441,4.6009636e-06,3,1,0,1
4784000,4703840,4704000,0,-0.050109863,12.25,0.016909745,13.042061,8.7697634e-07,3,1,0,1
4848000,4761187,4768000,0,0.03439331,12.25,-0.069339916,12.994387,1.480031e-05,3,1,0,1
4904000,4821863,4824000,0,-0.07357788,12.25,0.04286906,12.951853,5.6756553e-06,3,1,0,1
4968000,4882540,4888000,0,-0.017242432,12.25,-0.016426098,12.914272,8.3571626e-07,3,1,0,1
5024000,4943882,4944000,0,-0.007843018,12.25,-0.0255731,12.88055,2.0309178e-06,3,1,0,1
5088000,5001225,5008000,0,-0.031341553,12.25,-0.00047213584,12.849803,6.939009e-10,3,1,0,1
5136000,5051895,5056000,0,0.076660156,12.25,-0.10887633,12.822188,3.697982e-05,3,1,0,1
5192000,5111907,5112000,0,-0.0031738281,12.25,-0.024733463,12.797142,1.9121273e-06,3,1,0,1
5256000,5171910,5176000,0,-0.07827759,12.25,0.05078099,12.774369,8.074634e-06,3,1,0,1
5312000,5230921,5232000,0,-0.012542725,12.25,-0.016481267,12.752825,8.519906e-07,3,1,0,1
5376000,5291923,5296000,0,-0.026641846,12.25,-0.002264563,12.733608,1.6109324e-08,3,1,0,1
5432000,5351932,5352000,0,-0.059509277,12.25,0.030180529,12.715827,2.8652935e-06,3,1,0,1
5496000,5411934,5416000,0,-0.07357788,12.25,0.042551138,12.699496,5.7029015e-06,3,1,0,1
5552000,5471942,5472000,0,-0.0031738281,12.25,-0.028675716,12.683466,2.5932873e-06,3,1,0,1
5616000,5531943,5536000,0,0.17526245,12.25,-0.2067116,12.669356,0.0001349072,3,1,0,1
5672000,5591950,5592000,0,0.006225586,12.25,-0.03133917,12.656147,3.1040834e-06,3,1,0,1
5736000,5651952,5656000,0,-0.026641846,12.25,0.0031814761,12.643026,3.2023316e-08,3,1,0,1
5792000,5711957,5712000,0,-0.07827759,12.25,0.054262284,12.631446,9.324018e-06,3,1,0,1
5856000,5771958,5776000,0,-0.026641846,12.25,0.00042396598,12.620716,5.696892e-10,3,1,0,1
5912000,5831963,5832000,0,-0.03604126,12.25,0.009292623,12.610572,2.739062e-07,3,1,0,1
5976000,5891964,5896000,0,0.015625,12.25,-0.041817162,12.600087,5.551311e-06,3,1,0,1
6032000,5951968,5952000,0,-0.04071045,12.25,0.015200531,12.591062,7.3403226e-07,3,1,0,1
6096000,6011969,6016000,0,0.08602905,12.25,-0.11251706,12.5826845,4.024607e-05,3,1,0,1
6152000,6071973,6072000,0,0.0015258789,12.25,-0.024111137,12.573572,1.8494248e-06,3,1,0,1
6216000,6131973,6136000,0,-0.031341553,12.25,0.008878473,12.566053,2.5092137e-07,3,1,0,1
6272000,6191977,6192000,0,0.010925293,12.25,-0.03402611,12.558862,3.687519e-06,3,1,0,1
6336000,6251977,6256000,0,-0.050109863,12.25,0.028613418,12.551026,2.6092773e-06,3,1,0,1
6392000,6309980,6312000,0,-0.045410156,12.25,0.022840884,12.544516,1.6635348e-06,3,1,0,1
6456000,6371980,6376000,0,0.06726074,12.25,-0.09079936,12.538466,2.6301537e-05,3,1,0,1
6512000,6431983,6432000,0,-0.068878174,12.25,0.047073454,12.532637,7.0724464e-06,3,1,0,1
6576000,6491983,6496000,0,0.039093018,12.25,-0.061355546,12.525955,1.2021448e-05,3,1,0,1
6632000,6551985,6552000,0,-0.017242432,12.25,-0.00395469,12.520631,4.9964168e-08,3,1,0,1
6696000,6611986,6616000,0,-0.082977295,12.25,0.06151405,12.515697,1.2093544e-05,3,1,0,1
6752000,6671987,6672000,0,-0.045410156,12.25,0.023314456,12.509626,1.7380659e-06,3,1,0,1
6816000,6731988,6736000,0,-0.007843018,12.25,-0.015032725,12.5050955,7.228504e-07,3,1,0,1
6872000,6791989,6792000,0,0.039093018,12.25,-0.061878003,12.500687,1.2251767e-05,3,1,0,1
6936000,6851990,6856000,0,-0.07357788,12.25,0.051838726,12.49662,8.601537e-06,3,1,0,1
6992000,6910991,6912000,0,0.006225586,12.25,-0.028701685,12.491261,2.6379616e-06,3,1,0,1
7056000,6971991,6976000,0,-0.101745605,12.25,0.07962782,12.487501,2.0310195e-05,3,1,0,1
7112000,7031992,7032000,0,0.024993896,12.25,-0.048774682,12.483815,7.622573e-06,3,1,0,1
7176000,7091992,7096000,0,0.09072876,12.25,-0.11336988,12.479058,4.1197756e-05,3,1,0,1
7232000,7150993,7152000,0,-0.012542725,12.25,-0.0081081055,12.475633,2.1078331e-07,3,1,0,1
7296000,7211994,7216000,0,-0.03604126,12.25,0.0154298805,12.47249,7.6354024e-07,3,1,0,1
7352000,7271994,7272000,0,-0.0031738281,12.25,-0.017798133,12.469385,1.0161641e-06,3,1,0,1
7416000,7331995,7336000,0,0.010925293,12.25,-0.03136338,12.465099,3.15653e-06,3,1,0,1
7472000,7390995,7392000,0,-0.021942139,12.25,0.0020294543,12.462198,1.321977e-08,3,1,0,1
7536000,7451995,7456000,0,-0.050109863,12.25,0.030152952,12.4595585,2.9188852e-06,3,1,0,1
7592000,7510996,7512000,0,-0.04071045,12.25,0.020232633,12.455496,1.3146307e-06,3,1,0,1
7656000,7571996,7576000,0,0.09072876,12.25,-0.11148776,12.45302,3.992452e-05,3,1,0,1
7712000,7631997,7632000,0,-0.07827759,12.25,0.05936513,12.45055,1.132229e-05,3,1,0,1
7776000,7691997,7696000,0,-0.017242432,12.25,-0.0026139915,12.448326,2.195621e-08,3,1,0,1
7832000,7751997,7752000,0,-0.04071045,12.25,0.020826077,12.444581,1.3941022e-06,3,1,0,1
7896000,7811997,7816000,0,0.12359619,12.25,-0.1437923,12.442485,6.646976e-05,3,1,0,1
7952000,7871998,7872000,0,-0.017242432,12.25,-0.00072978064,12.440374,1.7124236e-09,3,1,0,1
8016000,7931998,7936000,0,-0.026641846,12.25,0.008665882,12.437008,2.415292e-07,3,1,0,1
8072000,7991998,7992000,0,-0.09237671,12.25,0.07427697,12.435012,1.7746885e-05,3,1,0,1
8136000,8051998,8056000,0,-0.03604126,12.25,0.016830932,12.433235,9.113647e-07,3,1,0,1
8192000,8111998,8112000,0,-0.012542725,12.25,-0.006958546,12.431427,1.5580308e-07,3,1,0,1
8256000,8171998,8176000,0,-0.021942139,12.25,0.0026600175,12.428289,2.2772861e-08,3,1,0,1
8312000,8231999,8232000,0,-0.097076416,12.25,0.07765104,12.426572,1.9409e-05,3,1,0,1
8376000,8291999,8296000,0,-0.059509277,12.25,0.0388925,12.425067,4.8695965e-06,3,1,0,1
8432000,8351999,8352000,0,-0.05480957,12.25,0.033746228,12.422001,3.6670674e-06,3,1,0,1
8496000,8411999,8416000,0,-0.026641846,12.25,0.005065646,12.420567,8.263961e-08,3,1,0,1
8552000,8471999,8472000,0,-0.059509277,12.25,0.03785751,12.419088,4.6160912e-06,3,1,0,1
8616000,8531999,8536000,0,-0.058288574,12.250135,-0.004911691,13.250135,7.282856e-08,3,1,0,1
8672000,8591999,8592000,0,-0.06768799,12.251081,0.0048609152,13.1756315,7.1733936e-08,3,1,0,1
8736000,8651999,8656000,0,0.012145996,12.252164,-0.075308934,13.111901,1.7301641e-05,3,1,0,1
8792000,8712000,8712000,0,-0.006652832,12.25311,-0.051551927,13.056565,8.141808e-06,3,1,0,1
8856000,8772000,8776000,0,-0.091156006,12.254191,0.036150653,13.00831,4.0185687e-06,3,1,0,1
8912000,8832000,8832000,0,-0.09585571,12.2551365,0.038786996,12.965675,4.6412733e-06,3,1,0,1
8976000,8892000,8896000,0,-0.12399292,12.256216,0.06483269,12.928009,1.300518e-05,3,1,0,1
9032000,8952000,8952000,0,-0.119262695,12.257159,0.055335753,12.646339,9.68516e-06,3,1,0,1
9096000,9012000,9016000,0,0.03100586,12.258238,-0.09659203,12.635567,2.953574e-05,3,1,0,1
9152000,9072000,9072000,0,-0.1005249,12.259178,0.037901916,12.62541,4.5513143e-06,3,1,0,1
9216000,9132000,9136000,0,0.007507324,12.260254,-0.07113998,12.6160965,1.6045838e-05,3,1,0,1
9272000,9192000,9192000,0,-0.03012085,12.261192,-0.03149619,12.607122,3.1474588e-06,3,1,0,1
9336000,9252000,9256000,0,-0.08178711,12.262263,0.021087658,12.598977,1.4118267e-06,3,1,0,1
9392000,9312000,9312000,0,-0.04421997,12.263198,-0.01698349,12.591187,9.163202e-07,3,1,0,1
9456000,9372000,9376000,0,0.0074157715,12.264266,-0.068282485,12.506511,1.4912225e-05,3,1,0,1
9512000,9432000,9432000,0,-0.06311035,12.265196,0.003627807,12.502986,4.210509e-08,3,1,0,1
9576000,9492000,9496000,0,-0.11004639,12.266259,0.05059832,12.499838,8.192714e-06,3,1,0,1
9632000,9552000,9552000,0,-0.016113281,12.267185,-0.044168286,12.496706,6.244325e-06,3,1,0,1
9696000,9612000,9616000,0,0.012023926,12.268243,-0.07150182,12.4937105,1.6368269e-05,3,1,0,1
9752000,9672000,9672000,0,-0.025634766,12.269163,-0.03242926,12.490894,3.3677552e-06,3,1,0,1
9816000,9732000,9736000,0,-0.2276001,12.270215,0.17121793,12.449348,9.419154e-05,3,1,0,1
9872000,9792000,9792000,0,-0.001953125,12.271129,-0.056954253,12.447801,1.0423647e-05,3,1,0,1
9936000,9852000,9856000,0,0.03552246,12.272175,-0.09340384,12.446712,2.8037211e-05,3,1,0,1
9992000,9912000,9912000,0,-0.11016846,12.273082,0.05379202,12.445531,9.299985e-06,3,1,0,1
10056000,9972000,9976000,0,-0.053741455,12.27412,-0.0031122416,12.444633,3.1133254e-08,3,1,0,1
10112000,10032000,10032000,0,-0.058441162,12.27502,0.0015011169,12.443275,7.2435977e-09,3,1,0,1
10176000,10092000,10096000,0,0.09649658,12.2760515,-0.15312509,12.442503,7.537806e-05,3,1,0,1
10232000,10152000,10152000,0,-0.11981201,12.276943,0.06600703,12.418356,1.4033834e-05,3,1,0,1
10296000,10212000,10216000,0,0.044647217,12.2779665,-0.099341124,12.417909,3.1788473e-05,3,1,0,1
10352000,10272000,10272000,0,-0.07763672,12.27885,0.02433775,12.417616,1.9080185e-06,3,1,0,1
10416000,10332000,10336000,0,-0.03060913,12.279864,-0.022658098,12.417579,1.6537506e-06,3,1,0,1
10472000,10392000,10392000,0,-0.054138184,12.280739,0.0013878085,12.417399,6.204237e-09,3,1,0,1
10536000,10452000,10456000,0,-0.1621399,12.281745,0.10918066,12.416995,3.840033e-05,3,1,0,1
10592000,10512000,10512000,0,-0.08203125,12.28261,0.028229184,12.416868,2.5671106e-06,3,1,0,1
10656000,10572000,10576000,0,0.11050415,12.283606,-0.16446856,12.401351,8.7248256e-05,3,1,0,1
10712000,10632000,10632000,0,-0.02609253,12.284461,-0.026649624,12.401121,2.2907686e-06,3,1,0,1
10776000,10692000,10696000,0,-0.03555298,12.285447,-0.016513497,12.401546,8.7955345e-07,3,1,0,1
10832000,10752000,10752000,0,-0.10134888,12.286292,0.049860343,12.401807,8.01836e-06,3,1,0,1
10896000,10812000,10816000,0,-0.011993408,12.287268,-0.039413217,12.402325,5.0100343e-06,3,1,0,1
10952000,10872000,10872000,0,-0.12948608,12.288102,0.077924356,12.402052,1.9584517e-05,3,1,0,1
11016000,10932000,10936000,0,0.1289978,12.289066,-0.1812391,12.391024,0.00010603679,3,1,0,1
11072000,10992000,10992000,0,-0.040618896,12.289889,-0.009567134,12.39153,2.9546007e-07,3,1,0,1
11136000,11052000,11056000,0,-0.3505249,12.290843,0.29983538,12.391699,0.00029019834,3,1,0,1
11192000,11112000,11112000,0,-0.011505127,12.291655,-0.041043766,12.392216,5.4375773e-06,3,1,0,1
11256000,11172000,11176000,0,0.05407715,12.292596,-0.105566576,12.392983,3.5969715e-05,3,1,0,1
11312000,11232000,11232000,0,-0.07775879,12.293396,0.02781773,12.39357,2.4975084e-06,3,1,0,1
11376000,11292000,11296000,0,-0.040100098,12.294326,-0.010835659,12.393666,3.7894034e-07,3,1,0,1
11432000,11352000,11352000,0,0.025604248,12.295114,-0.077817105,12.385333,1.9557008e-05,3,1,0,1
11496000,11412000,11416000,0,-0.04977417,12.296031,-0.001002416,12.386254,3.2450094e-09,3,1,0,1
11552000,11472000,11472000,0,-0.054473877,12.296806,0.0026462749,12.386284,2.2614598e-08,3,1,0,1
11608000,11528000,11528000,0,-0.059173584,12.297576,0.00812177,12.386981,2.1300798e-07,3,1,0,1
11664000,11580000,11584000,0,-0.077941895,12.29834,0.027689096,12.387707,2.475635e-06,3,1,0,1
11720000,11638000,11640000,0,-0.0637207,12.299097,0.014155094,12.388462,6.469461e-07,3,1,0,1
11768000,11688000,11688000,0,-0.04019165,12.299714,-0.010906693,12.388181,3.8409493e-07,3,1,0,1
11832000,11746666,11752000,0,-0.13412476,12.300596,0.08246062,12.381964,2.196664e-05,3,1,0,1
11888000,11806000,11808000,0,-0.04458618,12.301336,-0.006772574,12.38278,1.4816628e-07,3,1,0,1
11936000,11856000,11856000,0,-0.053985596,12.301934,0.0034157261,12.383393,3.7686554e-08,3,1,0,1
12000000,11916000,11920000,0,-0.0023498535,12.302798,-0.0493892,12.383647,7.879077e-06,3,1,0,1
12056000,11976000,11976000,0,-0.06829834,12.303519,0.017641481,12.384473,1.0052001e-06,3,1,0,1
12120000,12036000,12040000,0,-0.15744019,12.30437,0.10759851,12.385561,3.739012e-05,3,1,0,1
12176000,12096000,12096000,0,-0.011444092,12.305078,-0.040343855,12.385519,5.256547e-06,3,1,0,1
12240000,12156000,12160000,0,-0.091430664,12.305914,0.03999189,12.38059,5.1672855e-06,3,1,0,1
12296000,12216000,12216000,0,-0.025512695,12.306608,-0.025405806,12.38148,2.0852272e-06,3,1,0,1
12360000,12276000,12280000,0,-0.14300537,12.307431,0.09314392,12.382631,2.8025672e-05,3,1,0,1
12416000,12336000,12336000,0,0.012359619,12.308111,-0.06400922,12.382625,1.3235255e-05,3,1,0,1
12480000,12394666,12400000,0,-0.095947266,12.30892,0.045515686,12.383753,6.691599e-06,3,1,0,1
12536000,12456000,12456000,0,-0.13330078,12.309586,0.08337729,12.384676,2.2452818e-05,3,1,0,1
12600000,12516000,12520000,0,-0.06716919,12.310381,0.015490241,12.384836,7.7497214e-07,3,1,0,1
12656000,12576000,12576000,0,-0.16571045,12.311033,0.11388557,12.380581,4.1904084e-05,3,1,0,1
12720000,12636000,12640000,0,-0.033691406,12.311813,-0.017897975,12.381751,1.0348699e-06,3,1,0,1
12776000,12696000,12696000,0,-0.12768555,12.312451,0.077002324,12.382715,1.915366e-05,3,1,0,1
12840000,12756000,12760000,0,-0.075653076,12.313218,0.023283213,12.3828945,1.7511513e-06,3,1,0,1
12896000,12816000,12816000,0,0.013702393,12.313842,-0.065432906,12.383831,1.3829212e-05,3,1,0,1
12960000,12876000,12880000,0,-0.12750244,12.314594,0.077052146,12.385037,1.9174857e-05,3,1,0,1
13016000,12936000,12936000,0,-0.07077026,12.315204,0.01763269,12.380372,1.0045311e-06,3,1,0,1
13080000,12996000,13000000,0,-0.117614746,12.315942,0.06520097,12.381542,1.3733883e-05,3,1,0,1
13136000,13056000,13056000,0,0.056427002,12.316537,-0.10845092,12.382504,3.7994258e-05,3,1,0,1
13200000,13116000,13120000,0,-0.023956299,12.317261,-0.02877219,12.382682,2.6741832e-06,3,1,0,1
13256000,13176000,13176000,0,0.032226562,12.3178425,-0.084072545,12.3836155,2.2830789e-05,3,1,0,1
13320000,13236000,13240000,0,-0.0809021,12.318552,0.030360587,12.384814,2.977082e-06,3,1,0,1
13376000,13296000,13296000,0,-0.010314941,12.3191185,-0.039644323,12.3857975,5.0757244e-06,3,1,0,1
13440000,13356000,13360000,0,-0.10443115,12.319815,0.052187182,12.381787,8.798414e-06,3,1,0,1
13496000,13416000,13416000,0,-0.09472656,12.320368,0.04290734,12.382735,5.947118e-06,3,1,0,1
13560000,13476000,13480000,0,-0.16021729,12.32105,0.108981065,12.383951,3.836214e-05,3,1,0,1
13616000,13536000,13536000,0,-0.046905518,12.3215885,-0.0061405934,12.383827,1.2179397e-07,3,1,0,1
13680000,13596000,13600000,0,-0.10797119,12.322256,0.05566308,12.385007,1.0006868e-05,3,1,0,1
13736000,13654000,13656000,0,-0.07946777,12.322781,0.027534787,12.385972,2.4484618e-06,3,1,0,1
13784000,13704000,13704000,0,-0.16384888,12.323164,0.11233831,12.386711,4.0753017e-05,3,1,0,1
13848000,13764000,13768000,0,0.001159668,12.323813,-0.05540257,12.383028,9.915005e-06,3,1,0,1
13904000,13824000,13824000,0,-0.09307861,12.32432,0.03966889,12.383971,5.082767e-06,3,1,0,1
13968000,13884000,13888000,0,-0.13977051,12.324956,0.086848184,12.385185,2.4360095e-05,3,1,0,1
14024000,13944000,13944000,0,0.029754639,12.325448,-0.0824958,12.38618,2.1977905e-05,3,1,0,1
14088000,14004000,14008000,0,-0.017669678,12.326071,-0.03580045,12.3861885,4.1390363e-06,3,1,0,1
14144000,14064000,14064000,0,-0.08831787,12.32655,0.035652634,12.387146,4.1046105e-06,3,1,0,1
14208000,14124000,14128000,0,0.09500122,12.327158,-0.14710945,12.388383,6.987575e-05,3,1,0,1
14264000,14184000,14184000,0,0.02835083,12.327624,-0.082134634,12.384676,2.1788532e-05,3,1,0,1
14328000,14244000,14248000,0,0.041931152,12.328218,-0.09468642,12.385854,2.895406e-05,3,1,0,1
14384000,14304000,14304000,0,-0.04788208,12.328671,-0.003832709,12.386815,4.7436433e-08,3,1,0,1
14448000,14364000,14368000,0,0.027191162,12.329253,-0.07991476,12.386824,2.0623105e-05,3,1,0,1
14504000,14424000,14424000,0,-0.13296509,12.329693,0.08114238,12.387749,2.1259992e-05,3,1,0,1
14568000,14484000,14488000,0,-0.07141113,12.330261,0.019823521,12.388947,1.2687826e-06,3,1,0,1
14624000,14544000,14544000,0,-0.07598877,12.3306875,0.023975268,12.386622,1.8562396e-06,3,1,0,1
14688000,14604000,14608000,0,-0.0993042,12.3312435,0.047809698,12.387862,7.380667e-06,3,1,0,1
14744000,14664000,14664000,0,-0.0708313,12.331657,0.019621301,12.388878,1.2430359e-06,3,1,0,1
14808000,14724000,14728000,0,-0.09887695,12.332201,0.048155233,12.390189,7.486331e-06,3,1,0,1
14864000,14784000,14784000,0,-0.042236328,12.332602,-0.0,12.391265,2.1612986e-07,3,1,0,1
14928000,14842666,14848000,0,-0.07046509,12.333133,0.020620525,12.3926525,1.3724457e-06,3,1,0,1
14984000,14904000,14904000,0,-0.042144775,12.333522,-0.0,12.393796,1.7169452e-07,3,1,0,1
15048000,14964000,14968000,0,-0.107910156,12.334041,0.057989538,12.391777,1.0854897e-05,3,1,0,1
15104000,15022000,15024000,0,-0.093444824,12.334416,0.043806124,12.3929615,6.1937626e-06,3,1,0,1
15168000,15082666,15088000,0,-0.083740234,12.334923,0.034587964,12.394483,3.860838e-06,3,1,0,1
15224000,15144000,15144000,0,-0.03186035,12.335288,-0.0,12.395746,9.14299e-07,3,1,0,1
15288000,15204000,15208000,0,-0.06484985,12.335783,0.016891364,12.397364,9.2057695e-07,3,1,0,1
15344000,15262000,15264000,0,-0.05532837,12.336135,0.007945046,12.398708,2.0364624e-07,3,1,0,1
15392000,15312000,15312000,0,-0.106903076,12.336349,0.060058728,12.399762,1.1635871e-05,3,1,0,1
15456000,15372000,15376000,0,-0.1722107,12.336828,0.124084845,12.397664,4.967726e-05,3,1,0,1
15512000,15432000,15432000,0,-0.14318848,12.337167,0.09515038,12.39909,2.9207291e-05,3,1,0,1
15576000,15490666,15496000,0,-0.043914795,12.337635,-0.0,12.400906,4.6019956e-08,3,1,0,1
15632000,15552000,15552000,0,-0.0064086914,12.337962,-0.0,12.402427,5.3018994e-06,3,1,0,1
15696000,15612000,15616000,0,0.021484375,12.33842,-0.0,12.404361,1.4708634e-05,3,1,0,1
15752000,15672000,15672000,0,-0.06820679,12.338737,0.02298382,12.405983,1.7032297e-06,3,1,0,1
15816000,15732000,15736000,0,-0.11968994,12.339183,0.07436903,12.40362,1.783593e-05,3,1,0,1
15872000,15790000,15792000,0,-0.044006348,12.339488,-0.0,12.405279,2.4126088e-09,3,1,0,1
15920000,15840000,15840000,0,-0.10974121,12.339654,0.0655607,12.4066,1.3857802e-05,3,1,0,1
15984000,15898666,15904000,0,-0.05291748,12.340088,0.009326506,12.408758,2.803946e-07,3,1,0,1
16040000,15960000,15960000,0,-0.17962646,12.34038,0.13685158,12.410574,6.0362578e-05,3,1,0,1
16104000,16020000,16024000,0,-0.03778076,12.340803,-0.0,12.4128685,7.120782e-08,3,1,0,1
16160000,16080000,16080000,0,-0.103515625,12.341085,0.06200199,12.414801,1.2386011e-05,3,1,0,1
16224000,16140000,16144000,0,-0.027954102,12.341499,-0.0,12.411947,6.7213347e-07,3,1,0,1
16280000,16200000,16200000,0,0.03768921,12.341771,-0.0,12.413906,2.0163807e-05,3,1,0,1
16344000,16260000,16264000,0,-0.11312866,12.342174,0.07285963,12.416374,1.7101693e-05,3,1,0,1
16400000,16320000,16320000,0,-0.08441162,12.342436,0.04472573,12.418457,6.443284e-06,3,1,0,1
16464000,16380000,16384000,0,-0.08407593,12.34283,0.045349706,12.421077,6.622923e-06,3,1,0,1
16520000,16440000,16440000,0,-0.09313965,12.343082,0.055271205,12.4232855,9.836066e-06,3,1,0,1
16584000,16498666,16504000,0,-0.07861328,12.343467,0.041762844,12.426059,5.614444e-06,3,1,0,1
16640000,16558000,16560000,0,-0.115875244,12.34371,0.07826382,12.421892,1.9723968e-05,3,1,0,1
16688000,16608000,16608000,0,-0.14816284,12.343814,0.1111581,12.423663,3.9782546e-05,3,1,0,1
16752000,16666666,16672000,0,-0.13790894,12.344187,0.10168457,12.426504,3.32829e-05,3,1,0,1
16808000,16726000,16728000,0,-0.06674194,12.3444195,0.03117561,12.4289,3.1279312e-06,3,1,0,1
16872000,16785333,16792000,0,-0.010131836,12.344784,-0.0,12.431901,1.8658534e-06,3,1,0,1
16920000,16836000,16840000,0,0.050720215,12.344872,-0.0,12.433868,2.2537426e-05,3,1,0,1
16976000,16895000,16896000,0,-0.029754639,12.345095,-0.0,12.436446,9.823383e-09,3,1,0,1
17032000,16952000,16952000,0,0.02658081,12.345314,-0.0,12.43115,1.123804e-05,3,1,0,1
17088000,17004000,17008000,0,-0.048980713,12.34553,0.017962284,12.433698,1.0379653e-06,3,1,0,1
17144000,17062000,17064000,0,-0.06762695,12.345742,0.03802479,12.436305,4.6505284e-06,3,1,0,1
17192000,17112000,17112000,0,-0.11425781,12.345817,0.08571212,12.438386,2.362547e-05,3,1,0,1
17256000,17172000,17176000,0,-0.09011841,12.34616,0.06272891,12.4417095,1.2650727e-05,3,1,0,1
17312000,17232000,17232000,0,-0.037963867,12.346363,0.0116950795,12.444499,4.3963163e-07,3,1,0,1
17376000,17292000,17296000,0,-0.06607056,12.346699,0.041314237,12.44798,5.4847974e-06,3,1,0,1
17432000,17352000,17352000,0,-0.14083862,12.346893,0.11247048,12.441229,4.0669966e-05,3,1,0,1
17496000,17410666,17416000,0,-0.060150146,12.34722,0.030094828,12.444639,2.9111288e-06,3,1,0,1
17552000,17470000,17472000,0,-0.059906006,12.347407,0.027426206,12.4474945,2.4171827e-06,3,1,0,1
17600000,17520000,17520000,0,0.020141602,12.347456,-0.0,12.449763,1.0027147e-05,3,1,0,1
17664000,17578666,17584000,0,-0.08828735,12.347775,0.04700176,12.453392,7.095787e-06,3,1,0,1
17720000,17640000,17640000,0,-0.04095459,12.347954,-0.0,12.45642,1.5412688e-07,3,1,0,1
17784000,17698666,17704000,0,-0.059814453,12.348265,0.0028110817,12.460187,2.5367774e-08,3,1,0,1
17840000,17760000,17760000,0,-0.03161621,12.348436,-0.0,12.451696,5.0681438e-06,3,1,0,1
17904000,17817333,17824000,0,-0.088256836,12.34874,0.0021159127,12.455346,1.437804e-08,3,1,0,1
17952000,17868000,17872000,0,-0.1774292,12.348768,0.07786661,12.457694,1.9468156e-05,3,1,0,1
18008000,17928000,17928000,0,-0.19088745,12.348931,0.07237476,12.460776,1.6814702e-05,3,1,0,1
18072000,17988000,17992000,0,-0.23727417,12.349228,0.093667805,12.464624,2.8155386e-05,3,1,0,1
18128000,18047000,18048000,0,-0.17080688,12.349384,0.0018303841,12.467813,1.0748657e-08,3,1,0,1
18192000,18108000,18112000,0,-0.26470947,12.349673,0.06431255,12.471785,1.3265475e-05,3,1,0,1
18248000,18168000,18168000,0,-0.2735901,12.349824,0.038747102,12.461442,4.8191464e-06,3,1,0,1
18312000,18228000,18232000,0,-0.22161865,12.350105,-0.0,12.465268,7.9739e-06,3,1,0,1
18368000,18287000,18288000,0,-0.32531738,12.350248,0.021575153,12.468426,1.4933312e-06,3,1,0,1
18432000,18348000,18352000,0,-0.49884033,12.350524,0.15831122,12.472388,8.0377366e-05,3,1,0,1
18488000,18408000,18408000,0,-0.34732056,12.350659,-0.0,12.475655,2.2025918e-06,3,1,0,1
18552000,18468000,18472000,0,-0.3710022,12.350929,-0.0,12.479743,4.7261915e-06,3,1,0,1
18608000,18528000,18528000,0,-0.4980774,12.351059,0.05702746,12.483079,1.0420927e-05,3,1,0,1
18672000,18588000,18592000,0,-0.38024902,12.351323,-0.0,12.47158,3.3491237e-05,3,1,0,1
18728000,18648000,18648000,0,-0.6815491,12.351446,0.1662122,12.474791,8.858344e-05,3,1,0,1
18792000,18708000,18712000,0,-0.6661377,12.351703,0.11097205,12.478791,3.9474322e-05,3,1,0,1
18848000,18768000,18768000,0,-0.64642334,12.35182,0.056129813,12.482089,1.0096246e-05,3,1,0,1
18912000,18828000,18832000,0,-0.6835327,12.352071,0.05331874,12.486226,9.107277e-06,3,1,0,1
18968000,18888000,18888000,0,-0.66433716,12.352183,-0.0,12.489602,4.734666e-09,3,1,0,1
19032000,18948000,18952000,0,-0.6878052,12.352428,-0.0,12.476528,1.6395538e-06,3,1,0,1
19088000,19008000,19008000,0,-0.8053589,12.352534,0.059497118,12.479739,1.1346094e-05,3,1,0,1
19152000,19068000,19072000,0,-0.9222412,12.352774,0.13497293,12.48377,5.8372403e-05,3,1,0,1
19208000,19127000,19128000,0,-0.8460388,12.352874,0.021529198,12.487029,1.484761e-06,3,1,0,1
19272000,19188000,19192000,0,-0.88809204,12.353107,0.022148311,12.491163,1.5708631e-06,3,1,0,1
19328000,19247000,19248000,0,-0.9114075,12.353203,0.009092867,12.494519,2.646928e-07,3,1,0,1
19392000,19308000,19312000,0,-0.94418335,12.353432,0.00041085482,12.498749,5.402194e-10,3,1,0,1
19448000,19367000,19368000,0,-1.0803528,12.353522,0.09378755,12.4833,2.818519e-05,3,1,0,1
19512000,19428000,19432000,0,-1.1734924,12.353745,0.14441764,12.487298,6.680854e-05,3,1,0,1
19568000,19487000,19488000,0,-1.1676025,12.35383,0.10063386,12.490547,3.2431482e-05,3,1,0,1
19632000,19548000,19552000,0,-1.2653809,12.354049,0.15593266,12.494598,7.784162e-05,3,1,0,1
19688000,19608000,19608000,0,-1.2077332,12.354129,0.060376048,12.497905,1.166681e-05,3,1,0,1
19744000,19664000,19664000,0,-1.3340149,12.354207,0.15001154,12.501233,7.2003975e-05,3,1,0,1
19800000,19716000,19720000,0,-1.1731262,12.354285,-0.0,12.504584,7.49619e-06,3,1,0,1
19856000,19776000,19776000,0,-1.3847961,12.354362,0.12123108,12.487968,4.7075628e-05,3,1,0,1
19920000,19834666,19840000,0,-1.3509216,12.354571,0.04551518,12.491939,6.633499e-06,3,1,0,1
19976000,19896000,19896000,0,-1.3599548,12.354642,0.018818974,12.495145,1.1337324e-06,3,1,0,1
20040000,19956000,19960000,0,-1.3926697,12.354847,0.011437297,12.4991455,4.1862626e-07,3,1,0,1
20096000,20016000,20016000,0,-1.4348145,12.354915,0.018927455,12.502399,1.1461752e-06,3,1,0,1
20160000,20076000,20080000,0,-1.495697,12.355116,0.040675998,12.506527,5.2917544e-06,3,1,0,1
20216000,20136000,20136000,0,-1.500061,12.355179,0.00092995167,12.489193,2.7697868e-09,3,1,0,1
20280000,20196000,20200000,0,-1.4390259,12.355374,-0.0,12.493027,3.0878942e-05,3,1,0,1
20336000,20256000,20256000,0,-1.5900879,12.355432,0.019969821,12.496153,1.2765329e-06,3,1,0,1
20400000,20314666,20320000,0,-1.7307434,12.355624,0.12338543,12.500118,4.8716225e-05,3,1,0,1
20456000,20376000,20376000,0,-1.7438049,12.355678,0.10311353,12.503229,3.4014894e-05,3,1,0,1
20520000,20436000,20440000,0,-1.7429199,12.355866,0.06518221,12.507262,1.3588012e-05,3,1,0,1
20576000,20496000,20496000,0,-1.8315735,12.355916,0.122285366,12.510468,4.7811838e-05,3,1,0,1
20640000,20556000,20560000,0,-1.788269,12.356101,0.033884287,12.493233,3.6760541e-06,3,1,0,1
20696000,20616000,20616000,0,-1.8067932,12.356147,0.02229166,12.496221,1.5906188e-06,3,1,0,1
20760000,20674666,20680000,0,-1.8160095,12.356326,-0.0,12.500086,8.593758e-09,3,1,0,1
20816000,20736000,20736000,0,-1.9005127,12.356368,0.055710673,12.503173,9.929253e-06,3,1,0,1
20880000,20796000,20800000,0,-1.9093933,12.356545,0.035717726,12.507046,4.080119e-06,3,1,0,1
20936000,20856000,20856000,0,-1.848053,12.356584,-0.0,12.510165,7.1341915e-06,3,1,0,1
21000000,20916000,20920000,0,-1.8907166,12.356757,-0.0,12.514156,1.8461737e-06,3,1,0,1
21056000,20976000,20976000,0,-2.0646362,12.356793,0.12505567,12.4956255,5.006207e-05,3,1,0,1
21120000,21036000,21040000,0,-1.9086304,12.356962,-0.0,12.49934,6.227368e-06,3,1,0,1
21176000,21094000,21096000,0,-2.0827332,12.356993,0.12184358,12.502342,4.7497844e-05,3,1,0,1
21224000,21144000,21144000,0,-2.034729,12.356889,0.06645179,12.504551,1.4125545e-05,3,1,0,1
21288000,21204000,21208000,0,-2.052948,12.357057,0.076556444,12.508354,1.874232e-05,3,1,0,1
21344000,21264000,21264000,0,-1.8739014,12.357086,-0.0,12.511403,3.8403676e-05,3,1,0,1
21408000,21324000,21328000,0,-2.0861206,12.357251,0.09519076,12.515318,2.8960612e-05,3,1,0,1
21464000,21384000,21384000,0,-2.0946655,12.357279,0.0820353,12.496643,2.1541116e-05,3,1,0,1
21528000,21444000,21448000,0,-2.1174622,12.35744,0.09451413,12.500299,2.8584664e-05,3,1,0,1
21584000,21504000,21504000,0,-2.0368042,12.357463,0.0040402412,12.503242,5.2221818e-08,3,1,0,1
21648000,21564000,21568000,0,-2.0180054,12.35762,-0.0,12.507011,2.0154748e-06,3,1,0,1
21704000,21624000,21624000,0,-2.0604553,12.357641,0.0081858635,12.509941,2.1425636e-07,3,1,0,1
21768000,21682666,21688000,0,-2.1589966,12.357796,0.09648347,12.513768,2.9756216e-05,3,1,0,1
21824000,21744000,21744000,0,-2.1581726,12.357814,0.07423401,12.495139,1.7641061e-05,3,1,0,1
21888000,21804000,21808000,0,-2.0777283,12.357965,-0.0,12.498756,9.205345e-07,3,1,0,1
21944000,21864000,21864000,0,-2.1952515,12.357979,0.0919292,12.501592,2.7039685e-05,3,1,0,1
22008000,21924000,21928000,0,-2.1428223,12.358128,0.028941631,12.505279,2.6792463e-06,3,1,0,1
22064000,21984000,21984000,0,-2.1989136,12.358139,0.0766387,12.508193,1.8782857e-05,3,1,0,1
22128000,22042666,22048000,0,-2.2358093,12.358286,0.10359383,12.511905,3.4308705e-05,3,1,0,1
22184000,22104000,22104000,0,-2.112854,12.358295,-0.0,12.51485,2.5347745e-06,3,1,0,1
22248000,22164000,22168000,0,-2.164734,12.358439,0.0038905144,12.496952,4.844734e-08,3,1,0,1
22304000,22224000,22224000,0,-2.192871,12.358445,0.024742126,12.499767,1.9589895e-06,3,1,0,1
22368000,22284000,22288000,0,-2.2583923,12.358586,0.08183527,12.503352,2.142469e-05,3,1,0,1
22424000,22344000,22344000,0,-2.2670593,12.358589,0.082746506,12.506209,2.189947e-05,3,1,0,1
22488000,22402666,22408000,0,-2.303894,12.358728,0.11109233,12.509893,3.9461585e-05,3,1,0,1
22544000,22464000,22464000,0,-2.2325134,12.358729,0.03185153,12.512756,3.2431542e-06,3,1,0,1
22608000,22524000,22528000,0,-2.2650757,12.358867,0.05692053,12.516498,1.0354163e-05,3,1,0,1
22664000,22584000,22584000,0,-2.3162537,12.358866,0.08972621,12.497797,2.576708e-05,3,1,0,1
22728000,22642666,22648000,0,-2.3060608,12.358999,0.07168746,12.5013485,1.644332e-05,3,1,0,1
22784000,22704000,22704000,0,-2.3007507,12.358995,0.059630632,12.504137,1.1374835e-05,3,1,0,1
22848000,22762666,22768000,0,-2.384735,12.359126,0.13639927,12.507759,5.9498303e-05,3,1,0,1
22904000,22824000,22824000,0,-2.3319092,12.359121,0.07640123,12.5106125,1.866303e-05,3,1,0,1
22968000,22884000,22888000,0,-2.3312378,12.359251,0.068540335,12.514277,1.5015737e-05,3,1,0,1
23024000,22944000,22944000,0,-2.3494263,12.359243,0.067188025,12.495789,1.4450406e-05,3,1,0,1
23088000,23004000,23008000,0,-2.3441467,12.35937,0.055058718,12.499285,9.701235e-06,3,1,0,1
23144000,23064000,23064000,0,-2.4093933,12.359359,0.11440706,12.502055,4.1877836e-05,3,1,0,1
23208000,23124000,23128000,0,-2.4036865,12.359484,0.101483345,12.505611,3.2941593e-05,3,1,0,1
23264000,23184000,23184000,0,-2.2901,12.359472,-0.0,12.508429,1.0543381e-06,3,1,0,1
23328000,23244000,23248000,0,-2.3559875,12.359595,0.04250121,12.512072,5.774753e-06,3,1,0,1
23384000,23302000,23304000,0,-2.313385,12.359582,-0.0,12.51491,7.981693e-08,3,1,0,1
23448000,23362666,23368000,0,-2.4026184,12.359704,0.06623316,12.497236,1.4040964e-05,3,1,0,1
23504000,23424000,23424000,0,-2.4114075,12.359688,0.07020116,12.499974,1.5770282e-05,3,1,0,1
23568000,23484000,23488000,0,-2.3826294,12.359806,0.036091805,12.503491,4.1672147e-06,3,1,0,1
23624000,23544000,23544000,0,-2.3353882,12.359789,-0.0,12.506281,7.4806206e-07,3,1,0,1
23688000,23604000,23608000,0,-2.3777466,12.359906,0.023118973,12.509886,1.7090066e-06,3,1,0,1
23744000,23664000,23664000,0,-2.433899,12.359887,0.07583523,12.512717,1.8384437e-05,3,1,0,1
23808000,23722666,23728000,0,-2.362793,12.360003,0.00039625168,12.516376,5.017919e-10,3,1,0,1
23864000,23784000,23784000,0,-2.4566956,12.359983,0.0774622,12.497941,1.9204417e-05,3,1,0,1
23928000,23844000,23848000,0,-2.3855896,12.360097,0.0023429394,12.501435,1.756395e-08,3,1,0,1
23984000,23904000,23904000,0,-2.3151245,12.360074,-0.0,12.504191,1.6045145e-05,3,1,0,1
24048000,23964000,23968000,0,-2.3955688,12.360187,0.006862879,12.507765,1.5062358e-07,3,1,0,1
24104000,24024000,24024000,0,-2.3955078,12.360162,0.0045177937,12.510576,6.5258256e-08,3,1,0,1
24168000,24082666,24088000,0,-2.3954773,12.360273,0.002188921,12.514222,1.5314974e-08,3,1,0,1
24224000,24144000,24144000,0,-2.5315857,12.360249,0.12158036,12.49597,4.7316968e-05,3,1,0,1
24288000,24204000,24208000,0,-2.539917,12.360357,0.12656927,12.499432,5.126563e-05,3,1,0,1
24344000,24262000,24264000,0,-2.4824524,12.36033,0.0660851,12.502176,1.3972736e-05,3,1,0,1
24392000,24312000,24312000,0,-2.4161377,12.360167,-0.0,12.504173,1.6200826e-08,3,1,0,1
24456000,24372000,24376000,0,-2.481903,12.360278,0.062049866,12.507746,1.2312965e-05,3,1,0,1
24512000,24432000,24432000,0,-2.4578857,12.360251,0.036376953,12.510562,4.23093e-06,3,1,0,1
24576000,24492000,24496000,0,-2.45755,12.360362,0.03491211,12.514214,3.895907e-06,3,1,0,1
24632000,24552000,24552000,0,-2.4994812,12.360335,0.061243534,12.496073,1.2006237e-05,3,1,0,1
24696000,24612000,24616000,0,-2.4519958,12.360442,0.012744427,12.499542,5.1976434e-07,3,1,0,1
24752000,24670000,24672000,0,-2.5176086,12.360413,0.0780673,12.5022955,1.9498832e-05,3,1,0,1
24800000,24720000,24720000,0,-2.5685425,12.360249,0.12808466,12.504299,5.248012e-05,3,1,0,1
24864000,24778666,24784000,0,-2.5439453,12.360358,0.10213733,12.507884,3.3361466e-05,3,1,0,1
24920000,24838000,24840000,0,-2.4303284,12.360332,-0.0,12.510712,4.8950756e-07,3,1,0,1
24984000,24897333,24904000,0,-2.4961853,12.36044,0.054006577,12.514376,9.322751e-06,3,1,0,1
25040000,24958000,24960000,0,-2.3783264,12.360412,-0.0,12.496304,1.9626084e-05,3,1,0,1
25088000,25008000,25008000,0,-2.3743286,12.360248,-0.0,12.498287,2.1472231e-05,3,1,0,1
25152000,25068000,25072000,0,-2.5159302,12.360356,0.060314417,12.501807,1.163937e-05,3,1,0,1
25208000,25128000,25128000,0,-2.5107117,12.360329,0.055019617,12.504596,9.683346e-06,3,1,0,1
25272000,25188000,25192000,0,-2.580658,12.360436,0.12508631,12.508197,5.003626e-05,3,1,0,1
25328000,25248000,25248000,0,-2.5091248,12.360408,0.05276966,12.511038,8.902977e-06,3,1,0,1
25392000,25308000,25312000,0,-2.3631287,12.360516,-0.0,12.514719,2.7649312e-05,3,1,0,1
25448000,25368000,25368000,0,-2.5611267,12.360486,0.08943391,12.496674,2.5601768e-05,3,1,0,1
25512000,25428000,25432000,0,-2.5462646,12.36059,0.074216604,12.500175,1.7625685e-05,3,1,0,1
25568000,25488000,25488000,0,-2.5549622,12.3605585,0.08266091,12.502955,2.1859876e-05,3,1,0,1
25632000,25546666,25552000,0,-2.4838257,12.360662,0.011341095,12.506546,4.1137e-07,3,1,0,1
25688000,25608000,25608000,0,-2.558838,12.36063,0.08701706,12.509379,2.4212131e-05,3,1,0,1
25752000,25666666,25672000,0,-2.5533752,12.360733,0.08156681,12.51305,2.1267857e-05,3,1,0,1
25808000,25728000,25728000,0,-2.5808105,12.3607,0.10897708,12.515931,3.795484e-05,3,1,0,1
25872000,25786666,25792000,0,-2.5751648,12.360802,0.08625889,12.498556,2.3812658e-05,3,1,0,1
25928000,25848000,25848000,0,-2.6025696,12.360765,0.113628864,12.501326,4.131248e-05,3,1,0,1
25992000,25908000,25912000,0,-2.4841614,12.360866,-0.0,12.504901,7.820518e-08,3,1,0,1
26048000,25968000,25968000,0,-2.5921936,12.360829,0.10420418,12.50773,3.472576e-05,3,1,0,1
26112000,26028000,26032000,0,-2.4786072,12.3609295,-0.0,12.511388,2.641523e-07,3,1,0,1
26168000,26088000,26088000,0,-2.450531,12.360892,-0.0,12.514266,4.049886e-06,3,1,0,1
26232000,26146666,26152000,0,-2.5212402,12.360991,0.020884752,12.496939,1.3960952e-06,3,1,0,1
26288000,26206000,26208000,0,-2.5210571,12.360951,0.022086382,12.499697,1.5610242e-06,3,1,0,1
26336000,26256000,26256000,0,-2.6335754,12.360778,0.13582397,12.501718,5.902597e-05,3,1,0,1
26400000,26316000,26320000,0,-2.5760193,12.360878,0.07877588,12.505312,1.984961e-05,3,1,0,1
26456000,26376000,26376000,0,-2.5612488,12.360841,0.065057516,12.508155,1.3535107e-05,3,1,0,1
26520000,26436000,26440000,0,-2.621704,12.360941,0.12722301,12.511832,5.1745243e-05,3,1,0,1
26576000,26496000,26496000,0,-2.597107,12.360903,0.10343957,12.514725,3.4198896e-05,3,1,0,1
26640000,26556000,26560000,0,-2.5961914,12.361002,0.08601785,12.497383,2.3681983e-05,3,1,0,1
26696000,26614000,26616000,0,-2.6846313,12.360963,0.1757989,12.500156,9.8895565e-05,3,1,0,1
26744000,26664000,26664000,0,-2.556305,12.360788,0.04754138,12.502188,7.231319e-06,3,1,0,1
26808000,26724000,26728000,0,-2.5699463,12.3608885,0.06345534,12.505801,1.2879082e-05,3,1,0,1
26864000,26784000,26784000,0,-2.5740967,12.360851,0.06945634,12.508659,1.5426698e-05,3,1,0,1
26928000,26844000,26848000,0,-2.5922852,12.36095,0.08999872,12.512355,2.5893673e-05,3,1,0,1
26984000,26904000,26904000,0,-2.5492249,12.360913,0.048835278,12.515262,7.6223237e-06,3,1,0,1
27048000,26964000,26968000,0,-2.605133,12.361012,0.08922243,12.497886,2.5478366e-05,3,1,0,1
27104000,27024000,27024000,0,-2.510437,12.360972,-0.003535509,12.500673,3.9997285e-08,3,1,0,1
27168000,27084000,27088000,0,-2.6137695,12.361069,0.10329652,12.504269,3.4132892e-05,3,1,0,1
27224000,27144000,27144000,0,-2.5799866,12.361029,0.071430445,12.507118,1.6318096e-05,3,1,0,1
27288000,27204000,27208000,0,-2.5370789,12.361125,0.031258345,12.5108,3.12397e-06,3,1,0,1
27344000,27264000,27264000,0,-2.5509033,12.361084,0.04788518,12.5137005,7.3295364e-06,3,1,0,1
27408000,27324000,27328000,0,-2.5927124,12.361179,0.092817545,12.517459,2.752986e-05,3,1,0,1
27464000,27384000,27384000,0,-2.4557495,12.361138,-0.060401678,12.499112,1.167559e-05,3,1,0,1
27528000,27444000,27448000,0,-2.5220337,12.361232,0.00995183,12.502687,3.168564e-07,3,1,0,1
27584000,27504000,27504000,0,-2.6017456,12.361189,0.09254241,12.505526,2.7393004e-05,3,1,0,1
27648000,27562666,27568000,0,-2.6056213,12.361281,0.09884119,12.50919,3.1239695e-05,3,1,0,1
27704000,27624000,27624000,0,-2.5578003,12.361238,0.053017855,12.512081,8.986172e-06,3,1,0,1
27768000,27684000,27688000,0,-2.6512146,12.361331,0.14952612,12.515825,7.145533e-05,3,1,0,1
27824000,27744000,27744000,0,-2.6686707,12.361286,0.14944601,12.497503,7.1483424e-05,3,1,0,1
27888000,27804000,27808000,0,-2.5217896,12.361377,0.0043537617,12.501056,6.065165e-08,3,1,0,1
27944000,27862000,27864000,0,-2.6203308,12.361331,0.10581398,12.503878,3.5818e-05,3,1,0,1
27992000,27912000,27912000,0,-2.5583496,12.361152,0.04514599,12.5059395,6.519015e-06,3,1,0,1
28056000,27970666,27976000,0,-2.5063171,12.361245,-0.0039806366,12.509617,5.0666518e-08,3,1,0,1
28112000,28032000,28032000,0,-2.5204468,12.361202,0.013340712,12.512518,5.6894885e-07,3,1,0,1
28176000,28092000,28096000,0,-2.586029,12.361296,0.082473755,12.516274,2.1737842e-05,3,1,0,1
28232000,28152000,28152000,0,-2.618164,12.361252,0.09406257,12.49792,2.8317565e-05,3,1,0,1
28296000,28212000,28216000,0,-2.6032715,12.361343,0.0816021,12.501485,2.1305957e-05,3,1,0,1
28352000,28272000,28272000,0,-2.5509033,12.361298,0.03135562,12.504316,3.1450736e-06,3,1,0,1
28416000,28332000,28336000,0,-2.6914673,12.361389,0.17513299,12.507973,9.808645e-05,3,1,0,1
28472000,28392000,28392000,0,-2.5678406,12.361343,0.052687883,12.510861,8.87553e-06,3,1,0,1
28536000,28452000,28456000,0,-2.651886,12.361434,0.13996172,12.514598,6.2612584e-05,3,1,0,1
28592000,28512000,28512000,0,-2.5473633,12.361388,0.03723669,12.517533,4.4308126e-06,3,1,0,1
28656000,28570666,28576000,0,-2.6221313,12.361479,0.093328476,12.499819,2.7873057e-05,3,1,0,1
28712000,28632000,28632000,0,-2.5508728,12.361431,0.02451849,12.502633,1.923295e-06,3,1,0,1
28776000,28690666,28696000,0,-2.6304932,12.361519,0.10794902,12.506264,3.7270893e-05,3,1,0,1
28832000,28752000,28752000,0,-2.648285,12.361471,0.1282053,12.509137,5.25587e-05,3,1,0,1
28896000,28812000,28816000,0,-2.5626526,12.36156,0.04554248,12.512852,6.6303587e-06,3,1,0,1
28952000,28872000,28872000,0,-2.7030945,12.361511,0.18958592,12.515775,0.00011487206,3,1,0,1
29016000,28932000,28936000,0,-2.5558777,12.361599,0.019945383,12.498098,1.2732123e-06,3,1,0,1
29072000,28990000,28992000,0,-2.7106323,12.361549,0.17852831,12.500893,0.00010198427,3,1,0,1
29120000,29040000,29040000,0,-2.6151428,12.361365,0.08453369,12.50294,2.2861646e-05,3,1,0,1
29184000,29100000,29104000,0,-2.6003113,12.361455,0.07341266,12.506578,1.7237066e-05,3,1,0,1
29240000,29160000,29160000,0,-2.6653748,12.361408,0.14183211,12.509458,6.432364e-05,3,1,0,1
29304000,29220000,29224000,0,-2.6406555,12.361497,0.120526075,12.513178,4.643596e-05,3,1,0,1
29360000,29280000,29280000,0,-2.517517,12.36145,0.0006508827,12.516106,1.3539301e-09,3,1,0,1
29424000,29340000,29344000,0,-2.5738525,12.361539,0.03562045,12.498419,4.0607265e-06,3,1,0,1
29480000,29400000,29400000,0,-2.6111145,12.36149,0.07737136,12.501219,1.915438e-05,3,1,0,1
29544000,29460000,29464000,0,-2.5916443,12.361577,0.06385994,12.504828,1.3044856e-05,3,1,0,1
29600000,29520000,29520000,0,-2.5769653,12.361528,0.05688429,12.507689,1.0348266e-05,3,1,0,1
29664000,29578666,29584000,0,-2.5905457,12.361615,0.083863735,12.511385,2.2485523e-05,3,1,0,1
29720000,29640000,29640000,0,-2.6132507,12.361567,0.12281871,12.5142975,4.8215046e-05,3,1,0,1
29784000,29700000,29704000,0,-2.5041504,12.361653,0.038622856,12.51807,4.7666294e-06,3,1,0,1
29840000,29760000,29760000,0,-2.6399841,12.361604,0.17520094,12.499443,9.822955e-05,3,1,0,1
29904000,29820000,29824000,0,-2.48349,12.361689,0.058368444,12.503022,1.0899365e-05,3,1,0,1
29960000,29880000,29880000,0,-2.445404,12.361637,0.061919928,12.505862,1.2263296e-05,3,1,0,1
30024000,29940000,29944000,0,-2.3885193,12.361722,0.057109356,12.509531,1.0428779e-05,3,1,0,1
30080000,30000000,30000000,0,-2.3833008,12.361671,0.09975672,12.512426,3.1812862e-05,3,1,0,1
30144000,30060000,30064000,0,-2.3683472,12.361756,0.14007807,12.516173,6.270884e-05,3,1,0,1
30200000,30120000,30120000,0,-2.263794,12.361705,0.08289504,12.519113,2.195551e-05,3,1,0,1
30264000,30180000,30184000,0,-2.2254944,12.36179,0.067207575,12.50117,1.4452593e-05,3,1,0,1
30320000,30240000,30240000,0,-2.2295837,12.361736,0.11563063,12.503989,4.2771764e-05,3,1,0,1
30384000,30300000,30304000,0,-2.1299438,12.361819,0.06397724,12.5076275,1.30898925e-05,3,1,0,1
30440000,30360000,30360000,0,-2.082428,12.361766,0.05774212,12.510503,1.066033e-05,3,1,0,1
30504000,30420000,30424000,0,-2.06781,12.361849,0.09001541,12.514223,2.5899408e-05,3,1,0,1
30560000,30480000,30480000,0,-2.0388489,12.361795,0.101601124,12.517146,3.2987675e-05,3,1,0,1
30624000,30540000,30544000,0,-1.9675293,12.361878,0.046233535,12.49928,6.840521e-06,3,1,0,1
30680000,30600000,30600000,0,-1.976471,12.361824,0.096211314,12.502075,2.9616258e-05,3,1,0,1
30744000,30658666,30664000,0,-1.9474487,12.361905,0.11380851,12.505682,4.1428775e-05,3,1,0,1
30800000,30720000,30720000,0,-1.9699402,12.36185,0.17691517,12.508537,0.000100088364,3,1,0,1
30864000,30780000,30784000,0,-1.846283,12.361932,0.09944701,12.51223,3.161613e-05,3,1,0,1
30920000,30840000,30840000,0,-1.8171997,12.3618765,0.11178148,12.515135,3.9935963e-05,3,1,0,1
30984000,30900000,30904000,0,-1.7739563,12.3619585,0.11629808,12.518903,4.3215427e-05,3,1,0,1
31040000,30960000,30960000,0,-1.7118835,12.361903,0.06295252,12.500134,1.2681527e-05,3,1,0,1
31104000,31020000,31024000,0,-1.6315002,12.361983,0.031045675,12.503709,3.083354e-06,3,1,0,1
31160000,31080000,31080000,0,-1.6594238,12.361927,0.101864815,12.506543,3.3187236e-05,3,1,0,1
31224000,31140000,31144000,0,-1.4941711,12.362006,-0.0,12.510204,7.130449e-07,3,1,0,1
31280000,31200000,31200000,0,-1.6398315,12.36195,0.17436397,12.513091,9.718716e-05,3,1,0,1
31344000,31260000,31264000,0,-1.4457703,12.36203,0.028277159,12.516831,2.555272e-06,3,1,0,1
31400000,31320000,31320000,0,-1.3751221,12.361974,0.0012444258,12.519762,4.9476836e-09,3,1,0,1
31464000,31378666,31384000,0,-1.4173584,12.362054,0.06057334,12.501717,1.1739602e-05,3,1,0,1
31520000,31440000,31440000,0,-1.369873,12.361996,0.055986524,12.504526,1.002674e-05,3,1,0,1
31584000,31500000,31504000,0,-1.3740845,12.362075,0.1094054,12.508158,3.827755e-05,3,1,0,1
31640000,31560000,31560000,0,-1.2510376,12.362017,0.028791428,12.511024,2.6502908e-06,3,1,0,1
31704000,31620000,31624000,0,-1.1991272,12.362095,0.026670694,12.514736,2.2735628e-06,3,1,0,1
31760000,31680000,31680000,0,-1.1237793,12.362038,-0.0,12.517651,7.838191e-08,3,1,0,1
31824000,31740000,31744000,0,-1.1191101,12.362117,0.007039666,12.499711,1.5858575e-07,3,1,0,1
31880000,31800000,31800000,0,-1.1941833,12.362057,0.12583339,12.502497,5.065882e-05,3,1,0,1
31944000,31860000,31864000,0,-1.0897522,12.362134,0.070056796,12.506095,1.56978e-05,3,1,0,1
32000000,31920000,31920000,0,-1.0468445,12.362076,0.07017821,12.508943,1.5748674e-05,3,1,0,1
32064000,31980000,31984000,0,-1.0039673,12.362153,0.076747894,12.512626,1.8829747e-05,3,1,0,1
32120000,32038000,32040000,0,-1.0877686,12.362094,0.20378602,12.515522,0.00013272715,3,1,0,1
32184000,32098666,32104000,0,-0.94976807,12.362171,0.11392093,12.5192795,4.1465573e-05,3,1,0,1
32240000,32158000,32160000,0,-0.9628601,12.362113,0.13588905,12.500463,5.908849e-05,3,1,0,1
32288000,32208000,32208000,0,-0.7409668,12.361918,-0.0,12.502485,7.950449e-06,3,1,0,1
32352000,32268000,32272000,0,-0.7602234,12.361999,0.019691229,12.506086,1.2401784e-06,3,1,0,1
32408000,32328000,32328000,0,-0.8539429,12.361941,0.15725493,12.508934,7.907664e-05,3,1,0,1
32472000,32388000,32392000,0,-0.6929016,12.362021,0.044831872,12.51262,6.425183e-06,3,1,0,1
32528000,32448000,32448000,0,-0.66433716,12.361965,0.060055792,12.515518,1.1527124e-05,3,1,0,1
32592000,32508000,32512000,0,-0.67315674,12.362045,0.118982255,12.519279,4.5231925e-05,3,1,0,1
32648000,32568000,32568000,0,-0.5265503,12.361988,-0.0,12.500515,1.1346601e-06,3,1,0,1
32712000,32628000,32632000,0,-0.59246826,12.362067,0.09749851,12.504086,3.0409126e-05,3,1,0,1
32768000,32688000,32688000,0,-0.4413452,12.362009,-0.0,12.506913,3.598243e-07,3,1,0,1
32832000,32748000,32752000,0,-0.50717163,12.362087,0.1057834,12.510571,3.5778157e-05,3,1,0,1
32888000,32808000,32808000,0,-0.56726074,12.362029,0.20904544,12.513451,0.00013968967,3,1,0,1
32952000,32868000,32872000,0,-0.42453003,12.362108,0.114806354,12.517186,4.2119686e-05,3,1,0,1
33008000,32928000,32928000,0,-0.36715698,12.36205,0.100840986,12.52011,3.2488228e-05,3,1,0,1
33072000,32988000,32992000,0,-0.36154175,12.362129,0.112610474,12.502076,4.0572842e-05,3,1,0,1
33128000,33048000,33048000,0,-0.34646606,12.36207,0.14068596,12.504883,6.3311396e-05,3,1,0,1
33192000,33108000,33112000,0,-0.27478027,12.362147,0.11822167,12.50851,4.4693938e-05,3,1,0,1
33248000,33168000,33168000,0,-0.19390869,12.362088,0.08063012,12.511373,2.0784984e-05,3,1,0,1
33312000,33228000,33232000,0,-0.07110596,12.362165,0.008186296,12.51508,2.1419098e-07,3,1,0,1
33368000,33288000,33288000,0,-0.11328125,12.362106,0.09548461,12.51799,2.9133462e-05,3,1,0,1
33432000,33348000,33352000,0,-0.08895874,12.362185,0.0888402,12.500062,2.5256135e-05,3,1,0,1
33488000,33408000,33408000,0,0.07614136,12.3621235,-0.0,12.502846,3.303273e-06,3,1,0,1
33552000,33468000,33472000,0,0.0664978,12.3622,0.029194556,12.506443,2.7260255e-06,3,1,0,1
33608000,33528000,33528000,0,0.080841064,12.36214,0.05979,12.509287,1.1431009e-05,3,1,0,1
33672000,33588000,33592000,0,0.14242554,12.362216,0.07591292,12.512958,1.8421773e-05,3,1,0,1
33728000,33648000,33648000,0,0.07269287,12.362156,0.21128452,12.515809,0.00014267123,3,1,0,1
33792000,33708000,33712000,0,0.04171753,12.362232,0.30148017,12.519475,0.0002903965,3,1,0,1
33848000,33768000,33768000,0,-0.07763672,12.362173,0.40430322,12.500608,0.00052305,3,1,0,1
33912000,33828000,33832000,0,-0.008270264,12.362247,0.37782845,12.504018,0.0004566671,3,1,0,1
33968000,33888000,33888000,0,-0.0095825195,12.362186,0.4147963,12.506669,0.0005502855,3,1,0,1
34032000,33946666,33952000,0,-0.095062256,12.362262,0.5415791,12.51008,0.00093782914,3,1,0,1
34088000,34008000,34008000,0,0.003692627,12.362201,0.47850963,12.512709,0.0007319645,3,1,0,1
34152000,34068000,34072000,0,-0.16104126,12.362276,0.68832177,12.516106,0.001514167,3,1,0,1
34208000,34128000,34128000,0,-0.07974243,12.362215,0.6453556,12.518698,0.0013307576,3,1,0,1
34272000,34188000,34192000,0,-0.17254639,12.362291,0.665532,12.500687,0.0014173073,3,1,0,1
34328000,34248000,34248000,0,-0.26986694,12.362228,0.8043399,12.503129,0.0020697624,3,1,0,1
34392000,34306666,34312000,0,-0.1734314,12.362303,0.7565723,12.5062895,0.0018307641,3,1,0,1
34448000,34368000,34368000,0,-0.23236084,12.362241,0.8596603,12.508711,0.002363204,3,1,0,1
34512000,34428000,34432000,0,-0.2387085,12.362315,0.91972274,12.51186,0.0027042818,3,1,0,1
34568000,34488000,34488000,0,-0.26800537,12.362253,0.99676484,12.514251,0.003175708,3,1,0,1
34632000,34548000,34552000,0,-0.19332886,12.362329,0.81548154,12.496782,0.0021285804,3,1,0,1
34688000,34608000,34608000,0,-0.26113892,12.362265,0.9356193,12.499041,0.002801442,3,1,0,1
34752000,34668000,34672000,0,-0.23864746,12.362338,0.9745209,12.501981,0.0030385295,3,1,0,1
34808000,34728000,34728000,0,-0.19702148,12.362275,0.98635936,12.504226,0.0031122433,3,1,0,1
34872000,34788000,34792000,0,-0.2961731,12.362349,1.1506,12.507164,0.0042339903,3,1,0,1
34928000,34848000,34848000,0,-0.22009277,12.362286,1.1306126,12.509388,0.0040874416,3,1,0,1
34992000,34908000,34912000,0,-0.1817627,12.36236,1.161228,12.512316,0.0043107937,3,1,0,1
35048000,34966000,34968000,0,-0.17599487,12.362297,1.0207471,12.49474,0.0033355623,3,1,0,1
35112000,35026666,35032000,0,-0.22317505,12.36237,1.1406598,12.4975,0.0041643684,3,1,0,1
35168000,35088000,35088000,0,-0.10021973,12.362306,1.0796973,12.499605,0.0037305055,3,1,0,1
35232000,35148000,35152000,0,-0.16564941,12.362378,1.2201006,12.502375,0.0047627613,3,1,0,1
35288000,35208000,35208000,0,-0.12652588,12.362314,1.245471,12.504471,0.004962059,3,1,0,1
35352000,35268000,35272000,0,-0.12939453,12.362387,1.3261849,12.507243,0.0056247925,3,1,0,1
35408000,35328000,35328000,0,-0.1315918,12.362324,1.39552,12.509328,0.0062272768,3,1,0,1
35472000,35388000,35392000,0,-0.10494995,12.362396,1.2317675,12.493113,0.0048578805,3,1,0,1
35528000,35446000,35448000,0,0.028198242,12.362331,1.1676304,12.495115,0.0043644607,3,1,0,1
35576000,35496000,35496000,0,0.033996582,12.362133,1.220061,12.496485,0.004764696,3,1,0,1
35640000,35556000,35560000,0,0.08718872,12.362208,1.2492535,12.49914,0.004994374,3,1,0,1
35696000,35616000,35616000,0,0.1171875,12.362147,1.290869,12.501152,0.0053318054,3,1,0,1
35760000,35676000,35680000,0,0.1803894,12.362223,1.3128059,12.503825,0.0055133826,3,1,0,1
35816000,35736000,35736000,0,0.13113403,12.362162,1.2049036,12.487847,0.0046502575,3,1,0,1
35880000,35796000,35800000,0,0.14666748,12.362236,1.2759304,12.490395,0.005213601,3,1,0,1
35936000,35856000,35856000,0,0.2849121,12.362174,1.2113333,12.492344,0.004698328,3,1,0,1
36000000,35916000,35920000,0,0.3427124,12.362248,1.2404099,12.494927,0.004925572,3,1,0,1
36056000,35974000,35976000,0,0.24118042,12.362186,1.41678,12.496896,0.006424845,3,1,0,1
36104000,36024000,36024000,0,0.432312,12.361991,1.2868077,12.498233,0.005299546,3,1,0,1
36168000,36082666,36088000,0,0.43444824,12.362068,1.3739212,12.500864,0.006040092,3,1,0,1
36224000,36144000,36144000,0,0.43740845,12.36201,1.1963309,12.48558,0.0045851534,3,1,0,1
36288000,36204000,36208000,0,0.5279541,12.362087,1.1564244,12.488095,0.004283495,3,1,0,1
36344000,36264000,36264000,0,0.5946655,12.362027,1.1328232,12.490018,0.004109805,3,1,0,1
36408000,36324000,36328000,0,0.5015564,12.362104,1.2768147,12.492558,0.0052199266,3,1,0,1
36464000,36384000,36384000,0,0.48013306,12.362044,1.3394353,12.494485,0.0057436125,3,1,0,1
36528000,36444000,36448000,0,0.45928955,12.362122,1.4082602,12.49704,0.006347733,3,1,0,1
36584000,36504000,36504000,0,0.5423584,12.3620615,1.3642315,12.498964,0.005956101,3,1,0,1
36648000,36564000,36568000,0,0.48886108,12.362139,1.224146,12.484744,0.004801167,3,1,0,1
36704000,36624000,36624000,0,0.57025146,12.362078,1.1816647,12.48659,0.004473059,3,1,0,1
36768000,36684000,36688000,0,0.566803,12.362153,1.2314214,12.489033,0.0048567364,3,1,0,1
36824000,36744000,36744000,0,0.60131836,12.362093,1.2350987,12.490885,0.0048850626,3,1,0,1
36888000,36804000,36808000,0,0.5654602,12.362168,1.3160628,12.4933405,0.0055454224,3,1,0,1
36944000,36864000,36864000,0,0.51623535,12.362107,1.4019814,12.495189,0.006292187,3,1,0,1
37008000,36924000,36928000,0,0.6227112,12.362184,1.3381805,12.49765,0.0057314043,3,1,0,1
37064000,36984000,36984000,0,0.59716797,12.362123,1.1592051,12.483259,0.0043057874,3,1,0,1
37128000,37044000,37048000,0,0.72024536,12.362197,1.0788753,12.485603,0.0037290049,3,1,0,1
37184000,37104000,37104000,0,0.6830139,12.362136,1.1526294,12.487379,0.004255671,3,1,0,1
37248000,37164000,37168000,0,0.6463928,12.36221,1.2315382,12.489739,0.004857383,3,1,0,1
37304000,37224000,37224000,0,0.6480713,12.362148,1.2642808,12.491514,0.005118374,3,1,0,1
37368000,37282666,37288000,0,0.7110901,12.362223,1.2417592,12.493884,0.004936706,3,1,0,1
37424000,37344000,37344000,0,0.5907593,12.362162,1.1568267,12.480031,0.004289246,3,1,0,1
37488000,37404000,37408000,0,0.69976807,12.362235,1.0869325,12.482289,0.0037859157,3,1,0,1
37544000,37464000,37464000,0,0.7001343,12.362172,1.1198635,12.484,0.004018245,3,1,0,1
37608000,37524000,37528000,0,0.79003906,12.362246,1.0690258,12.48628,0.0036610295,3,1,0,1
37664000,37584000,37584000,0,0.7104187,12.362184,1.1817515,12.487999,0.0044732117,3,1,0,1
37728000,37644000,37648000,0,0.7163696,12.362257,1.2137748,12.490297,0.0047180597,3,1,0,1
37784000,37702000,37704000,0,0.76013184,12.362195,1.2011486,12.492021,0.004619775,3,1,0,1
37832000,37752000,37752000,0,0.76620483,12.361999,0.9856311,12.478088,0.0031141588,3,1,0,1
37896000,37812000,37816000,0,0.7374878,12.362075,1.051701,12.480296,0.0035450277,3,1,0,1
37952000,37872000,37872000,0,0.8032532,12.362015,1.0166322,12.481972,0.0033121086,3,1,0,1
38016000,37932000,37936000,0,0.83114624,12.362091,1.0254006,12.48421,0.003368884,3,1,0,1
38072000,37990000,37992000,0,0.7558594,12.362031,1.1312695,12.485901,0.00409989,3,1,0,1
38120000,38040000,38040000,0,0.714386,12.361836,1.196308,12.487033,0.004584445,3,1,0,1
38184000,38100000,38104000,0,0.8049011,12.361917,1.1401428,12.489312,0.0041633216,3,1,0,1
38240000,38160000,38160000,0,0.83392334,12.36186,0.91010165,12.476429,0.0026555194,3,1,0,1
38304000,38220000,38224000,0,0.7904053,12.361938,0.98847365,12.478622,0.0031320127,3,1,0,1
38360000,38280000,38280000,0,0.8086853,12.361881,0.9987323,12.480294,0.003196932,3,1,0,1
38424000,38340000,38344000,0,0.81292725,12.361959,1.0282234,12.482529,0.0033879138,3,1,0,1
38480000,38400000,38400000,0,0.81744385,12.361902,1.0515634,12.484227,0.0035429841,3,1,0,1
38544000,38460000,38464000,0,0.90200806,12.36198,0.9998772,12.486503,0.0032026723,3,1,0,1
38600000,38520000,38520000,0,1.0377502,12.361922,0.8919679,12.488225,0.002548342,3,1,0,1
38664000,38580000,38584000,0,0.94244385,12.362001,0.797132,12.476214,0.0020372188,3,1,0,1
38720000,38640000,38640000,0,0.94018555,12.361942,0.82724404,12.477898,0.0021937436,3,1,0,1
38784000,38700000,38704000,0,0.8114624,12.36202,0.98844516,12.480147,0.0031314497,3,1,0,1
38840000,38760000,38760000,0,0.84381104,12.36196,0.98190916,12.48187,0.0030897472,3,1,0,1
38904000,38820000,38824000,0,0.89019775,12.362038,0.96634185,12.484173,0.0029920014,3,1,0,1
38960000,38880000,38880000,0,0.9739685,12.361979,0.9083363,12.485933,0.0026432138,3,1,0,1
39024000,38940000,38944000,0,1.0196838,12.362056,0.672866,12.474231,0.0014517885,3,1,0,1
39080000,39000000,39000000,0,0.94592285,12.361996,0.77324104,12.475951,0.0019169736,3,1,0,1
39144000,39058666,39064000,0,0.8918152,12.362072,0.8576828,12.478244,0.0023580878,3,1,0,1
39200000,39120000,39120000,0,0.9746094,12.362012,0.79964733,12.480016,0.0020494713,3,1,0,1
39264000,39180000,39184000,0,0.9911804,12.362088,0.8129934,12.482377,0.0021180527,3,1,0,1
39320000,39240000,39240000,0,1.0548096,12.362028,0.77436113,12.484199,0.0019212614,3,1,0,1
39384000,39300000,39304000,0,0.9725647,12.362104,0.8865415,12.4866295,0.0025177517,3,1,0,1
39440000,39360000,39360000,0,0.9617615,12.362044,0.7053883,12.474486,0.0015954891,3,1,0,1
39504000,39420000,39424000,0,0.9634094,12.36212,0.731817,12.4768505,0.0017169594,3,1,0,1
39560000,39480000,39480000,0,0.988739,12.362058,0.7299017,12.478691,0.0017077317,3,1,0,1
39624000,39540000,39544000,0,0.9107971,12.362133,0.83544815,12.481137,0.002236891,3,1,0,1
39680000,39600000,39600000,0,1.0309753,12.362072,0.7374816,12.483041,0.0017427775,3,1,0,1
39744000,39660000,39664000,0,1.0610962,12.362147,0.7347636,12.485569,0.0017296051,3,1,0,1
39800000,39720000,39720000,0,1.0958557,12.362087,0.72294796,12.4875345,0.0016741616,3,1,0,1
39864000,39780000,39784000,0,0.9614868,12.362163,0.67295754,12.475962,0.0014519822,3,1,0,1
39920000,39840000,39840000,0,1.1036987,12.362101,0.552155,12.477892,0.0009773291,3,1,0,1
39984000,39900000,39904000,0,1.0194702,12.362175,0.66280544,12.480443,0.0014079983,3,1,0,1
40040000,39960000,39960000,0,1.0582886,12.362113,0.64533067,12.482446,0.0013345194,3,1,0,1
40104000,40020000,40024000,0,1.0265198,12.362187,0.7025068,12.485092,0.0015811361,3,1,0,1
40160000,40080000,40080000,0,1.0140686,12.362126,0.73571384,12.487167,0.0017338594,3,1,0,1
40224000,40140000,40144000,0,1.0253296,12.362201,0.54147863,12.475545,0.0009400764,3,1,0,1
40280000,40198000,40200000,0,1.1757812,12.362138,0.41098356,12.477575,0.00054147537,3,1,0,1
40328000,40248000,40248000,0,1.1700745,12.361941,0.4342339,12.479047,0.0006044022,3,1,0,1
40392000,40308000,40312000,0,1.1505127,12.362019,0.47821963,12.481762,0.00073289016,3,1,0,1
40448000,40368000,40368000,0,1.1125488,12.361959,0.53652585,12.48391,0.00092233915,3,1,0,1
40512000,40426666,40432000,0,1.2065735,12.362038,0.46579373,12.486731,0.00069502194,3,1,0,1
40568000,40488000,40488000,0,1.1356506,12.361979,0.5570874,12.488957,0.0009939865,3,1,0,1
40632000,40548000,40552000,0,1.1124878,12.362056,0.4010824,12.477124,0.00051571854,3,1,0,1
40688000,40608000,40608000,0,1.073822,12.361996,0.45831406,12.479301,0.00067328056,3,1,0,1
40752000,40668000,40672000,0,1.2047119,12.362073,0.34860635,12.482149,0.00038944057,3,1,0,1
40808000,40728000,40728000,0,1.123352,12.362013,0.44894147,12.484416,0.0006457601,3,1,0,1
40872000,40786666,40792000,0,1.0240784,12.362089,0.56930983,12.487378,0.0010382122,3,1,0,1
40928000,40848000,40848000,0,1.1089783,12.362029,0.5010011,12.489731,0.0008038672,3,1,0,1
40992000,40908000,40912000,0,1.1416321,12.362106,0.48870814,12.492806,0.00076471415,3,1,0,1
41048000,40968000,40968000,0,1.1460266,12.362046,0.30459118,12.479875,0.0002973613,3,1,0,1
41112000,41028000,41032000,0,1.1722717,12.362123,0.29771185,12.482856,0.00028401305,3,1,0,1
41168000,41088000,41088000,0,1.0293884,12.3620615,0.4571848,12.485239,0.0006696482,3,1,0,1
41232000,41148000,41152000,0,1.2259827,12.362137,0.2783574,12.488341,0.00024817654,3,1,0,1
41288000,41206000,41208000,0,1.1158142,12.362077,0.40525818,12.490817,0.0005259358,3,1,0,1
41336000,41256000,41256000,0,1.0490112,12.361882,0.26872528,12.471001,0.00023161982,3,1,0,1
41400000,41314666,41320000,0,1.1359253,12.36196,0.19509327,12.47332,0.00012205695,3,1,0,1
41456000,41376000,41376000,0,1.1987,12.361901,0.0039508343,12.463846,5.009398e-08,3,1,0,1
41520000,41436000,41440000,0,1.1048279,12.361979,0.013014317,12.454933,5.439529e-07,3,1,0,1
41576000,41496000,41496000,0,1.1566162,12.361918,-0.029783607,12.456273,2.848567e-06,3,1,0,1
41640000,41556000,41560000,0,1.2173767,12.361994,-0.07998395,12.458096,2.0540643e-05,3,1,0,1
41696000,41616000,41616000,0,1.1603088,12.361934,-0.013323545,12.459507,5.699001e-07,3,1,0,1
41760000,41676000,41680000,0,1.1554871,12.36201,-0.064115286,12.452942,1.3204172e-05,3,1,0,1
41816000,41734000,41736000,0,1.0750732,12.361949,-0.07473302,12.446329,1.7949145e-05,3,1,0,1
41864000,41784000,41784000,0,1.0321655,12.3617525,-0.02613318,12.447059,2.1947133e-06,3,1,0,1
41928000,41844000,41848000,0,1.1821594,12.361831,-0.20491225,12.443111,0.00013497919,3,1,0,1
