timestamp,timestamp_sample,yaw_composite,yaw_variance,yaw[0],yaw[1],yaw[2],yaw[3],yaw[4],innov_vn[0],innov_vn[1],innov_vn[2],innov_vn[3],innov_vn[4],innov_ve[0],innov_ve[1],innov_ve[2],innov_ve[3],innov_ve[4],weight[0],weight[1],weight[2],weight[3],weight[4],yaw_composite_valid
15008000,14928000,2.6779451,3.5801747,-2.5132742,-1.2566371,0.0,1.2566371,2.5132742,0.0,0.0,0.0,0.0,0.0,0.0,0.0,0.0,0.0,0.0,0.2,0.2,0.2,0.2,0.2,0
15016000,14936000,-2.6779451,3.5801718,-2.5132842,-1.2566471,-9.995958e-06,1.2566271,2.5132642,0.0,0.0,0.0,0.0,0.0,0.0,0.0,0.0,0.0,0.0,0.2,0.2,0.2,0.2,0.2,0
15024000,14944000,-2.5829935,3.5579193,-2.5132787,-1.2566416,-4.498982e-06,1.2566326,2.51327,0.0,0.0,0.0,0.0,0.0,0.0,0.0,0.0,0.0,0.0,0.2,0.2,0.2,0.2,0.2,0
15032000,14952000,2.896614,3.7000067,-2.5132709,-1.2566338,3.3414426e-06,1.2566404,2.5132775,0.0,0.0,0.0,0.0,0.0,0.0,0.0,0.0,0.0,0.0,0.2,0.2,0.2,0.2,0.2,0
15040000,14960000,-2.782822,3.6257174,-2.5132725,-1.2566353,1.7275994e-06,1.2566389,2.513276,0.0,0.0,0.0,0.0,0.0,0.0,0.0,0.0,0.0,0.0,0.2,0.2,0.2,0.2,0.2,0
15048000,14968000,-2.6779451,3.5801814,-2.5132625,-1.2566253,1.1739273e-05,1.2566488,2.513286,0.0,0.0,0.0,0.0,0.0,0.0,0.0,0.0,0.0,0.0,0.2,0.2,0.2,0.2,0.2,0
15056000,14976000,-2.896614,3.6999993,-2.5132892,-1.256652,-1.4921852e-05,1.2566221,2.5132594,0.0,0.0,0.0,0.0,0.0,0.0,0.0,0.0,0.0,0.0,0.2,0.2,0.2,0.2,0.2,0
15064000,14984000,3.1415927,3.947798,-2.5133126,-1.2566755,-3.8443748e-05,1.2565987,2.5132358,0.0,0.0,0.0,0.0,0.0,0.0,0.0,0.0,0.0,0.0,0.2,0.2,0.2,0.2,0.2,0
15072000,14992000,2.3561945,3.5777245,-2.5133138,-1.2566767,-3.955561e-05,1.2565975,2.5132346,0.0,0.0,0.0,0.0,0.0,0.0,0.0,0.0,0.0,0.0,0.2,0.2,0.2,0.2,0.2,0
15080000,15000000,-2.4227626,3.5612645,-2.5133226,-1.2566855,-4.8412898e-05,1.2565887,2.513226,0.0,0.0,0.0,0.0,0.0,0.0,0.0,0.0,0.0,0.0,0.2,0.2,0.2,0.2,0.2,0
15088000,15008000,3.0172377,3.8071089,-2.5133395,-1.2567023,-6.528298e-05,1.2565718,2.513209,0.0,0.0,0.0,0.0,0.0,0.0,0.0,0.0,0.0,0.0,0.2,0.2,0.2,0.2,0.2,0
15096000,15016000,-2.7468016,3.6075706,-2.5133362,-1.256699,-6.18398e-05,1.2565752,2.5132127,0.0,0.0,0.0,0.0,0.0,0.0,0.0,0.0,0.0,0.0,0.2,0.2,0.2,0.2,0.2,0
15104000,15024000,2.5829935,3.5579348,-2.5133367,-1.2566994,-6.23564e-05,1.2565747,2.513212,0.0,0.0,0.0,0.0,0.0,0.0,0.0,0.0,0.0,0.0,0.2,0.2,0.2,0.2,0.2,0
15112000,15032000,-2.819842,3.647009,-2.5133412,-1.256704,-6.6880035e-05,1.2565702,2.5132074,0.0,0.0,0.0,0.0,0.0,0.0,0.0,0.0,0.0,0.0,0.2,0.2,0.2,0.2,0.2,0
15120000,15040000,-2.2455373,3.6247718,-2.5133162,-1.256679,-4.1973326e-05,1.2565951,2.5132325,0.0,0.0,0.0,0.0,0.0,0.0,0.0,0.0,0.0,0.0,0.2,0.2,0.2,0.2,0.2,0
15128000,15048000,-2.8501358,3.6665204,-2.5133076,-1.2566705,-3.3378663e-05,1.2566037,2.513241,0.0,0.0,0.0,0.0,0.0,0.0,0.0,0.0,0.0,0.0,0.2,0.2,0.2,0.2,0.2,0
15136000,15056000,2.976444,3.7676387,-2.5133226,-1.2566854,-4.8293015e-05,1.2565887,2.513226,0.0,0.0,0.0,0.0,0.0,0.0,0.0,0.0,0.0,0.0,0.2,0.2,0.2,0.2,0.2,0
15144000,15064000,-2.976444,3.767552,-2.5133207,-1.2566833,-4.6387537e-05,1.2565907,2.513228,0.0,0.0,0.0,0.0,0.0,0.0,0.0,0.0,0.0,0.0,0.2,0.2,0.2,0.2,0.2,0
15152000,15072000,-2.976444,3.767547,-2.5133266,-1.2566894,-5.2361574e-05,1.2565848,2.513222,0.0,0.0,0.0,0.0,0.0,0.0,0.0,0.0,0.0,0.0,0.2,0.2,0.2,0.2,0.2,0
15160000,15080000,-2.158799,3.6787622,-2.5133302,-1.256693,-5.5994788e-05,1.2565811,2.5132184,0.0,0.0,0.0,0.0,0.0,0.0,0.0,0.0,0.0,0.0,0.2,0.2,0.2,0.2,0.2,0
15168000,15088000,3.1415927,3.947808,-2.5133114,-1.256674,-3.7058315e-05,1.2566,2.5132372,0.0,0.0,0.0,0.0,0.0,0.0,0.0,0.0,0.0,0.0,0.2,0.2,0.2,0.2,0.2,0
15176000,15096000,-2.896614,3.7000053,-2.513294,-1.2566568,-1.965641e-05,1.2566174,2.5132546,0.0,0.0,0.0,0.0,0.0,0.0,0.0,0.0,0.0,0.0,0.2,0.2,0.2,0.2,0.2,0
15184000,15104000,-2.2794228,3.6077778,-2.5133162,-1.2566788,-4.1818832e-05,1.2565953,2.5132327,0.0,0.0,0.0,0.0,0.0,0.0,0.0,0.0,0.0,0.0,0.2,0.2,0.2,0.2,0.2,0
15192000,15112000,-2.6779451,3.5801756,-2.5133142,-1.2566768,-3.9792456e-05,1.2565973,2.5132346,0.0,0.0,0.0,0.0,0.0,0.0,0.0,0.0,0.0,0.0,0.2,0.2,0.2,0.2,0.2,0
15200000,15120000,-3.041924,3.8325095,-2.5133066,-1.2566692,-3.2146203e-05,1.2566049,2.5132422,0.0,0.0,0.0,0.0,0.0,0.0,0.0,0.0,0.0,0.0,0.2,0.2,0.2,0.2,0.2,0
15208000,15128000,-2.2794228,3.6077764,-2.51331,-1.2566726,-3.5664714e-05,1.2566013,2.513239,0.0,0.0,0.0,0.0,0.0,0.0,0.0,0.0,0.0,0.0,0.2,0.2,0.2,0.2,0.2,0
15216000,15136000,-2.6779451,3.5801766,-2.513318,-1.2566807,-4.3698743e-05,1.2565933,2.5132308,0.0,0.0,0.0,0.0,0.0,0.0,0.0,0.0,0.0,0.0,0.2,0.2,0.2,0.2,0.2,0
15224000,15144000,3.0584514,3.8503537,-2.5133302,-1.2566929,-5.5772016e-05,1.2565813,2.5132186,0.0,0.0,0.0,0.0,0.0,0.0,0.0,0.0,0.0,0.0,0.2,0.2,0.2,0.2,0.2,0
15232000,15152000,3.1415927,3.947794,-2.5133264,-1.2566891,-5.1970972e-05,1.2565851,2.5132225,0.0,0.0,0.0,0.0,0.0,0.0,0.0,0.0,0.0,0.0,0.2,0.2,0.2,0.2,0.2,0
15240000,15160000,-2.8501358,3.6665106,-2.5133355,-1.2566981,-6.107476e-05,1.256576,2.5132134,0.0,0.0,0.0,0.0,0.0,0.0,0.0,0.0,0.0,0.0,0.2,0.2,0.2,0.2,0.2,0
15248000,15168000,-2.3561945,3.577763,-2.513314,-1.2566769,-3.9781535e-05,1.2565973,2.5132346,0.0,0.0,0.0,0.0,0.0,0.0,0.0,0.0,0.0,0.0,0.2,0.2,0.2,0.2,0.2,0
15256000,15176000,-2.4980917,3.5533092,-2.5133185,-1.2566813,-4.4212382e-05,1.2565928,2.5132303,0.0,0.0,0.0,0.0,0.0,0.0,0.0,0.0,0.0,0.0,0.2,0.2,0.2,0.2,0.2,0
15264000,15184000,-1.9513026,3.8689458,-2.513324,-1.2566868,-4.9709888e-05,1.2565873,2.5132246,0.0,0.0,0.0,0.0,0.0,0.0,0.0,0.0,0.0,0.0,0.2,0.2,0.2,0.2,0.2,0
15272000,15192000,-3.0172377,3.8069878,-2.5133436,-1.2567064,-6.930208e-05,1.2565677,2.513205,0.0,0.0,0.0,0.0,0.0,0.0,0.0,0.0,0.0,0.0,0.2,0.2,0.2,0.2,0.2,0
15280000,15200000,3.0584514,3.8504112,-2.513379,-1.2567418,-0.0001046163,1.2565324,2.5131698,0.0,0.0,0.0,0.0,0.0,0.0,0.0,0.0,0.0,0.0,0.2,0.2,0.2,0.2,0.2,0
15288000,15208000,2.976444,3.7677097,-2.5133867,-1.2567494,-0.00011227256,1.2565248,2.5131621,0.0,0.0,0.0,0.0,0.0,0.0,0.0,0.0,0.0,0.0,0.2,0.2,0.2,0.2,0.2,0
15296000,15216000,2.896614,3.7001162,-2.5133867,-1.2567493,-0.00011218387,1.2565248,2.5131621,0.0,0.0,0.0,0.0,0.0,0.0,0.0,0.0,0.0,0.0,0.2,0.2,0.2,0.2,0.2,0
15304000,15224000,2.896614,3.7001288,-2.5134025,-1.2567651,-0.00012798198,1.2565091,2.5131464,0.0,0.0,0.0,0.0,0.0,0.0,0.0,0.0,0.0,0.0,0.2,0.2,0.2,0.2,0.2,0
15312000,15232000,-2.782822,3.6256676,-2.5134046,-1.2567673,-0.00013018878,1.2565068,2.5131443,0.0,0.0,0.0,0.0,0.0,0.0,0.0,0.0,0.0,0.0,0.2,0.2,0.2,0.2,0.2,0
15320000,15240000,-3.041924,3.8324068,-2.5134127,-1.2567754,-0.00013828423,1.2564988,2.5131361,0.0,0.0,0.0,0.0,0.0,0.0,0.0,0.0,0.0,0.0,0.2,0.2,0.2,0.2,0.2,0
15328000,15248000,-2.6779451,3.580151,-2.5134213,-1.256784,-0.000146902,1.2564901,2.5131276,0.0,0.0,0.0,0.0,0.0,0.0,0.0,0.0,0.0,0.0,0.2,0.2,0.2,0.2,0.2,0
15336000,15256000,-2.7610862,3.6144204,-2.513424,-1.2567866,-0.00014955025,1.2564875,2.513125,0.0,0.0,0.0,0.0,0.0,0.0,0.0,0.0,0.0,0.0,0.2,0.2,0.2,0.2,0.2,0
15344000,15264000,2.8501358,3.6666727,-2.5134418,-1.2568045,-0.00016735515,1.2564697,2.513107,0.0,0.0,0.0,0.0,0.0,0.0,0.0,0.0,0.0,0.0,0.2,0.2,0.2,0.2,0.2,0
15352000,15272000,2.6779451,3.5802588,-2.5134501,-1.2568127,-0.00017557971,1.2564615,2.5130987,0.0,0.0,0.0,0.0,0.0,0.0,0.0,0.0,0.0,0.0,0.2,0.2,0.2,0.2,0.2,0
15360000,15280000,2.896614,3.7001665,-2.5134463,-1.2568089,-0.0001717752,1.2564653,2.5131025,0.0,0.0,0.0,0.0,0.0,0.0,0.0,0.0,0.0,0.0,0.2,0.2,0.2,0.2,0.2,0
15368000,15288000,2.819842,3.647168,-2.5134344,-1.2567971,-0.00016006084,1.256477,2.5131142,0.0,0.0,0.0,0.0,0.0,0.0,0.0,0.0,0.0,0.0,0.2,0.2,0.2,0.2,0.2,0
15376000,15296000,2.4227626,3.5612497,-2.5134354,-1.256798,-0.00016095878,1.2564762,2.5131133,0.0,0.0,0.0,0.0,0.0,0.0,0.0,0.0,0.0,0.0,0.2,0.2,0.2,0.2,0.2,0
15384000,15304000,3.0172377,3.8072438,-2.5134504,-1.256813,-0.00017598724,1.2564611,2.5130982,0.0,0.0,0.0,0.0,0.0,0.0,0.0,0.0,0.0,0.0,0.2,0.2,0.2,0.2,0.2,0
15392000,15312000,3.041924,3.8327718,-2.5134761,-1.2568387,-0.00020162131,1.2564354,2.5130727,0.0,0.0,0.0,0.0,0.0,0.0,0.0,0.0,0.0,0.0,0.2,0.2,0.2,0.2,0.2,0
15400000,15320000,2.5308666,3.553405,-2.513475,-1.2568374,-0.0002003506,1.2564367,2.513074,0.0,0.0,0.0,0.0,0.0,0.0,0.0,0.0,0.0,0.0,0.2,0.2,0.2,0.2,0.2,0
15408000,15328000,-2.6161404,3.5192547,-2.5140486,-1.2622725,-0.0029919748,1.2601402,2.5181484,-0.04938048,0.03958426,0.11530387,0.07313641,-0.028644068,-0.025869744,-0.07657965,-0.007639434,0.0856779,0.07441094,0.20284842,0.20059416,0.19753149,0.19787331,0.20115264,0
15416000,15336000,-2.6161544,3.519255,-2.5140646,-1.2622888,-0.0030081496,1.260124,2.5181322,-0.04938048,0.03958426,0.11530387,0.07313641,-0.028644068,-0.025869744,-0.07657965,-0.007639434,0.0856779,0.07441094,0.20284842,0.20059416,0.19753149,0.19787331,0.20115264,0
15424000,15344000,-2.616145,3.519256,-2.5140522,-1.2622763,-0.0029956615,1.2601365,2.5181446,-0.04938048,0.03958426,0.11530387,0.07313641,-0.028644068,-0.025869744,-0.07657965,-0.007639434,0.0856779,0.07441094,0.20284842,0.20059416,0.19753149,0.19787331,0.20115264,0
15432000,15352000,-2.6161551,3.519257,-2.51406,-1.262284,-0.0030034445,1.2601287,2.518137,-0.04938048,0.03958426,0.11530387,0.07313641,-0.028644068,-0.025869744,-0.07657965,-0.007639434,0.0856779,0.07441094,0.20284842,0.20059416,0.19753149,0.19787331,0.20115264,0
15440000,15360000,-2.6161454,3.5192578,-2.5140517,-1.2622757,-0.0029952175,1.260137,2.518145,-0.04938048,0.03958426,0.11530387,0.07313641,-0.028644068,-0.025869744,-0.07657965,-0.007639434,0.0856779,0.07441094,0.20284842,0.20059416,0.19753149,0.19787331,0.20115264,0
15448000,15368000,-2.6161213,3.5192568,-2.5140338,-1.262258,-0.0029774911,1.2601547,2.5181627,-0.04938048,0.03958426,0.11530387,0.07313641,-0.028644068,-0.025869744,-0.07657965,-0.007639434,0.0856779,0.07441094,0.20284842,0.20059416,0.19753149,0.19787331,0.20115264,0
15456000,15376000,-2.6161363,3.519258,-2.5140448,-1.2622688,-0.0029882693,1.2601439,2.5181522,-0.04938048,0.03958426,0.11530387,0.07313641,-0.028644068,-0.025869744,-0.07657965,-0.007639434,0.0856779,0.07441094,0.20284842,0.20059416,0.19753149,0.19787331,0.20115264,0
15464000,15384000,-2.6161442,3.5192597,-2.5140495,-1.2622734,-0.0029929043,1.2601392,2.5181475,-0.04938048,0.03958426,0.11530387,0.07313641,-0.028644068,-0.025869744,-0.07657965,-0.007639434,0.0856779,0.07441094,0.20284842,0.20059416,0.19753149,0.19787331,0.20115264,0
15472000,15392000,-2.6161351,3.5192585,-2.5140471,-1.2622714,-0.0029907816,1.2601414,2.5181496,-0.04938048,0.03958426,0.11530387,0.07313641,-0.028644068,-0.025869744,-0.07657965,-0.007639434,0.0856779,0.07441094,0.20284842,0.20059416,0.19753149,0.19787331,0.20115264,0
15480000,15400000,-2.6161282,3.5192604,-2.5140371,-1.2622613,-0.002980676,1.2601514,2.5181596,-0.04938048,0.03958426,0.11530387,0.07313641,-0.028644068,-0.025869744,-0.07657965,-0.007639434,0.0856779,0.07441094,0.20284842,0.20059416,0.19753149,0.19787331,0.20115264,0
15488000,15408000,-2.6161356,3.5192606,-2.5140445,-1.2622687,-0.002988058,1.2601441,2.5181522,-0.04938048,0.03958426,0.11530387,0.07313641,-0.028644068,-0.025869744,-0.07657965,-0.007639434,0.0856779,0.07441094,0.20284842,0.20059416,0.19753149,0.19787331,0.20115264,0
15496000,15416000,-2.6161394,3.519262,-2.5140464,-1.2622705,-0.002989913,1.2601422,2.5181503,-0.04938048,0.03958426,0.11530387,0.07313641,-0.028644068,-0.025869744,-0.07657965,-0.007639434,0.0856779,0.07441094,0.20284842,0.20059416,0.19753149,0.19787331,0.20115264,0
15504000,15424000,-2.6161263,3.519262,-2.5140352,-1.2622592,-0.0029786667,1.2601534,2.5181618,-0.04938048,0.03958426,0.11530387,0.07313641,-0.028644068,-0.025869744,-0.07657965,-0.007639434,0.0856779,0.07441094,0.20284842,0.20059416,0.19753149,0.19787331,0.20115264,0
15512000,15432000,-2.6161108,3.5192628,-2.5140185,-1.2622428,-0.0029621387,1.26017,2.5181782,-0.04938048,0.03958426,0.11530387,0.07313641,-0.028644068,-0.025869744,-0.07657965,-0.007639434,0.0856779,0.07441094,0.20284842,0.20059416,0.19753149,0.19787331,0.20115264,0
15520000,15440000,-2.6161137,3.5192637,-2.5140216,-1.2622457,-0.0029650608,1.2601671,2.5181754,-0.04938048,0.03958426,0.11530387,0.07313641,-0.028644068,-0.025869744,-0.07657965,-0.007639434,0.0856779,0.07441094,0.20284842,0.20059416,0.19753149,0.19787331,0.20115264,0
15528000,15448000,-2.6161275,3.5192645,-2.514034,-1.262258,-0.0029774443,1.2601547,2.518163,-0.04938048,0.03958426,0.11530387,0.07313641,-0.028644068,-0.025869744,-0.07657965,-0.007639434,0.0856779,0.07441094,0.20284842,0.20059416,0.19753149,0.19787331,0.20115264,0
15536000,15456000,-2.616119,3.5192642,-2.5140278,-1.2622519,-0.0029713134,1.2601608,2.5181692,-0.04938048,0.03958426,0.11530387,0.07313641,-0.028644068,-0.025869744,-0.07657965,-0.007639434,0.0856779,0.07441094,0.20284842,0.20059416,0.19753149,0.19787331,0.20115264,0
15544000,15464000,-2.6161149,3.5192652,-2.5140238,-1.2622479,-0.002967312,1.2601649,2.5181732,-0.04938048,0.03958426,0.11530387,0.07313641,-0.028644068,-0.025869744,-0.07657965,-0.007639434,0.0856779,0.07441094,0.20284842,0.20059416,0.19753149,0.19787331,0.20115264,0
15552000,15472000,-2.6161249,3.5192668,-2.5140295,-1.2622535,-0.0029728906,1.2601593,2.5181675,-0.04938048,0.03958426,0.11530387,0.07313641,-0.028644068,-0.025869744,-0.07657965,-0.007639434,0.0856779,0.07441094,0.20284842,0.20059416,0.19753149,0.19787331,0.20115264,0
15560000,15480000,-2.6161423,3.5192661,-2.5140522,-1.2622763,-0.0029956813,1.2601365,2.5181446,-0.04938048,0.03958426,0.11530387,0.07313641,-0.028644068,-0.025869744,-0.07657965,-0.007639434,0.0856779,0.07441094,0.20284842,0.20059416,0.19753149,0.19787331,0.20115264,0
15568000,15488000,-2.616149,3.5192678,-2.5140538,-1.2622777,-0.002997098,1.260135,2.5181432,-0.04938048,0.03958426,0.11530387,0.07313641,-0.028644068,-0.025869744,-0.07657965,-0.007639434,0.0856779,0.07441094,0.20284842,0.20059416,0.19753149,0.19787331,0.20115264,0
15576000,15496000,-2.6161249,3.5192676,-2.5140324,-1.2622565,-0.0029758993,1.2601563,2.5181646,-0.04938048,0.03958426,0.11530387,0.07313641,-0.028644068,-0.025869744,-0.07657965,-0.007639434,0.0856779,0.07441094,0.20284842,0.20059416,0.19753149,0.19787331,0.20115264,0
15584000,15504000,-2.6161287,3.5192673,-2.5140414,-1.2622657,-0.0029850162,1.2601472,2.5181556,-0.04938048,0.03958426,0.11530387,0.07313641,-0.028644068,-0.025869744,-0.07657965,-0.007639434,0.0856779,0.07441094,0.20284842,0.20059416,0.19753149,0.19787331,0.20115264,0
15592000,15512000,-2.6161215,3.5192697,-2.5140276,-1.2622516,-0.0029710326,1.2601612,2.5181694,-0.04938048,0.03958426,0.11530387,0.07313641,-0.028644068,-0.025869744,-0.07657965,-0.007639434,0.0856779,0.07441094,0.20284842,0.20059416,0.19753149,0.19787331,0.20115264,0
15600000,15520000,-2.6161182,3.51927,-2.5140257,-1.2622497,-0.0029690433,1.2601631,2.5181713,-0.04938048,0.03958426,0.11530387,0.07313641,-0.028644068,-0.025869744,-0.07657965,-0.007639434,0.0856779,0.07441094,0.20284842,0.20059416,0.19753149,0.19787331,0.20115264,0
15608000,15528000,-2.6161358,3.5192716,-2.514038,-1.2622621,-0.002981439,1.2601508,2.518159,-0.04938048,0.03958426,0.11530387,0.07313641,-0.028644068,-0.025869744,-0.07657965,-0.007639434,0.0856779,0.07441094,0.20284842,0.20059416,0.19753149,0.19787331,0.20115264,0
15616000,15536000,-2.6161315,3.5192711,-2.514039,-1.2622631,-0.0029824066,1.2601497,2.518158,-0.04938048,0.03958426,0.11530387,0.07313641,-0.028644068,-0.025869744,-0.07657965,-0.007639434,0.0856779,0.07441094,0.20284842,0.20059416,0.19753149,0.19787331,0.20115264,0
15624000,15544000,-2.6161208,3.5192723,-2.5140254,-1.2622495,-0.0029688128,1.2601633,2.5181715,-0.04938048,0.03958426,0.11530387,0.07313641,-0.028644068,-0.025869744,-0.07657965,-0.007639434,0.0856779,0.07441094,0.20284842,0.20059416,0.19753149,0.19787331,0.20115264,0
15632000,15552000,-2.616129,3.5192735,-2.5140305,-1.2622544,-0.0029737628,1.2601584,2.5181665,-0.04938048,0.03958426,0.11530387,0.07313641,-0.028644068,-0.025869744,-0.07657965,-0.007639434,0.0856779,0.07441094,0.20284842,0.20059416,0.19753149,0.19787331,0.20115264,0
15640000,15560000,-2.6161504,3.5192733,-2.5140562,-1.2622802,-0.002999585,1.2601326,2.5181408,-0.04938048,0.03958426,0.11530387,0.07313641,-0.028644068,-0.025869744,-0.07657965,-0.007639434,0.0856779,0.07441094,0.20284842,0.20059416,0.19753149,0.19787331,0.20115264,0
15648000,15568000,-2.6161613,3.519274,-2.5140657,-1.2622899,-0.003009238,1.260123,2.5181313,-0.04938048,0.03958426,0.11530387,0.07313641,-0.028644068,-0.025869744,-0.07657965,-0.007639434,0.0856779,0.07441094,0.20284842,0.20059416,0.19753149,0.19787331,0.20115264,0
15656000,15576000,-2.6161535,3.5192733,-2.5140638,-1.262288,-0.0030073004,1.2601249,2.5181332,-0.04938048,0.03958426,0.11530387,0.07313641,-0.028644068,-0.025869744,-0.07657965,-0.007639434,0.0856779,0.07441094,0.20284842,0.20059416,0.19753149,0.19787331,0.20115264,0
15664000,15584000,-2.616169,3.5192754,-2.5140731,-1.2622972,-0.0030164518,1.2601157,2.518124,-0.04938048,0.03958426,0.11530387,0.07313641,-0.028644068,-0.025869744,-0.07657965,-0.007639434,0.0856779,0.07441094,0.20284842,0.20059416,0.19753149,0.19787331,0.20115264,0
15672000,15592000,-2.616168,3.5192754,-2.5140738,-1.2622977,-0.0030171566,1.260115,2.5181234,-0.04938048,0.03958426,0.11530387,0.07313641,-0.028644068,-0.025869744,-0.07657965,-0.007639434,0.0856779,0.07441094,0.20284842,0.20059416,0.19753149,0.19787331,0.20115264,0
15680000,15600000,-2.6161673,3.5192764,-2.5140727,-1.2622966,-0.0030159329,1.2601162,2.5181246,-0.04938048,0.03958426,0.11530387,0.07313641,-0.028644068,-0.025869744,-0.07657965,-0.007639434,0.0856779,0.07441094,0.20284842,0.20059416,0.19753149,0.19787331,0.20115264,0
15688000,15608000,-2.6161795,3.5192776,-2.5140808,-1.2623047,-0.0030240158,1.2601082,2.5181165,-0.04938048,0.03958426,0.11530387,0.07313641,-0.028644068,-0.025869744,-0.07657965,-0.007639434,0.0856779,0.07441094,0.20284842,0.20059416,0.19753149,0.19787331,0.20115264,0
15696000,15616000,-2.616156,3.5192773,-2.514065,-1.262289,-0.0030083985,1.2601237,2.5181322,-0.04938048,0.03958426,0.11530387,0.07313641,-0.028644068,-0.025869744,-0.07657965,-0.007639434,0.0856779,0.07441094,0.20284842,0.20059416,0.19753149,0.19787331,0.20115264,0
15704000,15624000,-2.6161487,3.5192788,-2.5140512,-1.2622751,-0.002994444,1.2601378,2.518146,-0.04938048,0.03958426,0.11530387,0.07313641,-0.028644068,-0.025869744,-0.07657965,-0.007639434,0.0856779,0.07441094,0.20284842,0.20059416,0.19753149,0.19787331,0.20115264,0
15712000,15632000,-2.6161318,3.5192785,-2.5140386,-1.2622627,-0.0029820323,1.2601502,2.5181584,-0.04938048,0.03958426,0.11530387,0.07313641,-0.028644068,-0.025869744,-0.07657965,-0.007639434,0.0856779,0.07441094,0.20284842,0.20059416,0.19753149,0.19787331,0.20115264,0
15720000,15640000,-2.6161387,3.5192785,-2.5140471,-1.2622713,-0.0029906398,1.2601416,2.5181499,-0.04938048,0.03958426,0.11530387,0.07313641,-0.028644068,-0.025869744,-0.07657965,-0.007639434,0.0856779,0.07441094,0.20284842,0.20059416,0.19753149,0.19787331,0.20115264,0
15728000,15648000,-2.6161757,3.519281,-2.5140784,-1.2623023,-0.003021647,1.2601105,2.5181189,-0.04938048,0.03958426,0.11530387,0.07313641,-0.028644068,-0.025869744,-0.07657965,-0.007639434,0.0856779,0.07441094,0.20284842,0.20059416,0.19753149,0.19787331,0.20115264,0
15736000,15656000,-2.616177,3.5192811,-2.5140817,-1.2623057,-0.00302505,1.2601072,2.5181155,-0.04938048,0.03958426,0.11530387,0.07313641,-0.028644068,-0.025869744,-0.07657965,-0.007639434,0.0856779,0.07441094,0.20284842,0.20059416,0.19753149,0.19787331,0.20115264,0
15744000,15664000,-2.6161587,3.519281,-2.5140655,-1.2622894,-0.0030087733,1.2601234,2.5181317,-0.04938048,0.03958426,0.11530387,0.07313641,-0.028644068,-0.025869744,-0.07657965,-0.007639434,0.0856779,0.07441094,0.20284842,0.20059416,0.19753149,0.19787331,0.20115264,0
15752000,15672000,-2.6161554,3.5192828,-2.5140572,-1.262281,-0.0030003858,1.2601318,2.51814,-0.04938048,0.03958426,0.11530387,0.07313641,-0.028644068,-0.025869744,-0.07657965,-0.007639434,0.0856779,0.07441094,0.20284842,0.20059416,0.19753149,0.19787331,0.20115264,0
15760000,15680000,-2.616154,3.519283,-2.5140576,-1.2622815,-0.0030009104,1.2601312,2.5181396,-0.04938048,0.03958426,0.11530387,0.07313641,-0.028644068,-0.025869744,-0.07657965,-0.007639434,0.0856779,0.07441094,0.20284842,0.20059416,0.19753149,0.19787331,0.20115264,0
15768000,15688000,-2.616152,3.5192838,-2.514053,-1.2622771,-0.0029964272,1.2601358,2.5181441,-0.04938048,0.03958426,0.11530387,0.07313641,-0.028644068,-0.025869744,-0.07657965,-0.007639434,0.0856779,0.07441094,0.20284842,0.20059416,0.19753149,0.19787331,0.20115264,0
15776000,15696000,-2.616147,3.5192845,-2.5140514,-1.2622752,-0.002994628,1.2601376,2.5181458,-0.04938048,0.03958426,0.11530387,0.07313641,-0.028644068,-0.025869744,-0.07657965,-0.007639434,0.0856779,0.07441094,0.20284842,0.20059416,0.19753149,0.19787331,0.20115264,0
15784000,15704000,-2.6161518,3.519285,-2.5140557,-1.2622797,-0.0029991022,1.260133,2.5181413,-0.04938048,0.03958426,0.11530387,0.07313641,-0.028644068,-0.025869744,-0.07657965,-0.007639434,0.0856779,0.07441094,0.20284842,0.20059416,0.19753149,0.19787331,0.20115264,0
15792000,15712000,-2.616127,3.5192852,-2.5140321,-1.2622561,-0.0029754592,1.2601568,2.518165,-0.04938048,0.03958426,0.11530387,0.07313641,-0.028644068,-0.025869744,-0.07657965,-0.007639434,0.0856779,0.07441094,0.20284842,0.20059416,0.19753149,0.19787331,0.20115264,0
15800000,15720000,-2.6161118,3.5192857,-2.5140178,-1.2622418,-0.0029612035,1.2601709,2.5181794,-0.04938048,0.03958426,0.11530387,0.07313641,-0.028644068,-0.025869744,-0.07657965,-0.007639434,0.0856779,0.07441094,0.20284842,0.20059416,0.19753149,0.19787331,0.20115264,0
15808000,15728000,-2.918431,3.6503615,-2.5159576,-1.2632167,-0.0016330252,1.2619501,2.5179322,-0.10588277,0.015585047,0.12135121,0.06395715,-0.07657616,-0.05382408,-0.12488383,-0.030951262,0.09874658,0.0837386,0.2030883,0.19968149,0.19673386,0.19828242,0.2022139,0
15816000,15736000,-2.9184387,3.6503603,-2.5159674,-1.2632265,-0.0016428248,1.2619404,2.5179224,-0.10588277,0.015585047,0.12135121,0.06395715,-0.07657616,-0.05382408,-0.12488383,-0.030951262,0.09874658,0.0837386,0.2030883,0.19968149,0.19673386,0.19828242,0.2022139,0
15824000,15744000,-2.9184248,3.650364,-2.5159507,-1.2632096,-0.0016258492,1.2619574,2.5179396,-0.10588277,0.015585047,0.12135121,0.06395715,-0.07657616,-0.05382408,-0.12488383,-0.030951262,0.09874658,0.0837386,0.2030883,0.19968149,0.19673386,0.19828242,0.2022139,0
15832000,15752000,-2.9184198,3.6503618,-2.5159483,-1.2632072,-0.0016235475,1.2619597,2.517942,-0.10588277,0.015585047,0.12135121,0.06395715,-0.07657616,-0.05382408,-0.12488383,-0.030951262,0.09874658,0.0837386,0.2030883,0.19968149,0.19673386,0.19828242,0.2022139,0
15840000,15760000,-2.9184213,3.650363,-2.5159492,-1.2632083,-0.001624518,1.2619587,2.5179408,-0.10588277,0.015585047,0.12135121,0.06395715,-0.07657616,-0.05382408,-0.12488383,-0.030951262,0.09874658,0.0837386,0.2030883,0.19968149,0.19673386,0.19828242,0.2022139,0
15848000,15768000,-2.9184258,3.6503642,-2.515953,-1.2632121,-0.0016283707,1.2619548,2.517937,-0.10588277,0.015585047,0.12135121,0.06395715,-0.07657616,-0.05382408,-0.12488383,-0.030951262,0.09874658,0.0837386,0.2030883,0.19968149,0.19673386,0.19828242,0.2022139,0
15856000,15776000,-2.9184422,3.6503642,-2.5159702,-1.2632293,-0.0016454827,1.2619377,2.51792,-0.10588277,0.015585047,0.12135121,0.06395715,-0.07657616,-0.05382408,-0.12488383,-0.030951262,0.09874658,0.0837386,0.2030883,0.19968149,0.19673386,0.19828242,0.2022139,0
15864000,15784000,-2.9184422,3.650369,-2.5159647,-1.2632239,-0.0016399887,1.2619433,2.5179253,-0.10588277,0.015585047,0.12135121,0.06395715,-0.07657616,-0.05382408,-0.12488383,-0.030951262,0.09874658,0.0837386,0.2030883,0.19968149,0.19673386,0.19828242,0.2022139,0
15872000,15792000,-2.9184527,3.6503663,-2.5159795,-1.2632385,-0.0016547628,1.2619284,2.5179105,-0.10588277,0.015585047,0.12135121,0.06395715,-0.07657616,-0.05382408,-0.12488383,-0.030951262,0.09874658,0.0837386,0.2030883,0.19968149,0.19673386,0.19828242,0.2022139,0
15880000,15800000,-2.9184597,3.650365,-2.5159886,-1.2632477,-0.0016639396,1.2619193,2.5179014,-0.10588277,0.015585047,0.12135121,0.06395715,-0.07657616,-0.05382408,-0.12488383,-0.030951262,0.09874658,0.0837386,0.2030883,0.19968149,0.19673386,0.19828242,0.2022139,0
15888000,15808000,-2.918463,3.6503673,-2.5159905,-1.2632496,-0.0016658187,1.2619175,2.5178995,-0.10588277,0.015585047,0.12135121,0.06395715,-0.07657616,-0.05382408,-0.12488383,-0.030951262,0.09874658,0.0837386,0.2030883,0.19968149,0.19673386,0.19828242,0.2022139,0
15896000,15816000,-2.918471,3.6503673,-2.5159998,-1.2632589,-0.0016751529,1.261908,2.5178902,-0.10588277,0.015585047,0.12135121,0.06395715,-0.07657616,-0.05382408,-0.12488383,-0.030951262,0.09874658,0.0837386,0.2030883,0.19968149,0.19673386,0.19828242,0.2022139,0
15904000,15824000,-2.9184816,3.6503704,-2.5160062,-1.2632653,-0.0016814094,1.2619019,2.517884,-0.10588277,0.015585047,0.12135121,0.06395715,-0.07657616,-0.05382408,-0.12488383,-0.030951262,0.09874658,0.0837386,0.2030883,0.19968149,0.19673386,0.19828242,0.2022139,0
15912000,15832000,-2.918463,3.6503673,-2.5159922,-1.2632512,-0.001667397,1.2619158,2.517898,-0.10588277,0.015585047,0.12135121,0.06395715,-0.07657616,-0.05382408,-0.12488383,-0.030951262,0.09874658,0.0837386,0.2030883,0.19968149,0.19673386,0.19828242,0.2022139,0
15920000,15840000,-2.9184675,3.650371,-2.5159936,-1.2632526,-0.0016687955,1.2619145,2.5178967,-0.10588277,0.015585047,0.12135121,0.06395715,-0.07657616,-0.05382408,-0.12488383,-0.030951262,0.09874658,0.0837386,0.2030883,0.19968149,0.19673386,0.19828242,0.2022139,0
15928000,15848000,-2.9184663,3.6503692,-2.5159945,-1.2632536,-0.00166977,1.2619135,2.5178957,-0.10588277,0.015585047,0.12135121,0.06395715,-0.07657616,-0.05382408,-0.12488383,-0.030951262,0.09874658,0.0837386,0.2030883,0.19968149,0.19673386,0.19828242,0.2022139,0
15936000,15856000,-2.918485,3.6503708,-2.516013,-1.2632719,-0.0016880904,1.2618952,2.5178773,-0.10588277,0.015585047,0.12135121,0.06395715,-0.07657616,-0.05382408,-0.12488383,-0.030951262,0.09874658,0.0837386,0.2030883,0.19968149,0.19673386,0.19828242,0.2022139,0
15944000,15864000,-2.9184947,3.6503747,-2.5160182,-1.2632772,-0.0016933251,1.2618899,2.517872,-0.10588277,0.015585047,0.12135121,0.06395715,-0.07657616,-0.05382408,-0.12488383,-0.030951262,0.09874658,0.0837386,0.2030883,0.19968149,0.19673386,0.19828242,0.2022139,0
15952000,15872000,-2.9184895,3.650374,-2.516015,-1.2632742,-0.0016903116,1.2618929,2.517875,-0.10588277,0.015585047,0.12135121,0.06395715,-0.07657616,-0.05382408,-0.12488383,-0.030951262,0.09874658,0.0837386,0.2030883,0.19968149,0.19673386,0.19828242,0.2022139,0
15960000,15880000,-2.9184856,3.6503732,-2.5160127,-1.2632718,-0.0016879919,1.2618953,2.5178773,-0.10588277,0.015585047,0.12135121,0.06395715,-0.07657616,-0.05382408,-0.12488383,-0.030951262,0.09874658,0.0837386,0.2030883,0.19968149,0.19673386,0.19828242,0.2022139,0
15968000,15888000,-2.918471,3.6503737,-2.5159988,-1.263258,-0.0016742168,1.261909,2.5178912,-0.10588277,0.015585047,0.12135121,0.06395715,-0.07657616,-0.05382408,-0.12488383,-0.030951262,0.09874658,0.0837386,0.2030883,0.19968149,0.19673386,0.19828242,0.2022139,0
15976000,15896000,-2.9184778,3.650377,-2.5160015,-1.2632604,-0.0016766433,1.2619066,2.5178888,-0.10588277,0.015585047,0.12135121,0.06395715,-0.07657616,-0.05382408,-0.12488383,-0.030951262,0.09874658,0.0837386,0.2030883,0.19968149,0.19673386,0.19828242,0.2022139,0
15984000,15904000,-2.918468,3.6503763,-2.5159936,-1.2632527,-0.0016689114,1.2619144,2.5178964,-0.10588277,0.015585047,0.12135121,0.06395715,-0.07657616,-0.05382408,-0.12488383,-0.030951262,0.09874658,0.0837386,0.2030883,0.19968149,0.19673386,0.19828242,0.2022139,0
15992000,15912000,-2.918463,3.6503751,-2.5159907,-1.2632498,-0.0016659774,1.2619172,2.5178995,-0.10588277,0.015585047,0.12135121,0.06395715,-0.07657616,-0.05382408,-0.12488383,-0.030951262,0.09874658,0.0837386,0.2030883,0.19968149,0.19673386,0.19828242,0.2022139,0
16000000,15920000,-2.9184601,3.6503787,-2.5159838,-1.2632427,-0.0016589386,1.2619243,2.5179064,-0.10588277,0.015585047,0.12135121,0.06395715,-0.07657616,-0.05382408,-0.12488383,-0.030951262,0.09874658,0.0837386,0.2030883,0.19968149,0.19673386,0.19828242,0.2022139,0
16008000,15928000,-2.9184484,3.650378,-2.515974,-1.2632331,-0.0016492737,1.2619339,2.5179162,-0.10588277,0.015585047,0.12135121,0.06395715,-0.07657616,-0.05382408,-0.12488383,-0.030951262,0.09874658,0.0837386,0.2030883,0.19968149,0.19673386,0.19828242,0.2022139,0
16016000,15936000,-2.9184427,3.6503782,-2.5159686,-1.2632276,-0.0016438311,1.2619394,2.5179214,-0.10588277,0.015585047,0.12135121,0.06395715,-0.07657616,-0.05382408,-0.12488383,-0.030951262,0.09874658,0.0837386,0.2030883,0.19968149,0.19673386,0.19828242,0.2022139,0
16024000,15944000,-2.9184504,3.6503782,-2.5159771,-1.2632363,-0.001652424,1.2619308,2.5179129,-0.10588277,0.015585047,0.12135121,0.06395715,-0.07657616,-0.05382408,-0.12488383,-0.030951262,0.09874658,0.0837386,0.2030883,0.19968149,0.19673386,0.19828242,0.2022139,0
16032000,15952000,-2.9184616,3.6503775,-2.5159898,-1.2632489,-0.0016650473,1.2619182,2.5179005,-0.10588277,0.015585047,0.12135121,0.06395715,-0.07657616,-0.05382408,-0.12488383,-0.030951262,0.09874658,0.0837386,0.2030883,0.19968149,0.19673386,0.19828242,0.2022139,0
16040000,15960000,-2.9184694,3.650381,-2.515994,-1.263253,-0.0016691914,1.261914,2.5178962,-0.10588277,0.015585047,0.12135121,0.06395715,-0.07657616,-0.05382408,-0.12488383,-0.030951262,0.09874658,0.0837386,0.2030883,0.19968149,0.19673386,0.19828242,0.2022139,0
16048000,15968000,-2.9184682,3.650379,-2.5159967,-1.2632557,-0.0016718932,1.2619114,2.5178936,-0.10588277,0.015585047,0.12135121,0.06395715,-0.07657616,-0.05382408,-0.12488383,-0.030951262,0.09874658,0.0837386,0.2030883,0.19968149,0.19673386,0.19828242,0.2022139,0
16056000,15976000,-2.9184804,3.650382,-2.5160058,-1.2632648,-0.0016809448,1.2619023,2.5178845,-0.10588277,0.015585047,0.12135121,0.06395715,-0.07657616,-0.05382408,-0.12488383,-0.030951262,0.09874658,0.0837386,0.2030883,0.19968149,0.19673386,0.19828242,0.2022139,0
16064000,15984000,-2.9185023,3.6503808,-2.51603,-1.2632892,-0.0017053994,1.2618778,2.51786,-0.10588277,0.015585047,0.12135121,0.06395715,-0.07657616,-0.05382408,-0.12488383,-0.030951262,0.09874658,0.0837386,0.2030883,0.19968149,0.19673386,0.19828242,0.2022139,0
16072000,15992000,-2.918534,3.6503823,-2.5160604,-1.2633195,-0.0017356711,1.2618476,2.5178297,-0.10588277,0.015585047,0.12135121,0.06395715,-0.07657616,-0.05382408,-0.12488383,-0.030951262,0.09874658,0.0837386,0.2030883,0.19968149,0.19673386,0.19828242,0.2022139,0
16080000,16000000,-2.9185538,3.6503847,-2.516078,-1.2633369,-0.0017530901,1.2618302,2.5178123,-0.10588277,0.015585047,0.12135121,0.06395715,-0.07657616,-0.05382408,-0.12488383,-0.030951262,0.09874658,0.0837386,0.2030883,0.19968149,0.19673386,0.19828242,0.2022139,0
16088000,16008000,-2.9185612,3.6503832,-2.516088,-1.2633471,-0.0017633629,1.2618198,2.517802,-0.10588277,0.015585047,0.12135121,0.06395715,-0.07657616,-0.05382408,-0.12488383,-0.030951262,0.09874658,0.0837386,0.2030883,0.19968149,0.19673386,0.19828242,0.2022139,0
16096000,16016000,-2.918556,3.650383,-2.5160835,-1.2633426,-0.0017587298,1.2618246,2.5178068,-0.10588277,0.015585047,0.12135121,0.06395715,-0.07657616,-0.05382408,-0.12488383,-0.030951262,0.09874658,0.0837386,0.2030883,0.19968149,0.19673386,0.19828242,0.2022139,0
16104000,16024000,-2.9185526,3.6503856,-2.5160785,-1.2633374,-0.0017535634,1.2618297,2.5178118,-0.10588277,0.015585047,0.12135121,0.06395715,-0.07657616,-0.05382408,-0.12488383,-0.030951262,0.09874658,0.0837386,0.2030883,0.19968149,0.19673386,0.19828242,0.2022139,0
16112000,16032000,-2.9185383,3.650386,-2.516064,-1.2633231,-0.0017391997,1.2618442,2.517826,-0.10588277,0.015585047,0.12135121,0.06395715,-0.07657616,-0.05382408,-0.12488383,-0.030951262,0.09874658,0.0837386,0.2030883,0.19968149,0.19673386,0.19828242,0.2022139,0
16120000,16040000,-2.9185467,3.6503875,-2.5160716,-1.2633306,-0.0017466994,1.2618365,2.5178187,-0.10588277,0.015585047,0.12135121,0.06395715,-0.07657616,-0.05382408,-0.12488383,-0.030951262,0.09874658,0.0837386,0.2030883,0.19968149,0.19673386,0.19828242,0.2022139,0
16128000,16048000,-2.9185429,3.6503851,-2.5160713,-1.2633305,-0.0017465953,1.2618366,2.517819,-0.10588277,0.015585047,0.12135121,0.06395715,-0.07657616,-0.05382408,-0.12488383,-0.030951262,0.09874658,0.0837386,0.2030883,0.19968149,0.19673386,0.19828242,0.2022139,0
16136000,16056000,-2.9185472,3.6503856,-2.5160756,-1.2633348,-0.0017508254,1.2618325,2.5178146,-0.10588277,0.015585047,0.12135121,0.06395715,-0.07657616,-0.05382408,-0.12488383,-0.030951262,0.09874658,0.0837386,0.2030883,0.19968149,0.19673386,0.19828242,0.2022139,0
16144000,16064000,-2.9185295,3.650386,-2.5160584,-1.2633176,-0.0017337225,1.2618496,2.5178318,-0.10588277,0.015585047,0.12135121,0.06395715,-0.07657616,-0.05382408,-0.12488383,-0.030951262,0.09874658,0.0837386,0.2030883,0.19968149,0.19673386,0.19828242,0.2022139,0
16152000,16072000,-2.918544,3.6503885,-2.5160708,-1.26333,-0.0017461949,1.2618371,2.5178192,-0.10588277,0.015585047,0.12135121,0.06395715,-0.07657616,-0.05382408,-0.12488383,-0.030951262,0.09874658,0.0837386,0.2030883,0.19968149,0.19673386,0.19828242,0.2022139,0
16160000,16080000,-2.918565,3.6503923,-2.5160878,-1.2633468,-0.0017628879,1.2618204,2.5178025,-0.10588277,0.015585047,0.12135121,0.06395715,-0.07657616,-0.05382408,-0.12488383,-0.030951262,0.09874658,0.0837386,0.2030883,0.19968149,0.19673386,0.19828242,0.2022139,0
16168000,16088000,-2.9185731,3.6503913,-2.516098,-1.2633569,-0.0017731158,1.2618102,2.5177922,-0.10588277,0.015585047,0.12135121,0.06395715,-0.07657616,-0.05382408,-0.12488383,-0.030951262,0.09874658,0.0837386,0.2030883,0.19968149,0.19673386,0.19828242,0.2022139,0
16176000,16096000,-2.918568,3.6503901,-2.5160944,-1.2633536,-0.0017696874,1.2618136,2.5177958,-0.10588277,0.015585047,0.12135121,0.06395715,-0.07657616,-0.05382408,-0.12488383,-0.030951262,0.09874658,0.0837386,0.2030883,0.19968149,0.19673386,0.19828242,0.2022139,0
16184000,16104000,-2.9185767,3.650392,-2.516102,-1.263361,-0.0017771863,1.2618061,2.5177882,-0.10588277,0.015585047,0.12135121,0.06395715,-0.07657616,-0.05382408,-0.12488383,-0.030951262,0.09874658,0.0837386,0.2030883,0.19968149,0.19673386,0.19828242,0.2022139,0
16192000,16112000,-2.9185903,3.6503963,-2.5161114,-1.2633704,-0.0017865171,1.2617968,2.5177789,-0.10588277,0.015585047,0.12135121,0.06395715,-0.07657616,-0.05382408,-0.12488383,-0.030951262,0.09874658,0.0837386,0.2030883,0.19968149,0.19673386,0.19828242,0.2022139,0
16200000,16120000,-2.9185982,3.6503966,-2.5161195,-1.2633784,-0.0017945612,1.2617888,2.5177708,-0.10588277,0.015585047,0.12135121,0.06395715,-0.07657616,-0.05382408,-0.12488383,-0.030951262,0.09874658,0.0837386,0.2030883,0.19968149,0.19673386,0.19828242,0.2022139,0
16208000,16128000,2.7435956,3.502071,-2.520985,-1.2637683,0.0028230622,1.2649766,2.5150948,-0.13339226,0.015379848,0.14658892,0.076907314,-0.095904335,-0.07156222,-0.16041148,-0.045611665,0.11445876,0.09719543,0.20242664,0.19685146,0.19563168,0.2004222,0.204668,0
16216000,16136000,2.7435794,3.5020719,-2.521002,-1.2637856,0.0028057669,1.2649593,2.5150776,-0.13339226,0.015379848,0.14658892,0.076907314,-0.095904335,-0.07156222,-0.16041148,-0.045611665,0.11445876,0.09719543,0.20242664,0.19685146,0.19563168,0.2004222,0.204668,0
16224000,16144000,2.7435746,3.5020719,-2.5210056,-1.263789,0.002802313,1.2649559,2.515074,-0.13339226,0.015379848,0.14658892,0.076907314,-0.095904335,-0.07156222,-0.16041148,-0.045611665,0.11445876,0.09719543,0.20242664,0.19685146,0.19563168,0.2004222,0.204668,0
16232000,16152000,2.7435653,3.5020726,-2.521015,-1.2637984,0.0027929768,1.2649466,2.5150647,-0.13339226,0.015379848,0.14658892,0.076907314,-0.095904335,-0.07156222,-0.16041148,-0.045611665,0.11445876,0.09719543,0.20242664,0.19685146,0.19563168,0.2004222,0.204668,0
16240000,16160000,2.743577,3.502074,-2.521004,-1.2637874,0.0028039326,1.2649575,2.5150757,-0.13339226,0.015379848,0.14658892,0.076907314,-0.095904335,-0.07156222,-0.16041148,-0.045611665,0.11445876,0.09719543,0.20242664,0.19685146,0.19563168,0.2004222,0.204668,0
16248000,16168000,2.7435882,3.502074,-2.5209908,-1.2637744,0.0028169062,1.2649705,2.5150886,-0.13339226,0.015379848,0.14658892,0.076907314,-0.095904335,-0.07156222,-0.16041148,-0.045611665,0.11445876,0.09719543,0.20242664,0.19685146,0.19563168,0.2004222,0.204668,0
16256000,16176000,2.7435927,3.5020742,-2.5209854,-1.2637689,0.0028224264,1.264976,2.515094,-0.13339226,0.015379848,0.14658892,0.076907314,-0.095904335,-0.07156222,-0.16041148,-0.045611665,0.11445876,0.09719543,0.20242664,0.19685146,0.19563168,0.2004222,0.204668,0
16264000,16184000,2.7435973,3.502074,-2.5209804,-1.2637639,0.0028274395,1.264981,2.515099,-0.13339226,0.015379848,0.14658892,0.076907314,-0.095904335,-0.07156222,-0.16041148,-0.045611665,0.11445876,0.09719543,0.20242664,0.19685146,0.19563168,0.2004222,0.204668,0
16272000,16192000,2.7435906,3.5020754,-2.5209885,-1.2637718,0.002819498,1.264973,2.5150912,-0.13339226,0.015379848,0.14658892,0.076907314,-0.095904335,-0.07156222,-0.16041148,-0.045611665,0.11445876,0.09719543,0.20242664,0.19685146,0.19563168,0.2004222,0.204668,0
16280000,16200000,2.7435703,3.502076,-2.521009,-1.2637924,0.0027989168,1.2649525,2.5150707,-0.13339226,0.015379848,0.14658892,0.076907314,-0.095904335,-0.07156222,-0.16041148,-0.045611665,0.11445876,0.09719543,0.20242664,0.19685146,0.19563168,0.2004222,0.204668,0
16288000,16208000,2.7435498,3.502077,-2.5210307,-1.2638141,0.00277727,1.2649308,2.515049,-0.13339226,0.015379848,0.14658892,0.076907314,-0.095904335,-0.07156222,-0.16041148,-0.045611665,0.11445876,0.09719543,0.20242664,0.19685146,0.19563168,0.2004222,0.204668,0
16296000,16216000,2.7435322,3.5020766,-2.5210457,-1.263829,0.002762308,1.264916,2.515034,-0.13339226,0.015379848,0.14658892,0.076907314,-0.095904335,-0.07156222,-0.16041148,-0.045611665,0.11445876,0.09719543,0.20242664,0.19685146,0.19563168,0.2004222,0.204668,0
16304000,16224000,2.7435164,3.502078,-2.521062,-1.2638452,0.0027460589,1.2648996,2.5150177,-0.13339226,0.015379848,0.14658892,0.076907314,-0.095904335,-0.07156222,-0.16041148,-0.045611665,0.11445876,0.09719543,0.20242664,0.19685146,0.19563168,0.2004222,0.204668,0
16312000,16232000,2.7435105,3.5020783,-2.5210686,-1.2638519,0.0027394663,1.264893,2.5150113,-0.13339226,0.015379848,0.14658892,0.076907314,-0.095904335,-0.07156222,-0.16041148,-0.045611665,0.11445876,0.09719543,0.20242664,0.19685146,0.19563168,0.2004222,0.204668,0
16320000,16240000,2.743495,3.5020802,-2.5210862,-1.2638698,0.0027216033,1.2648752,2.5149934,-0.13339226,0.015379848,0.14658892,0.076907314,-0.095904335,-0.07156222,-0.16041148,-0.045611665,0.11445876,0.09719543,0.20242664,0.19685146,0.19563168,0.2004222,0.204668,0
16328000,16248000,2.7434816,3.5020804,-2.5210981,-1.2638817,0.0027096132,1.2648633,2.5149813,-0.13339226,0.015379848,0.14658892,0.076907314,-0.095904335,-0.07156222,-0.16041148,-0.045611665,0.11445876,0.09719543,0.20242664,0.19685146,0.19563168,0.2004222,0.204668,0
16336000,16256000,2.7434757,3.5020802,-2.5211036,-1.263887,0.0027043447,1.264858,2.514976,-0.13339226,0.015379848,0.14658892,0.076907314,-0.095904335,-0.07156222,-0.16041148,-0.045611665,0.11445876,0.09719543,0.20242664,0.19685146,0.19563168,0.2004222,0.204668,0
16344000,16264000,2.7434711,3.5020814,-2.5211084,-1.2638918,0.002699478,1.2648531,2.5149713,-0.13339226,0.015379848,0.14658892,0.076907314,-0.095904335,-0.07156222,-0.16041148,-0.045611665,0.11445876,0.09719543,0.20242664,0.19685146,0.19563168,0.2004222,0.204668,0
16352000,16272000,2.7434604,3.502082,-2.5211196,-1.2639029,0.0026884077,1.264842,2.5149603,-0.13339226,0.015379848,0.14658892,0.076907314,-0.095904335,-0.07156222,-0.16041148,-0.045611665,0.11445876,0.09719543,0.20242664,0.19685146,0.19563168,0.2004222,0.204668,0
16360000,16280000,2.7434585,3.5020835,-2.5211225,-1.263906,0.0026854156,1.264839,2.5149572,-0.13339226,0.015379848,0.14658892,0.076907314,-0.095904335,-0.07156222,-0.16041148,-0.045611665,0.11445876,0.09719543,0.20242664,0.19685146,0.19563168,0.2004222,0.204668,0
16368000,16288000,2.7434623,3.502083,-2.5211167,-1.2639,0.002691346,1.2648449,2.5149632,-0.13339226,0.015379848,0.14658892,0.076907314,-0.095904335,-0.07156222,-0.16041148,-0.045611665,0.11445876,0.09719543,0.20242664,0.19685146,0.19563168,0.2004222,0.204668,0
16376000,16296000,2.743475,3.5020828,-2.5211024,-1.2638857,0.0027056828,1.2648593,2.5149775,-0.13339226,0.015379848,0.14658892,0.076907314,-0.095904335,-0.07156222,-0.16041148,-0.045611665,0.11445876,0.09719543,0.20242664,0.19685146,0.19563168,0.2004222,0.204668,0
16384000,16304000,2.743487,3.5020847,-2.5210936,-1.2638769,0.0027144405,1.264868,2.5149863,-0.13339226,0.015379848,0.14658892,0.076907314,-0.095904335,-0.07156222,-0.16041148,-0.045611665,0.11445876,0.09719543,0.20242664,0.19685146,0.19563168,0.2004222,0.204668,0
16392000,16312000,2.7434883,3.5020862,-2.5210943,-1.2638779,0.002713538,1.2648672,2.5149853,-0.13339226,0.015379848,0.14658892,0.076907314,-0.095904335,-0.07156222,-0.16041148,-0.045611665,0.11445876,0.09719543,0.20242664,0.19685146,0.19563168,0.2004222,0.204668,0
16400000,16320000,2.74348,3.5020857,-2.5210998,-1.2638832,0.0027081913,1.2648618,2.5149798,-0.13339226,0.015379848,0.14658892,0.076907314,-0.095904335,-0.07156222,-0.16041148,-0.045611665,0.11445876,0.09719543,0.20242664,0.19685146,0.19563168,0.2004222,0.204668,0
16408000,16328000,2.7434714,3.5020874,-2.521111,-1.2638943,0.0026970743,1.2648507,2.5149689,-0.13339226,0.015379848,0.14658892,0.076907314,-0.095904335,-0.07156222,-0.16041148,-0.045611665,0.11445876,0.09719543,0.20242664,0.19685146,0.19563168,0.2004222,0.204668,0
16416000,16336000,2.743489,3.502087,-2.5210915,-1.2638748,0.0027166146,1.2648703,2.5149884,-0.13339226,0.015379848,0.14658892,0.076907314,-0.095904335,-0.07156222,-0.16041148,-0.045611665,0.11445876,0.09719543,0.20242664,0.19685146,0.19563168,0.2004222,0.204668,0
16424000,16344000,2.7434866,3.502087,-2.5210922,-1.2638756,0.0027157743,1.2648695,2.5149875,-0.13339226,0.015379848,0.14658892,0.076907314,-0.095904335,-0.07156222,-0.16041148,-0.045611665,0.11445876,0.09719543,0.20242664,0.19685146,0.19563168,0.2004222,0.204668,0
16432000,16352000,2.74349,3.502087,-2.521088,-1.2638713,0.002720111,1.2648737,2.5149918,-0.13339226,0.015379848,0.14658892,0.076907314,-0.095904335,-0.07156222,-0.16041148,-0.045611665,0.11445876,0.09719543,0.20242664,0.19685146,0.19563168,0.2004222,0.204668,0
16440000,16360000,2.74348,3.5020902,-2.521103,-1.2638862,0.0027051354,1.2648588,2.514977,-0.13339226,0.015379848,0.14658892,0.076907314,-0.095904335,-0.07156222,-0.16041148,-0.045611665,0.11445876,0.09719543,0.20242664,0.19685146,0.19563168,0.2004222,0.204668,0
16448000,16368000,2.7434738,3.5020895,-2.5211065,-1.26389,0.0027014257,1.2648551,2.5149732,-0.13339226,0.015379848,0.14658892,0.076907314,-0.095904335,-0.07156222,-0.16041148,-0.045611665,0.11445876,0.09719543,0.20242664,0.19685146,0.19563168,0.2004222,0.204668,0
16456000,16376000,2.743495,3.502091,-2.521086,-1.2638694,0.0027220238,1.2648757,2.5149937,-0.13339226,0.015379848,0.14658892,0.076907314,-0.095904335,-0.07156222,-0.16041148,-0.045611665,0.11445876,0.09719543,0.20242664,0.19685146,0.19563168,0.2004222,0.204668,0
16464000,16384000,2.7434907,3.502091,-2.52109,-1.2638736,0.0027178733,1.2648716,2.5149896,-0.13339226,0.015379848,0.14658892,0.076907314,-0.095904335,-0.07156222,-0.16041148,-0.045611665,0.11445876,0.09719543,0.20242664,0.19685146,0.19563168,0.2004222,0.204668,0
16472000,16392000,2.743469,3.5020907,-2.5211098,-1.2638932,0.0026982203,1.2648519,2.5149698,-0.13339226,0.015379848,0.14658892,0.076907314,-0.095904335,-0.07156222,-0.16041148,-0.045611665,0.11445876,0.09719543,0.20242664,0.19685146,0.19563168,0.2004222,0.204668,0
16480000,16400000,2.7434595,3.5020912,-2.52112,-1.2639036,0.0026878593,1.2648416,2.5149596,-0.13339226,0.015379848,0.14658892,0.076907314,-0.095904335,-0.07156222,-0.16041148,-0.045611665,0.11445876,0.09719543,0.20242664,0.19685146,0.19563168,0.2004222,0.204668,0
16488000,16408000,2.7434592,3.5020924,-2.5211205,-1.2639039,0.0026875674,1.2648413,2.5149593,-0.13339226,0.015379848,0.14658892,0.076907314,-0.095904335,-0.07156222,-0.16041148,-0.045611665,0.11445876,0.09719543,0.20242664,0.19685146,0.19563168,0.2004222,0.204668,0
16496000,16416000,2.7434561,3.5020928,-2.521123,-1.2639062,0.0026851813,1.2648389,2.514957,-0.13339226,0.015379848,0.14658892,0.076907314,-0.095904335,-0.07156222,-0.16041148,-0.045611665,0.11445876,0.09719543,0.20242664,0.19685146,0.19563168,0.2004222,0.204668,0
16504000,16424000,2.7434583,3.5020938,-2.5211222,-1.2639058,0.002685665,1.2648394,2.5149574,-0.13339226,0.015379848,0.14658892,0.076907314,-0.095904335,-0.07156222,-0.16041148,-0.045611665,0.11445876,0.09719543,0.20242664,0.19685146,0.19563168,0.2004222,0.204668,0
16512000,16432000,2.7434697,3.5020957,-2.521112,-1.2638955,0.0026959127,1.2648497,2.5149677,-0.13339226,0.015379848,0.14658892,0.076907314,-0.095904335,-0.07156222,-0.16041148,-0.045611665,0.11445876,0.09719543,0.20242664,0.19685146,0.19563168,0.2004222,0.204668,0
16520000,16440000,2.7434669,3.5020943,-2.5211112,-1.2638947,0.0026967209,1.2648505,2.5149684,-0.13339226,0.015379848,0.14658892,0.076907314,-0.095904335,-0.07156222,-0.16041148,-0.045611665,0.11445876,0.09719543,0.20242664,0.19685146,0.19563168,0.2004222,0.204668,0
16528000,16448000,2.7434592,3.5020947,-2.5211186,-1.2639022,0.0026891911,1.264843,2.5149608,-0.13339226,0.015379848,0.14658892,0.076907314,-0.095904335,-0.07156222,-0.16041148,-0.045611665,0.11445876,0.09719543,0.20242664,0.19685146,0.19563168,0.2004222,0.204668,0
16536000,16456000,2.7434509,3.5020964,-2.5211296,-1.2639129,0.0026784646,1.2648321,2.5149503,-0.13339226,0.015379848,0.14658892,0.076907314,-0.095904335,-0.07156222,-0.16041148,-0.045611665,0.11445876,0.09719543,0.20242664,0.19685146,0.19563168,0.2004222,0.204668,0
16544000,16464000,2.7434435,3.5020964,-2.521135,-1.2639184,0.002672954,1.2648267,2.5149446,-0.13339226,0.015379848,0.14658892,0.076907314,-0.095904335,-0.07156222,-0.16041148,-0.045611665,0.11445876,0.09719543,0.20242664,0.19685146,0.19563168,0.2004222,0.204668,0
16552000,16472000,2.7434413,3.5020976,-2.5211387,-1.2639221,0.0026693577,1.2648231,2.514941,-0.13339226,0.015379848,0.14658892,0.076907314,-0.095904335,-0.07156222,-0.16041148,-0.045611665,0.11445876,0.09719543,0.20242664,0.19685146,0.19563168,0.2004222,0.204668,0
16560000,16480000,2.7434483,3.5020976,-2.5211303,-1.2639136,0.0026777613,1.2648315,2.5149496,-0.13339226,0.015379848,0.14658892,0.076907314,-0.095904335,-0.07156222,-0.16041148,-0.045611665,0.11445876,0.09719543,0.20242664,0.19685146,0.19563168,0.2004222,0.204668,0
16568000,16488000,2.7434597,3.5020986,-2.5211194,-1.2639027,0.002688759,1.2648425,2.5149605,-0.13339226,0.015379848,0.14658892,0.076907314,-0.095904335,-0.07156222,-0.16041148,-0.045611665,0.11445876,0.09719543,0.20242664,0.19685146,0.19563168,0.2004222,0.204668,0
16576000,16496000,2.7434418,3.5020995,-2.5211391,-1.2639225,0.002669018,1.2648227,2.5149407,-0.13339226,0.015379848,0.14658892,0.076907314,-0.095904335,-0.07156222,-0.16041148,-0.045611665,0.11445876,0.09719543,0.20242664,0.19685146,0.19563168,0.2004222,0.204668,0
16584000,16504000,2.7434304,3.5021002,-2.5211504,-1.2639339,0.0026576146,1.2648114,2.5149293,-0.13339226,0.015379848,0.14658892,0.076907314,-0.095904335,-0.07156222,-0.16041148,-0.045611665,0.11445876,0.09719543,0.20242664,0.19685146,0.19563168,0.2004222,0.204668,0
16592000,16512000,2.7434323,3.5021,-2.5211468,-1.2639301,0.0026613693,1.2648151,2.514933,-0.13339226,0.015379848,0.14658892,0.076907314,-0.095904335,-0.07156222,-0.16041148,-0.045611665,0.11445876,0.09719543,0.20242664,0.19685146,0.19563168,0.2004222,0.204668,0
16600000,16520000,2.743432,3.5021014,-2.521148,-1.2639313,0.0026601118,1.2648139,2.514932,-0.13339226,0.015379848,0.14658892,0.076907314,-0.095904335,-0.07156222,-0.16041148,-0.045611665,0.11445876,0.09719543,0.20242664,0.19685146,0.19563168,0.2004222,0.204668,0
16608000,16528000,2.8505838,3.537063,-2.5205927,-1.2645175,0.0017647496,1.2648778,2.5158858,-0.15122232,0.013666099,0.16215271,0.0862704,-0.10608951,-0.060811322,-0.1630598,-0.03624985,0.14302874,0.12649468,0.20291896,0.1971766,0.1953491,0.1999151,0.20464027,0
16616000,16536000,2.85059,3.5370638,-2.520586,-1.2645109,0.001771411,1.2648845,2.5158925,-0.15122232,0.013666099,0.16215271,0.0862704,-0.10608951,-0.060811322,-0.1630598,-0.03624985,0.14302874,0.12649468,0.20291896,0.1971766,0.1953491,0.1999151,0.20464027,0
16624000,16544000,2.8505886,3.5370624,-2.5205848,-1.2645098,0.0017725321,1.2648855,2.5158935,-0.15122232,0.013666099,0.16215271,0.0862704,-0.10608951,-0.060811322,-0.1630598,-0.03624985,0.14302874,0.12649468,0.20291896,0.1971766,0.1953491,0.1999151,0.20464027,0
16632000,16552000,2.8505795,3.5370655,-2.5205965,-1.2645216,0.001760803,1.2648739,2.5158818,-0.15122232,0.013666099,0.16215271,0.0862704,-0.10608951,-0.060811322,-0.1630598,-0.03624985,0.14302874,0.12649468,0.20291896,0.1971766,0.1953491,0.1999151,0.20464027,0
16640000,16560000,2.850576,3.537067,-2.5206017,-1.2645268,0.001755498,1.2648685,2.5158765,-0.15122232,0.013666099,0.16215271,0.0862704,-0.10608951,-0.060811322,-0.1630598,-0.03624985,0.14302874,0.12649468,0.20291896,0.1971766,0.1953491,0.1999151,0.20464027,0
16648000,16568000,2.8505661,3.5370665,-2.5206099,-1.2645347,0.0017475679,1.2648606,2.5158687,-0.15122232,0.013666099,0.16215271,0.0862704,-0.10608951,-0.060811322,-0.1630598,-0.03624985,0.14302874,0.12649468,0.20291896,0.1971766,0.1953491,0.1999151,0.20464027,0
16656000,16576000,2.850566,3.5370662,-2.5206099,-1.2645347,0.0017476224,1.2648607,2.5158687,-0.15122232,0.013666099,0.16215271,0.0862704,-0.10608951,-0.060811322,-0.1630598,-0.03624985,0.14302874,0.12649468,0.20291896,0.1971766,0.1953491,0.1999151,0.20464027,0
16664000,16584000,2.8505647,3.5370667,-2.5206108,-1.2645357,0.0017466834,1.2648598,2.5158677,-0.15122232,0.013666099,0.16215271,0.0862704,-0.10608951,-0.060811322,-0.1630598,-0.03624985,0.14302874,0.12649468,0.20291896,0.1971766,0.1953491,0.1999151,0.20464027,0
16672000,16592000,2.8505585,3.5370681,-2.5206175,-1.2645423,0.0017399935,1.2648531,2.515861,-0.15122232,0.013666099,0.16215271,0.0862704,-0.10608951,-0.060811322,-0.1630598,-0.03624985,0.14302874,0.12649468,0.20291896,0.1971766,0.1953491,0.1999151,0.20464027,0
16680000,16600000,2.850548,3.5370684,-2.5206275,-1.2645524,0.001730034,1.2648431,2.515851,-0.15122232,0.013666099,0.16215271,0.0862704,-0.10608951,-0.060811322,-0.1630598,-0.03624985,0.14302874,0.12649468,0.20291896,0.1971766,0.1953491,0.1999151,0.20464027,0
16688000,16608000,2.8505502,3.5370698,-2.5206265,-1.2645515,0.0017307937,1.2648438,2.5158517,-0.15122232,0.013666099,0.16215271,0.0862704,-0.10608951,-0.060811322,-0.1630598,-0.03624985,0.14302874,0.12649468,0.20291896,0.1971766,0.1953491,0.1999151,0.20464027,0
16696000,16616000,2.8505526,3.5370703,-2.5206242,-1.264549,0.001733291,1.2648463,2.5158544,-0.15122232,0.013666099,0.16215271,0.0862704,-0.10608951,-0.060811322,-0.1630598,-0.03624985,0.14302874,0.12649468,0.20291896,0.1971766,0.1953491,0.1999151,0.20464027,0
16704000,16624000,2.850547,3.5370717,-2.5206308,-1.2645558,0.0017265594,1.2648396,2.5158477,-0.15122232,0.013666099,0.16215271,0.0862704,-0.10608951,-0.060811322,-0.1630598,-0.03624985,0.14302874,0.12649468,0.20291896,0.1971766,0.1953491,0.1999151,0.20464027,0
16712000,16632000,2.850548,3.5370712,-2.520628,-1.264553,0.0017294132,1.2648425,2.5158505,-0.15122232,0.013666099,0.16215271,0.0862704,-0.10608951,-0.060811322,-0.1630598,-0.03624985,0.14302874,0.12649468,0.20291896,0.1971766,0.1953491,0.1999151,0.20464027,0
16720000,16640000,2.8505511,3.5370717,-2.5206246,-1.2645495,0.0017328366,1.2648458,2.515854,-0.15122232,0.013666099,0.16215271,0.0862704,-0.10608951,-0.060811322,-0.1630598,-0.03624985,0.14302874,0.12649468,0.20291896,0.1971766,0.1953491,0.1999151,0.20464027,0
16728000,16648000,2.850552,3.537073,-2.5206246,-1.2645497,0.0017326715,1.2648457,2.5158536,-0.15122232,0.013666099,0.16215271,0.0862704,-0.10608951,-0.060811322,-0.1630598,-0.03624985,0.14302874,0.12649468,0.20291896,0.1971766,0.1953491,0.1999151,0.20464027,0
16736000,16656000,2.8505516,3.5370727,-2.520624,-1.2645488,0.0017335347,1.2648466,2.5158546,-0.15122232,0.013666099,0.16215271,0.0862704,-0.10608951,-0.060811322,-0.1630598,-0.03624985,0.14302874,0.12649468,0.20291896,0.1971766,0.1953491,0.1999151,0.20464027,0
16744000,16664000,2.8505454,3.5370736,-2.52063,-1.2645547,0.0017275853,1.2648406,2.5158486,-0.15122232,0.013666099,0.16215271,0.0862704,-0.10608951,-0.060811322,-0.1630598,-0.03624985,0.14302874,0.12649468,0.20291896,0.1971766,0.1953491,0.1999151,0.20464027,0
16752000,16672000,2.8505435,3.5370748,-2.5206332,-1.2645583,0.0017240491,1.2648371,2.515845,-0.15122232,0.013666099,0.16215271,0.0862704,-0.10608951,-0.060811322,-0.1630598,-0.03624985,0.14302874,0.12649468,0.20291896,0.1971766,0.1953491,0.1999151,0.20464027,0
16760000,16680000,2.8505437,3.5370743,-2.520632,-1.2645569,0.0017254422,1.2648385,2.5158465,-0.15122232,0.013666099,0.16215271,0.0862704,-0.10608951,-0.060811322,-0.1630598,-0.03624985,0.14302874,0.12649468,0.20291896,0.1971766,0.1953491,0.1999151,0.20464027,0
16768000,16688000,2.8505454,3.5370743,-2.5206287,-1.2645535,0.0017287511,1.2648418,2.5158498,-0.15122232,0.013666099,0.16215271,0.0862704,-0.10608951,-0.060811322,-0.1630598,-0.03624985,0.14302874,0.12649468,0.20291896,0.1971766,0.1953491,0.1999151,0.20464027,0
16776000,16696000,2.8505168,3.5370758,-2.5206587,-1.2645836,0.001698731,1.2648118,2.5158198,-0.15122232,0.013666099,0.16215271,0.0862704,-0.10608951,-0.060811322,-0.1630598,-0.03624985,0.14302874,0.12649468,0.20291896,0.1971766,0.1953491,0.1999151,0.20464027,0
16784000,16704000,2.8505132,3.537077,-2.5206633,-1.2645881,0.0016941961,1.2648072,2.5158153,-0.15122232,0.013666099,0.16215271,0.0862704,-0.10608951,-0.060811322,-0.1630598,-0.03624985,0.14302874,0.12649468,0.20291896,0.1971766,0.1953491,0.1999151,0.20464027,0
16792000,16712000,2.8505101,3.5370762,-2.5206645,-1.2645893,0.0016930314,1.264806,2.515814,-0.15122232,0.013666099,0.16215271,0.0862704,-0.10608951,-0.060811322,-0.1630598,-0.03624985,0.14302874,0.12649468,0.20291896,0.1971766,0.1953491,0.1999151,0.20464027,0
16800000,16720000,2.8505151,3.5370784,-2.520661,-1.264586,0.0016963023,1.2648094,2.5158174,-0.15122232,0.013666099,0.16215271,0.0862704,-0.10608951,-0.060811322,-0.1630598,-0.03624985,0.14302874,0.12649468,0.20291896,0.1971766,0.1953491,0.1999151,0.20464027,0
16808000,16728000,2.850509,3.537078,-2.5206664,-1.2645913,0.0016910532,1.2648041,2.5158122,-0.15122232,0.013666099,0.16215271,0.0862704,-0.10608951,-0.060811322,-0.1630598,-0.03624985,0.14302874,0.12649468,0.20291896,0.1971766,0.1953491,0.1999151,0.20464027,0
16816000,16736000,2.8505008,3.537079,-2.5206752,-1.2646,0.001682329,1.2647954,2.5158033,-0.15122232,0.013666099,0.16215271,0.0862704,-0.10608951,-0.060811322,-0.1630598,-0.03624985,0.14302874,0.12649468,0.20291896,0.1971766,0.1953491,0.1999151,0.20464027,0
16824000,16744000,2.850483,3.5370793,-2.5206923,-1.2646172,0.0016651568,1.2647781,2.5157862,-0.15122232,0.013666099,0.16215271,0.0862704,-0.10608951,-0.060811322,-0.1630598,-0.03624985,0.14302874,0.12649468,0.20291896,0.1971766,0.1953491,0.1999151,0.20464027,0
16832000,16752000,2.8504858,3.5370796,-2.5206885,-1.2646134,0.001669036,1.2647821,2.51579,-0.15122232,0.013666099,0.16215271,0.0862704,-0.10608951,-0.060811322,-0.1630598,-0.03624985,0.14302874,0.12649468,0.20291896,0.1971766,0.1953491,0.1999151,0.20464027,0
16840000,16760000,2.8504877,3.5370808,-2.5206876,-1.2646124,0.0016698951,1.2647829,2.515791,-0.15122232,0.013666099,0.16215271,0.0862704,-0.10608951,-0.060811322,-0.1630598,-0.03624985,0.14302874,0.12649468,0.20291896,0.1971766,0.1953491,0.1999151,0.20464027,0
16848000,16768000,2.8504906,3.5370815,-2.520686,-1.2646106,0.0016717127,1.2647847,2.5157928,-0.15122232,0.013666099,0.16215271,0.0862704,-0.10608951,-0.060811322,-0.1630598,-0.03624985,0.14302874,0.12649468,0.20291896,0.1971766,0.1953491,0.1999151,0.20464027,0
16856000,16776000,2.8505042,3.5370812,-2.5206714,-1.2645961,0.0016862385,1.2647994,2.5158074,-0.15122232,0.013666099,0.16215271,0.0862704,-0.10608951,-0.060811322,-0.1630598,-0.03624985,0.14302874,0.12649468,0.20291896,0.1971766,0.1953491,0.1999151,0.20464027,0
16864000,16784000,2.8505042,3.5370827,-2.5206714,-1.2645962,0.0016860989,1.2647991,2.5158072,-0.15122232,0.013666099,0.16215271,0.0862704,-0.10608951,-0.060811322,-0.1630598,-0.03624985,0.14302874,0.12649468,0.20291896,0.1971766,0.1953491,0.1999151,0.20464027,0
16872000,16792000,2.8504984,3.5370827,-2.520677,-1.2646018,0.0016805979,1.2647936,2.5158017,-0.15122232,0.013666099,0.16215271,0.0862704,-0.10608951,-0.060811322,-0.1630598,-0.03624985,0.14302874,0.12649468,0.20291896,0.1971766,0.1953491,0.1999151,0.20464027,0
16880000,16800000,2.8505037,3.5370839,-2.5206714,-1.2645962,0.0016861293,1.2647992,2.5158072,-0.15122232,0.013666099,0.16215271,0.0862704,-0.10608951,-0.060811322,-0.1630598,-0.03624985,0.14302874,0.12649468,0.20291896,0.1971766,0.1953491,0.1999151,0.20464027,0
16888000,16808000,2.8504968,3.5370846,-2.52068,-1.2646047,0.001677678,1.2647908,2.5157988,-0.15122232,0.013666099,0.16215271,0.0862704,-0.10608951,-0.060811322,-0.1630598,-0.03624985,0.14302874,0.12649468,0.20291896,0.1971766,0.1953491,0.1999151,0.20464027,0
16896000,16816000,2.850491,3.537086,-2.5206857,-1.2646105,0.0016717955,1.2647848,2.5157928,-0.15122232,0.013666099,0.16215271,0.0862704,-0.10608951,-0.060811322,-0.1630598,-0.03624985,0.14302874,0.12649468,0.20291896,0.1971766,0.1953491,0.1999151,0.20464027,0
16904000,16824000,2.8505063,3.5370855,-2.520669,-1.2645936,0.0016887632,1.2648019,2.51581,-0.15122232,0.013666099,0.16215271,0.0862704,-0.10608951,-0.060811322,-0.1630598,-0.03624985,0.14302874,0.12649468,0.20291896,0.1971766,0.1953491,0.1999151,0.20464027,0
16912000,16832000,2.850499,3.5370858,-2.5206761,-1.2646008,0.0016815854,1.2647946,2.5158026,-0.15122232,0.013666099,0.16215271,0.0862704,-0.10608951,-0.060811322,-0.1630598,-0.03624985,0.14302874,0.12649468,0.20291896,0.1971766,0.1953491,0.1999151,0.20464027,0
16920000,16840000,2.850492,3.5370886,-2.5206852,-1.26461,0.0016722297,1.2647853,2.5157933,-0.15122232,0.013666099,0.16215271,0.0862704,-0.10608951,-0.060811322,-0.1630598,-0.03624985,0.14302874,0.12649468,0.20291896,0.1971766,0.1953491,0.1999151,0.20464027,0
16928000,16848000,2.8504932,3.5370882,-2.5206833,-1.2646081,0.0016742783,1.2647873,2.5157955,-0.15122232,0.013666099,0.16215271,0.0862704,-0.10608951,-0.060811322,-0.1630598,-0.03624985,0.14302874,0.12649468,0.20291896,0.1971766,0.1953491,0.1999151,0.20464027,0
16936000,16856000,2.8504925,3.5370905,-2.5206864,-1.2646112,0.0016711518,1.2647842,2.5157924,-0.15122232,0.013666099,0.16215271,0.0862704,-0.10608951,-0.060811322,-0.1630598,-0.03624985,0.14302874,0.12649468,0.20291896,0.1971766,0.1953491,0.1999151,0.20464027,0
16944000,16864000,2.850489,3.5370898,-2.5206873,-1.2646122,0.0016701197,1.2647831,2.5157912,-0.15122232,0.013666099,0.16215271,0.0862704,-0.10608951,-0.060811322,-0.1630598,-0.03624985,0.14302874,0.12649468,0.20291896,0.1971766,0.1953491,0.1999151,0.20464027,0
16952000,16872000,2.8504963,3.537089,-2.5206785,-1.2646033,0.001679122,1.2647922,2.5158002,-0.15122232,0.013666099,0.16215271,0.0862704,-0.10608951,-0.060811322,-0.1630598,-0.03624985,0.14302874,0.12649468,0.20291896,0.1971766,0.1953491,0.1999151,0.20464027,0
16960000,16880000,2.8505135,3.5370913,-2.5206633,-1.264588,0.0016943056,1.2648073,2.5158155,-0.15122232,0.013666099,0.16215271,0.0862704,-0.10608951,-0.060811322,-0.1630598,-0.03624985,0.14302874,0.12649468,0.20291896,0.1971766,0.1953491,0.1999151,0.20464027,0
16968000,16888000,2.850521,3.5370896,-2.5206537,-1.2645786,0.0017038122,1.2648168,2.5158248,-0.15122232,0.013666099,0.16215271,0.0862704,-0.10608951,-0.060811322,-0.1630598,-0.03624985,0.14302874,0.12649468,0.20291896,0.1971766,0.1953491,0.1999151,0.20464027,0
