timestamp,timestamp_sample,device_id,magnetometer_ga[0],magnetometer_ga[1],magnetometer_ga[2],calibration_count
3080000,3076000,197388,0.011738754,-0.21862462,0.43377897,0
3208000,3146545,197388,0.008519081,-0.21514972,0.42938918,0
3220000,3220000,197388,0.0027137452,-0.21149588,0.42485708,0
3348000,3291272,197388,0.010215499,-0.21695213,0.42849964,0
3364000,3364000,197388,0.0068642152,-0.21714018,0.42641777,0
3496000,3436000,197388,0.009524569,-0.2153887,0.42825085,0
3508000,3508000,197388,0.0072510135,-0.21221271,0.43433037,0
3640000,3580000,197388,0.0105542205,-0.21638994,0.4278632,0
3652000,3652000,197388,0.0091030365,-0.21295635,0.4362645,0
3780000,3723272,197388,0.009402629,-0.21744989,0.4297937,0
3796000,3796000,197388,0.013768298,-0.21510878,0.42906365,0
3924000,3866545,197388,0.012391784,-0.21607064,0.4295886,0
3940000,3940000,197388,0.012004624,-0.20963396,0.42926964,0
4072000,4010545,197388,0.012130593,-0.2163999,0.4289341,0
4084000,4084000,197388,0.009440147,-0.21114962,0.42707536,0
4212000,4154545,197388,0.009405896,-0.21710737,0.42862043,0
4228000,4228000,197388,0.011842655,-0.22168736,0.42954606,0
4356000,4299272,197388,0.010496135,-0.21601486,0.42918757,0
4372000,4372000,197388,0.0115292715,-0.21229427,0.43061873,0
4504000,4443636,197388,0.00951471,-0.21667302,0.42743295,0
4516000,4516000,197388,0.009593707,-0.21537589,0.42354137,0
4648000,4587636,197388,0.011200298,-0.21657638,0.43113324,0
4660000,4660000,197388,0.017634215,-0.21182914,0.42742392,0
4792000,4730545,197388,0.01016707,-0.21609513,0.42932573,0
4804000,4804000,197388,0.0014270293,-0.21375047,0.44027957,0
4936000,4874545,197388,0.0081674885,-0.21672525,0.42640454,0
4948000,4948000,197388,0.0101843355,-0.21177225,0.4302635,0
5080000,5019272,197388,0.011170092,-0.21734884,0.42967686,0
5092000,5092000,197388,0.008684722,-0.21455692,0.4293879,0
5224000,5162545,197388,0.010674906,-0.21631621,0.42829007,0
5236000,5236000,197388,0.014808082,-0.21133718,0.4310706,0
5364000,5306909,197388,0.011376785,-0.21561755,0.42923963,0
5380000,5380000,197388,0.01116129,-0.21576543,0.43019813,0
5512000,5451272,197388,0.011032428,-0.21546504,0.430469,0
5524000,5524000,197388,-0.00038428605,-0.20912348,0.42361706,0
5652000,5594181,197388,0.008554788,-0.21605429,0.43035245,0
5668000,5668000,197388,0.006396198,-0.22248529,0.43262073,0
5796000,5739272,197388,0.010631564,-0.21536028,0.42791632,0
5812000,5812000,197388,0.0077666994,-0.21636182,0.43319273,0
5940000,5883272,197388,0.0096557755,-0.21635234,0.42726678,0
5956000,5956000,197388,0.010584283,-0.21636824,0.42612374,0
6084000,6027272,197388,0.009664528,-0.21468827,0.4295678,0
6100000,6100000,197388,0.013444149,-0.21912412,0.43026313,0
6232000,6170909,197388,0.010314512,-0.21345939,0.42959383,0
6244000,6244000,197388,0.011156017,-0.21321467,0.42791042,0
6372000,6314181,197388,0.009139683,-0.21623439,0.42732188,0
6388000,6388000,197388,0.009645332,-0.22416125,0.43466383,0
6516000,6459272,197388,0.010424283,-0.21557698,0.42935997,0
6532000,6532000,197388,0.0054610367,-0.21231653,0.4319994,0
6664000,6602909,197388,0.0105250785,-0.21762085,0.4269039,0
6676000,6676000,197388,0.00060439704,-0.21949978,0.4369037,0
6808000,6747636,197388,0.010045794,-0.21615216,0.43060535,0
6820000,6820000,197388,0.00588824,-0.21735843,0.42946404,0
6952000,6891272,197388,0.011505157,-0.2165429,0.42952067,0
6964000,6964000,197388,0.003160603,-0.21196882,0.43184137,0
7092000,7034545,197388,0.010664139,-0.21430296,0.42878225,0
7108000,7108000,197388,0.01187652,-0.21686226,0.4322296,0
7240000,7178545,197388,0.009569169,-0.21478322,0.42997196,0
7252000,7252000,197388,0.003278942,-0.21783587,0.4360972,0
7384000,7323272,197388,0.010154157,-0.21296513,0.43275696,0
7396000,7396000,197388,0.009924958,-0.21518709,0.43048048,0
7524000,7465818,197388,0.009595607,-0.21694316,0.43069094,0
7540000,7540000,197388,0.007318845,-0.21248591,0.42779717,0
7672000,7610909,197388,0.012586972,-0.21656722,0.4286452,0
7684000,7684000,197388,0.008516494,-0.20877181,0.42463115,0
7816000,7755636,197388,0.00993039,-0.21497025,0.42810875,0
7828000,7828000,197388,0.013440996,-0.21423693,0.42271763,0
7960000,7899636,197388,0.010314337,-0.2164245,0.42956752,0
7972000,7972000,197388,0.006526925,-0.21950491,0.4297858,0
8104000,8044000,197388,0.011488497,-0.2170135,0.42801437,0
8116000,8116000,197388,0.0069146124,-0.21704523,0.4275402,0
8248000,8187272,197388,0.0058934814,-0.21650033,0.43016517,0
8260000,8260000,197388,0.017270694,-0.21502483,0.42616236,0
8388000,8330181,197388,0.01062981,-0.2160078,0.42810616,0
8404000,8404000,197388,0.008198794,-0.21276331,0.42868945,0
8532000,8474545,197388,0.008597828,-0.21486348,0.43071613,0
8548000,8548000,197388,0.013859456,-0.21663918,0.4261825,0
8676000,8619272,197388,0.00885827,-0.2162616,0.42699668,0
8692000,8692000,197388,0.009697637,-0.21708962,0.4334617,0
8820000,8762545,197388,0.0101951985,-0.21650085,0.42928037,0
8836000,8836000,197388,0.0061369957,-0.21197225,0.4309753,0
8964000,8906545,197388,0.008696108,-0.21560605,0.42631072,0
8980000,8980000,197388,0.012817852,-0.20985359,0.4358544,0
9112000,9052000,197388,0.009106402,-0.21695137,0.4292605,0
9124000,9124000,197388,0.006172988,-0.21530227,0.42388856,0
9252000,9194545,197388,0.009472956,-0.21627867,0.42995447,0
9268000,9268000,197388,0.010214683,-0.21909148,0.43090725,0
9396000,9338181,197388,0.008236949,-0.21692011,0.42916116,0
9412000,9412000,197388,0.010632495,-0.21023965,0.42876405,0
9540000,9483636,197388,0.008803033,-0.21604618,0.4312148,0
9556000,9556000,197388,0.006391156,-0.21607572,0.42739695,0
9684000,9626545,197388,0.009332885,-0.2150517,0.4276697,0
9700000,9700000,197388,0.011131325,-0.22021656,0.4322163,0
9832000,9771636,197388,0.009156987,-0.21597007,0.42763725,0
9844000,9844000,197388,0.0053058416,-0.21631216,0.42225766,0
9976000,9914545,197388,0.010014792,-0.21715191,0.4300034,0
9984000,9984000,197388,0.0070475615,-0.2195546,0.43012306,0
10108000,10054000,197388,0.009075749,-0.21677406,0.42965373,0
10132000,10126000,197388,0.010484052,-0.21157849,0.42817047,0
10252000,10198000,197388,0.009811519,-0.21493399,0.4282239,0
10276000,10270000,197388,0.009223371,-0.21900332,0.43348336,0
10396000,10341600,197388,0.011038928,-0.21478811,0.42924806,0
10420000,10412000,197388,0.009842793,-0.21442088,0.43132377,0
10528000,10479555,197388,0.0083644735,-0.21510725,0.42904416,0
10564000,10552000,197388,0.012100088,-0.21862423,0.42789453,0
10672000,10624000,197388,0.008239203,-0.21484254,0.4303067,0
10708000,10696000,197388,0.009400332,-0.21682358,0.43263787,0
10812000,10767111,197388,0.009776593,-0.2133324,0.428728,0
10852000,10838666,197388,0.00755642,-0.21999995,0.42712316,0
10948000,10906000,197388,0.0096356515,-0.21614279,0.43009406,0
10996000,10976000,197388,0.009836346,-0.2159766,0.42673966,0
11092000,11048500,197388,0.008227961,-0.21590951,0.4308416,0
11140000,11120000,197388,0.008946203,-0.21719274,0.4325547,0
11224000,11187428,197388,0.009773057,-0.21727999,0.4307865,0
11284000,11259200,197388,0.008682789,-0.21648005,0.42801985,0
11368000,11331428,197388,0.011069069,-0.21641934,0.4300581,0
11428000,11402400,197388,0.009109063,-0.21545516,0.43091503,0
11500000,11470000,197388,0.008672683,-0.21445331,0.4300254,0
11572000,11540666,197388,0.008665918,-0.21818373,0.4277696,0
11644000,11612000,197388,0.008995626,-0.21517956,0.42830938,0
11704000,11679200,197388,0.0067256973,-0.21604267,0.42937356,0
11788000,11750857,197388,0.009821598,-0.21448293,0.43007797,0
11836000,11818000,197388,0.009838993,-0.21608359,0.4275287,0
11932000,11889500,197388,0.0099288635,-0.21391484,0.42718512,0
11980000,11961000,197388,0.00906735,-0.2169843,0.43016005,0
12076000,12033500,197388,0.009323747,-0.21424504,0.4280054,0
12124000,12105000,197388,0.0071847206,-0.21309072,0.43026397,0
12220000,12177500,197388,0.009992785,-0.21744104,0.42949945,0
12268000,12250000,197388,0.0093921395,-0.2197776,0.4271957,0
12364000,12321500,197388,0.009988083,-0.21621299,0.42993227,0
12412000,12394000,197388,0.010173658,-0.21816494,0.42659315,0
12508000,12466000,197388,0.009392139,-0.21672632,0.428049,0
12556000,12538000,197388,0.011737077,-0.21511157,0.43025213,0
12652000,12609000,197388,0.009187548,-0.21668386,0.42710143,0
12700000,12681000,197388,0.012355779,-0.21797541,0.4280595,0
12796000,12752500,197388,0.010093296,-0.21492766,0.4276325,0
12844000,12825000,197388,0.00879066,-0.21919096,0.42833614,0
12940000,12896000,197388,0.007042936,-0.21524619,0.4294097,0
12976000,12962666,197388,0.012151096,-0.21428709,0.4284498,0
13084000,13035111,197388,0.008864944,-0.21398246,0.42837864,0
13116000,13105333,197388,0.008588813,-0.2178852,0.429801,0
13212000,13172500,197388,0.010195644,-0.21641606,0.42811012,0
13260000,13244000,197388,0.009896759,-0.21687594,0.428724,0
13344000,13311428,197388,0.0072266324,-0.21769603,0.43179262,0
13408000,13382400,197388,0.01025037,-0.21778052,0.431149,0
13492000,13454285,197388,0.009014774,-0.21627367,0.43127623,0
13552000,13526400,197388,0.011670085,-0.21666983,0.42997342,0
13636000,13598857,197388,0.00615056,-0.21648622,0.43097404,0
13696000,13670400,197388,0.010706554,-0.21759498,0.4276732,0
13780000,13742285,197388,0.010786208,-0.21566589,0.42918387,0
13828000,13809000,197388,0.011216863,-0.21754467,0.4288075,0
13924000,13881000,197388,0.009038271,-0.21438344,0.430365,0
13972000,13952000,197388,0.011449475,-0.22002216,0.42545712,0
14056000,14019428,197388,0.010818301,-0.21650288,0.43054527,0
14116000,14092000,197388,0.01043841,-0.21749978,0.43080544,0
14196000,14162285,197388,0.009616643,-0.21476302,0.42914605,0
14248000,14229000,197388,0.012913177,-0.21419139,0.42577744,0
14332000,14296000,197388,0.007855456,-0.21476845,0.4266342,0
14392000,14368000,197388,0.008853299,-0.2189796,0.43182275,0
14476000,14440000,197388,0.010347258,-0.21330981,0.42934686,0
14536000,14512000,197388,0.009135476,-0.21661754,0.42852408,0
14620000,14583428,197388,0.00967441,-0.21387932,0.43010932,0
14680000,14656000,197388,0.010198755,-0.21790044,0.42952248,0
14764000,14728000,197388,0.009903895,-0.21610482,0.42813456,0
14820000,14796800,197388,0.012453271,-0.21478419,0.43010393,0
14896000,14866000,197388,0.010125636,-0.21580121,0.43187773,0
14968000,14938000,197388,0.00801892,-0.21654966,0.43156368,0
15040000,15009333,197388,0.008047334,-0.21371214,0.42982817,0
15108000,15080666,197388,0.010191089,-0.2157594,0.42896017,0
15172000,15148000,197388,0.010384976,-0.21359423,0.43068472,0
15252000,15217714,197388,0.009156069,-0.21573095,0.43293893,0
15316000,15290400,197388,0.012738853,-0.21507016,0.42866358,0
15396000,15361714,197388,0.011975392,-0.21468195,0.4318754,0
15448000,15430000,197388,0.012387618,-0.2162371,0.42884177,0
15544000,15500500,197388,0.010297313,-0.21650667,0.43016514,0
15580000,15568000,197388,0.009571849,-0.21346466,0.4279111,0
15684000,15638222,197388,0.010405058,-0.21535431,0.43020794,0
15724000,15710666,197388,0.011718707,-0.21640289,0.42993277,0
15828000,15781333,197388,0.009535146,-0.21564245,0.43002787,0
15856000,15850000,197388,0.00554246,-0.2177722,0.4297964,0
15972000,15920000,197388,0.01145128,-0.21610259,0.42896762,0
15988000,15988000,197388,0.012269312,-0.21770336,0.43848005,0
16116000,16058909,197388,0.011020796,-0.21688703,0.42985007,0
16132000,16132000,197388,0.012415825,-0.21545258,0.42721695,0
16264000,16203272,197388,0.010986732,-0.2149989,0.43151623,0
16272000,16272000,197388,0.0033522604,-0.21809418,0.4306381,0
16396000,16341200,197388,0.00918795,-0.21603529,0.42920333,0
16408000,16408000,197388,0.014825291,-0.22202082,0.42780498,0
16540000,16479272,197388,0.009554782,-0.21731317,0.42737684,0
16548000,16548000,197388,0.009687205,-0.22502172,0.43145946,0
16672000,16617600,197388,0.007883265,-0.21631281,0.42914638,0
16696000,16688000,197388,0.015594691,-0.21488217,0.4261995,0
16804000,16755111,197388,0.0093023805,-0.21698342,0.43065304,0
16828000,16822000,197388,0.007829829,-0.21563676,0.42844325,0
16948000,16892000,197388,0.010312873,-0.21493123,0.4308524,0
16972000,16964000,197388,0.009480519,-0.21715692,0.43013668,0
17076000,17030666,197388,0.009542759,-0.21363197,0.42742208,0
17116000,17101333,197388,0.009076696,-0.21596967,0.43015513,0
17212000,17169000,197388,0.010903806,-0.21351096,0.4302789,0
17260000,17241000,197388,0.007660674,-0.21646598,0.4303824,0
17356000,17312500,197388,0.008977875,-0.21538182,0.4312165,0
17404000,17385000,197388,0.009840427,-0.21188436,0.43290854,0
17500000,17457000,197388,0.0045282934,-0.20689344,0.43340147,0
17548000,17529000,197388,-0.0047263484,-0.20090678,0.43808532,0
17644000,17601000,197388,-0.009666604,-0.19578955,0.44065753,0
17680000,17668000,197388,-0.019659994,-0.19053528,0.44004282,0
17788000,17739111,197388,-0.016574873,-0.19190785,0.43954885,0
17824000,17810666,197388,-0.013872909,-0.19927272,0.43685293,0
17920000,17877500,197388,-0.0066206804,-0.20561229,0.43561068,0
17964000,17949000,197388,0.0031894392,-0.20589936,0.4353163,0
18064000,18020500,197388,0.0033667814,-0.21273571,0.43236604,0
18100000,18088000,197388,0.00907285,-0.21404305,0.43303025,0
18208000,18159555,197388,0.009287374,-0.21606775,0.42825437,0
18244000,18230666,197388,0.010674253,-0.21976148,0.42856514,0
18352000,18302666,197388,0.011169301,-0.2180503,0.43046272,0
18376000,18370000,197388,0.011805801,-0.22200426,0.42363513,0
18496000,18441600,197388,0.011912714,-0.22271314,0.42608824,0
18520000,18514000,197388,0.014653131,-0.22474024,0.42362,0
18640000,18585600,197388,0.015661528,-0.22451857,0.4245442,0
18660000,18656000,197388,0.014354574,-0.22272784,0.4248059,0
18772000,18723555,197388,0.015751354,-0.22382954,0.42418513,0
18808000,18796000,197388,0.018405858,-0.22304094,0.4256211,0
18916000,18867555,197388,0.016058475,-0.22568835,0.42374587,0
18952000,18940000,197388,0.018502641,-0.22287498,0.42518383,0
19060000,19012000,197388,0.016510779,-0.225733,0.42516938,0
19096000,19084000,197388,0.015298652,-0.22561803,0.42286408,0
19204000,19155111,197388,0.017900378,-0.22536762,0.4238122,0
19228000,19222000,197388,0.014315413,-0.22525024,0.42404747,0
19348000,19292400,197388,0.015995353,-0.2234441,0.42375764,0
19372000,19364000,197388,0.016165452,-0.2214387,0.4244842,0
19476000,19431555,197388,0.014030073,-0.2223777,0.42577022,0
19516000,19504000,197388,0.012874588,-0.22063994,0.42580897,0
19620000,19575111,197388,0.015149433,-0.22246936,0.42534295,0
19648000,19642000,197388,0.013307296,-0.22418115,0.42628157,0
19764000,19713200,197388,0.01362555,-0.22076344,0.42690784,0
19780000,19780000,197388,0.015428277,-0.2224911,0.43059635,0
19908000,19850545,197388,0.012093447,-0.21911013,0.42609835,0
19924000,19924000,197388,0.011484372,-0.21977648,0.4283852,0
20052000,19994909,197388,0.010403899,-0.21785843,0.42893848,0
20068000,20068000,197388,0.012254809,-0.22233059,0.425721,0
20196000,20138545,197388,0.012907826,-0.21765542,0.4296333,0
20212000,20212000,197388,0.014478018,-0.22326015,0.4344864,0
20340000,20283272,197388,0.011619832,-0.21676704,0.42825866,0
20356000,20356000,197388,0.014079042,-0.21154341,0.42591003,0
20484000,20427272,197388,0.00943947,-0.21412204,0.42908216,0
20500000,20500000,197388,0.0031746284,-0.2182806,0.43268284,0
20632000,20570909,197388,0.0087603945,-0.21716617,0.42875943,0
20644000,20644000,197388,0.011048913,-0.2177906,0.4305865,0
20772000,20714181,197388,0.010685474,-0.21552208,0.42940518,0
20788000,20788000,197388,0.011197374,-0.2130156,0.42485753,0
20920000,20859272,197388,0.010335022,-0.21441948,0.42900586,0
20932000,20932000,197388,0.009364914,-0.20991273,0.42859665,0
21060000,21002545,197388,0.010665136,-0.21283883,0.43035096,0
21076000,21076000,197388,0.0066480422,-0.2152664,0.42808804,0
21208000,21146545,197388,0.009225123,-0.21413715,0.42933545,0
21220000,21220000,197388,0.0097176,-0.21944506,0.43329445,0
21348000,21290909,197388,0.008996546,-0.21627863,0.42777315,0
21364000,21364000,197388,0.015601767,-0.20984209,0.42439097,0
21496000,21434909,197388,0.0079135625,-0.21551184,0.4295692,0
21508000,21508000,197388,0.009432262,-0.21677855,0.42876485,0
21636000,21579272,197388,0.007050941,-0.21538934,0.43056315,0
21652000,21652000,197388,0.006953567,-0.2190091,0.4262742,0
21780000,21722545,197388,0.007205557,-0.21427311,0.4286963,0
21796000,21796000,197388,0.00055193674,-0.21348199,0.42841744,0
21924000,21866181,197388,0.0072535626,-0.21542905,0.4301171,0
21940000,21940000,197388,0.0058314553,-0.21319297,0.42915648,0
22068000,22010545,197388,0.008760317,-0.21547587,0.42807585,0
22084000,22084000,197388,0.010594134,-0.21884339,0.42679012,0
22212000,22154545,197388,0.005968639,-0.2149127,0.43003336,0
22228000,22228000,197388,0.009382768,-0.21363065,0.43369403,0
22356000,22299272,197388,0.008656533,-0.21604784,0.4290359,0
22372000,22372000,197388,0.010499632,-0.21394609,0.4285973,0
22500000,22442545,197388,0.007864013,-0.21633728,0.42817673,0
22516000,22516000,197388,0.009451658,-0.22139378,0.43173283,0
22644000,22586909,197388,0.008848871,-0.21479362,0.42887083,0
22660000,22660000,197388,0.0026443978,-0.22135533,0.42606938,0
22792000,22730909,197388,0.0068125483,-0.2148637,0.42902106,0
22804000,22804000,197388,0.0101491,-0.21290268,0.43270895,0
22936000,22874909,197388,0.00599372,-0.21610391,0.43039006,0
22948000,22948000,197388,0.009571472,-0.21536095,0.4278412,0
23076000,23019272,197388,0.0054490967,-0.21543913,0.42846036,0
23092000,23092000,197388,0.0022637188,-0.21751706,0.4298674,0
23220000,23162909,197388,0.007119704,-0.21573393,0.42816043,0
23236000,23236000,197388,0.0026688299,-0.21406002,0.43291864,0
23368000,23306181,197388,0.005751442,-0.21327156,0.43106756,0
23380000,23380000,197388,0.0042638425,-0.21271597,0.42824644,0
23508000,23450909,197388,0.0047555957,-0.21479343,0.4318979,0
23524000,23524000,197388,0.000966767,-0.21144861,0.42266148,0
23656000,23594909,197388,0.006122829,-0.2145008,0.43096837,0
23668000,23668000,197388,0.009333183,-0.22134002,0.43828642,0
23800000,23738909,197388,0.0075076544,-0.21644878,0.42905557,0
23812000,23812000,197388,0.0046741846,-0.21552801,0.42862856,0
23944000,23884000,197388,0.0074761803,-0.2137905,0.42903945,0
23956000,23956000,197388,0.0009281078,-0.21605861,0.43711084,0
24088000,24028000,197388,0.0070587276,-0.21525252,0.42752075,0
24100000,24100000,197388,0.015337425,-0.218803,0.43337613,0
24232000,24171272,197388,0.007878696,-0.2138203,0.42808586,0
24244000,24244000,197388,0.011060779,-0.2147798,0.43516034,0
24376000,24315272,197388,0.009630688,-0.21476568,0.42895067,0
24388000,24388000,197388,0.0113965925,-0.20916916,0.4310716,0
24520000,24459636,197388,0.009584001,-0.2151053,0.4304089,0
24532000,24532000,197388,0.014165327,-0.22138508,0.43297055,0
24664000,24603636,197388,0.009872557,-0.21566509,0.42839965,0
24676000,24676000,197388,0.010756988,-0.2153776,0.4342396,0
24808000,24747272,197388,0.011132629,-0.21544766,0.42922625,0
24820000,24820000,197388,0.00801346,-0.21541458,0.43139064,0
24948000,24890545,197388,0.010325386,-0.2162112,0.42936182,0
24964000,24964000,197388,0.014147975,-0.21734956,0.42394546,0
25092000,25035272,197388,0.010902188,-0.21491002,0.4291535,0
25108000,25108000,197388,0.0074049444,-0.21713665,0.42428425,0
25236000,25178909,197388,0.012194361,-0.21674445,0.42996377,0
25252000,25252000,197388,0.009143048,-0.21262121,0.4260282,0
25384000,25323636,197388,0.009947166,-0.21655099,0.43046224,0
25396000,25396000,197388,0.0101431245,-0.21611792,0.4248757,0
25528000,25466909,197388,0.010238127,-0.21541438,0.42694578,0
25540000,25540000,197388,0.012233149,-0.21411598,0.42928272,0
25668000,25610909,197388,0.011270868,-0.21556465,0.42984796,0
25684000,25684000,197388,0.0067888447,-0.21796669,0.42409545,0
25816000,25755272,197388,0.009546152,-0.21700624,0.4300946,0
25828000,25828000,197388,0.008530652,-0.2153991,0.42449903,0
25956000,25899272,197388,0.009203471,-0.21781564,0.4291621,0
25968000,25968000,197388,0.012067362,-0.21314032,0.4227844,0
26092000,26037200,197388,0.011068103,-0.2152907,0.42853594,0
26104000,26104000,197388,0.01099938,-0.21681358,0.42657387,0
26236000,26174545,197388,0.00947758,-0.21583627,0.4277308,0
26248000,26248000,197388,0.011683406,-0.22035323,0.4227007,0
26380000,26319636,197388,0.010528008,-0.21485475,0.42599463,0
26392000,26392000,197388,0.011400319,-0.21325782,0.42962396,0
26524000,26463272,197388,0.011299361,-0.21669297,0.4283542,0
26536000,26536000,197388,0.008992017,-0.21939713,0.43037933,0
26668000,26606909,197388,0.011054497,-0.21443227,0.42850408,0
26676000,26676000,197388,0.007856568,-0.21705057,0.4295778,0
26796000,26745200,197388,0.009656592,-0.21569991,0.4263738,0
26812000,26812000,197388,0.008938719,-0.20796306,0.43547827,0
26944000,26883636,197388,0.008304233,-0.215458,0.42731902,0
26956000,26956000,197388,0.0073108277,-0.22354254,0.42912552,0
27088000,27026909,197388,0.008646071,-0.21651644,0.43004853,0
27100000,27100000,197388,0.013295789,-0.21931675,0.4367108,0
27232000,27170909,197388,0.009315127,-0.21678346,0.42738092,0
27244000,27244000,197388,0.0024231502,-0.21459924,0.42175612,0
27376000,27315272,197388,0.0080989245,-0.21671776,0.426335,0
27388000,27388000,197388,0.0052166902,-0.2134026,0.425375,0
27520000,27458909,197388,0.007963589,-0.21994595,0.4273743,0
27532000,27532000,197388,0.00829447,-0.2204124,0.4276262,0
27660000,27601818,197388,0.008939608,-0.21682794,0.42941046,0
27676000,27676000,197388,0.016556714,-0.2222809,0.4286191,0
27808000,27746909,197388,0.010504923,-0.21692528,0.42877,0
27820000,27820000,197388,-0.0028431115,-0.21429381,0.4296001,0
27948000,27889818,197388,0.008295694,-0.21762085,0.43163165,0
27964000,27964000,197388,0.006910123,-0.21126543,0.4304043,0
28096000,28035272,197388,0.010423837,-0.21746148,0.4286489,0
28108000,28108000,197388,0.011141742,-0.21327855,0.42640778,0
28236000,28178181,197388,0.009050958,-0.2154911,0.43008563,0
28248000,28248000,197388,0.010225491,-0.21622154,0.42750898,0
28372000,28317200,197388,0.00690251,-0.21630059,0.42902276,0
28384000,28384000,197388,0.014368367,-0.21839476,0.4259489,0
28516000,28455272,197388,0.0099907005,-0.21591967,0.4298533,0
28528000,28528000,197388,0.011834826,-0.2184714,0.42889544,0
28660000,28599272,197388,0.00873813,-0.21849564,0.4284394,0
28672000,28672000,197388,0.0068929447,-0.21732032,0.4314717,0
28804000,28742909,197388,0.010351569,-0.2161845,0.42821407,0
28816000,28816000,197388,0.009197321,-0.2262055,0.42871606,0
28948000,28887636,197388,0.009213512,-0.21571684,0.42888507,0
28956000,28956000,197388,0.01354485,-0.21938223,0.4296865,0
29080000,29025200,197388,0.008506407,-0.21628375,0.42996,0
29092000,29092000,197388,0.013054237,-0.21300796,0.42813694,0
29224000,29163636,197388,0.010458329,-0.21753895,0.43011713,0
29236000,29236000,197388,0.014693201,-0.21316905,0.4377335,0
29368000,29307272,197388,0.010188672,-0.21653816,0.42992553,0
29380000,29380000,197388,0.0061519016,-0.21176867,0.43853012,0
29512000,29451272,197388,0.009064592,-0.2159679,0.43076134,0
29524000,29524000,197388,0.013723125,-0.21707124,0.42018023,0
29652000,29594545,197388,0.0091561815,-0.21611656,0.42853475,0
29668000,29668000,197388,0.017508678,-0.21908821,0.4306033,0
29796000,29738909,197388,0.009057944,-0.2161744,0.42886692,0
29812000,29812000,197388,0.01249817,-0.22685084,0.43011436,0
29944000,29884000,197388,0.010207172,-0.21877937,0.43077293,0
29956000,29956000,197388,0.01313011,-0.21565254,0.42780697,0
30088000,30027636,197388,0.010741569,-0.21712965,0.42716298,0
30100000,30100000,197388,0.0171544,-0.22307013,0.42223504,0
30228000,30170545,197388,0.009667382,-0.21683626,0.42834955,0
30244000,30244000,197388,0.007550798,-0.22063716,0.42873532,0
30372000,30314909,197388,0.010781002,-0.21711686,0.42919016,0
30388000,30388000,197388,0.010426445,-0.22063139,0.42781523,0
30520000,30460000,197388,0.0072577037,-0.21524124,0.42762905,0
30532000,30532000,197388,0.009674251,-0.21436483,0.43164197,0
30664000,30603272,197388,0.0096789105,-0.21521543,0.4306981,0
30676000,30676000,197388,0.010104513,-0.21518631,0.4288215,0
30808000,30746909,197388,0.008699516,-0.21546473,0.43111128,0
30820000,30820000,197388,0.011627823,-0.2210178,0.42565578,0
30948000,30891272,197388,0.009796958,-0.2158082,0.4297098,0
30964000,30964000,197388,0.007748729,-0.21143286,0.42912474,0
31092000,31034545,197388,0.008146203,-0.21584813,0.4272206,0
31108000,31108000,197388,0.009618411,-0.21657012,0.42676297,0
31240000,31178909,197388,0.0090819765,-0.21549596,0.42807484,0
31252000,31252000,197388,0.0026438911,-0.21534115,0.43214357,0
31384000,31323272,197388,0.007220625,-0.21508703,0.430094,0
31396000,31396000,197388,0.0073188976,-0.21535021,0.43894637,0
31524000,31466545,197388,0.008874865,-0.21379645,0.43003765,0
31540000,31540000,197388,0.0060775066,-0.20600213,0.4312134,0
31668000,31611272,197388,0.009710046,-0.21406183,0.42938334,0
31684000,31684000,197388,0.008538238,-0.21921581,0.4255973,0
31816000,31754545,197388,0.008057824,-0.21513246,0.42902496,0
31828000,31828000,197388,0.004917017,-0.21294622,0.43985927,0
31960000,31898909,197388,0.009427717,-0.21548419,0.43034187,0
31972000,31972000,197388,0.006355909,-0.21579845,0.4347775,0
32104000,32042545,197388,0.008949642,-0.21575673,0.42872876,0
32116000,32116000,197388,0.008741793,-0.21153642,0.42798683,0
32248000,32187272,197388,0.008796118,-0.21530113,0.42827234,0
32260000,32260000,197388,0.012279137,-0.21571828,0.42927703,0
32392000,32331272,197388,0.009212318,-0.21523646,0.42961976,0
32404000,32404000,197388,0.0037342526,-0.21743838,0.42704788,0
32532000,32474181,197388,0.006582498,-0.21446164,0.42951617,0
32548000,32548000,197388,0.015846767,-0.21288143,0.43086427,0
32676000,32618545,197388,0.008903667,-0.21364687,0.4301723,0
32692000,32692000,197388,0.0046424298,-0.21362072,0.42700827,0
32820000,32762909,197388,0.0065462515,-0.21553181,0.4307324,0
32836000,32836000,197388,0.008064946,-0.22049616,0.42802545,0
32968000,32907272,197388,0.0071434183,-0.21451695,0.43156365,0
32980000,32980000,197388,0.009582411,-0.21065049,0.428356,0
33112000,33050545,197388,0.0083368365,-0.21656631,0.42859197,0
33124000,33124000,197388,0.007491482,-0.2184969,0.43332893,0
33252000,33195636,197388,0.007854604,-0.214977,0.4317614,0
33268000,33268000,197388,0.008202738,-0.20857884,0.43183818,0
33400000,33339272,197388,0.008478739,-0.21533537,0.42899513,0
33412000,33412000,197388,0.0071005733,-0.21792123,0.42943627,0
33544000,33482909,197388,0.009795673,-0.21582517,0.42861468,0
33556000,33556000,197388,0.010071586,-0.21563897,0.43411502,0
33688000,33626909,197388,0.0077003203,-0.21416423,0.4301794,0
33700000,33700000,197388,0.007902989,-0.21662176,0.4273166,0
33828000,33770909,197388,0.0074683246,-0.21368831,0.43168408,0
33844000,33844000,197388,0.014470214,-0.20805696,0.43009412,0
33976000,33915272,197388,0.0071501955,-0.21015045,0.43205476,0
33988000,33988000,197388,0.0089246975,-0.21993561,0.42937368,0
34116000,34058545,197388,0.0092617255,-0.21268728,0.43027532,0
34132000,34132000,197388,0.020651305,-0.21971369,0.43071175,0
34264000,34202909,197388,0.010376313,-0.213783,0.42937592,0
34276000,34276000,197388,0.007912384,-0.22111993,0.43176433,0
34408000,34346909,197388,0.010347445,-0.21611264,0.43091658,0
34420000,34420000,197388,0.00934398,-0.21954377,0.42943382,0
34548000,34490909,197388,0.008656563,-0.2166797,0.428904,0
34564000,34564000,197388,0.013314487,-0.21925615,0.43534872,0
34692000,34634909,197388,0.008482018,-0.21660623,0.4278236,0
34708000,34708000,197388,0.001988561,-0.21409948,0.42487213,0
34836000,34778545,197388,0.0067804134,-0.21695682,0.428485,0
34852000,34852000,197388,0.013808104,-0.212336,0.4277572,0
34980000,34922909,197388,0.008795672,-0.21762371,0.42848715,0
34996000,34996000,197388,0.0048815855,-0.21585482,0.4337353,0
35124000,35066909,197388,0.009378212,-0.2161206,0.42850482,0
35140000,35140000,197388,0.009594155,-0.21947657,0.43006483,0
35272000,35210909,197388,0.0098111695,-0.21678357,0.4270085,0
35284000,35284000,197388,0.0069535356,-0.21450025,0.4344454,0
35412000,35355636,197388,0.007940878,-0.21683091,0.42700538,0
35428000,35428000,197388,0.005493125,-0.21705337,0.42739367,0
35560000,35498545,197388,0.008318055,-0.21536109,0.42939234,0
35572000,35572000,197388,0.011203547,-0.22059163,0.4315988,0
35704000,35643272,197388,0.008947868,-0.21886818,0.42658377,0
35716000,35716000,197388,0.0114799505,-0.22283204,0.4271987,0
35844000,35785818,197388,0.0072380393,-0.2174824,0.4281859,0
35860000,35860000,197388,0.010842707,-0.21920949,0.42912942,0
35988000,35930545,197388,0.007381499,-0.21745329,0.42782247,0
36004000,36004000,197388,0.00658135,-0.21338935,0.42903653,0
36132000,36074545,197388,0.009442692,-0.21670917,0.4305707,0
36148000,36148000,197388,0.0040323576,-0.22075553,0.42701325,0
36280000,36218909,197388,0.009439567,-0.21555015,0.42881885,0
36292000,36292000,197388,0.0103161745,-0.21784064,0.43461022,0
36424000,36362909,197388,0.008570017,-0.21743378,0.42991862,0
36436000,36436000,197388,-0.002881403,-0.21640474,0.42487985,0
36564000,36506545,197388,0.00906791,-0.21486549,0.42950428,0
36580000,36580000,197388,0.005937899,-0.21805806,0.42598715,0
36712000,36652000,197388,0.010575451,-0.21624024,0.42704418,0
36720000,36720000,197388,0.009352784,-0.21509358,0.4292302,0
36844000,36788400,197388,0.0093470765,-0.21426001,0.4283433,0
36856000,36856000,197388,0.01195672,-0.21361388,0.42633313,0
36988000,36926909,197388,0.0077488385,-0.2148148,0.4292066,0
37000000,37000000,197388,0.013638938,-0.22173698,0.42670763,0
37132000,37070909,197388,0.0085001085,-0.21650775,0.4281097,0
37140000,37140000,197388,0.012062679,-0.21194878,0.43334693,0
37264000,37208800,197388,0.009918443,-0.215685,0.4269474,0
37276000,37276000,197388,0.00961058,-0.21881376,0.42571282,0
37408000,37347636,197388,0.009591117,-0.2131695,0.42977616,0
37420000,37420000,197388,0.012197001,-0.21181427,0.43201265,0
37552000,37491636,197388,0.010917954,-0.21714664,0.4290014,0
37564000,37564000,197388,0.010171128,-0.21728832,0.42968675,0
37692000,37635636,197388,0.008103113,-0.2174112,0.4294924,0
37708000,37708000,197388,0.0034136125,-0.22039425,0.42268014,0
37836000,37777454,197388,0.009861492,-0.21681158,0.4294589,0
37852000,37852000,197388,0.014444206,-0.22196841,0.4293211,0
37980000,37921818,197388,0.009821176,-0.21495411,0.429247,0
37996000,37996000,197388,0.0077050836,-0.21403971,0.43538404,0
38128000,38068000,197388,0.009851155,-0.21563546,0.42993772,0
38140000,38140000,197388,0.014140323,-0.21033609,0.4297881,0
38272000,38211272,197388,0.00973621,-0.21678719,0.42877144,0
38284000,38284000,197388,0.006165119,-0.21070987,0.42661873,0
38412000,38355272,197388,0.011859842,-0.21696118,0.42969137,0
38428000,38428000,197388,0.010209253,-0.21726933,0.42829046,0
38556000,38499272,197388,0.009069727,-0.21668424,0.42808747,0
38572000,38572000,197388,0.010123374,-0.22157782,0.42633992,0
38700000,38643636,197388,0.010163161,-0.2157614,0.4301343,0
38716000,38716000,197388,0.0044740187,-0.21526097,0.43197477,0
38844000,38786181,197388,0.008996669,-0.21670331,0.42951134,0
38860000,38860000,197388,0.01219692,-0.21354589,0.42313507,0
38988000,38930181,197388,0.009896176,-0.21618894,0.42872557,0
39004000,39004000,197388,0.011340745,-0.21581165,0.42255226,0
39136000,39074909,197388,0.0089798365,-0.21660261,0.4281205,0
39148000,39148000,197388,0.005548679,-0.22092938,0.42203376,0
39276000,39218545,197388,0.009616369,-0.21595328,0.42850083,0
39292000,39292000,197388,0.001845578,-0.2115141,0.42873886,0
39424000,39363272,197388,0.011993408,-0.21674721,0.42822617,0
39436000,39436000,197388,0.012717866,-0.21195976,0.4281942,0
39564000,39506545,197388,0.009637708,-0.2149228,0.42971304,0
39580000,39580000,197388,0.012932046,-0.21737957,0.42407337,0
39712000,39651636,197388,0.009595902,-0.21663974,0.42800662,0
39724000,39724000,197388,0.013865828,-0.21225281,0.41756886,0
39852000,39793454,197388,0.008238994,-0.21628563,0.43013123,0
39868000,39868000,197388,0.011323602,-0.21227035,0.42875725,0
39996000,39938545,197388,0.0104549285,-0.21657102,0.43067673,0
40012000,40012000,197388,0.009698498,-0.21524766,0.42680907,0
40144000,40084000,197388,0.010150568,-0.21808428,0.4279124,0
40156000,40156000,197388,0.0011080684,-0.22276792,0.42814112,0
40284000,40226909,197388,0.009479289,-0.21601953,0.43003267,0
40300000,40300000,197388,0.009993948,-0.2184279,0.4320093,0
40428000,40370545,197388,0.0070036226,-0.21613748,0.42919144,0
40444000,40444000,197388,0.0077488855,-0.21417446,0.43148863,0
40572000,40515636,197388,0.010175433,-0.21401209,0.4299561,0
40588000,40588000,197388,0.013712412,-0.21340981,0.43004885,0
40720000,40659636,197388,0.008718844,-0.21673119,0.42800158,0
40732000,40732000,197388,0.00913134,-0.2188192,0.42920202,0
40864000,40802545,197388,0.009545395,-0.21712446,0.42922568,0
40876000,40876000,197388,0.011138299,-0.21728475,0.42970046,0
41008000,40947636,197388,0.010107954,-0.21547028,0.42909276,0
41020000,41020000,197388,0.013232097,-0.21812233,0.43358314,0
41148000,41091272,197388,0.011490898,-0.21502697,0.4292833,0
41164000,41164000,197388,0.012915878,-0.2196761,0.4287822,0
41296000,41235636,197388,0.007934237,-0.21698622,0.42884535,0
41308000,41308000,197388,0.010099487,-0.22360176,0.43677497,0
41436000,41377818,197388,0.007945681,-0.21736287,0.43003702,0
41452000,41452000,197388,0.011566064,-0.21162263,0.427714,0
41580000,41522181,197388,0.008592215,-0.21650514,0.4305254,0
41596000,41596000,197388,0.003137418,-0.21634139,0.43030336,0
41724000,41666909,197388,0.00862212,-0.21821307,0.4312324,0
41740000,41740000,197388,0.008546259,-0.21750002,0.43147162,0
41872000,41811636,197388,0.010320016,-0.21403413,0.4309145,0
41880000,41880000,197388,0.014442076,-0.21801595,0.428282,0
42004000,41950000,197388,0.009640287,-0.21564285,0.42828962,0
42028000,42020000,197388,0.005605977,-0.22220382,0.43334594,0
42148000,42092400,197388,0.010528376,-0.21828894,0.4301606,0
42172000,42164000,197388,0.012340835,-0.21503595,0.42950195,0
42280000,42231555,197388,0.008475052,-0.21576133,0.42919573,0
42316000,42304000,197388,0.007206352,-0.21466129,0.42921704,0
42420000,42375555,197388,0.009720304,-0.21576943,0.43038413,0
42460000,42446666,197388,0.012612234,-0.21921007,0.42831057,0
42556000,42514000,197388,0.010139428,-0.21489905,0.42998046,0
42604000,42586000,197388,0.0133499615,-0.21627523,0.43319046,0
42700000,42657500,197388,0.009403077,-0.21653365,0.42983395,0
42748000,42729000,197388,0.01122538,-0.21923637,0.42811134,0
42844000,42801500,197388,0.011688397,-0.21680558,0.42756587,0
42892000,42873000,197388,0.010330736,-0.21676432,0.42971078,0
42988000,42944500,197388,0.008098749,-0.21609011,0.42659235,0
43024000,43012000,197388,0.011657715,-0.21245903,0.42735714,0
43132000,43083111,197388,0.009335359,-0.2164361,0.42847952,0
43156000,43150000,197388,0.008320934,-0.21504894,0.43016335,0
43276000,43220000,197388,0.0076092975,-0.21339159,0.42888275,0
43288000,43288000,197388,0.011923197,-0.2102192,0.43269664,0
43420000,43359272,197388,0.010360928,-0.2153342,0.42918658,0
43428000,43428000,197388,0.0049709924,-0.21378866,0.42617634,0
43552000,43496800,197388,0.007918875,-0.21503234,0.42807174,0
43564000,43564000,197388,0.015352328,-0.20983231,0.43068874,0
43692000,43634545,197388,0.009425588,-0.21386518,0.42943493,0
43708000,43708000,197388,0.00038016937,-0.20130908,0.43181217,0
43840000,43778909,197388,0.010768581,-0.21507901,0.43128258,0
43852000,43852000,197388,0.015123587,-0.21972886,0.42758408,0
43984000,43922909,197388,0.00651057,-0.2156575,0.4276095,0
43996000,43996000,197388,0.008581945,-0.21316855,0.4255048,0
44124000,44066909,197388,0.008333638,-0.21737193,0.43014106,0
44140000,44140000,197388,0.008149481,-0.21782558,0.42944774,0
