timestamp,timestamp_sample,time_last_fuse,device_id,observation,observation_variance,innovation,innovation_variance,test_ratio,estimator_instance,fusion_enabled,innovation_rejected,fused
3200000,3118923,0,0,-0.0015258789,12.25,-4.627742e-06,112.42326,7.619773e-15,0,0,0,0
3264000,3178907,0,0,0.030761719,12.25,-0.02955934,112.25,3.1136022e-07,0,0,0,0
3320000,3239031,0,0,-0.0066833496,12.25,0.0072169374,112.25,1.8560065e-08,0,0,0,0
3384000,3299060,0,0,-0.070617676,12.25,0.0698865,112.25,1.7404445e-06,0,0,0,0
3440000,3359167,0,0,-0.04083252,12.25,0.041787267,62.249985,1.1220409e-06,0,0,0,0
3504000,3419192,0,0,-0.12542725,12.25,0.12633644,62.249985,1.0256e-05,0,0,0,0
3560000,3479283,0,0,0.034973145,12.25,-0.034173705,62.249985,7.504208e-07,0,0,0,0
3624000,3539305,0,0,0.0057373047,12.25,-0.0054131565,45.58333,2.5713138e-08,0,0,0,0
3680000,3599384,0,0,0.013336182,12.25,-0.013308856,45.58333,1.5543019e-07,0,0,0,0
3744000,3659402,0,0,-0.12362671,12.25,0.12325268,45.58333,1.33305075e-05,0,0,0,0
3800000,3719470,0,0,0.061523438,12.25,-0.062294193,45.58337,3.4052475e-06,0,0,0,0
3864000,3779481,3784000,0,0.033355713,12.25,-0.0343639,37.250053,1.2680546e-06,0,0,0,0
3920000,3839540,3840000,0,-0.017242432,12.25,0.015801735,37.250107,2.681279e-07,0,1,0,1
3976000,3895553,3896000,0,-0.11114502,12.25,0.0986304,20.47152,1.9007784e-05,0,1,0,1
4032000,3946258,3952000,0,-0.045410156,12.25,-0.00726201,17.169731,1.2285992e-07,0,1,0,1
4088000,4007616,4008000,0,-0.11114502,12.25,0.06007703,15.7600975,9.160475e-06,0,1,0,1
4152000,4067653,4072000,0,-0.04071045,12.25,-0.024392538,14.978397,1.5889442e-06,0,1,0,1
4208000,4123670,4128000,0,-0.0031738281,12.25,-0.05810656,14.481487,9.326038e-06,0,1,0,1
4256000,4175692,4176000,0,0.09542847,12.25,-0.14806382,14.137697,6.2026775e-05,0,1,0,1
4320000,4235716,4240000,0,-0.11114502,12.25,0.07758569,13.8857765,1.7340159e-05,0,1,0,1
4376000,4295735,4296000,0,-0.045410156,12.25,0.0020740926,13.69322,1.2566395e-08,0,1,0,1
4440000,4354422,4360000,0,-0.017242432,12.25,-0.027094718,13.54131,2.1685457e-06,0,1,0,1
4496000,4413770,4416000,0,-0.045410156,12.25,0.0034742989,13.418298,3.598296e-08,0,1,0,1
4544000,4463786,4464000,0,0.024993896,12.25,-0.06778123,13.316757,1.3800041e-05,0,1,0,1
4608000,4522470,4528000,0,0.029693604,12.25,-0.06781626,13.2315855,1.390323e-05,0,1,0,1
4664000,4583814,4584000,0,0.020324707,12.25,-0.054105684,13.159058,8.898586e-06,0,1,0,1
4728000,4643830,4648000,0,-0.068878174,12.25,0.038812704,13.096441,4.601024e-06,0,1,0,1
4784000,4703842,4704000,0,-0.050109863,12.25,0.016910043,13.042061,8.770072e-07,0,1,0,1
4848000,4761187,4768000,0,0.03439331,12.25,-0.06933898,12.994387,1.4799909e-05,0,1,0,1
4904000,4821863,4824000,0,-0.07357788,12.25,0.042869844,12.951853,5.6758627e-06,0,1,0,1
4968000,4882540,4888000,0,-0.017242432,12.25,-0.016425315,12.914272,8.356367e-07,0,1,0,1
5024000,4943883,4944000,0,-0.007843018,12.25,-0.0255723,12.88055,2.0307907e-06,0,1,0,1
5088000,5001225,5008000,0,-0.031341553,12.25,-0.00047076494,12.849803,6.898771e-10,0,1,0,1
5136000,5051895,5056000,0,0.076660156,12.25,-0.1088749,12.822188,3.6978847e-05,0,1,0,1
5192000,5111908,5112000,0,-0.0031738281,12.25,-0.024731994,12.797142,1.9119004e-06,0,1,0,1
5256000,5171910,5176000,0,-0.07827759,12.25,0.05078254,12.774369,8.075127e-06,0,1,0,1
5312000,5230921,5232000,0,-0.012542725,12.25,-0.016479071,12.752825,8.5176356e-07,0,1,0,1
5376000,5291923,5296000,0,-0.026641846,12.25,-0.0022621714,12.733608,1.6075315e-08,0,1,0,1
5432000,5351932,5352000,0,-0.059509277,12.25,0.030183122,12.715827,2.8657857e-06,0,1,0,1
5496000,5411934,5416000,0,-0.07357788,12.25,0.042554528,12.699496,5.70381e-06,0,1,0,1
5552000,5471942,5472000,0,-0.0031738281,12.25,-0.028672889,12.683466,2.5927757e-06,0,1,0,1
5616000,5531944,5536000,0,0.17526245,12.25,-0.20670874,12.669356,0.00013490347,0,1,0,1
5672000,5591950,5592000,0,0.006225586,12.25,-0.031336147,12.656147,3.1034851e-06,0,1,0,1
5736000,5651952,5656000,0,-0.026641846,12.25,0.0031841751,12.643026,3.2077672e-08,0,1,0,1
5792000,5711957,5712000,0,-0.07827759,12.25,0.05426506,12.631446,9.324972e-06,0,1,0,1
5856000,5771958,5776000,0,-0.026641846,12.25,0.00042692013,12.620716,5.776559e-10,0,1,0,1
5912000,5831963,5832000,0,-0.03604126,12.25,0.009295715,12.610572,2.740885e-07,0,1,0,1
5976000,5891964,5896000,0,0.015625,12.25,-0.041814443,12.600087,5.5505893e-06,0,1,0,1
6032000,5951968,5952000,0,-0.04071045,12.25,0.015203375,12.591062,7.34307e-07,0,1,0,1
6096000,6011969,6016000,0,0.08602905,12.25,-0.11251392,12.5826845,4.0243824e-05,0,1,0,1
6152000,6071973,6072000,0,0.0015258789,12.25,-0.024108436,12.573572,1.8490107e-06,0,1,0,1
6216000,6131973,6136000,0,-0.031341553,12.25,0.008881342,12.566053,2.5108352e-07,0,1,0,1
6272000,6191977,6192000,0,0.010925293,12.25,-0.03402313,12.558862,3.6868732e-06,0,1,0,1
6336000,6251977,6256000,0,-0.050109863,12.25,0.028616095,12.551026,2.6097655e-06,0,1,0,1
6392000,6309980,6312000,0,-0.045410156,12.25,0.02284364,12.544516,1.6639365e-06,0,1,0,1
6456000,6371980,6376000,0,0.06726074,12.25,-0.09079651,12.538466,2.6299886e-05,0,1,0,1
6512000,6431983,6432000,0,-0.068878174,12.25,0.047075883,12.532637,7.073176e-06,0,1,0,1
6576000,6491983,6496000,0,0.039093018,12.25,-0.061353415,12.525955,1.2020613e-05,0,1,0,1
6632000,6551985,6552000,0,-0.017242432,12.25,-0.0039525665,12.520631,4.9910525e-08,0,1,0,1
6696000,6611986,6616000,0,-0.082977295,12.25,0.06151623,12.515697,1.2094401e-05,0,1,0,1
6752000,6671987,6672000,0,-0.045410156,12.25,0.023315668,12.509626,1.7382465e-06,0,1,0,1
6816000,6731988,6736000,0,-0.007843018,12.25,-0.015031498,12.5050955,7.2273235e-07,0,1,0,1
6872000,6791989,6792000,0,0.039093018,12.25,-0.061876748,12.500687,1.2251269e-05,0,1,0,1
6936000,6851990,6856000,0,-0.07357788,12.25,0.0518391,12.49662,8.601661e-06,0,1,0,1
6992000,6910991,6912000,0,0.006225586,12.25,-0.028701363,12.491261,2.6379028e-06,0,1,0,1
7056000,6971991,6976000,0,-0.101745605,12.25,0.079628095,12.487501,2.0310335e-05,0,1,0,1
7112000,7031992,7032000,0,0.024993896,12.25,-0.048774377,12.483815,7.6224774e-06,0,1,0,1
7176000,7091992,7096000,0,0.09072876,12.25,-0.11337052,12.479058,4.1198222e-05,0,1,0,1
7232000,7150993,7152000,0,-0.012542725,12.25,-0.008108737,12.475633,2.1081613e-07,0,1,0,1
7296000,7211994,7216000,0,-0.03604126,12.25,0.015429245,12.47249,7.634774e-07,0,1,0,1
7352000,7271994,7272000,0,-0.0031738281,12.25,-0.017799715,12.469385,1.0163448e-06,0,1,0,1
7416000,7331995,7336000,0,0.010925293,12.25,-0.03136485,12.465099,3.1568263e-06,0,1,0,1
7472000,7390995,7392000,0,-0.021942139,12.25,0.0020279828,12.462198,1.3200607e-08,0,1,0,1
7536000,7451995,7456000,0,-0.050109863,12.25,0.030151468,12.4595585,2.9185978e-06,0,1,0,1
7592000,7510996,7512000,0,-0.04071045,12.25,0.020230677,12.455496,1.3143766e-06,0,1,0,1
7656000,7571996,7576000,0,0.09072876,12.25,-0.11148976,12.45302,3.9925948e-05,0,1,0,1
7712000,7631997,7632000,0,-0.07827759,12.25,0.059363123,12.45055,1.1321525e-05,0,1,0,1
7776000,7691997,7696000,0,-0.017242432,12.25,-0.0026164204,12.448326,2.1997032e-08,0,1,0,1
7832000,7751997,7752000,0,-0.04071045,12.25,0.020823872,12.444581,1.393807e-06,0,1,0,1
7896000,7811997,7816000,0,0.12359619,12.25,-0.14379457,12.442485,6.6471854e-05,0,1,0,1
7952000,7871998,7872000,0,-0.017242432,12.25,-0.0007320605,12.440374,1.7231397e-09,0,1,0,1
8016000,7931998,7936000,0,-0.026641846,12.25,0.008663556,12.437008,2.413995e-07,0,1,0,1
8072000,7991998,7992000,0,-0.09237671,12.25,0.07427458,12.435012,1.7745742e-05,0,1,0,1
8136000,8051998,8056000,0,-0.03604126,12.25,0.016828485,12.433235,9.110997e-07,0,1,0,1
8192000,8111998,8112000,0,-0.012542725,12.25,-0.006961243,12.431428,1.5592386e-07,0,1,0,1
8256000,8171998,8176000,0,-0.021942139,12.25,0.0026575811,12.428289,2.2731165e-08,0,1,0,1
8312000,8231999,8232000,0,-0.097076416,12.25,0.077648535,12.426572,1.9407751e-05,0,1,0,1
8376000,8291999,8296000,0,-0.059509277,12.25,0.038889986,12.425067,4.8689667e-06,0,1,0,1
8432000,8351999,8352000,0,-0.05480957,12.25,0.033743687,12.422001,3.6665153e-06,0,1,0,1
8496000,8411999,8416000,0,-0.026641846,12.25,0.005063083,12.420567,8.2556014e-08,0,1,0,1
8552000,8471999,8472000,0,-0.059509277,12.25,0.037854932,12.419088,4.6154623e-06,0,1,0,1
8616000,8531999,8536000,0,-0.058288574,12.250135,-0.0045129955,13.250149,6.1484975e-08,0,1,0,1
8672000,8591999,8592000,0,-0.06768799,12.251081,0.008022521,13.176425,1.9538179e-07,0,1,0,1
8736000,8651999,8656000,0,0.012145996,12.252164,-0.06917839,13.114882,1.4596088e-05,0,1,0,1
8792000,8712000,8712000,0,-0.006652832,12.25311,-0.043009136,13.06232,5.664494e-06,0,1,0,1
8856000,8772000,8776000,0,-0.091156006,12.254191,0.047419664,13.018259,6.9091407e-06,0,1,0,1
8912000,8832000,8832000,0,-0.095825195,12.2551365,0.05214197,12.979787,8.37852e-06,0,1,0,1
8976000,8892000,8896000,0,-0.1239624,12.256216,0.080593176,12.947782,2.0066016e-05,0,1,0,1
9032000,8952000,8952000,0,-0.11923218,12.257159,0.059684332,12.651247,1.1262824e-05,0,1,0,1
9096000,9012000,9016000,0,0.031036377,12.258238,-0.09113543,12.64329,2.6276914e-05,0,1,0,1
9152000,9072000,9072000,0,-0.100494385,12.259178,0.044341486,12.635916,6.22406e-06,0,1,0,1
9216000,9132000,9136000,0,0.007537842,12.260254,-0.063681975,12.630304,1.2843377e-05,0,1,0,1
9272000,9192000,9192000,0,-0.030090332,12.261192,-0.023037702,12.6249275,1.6815485e-06,0,1,0,1
9336000,9252000,9256000,0,-0.08175659,12.262263,0.030610677,12.6213045,2.9696248e-06,0,1,0,1
9392000,9312000,9312000,0,-0.044189453,12.263198,-0.006666962,12.617609,1.4090907e-07,0,1,0,1
9456000,9372000,9376000,0,0.0074768066,12.264266,-0.06259699,12.518964,1.2519833e-05,0,1,0,1
9512000,9432000,9432000,0,-0.0630188,12.265197,0.0099578835,12.518167,3.1684974e-07,0,1,0,1
9576000,9492000,9496000,0,-0.109954834,12.266259,0.057622354,12.51849,1.060938e-05,0,1,0,1
9632000,9552000,9552000,0,-0.016021729,12.267185,-0.036645144,12.518522,4.290815e-06,0,1,0,1
9696000,9612000,9616000,0,0.0121154785,12.268243,-0.063072875,12.51973,1.271014e-05,0,1,0,1
9752000,9672000,9672000,0,-0.025543213,12.269163,-0.023275912,12.520494,1.7308201e-06,0,1,0,1
9816000,9732000,9736000,0,-0.22747803,12.270215,0.17240185,12.466045,9.5370735e-05,0,1,0,1
9872000,9792000,9792000,0,-0.0018310547,12.271129,-0.055646535,12.467313,9.934897e-06,0,1,0,1
9936000,9852000,9856000,0,0.03564453,12.272175,-0.09188075,12.469503,2.7080703e-05,0,1,0,1
9992000,9912000,9912000,0,-0.11004639,12.273082,0.055602245,12.471257,9.9159515e-06,0,1,0,1
10056000,9972000,9976000,0,-0.053619385,12.27412,-0.00128581,12.473986,5.3016174e-09,0,1,0,1
10112000,10032000,10032000,0,-0.05831909,12.275021,0.003846325,12.476177,4.743189e-08,0,1,0,1
10176000,10092000,10096000,0,0.09661865,12.276052,-0.15062967,12.479392,7.272565e-05,0,1,0,1
10232000,10152000,10152000,0,-0.119659424,12.276944,0.06720101,12.441494,1.4519078e-05,0,1,0,1
10296000,10212000,10216000,0,0.044799805,12.277967,-0.09768063,12.444431,3.0669155e-05,0,1,0,1
10352000,10272000,10272000,0,-0.07748413,12.278851,0.026328757,12.446877,2.2277186e-06,0,1,0,1
10416000,10332000,10336000,0,-0.030456543,12.279865,-0.020589508,12.45019,1.3619965e-06,0,1,0,1
10472000,10392000,10392000,0,-0.053985596,12.280741,0.0036318712,12.452934,4.236909e-08,0,1,0,1
10536000,10452000,10456000,0,-0.1619873,12.281746,0.11212176,12.456587,4.0368326e-05,0,1,0,1
10592000,10512000,10512000,0,-0.08187866,12.282612,0.030952714,12.459597,3.0757672e-06,0,1,0,1
10656000,10572000,10576000,0,0.110687256,12.283608,-0.16050059,12.430745,8.2892664e-05,0,1,0,1
10712000,10632000,10632000,0,-0.025878906,12.284464,-0.021384437,12.433481,1.4711701e-06,0,1,0,1
10776000,10692000,10696000,0,-0.035339355,12.28545,-0.010871794,12.437014,3.8014238e-07,0,1,0,1
10832000,10752000,10752000,0,-0.10110474,12.286295,0.05577785,12.439969,1.0003782e-05,0,1,0,1
10896000,10812000,10816000,0,-0.011749268,12.287271,-0.0333517,12.443756,3.5755634e-06,0,1,0,1
10952000,10872000,10872000,0,-0.12921143,12.288106,0.085400105,12.446908,2.3437717e-05,0,1,0,1
11016000,10932000,10936000,0,0.12930298,12.28907,-0.17589343,12.423171,9.9615456e-05,0,1,0,1
11072000,10992000,10992000,0,-0.040283203,12.289894,-0.0035051294,12.426011,3.954908e-08,0,1,0,1
11136000,11052000,11056000,0,-0.3501587,12.290848,0.307514,12.429593,0.00030432167,0,1,0,1
11192000,11112000,11112000,0,-0.011108398,12.291659,-0.03400272,12.432601,3.7198492e-06,0,1,0,1
11256000,11172000,11176000,0,0.054504395,12.292602,-0.098053545,12.436384,3.092377e-05,0,1,0,1
11312000,11232000,11232000,0,-0.077301025,12.293403,0.03598968,12.439544,4.1649664e-06,0,1,0,1
11376000,11292000,11296000,0,-0.039611816,12.2943325,-0.0008193739,12.443508,2.1581488e-09,0,1,0,1
11432000,11352000,11352000,0,0.026123047,12.295121,-0.06974344,12.421961,1.566306e-05,0,1,0,1
11496000,11412000,11416000,0,-0.049224854,12.296039,0.0077093877,12.425507,1.9133114e-07,0,1,0,1
11552000,11472000,11472000,0,-0.053894043,12.296815,0.013596907,12.428488,5.9500684e-07,0,1,0,1
11608000,11528000,11528000,0,-0.058532715,12.297585,0.019456513,12.431525,1.2180515e-06,0,1,0,1
11664000,11580000,11584000,0,-0.07727051,12.298348,0.039415926,12.434618,4.9977093e-06,0,1,0,1
11720000,11638000,11640000,0,-0.0630188,12.299108,0.026193626,12.437764,2.2065253e-06,0,1,0,1
11768000,11688000,11688000,0,-0.03945923,12.299725,0.0036270134,12.440244,4.2298932e-08,0,1,0,1
11832000,11746666,11752000,0,-0.13336182,12.300608,0.09099423,12.421634,2.6663001e-05,0,1,0,1
11888000,11806000,11808000,0,-0.043792725,12.301348,0.0018744618,12.4245205,1.13118475e-08,0,1,0,1
11936000,11856000,11856000,0,-0.05316162,12.301947,0.012393255,12.426825,4.94391e-07,0,1,0,1
12000000,11916000,11920000,0,-0.0014648438,12.302811,-0.03789199,12.430447,4.620278e-06,0,1,0,1
12056000,11976000,11976000,0,-0.067352295,12.303534,0.029763162,12.433476,2.8498732e-06,0,1,0,1
12120000,12036000,12040000,0,-0.1564331,12.304384,0.12017658,12.437223,4.644899e-05,0,1,0,1
12176000,12096000,12096000,0,-0.010375977,12.305093,-0.025732417,12.440341,2.1290648e-06,0,1,0,1
12240000,12156000,12160000,0,-0.09030151,12.30593,0.049381737,12.423175,7.851635e-06,0,1,0,1
12296000,12216000,12216000,0,-0.024353027,12.306625,-0.01570724,12.426012,7.9419647e-07,0,1,0,1
12360000,12276000,12280000,0,-0.14178467,12.307448,0.10343577,12.429511,3.443083e-05,0,1,0,1
12416000,12336000,12336000,0,0.013641357,12.308129,-0.051630575,12.432435,8.5766505e-06,0,1,0,1
12480000,12394666,12400000,0,-0.09460449,12.308939,0.05874756,12.436046,1.11008785e-05,0,1,0,1
12536000,12456000,12456000,0,-0.13189697,12.309607,0.096911855,12.439049,3.0201369e-05,0,1,0,1
12600000,12516000,12520000,0,-0.065704346,12.310403,0.031423755,12.442761,3.1743832e-06,0,1,0,1
12656000,12576000,12576000,0,-0.16415405,12.311056,0.11985217,12.425899,4.6240657e-05,0,1,0,1
12720000,12636000,12640000,0,-0.032104492,12.311837,-0.011870302,12.429272,4.5345882e-07,0,1,0,1
12776000,12696000,12696000,0,-0.12606812,12.312476,0.08351147,12.432087,2.2439242e-05,0,1,0,1
12840000,12756000,12760000,0,-0.07400513,12.313244,0.032168258,12.435561,3.3285085e-06,0,1,0,1
12896000,12816000,12816000,0,0.015380859,12.3138685,-0.0561538,12.438449,1.014033e-05,0,1,0,1
12960000,12876000,12880000,0,-0.12576294,12.314622,0.08717955,12.442018,2.4434217e-05,0,1,0,1
13016000,12936000,12936000,0,-0.06896973,12.315233,0.02580075,12.42621,2.1428211e-06,0,1,0,1
13080000,12996000,13000000,0,-0.11578369,12.315972,0.07392247,12.429459,1.7585744e-05,0,1,0,1
13136000,13056000,13056000,0,0.05831909,12.316568,-0.099482894,12.432167,3.184271e-05,0,1,0,1
13200000,13116000,13120000,0,-0.022003174,12.317293,-0.016589653,12.435512,8.852602e-07,0,1,0,1
13256000,13176000,13176000,0,0.034240723,12.317876,-0.071174055,12.438289,1.6290815e-05,0,1,0,1
13320000,13236000,13240000,0,-0.078826904,12.318586,0.044346724,12.441725,6.322699e-06,0,1,0,1
13376000,13296000,13296000,0,-0.008178711,12.319155,-0.02519494,12.444565,2.0403604e-06,0,1,0,1
13440000,13356000,13360000,0,-0.10223389,12.319852,0.06044855,12.429903,1.1758827e-05,0,1,0,1
13496000,13416000,13416000,0,-0.09249878,12.320406,0.051540006,12.432509,8.546536e-06,0,1,0,1
13560000,13476000,13480000,0,-0.15792847,12.321089,0.11808692,12.435735,4.4853066e-05,0,1,0,1
13616000,13536000,13536000,0,-0.044555664,12.321629,0.005016867,12.438409,8.0939465e-08,0,1,0,1
13680000,13596000,13600000,0,-0.1055603,12.322298,0.06757948,12.441725,1.4682805e-05,0,1,0,1
13736000,13654000,13656000,0,-0.07699585,12.3228245,0.039817188,12.444463,5.0959484e-06,0,1,0,1
13784000,13704000,13704000,0,-0.1612854,12.32321,0.124968246,12.446596,5.018902e-05,0,1,0,1
13848000,13764000,13768000,0,0.0037841797,12.32386,-0.04793033,12.43246,7.3913498e-06,0,1,0,1
13904000,13824000,13824000,0,-0.09039307,12.324368,0.047951348,12.434999,7.396323e-06,0,1,0,1
13968000,13884000,13888000,0,-0.13705444,12.325005,0.0956967,12.43815,2.945087e-05,0,1,0,1
14024000,13944000,13944000,0,0.03253174,12.325499,-0.07342227,12.440758,1.73328e-05,0,1,0,1
14088000,14004000,14008000,0,-0.014862061,12.326122,-0.023714572,12.443998,1.8077179e-06,0,1,0,1
14144000,14064000,14064000,0,-0.08544922,12.326603,0.04857959,12.44667,7.5842827e-06,0,1,0,1
14208000,14124000,14128000,0,0.097961426,12.327213,-0.13878879,12.445637,6.190869e-05,0,1,0,1
14264000,14184000,14184000,0,0.03137207,12.327681,-0.072976366,12.435554,1.7130078e-05,0,1,0,1
14328000,14244000,14248000,0,0.045013428,12.328277,-0.08441638,12.438607,2.2916152e-05,0,1,0,1
14384000,14304000,14304000,0,-0.044708252,12.328731,0.007480819,12.441133,1.7992782e-07,0,1,0,1
14448000,14364000,14368000,0,0.030456543,12.329314,-0.06611946,12.444279,1.4052348e-05,0,1,0,1
14504000,14424000,14424000,0,-0.12960815,12.329755,0.096019275,12.44687,2.962898e-05,0,1,0,1
14568000,14484000,14488000,0,-0.06796265,12.330325,0.03516081,12.450105,3.9719584e-06,0,1,0,1
14624000,14544000,14544000,0,-0.07244873,12.330753,0.033711657,12.436143,3.6553965e-06,0,1,0,1
14688000,14604000,14608000,0,-0.095703125,12.331311,0.058246855,12.439112,1.090977e-05,0,1,0,1
14744000,14664000,14664000,0,-0.06716919,12.331726,0.03054373,12.441563,2.9993641e-06,0,1,0,1
14808000,14724000,14728000,0,-0.09512329,12.332271,0.05977343,12.444625,1.1484036e-05,0,1,0,1
14864000,14784000,14784000,0,-0.038391113,12.332673,0.0038857348,12.447145,4.852176e-08,0,1,0,1
14928000,14842666,14848000,0,-0.06652832,12.333205,0.033557255,12.4503,3.6178706e-06,0,1,0,1
14984000,14904000,14904000,0,-0.038146973,12.333595,0.006249111,12.452888,1.2543723e-07,0,1,0,1
15048000,14964000,14968000,0,-0.1038208,12.334116,0.06388942,12.439629,1.3125338e-05,0,1,0,1
15104000,15022000,15024000,0,-0.08932495,12.334494,0.0501018,12.442014,8.070046e-06,0,1,0,1
15168000,15082666,15088000,0,-0.079589844,12.335002,0.041436646,12.4450035,5.5186665e-06,0,1,0,1
15224000,15144000,15144000,0,-0.027679443,12.335367,-0.0,12.447461,2.8972886e-07,0,1,0,1
15288000,15204000,15208000,0,-0.06060791,12.335863,0.025005937,12.450545,2.0088978e-06,0,1,0,1
15344000,15262000,15264000,0,-0.05102539,12.336218,0.016597614,12.453075,8.848603e-07,0,1,0,1
15392000,15312000,15312000,0,-0.10253906,12.336432,0.06918267,12.455023,1.5371283e-05,0,1,0,1
15456000,15372000,15376000,0,-0.16778564,12.336914,0.12776153,12.441926,5.247743e-05,0,1,0,1
15512000,15432000,15432000,0,-0.13873291,12.337253,0.09896099,12.444283,3.14788e-05,0,1,0,1
15576000,15490666,15496000,0,-0.03942871,12.337723,0.00035938993,12.447246,4.150673e-10,0,1,0,1
15632000,15552000,15552000,0,-0.0018920898,12.338051,-0.0,12.449678,4.1150947e-06,0,1,0,1
15696000,15612000,15616000,0,0.026031494,12.33851,-0.0,12.45274,1.2366597e-05,0,1,0,1
15752000,15672000,15672000,0,-0.06359863,12.338827,0.029092737,12.455247,2.7181711e-06,0,1,0,1
15816000,15732000,15736000,0,-0.11502075,12.339275,0.074640036,12.442399,1.7910163e-05,0,1,0,1
15872000,15790000,15792000,0,-0.03933716,12.3395815,-0.0,12.444706,2.665904e-10,0,1,0,1
15920000,15840000,15840000,0,-0.10507202,12.339747,0.06660793,12.446489,1.4258209e-05,0,1,0,1
15984000,15898666,15904000,0,-0.04824829,12.340182,0.0107923,12.449435,3.742298e-07,0,1,0,1
16040000,15960000,15960000,0,-0.17492676,12.340475,0.13881159,12.451852,6.189812e-05,0,1,0,1
16104000,16020000,16024000,0,-0.033081055,12.340899,-0.0,12.4549,2.093864e-08,0,1,0,1
16160000,16080000,16080000,0,-0.09881592,12.341182,0.06473437,12.457392,1.3455589e-05,0,1,0,1
16224000,16140000,16144000,0,-0.023223877,12.341597,-0.0,12.444582,9.98976e-07,0,1,0,1
16280000,16200000,16200000,0,0.042388916,12.341868,-0.0,12.446875,2.1513253e-05,0,1,0,1
16344000,16260000,16264000,0,-0.10845947,12.342272,0.07069793,12.44977,1.6058762e-05,0,1,0,1
16400000,16320000,16320000,0,-0.07977295,12.342535,0.042883318,12.452146,5.9073477e-06,0,1,0,1
16464000,16380000,16384000,0,-0.07946777,12.342929,0.04397498,12.455146,6.210442e-06,0,1,0,1
16520000,16440000,16440000,0,-0.088531494,12.343182,0.054268997,12.4576,9.456473e-06,0,1,0,1
16584000,16498666,16504000,0,-0.074035645,12.343566,0.041211557,12.460704,5.451995e-06,0,1,0,1
16640000,16558000,16560000,0,-0.11129761,12.34381,0.071843654,12.447199,1.6586899e-05,0,1,0,1
16688000,16608000,16608000,0,-0.14361572,12.343914,0.104960866,12.448932,3.5398323e-05,0,1,0,1
16752000,16666666,16672000,0,-0.13342285,12.344287,0.09578228,12.451823,2.947117e-05,0,1,0,1
16808000,16726000,16728000,0,-0.062286377,12.34452,0.025512513,12.454191,2.0905038e-06,0,1,0,1
16872000,16785333,16792000,0,-0.0057373047,12.344884,-0.0,12.45719,2.7511478e-06,0,1,0,1
16920000,16836000,16840000,0,0.05508423,12.344973,-0.0,12.459035,2.5163721e-05,0,1,0,1
16976000,16895000,16896000,0,-0.025421143,12.345195,-0.0,12.461515,1.218094e-07,0,1,0,1
17032000,16952000,16952000,0,0.030853271,12.345414,-0.0,12.448113,1.4797383e-05,0,1,0,1
17088000,17004000,17008000,0,-0.044769287,12.345629,0.009541731,12.450388,2.9250378e-07,0,1,0,1
17144000,17062000,17064000,0,-0.06350708,12.34584,0.030034102,12.4527025,2.897515e-06,0,1,0,1
17192000,17112000,17112000,0,-0.110198975,12.345915,0.0780569,12.454478,1.9568479e-05,0,1,0,1
17256000,17172000,17176000,0,-0.086120605,12.346257,0.055442788,12.457457,9.870082e-06,0,1,0,1
17312000,17232000,17232000,0,-0.0340271,12.34646,0.004773125,12.459889,7.3139404e-08,0,1,0,1
17376000,17292000,17296000,0,-0.062194824,12.346795,0.034877088,12.462976,3.9040797e-06,0,1,0,1
17432000,17352000,17352000,0,-0.13702393,12.34699,0.10429747,12.449558,3.4950514e-05,0,1,0,1
17496000,17410666,17416000,0,-0.056396484,12.347316,0.02231742,12.452387,1.5999093e-06,0,1,0,1
17552000,17470000,17472000,0,-0.05621338,12.347502,0.020068776,12.454701,1.293506e-06,0,1,0,1
17600000,17520000,17520000,0,0.023773193,12.347549,-0.0,12.456471,1.2681321e-05,0,1,0,1
17664000,17578666,17584000,0,-0.0847168,12.347867,0.0404569,12.4594555,5.254678e-06,0,1,0,1
17720000,17640000,17640000,0,-0.03744507,12.348044,-0.0,12.461888,5.458548e-07,0,1,0,1
17784000,17698666,17704000,0,-0.05633545,12.348354,-0.0,12.464982,2.653483e-08,0,1,0,1
17840000,17760000,17760000,0,-0.028198242,12.348525,-0.0,12.451454,8.721432e-06,0,1,0,1
17904000,17817333,17824000,0,-0.08496094,12.348827,-0.0,12.454288,3.1846085e-07,0,1,0,1
17952000,17868000,17872000,0,-0.17425537,12.348854,0.06607431,12.456025,1.4019929e-05,0,1,0,1
18008000,17928000,17928000,0,-0.18780518,12.349016,0.06096722,12.458374,1.19341485e-05,0,1,0,1
18072000,17988000,17992000,0,-0.23428345,12.349311,0.08268468,12.461364,2.1945452e-05,0,1,0,1
18128000,18047000,18048000,0,-0.1678772,12.349465,-0.0,12.4637985,2.4659317e-07,0,1,0,1
18192000,18108000,18112000,0,-0.26184082,12.349753,0.054009512,12.466898,9.359273e-06,0,1,0,1
18248000,18168000,18168000,0,-0.270813,12.349901,0.029352024,12.453248,2.7672822e-06,0,1,0,1
18312000,18228000,18232000,0,-0.21890259,12.350182,-0.0,12.456086,1.1104304e-05,0,1,0,1
18368000,18287000,18288000,0,-0.32266235,12.350323,0.012886107,12.458402,5.331398e-07,0,1,0,1
18432000,18348000,18352000,0,-0.49627686,12.350596,0.15009817,12.461353,7.231787e-05,0,1,0,1
18488000,18408000,18408000,0,-0.34481812,12.35073,-0.0,12.463754,3.6837503e-06,0,1,0,1
18552000,18468000,18472000,0,-0.3685608,12.350998,-0.0,12.466817,6.698715e-06,0,1,0,1
18608000,18528000,18528000,0,-0.49569702,12.351126,0.043578833,12.464833,6.0943125e-06,0,1,0,1
18672000,18588000,18592000,0,-0.3779602,12.351387,-0.0,12.45602,4.143193e-05,0,1,0,1
18728000,18648000,18648000,0,-0.6793518,12.351508,0.15506119,12.4583,7.7198245e-05,0,1,0,1
18792000,18708000,18712000,0,-0.664032,12.351763,0.10034156,12.46121,3.2319265e-05,0,1,0,1
18848000,18768000,18768000,0,-0.6444092,12.351878,0.04602009,12.463577,6.7969213e-06,0,1,0,1
18912000,18828000,18832000,0,-0.6816101,12.352127,0.043690443,12.466599,6.124701e-06,0,1,0,1
18968000,18888000,18888000,0,-0.6624756,12.352237,-0.0,12.469051,3.478185e-07,0,1,0,1
19032000,18948000,18952000,0,-0.68603516,12.35248,-0.0,12.4558325,3.9017477e-06,0,1,0,1
19088000,19008000,19008000,0,-0.8036804,12.352583,0.04744953,12.458074,7.2289117e-06,0,1,0,1
19152000,19068000,19072000,0,-0.9206543,12.35282,0.12334955,12.460941,4.8840968e-05,0,1,0,1
19208000,19127000,19128000,0,-0.84454346,12.352919,0.01036942,12.463272,3.4509358e-07,0,1,0,1
19272000,19188000,19192000,0,-0.88668823,12.35315,0.011364818,12.466251,4.1442794e-07,0,1,0,1
19328000,19247000,19248000,0,-0.9100952,12.353243,-0.0,12.468667,5.617528e-09,0,1,0,1
19392000,19308000,19312000,0,-0.9429321,12.35347,-0.0,12.471757,3.0064348e-07,0,1,0,1
19448000,19367000,19368000,0,-1.0791931,12.353558,0.08127308,12.457731,2.120872e-05,0,1,0,1
19512000,19428000,19432000,0,-1.1724243,12.353778,0.13236439,12.460552,5.624256e-05,0,1,0,1
19568000,19487000,19488000,0,-1.166626,12.35386,0.08916044,12.462845,2.551451e-05,0,1,0,1
19632000,19548000,19552000,0,-1.2644958,12.354076,0.1448921,12.46578,6.7364315e-05,0,1,0,1
19688000,19608000,19608000,0,-1.2069397,12.354154,0.04998231,12.468159,8.014756e-06,0,1,0,1
19744000,19664000,19664000,0,-1.3332825,12.35423,0.14002419,12.470576,6.288971e-05,0,1,0,1
19800000,19716000,19720000,0,-1.1724854,12.354305,-0.0,12.473033,1.0685865e-05,0,1,0,1
19856000,19776000,19776000,0,-1.3842468,12.35438,0.1043092,12.458929,3.4932087e-05,0,1,0,1
19920000,19834666,19840000,0,-1.3504944,12.354587,0.02902615,12.46175,2.7043309e-06,0,1,0,1
19976000,19896000,19896000,0,-1.3596497,12.354655,0.002612114,12.464038,2.1897042e-08,0,1,0,1
20040000,19956000,19960000,0,-1.3924866,12.354858,-0.0,12.466972,6.754839e-08,0,1,0,1
20096000,20016000,20016000,0,-1.4347534,12.354922,0.0030725002,12.469347,3.0283086e-08,0,1,0,1
20160000,20076000,20080000,0,-1.495758,12.355122,0.025049329,12.472391,2.012345e-06,0,1,0,1
20216000,20136000,20136000,0,-1.5002441,12.355182,-0.0,12.45839,1.0966321e-06,0,1,0,1
20280000,20196000,20200000,0,-1.4393616,12.355375,-0.0,12.461164,4.447011e-05,0,1,0,1
20336000,20256000,20256000,0,-1.5906067,12.355431,0.00044095516,12.463413,6.240392e-10,0,1,0,1
20400000,20314666,20320000,0,-1.7314453,12.35562,0.104019284,12.4663,3.4717636e-05,0,1,0,1
20456000,20376000,20376000,0,-1.7446594,12.355672,0.084236264,12.468636,2.2763512e-05,0,1,0,1
20520000,20436000,20440000,0,-1.7439575,12.355858,0.046725392,12.471634,7.0023298e-06,0,1,0,1
20576000,20496000,20496000,0,-1.8327637,12.355906,0.104154706,12.474052,3.478646e-05,0,1,0,1
20640000,20556000,20560000,0,-1.7896118,12.356088,0.011385679,12.460481,4.1614345e-07,0,1,0,1
20696000,20616000,20616000,0,-1.8083191,12.356132,-0.0,12.46269,2.2075662e-12,0,1,0,1
20760000,20674666,20680000,0,-1.8177185,12.356309,-0.0,12.465529,1.8332423e-06,0,1,0,1
20816000,20736000,20736000,0,-1.9024353,12.356349,0.033329606,12.467825,3.563934e-06,0,1,0,1
20880000,20796000,20800000,0,-1.9115295,12.3565235,0.013624668,12.470776,5.954131e-07,0,1,0,1
20936000,20856000,20856000,0,-1.8503723,12.35656,-0.0,12.473156,1.5338343e-05,0,1,0,1
21000000,20916000,20920000,0,-1.893219,12.356731,-0.0,12.476215,6.8241475e-06,0,1,0,1
21056000,20976000,20976000,0,-2.0673218,12.356764,0.09356117,12.46188,2.8097504e-05,0,1,0,1
21120000,21036000,21040000,0,-1.9115906,12.356931,-0.0,12.46467,1.8211782e-05,0,1,0,1
21176000,21094000,21096000,0,-2.085968,12.35696,0.09028387,12.466927,2.6152966e-05,0,1,0,1
21224000,21144000,21144000,0,-2.0382385,12.3568535,0.03526783,12.468617,3.9902416e-06,0,1,0,1
21288000,21204000,21208000,0,-2.0567322,12.357019,0.0455513,12.471564,6.6548864e-06,0,1,0,1
21344000,21264000,21264000,0,-1.8779297,12.357048,-0.0,12.47394,6.325078e-05,0,1,0,1
21408000,21324000,21328000,0,-2.090393,12.35721,0.05993128,12.472353,1.1519103e-05,0,1,0,1
21464000,21384000,21384000,0,-2.0992432,12.357236,0.054308176,12.462629,9.46631e-06,0,1,0,1
21528000,21444000,21448000,0,-2.122284,12.357394,0.066963196,12.465417,1.4388831e-05,0,1,0,1
21584000,21504000,21504000,0,-2.04187,12.357415,-0.0,12.467668,1.7448099e-06,0,1,0,1
21648000,21564000,21568000,0,-2.0233154,12.357572,-0.0,12.470567,8.9448695e-06,0,1,0,1
21704000,21624000,21624000,0,-2.0660095,12.35759,-0.0,12.472902,1.2446225e-06,0,1,0,1
21768000,21682666,21688000,0,-2.164795,12.357743,0.06830549,12.475911,1.4958877e-05,0,1,0,1
21824000,21744000,21744000,0,-2.164215,12.357759,0.0466218,12.461697,6.9768735e-06,0,1,0,1
21888000,21804000,21808000,0,-2.084015,12.357909,-0.0,12.464437,6.380883e-06,0,1,0,1
21944000,21864000,21864000,0,-2.2017822,12.357922,0.06405711,12.466648,1.3165732e-05,0,1,0,1
22008000,21924000,21928000,0,-2.1495972,12.358068,0.0011262894,12.4695,4.069218e-09,0,1,0,1
22064000,21984000,21984000,0,-2.2059326,12.358079,0.04880047,12.471797,7.637987e-06,0,1,0,1
22128000,22042666,22048000,0,-2.2430725,12.358224,0.075924635,12.474759,1.8483883e-05,0,1,0,1
22184000,22104000,22104000,0,-2.1203308,12.358231,-0.0,12.477138,9.923886e-06,0,1,0,1
22248000,22164000,22168000,0,-2.1724548,12.358374,-0.0,12.4634,1.3002759e-06,0,1,0,1
22304000,22224000,22224000,0,-2.2008057,12.358377,0.00042653084,12.465571,5.837793e-10,0,1,0,1
22368000,22284000,22288000,0,-2.2665405,12.358518,0.057492018,12.468376,1.0603889e-05,0,1,0,1
22424000,22344000,22344000,0,-2.2754211,12.35852,0.058512688,12.470635,1.0981748e-05,0,1,0,1
22488000,22402666,22408000,0,-2.3124695,12.358656,0.086904764,12.473549,2.421905e-05,0,1,0,1
22544000,22464000,22464000,0,-2.2413025,12.358656,0.00799942,12.475891,2.0516602e-07,0,1,0,1
22608000,22524000,22528000,0,-2.2740784,12.358791,0.035606384,12.47427,4.065375e-06,0,1,0,1
22664000,22584000,22584000,0,-2.3254395,12.358789,0.07442546,12.46445,1.7775832e-05,0,1,0,1
22728000,22642666,22648000,0,-2.3153992,12.358921,0.05649805,12.467207,1.0241362e-05,0,1,0,1
22784000,22704000,22704000,0,-2.3102112,12.358916,0.04463458,12.469427,6.390817e-06,0,1,0,1
22848000,22762666,22768000,0,-2.3943176,12.359046,0.12142515,12.472296,4.7285816e-05,0,1,0,1
22904000,22824000,22824000,0,-2.3416138,12.359039,0.06172824,12.474601,1.2218028e-05,0,1,0,1
22968000,22884000,22888000,0,-2.3410645,12.359168,0.054056883,12.477578,9.367673e-06,0,1,0,1
23024000,22944000,22944000,0,-2.3594055,12.3591585,0.05313754,12.46329,9.062128e-06,0,1,0,1
23088000,23004000,23008000,0,-2.354248,12.359284,0.040988922,12.466001,5.3909566e-06,0,1,0,1
23144000,23064000,23064000,0,-2.4196167,12.359273,0.100349426,12.4681835,3.2306252e-05,0,1,0,1
23208000,23124000,23128000,0,-2.414032,12.359397,0.087635756,12.471006,2.4633218e-05,0,1,0,1
23264000,23184000,23184000,0,-2.3005676,12.359384,-0.0,12.473275,3.2519588e-06,0,1,0,1
23328000,23244000,23248000,0,-2.3665771,12.359506,0.028519869,12.476207,2.607789e-06,0,1,0,1
23384000,23302000,23304000,0,-2.3240967,12.359491,-0.0,12.478559,1.1437265e-06,0,1,0,1
23448000,23362666,23368000,0,-2.4134521,12.3596115,0.052396774,12.464768,8.810182e-06,0,1,0,1
23504000,23424000,23424000,0,-2.4223633,12.359594,0.05636406,12.466914,1.0193084e-05,0,1,0,1
23568000,23484000,23488000,0,-2.3937073,12.359713,0.022278786,12.469691,1.5921622e-06,0,1,0,1
23624000,23544000,23544000,0,-2.3465881,12.359694,-0.0,12.471923,2.728981e-06,0,1,0,1
23688000,23604000,23608000,0,-2.3890686,12.359811,0.008899689,12.474812,2.5396602e-07,0,1,0,1
23744000,23664000,23664000,0,-2.445343,12.35979,0.061527252,12.477127,1.2136136e-05,0,1,0,1
23808000,23722666,23728000,0,-2.3743591,12.359906,-0.0,12.475492,1.479854e-06,0,1,0,1
23864000,23784000,23784000,0,-2.4684448,12.359884,0.06193304,12.465625,1.2308093e-05,0,1,0,1
23928000,23844000,23848000,0,-2.397461,12.359997,-0.0,12.468357,5.670321e-07,0,1,0,1
23984000,23904000,23904000,0,-2.3271484,12.359973,-0.0,12.470554,2.4125413e-05,0,1,0,1
24048000,23964000,23968000,0,-2.4077454,12.360085,-0.0,12.473398,2.8669294e-07,0,1,0,1
24104000,24024000,24024000,0,-2.407837,12.36006,-0.0,12.47568,4.6670846e-07,0,1,0,1
24168000,24082666,24088000,0,-2.4079285,12.36017,-0.0,12.478633,7.0125304e-07,0,1,0,1
24224000,24144000,24144000,0,-2.5441895,12.360144,0.09760165,12.464322,3.0570718e-05,0,1,0,1
24288000,24204000,24208000,0,-2.5527344,12.360252,0.10245037,12.467011,3.3676322e-05,0,1,0,1
24344000,24262000,24264000,0,-2.4954834,12.360224,0.04196191,12.4691725,5.648496e-06,0,1,0,1
24392000,24312000,24312000,0,-2.4293823,12.360061,-0.0,12.470778,2.238502e-06,0,1,0,1
24456000,24372000,24376000,0,-2.4953613,12.36017,0.03727126,12.473623,4.45467e-06,0,1,0,1
24512000,24432000,24432000,0,-2.4715576,12.360144,0.011451483,12.475905,4.204471e-07,0,1,0,1
24576000,24492000,24496000,0,-2.471466,12.360253,0.009700775,12.478861,3.0164625e-07,0,1,0,1
24632000,24552000,24552000,0,-2.5136108,12.360226,0.03924179,12.464562,4.9417476e-06,0,1,0,1
24696000,24612000,24616000,0,-2.466339,12.3603325,-0.0,12.467255,2.9294188e-07,0,1,0,1
24752000,24670000,24672000,0,-2.5321655,12.360302,0.05537653,12.469418,9.837059e-06,0,1,0,1
24800000,24720000,24720000,0,-2.583313,12.360138,0.105370045,12.4710245,3.5611658e-05,0,1,0,1
24864000,24778666,24784000,0,-2.5589294,12.360247,0.07935357,12.473873,2.019257e-05,0,1,0,1
24920000,24838000,24840000,0,-2.4455261,12.360219,-0.0,12.476158,3.9726933e-06,0,1,0,1
24984000,24897333,24904000,0,-2.5115662,12.360327,0.030509949,12.4791155,2.9837274e-06,0,1,0,1
25040000,24958000,24960000,0,-2.393921,12.360297,-0.0,12.46482,2.9278568e-05,0,1,0,1
25088000,25008000,25008000,0,-2.3900757,12.360132,-0.0,12.466366,3.1787247e-05,0,1,0,1
25152000,25068000,25072000,0,-2.5318298,12.360241,0.042090416,12.469107,5.683176e-06,0,1,0,1
25208000,25128000,25128000,0,-2.526764,12.360213,0.036603928,12.471311,4.297375e-06,0,1,0,1
25272000,25188000,25192000,0,-2.5968628,12.360321,0.106398344,12.474164,3.6300975e-05,0,1,0,1
25328000,25248000,25248000,0,-2.5254822,12.3602915,0.034085512,12.476451,3.724848e-06,0,1,0,1
25392000,25308000,25312000,0,-2.3796387,12.360398,-0.0,12.479414,4.0186467e-05,0,1,0,1
25448000,25368000,25368000,0,-2.5777893,12.360368,0.073147535,12.465109,1.7169723e-05,0,1,0,1
25512000,25428000,25432000,0,-2.5630798,12.360472,0.05769992,12.46781,1.0681204e-05,0,1,0,1
25568000,25488000,25488000,0,-2.57193,12.360439,0.06597853,12.46998,1.3963666e-05,0,1,0,1
25632000,25546666,25552000,0,-2.500946,12.360543,-0.0,12.472795,9.945983e-08,0,1,0,1
25688000,25608000,25608000,0,-2.5761108,12.36051,0.06975603,12.475051,1.5602032e-05,0,1,0,1
25752000,25666666,25672000,0,-2.5708008,12.360613,0.06410909,12.477975,1.3175135e-05,0,1,0,1
25808000,25728000,25728000,0,-2.5983887,12.360579,0.0803287,12.475723,2.0688823e-05,0,1,0,1
25872000,25786666,25792000,0,-2.5930176,12.36068,0.066092014,12.4664955,1.4015661e-05,0,1,0,1
25928000,25848000,25848000,0,-2.6206055,12.360643,0.09324336,12.468634,2.7891827e-05,0,1,0,1
25992000,25908000,25912000,0,-2.5023804,12.3607435,-0.0,12.471408,2.0987045e-06,0,1,0,1
26048000,25968000,25968000,0,-2.6105957,12.360706,0.082954645,12.473633,2.2067263e-05,0,1,0,1
26112000,26028000,26032000,0,-2.4971924,12.3608055,-0.0,12.476518,2.9977034e-06,0,1,0,1
26168000,26088000,26088000,0,-2.4692993,12.360767,-0.0,12.478827,1.0672657e-05,0,1,0,1
26232000,26146666,26152000,0,-2.5402222,12.360866,-0.0,12.465168,5.3475027e-08,0,1,0,1
26288000,26206000,26208000,0,-2.5402527,12.3608265,-0.0,12.467275,3.6717427e-08,0,1,0,1
26336000,26256000,26256000,0,-2.6529846,12.360652,0.10999131,12.468838,3.881064e-05,0,1,0,1
26400000,26316000,26320000,0,-2.595642,12.360752,0.052640676,12.471618,8.887511e-06,0,1,0,1
26456000,26376000,26376000,0,-2.5811157,12.360715,0.038650513,12.473847,4.7903814e-06,0,1,0,1
26520000,26436000,26440000,0,-2.6418152,12.360814,0.1003921,12.476738,3.2311567e-05,0,1,0,1
26576000,26496000,26496000,0,-2.6174622,12.360776,0.07649732,12.479052,1.875732e-05,0,1,0,1
26640000,26556000,26560000,0,-2.6167908,12.360874,0.057730913,12.465388,1.069476e-05,0,1,0,1
26696000,26614000,26616000,0,-2.7054749,12.360834,0.14714193,12.467499,6.946301e-05,0,1,0,1
26744000,26664000,26664000,0,-2.5773926,12.360661,0.018906593,12.469068,1.1467073e-06,0,1,0,1
26808000,26724000,26728000,0,-2.591278,12.36076,0.034207344,12.471852,3.7529069e-06,0,1,0,1
26864000,26784000,26784000,0,-2.5956726,12.360723,0.039803267,12.474088,5.0802914e-06,0,1,0,1
26928000,26844000,26848000,0,-2.6141052,12.360822,0.05982399,12.476985,1.1473637e-05,0,1,0,1
26984000,26904000,26904000,0,-2.5713196,12.360784,0.018386364,12.479304,1.0835809e-06,0,1,0,1
27048000,26964000,26968000,0,-2.6275024,12.360882,0.06590366,12.465629,1.39368585e-05,0,1,0,1
27104000,27024000,27024000,0,-2.53302,12.360842,-0.02718687,12.467745,2.371322e-06,0,1,0,1
27168000,27084000,27088000,0,-2.6365662,12.360938,0.07892823,12.470492,1.9982102e-05,0,1,0,1
27224000,27144000,27144000,0,-2.6029968,12.360897,0.046782494,12.472696,7.0188566e-06,0,1,0,1
27288000,27204000,27208000,0,-2.5603027,12.360992,0.0061137676,12.475555,1.1984446e-07,0,1,0,1
27344000,27264000,27264000,0,-2.5743408,12.360951,0.022292852,12.477845,1.5931316e-06,0,1,0,1
27408000,27324000,27328000,0,-2.616394,12.361047,0.05790186,12.476215,1.0748853e-05,0,1,0,1
27464000,27384000,27384000,0,-2.4797363,12.361005,-0.08527112,12.466408,2.3330424e-05,0,1,0,1
27528000,27444000,27448000,0,-2.5462341,12.361098,-0.015850544,12.469116,8.0595845e-07,0,1,0,1
27584000,27504000,27504000,0,-2.6261902,12.361054,0.066171885,12.47129,1.4044156e-05,0,1,0,1
27648000,27562666,27568000,0,-2.63031,12.361147,0.0719831,12.47411,1.6615426e-05,0,1,0,1
27704000,27624000,27624000,0,-2.5827332,12.361103,0.025857687,12.47637,2.1436363e-06,0,1,0,1
27768000,27684000,27688000,0,-2.676361,12.361196,0.12176919,12.479301,4.7527454e-05,0,1,0,1
27824000,27744000,27744000,0,-2.6940613,12.361151,0.12494612,12.465059,5.0096936e-05,0,1,0,1
27888000,27804000,27808000,0,-2.5473938,12.361241,-0.020569801,12.467728,1.3574783e-06,0,1,0,1
27944000,27862000,27864000,0,-2.6461487,12.361196,0.08025622,12.469871,2.0661197e-05,0,1,0,1
27992000,27912000,27912000,0,-2.5844116,12.361015,0.01941657,12.471459,1.209171e-06,0,1,0,1
28056000,27970666,27976000,0,-2.5325928,12.361108,-0.03038001,12.474285,2.9595126e-06,0,1,0,1
28112000,28032000,28032000,0,-2.5469666,12.361065,-0.013671398,12.476551,5.992269e-07,0,1,0,1
28176000,28092000,28096000,0,-2.612793,12.361158,0.054752827,12.479489,9.608957e-06,0,1,0,1
28232000,28152000,28152000,0,-2.645172,12.3611145,0.065164566,12.4652405,1.3626438e-05,0,1,0,1
28296000,28212000,28216000,0,-2.6305237,12.361205,0.052030325,12.467916,8.685188e-06,0,1,0,1
28352000,28272000,28272000,0,-2.5784302,12.36116,0.0013024807,12.470064,5.4416907e-09,0,1,0,1
28416000,28332000,28336000,0,-2.7192688,12.361251,0.14428997,12.472853,6.676771e-05,0,1,0,1
28472000,28392000,28392000,0,-2.5959167,12.361205,0.021648407,12.475089,1.5026859e-06,0,1,0,1
28536000,28452000,28456000,0,-2.6802368,12.361295,0.108217,12.477988,3.754105e-05,0,1,0,1
28592000,28512000,28512000,0,-2.5759888,12.361249,0.0052375793,12.480309,8.792166e-08,0,1,0,1
28656000,28570666,28576000,0,-2.6510315,12.361339,0.059821367,12.466541,1.14822415e-05,0,1,0,1
28712000,28632000,28632000,0,-2.5800476,12.361291,-0.009566069,12.468658,2.93567e-07,0,1,0,1
28776000,28690666,28696000,0,-2.6599731,12.361379,0.07294607,12.471408,1.7066652e-05,0,1,0,1
28832000,28752000,28752000,0,-2.6781006,12.361331,0.09275508,12.473614,2.7589454e-05,0,1,0,1
28896000,28812000,28816000,0,-2.5927734,12.361419,0.009488344,12.476476,2.8863496e-07,0,1,0,1
28952000,28872000,28872000,0,-2.7335205,12.36137,0.15290594,12.478766,7.494404e-05,0,1,0,1
29016000,28932000,28936000,0,-2.586609,12.361458,-0.020320415,12.465159,1.3250349e-06,0,1,0,1
29072000,28990000,28992000,0,-2.7417297,12.361407,0.13739657,12.467245,6.0567734e-05,0,1,0,1
29120000,29040000,29040000,0,-2.6466064,12.361223,0.0432055,12.468792,5.9884396e-06,0,1,0,1
29184000,29100000,29104000,0,-2.632141,12.361313,0.031184196,12.471549,3.118952e-06,0,1,0,1
29240000,29160000,29160000,0,-2.6975708,12.361265,0.09891987,12.47376,3.1378317e-05,0,1,0,1
29304000,29220000,29224000,0,-2.6732178,12.361355,0.076905966,12.476629,1.896194e-05,0,1,0,1
29360000,29280000,29280000,0,-2.550476,12.361307,-0.04345107,12.478925,6.051789e-06,0,1,0,1
29424000,29340000,29344000,0,-2.6072083,12.361396,0.0035829544,12.465313,4.1194514e-08,0,1,0,1
29480000,29400000,29400000,0,-2.6447449,12.361346,0.044531345,12.467404,6.3623206e-06,0,1,0,1
29544000,29460000,29464000,0,-2.6255798,12.361434,0.03016305,12.470123,2.918366e-06,0,1,0,1
29600000,29520000,29520000,0,-2.611206,12.361384,0.022514582,12.472303,1.6257025e-06,0,1,0,1
29664000,29578666,29584000,0,-2.6250916,12.361471,0.048603773,12.475135,7.5745133e-06,0,1,0,1
29720000,29640000,29640000,0,-2.6481323,12.361422,0.08700013,12.477402,2.426474e-05,0,1,0,1
29784000,29700000,29704000,0,-2.5393677,12.361508,0.0021657944,12.480343,1.503377e-08,0,1,0,1
29840000,29760000,29760000,0,-2.6755066,12.361458,0.1329174,12.46601,5.6688667e-05,0,1,0,1
29904000,29820000,29824000,0,-2.5193787,12.361544,0.015272856,12.468691,7.4830666e-07,0,1,0,1
29960000,29880000,29880000,0,-2.4816895,12.361492,0.017996311,12.47084,1.0387985e-06,0,1,0,1
30024000,29940000,29944000,0,-2.4252014,12.361577,0.012126684,12.473633,4.7157545e-07,0,1,0,1
30080000,30000000,30000000,0,-2.4203796,12.361525,0.053969145,12.475869,9.338567e-06,0,1,0,1
30144000,30060000,30064000,0,-2.4058228,12.361609,0.093370676,12.478773,2.794532e-05,0,1,0,1
30200000,30120000,30120000,0,-2.3016968,12.361558,0.035694122,12.481094,4.083201e-06,0,1,0,1
30264000,30180000,30184000,0,-2.2638245,12.361642,0.025544167,12.467254,2.0934986e-06,0,1,0,1
30320000,30240000,30240000,0,-2.2683105,12.3615885,0.07312226,12.469373,1.7151995e-05,0,1,0,1
30384000,30300000,30304000,0,-2.1690674,12.361671,0.020515919,12.472127,1.3498994e-06,0,1,0,1
30440000,30360000,30360000,0,-2.1219482,12.361618,0.013454676,12.474334,5.804825e-07,0,1,0,1
30504000,30420000,30424000,0,-2.107727,12.361701,0.04464078,12.4772,6.38861e-06,0,1,0,1
30560000,30480000,30480000,0,-2.0791626,12.361648,0.055508852,12.479491,9.876148e-06,0,1,0,1
30624000,30540000,30544000,0,-2.0082703,12.361731,0.00314641,12.465818,3.1766536e-08,0,1,0,1
30680000,30600000,30600000,0,-2.0176086,12.361675,0.052129507,12.467906,8.718337e-06,0,1,0,1
30744000,30658666,30664000,0,-1.9889832,12.361756,0.06861091,12.47062,1.509935e-05,0,1,0,1
30800000,30720000,30720000,0,-2.0118713,12.361702,0.13093972,12.472797,5.498433e-05,0,1,0,1
30864000,30780000,30784000,0,-1.8886414,12.361783,0.052651882,12.475624,8.888439e-06,0,1,0,1
30920000,30840000,30840000,0,-1.8599854,12.361728,0.06423783,12.477886,1.32282e-05,0,1,0,1
30984000,30900000,30904000,0,-1.8171692,12.361809,0.06778848,12.4808235,1.4727484e-05,0,1,0,1
31040000,30960000,30960000,0,-1.7555237,12.361753,0.028836489,12.466443,2.6681005e-06,0,1,0,1
31104000,31020000,31024000,0,-1.6754456,12.361834,-0.0,12.469118,5.7315606e-08,0,1,0,1
31160000,31080000,31080000,0,-1.7036743,12.361776,0.065564275,12.471263,1.3787453e-05,0,1,0,1
31224000,31140000,31144000,0,-1.5387573,12.361856,-0.0,12.474051,8.746674e-06,0,1,0,1
31280000,31200000,31200000,0,-1.6847534,12.3618,0.13570082,12.476284,5.9039096e-05,0,1,0,1
31344000,31260000,31264000,0,-1.4910278,12.361879,-0.0,12.479183,3.975761e-07,0,1,0,1
31400000,31320000,31320000,0,-1.4207153,12.361823,-0.0,12.4815,4.9240143e-06,0,1,0,1
31464000,31378666,31384000,0,-1.4633179,12.361902,0.026869893,12.467622,2.3163718e-06,0,1,0,1
31520000,31440000,31440000,0,-1.4161377,12.361845,0.021354795,12.469737,1.4628287e-06,0,1,0,1
31584000,31500000,31504000,0,-1.4206543,12.361923,0.07360196,12.4724865,1.7373435e-05,0,1,0,1
31640000,31560000,31560000,0,-1.2979126,12.361865,-0.0,12.474689,1.9380819e-07,0,1,0,1
31704000,31620000,31624000,0,-1.2463074,12.361943,-0.0,12.47755,4.0167313e-07,0,1,0,1
31760000,31680000,31680000,0,-1.1712952,12.361886,-0.0,12.479837,6.168018e-06,0,1,0,1
31824000,31740000,31744000,0,-1.1669922,12.361964,-0.0,12.466135,1.8495e-06,0,1,0,1
31880000,31800000,31800000,0,-1.2423401,12.361905,0.09347844,12.468218,2.8033577e-05,0,1,0,1
31944000,31860000,31864000,0,-1.1382141,12.361982,0.036721826,12.470928,4.3252353e-06,0,1,0,1
32000000,31920000,31920000,0,-1.0956116,12.361923,0.03596461,12.473101,4.147976e-06,0,1,0,1
32064000,31980000,31984000,0,-1.0530396,12.362,0.041427612,12.475924,5.502589e-06,0,1,0,1
32120000,32038000,32040000,0,-1.1371765,12.361941,0.16766411,12.478181,9.011331e-05,0,1,0,1
32184000,32098666,32104000,0,-0.9995117,12.362019,0.077152014,12.481113,1.907661e-05,0,1,0,1
32240000,32158000,32160000,0,-1.0129089,12.361959,0.10858935,12.466711,3.7834026e-05,0,1,0,1
32288000,32208000,32208000,0,-0.79125977,12.361765,-0.0,12.46823,1.9353709e-05,0,1,0,1
32352000,32268000,32272000,0,-0.8107605,12.361845,-0.0,12.470948,3.0234972e-07,0,1,0,1
32408000,32328000,32328000,0,-0.90475464,12.361789,0.12675035,12.473126,5.152085e-05,0,1,0,1
32472000,32388000,32392000,0,-0.74398804,12.361868,0.013481736,12.475955,5.8274406e-07,0,1,0,1
32528000,32448000,32448000,0,-0.71569824,12.361812,0.027781785,12.478219,2.4741594e-06,0,1,0,1
32592000,32508000,32512000,0,-0.724823,12.361891,0.0856393,12.481158,2.3504515e-05,0,1,0,1
32648000,32568000,32568000,0,-0.5785217,12.361835,-0.0,12.466765,7.153626e-06,0,1,0,1
32712000,32628000,32632000,0,-0.64468384,12.361913,0.06746048,12.469443,1.4598619e-05,0,1,0,1
32768000,32688000,32688000,0,-0.49383545,12.361855,-0.0,12.471591,5.5259366e-06,0,1,0,1
32832000,32748000,32752000,0,-0.5599365,12.361933,0.07323918,12.474382,1.7199976e-05,0,1,0,1
32888000,32808000,32808000,0,-0.6203003,12.361875,0.17568886,12.476617,9.895815e-05,0,1,0,1
32952000,32868000,32872000,0,-0.47784424,12.361954,0.080717534,12.479521,2.088324e-05,0,1,0,1
33008000,32928000,32928000,0,-0.42077637,12.361896,0.046903998,12.477232,7.052799e-06,0,1,0,1
33072000,32988000,32992000,0,-0.4156494,12.361974,0.07651484,12.467946,1.8782632e-05,0,1,0,1
33128000,33048000,33048000,0,-0.4008789,12.361915,0.10362753,12.470063,3.4446224e-05,0,1,0,1
33192000,33108000,33112000,0,-0.3295288,12.361992,0.080055565,12.472816,2.0553156e-05,0,1,0,1
33248000,33168000,33168000,0,-0.24899292,12.361933,0.04158379,12.475022,5.5445566e-06,0,1,0,1
33312000,33228000,33232000,0,-0.1265564,12.36201,-0.0,12.477887,3.2978626e-06,0,1,0,1
33368000,33288000,33288000,0,-0.16906738,12.361951,0.05375039,12.480177,9.259818e-06,0,1,0,1
33432000,33348000,33352000,0,-0.14511108,12.362028,0.056455597,12.466456,1.0226593e-05,0,1,0,1
33488000,33408000,33408000,0,0.019714355,12.361968,-0.0,12.468543,1.3789708e-05,0,1,0,1
33552000,33468000,33472000,0,0.009765625,12.362043,-0.0,12.471257,1.1684857e-07,0,1,0,1
33608000,33528000,33528000,0,0.023773193,12.361983,0.023377806,12.473433,1.7525947e-06,0,1,0,1
33672000,33588000,33592000,0,0.08502197,12.36206,0.038201496,12.4762535,4.6788223e-06,0,1,0,1
33728000,33648000,33648000,0,0.014953613,12.3619995,0.17260325,12.478485,9.549839e-05,0,1,0,1
33792000,33708000,33712000,0,-0.016357422,12.362076,0.26198205,12.481358,0.00021995876,0,1,0,1
33848000,33768000,33768000,0,-0.13607788,12.362016,0.22928487,12.467045,0.00016867365,0,1,0,1
33912000,33828000,33832000,0,-0.06826782,12.362091,0.20054692,12.469621,0.00012901457,0,1,0,1
33968000,33888000,33888000,0,-0.07116699,12.36203,0.2361129,12.471651,0.00017880325,0,1,0,1
34032000,33946666,33952000,0,-0.15826416,12.362105,0.3609243,12.474275,0.000417712,0,1,0,1
34088000,34008000,34008000,0,-0.06112671,12.362044,0.2971433,12.476333,0.00028307724,0,1,0,1
34152000,34068000,34072000,0,-0.22750854,12.36212,0.50540745,12.478997,0.0008187731,0,1,0,1
34208000,34128000,34128000,0,-0.14782715,12.362059,0.29122496,12.477101,0.00027189642,0,1,0,1
34272000,34188000,34192000,0,-0.24380493,12.362134,0.38102445,12.467633,0.00046578087,0,1,0,1
34328000,34248000,34248000,0,-0.34368896,12.362071,0.51829237,12.46951,0.0008617082,0,1,0,1
34392000,34306666,34312000,0,-0.2498169,12.362145,0.46832108,12.471952,0.0007034172,0,1,0,1
34448000,34368000,34368000,0,-0.31134033,12.362083,0.57044256,12.473854,0.0010434777,0,1,0,1
34512000,34428000,34432000,0,-0.32028198,12.362158,0.6288043,12.476333,0.0012676638,0,1,0,1
34568000,34488000,34488000,0,-0.35220337,12.362097,0.7056745,12.478254,0.0015963019,0,1,0,1
34632000,34548000,34552000,0,-0.28012085,12.362171,0.4623153,12.465403,0.0006858517,0,1,0,1
34688000,34608000,34608000,0,-0.35110474,12.362108,0.58053565,12.467147,0.0010813113,0,1,0,1
34752000,34668000,34672000,0,-0.3317871,12.362182,0.61654335,12.469431,0.0012193843,0,1,0,1
34808000,34728000,34728000,0,-0.29336548,12.362119,0.62723476,12.4712,0.0012618623,0,1,0,1
34872000,34788000,34792000,0,-0.39572144,12.362192,0.78909487,12.47352,0.001996776,0,1,0,1
34928000,34848000,34848000,0,-0.32287598,12.362129,0.76879925,12.475311,0.0018951104,0,1,0,1
34992000,34908000,34912000,0,-0.28781128,12.362204,0.7978442,12.477667,0.0020406228,0,1,0,1
35048000,34966000,34968000,0,-0.28530884,12.362141,0.62841153,12.464683,0.0012672639,0,1,0,1
35112000,35026666,35032000,0,-0.33602905,12.362213,0.7447511,12.466835,0.0017796151,0,1,0,1
35168000,35088000,35088000,0,-0.21661377,12.36215,0.68228793,12.468498,0.0014934174,0,1,0,1
35232000,35148000,35152000,0,-0.285614,12.362223,0.81964153,12.470694,0.0021548513,0,1,0,1
35288000,35208000,35208000,0,-0.25006104,12.362159,0.8440831,12.4723835,0.0022849722,0,1,0,1
35352000,35268000,35272000,0,-0.25653076,12.362232,0.92254794,12.47462,0.002729044,0,1,0,1
35408000,35328000,35328000,0,-0.2623291,12.362168,0.87515557,12.473344,0.002456109,0,1,0,1
35472000,35388000,35392000,0,-0.24035645,12.362242,0.8211461,12.464273,0.0021638835,0,1,0,1
35528000,35446000,35448000,0,-0.11090088,12.362177,0.7548992,12.465856,0.0018285878,0,1,0,1
35576000,35496000,35496000,0,-0.108795166,12.361979,0.80692375,12.466955,0.0020891256,0,1,0,1
35640000,35556000,35560000,0,-0.059326172,12.362055,0.83256924,12.469079,0.0022236495,0,1,0,1
35696000,35616000,35616000,0,-0.033050537,12.361994,0.8725826,12.470713,0.0024422032,0,1,0,1
35760000,35676000,35680000,0,0.026428223,12.36207,0.89147,12.472886,0.0025486285,0,1,0,1
35816000,35736000,35736000,0,-0.026611328,12.362009,0.79774404,12.460911,0.0020428542,0,1,0,1
35880000,35796000,35800000,0,-0.01473999,12.362084,0.8638697,12.462915,0.0023951728,0,1,0,1
35936000,35856000,35856000,0,0.11981201,12.362022,0.7965124,12.464462,0.0020359706,0,1,0,1
36000000,35916000,35920000,0,0.17391968,12.362098,0.82102245,12.466526,0.0021628411,0,1,0,1
36056000,35974000,35976000,0,0.06863403,12.362036,0.9949198,12.468118,0.003175669,0,1,0,1
36104000,36024000,36024000,0,0.25598145,12.36184,0.8648286,12.469224,0.0023992786,0,1,0,1
36168000,36082666,36088000,0,0.2543335,12.361918,0.9480531,12.471372,0.0028827772,0,1,0,1
36224000,36144000,36144000,0,0.253479,12.36186,0.84007716,12.45974,0.0022656322,0,1,0,1
36288000,36204000,36208000,0,0.3408203,12.361938,0.7950399,12.461725,0.0020288955,0,1,0,1
36344000,36264000,36264000,0,0.40429688,12.361879,0.7680943,12.463256,0.0018934663,0,1,0,1
36408000,36324000,36328000,0,0.30792236,12.361957,0.9071373,12.46529,0.002640606,0,1,0,1
36464000,36384000,36384000,0,0.28320312,12.361897,0.9670086,12.466854,0.0030002939,0,1,0,1
36528000,36444000,36448000,0,0.2590027,12.361975,1.0317003,12.468933,0.0034145839,0,1,0,1
36584000,36504000,36504000,0,0.3387146,12.361916,0.9855454,12.470525,0.0031155054,0,1,0,1
36648000,36564000,36568000,0,0.28182983,12.361992,0.8727623,12.459637,0.0024453816,0,1,0,1
36704000,36624000,36624000,0,0.3600769,12.361932,0.82643247,12.461106,0.0021923915,0,1,0,1
36768000,36684000,36688000,0,0.35342407,12.362008,0.8706775,12.463063,0.0024330432,0,1,0,1
36824000,36744000,36744000,0,0.3847046,12.361948,0.8708625,12.464561,0.0024337845,0,1,0,1
36888000,36804000,36808000,0,0.34558105,12.362024,0.9467566,12.4665575,0.0028760082,0,1,0,1
36944000,36864000,36864000,0,0.2930603,12.361964,1.0296868,12.4680805,0.0034015016,0,1,0,1
37008000,36924000,36928000,0,0.39620972,12.36204,0.89171743,12.467693,0.0025511056,0,1,0,1
37064000,36984000,36984000,0,0.3666687,12.3619795,0.82149434,12.459005,0.0021666351,0,1,0,1
37128000,37044000,37048000,0,0.48672485,12.362055,0.7350644,12.460885,0.0017344505,0,1,0,1
37184000,37104000,37104000,0,0.44641113,12.361994,0.8044903,12.462319,0.002077317,0,1,0,1
37248000,37164000,37168000,0,0.40667725,12.362068,0.87759674,12.464236,0.0024716351,0,1,0,1
37304000,37224000,37224000,0,0.40518188,12.362007,0.90665627,12.465696,0.0026377207,0,1,0,1
37368000,37282666,37288000,0,0.46499634,12.3620825,0.8788911,12.4676485,0.0024782526,0,1,0,1
37424000,37344000,37344000,0,0.34143066,12.362021,0.8367981,12.456952,0.0022484828,0,1,0,1
37488000,37404000,37408000,0,0.4475708,12.362096,0.7603227,12.458764,0.0018560126,0,1,0,1
37544000,37464000,37464000,0,0.44500732,12.362033,0.788484,12.460143,0.0019958261,0,1,0,1
37608000,37524000,37528000,0,0.5319214,12.362107,0.7313211,12.461996,0.0017166771,0,1,0,1
37664000,37584000,37584000,0,0.4492798,12.362045,0.8395283,12.463405,0.0022620074,0,1,0,1
37728000,37644000,37648000,0,0.45214844,12.36212,0.8656597,12.465297,0.0024046495,0,1,0,1
37784000,37702000,37704000,0,0.49279785,12.362058,0.84910715,12.466734,0.002313302,0,1,0,1
37832000,37752000,37752000,0,0.49572754,12.361861,0.6824559,12.455862,0.0014956687,0,1,0,1
37896000,37812000,37816000,0,0.46429443,12.361938,0.7412785,12.457642,0.0017643592,0,1,0,1
37952000,37872000,37872000,0,0.5272827,12.361879,0.7010063,12.458999,0.0015776863,0,1,0,1
38016000,37932000,37936000,0,0.55233765,12.361957,0.70287395,12.460825,0.0015858718,0,1,0,1
38072000,37990000,37992000,0,0.4741516,12.3618965,0.8037803,12.462216,0.0020736689,0,1,0,1
38120000,38040000,38040000,0,0.42971802,12.361703,0.86596763,12.4631605,0.002406773,0,1,0,1
38184000,38100000,38104000,0,0.51727295,12.361784,0.80362225,12.465056,0.002072381,0,1,0,1
38240000,38160000,38160000,0,0.5432739,12.361728,0.6238016,12.454916,0.0012497184,0,1,0,1
38304000,38220000,38224000,0,0.49719238,12.361807,0.69445074,12.456688,0.0015486036,0,1,0,1
38360000,38280000,38280000,0,0.5128174,12.36175,0.6990664,12.458043,0.0015690869,0,1,0,1
38424000,38340000,38344000,0,0.5143738,12.361829,0.7212564,12.459871,0.0016700357,0,1,0,1
38480000,38400000,38400000,0,0.5161438,12.361772,0.7392634,12.46127,0.0017542685,0,1,0,1
38544000,38460000,38464000,0,0.5979004,12.361851,0.680668,12.463156,0.0014869715,0,1,0,1
38600000,38520000,38520000,0,0.7307739,12.3617935,0.567667,12.4646,0.0010341153,0,1,0,1
38664000,38580000,38584000,0,0.63256836,12.361872,0.5259576,12.45503,0.00088841654,0,1,0,1
38720000,38640000,38640000,0,0.62789917,12.361814,0.5496532,12.4563875,0.0009701644,0,1,0,1
38784000,38700000,38704000,0,0.4967041,12.361892,0.7028698,12.458218,0.0015861848,0,1,0,1
38840000,38760000,38760000,0,0.52648926,12.361833,0.6905385,12.459625,0.0015308437,0,1,0,1
38904000,38820000,38824000,0,0.57025146,12.361911,0.66752744,12.461524,0.0014302998,0,1,0,1
38960000,38880000,38880000,0,0.65133667,12.361853,0.6039828,12.462987,0.0011708116,0,1,0,1
39024000,38940000,38944000,0,0.69433594,12.36193,0.41531456,12.453591,0.00055401266,0,1,0,1
39080000,39000000,39000000,0,0.6182556,12.361871,0.50866115,12.454964,0.0008309496,0,1,0,1
39144000,39058666,39064000,0,0.5617981,12.361947,0.5845436,12.456814,0.0010972025,0,1,0,1
39200000,39120000,39120000,0,0.6421509,12.361887,0.52004933,12.458248,0.00086834456,0,1,0,1
39264000,39180000,39184000,0,0.6562195,12.361964,0.5251465,12.460178,0.0008853126,0,1,0,1
39320000,39240000,39240000,0,0.71728516,12.361904,0.48021865,12.461676,0.0007402213,0,1,0,1
39384000,39300000,39304000,0,0.63238525,12.361981,0.5844027,12.463688,0.0010960688,0,1,0,1
39440000,39360000,39360000,0,0.61886597,12.361921,0.4613967,12.453783,0.00068376627,0,1,0,1
39504000,39420000,39424000,0,0.61831665,12.361998,0.47890222,12.45567,0.0007365235,0,1,0,1
39560000,39480000,39480000,0,0.64138794,12.361937,0.46999705,12.457144,0.00070930296,0,1,0,1
39624000,39540000,39544000,0,0.5610962,12.362012,0.5669321,12.45912,0.0010318931,0,1,0,1
39680000,39600000,39600000,0,0.6788635,12.361952,0.46243644,12.460667,0.000686472,0,1,0,1
39744000,39660000,39664000,0,0.70651245,12.362027,0.45134127,12.462735,0.0006538178,0,1,0,1
39800000,39720000,39720000,0,0.738739,12.361967,0.43310225,12.464355,0.0006019647,0,1,0,1
39864000,39780000,39784000,0,0.6017456,12.362042,0.44099486,12.454773,0.00062458456,0,1,0,1
39920000,39840000,39840000,0,0.7418823,12.361981,0.31288588,12.456295,0.0003143714,0,1,0,1
39984000,39900000,39904000,0,0.65548706,12.362056,0.41439867,12.458329,0.0005513621,0,1,0,1
40040000,39960000,39960000,0,0.69207764,12.361995,0.38988888,12.459932,0.00048800695,0,1,0,1
40104000,40020000,40024000,0,0.65802,12.362069,0.43831623,12.462068,0.0006166589,0,1,0,1
40160000,40080000,40080000,0,0.6431885,12.362008,0.464828,12.463753,0.000693419,0,1,0,1
40224000,40140000,40144000,0,0.6520386,12.362083,0.3334105,12.454095,0.00035703136,0,1,0,1
40280000,40198000,40200000,0,0.80059814,12.3620205,0.1953255,12.455668,0.00012252107,0,1,0,1
40328000,40248000,40248000,0,0.79296875,12.361824,0.21255147,12.456803,0.00014507135,0,1,0,1
40392000,40308000,40312000,0,0.77142334,12.361902,0.24719882,12.458947,0.00019618754,0,1,0,1
40448000,40368000,40368000,0,0.7313843,12.361843,0.29814577,12.460648,0.00028534923,0,1,0,1
40512000,40426666,40432000,0,0.8232727,12.361921,0.21851051,12.462903,0.00015324469,0,1,0,1
40568000,40488000,40488000,0,0.7501221,12.361862,0.30267608,12.464692,0.0002939914,0,1,0,1
40632000,40548000,40552000,0,0.7246704,12.36194,0.21268922,12.454781,0.00014528302,0,1,0,1
40688000,40608000,40608000,0,0.6843262,12.36188,0.26215965,12.456449,0.0002206975,0,1,0,1
40752000,40668000,40672000,0,0.81344604,12.361958,0.14326364,12.45866,6.589624e-05,0,1,0,1
40808000,40728000,40728000,0,0.7302246,12.361897,0.23601979,12.4604225,0.00017882329,0,1,0,1
40872000,40786666,40792000,0,0.6290283,12.361974,0.34744853,12.46275,0.00038746014,0,1,0,1
40928000,40848000,40848000,0,0.7119446,12.361915,0.27223116,12.464609,0.00023782473,0,1,0,1
40992000,40908000,40912000,0,0.7425537,12.361991,0.2513209,12.467057,0.0002026531,0,1,0,1
41048000,40968000,40968000,0,0.744812,12.361932,0.13528264,12.456213,5.877032e-05,0,1,0,1
41112000,41028000,41032000,0,0.76953125,12.362007,0.1190899,12.458486,4.5534925e-05,0,1,0,1
41168000,41088000,41088000,0,0.6250305,12.361947,0.27096862,12.460307,0.00023570521,0,1,0,1
41232000,41148000,41152000,0,0.8199768,12.362022,0.08333254,12.462704,2.2288299e-05,0,1,0,1
41288000,41206000,41208000,0,0.70806885,12.361962,0.20284945,12.464624,0.00013204697,0,1,0,1
41336000,41256000,41256000,0,0.63946533,12.361768,0.27685833,12.46604,0.00024594992,0,1,0,1
41400000,41314666,41320000,0,0.7264404,12.361847,0.1969406,12.468612,0.00012442635,0,1,0,1
41456000,41376000,41376000,0,0.7892456,12.36179,0.033317327,12.457359,3.5643004e-06,0,1,0,1
41520000,41436000,41440000,0,0.6956482,12.361869,0.13400948,12.459742,5.765301e-05,0,1,0,1
41576000,41496000,41496000,0,0.74850464,12.361811,0.08649105,12.461655,2.4011902e-05,0,1,0,1
41640000,41556000,41560000,0,0.81030273,12.361889,0.031226516,12.464163,3.1292764e-06,0,1,0,1
41696000,41616000,41616000,0,0.75424194,12.361831,0.09330261,12.466179,2.7932781e-05,0,1,0,1
41760000,41676000,41680000,0,0.7503662,12.361909,0.10348797,12.468815,3.4356945e-05,0,1,0,1
41816000,41734000,41736000,0,0.67144775,12.361852,0.086248755,12.4572735,2.388596e-05,0,1,0,1
41864000,41784000,41784000,0,0.62997437,12.361658,0.13090134,12.458648,5.5014512e-05,0,1,0,1
41928000,41844000,41848000,0,0.7813721,12.361739,-0.016483545,12.461127,8.7217563e-07,0,1,0,1
41984000,41904000,41904000,0,0.6873169,12.361684,0.08206612,12.463126,2.1615277e-05,0,1,0,1
