timestamp,timestamp_sample,q[0],q[1],q[2],q[3],delta_q_reset[0],delta_q_reset[1],delta_q_reset[2],delta_q_reset[3],quat_reset_counter
3428000,3428000,0.69035715,0.0013163652,-0.015478384,0.723302,1.0,0.0,0.0,0.0,0
3432000,3432000,0.69035804,0.0013214098,-0.015466714,0.72330135,1.0,0.0,0.0,0.0,0
3440000,3440000,0.6903558,0.0013234182,-0.015430006,0.72330433,1.0,0.0,0.0,0.0,0
3444000,3444000,0.68827516,0.0013675039,-0.0154081825,0.7252849,0.999996,-9.313226e-10,-2.8521754e-09,0.0028536618,1
3448000,3448000,0.68826324,0.0013702714,-0.015391255,0.7252965,0.999996,-9.313226e-10,-2.8521754e-09,0.0028536618,1
3452000,3452000,0.6882505,0.0013731308,-0.015374492,0.72530895,0.999996,-9.313226e-10,-2.8521754e-09,0.0028536618,1
3456000,3456000,0.68823546,0.0013763077,-0.015357347,0.72532356,0.999996,-9.313226e-10,-2.8521754e-09,0.0028536618,1
3460000,3460000,0.68821955,0.0013803621,-0.015341841,0.72533894,0.999996,-9.313226e-10,-2.8521754e-09,0.0028536618,1
3464000,3464000,0.68820435,0.0013872558,-0.015333417,0.72535354,0.999996,-9.313226e-10,-2.8521754e-09,0.0028536618,1
3468000,3468000,0.6881898,0.0013954976,-0.015329243,0.7253674,0.999996,-9.313226e-10,-2.8521754e-09,0.0028536618,1
3472000,3472000,0.6881769,0.0014003346,-0.015323272,0.7253798,0.999996,-9.313226e-10,-2.8521754e-09,0.0028536618,1
3476000,3476000,0.68816423,0.0014055915,-0.015315534,0.7253919,0.999996,-9.313226e-10,-2.8521754e-09,0.0028536618,1
3480000,3480000,0.68815166,0.0014122748,-0.015304744,0.7254041,0.999996,-9.313226e-10,-2.8521754e-09,0.0028536618,1
3484000,3484000,0.6881398,0.0014167721,-0.015293373,0.7254155,0.999996,-9.313226e-10,-2.8521754e-09,0.0028536618,1
3488000,3488000,0.68812567,0.0014209338,-0.015285406,0.7254292,0.999996,-9.313226e-10,-2.8521754e-09,0.0028536618,1
3492000,3492000,0.6881099,0.0014254781,-0.015276399,0.7254443,0.999996,-9.313226e-10,-2.8521754e-09,0.0028536618,1
3496000,3496000,0.6880969,0.0014273351,-0.015263318,0.7254569,0.999996,-9.313226e-10,-2.8521754e-09,0.0028536618,1
3500000,3500000,0.6880858,0.0014296798,-0.0152506875,0.7254677,0.999996,-9.313226e-10,-2.8521754e-09,0.0028536618,1
3504000,3504000,0.68807346,0.0014357847,-0.015238713,0.7254796,0.999996,-9.313226e-10,-2.8521754e-09,0.0028536618,1
3508000,3508000,0.6880581,0.001440694,-0.015224532,0.72549456,0.999996,-9.313226e-10,-2.8521754e-09,0.0028536618,1
3512000,3512000,0.68804115,0.0014410333,-0.015209721,0.7255109,0.999996,-9.313226e-10,-2.8521754e-09,0.0028536618,1
3516000,3516000,0.68802255,0.0014427858,-0.015202414,0.7255287,0.999996,-9.313226e-10,-2.8521754e-09,0.0028536618,1
3520000,3520000,0.6880031,0.0014483066,-0.015195762,0.72554725,0.999996,-9.313226e-10,-2.8521754e-09,0.0028536618,1
3524000,3524000,0.6879868,0.0014549673,-0.015185308,0.725563,0.999996,-9.313226e-10,-2.8521754e-09,0.0028536618,1
3528000,3528000,0.6879746,0.0014617569,-0.015176347,0.7255746,0.999996,-9.313226e-10,-2.8521754e-09,0.0028536618,1
3532000,3532000,0.68796355,0.0014670454,-0.01516629,0.72558534,0.999996,-9.313226e-10,-2.8521754e-09,0.0028536618,1
3536000,3536000,0.687951,0.0014721212,-0.015149459,0.72559756,0.999996,-9.313226e-10,-2.8521754e-09,0.0028536618,1
3540000,3540000,0.6879379,0.0014772841,-0.015136003,0.7256102,0.999996,-9.313226e-10,-2.8521754e-09,0.0028536618,1
3544000,3544000,0.6879248,0.0014807152,-0.015128243,0.7256228,0.999996,-9.313226e-10,-2.8521754e-09,0.0028536618,1
3552000,3552000,0.68789214,0.0014848843,-0.015115392,0.72565407,0.999996,-9.313226e-10,-2.8521754e-09,0.0028536618,1
3556000,3556000,0.68787766,0.0014848893,-0.015107294,0.72566795,0.999996,-9.313226e-10,-2.8521754e-09,0.0028536618,1
3560000,3560000,0.68786395,0.0014867623,-0.015098014,0.7256811,0.999996,-9.313226e-10,-2.8521754e-09,0.0028536618,1
3568000,3568000,0.687837,0.0014990105,-0.01508744,0.72570693,0.999996,-9.313226e-10,-2.8521754e-09,0.0028536618,1
3572000,3572000,0.68782604,0.0015036722,-0.015082143,0.7257173,0.999996,-9.313226e-10,-2.8521754e-09,0.0028536618,1
3576000,3576000,0.687814,0.0015057253,-0.0150788035,0.7257288,0.999996,-9.313226e-10,-2.8521754e-09,0.0028536618,1
3580000,3580000,0.68780214,0.0015120525,-0.015080574,0.72574,0.999996,-9.313226e-10,-2.8521754e-09,0.0028536618,1
3584000,3584000,0.6877917,0.0015244754,-0.0150836855,0.72574985,0.999996,-9.313226e-10,-2.8521754e-09,0.0028536618,1
3588000,3588000,0.6877724,0.0015382975,-0.015087436,0.7257681,0.999996,-9.313226e-10,-2.8521754e-09,0.0028536618,1
3592000,3592000,0.6877535,0.0015494416,-0.015089373,0.7257859,0.999996,-9.313226e-10,-2.8521754e-09,0.0028536618,1
3596000,3596000,0.68773484,0.0015572738,-0.015091552,0.72580343,0.999996,-9.313226e-10,-2.8521754e-09,0.0028536618,1
3600000,3600000,0.68771553,0.001561346,-0.0150945885,0.7258217,0.999996,-9.313226e-10,-2.8521754e-09,0.0028536618,1
3604000,3604000,0.68769664,0.0015605172,-0.015098345,0.72583956,0.999996,-9.313226e-10,-2.8521754e-09,0.0028536618,1
3608000,3608000,0.6876765,0.0015622891,-0.015101651,0.7258585,0.999996,-9.313226e-10,-2.8521754e-09,0.0028536618,1
3612000,3612000,0.68765634,0.0015658626,-0.015103178,0.7258775,0.999996,-9.313226e-10,-2.8521754e-09,0.0028536618,1
3616000,3616000,0.687639,0.0015672132,-0.015104008,0.725894,0.999996,-9.313226e-10,-2.8521754e-09,0.0028536618,1
3620000,3620000,0.68762344,0.0015720099,-0.015106721,0.72590864,0.999996,-9.313226e-10,-2.8521754e-09,0.0028536618,1
3624000,3624000,0.6876063,0.0015823904,-0.015108155,0.7259249,0.999996,-9.313226e-10,-2.8521754e-09,0.0028536618,1
3632000,3632000,0.6875741,0.0015967479,-0.015114421,0.72595525,0.999996,-9.313226e-10,-2.8521754e-09,0.0028536618,1
3636000,3636000,0.68755746,0.0016051874,-0.015117311,0.72597086,0.999996,-9.313226e-10,-2.8521754e-09,0.0028536618,1
3640000,3640000,0.6875401,0.001615117,-0.015120164,0.72598726,0.999996,-9.313226e-10,-2.8521754e-09,0.0028536618,1
3648000,3648000,0.68750805,0.0016289683,-0.015141323,0.7260171,0.999996,-9.313226e-10,-2.8521754e-09,0.0028536618,1
3656000,3656000,0.68747413,0.0016428329,-0.015153565,0.72604895,0.999996,-9.313226e-10,-2.8521754e-09,0.0028536618,1
3660000,3660000,0.68746024,0.0016522972,-0.015158685,0.72606194,0.999996,-9.313226e-10,-2.8521754e-09,0.0028536618,1
3664000,3664000,0.68744797,0.0016639497,-0.015159975,0.72607356,0.999996,-9.313226e-10,-2.8521754e-09,0.0028536618,1
3672000,3672000,0.68742514,0.001686412,-0.015174532,0.72609484,0.999996,-9.313226e-10,-2.8521754e-09,0.0028536618,1
3676000,3676000,0.68741703,0.0016955999,-0.015182512,0.72610223,0.999996,-9.313226e-10,-2.8521754e-09,0.0028536618,1
3680000,3680000,0.68741095,0.001702508,-0.015188292,0.72610784,0.999996,-9.313226e-10,-2.8521754e-09,0.0028536618,1
3684000,3684000,0.6874032,0.0017089563,-0.015192621,0.72611505,0.999996,-9.313226e-10,-2.8521754e-09,0.0028536618,1
3692000,3692000,0.68738174,0.0017248257,-0.015204597,0.7261352,0.999996,-9.313226e-10,-2.8521754e-09,0.0028536618,1
3696000,3696000,0.6873742,0.0017298381,-0.015211598,0.7261422,0.999996,-9.313226e-10,-2.8521754e-09,0.0028536618,1
3704000,3704000,0.68736273,0.0017408067,-0.015229981,0.72615254,0.999996,-9.313226e-10,-2.8521754e-09,0.0028536618,1
3712000,3712000,0.6873473,0.0017518043,-0.015252705,0.72616667,0.999996,-9.313226e-10,-2.8521754e-09,0.0028536618,1
3716000,3716000,0.6873385,0.0017610592,-0.015263104,0.7261748,0.999996,-9.313226e-10,-2.8521754e-09,0.0028536618,1
3720000,3720000,0.6873304,0.0017699848,-0.01527464,0.7261821,0.999996,-9.313226e-10,-2.8521754e-09,0.0028536618,1
3728000,3728000,0.6873181,0.0017792117,-0.015293509,0.72619337,0.999996,-9.313226e-10,-2.8521754e-09,0.0028536618,1
3732000,3732000,0.68730825,0.001779492,-0.015298539,0.72620255,0.999996,-9.313226e-10,-2.8521754e-09,0.0028536618,1
3736000,3736000,0.6872996,0.0017793893,-0.015302447,0.72621065,0.999996,-9.313226e-10,-2.8521754e-09,0.0028536618,1
3740000,3740000,0.6872925,0.0017820338,-0.015307573,0.7262173,0.999996,-9.313226e-10,-2.8521754e-09,0.0028536618,1
3744000,3744000,0.68728566,0.0017881262,-0.015314484,0.7262236,0.999996,-9.313226e-10,-2.8521754e-09,0.0028536618,1
3752000,3752000,0.6872729,0.0017959831,-0.015330962,0.72623533,0.999996,-9.313226e-10,-2.8521754e-09,0.0028536618,1
3756000,3756000,0.6872677,0.0017966871,-0.0153424125,0.72624004,0.999996,-9.313226e-10,-2.8521754e-09,0.0028536618,1
3760000,3760000,0.687264,0.001800373,-0.015351515,0.72624326,0.999996,-9.313226e-10,-2.8521754e-09,0.0028536618,1
3764000,3764000,0.6872609,0.00180484,-0.015359178,0.72624606,0.999996,-9.313226e-10,-2.8521754e-09,0.0028536618,1
3768000,3768000,0.68725663,0.0018085713,-0.01536837,0.72624993,0.999996,-9.313226e-10,-2.8521754e-09,0.0028536618,1
3772000,3772000,0.68725246,0.0018115265,-0.015374637,0.72625375,0.999996,-9.313226e-10,-2.8521754e-09,0.0028536618,1
3776000,3776000,0.68724597,0.0018136797,-0.01538093,0.7262597,0.999996,-9.313226e-10,-2.8521754e-09,0.0028536618,1
3780000,3780000,0.6872395,0.0018152844,-0.0153925605,0.7262656,0.999996,-9.313226e-10,-2.8521754e-09,0.0028536618,1
3784000,3784000,0.6872369,0.0018162179,-0.015404201,0.72626776,0.999996,-9.313226e-10,-2.8521754e-09,0.0028536618,1
3792000,3792000,0.68723,0.001831699,-0.0154264225,0.72627383,0.999996,-9.313226e-10,-2.8521754e-09,0.0028536618,1
3796000,3796000,0.68722296,0.0018388252,-0.015443225,0.72628003,0.999996,-9.313226e-10,-2.8521754e-09,0.0028536618,1
3800000,3800000,0.68721527,0.0018410101,-0.0154590355,0.726287,0.999996,-9.313226e-10,-2.8521754e-09,0.0028536618,1
3804000,3804000,0.68720955,0.0018372156,-0.015464839,0.7262923,0.999996,-9.313226e-10,-2.8521754e-09,0.0028536618,1
3812000,3812000,0.6872029,0.0018443646,-0.015474101,0.72629845,0.999996,-9.313226e-10,-2.8521754e-09,0.0028536618,1
3816000,3816000,0.6872015,0.0018483243,-0.015484158,0.7262995,0.999996,-9.313226e-10,-2.8521754e-09,0.0028536618,1
3820000,3820000,0.68719876,0.0018420506,-0.01549332,0.7263019,0.999996,-9.313226e-10,-2.8521754e-09,0.0028536618,1
3828000,3828000,0.68719,0.0018267868,-0.015498108,0.7263102,0.999996,-9.313226e-10,-2.8521754e-09,0.0028536618,1
3832000,3832000,0.687183,0.0018291981,-0.015497938,0.7263168,0.999996,-9.313226e-10,-2.8521754e-09,0.0028536618,1
3836000,3836000,0.6871762,0.0018311605,-0.015502327,0.72632307,0.999996,-9.313226e-10,-2.8521754e-09,0.0028536618,1
3840000,3840000,0.68717104,0.0018291301,-0.015510971,0.7263278,0.999996,-9.313226e-10,-2.8521754e-09,0.0028536618,1
3844000,3844000,0.68716663,0.0018243602,-0.015516214,0.72633183,0.999996,-9.313226e-10,-2.8521754e-09,0.0028536618,1
3848000,3848000,0.6871626,0.0018229135,-0.015518727,0.7263356,0.999996,-9.313226e-10,-2.8521754e-09,0.0028536618,1
3852000,3852000,0.687157,0.0018221769,-0.01552189,0.72634095,0.999996,-9.313226e-10,-2.8521754e-09,0.0028536618,1
3856000,3856000,0.6871478,0.0018168692,-0.015525938,0.7263495,0.999996,-9.313226e-10,-2.8521754e-09,0.0028536618,1
3860000,3860000,0.68713975,0.0018104124,-0.015529546,0.72635704,0.999996,-9.313226e-10,-2.8521754e-09,0.0028536618,1
3868000,3868000,0.6871315,0.0018040028,-0.015535342,0.72636473,0.999996,-9.313226e-10,-2.8521754e-09,0.0028536618,1
3872000,3872000,0.6871278,0.0018051988,-0.015540895,0.7263681,0.999996,-9.313226e-10,-2.8521754e-09,0.0028536618,1
3876000,3876000,0.6871352,0.0018095498,-0.015547435,0.7263609,0.999996,-9.313226e-10,-2.8521754e-09,0.0028536618,1
3880000,3880000,0.68714225,0.0018142376,-0.015552837,0.7263541,0.999996,-9.313226e-10,-2.8521754e-09,0.0028536618,1
3884000,3884000,0.68714696,0.001814617,-0.01555563,0.7263497,0.999996,-9.313226e-10,-2.8521754e-09,0.0028536618,1
3888000,3888000,0.68714976,0.0018081162,-0.015556357,0.726347,0.999996,-9.313226e-10,-2.8521754e-09,0.0028536618,1
3892000,3892000,0.6871556,0.0018020349,-0.015560208,0.7263414,0.999996,-9.313226e-10,-2.8521754e-09,0.0028536618,1
3896000,3896000,0.6871637,0.0017983037,-0.015565497,0.7263336,0.999996,-9.313226e-10,-2.8521754e-09,0.0028536618,1
3900000,3900000,0.6871718,0.0017955109,-0.015567877,0.7263259,0.999996,-9.313226e-10,-2.8521754e-09,0.0028536618,1
3904000,3904000,0.6871799,0.0017930424,-0.015568365,0.72631824,0.999996,-9.313226e-10,-2.8521754e-09,0.0028536618,1
3908000,3908000,0.6871907,0.0017893949,-0.0155690145,0.72630805,0.999996,-9.313226e-10,-2.8521754e-09,0.0028536618,1
3912000,3912000,0.6872022,0.0017895701,-0.015571063,0.7262972,0.999996,-9.313226e-10,-2.8521754e-09,0.0028536618,1
3916000,3916000,0.6872108,0.0017933751,-0.015574281,0.7262889,0.999996,-9.313226e-10,-2.8521754e-09,0.0028536618,1
3920000,3920000,0.6872179,0.0017952338,-0.015576428,0.7262822,0.999996,-9.313226e-10,-2.8521754e-09,0.0028536618,1
3924000,3924000,0.68722445,0.0017966699,-0.015579531,0.7262759,0.999996,-9.313226e-10,-2.8521754e-09,0.0028536618,1
3928000,3928000,0.68723094,0.0018008346,-0.015585949,0.72626966,0.999996,-9.313226e-10,-2.8521754e-09,0.0028536618,1
3932000,3932000,0.6872396,0.0018068523,-0.015591752,0.72626126,0.999996,-9.313226e-10,-2.8521754e-09,0.0028536618,1
3936000,3936000,0.6872472,0.0018123339,-0.015592677,0.72625405,0.999996,-9.313226e-10,-2.8521754e-09,0.0028536618,1
3940000,3940000,0.6872551,0.0018192418,-0.015592632,0.7262466,0.999996,-9.313226e-10,-2.8521754e-09,0.0028536618,1
3944000,3944000,0.6872645,0.0018228468,-0.015594559,0.72623765,0.999996,-9.313226e-10,-2.8521754e-09,0.0028536618,1
3948000,3948000,0.6872787,0.0018194166,-0.015594274,0.7262242,0.999996,-9.313226e-10,-2.8521754e-09,0.0028536618,1
3952000,3952000,0.68729484,0.0018133826,-0.015593681,0.7262089,0.999996,-9.313226e-10,-2.8521754e-09,0.0028536618,1
3956000,3956000,0.6873146,0.0018116632,-0.015598445,0.72619015,0.999996,-9.313226e-10,-2.8521754e-09,0.0028536618,1
3960000,3960000,0.68733394,0.0018130296,-0.015606139,0.72617173,0.999996,-9.313226e-10,-2.8521754e-09,0.0028536618,1
3964000,3964000,0.6873501,0.0018151082,-0.015615912,0.7261561,0.999996,-9.313226e-10,-2.8521754e-09,0.0028536618,1
3968000,3968000,0.68736166,0.0018196914,-0.015624498,0.72614497,0.999996,-9.313226e-10,-2.8521754e-09,0.0028536618,1
3972000,3972000,0.6873717,0.0018241247,-0.015629916,0.7261354,0.999996,-9.313226e-10,-2.8521754e-09,0.0028536618,1
3976000,3976000,0.68738604,0.0018233795,-0.015635468,0.72612166,0.999996,-9.313226e-10,-2.8521754e-09,0.0028536618,1
3980000,3980000,0.68740237,0.0018222413,-0.015640484,0.72610617,0.999996,-9.313226e-10,-2.8521754e-09,0.0028536618,1
3984000,3984000,0.68741745,0.0018248215,-0.015644643,0.72609174,0.999996,-9.313226e-10,-2.8521754e-09,0.0028536618,1
3988000,3988000,0.68743175,0.0018284424,-0.015648227,0.72607815,0.999996,-9.313226e-10,-2.8521754e-09,0.0028536618,1
3992000,3992000,0.68744797,0.001832105,-0.015651803,0.72606266,0.999996,-9.313226e-10,-2.8521754e-09,0.0028536618,1
3996000,3996000,0.68746454,0.001834318,-0.01565976,0.7260468,0.999996,-9.313226e-10,-2.8521754e-09,0.0028536618,1
4000000,4000000,0.6874788,0.0018342634,-0.015669292,0.7260331,0.999996,-9.313226e-10,-2.8521754e-09,0.0028536618,1
4008000,4008000,0.68750596,0.0018391381,-0.01568483,0.726007,0.999996,-9.313226e-10,-2.8521754e-09,0.0028536618,1
4012000,4012000,0.68751943,0.0018366929,-0.015681118,0.7259943,0.999996,-9.313226e-10,-2.8521754e-09,0.0028536618,1
4016000,4016000,0.6875318,0.0018330626,-0.015676308,0.72598267,0.999996,-9.313226e-10,-2.8521754e-09,0.0028536618,1
4020000,4020000,0.68754935,0.0018250191,-0.015671711,0.7259663,0.999996,-9.313226e-10,-2.8521754e-09,0.0028536618,1
4024000,4024000,0.68756646,0.0018139761,-0.015667949,0.7259502,0.999996,-9.313226e-10,-2.8521754e-09,0.0028536618,1
4032000,4032000,0.6875962,0.0018000363,-0.015659207,0.7259222,0.999996,-9.313226e-10,-2.8521754e-09,0.0028536618,1
4036000,4036000,0.6876143,0.0017942826,-0.01565579,0.7259052,0.999996,-9.313226e-10,-2.8521754e-09,0.0028536618,1
4040000,4040000,0.6876328,0.0017938074,-0.015652228,0.7258878,0.999996,-9.313226e-10,-2.8521754e-09,0.0028536618,1
4048000,4048000,0.6876676,0.0017887127,-0.015627125,0.7258553,0.999996,-9.313226e-10,-2.8521754e-09,0.0028536618,1
4052000,4052000,0.68768626,0.001778321,-0.0156183615,0.7258378,0.999996,-9.313226e-10,-2.8521754e-09,0.0028536618,1
4056000,4056000,0.6877043,0.0017733945,-0.015616985,0.7258207,0.999996,-9.313226e-10,-2.8521754e-09,0.0028536618,1
4060000,4060000,0.6877194,0.0017692042,-0.01561332,0.72580653,0.999996,-9.313226e-10,-2.8521754e-09,0.0028536618,1
4064000,4064000,0.6877349,0.0017649615,-0.015607398,0.72579205,0.999996,-9.313226e-10,-2.8521754e-09,0.0028536618,1
4072000,4072000,0.6877677,0.001765394,-0.01559639,0.7257612,0.999996,-9.313226e-10,-2.8521754e-09,0.0028536618,1
4076000,4076000,0.68778515,0.0017606323,-0.0155911725,0.7257447,0.999996,-9.313226e-10,-2.8521754e-09,0.0028536618,1
4080000,4080000,0.6878043,0.0017495144,-0.015586501,0.7257268,0.999996,-9.313226e-10,-2.8521754e-09,0.0028536618,1
4088000,4088000,0.68783534,0.0017224228,-0.015579848,0.7256975,0.999996,-9.313226e-10,-2.8521754e-09,0.0028536618,1
4092000,4092000,0.6878549,0.0017108399,-0.015574739,0.7256791,0.999996,-9.313226e-10,-2.8521754e-09,0.0028536618,1
4096000,4096000,0.6878729,0.0017007496,-0.015570347,0.7256622,0.999996,-9.313226e-10,-2.8521754e-09,0.0028536618,1
4100000,4100000,0.68789065,0.0016887168,-0.015564199,0.7256455,0.999996,-9.313226e-10,-2.8521754e-09,0.0028536618,1
4104000,4104000,0.6879073,0.0016784709,-0.015555368,0.7256299,0.999996,-9.313226e-10,-2.8521754e-09,0.0028536618,1
4108000,4108000,0.6879202,0.0016772388,-0.0155486325,0.7256179,0.999996,-9.313226e-10,-2.8521754e-09,0.0028536618,1
4112000,4112000,0.6879338,0.0016772426,-0.01554525,0.725605,0.999996,-9.313226e-10,-2.8521754e-09,0.0028536618,1
4116000,4116000,0.68794936,0.0016713098,-0.015544353,0.72559035,0.999996,-9.313226e-10,-2.8521754e-09,0.0028536618,1
4120000,4120000,0.68796766,0.0016612436,-0.0155416755,0.72557306,0.999996,-9.313226e-10,-2.8521754e-09,0.0028536618,1
4124000,4124000,0.6879864,0.0016518547,-0.015536783,0.7255554,0.999996,-9.313226e-10,-2.8521754e-09,0.0028536618,1
4128000,4128000,0.6880012,0.0016442352,-0.01553072,0.72554153,0.999996,-9.313226e-10,-2.8521754e-09,0.0028536618,1
4136000,4136000,0.6880207,0.001638168,-0.015514635,0.72552335,0.999996,-9.313226e-10,-2.8521754e-09,0.0028536618,1
4140000,4140000,0.6880305,0.0016361774,-0.015509219,0.72551423,0.999996,-9.313226e-10,-2.8521754e-09,0.0028536618,1
4144000,4144000,0.6880411,0.0016308252,-0.015504267,0.72550434,0.999996,-9.313226e-10,-2.8521754e-09,0.0028536618,1
4148000,4148000,0.6880517,0.001628963,-0.015502065,0.7254943,0.999996,-9.313226e-10,-2.8521754e-09,0.0028536618,1
4152000,4152000,0.68806183,0.0016327692,-0.015500844,0.7254847,0.999996,-9.313226e-10,-2.8521754e-09,0.0028536618,1
4156000,4156000,0.6880705,0.0016384824,-0.015500911,0.72547644,0.999996,-9.313226e-10,-2.8521754e-09,0.0028536618,1
4160000,4160000,0.68807995,0.0016390019,-0.015503376,0.72546744,0.999996,-9.313226e-10,-2.8521754e-09,0.0028536618,1
4164000,4164000,0.68808734,0.0016309266,-0.015504375,0.72546047,0.999996,-9.313226e-10,-2.8521754e-09,0.0028536618,1
4168000,4168000,0.68809557,0.0016223219,-0.015498982,0.7254528,0.999996,-9.313226e-10,-2.8521754e-09,0.0028536618,1
4176000,4176000,0.68810743,0.001623168,-0.015489652,0.72544175,0.999996,-9.313226e-10,-2.8521754e-09,0.0028536618,1
4184000,4184000,0.6881128,0.0016182282,-0.0154790245,0.7254369,0.999996,-9.313226e-10,-2.8521754e-09,0.0028536618,1
4192000,4192000,0.68811715,0.0016163682,-0.015485646,0.72543263,0.999996,-9.313226e-10,-2.8521754e-09,0.0028536618,1
4196000,4196000,0.68811834,0.0016144263,-0.015494802,0.7254313,0.999996,-9.313226e-10,-2.8521754e-09,0.0028536618,1
4200000,4200000,0.68812317,0.0016100813,-0.015495728,0.72542673,0.999996,-9.313226e-10,-2.8521754e-09,0.0028536618,1
4204000,4204000,0.6881288,0.0016078432,-0.015491467,0.7254214,0.999996,-9.313226e-10,-2.8521754e-09,0.0028536618,1
4208000,4208000,0.6881302,0.0016081992,-0.015489028,0.7254202,0.999996,-9.313226e-10,-2.8521754e-09,0.0028536618,1
4212000,4212000,0.688129,0.0016099965,-0.015488184,0.7254213,0.999996,-9.313226e-10,-2.8521754e-09,0.0028536618,1
4216000,4216000,0.6881293,0.0016096276,-0.015489653,0.72542095,0.999996,-9.313226e-10,-2.8521754e-09,0.0028536618,1
4224000,4224000,0.68813044,0.0015924083,-0.015465475,0.7254204,0.999996,-9.313226e-10,-2.8521754e-09,0.0028536618,1
4228000,4228000,0.6881318,0.0015897998,-0.015450342,0.7254195,0.999996,-9.313226e-10,-2.8521754e-09,0.0028536618,1
4232000,4232000,0.6881335,0.0015876254,-0.015437079,0.7254182,0.999996,-9.313226e-10,-2.8521754e-09,0.0028536618,1
4240000,4240000,0.6881289,0.0015803352,-0.015410821,0.7254231,0.999996,-9.313226e-10,-2.8521754e-09,0.0028536618,1
4244000,4244000,0.688129,0.0015759672,-0.015397023,0.7254233,0.999996,-9.313226e-10,-2.8521754e-09,0.0028536618,1
4248000,4248000,0.6881307,0.0015719986,-0.015382837,0.725422,0.999996,-9.313226e-10,-2.8521754e-09,0.0028536618,1
4252000,4252000,0.6881305,0.0015668272,-0.015369487,0.7254225,0.999996,-9.313226e-10,-2.8521754e-09,0.0028536618,1
4256000,4256000,0.6881284,0.0015559582,-0.015355914,0.72542477,0.999996,-9.313226e-10,-2.8521754e-09,0.0028536618,1
4260000,4260000,0.6881269,0.0015451955,-0.015341018,0.72542655,0.999996,-9.313226e-10,-2.8521754e-09,0.0028536618,1
4264000,4264000,0.68812567,0.0015393643,-0.015327121,0.725428,0.999996,-9.313226e-10,-2.8521754e-09,0.0028536618,1
4268000,4268000,0.6881223,0.0015337218,-0.015317903,0.72543144,0.999996,-9.313226e-10,-2.8521754e-09,0.0028536618,1
4272000,4272000,0.6881188,0.0015281587,-0.015311697,0.72543484,0.999996,-9.313226e-10,-2.8521754e-09,0.0028536618,1
4280000,4280000,0.6881135,0.0015210884,-0.015287756,0.7254404,0.999996,-9.313226e-10,-2.8521754e-09,0.0028536618,1
4284000,4284000,0.6881101,0.0015200162,-0.01527413,0.7254439,0.999996,-9.313226e-10,-2.8521754e-09,0.0028536618,1
4288000,4288000,0.6881048,0.0015189433,-0.015262014,0.72544926,0.999996,-9.313226e-10,-2.8521754e-09,0.0028536618,1
4296000,4296000,0.68809664,0.0015182918,-0.015231109,0.72545767,0.999996,-9.313226e-10,-2.8521754e-09,0.0028536618,1
4304000,4304000,0.68809646,0.0015093214,-0.015203907,0.72545844,0.999996,-9.313226e-10,-2.8521754e-09,0.0028536618,1
4308000,4308000,0.68809825,0.0015041785,-0.015193517,0.72545695,0.999996,-9.313226e-10,-2.8521754e-09,0.0028536618,1
4312000,4312000,0.6881,0.0015005614,-0.015183841,0.72545546,0.999996,-9.313226e-10,-2.8521754e-09,0.0028536618,1
4320000,4320000,0.6881,0.0014995822,-0.015164627,0.72545594,0.999996,-9.313226e-10,-2.8521754e-09,0.0028536618,1
4324000,4324000,0.6881,0.0014954044,-0.015152993,0.7254562,0.999996,-9.313226e-10,-2.8521754e-09,0.0028536618,1
4328000,4328000,0.6880992,0.0014893181,-0.015141034,0.72545713,0.999996,-9.313226e-10,-2.8521754e-09,0.0028536618,1
4336000,4336000,0.68810135,0.0014864545,-0.015114849,0.7254557,0.999996,-9.313226e-10,-2.8521754e-09,0.0028536618,1
4340000,4340000,0.6881039,0.0014864325,-0.0151049085,0.7254535,0.999996,-9.313226e-10,-2.8521754e-09,0.0028536618,1
4344000,4344000,0.68810445,0.001488322,-0.015097555,0.7254531,0.999996,-9.313226e-10,-2.8521754e-09,0.0028536618,1
4348000,4348000,0.6881037,0.0014908756,-0.015089035,0.725454,0.999996,-9.313226e-10,-2.8521754e-09,0.0028536618,1
4352000,4352000,0.6881045,0.001488171,-0.015079899,0.7254534,0.999996,-9.313226e-10,-2.8521754e-09,0.0028536618,1
4356000,4356000,0.6881086,0.0014844484,-0.015073768,0.72544956,0.999996,-9.313226e-10,-2.8521754e-09,0.0028536618,1
4360000,4360000,0.68811387,0.001481216,-0.015071016,0.72544473,0.999996,-9.313226e-10,-2.8521754e-09,0.0028536618,1
4364000,4364000,0.68811816,0.0014798242,-0.0150689315,0.72544074,0.999996,-9.313226e-10,-2.8521754e-09,0.0028536618,1
4368000,4368000,0.68812084,0.0014808463,-0.015059626,0.7254383,0.999996,-9.313226e-10,-2.8521754e-09,0.0028536618,1
4376000,4376000,0.6881253,0.0014763671,-0.015040731,0.7254345,0.999996,-9.313226e-10,-2.8521754e-09,0.0028536618,1
4380000,4380000,0.6881297,0.0014721012,-0.01503374,0.7254304,0.999996,-9.313226e-10,-2.8521754e-09,0.0028536618,1
4384000,4384000,0.68813384,0.0014644292,-0.015026461,0.72542673,0.999996,-9.313226e-10,-2.8521754e-09,0.0028536618,1
4388000,4388000,0.6881381,0.0014553741,-0.015025576,0.72542274,0.999996,-9.313226e-10,-2.8521754e-09,0.0028536618,1
4392000,4392000,0.6881427,0.001448665,-0.01502764,0.7254183,0.999996,-9.313226e-10,-2.8521754e-09,0.0028536618,1
4396000,4396000,0.6881481,0.001444121,-0.015027678,0.72541326,0.999996,-9.313226e-10,-2.8521754e-09,0.0028536618,1
4400000,4400000,0.6881543,0.0014372352,-0.015024008,0.7254074,0.999996,-9.313226e-10,-2.8521754e-09,0.0028536618,1
4404000,4404000,0.6881597,0.0014299186,-0.015021736,0.72540236,0.999996,-9.313226e-10,-2.8521754e-09,0.0028536618,1
4408000,4408000,0.6881635,0.0014252547,-0.01502128,0.7253987,0.999996,-9.313226e-10,-2.8521754e-09,0.0028536618,1
4412000,4412000,0.68816614,0.0014219478,-0.015019503,0.7253963,0.999996,-9.313226e-10,-2.8521754e-09,0.0028536618,1
4416000,4416000,0.6881673,0.0014200951,-0.015016939,0.7253953,0.999996,-9.313226e-10,-2.8521754e-09,0.0028536618,1
4420000,4420000,0.68816674,0.0014196935,-0.015017535,0.7253958,0.999996,-9.313226e-10,-2.8521754e-09,0.0028536618,1
4424000,4424000,0.688167,0.0014211999,-0.015018456,0.72539556,0.999996,-9.313226e-10,-2.8521754e-09,0.0028536618,1
4428000,4428000,0.6881681,0.001418129,-0.015011322,0.72539467,0.999996,-9.313226e-10,-2.8521754e-09,0.0028536618,1
4432000,4432000,0.6881696,0.0014128666,-0.015006505,0.72539335,0.999996,-9.313226e-10,-2.8521754e-09,0.0028536618,1
4436000,4436000,0.6881722,0.0014104187,-0.015000158,0.72539103,0.999996,-9.313226e-10,-2.8521754e-09,0.0028536618,1
4440000,4440000,0.68817407,0.0014100746,-0.014988481,0.7253895,0.999996,-9.313226e-10,-2.8521754e-09,0.0028536618,1
4448000,4448000,0.68817437,0.0013943216,-0.014968949,0.72538966,0.999996,-9.313226e-10,-2.8521754e-09,0.0028536618,1
4452000,4452000,0.6881834,0.0013861475,-0.014962749,0.72538126,0.999996,-9.313226e-10,-2.8521754e-09,0.0028536618,1
4456000,4456000,0.68819237,0.001381064,-0.014959479,0.7253728,0.999996,-9.313226e-10,-2.8521754e-09,0.0028536618,1
4460000,4460000,0.6881986,0.0013736571,-0.014956609,0.72536695,0.999996,-9.313226e-10,-2.8521754e-09,0.0028536618,1
4464000,4464000,0.68820494,0.0013638926,-0.014950036,0.7253611,0.999996,-9.313226e-10,-2.8521754e-09,0.0028536618,1
4468000,4468000,0.6882131,0.001356013,-0.014937283,0.72535354,0.999996,-9.313226e-10,-2.8521754e-09,0.0028536618,1
4472000,4472000,0.6882233,0.0013492535,-0.014922617,0.72534424,0.999996,-9.313226e-10,-2.8521754e-09,0.0028536618,1
4476000,4476000,0.6882329,0.0013434511,-0.014911936,0.72533536,0.999996,-9.313226e-10,-2.8521754e-09,0.0028536618,1
4484000,4484000,0.68824846,0.0013338228,-0.014893371,0.725321,0.999996,-9.313226e-10,-2.8521754e-09,0.0028536618,1
4488000,4488000,0.68825567,0.0013251762,-0.014887496,0.7253143,0.999996,-9.313226e-10,-2.8521754e-09,0.0028536618,1
4492000,4492000,0.6882608,0.0013169172,-0.01488066,0.72530955,0.999996,-9.313226e-10,-2.8521754e-09,0.0028536618,1
4496000,4496000,0.68826437,0.0013120049,-0.014873364,0.7253063,0.999996,-9.313226e-10,-2.8521754e-09,0.0028536618,1
4500000,4500000,0.6882698,0.0013064053,-0.014864724,0.7253013,0.999996,-9.313226e-10,-2.8521754e-09,0.0028536618,1
4504000,4504000,0.6882764,0.0012995916,-0.0148519715,0.7252953,0.999996,-9.313226e-10,-2.8521754e-09,0.0028536618,1
4508000,4508000,0.6882818,0.0012947369,-0.014841171,0.7252905,0.999996,-9.313226e-10,-2.8521754e-09,0.0028536618,1
4512000,4512000,0.6882886,0.0012888731,-0.014833786,0.7252841,0.999996,-9.313226e-10,-2.8521754e-09,0.0028536618,1
4516000,4516000,0.6882974,0.0012802759,-0.014823946,0.725276,0.999996,-9.313226e-10,-2.8521754e-09,0.0028536618,1
4520000,4520000,0.688305,0.0012738546,-0.014811792,0.7252691,0.999996,-9.313226e-10,-2.8521754e-09,0.0028536618,1
4524000,4524000,0.6883089,0.0012715941,-0.01480301,0.7252656,0.999996,-9.313226e-10,-2.8521754e-09,0.0028536618,1
4528000,4528000,0.68831193,0.0012694162,-0.014797993,0.7252629,0.999996,-9.313226e-10,-2.8521754e-09,0.0028536618,1
4536000,4536000,0.68831503,0.0012597349,-0.014795027,0.7252599,0.999996,-9.313226e-10,-2.8521754e-09,0.0028536618,1
4540000,4540000,0.68831605,0.0012593148,-0.014793483,0.72525895,0.999996,-9.313226e-10,-2.8521754e-09,0.0028536618,1
4544000,4544000,0.68831754,0.001258477,-0.014790066,0.72525764,0.999996,-9.313226e-10,-2.8521754e-09,0.0028536618,1
4552000,4552000,0.6883138,0.0012503508,-0.01477904,0.7252615,0.999996,-9.313226e-10,-2.8521754e-09,0.0028536618,1
4560000,4560000,0.6883152,0.0012406008,-0.014766663,0.72526044,0.999996,-9.313226e-10,-2.8521754e-09,0.0028536618,1
4564000,4564000,0.6883154,0.0012376477,-0.014766124,0.7252603,0.999996,-9.313226e-10,-2.8521754e-09,0.0028536618,1
4568000,4568000,0.6883128,0.001237612,-0.014764004,0.72526276,0.999996,-9.313226e-10,-2.8521754e-09,0.0028536618,1
4572000,4572000,0.6883115,0.0012386378,-0.01476227,0.725264,0.999996,-9.313226e-10,-2.8521754e-09,0.0028536618,1
4576000,4576000,0.68831295,0.0012370738,-0.014760223,0.7252627,0.999996,-9.313226e-10,-2.8521754e-09,0.0028536618,1
4580000,4580000,0.6883145,0.0012327594,-0.0147579005,0.7252613,0.999996,-9.313226e-10,-2.8521754e-09,0.0028536618,1
4584000,4584000,0.6883157,0.0012280312,-0.014754459,0.7252602,0.999996,-9.313226e-10,-2.8521754e-09,0.0028536618,1
4592000,4592000,0.6883078,0.0012253476,-0.014749337,0.7252678,0.999996,-9.313226e-10,-2.8521754e-09,0.0028536618,1
4596000,4596000,0.6883065,0.0012284383,-0.014750623,0.72526896,0.999996,-9.313226e-10,-2.8521754e-09,0.0028536618,1
4600000,4600000,0.6883085,0.0012254703,-0.014748299,0.72526723,0.999996,-9.313226e-10,-2.8521754e-09,0.0028536618,1
4608000,4608000,0.68830603,0.0012149359,-0.014741116,0.7252697,0.999996,-9.313226e-10,-2.8521754e-09,0.0028536618,1
4612000,4612000,0.6883059,0.0012135606,-0.0147398375,0.7252698,0.999996,-9.313226e-10,-2.8521754e-09,0.0028536618,1
4616000,4616000,0.6883062,0.0012133323,-0.014738906,0.72526956,0.999996,-9.313226e-10,-2.8521754e-09,0.0028536618,1
4620000,4620000,0.6883048,0.0012129246,-0.014738679,0.7252709,0.999996,-9.313226e-10,-2.8521754e-09,0.0028536618,1
4624000,4624000,0.6883015,0.0012090994,-0.014738919,0.7252741,0.999996,-9.313226e-10,-2.8521754e-09,0.0028536618,1
4632000,4632000,0.68828803,0.0012049838,-0.014735016,0.72528696,0.999996,-9.313226e-10,-2.8521754e-09,0.0028536618,1
4640000,4640000,0.6882763,0.0012110065,-0.01472355,0.72529835,0.999996,-9.313226e-10,-2.8521754e-09,0.0028536618,1
4648000,4648000,0.6882757,0.0012215273,-0.014718413,0.7252989,0.999996,-9.313226e-10,-2.8521754e-09,0.0028536618,1
4652000,4652000,0.6882781,0.001224007,-0.0147168655,0.7252967,0.999996,-9.313226e-10,-2.8521754e-09,0.0028536618,1
4656000,4656000,0.6882797,0.0012256589,-0.014713081,0.7252952,0.999996,-9.313226e-10,-2.8521754e-09,0.0028536618,1
4660000,4660000,0.6882774,0.0012239964,-0.014709939,0.7252974,0.999996,-9.313226e-10,-2.8521754e-09,0.0028536618,1
4664000,4664000,0.6882713,0.0012207892,-0.0147083495,0.7253033,0.999996,-9.313226e-10,-2.8521754e-09,0.0028536618,1
4672000,4672000,0.68827593,0.0012121665,-0.014699726,0.72529906,0.999996,-9.313226e-10,-2.8521754e-09,0.0028536618,1
4676000,4676000,0.6882774,0.001210235,-0.014696237,0.72529775,0.999996,-9.313226e-10,-2.8521754e-09,0.0028536618,1
4680000,4680000,0.6882774,0.0012052013,-0.0146905705,0.72529787,0.999996,-9.313226e-10,-2.8521754e-09,0.0028536618,1
4688000,4688000,0.6882894,0.0011988594,-0.014675207,0.7252868,0.999996,-9.313226e-10,-2.8521754e-09,0.0028536618,1
4692000,4692000,0.68830025,0.0012005465,-0.014666167,0.7252767,0.999996,-9.313226e-10,-2.8521754e-09,0.0028536618,1
4696000,4696000,0.6883061,0.0011991401,-0.014657967,0.7252713,0.999996,-9.313226e-10,-2.8521754e-09,0.0028536618,1
4704000,4704000,0.688309,0.001197887,-0.0146447,0.72526884,0.999996,-9.313226e-10,-2.8521754e-09,0.0028536618,1
4712000,4712000,0.6883126,0.0011890873,-0.01462572,0.72526586,0.999996,-9.313226e-10,-2.8521754e-09,0.0028536618,1
4720000,4720000,0.68831736,0.0011810458,-0.014616223,0.72526157,0.999996,-9.313226e-10,-2.8521754e-09,0.0028536618,1
4724000,4724000,0.68831724,0.0011791973,-0.014614555,0.7252616,0.999996,-9.313226e-10,-2.8521754e-09,0.0028536618,1
4728000,4728000,0.6883175,0.0011825879,-0.014611245,0.72526145,0.999996,-9.313226e-10,-2.8521754e-09,0.0028536618,1
4736000,4736000,0.6883152,0.0011793636,-0.014594189,0.72526395,0.999996,-9.313226e-10,-2.8521754e-09,0.0028536618,1
4740000,4740000,0.6883377,0.0011751227,-0.014589061,0.7252428,0.999996,-9.313226e-10,-2.8521754e-09,0.0028536618,1
4744000,4744000,0.6883616,0.0011739441,-0.014584605,0.7252202,0.999996,-9.313226e-10,-2.8521754e-09,0.0028536618,1
4748000,4748000,0.68838614,0.0011708166,-0.014575584,0.7251971,0.999996,-9.313226e-10,-2.8521754e-09,0.0028536618,1
4752000,4752000,0.6884119,0.001165781,-0.014564727,0.7251728,0.999996,-9.313226e-10,-2.8521754e-09,0.0028536618,1
4756000,4756000,0.6884385,0.0011615492,-0.014554153,0.72514784,0.999996,-9.313226e-10,-2.8521754e-09,0.0028536618,1
4760000,4760000,0.6884631,0.0011561199,-0.014542482,0.7251247,0.999996,-9.313226e-10,-2.8521754e-09,0.0028536618,1
4764000,4764000,0.68848616,0.0011518671,-0.014532964,0.725103,0.999996,-9.313226e-10,-2.8521754e-09,0.0028536618,1
4772000,4772000,0.68854827,0.0011519578,-0.014527165,0.72504413,0.999996,-9.313226e-10,-2.8521754e-09,0.0028536618,1
4776000,4776000,0.6885789,0.0011537164,-0.014524934,0.7250151,0.999996,-9.313226e-10,-2.8521754e-09,0.0028536618,1
4784000,4784000,0.6886341,0.0011615705,-0.014517172,0.72496283,0.999996,-9.313226e-10,-2.8521754e-09,0.0028536618,1
4792000,4792000,0.6886933,0.0011529304,-0.014508894,0.72490674,0.999996,-9.313226e-10,-2.8521754e-09,0.0028536618,1
4796000,4796000,0.68872136,0.0011518454,-0.014499679,0.7248802,0.999996,-9.313226e-10,-2.8521754e-09,0.0028536618,1
4800000,4800000,0.6887502,0.0011556412,-0.014489211,0.7248531,0.999996,-9.313226e-10,-2.8521754e-09,0.0028536618,1
4808000,4808000,0.68880427,0.0011681237,-0.014470589,0.724802,0.999996,-9.313226e-10,-2.8521754e-09,0.0028536618,1
4812000,4812000,0.68883,0.0011765845,-0.014465815,0.72477764,0.999996,-9.313226e-10,-2.8521754e-09,0.0028536618,1
4816000,4816000,0.6888577,0.001182168,-0.01446488,0.72475135,0.999996,-9.313226e-10,-2.8521754e-09,0.0028536618,1
4820000,4820000,0.68888843,0.0011897073,-0.014464516,0.72472215,0.999996,-9.313226e-10,-2.8521754e-09,0.0028536618,1
4824000,4824000,0.68892074,0.0011976063,-0.014462258,0.7246915,0.999996,-9.313226e-10,-2.8521754e-09,0.0028536618,1
4828000,4828000,0.6889484,0.0011982592,-0.014458533,0.7246652,0.999996,-9.313226e-10,-2.8521754e-09,0.0028536618,1
4832000,4832000,0.68897235,0.0011942415,-0.014451921,0.72464263,0.999996,-9.313226e-10,-2.8521754e-09,0.0028536618,1
4836000,4836000,0.6889962,0.0011903064,-0.014447027,0.72462004,0.999996,-9.313226e-10,-2.8521754e-09,0.0028536618,1
4840000,4840000,0.68902117,0.0011887482,-0.014445839,0.7245964,0.999996,-9.313226e-10,-2.8521754e-09,0.0028536618,1
4844000,4844000,0.6890434,0.0011934602,-0.0144359525,0.7245753,0.999996,-9.313226e-10,-2.8521754e-09,0.0028536618,1
4848000,4848000,0.6890647,0.0011972451,-0.014420067,0.72455543,0.999996,-9.313226e-10,-2.8521754e-09,0.0028536618,1
4852000,4852000,0.68908507,0.001201794,-0.014402811,0.7245364,0.999996,-9.313226e-10,-2.8521754e-09,0.0028536618,1
4860000,4860000,0.6891318,0.0012141183,-0.014384551,0.7244923,0.999996,-9.313226e-10,-2.8521754e-09,0.0028536618,1
4864000,4864000,0.6891512,0.001218941,-0.01437647,0.7244739,0.999996,-9.313226e-10,-2.8521754e-09,0.0028536618,1
4868000,4868000,0.6891668,0.0012241537,-0.014369646,0.7244593,0.999996,-9.313226e-10,-2.8521754e-09,0.0028536618,1
4872000,4872000,0.6891858,0.0012301883,-0.014362796,0.72444135,0.999996,-9.313226e-10,-2.8521754e-09,0.0028536618,1
4880000,4880000,0.6892264,0.0012446261,-0.01433974,0.7244031,0.999996,-9.313226e-10,-2.8521754e-09,0.0028536618,1
4884000,4884000,0.68921256,0.0012539913,-0.014329731,0.72441643,0.999996,-9.313226e-10,-2.8521754e-09,0.0028536618,1
4892000,4892000,0.68918246,0.0012616515,-0.014318366,0.72444534,0.999996,-9.313226e-10,-2.8521754e-09,0.0028536618,1
4896000,4896000,0.6891673,0.0012652026,-0.014315367,0.7244598,0.999996,-9.313226e-10,-2.8521754e-09,0.0028536618,1
4900000,4900000,0.6891501,0.0012687779,-0.014312438,0.72447616,0.999996,-9.313226e-10,-2.8521754e-09,0.0028536618,1
4904000,4904000,0.6891325,0.001273428,-0.014307601,0.72449297,0.999996,-9.313226e-10,-2.8521754e-09,0.0028536618,1
4908000,4908000,0.6891133,0.0012802555,-0.014298248,0.72451144,0.999996,-9.313226e-10,-2.8521754e-09,0.0028536618,1
4912000,4912000,0.68909526,0.0012863907,-0.014290418,0.72452873,0.999996,-9.313226e-10,-2.8521754e-09,0.0028536618,1
4916000,4916000,0.6890779,0.0012938163,-0.014285992,0.72454536,0.999996,-9.313226e-10,-2.8521754e-09,0.0028536618,1
4920000,4920000,0.68906015,0.0013052713,-0.01427732,0.7245624,0.999996,-9.313226e-10,-2.8521754e-09,0.0028536618,1
4924000,4924000,0.68904054,0.0013152042,-0.014267218,0.72458124,0.999996,-9.313226e-10,-2.8521754e-09,0.0028536618,1
4928000,4928000,0.68902093,0.0013214482,-0.014260222,0.7246,0.999996,-9.313226e-10,-2.8521754e-09,0.0028536618,1
4936000,4936000,0.688979,0.0013391864,-0.014244762,0.7246401,0.999996,-9.313226e-10,-2.8521754e-09,0.0028536618,1
4944000,4944000,0.68894255,0.0013447894,-0.0142346565,0.72467494,0.999996,-9.313226e-10,-2.8521754e-09,0.0028536618,1
4948000,4948000,0.6889211,0.0013407684,-0.014229473,0.72469544,0.999996,-9.313226e-10,-2.8521754e-09,0.0028536618,1
4952000,4952000,0.6888997,0.0013359564,-0.0142228035,0.72471595,0.999996,-9.313226e-10,-2.8521754e-09,0.0028536618,1
4956000,4956000,0.68887347,0.0013356297,-0.014216263,0.724741,0.999996,-9.313226e-10,-2.8521754e-09,0.0028536618,1
4960000,4960000,0.6888483,0.0013409823,-0.014209954,0.724765,0.999996,-9.313226e-10,-2.8521754e-09,0.0028536618,1
4964000,4964000,0.6888212,0.0013460915,-0.014203158,0.72479093,0.999996,-9.313226e-10,-2.8521754e-09,0.0028536618,1
4968000,4968000,0.68879026,0.0013491756,-0.014193782,0.7248205,0.999996,-9.313226e-10,-2.8521754e-09,0.0028536618,1
4972000,4972000,0.6887572,0.0013565473,-0.0141868135,0.724852,0.999996,-9.313226e-10,-2.8521754e-09,0.0028536618,1
4976000,4976000,0.6887241,0.0013647297,-0.014182086,0.72488356,0.999996,-9.313226e-10,-2.8521754e-09,0.0028536618,1
4980000,4980000,0.68869185,0.0013666146,-0.014176265,0.7249143,0.999996,-9.313226e-10,-2.8521754e-09,0.0028536618,1
4984000,4984000,0.6886603,0.0013685917,-0.014173456,0.7249443,0.999996,-9.313226e-10,-2.8521754e-09,0.0028536618,1
4988000,4988000,0.68863344,0.0013730706,-0.014171953,0.72496986,0.999996,-9.313226e-10,-2.8521754e-09,0.0028536618,1
4992000,4992000,0.68860775,0.0013752554,-0.0141682485,0.7249943,0.999996,-9.313226e-10,-2.8521754e-09,0.0028536618,1
4996000,4996000,0.68858075,0.0013737566,-0.014164512,0.7250201,0.999996,-9.313226e-10,-2.8521754e-09,0.0028536618,1
5000000,5000000,0.68855214,0.001374428,-0.014158459,0.7250474,0.999996,-9.313226e-10,-2.8521754e-09,0.0028536618,1
5004000,5004000,0.6885244,0.0013766715,-0.014149971,0.7250739,0.999996,-9.313226e-10,-2.8521754e-09,0.0028536618,1
5008000,5008000,0.68849903,0.0013774153,-0.014140013,0.72509813,0.999996,-9.313226e-10,-2.8521754e-09,0.0028536618,1
5012000,5012000,0.68847966,0.0013788044,-0.014131777,0.72511667,0.999996,-9.313226e-10,-2.8521754e-09,0.0028536618,1
5016000,5016000,0.6884629,0.0013830476,-0.014129867,0.7251326,0.999996,-9.313226e-10,-2.8521754e-09,0.0028536618,1
5024000,5024000,0.68841755,0.0013893045,-0.01412733,0.7251757,0.999996,-9.313226e-10,-2.8521754e-09,0.0028536618,1
5028000,5028000,0.6883922,0.0013881539,-0.014119993,0.72519994,0.999996,-9.313226e-10,-2.8521754e-09,0.0028536618,1
5032000,5032000,0.68837035,0.0013881119,-0.014109228,0.72522086,0.999996,-9.313226e-10,-2.8521754e-09,0.0028536618,1
5040000,5040000,0.68833536,0.0013987835,-0.014093464,0.72525436,0.999996,-9.313226e-10,-2.8521754e-09,0.0028536618,1
5044000,5044000,0.6883188,0.0014010839,-0.014086415,0.7252703,0.999996,-9.313226e-10,-2.8521754e-09,0.0028536618,1
5048000,5048000,0.6882987,0.0013987992,-0.014079492,0.7252894,0.999996,-9.313226e-10,-2.8521754e-09,0.0028536618,1
5052000,5052000,0.68827945,0.0014001438,-0.0140740415,0.7253078,0.999996,-9.313226e-10,-2.8521754e-09,0.0028536618,1
5056000,5056000,0.6882621,0.0014022394,-0.014067063,0.72532445,0.999996,-9.313226e-10,-2.8521754e-09,0.0028536618,1
5060000,5060000,0.6882474,0.0014052634,-0.014058328,0.7253386,0.999996,-9.313226e-10,-2.8521754e-09,0.0028536618,1
5064000,5064000,0.68823415,0.001410249,-0.0140514225,0.7253512,0.999996,-9.313226e-10,-2.8521754e-09,0.0028536618,1
5072000,5072000,0.68820745,0.0014195876,-0.014042813,0.72537667,0.999996,-9.313226e-10,-2.8521754e-09,0.0028536618,1
5076000,5076000,0.68819785,0.0014195496,-0.014042713,0.7253858,0.999996,-9.313226e-10,-2.8521754e-09,0.0028536618,1
5080000,5080000,0.68818784,0.0014242891,-0.014038344,0.7253954,0.999996,-9.313226e-10,-2.8521754e-09,0.0028536618,1
5088000,5088000,0.6881674,0.0014419064,-0.014024567,0.725415,0.999996,-9.313226e-10,-2.8521754e-09,0.0028536618,1
5096000,5096000,0.6881483,0.0014546608,-0.014022806,0.7254332,0.999996,-9.313226e-10,-2.8521754e-09,0.0028536618,1
5100000,5100000,0.6881435,0.0014645105,-0.014018917,0.7254377,0.999996,-9.313226e-10,-2.8521754e-09,0.0028536618,1
5104000,5104000,0.68813914,0.0014706824,-0.014018141,0.7254419,0.999996,-9.313226e-10,-2.8521754e-09,0.0028536618,1
5112000,5112000,0.68813574,0.0014733919,-0.014014361,0.7254452,0.999996,-9.313226e-10,-2.8521754e-09,0.0028536618,1
5116000,5116000,0.6881342,0.0014757812,-0.014005922,0.7254468,0.999996,-9.313226e-10,-2.8521754e-09,0.0028536618,1
5120000,5120000,0.6881326,0.0014793496,-0.013999335,0.7254484,0.999996,-9.313226e-10,-2.8521754e-09,0.0028536618,1
5124000,5124000,0.6881297,0.0014820604,-0.013993586,0.72545123,0.999996,-9.313226e-10,-2.8521754e-09,0.0028536618,1
5128000,5128000,0.6881277,0.0014833002,-0.01398863,0.72545326,0.999996,-9.313226e-10,-2.8521754e-09,0.0028536618,1
5136000,5136000,0.68812895,0.0014832625,-0.013986033,0.72545207,0.999996,-9.313226e-10,-2.8521754e-09,0.0028536618,1
5140000,5140000,0.68812793,0.0014858562,-0.013987996,0.7254531,0.999996,-9.313226e-10,-2.8521754e-09,0.0028536618,1
5144000,5144000,0.6881277,0.001488385,-0.013986943,0.7254534,0.999996,-9.313226e-10,-2.8521754e-09,0.0028536618,1
5152000,5152000,0.68813324,0.001493343,-0.013967733,0.7254484,0.999996,-9.313226e-10,-2.8521754e-09,0.0028536618,1
5156000,5156000,0.6881385,0.0014962499,-0.013967638,0.7254435,0.999996,-9.313226e-10,-2.8521754e-09,0.0028536618,1
5160000,5160000,0.68814325,0.0014988028,-0.013968684,0.7254389,0.999996,-9.313226e-10,-2.8521754e-09,0.0028536618,1
5164000,5164000,0.6881488,0.0015006271,-0.013964952,0.7254337,0.999996,-9.313226e-10,-2.8521754e-09,0.0028536618,1
5172000,5172000,0.6881514,0.0015045737,-0.01396323,0.72543126,0.999996,-9.313226e-10,-2.8521754e-09,0.0028536618,1
5176000,5176000,0.6881497,0.0015036274,-0.013962305,0.7254329,0.999996,-9.313226e-10,-2.8521754e-09,0.0028536618,1
5180000,5180000,0.6881489,0.0015066114,-0.013960993,0.7254337,0.999996,-9.313226e-10,-2.8521754e-09,0.0028536618,1
5184000,5184000,0.6881469,0.0015121786,-0.013958484,0.7254356,0.999996,-9.313226e-10,-2.8521754e-09,0.0028536618,1
5188000,5188000,0.6881432,0.0015194423,-0.013957905,0.72543913,0.999996,-9.313226e-10,-2.8521754e-09,0.0028536618,1
5192000,5192000,0.6881395,0.0015270925,-0.013957692,0.72544265,0.999996,-9.313226e-10,-2.8521754e-09,0.0028536618,1
5196000,5196000,0.6881379,0.0015330807,-0.013957603,0.7254441,0.999996,-9.313226e-10,-2.8521754e-09,0.0028536618,1
5200000,5200000,0.688139,0.0015353963,-0.013959114,0.72544295,0.999996,-9.313226e-10,-2.8521754e-09,0.0028536618,1
5204000,5204000,0.6881431,0.0015356435,-0.013958873,0.7254391,0.999996,-9.313226e-10,-2.8521754e-09,0.0028536618,1
5212000,5212000,0.6881475,0.0015425556,-0.013954538,0.7254351,0.999996,-9.313226e-10,-2.8521754e-09,0.0028536618,1
5216000,5216000,0.6881509,0.0015437028,-0.013953221,0.72543186,0.999996,-9.313226e-10,-2.8521754e-09,0.0028536618,1
5224000,5224000,0.688155,0.001550853,-0.013950613,0.7254279,0.999996,-9.313226e-10,-2.8521754e-09,0.0028536618,1
5232000,5232000,0.68815833,0.001561742,-0.013946161,0.7254248,0.999996,-9.313226e-10,-2.8521754e-09,0.0028536618,1
5236000,5236000,0.6881602,0.0015653044,-0.013942729,0.7254231,0.999996,-9.313226e-10,-2.8521754e-09,0.0028536618,1
5240000,5240000,0.6881625,0.0015643765,-0.013940168,0.72542095,0.999996,-9.313226e-10,-2.8521754e-09,0.0028536618,1
5244000,5244000,0.688164,0.0015613653,-0.013940367,0.7254195,0.999996,-9.313226e-10,-2.8521754e-09,0.0028536618,1
5252000,5252000,0.68815595,0.0015679591,-0.013946531,0.72542715,0.999996,-9.313226e-10,-2.8521754e-09,0.0028536618,1
5256000,5256000,0.6881554,0.0015655886,-0.013949029,0.7254276,0.999996,-9.313226e-10,-2.8521754e-09,0.0028536618,1
5260000,5260000,0.68815583,0.0015603973,-0.013943692,0.7254273,0.999996,-9.313226e-10,-2.8521754e-09,0.0028536618,1
5264000,5264000,0.6881554,0.0015593026,-0.0139371175,0.72542787,0.999996,-9.313226e-10,-2.8521754e-09,0.0028536618,1
5272000,5272000,0.6881529,0.001571663,-0.013928561,0.72543037,0.999996,-9.313226e-10,-2.8521754e-09,0.0028536618,1
5276000,5276000,0.68815553,0.0015809869,-0.013923285,0.7254279,0.999996,-9.313226e-10,-2.8521754e-09,0.0028536618,1
5280000,5280000,0.6881582,0.0015869326,-0.013918473,0.7254255,0.999996,-9.313226e-10,-2.8521754e-09,0.0028536618,1
5284000,5284000,0.68816394,0.0015936341,-0.013915173,0.7254201,0.999996,-9.313226e-10,-2.8521754e-09,0.0028536618,1
5292000,5292000,0.6881844,0.0016033121,-0.01391097,0.72540075,0.999996,-9.313226e-10,-2.8521754e-09,0.0028536618,1
5296000,5296000,0.68819255,0.0016015852,-0.013907943,0.72539306,0.999996,-9.313226e-10,-2.8521754e-09,0.0028536618,1
5300000,5300000,0.6881969,0.0015997065,-0.013904947,0.725389,0.999996,-9.313226e-10,-2.8521754e-09,0.0028536618,1
5304000,5304000,0.6882008,0.0015993657,-0.013903418,0.7253853,0.999996,-9.313226e-10,-2.8521754e-09,0.0028536618,1
5312000,5312000,0.68820626,0.0016032674,-0.013895381,0.7253803,0.999996,-9.313226e-10,-2.8521754e-09,0.0028536618,1
5316000,5316000,0.688227,0.0016064837,-0.013888916,0.7253607,0.999996,-9.313226e-10,-2.8521754e-09,0.0028536618,1
5320000,5320000,0.6882501,0.0016101112,-0.013882061,0.72533894,0.999996,-9.313226e-10,-2.8521754e-09,0.0028536618,1
5324000,5324000,0.6882741,0.0016114411,-0.013875274,0.72531635,0.999996,-9.313226e-10,-2.8521754e-09,0.0028536618,1
5328000,5328000,0.6882953,0.0016131649,-0.013871118,0.7252963,0.999996,-9.313226e-10,-2.8521754e-09,0.0028536618,1
5336000,5336000,0.6883275,0.0016193837,-0.013864274,0.72526586,0.999996,-9.313226e-10,-2.8521754e-09,0.0028536618,1
5344000,5344000,0.6883613,0.0016188719,-0.013846686,0.72523403,0.999996,-9.313226e-10,-2.8521754e-09,0.0028536618,1
5352000,5352000,0.68838793,0.0016176407,-0.013839798,0.7252089,0.999996,-9.313226e-10,-2.8521754e-09,0.0028536618,1
5356000,5356000,0.68840027,0.0016207979,-0.0138463,0.725197,0.999996,-9.313226e-10,-2.8521754e-09,0.0028536618,1
5360000,5360000,0.68841565,0.0016255396,-0.013853509,0.72518224,0.999996,-9.313226e-10,-2.8521754e-09,0.0028536618,1
5364000,5364000,0.68843186,0.0016267766,-0.013857476,0.72516686,0.999996,-9.313226e-10,-2.8521754e-09,0.0028536618,1
5372000,5372000,0.68846506,0.0016270014,-0.0138523355,0.72513545,0.999996,-9.313226e-10,-2.8521754e-09,0.0028536618,1
5376000,5376000,0.68848276,0.0016288057,-0.013849558,0.7251187,0.999996,-9.313226e-10,-2.8521754e-09,0.0028536618,1
5384000,5384000,0.6885208,0.0016334679,-0.013841442,0.72508276,0.999996,-9.313226e-10,-2.8521754e-09,0.0028536618,1
5392000,5392000,0.68857086,0.0016424789,-0.013831056,0.7250353,0.999996,-9.313226e-10,-2.8521754e-09,0.0028536618,1
5396000,5396000,0.68859464,0.0016469415,-0.013833264,0.72501266,0.999996,-9.313226e-10,-2.8521754e-09,0.0028536618,1
5400000,5400000,0.6886177,0.0016478753,-0.013830667,0.72499084,0.999996,-9.313226e-10,-2.8521754e-09,0.0028536618,1
5404000,5404000,0.68863803,0.0016461059,-0.013827063,0.7249716,0.999996,-9.313226e-10,-2.8521754e-09,0.0028536618,1
5408000,5408000,0.688656,0.0016466478,-0.013827169,0.72495455,0.999996,-9.313226e-10,-2.8521754e-09,0.0028536618,1
5412000,5412000,0.6886719,0.0016494078,-0.013826516,0.7249394,0.999996,-9.313226e-10,-2.8521754e-09,0.0028536618,1
5416000,5416000,0.68868786,0.001650546,-0.013821384,0.7249243,0.999996,-9.313226e-10,-2.8521754e-09,0.0028536618,1
5420000,5420000,0.6887053,0.0016513257,-0.013815178,0.72490793,0.999996,-9.313226e-10,-2.8521754e-09,0.0028536618,1
5424000,5424000,0.6887262,0.001653349,-0.013810813,0.7248882,0.999996,-9.313226e-10,-2.8521754e-09,0.0028536618,1
5428000,5428000,0.68874615,0.0016539291,-0.013808794,0.7248692,0.999996,-9.313226e-10,-2.8521754e-09,0.0028536618,1
5432000,5432000,0.6887646,0.0016526263,-0.013807957,0.72485167,0.999996,-9.313226e-10,-2.8521754e-09,0.0028536618,1
5436000,5436000,0.6887818,0.0016527331,-0.013803361,0.7248354,0.999996,-9.313226e-10,-2.8521754e-09,0.0028536618,1
5440000,5440000,0.68879944,0.0016550483,-0.013796448,0.72481877,0.999996,-9.313226e-10,-2.8521754e-09,0.0028536618,1
5444000,5444000,0.6888162,0.0016567345,-0.013794113,0.7248029,0.999996,-9.313226e-10,-2.8521754e-09,0.0028536618,1
5448000,5448000,0.6888333,0.0016581184,-0.013794422,0.72478664,0.999996,-9.313226e-10,-2.8521754e-09,0.0028536618,1
5452000,5452000,0.68884915,0.0016579622,-0.013793302,0.72477156,0.999996,-9.313226e-10,-2.8521754e-09,0.0028536618,1
5456000,5456000,0.6888628,0.0016555031,-0.013792245,0.7247587,0.999996,-9.313226e-10,-2.8521754e-09,0.0028536618,1
5460000,5460000,0.6888766,0.0016522385,-0.0137920035,0.7247455,0.999996,-9.313226e-10,-2.8521754e-09,0.0028536618,1
5464000,5464000,0.68889046,0.0016486072,-0.013792148,0.72473234,0.999996,-9.313226e-10,-2.8521754e-09,0.0028536618,1
5472000,5472000,0.6889221,0.0016464207,-0.013797757,0.7247022,0.999996,-9.313226e-10,-2.8521754e-09,0.0028536618,1
5476000,5476000,0.6889371,0.0016444543,-0.013802691,0.7246879,0.999996,-9.313226e-10,-2.8521754e-09,0.0028536618,1
5480000,5480000,0.6889533,0.001641719,-0.013806136,0.72467244,0.999996,-9.313226e-10,-2.8521754e-09,0.0028536618,1
5488000,5488000,0.68898594,0.0016361658,-0.013807065,0.7246414,0.999996,-9.313226e-10,-2.8521754e-09,0.0028536618,1
5496000,5496000,0.6890155,0.0016301922,-0.013806184,0.72461325,0.999996,-9.313226e-10,-2.8521754e-09,0.0028536618,1
5504000,5504000,0.68904173,0.0016223422,-0.013806717,0.72458833,0.999996,-9.313226e-10,-2.8521754e-09,0.0028536618,1
5508000,5508000,0.68905497,0.0016189222,-0.013803416,0.7245758,0.999996,-9.313226e-10,-2.8521754e-09,0.0028536618,1
5512000,5512000,0.68906826,0.0016135916,-0.013799033,0.7245633,0.999996,-9.313226e-10,-2.8521754e-09,0.0028536618,1
5520000,5520000,0.68908495,0.0015996284,-0.013799082,0.7245475,0.999996,-9.313226e-10,-2.8521754e-09,0.0028536618,1
5524000,5524000,0.6890938,0.0015947872,-0.013800389,0.72453904,0.999996,-9.313226e-10,-2.8521754e-09,0.0028536618,1
5528000,5528000,0.6891054,0.0015932254,-0.013795206,0.72452813,0.999996,-9.313226e-10,-2.8521754e-09,0.0028536618,1
5532000,5532000,0.68911743,0.0015908637,-0.013790068,0.7245167,0.999996,-9.313226e-10,-2.8521754e-09,0.0028536618,1
5536000,5536000,0.6891287,0.0015874804,-0.013789855,0.72450596,0.999996,-9.313226e-10,-2.8521754e-09,0.0028536618,1
5540000,5540000,0.68913966,0.0015863734,-0.013789603,0.72449565,0.999996,-9.313226e-10,-2.8521754e-09,0.0028536618,1
5544000,5544000,0.68915063,0.0015859439,-0.013786318,0.7244853,0.999996,-9.313226e-10,-2.8521754e-09,0.0028536618,1
5548000,5548000,0.6891589,0.0015839647,-0.013782337,0.72447747,0.999996,-9.313226e-10,-2.8521754e-09,0.0028536618,1
5552000,5552000,0.68916565,0.001582728,-0.0137790935,0.72447115,0.999996,-9.313226e-10,-2.8521754e-09,0.0028536618,1
5556000,5556000,0.68917274,0.0015838968,-0.013776487,0.7244645,0.999996,-9.313226e-10,-2.8521754e-09,0.0028536618,1
5564000,5564000,0.6891912,0.0015857007,-0.013771975,0.72444695,0.999996,-9.313226e-10,-2.8521754e-09,0.0028536618,1
5568000,5568000,0.68920076,0.0015806614,-0.013770593,0.7244379,0.999996,-9.313226e-10,-2.8521754e-09,0.0028536618,1
5572000,5572000,0.6892093,0.0015745619,-0.013768051,0.72442985,0.999996,-9.313226e-10,-2.8521754e-09,0.0028536618,1
5576000,5576000,0.68921787,0.001567983,-0.013761376,0.72442186,0.999996,-9.313226e-10,-2.8521754e-09,0.0028536618,1
5580000,5580000,0.6892254,0.001562347,-0.013758385,0.72441477,0.999996,-9.313226e-10,-2.8521754e-09,0.0028536618,1
5584000,5584000,0.68923163,0.0015598881,-0.013762847,0.7244087,0.999996,-9.313226e-10,-2.8521754e-09,0.0028536618,1
5588000,5588000,0.68923694,0.0015605094,-0.0137656545,0.7244036,0.999996,-9.313226e-10,-2.8521754e-09,0.0028536618,1
5596000,5596000,0.68925136,0.0015604581,-0.01377197,0.7243898,0.999996,-9.313226e-10,-2.8521754e-09,0.0028536618,1
5600000,5600000,0.68925816,0.001557078,-0.013774419,0.7243833,0.999996,-9.313226e-10,-2.8521754e-09,0.0028536618,1
5604000,5604000,0.68922734,0.001554819,-0.013773322,0.7244126,0.999996,-9.313226e-10,-2.8521754e-09,0.0028536618,1
5608000,5608000,0.6891965,0.0015555905,-0.013772903,0.72444195,0.999996,-9.313226e-10,-2.8521754e-09,0.0028536618,1
5612000,5612000,0.6891671,0.001557632,-0.013771993,0.72447,0.999996,-9.313226e-10,-2.8521754e-09,0.0028536618,1
5616000,5616000,0.6891403,0.001560054,-0.013769184,0.7244954,0.999996,-9.313226e-10,-2.8521754e-09,0.0028536618,1
5620000,5620000,0.6891165,0.0015627134,-0.013768544,0.7245182,0.999996,-9.313226e-10,-2.8521754e-09,0.0028536618,1
5624000,5624000,0.6890918,0.0015620544,-0.013771378,0.72454154,0.999996,-9.313226e-10,-2.8521754e-09,0.0028536618,1
5632000,5632000,0.68903446,0.0015506401,-0.01377602,0.724596,0.999996,-9.313226e-10,-2.8521754e-09,0.0028536618,1
5636000,5636000,0.68900484,0.0015485539,-0.01377572,0.72462416,0.999996,-9.313226e-10,-2.8521754e-09,0.0028536618,1
5640000,5640000,0.68897414,0.0015474897,-0.013772006,0.7246535,0.999996,-9.313226e-10,-2.8521754e-09,0.0028536618,1
5648000,5648000,0.68890965,0.0015416183,-0.013773179,0.7247147,0.999996,-9.313226e-10,-2.8521754e-09,0.0028536618,1
5656000,5656000,0.68884766,0.0015424094,-0.013773646,0.72477365,0.999996,-9.313226e-10,-2.8521754e-09,0.0028536618,1
5664000,5664000,0.688783,0.0015424521,-0.013767962,0.7248352,0.999996,-9.313226e-10,-2.8521754e-09,0.0028536618,1
5668000,5668000,0.68875194,0.0015389788,-0.013770787,0.72486466,0.999996,-9.313226e-10,-2.8521754e-09,0.0028536618,1
5676000,5676000,0.68868184,0.0015271254,-0.013773671,0.7249313,0.999996,-9.313226e-10,-2.8521754e-09,0.0028536618,1
5680000,5680000,0.6886427,0.0015206368,-0.013774056,0.72496843,0.999996,-9.313226e-10,-2.8521754e-09,0.0028536618,1
5684000,5684000,0.68860435,0.0015149764,-0.013773611,0.72500485,0.999996,-9.313226e-10,-2.8521754e-09,0.0028536618,1
5688000,5688000,0.6885687,0.0015090393,-0.013775052,0.7250387,0.999996,-9.313226e-10,-2.8521754e-09,0.0028536618,1
5692000,5692000,0.6885345,0.0015027439,-0.013776079,0.7250712,0.999996,-9.313226e-10,-2.8521754e-09,0.0028536618,1
5696000,5696000,0.6884992,0.001495904,-0.013771471,0.7251048,0.999996,-9.313226e-10,-2.8521754e-09,0.0028536618,1
5700000,5700000,0.688465,0.0014890791,-0.013766821,0.7251375,0.999996,-9.313226e-10,-2.8521754e-09,0.0028536618,1
5704000,5704000,0.6884291,0.0014830751,-0.013765916,0.7251715,0.999996,-9.313226e-10,-2.8521754e-09,0.0028536618,1
5708000,5708000,0.6883967,0.0014781071,-0.013764653,0.7252024,0.999996,-9.313226e-10,-2.8521754e-09,0.0028536618,1
5712000,5712000,0.6883673,0.0014743564,-0.013764484,0.7252303,0.999996,-9.313226e-10,-2.8521754e-09,0.0028536618,1
5716000,5716000,0.68833894,0.0014721933,-0.013767253,0.72525704,0.999996,-9.313226e-10,-2.8521754e-09,0.0028536618,1
5720000,5720000,0.68830985,0.0014693813,-0.013774563,0.7252846,0.999996,-9.313226e-10,-2.8521754e-09,0.0028536618,1
5724000,5724000,0.68827957,0.0014650751,-0.013784144,0.7253131,0.999996,-9.313226e-10,-2.8521754e-09,0.0028536618,1
5728000,5728000,0.6882481,0.0014629267,-0.013790657,0.72534287,0.999996,-9.313226e-10,-2.8521754e-09,0.0028536618,1
5732000,5732000,0.688221,0.0014640692,-0.013791402,0.7253686,0.999996,-9.313226e-10,-2.8521754e-09,0.0028536618,1
5736000,5736000,0.6881938,0.0014655384,-0.013790253,0.72539437,0.999996,-9.313226e-10,-2.8521754e-09,0.0028536618,1
5740000,5740000,0.68816745,0.0014644215,-0.013791787,0.72541934,0.999996,-9.313226e-10,-2.8521754e-09,0.0028536618,1
5744000,5744000,0.68814194,0.0014610408,-0.013792629,0.7254436,0.999996,-9.313226e-10,-2.8521754e-09,0.0028536618,1
5748000,5748000,0.6881096,0.0014590312,-0.013793776,0.7254743,0.999996,-9.313226e-10,-2.8521754e-09,0.0028536618,1
5752000,5752000,0.68807757,0.0014586144,-0.013797893,0.7255045,0.999996,-9.313226e-10,-2.8521754e-09,0.0028536618,1
5756000,5756000,0.6880457,0.0014562018,-0.013799413,0.72553474,0.999996,-9.313226e-10,-2.8521754e-09,0.0028536618,1
5760000,5760000,0.6880111,0.0014506461,-0.013798007,0.7255675,0.999996,-9.313226e-10,-2.8521754e-09,0.0028536618,1
5764000,5764000,0.6879752,0.0014462977,-0.013797569,0.72560155,0.999996,-9.313226e-10,-2.8521754e-09,0.0028536618,1
5768000,5768000,0.6879401,0.001444976,-0.013797051,0.72563493,0.999996,-9.313226e-10,-2.8521754e-09,0.0028536618,1
5776000,5776000,0.6878823,0.0014428276,-0.013800243,0.72568965,0.999996,-9.313226e-10,-2.8521754e-09,0.0028536618,1
5784000,5784000,0.6878268,0.001438255,-0.013804374,0.72574216,0.999996,-9.313226e-10,-2.8521754e-09,0.0028536618,1
5788000,5788000,0.68779755,0.0014392249,-0.013806795,0.7257698,0.999996,-9.313226e-10,-2.8521754e-09,0.0028536618,1
5792000,5792000,0.687766,0.0014420431,-0.013809546,0.7257997,0.999996,-9.313226e-10,-2.8521754e-09,0.0028536618,1
5796000,5796000,0.68773913,0.0014420351,-0.013812992,0.7258251,0.999996,-9.313226e-10,-2.8521754e-09,0.0028536618,1
5800000,5800000,0.6877162,0.0014379901,-0.013817671,0.72584677,0.999996,-9.313226e-10,-2.8521754e-09,0.0028536618,1
5804000,5804000,0.68769395,0.0014336505,-0.013821854,0.72586775,0.999996,-9.313226e-10,-2.8521754e-09,0.0028536618,1
5812000,5812000,0.68765223,0.0014248154,-0.01381955,0.7259074,0.999996,-9.313226e-10,-2.8521754e-09,0.0028536618,1
5816000,5816000,0.6876335,0.0014158984,-0.013816193,0.72592515,0.999996,-9.313226e-10,-2.8521754e-09,0.0028536618,1
5824000,5824000,0.68760043,0.0014092076,-0.013821379,0.72595644,0.999996,-9.313226e-10,-2.8521754e-09,0.0028536618,1
5832000,5832000,0.6875733,0.001417323,-0.013820255,0.72598207,0.999996,-9.313226e-10,-2.8521754e-09,0.0028536618,1
5836000,5836000,0.6875615,0.0014283895,-0.013824278,0.7259931,0.999996,-9.313226e-10,-2.8521754e-09,0.0028536618,1
5840000,5840000,0.6875506,0.0014349123,-0.013826918,0.72600347,0.999996,-9.313226e-10,-2.8521754e-09,0.0028536618,1
5848000,5848000,0.6875329,0.0014441755,-0.013823765,0.7260203,0.999996,-9.313226e-10,-2.8521754e-09,0.0028536618,1
5856000,5856000,0.68751353,0.001454326,-0.01382187,0.7260386,0.999996,-9.313226e-10,-2.8521754e-09,0.0028536618,1
5860000,5860000,0.6875065,0.0014577092,-0.0138238715,0.7260452,0.999996,-9.313226e-10,-2.8521754e-09,0.0028536618,1
5864000,5864000,0.6875006,0.001461847,-0.013825098,0.72605073,0.999996,-9.313226e-10,-2.8521754e-09,0.0028536618,1
5868000,5868000,0.68749803,0.0014675877,-0.013825421,0.7260532,0.999996,-9.313226e-10,-2.8521754e-09,0.0028536618,1
5872000,5872000,0.6874928,0.0014687799,-0.013826626,0.7260581,0.999996,-9.313226e-10,-2.8521754e-09,0.0028536618,1
5880000,5880000,0.6874756,0.0014705884,-0.01382247,0.7260745,0.999996,-9.313226e-10,-2.8521754e-09,0.0028536618,1
5888000,5888000,0.68746656,0.001472143,-0.013821831,0.72608304,0.999996,-9.313226e-10,-2.8521754e-09,0.0028536618,1
5896000,5896000,0.68744755,0.001462669,-0.013819826,0.7261011,0.999996,-9.313226e-10,-2.8521754e-09,0.0028536618,1
5900000,5900000,0.68743986,0.0014569922,-0.013816328,0.72610843,0.999996,-9.313226e-10,-2.8521754e-09,0.0028536618,1
5904000,5904000,0.6874337,0.0014524846,-0.013813172,0.72611433,0.999996,-9.313226e-10,-2.8521754e-09,0.0028536618,1
