timestamp,timestamp_sample,xyz[0],xyz[1],xyz[2],xyz_derivative[0],xyz_derivative[1],xyz_derivative[2]
3200000,3200000,-0.002400531,-0.006402076,0.0011173346,-0.0060656182,-0.13720386,0.11673322
3204000,3204000,-0.0020517786,-0.0059065167,0.0003276486,0.034021247,-0.024967793,-0.018312097
3212000,3212000,-0.00067189656,-0.004898487,-0.00074558373,0.114490256,0.08600895,-0.08183095
3220000,3220000,-0.0014512317,-0.0035903687,-0.0026962685,-0.01928484,0.11464708,-0.18933696
3232000,3232000,-0.0039685196,-0.005253195,-0.0018083802,-0.21419585,-0.0727771,0.014912921
3240000,3240000,-0.0028012274,-0.004375671,0.0004353556,0.027698763,0.03928271,0.19584914
3252000,3252000,-0.002882462,-0.0042213947,-0.00012419978,0.05300135,0.0959537,-0.03930513
3260000,3260000,-0.001751031,-0.003787248,-0.0004329465,0.08036071,0.035712514,-0.019730322
3272000,3272000,-0.0025413737,-0.005804782,0.00040300583,0.038324457,-0.13013586,0.0011424175
3280000,3280000,0.00041993335,-0.003424792,-0.0019449133,0.28182268,0.1646877,-0.19170102
3292000,3292000,-0.0036034442,-0.0066235852,0.00014775712,-0.314349,-0.29612127,0.18875602
3300000,3300000,-0.00075329887,-0.0065773423,0.0005662502,0.18408065,-0.031894997,0.060947463
3312000,3312000,0.0015612689,-0.00855317,2.6773818e-05,0.09923808,-0.2733468,-0.011595712
3320000,3320000,-0.0019073273,-0.005726916,0.00082152896,-0.24945107,0.23470321,0.04717026
3332000,3332000,0.0010941613,-0.0062075816,0.00092516915,0.16347942,-0.17158064,0.073793724
3340000,3340000,-0.0021426314,-0.0043575233,0.0012885091,-0.2542121,0.14686856,0.064941674
3352000,3352000,-7.3974676e-05,-0.005553066,-0.00077731616,0.14425465,-0.15795873,-0.12199899
3360000,3360000,-0.0012703488,-0.005927468,0.00029737782,-0.060303085,-0.05673073,0.022301419
3372000,3372000,0.00042536337,-0.0041875136,0.0001364016,0.11581798,0.010023339,0.09126294
3380000,3380000,-0.0024624807,-0.007651939,-0.0012271476,-0.24012017,-0.24006724,-0.09240382
3392000,3392000,8.670421e-05,-0.005067403,0.00028253734,0.18556441,0.14223266,0.044119477
3400000,3400000,0.00084502145,-0.0035765423,-0.00090797496,0.10745139,0.13608265,-0.074919656
3412000,3412000,-0.00039229097,-0.005492009,-0.0002897893,-0.03750656,0.0373424,0.03679578
3420000,3420000,-0.0013893746,-0.0028232965,-0.0020335643,-0.11465004,0.15014416,-0.1290459
3432000,3432000,-0.0017994543,-0.006900946,0.00021184122,-0.034149513,-0.17960829,0.10744371
3440000,3440000,-0.00069286197,-0.0023647456,0.0015634096,0.0769045,0.3438872,0.15324429
3452000,3452000,-0.0007056878,-0.0031555963,-0.00050210534,0.022824492,-0.04483588,-0.10688998
3460000,3460000,-0.0005491093,-0.0039518345,0.0015173553,0.014960382,-0.085377924,0.1379424
3472000,3472000,-0.0037599502,-0.008682683,0.00023200206,-0.20983478,-0.24700043,-0.10244495
3480000,3480000,-0.0023103089,-0.006819824,-0.00067562726,0.079584286,0.07702798,-0.0989475
3488000,3488000,-0.0025654563,-0.0059834938,-0.00016187035,-0.024800926,0.06815615,0.036040317
3496000,3496000,-0.0026097225,-0.004911127,0.00059861573,0.002255192,0.14749686,0.036914025
3512000,3512000,-0.0010856843,-0.0032153078,0.0018200402,0.04634338,0.17336918,0.22035101
3520000,3520000,-0.0029669814,-0.005588526,0.002963765,-0.11544703,-0.16873854,0.16020432
3528000,3528000,-0.0008381596,-0.0058260355,-0.000768564,0.1260185,-0.07066874,-0.296148
3540000,3540000,0.0012491064,-0.0024301438,-0.0011612371,0.16251107,0.20286879,0.009306487
3552000,3552000,-0.0024854904,-0.003800842,0.0023174416,-0.18343915,-0.015486536,0.2728538
3560000,3560000,-0.0014932451,-0.0021915152,0.0013281225,0.04087293,0.11781397,-0.010064704
3572000,3572000,-0.0004471439,-0.0045827823,8.684891e-05,0.05059287,-0.087480254,-0.111281924
3580000,3580000,-0.0022198546,-0.0053181183,0.0005532062,-0.12475991,-0.13552824,0.010558126
3592000,3592000,-0.00020221368,-0.008937109,-0.0015009621,0.095954746,-0.15363342,-0.14689642
3600000,3600000,-0.0017849195,-0.0061584488,-0.0011417139,-0.12302671,0.18522857,-0.0055542258
3608000,3608000,-0.0036497368,-0.0041700155,-6.206405e-06,-0.16307935,0.1962863,0.09862423
3616000,3616000,-0.0018676618,-0.003732508,-0.00018920508,0.082012974,0.11369333,-0.017167328
3632000,3632000,-9.922211e-05,-0.0061787767,-0.0009761666,0.0041696504,-0.07053997,-0.0027372253
3640000,3640000,0.0007199632,-0.006418635,0.00012848392,0.0830734,-0.052564435,0.09512775
3648000,3648000,-0.0022115153,-0.008130169,-0.00011397558,-0.20747267,-0.16856655,-0.0012704126
3656000,3656000,-0.0008521966,-0.006435549,0.00089922996,0.04506841,0.10035269,0.10019952
3668000,3668000,0.0023631298,-0.006910806,-0.00025907444,0.18292747,-0.04766825,-0.08879542
3676000,3676000,0.00018280966,-0.0077503566,-0.0014791501,-0.11584196,-0.06031191,-0.14724922
3692000,3692000,0.0006171477,-0.0055957846,0.00083937106,0.012817452,0.030978385,0.22993004
3700000,3700000,-0.0009982309,-0.00574769,-0.0012034009,-0.13271438,-0.017978922,-0.10984564
3712000,3712000,-0.0018768092,-0.0066591585,0.00033544327,-0.063730076,-0.09610392,0.15499283
3720000,3720000,-0.00051713514,-0.007750801,0.0015601518,0.0784293,-0.11697312,0.12939619
3732000,3732000,-0.0013938325,-0.0029401972,0.00064036413,-0.03373014,0.36540774,-0.009167448
3740000,3740000,-0.00069268077,-0.002046028,-0.00021233654,0.05407642,0.15274778,-0.08034788
3752000,3752000,-0.0011637041,-0.004616184,-0.00065392646,-0.08730696,-0.07452442,-0.022945378
3760000,3760000,-0.0024214147,-0.0044109295,-0.00152279,-0.09090869,-0.013945295,-0.099997796
3772000,3772000,-0.0008575576,-0.0037558712,-0.0011550571,0.06506583,0.06772256,0.039720222
3780000,3780000,-0.0021582795,-0.0037838952,0.00084536336,-0.11909001,-0.010717454,0.17336136
3792000,3792000,-0.0010093614,-0.0067848633,-0.0009930885,0.13624726,-0.25629175,-0.021743268
3800000,3800000,-0.0035983573,-0.0072963475,0.0020448028,-0.1929225,-0.07743951,0.24025926
3812000,3812000,0.00058298704,-0.005831796,-0.0023804286,0.30513486,-0.08338922,-0.25786728
3820000,3820000,-0.0028061492,-0.0058462666,-0.0029509189,-0.23599324,0.046803534,-0.09888953
3828000,3828000,-0.002668644,-0.0011616346,-0.00081048347,0.009159625,0.35645473,0.14426579
3840000,3840000,-0.0011609584,-0.0060571376,0.00057711924,-0.08434583,-0.2687417,0.053093344
3852000,3852000,-0.00081516535,-0.0042415853,6.9944625e-05,0.08446854,0.035549477,0.025320973
3860000,3860000,-0.002339901,-0.002988913,0.0028316414,-0.10488656,0.12010265,0.2157343
3868000,3868000,-0.0014400166,-0.0036106054,4.827218e-05,0.052173547,-0.028225556,-0.1749498
3880000,3880000,0.00038941242,-0.007852966,0.00021832556,0.13573223,-0.2532427,0.018244691
3892000,3892000,-0.002160649,-0.002449561,0.0027406625,-0.19221398,0.294358,0.10461178
3900000,3900000,-0.0018340459,-0.003644459,0.00035582756,-0.0055272505,0.00600849,-0.14940588
3912000,3912000,-0.00013021786,-0.003533233,-0.0014339223,0.08970946,-0.034598712,-0.17166139
3920000,3920000,0.0006829461,-0.0053630527,0.0006048055,0.08778114,-0.13580796,0.15214138
3932000,3932000,0.0001642541,-0.0070504304,0.0011758469,0.00565405,-0.17606366,-0.0016359494
3940000,3940000,0.0025902838,-0.00558926,0.001105671,0.20650676,0.06566273,-0.00048748197
3952000,3952000,-0.0010141775,-0.0007755908,0.00036476937,-0.23240802,0.3819975,-0.05393416
3960000,3960000,-0.0020706418,-0.004352104,-0.0023280114,-0.15005736,-0.20927899,-0.22487055
3972000,3972000,-0.00051458296,-0.006503732,0.0033403747,0.1258916,-0.09334693,0.37608477
3980000,3980000,-0.0016272268,-0.0034550012,0.00020517377,-0.055755347,0.21724883,-0.16797289
3992000,3992000,0.0003462243,-0.004333929,-0.00073359173,0.114004165,-0.020903992,-0.090858795
4000000,4000000,-0.0024962246,-0.004977656,-0.00097373786,-0.21404819,-0.053055983,-0.0064091245
4012000,4012000,-0.0007041785,-0.0039817835,-0.00020193889,0.10833387,-0.021789752,0.0188386
4016000,4016000,-0.00020968415,-0.0035430142,0.00021269982,0.11490646,0.0347303,0.05530054
4032000,4032000,-0.0018003265,-0.0018470567,0.0016592084,0.029780515,-0.009738365,0.0921671
4040000,4040000,-0.00039791944,-0.003850209,-0.0010996198,0.14538656,-0.1877774,-0.19567534
4052000,4052000,4.2491913e-05,-0.00019709626,-0.0021192972,-0.11579387,0.25128356,-0.11509087
4060000,4060000,-0.0022748844,-0.0040357765,-0.0014560138,-0.18958445,-0.22639038,0.045707934
4072000,4072000,0.00069828273,-0.0050706244,-0.0019976567,0.15809824,-0.11905868,-0.05781012
4076000,4076000,-0.00025239665,-0.0041727596,-0.0028861938,-0.012030132,0.028611967,-0.12844796
4088000,4088000,-0.005231887,-0.0006018828,-0.002621429,-0.2763142,0.18651794,0.059205886
4096000,4096000,-0.003638963,-0.0014002835,-0.0015333171,0.045735948,-0.017900372,0.11755036
4108000,4108000,-0.00037339327,-0.0020322376,0.00041699814,0.28915942,-0.14160657,0.1968934
4116000,4116000,-0.0015646643,-0.0045475024,-0.00021777845,-0.061764643,-0.2082293,-0.025831852
4132000,4132000,-0.00077573885,-0.0006935827,-1.1343567e-05,0.20303637,0.095098,0.26852557
4140000,4140000,0.0007720267,-0.0024203544,0.0016530671,0.16002281,-0.11074385,0.19221798
4148000,4148000,-0.0010417404,-0.002742889,0.00020683504,-0.088360704,-0.08628684,-0.061965756
4156000,4156000,0.00061290746,-0.006252396,0.00038379274,0.112050734,-0.31641126,0.007953716
4168000,4168000,-0.0030385088,-0.00023656315,-0.0013943443,-0.17534733,0.45805064,-0.14853069
4176000,4176000,0.00080517866,-0.0018475719,-0.000615015,0.2588886,-0.027900174,0.045843236
4192000,4192000,-0.002527865,-0.00394956,0.0010059173,-0.23714504,-0.2696479,0.041824527
4200000,4200000,-0.0036427625,-0.003445708,-0.0003611095,-0.12235549,0.02978033,-0.13518232
4212000,4212000,0.00068540504,-0.0018097598,0.0009104277,0.204041,-1.8517825e-05,0.17947115
4220000,4220000,-0.0015794309,-0.0011137323,0.0010317703,-0.18058856,-0.031537898,0.040394735
4232000,4232000,0.0015349494,-0.0019283625,-0.0006727923,0.18914837,-0.103780836,-0.106996134
4240000,4240000,0.0009814707,-0.0018064105,-0.00019047142,0.011166181,-0.0140073225,0.0029400566
4252000,4252000,0.0005989282,-0.0010945313,-0.0025269585,-0.033559218,0.006177018,-0.12287308
4260000,4260000,-0.0012455161,0.0009466456,-0.0009966306,-0.14721957,0.17524701,0.07388046
4272000,4272000,-0.0017581638,-0.0031420523,-0.00014803145,-0.12545072,-0.27000344,0.08869282
4280000,4280000,0.000382968,-0.0023896392,-0.0006464579,0.16709246,0.00040424633,-0.009592799
4292000,4292000,0.0020636092,-0.0024778838,0.001413256,0.11042644,-0.0038052222,0.16909158
4300000,4300000,0.0024149376,-0.0016137874,-0.0026662974,0.032351263,0.07532371,-0.3121455
4312000,4312000,-0.0005876372,-0.0020164247,-0.0009587849,-0.14260554,-0.06025196,0.0822736
4320000,4320000,0.00091916637,-0.0033034785,0.0004172742,0.079515755,-0.10852074,0.13579455
4332000,4332000,0.00083357043,-0.00019986834,0.00067448185,0.030303488,0.14843434,0.029498452
4340000,4340000,0.002206854,-0.001776576,-0.0010309847,0.09500288,-0.09259826,-0.12968454
4352000,4352000,0.0011456514,-0.0022620652,0.00065373303,-0.067826584,0.051728748,0.066912316
4360000,4360000,-0.0014467232,-0.0019726013,-0.0023441315,-0.24109772,0.009255644,-0.23055494
4372000,4372000,0.0021759795,-0.00072595663,-0.0007102997,0.26092422,0.1740527,0.12510294
4380000,4380000,0.00023216114,0.00027877185,-0.0011112915,-0.08633356,0.13400696,-0.011867047
4392000,4392000,-0.0042194664,-0.0006774557,-0.0015770241,-0.31498092,-0.12490145,-0.027943807
4400000,4400000,-0.0025666417,-0.00035388255,-0.0024802864,0.04671605,0.029898698,-0.08895917
4408000,4408000,-0.0022898242,-3.5022385e-06,-0.0016482078,0.034338325,0.0043562045,0.058325224
4420000,4420000,-0.00073468604,-0.0016695294,0.0015049586,0.091170676,-0.12920664,0.22883196
4432000,4432000,-0.0008758252,-0.0031113853,0.0006577765,-0.028854355,-0.0888137,-0.037460078
4440000,4440000,0.0014438624,-0.002607888,-5.486951e-05,0.22350697,0.028746711,-0.056889992
4452000,4452000,-0.0017003074,-6.238464e-05,-0.0004913721,-0.21707429,0.109752566,-0.14887601
4460000,4460000,-0.0024997005,-0.0018239096,-0.0013047024,-0.15536714,-0.15718715,-0.053070847
4468000,4468000,-0.0005893002,0.0012192014,-0.00094897894,0.15294142,0.22305241,-0.015015015
4476000,4476000,0.001434313,0.0017158766,-0.0027840547,0.18107699,0.07322804,-0.14412583
4492000,4492000,-0.0016507306,0.00026385346,-0.00018699723,-0.17264934,-0.00021320464,0.14609766
4496000,4496000,-0.0008801649,-0.0001386851,0.0009306255,-0.015622228,-0.043381255,0.20340264
4508000,4508000,0.0013748569,0.0012734828,-0.00033000828,0.1342251,0.077575855,-0.03683368
4520000,4520000,0.00047929795,0.00191708,-0.0019559371,0.024446394,0.10481517,-0.1006377
4528000,4528000,0.0008498605,-0.00090339966,-0.00027995429,0.011384957,-0.21716985,0.11052341
4540000,4540000,-0.0013278113,-0.0026345146,0.0012742128,-0.060731262,-0.15918353,0.10410006
4552000,4552000,0.00026622514,0.00010785926,0.0028918628,0.087031916,0.21855654,0.16921636
4560000,4560000,-0.00020010397,0.0008384264,0.0010299387,-0.05601395,0.08264415,-0.121750414
4572000,4572000,0.00015351083,-0.0025610295,0.0021983916,0.07379634,-0.17623232,0.07010159
4580000,4580000,-0.0006428213,-0.0007276959,-3.977085e-05,-0.057893224,0.114374146,-0.16206232
4592000,4592000,6.978575e-05,-0.000886885,0.0033190283,0.07484302,-0.087877944,0.27161446
4600000,4600000,-0.00012491585,-0.0016413187,-0.00038554842,-0.010104638,-0.025342891,-0.26835874
4612000,4612000,-0.0006221641,0.00044254726,-0.00019787741,-0.005096283,0.011916616,-0.031019956
4620000,4620000,-0.0001703389,-0.0011925693,-0.00027577922,0.028155355,-0.11971309,0.0016556995
4632000,4632000,-0.000118040596,0.00028300937,0.0038980662,0.091762684,0.057782907,0.2794671
4640000,4640000,0.001364401,-0.0024060034,0.0033173028,0.14321615,-0.23504351,0.036476646
4652000,4652000,-0.0003435415,-0.0036199926,-0.0028020574,-0.13411283,-0.046922248,-0.4018458
4660000,4660000,-0.0009974678,-0.0014620516,-0.00097461045,-0.1102695,0.17023797,0.069582984
4672000,4672000,-0.0020082507,0.0006362102,-0.00020333019,-0.063742,0.14661542,-0.09290637
4680000,4680000,-0.001502478,0.00070540933,0.00027287193,0.013893975,0.08015975,0.038411714
4692000,4692000,0.0013394,0.0006623063,-0.0058075795,0.24136953,-0.053374335,-0.4700449
4700000,4700000,0.00061498,0.0005101166,-0.0017608233,0.006191358,-0.03707271,0.23537293
4712000,4712000,-3.818341e-05,0.002667474,0.000268601,-0.023007955,0.18268082,0.096628875
4720000,4720000,-0.0017675387,0.0011479068,-0.00039182193,-0.18066299,-0.08274199,-0.0053964644
4732000,4732000,0.00081091677,-0.00086604804,0.0013657018,0.20814526,-0.066499054,0.09098652
4740000,4740000,-0.00028168294,0.0021147819,0.0013633003,-0.050165407,0.18184547,0.11804322
4752000,4752000,0.0006543639,0.0030445182,-0.0007412869,0.08136807,0.18367632,-0.1238388
4760000,4760000,0.0010931421,0.004243493,-0.0008493173,0.05766529,0.15837133,-0.022253593
4772000,4772000,-0.00026261725,-0.0004912419,-0.0047350237,-0.101091444,-0.34402537,-0.4332558
4776000,4776000,-0.00016928173,-0.0014413204,-0.0054480797,-0.047604878,-0.29824188,-0.3236427
4788000,4788000,0.00071650394,0.0002393229,-0.0033129533,-0.025217943,0.13928321,-0.012049911
4796000,4796000,0.00042231457,0.0027032518,-0.002928354,0.034854688,0.23045434,0.040106118
4812000,4812000,0.0047021178,-0.0017515309,-0.0017986235,0.10126533,-0.26374388,0.06734981
4820000,4820000,0.001856111,-0.003269731,-0.004563974,-0.18209033,-0.20914716,-0.23358124
4832000,4832000,0.00079886,0.0018191938,-0.0029697127,-0.1459091,0.40582803,0.21188577
4840000,4840000,-0.00047742098,0.0017259396,-0.0023820603,-0.15217996,0.069842845,0.08568707
4852000,4852000,0.0039647925,0.0032406761,-0.0014223667,0.28581288,0.17927594,0.08367327
4860000,4860000,0.0019715703,0.00037693372,-0.0040086033,-0.1022904,-0.19966067,-0.193784
4872000,4872000,0.00074502814,-0.0004048301,-0.0012430057,-0.06292021,-0.07975347,0.0970002
4880000,4880000,0.0034000925,0.0008792584,-0.0038298462,0.18342718,0.07354067,-0.15608525
4888000,4888000,0.002018345,0.00027614972,-2.3959496e-05,-0.106157854,-0.017163122,0.1415588
4896000,4896000,-0.0013011318,-0.000105788,0.00012840916,-0.29181144,-0.048037194,0.045703422
4912000,4912000,0.0018303911,0.00047795242,0.0004540968,0.18164167,0.050759003,-0.00019798712
4916000,4916000,0.0013146654,-0.00045111123,-0.0006143463,0.048135977,-0.07090459,-0.11493547
4928000,4928000,0.0023634094,-0.00013801828,-0.00054510566,-0.0076177865,0.05132441,0.0091645
4936000,4936000,0.0024369732,-0.0005135038,-0.00029436924,0.027981304,-0.030266983,0.016666003
4948000,4948000,-0.0022311634,0.002595339,-0.002208311,-0.34197682,0.26404202,-0.050475102
4960000,4960000,0.00027221965,0.0015394927,-0.0026290086,0.19049327,-0.13831526,-0.09293032
4972000,4972000,0.002376407,0.0006361981,0.0013468016,0.15542294,-0.08457726,0.33148116
4980000,4980000,0.0011511571,0.00027658837,0.0025757635,-0.07628332,-0.008892436,0.19008133
4992000,4992000,-0.0003713289,7.126806e-05,-0.0014352133,-0.06595433,-0.0070696464,-0.2729263
5000000,5000000,-0.00023254182,0.0019795883,0.00012954194,0.014402587,0.147818,0.06463322
5008000,5008000,0.002024818,0.0029801992,0.00014662606,0.18073943,0.14002556,-0.011984696
5016000,5016000,0.0010948912,0.00078136334,-0.0052582044,-0.042577825,-0.18598765,-0.4601357
5028000,5028000,0.0004259206,0.0016504666,0.0015660804,0.0014144331,0.1770906,0.45949513
5036000,5036000,0.0031716144,0.003085632,-0.0008633559,0.23297366,0.12620664,-0.09956117
5048000,5048000,0.001438508,0.0022892891,-0.0009211419,-0.14352134,0.0885137,0.095424764
5056000,5056000,-0.0001441628,0.0026287814,0.00034219507,-0.14972563,0.05084748,0.09886266
5068000,5068000,0.0015872605,0.0010361429,-0.0018069878,0.06395567,-0.13545136,-0.08557938
5080000,5080000,-0.00078296417,0.00067105796,-0.002590404,-0.06842679,-0.034162406,-0.09168647
5088000,5088000,0.0030870987,-6.0690567e-05,-0.0013417947,0.22977623,-0.07061127,0.063889414
5100000,5100000,0.001746303,-0.0016068295,-0.00062563876,0.0601628,-0.10359003,0.051369794
5112000,5112000,-0.0007135691,0.001033199,-0.0015908228,-0.1268742,0.21875504,-0.053172138
5120000,5120000,0.0017011667,0.0023622364,-0.0010582058,0.1474862,0.14802907,0.025883337
5132000,5132000,-0.00041534705,0.0017121041,-0.0007222613,-0.15761946,-0.006675542,-0.046190258
5140000,5140000,-0.001808662,-0.00030986872,-0.00015005947,-0.14941142,-0.18841799,0.058869027
5152000,5152000,0.0027993831,0.0028862031,-0.0014017882,0.31161863,0.226266,-0.118544854
5160000,5160000,-0.00039715762,-0.00028862013,-0.0025965695,-0.17386611,-0.1935551,-0.122936174
5172000,5172000,-0.00042510615,0.00020124298,-0.0004895172,-0.06364781,-0.010721094,0.17133692
5180000,5180000,-0.00039930386,0.0003632037,0.00037361315,0.010938607,-0.01294749,0.11018283
5192000,5192000,0.0018833808,-0.0022873469,0.0021733402,0.113278955,-0.17997587,0.14961997
5200000,5200000,0.00010410522,-0.0014661085,-0.00011110939,-0.13628264,0.025117252,-0.16763984
5212000,5212000,0.0009449059,-3.498327e-05,-0.0018178297,0.085008435,0.046410352,-0.044772275
5220000,5220000,0.00038873684,0.00028097397,-0.002205466,-0.018044643,0.042339854,-0.051132865
5232000,5232000,0.00213281,-0.0010512574,-0.0010825841,0.09619148,-0.029220916,0.019336995
5240000,5240000,0.00089914876,0.00088283606,-0.0014985648,-0.09877263,0.16355377,-0.028839549
5252000,5252000,-0.0006535852,-0.0021396587,0.0046002767,-0.05804761,-0.25555712,0.40519926
5260000,5260000,-0.0012039826,0.0016980895,0.0021907424,-0.04298275,0.29232597,-0.079941474
5272000,5272000,0.003211891,-0.0008255928,0.0024631496,0.3011068,-0.23600236,2.3180226e-05
5276000,5276000,0.0042786114,-0.0019513299,0.0009918541,0.28630787,-0.25553212,-0.15810278
5288000,5288000,0.0025920153,-0.001702358,-0.0038859134,-0.066071615,-0.062908225,-0.4013719
5300000,5300000,-0.00027293712,0.0015059123,-0.0026189806,-0.183907,0.20969567,0.15466231
5312000,5312000,0.0016603965,0.00039985264,0.00018014348,0.14453582,-0.01950433,0.17852128
5320000,5320000,0.0033922093,0.0006521768,-0.0022528556,0.1806348,0.014019184,-0.16488566
5332000,5332000,0.0015541803,-0.00011450751,-0.00025494682,-0.09932127,-0.10158292,0.23676422
5340000,5340000,0.002858467,0.000788806,0.0021652298,0.089107685,0.07569765,0.24008144
5352000,5352000,0.0007068098,0.0010023001,0.003654641,-0.17044625,-0.11999679,0.22996832
5356000,5356000,-0.0008738749,-0.002352396,0.004366658,-0.2670485,-0.42893374,0.20763059
5368000,5368000,-0.00084120827,-0.0013068989,0.0013332455,-0.003566198,0.15599266,-0.14216346
5380000,5380000,0.001291462,-0.00012715161,0.00021959821,0.06310022,0.022833297,-0.10068035
5392000,5392000,0.003242398,-0.00042522792,-0.0033020298,0.062054463,-0.09197755,-0.16459298
5400000,5400000,0.0008935764,-0.001232821,-0.002217568,-0.15305373,-0.037551522,0.043924734
5412000,5412000,0.0006970158,-0.00060368143,0.0016087841,-0.011229571,-0.059374444,0.2683356
5420000,5420000,0.002434128,0.0010683513,0.0010819912,0.13608694,0.12924573,0.011152701
5432000,5432000,0.0003530346,0.00031995447,-0.001890585,-0.16177696,-0.02529688,-0.10732355
5440000,5440000,0.0023922035,0.0011781733,-0.00097310275,0.14455682,0.06127026,0.031579375
5452000,5452000,0.00040863513,-0.00035272073,-0.0012203022,-0.123499334,-0.059876643,-0.008218781
5460000,5460000,-0.00082351756,0.00094393035,0.0010545091,-0.1420966,0.08322559,0.19597004
5472000,5472000,-0.00024392619,-0.0010280167,-0.00036189554,0.03926285,-0.1619445,-0.12124622
5480000,5480000,-0.00095920847,-0.0011528884,-0.0012411752,-0.043113053,-0.041776013,-0.11417616
5492000,5492000,0.00096100126,0.00028471788,-0.0025123043,0.14091614,0.042287212,-0.09641445
5500000,5500000,-0.00066110736,0.0011683297,-0.001172074,-0.088974416,0.07384625,0.09210893
5512000,5512000,0.0012453302,0.0026380413,-0.0020557079,0.09927117,0.15127072,-0.04453313
5520000,5520000,-0.00114386,0.0022433107,0.00080358307,-0.19498484,-0.010672634,0.24552748
5532000,5532000,0.002354908,0.0020337726,-0.0016771905,0.2512794,0.03343335,-0.13825622
5540000,5540000,0.0010381307,0.00064420747,-0.0012831562,-0.02066684,-0.11650498,-0.012534594
5552000,5552000,0.002235494,0.0014417628,0.0006769544,0.056826785,0.03502021,0.16784614
5560000,5560000,0.0028271182,-5.61974e-05,-0.00022464292,0.069216676,-0.11779941,-0.04662977
5572000,5572000,-1.0838383e-05,0.0025096103,-0.001809689,-0.18887092,0.18286794,-0.0709634
5580000,5580000,0.00052871194,0.003666759,-0.0013516942,-0.029339619,0.11796389,0.017111687
5592000,5592000,0.0003716218,-0.0016415636,-0.0007181759,0.046861522,-0.25719613,0.0059658205
5600000,5600000,-0.00089892896,-0.00057574967,-0.0017739756,-0.09121992,0.030942636,-0.070688166
5612000,5612000,0.0014638135,9.359792e-08,0.00078190153,0.15004338,-0.020147048,-0.004685555
5620000,5620000,0.0020867323,-0.0003979085,-0.0031856303,0.07986738,-0.04703801,-0.35275656
5632000,5632000,-0.0025627743,0.0012499052,-0.0014095025,-0.2685854,0.13001905,0.12908316
5640000,5640000,0.00047948444,0.0015598563,-0.00028631362,0.187716,0.0750196,0.1349054
5652000,5652000,-0.0010918466,0.0008527152,-0.0003728313,-0.08542666,-0.02919971,-0.041454904
5660000,5660000,0.0017015947,4.5068562e-05,-0.0002709503,0.2107497,-0.04663459,0.0091976905
5672000,5672000,-0.0019129292,0.001072011,-0.0008696597,-0.22225022,0.038718253,-0.045195755
5680000,5680000,-0.0010319479,0.0022979989,0.0013889525,0.018692888,0.10915659,0.17510915
5692000,5692000,-0.0006015444,0.0019629034,-0.0009036507,-0.005020907,-0.00843544,-0.15020022
5700000,5700000,0.00101008,0.004084776,-0.00019235665,0.12898842,0.16738206,0.018630061
5712000,5712000,0.00036889268,0.0017708871,-0.0010610825,0.0041438756,-0.1332345,-0.161047
5716000,5716000,0.00010028551,0.00048054196,-0.0019498081,-0.026503911,-0.21463093,-0.18732679
5732000,5732000,0.00012624892,-0.0010908879,0.00043094315,0.20729627,-0.009044991,0.059844922
5740000,5740000,0.0018322555,3.9301813e-07,-0.0002865236,0.15622048,0.07960445,-0.025643954
5752000,5752000,-4.4757733e-05,-0.0003604684,-0.001748505,-0.07478644,-0.07382198,-0.11788207
5760000,5760000,0.000100578996,0.0014862497,0.00015318092,-0.010219294,0.16507226,0.14759476
5768000,5768000,0.0008033935,0.0014332831,0.0030499813,0.069114126,0.020845931,0.26016432
5780000,5780000,-0.00017774256,-0.00016277423,-0.0009243995,-0.08301112,-0.06896284,-0.18626757
5792000,5792000,0.00096186786,-0.0015412383,0.0031047699,0.08998727,-0.14658415,0.27706757
5800000,5800000,-0.0010331247,-0.0006992915,0.00039322133,-0.16487072,0.043290157,-0.18168744
5812000,5812000,-0.0002598546,0.0023692877,-0.0012460029,0.0881425,0.25795537,-0.12797791
5820000,5820000,-0.0010182599,0.0026712422,-0.00085162476,-0.047502533,0.04006481,0.02335646
5832000,5832000,0.002491938,-0.0018615709,-0.00048662693,0.3061344,-0.29280457,-0.04861845
5840000,5840000,0.0028170967,-0.0043524783,-0.00125017,0.09363187,-0.24803534,-0.079247855
5848000,5848000,0.0028880686,-0.0012903376,-0.001601482,0.06567454,0.15527755,-0.04272621
5856000,5856000,0.002688434,-0.0013873698,-3.255991e-05,-0.020651136,0.031157177,0.11065726
5872000,5872000,0.001130673,-0.0014640675,-0.0019361216,-0.07075002,0.052434076,-0.050471906
5880000,5880000,0.0015841129,0.0004108185,0.0020872396,0.051872402,0.1661028,0.30159
5888000,5888000,0.0018834565,-0.00030261464,0.00037131913,0.0036864802,-0.025236597,-0.06256891
5900000,5900000,0.00036748452,0.0031687003,0.0005357519,-0.0473397,0.25546402,-0.00035474004
5912000,5912000,0.0022690145,0.0017133318,-0.0020615084,0.13497965,-0.10491201,-0.16151208
5920000,5920000,0.00066166755,0.00093366066,0.002424459,-0.1103203,-0.04065923,0.29018113
5932000,5932000,0.00053269335,0.0002488154,0.0013613456,-0.0048019104,-0.115664914,-0.016627772
5940000,5940000,0.002372961,0.000696443,0.00013558444,0.14804548,-0.022309843,-0.119118735
5952000,5952000,-0.0018897025,0.0012502144,0.00081325654,-0.27126232,0.12808436,0.060282018
5960000,5960000,-0.0021042605,0.00046516443,0.00149366,-0.091511525,-0.030763432,0.08669758
5972000,5972000,-0.0028549186,-0.00054498576,0.0018782651,-0.044366866,-0.07088892,0.009517628
5980000,5980000,0.0005763917,-0.00026088813,0.0027854084,0.27891552,-0.003619612,0.06830639
5992000,5992000,0.0004240789,0.0016260962,0.0017412148,0.0025713257,0.11143345,-0.06130478
6000000,6000000,0.0015905822,0.0009197551,0.0005711678,0.096793115,-0.026862852,-0.114717945
6012000,6012000,0.000790424,-0.0024594306,0.0016484351,-0.035710603,-0.29337987,0.05783761
6020000,6020000,0.002420229,-0.0012862575,0.0018559172,0.09824037,0.045670293,0.0022412844
6032000,6032000,0.000280321,0.00011506351,0.0014076963,0.017324165,-0.023237767,0.096168414
6040000,6040000,0.0004420256,-0.0026967735,0.0024542669,-0.016728166,-0.1874066,0.099373505
6048000,6048000,0.00071084744,0.0026200437,0.0030023884,0.05513091,0.39886135,0.09256981
6060000,6060000,0.0029353164,0.0007198509,0.0031553437,0.10490563,-0.106427856,-0.036081314
6072000,6072000,-0.0004421455,0.00029099314,0.00012816396,-0.19991672,-0.09506834,-0.19829652
6080000,6080000,0.00055697456,-0.0008725845,0.00016976736,0.016544282,-0.12216256,-0.06921269
6092000,6092000,-0.0012643376,-0.00051256316,-0.0010991751,-0.076970346,-0.038726423,-0.10277879
6100000,6100000,0.00034171867,-0.0022209776,-0.0009801844,0.1235105,-0.11404944,-0.0073742326
6112000,6112000,0.0024261586,0.0021390943,0.00030988376,0.0357686,0.20807165,0.051088545
6120000,6120000,0.00043239119,-0.0011336454,0.00042399045,-0.14788386,-0.22167847,0.039351027
6128000,6128000,-0.0005994836,0.0018986533,0.0015920567,-0.11195594,0.24759021,0.10364907
6136000,6136000,0.002868394,0.0011067325,0.0009133304,0.25335944,-0.071422115,-0.014839086
6148000,6148000,-0.0027282052,0.0011057379,0.00041656333,-0.31727856,0.13753521,-0.10563088
6156000,6156000,-0.00045129366,0.0037607383,-0.0014461846,0.10857575,0.23884663,-0.1881305
6172000,6172000,0.00038587942,-0.002119023,0.0016403219,-0.10711602,-0.22420122,0.25351763
6176000,6176000,-0.0006562717,-0.0010141474,0.0016924712,-0.17306726,-0.009086217,0.15014264
6192000,6192000,0.0029179766,-5.7006255e-05,-0.003890268,0.21564135,-0.15080723,-0.4461811
6200000,6200000,0.0028945906,-0.00083094696,-0.004946609,0.050342835,-0.088193156,-0.161114
6212000,6212000,0.0010867242,-0.0024153534,0.00046940165,-0.11307441,-0.08816756,0.31143436
6220000,6220000,0.0009543366,-0.0022927588,0.004060956,-0.030061826,-0.024088625,0.39926612
6232000,6232000,0.0011759943,0.0011033104,-0.0006100423,-0.0049575064,0.18188713,-0.30644238
6240000,6240000,0.003478521,0.0015550051,-0.0015689279,0.21278661,0.10611315,-0.12596467
6252000,6252000,0.000997202,0.0011636843,0.001036681,-0.155799,0.027302338,0.10692203
6260000,6260000,0.0026203766,-0.00022882828,0.00093878194,0.080726065,-0.13501371,0.02904096
6272000,6272000,0.00030709908,-0.0050620744,0.0003394888,-0.17081472,-0.24629818,-0.076147065
6276000,6276000,0.00048019865,-0.0030377498,0.002577899,-0.07878427,0.07712625,0.19714189
6292000,6292000,0.0012977275,0.0019189208,-0.00097580184,-0.15027864,0.23539218,-0.32170057
6296000,6296000,0.00064161094,0.0014657862,-0.0009999401,-0.15618955,0.08550731,-0.18600559
6308000,6308000,0.00078333763,-0.00051416736,0.0015008762,-0.023861121,-0.09192295,0.15047425
6316000,6316000,-0.0011888981,-0.0015448211,0.0017388276,-0.155901,-0.113961264,0.06956551
6328000,6328000,0.00072914676,-0.0034990609,6.0500883e-05,0.007895604,-0.22347379,-0.120508365
6336000,6336000,-0.000291285,-0.00067312457,-0.0008661925,-0.042702347,0.20760183,-0.1124336
6352000,6352000,0.0009285436,0.0006043748,0.0007113619,-0.07434696,0.08828583,0.06266775
6360000,6360000,0.00032841554,0.0026765908,0.0012764668,-0.05052402,0.17955911,0.06393973
6372000,6372000,0.0021255766,-0.0011215382,0.0014880633,0.111691706,-0.2766396,0.12211405
6380000,6380000,0.0007696797,0.0003137961,0.0025176848,-0.08846159,0.06278089,0.080778345
6392000,6392000,0.0019391667,0.0013209865,-0.0015856995,0.106710225,-0.05104019,-0.25754076
6400000,6400000,0.0005040965,-0.0022090469,-0.0019447439,-0.085678734,-0.3132768,-0.09048787
6412000,6412000,0.0007196878,-0.0028222585,0.0002272112,-0.012190717,-0.066636205,0.08688257
6420000,6420000,0.0013450773,0.00067441724,-0.0010110249,0.046686094,0.32134882,-0.053067684
6432000,6432000,0.001874607,-0.0001016208,-0.00059061457,0.078968436,-0.110984966,-0.028046915
6440000,6440000,0.0018609528,0.0013056248,-0.0017933502,0.016074749,0.09604127,-0.08829888
6448000,6448000,0.00053636765,0.00095969066,-0.0016453435,-0.107742496,-0.0033248565,-0.028897757
6456000,6456000,0.00025710952,0.0009893179,-0.00093385065,-0.04394961,0.02469854,0.07019713
6468000,6468000,-0.00045553863,0.00186837,0.0042956914,-0.1103436,-0.027313016,0.38368723
6476000,6476000,0.00090634497,0.0020916928,0.0015530187,0.10091605,0.0199909,-0.14554036
6492000,6492000,0.0010274248,0.00031056814,-0.0015433814,0.05830527,-0.05053866,-0.03254869
6500000,6500000,-3.078382e-05,-0.00023742113,-0.002177524,-0.08234352,-0.040268622,-0.061646022
6512000,6512000,0.0016820843,0.0006277254,-0.0009313348,0.12185298,0.04808136,0.04798342
6520000,6520000,0.0033342573,-0.0016335356,-0.00071811985,0.1660038,-0.1616796,0.036710832
6532000,6532000,0.0008983403,0.0011910321,-0.0010049217,-0.15689328,0.15844193,-0.025924245
6540000,6540000,0.0014718854,0.00083673093,-0.00064806687,0.0129086,0.012173126,0.05375909
6552000,6552000,-0.0003246416,0.0017491328,0.0005578394,-0.10816716,0.05925991,0.10855071
6560000,6560000,0.003902129,0.00072830543,0.0032408834,0.3337931,-0.05010553,0.26170415
6572000,6572000,0.003980633,-0.00020261295,-0.0009138171,-0.011965908,-0.15195592,-0.3353146
6580000,6580000,0.0014574343,0.0018566814,-0.0013209021,-0.20648132,0.18488535,-0.04960553
6592000,6592000,0.0023272722,-0.0009377436,0.0003809225,0.047899045,-0.17490701,-0.0966872
6600000,6600000,2.4386449e-05,0.0032413052,7.609377e-05,-0.19760908,0.26739913,-0.019904757
6612000,6612000,0.0013202645,0.0006832238,-0.003303478,0.13227025,-0.05664537,-0.24773335
6620000,6620000,0.0014766193,-0.00066242553,0.00036770976,0.07167472,-0.15358885,0.2533234
6632000,6632000,0.0021793377,-0.002198835,0.0033732736,-0.075217955,-0.09371381,0.235894
6640000,6640000,0.0002123625,-0.00022431323,0.0025486967,-0.1654456,0.15253703,-0.030309198
6652000,6652000,0.0005089233,0.000686747,-0.0019039504,0.0013384484,0.104276046,-0.2319392
6660000,6660000,0.0033519047,-0.0013733548,-8.79321e-05,0.2506107,-0.16098957,0.0668517
6672000,6672000,0.0033800974,0.0006467933,-0.0010947853,0.0071297884,0.11568029,-0.035117406
6680000,6680000,0.00015084073,0.0031772691,0.0013403087,-0.27811527,0.23477066,0.18630314
6692000,6692000,0.0001701552,-0.0017289282,0.00042496927,-0.0639234,-0.22860792,-0.074086286
6700000,6700000,0.00033094338,0.0009055226,-0.00096844626,0.011468697,0.12603034,-0.14162692
6712000,6712000,0.00063899194,-0.0014102906,-0.00062094687,-0.019015498,-0.052841157,0.082959965
6720000,6720000,0.00027163234,0.00031106547,-0.0009134532,-0.02375257,0.10317245,-0.04883355
6732000,6732000,0.0042962367,0.0013858555,-0.0005351998,0.23841,0.15428035,0.03985633
6740000,6740000,0.0026515955,0.0028958886,0.0001596789,-0.0931371,0.13569795,0.11040999
6752000,6752000,0.0028009457,-0.00086535467,-0.0017107143,0.09854767,-0.20044781,-0.22264968
6760000,6760000,0.00049424276,0.0007692133,-0.0015661318,-0.20073284,0.108119786,-0.15110971
6772000,6772000,0.0006618228,0.00086204195,0.0035939706,0.10616852,-0.049487513,0.38206404
6780000,6780000,0.0023295819,0.0011485745,0.0031415431,0.13775823,0.039562788,0.045452848
6792000,6792000,0.0010573193,0.00031017186,0.0016659868,-0.010876168,-0.058933273,-0.021185933
6800000,6800000,0.0013940405,0.0007418622,0.002299177,0.043135203,0.021553226,0.022804357
6812000,6812000,0.0010498016,-0.0010559056,-0.0018215424,-0.07096856,-0.07906516,-0.2967836
6820000,6820000,0.0004385995,0.0021215903,-0.0021651469,-0.04468132,0.23967484,-0.082172036
6832000,6832000,0.00035520142,-2.0125415e-05,0.0016715971,-0.05113042,-0.035144534,0.24719566
6840000,6840000,0.0012210303,3.2605603e-06,0.0007763884,0.067926444,-0.047869947,-0.03447535
6848000,6848000,0.0028745392,0.0002774978,-0.001662412,0.14502925,0.042008214,-0.17113973
6856000,6856000,0.0018510045,0.001871093,0.0008831666,-0.042105593,0.121862926,0.14914958
6872000,6872000,0.00028408726,0.0022296822,0.0029569792,-0.047371775,0.11554055,0.13326293
6880000,6880000,0.002578889,0.00054250145,0.0018676508,0.19113106,-0.10170288,-0.045184437
6892000,6892000,0.0016309209,-0.0022696261,0.0035680684,-0.16525067,-0.29080117,0.094449095
6900000,6900000,-0.0011085683,-0.0011889064,0.000682362,-0.2660452,0.05317754,-0.20492542
6912000,6912000,-0.002614522,-0.0002877107,0.0028237328,-0.118044786,-0.09129076,0.0828357
6920000,6920000,0.00080576184,-0.0035322378,0.00019556092,0.26368114,-0.28820413,-0.20093927
6932000,6932000,0.0009953782,-0.0026478306,0.000986606,-0.023513384,0.12065411,0.023868086
6940000,6940000,0.0013062514,0.000859594,-0.00063226174,0.019192526,0.2744663,-0.11826234
6952000,6952000,2.4763518e-05,2.0316336e-05,0.0029615797,-0.0866805,-0.029306673,0.19075692
6956000,6956000,0.00039731083,-0.00059446506,0.0016514197,-0.009382639,-0.082777485,-0.03204277
6972000,6972000,0.0008815382,-0.0008488721,0.0004333665,0.042703457,-0.06610247,0.084474735
6980000,6980000,0.00014510157,0.0024655038,0.002031474,-0.03780862,0.29417843,0.13308749
6992000,6992000,0.00043160818,0.00073228916,-0.0008696271,-0.0404822,-0.22458939,-0.20413801
6996000,6996000,-0.00029073097,-0.00063445093,-0.0027972856,-0.10070794,-0.27492517,-0.32354552
7008000,7008000,0.0006989885,0.00037511112,0.0018851147,-0.0015544966,0.02180265,0.2353214
7016000,7016000,0.0028636777,0.0005623936,0.00048806187,0.20571017,-0.0068730405,-0.04494685
7032000,7032000,0.0017194658,-0.0007720259,0.0021705965,-0.07059573,0.06788333,0.09241907
7040000,7040000,0.0017955075,0.00236751,0.00025171804,-0.023500962,0.28527144,-0.15494932
7052000,7052000,-0.0012418727,-0.00027670618,-0.0005694323,-0.17136097,-0.19589424,-0.050012913
7060000,7060000,-0.002012345,-0.0007572244,0.0017350751,-0.1409628,-0.07734229,0.18875961
7072000,7072000,0.0005362744,0.0010231216,-9.290245e-05,0.14513297,0.043060496,-0.090725034
7080000,7080000,-0.0014809623,-5.5490527e-05,-0.0013455369,-0.10411093,-0.042814765,-0.1301382
7088000,7088000,-0.0021780278,9.0124086e-05,0.00016894704,-0.10669989,-0.012253914,0.09931485
7100000,7100000,0.0009805337,0.00023793429,-0.00092490984,0.25981972,0.08584334,-0.1125401
7112000,7112000,0.002067624,0.0007455554,-0.0015144751,0.08373814,-0.08365321,-0.035134077
7120000,7120000,0.001524433,0.0017157868,-0.0009947475,-0.032499578,0.0914983,0.0026170404
7132000,7132000,0.001447357,0.0045237597,-0.0005326611,0.07822633,0.15972903,0.08349864
7140000,7140000,0.0032378647,-0.00014505768,0.0007829416,0.15526879,-0.3475933,0.11788781
7152000,7152000,0.0014217137,-0.0012191888,-0.0018150157,-0.09382778,-0.097393885,-0.10602665
7160000,7160000,0.0011216069,-0.0007740841,-0.00080896483,-0.05498003,-0.014488507,0.06367254
7172000,7172000,0.00021274935,-0.0005039121,0.002517582,-0.031640485,0.1256204,0.20448823
7180000,7180000,-0.001981732,0.002022847,0.0022748034,-0.20875822,0.24832669,0.038905207
7188000,7188000,-0.0007265018,0.0039792727,0.0042449813,0.0719626,0.25032786,0.19750334
7196000,7196000,0.0014326943,0.004340221,0.00096743053,0.19052194,0.0684316,-0.24562438
7212000,7212000,0.0016076665,0.00028202403,-0.0009443979,0.022988223,0.017614365,0.030320838
7220000,7220000,-0.0007943936,0.00040724175,0.0013410051,-0.20155308,-0.038879473,0.18650904
7232000,7232000,-0.0015950546,0.0007975246,0.0008430765,-0.043432243,0.05088178,-0.050697844
7240000,7240000,0.0014647227,-0.00085204747,-0.0019549895,0.24386978,-0.117242604,-0.24624607
7252000,7252000,0.0049374215,0.0006262427,0.0002726706,0.31126463,0.06791854,0.119632125
7260000,7260000,0.004328929,-0.00035939086,0.0010959298,0.020008571,-0.036576375,0.12101973
7272000,7272000,0.0024560913,-0.0024750275,0.0007956081,-0.07132758,-0.20212951,-0.015594978
7280000,7280000,0.003550482,-0.00014587911,0.0008424246,0.05005965,0.1277799,0.004833073
7292000,7292000,0.0009864001,0.0013459167,-0.00022159074,-0.14734171,0.1543118,-0.10355382
7300000,7300000,0.0027665754,0.00362929,0.0016564587,0.11065377,0.21685506,0.15162274
7312000,7312000,0.0012967711,0.0019536298,0.0024817842,-0.11302833,-0.009575883,0.09178498
7316000,7316000,0.000977777,0.0031775525,0.0034829073,-0.0987224,0.12607206,0.15991738
7332000,7332000,0.0019780025,0.001029436,0.0011721866,-0.061644673,-0.09921804,-0.06573799
7340000,7340000,-0.00054359843,-0.0024626716,0.0017683497,-0.2165272,-0.3210809,0.026654126
7352000,7352000,-0.00023760903,-0.0015646,0.0018340078,-0.12504372,0.06924103,0.0012558207
7360000,7360000,-0.0025327378,0.00020471029,-0.00051290623,-0.18235222,0.18990517,-0.19830146
7372000,7372000,0.0010871144,-0.0017271633,0.0024524261,0.15224135,-0.21580264,0.19686528
7376000,7376000,0.0003839112,-0.002048917,0.0031037023,0.011226252,-0.1576138,0.18222986
7392000,7392000,-0.00033348624,-0.0021985583,0.00048076897,0.16975074,-0.03203947,-0.16607282
7396000,7396000,0.00019092066,-0.0012147482,0.00022830977,0.15313673,0.08746062,-0.12181438
7408000,7408000,0.0014832215,0.0002344437,0.0021092761,0.15554065,-1.1527067e-05,0.05837755
7420000,7420000,-0.0020701014,-0.0021228143,0.0018998915,-0.21606693,-0.14411464,-0.028013827
7432000,7432000,0.00053683773,-0.0018247417,0.0022664303,0.08622826,0.09970317,0.12543838
7436000,7436000,0.00011752348,-0.00082935253,0.0028635724,0.0040988848,0.16381559,0.13568951
7452000,7452000,0.001858136,-0.001420137,0.001171093,0.078184836,-0.24153474,0.0941911
7460000,7460000,-0.0012982261,-0.0035980125,0.0008881983,-0.23048258,-0.24365947,-0.019140434
7472000,7472000,0.0039164308,-0.002131618,-1.8300023e-05,0.29210794,0.043617547,0.0075205127
7480000,7480000,0.0019608412,-0.00022146152,0.0014598022,-0.06904842,0.19525816,0.13224633
7492000,7492000,-0.0036049732,-0.0003367355,0.00044286135,-0.5048092,-0.060426038,-0.13151337
7500000,7500000,-0.0034750775,-0.0023367773,0.0009455265,-0.095747665,-0.15733203,0.02026661
7508000,7508000,-0.0015333156,-0.000107854605,0.0013240149,0.12331357,0.15046138,0.023374902
7516000,7516000,-0.002084387,0.0017530902,-4.920992e-05,-0.022098675,0.17907093,-0.10104801
7528000,7528000,0.00027858873,0.0024267826,-0.001955199,0.14628407,0.14434648,-0.17198983
7540000,7540000,0.00032356533,0.0020554601,-0.00066929485,0.042214397,-0.0006184149,0.07818787
7548000,7548000,0.0014552352,0.00024504587,0.00035352563,0.102087066,-0.1836704,0.08908068
7560000,7560000,0.0020902983,-0.0003480669,-0.0006061123,0.03579816,-0.05073913,-0.027931793
7568000,7568000,0.0015202739,0.0009774691,0.0027453112,-0.03642533,0.12392054,0.3018606
7580000,7580000,-0.00016538892,-0.0015452593,0.0005073815,0.004532978,-0.23526171,-0.18186295
7592000,7592000,0.0014428537,0.0009748228,-0.0034614448,0.004700005,0.121177666,-0.22495194
7596000,7596000,0.0007572112,0.0013378221,-0.0035526925,-0.07100447,0.10809768,-0.13805826
7608000,7608000,0.0011442081,0.00058131805,0.002322688,0.022193985,-0.020812526,0.400471
7616000,7616000,0.00012099778,-0.0022911518,0.0012817032,-0.08443527,-0.2788372,0.015708292
7632000,7632000,-0.0020504058,0.0011878549,0.0021259123,-0.10292602,0.18632147,0.18107617
7636000,7636000,-0.0024001752,0.0003796937,0.0011147206,-0.09627007,0.019376852,-0.0054327766
7652000,7652000,0.00077064993,0.0021956721,0.0006761919,-0.018206969,0.13373215,0.022450307
7660000,7660000,0.0023335498,0.0032438263,0.0018337751,0.17713001,0.13531789,0.096927054
7672000,7672000,-0.001596334,0.0006121886,0.0016105733,-0.3359,-0.1592308,-0.08275785
7680000,7680000,0.00084827526,0.0013149246,0.00046916108,0.12803833,0.0048572123,-0.0954301
7688000,7688000,3.8096798e-05,0.0018618298,0.001971487,-0.061933026,0.056025717,0.101525575
7700000,7700000,-0.0011017112,-0.00033694552,0.0015994818,-0.057173777,-0.21391293,-0.025170429
7712000,7712000,0.0007206858,-0.0025516558,0.0059991195,0.12269686,-0.11121517,0.34980375
7720000,7720000,0.00086457364,-0.0026491447,0.002371793,0.04223161,-0.033036064,-0.23712188
7732000,7732000,0.00036538986,0.0019113645,0.0006398176,0.017774433,0.29206485,-0.055696953
7740000,7740000,0.00041076634,0.002675678,0.00080413296,-0.0027749743,0.1339103,0.0026452956
7748000,7748000,0.00033371267,0.00022127992,5.455222e-07,-0.00534129,-0.16831926,-0.086295605
7756000,7756000,0.0011501429,-0.00030621188,0.0027427878,0.063389935,-0.08325636,0.23508342
7768000,7768000,0.0016069919,-0.00015616743,0.0010319018,0.026122592,-0.09293315,-0.111287996
7776000,7776000,-0.0011303268,-0.0019706641,0.0022036717,-0.2211703,-0.15730074,0.07174142
7788000,7788000,0.0018974658,-0.0012033251,0.0009554482,0.19697095,-0.023850994,-0.10951044
7796000,7796000,0.0012362059,-0.0004451084,-0.00019685272,0.020157065,0.059714023,-0.099644504
7808000,7808000,0.0024237111,0.0031522524,0.0010473642,0.020552926,0.17610522,0.014549664
7816000,7816000,0.004237394,-0.000338051,-0.0008506727,0.1545762,-0.22434288,-0.16640358
7832000,7832000,-0.00042080006,0.0004330543,0.004266991,-0.1433698,-0.19723727,0.2593662
7840000,7840000,0.001793602,0.002299092,0.0013941026,0.1453429,0.12986358,-0.15740427
7852000,7852000,0.0014498562,-0.0024341778,0.00025307573,-0.08817935,-0.32731974,-0.102059335
7860000,7860000,-5.0037284e-05,0.0005586399,-0.0005735721,-0.108323574,0.1605816,-0.10982536
7868000,7868000,0.003148608,-0.0014168136,0.0030266882,0.22254193,-0.15234938,0.3155228
7876000,7876000,0.0011994556,-0.00033409148,0.001956135,-0.113973305,0.092311196,-0.06253503
7888000,7888000,-0.0011874979,0.0010178066,0.002394286,-0.11430831,0.01972051,0.050978787
7900000,7900000,-7.612037e-05,0.00030578533,-0.0026351903,0.03720642,-0.008690554,-0.35410082
7908000,7908000,0.0016995167,0.0011019572,0.0008977829,0.15198365,0.037687756,0.20944914
7916000,7916000,0.0013531214,-0.002361272,-0.0012937767,0.025616571,-0.27150068,-0.16169073
7928000,7928000,0.0013402781,-0.00073104305,-0.001520106,0.0061244504,0.055684783,0.0725793
7936000,7936000,0.0009836263,-0.0012543518,0.00052128127,-0.03978784,-0.02545987,0.17130367
7952000,7952000,0.00045310974,0.00017962093,0.00083422934,-0.10305856,0.010420653,0.06784108
7956000,7956000,6.708654e-05,-3.461307e-05,0.0023531462,-0.100241736,-0.017081995,0.2019121
7968000,7968000,0.0004125532,0.00046492973,0.001337861,-0.06906216,0.07541042,-0.033414375
7976000,7976000,-0.0015832199,-0.00019124616,0.0014117233,-0.16831803,-0.06318728,0.06976167
7988000,7988000,-0.0005170088,0.0023757,0.00029316702,0.08769622,0.23934913,-0.070852496
7996000,7996000,0.00052888494,-0.00035437522,-0.0001974809,0.09694895,-0.17345123,-0.06375036
8012000,8012000,0.0004843626,-0.00037421612,0.00012454373,0.06297228,-0.062559545,-0.07363188
8020000,8020000,-0.000111461035,0.0005229041,-0.0016175292,-0.025226522,0.06381605,-0.13821201
8032000,8032000,0.0009958041,0.0028665503,0.00028301965,0.093996726,0.25530115,0.0666842
8040000,8040000,0.0004717001,0.0029698452,-0.0006329069,-0.011524012,0.060073026,-0.07769432
8052000,8052000,0.00060271623,-0.00139031,9.915442e-05,-0.008543918,-0.2072955,0.15073864
8060000,8060000,0.002543482,0.0008342783,-0.00036424265,0.18331078,0.11936072,-0.0042210277
8072000,8072000,-0.00061085774,0.0017244262,0.0012520531,-0.23902602,0.09139563,0.09544968
8080000,8080000,-0.0007467804,0.0030561043,-0.0011977159,-0.051140927,0.110603414,-0.18768029
8092000,8092000,0.0004978337,-0.00052796165,-0.0008727502,0.023562718,-0.113100864,-0.010455615
8096000,8096000,0.00056093204,0.0002555037,-0.00050637557,0.02021484,0.019714504,0.033412185
8112000,8112000,0.0015474093,0.00045236945,-0.0010196795,0.073558494,-0.048295356,0.0037193066
8120000,8120000,0.0010283192,0.0019025211,-0.0007890633,-0.029390821,0.13133697,-0.0017457842
8132000,8132000,0.00033640332,0.0020667976,0.00093615387,-0.07033417,-0.041873742,0.13830706
8140000,8140000,-0.0014602324,0.0011210092,0.0012035514,-0.16230358,-0.05569409,0.061071396
8152000,8152000,-0.00058167556,-0.0011812965,-0.0014971928,-0.039718863,-0.19883195,-0.11806843
8160000,8160000,0.0007231269,-0.0011187517,-9.207404e-05,0.17469774,-0.065675914,0.033796787
8172000,8172000,0.0022046273,-0.0015935344,0.00021909445,-0.03381343,-0.07415242,0.06766641
8180000,8180000,0.0008398766,-0.0013617259,-0.0013987009,-0.09128162,0.051174637,-0.12324021
8192000,8192000,-2.5185873e-05,0.0009340062,0.0023953533,-0.18166144,0.067689545,0.29967
8200000,8200000,-0.0006876205,0.0015024934,0.0013927808,-0.0869256,0.08373786,-0.004580675
8212000,8212000,0.00014876854,0.0032368356,0.0006270889,0.008468632,0.059121944,-0.05337947
8220000,8220000,0.0018096564,-0.00016997289,-0.00052687246,0.15356676,-0.23934424,-0.12902604
8232000,8232000,-0.0008667266,0.0015198318,0.00308968,-0.19072935,0.0034025372,0.28945008
8240000,8240000,0.00015158684,0.0012988816,0.0017292617,0.04069251,0.008907107,-0.049509913
8252000,8252000,-0.001941146,0.0008361712,-0.0029903885,-0.18901151,-0.04798699,-0.3300104
8260000,8260000,-0.00062377786,0.0008175955,-0.0026427554,0.074482985,-0.03656777,-0.06946988
8272000,8272000,0.002411493,0.0010094857,-0.0011513451,0.22946459,0.12410782,0.097896695
8280000,8280000,0.001225965,0.0013878993,-0.0010111859,-0.07100621,0.006452947,0.051957477
8292000,8292000,-0.0011201183,-0.001361635,0.0016995064,-0.121035054,-0.10598363,0.18374619
8300000,8300000,-0.0016535755,-0.0006865519,0.0011536144,-0.071708046,0.027352396,0.024539132
8312000,8312000,0.0006977003,0.00081257103,0.00085490465,0.052020743,0.12521653,-0.049253445
8316000,8316000,-0.00089408236,0.0016497846,0.0010064624,-0.1414058,0.16136286,-0.011793445
8332000,8332000,0.0041786716,0.0020913882,0.0008978291,0.22955824,-0.043555215,-0.049779914
8340000,8340000,0.0016514304,0.0005122158,0.00036674467,-0.11891283,-0.13497631,-0.05068731
8352000,8352000,0.0043365085,0.0029043083,-0.0011556235,0.15489408,0.12577859,-0.115484565
8360000,8360000,0.0012919034,0.0013151062,-0.00085979654,-0.22276947,-0.10219641,-0.032533996
8372000,8372000,0.0016588417,-0.00018730061,-0.002362315,0.038438115,-0.10852702,-0.030886086
8380000,8380000,0.0020669298,0.00088115735,0.000571933,0.02251704,0.048011627,0.24107753
8392000,8392000,0.0016791815,-0.00038124202,-0.00058664463,0.067946345,0.0058578863,-0.08816154
8400000,8400000,0.0031097636,0.00061278744,-0.00053978886,0.12407467,0.058105938,-0.013407622
8408000,8408000,0.001666601,-0.00066286186,-0.0016619784,-0.08986912,-0.07366723,-0.10008192
8416000,8416000,0.00033190032,-0.00068196375,-0.0012190874,-0.1294415,-0.027576411,0.01973198
8432000,8432000,-0.0006423695,-0.00094365096,-0.0007864147,-0.14018513,0.04423485,0.049361028
8440000,8440000,-0.0013114839,0.0021486601,0.000664927,-0.05966033,0.227417,0.15747984
8452000,8452000,0.002100071,0.0009848438,0.0022778665,0.22139396,-0.027220353,0.11124185
8460000,8460000,0.0024921983,0.00024531968,0.0018895287,0.09568592,-0.07426987,-0.0054309606
8472000,8472000,-0.00046170503,0.0018272642,-0.00035275496,-0.18904866,0.08247277,-0.15912366
8480000,8480000,0.00056922814,0.001480184,0.00018382026,0.036175348,0.0067765065,0.0050535128
8492000,8492000,-0.000182649,0.00023204042,0.0010595245,-0.10978126,-0.06404908,0.09053955
8500000,8500000,-0.00056477473,-0.00067947665,-0.00059170567,-0.0144599825,-0.084072776,-0.15072992
8512000,8512000,0.0018374671,0.0025608942,0.00024240691,0.068223044,0.14943649,0.15296617
8520000,8520000,0.00060115394,0.0011896132,0.0023063244,-0.05977616,-0.061688893,0.20561653
8532000,8532000,-0.000954514,-0.00010201102,0.0018237411,-0.17068172,-0.17215669,-0.0044524716
8540000,8540000,-0.00037988182,-0.0007317872,-0.00024743017,0.033586077,-0.07364769,-0.16446306
8552000,8552000,0.0021613552,0.0018397886,0.0011258707,0.11633228,0.17080253,0.057356607
8560000,8560000,0.0022566128,0.002043712,0.00082651724,0.036959544,0.05626797,-0.016038636
8572000,8572000,0.0013319317,0.00035272632,0.00018642301,-0.035220575,-0.05190912,-0.024985177
8580000,8580000,0.0011769985,0.00044959178,0.00018413979,-0.010088317,-0.0460102,-0.0043920595
8592000,8592000,0.0009984884,0.00059306016,-0.00082391396,-0.06257419,0.06944796,-0.064450696
8600000,8600000,0.0012160044,0.0005442449,0.0020466875,0.019407168,-0.0004921592,0.20877464
8612000,8612000,0.0011771191,-0.0004866165,-4.0555664e-05,-0.06953487,-0.004408708,-0.09798919
8620000,8620000,0.0020600755,0.0013050172,0.00090776815,0.06767015,0.13242216,0.060307283
8632000,8632000,0.00032783602,-0.0021378943,0.0002956222,-0.082629755,-0.22823754,-0.10231508
8640000,8640000,0.001259563,-0.0013481616,0.0026081263,0.035338435,0.0017915595,0.19405532
8652000,8652000,-0.0027782312,-0.0022335355,-0.0003253522,-0.2323156,-0.04418332,-0.18014932
8660000,8660000,0.00013575843,-0.0021295152,-0.0005666994,0.18754515,0.0069886832,-0.07555376
8668000,8668000,0.0019914373,-0.0010298113,-9.269104e-06,0.20916173,0.07923055,0.02026974
8676000,8676000,0.0016575565,-0.002932806,-0.0011356518,0.014728315,-0.13187231,-0.0892125
8688000,8688000,-1.7293496e-06,0.0012539276,0.0013161639,-0.0053598583,0.22569057,0.18951432
8700000,8700000,0.0010387977,0.0014975222,0.00028001377,-0.006735511,0.1439931,-0.14886667
8708000,8708000,-0.0013023125,-0.00013599964,-0.0021735094,-0.1801113,-0.1269511,-0.21768226
8716000,8716000,0.00053230324,0.0014929818,-0.0012553361,0.0931033,0.1255651,0.009675922
8728000,8728000,-0.0006535718,0.0004983251,0.0019296354,-0.01594045,-0.13424379,0.24028724
8736000,8736000,0.0006104813,0.00048209215,0.0028852073,0.06649515,-0.008363727,0.14498718
8748000,8748000,0.00011212996,-0.0019210908,0.00059986155,-0.026328716,-0.1905077,-0.08585975
8756000,8756000,-0.0005111286,-0.00034310482,0.0009852867,-0.05107469,0.078454636,-0.036408253
8768000,8768000,0.0008501495,0.00092271715,-0.0014785067,0.099805266,0.02510895,-0.09978127
8776000,8776000,0.0012354457,0.0010471228,0.0002847105,0.06328955,0.053197257,0.08479709
8788000,8788000,-0.0001272423,0.00085502956,0.00041478733,-0.07541917,-0.046910625,0.16753702
8800000,8800000,-0.00087881123,0.0008554375,-0.0014435791,-0.06795324,0.015097693,-0.22732039
8812000,8812000,0.00028857403,0.0021948959,0.0005940032,0.15572967,0.055713482,0.116490215
8820000,8820000,0.0019057954,-0.003272289,-0.00020719075,0.17283702,-0.4595131,-0.02688795
8832000,8832000,-0.00025071483,-0.00030683167,-0.00112872,-0.21355289,0.28726202,-0.13914311
8840000,8840000,-0.0012650742,0.002509911,-0.0019110134,-0.1444896,0.2916003,-0.07228278
8852000,8852000,0.0017449628,0.00021043746,0.0004939201,0.22217128,-0.103700384,0.10654433
8860000,8860000,0.0022226952,-0.00078287115,0.00016667199,0.11345599,-0.09925588,0.0028470831
8872000,8872000,-0.000105162384,0.004432495,0.00033992768,-0.16344365,0.3303415,0.06397603
8880000,8880000,-0.00159926,0.0017450543,0.00069327676,-0.17387065,-0.18190771,0.021459289
8892000,8892000,0.0014549701,-0.002447789,-0.0005405606,0.20301062,-0.17320895,-0.056352176
8900000,8900000,0.0023490642,0.0003923853,0.0003880225,0.14557174,0.17521992,0.082430966
8912000,8912000,0.0034168907,-0.00018184958,0.0011251821,-0.07946245,0.029488413,0.01244174
8920000,8920000,-0.0019099779,0.0007481389,0.0005485104,-0.40358004,0.076649554,-0.0519791
8932000,8932000,-0.0025669318,-0.0012882636,-0.00040356512,-0.16777605,-0.10595032,-0.039610546
8940000,8940000,8.9134206e-05,0.0010137749,-0.0006524358,0.17944828,0.15121041,-0.016374517
8952000,8952000,-0.00011376862,-0.00034302427,8.390867e-05,-0.01828815,-0.035375975,0.05367461
8960000,8960000,-6.4993044e-05,0.0015130434,0.0015009518,-0.0028074668,0.1404139,0.12272768
8972000,8972000,0.002077206,0.0012613246,0.001860754,0.21269456,0.018995902,0.07549201
8980000,8980000,0.0020163923,-0.0009915251,0.0011508286,0.056641743,-0.20257749,-0.012055097
8992000,8992000,0.0017330177,-0.0001718481,0.0012069016,-0.07435462,0.11929168,0.029237848
8996000,8996000,0.0010044425,0.0016036225,0.0012309444,-0.12068984,0.25881678,0.019253235
9008000,9008000,-0.001335302,0.001099606,-0.0010707942,-0.19869262,0.033657797,-0.09801878
9016000,9016000,-0.0017320021,0.003771537,-0.0004431347,-0.06348015,0.22107768,0.034717385
9028000,9028000,-0.002637982,0.0012876838,-0.0005156249,-0.18143883,-0.11747073,-0.0074509336
9040000,9040000,-0.00011542649,-0.0005309889,0.0007549678,0.14613895,-0.23027258,0.097385176
9052000,9052000,0.001234821,0.00088358903,-0.0011867688,0.072475955,0.1377797,-0.117669255
9060000,9060000,0.0010759728,0.0032218315,-0.00070612156,-0.0050581284,0.22936389,0.016635496
9072000,9072000,-0.0015010446,-0.0008500386,3.194192e-05,-0.15327592,-0.27171773,0.022112278
9080000,9080000,0.0003650129,-0.0005830503,2.7553382e-05,0.14122841,-0.042254664,-0.005433607
9092000,9092000,-0.0004490828,0.0022683837,0.00061180536,-0.15171225,0.23901902,0.062656246
9096000,9096000,-0.0010280529,0.003125405,0.0009847527,-0.14871618,0.22837387,0.07580189
9112000,9112000,0.00050094025,0.0010154643,0.00010444336,0.064852275,-0.002716116,-0.03490889
9120000,9120000,0.00016624876,0.001415072,0.0023695296,-0.016931659,-0.003034043,0.14604492
9132000,9132000,0.00071777403,0.0034958487,-0.003859315,0.11297815,0.15341346,-0.39232695
9140000,9140000,0.00044321048,-0.0013609976,-0.0016746456,-0.028959043,-0.39311498,0.08946697
9148000,9148000,-0.0024091126,-0.0022916393,0.0018982231,-0.23827156,-0.15015306,0.31883842
9160000,9160000,-0.0003583863,-0.0018688249,-0.0027818782,0.13934623,-0.008997861,-0.29727504
9172000,9172000,-0.0005947703,-0.0036986591,0.0010416377,0.013371946,-0.21813479,0.18034649
9180000,9180000,0.00077596126,-0.0036420282,-0.00267305,0.10802498,-0.0148823885,-0.25494292
9192000,9192000,0.0012334796,-0.000864747,0.00016870897,0.04603362,0.13413584,0.114117935
9200000,9200000,0.0009090256,0.0010689776,-0.0004997662,-0.019995624,0.18660325,0.0040085516
9212000,9212000,-0.0005106169,0.0014275182,5.8434016e-05,-0.09813894,0.112852216,-0.02084549
9220000,9220000,9.431795e-05,-9.84408e-06,-0.0008471853,0.028175956,-0.12751117,-0.08723821
9232000,9232000,0.00023013784,0.0022533508,-0.0047332384,0.05792026,0.1438032,-0.24808624
9240000,9240000,0.002603733,-0.0020153932,-0.00074159884,0.20283055,-0.34511667,0.29440436
9252000,9252000,-0.00011393416,0.0009106295,0.002980635,-0.16095637,0.24185719,0.21673045
9260000,9260000,0.0016095899,0.001722848,0.0040746895,0.13100463,0.12856907,0.15277125
9272000,9272000,0.0016137764,-0.0014251848,9.290759e-05,-0.012534632,-0.23466985,-0.21879038
9280000,9280000,0.0009688138,-0.003428691,-0.0007722305,-0.066631205,-0.23343815,-0.15139624
9292000,9292000,0.0030406965,0.00047218893,0.0018133593,0.16578767,0.32891503,0.21239652
9300000,9300000,0.002602614,0.0019764744,0.0012923614,-0.015150532,0.19048484,0.0078056413
9312000,9312000,0.00025289378,-0.0027806964,0.00078181905,-0.11167819,-0.3334748,0.009410566
9320000,9320000,0.0007630187,-0.00054781465,0.0040770965,0.000215929,0.12283538,0.27970892
9332000,9332000,-0.001574078,0.0026255287,0.00047740882,-0.1403328,0.13836104,-0.26342022
9336000,9336000,-0.00034488493,0.0013499199,-0.0012474773,0.052089855,-0.058202177,-0.33555275
9352000,9352000,8.0503756e-05,-0.0021707807,-0.0011740143,0.01701223,-0.22660774,-0.06051534
9360000,9360000,-0.0002041856,-0.0013639438,0.00024881048,-0.024383068,0.0034826153,0.12438087
9372000,9372000,0.00062115316,-0.0022967774,0.0010057669,0.067343324,-0.059330318,0.10948835
9380000,9380000,-0.0023378436,-0.0007680822,0.0021969972,-0.2608406,0.09077829,0.115436
9392000,9392000,0.0015291807,-0.0029495358,-2.6839843e-06,0.34921706,-0.08097567,-0.096475065
9400000,9400000,0.0007301325,0.0028204639,0.0015789077,-0.004898384,0.47617215,0.08260628
9408000,9408000,-0.0005127654,0.0022760304,0.0017492208,-0.07319561,0.05459039,0.054988783
9416000,9416000,0.0016375758,0.0008442132,0.0023267826,0.16000363,-0.07361429,0.06558263
9428000,9428000,0.00091298856,0.003938943,0.0028894,-0.017068468,0.21144141,-0.0059466846
9436000,9436000,0.0009862563,0.003671736,0.00046440627,-0.012320151,0.009090576,-0.19042374
9448000,9448000,0.0004483575,0.002029936,0.0018563969,-0.028836988,-0.035556454,0.085989244
9456000,9456000,-0.00027924113,0.001355432,0.0010495137,-0.071113795,-0.06381871,-0.04604692
9468000,9468000,0.0017612074,-0.0019658664,-0.00091972266,0.15046105,-0.23803405,-0.0807165
9476000,9476000,-0.0002763404,-0.0015591308,8.93035e-05,-0.1372811,-0.034542665,0.03836733
9488000,9488000,0.0013911752,0.0012869779,-0.0015079745,0.15849297,0.17595024,-0.08972648
9500000,9500000,0.0005928335,0.0013775025,-0.000102769554,-0.09762588,0.08128734,0.041126225
9512000,9512000,0.0018379247,7.859431e-06,0.00012114656,0.026768122,-0.14167929,0.07834917
9520000,9520000,-0.0012877412,-0.0005736551,-0.00011531421,-0.21192572,-0.08840485,-0.021002417
9532000,9532000,0.0002634726,0.00036801212,-0.00085366186,-0.024117216,0.12449546,-0.04560833
9540000,9540000,-0.00025510683,0.002936825,-0.0009090214,-0.022134636,0.24392629,-0.0046314406
9552000,9552000,0.002817359,0.0013287957,0.00044182857,0.23442155,-0.06036134,0.07182272
9560000,9560000,0.0024472706,0.0011256384,-0.0016863258,-0.0025927275,-0.06824885,-0.15165013
9572000,9572000,0.001110939,-0.001982526,-0.0004644961,-0.050070077,-0.08675059,0.039636455
9580000,9580000,0.0017754198,0.0010475423,0.0004170193,0.045153707,0.20188025,0.086318664
9592000,9592000,-0.00014480331,-0.0017532101,-0.00016559381,-0.1913942,-0.18129858,0.010658127
9600000,9600000,7.57809e-05,-0.0009387545,0.0004807057,-0.020963013,0.023109246,0.034537368
9612000,9612000,0.0028755534,-0.00039330404,0.0037610373,0.13646838,0.020353703,0.25395188
9620000,9620000,0.0010033664,-0.0014557303,0.0011923849,-0.105433784,-0.059571337,-0.17834768
9632000,9632000,0.0008756275,0.0034901556,-0.0012294832,-0.034456305,0.34848034,-0.14571032
9640000,9640000,-0.0020939494,0.004137185,-0.0019116094,-0.27254975,0.1388784,-0.07831001
9652000,9652000,-0.0014436947,0.0013065301,0.0017560974,-0.0049209325,-0.11670551,0.18528509
9660000,9660000,-0.0010116795,0.00035736943,-0.0006725471,0.08913879,-0.12514272,-0.13633986
9672000,9672000,-0.0015741246,-0.00012937421,0.0029710142,-0.15089066,-0.015451193,0.20247579
9680000,9680000,-0.0015521242,0.0042503225,0.0011234607,-0.04352888,0.36288667,-0.10364004
