timestamp,timestamp_sample,states[0],states[1],states[2],states[3],states[4],states[5],states[6],states[7],states[8],states[9],states[10],states[11],states[12],states[13],states[14],states[15],states[16],states[17],states[18],states[19],states[20],states[21],states[22],states[23],covariances[0],covariances[1],covariances[2],covariances[3],covariances[4],covariances[5],covariances[6],covariances[7],covariances[8],covariances[9],covariances[10],covariances[11],covariances[12],covariances[13],covariances[14],covariances[15],covariances[16],covariances[17],covariances[18],covariances[19],covariances[20],covariances[21],covariances[22],covariances[23],n_states
3200000,3120000,0.9998895,-0.010129172,-0.010880268,4.596238e-05,0.0009692552,0.0001441862,-0.021303177,5.0635877e-05,-8.452912e-06,-0.0015305066,0.0,0.0,0.0,0.0,0.0,0.0,0.0,0.0,0.0,0.0,0.0,0.0,0.0,0.0,5.632363e-07,0.0025484536,0.0025489517,0.00021279638,25.020864,25.020853,10.000214,100.43325,100.43325,100.17326,9.999932e-07,1.0000002e-06,9.844549e-07,4.0000004e-06,4.0000004e-06,4.0000004e-06,0.0,0.0,0.0,0.0,0.0,0.0,0.0,0.0,24
3208000,3128000,0.99988925,-0.010132964,-0.01090818,4.886827e-05,5.8209666e-11,2.9104334e-11,-1.8626451e-09,-7.992707e-05,-2.426116e-05,0.001426247,4.4693582e-11,-3.9509615e-10,-8.8264725e-13,-3.6123923e-11,1.9794127e-10,-8.830821e-09,0.0,0.0,0.0,0.0,0.0,0.0,0.0,0.0,5.660838e-07,0.002553361,0.0025538714,0.00011559895,1.9073486e-06,1.9073486e-06,1e-06,100.000114,100.000114,100.0,9.999874e-07,9.999958e-07,9.815316e-07,4e-06,4e-06,3.9999986e-06,0.0,0.0,0.0,0.0,0.0,0.0,0.0,0.0,24
3216000,3136000,0.9998889,-0.010141993,-0.010930569,4.6865844e-05,5.98139e-05,-7.921431e-05,-0.0010379553,-7.9687816e-05,-2.4578017e-05,0.0014220951,4.4693582e-11,-3.9509615e-10,-8.8264725e-13,-3.6123923e-11,1.9794127e-10,-8.830821e-09,0.0,0.0,0.0,0.0,0.0,0.0,0.0,0.0,5.6951467e-07,0.0025611059,0.0025616223,7.9751204e-05,8.299909e-05,8.3009545e-05,1.755148e-05,100.000114,100.000114,100.0,9.999858e-07,9.999958e-07,9.781114e-07,4e-06,4e-06,3.9999986e-06,0.0,0.0,0.0,0.0,0.0,0.0,0.0,0.0,24
3224000,3144000,0.6903436,0.0009143107,-0.014903261,0.72332764,0.00019720761,5.668873e-06,-0.0021782368,-7.865973e-05,-2.4872199e-05,0.0014092303,4.4693582e-11,-3.9509615e-10,-8.8264725e-13,-3.6123923e-11,1.9794127e-10,-8.830821e-09,0.20911853,0.011641354,0.4378273,0.0,0.0,0.0,0.0,0.0,5.724016e-07,0.0025645825,0.002569873,6.9987414e-05,0.00030182645,0.00030138434,4.2050568e-05,100.000114,100.000114,100.0,9.999471e-07,9.999959e-07,9.75503e-07,4.0000004e-06,4.0000004e-06,3.999999e-06,0.0,0.0,0.0,0.0,0.0,0.0,0.0,0.0,24
3232000,3152000,0.6903392,0.0009201253,-0.0149140535,0.72333163,0.00017157738,-4.8642483e-05,-0.003474921,-7.718459e-05,-2.5044093e-05,0.0013866177,4.4693582e-11,-3.9509615e-10,-8.8264725e-13,-3.6123923e-11,1.9794127e-10,-8.830821e-09,0.20911853,0.011641354,0.4378273,0.0,0.0,0.0,0.0,0.0,7.0283437e-07,0.002567066,0.0025759926,6.232457e-05,0.00056252984,0.00056094275,7.4497235e-05,100.000114,100.000114,100.0,9.999242e-07,9.999959e-07,9.701081e-07,4.0000004e-06,4.0000004e-06,3.999999e-06,0.0,0.0,0.0,0.0,0.0,0.0,0.0,0.0,24
3240000,3160000,0.690337,0.0009305404,-0.014926241,0.7233334,-5.8555685e-05,-0.000104613806,-0.0045983717,-7.6732504e-05,-2.5657118e-05,0.0013543245,4.4693582e-11,-3.9509615e-10,-8.8264725e-13,-3.6123923e-11,1.9794127e-10,-8.830821e-09,0.20911853,0.011641354,0.4378273,0.0,0.0,0.0,0.0,0.0,1.0804044e-06,0.00257086,0.002582612,5.626816e-05,0.0009609183,0.00095770566,0.0001148928,100.000114,100.000114,100.0,9.999114e-07,9.999959e-07,9.613193e-07,4.0000004e-06,4.0000004e-06,3.999999e-06,0.0,0.0,0.0,0.0,0.0,0.0,0.0,0.0,24
3248000,3168000,0.6903371,0.0009376413,-0.014939635,0.723333,0.00012731092,7.169394e-05,-0.005694188,-7.645748e-05,-2.5788799e-05,0.0013131542,4.4693582e-11,-3.9509615e-10,-8.8264725e-13,-3.6123923e-11,1.9794127e-10,-8.830821e-09,0.20911853,0.011641354,0.4378273,0.0,0.0,0.0,0.0,0.0,1.6934002e-06,0.0025757584,0.0025897312,5.134959e-05,0.0014975165,0.0014924017,0.0001632379,100.000114,100.000114,100.0,9.999052e-07,9.999959e-07,9.487273e-07,4.0000004e-06,4.0000004e-06,3.999999e-06,0.0,0.0,0.0,0.0,0.0,0.0,0.0,0.0,24
3256000,3176000,0.69034404,0.0009556378,-0.014961811,0.72332597,0.00016683358,-2.4924491e-05,-0.0069620386,-7.52809e-05,-2.5601721e-05,0.0012625293,4.4693582e-11,-3.9509615e-10,-8.8264725e-13,-3.6123923e-11,1.9794127e-10,-8.830821e-09,0.20911853,0.011641354,0.4378273,0.0,0.0,0.0,0.0,0.0,2.5245552e-06,0.002581628,0.0025973492,4.7265166e-05,0.0021744152,0.0021670659,0.00021953239,100.000114,100.000114,100.0,9.999027e-07,9.999959e-07,9.321085e-07,4.0000004e-06,4.0000004e-06,3.999999e-06,0.0,0.0,0.0,0.0,0.0,0.0,0.0,0.0,24
3264000,3184000,0.6903434,0.0009643163,-0.014978937,0.7233262,0.00029636832,-0.00014563822,-0.008075513,-7.342809e-05,-2.6283971e-05,0.0012023791,4.4693582e-11,-3.9509615e-10,-8.8264725e-13,-3.6123923e-11,1.9794127e-10,-8.830821e-09,0.20911853,0.011641354,0.4378273,0.0,0.0,0.0,0.0,0.0,3.5485807e-06,0.0025883717,0.002605468,4.3808635e-05,0.002989552,0.002979772,0.00028377798,100.000114,100.000114,100.0,9.999021e-07,9.999959e-07,9.1142283e-07,4.000001e-06,4.000001e-06,3.9999995e-06,0.0,0.0,0.0,0.0,0.0,0.0,0.0,0.0,24
3272000,3192000,0.6903442,0.00096971745,-0.0149995275,0.7233249,0.00046492176,-2.091119e-05,-0.009244949,-7.038293e-05,-2.6950169e-05,0.0011330972,4.4693582e-11,-3.9509615e-10,-8.8264725e-13,-3.6123923e-11,1.9794127e-10,-8.830821e-09,0.20911853,0.011641354,0.4378273,0.0,0.0,0.0,0.0,0.0,4.7363437e-06,0.0025959162,0.0026140865,4.0836294e-05,0.003945252,0.0039329766,0.00035597547,100.00011,100.000114,100.0,9.999021e-07,9.999959e-07,8.8680804e-07,4.000001e-06,4.000001e-06,3.9999995e-06,0.0,0.0,0.0,0.0,0.0,0.0,0.0,0.0,24
3280000,3200000,0.6903404,0.0009818872,-0.015023732,0.7233281,0.0005644757,-3.1056697e-07,-0.010240994,-6.626534e-05,-2.7035056e-05,0.0010551534,4.4693582e-11,-3.9509615e-10,-8.8264725e-13,-3.6123923e-11,1.9794127e-10,-8.830821e-09,0.20911853,0.011641354,0.4378273,0.0,0.0,0.0,0.0,0.0,6.053924e-06,0.0026042066,0.0026232044,3.8245253e-05,0.005039324,0.0050243856,0.00043612448,100.0001,100.00011,100.0,9.999015e-07,9.999959e-07,8.585655e-07,4.000001e-06,4.000001e-06,3.9999995e-06,0.0,0.0,0.0,0.0,0.0,0.0,0.0,0.0,24
3288000,3208000,0.69034195,0.0009944139,-0.015042271,0.7233262,0.00069575635,0.00013334551,-0.01134409,-6.122441e-05,-2.6502916e-05,0.0009688131,4.4693582e-11,-3.9509615e-10,-8.8264725e-13,-3.6123923e-11,1.9794127e-10,-8.830821e-09,0.20911853,0.011641354,0.4378273,0.0,0.0,0.0,0.0,0.0,7.463875e-06,0.002613199,0.0026328221,3.5960227e-05,0.0062759123,0.00625827,0.0005242268,100.00009,100.0001,100.0,9.998997e-07,9.999959e-07,8.271355e-07,4.000001e-06,4.000001e-06,3.9999995e-06,0.0,0.0,0.0,0.0,0.0,0.0,0.0,0.0,24
3296000,3216000,0.69034594,0.0010019976,-0.0150567815,0.7233221,0.00091351167,0.00034430707,-0.012367137,-5.478734e-05,-2.4592306e-05,0.0008739682,4.4693582e-11,-3.9509615e-10,-8.8264725e-13,-3.6123923e-11,1.9794127e-10,-8.830821e-09,0.20911853,0.011641354,0.4378273,0.0,0.0,0.0,0.0,0.0,8.92904e-06,0.002622853,0.0026429398,3.3924814e-05,0.007653095,0.0076327524,0.0006202848,100.00009,100.0001,100.0,9.998961e-07,9.999959e-07,7.930639e-07,4.000001e-06,4.000001e-06,3.9999995e-06,0.0,0.0,0.0,0.0,0.0,0.0,0.0,0.0,24
3304000,3224000,0.6903522,0.0010111703,-0.015072757,0.7233157,0.0012526289,0.0006605247,-0.013658531,-4.6122776e-05,-2.0572978e-05,0.0007698655,4.4693582e-11,-3.9509615e-10,-8.8264725e-13,-3.6123923e-11,1.9794127e-10,-8.830821e-09,0.20911853,0.011641354,0.4378273,0.0,0.0,0.0,0.0,0.0,1.0413966e-05,0.002633136,0.0026535569,3.2096457e-05,0.009177817,0.009154833,0.0007243025,100.00009,100.0001,100.0,9.998904e-07,9.999959e-07,7.569633e-07,4.0000014e-06,4.0000014e-06,4e-06,0.0,0.0,0.0,0.0,0.0,0.0,0.0,0.0,24
3312000,3232000,0.69035727,0.0010152765,-0.015098648,0.72331035,0.0013975154,0.0009005914,-0.014811821,-3.55222e-05,-1.4328512e-05,0.0006559841,4.4693582e-11,-3.9509615e-10,-8.8264725e-13,-3.6123923e-11,1.9794127e-10,-8.830821e-09,0.20911853,0.011641354,0.4378273,0.0,0.0,0.0,0.0,0.0,1.1886264e-05,0.002644015,0.0026646738,3.0442045e-05,0.01084389,0.010818082,0.0008362712,100.00009,100.0001,100.0,9.998827e-07,9.99996e-07,7.19473e-07,4.0000014e-06,4.0000014e-06,4e-06,0.0,0.0,0.0,0.0,0.0,0.0,0.0,0.0,24
3320000,3240000,0.6903559,0.0010205942,-0.0151177365,0.7233113,0.001469481,0.001232119,-0.015787244,-2.4054214e-05,-5.7976695e-06,0.0005335878,4.4693582e-11,-3.9509615e-10,-8.8264725e-13,-3.6123923e-11,1.9794127e-10,-8.830821e-09,0.20911853,0.011641354,0.4378273,0.0,0.0,0.0,0.0,0.0,1.3316239e-05,0.0026554677,0.0026762902,2.8937096e-05,0.012650545,0.012621871,0.0009561964,100.00009,100.0001,100.0,9.998727e-07,9.99996e-07,6.8122097e-07,4.0000014e-06,4.0000014e-06,4e-06,0.0,0.0,0.0,0.0,0.0,0.0,0.0,0.0,24
3328000,3248000,0.6903544,0.0010260872,-0.015144354,0.7233122,0.0015247988,0.0012852672,-0.016855828,-1.2077094e-05,4.2718766e-06,0.00040301553,4.4693582e-11,-3.9509615e-10,-8.8264725e-13,-3.6123923e-11,1.9794127e-10,-8.830821e-09,0.20911853,0.011641354,0.4378273,0.0,0.0,0.0,0.0,0.0,1.4681232e-05,0.002667472,0.002688406,2.7560964e-05,0.014604321,0.014572542,0.0010840694,100.00009,100.0001,100.0,9.998606e-07,9.99996e-07,6.427939e-07,4.0000014e-06,4.0000014e-06,4e-06,0.0,0.0,0.0,0.0,0.0,0.0,0.0,0.0,24
3336000,3256000,0.69035614,0.0010309612,-0.015157799,0.72331023,0.0015271426,0.0012863204,-0.017941102,1.3067165e-07,1.4558227e-05,0.0002638278,4.4693582e-11,-3.9509615e-10,-8.8264725e-13,-3.6123923e-11,1.9794127e-10,-8.830821e-09,0.20911853,0.011641354,0.4378273,0.0,0.0,0.0,0.0,0.0,1.5961548e-05,0.0026800123,0.0027010213,2.6298665e-05,0.01670458,0.016669555,0.001219895,100.00009,100.0001,100.0,9.998467e-07,9.99996e-07,6.047135e-07,4.0000014e-06,4.0000014e-06,4e-06,0.0,0.0,0.0,0.0,0.0,0.0,0.0,0.0,24
3344000,3264000,0.69035465,0.0010352106,-0.0151795475,0.7233111,0.0018285065,0.0014351645,-0.01868184,1.3553268e-05,2.5444166e-05,0.00011733602,4.4693582e-11,-3.9509615e-10,-8.8264725e-13,-3.6123923e-11,1.9794127e-10,-8.830821e-09,0.20911853,0.011641354,0.4378273,0.0,0.0,0.0,0.0,0.0,1.7145832e-05,0.0026930738,0.0027141357,2.5135925e-05,0.018942412,0.018904416,0.0013636913,100.00009,100.0001,100.0,9.998314e-07,9.99996e-07,5.6742374e-07,4.000002e-06,4.000002e-06,4.0000004e-06,0.0,0.0,0.0,0.0,0.0,0.0,0.0,0.0,24
3352000,3272000,0.69035316,0.0010451337,-0.015202295,0.72331214,0.001810474,0.0016320698,-0.019523598,2.810919e-05,3.7713104e-05,-3.5485733e-05,4.4693582e-11,-3.9509615e-10,-8.8264725e-13,-3.6123923e-11,1.9794127e-10,-8.830821e-09,0.20911853,0.011641354,0.4378273,0.0,0.0,0.0,0.0,0.0,1.8225626e-05,0.002706646,0.0027277493,2.406238e-05,0.021329938,0.021288682,0.0015154356,100.0001,100.000114,100.0,9.998148e-07,9.99996e-07,5.3128406e-07,4.000002e-06,4.000002e-06,4.0000004e-06,0.0,0.0,0.0,0.0,0.0,0.0,0.0,0.0,24
3360000,3280000,0.69035834,0.0010552462,-0.015211094,0.723307,0.0019052105,0.0018097856,-0.02063676,4.297193e-05,5.1480525e-05,-0.00019612718,4.4693582e-11,-3.9509615e-10,-8.8264725e-13,-3.6123923e-11,1.9794127e-10,-8.830821e-09,0.20911853,0.011641354,0.4378273,0.0,0.0,0.0,0.0,0.0,1.9195893e-05,0.0027207201,0.0027418628,2.306964e-05,0.023874033,0.023829542,0.0016751415,100.000114,100.00013,100.0,9.997971e-07,9.99996e-07,4.9656995e-07,4.000002e-06,4.000002e-06,4.0000004e-06,0.0,0.0,0.0,0.0,0.0,0.0,0.0,0.0,24
3368000,3288000,0.6903627,0.001063609,-0.015226337,0.7233025,0.0021691993,0.0018943807,-0.021849446,5.926957e-05,6.629719e-05,-0.000366072,4.4693582e-11,-3.9509615e-10,-8.8264725e-13,-3.6123923e-11,1.9794127e-10,-8.830821e-09,0.20911853,0.011641354,0.4378273,0.0,0.0,0.0,0.0,0.0,2.0057743e-05,0.00273529,0.0027564762,2.2148617e-05,0.026571536,0.026523866,0.001842809,100.00013,100.000145,100.0,9.997786e-07,9.99996e-07,4.6347972e-07,4.000002e-06,4.000002e-06,4.0000004e-06,0.0,0.0,0.0,0.0,0.0,0.0,0.0,0.0,24
3376000,3296000,0.6903591,0.0010778167,-0.015256898,0.72330517,0.0024061962,0.0019660653,-0.022794798,7.757115e-05,8.1738974e-05,-0.00054464897,4.4693582e-11,-3.9509615e-10,-8.8264725e-13,-3.6123923e-11,1.9794127e-10,-8.830821e-09,0.20911853,0.011641354,0.4378273,0.0,0.0,0.0,0.0,0.0,2.0814505e-05,0.002750351,0.0027715883,2.129201e-05,0.029411286,0.029360376,0.0020184342,100.00015,100.00017,100.0,9.997598e-07,9.99996e-07,4.3214243e-07,4.000002e-06,4.000002e-06,4.0000004e-06,0.0,0.0,0.0,0.0,0.0,0.0,0.0,0.0,24
3384000,3304000,0.6903592,0.0010953889,-0.015267033,0.72330487,0.002382224,0.002031763,-0.023836508,9.458745e-11,1.0186341e-10,-0.0003708634,4.328536e-11,-3.9892137e-10,-1.1384401e-12,-2.8829937e-11,1.9204556e-10,-8.861833e-09,0.20911853,0.011641354,0.4378273,0.0,0.0,0.0,0.0,0.0,2.1468053e-05,0.0027658963,0.0027871963,2.0495936e-05,0.03240611,0.032351613,0.0022020056,9.918213e-05,9.918213e-05,50.0,9.997403e-07,9.999959e-07,4.0262674e-07,4.0000014e-06,4.0000014e-06,4e-06,0.0,0.0,0.0,0.0,0.0,0.0,0.0,0.0,24
3392000,3312000,0.6903583,0.0011240994,-0.015287082,0.7233052,0.0022750646,0.0020872513,-0.025052615,1.862925e-05,1.647616e-05,-0.0005664199,4.328536e-11,-3.9892137e-10,-1.1384401e-12,-2.8829937e-11,1.9204556e-10,-8.861833e-09,0.20911853,0.011641354,0.4378273,0.0,0.0,0.0,0.0,0.0,2.2026597e-05,0.0027819304,0.0028033068,1.9753314e-05,0.035560757,0.035502486,0.0023935318,0.00010223203,0.000102226906,50.0,9.997209e-07,9.999959e-07,3.7495386e-07,4.000002e-06,4.000002e-06,4.0000004e-06,0.0,0.0,0.0,0.0,0.0,0.0,0.0,0.0,24
3400000,3320000,0.69035524,0.0011354603,-0.015308291,0.72330767,0.0024557197,0.0021769446,-0.0261091,3.755239e-05,3.3532946e-05,-0.00077106676,4.328536e-11,-3.9892137e-10,-1.1384401e-12,-2.8829937e-11,1.9204556e-10,-8.861833e-09,0.20911853,0.011641354,0.4378273,0.0,0.0,0.0,0.0,0.0,2.2495593e-05,0.0027984497,0.0028199183,1.9059707e-05,0.038863964,0.03880227,0.0025930335,0.00011194434,0.00011192322,50.0,9.997016e-07,9.999959e-07,3.491073e-07,4.000002e-06,4.000002e-06,4.0000004e-06,0.0,0.0,0.0,0.0,0.0,0.0,0.0,0.0,24
3408000,3328000,0.6903549,0.001147988,-0.015318025,0.7233079,0.0024845034,0.0022121726,-0.027088493,5.7313282e-05,5.1089417e-05,-0.0009838571,4.328536e-11,-3.9892137e-10,-1.1384401e-12,-2.8829937e-11,1.9204556e-10,-8.861833e-09,0.20911853,0.011641354,0.4378273,0.0,0.0,0.0,0.0,0.0,2.2881932e-05,0.002815453,0.0028370295,1.8411869e-05,0.042319465,0.04225406,0.0028004851,0.0001291898,0.00012914093,50.0,9.996824e-07,9.999959e-07,3.2504042e-07,4.000002e-06,4.000002e-06,4.0000004e-06,0.0,0.0,0.0,0.0,0.0,0.0,0.0,0.0,24
3416000,3336000,0.69036925,0.0011553962,-0.014506949,0.72331077,6.66171e-08,-1.00402485e-05,-1.61957e-05,-1.19608385e-05,-1.3011187e-05,0.0009621782,-1.2581216e-06,-3.5740409e-06,1.844846e-09,-1.5645419e-05,1.3816105e-05,-0.0009783249,0.20911853,0.011641354,0.4378273,0.0,0.0,0.0,0.0,0.0,2.2753e-05,0.00020063005,0.0002005485,1.7465218e-05,1e-06,1.7248094e-06,1.1201482e-06,9.921866e-05,9.921954e-05,49.999985,9.425621e-07,9.4292864e-07,3.0194622e-07,3.7978332e-06,3.798276e-06,4.1764565e-07,0.0,0.0,0.0,0.0,0.0,0.0,0.0,0.0,24
3424000,3344000,0.6903655,0.0011552346,-0.0145215895,0.72331405,-0.00040929773,0.00014504405,-0.00022280961,-1.35977625e-05,-1.2471171e-05,0.0009612222,-1.2581216e-06,-3.5740409e-06,1.844846e-09,-1.5645419e-05,1.3816105e-05,-0.0009783249,0.20911853,0.011641354,0.4378273,0.0,0.0,0.0,0.0,0.0,2.4687466e-05,0.00020771963,0.00020763329,1.7857214e-05,1.396346e-05,1.4746636e-05,1.2982686e-05,9.9219425e-05,9.922085e-05,49.999985,9.4256205e-07,9.429286e-07,3.0194624e-07,3.7978334e-06,3.7982763e-06,4.176458e-07,0.0,0.0,0.0,0.0,0.0,0.0,0.0,0.0,24
3432000,3352000,0.69036776,0.0011713762,-0.014535466,0.72331166,-0.0003314992,0.00016307928,-0.00046538562,-1.6560953e-05,-1.12386715e-05,0.00095846946,-1.2581878e-06,-3.5740447e-06,-1.6920461e-09,-1.5645355e-05,1.38161395e-05,-0.0009783249,0.20911853,0.011641354,0.4378273,0.0,0.0,0.0,0.0,0.0,2.6474376e-05,0.00021528064,0.00021518927,1.8199675e-05,3.0232397e-05,3.1076102e-05,2.563621e-05,9.921989e-05,9.922203e-05,49.999985,9.4256114e-07,9.429286e-07,2.9938764e-07,3.7978325e-06,3.798276e-06,4.1764585e-07,0.0,0.0,0.0,0.0,0.0,0.0,0.0,0.0,24
3440000,3360000,0.68774164,0.0012356767,-0.01454954,0.72580874,-0.0003564399,0.0001313887,-0.00046537071,-1.9312709e-05,-1.00607995e-05,0.00095474644,-1.2581878e-06,-3.5740447e-06,-1.6920461e-09,-1.5645355e-05,1.38161395e-05,-0.0009783249,0.20874913,0.011620778,0.43578622,0.0,0.0,0.0,0.0,0.0,0.0012084827,0.00022378862,0.00022321989,0.0010822542,5.027448e-05,5.1180494e-05,3.9081428e-05,9.9222925e-05,9.922597e-05,49.999985,9.425612e-07,9.4292864e-07,2.9938764e-07,3.7978325e-06,3.798276e-06,4.1764594e-07,0.0,0.0,0.0,0.0,0.0,0.0,0.0,0.0,24
3448000,3368000,0.68774515,0.0012438119,-0.014557161,0.7258052,-0.0006933631,0.00029115326,-0.00045099854,-2.351192e-05,-8.370632e-06,0.000951081,-1.2581878e-06,-3.5740447e-06,-1.6920461e-09,-1.5645355e-05,1.38161395e-05,-0.0009783249,0.20874913,0.011620778,0.43578622,0.0,0.0,0.0,0.0,0.0,0.0012085128,0.00022403004,0.0002234607,0.0010823035,7.189163e-05,7.2803654e-05,5.3318843e-05,9.92324e-05,9.923653e-05,49.999985,9.425612e-07,9.4292864e-07,2.9938764e-07,3.7978327e-06,3.7982763e-06,4.1764602e-07,0.0,0.0,0.0,0.0,0.0,0.0,0.0,0.0,24
3456000,3376000,0.68774503,0.001262721,-0.014575796,0.7258049,-0.00083994464,0.00050899904,-0.000526309,-2.964515e-05,-5.1700226e-06,0.00094717176,-1.2581878e-06,-3.5740447e-06,-1.6920461e-09,-1.5645355e-05,1.38161395e-05,-0.0009783249,0.20874913,0.011620778,0.43578622,0.0,0.0,0.0,0.0,0.0,0.0012086327,0.00022474364,0.00022417276,0.001082412,0.00011250774,0.00011342469,6.834886e-05,9.9253026e-05,9.925841e-05,49.999985,9.425612e-07,9.4292864e-07,2.9938766e-07,3.7978327e-06,3.7982763e-06,4.1764608e-07,0.0,0.0,0.0,0.0,0.0,0.0,0.0,0.0,24
3464000,3384000,0.68774605,0.0012720264,-0.014600713,0.7258034,-0.000637636,0.00058654224,-0.0005828738,-3.5555473e-05,-7.8785706e-07,0.00094273506,-1.2581878e-06,-3.5740447e-06,-1.6920461e-09,-1.5645355e-05,1.38161395e-05,-0.0009783249,0.20874913,0.011620778,0.43578622,0.0,0.0,0.0,0.0,0.0,0.0012088274,0.00022592906,0.00022535613,0.001082595,0.00017210418,0.00017302722,8.417154e-05,9.9292236e-05,9.9299046e-05,49.999985,9.425612e-07,9.4292864e-07,2.9938766e-07,3.7978327e-06,3.7982763e-06,4.1764616e-07,0.0,0.0,0.0,0.0,0.0,0.0,0.0,0.0,24
3472000,3392000,0.68774486,0.0012873495,-0.014613039,0.7258043,-0.0005670776,0.00054050767,-0.0006386563,-4.037433e-05,3.7203426e-06,0.00093784893,-1.2581878e-06,-3.5740447e-06,-1.6920461e-09,-1.5645355e-05,1.38161395e-05,-0.0009783249,0.20874913,0.011620778,0.43578622,0.0,0.0,0.0,0.0,0.0,0.0012091087,0.00022758511,0.00022701082,0.0010828417,0.0002507081,0.00025163867,0.00010078761,9.9362645e-05,9.937105e-05,49.999985,9.425612e-07,9.4292864e-07,2.9938766e-07,3.797833e-06,3.7982766e-06,4.1764625e-07,0.0,0.0,0.0,0.0,0.0,0.0,0.0,0.0,24
3480000,3400000,0.6877472,0.0012988145,-0.0146194305,0.72580194,-0.00058309216,0.00051257777,-0.0007517934,-4.4975008e-05,7.932685e-06,0.00093228713,-1.2581878e-06,-3.5740447e-06,-1.6920461e-09,-1.5645355e-05,1.38161395e-05,-0.0009783249,0.20874913,0.011620778,0.43578622,0.0,0.0,0.0,0.0,0.0,0.0012094585,0.0002297122,0.00022913684,0.0010831703,0.00034842276,0.0003493603,0.00011819755,9.948199e-05,9.9492165e-05,49.999985,9.425612e-07,9.4292864e-07,2.993877e-07,3.797833e-06,3.7982766e-06,4.176463e-07,0.0,0.0,0.0,0.0,0.0,0.0,0.0,0.0,24
3488000,3408000,0.68774813,0.0013177624,-0.014638807,0.7258006,-0.0005183684,0.00040580187,-0.00085924566,-4.938085e-05,1.1606204e-05,0.00092584296,-1.2581878e-06,-3.5740447e-06,-1.6920461e-09,-1.5645355e-05,1.38161395e-05,-0.0009783249,0.20874913,0.011620778,0.43578622,0.0,0.0,0.0,0.0,0.0,0.0012098904,0.00023231158,0.00023173413,0.0010835653,0.0004653125,0.00046625856,0.00013640164,9.967311e-05,9.9685225e-05,49.999985,9.425612e-07,9.4292864e-07,2.993877e-07,3.797833e-06,3.7982766e-06,4.176464e-07,0.0,0.0,0.0,0.0,0.0,0.0,0.0,0.0,24
3496000,3416000,0.68775135,0.0013236448,-0.014647229,0.72579736,-0.00034157484,0.00039171212,-0.0010570809,-5.2820626e-05,1.479626e-05,0.00091817765,-1.2581878e-06,-3.5740447e-06,-1.6920461e-09,-1.5645355e-05,1.38161395e-05,-0.0009783249,0.20874913,0.011620778,0.43578622,0.0,0.0,0.0,0.0,0.0,0.0012103952,0.00023538162,0.00023480276,0.0010840379,0.00060160435,0.0006025628,0.00015540041,9.9963894e-05,9.997812e-05,49.999985,9.4256126e-07,9.429287e-07,2.993877e-07,3.7978332e-06,3.7982768e-06,4.1764645e-07,0.0,0.0,0.0,0.0,0.0,0.0,0.0,0.0,24
3504000,3424000,0.6877544,0.0013335742,-0.014666087,0.7257941,-0.00033618492,0.00034503156,-0.0011904985,-5.5531666e-05,1.7743234e-05,0.00090918737,-1.2581878e-06,-3.5740447e-06,-1.6920461e-09,-1.5645355e-05,1.38161395e-05,-0.0009783249,0.20874913,0.011620778,0.43578622,0.0,0.0,0.0,0.0,0.0,0.0012109787,0.00023892382,0.00023834266,0.0010845808,0.0007573201,0.00075828744,0.00017519425,0.00010038731,0.00010040382,49.999985,9.4256126e-07,9.429287e-07,2.993877e-07,3.7978332e-06,3.7982768e-06,4.1764653e-07,0.0,0.0,0.0,0.0,0.0,0.0,0.0,0.0,24
3512000,3432000,0.6876908,0.0013493203,-0.014689222,0.7258538,-0.00018232682,0.00035549956,-0.0014145152,-5.760895e-05,2.054136e-05,0.0008987673,-1.2589777e-06,-3.5744308e-06,-5.257753e-08,-1.5643653e-05,1.3817893e-05,-0.0009783249,0.20874913,0.011620778,0.43578622,0.0,0.0,0.0,0.0,0.0,0.0011007731,0.00024289318,0.0002423534,0.0009860176,0.000932838,0.0009338203,0.00019578356,0.00010098133,0.000101000296,49.999985,9.4256126e-07,9.429287e-07,2.9931465e-07,3.7978332e-06,3.7982768e-06,4.176466e-07,0.0,0.0,0.0,0.0,0.0,0.0,0.0,0.0,24
3520000,3440000,0.68768626,0.0013542905,-0.01469767,0.7258579,-9.5333264e-05,0.00055744103,-0.0016484857,-5.871959e-05,2.4193123e-05,0.0008865153,-1.2589777e-06,-3.5744308e-06,-5.257753e-08,-1.5643653e-05,1.3817893e-05,-0.0009783249,0.20874913,0.011620778,0.43578622,0.0,0.0,0.0,0.0,0.0,0.0011014724,0.00024737755,0.00024683593,0.000986621,0.0011283145,0.0011293128,0.00021716881,0.00010178902,0.00010181062,49.999985,9.4256126e-07,9.429287e-07,2.9931465e-07,3.7978332e-06,3.7982768e-06,4.1764667e-07,0.0,0.0,0.0,0.0,0.0,0.0,0.0,0.0,24
3528000,3448000,0.6876863,0.0013593944,-0.014707614,0.7258577,-8.77743e-05,0.0006813677,-0.0017455444,-5.945202e-05,2.9148357e-05,0.0008729392,-1.2589777e-06,-3.5744308e-06,-5.257753e-08,-1.5643653e-05,1.3817893e-05,-0.0009783249,0.20874913,0.011620778,0.43578622,0.0,0.0,0.0,0.0,0.0,0.0011022374,0.0002523334,0.00025178978,0.0009873081,0.001343779,0.0013447902,0.00023935027,0.000102858496,0.00010288292,49.999985,9.4256126e-07,9.429287e-07,2.9931465e-07,3.7978334e-06,3.798277e-06,4.1764673e-07,0.0,0.0,0.0,0.0,0.0,0.0,0.0,0.0,24
3536000,3456000,0.6876844,0.0013674897,-0.01471823,0.7258592,-0.000115728064,0.0006512953,-0.0020324513,-6.026603e-05,3.447901e-05,0.0008578272,-1.2589777e-06,-3.5744308e-06,-5.257753e-08,-1.5643653e-05,1.3817893e-05,-0.0009783249,0.20874913,0.011620778,0.43578622,0.0,0.0,0.0,0.0,0.0,0.0011030867,0.00025776072,0.00025721494,0.0009880604,0.0015800669,0.0015810885,0.0002623282,0.00010424285,0.000104270286,49.999985,9.4256126e-07,9.429287e-07,2.9931468e-07,3.7978334e-06,3.798277e-06,4.1764682e-07,0.0,0.0,0.0,0.0,0.0,0.0,0.0,0.0,24
3544000,3464000,0.68767923,0.0013803031,-0.014738516,0.7258637,-0.0002860984,0.0007790198,-0.0023122951,-6.187333e-05,4.020027e-05,0.0008404482,-1.2589777e-06,-3.5744308e-06,-5.257753e-08,-1.5643653e-05,1.3817893e-05,-0.0009783249,0.20874913,0.011620778,0.43578622,0.0,0.0,0.0,0.0,0.0,0.0011040238,0.00026366004,0.00026311135,0.0009888741,0.0018372192,0.0018382458,0.00028610326,0.00010600055,0.000106031184,49.999985,9.4256126e-07,9.429287e-07,2.9931468e-07,3.7978334e-06,3.798277e-06,4.1764687e-07,0.0,0.0,0.0,0.0,0.0,0.0,0.0,0.0,24
3552000,3472000,0.68767786,0.0013950659,-0.014772306,0.72586435,-0.0004405118,0.0010142594,-0.002636157,-6.477977e-05,4.7373385e-05,0.0008206544,-1.2589777e-06,-3.5744308e-06,-5.257753e-08,-1.5643653e-05,1.3817893e-05,-0.0009783249,0.20874913,0.011620778,0.43578622,0.0,0.0,0.0,0.0,0.0,0.0011050283,0.00027003163,0.00026947897,0.0009897691,0.0021157195,0.0021167523,0.0003106759,0.000108195134,0.00010822915,49.999985,9.425613e-07,9.4292875e-07,2.9931468e-07,3.7978336e-06,3.7982772e-06,4.1764696e-07,0.0,0.0,0.0,0.0,0.0,0.0,0.0,0.0,24
3560000,3480000,0.6876788,0.0014085114,-0.014797459,0.72586286,-0.00053170027,0.001164774,-0.002667509,-6.866862e-05,5.608952e-05,0.00079943973,-1.2589777e-06,-3.5744308e-06,-5.257753e-08,-1.5643653e-05,1.3817893e-05,-0.0009783249,0.20874913,0.011620778,0.43578622,0.0,0.0,0.0,0.0,0.0,0.0011061053,0.00027687417,0.00027631794,0.0009907417,0.0024152028,0.0024162442,0.0003360463,0.00011089544,0.00011093301,49.999985,9.425613e-07,9.4292875e-07,2.9931468e-07,3.7978336e-06,3.7982772e-06,4.1764702e-07,0.0,0.0,0.0,0.0,0.0,0.0,0.0,0.0,24
3568000,3488000,0.6876791,0.0014185216,-0.014821576,0.7258621,-0.00046475785,0.001200493,-0.0027981251,-7.265445e-05,6.555059e-05,0.00077757717,-1.2589777e-06,-3.5744308e-06,-5.257753e-08,-1.5643653e-05,1.3817893e-05,-0.0009783249,0.20874913,0.011620778,0.43578622,0.0,0.0,0.0,0.0,0.0,0.0011072635,0.00028418808,0.00028362824,0.0009917829,0.0027369552,0.0027380132,0.00036221455,0.00011417507,0.0001142164,49.999985,9.425613e-07,9.4292875e-07,2.993147e-07,3.7978336e-06,3.7982772e-06,4.176471e-07,0.0,0.0,0.0,0.0,0.0,0.0,0.0,0.0,24
3576000,3496000,0.6876767,0.0014261354,-0.014842743,0.72586393,-0.0005967343,0.0012602507,-0.0030313358,-7.6900425e-05,7.539356e-05,0.0007542593,-1.2589777e-06,-3.5744308e-06,-5.257753e-08,-1.5643653e-05,1.3817893e-05,-0.0009783249,0.20874913,0.011620778,0.43578622,0.0,0.0,0.0,0.0,0.0,0.0011085081,0.00029197324,0.00029140984,0.0009928873,0.00308152,0.003082584,0.00038918143,0.000118113516,0.000118158794,49.999985,9.425613e-07,9.4292875e-07,2.993147e-07,3.7978339e-06,3.7982775e-06,4.1764716e-07,0.0,0.0,0.0,0.0,0.0,0.0,0.0,0.0,24
3584000,3504000,0.6872396,0.0014444749,-0.014860197,0.7262775,-0.00057698885,0.0011867445,-0.003508057,-8.1646765e-05,8.510359e-05,0.0007281015,-1.2709622e-06,-3.5803014e-06,-7.975501e-07,-1.561872e-05,1.3843625e-05,-0.0009783248,0.20874913,0.011620778,0.43578622,0.0,0.0,0.0,0.0,0.0,0.0010161711,0.00030019222,0.00029966226,0.0009103275,0.0034498854,0.0034509618,0.00041694677,0.00012279583,0.00012284525,49.999985,9.4256126e-07,9.4292875e-07,2.9904675e-07,3.7978336e-06,3.7982772e-06,4.1764724e-07,0.0,0.0,0.0,0.0,0.0,0.0,0.0,0.0,24
3592000,3512000,0.68723357,0.0014136982,-0.014869133,0.726283,-0.00048768075,0.0009946224,-0.0038598059,-3.7844366e-05,4.1326315e-05,0.0004622318,-9.222617e-07,-4.041962e-06,-8.2291194e-07,-1.2968799e-05,1.6029204e-05,-0.0009783391,0.20874913,0.011620778,0.43578622,0.0,0.0,0.0,0.0,0.0,0.0010174653,0.0002897773,0.00028924755,0.0009114605,0.0033691756,0.0033696853,0.00044551125,5.6200486e-05,5.6210796e-05,33.33333,9.378899e-07,9.382544e-07,2.9903663e-07,3.6332765e-06,3.6336905e-06,4.1751065e-07,0.0,0.0,0.0,0.0,0.0,0.0,0.0,0.0,24
3600000,3520000,0.6872251,0.0014214228,-0.014893648,0.7262905,-0.00043051023,0.0010237461,-0.0041347668,-4.151713e-05,4.9399787e-05,0.0004302535,-9.222617e-07,-4.041962e-06,-8.2291194e-07,-1.2968799e-05,1.6029204e-05,-0.0009783391,0.20874913,0.011620778,0.43578622,0.0,0.0,0.0,0.0,0.0,0.0010188478,0.00029867675,0.00029814284,0.0009126576,0.0037361532,0.0037366531,0.0004748755,5.917091e-05,5.9182577e-05,33.33333,9.378899e-07,9.382544e-07,2.9903666e-07,3.6332767e-06,3.6336908e-06,4.175107e-07,0.0,0.0,0.0,0.0,0.0,0.0,0.0,0.0,24
3608000,3528000,0.6872263,0.0014351594,-0.014910445,0.726289,-0.00050318195,0.001230032,-0.0043445826,-4.52519e-05,5.84149e-05,0.0003963361,-9.222617e-07,-4.041962e-06,-8.2291194e-07,-1.2968799e-05,1.6029204e-05,-0.0009783391,0.20874913,0.011620778,0.43578622,0.0,0.0,0.0,0.0,0.0,0.0010202846,0.00030804492,0.0003075071,0.0009139505,0.0041251294,0.0041256137,0.00050504005,6.291623e-05,6.292932e-05,33.33333,9.3789e-07,9.3825446e-07,2.9903666e-07,3.6332767e-06,3.6336908e-06,4.175108e-07,0.0,0.0,0.0,0.0,0.0,0.0,0.0,0.0,24
3616000,3536000,0.68723106,0.0014456839,-0.014917525,0.72628427,-0.00033991167,0.0013876348,-0.0044494644,-4.8624275e-05,6.8885565e-05,0.0003611599,-9.222617e-07,-4.041962e-06,-8.2291194e-07,-1.2968799e-05,1.6029204e-05,-0.0009783391,0.20874913,0.011620778,0.43578622,0.0,0.0,0.0,0.0,0.0,0.001021791,0.00031788164,0.0003173404,0.0009153234,0.004536547,0.004537032,0.0005360046,6.753119e-05,6.754576e-05,33.33333,9.3789e-07,9.3825446e-07,2.9903666e-07,3.6332767e-06,3.6336908e-06,4.1751085e-07,0.0,0.0,0.0,0.0,0.0,0.0,0.0,0.0,24
3624000,3544000,0.6872323,0.0014269102,-0.014911877,0.7262834,-0.00039854727,0.0013381038,-0.0047364053,-4.8415273e-05,6.9219044e-05,0.0003301232,-8.0448024e-07,-4.654338e-06,-8.398111e-07,-1.0452266e-05,1.669696e-05,-0.0009796625,0.20874913,0.011620778,0.43578622,0.0,0.0,0.0,0.0,0.0,0.0010233829,0.00030958714,0.00030904578,0.00091675675,0.004422525,0.004422893,0.0005598233,7.059522e-05,7.0610105e-05,33.33333,9.307665e-07,9.3112834e-07,2.990249e-07,3.506872e-06,3.507265e-06,4.145208e-07,0.0,0.0,0.0,0.0,0.0,0.0,0.0,0.0,24
3632000,3552000,0.6872254,0.0014308268,-0.01492842,0.72628945,-0.00047617557,0.0014704422,-0.0050824136,-5.1914165e-05,8.045323e-05,0.00029084794,-8.0448024e-07,-4.654338e-06,-8.398111e-07,-1.0452266e-05,1.669696e-05,-0.0009796625,0.20874913,0.011620778,0.43578622,0.0,0.0,0.0,0.0,0.0,0.0010250771,0.00031999694,0.00031945127,0.0009182403,0.0048328624,0.0048332107,0.00059208355,7.651935e-05,7.653559e-05,33.33333,9.307665e-07,9.3112834e-07,2.990249e-07,3.5068722e-06,3.5072653e-06,4.1452088e-07,0.0,0.0,0.0,0.0,0.0,0.0,0.0,0.0,24
3640000,3560000,0.68722177,0.0014323597,-0.014938243,0.72629267,-0.00029754173,0.0016096202,-0.0052403808,-5.5009034e-05,9.277348e-05,0.00024955676,-8.0448024e-07,-4.654338e-06,-8.398111e-07,-1.0452266e-05,1.669696e-05,-0.0009796625,0.20874913,0.011620778,0.43578622,0.0,0.0,0.0,0.0,0.0,0.0010268422,0.00033087187,0.0003303222,0.00091980275,0.005264958,0.0052653053,0.0006251391,8.349922e-05,8.351684e-05,33.33333,9.307665e-07,9.3112834e-07,2.990249e-07,3.5068722e-06,3.5072653e-06,4.1452094e-07,0.0,0.0,0.0,0.0,0.0,0.0,0.0,0.0,24
3648000,3568000,0.68721795,0.0014441902,-0.014952676,0.72629595,-0.00018807536,0.0018555269,-0.0053193644,-5.6951503e-05,0.00010663407,0.00020731777,-8.0448024e-07,-4.654338e-06,-8.398111e-07,-1.0452266e-05,1.669696e-05,-0.0009796625,0.20874913,0.011620778,0.43578622,0.0,0.0,0.0,0.0,0.0,0.0010286866,0.00034221268,0.00034165845,0.0009214353,0.0057198335,0.005720177,0.00065899093,9.163902e-05,9.1658054e-05,33.33333,9.307665e-07,9.3112834e-07,2.990249e-07,3.5068722e-06,3.5072653e-06,4.14521e-07,0.0,0.0,0.0,0.0,0.0,0.0,0.0,0.0,24
3656000,3576000,0.68731827,0.001448417,-0.014967144,0.7262008,-0.00013876721,0.0019149313,-0.0054363664,-5.8249825e-05,0.000121752506,0.00016429502,-8.0023267e-07,-4.6524906e-06,-5.740687e-07,-1.04596675e-05,1.6687309e-05,-0.0009796626,0.20874913,0.011620778,0.43578622,0.0,0.0,0.0,0.0,0.0,0.0009494421,0.0003539873,0.0003534596,0.0008505672,0.006198662,0.0061989943,0.0006936383,0.0001010485,0.00010106896,33.33333,9.307663e-07,9.3112834e-07,2.9846692e-07,3.506872e-06,3.5072649e-06,4.1452108e-07,0.0,0.0,0.0,0.0,0.0,0.0,0.0,0.0,24
3664000,3584000,0.68731666,0.0014666246,-0.014992698,0.7262017,6.168251e-05,0.0017037516,-0.0056038573,-5.8558166e-05,0.00013622725,0.00012013412,-8.0023267e-07,-4.6524906e-06,-5.740687e-07,-1.04596675e-05,1.6687309e-05,-0.0009796626,0.20874913,0.011620778,0.43578622,0.0,0.0,0.0,0.0,0.0,0.000951283,0.0003662597,0.00036572653,0.0008522088,0.0067023067,0.006702638,0.00072908116,0.00011184329,0.00011186521,33.33333,9.307663e-07,9.3112834e-07,2.9846692e-07,3.506872e-06,3.5072649e-06,4.1452114e-07,0.0,0.0,0.0,0.0,0.0,0.0,0.0,0.0,24
3672000,3592000,0.68732005,0.0014905499,-0.015016957,0.72619796,-4.2756117e-05,0.0016549791,-0.005820051,-5.848246e-05,0.00014966217,7.443849e-05,-8.0023267e-07,-4.6524906e-06,-5.740687e-07,-1.04596675e-05,1.6687309e-05,-0.0009796626,0.20874913,0.011620778,0.43578622,0.0,0.0,0.0,0.0,0.0,0.00095319055,0.00037899753,0.00037845882,0.00085393304,0.0072316173,0.0072319224,0.00076532125,0.0001241449,0.00012416829,33.33333,9.3076636e-07,9.311284e-07,2.9846692e-07,3.506872e-06,3.5072649e-06,4.145212e-07,0.0,0.0,0.0,0.0,0.0,0.0,0.0,0.0,24
3680000,3600000,0.68732244,0.0015034602,-0.015038881,0.72619516,-0.00023462335,0.0016953216,-0.0059580803,-5.9591977e-05,0.00016306338,2.7325961e-05,-8.0023267e-07,-4.6524906e-06,-5.740687e-07,-1.04596675e-05,1.6687309e-05,-0.0009796626,0.20874913,0.011620778,0.43578622,0.0,0.0,0.0,0.0,0.0,0.0009551794,0.00039220077,0.00039165656,0.00085572526,0.007786864,0.0077871336,0.0008023587,0.00013808088,0.00013810574,33.33333,9.3076636e-07,9.311284e-07,2.9846692e-07,3.506872e-06,3.5072649e-06,4.1452125e-07,0.0,0.0,0.0,0.0,0.0,0.0,0.0,0.0,24
3688000,3608000,0.6873223,0.001505386,-0.015060735,0.7261949,-0.00032128397,0.0017372905,-0.005987741,-6.1815605e-05,0.00017679382,-2.0457326e-05,-8.0023267e-07,-4.6524906e-06,-5.740687e-07,-1.04596675e-05,1.6687309e-05,-0.0009796626,0.20874913,0.011620778,0.43578622,0.0,0.0,0.0,0.0,0.0,0.00095725333,0.0004058696,0.00040531973,0.0008575816,0.008368716,0.008368959,0.0008401936,0.00015378435,0.00015381067,33.33333,9.3076636e-07,9.311284e-07,2.9846694e-07,3.5068722e-06,3.507265e-06,4.1452134e-07,0.0,0.0,0.0,0.0,0.0,0.0,0.0,0.0,24
3696000,3616000,0.68732214,0.001511275,-0.015076071,0.72619474,-0.0004045527,0.0017998219,-0.006164342,-6.471895e-05,0.00019094227,-6.906566e-05,-8.0023267e-07,-4.6524906e-06,-5.740687e-07,-1.04596675e-05,1.6687309e-05,-0.0009796626,0.20874913,0.011620778,0.43578622,0.0,0.0,0.0,0.0,0.0,0.0009594063,0.00042000358,0.00041944833,0.00085950847,0.0089794,0.008979616,0.0008788262,0.00017139452,0.0001714223,33.33333,9.3076636e-07,9.311284e-07,2.9846694e-07,3.5068722e-06,3.507265e-06,4.145214e-07,0.0,0.0,0.0,0.0,0.0,0.0,0.0,0.0,24
3704000,3624000,0.6873253,0.0015274088,-0.015091495,0.72619134,-0.0005904987,0.0018156163,-0.0063142255,-6.8699155e-05,0.00020540402,-0.00011897994,-8.0023267e-07,-4.6524906e-06,-5.740687e-07,-1.04596675e-05,1.6687309e-05,-0.0009796626,0.20874913,0.011620778,0.43578622,0.0,0.0,0.0,0.0,0.0,0.00096162985,0.00043460313,0.00043404225,0.000861514,0.009618992,0.009619167,0.00091825676,0.00019105845,0.00019108767,33.33333,9.3076636e-07,9.311284e-07,2.9846694e-07,3.5068722e-06,3.507265e-06,4.1452145e-07,0.0,0.0,0.0,0.0,0.0,0.0,0.0,0.0,24
3712000,3632000,0.68732774,0.0015443197,-0.015108405,0.7261887,-0.0007438975,0.0019936857,-0.0063915327,-7.403674e-05,0.00022064123,-0.00016980298,-8.0023267e-07,-4.6524906e-06,-5.740687e-07,-1.04596675e-05,1.6687309e-05,-0.0009796626,0.20874913,0.011620778,0.43578622,0.0,0.0,0.0,0.0,0.0,0.00096393406,0.00044966827,0.00044910153,0.0008635881,0.010288182,0.010288322,0.00095848617,0.00021292911,0.00021295974,33.33333,9.3076636e-07,9.311284e-07,2.9846694e-07,3.5068724e-06,3.5072653e-06,4.145215e-07,0.0,0.0,0.0,0.0,0.0,0.0,0.0,0.0,24
3720000,3640000,0.687327,0.0015652534,-0.015123321,0.726189,-0.00067598117,0.0020872308,-0.006269388,-7.971626e-05,0.0002369649,-0.00022044667,-8.0023267e-07,-4.6524906e-06,-5.740687e-07,-1.04596675e-05,1.6687309e-05,-0.0009796626,0.20874913,0.011620778,0.43578622,0.0,0.0,0.0,0.0,0.0,0.00096632476,0.0004651989,0.00046462618,0.000865725,0.010987112,0.010987238,0.0009995133,0.00023716612,0.00023719811,33.33333,9.3076636e-07,9.311284e-07,2.9846697e-07,3.5068724e-06,3.5072653e-06,4.145216e-07,0.0,0.0,0.0,0.0,0.0,0.0,0.0,0.0,24
3728000,3648000,0.68717146,0.0015847048,-0.015151804,0.7263356,-0.00077909837,0.0023685063,-0.0062502758,-8.5540225e-05,0.0002546282,-0.0002705261,-8.0962224e-07,-4.656446e-06,-1.1314696e-06,-1.044397e-05,1.6706861e-05,-0.0009796624,0.20874913,0.011620778,0.43578622,0.0,0.0,0.0,0.0,0.0,0.0008968001,0.00048116874,0.0004806154,0.0008035456,0.011718698,0.011718784,0.0010413406,0.00026393522,0.00026396845,33.33333,9.307661e-07,9.3112834e-07,2.9754267e-07,3.5068717e-06,3.5072642e-06,4.1452165e-07,0.0,0.0,0.0,0.0,0.0,0.0,0.0,0.0,24
3736000,3656000,0.68716824,0.0016011753,-0.015170603,0.72633815,-0.0007173256,0.002550846,-0.006478682,-9.152592e-05,0.0002743056,-0.00032144194,-8.0962224e-07,-4.656446e-06,-1.1314696e-06,-1.044397e-05,1.6706861e-05,-0.0009796624,0.20874913,0.011620778,0.43578622,0.0,0.0,0.0,0.0,0.0,0.000899167,0.00049763056,0.0004970708,0.0008056493,0.012485152,0.012485222,0.0010839663,0.00029341155,0.00029344606,33.33333,9.3076613e-07,9.311284e-07,2.9754267e-07,3.5068717e-06,3.5072642e-06,4.145217e-07,0.0,0.0,0.0,0.0,0.0,0.0,0.0,0.0,24
3744000,3664000,0.6871666,0.0016250175,-0.015182411,0.72633946,-0.0005677326,0.0026883297,-0.0066672713,-9.6666154e-05,0.00029526232,-0.00037402575,-8.0962224e-07,-4.656446e-06,-1.1314696e-06,-1.044397e-05,1.6706861e-05,-0.0009796624,0.20874913,0.011620778,0.43578622,0.0,0.0,0.0,0.0,0.0,0.0009016092,0.00051455764,0.0005139915,0.0008078267,0.013285702,0.0132857645,0.0011273911,0.00032577952,0.0003258153,33.33333,9.3076613e-07,9.311284e-07,2.9754267e-07,3.506872e-06,3.5072644e-06,4.1452176e-07,0.0,0.0,0.0,0.0,0.0,0.0,0.0,0.0,24
3752000,3672000,0.6871671,0.0016502342,-0.015201334,0.7263385,-0.00041427533,0.0028916972,-0.0068101063,-0.00010059419,0.00031758242,-0.00042793527,-8.0962224e-07,-4.656446e-06,-1.1314696e-06,-1.044397e-05,1.6706861e-05,-0.0009796624,0.20874913,0.011620778,0.43578622,0.0,0.0,0.0,0.0,0.0,0.0009041246,0.0005319506,0.00053137756,0.0008100795,0.014121424,0.01412148,0.0011716161,0.00036122935,0.0003612663,33.33333,9.3076613e-07,9.311284e-07,2.975427e-07,3.506872e-06,3.5072644e-06,4.1452182e-07,0.0,0.0,0.0,0.0,0.0,0.0,0.0,0.0,24
3760000,3680000,0.6871744,0.0016691356,-0.0152185345,0.72633123,-0.00029321073,0.0028913328,-0.006938413,-0.000103424136,0.00034071456,-0.00048292935,-8.0962224e-07,-4.656446e-06,-1.1314696e-06,-1.044397e-05,1.6706861e-05,-0.0009796624,0.20874913,0.011620778,0.43578622,0.0,0.0,0.0,0.0,0.0,0.0009067031,0.000549809,0.0005492291,0.0008124179,0.01499372,0.01499376,0.0012166398,0.00039995936,0.0003999975,33.333332,9.3076613e-07,9.311284e-07,2.975427e-07,3.506872e-06,3.5072644e-06,4.1452188e-07,0.0,0.0,0.0,0.0,0.0,0.0,0.0,0.0,24
3768000,3688000,0.6871747,0.0016870116,-0.015231253,0.72633064,-0.00023972068,0.0029614123,-0.0070126057,-0.00010555586,0.00036412553,-0.00053873344,-8.0962224e-07,-4.656446e-06,-1.1314696e-06,-1.044397e-05,1.6706861e-05,-0.0009796624,0.20874913,0.011620778,0.43578622,0.0,0.0,0.0,0.0,0.0,0.00090937637,0.0005681326,0.00056754606,0.00081481057,0.015903464,0.015903477,0.0012624642,0.0004421766,0.00044221582,33.33334,9.3076613e-07,9.311284e-07,2.975427e-07,3.506872e-06,3.5072644e-06,4.1452193e-07,0.0,0.0,0.0,0.0,0.0,0.0,0.0,0.0,24
3776000,3696000,0.68717426,0.0017019209,-0.015246312,0.7263307,-0.00021967117,0.0032721944,-0.0070518404,-0.000107393425,0.00038905995,-0.0005949912,-8.0962224e-07,-4.656446e-06,-1.1314696e-06,-1.044397e-05,1.6706861e-05,-0.0009796624,0.20874913,0.011620778,0.43578622,0.0,0.0,0.0,0.0,0.0,0.0009121299,0.00058692193,0.00058632845,0.00081727165,0.016852032,0.01685202,0.0013090912,0.00048809635,0.00048813666,33.333347,9.3076613e-07,9.311284e-07,2.975427e-07,3.5068722e-06,3.5072646e-06,4.1452202e-07,0.0,0.0,0.0,0.0,0.0,0.0,0.0,0.0,24
3784000,3704000,0.68717843,0.0017155455,-0.015265918,0.7263263,-0.000149264,0.0033383002,-0.0072293505,-0.000108869164,0.00041550194,-0.00065211597,-8.0962224e-07,-4.656446e-06,-1.1314696e-06,-1.044397e-05,1.6706861e-05,-0.0009796624,0.20874913,0.011620778,0.43578622,0.0,0.0,0.0,0.0,0.0,0.000914951,0.000606177,0.00060557615,0.00081981375,0.01784234,0.017842297,0.001356517,0.0005379431,0.0005379844,33.333355,9.3076613e-07,9.311284e-07,2.975427e-07,3.5068722e-06,3.5072646e-06,4.1452208e-07,0.0,0.0,0.0,0.0,0.0,0.0,0.0,0.0,24
3792000,3712000,0.6871767,0.001729151,-0.015289301,0.72632736,-0.00020955934,0.00330215,-0.0074923337,-0.000110304456,0.00044206376,-0.00071100274,-8.0962224e-07,-4.656446e-06,-1.1314696e-06,-1.044397e-05,1.6706861e-05,-0.0009796624,0.20874913,0.011620778,0.43578622,0.0,0.0,0.0,0.0,0.0,0.0009178642,0.00062589784,0.00062528916,0.00082241243,0.018875364,0.018875265,0.0014047427,0.0005919529,0.00059199514,33.333363,9.3076613e-07,9.311284e-07,2.9754273e-07,3.5068722e-06,3.5072646e-06,4.1452213e-07,0.0,0.0,0.0,0.0,0.0,0.0,0.0,0.0,24
3800000,3720000,0.68707037,0.0015337378,-0.015164201,0.726431,0.00026971023,0.0013847472,-0.007447969,-1.4941087e-05,6.252283e-05,-0.00058094173,-5.2201433e-08,-9.810763e-06,-1.7155485e-06,4.5930105e-06,1.9696035e-05,-0.0009799271,0.20874913,0.011620778,0.43578622,0.0,0.0,0.0,0.0,0.0,0.0008555748,0.0004232493,0.00042273125,0.00076672726,0.004443196,0.0044435775,0.0014537544,8.6673244e-05,8.667406e-05,25.000021,8.432934e-07,8.4362944e-07,2.9607716e-07,2.7502706e-06,2.7505075e-06,4.13891e-07,0.0,0.0,0.0,0.0,0.0,0.0,0.0,0.0,24
3808000,3728000,0.6870682,0.00154342,-0.015181409,0.72643274,3.6248384e-05,0.0015204675,-0.0073814616,-1.3717253e-05,7.414369e-05,-0.0006402595,-5.2201433e-08,-9.810763e-06,-1.7155485e-06,4.5930105e-06,1.9696035e-05,-0.0009799271,0.20874913,0.011620778,0.43578622,0.0,0.0,0.0,0.0,0.0,0.0008584292,0.00043946403,0.00043893894,0.0007692716,0.0047516394,0.004752045,0.0015035834,9.522409e-05,9.522457e-05,25.000025,8.4329344e-07,8.436295e-07,2.9607716e-07,2.7502708e-06,2.7505077e-06,4.1389106e-07,0.0,0.0,0.0,0.0,0.0,0.0,0.0,0.0,24
3816000,3736000,0.68706626,0.0015437707,-0.015188323,0.7264344,4.534275e-05,0.0016850234,-0.0074860603,-1.3390888e-05,8.696565e-05,-0.00069972954,-5.2201433e-08,-9.810763e-06,-1.7155485e-06,4.5930105e-06,1.9696035e-05,-0.0009799271,0.20874913,0.011620778,0.43578622,0.0,0.0,0.0,0.0,0.0,0.00086136174,0.00045610007,0.00045556846,0.0007718861,0.005079933,0.005080376,0.0015542138,0.00010474462,0.00010474479,25.000029,8.4329344e-07,8.436295e-07,2.9607716e-07,2.7502708e-06,2.7505077e-06,4.1389112e-07,0.0,0.0,0.0,0.0,0.0,0.0,0.0,0.0,24
3824000,3744000,0.6870673,0.001552548,-0.01519801,0.7264333,0.00010345274,0.0018186026,-0.007532075,-1.2795706e-05,0.000100980156,-0.00075980206,-5.2201433e-08,-9.810763e-06,-1.7155485e-06,4.5930105e-06,1.9696035e-05,-0.0009799271,0.20874913,0.011620778,0.43578622,0.0,0.0,0.0,0.0,0.0,0.0008643658,0.00047315806,0.00047261952,0.00077457697,0.0054283035,0.0054287873,0.0016056462,0.0001153108,0.000115310715,25.000032,8.4329344e-07,8.436295e-07,2.960772e-07,2.7502708e-06,2.7505077e-06,4.1389117e-07,0.0,0.0,0.0,0.0,0.0,0.0,0.0,0.0,24
3832000,3752000,0.68706864,0.0015302261,-0.015180872,0.7264323,-4.6862115e-05,0.0015951719,-0.0071906475,-1.17442305e-05,8.8040404e-05,-0.0007680597,-1.1221936e-07,-1.1258198e-05,-1.7282333e-06,5.1575244e-06,1.9832074e-05,-0.0009837829,0.20874913,0.011620778,0.43578622,0.0,0.0,0.0,0.0,0.0,0.00086744083,0.00046485523,0.0004643199,0.0007773369,0.005063689,0.0050640795,0.0015919006,0.00011650689,0.000116507006,25.000034,8.142781e-07,8.146034e-07,2.9605556e-07,2.744243e-06,2.7444912e-06,4.0292025e-07,0.0,0.0,0.0,0.0,0.0,0.0,0.0,0.0,24
3840000,3760000,0.68707234,0.0015339291,-0.015198125,0.72642845,-4.257477e-05,0.0017758239,-0.0072359294,-1.2101978e-05,0.00010152439,-0.000825766,-1.1221936e-07,-1.1258198e-05,-1.7282333e-06,5.1575244e-06,1.9832074e-05,-0.0009837829,0.20874913,0.011620778,0.43578622,0.0,0.0,0.0,0.0,0.0,0.00087059475,0.00048188475,0.00048134202,0.0007801735,0.005407712,0.0054081324,0.0016432247,0.00012777664,0.00012777651,25.000038,8.142781e-07,8.146034e-07,2.9605556e-07,2.744243e-06,2.7444912e-06,4.029203e-07,0.0,0.0,0.0,0.0,0.0,0.0,0.0,0.0,24
3848000,3768000,0.6870764,0.0015412958,-0.015211505,0.72642434,-8.62389e-05,0.0018240344,-0.007586248,-1.2617234e-05,0.00011592382,-0.0008850547,-1.1221936e-07,-1.1258198e-05,-1.7282333e-06,5.1575244e-06,1.9832074e-05,-0.0009837829,0.20874913,0.011620778,0.43578622,0.0,0.0,0.0,0.0,0.0,0.00087382615,0.0004993214,0.0004987713,0.00078308093,0.0057742726,0.00577472,0.0016953292,0.00014017406,0.00014017372,25.000042,8.142781e-07,8.146034e-07,2.9605556e-07,2.744243e-06,2.7444912e-06,4.0292036e-07,0.0,0.0,0.0,0.0,0.0,0.0,0.0,0.0,24
3856000,3776000,0.68707633,0.0015454321,-0.015220457,0.7264242,0.00010640378,0.0020609833,-0.0077686086,-1.2536574e-05,0.0001314639,-0.00094647415,-1.1221936e-07,-1.1258198e-05,-1.7282333e-06,5.1575244e-06,1.9832074e-05,-0.0009837829,0.20874913,0.011620778,0.43578622,0.0,0.0,0.0,0.0,0.0,0.0008771451,0.00051716506,0.00051660783,0.0007860488,0.0061625256,0.006163013,0.0017482148,0.00015378442,0.00015378396,25.000048,8.142781e-07,8.146034e-07,2.960556e-07,2.744243e-06,2.7444912e-06,4.0292042e-07,0.0,0.0,0.0,0.0,0.0,0.0,0.0,0.0,24
3864000,3784000,0.6870769,0.0015468629,-0.015240028,0.72642326,7.514056e-05,0.0021893498,-0.0076599047,-1.1810396e-05,0.00014846523,-0.0010081882,-1.1221936e-07,-1.1258198e-05,-1.7282333e-06,5.1575244e-06,1.9832074e-05,-0.0009837829,0.20874913,0.011620778,0.43578622,0.0,0.0,0.0,0.0,0.0,0.0008805403,0.0005354165,0.0005348513,0.0007890882,0.0065728277,0.0065733423,0.0018018818,0.00016869686,0.00016869634,25.000055,8.142781e-07,8.146034e-07,2.960556e-07,2.7442431e-06,2.7444914e-06,4.0292048e-07,0.0,0.0,0.0,0.0,0.0,0.0,0.0,0.0,24
3872000,3792000,0.6875326,0.001552339,-0.015260076,0.7259915,1.5860716e-05,0.0024029904,-0.007706971,-1.1459449e-05,0.00016718626,-0.0010696496,-6.825728e-08,-1.1256411e-05,7.713612e-07,5.1285547e-06,1.9754387e-05,-0.0009837844,0.20874913,0.011620778,0.43578622,0.0,0.0,0.0,0.0,0.0,0.0008237623,0.00055405265,0.0005535011,0.0007383056,0.007008397,0.007008931,0.0018563308,0.00018500522,0.00018500467,25.000063,8.1427754e-07,8.146034e-07,2.9422793e-07,2.744243e-06,2.7444896e-06,4.0292053e-07,0.0,0.0,0.0,0.0,0.0,0.0,0.0,0.0,24
3880000,3800000,0.6875269,0.001560263,-0.015288905,0.72599626,0.000112876936,0.0025166087,-0.0075945705,-1.0944498e-05,0.00018686465,-0.0011308558,-6.825728e-08,-1.1256411e-05,7.713612e-07,5.1285547e-06,1.9754387e-05,-0.0009837844,0.20874913,0.011620778,0.43578622,0.0,0.0,0.0,0.0,0.0,0.00082708366,0.00057311903,0.0005725586,0.0007412576,0.0074687744,0.0074693435,0.0019115607,0.00020281092,0.00020281044,25.00007,8.142776e-07,8.146035e-07,2.9422793e-07,2.744243e-06,2.7444896e-06,4.029206e-07,0.0,0.0,0.0,0.0,0.0,0.0,0.0,0.0,24
3888000,3808000,0.687531,0.0015687505,-0.0153033845,0.7259921,0.0002483775,0.0024874853,-0.007723652,-9.49948e-06,0.00020688103,-0.0011921286,-6.825728e-08,-1.1256411e-05,7.713612e-07,5.1285547e-06,1.9754387e-05,-0.0009837844,0.20874913,0.011620778,0.43578622,0.0,0.0,0.0,0.0,0.0,0.00083046244,0.00059259206,0.0005920235,0.0007442997,0.007957381,0.00795799,0.0019675714,0.00022221995,0.00022221963,25.000078,8.142776e-07,8.146035e-07,2.9422793e-07,2.744243e-06,2.7444896e-06,4.0292065e-07,0.0,0.0,0.0,0.0,0.0,0.0,0.0,0.0,24
3896000,3816000,0.68753994,0.0015899371,-0.015323913,0.7259832,0.00041023985,0.0027090875,-0.007692009,-6.8650106e-06,0.00022766732,-0.0012537913,-6.825728e-08,-1.1256411e-05,7.713612e-07,5.1285547e-06,1.9754387e-05,-0.0009837844,0.20874913,0.011620778,0.43578622,0.0,0.0,0.0,0.0,0.0,0.00083390845,0.00061247265,0.00061189523,0.0007474216,0.008473142,0.00847379,0.0020243658,0.00024334682,0.00024334676,25.000086,8.142776e-07,8.146035e-07,2.9422796e-07,2.7442431e-06,2.7444898e-06,4.029207e-07,0.0,0.0,0.0,0.0,0.0,0.0,0.0,0.0,24
3904000,3824000,0.6875453,0.0015838523,-0.015342169,0.7259777,0.00060228124,0.002718128,-0.007793531,-2.8149261e-06,0.00024937617,-0.0013157334,-6.825728e-08,-1.1256411e-05,7.713612e-07,5.1285547e-06,1.9754387e-05,-0.0009837844,0.20874913,0.011620778,0.43578622,0.0,0.0,0.0,0.0,0.0,0.0008374392,0.0006327604,0.00063217443,0.00075060566,0.009019111,0.009019804,0.0020819413,0.00026631047,0.0002663108,25.000093,8.142776e-07,8.146035e-07,2.9422796e-07,2.7442431e-06,2.7444898e-06,4.0292076e-07,0.0,0.0,0.0,0.0,0.0,0.0,0.0,0.0,24
3912000,3832000,0.6875452,0.0015931324,-0.015347957,0.72597766,0.0007150645,0.0026940024,-0.0078486055,2.454457e-06,0.0002710247,-0.001378302,-6.825728e-08,-1.1256411e-05,7.713612e-07,5.1285547e-06,1.9754387e-05,-0.0009837844,0.20874913,0.011620778,0.43578622,0.0,0.0,0.0,0.0,0.0,0.00084105984,0.0006534549,0.0006528608,0.00075384753,0.009595437,0.009596167,0.0021402994,0.0002912385,0.00029123932,25.000101,8.142776e-07,8.146035e-07,2.9422796e-07,2.7442431e-06,2.7444898e-06,4.0292082e-07,0.0,0.0,0.0,0.0,0.0,0.0,0.0,0.0,24
3920000,3840000,0.68754417,0.0016061799,-0.015368333,0.7259782,0.00081349735,0.0030520728,-0.007750266,8.568703e-06,0.0002940089,-0.012045903,-6.825606e-08,-1.1256413e-05,7.7136076e-07,5.128615e-06,1.9754332e-05,-0.000983782,0.20874913,0.011620778,0.43578622,0.0,0.0,0.0,0.0,0.0,0.0008447597,0.0006745573,0.0006739539,0.00075715693,0.010202573,0.010203334,0.002199436,0.0003182647,0.00031826616,8.221487,8.142776e-07,8.146035e-07,2.9422796e-07,2.7442431e-06,2.7444898e-06,4.0292e-07,0.0,0.0,0.0,0.0,0.0,0.0,0.0,0.0,24
3928000,3848000,0.68754596,0.0016131147,-0.015383594,0.72597617,0.0007644447,0.0034003179,-0.007855132,1.4880472e-05,0.00031981847,-0.012108325,-6.825606e-08,-1.1256413e-05,7.7136076e-07,5.128615e-06,1.9754332e-05,-0.000983782,0.20874913,0.011620778,0.43578622,0.0,0.0,0.0,0.0,0.0,0.0008485312,0.00069606677,0.00069545436,0.00076054194,0.010844538,0.01084531,0.002259363,0.0003475293,0.00034753152,8.221491,8.142776e-07,8.146035e-07,2.94228e-07,2.7442434e-06,2.74449e-06,4.0292005e-07,0.0,0.0,0.0,0.0,0.0,0.0,0.0,0.0,24
3936000,3856000,0.68754077,0.0016202646,-0.01539848,0.7259807,0.00067138416,0.0037724613,-0.007949859,2.0623787e-05,0.00034850958,-0.012171545,-6.825606e-08,-1.1256413e-05,7.7136076e-07,5.128615e-06,1.9754332e-05,-0.000983782,0.20874913,0.011620778,0.43578622,0.0,0.0,0.0,0.0,0.0,0.00085239543,0.0007179835,0.0007173619,0.00076398137,0.011521144,0.011521919,0.0023200738,0.00037918333,0.0003791864,8.221495,8.142776e-07,8.146035e-07,2.94228e-07,2.7442434e-06,2.74449e-06,4.029201e-07,0.0,0.0,0.0,0.0,0.0,0.0,0.0,0.0,24
3944000,3864000,0.6877664,0.0016185794,-0.0154137155,0.72576666,0.00070124917,0.003878774,-0.00808161,2.6120484e-05,0.00037951182,-0.012235669,-4.074653e-08,-1.1254914e-05,2.2482748e-06,5.1113343e-06,1.9710164e-05,-0.0009837828,0.20874913,0.011620778,0.43578622,0.0,0.0,0.0,0.0,0.0,0.0007997162,0.0007402875,0.00073967554,0.00071683456,0.012234199,0.012234985,0.0023815653,0.0004133843,0.00041338813,8.2214985,8.142768e-07,8.146035e-07,2.9188794e-07,2.7442431e-06,2.744488e-06,4.0292016e-07,0.0,0.0,0.0,0.0,0.0,0.0,0.0,0.0,24
3952000,3872000,0.6877686,0.0016308118,-0.015430341,0.72576416,0.0008993822,0.00380809,-0.0084723905,3.252301e-05,0.0004102593,-0.0123018855,-4.074653e-08,-1.1254914e-05,2.2482748e-06,5.1113343e-06,1.9710164e-05,-0.0009837828,0.20874913,0.011620778,0.43578622,0.0,0.0,0.0,0.0,0.0,0.0008034543,0.00076301885,0.0007623972,0.0007201928,0.012987304,0.012988132,0.0024438384,0.00045029863,0.00045030355,8.221502,8.1427686e-07,8.1460354e-07,2.9188794e-07,2.7442431e-06,2.744488e-06,4.0292022e-07,0.0,0.0,0.0,0.0,0.0,0.0,0.0,0.0,24
3960000,3880000,0.68776834,0.0016536333,-0.015450451,0.725764,0.000956524,0.004009914,-0.0087673515,3.9946637e-05,0.0004415313,-0.012370844,-4.074653e-08,-1.1254914e-05,2.2482748e-06,5.1113343e-06,1.9710164e-05,-0.0009837828,0.20874913,0.011620778,0.43578622,0.0,0.0,0.0,0.0,0.0,0.0008072745,0.0007861576,0.0007855257,0.000723615,0.013778745,0.013779591,0.0025068985,0.0004901044,0.00049011054,8.221507,8.1427686e-07,8.1460354e-07,2.9188794e-07,2.7442431e-06,2.744488e-06,4.0292028e-07,0.0,0.0,0.0,0.0,0.0,0.0,0.0,0.0,24
3968000,3888000,0.6877606,0.0016613725,-0.015462309,0.72577107,0.0009127118,0.0044525927,-0.008976072,4.742358e-05,0.00047538133,-0.012441818,-4.074653e-08,-1.1254914e-05,2.2482748e-06,5.1113343e-06,1.9710164e-05,-0.0009837828,0.20874913,0.011620778,0.43578622,0.0,0.0,0.0,0.0,0.0,0.0008111871,0.0008097033,0.00080906175,0.0007270907,0.014609991,0.014610828,0.002570746,0.000532985,0.00053299265,8.221513,8.1427686e-07,8.1460354e-07,2.9188797e-07,2.7442434e-06,2.7444883e-06,4.0292034e-07,0.0,0.0,0.0,0.0,0.0,0.0,0.0,0.0,24
3976000,3896000,0.6877586,0.0016648552,-0.015479541,0.72577256,0.0010681534,0.004616237,-0.00922708,5.5346907e-05,0.0005116552,-0.052125346,-4.0747977e-08,-1.125495e-05,2.2482716e-06,5.1117463e-06,1.9709792e-05,-0.0009837659,0.20874913,0.011620778,0.43578622,0.0,0.0,0.0,0.0,0.0,0.00081516453,0.00083365646,0.00083300483,0.0007306473,0.015483841,0.015484704,0.0026353688,0.00057913346,0.0005791426,4.919694,8.1427686e-07,8.1460354e-07,2.9188797e-07,2.7442434e-06,2.7444883e-06,4.029198e-07,0.0,0.0,0.0,0.0,0.0,0.0,0.0,0.0,24
3984000,3904000,0.68775827,0.0016723372,-0.015490257,0.7257727,0.0012527672,0.004894891,-0.009510674,6.463059e-05,0.0005496997,-0.0522003,-4.0747977e-08,-1.125495e-05,2.2482716e-06,5.1117463e-06,1.9709792e-05,-0.0009837659,0.20874913,0.011620778,0.43578622,0.0,0.0,0.0,0.0,0.0,0.00081921596,0.00085801666,0.0008573552,0.00073427614,0.016401857,0.016402746,0.002700784,0.0006287539,0.0006287647,4.9196978,8.1427686e-07,8.1460354e-07,2.9188797e-07,2.7442434e-06,2.7444883e-06,4.0291985e-07,0.0,0.0,0.0,0.0,0.0,0.0,0.0,0.0,24
3992000,3912000,0.6877633,0.0016810502,-0.015500549,0.7257677,0.0013580384,0.005096506,-0.009681918,7.507381e-05,0.0005896653,-0.05227707,-4.0747977e-08,-1.125495e-05,2.2482716e-06,5.1117463e-06,1.9709792e-05,-0.0009837659,0.20874913,0.011620778,0.43578622,0.0,0.0,0.0,0.0,0.0,0.0008233331,0.00088278414,0.00088211265,0.0007379853,0.017363872,0.017364774,0.0027669824,0.00068206084,0.0006820734,4.919702,8.1427686e-07,8.1460354e-07,2.9188797e-07,2.7442434e-06,2.7444883e-06,4.029199e-07,0.0,0.0,0.0,0.0,0.0,0.0,0.0,0.0,24
4000000,3920000,0.6877612,0.0016983408,-0.015513257,0.72576934,0.001227963,0.005236293,-0.009681128,8.541782e-05,0.00063099654,-0.052354522,-4.0747977e-08,-1.125495e-05,2.2482716e-06,5.1117463e-06,1.9709792e-05,-0.0009837659,0.20874913,0.011620778,0.43578622,0.0,0.0,0.0,0.0,0.0,0.00082754216,0.00090795895,0.000907277,0.00074174866,0.018370543,0.018371413,0.0028339636,0.00073927693,0.0007392915,4.919707,8.1427686e-07,8.1460354e-07,2.9188797e-07,2.7442436e-06,2.7444885e-06,4.0291997e-07,0.0,0.0,0.0,0.0,0.0,0.0,0.0,0.0,24
4008000,3928000,0.68776137,0.0014867535,-0.015200743,0.7257762,0.0005666462,0.0025612998,-0.009741009,1.0452932e-05,7.4737065e-05,-0.0524325,-2.0822827e-06,-2.1040765e-05,2.2041975e-06,8.896062e-06,1.9411395e-05,-0.000983857,0.20874913,0.011620778,0.43578622,0.0,0.0,0.0,0.0,0.0,0.00083173346,0.0006209343,0.0006203808,0.00074556447,0.0045514996,0.0045516407,0.0029016964,8.889672e-05,8.889689e-05,4.919712,6.195311e-07,6.1979404e-07,2.9174743e-07,2.7161502e-06,2.7164394e-06,4.0289524e-07,0.0,0.0,0.0,0.0,0.0,0.0,0.0,0.0,24
4016000,3936000,0.68795496,0.0015021889,-0.015211036,0.7255924,0.00063067593,0.0025065388,-0.009982432,1.524568e-05,9.508114e-05,-0.05251139,-2.0567393e-06,-2.1048569e-05,3.6363463e-06,8.8818815e-06,1.9371664e-05,-0.0009838578,0.20874913,0.011620778,0.43578622,0.0,0.0,0.0,0.0,0.0,0.00078205345,0.0006390505,0.00063850876,0.0007011086,0.0049328064,0.0049329395,0.002970245,9.6381074e-05,9.638135e-05,4.919718,6.1953017e-07,6.197939e-07,2.8887035e-07,2.71615e-06,2.7164372e-06,4.028953e-07,0.0,0.0,0.0,0.0,0.0,0.0,0.0,0.0,24
4024000,3944000,0.6879535,0.001519759,-0.015215401,0.7255937,0.0008227456,0.002653326,-0.010072097,2.1059366e-05,0.0001157206,-0.052591607,-2.0567393e-06,-2.1048569e-05,3.6363463e-06,8.8818815e-06,1.9371664e-05,-0.0009838578,0.20874913,0.011620778,0.43578622,0.0,0.0,0.0,0.0,0.0,0.00078620185,0.0006574964,0.00065694726,0.0007048239,0.005339005,0.005339133,0.0030395808,0.00010478848,0.00010478888,4.919724,6.195302e-07,6.19794e-07,2.8887035e-07,2.71615e-06,2.7164372e-06,4.0289535e-07,0.0,0.0,0.0,0.0,0.0,0.0,0.0,0.0,24
4032000,3952000,0.68795264,0.0015169032,-0.015216536,0.7255945,0.0008243881,0.0026402364,-0.01006766,2.7647904e-05,0.00013689487,-0.050591346,-2.0567388e-06,-2.1048567e-05,3.6363465e-06,8.881843e-06,1.9371699e-05,-0.0009838594,0.20874913,0.011620778,0.43578622,0.0,0.0,0.0,0.0,0.0,0.00079042494,0.0006762521,0.00067569583,0.0007086088,0.0057714074,0.0057715178,0.0031096917,0.0001142091,0.000114209644,3.510055,6.195302e-07,6.19794e-07,2.8887035e-07,2.7161502e-06,2.7164374e-06,4.0289453e-07,0.0,0.0,0.0,0.0,0.0,0.0,0.0,0.0,24
4040000,3960000,0.68796164,0.0014762969,-0.015141837,0.7255876,0.0006302145,0.0022947944,-0.009474007,2.3805254e-05,0.00012129229,-0.05059836,-3.0295087e-06,-2.3910077e-05,3.6397782e-06,7.0395113e-06,2.0211379e-05,-0.0009911405,0.20874913,0.011620778,0.43578622,0.0,0.0,0.0,0.0,0.0,0.00079468463,0.0006334658,0.0006329248,0.0007124765,0.005392511,0.0053925696,0.0029463193,0.00011576601,0.000115766474,3.5100577,5.630556e-07,5.6330373e-07,2.8883903e-07,2.6961e-06,2.696366e-06,3.8070237e-07,0.0,0.0,0.0,0.0,0.0,0.0,0.0,0.0,24
4048000,3968000,0.68795854,0.0014875523,-0.015160181,0.72559017,0.0006978047,0.002311757,-0.0093777925,2.9117331e-05,0.0001397185,-0.050673768,-3.0295087e-06,-2.3910077e-05,3.6397782e-06,7.0395113e-06,2.0211379e-05,-0.0009911405,0.20874913,0.011620778,0.43578622,0.0,0.0,0.0,0.0,0.0,0.00079906353,0.0006509585,0.00065040955,0.0007163935,0.005816839,0.0058168825,0.0030134276,0.00012592638,0.00012592695,3.5100632,5.630556e-07,5.6330373e-07,2.8883906e-07,2.6961e-06,2.696366e-06,3.8070243e-07,0.0,0.0,0.0,0.0,0.0,0.0,0.0,0.0,24
4056000,3976000,0.6879528,0.0014951468,-0.015170706,0.72559536,0.0006914025,0.002406999,-0.009606138,3.4674158e-05,0.00015859352,-0.050749704,-3.0295087e-06,-2.3910077e-05,3.6397782e-06,7.0395113e-06,2.0211379e-05,-0.0009911405,0.20874913,0.011620778,0.43578622,0.0,0.0,0.0,0.0,0.0,0.000803524,0.0006687325,0.000668176,0.00072037353,0.0062698936,0.0062699094,0.0030812782,0.00013721506,0.00013721574,3.5100691,5.630556e-07,5.6330373e-07,2.8883906e-07,2.6961e-06,2.696366e-06,3.807025e-07,0.0,0.0,0.0,0.0,0.0,0.0,0.0,0.0,24
4064000,3984000,0.6879549,0.0014998253,-0.015179031,0.7255932,0.00073272566,0.002429541,-0.00983461,4.0370673e-05,0.00017793968,-0.050827466,-3.0295087e-06,-2.3910077e-05,3.6397782e-06,7.0395113e-06,2.0211379e-05,-0.0009911405,0.20874913,0.011620778,0.43578622,0.0,0.0,0.0,0.0,0.0,0.00080804474,0.00068678806,0.00068622397,0.00072443776,0.0067508616,0.0067508537,0.00314987,0.0001497344,0.0001497352,3.5100756,5.630556e-07,5.6330373e-07,2.8883906e-07,2.6961002e-06,2.6963662e-06,3.8070252e-07,0.0,0.0,0.0,0.0,0.0,0.0,0.0,0.0,24
4072000,3992000,0.68795687,0.0015097078,-0.015184947,0.7255911,0.00069777627,0.0024851775,-0.009938426,4.6092682e-05,0.00019759857,-0.050906558,-3.0295087e-06,-2.3910077e-05,3.6397782e-06,7.0395113e-06,2.0211379e-05,-0.0009911405,0.20874913,0.011620778,0.43578622,0.0,0.0,0.0,0.0,0.0,0.00081264187,0.0007051251,0.00070455344,0.0007285703,0.007259939,0.0072598956,0.0032192043,0.00016359222,0.00016359314,3.5100825,5.630556e-07,5.6330373e-07,2.8883906e-07,2.6961002e-06,2.6963662e-06,3.8070257e-07,0.0,0.0,0.0,0.0,0.0,0.0,0.0,0.0,24
4080000,4000000,0.68796,0.0015138463,-0.015200804,0.7255878,0.0006346977,0.0026430846,-0.0100874975,5.142258e-05,0.00021811161,-0.050986663,-3.0295087e-06,-2.3910077e-05,3.6397782e-06,7.0395113e-06,2.0211379e-05,-0.0009911405,0.20874913,0.011620778,0.43578622,0.0,0.0,0.0,0.0,0.0,0.00081731234,0.0007237441,0.0007231643,0.0007327737,0.0077994308,0.0077993423,0.0032892812,0.0001789023,0.00017890328,3.5100899,5.630556e-07,5.6330373e-07,2.888391e-07,2.6961002e-06,2.6963662e-06,3.8070263e-07,0.0,0.0,0.0,0.0,0.0,0.0,0.0,0.0,24
4088000,4008000,0.68814605,0.0015165926,-0.015215055,0.7254111,0.0004985183,0.002676635,-0.010246898,5.597782e-05,0.00023956056,-0.06444838,-3.0022106e-06,-2.3920104e-05,5.1442694e-06,7.0236333e-06,2.0171145e-05,-0.0009911247,0.20874913,0.011620778,0.43578622,0.0,0.0,0.0,0.0,0.0,0.00076978153,0.00074262574,0.00074205594,0.00069024536,0.008370235,0.008370088,0.0033600852,0.00019578615,0.00019578714,2.7283268,5.6305447e-07,5.6330356e-07,2.8541157e-07,2.6960997e-06,2.6963637e-06,3.807015e-07,0.0,0.0,0.0,0.0,0.0,0.0,0.0,0.0,24
