timestamp,timestamp_sample,gps_hvel[0],gps_hvel[1],gps_vvel,gps_hpos[0],gps_hpos[1],gps_vpos,ev_hvel[0],ev_hvel[1],ev_vvel,ev_hpos[0],ev_hpos[1],ev_vpos,rng_vpos,baro_vpos,aux_hvel[0],aux_hvel[1],aux_vvel,flow[0],flow[1],terr_flow[0],terr_flow[1],heading,mag_field[0],mag_field[1],mag_field[2],gravity[0],gravity[1],gravity[2],drag[0],drag[1],airspeed,beta,hagl,hagl_rate
3200000,3120000,0.0,0.0,0.0,0.0,0.0,0.0,0.0,0.0,0.0,0.0,0.0,0.0,0.0,7.619773e-15,0.0,0.0,nan,0.0,0.0,0.0,0.0,0.0,0.0,0.0,0.0,0.00018698357,0.0,0.0,0.0,0.0,0.0,0.0,0.0,0.0
3208000,3128000,0.0,0.0,0.0,0.0,0.0,0.0,0.0,0.0,0.0,0.0,0.0,0.0,0.0,7.619773e-15,0.0,0.0,nan,0.0,0.0,0.0,0.0,0.0,0.0,0.0,0.0,4.9059877e-06,0.0,0.0,0.0,0.0,0.0,0.0,0.0,0.0
3216000,3136000,0.0,0.0,0.0,0.0,0.0,0.0,0.0,0.0,0.0,0.0,0.0,0.0,0.0,7.619773e-15,0.0,0.0,nan,0.0,0.0,0.0,0.0,0.0,0.0,0.0,0.0,4.8083617e-05,0.0,0.0,0.0,0.0,0.0,0.0,0.0,0.0
3224000,3144000,0.0,0.0,0.0,0.0,0.0,0.0,0.0,0.0,0.0,0.0,0.0,0.0,0.0,7.619773e-15,0.0,0.0,nan,0.0,0.0,0.0,0.0,0.0,inf,0.0,0.0,0.00014410813,0.0,0.0,0.0,0.0,0.0,0.0,0.0,0.0
3232000,3152000,0.0,0.0,0.0,0.0,0.0,0.0,0.0,0.0,0.0,0.0,0.0,0.0,0.0,7.619773e-15,0.0,0.0,nan,0.0,0.0,0.0,0.0,0.0,inf,0.0,0.0,2.1375732e-05,0.0,0.0,0.0,0.0,0.0,0.0,0.0,0.0
3240000,3160000,0.0,0.0,0.0,0.0,0.0,0.0,0.0,0.0,0.0,0.0,0.0,0.0,0.0,7.619773e-15,0.0,0.0,nan,0.0,0.0,0.0,0.0,0.0,inf,0.0,0.0,0.00041190605,0.0,0.0,0.0,0.0,0.0,0.0,0.0,0.0
3248000,3168000,0.0,0.0,0.0,0.0,0.0,0.0,0.0,0.0,0.0,0.0,0.0,0.0,0.0,7.619773e-15,0.0,0.0,nan,0.0,0.0,0.0,0.0,0.0,inf,0.0,0.0,0.0002863168,0.0,0.0,0.0,0.0,0.0,0.0,0.0,0.0
3256000,3176000,0.0,0.0,0.0,0.0,0.0,0.0,0.0,0.0,0.0,0.0,0.0,0.0,0.0,7.619773e-15,0.0,0.0,nan,0.0,0.0,0.0,0.0,0.0,inf,0.0,0.0,7.3303236e-05,0.0,0.0,0.0,0.0,0.0,0.0,0.0,0.0
3264000,3184000,0.0,0.0,0.0,0.0,0.0,0.0,0.0,0.0,0.0,0.0,0.0,0.0,0.0,3.1136022e-07,0.0,0.0,nan,0.0,0.0,0.0,0.0,0.0,inf,0.0,0.0,0.00012182326,0.0,0.0,0.0,0.0,0.0,0.0,0.0,0.0
3272000,3192000,0.0,0.0,0.0,0.0,0.0,0.0,0.0,0.0,0.0,0.0,0.0,0.0,0.0,3.1136022e-07,0.0,0.0,nan,0.0,0.0,0.0,0.0,0.0,inf,0.0,0.0,0.00022971153,0.0,0.0,0.0,0.0,0.0,0.0,0.0,0.0
3280000,3200000,0.0,0.0,0.0,0.0,0.0,0.0,0.0,0.0,0.0,0.0,0.0,0.0,0.0,3.1136022e-07,0.0,0.0,nan,0.0,0.0,0.0,0.0,0.0,inf,0.0,0.0,7.6549535e-05,0.0,0.0,0.0,0.0,0.0,0.0,0.0,0.0
3288000,3208000,0.0,0.0,0.0,0.0,0.0,0.0,0.0,0.0,0.0,0.0,0.0,0.0,0.0,3.1136022e-07,0.0,0.0,nan,0.0,0.0,0.0,0.0,0.0,inf,0.0,0.0,0.00014260806,0.0,0.0,0.0,0.0,0.0,0.0,0.0,0.0
3296000,3216000,0.0,0.0,0.0,0.0,0.0,0.0,0.0,0.0,0.0,0.0,0.0,0.0,0.0,3.1136022e-07,0.0,0.0,nan,0.0,0.0,0.0,0.0,0.0,inf,0.0,0.0,0.00039069937,0.0,0.0,0.0,0.0,0.0,0.0,0.0,0.0
3304000,3224000,0.0,0.0,0.0,0.0,0.0,0.0,0.0,0.0,0.0,0.0,0.0,0.0,0.0,3.1136022e-07,0.0,0.0,nan,0.0,0.0,0.0,0.0,0.0,inf,0.0,0.0,0.00093629607,0.0,0.0,0.0,0.0,0.0,0.0,0.0,0.0
3312000,3232000,0.0,0.0,0.0,0.0,0.0,0.0,0.0,0.0,0.0,0.0,0.0,0.0,0.0,3.1136022e-07,0.0,0.0,nan,0.0,0.0,0.0,0.0,0.0,inf,0.0,0.0,0.00040758756,0.0,0.0,0.0,0.0,0.0,0.0,0.0,0.0
3320000,3240000,0.0,0.0,0.0,0.0,0.0,0.0,0.0,0.0,0.0,0.0,0.0,0.0,0.0,1.8560065e-08,0.0,0.0,nan,0.0,0.0,0.0,0.0,0.0,inf,0.0,0.0,0.00080841716,0.0,0.0,0.0,0.0,0.0,0.0,0.0,0.0
3328000,3248000,0.0,0.0,0.0,0.0,0.0,0.0,0.0,0.0,0.0,0.0,0.0,0.0,0.0,1.8560065e-08,0.0,0.0,nan,0.0,0.0,0.0,0.0,0.0,inf,0.0,0.0,2.4950075e-05,0.0,0.0,0.0,0.0,0.0,0.0,0.0,0.0
3336000,3256000,0.0,0.0,0.0,0.0,0.0,0.0,0.0,0.0,0.0,0.0,0.0,0.0,0.0,1.8560065e-08,0.0,0.0,nan,0.0,0.0,0.0,0.0,0.0,inf,0.0,0.0,4.2657184e-08,0.0,0.0,0.0,0.0,0.0,0.0,0.0,0.0
3344000,3264000,0.0,0.0,0.0,0.0,0.0,0.0,0.0,0.0,0.0,0.0,0.0,0.0,0.0,1.8560065e-08,0.0,0.0,nan,0.0,0.0,0.0,0.0,0.0,inf,0.0,0.0,0.0007125665,0.0,0.0,0.0,0.0,0.0,0.0,0.0,0.0
3352000,3272000,0.0,0.0,0.0,0.0,0.0,0.0,0.0,0.0,0.0,0.0,0.0,0.0,0.0,1.8560065e-08,0.0,0.0,nan,0.0,0.0,0.0,0.0,0.0,inf,0.0,0.0,0.00029171782,0.0,0.0,0.0,0.0,0.0,0.0,0.0,0.0
3360000,3280000,0.0,0.0,0.0,0.0,0.0,0.0,0.0,0.0,0.0,0.0,0.0,0.0,0.0,1.8560065e-08,0.0,0.0,nan,0.0,0.0,0.0,0.0,0.0,inf,0.0,0.0,0.00022186468,0.0,0.0,0.0,0.0,0.0,0.0,0.0,0.0
3368000,3288000,0.0,0.0,0.0,0.0,0.0,0.0,0.0,0.0,0.0,0.0,0.0,0.0,0.0,1.8560065e-08,0.0,0.0,nan,0.0,0.0,0.0,0.0,0.0,inf,0.0,0.0,0.0005276352,0.0,0.0,0.0,0.0,0.0,0.0,0.0,0.0
3376000,3296000,0.0,0.0,0.0,0.0,0.0,0.0,0.0,0.0,0.0,0.0,0.0,0.0,0.0,1.8560065e-08,0.0,0.0,nan,0.0,0.0,0.0,0.0,0.0,inf,0.0,0.0,0.00042621733,0.0,0.0,0.0,0.0,0.0,0.0,0.0,0.0
3384000,3304000,0.0,0.0,0.0,0.0,0.0,0.0,0.0,0.0,0.0,0.0,0.0,0.0,0.0,1.7404445e-06,0.0,0.0,nan,0.0,0.0,0.0,0.0,0.0,inf,0.0,0.0,3.2775064e-05,0.0,0.0,0.0,0.0,0.0,0.0,0.0,0.0
3392000,3312000,0.0,0.0,0.0,0.0,0.0,0.0,0.0,0.0,0.0,0.0,0.0,0.0,0.0,1.7404445e-06,0.0,0.0,nan,0.0,0.0,0.0,0.0,0.0,inf,0.0,0.0,7.969391e-05,0.0,0.0,0.0,0.0,0.0,0.0,0.0,0.0
3400000,3320000,0.0,0.0,0.0,0.0,0.0,0.0,0.0,0.0,0.0,0.0,0.0,0.0,0.0,1.7404445e-06,0.0,0.0,nan,0.0,0.0,0.0,0.0,0.0,inf,0.0,0.0,0.00024913004,0.0,0.0,0.0,0.0,0.0,0.0,0.0,0.0
3408000,3328000,1.8660082e-06,0.0,0.00043201572,1.3137551e-10,0.0,186.8585,0.0,0.0,0.0,0.0,0.0,0.0,0.0,1.7404445e-06,0.0,0.0,nan,0.0,0.0,0.0,0.0,0.0,inf,0.0,0.0,8.360688e-06,0.0,0.0,0.0,0.0,0.0,0.0,0.0,0.0
3416000,3336000,1.8660082e-06,0.0,0.00043201572,1.3137551e-10,0.0,186.8585,0.0,0.0,0.0,0.0,0.0,0.0,0.0,1.7404445e-06,0.0,0.0,nan,0.0,0.0,0.0,0.0,0.0,inf,0.0,0.0,0.00019547208,0.0,0.0,0.0,0.0,0.0,0.0,0.0,0.0
3424000,3344000,1.8660082e-06,0.0,0.00043201572,1.3137551e-10,0.0,186.8585,0.0,0.0,0.0,0.0,0.0,0.0,0.0,1.7404445e-06,0.0,0.0,nan,0.0,0.0,0.0,0.0,0.0,inf,0.0,0.0,0.0023219516,0.0,0.0,0.0,0.0,0.0,0.0,0.0,0.0
3432000,3352000,1.8660082e-06,0.0,0.00043201572,1.3137551e-10,0.0,186.8585,0.0,0.0,0.0,0.0,0.0,0.0,0.0,1.7404445e-06,0.0,0.0,nan,0.0,0.0,0.0,0.0,0.0,inf,0.0,0.0,8.8449946e-05,0.0,0.0,0.0,0.0,0.0,0.0,0.0,0.0
3440000,3360000,1.8660082e-06,0.0,0.00043201572,1.3137551e-10,0.0,186.8585,0.0,0.0,0.0,0.0,0.0,0.0,0.0,1.1220409e-06,0.0,0.0,nan,0.0,0.0,0.0,0.0,0.00034070626,inf,0.0,0.0,1.3385121e-05,0.0,0.0,0.0,0.0,0.0,0.0,0.0,0.0
3448000,3368000,1.8660082e-06,0.0,0.00043201572,1.3137551e-10,0.0,186.8585,0.0,0.0,0.0,0.0,0.0,0.0,0.0,1.1220409e-06,0.0,0.0,nan,0.0,0.0,0.0,0.0,0.00034070626,inf,0.0,0.0,0.0015467247,0.0,0.0,0.0,0.0,0.0,0.0,0.0,0.0
3456000,3376000,1.8660082e-06,0.0,0.00043201572,1.3137551e-10,0.0,186.8585,0.0,0.0,0.0,0.0,0.0,0.0,0.0,1.1220409e-06,0.0,0.0,nan,0.0,0.0,0.0,0.0,0.00034070626,inf,0.0,0.0,0.0007293697,0.0,0.0,0.0,0.0,0.0,0.0,0.0,0.0
3464000,3384000,1.8660082e-06,0.0,0.00043201572,1.3137551e-10,0.0,186.8585,0.0,0.0,0.0,0.0,0.0,0.0,0.0,1.1220409e-06,0.0,0.0,nan,0.0,0.0,0.0,0.0,0.00034070626,inf,0.0,0.0,0.00061011635,0.0,0.0,0.0,0.0,0.0,0.0,0.0,0.0
3472000,3392000,1.8660082e-06,0.0,0.00043201572,1.3137551e-10,0.0,186.8585,0.0,0.0,0.0,0.0,0.0,0.0,0.0,1.1220409e-06,0.0,0.0,nan,0.0,0.0,0.0,0.0,0.00034070626,inf,0.0,0.0,6.630022e-05,0.0,0.0,0.0,0.0,0.0,0.0,0.0,0.0
3480000,3400000,1.8660082e-06,0.0,0.00043201572,1.3137551e-10,0.0,186.8585,0.0,0.0,0.0,0.0,0.0,0.0,0.0,1.1220409e-06,0.0,0.0,nan,0.0,0.0,0.0,0.0,0.00034070626,inf,0.0,0.0,1.0457482e-05,0.0,0.0,0.0,0.0,0.0,0.0,0.0,0.0
3488000,3408000,1.8660082e-06,0.0,0.00043201572,1.3137551e-10,0.0,186.8585,0.0,0.0,0.0,0.0,0.0,0.0,0.0,1.1220409e-06,0.0,0.0,nan,0.0,0.0,0.0,0.0,0.00034070626,inf,0.0,0.0,0.0001734139,0.0,0.0,0.0,0.0,0.0,0.0,0.0,0.0
3496000,3416000,1.8660082e-06,0.0,0.00043201572,1.3137551e-10,0.0,186.8585,0.0,0.0,0.0,0.0,0.0,0.0,0.0,1.1220409e-06,0.0,0.0,nan,0.0,0.0,0.0,0.0,0.00034070626,inf,0.0,0.0,0.000440441,0.0,0.0,0.0,0.0,0.0,0.0,0.0,0.0
3504000,3424000,1.8660082e-06,0.0,0.00043201572,1.3137551e-10,0.0,186.8585,0.0,0.0,0.0,0.0,0.0,0.0,0.0,1.0256e-05,0.0,0.0,nan,0.0,0.0,0.0,0.0,0.00034070626,inf,0.0,0.0,3.1375144e-05,0.0,0.0,0.0,0.0,0.0,0.0,0.0,0.0
3512000,3432000,1.8660082e-06,0.0,0.00043201572,1.3137551e-10,0.0,186.8585,0.0,0.0,0.0,0.0,0.0,0.0,0.0,1.0256e-05,0.0,0.0,nan,0.0,0.0,0.0,0.0,5.242667e-06,inf,0.0,0.0,0.00033785717,0.0,0.0,0.0,0.0,0.0,0.0,0.0,0.0
3520000,3440000,1.8660082e-06,0.0,0.00043201572,1.3137551e-10,0.0,186.8585,0.0,0.0,0.0,0.0,0.0,0.0,0.0,1.0256e-05,0.0,0.0,nan,0.0,0.0,0.0,0.0,5.242667e-06,inf,0.0,0.0,0.0005498556,0.0,0.0,0.0,0.0,0.0,0.0,0.0,0.0
3528000,3448000,1.8660082e-06,0.0,0.00043201572,1.3137551e-10,0.0,186.8585,0.0,0.0,0.0,0.0,0.0,0.0,0.0,1.0256e-05,0.0,0.0,nan,0.0,0.0,0.0,0.0,5.242667e-06,inf,0.0,0.0,0.00021603245,0.0,0.0,0.0,0.0,0.0,0.0,0.0,0.0
3536000,3456000,1.8660082e-06,0.0,0.00043201572,1.3137551e-10,0.0,186.8585,0.0,0.0,0.0,0.0,0.0,0.0,0.0,1.0256e-05,0.0,0.0,nan,0.0,0.0,0.0,0.0,5.242667e-06,inf,0.0,0.0,1.2309902e-05,0.0,0.0,0.0,0.0,0.0,0.0,0.0,0.0
3544000,3464000,1.8660082e-06,0.0,0.00043201572,1.3137551e-10,0.0,186.8585,0.0,0.0,0.0,0.0,0.0,0.0,0.0,1.0256e-05,0.0,0.0,nan,0.0,0.0,0.0,0.0,5.242667e-06,inf,0.0,0.0,0.00037537212,0.0,0.0,0.0,0.0,0.0,0.0,0.0,0.0
3552000,3472000,1.8660082e-06,0.0,0.00043201572,1.3137551e-10,0.0,186.8585,0.0,0.0,0.0,0.0,0.0,0.0,0.0,1.0256e-05,0.0,0.0,nan,0.0,0.0,0.0,0.0,5.242667e-06,inf,0.0,0.0,0.00083053246,0.0,0.0,0.0,0.0,0.0,0.0,0.0,0.0
3560000,3480000,1.8660082e-06,0.0,0.00043201572,1.3137551e-10,0.0,186.8585,0.0,0.0,0.0,0.0,0.0,0.0,0.0,7.504208e-07,0.0,0.0,nan,0.0,0.0,0.0,0.0,5.242667e-06,inf,0.0,0.0,0.00033990174,0.0,0.0,0.0,0.0,0.0,0.0,0.0,0.0
3568000,3488000,1.8660082e-06,0.0,0.00043201572,1.3137551e-10,0.0,186.8585,0.0,0.0,0.0,0.0,0.0,0.0,0.0,7.504208e-07,0.0,0.0,nan,0.0,0.0,0.0,0.0,5.242667e-06,inf,0.0,0.0,6.6364715e-05,0.0,0.0,0.0,0.0,0.0,0.0,0.0,0.0
3576000,3496000,1.8660082e-06,0.0,0.00043201572,1.3137551e-10,0.0,186.8585,0.0,0.0,0.0,0.0,0.0,0.0,0.0,7.504208e-07,0.0,0.0,nan,0.0,0.0,0.0,0.0,5.242667e-06,inf,0.0,0.0,0.00023082411,0.0,0.0,0.0,0.0,0.0,0.0,0.0,0.0
3584000,3504000,1.8660082e-06,0.0,0.00043201572,1.3137551e-10,0.0,186.8585,0.0,0.0,0.0,0.0,0.0,0.0,0.0,7.504208e-07,0.0,0.0,nan,0.0,0.0,0.0,0.0,0.0003063702,inf,0.0,0.0,7.4552096e-05,0.0,0.0,0.0,0.0,0.0,0.0,0.0,0.0
3592000,3512000,1.8660082e-06,0.0,0.00043201572,1.3137551e-10,0.0,186.8585,0.0,0.0,0.0,0.0,0.0,0.0,0.0,7.504208e-07,0.0,0.0,nan,0.0,0.0,0.0,0.0,0.0003063702,inf,0.0,0.0,4.069252e-05,0.0,0.0,0.0,0.0,0.0,0.0,0.0,0.0
3600000,3520000,1.8660082e-06,0.0,0.00043201572,1.3137551e-10,0.0,186.8585,0.0,0.0,0.0,0.0,0.0,0.0,0.0,7.504208e-07,0.0,0.0,nan,0.0,0.0,0.0,0.0,0.0003063702,inf,0.0,0.0,4.791906e-05,0.0,0.0,0.0,0.0,0.0,0.0,0.0,0.0
3608000,3528000,1.8660082e-06,0.0,0.00043201572,1.3137551e-10,0.0,186.8585,0.0,0.0,0.0,0.0,0.0,0.0,0.0,7.504208e-07,0.0,0.0,nan,0.0,0.0,0.0,0.0,0.0003063702,inf,0.0,0.0,0.000612552,0.0,0.0,0.0,0.0,0.0,0.0,0.0,0.0
3616000,3536000,1.8660082e-06,0.0,0.00043201572,1.3137551e-10,0.0,186.8585,0.0,0.0,0.0,0.0,0.0,0.0,0.0,7.504208e-07,0.0,0.0,nan,0.0,0.0,0.0,0.0,0.0003063702,inf,0.0,0.0,0.00040925952,0.0,0.0,0.0,0.0,0.0,0.0,0.0,0.0
3624000,3544000,1.8660082e-06,0.0,0.00043201572,1.3137551e-10,0.0,186.8585,0.0,0.0,0.0,0.0,0.0,0.0,0.0,2.5713138e-08,0.0,0.0,nan,0.0,0.0,0.0,0.0,0.0003063702,inf,0.0,0.0,0.00020517805,0.0,0.0,0.0,0.0,0.0,0.0,0.0,0.0
3632000,3552000,1.8660082e-06,0.0,0.00043201572,1.3137551e-10,0.0,186.8585,0.0,0.0,0.0,0.0,0.0,0.0,0.0,2.5713138e-08,0.0,0.0,nan,0.0,0.0,0.0,0.0,0.0003063702,inf,0.0,0.0,0.00025660335,0.0,0.0,0.0,0.0,0.0,0.0,0.0,0.0
3640000,3560000,1.8660082e-06,0.0,0.00043201572,1.3137551e-10,0.0,186.8585,0.0,0.0,0.0,0.0,0.0,0.0,0.0,2.5713138e-08,0.0,0.0,nan,0.0,0.0,0.0,0.0,0.0003063702,inf,0.0,0.0,0.000477654,0.0,0.0,0.0,0.0,0.0,0.0,0.0,0.0
3648000,3568000,1.8660082e-06,0.0,0.00043201572,1.3137551e-10,0.0,186.8585,0.0,0.0,0.0,0.0,0.0,0.0,0.0,2.5713138e-08,0.0,0.0,nan,0.0,0.0,0.0,0.0,0.0003063702,inf,0.0,0.0,0.00078983954,0.0,0.0,0.0,0.0,0.0,0.0,0.0,0.0
3656000,3576000,1.8660082e-06,0.0,0.00043201572,1.3137551e-10,0.0,186.8585,0.0,0.0,0.0,0.0,0.0,0.0,0.0,2.5713138e-08,0.0,0.0,nan,0.0,0.0,0.0,0.0,1.8720999e-05,inf,0.0,0.0,4.3304448e-05,0.0,0.0,0.0,0.0,0.0,0.0,0.0,0.0
3664000,3584000,1.8660082e-06,0.0,0.00043201572,1.3137551e-10,0.0,186.8585,0.0,0.0,0.0,0.0,0.0,0.0,0.0,2.5713138e-08,0.0,0.0,nan,0.0,0.0,0.0,0.0,1.8720999e-05,inf,0.0,0.0,0.00067141483,0.0,0.0,0.0,0.0,0.0,0.0,0.0,0.0
3672000,3592000,1.8660082e-06,0.0,0.00043201572,1.3137551e-10,0.0,186.8585,0.0,0.0,0.0,0.0,0.0,0.0,0.0,2.5713138e-08,0.0,0.0,nan,0.0,0.0,0.0,0.0,1.8720999e-05,inf,0.0,0.0,0.00015511196,0.0,0.0,0.0,0.0,0.0,0.0,0.0,0.0
3680000,3600000,1.8660082e-06,0.0,0.00043201572,1.3137551e-10,0.0,186.8585,0.0,0.0,0.0,0.0,0.0,0.0,0.0,1.5543019e-07,0.0,0.0,nan,0.0,0.0,0.0,0.0,1.8720999e-05,inf,0.0,0.0,0.00048508542,0.0,0.0,0.0,0.0,0.0,0.0,0.0,0.0
3688000,3608000,1.8660082e-06,0.0,0.00043201572,1.3137551e-10,0.0,186.8585,0.0,0.0,0.0,0.0,0.0,0.0,0.0,1.5543019e-07,0.0,0.0,nan,0.0,0.0,0.0,0.0,1.8720999e-05,inf,0.0,0.0,9.580965e-05,0.0,0.0,0.0,0.0,0.0,0.0,0.0,0.0
3696000,3616000,1.8660082e-06,0.0,0.00043201572,1.3137551e-10,0.0,186.8585,0.0,0.0,0.0,0.0,0.0,0.0,0.0,1.5543019e-07,0.0,0.0,nan,0.0,0.0,0.0,0.0,1.8720999e-05,inf,0.0,0.0,8.509857e-05,0.0,0.0,0.0,0.0,0.0,0.0,0.0,0.0
3704000,3624000,1.8660082e-06,0.0,0.00043201572,1.3137551e-10,0.0,186.8585,0.0,0.0,0.0,0.0,0.0,0.0,0.0,1.5543019e-07,0.0,0.0,nan,0.0,0.0,0.0,0.0,1.8720999e-05,inf,0.0,0.0,0.00045537486,0.0,0.0,0.0,0.0,0.0,0.0,0.0,0.0
3712000,3632000,1.8660082e-06,0.0,0.00043201572,1.3137551e-10,0.0,186.8585,0.0,0.0,0.0,0.0,0.0,0.0,0.0,1.5543019e-07,0.0,0.0,nan,0.0,0.0,0.0,0.0,1.8720999e-05,inf,0.0,0.0,0.00046106413,0.0,0.0,0.0,0.0,0.0,0.0,0.0,0.0
3720000,3640000,1.8660082e-06,0.0,0.00043201572,1.3137551e-10,0.0,186.8585,0.0,0.0,0.0,0.0,0.0,0.0,0.0,1.5543019e-07,0.0,0.0,nan,0.0,0.0,0.0,0.0,1.8720999e-05,inf,0.0,0.0,0.00010680546,0.0,0.0,0.0,0.0,0.0,0.0,0.0,0.0
3728000,3648000,1.8660082e-06,0.0,0.00043201572,1.3137551e-10,0.0,186.8585,0.0,0.0,0.0,0.0,0.0,0.0,0.0,1.5543019e-07,0.0,0.0,nan,0.0,0.0,0.0,0.0,4.972571e-05,inf,0.0,0.0,0.0010939039,0.0,0.0,0.0,0.0,0.0,0.0,0.0,0.0
3736000,3656000,1.8660082e-06,0.0,0.00043201572,1.3137551e-10,0.0,186.8585,0.0,0.0,0.0,0.0,0.0,0.0,0.0,1.5543019e-07,0.0,0.0,nan,0.0,0.0,0.0,0.0,4.972571e-05,inf,0.0,0.0,0.00041583704,0.0,0.0,0.0,0.0,0.0,0.0,0.0,0.0
3744000,3664000,1.8660082e-06,0.0,0.00043201572,1.3137551e-10,0.0,186.8585,0.0,0.0,0.0,0.0,0.0,0.0,0.0,1.33305075e-05,0.0,0.0,nan,0.0,0.0,0.0,0.0,4.972571e-05,inf,0.0,0.0,0.0003197098,0.0,0.0,0.0,0.0,0.0,0.0,0.0,0.0
3752000,3672000,1.8660082e-06,0.0,0.00043201572,1.3137551e-10,0.0,186.8585,0.0,0.0,0.0,0.0,0.0,0.0,0.0,1.33305075e-05,0.0,0.0,nan,0.0,0.0,0.0,0.0,4.972571e-05,inf,0.0,0.0,0.0004888255,0.0,0.0,0.0,0.0,0.0,0.0,0.0,0.0
3760000,3680000,1.8660082e-06,0.0,0.00043201572,1.3137551e-10,0.0,186.8585,0.0,0.0,0.0,0.0,0.0,0.0,0.0,1.33305075e-05,0.0,0.0,nan,0.0,0.0,0.0,0.0,4.972571e-05,inf,0.0,0.0,0.00018774607,0.0,0.0,0.0,0.0,0.0,0.0,0.0,0.0
3768000,3688000,1.8660082e-06,0.0,0.00043201572,1.3137551e-10,0.0,186.8585,0.0,0.0,0.0,0.0,0.0,0.0,0.0,1.33305075e-05,0.0,0.0,nan,0.0,0.0,0.0,0.0,4.972571e-05,inf,0.0,0.0,5.7409456e-05,0.0,0.0,0.0,0.0,0.0,0.0,0.0,0.0
3776000,3696000,1.8660082e-06,0.0,0.00043201572,1.3137551e-10,0.0,186.8585,0.0,0.0,0.0,0.0,0.0,0.0,0.0,1.33305075e-05,0.0,0.0,nan,0.0,0.0,0.0,0.0,4.972571e-05,inf,0.0,0.0,0.0012169733,0.0,0.0,0.0,0.0,0.0,0.0,0.0,0.0
3784000,3704000,1.8660082e-06,0.0,0.00043201572,1.3137551e-10,0.0,186.8585,0.0,0.0,0.0,0.0,0.0,0.0,0.0,1.33305075e-05,0.0,0.0,nan,0.0,0.0,0.0,0.0,4.972571e-05,inf,0.0,0.0,6.8952686e-05,0.0,0.0,0.0,0.0,0.0,0.0,0.0,0.0
3792000,3712000,1.8660082e-06,0.0,0.00043201572,1.3137551e-10,0.0,186.8585,0.0,0.0,0.0,0.0,0.0,0.0,0.0,1.33305075e-05,0.0,0.0,nan,0.0,0.0,0.0,0.0,4.972571e-05,inf,0.0,0.0,4.8385686e-05,0.0,0.0,0.0,0.0,0.0,0.0,0.0,0.0
3800000,3720000,1.8660082e-06,0.0,0.00043201572,1.3137551e-10,0.0,186.8585,0.0,0.0,0.0,0.0,0.0,0.0,0.0,3.4052475e-06,0.0,0.0,nan,0.0,0.0,0.0,0.0,2.4269857e-05,inf,0.0,0.0,0.0005966697,0.0,0.0,0.0,0.0,0.0,0.0,0.0,0.0
3808000,3728000,9.759457e-07,0.0,3.122053e-05,2.1987052e-10,0.0,366.5408,0.0,0.0,0.0,0.0,0.0,0.0,0.0,3.4052475e-06,0.0,0.0,nan,0.0,0.0,0.0,0.0,2.4269857e-05,inf,0.0,0.0,0.00068109256,0.0,0.0,0.0,0.0,0.0,0.0,0.0,0.0
3816000,3736000,9.759457e-07,0.0,3.122053e-05,2.1987052e-10,0.0,366.5408,0.0,0.0,0.0,0.0,0.0,0.0,0.0,3.4052475e-06,0.0,0.0,nan,0.0,0.0,0.0,0.0,2.4269857e-05,inf,0.0,0.0,0.0003554523,0.0,0.0,0.0,0.0,0.0,0.0,0.0,0.0
3824000,3744000,9.759457e-07,0.0,3.122053e-05,2.1987052e-10,0.0,366.5408,0.0,0.0,0.0,0.0,0.0,0.0,0.0,3.4052475e-06,0.0,0.0,nan,0.0,0.0,0.0,0.0,2.4269857e-05,inf,0.0,0.0,0.00022341225,0.0,0.0,0.0,0.0,0.0,0.0,0.0,0.0
3832000,3752000,9.759457e-07,0.0,3.122053e-05,2.1987052e-10,0.0,366.5408,0.0,0.0,0.0,0.0,0.0,0.0,0.0,3.4052475e-06,0.0,0.0,nan,0.0,0.0,0.0,0.0,2.4269857e-05,inf,0.0,0.0,0.00032181334,0.0,0.0,0.0,0.0,0.0,0.0,0.0,0.0
3840000,3760000,9.759457e-07,0.0,3.122053e-05,2.1987052e-10,0.0,366.5408,0.0,0.0,0.0,0.0,0.0,0.0,0.0,3.4052475e-06,0.0,0.0,nan,0.0,0.0,0.0,0.0,2.4269857e-05,inf,0.0,0.0,0.0004269721,0.0,0.0,0.0,0.0,0.0,0.0,0.0,0.0
3848000,3768000,9.759457e-07,0.0,3.122053e-05,2.1987052e-10,0.0,366.5408,0.0,0.0,0.0,0.0,0.0,0.0,0.0,3.4052475e-06,0.0,0.0,nan,0.0,0.0,0.0,0.0,2.4269857e-05,inf,0.0,0.0,3.3183864e-05,0.0,0.0,0.0,0.0,0.0,0.0,0.0,0.0
3856000,3776000,9.759457e-07,0.0,3.122053e-05,2.1987052e-10,0.0,366.5408,0.0,0.0,0.0,0.0,0.0,0.0,0.0,3.4052475e-06,0.0,0.0,nan,0.0,0.0,0.0,0.0,2.4269857e-05,inf,0.0,0.0,0.00066120893,0.0,0.0,0.0,0.0,0.0,0.0,0.0,0.0
3864000,3784000,9.759457e-07,0.0,3.122053e-05,2.1987052e-10,0.0,366.5408,0.0,0.0,0.0,0.0,0.0,0.0,0.0,1.2680546e-06,0.0,0.0,nan,0.0,0.0,0.0,0.0,2.4269857e-05,inf,0.0,0.0,0.00021913304,0.0,0.0,0.0,0.0,0.0,0.0,0.0,0.0
3872000,3792000,9.759457e-07,0.0,3.122053e-05,2.1987052e-10,0.0,366.5408,0.0,0.0,0.0,0.0,0.0,0.0,0.0,1.2680546e-06,0.0,0.0,nan,0.0,0.0,0.0,0.0,0.00050570595,inf,0.0,0.0,0.00058374595,0.0,0.0,0.0,0.0,0.0,0.0,0.0,0.0
3880000,3800000,9.759457e-07,0.0,3.122053e-05,2.1987052e-10,0.0,366.5408,0.0,0.0,0.0,0.0,0.0,0.0,0.0,1.2680546e-06,0.0,0.0,nan,0.0,0.0,0.0,0.0,0.00050570595,inf,0.0,0.0,0.00015006405,0.0,0.0,0.0,0.0,0.0,0.0,0.0,0.0
3888000,3808000,9.759457e-07,0.0,3.122053e-05,2.1987052e-10,0.0,366.5408,0.0,0.0,0.0,0.0,0.0,0.0,0.0,1.2680546e-06,0.0,0.0,nan,0.0,0.0,0.0,0.0,0.00050570595,inf,0.0,0.0,0.00022676229,0.0,0.0,0.0,0.0,0.0,0.0,0.0,0.0
3896000,3816000,9.759457e-07,0.0,3.122053e-05,2.1987052e-10,0.0,366.5408,0.0,0.0,0.0,0.0,0.0,0.0,0.0,1.2680546e-06,0.0,0.0,nan,0.0,0.0,0.0,0.0,0.00050570595,inf,0.0,0.0,0.00057089684,0.0,0.0,0.0,0.0,0.0,0.0,0.0,0.0
3904000,3824000,9.759457e-07,0.0,3.122053e-05,2.1987052e-10,0.0,366.5408,0.0,0.0,0.0,0.0,0.0,0.0,0.0,1.2680546e-06,0.0,0.0,nan,0.0,0.0,0.0,0.0,0.00050570595,inf,0.0,0.0,0.00046318263,0.0,0.0,0.0,0.0,0.0,0.0,0.0,0.0
3912000,3832000,9.759457e-07,0.0,3.122053e-05,2.1987052e-10,0.0,366.5408,0.0,0.0,0.0,0.0,0.0,0.0,0.0,1.2680546e-06,0.0,0.0,nan,0.0,0.0,0.0,0.0,0.00050570595,inf,0.0,0.0,0.00015447162,0.0,0.0,0.0,0.0,0.0,0.0,0.0,0.0
3920000,3840000,9.759457e-07,0.0,3.122053e-05,2.1987052e-10,0.0,366.5408,0.0,0.0,0.0,0.0,0.0,0.0,0.0,2.681279e-07,0.0,0.0,nan,0.0,0.0,0.0,0.0,0.00050570595,inf,0.0,0.0,0.0015419484,0.0,0.0,0.0,0.0,0.0,0.0,0.0,0.0
3928000,3848000,9.759457e-07,0.0,3.122053e-05,2.1987052e-10,0.0,366.5408,0.0,0.0,0.0,0.0,0.0,0.0,0.0,2.681279e-07,0.0,0.0,nan,0.0,0.0,0.0,0.0,0.00050570595,inf,0.0,0.0,0.0015087335,0.0,0.0,0.0,0.0,0.0,0.0,0.0,0.0
3936000,3856000,9.759457e-07,0.0,3.122053e-05,2.1987052e-10,0.0,366.5408,0.0,0.0,0.0,0.0,0.0,0.0,0.0,2.681279e-07,0.0,0.0,nan,0.0,0.0,0.0,0.0,0.00050570595,inf,0.0,0.0,0.001732359,0.0,0.0,0.0,0.0,0.0,0.0,0.0,0.0
3944000,3864000,9.759457e-07,0.0,3.122053e-05,2.1987052e-10,0.0,366.5408,0.0,0.0,0.0,0.0,0.0,0.0,0.0,2.681279e-07,0.0,0.0,nan,0.0,0.0,0.0,0.0,0.00013789214,inf,0.0,0.0,0.00012559911,0.0,0.0,0.0,0.0,0.0,0.0,0.0,0.0
3952000,3872000,9.759457e-07,0.0,3.122053e-05,2.1987052e-10,0.0,366.5408,0.0,0.0,0.0,0.0,0.0,0.0,0.0,2.681279e-07,0.0,0.0,nan,0.0,0.0,0.0,0.0,0.00013789214,inf,0.0,0.0,0.00045038847,0.0,0.0,0.0,0.0,0.0,0.0,0.0,0.0
3960000,3880000,9.759457e-07,0.0,3.122053e-05,2.1987052e-10,0.0,366.5408,0.0,0.0,0.0,0.0,0.0,0.0,0.0,2.681279e-07,0.0,0.0,nan,0.0,0.0,0.0,0.0,0.00013789214,inf,0.0,0.0,0.00046870546,0.0,0.0,0.0,0.0,0.0,0.0,0.0,0.0
3968000,3888000,9.759457e-07,0.0,3.122053e-05,2.1987052e-10,0.0,366.5408,0.0,0.0,0.0,0.0,0.0,0.0,0.0,2.681279e-07,0.0,0.0,nan,0.0,0.0,0.0,0.0,0.00013789214,inf,0.0,0.0,0.0023397855,0.0,0.0,0.0,0.0,0.0,0.0,0.0,0.0
3976000,3896000,9.759457e-07,0.0,3.122053e-05,2.1987052e-10,0.0,366.5408,0.0,0.0,0.0,0.0,0.0,0.0,0.0,1.9007784e-05,0.0,0.0,nan,0.0,0.0,0.0,0.0,0.00013789214,inf,0.0,0.0,0.00031606693,0.0,0.0,0.0,0.0,0.0,0.0,0.0,0.0
3984000,3904000,9.759457e-07,0.0,3.122053e-05,2.1987052e-10,0.0,366.5408,0.0,0.0,0.0,0.0,0.0,0.0,0.0,1.9007784e-05,0.0,0.0,nan,0.0,0.0,0.0,0.0,0.00013789214,inf,0.0,0.0,0.00083916885,0.0,0.0,0.0,0.0,0.0,0.0,0.0,0.0
3992000,3912000,9.759457e-07,0.0,3.122053e-05,2.1987052e-10,0.0,366.5408,0.0,0.0,0.0,0.0,0.0,0.0,0.0,1.9007784e-05,0.0,0.0,nan,0.0,0.0,0.0,0.0,0.00013789214,inf,0.0,0.0,0.00044430373,0.0,0.0,0.0,0.0,0.0,0.0,0.0,0.0
4000000,3920000,9.759457e-07,0.0,3.122053e-05,2.1987052e-10,0.0,366.5408,0.0,0.0,0.0,0.0,0.0,0.0,0.0,1.9007784e-05,0.0,0.0,nan,0.0,0.0,0.0,0.0,0.00013789214,inf,0.0,0.0,0.000248775,0.0,0.0,0.0,0.0,0.0,0.0,0.0,0.0
4008000,3928000,9.759457e-07,0.0,3.122053e-05,2.1987052e-10,0.0,366.5408,0.0,0.0,0.0,0.0,0.0,0.0,0.0,1.9007784e-05,0.0,0.0,nan,0.0,0.0,0.0,0.0,0.00013789214,inf,0.0,0.0,0.0008359291,0.0,0.0,0.0,0.0,0.0,0.0,0.0,0.0
4016000,3936000,9.759457e-07,0.0,3.122053e-05,2.1987052e-10,0.0,366.5408,0.0,0.0,0.0,0.0,0.0,0.0,0.0,1.9007784e-05,0.0,0.0,nan,0.0,0.0,0.0,0.0,0.00010545796,inf,0.0,0.0,4.543058e-05,0.0,0.0,0.0,0.0,0.0,0.0,0.0,0.0
4024000,3944000,9.759457e-07,0.0,3.122053e-05,2.1987052e-10,0.0,366.5408,0.0,0.0,0.0,0.0,0.0,0.0,0.0,1.9007784e-05,0.0,0.0,nan,0.0,0.0,0.0,0.0,0.00010545796,inf,0.0,0.0,0.0004955283,0.0,0.0,0.0,0.0,0.0,0.0,0.0,0.0
4032000,3952000,9.759457e-07,0.0,3.122053e-05,2.1987052e-10,0.0,366.5408,0.0,0.0,0.0,0.0,0.0,0.0,0.0,1.2285992e-07,0.0,0.0,nan,0.0,0.0,0.0,0.0,0.00010545796,inf,0.0,0.0,2.1548187e-06,0.0,0.0,0.0,0.0,0.0,0.0,0.0,0.0
4040000,3960000,9.759457e-07,0.0,3.122053e-05,2.1987052e-10,0.0,366.5408,0.0,0.0,0.0,0.0,0.0,0.0,0.0,1.2285992e-07,0.0,0.0,nan,0.0,0.0,0.0,0.0,0.00010545796,inf,0.0,0.0,0.000112136884,0.0,0.0,0.0,0.0,0.0,0.0,0.0,0.0
4048000,3968000,9.759457e-07,0.0,3.122053e-05,2.1987052e-10,0.0,366.5408,0.0,0.0,0.0,0.0,0.0,0.0,0.0,1.2285992e-07,0.0,0.0,nan,0.0,0.0,0.0,0.0,0.00010545796,inf,0.0,0.0,5.8586702e-05,0.0,0.0,0.0,0.0,0.0,0.0,0.0,0.0
4056000,3976000,9.759457e-07,0.0,3.122053e-05,2.1987052e-10,0.0,366.5408,0.0,0.0,0.0,0.0,0.0,0.0,0.0,1.2285992e-07,0.0,0.0,nan,0.0,0.0,0.0,0.0,0.00010545796,inf,0.0,0.0,0.00011248533,0.0,0.0,0.0,0.0,0.0,0.0,0.0,0.0
4064000,3984000,9.759457e-07,0.0,3.122053e-05,2.1987052e-10,0.0,366.5408,0.0,0.0,0.0,0.0,0.0,0.0,0.0,1.2285992e-07,0.0,0.0,nan,0.0,0.0,0.0,0.0,0.00010545796,inf,0.0,0.0,2.2149494e-05,0.0,0.0,0.0,0.0,0.0,0.0,0.0,0.0
4072000,3992000,9.759457e-07,0.0,3.122053e-05,2.1987052e-10,0.0,366.5408,0.0,0.0,0.0,0.0,0.0,0.0,0.0,1.2285992e-07,0.0,0.0,nan,0.0,0.0,0.0,0.0,0.00010545796,inf,0.0,0.0,4.0382365e-05,0.0,0.0,0.0,0.0,0.0,0.0,0.0,0.0
4080000,4000000,9.759457e-07,0.0,3.122053e-05,2.1987052e-10,0.0,366.5408,0.0,0.0,0.0,0.0,0.0,0.0,0.0,1.2285992e-07,0.0,0.0,nan,0.0,0.0,0.0,0.0,0.00010545796,inf,0.0,0.0,0.00031566268,0.0,0.0,0.0,0.0,0.0,0.0,0.0,0.0
4088000,4008000,9.759457e-07,0.0,3.122053e-05,2.1987052e-10,0.0,366.5408,0.0,0.0,0.0,0.0,0.0,0.0,0.0,9.160475e-06,0.0,0.0,nan,0.0,0.0,0.0,0.0,9.769113e-05,inf,0.0,0.0,0.00021928734,0.0,0.0,0.0,0.0,0.0,0.0,0.0,0.0
4096000,4016000,9.759457e-07,0.0,3.122053e-05,2.1987052e-10,0.0,366.5408,0.0,0.0,0.0,0.0,0.0,0.0,0.0,9.160475e-06,0.0,0.0,nan,0.0,0.0,0.0,0.0,9.769113e-05,inf,0.0,0.0,0.00046632742,0.0,0.0,0.0,0.0,0.0,0.0,0.0,0.0
4104000,4024000,9.759457e-07,0.0,3.122053e-05,2.1987052e-10,0.0,366.5408,0.0,0.0,0.0,0.0,0.0,0.0,0.0,9.160475e-06,0.0,0.0,nan,0.0,0.0,0.0,0.0,9.769113e-05,inf,0.0,0.0,7.141482e-05,0.0,0.0,0.0,0.0,0.0,0.0,0.0,0.0
4112000,4032000,9.759457e-07,0.0,3.122053e-05,2.1987052e-10,0.0,366.5408,0.0,0.0,0.0,0.0,0.0,0.0,0.0,9.160475e-06,0.0,0.0,nan,0.0,0.0,0.0,0.0,9.769113e-05,inf,0.0,0.0,0.0001580603,0.0,0.0,0.0,0.0,0.0,0.0,0.0,0.0
4120000,4040000,9.759457e-07,0.0,3.122053e-05,2.1987052e-10,0.0,366.5408,0.0,0.0,0.0,0.0,0.0,0.0,0.0,9.160475e-06,0.0,0.0,nan,0.0,0.0,0.0,0.0,9.769113e-05,inf,0.0,0.0,0.00011043319,0.0,0.0,0.0,0.0,0.0,0.0,0.0,0.0
4128000,4048000,9.759457e-07,0.0,3.122053e-05,2.1987052e-10,0.0,366.5408,0.0,0.0,0.0,0.0,0.0,0.0,0.0,9.160475e-06,0.0,0.0,nan,0.0,0.0,0.0,0.0,9.769113e-05,inf,0.0,0.0,0.00015384199,0.0,0.0,0.0,0.0,0.0,0.0,0.0,0.0
4136000,4056000,9.759457e-07,0.0,3.122053e-05,2.1987052e-10,0.0,366.5408,0.0,0.0,0.0,0.0,0.0,0.0,0.0,9.160475e-06,0.0,0.0,nan,0.0,0.0,0.0,0.0,9.769113e-05,inf,0.0,0.0,0.00039743964,0.0,0.0,0.0,0.0,0.0,0.0,0.0,0.0
4144000,4064000,9.759457e-07,0.0,3.122053e-05,2.1987052e-10,0.0,366.5408,0.0,0.0,0.0,0.0,0.0,0.0,0.0,9.160475e-06,0.0,0.0,nan,0.0,0.0,0.0,0.0,9.769113e-05,inf,0.0,0.0,0.00012943459,0.0,0.0,0.0,0.0,0.0,0.0,0.0,0.0
4152000,4072000,9.759457e-07,0.0,3.122053e-05,2.1987052e-10,0.0,366.5408,0.0,0.0,0.0,0.0,0.0,0.0,0.0,1.5889442e-06,0.0,0.0,nan,0.0,0.0,0.0,0.0,9.769113e-05,inf,0.0,0.0,2.1309994e-05,0.0,0.0,0.0,0.0,0.0,0.0,0.0,0.0
4160000,4080000,9.759457e-07,0.0,3.122053e-05,2.1987052e-10,0.0,366.5408,0.0,0.0,0.0,0.0,0.0,0.0,0.0,1.5889442e-06,0.0,0.0,nan,0.0,0.0,0.0,0.0,5.2396004e-05,inf,0.0,0.0,0.00011157264,0.0,0.0,0.0,0.0,0.0,0.0,0.0,0.0
4168000,4088000,9.759457e-07,0.0,3.122053e-05,2.1987052e-10,0.0,366.5408,0.0,0.0,0.0,0.0,0.0,0.0,0.0,1.5889442e-06,0.0,0.0,nan,0.0,0.0,0.0,0.0,5.2396004e-05,inf,0.0,0.0,0.0005035962,0.0,0.0,0.0,0.0,0.0,0.0,0.0,0.0
4176000,4096000,9.759457e-07,0.0,3.122053e-05,2.1987052e-10,0.0,366.5408,0.0,0.0,0.0,0.0,0.0,0.0,0.0,1.5889442e-06,0.0,0.0,nan,0.0,0.0,0.0,0.0,5.2396004e-05,inf,0.0,0.0,0.00040095768,0.0,0.0,0.0,0.0,0.0,0.0,0.0,0.0
4184000,4104000,9.759457e-07,0.0,3.122053e-05,2.1987052e-10,0.0,366.5408,0.0,0.0,0.0,0.0,0.0,0.0,0.0,1.5889442e-06,0.0,0.0,nan,0.0,0.0,0.0,0.0,5.2396004e-05,inf,0.0,0.0,0.0006531389,0.0,0.0,0.0,0.0,0.0,0.0,0.0,0.0
4192000,4112000,9.759457e-07,0.0,3.122053e-05,2.1987052e-10,0.0,366.5408,0.0,0.0,0.0,0.0,0.0,0.0,0.0,1.5889442e-06,0.0,0.0,nan,0.0,0.0,0.0,0.0,5.2396004e-05,inf,0.0,0.0,0.00020649454,0.0,0.0,0.0,0.0,0.0,0.0,0.0,0.0
4200000,4120000,9.759457e-07,0.0,3.122053e-05,2.1987052e-10,0.0,366.5408,0.0,0.0,0.0,0.0,0.0,0.0,0.0,1.5889442e-06,0.0,0.0,nan,0.0,0.0,0.0,0.0,5.2396004e-05,inf,0.0,0.0,0.00090766005,0.0,0.0,0.0,0.0,0.0,0.0,0.0,0.0
4208000,4128000,1.36165845e-05,0.0,9.181633e-05,1.4461803e-08,0.0,1.0876687e-06,0.0,0.0,0.0,0.0,0.0,0.0,0.0,9.326038e-06,0.0,0.0,nan,0.0,0.0,0.0,0.0,5.2396004e-05,inf,0.0,0.0,0.0005108727,0.0,0.0,0.0,0.0,0.0,0.0,0.0,0.0
4216000,4136000,1.36165845e-05,0.0,9.181633e-05,1.4461803e-08,0.0,1.0876687e-06,0.0,0.0,0.0,0.0,0.0,0.0,0.0,9.326038e-06,0.0,0.0,nan,0.0,0.0,0.0,0.0,5.2396004e-05,inf,0.0,0.0,0.00011316146,0.0,0.0,0.0,0.0,0.0,0.0,0.0,0.0
4224000,4144000,1.36165845e-05,0.0,9.181633e-05,1.4461803e-08,0.0,1.0876687e-06,0.0,0.0,0.0,0.0,0.0,0.0,0.0,9.326038e-06,0.0,0.0,nan,0.0,0.0,0.0,0.0,5.2396004e-05,inf,0.0,0.0,0.00025579406,0.0,0.0,0.0,0.0,0.0,0.0,0.0,0.0
4232000,4152000,1.36165845e-05,0.0,9.181633e-05,1.4461803e-08,0.0,1.0876687e-06,0.0,0.0,0.0,0.0,0.0,0.0,0.0,9.326038e-06,0.0,0.0,nan,0.0,0.0,0.0,0.0,2.5210282e-05,inf,0.0,0.0,0.00044715806,0.0,0.0,0.0,0.0,0.0,0.0,0.0,0.0
4240000,4160000,1.36165845e-05,0.0,9.181633e-05,1.4461803e-08,0.0,1.0876687e-06,0.0,0.0,0.0,0.0,0.0,0.0,0.0,9.326038e-06,0.0,0.0,nan,0.0,0.0,0.0,0.0,2.5210282e-05,inf,0.0,0.0,0.00041709404,0.0,0.0,0.0,0.0,0.0,0.0,0.0,0.0
4248000,4168000,1.36165845e-05,0.0,9.181633e-05,1.4461803e-08,0.0,1.0876687e-06,0.0,0.0,0.0,0.0,0.0,0.0,0.0,9.326038e-06,0.0,0.0,nan,0.0,0.0,0.0,0.0,2.5210282e-05,inf,0.0,0.0,0.00034043074,0.0,0.0,0.0,0.0,0.0,0.0,0.0,0.0
4256000,4176000,1.36165845e-05,0.0,9.181633e-05,1.4461803e-08,0.0,1.0876687e-06,0.0,0.0,0.0,0.0,0.0,0.0,0.0,6.2026775e-05,0.0,0.0,nan,0.0,0.0,0.0,0.0,2.5210282e-05,inf,0.0,0.0,8.946965e-05,0.0,0.0,0.0,0.0,0.0,0.0,0.0,0.0
4264000,4184000,1.36165845e-05,0.0,9.181633e-05,1.4461803e-08,0.0,1.0876687e-06,0.0,0.0,0.0,0.0,0.0,0.0,0.0,6.2026775e-05,0.0,0.0,nan,0.0,0.0,0.0,0.0,2.5210282e-05,inf,0.0,0.0,0.0002052277,0.0,0.0,0.0,0.0,0.0,0.0,0.0,0.0
4272000,4192000,1.36165845e-05,0.0,9.181633e-05,1.4461803e-08,0.0,1.0876687e-06,0.0,0.0,0.0,0.0,0.0,0.0,0.0,6.2026775e-05,0.0,0.0,nan,0.0,0.0,0.0,0.0,2.5210282e-05,inf,0.0,0.0,0.00049471925,0.0,0.0,0.0,0.0,0.0,0.0,0.0,0.0
4280000,4200000,1.36165845e-05,0.0,9.181633e-05,1.4461803e-08,0.0,1.0876687e-06,0.0,0.0,0.0,0.0,0.0,0.0,0.0,6.2026775e-05,0.0,0.0,nan,0.0,0.0,0.0,0.0,2.5210282e-05,inf,0.0,0.0,0.00032546552,0.0,0.0,0.0,0.0,0.0,0.0,0.0,0.0
4288000,4208000,1.36165845e-05,0.0,9.181633e-05,1.4461803e-08,0.0,1.0876687e-06,0.0,0.0,0.0,0.0,0.0,0.0,0.0,6.2026775e-05,0.0,0.0,nan,0.0,0.0,0.0,0.0,2.5210282e-05,inf,0.0,0.0,0.00025262818,0.0,0.0,0.0,0.0,0.0,0.0,0.0,0.0
4296000,4216000,1.36165845e-05,0.0,9.181633e-05,1.4461803e-08,0.0,1.0876687e-06,0.0,0.0,0.0,0.0,0.0,0.0,0.0,6.2026775e-05,0.0,0.0,nan,0.0,0.0,0.0,0.0,2.5210282e-05,inf,0.0,0.0,0.00047609443,0.0,0.0,0.0,0.0,0.0,0.0,0.0,0.0
4304000,4224000,1.36165845e-05,0.0,9.181633e-05,1.4461803e-08,0.0,1.0876687e-06,0.0,0.0,0.0,0.0,0.0,0.0,0.0,6.2026775e-05,0.0,0.0,nan,0.0,0.0,0.0,0.0,9.047506e-05,inf,0.0,0.0,0.000455343,0.0,0.0,0.0,0.0,0.0,0.0,0.0,0.0
4312000,4232000,1.36165845e-05,0.0,9.181633e-05,1.4461803e-08,0.0,1.0876687e-06,0.0,0.0,0.0,0.0,0.0,0.0,0.0,6.2026775e-05,0.0,0.0,nan,0.0,0.0,0.0,0.0,9.047506e-05,inf,0.0,0.0,0.00043674686,0.0,0.0,0.0,0.0,0.0,0.0,0.0,0.0
4320000,4240000,1.36165845e-05,0.0,9.181633e-05,1.4461803e-08,0.0,1.0876687e-06,0.0,0.0,0.0,0.0,0.0,0.0,0.0,1.7340159e-05,0.0,0.0,nan,0.0,0.0,0.0,0.0,9.047506e-05,inf,0.0,0.0,0.00045467386,0.0,0.0,0.0,0.0,0.0,0.0,0.0,0.0
4328000,4248000,1.36165845e-05,0.0,9.181633e-05,1.4461803e-08,0.0,1.0876687e-06,0.0,0.0,0.0,0.0,0.0,0.0,0.0,1.7340159e-05,0.0,0.0,nan,0.0,0.0,0.0,0.0,9.047506e-05,inf,0.0,0.0,0.0005471401,0.0,0.0,0.0,0.0,0.0,0.0,0.0,0.0
4336000,4256000,1.36165845e-05,0.0,9.181633e-05,1.4461803e-08,0.0,1.0876687e-06,0.0,0.0,0.0,0.0,0.0,0.0,0.0,1.7340159e-05,0.0,0.0,nan,0.0,0.0,0.0,0.0,9.047506e-05,inf,0.0,0.0,0.00019179034,0.0,0.0,0.0,0.0,0.0,0.0,0.0,0.0
4344000,4264000,1.36165845e-05,0.0,9.181633e-05,1.4461803e-08,0.0,1.0876687e-06,0.0,0.0,0.0,0.0,0.0,0.0,0.0,1.7340159e-05,0.0,0.0,nan,0.0,0.0,0.0,0.0,9.047506e-05,inf,0.0,0.0,0.0004038738,0.0,0.0,0.0,0.0,0.0,0.0,0.0,0.0
4352000,4272000,1.36165845e-05,0.0,9.181633e-05,1.4461803e-08,0.0,1.0876687e-06,0.0,0.0,0.0,0.0,0.0,0.0,0.0,1.7340159e-05,0.0,0.0,nan,0.0,0.0,0.0,0.0,9.047506e-05,inf,0.0,0.0,0.00047207196,0.0,0.0,0.0,0.0,0.0,0.0,0.0,0.0
4360000,4280000,1.36165845e-05,0.0,9.181633e-05,1.4461803e-08,0.0,1.0876687e-06,0.0,0.0,0.0,0.0,0.0,0.0,0.0,1.7340159e-05,0.0,0.0,nan,0.0,0.0,0.0,0.0,9.047506e-05,inf,0.0,0.0,3.7841055e-05,0.0,0.0,0.0,0.0,0.0,0.0,0.0,0.0
4368000,4288000,1.36165845e-05,0.0,9.181633e-05,1.4461803e-08,0.0,1.0876687e-06,0.0,0.0,0.0,0.0,0.0,0.0,0.0,1.7340159e-05,0.0,0.0,nan,0.0,0.0,0.0,0.0,9.047506e-05,inf,0.0,0.0,0.00011105507,0.0,0.0,0.0,0.0,0.0,0.0,0.0,0.0
4376000,4296000,1.36165845e-05,0.0,9.181633e-05,1.4461803e-08,0.0,1.0876687e-06,0.0,0.0,0.0,0.0,0.0,0.0,0.0,1.2566395e-08,0.0,0.0,nan,0.0,0.0,0.0,0.0,8.0886804e-07,inf,0.0,0.0,0.00029533106,0.0,0.0,0.0,0.0,0.0,0.0,0.0,0.0
4384000,4304000,1.36165845e-05,0.0,9.181633e-05,1.4461803e-08,0.0,1.0876687e-06,0.0,0.0,0.0,0.0,0.0,0.0,0.0,1.2566395e-08,0.0,0.0,nan,0.0,0.0,0.0,0.0,8.0886804e-07,inf,0.0,0.0,5.7255224e-05,0.0,0.0,0.0,0.0,0.0,0.0,0.0,0.0
4392000,4312000,1.36165845e-05,0.0,9.181633e-05,1.4461803e-08,0.0,1.0876687e-06,0.0,0.0,0.0,0.0,0.0,0.0,0.0,1.2566395e-08,0.0,0.0,nan,0.0,0.0,0.0,0.0,8.0886804e-07,inf,0.0,0.0,5.1010276e-05,0.0,0.0,0.0,0.0,0.0,0.0,0.0,0.0
4400000,4320000,1.36165845e-05,0.0,9.181633e-05,1.4461803e-08,0.0,1.0876687e-06,0.0,0.0,0.0,0.0,0.0,0.0,0.0,1.2566395e-08,0.0,0.0,nan,0.0,0.0,0.0,0.0,8.0886804e-07,inf,0.0,0.0,0.00022229842,0.0,0.0,0.0,0.0,0.0,0.0,0.0,0.0
4408000,4328000,1.36165845e-05,0.0,9.181633e-05,1.4461803e-08,0.0,1.0876687e-06,0.0,0.0,0.0,0.0,0.0,0.0,0.0,1.2566395e-08,0.0,0.0,nan,0.0,0.0,0.0,0.0,8.0886804e-07,inf,0.0,0.0,0.0006015102,0.0,0.0,0.0,0.0,0.0,0.0,0.0,0.0
4416000,4336000,1.36165845e-05,0.0,9.181633e-05,1.4461803e-08,0.0,1.0876687e-06,0.0,0.0,0.0,0.0,0.0,0.0,0.0,1.2566395e-08,0.0,0.0,nan,0.0,0.0,0.0,0.0,8.0886804e-07,inf,0.0,0.0,0.00012599272,0.0,0.0,0.0,0.0,0.0,0.0,0.0,0.0
4424000,4344000,1.36165845e-05,0.0,9.181633e-05,1.4461803e-08,0.0,1.0876687e-06,0.0,0.0,0.0,0.0,0.0,0.0,0.0,1.2566395e-08,0.0,0.0,nan,0.0,0.0,0.0,0.0,8.0886804e-07,inf,0.0,0.0,0.00025617794,0.0,0.0,0.0,0.0,0.0,0.0,0.0,0.0
4432000,4352000,1.36165845e-05,0.0,9.181633e-05,1.4461803e-08,0.0,1.0876687e-06,0.0,0.0,0.0,0.0,0.0,0.0,0.0,1.2566395e-08,0.0,0.0,nan,0.0,0.0,0.0,0.0,8.0886804e-07,inf,0.0,0.0,0.00025847516,0.0,0.0,0.0,0.0,0.0,0.0,0.0,0.0
4440000,4360000,1.36165845e-05,0.0,9.181633e-05,1.4461803e-08,0.0,1.0876687e-06,0.0,0.0,0.0,0.0,0.0,0.0,0.0,2.1685457e-06,0.0,0.0,nan,0.0,0.0,0.0,0.0,8.0886804e-07,inf,0.0,0.0,7.508791e-05,0.0,0.0,0.0,0.0,0.0,0.0,0.0,0.0
4448000,4368000,1.36165845e-05,0.0,9.181633e-05,1.4461803e-08,0.0,1.0876687e-06,0.0,0.0,0.0,0.0,0.0,0.0,0.0,2.1685457e-06,0.0,0.0,nan,0.0,0.0,0.0,0.0,6.9186906e-05,inf,0.0,0.0,0.0008081518,0.0,0.0,0.0,0.0,0.0,0.0,0.0,0.0
4456000,4376000,1.36165845e-05,0.0,9.181633e-05,1.4461803e-08,0.0,1.0876687e-06,0.0,0.0,0.0,0.0,0.0,0.0,0.0,2.1685457e-06,0.0,0.0,nan,0.0,0.0,0.0,0.0,6.9186906e-05,inf,0.0,0.0,0.00011990814,0.0,0.0,0.0,0.0,0.0,0.0,0.0,0.0
4464000,4384000,1.36165845e-05,0.0,9.181633e-05,1.4461803e-08,0.0,1.0876687e-06,0.0,0.0,0.0,0.0,0.0,0.0,0.0,2.1685457e-06,0.0,0.0,nan,0.0,0.0,0.0,0.0,6.9186906e-05,inf,0.0,0.0,0.0005618998,0.0,0.0,0.0,0.0,0.0,0.0,0.0,0.0
4472000,4392000,1.36165845e-05,0.0,9.181633e-05,1.4461803e-08,0.0,1.0876687e-06,0.0,0.0,0.0,0.0,0.0,0.0,0.0,2.1685457e-06,0.0,0.0,nan,0.0,0.0,0.0,0.0,6.9186906e-05,inf,0.0,0.0,0.0013908552,0.0,0.0,0.0,0.0,0.0,0.0,0.0,0.0
4480000,4400000,1.36165845e-05,0.0,9.181633e-05,1.4461803e-08,0.0,1.0876687e-06,0.0,0.0,0.0,0.0,0.0,0.0,0.0,2.1685457e-06,0.0,0.0,nan,0.0,0.0,0.0,0.0,6.9186906e-05,inf,0.0,0.0,0.00078571023,0.0,0.0,0.0,0.0,0.0,0.0,0.0,0.0
4488000,4408000,1.36165845e-05,0.0,9.181633e-05,1.4461803e-08,0.0,1.0876687e-06,0.0,0.0,0.0,0.0,0.0,0.0,0.0,2.1685457e-06,0.0,0.0,nan,0.0,0.0,0.0,0.0,6.9186906e-05,inf,0.0,0.0,0.00015402026,0.0,0.0,0.0,0.0,0.0,0.0,0.0,0.0
4496000,4416000,1.36165845e-05,0.0,9.181633e-05,1.4461803e-08,0.0,1.0876687e-06,0.0,0.0,0.0,0.0,0.0,0.0,0.0,3.598296e-08,0.0,0.0,nan,0.0,0.0,0.0,0.0,6.9186906e-05,inf,0.0,0.0,0.0001361592,0.0,0.0,0.0,0.0,0.0,0.0,0.0,0.0
4504000,4424000,1.36165845e-05,0.0,9.181633e-05,1.4461803e-08,0.0,1.0876687e-06,0.0,0.0,0.0,0.0,0.0,0.0,0.0,3.598296e-08,0.0,0.0,nan,0.0,0.0,0.0,0.0,6.9186906e-05,inf,0.0,0.0,0.00027367592,0.0,0.0,0.0,0.0,0.0,0.0,0.0,0.0
4512000,4432000,1.36165845e-05,0.0,9.181633e-05,1.4461803e-08,0.0,1.0876687e-06,0.0,0.0,0.0,0.0,0.0,0.0,0.0,3.598296e-08,0.0,0.0,nan,0.0,0.0,0.0,0.0,6.9186906e-05,inf,0.0,0.0,0.00024512073,0.0,0.0,0.0,0.0,0.0,0.0,0.0,0.0
4520000,4440000,1.36165845e-05,0.0,9.181633e-05,1.4461803e-08,0.0,1.0876687e-06,0.0,0.0,0.0,0.0,0.0,0.0,0.0,3.598296e-08,0.0,0.0,nan,0.0,0.0,0.0,0.0,1.6374344e-05,inf,0.0,0.0,0.00013122676,0.0,0.0,0.0,0.0,0.0,0.0,0.0,0.0
4528000,4448000,1.36165845e-05,0.0,9.181633e-05,1.4461803e-08,0.0,1.0876687e-06,0.0,0.0,0.0,0.0,0.0,0.0,0.0,3.598296e-08,0.0,0.0,nan,0.0,0.0,0.0,0.0,1.6374344e-05,inf,0.0,0.0,0.0010481544,0.0,0.0,0.0,0.0,0.0,0.0,0.0,0.0
4536000,4456000,1.36165845e-05,0.0,9.181633e-05,1.4461803e-08,0.0,1.0876687e-06,0.0,0.0,0.0,0.0,0.0,0.0,0.0,3.598296e-08,0.0,0.0,nan,0.0,0.0,0.0,0.0,1.6374344e-05,inf,0.0,0.0,0.00010091717,0.0,0.0,0.0,0.0,0.0,0.0,0.0,0.0
4544000,4464000,1.36165845e-05,0.0,9.181633e-05,1.4461803e-08,0.0,1.0876687e-06,0.0,0.0,0.0,0.0,0.0,0.0,0.0,1.3800041e-05,0.0,0.0,nan,0.0,0.0,0.0,0.0,1.6374344e-05,inf,0.0,0.0,0.000103276696,0.0,0.0,0.0,0.0,0.0,0.0,0.0,0.0
4552000,4472000,1.36165845e-05,0.0,9.181633e-05,1.4461803e-08,0.0,1.0876687e-06,0.0,0.0,0.0,0.0,0.0,0.0,0.0,1.3800041e-05,0.0,0.0,nan,0.0,0.0,0.0,0.0,1.6374344e-05,inf,0.0,0.0,0.00051304285,0.0,0.0,0.0,0.0,0.0,0.0,0.0,0.0
4560000,4480000,1.36165845e-05,0.0,9.181633e-05,1.4461803e-08,0.0,1.0876687e-06,0.0,0.0,0.0,0.0,0.0,0.0,0.0,1.3800041e-05,0.0,0.0,nan,0.0,0.0,0.0,0.0,1.6374344e-05,inf,0.0,0.0,0.00028959676,0.0,0.0,0.0,0.0,0.0,0.0,0.0,0.0
4568000,4488000,1.36165845e-05,0.0,9.181633e-05,1.4461803e-08,0.0,1.0876687e-06,0.0,0.0,0.0,0.0,0.0,0.0,0.0,1.3800041e-05,0.0,0.0,nan,0.0,0.0,0.0,0.0,1.6374344e-05,inf,0.0,0.0,0.0002708771,0.0,0.0,0.0,0.0,0.0,0.0,0.0,0.0
4576000,4496000,1.36165845e-05,0.0,9.181633e-05,1.4461803e-08,0.0,1.0876687e-06,0.0,0.0,0.0,0.0,0.0,0.0,0.0,1.3800041e-05,0.0,0.0,nan,0.0,0.0,0.0,0.0,1.6374344e-05,inf,0.0,0.0,0.00025791672,0.0,0.0,0.0,0.0,0.0,0.0,0.0,0.0
4584000,4504000,1.36165845e-05,0.0,9.181633e-05,1.4461803e-08,0.0,1.0876687e-06,0.0,0.0,0.0,0.0,0.0,0.0,0.0,1.3800041e-05,0.0,0.0,nan,0.0,0.0,0.0,0.0,1.6374344e-05,inf,0.0,0.0,0.00010600531,0.0,0.0,0.0,0.0,0.0,0.0,0.0,0.0
4592000,4512000,1.36165845e-05,0.0,9.181633e-05,1.4461803e-08,0.0,1.0876687e-06,0.0,0.0,0.0,0.0,0.0,0.0,0.0,1.3800041e-05,0.0,0.0,nan,0.0,0.0,0.0,0.0,7.686018e-06,inf,0.0,0.0,0.00072189124,0.0,0.0,0.0,0.0,0.0,0.0,0.0,0.0
4600000,4520000,1.36165845e-05,0.0,9.181633e-05,1.4461803e-08,0.0,1.0876687e-06,0.0,0.0,0.0,0.0,0.0,0.0,0.0,1.3800041e-05,0.0,0.0,nan,0.0,0.0,0.0,0.0,7.686018e-06,inf,0.0,0.0,0.0012532559,0.0,0.0,0.0,0.0,0.0,0.0,0.0,0.0
4608000,4528000,0.0001271991,0.0,0.00014743932,2.1085534e-06,0.0,1.7749513e-05,0.0,0.0,0.0,0.0,0.0,0.0,0.0,1.390323e-05,0.0,0.0,nan,0.0,0.0,0.0,0.0,7.686018e-06,inf,0.0,0.0,0.00045991997,0.0,0.0,0.0,0.0,0.0,0.0,0.0,0.0
4616000,4536000,0.0001271991,0.0,0.00014743932,2.1085534e-06,0.0,1.7749513e-05,0.0,0.0,0.0,0.0,0.0,0.0,0.0,1.390323e-05,0.0,0.0,nan,0.0,0.0,0.0,0.0,7.686018e-06,inf,0.0,0.0,0.00012113879,0.0,0.0,0.0,0.0,0.0,0.0,0.0,0.0
4624000,4544000,0.0001271991,0.0,0.00014743932,2.1085534e-06,0.0,1.7749513e-05,0.0,0.0,0.0,0.0,0.0,0.0,0.0,1.390323e-05,0.0,0.0,nan,0.0,0.0,0.0,0.0,7.686018e-06,inf,0.0,0.0,3.971733e-05,0.0,0.0,0.0,0.0,0.0,0.0,0.0,0.0
4632000,4552000,0.0001271991,0.0,0.00014743932,2.1085534e-06,0.0,1.7749513e-05,0.0,0.0,0.0,0.0,0.0,0.0,0.0,1.390323e-05,0.0,0.0,nan,0.0,0.0,0.0,0.0,7.686018e-06,inf,0.0,0.0,0.0018545521,0.0,0.0,0.0,0.0,0.0,0.0,0.0,0.0
4640000,4560000,0.0001271991,0.0,0.00014743932,2.1085534e-06,0.0,1.7749513e-05,0.0,0.0,0.0,0.0,0.0,0.0,0.0,1.390323e-05,0.0,0.0,nan,0.0,0.0,0.0,0.0,7.686018e-06,inf,0.0,0.0,0.00030447432,0.0,0.0,0.0,0.0,0.0,0.0,0.0,0.0
4648000,4568000,0.0001271991,0.0,0.00014743932,2.1085534e-06,0.0,1.7749513e-05,0.0,0.0,0.0,0.0,0.0,0.0,0.0,1.390323e-05,0.0,0.0,nan,0.0,0.0,0.0,0.0,7.686018e-06,inf,0.0,0.0,0.00072355755,0.0,0.0,0.0,0.0,0.0,0.0,0.0,0.0
4656000,4576000,0.0001271991,0.0,0.00014743932,2.1085534e-06,0.0,1.7749513e-05,0.0,0.0,0.0,0.0,0.0,0.0,0.0,1.390323e-05,0.0,0.0,nan,0.0,0.0,0.0,0.0,7.686018e-06,inf,0.0,0.0,0.00012656755,0.0,0.0,0.0,0.0,0.0,0.0,0.0,0.0
4664000,4584000,0.0001271991,0.0,0.00014743932,2.1085534e-06,0.0,1.7749513e-05,0.0,0.0,0.0,0.0,0.0,0.0,0.0,8.898586e-06,0.0,0.0,nan,0.0,0.0,0.0,0.0,4.5516335e-05,inf,0.0,0.0,0.0014972377,0.0,0.0,0.0,0.0,0.0,0.0,0.0,0.0
4672000,4592000,0.0001271991,0.0,0.00014743932,2.1085534e-06,0.0,1.7749513e-05,0.0,0.0,0.0,0.0,0.0,0.0,0.0,8.898586e-06,0.0,0.0,nan,0.0,0.0,0.0,0.0,4.5516335e-05,inf,0.0,0.0,7.461184e-05,0.0,0.0,0.0,0.0,0.0,0.0,0.0,0.0
4680000,4600000,0.0001271991,0.0,0.00014743932,2.1085534e-06,0.0,1.7749513e-05,0.0,0.0,0.0,0.0,0.0,0.0,0.0,8.898586e-06,0.0,0.0,nan,0.0,0.0,0.0,0.0,4.5516335e-05,inf,0.0,0.0,0.00046714046,0.0,0.0,0.0,0.0,0.0,0.0,0.0,0.0
4688000,4608000,0.0001271991,0.0,0.00014743932,2.1085534e-06,0.0,1.7749513e-05,0.0,0.0,0.0,0.0,0.0,0.0,0.0,8.898586e-06,0.0,0.0,nan,0.0,0.0,0.0,0.0,4.5516335e-05,inf,0.0,0.0,0.00020536507,0.0,0.0,0.0,0.0,0.0,0.0,0.0,0.0
4696000,4616000,0.0001271991,0.0,0.00014743932,2.1085534e-06,0.0,1.7749513e-05,0.0,0.0,0.0,0.0,0.0,0.0,0.0,8.898586e-06,0.0,0.0,nan,0.0,0.0,0.0,0.0,4.5516335e-05,inf,0.0,0.0,0.0013880889,0.0,0.0,0.0,0.0,0.0,0.0,0.0,0.0
4704000,4624000,0.0001271991,0.0,0.00014743932,2.1085534e-06,0.0,1.7749513e-05,0.0,0.0,0.0,0.0,0.0,0.0,0.0,8.898586e-06,0.0,0.0,nan,0.0,0.0,0.0,0.0,4.5516335e-05,inf,0.0,0.0,0.00093524874,0.0,0.0,0.0,0.0,0.0,0.0,0.0,0.0
4712000,4632000,0.0001271991,0.0,0.00014743932,2.1085534e-06,0.0,1.7749513e-05,0.0,0.0,0.0,0.0,0.0,0.0,0.0,8.898586e-06,0.0,0.0,nan,0.0,0.0,0.0,0.0,4.5516335e-05,inf,0.0,0.0,0.0007497509,0.0,0.0,0.0,0.0,0.0,0.0,0.0,0.0
4720000,4640000,0.0001271991,0.0,0.00014743932,2.1085534e-06,0.0,1.7749513e-05,0.0,0.0,0.0,0.0,0.0,0.0,0.0,8.898586e-06,0.0,0.0,nan,0.0,0.0,0.0,0.0,4.5516335e-05,inf,0.0,0.0,0.00095055933,0.0,0.0,0.0,0.0,0.0,0.0,0.0,0.0
4728000,4648000,0.0001271991,0.0,0.00014743932,2.1085534e-06,0.0,1.7749513e-05,0.0,0.0,0.0,0.0,0.0,0.0,0.0,4.601024e-06,0.0,0.0,nan,0.0,0.0,0.0,0.0,4.5516335e-05,inf,0.0,0.0,0.00040338797,0.0,0.0,0.0,0.0,0.0,0.0,0.0,0.0
4736000,4656000,0.0001271991,0.0,0.00014743932,2.1085534e-06,0.0,1.7749513e-05,0.0,0.0,0.0,0.0,0.0,0.0,0.0,4.601024e-06,0.0,0.0,nan,0.0,0.0,0.0,0.0,0.0021285114,inf,0.0,0.0,1.7895773e-05,0.0,0.0,0.0,0.0,0.0,0.0,0.0,0.0
4744000,4664000,0.0001271991,0.0,0.00014743932,2.1085534e-06,0.0,1.7749513e-05,0.0,0.0,0.0,0.0,0.0,0.0,0.0,4.601024e-06,0.0,0.0,nan,0.0,0.0,0.0,0.0,0.0021285114,inf,0.0,0.0,0.00017556139,0.0,0.0,0.0,0.0,0.0,0.0,0.0,0.0
4752000,4672000,0.0001271991,0.0,0.00014743932,2.1085534e-06,0.0,1.7749513e-05,0.0,0.0,0.0,0.0,0.0,0.0,0.0,4.601024e-06,0.0,0.0,nan,0.0,0.0,0.0,0.0,0.0021285114,inf,0.0,0.0,0.00018770115,0.0,0.0,0.0,0.0,0.0,0.0,0.0,0.0
4760000,4680000,0.0001271991,0.0,0.00014743932,2.1085534e-06,0.0,1.7749513e-05,0.0,0.0,0.0,0.0,0.0,0.0,0.0,4.601024e-06,0.0,0.0,nan,0.0,0.0,0.0,0.0,0.0021285114,inf,0.0,0.0,0.000346937,0.0,0.0,0.0,0.0,0.0,0.0,0.0,0.0
4768000,4688000,0.0001271991,0.0,0.00014743932,2.1085534e-06,0.0,1.7749513e-05,0.0,0.0,0.0,0.0,0.0,0.0,0.0,4.601024e-06,0.0,0.0,nan,0.0,0.0,0.0,0.0,0.0021285114,inf,0.0,0.0,0.0008252939,0.0,0.0,0.0,0.0,0.0,0.0,0.0,0.0
4776000,4696000,0.0001271991,0.0,0.00014743932,2.1085534e-06,0.0,1.7749513e-05,0.0,0.0,0.0,0.0,0.0,0.0,0.0,4.601024e-06,0.0,0.0,nan,0.0,0.0,0.0,0.0,0.0021285114,inf,0.0,0.0,0.0002935284,0.0,0.0,0.0,0.0,0.0,0.0,0.0,0.0
4784000,4704000,0.0001271991,0.0,0.00014743932,2.1085534e-06,0.0,1.7749513e-05,0.0,0.0,0.0,0.0,0.0,0.0,0.0,8.770072e-07,0.0,0.0,nan,0.0,0.0,0.0,0.0,0.0021285114,inf,0.0,0.0,0.00026650916,0.0,0.0,0.0,0.0,0.0,0.0,0.0,0.0
4792000,4712000,0.0001271991,0.0,0.00014743932,2.1085534e-06,0.0,1.7749513e-05,0.0,0.0,0.0,0.0,0.0,0.0,0.0,8.770072e-07,0.0,0.0,nan,0.0,0.0,0.0,0.0,0.0021285114,inf,0.0,0.0,0.0012033386,0.0,0.0,0.0,0.0,0.0,0.0,0.0,0.0
4800000,4720000,0.0001271991,0.0,0.00014743932,2.1085534e-06,0.0,1.7749513e-05,0.0,0.0,0.0,0.0,0.0,0.0,0.0,8.770072e-07,0.0,0.0,nan,0.0,0.0,0.0,0.0,0.0021285114,inf,0.0,0.0,0.0009600336,0.0,0.0,0.0,0.0,0.0,0.0,0.0,0.0
4808000,4728000,0.0001271991,0.0,0.00014743932,2.1085534e-06,0.0,1.7749513e-05,0.0,0.0,0.0,0.0,0.0,0.0,0.0,8.770072e-07,0.0,0.0,nan,0.0,0.0,0.0,0.0,7.3580695e-06,inf,0.0,0.0,8.989158e-05,0.0,0.0,0.0,0.0,0.0,0.0,0.0,0.0
4816000,4736000,0.0001271991,0.0,0.00014743932,2.1085534e-06,0.0,1.7749513e-05,0.0,0.0,0.0,0.0,0.0,0.0,0.0,8.770072e-07,0.0,0.0,nan,0.0,0.0,0.0,0.0,7.3580695e-06,inf,0.0,0.0,0.0004655277,0.0,0.0,0.0,0.0,0.0,0.0,0.0,0.0
4824000,4744000,0.0001271991,0.0,0.00014743932,2.1085534e-06,0.0,1.7749513e-05,0.0,0.0,0.0,0.0,0.0,0.0,0.0,8.770072e-07,0.0,0.0,nan,0.0,0.0,0.0,0.0,7.3580695e-06,inf,0.0,0.0,0.00062155665,0.0,0.0,0.0,0.0,0.0,0.0,0.0,0.0
4832000,4752000,0.0001271991,0.0,0.00014743932,2.1085534e-06,0.0,1.7749513e-05,0.0,0.0,0.0,0.0,0.0,0.0,0.0,8.770072e-07,0.0,0.0,nan,0.0,0.0,0.0,0.0,7.3580695e-06,inf,0.0,0.0,4.6153646e-06,0.0,0.0,0.0,0.0,0.0,0.0,0.0,0.0
4840000,4760000,0.0001271991,0.0,0.00014743932,2.1085534e-06,0.0,1.7749513e-05,0.0,0.0,0.0,0.0,0.0,0.0,0.0,8.770072e-07,0.0,0.0,nan,0.0,0.0,0.0,0.0,7.3580695e-06,inf,0.0,0.0,0.0008906304,0.0,0.0,0.0,0.0,0.0,0.0,0.0,0.0
4848000,4768000,0.0001271991,0.0,0.00014743932,2.1085534e-06,0.0,1.7749513e-05,0.0,0.0,0.0,0.0,0.0,0.0,0.0,1.4799909e-05,0.0,0.0,nan,0.0,0.0,0.0,0.0,7.3580695e-06,inf,0.0,0.0,0.00027070264,0.0,0.0,0.0,0.0,0.0,0.0,0.0,0.0
4856000,4776000,0.0001271991,0.0,0.00014743932,2.1085534e-06,0.0,1.7749513e-05,0.0,0.0,0.0,0.0,0.0,0.0,0.0,1.4799909e-05,0.0,0.0,nan,0.0,0.0,0.0,0.0,7.3580695e-06,inf,0.0,0.0,0.00018177042,0.0,0.0,0.0,0.0,0.0,0.0,0.0,0.0
4864000,4784000,0.0001271991,0.0,0.00014743932,2.1085534e-06,0.0,1.7749513e-05,0.0,0.0,0.0,0.0,0.0,0.0,0.0,1.4799909e-05,0.0,0.0,nan,0.0,0.0,0.0,0.0,7.3580695e-06,inf,0.0,0.0,7.6668985e-05,0.0,0.0,0.0,0.0,0.0,0.0,0.0,0.0
4872000,4792000,0.0001271991,0.0,0.00014743932,2.1085534e-06,0.0,1.7749513e-05,0.0,0.0,0.0,0.0,0.0,0.0,0.0,1.4799909e-05,0.0,0.0,nan,0.0,0.0,0.0,0.0,7.3580695e-06,inf,0.0,0.0,0.0012224267,0.0,0.0,0.0,0.0,0.0,0.0,0.0,0.0
4880000,4800000,0.0001271991,0.0,0.00014743932,2.1085534e-06,0.0,1.7749513e-05,0.0,0.0,0.0,0.0,0.0,0.0,0.0,1.4799909e-05,0.0,0.0,nan,0.0,0.0,0.0,0.0,0.0031788943,inf,0.0,0.0,0.0003638157,0.0,0.0,0.0,0.0,0.0,0.0,0.0,0.0
4888000,4808000,0.0001271991,0.0,0.00014743932,2.1085534e-06,0.0,1.7749513e-05,0.0,0.0,0.0,0.0,0.0,0.0,0.0,1.4799909e-05,0.0,0.0,nan,0.0,0.0,0.0,0.0,0.0031788943,inf,0.0,0.0,0.0005834103,0.0,0.0,0.0,0.0,0.0,0.0,0.0,0.0
4896000,4816000,0.0001271991,0.0,0.00014743932,2.1085534e-06,0.0,1.7749513e-05,0.0,0.0,0.0,0.0,0.0,0.0,0.0,1.4799909e-05,0.0,0.0,nan,0.0,0.0,0.0,0.0,0.0031788943,inf,0.0,0.0,0.002657484,0.0,0.0,0.0,0.0,0.0,0.0,0.0,0.0
4904000,4824000,0.0001271991,0.0,0.00014743932,2.1085534e-06,0.0,1.7749513e-05,0.0,0.0,0.0,0.0,0.0,0.0,0.0,5.6758627e-06,0.0,0.0,nan,0.0,0.0,0.0,0.0,0.0031788943,inf,0.0,0.0,0.0011486424,0.0,0.0,0.0,0.0,0.0,0.0,0.0,0.0
4912000,4832000,0.0001271991,0.0,0.00014743932,2.1085534e-06,0.0,1.7749513e-05,0.0,0.0,0.0,0.0,0.0,0.0,0.0,5.6758627e-06,0.0,0.0,nan,0.0,0.0,0.0,0.0,0.0031788943,inf,0.0,0.0,0.00011545446,0.0,0.0,0.0,0.0,0.0,0.0,0.0,0.0
4920000,4840000,0.0001271991,0.0,0.00014743932,2.1085534e-06,0.0,1.7749513e-05,0.0,0.0,0.0,0.0,0.0,0.0,0.0,5.6758627e-06,0.0,0.0,nan,0.0,0.0,0.0,0.0,0.0031788943,inf,0.0,0.0,0.00034876485,0.0,0.0,0.0,0.0,0.0,0.0,0.0,0.0
4928000,4848000,0.0001271991,0.0,0.00014743932,2.1085534e-06,0.0,1.7749513e-05,0.0,0.0,0.0,0.0,0.0,0.0,0.0,5.6758627e-06,0.0,0.0,nan,0.0,0.0,0.0,0.0,0.0031788943,inf,0.0,0.0,0.0003869085,0.0,0.0,0.0,0.0,0.0,0.0,0.0,0.0
4936000,4856000,0.0001271991,0.0,0.00014743932,2.1085534e-06,0.0,1.7749513e-05,0.0,0.0,0.0,0.0,0.0,0.0,0.0,5.6758627e-06,0.0,0.0,nan,0.0,0.0,0.0,0.0,0.0031788943,inf,0.0,0.0,8.559574e-05,0.0,0.0,0.0,0.0,0.0,0.0,0.0,0.0
4944000,4864000,0.0001271991,0.0,0.00014743932,2.1085534e-06,0.0,1.7749513e-05,0.0,0.0,0.0,0.0,0.0,0.0,0.0,5.6758627e-06,0.0,0.0,nan,0.0,0.0,0.0,0.0,0.0031788943,inf,0.0,0.0,9.4204275e-05,0.0,0.0,0.0,0.0,0.0,0.0,0.0,0.0
4952000,4872000,0.0001271991,0.0,0.00014743932,2.1085534e-06,0.0,1.7749513e-05,0.0,0.0,0.0,0.0,0.0,0.0,0.0,5.6758627e-06,0.0,0.0,nan,0.0,0.0,0.0,0.0,0.00010344084,inf,0.0,0.0,0.0002420179,0.0,0.0,0.0,0.0,0.0,0.0,0.0,0.0
4960000,4880000,0.0001271991,0.0,0.00014743932,2.1085534e-06,0.0,1.7749513e-05,0.0,0.0,0.0,0.0,0.0,0.0,0.0,5.6758627e-06,0.0,0.0,nan,0.0,0.0,0.0,0.0,0.00010344084,inf,0.0,0.0,0.00039321405,0.0,0.0,0.0,0.0,0.0,0.0,0.0,0.0
4968000,4888000,0.0001271991,0.0,0.00014743932,2.1085534e-06,0.0,1.7749513e-05,0.0,0.0,0.0,0.0,0.0,0.0,0.0,8.356367e-07,0.0,0.0,nan,0.0,0.0,0.0,0.0,0.00010344084,inf,0.0,0.0,0.00012809636,0.0,0.0,0.0,0.0,0.0,0.0,0.0,0.0
4976000,4896000,0.0001271991,0.0,0.00014743932,2.1085534e-06,0.0,1.7749513e-05,0.0,0.0,0.0,0.0,0.0,0.0,0.0,8.356367e-07,0.0,0.0,nan,0.0,0.0,0.0,0.0,0.00010344084,inf,0.0,0.0,8.3762425e-05,0.0,0.0,0.0,0.0,0.0,0.0,0.0,0.0
4984000,4904000,0.0001271991,0.0,0.00014743932,2.1085534e-06,0.0,1.7749513e-05,0.0,0.0,0.0,0.0,0.0,0.0,0.0,8.356367e-07,0.0,0.0,nan,0.0,0.0,0.0,0.0,0.00010344084,inf,0.0,0.0,0.00012389274,0.0,0.0,0.0,0.0,0.0,0.0,0.0,0.0
4992000,4912000,0.0001271991,0.0,0.00014743932,2.1085534e-06,0.0,1.7749513e-05,0.0,0.0,0.0,0.0,0.0,0.0,0.0,8.356367e-07,0.0,0.0,nan,0.0,0.0,0.0,0.0,0.00010344084,inf,0.0,0.0,0.00025002036,0.0,0.0,0.0,0.0,0.0,0.0,0.0,0.0
5000000,4920000,0.0001271991,0.0,0.00014743932,2.1085534e-06,0.0,1.7749513e-05,0.0,0.0,0.0,0.0,0.0,0.0,0.0,8.356367e-07,0.0,0.0,nan,0.0,0.0,0.0,0.0,0.00010344084,inf,0.0,0.0,0.00041049757,0.0,0.0,0.0,0.0,0.0,0.0,0.0,0.0
5008000,4928000,1.3934716e-06,0.0,1.2087588e-07,2.3438909e-06,0.0,2.0564721e-05,0.0,0.0,0.0,0.0,0.0,0.0,0.0,8.356367e-07,0.0,0.0,nan,0.0,0.0,0.0,0.0,0.00010344084,inf,0.0,0.0,0.00048391073,0.0,0.0,0.0,0.0,0.0,0.0,0.0,0.0
5016000,4936000,1.3934716e-06,0.0,1.2087588e-07,2.3438909e-06,0.0,2.0564721e-05,0.0,0.0,0.0,0.0,0.0,0.0,0.0,8.356367e-07,0.0,0.0,nan,0.0,0.0,0.0,0.0,0.00010344084,inf,0.0,0.0,0.00069652806,0.0,0.0,0.0,0.0,0.0,0.0,0.0,0.0
5024000,4944000,1.3934716e-06,0.0,1.2087588e-07,2.3438909e-06,0.0,2.0564721e-05,0.0,0.0,0.0,0.0,0.0,0.0,0.0,2.0307907e-06,0.0,0.0,nan,0.0,0.0,0.0,0.0,4.394659e-06,inf,0.0,0.0,0.00067945756,0.0,0.0,0.0,0.0,0.0,0.0,0.0,0.0
5032000,4952000,1.3934716e-06,0.0,1.2087588e-07,2.3438909e-06,0.0,2.0564721e-05,0.0,0.0,0.0,0.0,0.0,0.0,0.0,2.0307907e-06,0.0,0.0,nan,0.0,0.0,0.0,0.0,4.394659e-06,inf,0.0,0.0,4.9084315e-06,0.0,0.0,0.0,0.0,0.0,0.0,0.0,0.0
5040000,4960000,1.3934716e-06,0.0,1.2087588e-07,2.3438909e-06,0.0,2.0564721e-05,0.0,0.0,0.0,0.0,0.0,0.0,0.0,2.0307907e-06,0.0,0.0,nan,0.0,0.0,0.0,0.0,4.394659e-06,inf,0.0,0.0,0.00014580794,0.0,0.0,0.0,0.0,0.0,0.0,0.0,0.0
5048000,4968000,1.3934716e-06,0.0,1.2087588e-07,2.3438909e-06,0.0,2.0564721e-05,0.0,0.0,0.0,0.0,0.0,0.0,0.0,2.0307907e-06,0.0,0.0,nan,0.0,0.0,0.0,0.0,4.394659e-06,inf,0.0,0.0,5.736438e-05,0.0,0.0,0.0,0.0,0.0,0.0,0.0,0.0
5056000,4976000,1.3934716e-06,0.0,1.2087588e-07,2.3438909e-06,0.0,2.0564721e-05,0.0,0.0,0.0,0.0,0.0,0.0,0.0,2.0307907e-06,0.0,0.0,nan,0.0,0.0,0.0,0.0,4.394659e-06,inf,0.0,0.0,0.00012519566,0.0,0.0,0.0,0.0,0.0,0.0,0.0,0.0
5064000,4984000,1.3934716e-06,0.0,1.2087588e-07,2.3438909e-06,0.0,2.0564721e-05,0.0,0.0,0.0,0.0,0.0,0.0,0.0,2.0307907e-06,0.0,0.0,nan,0.0,0.0,0.0,0.0,4.394659e-06,inf,0.0,0.0,0.0004902501,0.0,0.0,0.0,0.0,0.0,0.0,0.0,0.0
5072000,4992000,1.3934716e-06,0.0,1.2087588e-07,2.3438909e-06,0.0,2.0564721e-05,0.0,0.0,0.0,0.0,0.0,0.0,0.0,2.0307907e-06,0.0,0.0,nan,0.0,0.0,0.0,0.0,4.394659e-06,inf,0.0,0.0,0.0009985454,0.0,0.0,0.0,0.0,0.0,0.0,0.0,0.0
5080000,5000000,1.3934716e-06,0.0,1.2087588e-07,2.3438909e-06,0.0,2.0564721e-05,0.0,0.0,0.0,0.0,0.0,0.0,0.0,2.0307907e-06,0.0,0.0,nan,0.0,0.0,0.0,0.0,4.394659e-06,inf,0.0,0.0,9.696619e-05,0.0,0.0,0.0,0.0,0.0,0.0,0.0,0.0
5088000,5008000,1.3934716e-06,0.0,1.2087588e-07,2.3438909e-06,0.0,2.0564721e-05,0.0,0.0,0.0,0.0,0.0,0.0,0.0,6.898771e-10,0.0,0.0,nan,0.0,0.0,0.0,0.0,4.394659e-06,inf,0.0,0.0,0.00041257875,0.0,0.0,0.0,0.0,0.0,0.0,0.0,0.0
5096000,5016000,1.3934716e-06,0.0,1.2087588e-07,2.3438909e-06,0.0,2.0564721e-05,0.0,0.0,0.0,0.0,0.0,0.0,0.0,6.898771e-10,0.0,0.0,nan,0.0,0.0,0.0,0.0,5.8440703e-05,inf,0.0,0.0,1.4524784e-06,0.0,0.0,0.0,0.0,0.0,0.0,0.0,0.0
5104000,5024000,1.3934716e-06,0.0,1.2087588e-07,2.3438909e-06,0.0,2.0564721e-05,0.0,0.0,0.0,0.0,0.0,0.0,0.0,6.898771e-10,0.0,0.0,nan,0.0,0.0,0.0,0.0,5.8440703e-05,inf,0.0,0.0,0.00063800707,0.0,0.0,0.0,0.0,0.0,0.0,0.0,0.0
5112000,5032000,1.3934716e-06,0.0,1.2087588e-07,2.3438909e-06,0.0,2.0564721e-05,0.0,0.0,0.0,0.0,0.0,0.0,0.0,6.898771e-10,0.0,0.0,nan,0.0,0.0,0.0,0.0,5.8440703e-05,inf,0.0,0.0,1.0185605e-05,0.0,0.0,0.0,0.0,0.0,0.0,0.0,0.0
5120000,5040000,1.3934716e-06,0.0,1.2087588e-07,2.3438909e-06,0.0,2.0564721e-05,0.0,0.0,0.0,0.0,0.0,0.0,0.0,6.898771e-10,0.0,0.0,nan,0.0,0.0,0.0,0.0,5.8440703e-05,inf,0.0,0.0,0.0001135263,0.0,0.0,0.0,0.0,0.0,0.0,0.0,0.0
5128000,5048000,1.3934716e-06,0.0,1.2087588e-07,2.3438909e-06,0.0,2.0564721e-05,0.0,0.0,0.0,0.0,0.0,0.0,0.0,6.898771e-10,0.0,0.0,nan,0.0,0.0,0.0,0.0,5.8440703e-05,inf,0.0,0.0,0.00083853037,0.0,0.0,0.0,0.0,0.0,0.0,0.0,0.0
5136000,5056000,1.3934716e-06,0.0,1.2087588e-07,2.3438909e-06,0.0,2.0564721e-05,0.0,0.0,0.0,0.0,0.0,0.0,0.0,3.6978847e-05,0.0,0.0,nan,0.0,0.0,0.0,0.0,5.8440703e-05,inf,0.0,0.0,0.0006704881,0.0,0.0,0.0,0.0,0.0,0.0,0.0,0.0
5144000,5064000,1.3934716e-06,0.0,1.2087588e-07,2.3438909e-06,0.0,2.0564721e-05,0.0,0.0,0.0,0.0,0.0,0.0,0.0,3.6978847e-05,0.0,0.0,nan,0.0,0.0,0.0,0.0,5.8440703e-05,inf,0.0,0.0,8.0283615e-05,0.0,0.0,0.0,0.0,0.0,0.0,0.0,0.0
5152000,5072000,1.3934716e-06,0.0,1.2087588e-07,2.3438909e-06,0.0,2.0564721e-05,0.0,0.0,0.0,0.0,0.0,0.0,0.0,3.6978847e-05,0.0,0.0,nan,0.0,0.0,0.0,0.0,5.8440703e-05,inf,0.0,0.0,0.0001664568,0.0,0.0,0.0,0.0,0.0,0.0,0.0,0.0
5160000,5080000,1.3934716e-06,0.0,1.2087588e-07,2.3438909e-06,0.0,2.0564721e-05,0.0,0.0,0.0,0.0,0.0,0.0,0.0,3.6978847e-05,0.0,0.0,nan,0.0,0.0,0.0,0.0,5.8440703e-05,inf,0.0,0.0,3.90375e-05,0.0,0.0,0.0,0.0,0.0,0.0,0.0,0.0
5168000,5088000,1.3934716e-06,0.0,1.2087588e-07,2.3438909e-06,0.0,2.0564721e-05,0.0,0.0,0.0,0.0,0.0,0.0,0.0,3.6978847e-05,0.0,0.0,nan,0.0,0.0,0.0,0.0,5.4891887e-05,inf,0.0,0.0,2.7630676e-06,0.0,0.0,0.0,0.0,0.0,0.0,0.0,0.0
5176000,5096000,1.3934716e-06,0.0,1.2087588e-07,2.3438909e-06,0.0,2.0564721e-05,0.0,0.0,0.0,0.0,0.0,0.0,0.0,3.6978847e-05,0.0,0.0,nan,0.0,0.0,0.0,0.0,5.4891887e-05,inf,0.0,0.0,0.00037781862,0.0,0.0,0.0,0.0,0.0,0.0,0.0,0.0
5184000,5104000,1.3934716e-06,0.0,1.2087588e-07,2.3438909e-06,0.0,2.0564721e-05,0.0,0.0,0.0,0.0,0.0,0.0,0.0,3.6978847e-05,0.0,0.0,nan,0.0,0.0,0.0,0.0,5.4891887e-05,inf,0.0,0.0,6.8324135e-07,0.0,0.0,0.0,0.0,0.0,0.0,0.0,0.0
5192000,5112000,1.3934716e-06,0.0,1.2087588e-07,2.3438909e-06,0.0,2.0564721e-05,0.0,0.0,0.0,0.0,0.0,0.0,0.0,1.9119004e-06,0.0,0.0,nan,0.0,0.0,0.0,0.0,5.4891887e-05,inf,0.0,0.0,0.0005388226,0.0,0.0,0.0,0.0,0.0,0.0,0.0,0.0
5200000,5120000,1.3934716e-06,0.0,1.2087588e-07,2.3438909e-06,0.0,2.0564721e-05,0.0,0.0,0.0,0.0,0.0,0.0,0.0,1.9119004e-06,0.0,0.0,nan,0.0,0.0,0.0,0.0,5.4891887e-05,inf,0.0,0.0,0.00047229484,0.0,0.0,0.0,0.0,0.0,0.0,0.0,0.0
5208000,5128000,1.3934716e-06,0.0,1.2087588e-07,2.3438909e-06,0.0,2.0564721e-05,0.0,0.0,0.0,0.0,0.0,0.0,0.0,1.9119004e-06,0.0,0.0,nan,0.0,0.0,0.0,0.0,5.4891887e-05,inf,0.0,0.0,0.00040992335,0.0,0.0,0.0,0.0,0.0,0.0,0.0,0.0
5216000,5136000,1.3934716e-06,0.0,1.2087588e-07,2.3438909e-06,0.0,2.0564721e-05,0.0,0.0,0.0,0.0,0.0,0.0,0.0,1.9119004e-06,0.0,0.0,nan,0.0,0.0,0.0,0.0,5.4891887e-05,inf,0.0,0.0,0.00042915443,0.0,0.0,0.0,0.0,0.0,0.0,0.0,0.0
5224000,5144000,1.3934716e-06,0.0,1.2087588e-07,2.3438909e-06,0.0,2.0564721e-05,0.0,0.0,0.0,0.0,0.0,0.0,0.0,1.9119004e-06,0.0,0.0,nan,0.0,0.0,0.0,0.0,5.4891887e-05,inf,0.0,0.0,1.0978325e-05,0.0,0.0,0.0,0.0,0.0,0.0,0.0,0.0
5232000,5152000,1.3934716e-06,0.0,1.2087588e-07,2.3438909e-06,0.0,2.0564721e-05,0.0,0.0,0.0,0.0,0.0,0.0,0.0,1.9119004e-06,0.0,0.0,nan,0.0,0.0,0.0,0.0,5.4891887e-05,inf,0.0,0.0,0.0007722384,0.0,0.0,0.0,0.0,0.0,0.0,0.0,0.0
5240000,5160000,1.3934716e-06,0.0,1.2087588e-07,2.3438909e-06,0.0,2.0564721e-05,0.0,0.0,0.0,0.0,0.0,0.0,0.0,1.9119004e-06,0.0,0.0,nan,0.0,0.0,0.0,0.0,2.6088788e-05,inf,0.0,0.0,0.0001264801,0.0,0.0,0.0,0.0,0.0,0.0,0.0,0.0
5248000,5168000,1.3934716e-06,0.0,1.2087588e-07,2.3438909e-06,0.0,2.0564721e-05,0.0,0.0,0.0,0.0,0.0,0.0,0.0,1.9119004e-06,0.0,0.0,nan,0.0,0.0,0.0,0.0,2.6088788e-05,inf,0.0,0.0,0.0002006315,0.0,0.0,0.0,0.0,0.0,0.0,0.0,0.0
5256000,5176000,1.3934716e-06,0.0,1.2087588e-07,2.3438909e-06,0.0,2.0564721e-05,0.0,0.0,0.0,0.0,0.0,0.0,0.0,8.075127e-06,0.0,0.0,nan,0.0,0.0,0.0,0.0,2.6088788e-05,inf,0.0,0.0,0.00048640798,0.0,0.0,0.0,0.0,0.0,0.0,0.0,0.0
5264000,5184000,1.3934716e-06,0.0,1.2087588e-07,2.3438909e-06,0.0,2.0564721e-05,0.0,0.0,0.0,0.0,0.0,0.0,0.0,8.075127e-06,0.0,0.0,nan,0.0,0.0,0.0,0.0,2.6088788e-05,inf,0.0,0.0,5.2161045e-06,0.0,0.0,0.0,0.0,0.0,0.0,0.0,0.0
5272000,5192000,1.3934716e-06,0.0,1.2087588e-07,2.3438909e-06,0.0,2.0564721e-05,0.0,0.0,0.0,0.0,0.0,0.0,0.0,8.075127e-06,0.0,0.0,nan,0.0,0.0,0.0,0.0,2.6088788e-05,inf,0.0,0.0,0.00054035627,0.0,0.0,0.0,0.0,0.0,0.0,0.0,0.0
5280000,5200000,1.3934716e-06,0.0,1.2087588e-07,2.3438909e-06,0.0,2.0564721e-05,0.0,0.0,0.0,0.0,0.0,0.0,0.0,8.075127e-06,0.0,0.0,nan,0.0,0.0,0.0,0.0,2.6088788e-05,inf,0.0,0.0,0.00081785524,0.0,0.0,0.0,0.0,0.0,0.0,0.0,0.0
5288000,5208000,1.3934716e-06,0.0,1.2087588e-07,2.3438909e-06,0.0,2.0564721e-05,0.0,0.0,0.0,0.0,0.0,0.0,0.0,8.075127e-06,0.0,0.0,nan,0.0,0.0,0.0,0.0,2.6088788e-05,inf,0.0,0.0,0.0007461095,0.0,0.0,0.0,0.0,0.0,0.0,0.0,0.0
5296000,5216000,1.3934716e-06,0.0,1.2087588e-07,2.3438909e-06,0.0,2.0564721e-05,0.0,0.0,0.0,0.0,0.0,0.0,0.0,8.075127e-06,0.0,0.0,nan,0.0,0.0,0.0,0.0,2.6088788e-05,inf,0.0,0.0,0.002241353,0.0,0.0,0.0,0.0,0.0,0.0,0.0,0.0
5304000,5224000,1.3934716e-06,0.0,1.2087588e-07,2.3438909e-06,0.0,2.0564721e-05,0.0,0.0,0.0,0.0,0.0,0.0,0.0,8.075127e-06,0.0,0.0,nan,0.0,0.0,0.0,0.0,2.6088788e-05,inf,0.0,0.0,0.0043411586,0.0,0.0,0.0,0.0,0.0,0.0,0.0,0.0
5312000,5232000,1.3934716e-06,0.0,1.2087588e-07,2.3438909e-06,0.0,2.0564721e-05,0.0,0.0,0.0,0.0,0.0,0.0,0.0,8.5176356e-07,0.0,0.0,nan,0.0,0.0,0.0,0.0,0.0008812929,inf,0.0,0.0,0.0006815899,0.0,0.0,0.0,0.0,0.0,0.0,0.0,0.0
5320000,5240000,1.3934716e-06,0.0,1.2087588e-07,2.3438909e-06,0.0,2.0564721e-05,0.0,0.0,0.0,0.0,0.0,0.0,0.0,8.5176356e-07,0.0,0.0,nan,0.0,0.0,0.0,0.0,0.0008812929,inf,0.0,0.0,0.0001037011,0.0,0.0,0.0,0.0,0.0,0.0,0.0,0.0
5328000,5248000,1.3934716e-06,0.0,1.2087588e-07,2.3438909e-06,0.0,2.0564721e-05,0.0,0.0,0.0,0.0,0.0,0.0,0.0,8.5176356e-07,0.0,0.0,nan,0.0,0.0,0.0,0.0,0.0008812929,inf,0.0,0.0,6.5011e-05,0.0,0.0,0.0,0.0,0.0,0.0,0.0,0.0
5336000,5256000,1.3934716e-06,0.0,1.2087588e-07,2.3438909e-06,0.0,2.0564721e-05,0.0,0.0,0.0,0.0,0.0,0.0,0.0,8.5176356e-07,0.0,0.0,nan,0.0,0.0,0.0,0.0,0.0008812929,inf,0.0,0.0,0.0001216293,0.0,0.0,0.0,0.0,0.0,0.0,0.0,0.0
5344000,5264000,1.3934716e-06,0.0,1.2087588e-07,2.3438909e-06,0.0,2.0564721e-05,0.0,0.0,0.0,0.0,0.0,0.0,0.0,8.5176356e-07,0.0,0.0,nan,0.0,0.0,0.0,0.0,0.0008812929,inf,0.0,0.0,0.00019529993,0.0,0.0,0.0,0.0,0.0,0.0,0.0,0.0
5352000,5272000,1.3934716e-06,0.0,1.2087588e-07,2.3438909e-06,0.0,2.0564721e-05,0.0,0.0,0.0,0.0,0.0,0.0,0.0,8.5176356e-07,0.0,0.0,nan,0.0,0.0,0.0,0.0,0.0008812929,inf,0.0,0.0,0.0015088392,0.0,0.0,0.0,0.0,0.0,0.0,0.0,0.0
5360000,5280000,1.3934716e-06,0.0,1.2087588e-07,2.3438909e-06,0.0,2.0564721e-05,0.0,0.0,0.0,0.0,0.0,0.0,0.0,8.5176356e-07,0.0,0.0,nan,0.0,0.0,0.0,0.0,0.0008812929,inf,0.0,0.0,0.00027971502,0.0,0.0,0.0,0.0,0.0,0.0,0.0,0.0
5368000,5288000,1.3934716e-06,0.0,1.2087588e-07,2.3438909e-06,0.0,2.0564721e-05,0.0,0.0,0.0,0.0,0.0,0.0,0.0,8.5176356e-07,0.0,0.0,nan,0.0,0.0,0.0,0.0,0.0008812929,inf,0.0,0.0,3.85709e-06,0.0,0.0,0.0,0.0,0.0,0.0,0.0,0.0
5376000,5296000,1.3934716e-06,0.0,1.2087588e-07,2.3438909e-06,0.0,2.0564721e-05,0.0,0.0,0.0,0.0,0.0,0.0,0.0,1.6075315e-08,0.0,0.0,nan,0.0,0.0,0.0,0.0,0.0008812929,inf,0.0,0.0,8.5060245e-05,0.0,0.0,0.0,0.0,0.0,0.0,0.0,0.0
5384000,5304000,1.3934716e-06,0.0,1.2087588e-07,2.3438909e-06,0.0,2.0564721e-05,0.0,0.0,0.0,0.0,0.0,0.0,0.0,1.6075315e-08,0.0,0.0,nan,0.0,0.0,0.0,0.0,4.497e-05,inf,0.0,0.0,0.0004911575,0.0,0.0,0.0,0.0,0.0,0.0,0.0,0.0
5392000,5312000,1.3934716e-06,0.0,1.2087588e-07,2.3438909e-06,0.0,2.0564721e-05,0.0,0.0,0.0,0.0,0.0,0.0,0.0,1.6075315e-08,0.0,0.0,nan,0.0,0.0,0.0,0.0,4.497e-05,inf,0.0,0.0,0.00096171047,0.0,0.0,0.0,0.0,0.0,0.0,0.0,0.0
5400000,5320000,1.3934716e-06,0.0,1.2087588e-07,2.3438909e-06,0.0,2.0564721e-05,0.0,0.0,0.0,0.0,0.0,0.0,0.0,1.6075315e-08,0.0,0.0,nan,0.0,0.0,0.0,0.0,4.497e-05,inf,0.0,0.0,0.00036979117,0.0,0.0,0.0,0.0,0.0,0.0,0.0,0.0
5408000,5328000,4.115136e-05,0.0,0.0002883458,2.2349598e-06,0.0,2.1520584e-05,0.0,0.0,0.0,0.0,0.0,0.0,0.0,1.6075315e-08,0.0,0.0,nan,0.0,0.0,0.0,0.0,4.497e-05,inf,0.0,0.0,6.0916693e-05,0.0,0.0,0.0,0.0,0.0,0.0,0.0,0.0
5416000,5336000,4.115136e-05,0.0,0.0002883458,2.2349598e-06,0.0,2.1520584e-05,0.0,0.0,0.0,0.0,0.0,0.0,0.0,1.6075315e-08,0.0,0.0,nan,0.0,0.0,0.0,0.0,4.497e-05,inf,0.0,0.0,0.0003505696,0.0,0.0,0.0,0.0,0.0,0.0,0.0,0.0
5424000,5344000,4.115136e-05,0.0,0.0002883458,2.2349598e-06,0.0,2.1520584e-05,0.0,0.0,0.0,0.0,0.0,0.0,0.0,1.6075315e-08,0.0,0.0,nan,0.0,0.0,0.0,0.0,4.497e-05,inf,0.0,0.0,0.0007519069,0.0,0.0,0.0,0.0,0.0,0.0,0.0,0.0
