timestamp,roll_body,pitch_body,yaw_body,yaw_sp_move_rate,q_d[0],q_d[1],q_d[2],q_d[3],thrust_body[0],thrust_body[1],thrust_body[2],reset_integral,fw_control_yaw_wheel
3200000,0.0,0.0,0.00025845127,0.0,1.0,0.0,0.0,0.00012922563,0.0,0.0,-0.001,0,0
3208000,0.0,0.0,0.00026455868,0.0,1.0,0.0,0.0,0.00013227934,0.0,0.0,-0.001,0,0
3248000,0.0,-0.0,1.6177874,0.0,0.6902993,0.0,0.0,0.72352403,0.0,0.0,-0.001,0,0
3296000,0.0,-0.0,1.6177474,0.0,0.69031376,0.0,0.0,0.72351015,0.0,0.0,-0.001,0,0
3344000,0.0,-0.0,1.6177353,0.0,0.69031817,0.0,0.0,0.72350603,0.0,0.0,-0.001,0,0
3392000,0.0,-0.0,1.6176866,0.0,0.69033575,0.0,0.0,0.7234892,0.0,0.0,-0.001,0,0
3448000,0.0,-0.0,1.6234185,0.0,0.6882594,0.0,0.0,0.72546464,0.0,0.0,-0.001,0,0
3496000,0.0,-0.0,1.6238767,0.0,0.6880932,0.0,0.0,0.7256224,0.0,0.0,-0.001,0,0
3544000,0.0,-0.0,1.6243505,0.0,0.6879213,0.0,0.0,0.7257853,0.0,0.0,-0.001,0,0
3592000,0.0,-0.0,1.6248224,0.0,0.68775004,0.0,0.0,0.7259476,0.0,0.0,-0.001,0,0
3648000,0.0,-0.0,1.6254984,0.0,0.6875046,0.0,0.0,0.72618,0.0,0.0,-0.001,0,0
3696000,0.0,-0.0,1.6258669,0.0,0.68737084,0.0,0.0,0.7263066,0.0,0.0,-0.001,0,0
3752000,0.0,-0.0,1.6261456,0.0,0.6872696,0.0,0.0,0.72640246,0.0,0.0,-0.001,0,0
3800000,0.0,-0.0,1.6263043,0.0,0.687212,0.0,0.0,0.7264569,0.0,0.0,-0.001,0,0
3848000,0.0,-0.0,1.6264495,0.0,0.68715924,0.0,0.0,0.7265068,0.0,0.0,-0.001,0,0
3896000,0.0,-0.0,1.6264466,0.0,0.68716025,0.0,0.0,0.7265059,0.0,0.0,-0.001,0,0
3952000,0.0,-0.0,1.6260855,0.0,0.68729144,0.0,0.0,0.72638184,0.0,0.0,-0.001,0,0
4000000,0.0,-0.0,1.6255789,0.0,0.6874754,0.0,0.0,0.72620773,0.0,0.0,-0.001,0,0
4048000,0.0,-0.0,1.6250588,0.0,0.6876642,0.0,0.0,0.7260289,0.0,0.0,-0.001,0,0
4096000,0.0,-0.0,1.6244935,0.0,0.6878694,0.0,0.0,0.7258345,0.0,0.0,-0.001,0,0
4144000,0.0,-0.0,1.6240301,0.0,0.6880376,0.0,0.0,0.72567505,0.0,0.0,-0.001,0,0
4200000,0.0,-0.0,1.6238039,0.0,0.68811965,0.0,0.0,0.7255973,0.0,0.0,-0.001,0,0
4248000,0.0,-0.0,1.6237831,0.0,0.68812716,0.0,0.0,0.7255901,0.0,0.0,-0.001,0,0
4296000,0.0,-0.0,1.6238769,0.0,0.6880931,0.0,0.0,0.7256225,0.0,0.0,-0.001,0,0
4352000,0.0,-0.0,1.6238551,0.0,0.68810105,0.0,0.0,0.7256149,0.0,0.0,-0.001,0,0
4392000,0.0,-0.0,1.6237499,0.0,0.6881392,0.0,0.0,0.7255787,0.0,0.0,-0.001,0,0
4448000,0.0,-0.0,1.6236628,0.0,0.6881708,0.0,0.0,0.7255488,0.0,0.0,-0.001,0,0
4496000,0.0,-0.0,1.6234145,0.0,0.68826085,0.0,0.0,0.7254633,0.0,0.0,-0.001,0,0
4552000,0.0,-0.0,1.6232785,0.0,0.6883102,0.0,0.0,0.7254165,0.0,0.0,-0.001,0,0
4600000,0.0,-0.0,1.6232932,0.0,0.6883049,0.0,0.0,0.7254215,0.0,0.0,-0.001,0,0
4648000,0.0,-0.0,1.6233835,0.0,0.6882721,0.0,0.0,0.7254527,0.0,0.0,-0.001,0,0
4696000,0.0,-0.0,1.6232996,0.0,0.6883026,0.0,0.0,0.72542375,0.0,0.0,-0.001,0,0
4752000,0.0,-0.0,1.6230078,0.0,0.6884084,0.0,0.0,0.7253233,0.0,0.0,-0.001,0,0
4792000,0.0,-0.0,1.6222315,0.0,0.6886899,0.0,0.0,0.7250561,0.0,0.0,-0.001,0,0
4848000,0.0,-0.0,1.6212064,0.0,0.6890614,0.0,0.0,0.72470295,0.0,0.0,-0.001,0,0
4896000,0.0,-0.0,1.6209227,0.0,0.6891642,0.0,0.0,0.7246052,0.0,0.0,-0.001,0,0
4944000,0.0,-0.0,1.6215426,0.0,0.6889396,0.0,0.0,0.7248189,0.0,0.0,-0.001,0,0
5000000,0.0,-0.0,1.6226197,0.0,0.6885491,0.0,0.0,0.72518975,0.0,0.0,-0.001,0,0
5048000,0.0,-0.0,1.6233184,0.0,0.6882957,0.0,0.0,0.72543025,0.0,0.0,-0.001,0,0
5096000,0.0,-0.0,1.6237328,0.0,0.6881454,0.0,0.0,0.7255729,0.0,0.0,-0.001,0,0
5152000,0.0,-0.0,1.623774,0.0,0.68813044,0.0,0.0,0.725587,0.0,0.0,-0.001,0,0
5200000,0.0,-0.0,1.6237578,0.0,0.68813634,0.0,0.0,0.72558135,0.0,0.0,-0.001,0,0
5248000,0.0,-0.0,1.6237009,0.0,0.688157,0.0,0.0,0.7255618,0.0,0.0,-0.001,0,0
5296000,0.0,-0.0,1.62361,0.0,0.68819,0.0,0.0,0.7255305,0.0,0.0,-0.001,0,0
5344000,0.0,-0.0,1.6231444,0.0,0.68835884,0.0,0.0,0.72537035,0.0,0.0,-0.001,0,0
5400000,0.0,-0.0,1.622437,0.0,0.6886154,0.0,0.0,0.7251268,0.0,0.0,-0.001,0,0
5448000,0.0,-0.0,1.6218421,0.0,0.68883103,0.0,0.0,0.72492194,0.0,0.0,-0.001,0,0
5496000,0.0,-0.0,1.6213393,0.0,0.68901324,0.0,0.0,0.72474885,0.0,0.0,-0.001,0,0
5544000,0.0,-0.0,1.6209666,0.0,0.6891483,0.0,0.0,0.72462034,0.0,0.0,-0.001,0,0
5592000,0.0,-0.0,1.6207094,0.0,0.68924147,0.0,0.0,0.7245317,0.0,0.0,-0.001,0,0
5648000,0.0,-0.0,1.6216319,0.0,0.6889072,0.0,0.0,0.72484964,0.0,0.0,-0.001,0,0
5696000,0.0,-0.0,1.6227645,0.0,0.68849665,0.0,0.0,0.7252395,0.0,0.0,-0.001,0,0
5744000,0.0,-0.0,1.62375,0.0,0.6881392,0.0,0.0,0.7255787,0.0,0.0,-0.001,0,0
5792000,0.0,-0.0,1.6247863,0.0,0.68776315,0.0,0.0,0.72593516,0.0,0.0,-0.001,0,0
5848000,0.0,-0.0,1.6254286,0.0,0.68753,0.0,0.0,0.726156,0.0,0.0,-0.001,0,0
5896000,0.0,-0.0,1.6256635,0.0,0.6874447,0.0,0.0,0.7262367,0.0,0.0,-0.001,0,0
5944000,0.0,-0.0,1.6258548,0.0,0.6873752,0.0,0.0,0.7263025,0.0,0.0,-0.001,0,0
5992000,0.0,-0.0,1.6259984,0.0,0.6873231,0.0,0.0,0.7263518,0.0,0.0,-0.001,0,0
6048000,0.0,-0.0,1.6260202,0.0,0.6873151,0.0,0.0,0.72635937,0.0,0.0,-0.001,0,0
6096000,0.0,-0.0,1.6258727,0.0,0.6873687,0.0,0.0,0.7263087,0.0,0.0,-0.001,0,0
6152000,0.0,-0.0,1.6256597,0.0,0.68744606,0.0,0.0,0.72623545,0.0,0.0,-0.001,0,0
6192000,0.0,-0.0,1.6253741,0.0,0.68754977,0.0,0.0,0.7261372,0.0,0.0,-0.001,0,0
6248000,0.0,-0.0,1.6247972,0.0,0.68775916,0.0,0.0,0.725939,0.0,0.0,-0.001,0,0
6296000,0.0,-0.0,1.6243718,0.0,0.6879136,0.0,0.0,0.72579265,0.0,0.0,-0.001,0,0
6344000,0.0,-0.0,1.6239793,0.0,0.688056,0.0,0.0,0.7256576,0.0,0.0,-0.001,0,0
6392000,0.0,-0.0,1.623657,0.0,0.68817294,0.0,0.0,0.7255467,0.0,0.0,-0.001,0,0
6448000,0.0,-0.0,1.6234056,0.0,0.68826413,0.0,0.0,0.7254602,0.0,0.0,-0.001,0,0
6496000,0.0,-0.0,1.6233658,0.0,0.68827856,0.0,0.0,0.7254465,0.0,0.0,-0.001,0,0
6552000,0.0,-0.0,1.6233395,0.0,0.6882881,0.0,0.0,0.72543746,0.0,0.0,-0.001,0,0
6600000,0.0,-0.0,1.6233664,0.0,0.6882784,0.0,0.0,0.7254467,0.0,0.0,-0.001,0,0
6648000,0.0,-0.0,1.6237216,0.0,0.6881495,0.0,0.0,0.7255689,0.0,0.0,-0.001,0,0
6696000,0.0,-0.0,1.624109,0.0,0.6880089,0.0,0.0,0.7257022,0.0,0.0,-0.001,0,0
6744000,0.0,-0.0,1.6243352,0.0,0.6879268,0.0,0.0,0.72578007,0.0,0.0,-0.001,0,0
6800000,0.0,-0.0,1.625339,0.0,0.68756247,0.0,0.0,0.72612524,0.0,0.0,-0.001,0,0
6848000,0.0,-0.0,1.6261128,0.0,0.6872815,0.0,0.0,0.7263912,0.0,0.0,-0.001,0,0
6896000,0.0,-0.0,1.6267529,0.0,0.68704903,0.0,0.0,0.7266111,0.0,0.0,-0.001,0,0
6952000,0.0,-0.0,1.6274843,0.0,0.6867832,0.0,0.0,0.72686243,0.0,0.0,-0.001,0,0
6992000,0.0,-0.0,1.6277014,0.0,0.6867043,0.0,0.0,0.72693694,0.0,0.0,-0.001,0,0
7048000,0.0,-0.0,1.6278049,0.0,0.6866667,0.0,0.0,0.72697234,0.0,0.0,-0.001,0,0
7096000,0.0,-0.0,1.6282347,0.0,0.68651044,0.0,0.0,0.7271199,0.0,0.0,-0.001,0,0
7152000,0.0,-0.0,1.6285075,0.0,0.68641126,0.0,0.0,0.72721356,0.0,0.0,-0.001,0,0
7200000,0.0,-0.0,1.6286094,0.0,0.68637425,0.0,0.0,0.7272485,0.0,0.0,-0.001,0,0
7248000,0.0,-0.0,1.6283653,0.0,0.68646294,0.0,0.0,0.72716486,0.0,0.0,-0.001,0,0
7296000,0.0,-0.0,1.6280899,0.0,0.6865631,0.0,0.0,0.72707033,0.0,0.0,-0.001,0,0
7352000,0.0,-0.0,1.6281562,0.0,0.686539,0.0,0.0,0.727093,0.0,0.0,-0.001,0,0
7392000,0.0,-0.0,1.6284729,0.0,0.68642384,0.0,0.0,0.72720176,0.0,0.0,-0.001,0,0
7448000,0.0,-0.0,1.6288493,0.0,0.686287,0.0,0.0,0.72733086,0.0,0.0,-0.001,0,0
7496000,0.0,-0.0,1.6289922,0.0,0.686235,0.0,0.0,0.7273799,0.0,0.0,-0.001,0,0
7544000,0.0,-0.0,1.6289514,0.0,0.68624985,0.0,0.0,0.7273659,0.0,0.0,-0.001,0,0
7592000,0.0,-0.0,1.6287959,0.0,0.6863064,0.0,0.0,0.7273126,0.0,0.0,-0.001,0,0
7648000,0.0,-0.0,1.6287279,0.0,0.68633115,0.0,0.0,0.72728914,0.0,0.0,-0.001,0,0
7696000,0.0,-0.0,1.6287667,0.0,0.686317,0.0,0.0,0.72730255,0.0,0.0,-0.001,0,0
7744000,0.0,-0.0,1.6285868,0.0,0.6863825,0.0,0.0,0.72724074,0.0,0.0,-0.001,0,0
7792000,0.0,-0.0,1.6283927,0.0,0.68645304,0.0,0.0,0.7271741,0.0,0.0,-0.001,0,0
7848000,0.0,-0.0,1.6282138,0.0,0.6865181,0.0,0.0,0.72711277,0.0,0.0,-0.001,0,0
7896000,0.0,-0.0,1.6280707,0.0,0.68657005,0.0,0.0,0.7270637,0.0,0.0,-0.001,0,0
7952000,0.0,-0.0,1.6275117,0.0,0.68677324,0.0,0.0,0.72687185,0.0,0.0,-0.001,0,0
8000000,0.0,-0.0,1.6270909,0.0,0.6869262,0.0,0.0,0.7267272,0.0,0.0,-0.001,0,0
8048000,0.0,-0.0,1.6266781,0.0,0.68707615,0.0,0.0,0.72658545,0.0,0.0,-0.001,0,0
8096000,0.0,-0.0,1.6266136,0.0,0.6870996,0.0,0.0,0.7265633,0.0,0.0,-0.001,0,0
8144000,0.0,-0.0,1.6265806,0.0,0.68711156,0.0,0.0,0.72655195,0.0,0.0,-0.001,0,0
8200000,0.0,-0.0,1.6265222,0.0,0.6871328,0.0,0.0,0.7265319,0.0,0.0,-0.001,0,0
8248000,0.0,-0.0,1.626652,0.0,0.6870856,0.0,0.0,0.72657645,0.0,0.0,-0.001,0,0
8296000,0.0,-0.0,1.626881,0.0,0.6870024,0.0,0.0,0.7266551,0.0,0.0,-0.001,0,0
8352000,0.0,-0.0,1.6270971,0.0,0.6869239,0.0,0.0,0.72672933,0.0,0.0,-0.001,0,0
8400000,0.0,-0.0,1.6266904,0.0,0.6870717,0.0,0.0,0.7265897,0.0,0.0,-0.001,0,0
8448000,0.0,-0.0,1.6261433,0.0,0.6872704,0.0,0.0,0.7264017,0.0,0.0,-0.001,0,0
8496000,0.0,-0.0,1.6257495,0.0,0.68741345,0.0,0.0,0.7262663,0.0,0.0,-0.001,0,0
8544000,0.0,-0.0,1.6255355,0.0,0.6874912,0.0,0.0,0.7261927,0.0,0.0,-0.001,0,0
8592000,0.0,-0.0,1.625485,0.0,0.6875095,0.0,0.0,0.72617537,0.0,0.0,-0.001,0,0
8648000,0.0,-0.0,1.6254225,0.0,0.6875322,0.0,0.0,0.72615397,0.0,0.0,-0.001,0,0
8696000,0.0,-0.0,1.6251619,0.0,0.6876268,0.0,0.0,0.7260643,0.0,0.0,-0.001,0,0
8744000,0.0,-0.0,1.6249443,0.0,0.68770576,0.0,0.0,0.7259895,0.0,0.0,-0.001,0,0
8792000,0.0,-0.0,1.624788,0.0,0.6877625,0.0,0.0,0.72593576,0.0,0.0,-0.001,0,0
8848000,0.0,-0.0,1.6246355,0.0,0.6878179,0.0,0.0,0.7258834,0.0,0.0,-0.001,0,0
8896000,0.0,-0.0,1.624533,0.0,0.68785506,0.0,0.0,0.7258481,0.0,0.0,-0.001,0,0
8944000,0.0,-0.0,1.6246215,0.0,0.68782294,0.0,0.0,0.72587854,0.0,0.0,-0.001,0,0
8992000,0.0,-0.0,1.6248602,0.0,0.68773633,0.0,0.0,0.72596055,0.0,0.0,-0.001,0,0
9048000,0.0,-0.0,1.6250887,0.0,0.68765336,0.0,0.0,0.72603923,0.0,0.0,-0.001,0,0
9096000,0.0,-0.0,1.6250424,0.0,0.6876702,0.0,0.0,0.7260233,0.0,0.0,-0.001,0,0
9152000,0.0,-0.0,1.6248691,0.0,0.6877331,0.0,0.0,0.72596365,0.0,0.0,-0.001,0,0
9192000,0.0,-0.0,1.6247141,0.0,0.6877893,0.0,0.0,0.7259104,0.0,0.0,-0.001,0,0
9248000,0.0,-0.0,1.6247454,0.0,0.687778,0.0,0.0,0.7259211,0.0,0.0,-0.001,0,0
9296000,0.0,-0.0,1.6249382,0.0,0.68770796,0.0,0.0,0.72598743,0.0,0.0,-0.001,0,0
9352000,0.0,-0.0,1.625096,0.0,0.68765074,0.0,0.0,0.7260417,0.0,0.0,-0.001,0,0
9400000,0.0,-0.0,1.6251491,0.0,0.6876314,0.0,0.0,0.72606,0.0,0.0,-0.001,0,0
9448000,0.0,-0.0,1.6252544,0.0,0.6875932,0.0,0.0,0.7260961,0.0,0.0,-0.001,0,0
9496000,0.0,-0.0,1.6252527,0.0,0.6875938,0.0,0.0,0.72609556,0.0,0.0,-0.001,0,0
9544000,0.0,-0.0,1.6251632,0.0,0.6876263,0.0,0.0,0.72606474,0.0,0.0,-0.001,0,0
9600000,0.0,-0.0,1.6250898,0.0,0.68765295,0.0,0.0,0.72603965,0.0,0.0,-0.001,0,0
9648000,0.0,-0.0,1.6251436,0.0,0.6876334,0.0,0.0,0.72605807,0.0,0.0,-0.001,0,0
9696000,0.0,-0.0,1.6252965,0.0,0.68757796,0.0,0.0,0.7261106,0.0,0.0,-0.001,0,0
9752000,0.0,-0.0,1.6254519,0.0,0.6875215,0.0,0.0,0.72616404,0.0,0.0,-0.001,0,0
9792000,0.0,-0.0,1.6254383,0.0,0.68752646,0.0,0.0,0.72615933,0.0,0.0,-0.001,0,0
9848000,0.0,-0.0,1.6253687,0.0,0.68755174,0.0,0.0,0.7261354,0.0,0.0,-0.001,0,0
9896000,0.0,-0.0,1.6252974,0.0,0.6875776,0.0,0.0,0.7261109,0.0,0.0,-0.001,0,0
9952000,0.0,-0.0,1.6253484,0.0,0.68755907,0.0,0.0,0.7261285,0.0,0.0,-0.001,0,0
10000000,0.0,-0.0,1.6255136,0.0,0.6874991,0.0,0.0,0.72618526,0.0,0.0,-0.001,0,0
10048000,0.0,-0.0,1.6256012,0.0,0.68746734,0.0,0.0,0.7262153,0.0,0.0,-0.001,0,0
10096000,0.0,-0.0,1.625697,0.0,0.6874325,0.0,0.0,0.7262483,0.0,0.0,-0.001,0,0
10144000,0.0,-0.0,1.6257834,0.0,0.6874011,0.0,0.0,0.726278,0.0,0.0,-0.001,0,0
10200000,0.0,-0.0,1.6258985,0.0,0.68735933,0.0,0.0,0.7263176,0.0,0.0,-0.001,0,0
10248000,0.0,-0.0,1.6258692,0.0,0.68737,0.0,0.0,0.72630745,0.0,0.0,-0.001,0,0
10296000,0.0,-0.0,1.6257559,0.0,0.6874111,0.0,0.0,0.7262685,0.0,0.0,-0.001,0,0
10352000,0.0,-0.0,1.6255594,0.0,0.6874824,0.0,0.0,0.72620106,0.0,0.0,-0.001,0,0
10392000,0.0,-0.0,1.6254989,0.0,0.6875045,0.0,0.0,0.7261801,0.0,0.0,-0.001,0,0
10448000,0.0,-0.0,1.6253877,0.0,0.6875448,0.0,0.0,0.726142,0.0,0.0,-0.001,0,0
10496000,0.0,-0.0,1.6252728,0.0,0.68758655,0.0,0.0,0.72610253,0.0,0.0,-0.001,0,0
10544000,0.0,-0.0,1.6251034,0.0,0.68764806,0.0,0.0,0.7260442,0.0,0.0,-0.001,0,0
10600000,0.0,-0.0,1.6249858,0.0,0.68769073,0.0,0.0,0.7260037,0.0,0.0,-0.001,0,0
10648000,0.0,-0.0,1.6249181,0.0,0.6877153,0.0,0.0,0.7259806,0.0,0.0,-0.001,0,0
10696000,0.0,-0.0,1.6247517,0.0,0.6877757,0.0,0.0,0.7259233,0.0,0.0,-0.001,0,0
10744000,0.0,-0.0,1.6246097,0.0,0.6878272,0.0,0.0,0.72587454,0.0,0.0,-0.001,0,0
10792000,0.0,-0.0,1.6246177,0.0,0.6878243,0.0,0.0,0.7258773,0.0,0.0,-0.001,0,0
10848000,0.0,-0.0,1.6246471,0.0,0.68781364,0.0,0.0,0.72588736,0.0,0.0,-0.001,0,0
10896000,0.0,-0.0,1.6245921,0.0,0.6878336,0.0,0.0,0.72586846,0.0,0.0,-0.001,0,0
10944000,0.0,-0.0,1.624612,0.0,0.6878264,0.0,0.0,0.7258753,0.0,0.0,-0.001,0,0
11000000,0.0,-0.0,1.6246034,0.0,0.6878295,0.0,0.0,0.72587234,0.0,0.0,-0.001,0,0
11048000,0.0,-0.0,1.6246465,0.0,0.6878139,0.0,0.0,0.7258872,0.0,0.0,-0.001,0,0
11096000,0.0,-0.0,1.624659,0.0,0.68780935,0.0,0.0,0.7258914,0.0,0.0,-0.001,0,0
11144000,0.0,-0.0,1.6245948,0.0,0.6878326,0.0,0.0,0.72586936,0.0,0.0,-0.001,0,0
11192000,0.0,-0.0,1.6245953,0.0,0.6878325,0.0,0.0,0.72586954,0.0,0.0,-0.001,0,0
11248000,0.0,-0.0,1.6245303,0.0,0.687856,0.0,0.0,0.7258471,0.0,0.0,-0.001,0,0
11296000,0.0,-0.0,1.6245741,0.0,0.68784016,0.0,0.0,0.72586215,0.0,0.0,-0.001,0,0
11344000,0.0,-0.0,1.6246086,0.0,0.68782765,0.0,0.0,0.72587407,0.0,0.0,-0.001,0,0
11392000,0.0,-0.0,1.6245908,0.0,0.6878341,0.0,0.0,0.7258679,0.0,0.0,-0.001,0,0
11448000,0.0,-0.0,1.6245584,0.0,0.6878458,0.0,0.0,0.72585684,0.0,0.0,-0.001,0,0
11496000,0.0,-0.0,1.6244575,0.0,0.6878825,0.0,0.0,0.7258221,0.0,0.0,-0.001,0,0
11544000,0.0,-0.0,1.6243598,0.0,0.6879179,0.0,0.0,0.72578853,0.0,0.0,-0.001,0,0
11600000,0.0,-0.0,1.6243178,0.0,0.6879332,0.0,0.0,0.72577405,0.0,0.0,-0.001,0,0
11648000,0.0,-0.0,1.6243316,0.0,0.68792814,0.0,0.0,0.7257788,0.0,0.0,-0.001,0,0
11696000,0.0,-0.0,1.6243209,0.0,0.6879321,0.0,0.0,0.7257751,0.0,0.0,-0.001,0,0
11744000,0.0,-0.0,1.62435,0.0,0.68792146,0.0,0.0,0.7257852,0.0,0.0,-0.001,0,0
11792000,0.0,-0.0,1.6243964,0.0,0.68790466,0.0,0.0,0.72580105,0.0,0.0,-0.001,0,0
11848000,0.0,-0.0,1.624541,0.0,0.68785214,0.0,0.0,0.7258509,0.0,0.0,-0.001,0,0
11896000,0.0,-0.0,1.6245354,0.0,0.6878542,0.0,0.0,0.725849,0.0,0.0,-0.001,0,0
11952000,0.0,-0.0,1.624494,0.0,0.68786925,0.0,0.0,0.72583467,0.0,0.0,-0.001,0,0
12000000,0.0,-0.0,1.6243676,0.0,0.6879151,0.0,0.0,0.72579116,0.0,0.0,-0.001,0,0
12048000,0.0,-0.0,1.6242799,0.0,0.6879469,0.0,0.0,0.7257611,0.0,0.0,-0.001,0,0
12096000,0.0,-0.0,1.624289,0.0,0.6879436,0.0,0.0,0.72576416,0.0,0.0,-0.001,0,0
12152000,0.0,-0.0,1.6242139,0.0,0.6879709,0.0,0.0,0.72573835,0.0,0.0,-0.001,0,0
12192000,0.0,-0.0,1.6241733,0.0,0.6879856,0.0,0.0,0.72572434,0.0,0.0,-0.001,0,0
12248000,0.0,-0.0,1.624189,0.0,0.6879799,0.0,0.0,0.72572976,0.0,0.0,-0.001,0,0
12296000,0.0,-0.0,1.6242374,0.0,0.68796235,0.0,0.0,0.72574645,0.0,0.0,-0.001,0,0
12352000,0.0,-0.0,1.6242168,0.0,0.6879698,0.0,0.0,0.7257393,0.0,0.0,-0.001,0,0
12400000,0.0,-0.0,1.6242841,0.0,0.68794537,0.0,0.0,0.72576255,0.0,0.0,-0.001,0,0
12448000,0.0,-0.0,1.6241502,0.0,0.687994,0.0,0.0,0.7257164,0.0,0.0,-0.001,0,0
12496000,0.0,-0.0,1.6240983,0.0,0.6880128,0.0,0.0,0.7256986,0.0,0.0,-0.001,0,0
12544000,0.0,-0.0,1.6240672,0.0,0.6880241,0.0,0.0,0.72568786,0.0,0.0,-0.001,0,0
12592000,0.0,-0.0,1.6239687,0.0,0.68805987,0.0,0.0,0.7256539,0.0,0.0,-0.001,0,0
12648000,0.0,-0.0,1.623753,0.0,0.6881381,0.0,0.0,0.7255798,0.0,0.0,-0.001,0,0
12696000,0.0,-0.0,1.6236039,0.0,0.6881922,0.0,0.0,0.7255284,0.0,0.0,-0.001,0,0
12744000,0.0,-0.0,1.6234617,0.0,0.68824375,0.0,0.0,0.7254796,0.0,0.0,-0.001,0,0
12792000,0.0,-0.0,1.6233104,0.0,0.68829864,0.0,0.0,0.72542745,0.0,0.0,-0.001,0,0
12848000,0.0,-0.0,1.6231022,0.0,0.68837416,0.0,0.0,0.7253558,0.0,0.0,-0.001,0,0
12896000,0.0,-0.0,1.6229734,0.0,0.68842083,0.0,0.0,0.7253115,0.0,0.0,-0.001,0,0
12944000,0.0,-0.0,1.6228732,0.0,0.6884572,0.0,0.0,0.72527695,0.0,0.0,-0.001,0,0
12992000,0.0,-0.0,1.6228139,0.0,0.6884787,0.0,0.0,0.7252565,0.0,0.0,-0.001,0,0
13048000,0.0,-0.0,1.6228821,0.0,0.688454,0.0,0.0,0.7252801,0.0,0.0,-0.001,0,0
13096000,0.0,-0.0,1.6228673,0.0,0.68845934,0.0,0.0,0.725275,0.0,0.0,-0.001,0,0
13144000,0.0,-0.0,1.6228334,0.0,0.6884717,0.0,0.0,0.72526324,0.0,0.0,-0.001,0,0
13192000,0.0,-0.0,1.6228051,0.0,0.68848187,0.0,0.0,0.7252536,0.0,0.0,-0.001,0,0
13248000,0.0,-0.0,1.6228296,0.0,0.68847305,0.0,0.0,0.7252619,0.0,0.0,-0.001,0,0
13296000,0.0,-0.0,1.6228218,0.0,0.68847585,0.0,0.0,0.72525924,0.0,0.0,-0.001,0,0
13344000,0.0,-0.0,1.6226859,0.0,0.68852514,0.0,0.0,0.7252126,0.0,0.0,-0.001,0,0
13392000,0.0,-0.0,1.6226944,0.0,0.68852204,0.0,0.0,0.7252155,0.0,0.0,-0.001,0,0
13448000,0.0,-0.0,1.6226727,0.0,0.6885299,0.0,0.0,0.7252079,0.0,0.0,-0.001,0,0
13496000,0.0,-0.0,1.6227078,0.0,0.68851715,0.0,0.0,0.72522014,0.0,0.0,-0.001,0,0
13552000,0.0,-0.0,1.6227525,0.0,0.688501,0.0,0.0,0.72523534,0.0,0.0,-0.001,0,0
13600000,0.0,-0.0,1.6227963,0.0,0.6884851,0.0,0.0,0.72525054,0.0,0.0,-0.001,0,0
13648000,0.0,-0.0,1.6227274,0.0,0.68851006,0.0,0.0,0.7252269,0.0,0.0,-0.001,0,0
13696000,0.0,-0.0,1.6226059,0.0,0.6885541,0.0,0.0,0.725185,0.0,0.0,-0.001,0,0
13752000,0.0,-0.0,1.6226969,0.0,0.68852115,0.0,0.0,0.72521627,0.0,0.0,-0.001,0,0
13800000,-0.0024060796,0.00080503855,1.6226298,0.0,0.6885446,-0.0011202514,-0.0005952833,0.72519296,0.0,0.0,-0.0101541905,0,0
13848000,-0.0024571258,0.0011109938,1.622554,0.0,0.6885719,-0.0012487826,-0.0005084131,0.72516686,0.0,0.0,-0.016485065,0,0
13896000,-0.002326079,0.0008878317,1.6224302,0.0,0.68861693,-0.0011227835,-0.0005376599,0.7251243,0.0,0.0,-0.023091447,0,0
13944000,-0.0025542618,0.00086459133,1.6222937,0.0,0.6886663,-0.0011929658,-0.000628311,0.7250773,0.0,0.0,-0.03033035,0,0
14000000,-0.0027992325,0.0011064427,1.6222341,0.0,0.68868756,-0.0013650161,-0.0006338038,0.7250567,0.0,0.0,-0.03933096,0,0
14048000,-0.0028007084,0.0010472551,1.6221853,0.0,0.6887053,-0.0013440832,-0.00065468694,0.7250399,0.0,0.0,-0.04745156,0,0
14096000,-0.002617253,0.001639129,1.6220874,0.0,0.6887405,-0.0014954946,-0.00038429396,0.7250063,0.0,0.0,-0.055998415,0,0
14144000,-0.002838685,0.0013550841,1.6219205,0.0,0.6888011,-0.001468829,-0.00056225806,0.7249486,0.0,0.0,-0.06491863,0,0
14192000,-0.0030231627,0.0013953377,1.6217906,0.0,0.68884796,-0.0015469943,-0.0006151627,0.724904,0.0,0.0,-0.07424181,0,0
14248000,-0.0027494524,0.0013631063,1.6216172,0.0,0.6889111,-0.0014410849,-0.00052693195,0.7248442,0.0,0.0,-0.0857618,0,0
14296000,-0.0023470134,0.0013278942,1.6215011,0.0,0.6889534,-0.0012897241,-0.00039313346,0.72480434,0.0,0.0,-0.095965706,0,0
14344000,-0.0020099406,0.0013421624,1.6213117,0.0,0.68902224,-0.0011788062,-0.00026595066,0.72473925,0.0,0.0,-0.10662778,0,0
14400000,-0.0019203167,0.00091779017,1.6211356,0.0,0.6890864,-0.0009941839,-0.00037958752,0.7246786,0.0,0.0,-0.11968055,0,0
14448000,-0.0019722471,0.0011642391,1.6210334,0.0,0.6891232,-0.0011013902,-0.00031343527,0.72464323,0.0,0.0,-0.13135706,0,0
14496000,-0.0019738954,0.0014367356,1.6209718,0.0,0.6891454,-0.001200696,-0.00022010341,0.724622,0.0,0.0,-0.14344482,0,0
14552000,-0.0019600445,0.0014555744,1.6209946,0.0,0.68913716,-0.0012027466,-0.00020860755,0.7246299,0.0,0.0,-0.1581414,0,0
14600000,-0.001724525,0.0017281449,1.6209784,0.0,0.689143,-0.0012203504,-2.9345987e-05,0.72462434,0.0,0.0,-0.1710445,0,0
14648000,-0.0009261628,0.0014972193,1.6209605,0.0,0.68915,-0.00086158887,0.0001803475,0.7246182,0.0,0.0,-0.18423463,0,0
14696000,-0.0011744956,0.0009410301,1.6209745,0.0,0.689145,-0.0007456451,-0.00010127999,0.72462314,0.0,0.0,-0.19809411,0,0
14744000,-0.0009132707,0.0006908249,1.6209294,0.0,0.6891616,-0.00056498405,-9.2836344e-05,0.72460747,0.0,0.0,-0.21241044,0,0
14792000,-0.0005187997,0.0005717462,1.6208878,0.0,0.6891768,-0.000385914,9.057796e-06,0.7245932,0.0,0.0,-0.22702102,0,0
14848000,-0.0005549723,0.0006381704,1.6208372,0.0,0.68919504,-0.00042244353,1.8852214e-05,0.72457576,0.0,0.0,-0.24458495,0,0
14896000,-0.00052100065,0.00045320595,1.6207199,0.0,0.6892376,-0.00034372846,-3.2558357e-05,0.72453535,0.0,0.0,-0.2602682,0,0
14944000,-0.00077263854,0.00034392645,1.6205566,0.0,0.6892967,-0.0003908724,-0.0001613465,0.7244791,0.0,0.0,-0.27641335,0,0
14992000,-0.0006515951,0.00022860641,1.6203814,0.0,0.68936026,-0.00030739527,-0.00015721773,0.72441864,0.0,0.0,-0.29297996,0,0
15048000,0.00021689977,0.0002686332,1.6203028,0.0,0.68938875,-2.2533677e-05,0.00017115651,0.7243915,0.0,0.0,-0.31282744,0,0
15096000,0.00080992485,0.00024346996,1.6203156,0.0,0.68938416,0.00019099034,0.00037727528,0.7243958,0.0,0.0,-0.324237,0,0
15152000,0.0012917595,-1.6949474e-05,1.6203578,0.0,0.6893687,0.00045138857,0.00046203984,0.72441036,0.0,0.0,-0.3298972,0,0
15192000,0.0013807912,-2.7643222e-05,1.6203749,0.0,0.68936247,0.0004859455,0.0004906058,0.7244163,0.0,0.0,-0.33393744,0,0
15248000,0.0019780477,0.0003747602,1.6203054,0.0,0.6893876,0.0005460842,0.0008456187,0.72439194,0.0,0.0,-0.34061906,0,0
15296000,0.0018566082,0.0003595651,1.6202621,0.0,0.6894033,0.0005097456,0.00079638517,0.72437716,0.0,0.0,-0.34496456,0,0
15344000,0.0020420006,0.00034895333,1.620186,0.0,0.6894309,0.0005775269,0.00085985236,0.7243508,0.0,0.0,-0.3510475,0,0
15392000,0.002053271,0.00065821275,1.6201143,0.0,0.6894569,0.0004694406,0.00097052375,0.724326,0.0,0.0,-0.35575345,0,0
15448000,0.0017181061,0.000384128,1.619966,0.0,0.6895106,0.00045321908,0.0007546211,0.72427505,0.0,0.0,-0.36310428,0,0
15496000,0.0014956627,0.0005161284,1.6197776,0.0,0.6895789,0.000328796,0.0007195428,0.72421014,0.0,0.0,-0.36783305,0,0
15552000,0.0019746164,-0.00018653985,1.6195259,0.0,0.68966967,0.0007484558,0.00065060775,0.7241235,0.0,0.0,-0.37448907,0,0
15592000,0.0018495579,-0.0009330988,1.6193193,0.0,0.68974423,0.00097566744,0.00034778842,0.72405237,0.0,0.0,-0.37942797,0,0
15648000,0.0016299234,-0.0011301589,1.6191281,0.0,0.68981344,0.00097128167,0.00020022139,0.7239865,0.0,0.0,-0.38768262,0,0
15696000,0.001451866,-0.00062887283,1.6190517,0.0,0.6898414,0.00072841824,0.00030863518,0.72396016,0.0,0.0,-0.39310366,0,0
15744000,0.0013668638,-0.0009346112,1.6190137,0.0,0.6898551,0.0008097736,0.00017239513,0.72394705,0.0,0.0,-0.39981776,0,0
15792000,0.0016893041,-0.00049567583,1.6189291,0.0,0.68988574,0.000762128,0.0004404788,0.72391784,0.0,0.0,-0.40532765,0,0
15848000,0.0020499728,-0.00057233457,1.6187893,0.0,0.68993616,0.00091432326,0.0005445191,0.7238695,0.0,0.0,-0.41404954,0,0
15896000,0.0020001684,-0.00053931895,1.6186923,0.0,0.68997127,0.00088521896,0.0005378395,0.723836,0.0,0.0,-0.4198821,0,0
15944000,0.001587498,-0.0010276827,1.6186903,0.0,0.689972,0.0009196013,0.0002200072,0.72383547,0.0,0.0,-0.42707813,0,0
15992000,0.0016779077,-0.0007228328,1.6186862,0.0,0.6899736,0.0008404617,0.0003578954,0.72383404,0.0,0.0,-0.43328035,0,0
16048000,0.0016505049,-0.0007833878,1.6187137,0.0,0.6899636,0.0008529195,0.00032709888,0.7238436,0.0,0.0,-0.44296712,0,0
16096000,0.0017134312,-0.00040447124,1.6186364,0.0,0.6899917,0.00073750835,0.00048056408,0.7238168,0.0,0.0,-0.4492983,0,0
16144000,0.0016270833,-0.00057691813,1.618467,0.0,0.690053,0.00077016157,0.0003897553,0.72375834,0.0,0.0,-0.45683762,0,0
16200000,0.0018469598,-0.00053313124,1.6182983,0.0,0.69011396,0.0008302203,0.00048436187,0.7237001,0.0,0.0,-0.4638662,0,0
16248000,0.001746844,-0.00021903856,1.6180186,0.0,0.6902153,0.00068209803,0.0005564195,0.72360355,0.0,0.0,-0.47369078,0,0
16296000,0.001920997,7.2521194e-05,1.6178316,0.0,0.690283,0.00063678005,0.0007199883,0.7235389,0.0,0.0,-0.48050168,0,0
16344000,0.0019942983,-0.0002754864,1.6176759,0.0,0.69033915,0.00078802666,0.0006263332,0.72348523,0.0,0.0,-0.48839316,0,0
16400000,0.0024117057,-0.00015790501,1.6177057,0.0,0.69032824,0.0008895566,0.00081792596,0.7234953,0.0,0.0,-0.49608493,0,0
16448000,0.0023651645,9.4006275e-05,1.6178391,0.0,0.69028014,0.0007823046,0.00088809273,0.7235412,0.0,0.0,-0.50693154,0,0
16496000,0.0020649394,0.00016602254,1.6179159,0.0,0.6902525,0.00065260066,0.0008043608,0.7235679,0.0,0.0,-0.5143718,0,0
16544000,0.0022833422,0.00017764793,1.6178578,0.0,0.69027346,0.0007237971,0.0008873667,0.7235477,0.0,0.0,-0.5226968,0,0
16592000,0.0023434241,0.00033347224,1.61771,0.0,0.6903269,0.00068823155,0.00096283254,0.7234966,0.0,0.0,-0.5304068,0,0
16648000,0.0024353778,0.00017147457,1.6175787,0.0,0.6903743,0.00077863474,0.00094013,0.7234513,0.0,0.0,-0.5422373,0,0
16696000,0.002558194,0.00011027134,1.617466,0.0,0.690415,0.0008432226,0.00096338167,0.72341245,0.0,0.0,-0.5500881,0,0
16744000,0.0024146945,0.00036016983,1.6174288,0.0,0.6904287,0.000703314,0.0009977306,0.7233995,0.0,0.0,-0.55851346,0,0
16792000,0.0027621328,4.9112905e-06,1.6173726,0.0,0.6904487,0.0009517796,0.0010007318,0.7233801,0.0,0.0,-0.5667163,0,0
16848000,0.002606917,0.00048717175,1.6171827,0.0,0.6905176,0.0007238721,0.0011110114,0.7233144,0.0,0.0,-0.60496384,0,0
16896000,0.002463252,0.0006992188,1.6170757,0.0,0.69055647,0.0005976426,0.0011322328,0.72327745,0.0,0.0,-0.61339605,0,0
16944000,0.0027753683,0.00040638776,1.6170396,0.0,0.69056934,0.0008113294,0.0011439834,0.72326493,0.0,0.0,-0.622294,0,0
17000000,0.0032532648,0.00038093986,1.6169821,0.0,0.69058985,0.0009855801,0.0013079912,0.7232448,0.0,0.0,-0.6317461,0,0
17048000,0.003197364,0.00079052,1.6169691,0.0,0.6905948,0.0008181737,0.0014291968,0.7232401,0.0,0.0,-0.6443891,0,0
17096000,0.0027472926,0.00028597543,1.6170064,0.0,0.69058126,0.0008451984,0.0010922399,0.7232535,0.0,0.0,-0.653159,0,0
17144000,0.0032328812,0.0006297097,1.6169833,0.0,0.69058955,0.0008885801,0.0013865195,0.723245,0.0,0.0,-0.66232544,0,0
17192000,0.003405634,0.00045098466,1.6169399,0.0,0.69060504,0.001012892,0.0013872561,0.7232301,0.0,0.0,-0.67141885,0,0
17248000,0.0031971084,0.0001746586,1.6169201,0.0,0.6906122,0.0010408233,0.0012164238,0.7232235,0.0,0.0,-0.68536514,0,0
17296000,0.002396802,0.00031080327,1.6168607,0.0,0.6906341,0.0007152698,0.0009740139,0.7232034,0.0,0.0,-0.69291705,0,0
17344000,0.0015610902,-0.00055209774,1.6167715,0.0,0.6906663,0.00073872757,0.00037381152,0.7231732,0.0,0.0,-0.6993413,0,0
17400000,0.00044091896,-0.00053143926,1.6168252,0.0,0.6906472,0.000344426,-2.4084093e-05,0.72319186,0.0,0.0,-0.7049253,0,0
17448000,-0.0009325065,-0.0009584216,1.6171919,0.0,0.6905147,2.4667215e-05,-0.00066815154,0.72331816,0.0,0.0,-0.7143066,0,0
17496000,-0.0019978383,-0.0015639538,1.6181202,0.0,0.6901789,-0.00012356405,-0.0012625599,0.72363776,0.0,0.0,-0.7190177,0,0
17544000,-0.0039063087,-0.0032388368,1.6194729,0.0,0.6896894,-0.00017444017,-0.0025311797,0.7241009,0.0,0.0,-0.72399205,0,0
17592000,-0.011846081,-0.010035988,1.6208316,0.0,0.68919796,-0.00044623957,-0.0077499133,0.7245315,0.0,0.0,-0.72991776,0,0
17648000,-0.021384286,-0.01935946,1.6219938,0.0,0.6887794,-0.00034696318,-0.0144177,0.72482747,0.0,0.0,-0.73962116,0,0
17696000,-0.028672397,-0.0276886,1.6224927,0.0,0.6886024,0.00016723308,-0.01992632,0.72486526,0.0,0.0,-0.7432803,0,0
17744000,-0.03466526,-0.03446026,1.622631,0.0,0.688556,0.00056075526,-0.024428368,0.7247713,0.0,0.0,-0.74600357,0,0
17792000,-0.039155122,-0.03957135,1.6225762,0.0,0.6885791,0.0008674642,-0.027813688,0.7246271,0.0,0.0,-0.747299,0,0
17848000,-0.043053232,-0.042971775,1.6223803,0.0,0.6886528,0.0007553277,-0.030395687,0.7244535,0.0,0.0,-0.75251585,0,0
17896000,-0.04499614,-0.044404488,1.622181,0.0,0.68872625,0.0006026091,-0.031592313,0.72433263,0.0,0.0,-0.7522428,0,0
17944000,-0.04609273,-0.04505726,1.6220194,0.0,0.6887855,0.00045901866,-0.032214046,0.72424895,0.0,0.0,-0.7521967,0,0
17992000,-0.046976827,-0.045031704,1.6219552,0.0,0.68880886,0.00014423145,-0.032525405,0.72421294,0.0,0.0,-0.7511963,0,0
18048000,-0.04759005,-0.04475675,1.6219106,0.0,0.6888248,-0.00016735622,-0.032652862,0.7241921,0.0,0.0,-0.75237024,0,0
18096000,-0.047854614,-0.044602405,1.6218015,0.0,0.6888641,-0.00031620247,-0.032695547,0.72415274,0.0,0.0,-0.74251413,0,0
18144000,-0.048354473,-0.04496782,1.6217213,0.0,0.68889344,-0.00035725193,-0.03300223,0.7241109,0.0,0.0,-0.7295553,0,0
18192000,-0.048593994,-0.045481894,1.6216395,0.0,0.68892354,-0.00025479568,-0.033265807,0.7240702,0.0,0.0,-0.72058624,0,0
18248000,-0.050539944,-0.04638149,1.6215043,0.0,0.68897295,-0.0006013944,-0.034279753,0.7239757,0.0,0.0,-0.71160114,0,0
18296000,-0.051884625,-0.047041554,1.6213361,0.0,0.68903416,-0.00082836155,-0.03499353,0.7238831,0.0,0.0,-0.7091723,0,0
18352000,-0.052987315,-0.048127547,1.6211998,0.0,0.6890845,-0.00081716845,-0.03576622,0.7237974,0.0,0.0,-0.7136865,0,0
18400000,-0.053092584,-0.048548147,1.6210283,0.0,0.68914706,-0.0007041229,-0.035948977,0.72372895,0.0,0.0,-0.7177521,0,0
18448000,-0.052878775,-0.04868293,1.6209553,0.0,0.6891737,-0.00058292586,-0.035917968,0.7237051,0.0,0.0,-0.7256429,0,0
18496000,-0.052223958,-0.04815933,1.6208718,0.0,0.6892035,-0.0005484695,-0.03550081,0.7236974,0.0,0.0,-0.72626376,0,0
18552000,-0.05115655,-0.047330465,1.6207585,0.0,0.6892438,-0.00048289087,-0.03482928,0.72369164,0.0,0.0,-0.7233012,0,0
18600000,-0.050331123,-0.046686113,1.6206608,0.0,0.68927866,-0.00043353307,-0.034308795,0.72368336,0.0,0.0,-0.7226077,0,0
18648000,-0.050285768,-0.04616688,1.6206045,0.0,0.68929845,-0.000606954,-0.034113634,0.7236736,0.0,0.0,-0.7266882,0,0
18696000,-0.049445752,-0.04605778,1.6204773,0.0,0.6893445,-0.0003591136,-0.033772107,0.723646,0.0,0.0,-0.7253867,0,0
18744000,-0.049066037,-0.04544625,1.620316,0.0,0.6894024,-0.00045243287,-0.033424146,0.72360694,0.0,0.0,-0.7218779,0,0
18792000,-0.048074834,-0.044681326,1.6202358,0.0,0.68943083,-0.00038912657,-0.032802142,0.7236083,0.0,0.0,-0.72092265,0,0
18848000,-0.046964973,-0.04420406,1.6200876,0.0,0.6894841,-0.00018178295,-0.032236226,0.72358304,0.0,0.0,-0.7245996,0,0
18896000,-0.04565159,-0.04382577,1.6199188,0.0,0.6895449,0.00013132751,-0.031630788,0.7235519,0.0,0.0,-0.72373337,0,0
18944000,-0.044913657,-0.0429688,1.619738,0.0,0.68960965,7.2612704e-05,-0.031068671,0.72351456,0.0,0.0,-0.7206768,0,0
18992000,-0.043485694,-0.04183095,1.6196696,0.0,0.68963355,0.00015194026,-0.030160133,0.7235302,0.0,0.0,-0.71970856,0,0
19048000,-0.04348112,-0.041145265,1.6194983,0.0,0.68969506,-9.7313576e-05,-0.02992226,0.7234814,0.0,0.0,-0.7230041,0,0
19096000,-0.04308818,-0.04043723,1.6193752,0.0,0.689739,-0.00021996982,-0.029536162,0.72345537,0.0,0.0,-0.72171664,0,0
19144000,-0.04217721,-0.03956729,1.6191458,0.0,0.6898214,-0.00022406131,-0.028906863,0.72340214,0.0,0.0,-0.7186623,0,0
19192000,-0.041702427,-0.03892984,1.6190344,0.0,0.68986124,-0.0002926453,-0.02851544,0.7233798,0.0,0.0,-0.7177304,0,0
19248000,-0.040365037,-0.03789333,1.618857,0.0,0.6899247,-0.00020897649,-0.02767446,0.7233518,0.0,0.0,-0.7212602,0,0
19296000,-0.038918257,-0.03626046,1.6187325,0.0,0.68996865,-0.0003025505,-0.026588319,0.7233506,0.0,0.0,-0.7202627,0,0
19344000,-0.037512455,-0.03519938,1.6187011,0.0,0.6899794,-0.00020200045,-0.025714066,0.7233721,0.0,0.0,-0.7174785,0,0
19392000,-0.036021475,-0.034137562,1.6186599,0.0,0.6899937,-7.242381e-05,-0.024808714,0.72339004,0.0,0.0,-0.7165905,0,0
19448000,-0.035340343,-0.03368976,1.6186126,0.0,0.6900105,-7.693417e-08,-0.024407957,0.7233878,0.0,0.0,-0.7196338,0,0
19496000,-0.03391693,-0.033452246,1.6184994,0.0,0.6900512,0.00040370377,-0.023811245,0.7233687,0.0,0.0,-0.7183409,0,0
19544000,-0.032434203,-0.032483697,1.6184094,0.0,0.6900831,0.0005637521,-0.022940995,0.7233663,0.0,0.0,-0.7154134,0,0
19592000,-0.031522222,-0.031955995,1.6183857,0.0,0.69009125,0.00068720087,-0.022429172,0.72337437,0.0,0.0,-0.7144619,0,0
19648000,-0.03032629,-0.031256028,1.6183907,0.0,0.6900889,0.0008466156,-0.02175521,0.723397,0.0,0.0,-0.71807605,0,0
19696000,-0.029193891,-0.029830694,1.6183348,0.0,0.69010854,0.00072098605,-0.020854067,0.7234051,0.0,0.0,-0.7171671,0,0
19744000,-0.02799733,-0.028998874,1.6183195,0.0,0.6901135,0.0008327145,-0.020134374,0.7234205,0.0,0.0,-0.71449834,0,0
19792000,-0.026739705,-0.027658246,1.6183,0.0,0.69012,0.0007813706,-0.019217072,0.7234394,0.0,0.0,-0.7135313,0,0
19848000,-0.025533075,-0.02779555,1.6182823,0.0,0.69012576,0.0012472474,-0.018827979,0.72344345,0.0,0.0,-0.7161886,0,0
19896000,-0.02444201,-0.027571905,1.6181513,0.0,0.69017243,0.0015416075,-0.018356271,0.7234104,0.0,0.0,-0.7147282,0,0
19944000,-0.0232629,-0.026483443,1.6180887,0.0,0.69019455,0.0015541235,-0.017554335,0.7234092,0.0,0.0,-0.7115441,0,0
19992000,-0.022396533,-0.025856167,1.6179886,0.0,0.6902303,0.0016252956,-0.017024642,0.72338766,0.0,0.0,-0.7107808,0,0
20048000,-0.02120103,-0.025357967,1.6179763,0.0,0.69023395,0.0018575354,-0.016420357,0.7233975,0.0,0.0,-0.7142159,0,0
20096000,-0.020412683,-0.024657227,1.6179872,0.0,0.69022965,0.0018761714,-0.015893431,0.72341335,0.0,0.0,-0.71359366,0,0
20144000,-0.019663116,-0.023586726,1.6180049,0.0,0.69022316,0.0017476939,-0.015252935,0.7234337,0.0,0.0,-0.71099216,0,0
20192000,-0.01911567,-0.022875903,1.6180072,0.0,0.6902222,0.0016794659,-0.014809658,0.7234439,0.0,0.0,-0.71047026,0,0
20248000,-0.019035395,-0.022856813,1.618001,0.0,0.6902244,0.0017002175,-0.014774039,0.7234425,0.0,0.0,-0.7130692,0,0
20296000,-0.019086909,-0.022268968,1.610782,0.0,0.69283146,0.0014170872,-0.014595056,0.7209504,0.0,0.0,-0.7118363,0,0
20352000,-0.019052833,-0.02205617,1.6105111,0.0,0.6929292,0.0013502028,-0.014509254,0.7208583,0.0,0.0,-0.70846415,0,0
20400000,-0.018912595,-0.021090712,1.6103674,0.0,0.6929812,0.0010497251,-0.014124359,0.72081655,0.0,0.0,-0.70765334,0,0
20448000,-0.01826713,-0.020468846,1.6102626,0.0,0.6930188,0.0010484889,-0.013676354,0.720789,0.0,0.0,-0.7111495,0,0
20496000,-0.01781917,-0.020037815,1.6100951,0.0,0.693079,0.0010472215,-0.01336567,0.72073704,0.0,0.0,-0.71068543,0,0
20544000,-0.01758205,-0.019431813,1.6102041,0.0,0.6930398,0.0009116829,-0.013070204,0.72078025,0.0,0.0,-0.7098959,0,0
20592000,-0.017081073,-0.019099576,1.6107417,0.0,0.6928458,0.00096896174,-0.0127742905,0.72097194,0.0,0.0,-0.702625,0,0
20648000,-0.016722819,-0.019450827,1.612083,0.0,0.69236183,0.0012282715,-0.012765985,0.7214365,0.0,0.0,-0.68966126,0,0
20696000,-0.01692915,-0.019541854,1.6133264,0.0,0.69191325,0.001197687,-0.012871176,0.7218649,0.0,0.0,-0.68132484,0,0
20744000,-0.016739925,-0.019658746,1.6141675,0.0,0.6916095,0.0013107471,-0.012842761,0.72215617,0.0,0.0,-0.6697932,0,0
20792000,-0.016847,-0.019845396,1.6146309,0.0,0.69144213,0.0013441268,-0.0129456455,0.7223146,0.0,0.0,-0.6630624,0,0
20848000,-0.016791228,-0.01926535,1.614726,0.0,0.691408,0.0011544913,-0.012724947,0.72235155,0.0,0.0,-0.6549537,0,0
20896000,-0.016464582,-0.019542182,1.6145786,0.0,0.6914609,0.0013664783,-0.012702757,0.7223009,0.0,0.0,-0.6647533,0,0
20952000,-0.016409496,-0.019201152,1.6143702,0.0,0.69153625,0.0012610322,-0.01256511,0.7222314,0.0,0.0,-0.6769103,0,0
20992000,-0.016154232,-0.018934503,1.6142877,0.0,0.691566,0.0012524797,-0.012380797,0.7222061,0.0,0.0,-0.68460596,0,0
21048000,-0.01590457,-0.018446898,1.6142095,0.0,0.6915942,0.0011622319,-0.01212211,0.7221836,0.0,0.0,-0.693692,0,0
21096000,-0.015744857,-0.017672464,1.6142367,0.0,0.6915845,0.0009379386,-0.011796669,0.72219855,0.0,0.0,-0.6996674,0,0
21144000,-0.015801905,-0.017155206,1.6141945,0.0,0.69159985,0.00073116046,-0.011638446,0.72218674,0.0,0.0,-0.70655024,0,0
21192000,-0.015824413,-0.016510746,1.614464,0.0,0.6915026,0.0004921756,-0.011423684,0.7222835,0.0,0.0,-0.7110666,0,0
21248000,-0.015595243,-0.016147088,1.6148694,0.0,0.6913561,0.0004423356,-0.011215114,0.72242707,0.0,0.0,-0.7169786,0,0
21296000,-0.015343568,-0.015808707,1.61513,0.0,0.69126195,0.00040852593,-0.011007195,0.72252035,0.0,0.0,-0.71909106,0,0
21344000,-0.015077906,-0.015344802,1.61517,-0.002254131,0.69124734,0.00033295332,-0.010750896,0.7225382,0.0,0.0,-0.71992284,0,0
21400000,-0.014608985,-0.014721259,1.61517,-0.0018635343,0.6912473,0.00026973162,-0.010366002,0.7225439,0.0,0.0,-0.7171117,0,0
21448000,-0.015425855,-0.014685662,1.61517,-0.0009170359,0.6912473,-2.545973e-05,-0.010648813,0.72253984,0.0,0.0,-0.71449935,0,0
21496000,-0.016027598,-0.014783786,1.61517,-0.00075813156,0.6912473,-0.00019798345,-0.010900114,0.722536,0.0,0.0,-0.7113365,0,0
21552000,-0.01604495,-0.014696155,1.61517,-0.0008705031,0.6912473,-0.00023564238,-0.010876099,0.7225364,0.0,0.0,-0.70914423,0,0
21592000,-0.016174583,-0.014396856,1.61517,-0.00071966194,0.6912471,-0.0003885861,-0.010819498,0.7225374,0.0,0.0,-0.70834243,0,0
21648000,-0.016430285,-0.014446761,1.61517,-0.00035414204,0.6912471,-0.00045893175,-0.010929121,0.7225356,0.0,0.0,-0.708486,0,0
21696000,-0.016561124,-0.014179349,1.61517,-0.00029277615,0.6912469,-0.00060077105,-0.010883977,0.7225363,0.0,0.0,-0.70818377,0,0
21744000,-0.016627813,-0.014360801,1.61517,-0.00033617188,0.69124705,-0.00055825966,-0.010970776,0.722535,0.0,0.0,-0.70829064,0,0
21792000,-0.016413154,-0.014650491,1.61517,-0.00027791987,0.6912472,-0.00037940146,-0.010993338,0.72253466,0.0,0.0,-0.7082347,0,0
21848000,-0.016899377,-0.014263476,1.61517,-0.00013676299,0.69124687,-0.00068728346,-0.0110352505,0.72253406,0.0,0.0,-0.707962,0,0
21896000,-0.01704471,-0.013974774,1.61517,-0.00011306463,0.6912466,-0.0008418241,-0.010987984,0.7225349,0.0,0.0,-0.7072549,0,0
21944000,-0.017230175,-0.014143044,1.61517,-0.00012982324,0.6912467,-0.00084512826,-0.011113138,0.7225329,0.0,0.0,-0.70704925,0,0
21992000,-0.017070755,-0.013994158,1.61517,-0.00010732741,0.6912466,-0.0008438225,-0.011004093,0.72253466,0.0,0.0,-0.70696086,0,0
22048000,-0.016947543,-0.014024612,1.61517,-5.281528e-05,0.6912467,-0.0007902349,-0.0109701045,0.7225352,0.0,0.0,-0.70764536,0,0
22096000,-0.016645582,-0.013602005,1.61517,-4.3663425e-05,0.6912465,-0.00083856104,-0.0107149705,0.7225391,0.0,0.0,-0.7077522,0,0
22144000,-0.01694891,-0.013538444,1.61517,-5.013528e-05,0.69124633,-0.00096636364,-0.010802588,0.7225378,0.0,0.0,-0.7077462,0,0
22192000,-0.016734727,-0.014076048,1.61517,-4.1447816e-05,0.6912468,-0.00069809635,-0.010910994,0.722536,0.0,0.0,-0.70769733,0,0
22248000,-0.016660342,-0.014281373,1.61517,-2.039626e-05,0.6912469,-0.0005982014,-0.0109550785,0.7225353,0.0,0.0,-0.7080441,0,0
22296000,-0.016451074,-0.013888237,1.61517,-1.6861988e-05,0.6912468,-0.00066791597,-0.010743617,0.7225385,0.0,0.0,-0.70769715,0,0
22344000,-0.01627611,-0.014147769,1.61517,-1.9361298e-05,0.691247,-0.0005136743,-0.010770097,0.7225381,0.0,0.0,-0.70753056,0,0
22392000,-0.016272953,-0.01396908,1.61517,-1.6006363e-05,0.6912469,-0.0005771443,-0.010707204,0.722539,0.0,0.0,-0.7074835,0,0
22448000,-0.015959634,-0.0138090085,1.61517,-7.876651e-06,0.6912469,-0.000526689,-0.0105386935,0.7225415,0.0,0.0,-0.708063,0,0
22496000,-0.0161254,-0.013943868,1.61517,-6.511781e-06,0.6912469,-0.0005352552,-0.010645186,0.72253996,0.0,0.0,-0.70802236,0,0
22544000,-0.01573564,-0.013957354,1.61517,-7.4769673e-06,0.69124705,-0.00039567333,-0.0105090365,0.72254205,0.0,0.0,-0.70790946,0,0
22592000,-0.015615358,-0.014045188,1.61517,-6.1813553e-06,0.69124705,-0.0003223663,-0.0104959365,0.7225423,0.0,0.0,-0.70797974,0,0
22648000,-0.0154046845,-0.013072711,1.61517,-3.041814e-06,0.6912467,-0.00060091645,-0.010083754,0.7225483,0.0,0.0,-0.7087642,0,0
22696000,-0.015761817,-0.012387321,1.61517,-2.5147272e-06,0.69124615,-0.0009719872,-0.009975914,0.7225499,0.0,0.0,-0.70852095,0,0
22752000,-0.0154740475,-0.011706389,1.61517,-2.8874638e-06,0.69124573,-0.0011185546,-0.009636627,0.7225547,0.0,0.0,-0.70780826,0,0
22792000,-0.015656145,-0.011667889,1.61517,-2.3871225e-06,0.6912456,-0.0011954024,-0.0096891085,0.72255397,0.0,0.0,-0.70793855,0,0
22848000,-0.015584628,-0.011758178,1.61517,-1.174691e-06,0.69124573,-0.0011380616,-0.009694474,0.7225538,0.0,0.0,-0.70889586,0,0
22896000,-0.015516942,-0.012238419,1.61517,-9.7114e-07,0.69124615,-0.0009411533,-0.009835986,0.7225519,0.0,0.0,-0.70886356,0,0
22952000,-0.015427142,-0.012117548,1.61517,-1.1150839e-06,0.6912461,-0.0009537875,-0.009761773,0.72255296,0.0,0.0,-0.708209,0,0
22992000,-0.015386339,-0.011796193,1.61517,-9.218617e-07,0.6912459,-0.0010557933,-0.009635975,0.72255456,0.0,0.0,-0.70794606,0,0
23048000,-0.014443433,-0.011729902,1.61517,-4.5364348e-07,0.6912463,-0.0007538553,-0.009272413,0.72255945,0.0,0.0,-0.7077359,0,0
23096000,-0.013719854,-0.011855916,1.61517,-3.7503594e-07,0.69124657,-0.00045823894,-0.009054548,0.72256213,0.0,0.0,-0.7072185,0,0
23144000,-0.013740975,-0.011971668,1.61517,-4.3062434e-07,0.6912466,-0.0004237168,-0.009102182,0.72256154,0.0,0.0,-0.70620114,0,0
23200000,-0.013460154,-0.01224769,1.61517,-3.5600556e-07,0.69124675,-0.00022692919,-0.009096119,0.7225616,0.0,0.0,-0.70612735,0,0
23248000,-0.013415247,-0.012296862,1.61517,-1.7518855e-07,0.69124675,-0.00019364191,-0.009096888,0.7225615,0.0,0.0,-0.7074662,0,0
23296000,-0.013420909,-0.012521325,1.61517,-1.4483179e-07,0.6912468,-0.000114498296,-0.009176506,0.7225604,0.0,0.0,-0.707577,0,0
23344000,-0.013598447,-0.012501143,1.61517,-1.6629897e-07,0.6912468,-0.00018315174,-0.00923367,0.72255975,0.0,0.0,-0.7067593,0,0
23392000,-0.013538469,-0.012637036,1.61517,-1.3748262e-07,0.6912468,-0.0001133221,-0.009258967,0.7225594,0.0,0.0,-0.70690686,0,0
23448000,-0.013477255,-0.012130984,1.61517,-6.7654504e-08,0.6912467,-0.0002750059,-0.009061964,0.722562,0.0,0.0,-0.7074401,0,0
23496000,-0.013274192,-0.012352856,1.61517,-5.5931302e-08,0.6912468,-0.00012465869,-0.009065278,0.72256184,0.0,0.0,-0.70688957,0,0
23544000,-0.0131166065,-0.012414868,1.61517,-6.4221524e-08,0.6912468,-4.778768e-05,-0.009029777,0.7225623,0.0,0.0,-0.7053705,0,0
23592000,-0.013679519,-0.012115873,1.61517,-5.309319e-08,0.6912467,-0.00035037333,-0.009129816,0.7225611,0.0,0.0,-0.70556206,0,0
23648000,-0.01365412,-0.012300563,1.61517,-2.6126889e-08,0.69124675,-0.00027486475,-0.009184467,0.7225604,0.0,0.0,-0.70750153,0,0
23696000,-0.013810902,-0.012222202,1.61517,-2.1599611e-08,0.6912467,-0.0003573645,-0.009214028,0.72256,0.0,0.0,-0.7077446,0,0
23744000,-0.013708931,-0.012346132,1.61517,-2.4801137e-08,0.69124675,-0.00027734446,-0.009220017,0.7225599,0.0,0.0,-0.70633966,0,0
23792000,-0.013746258,-0.012492074,1.61517,-2.0503586e-08,0.6912468,-0.00023751528,-0.009283938,0.72255903,0.0,0.0,-0.70665735,0,0
23848000,-0.013949335,-0.012638312,1.61517,-1.0089712e-08,0.6912468,-0.00025486626,-0.009407845,0.7225575,0.0,0.0,-0.7076623,0,0
23896000,-0.013563301,-0.012964665,1.61517,-8.341362e-09,0.6912469,-3.5296102e-06,-0.009381165,0.7225578,0.0,0.0,-0.70688933,0,0
23944000,-0.013528553,-0.013146828,1.61517,-9.5777315e-09,0.691247,7.429763e-05,-0.009431563,0.72255695,0.0,0.0,-0.7050922,0,0
24000000,-0.013688586,-0.013373704,1.61517,-7.918098e-09,0.691247,0.00010095917,-0.009567787,0.7225553,0.0,0.0,-0.7049596,0,0
24048000,-0.013548511,-0.013462558,1.61517,-3.8964565e-09,0.691247,0.00018147564,-0.009547887,0.7225554,0.0,0.0,-0.70666516,0,0
24096000,-0.013784235,-0.013673269,1.61517,-3.2212766e-09,0.69124705,0.00017613592,-0.00970587,0.7225533,0.0,0.0,-0.707187,0,0
24144000,-0.013902047,-0.013977856,1.61517,-3.698739e-09,0.6912471,0.00024546735,-0.009853694,0.7225512,0.0,0.0,-0.70615876,0,0
24192000,-0.014123373,-0.014402058,1.61517,-3.05782e-09,0.69124717,0.0003222396,-0.010080253,0.72254807,0.0,0.0,-0.7065436,0,0
24248000,-0.0148603385,-0.015323932,1.61517,-1.5047379e-09,0.69124734,0.00040060902,-0.010665083,0.7225395,0.0,0.0,-0.7067439,0,0
24296000,-0.015140019,-0.01607808,1.61517,-1.2439962e-09,0.6912474,0.0005764241,-0.011026743,0.7225338,0.0,0.0,-0.70560306,0,0
24344000,-0.01582628,-0.016616937,1.61517,-1.4283833e-09,0.6912476,0.00053393096,-0.011460881,0.7225269,0.0,0.0,-0.7042326,0,0
24392000,-0.015834285,-0.017267454,1.61517,-1.1808724e-09,0.6912475,0.00076620135,-0.011688577,0.72252315,0.0,0.0,-0.70439386,0,0
24448000,-0.01596822,-0.017511807,1.61517,-5.811014e-10,0.6912476,0.00080819614,-0.011821403,0.7225208,0.0,0.0,-0.70581526,0,0
24496000,-0.01617139,-0.01752961,1.61517,-4.804079e-10,0.69124764,0.00074440986,-0.011900954,0.7225195,0.0,0.0,-0.706171,0,0
24544000,-0.016180322,-0.017788133,1.61517,-5.5161464e-10,0.6912476,0.00083472865,-0.011993518,0.72251797,0.0,0.0,-0.7060434,0,0
24592000,-0.016286716,-0.017821716,1.61517,-4.560306e-10,0.69124764,0.0008100904,-0.01204356,0.7225172,0.0,0.0,-0.7066625,0,0
24648000,-0.01696683,-0.018278563,1.61517,-2.2441035e-10,0.6912479,0.00074009015,-0.012447126,0.72251016,0.0,0.0,-0.7068504,0,0
24696000,-0.017559918,-0.018522402,1.61517,-1.8552443e-10,0.69124806,0.0006232051,-0.012745646,0.72250485,0.0,0.0,-0.70654017,0,0
24744000,-0.017444447,-0.019189212,1.61517,-2.1302315e-10,0.69124794,0.0009040397,-0.012934357,0.7225014,0.0,0.0,-0.70625746,0,0
24792000,-0.017537074,-0.019166911,1.61517,-1.761104e-10,0.691248,0.0008639674,-0.012960113,0.7225009,0.0,0.0,-0.7065219,0,0
24848000,-0.017417517,-0.019337382,1.61517,-8.6663045e-11,0.69124794,0.00096688146,-0.012975831,0.72250056,0.0,0.0,-0.7072071,0,0
24896000,-0.017448321,-0.019658409,1.61517,-7.164603e-11,0.6912478,0.0010722248,-0.0130978925,0.7224983,0.0,0.0,-0.7073062,0,0
24944000,-0.01765806,-0.019522222,1.61517,-8.2265514e-11,0.691248,0.0009505285,-0.0131266005,0.7224978,0.0,0.0,-0.70752656,0,0
24992000,-0.017951671,-0.019345257,1.61517,-6.801051e-11,0.6912481,0.00078511005,-0.013171514,0.722497,0.0,0.0,-0.70766836,0,0
25048000,-0.017433248,-0.0197866,1.61517,-3.346763e-11,0.6912478,0.0011237512,-0.013136746,0.7224975,0.0,0.0,-0.7078611,0,0
25096000,-0.017415766,-0.019859111,1.61517,-2.7668345e-11,0.69124776,0.001155993,-0.013155488,0.72249717,0.0,0.0,-0.7076332,0,0
25144000,-0.017103394,-0.020305686,1.61517,-3.176939e-11,0.6912474,0.0014253068,-0.013196963,0.7224963,0.0,0.0,-0.7076954,0,0
25192000,-0.017069358,-0.020348953,1.61517,-2.6264376e-11,0.69124734,0.001452703,-0.013199621,0.72249615,0.0,0.0,-0.7076285,0,0
25248000,-0.016885016,-0.02018568,1.61517,-1.29245685e-11,0.6912473,0.0014574234,-0.013076605,0.7224985,0.0,0.0,-0.70776385,0,0
25296000,-0.01676659,-0.020050617,1.61517,-1.06849946e-11,0.6912473,0.0014495559,-0.012987151,0.7225001,0.0,0.0,-0.707768,0,0
25344000,-0.016759552,-0.020044608,1.61517,-1.2268741e-11,0.6912473,0.0014498159,-0.012982532,0.7225002,0.0,0.0,-0.70804113,0,0
25392000,-0.017002678,-0.020228641,1.61517,-1.01428085e-11,0.69124734,0.0014322792,-0.013133955,0.7224974,0.0,0.0,-0.7079955,0,0
25448000,-0.01722987,-0.019678209,1.61517,-4.9912253e-12,0.69124776,0.0011548802,-0.013025819,0.72249955,0.0,0.0,-0.70740616,0,0
25496000,-0.01720105,-0.0192349,1.61517,-4.1263434e-12,0.6912478,0.0010046689,-0.012862218,0.7225027,0.0,0.0,-0.70690966,0,0
25552000,-0.017152745,-0.019293439,1.61517,-4.737956e-12,0.69124776,0.0010425161,-0.012864998,0.72250265,0.0,0.0,-0.7068031,0,0
25592000,-0.017204525,-0.019426107,1.61517,-3.916961e-12,0.69124776,0.0010725537,-0.012929548,0.72250146,0.0,0.0,-0.7070845,0,0
25648000,-0.017767398,-0.018972464,1.61517,-1.9275167e-12,0.69124806,0.0007141072,-0.012976124,0.7225007,0.0,0.0,-0.7071831,0,0
25696000,-0.017478906,-0.018863047,1.61517,-1.5935157e-12,0.691248,0.0007742826,-0.012834095,0.72250324,0.0,0.0,-0.7071485,0,0
25744000,-0.01753682,-0.018573184,1.61517,-1.8297091e-12,0.69124806,0.0006495362,-0.012754851,0.7225048,0.0,0.0,-0.7074695,0,0
25792000,-0.017448813,-0.018366028,1.61517,-1.5126562e-12,0.691248,0.0006051068,-0.012651473,0.7225066,0.0,0.0,-0.70793754,0,0
25848000,-0.017761767,-0.019081127,1.61517,-7.4437055e-13,0.69124806,0.00075531384,-0.013011639,0.7225,0.0,0.0,-0.7070166,0,0
25896000,-0.018013403,-0.019232064,1.61517,-6.1538567e-13,0.6912481,0.00072287733,-0.013154701,0.72249734,0.0,0.0,-0.7061027,0,0
25944000,-0.018356375,-0.01945823,1.61517,-7.0659906e-13,0.69124824,0.00068605336,-0.013356753,0.7224936,0.0,0.0,-0.70574087,0,0
26000000,-0.018686024,-0.01947843,1.61517,-5.841592e-13,0.69124836,0.00057941605,-0.0134828165,0.7224912,0.0,0.0,-0.7060249,0,0
26048000,-0.01874015,-0.019887371,1.61517,-2.8746184e-13,0.69124836,0.00070846226,-0.013643684,0.7224881,0.0,0.0,-0.70638394,0,0
26096000,-0.018308716,-0.019048426,1.61517,-2.376503e-13,0.6912483,0.0005544599,-0.013197923,0.72249657,0.0,0.0,-0.70678484,0,0
26144000,-0.018658457,-0.018886764,1.61517,-2.7287523e-13,0.69124836,0.0003751713,-0.013268403,0.72249526,0.0,0.0,-0.7071933,0,0
26192000,-0.018570118,-0.019048896,1.61517,-2.2559127e-13,0.69124836,0.00046428342,-0.013292517,0.72249484,0.0,0.0,-0.70742095,0,0
26248000,-0.017753983,-0.018903198,1.61517,-1.1101234e-13,0.69124806,0.0006937164,-0.012947343,0.7225012,0.0,0.0,-0.7065561,0,0
26296000,-0.017419193,-0.01918419,1.61517,-9.1776074e-14,0.69124794,0.00091095344,-0.0129235,0.7225015,0.0,0.0,-0.7059112,0,0
26344000,-0.017109398,-0.01907734,1.61517,-1.05379274e-13,0.69124776,0.0009794197,-0.012774661,0.7225043,0.0,0.0,-0.7058973,0,0
26392000,-0.017070085,-0.019143684,1.61517,-8.71191e-14,0.69124776,0.0010169772,-0.012783386,0.7225041,0.0,0.0,-0.70613986,0,0
26448000,-0.016981618,-0.019572575,1.61517,-4.2870875e-14,0.6912476,0.0012025158,-0.012899635,0.7225018,0.0,0.0,-0.7066116,0,0
26496000,-0.017223395,-0.019236593,1.61517,-3.5442193e-14,0.6912478,0.0009975597,-0.012870876,0.72250247,0.0,0.0,-0.70694405,0,0
26552000,-0.017262615,-0.019386802,1.61517,-4.0695488e-14,0.6912478,0.0010382747,-0.012936952,0.7225013,0.0,0.0,-0.7073832,0,0
26600000,-0.017417667,-0.018764565,1.61517,-3.3643756e-14,0.691248,0.00075986644,-0.01277794,0.7225042,0.0,0.0,-0.70766675,0,0
26648000,-0.017605241,-0.017962372,1.61517,-1.6555925e-14,0.69124806,0.0004051962,-0.0125684915,0.7225082,0.0,0.0,-0.7068856,0,0
26696000,-0.017573511,-0.017152049,1.61517,-1.3687107e-14,0.69124794,0.00012338697,-0.012277007,0.7225133,0.0,0.0,-0.7061286,0,0
26752000,-0.017739218,-0.017189974,1.61517,-1.5715832e-14,0.69124794,7.9817786e-05,-0.012349974,0.7225121,0.0,0.0,-0.70567787,0,0
26800000,-0.017748227,-0.016716361,1.61517,-1.2992587e-14,0.6912478,-9.441788e-05,-0.012189563,0.722515,0.0,0.0,-0.70585924,0,0
26848000,-0.01817133,-0.016484855,1.61517,-6.393587e-15,0.69124764,-0.00032429807,-0.012262412,0.7225138,0.0,0.0,-0.70637655,0,0
26896000,-0.0178907,-0.016448209,1.61517,-5.2857033e-15,0.6912477,-0.00024054408,-0.012148367,0.72251576,0.0,0.0,-0.70673925,0,0
26952000,-0.018367585,-0.016498799,1.61517,-6.0691584e-15,0.69124764,-0.0003870893,-0.012338128,0.7225125,0.0,0.0,-0.7072343,0,0
27000000,-0.018304557,-0.016303917,1.61517,-5.017492e-15,0.6912476,-0.00043571767,-0.012248013,0.72251403,0.0,0.0,-0.7077219,0,0
27048000,-0.018274974,-0.016208852,1.61517,-2.4690826e-15,0.6912475,-0.00045984125,-0.012204475,0.72251487,0.0,0.0,-0.7075256,0,0
27096000,-0.017970584,-0.01604074,1.61517,-2.0412389e-15,0.6912475,-0.00041537674,-0.012036417,0.7225177,0.0,0.0,-0.70761734,0,0
27152000,-0.0180702,-0.015808215,1.61517,-2.3437942e-15,0.69124734,-0.0005338193,-0.01199205,0.7225185,0.0,0.0,-0.7075135,0,0
27200000,-0.018166529,-0.015475573,1.61517,-1.9376605e-15,0.6912471,-0.0006872994,-0.011911898,0.7225199,0.0,0.0,-0.7075691,0,0
27248000,-0.018679913,-0.015921213,1.61517,-9.53513e-16,0.6912472,-0.00070372364,-0.012251363,0.72251415,0.0,0.0,-0.70794564,0,0
27296000,-0.018514307,-0.016146768,1.61517,-7.882879e-16,0.69124746,-0.00056499254,-0.012269481,0.7225138,0.0,0.0,-0.7083075,0,0
27352000,-0.0188859,-0.016299052,1.61517,-9.051291e-16,0.6912474,-0.0006384006,-0.012456346,0.7225105,0.0,0.0,-0.7086962,0,0
27400000,-0.018783689,-0.016068047,1.61517,-7.482879e-16,0.6912473,-0.00068653934,-0.012339595,0.7225126,0.0,0.0,-0.7090201,0,0
27448000,-0.018021196,-0.01508981,1.61517,-3.6822875e-16,0.691247,-0.00077644817,-0.011726084,0.722523,0.0,0.0,-0.7082054,0,0
27496000,-0.01811548,-0.014932638,1.61517,-3.044219e-16,0.6912468,-0.0008658227,-0.011705832,0.72252345,0.0,0.0,-0.7076231,0,0
27544000,-0.018041864,-0.014829786,1.61517,-3.495438e-16,0.6912468,-0.00087754097,-0.011643691,0.7225244,0.0,0.0,-0.70768696,0,0
27600000,-0.017884614,-0.01465339,1.61517,-2.8897469e-16,0.69124675,-0.0008869251,-0.011525928,0.7225264,0.0,0.0,-0.7079752,0,0
27648000,-0.018164393,-0.014532499,1.61517,-1.42203e-16,0.6912465,-0.0010273022,-0.011585225,0.7225255,0.0,0.0,-0.7084327,0,0
27696000,-0.018021423,-0.0147700915,1.61517,-1.1756199e-16,0.69124675,-0.0008920445,-0.01161568,0.72252494,0.0,0.0,-0.7086397,0,0
27744000,-0.017974233,-0.015007325,1.61517,-1.3498721e-16,0.6912469,-0.000790019,-0.011680613,0.72252375,0.0,0.0,-0.70897347,0,0
27792000,-0.018001702,-0.014886522,1.61517,-1.1159658e-16,0.6912468,-0.000843161,-0.011648791,0.72252434,0.0,0.0,-0.70911705,0,0
27848000,-0.017612832,-0.0142236315,1.61517,-5.4916114e-17,0.6912465,-0.00094826665,-0.011279228,0.7225304,0.0,0.0,-0.7081381,0,0
27896000,-0.01709517,-0.013925849,1.61517,-4.5400225e-17,0.69124657,-0.0008769418,-0.0109893065,0.7225349,0.0,0.0,-0.7072892,0,0
27944000,-0.016913014,-0.014036534,1.61517,-5.2129518e-17,0.6912467,-0.0007739924,-0.01096175,0.7225354,0.0,0.0,-0.7070541,0,0
27992000,-0.016731417,-0.013849453,1.61517,-4.309649e-17,0.6912467,-0.0007788225,-0.010831494,0.72253734,0.0,0.0,-0.7072389,0,0
28048000,-0.016768696,-0.013700257,1.61517,-2.120757e-17,0.69124657,-0.0008456128,-0.010793402,0.7225379,0.0,0.0,-0.70760185,0,0
28096000,-0.01698326,-0.013543834,1.61517,-1.7532712e-17,0.69124633,-0.0009762882,-0.01081686,0.7225376,0.0,0.0,-0.70797044,0,0
28144000,-0.017111776,-0.013832366,1.61517,-2.0131435e-17,0.6912465,-0.00091645774,-0.010962999,0.7225354,0.0,0.0,-0.7085731,0,0
28200000,-0.01689723,-0.01392343,1.61517,-1.6643053e-17,0.6912467,-0.0008094027,-0.01091696,0.722536,0.0,0.0,-0.708947,0,0
28248000,-0.01690668,-0.0144582875,1.61517,-8.189962e-18,0.691247,-0.00061942043,-0.011105211,0.7225329,0.0,0.0,-0.7076484,0,0
28296000,-0.01687691,-0.014753942,1.61517,-6.7708017e-18,0.6912471,-0.00050230796,-0.011196628,0.7225315,0.0,0.0,-0.7067858,0,0
28352000,-0.01687289,-0.015487806,1.61517,-7.77438e-18,0.69124746,-0.00023576863,-0.011448782,0.72252744,0.0,0.0,-0.7063442,0,0
28392000,-0.016907725,-0.015668169,1.61517,-6.4272322e-18,0.6912475,-0.00018264093,-0.011523697,0.7225262,0.0,0.0,-0.7062999,0,0
28448000,-0.017367112,-0.01608845,1.61517,-3.1628088e-18,0.69124764,-0.00018956403,-0.011834893,0.72252095,0.0,0.0,-0.7064613,0,0
28496000,-0.017489273,-0.016159771,1.61517,-2.6147558e-18,0.69124764,-0.00020601734,-0.011903671,0.7225199,0.0,0.0,-0.7067774,0,0
28544000,-0.01771369,-0.016367754,1.61517,-3.002319e-18,0.6912477,-0.00020843439,-0.012056618,0.7225173,0.0,0.0,-0.7075628,0,0
28592000,-0.017812656,-0.016175449,1.61517,-2.4820756e-18,0.6912476,-0.0003121225,-0.012025917,0.7225179,0.0,0.0,-0.7080181,0,0
28648000,-0.017544026,-0.016635722,1.61517,-1.221417e-18,0.69124776,-5.2975418e-05,-0.012087929,0.7225168,0.0,0.0,-0.7069584,0,0
28696000,-0.016944919,-0.016800812,1.61517,-1.0097694e-18,0.6912478,0.00021373804,-0.011928545,0.72251934,0.0,0.0,-0.70616263,0,0
28752000,-0.016618447,-0.017008532,1.61517,-1.159439e-18,0.69124776,0.00040162666,-0.011882386,0.72252005,0.0,0.0,-0.70612437,0,0
28792000,-0.016889928,-0.017223451,1.61517,-9.585308e-19,0.6912478,0.00038544752,-0.012054731,0.72251713,0.0,0.0,-0.7062851,0,0
28848000,-0.016359879,-0.016862506,1.61517,-4.716882e-19,0.6912477,0.00043823235,-0.011738514,0.72252244,0.0,0.0,-0.70691305,0,0
28896000,-0.016848886,-0.017142313,1.61517,-3.8995385e-19,0.6912478,0.00037031592,-0.012011867,0.72251797,0.0,0.0,-0.70741975,0,0
28952000,-0.016662247,-0.017244443,1.61517,-4.477534e-19,0.6912478,0.00047172428,-0.0119797345,0.7225183,0.0,0.0,-0.7081402,0,0
28992000,-0.017039899,-0.017109975,1.61517,-3.7016648e-19,0.6912479,0.00029261404,-0.012069697,0.72251695,0.0,0.0,-0.7083832,0,0
29048000,-0.016983468,-0.016818652,1.61517,-1.8215707e-19,0.6912478,0.0002068607,-0.011948637,0.722519,0.0,0.0,-0.7066291,0,0
29096000,-0.016959926,-0.016838858,1.61517,-1.5059283e-19,0.6912478,0.00022229747,-0.011947114,0.722519,0.0,0.0,-0.70542055,0,0
29152000,-0.016816668,-0.01729499,1.61517,-1.7291394e-19,0.6912478,0.00043661552,-0.012052988,0.7225172,0.0,0.0,-0.70481354,0,0
29192000,-0.01643655,-0.01726743,1.61517,-1.4295134e-19,0.69124776,0.0005580355,-0.011906143,0.72251946,0.0,0.0,-0.7050187,0,0
29248000,-0.016240926,-0.017516343,1.61517,-7.0345636e-20,0.69124764,0.0007155822,-0.01192149,0.7225193,0.0,0.0,-0.70561814,0,0
29296000,-0.016154798,-0.017139269,1.61517,-5.815611e-20,0.69124764,0.00060911063,-0.011760069,0.722522,0.0,0.0,-0.70629513,0,0
29344000,-0.01777027,-0.018508472,1.6149608,-0.00080074026,0.6913237,0.00054412807,-0.012816879,0.72243136,0.0,0.0,-0.6949216,0,0
29392000,-0.01833461,-0.019061076,1.6149608,-0.00066198764,0.6913238,0.00054869824,-0.013211707,0.72242415,0.0,0.0,-0.682523,0,0
29448000,-0.0190183,-0.018982165,1.6149608,-0.0003257608,0.691324,0.00028386503,-0.013431391,0.72242004,0.0,0.0,-0.6621555,0,0
29496000,-0.01907304,-0.018999472,1.6149608,-0.00026931282,0.691324,0.0002711957,-0.013457146,0.72241956,0.0,0.0,-0.6538854,0,0
29544000,-0.019320492,-0.01944708,1.6149608,-0.00030923076,0.6913241,0.00034736862,-0.013701218,0.7224148,0.0,0.0,-0.63968533,0,0
29592000,-0.019497057,-0.019840185,1.6149608,-0.00025564712,0.6913242,0.0004283543,-0.013900849,0.7224109,0.0,0.0,-0.6363742,0,0
29648000,-0.019677276,-0.020626321,1.6149608,-0.00012580268,0.69132423,0.00065006944,-0.014237626,0.72240406,0.0,0.0,-0.62231624,0,0
29696000,-0.02018028,-0.02081585,1.6149608,-0.00010400352,0.6913244,0.0005446724,-0.014484811,0.722399,0.0,0.0,-0.62194663,0,0
29744000,-0.020895746,-0.021427104,1.6149608,-0.00011941908,0.69132465,0.0005181919,-0.014954475,0.72238934,0.0,0.0,-0.6214796,0,0
29800000,-0.02130732,-0.022460513,1.6149608,-9.872609e-05,0.6913248,0.0007492668,-0.015460255,0.7223784,0.0,0.0,-0.6546279,0,0
29848000,-0.021111818,-0.021951828,1.6149608,-4.8582617e-05,0.6913247,0.0006330713,-0.015213854,0.72238374,0.0,0.0,-0.6717636,0,0
29896000,-0.020973466,-0.022309678,1.6149608,-4.0164196e-05,0.69132465,0.00081017526,-0.0152875455,0.7223821,0.0,0.0,-0.6906901,0,0
29944000,-0.020398857,-0.021870712,1.6149608,-4.6117395e-05,0.6913245,0.0008502096,-0.014928302,0.72238976,0.0,0.0,-0.70451486,0,0
29992000,-0.02005021,-0.02177854,1.6149608,-3.8126153e-05,0.6913243,0.0009374255,-0.014770522,0.722393,0.0,0.0,-0.7184589,0,0
30048000,-0.01814695,-0.019849885,1.6149608,-1.8761688e-05,0.6913237,0.0008985399,-0.013416533,0.72242004,0.0,0.0,-0.7307618,0,0
30096000,-0.017270274,-0.019302925,1.6149608,-1.5510654e-05,0.6913234,0.0010039717,-0.012910838,0.72242945,0.0,0.0,-0.74033505,0,0
30144000,-0.017486462,-0.019527037,1.6149608,-1.7809667e-05,0.69132346,0.0010102089,-0.01306638,0.72242665,0.0,0.0,-0.74912155,0,0
30192000,-0.017312264,-0.019508213,1.6149608,-1.4723601e-05,0.6913234,0.0010636225,-0.012996953,0.7224278,0.0,0.0,-0.74354756,0,0
30248000,-0.016740482,-0.017992534,1.6149608,-7.24541e-06,0.6913234,0.0007136919,-0.012266589,0.7224411,0.0,0.0,-0.7306894,0,0
30296000,-0.016697427,-0.016990757,1.6149608,-5.989922e-06,0.69132334,0.00036666103,-0.011904816,0.72244734,0.0,0.0,-0.7247989,0,0
30344000,-0.016401974,-0.016987316,1.6149608,-6.8777576e-06,0.69132334,0.00046754372,-0.0117969,0.72244906,0.0,0.0,-0.7184827,0,0
30392000,-0.016423713,-0.017004909,1.6149608,-5.6859767e-06,0.69132334,0.00046638583,-0.011810833,0.7224489,0.0,0.0,-0.7174284,0,0
30448000,-0.016154105,-0.016912328,1.6149608,-2.7980407e-06,0.6913232,0.0005261324,-0.011681448,0.7224509,0.0,0.0,-0.7146243,0,0
30496000,-0.016084697,-0.0168974,1.6149608,-2.3131947e-06,0.6913232,0.00054472993,-0.011651216,0.72245145,0.0,0.0,-0.71608835,0,0
30552000,-0.016186776,-0.017316874,1.6149608,-2.65606e-06,0.6913232,0.00066098984,-0.011833065,0.7224485,0.0,0.0,-0.7162062,0,0
30592000,-0.016200578,-0.017266022,1.6149608,-2.1958165e-06,0.6913233,0.0006378483,-0.011820476,0.72244865,0.0,0.0,-0.71660304,0,0
30648000,-0.016193502,-0.016931046,1.6149608,-1.0805503e-06,0.6913232,0.0005192754,-0.011702148,0.7224507,0.0,0.0,-0.7134926,0,0
30696000,-0.015903292,-0.016910344,1.6149608,-8.9331206e-07,0.69132316,0.0006121109,-0.011590161,0.7224525,0.0,0.0,-0.7139966,0,0
30744000,-0.016367419,-0.016544616,1.6149608,-1.0257203e-06,0.6913233,0.00031955293,-0.011631416,0.7224519,0.0,0.0,-0.71225184,0,0
30800000,-0.016582655,-0.01664348,1.6149608,-8.4798296e-07,0.69132334,0.00028087123,-0.011743332,0.72245,0.0,0.0,-0.71570265,0,0
30848000,-0.01657297,-0.016520135,1.6149608,-4.172882e-07,0.69132334,0.00023965759,-0.011697205,0.7224508,0.0,0.0,-0.7132997,0,0
30896000,-0.016518515,-0.016930448,1.6149608,-3.4498035e-07,0.69132334,0.00040671544,-0.011819344,0.72244877,0.0,0.0,-0.7155408,0,0
30944000,-0.016514918,-0.017105585,1.6149608,-3.9611385e-07,0.69132334,0.00047123156,-0.011878573,0.7224477,0.0,0.0,-0.7146925,0,0
