timestamp,timestamp_sample,xyz[0],xyz[1],xyz[2]
3200000,3200000,-0.21187048,0.18441127,-9.9358015
3204000,3204000,-0.21143404,0.18844306,-9.932686
3248000,3248000,-0.1963732,0.19306111,-9.931276
3296000,3296000,-0.21700157,0.17069884,-9.939771
3348000,3348000,-0.19851598,0.22637805,-9.938759
3400000,3400000,-0.22344208,0.1857701,-9.914442
3448000,3448000,-0.1970956,0.18403551,-9.821699
3496000,3496000,-0.21331806,0.19765884,-9.824385
3552000,3552000,-0.20597261,0.20603502,-9.851505
3596000,3596000,-0.23396763,0.20420955,-9.829447
3652000,3652000,-0.19429176,0.19662091,-9.802921
3696000,3696000,-0.2055013,0.18997458,-9.811302
3752000,3752000,-0.21849139,0.20424753,-9.804628
3800000,3800000,-0.20722139,0.19452964,-9.796941
3852000,3852000,-0.18044089,0.19996572,-9.813553
3900000,3900000,-0.20317149,0.1816108,-9.834858
3952000,3952000,-0.22045673,0.17926715,-9.809007
4000000,4000000,-0.21434757,0.20227358,-9.821673
4052000,4052000,-0.22195624,0.20321473,-9.812998
4096000,4096000,-0.2117548,0.1789656,-9.818526
4148000,4148000,-0.20680545,0.19642264,-9.80016
4200000,4200000,-0.19515891,0.20214106,-9.812415
4252000,4252000,-0.21724686,0.17103422,-9.813473
4300000,4300000,-0.21062066,0.17739332,-9.813809
4352000,4352000,-0.21408786,0.1761524,-9.807664
4400000,4400000,-0.17870763,0.1968711,-9.817547
4452000,4452000,-0.20821978,0.17087221,-9.832049
4500000,4500000,-0.22206724,0.20431761,-9.817091
4552000,4552000,-0.21499762,0.16656937,-9.809351
4600000,4600000,-0.21423522,0.17385241,-9.824572
4652000,4652000,-0.22388512,0.17893583,-9.828796
4700000,4700000,-0.19413668,0.17724448,-9.80438
4752000,4752000,-0.22197673,0.17700726,-9.815461
4796000,4796000,-0.18388352,0.18821952,-9.796434
4852000,4852000,-0.19414237,0.19233122,-9.790492
4900000,4900000,-0.21919341,0.18951537,-9.811756
4952000,4952000,-0.20936297,0.19708966,-9.791247
5000000,5000000,-0.19274017,0.1861468,-9.815056
5052000,5052000,-0.18644209,0.1699941,-9.849386
5096000,5096000,-0.21953359,0.19060844,-9.77708
5152000,5152000,-0.20511743,0.19786713,-9.826372
5200000,5200000,-0.21444416,0.18803018,-9.780443
5252000,5252000,-0.21198097,0.18069682,-9.80631
5300000,5300000,-0.2153228,0.17115302,-9.815542
5352000,5352000,-0.22208618,0.18889974,-9.8142395
5400000,5400000,-0.24885735,0.189336,-9.814954
5452000,5452000,-0.18815127,0.15766521,-9.808499
5500000,5500000,-0.19141766,0.18219635,-9.8186
5548000,5548000,-0.21507989,0.17223646,-9.796858
5600000,5600000,-0.21131274,0.18774709,-9.814285
5648000,5648000,-0.22260858,0.19049731,-9.827623
5700000,5700000,-0.20878021,0.1808209,-9.812206
5752000,5752000,-0.201593,0.16370985,-9.806259
5800000,5800000,-0.20310599,0.18887344,-9.796129
5848000,5848000,-0.2128641,0.17480607,-9.800699
5900000,5900000,-0.22413561,0.18203734,-9.825455
5952000,5952000,-0.1842111,0.18996772,-9.788422
6000000,6000000,-0.21143053,0.19049399,-9.811783
6052000,6052000,-0.2032145,0.17478909,-9.814861
6100000,6100000,-0.2131964,0.16113605,-9.800666
6152000,6152000,-0.21465918,0.17681071,-9.798056
6200000,6200000,-0.22039911,0.17391393,-9.821571
6252000,6252000,-0.2545309,0.1794838,-9.811148
6296000,6296000,-0.2170438,0.17054448,-9.79201
6352000,6352000,-0.22311287,0.17320691,-9.794234
6400000,6400000,-0.20868611,0.15771982,-9.79817
6452000,6452000,-0.22783238,0.18423335,-9.804854
6500000,6500000,-0.22424437,0.16037004,-9.784579
6552000,6552000,-0.20450473,0.18206784,-9.809086
6600000,6600000,-0.2138111,0.19223145,-9.807997
6652000,6652000,-0.21778226,0.1777508,-9.813454
6700000,6700000,-0.21962884,0.18625328,-9.783405
6752000,6752000,-0.20524216,0.14949137,-9.801075
6800000,6800000,-0.20530713,0.17917387,-9.759728
6848000,6848000,-0.2042943,0.20408402,-9.789412
6900000,6900000,-0.21524274,0.1882956,-9.823395
6952000,6952000,-0.19188315,0.18267079,-9.786173
6996000,6996000,-0.19304469,0.18530142,-9.792442
7048000,7048000,-0.20262831,0.17975971,-9.793779
7096000,7096000,-0.21610239,0.17485592,-9.79302
7152000,7152000,-0.20034806,0.145029,-9.802725
7200000,7200000,-0.18345296,0.19979699,-9.816973
7252000,7252000,-0.20555326,0.19956836,-9.789849
7300000,7300000,-0.21034858,0.18964837,-9.790869
7352000,7352000,-0.19747384,0.18226922,-9.772213
7396000,7396000,-0.21511814,0.15339497,-9.83887
7452000,7452000,-0.19462514,0.15674366,-9.7830715
7500000,7500000,-0.20646814,0.19047995,-9.761067
7552000,7552000,-0.22727077,0.18524715,-9.808859
7596000,7596000,-0.21333548,0.18007252,-9.816182
7652000,7652000,-0.2156811,0.18680052,-9.81012
7700000,7700000,-0.22537634,0.1804301,-9.785302
7752000,7752000,-0.20992447,0.1965291,-9.799889
7800000,7800000,-0.21792543,0.18234739,-9.812693
7852000,7852000,-0.19926064,0.16913092,-9.790692
7900000,7900000,-0.19936538,0.17392886,-9.793835
7952000,7952000,-0.22168559,0.18197249,-9.787645
8000000,8000000,-0.19988587,0.19433308,-9.811481
8052000,8052000,-0.2137026,0.18764205,-9.803375
8100000,8100000,-0.20375594,0.18093315,-9.795105
8152000,8152000,-0.21419679,0.16696048,-9.832629
8200000,8200000,-0.21525279,0.19787385,-9.823599
8252000,8252000,-0.2025926,0.16775133,-9.796261
8300000,8300000,-0.19464967,0.1852421,-9.817141
8352000,8352000,-0.21404865,0.18634196,-9.80974
8400000,8400000,-0.19568002,0.16474967,-9.775534
8452000,8452000,-0.20906872,0.1697186,-9.802601
8496000,8496000,-0.19711247,0.16124222,-9.803853
8552000,8552000,-0.20163693,0.17768136,-9.802439
8600000,8600000,-0.18116742,0.16877764,-9.788704
8652000,8652000,-0.19855617,0.16341549,-9.804148
8696000,8696000,-0.20740196,0.1610481,-9.786517
8748000,8748000,-0.21371002,0.17663704,-9.810287
8800000,8800000,-0.17615587,0.17630741,-9.808195
8852000,8852000,-0.21408027,0.17129219,-9.793484
8900000,8900000,-0.20761062,0.1513829,-9.807329
8952000,8952000,-0.1872789,0.19480112,-9.785292
9000000,9000000,-0.19735068,0.1861825,-9.785494
9052000,9052000,-0.1736671,0.16594365,-9.811336
9100000,9100000,-0.19999978,0.1901862,-9.788479
9152000,9152000,-0.2060951,0.20883271,-9.804658
9200000,9200000,-0.20884658,0.1678854,-9.826127
9252000,9252000,-0.19026348,0.1496777,-9.783855
9300000,9300000,-0.19824554,0.20318545,-9.830846
9352000,9352000,-0.2106432,0.20097773,-9.802148
9400000,9400000,-0.15682511,0.18046403,-9.801638
9448000,9448000,-0.18215922,0.19070716,-9.795418
9496000,9496000,-0.17347828,0.15450692,-9.792199
9552000,9552000,-0.18793976,0.17073666,-9.792426
9600000,9600000,-0.18879443,0.1849175,-9.787318
9652000,9652000,-0.18795197,0.17883284,-9.824032
9700000,9700000,-0.19159617,0.19738403,-9.78135
9752000,9752000,-0.19158038,0.16664708,-9.794402
9800000,9800000,-0.16570367,0.18436944,-9.80649
9852000,9852000,-0.20686251,0.15875846,-9.808063
9900000,9900000,-0.2254951,0.1759128,-9.799652
9952000,9952000,-0.19519418,0.151551,-9.809534
10000000,10000000,-0.20180358,0.19346055,-9.795133
10052000,10052000,-0.20777622,0.17268218,-9.764708
10100000,10100000,-0.19001178,0.1537131,-9.7777605
10152000,10152000,-0.18672296,0.15967914,-9.804516
10200000,10200000,-0.2067525,0.17072067,-9.806078
10252000,10252000,-0.19789518,0.16606215,-9.789371
10300000,10300000,-0.18561848,0.16462398,-9.827874
10352000,10352000,-0.20063128,0.16625884,-9.802458
10396000,10396000,-0.19504504,0.160571,-9.780269
10452000,10452000,-0.20731722,0.18747395,-9.794
10496000,10496000,-0.16978313,0.16682757,-9.79998
10552000,10552000,-0.18403961,0.15167332,-9.813011
10600000,10600000,-0.19516307,0.17903905,-9.800896
10652000,10652000,-0.18126386,0.17741886,-9.775618
10700000,10700000,-0.20002133,0.15905245,-9.776192
10752000,10752000,-0.19081208,0.15394127,-9.779733
10800000,10800000,-0.18642905,0.1789113,-9.798699
10852000,10852000,-0.20808761,0.18354318,-9.787111
10900000,10900000,-0.19888516,0.13973755,-9.794032
10952000,10952000,-0.21210712,0.16015227,-9.785934
11000000,11000000,-0.1763679,0.17159876,-9.790979
11052000,11052000,-0.20221898,0.1610693,-9.789299
11100000,11100000,-0.17210753,0.15080473,-9.792642
11152000,11152000,-0.22251806,0.16961315,-9.790001
11196000,11196000,-0.22567211,0.15466782,-9.778627
11252000,11252000,-0.20576161,0.1611032,-9.777336
11300000,11300000,-0.20819062,0.17972703,-9.786903
11352000,11352000,-0.2221373,0.16735822,-9.7615185
11400000,11400000,-0.17029192,0.18373334,-9.769547
11452000,11452000,-0.1897317,0.1522525,-9.775848
11500000,11500000,-0.18605804,0.16261587,-9.769008
11552000,11552000,-0.212062,0.1414999,-9.779064
11600000,11600000,-0.19466816,0.17738591,-9.816238
11652000,11652000,-0.18572214,0.1643641,-9.80528
11700000,11700000,-0.19486228,0.16228531,-9.78804
11752000,11752000,-0.21082221,0.17279792,-9.797321
11800000,11800000,-0.18764925,0.17248526,-9.784964
11852000,11852000,-0.19936511,0.16552508,-9.823354
11900000,11900000,-0.19898167,0.18316421,-9.804699
11952000,11952000,-0.21918152,0.13526863,-9.780938
12000000,12000000,-0.18844819,0.17014855,-9.787298
12052000,12052000,-0.19769739,0.15809116,-9.812412
12100000,12100000,-0.20885101,0.14649683,-9.780742
12152000,12152000,-0.19014817,0.16243167,-9.796181
12200000,12200000,-0.20287223,0.14728959,-9.797718
12248000,12248000,-0.20099172,0.16636387,-9.790939
12300000,12300000,-0.18602955,0.14993069,-9.774893
12352000,12352000,-0.19618973,0.17388886,-9.799318
12400000,12400000,-0.16866401,0.16823202,-9.775164
12452000,12452000,-0.17127313,0.2058366,-9.801775
12500000,12500000,-0.18673256,0.18717842,-9.795531
12552000,12552000,-0.22485694,0.17964534,-9.770179
12596000,12596000,-0.17602159,0.19101313,-9.804887
12648000,12648000,-0.1921399,0.1551212,-9.778912
12696000,12696000,-0.19194144,0.1748659,-9.79058
12752000,12752000,-0.20985734,0.12951204,-9.76941
12796000,12796000,-0.19399372,0.15580031,-9.788518
12848000,12848000,-0.20976263,0.17329389,-9.812687
12896000,12896000,-0.19747669,0.15382293,-9.80537
12952000,12952000,-0.20906048,0.17389075,-9.82473
13000000,13000000,-0.19147307,0.11704649,-9.803785
13052000,13052000,-0.16835599,0.17027622,-9.768436
13100000,13100000,-0.1880173,0.15574896,-9.783341
13148000,13148000,-0.1887703,0.15352368,-9.779264
13200000,13200000,-0.19247676,0.16456442,-9.804812
13252000,13252000,-0.17663696,0.17001735,-9.79447
13300000,13300000,-0.1741049,0.1612791,-9.764982
13352000,13352000,-0.19644517,0.16472885,-9.815003
13400000,13400000,-0.16224532,0.17538773,-9.822675
13452000,13452000,-0.19502479,0.16614644,-9.777668
13500000,13500000,-0.17895257,0.16892163,-9.807029
13552000,13552000,-0.18366458,0.15600562,-9.796081
13600000,13600000,-0.17781949,0.1534924,-9.784946
13652000,13652000,-0.20728785,0.15497237,-9.756557
13700000,13700000,-0.20765631,0.16770877,-9.789627
13752000,13752000,-0.19352782,0.15048899,-9.808594
13800000,13800000,-0.19095504,0.15069026,-9.834791
13852000,13852000,-0.17478487,0.16689238,-9.772087
13900000,13900000,-0.18525818,0.17707407,-9.7995405
13952000,13952000,-0.18627104,0.16784614,-9.773131
14000000,14000000,-0.18923543,0.1786582,-9.792343
14052000,14052000,-0.190676,0.15148595,-9.795902
14100000,14100000,-0.15616433,0.15010892,-9.816021
14152000,14152000,-0.17444083,0.15850765,-9.776989
14200000,14200000,-0.18124455,0.14271279,-9.784892
14252000,14252000,-0.17420429,0.17048481,-9.7899475
14300000,14300000,-0.1927298,0.15666313,-9.8113365
14352000,14352000,-0.18131287,0.16677296,-9.804424
14400000,14400000,-0.20254517,0.18550727,-9.790588
14452000,14452000,-0.16806866,0.15054007,-9.7817135
14500000,14500000,-0.15347207,0.1831476,-9.797541
14552000,14552000,-0.19510567,0.17272057,-9.801171
14600000,14600000,-0.1724335,0.14814135,-9.825107
14652000,14652000,-0.1913155,0.17049018,-9.826818
14700000,14700000,-0.17539507,0.17714995,-9.769046
14752000,14752000,-0.19028586,0.17836168,-9.783199
14796000,14796000,-0.16674027,0.14920387,-9.81153
14852000,14852000,-0.15068653,0.19361839,-9.791889
14896000,14896000,-0.1891272,0.14208236,-9.789388
14952000,14952000,-0.1860476,0.19100636,-9.78677
15000000,15000000,-0.17825441,0.15435244,-9.788553
15052000,15052000,-0.1776432,0.15426145,-9.76566
15100000,15100000,-0.1674757,0.14887068,-9.812744
15152000,15152000,-0.18010038,0.17132904,-9.787195
15200000,15200000,-0.18535616,0.14479828,-9.833459
15252000,15252000,-0.1601206,0.13991368,-9.800503
15296000,15296000,-0.17568389,0.17320733,-9.801523
15348000,15348000,-0.16690975,0.15453246,-9.794016
15396000,15396000,-0.16236672,0.14879583,-9.778466
15452000,15452000,-0.16736524,0.15642628,-9.786163
15500000,15500000,-0.16925876,0.15384993,-9.80034
15552000,15552000,-0.18676528,0.1312908,-9.782757
15600000,15600000,-0.20262082,0.1764005,-9.755769
15652000,15652000,-0.17309193,0.16652861,-9.793803
15700000,15700000,-0.17008342,0.17233521,-9.776014
15752000,15752000,-0.18376285,0.16657344,-9.78356
15796000,15796000,-0.13924572,0.15780568,-9.806053
15852000,15852000,-0.18814741,0.12905896,-9.787083
15900000,15900000,-0.1557787,0.13578063,-9.800415
15952000,15952000,-0.18482931,0.16902149,-9.770648
16000000,16000000,-0.16302635,0.16948706,-9.80453
16052000,16052000,-0.16275747,0.17263475,-9.789608
16100000,16100000,-0.1589266,0.14694804,-9.811588
16152000,16152000,-0.15493037,0.16150142,-9.806541
16200000,16200000,-0.17165485,0.14656816,-9.78857
16252000,16252000,-0.15605067,0.13714334,-9.798309
16300000,16300000,-0.1677151,0.14292692,-9.79533
16348000,16348000,-0.1958223,0.15525669,-9.739906
16400000,16400000,-0.17468947,0.14022607,-9.792912
16452000,16452000,-0.16470286,0.16397685,-9.763342
16496000,16496000,-0.18026336,0.17758682,-9.77644
16552000,16552000,-0.17736617,0.1712201,-9.792852
16600000,16600000,-0.18871108,0.15116008,-9.791044
16652000,16652000,-0.19051182,0.14381963,-9.770092
16700000,16700000,-0.17251931,0.14042148,-9.799311
16748000,16748000,-0.16207767,0.14178868,-9.800498
16800000,16800000,-0.18074933,0.16199437,-9.776976
16852000,16852000,-0.14949293,0.14679918,-9.793371
16900000,16900000,-0.16918671,0.17440099,-9.807648
16948000,16948000,-0.16584611,0.1619908,-9.777569
17000000,17000000,-0.16318537,0.13441584,-9.793041
17052000,17052000,-0.15196452,0.13866019,-9.788559
17100000,17100000,-0.17376643,0.15604621,-9.800297
17148000,17148000,-0.14596108,0.122265756,-9.7891
17200000,17200000,-0.15666163,0.14272134,-9.779983
17248000,17248000,-0.18157002,0.17991781,-9.87738
17300000,17300000,-0.19420451,0.20438644,-10.047567
17352000,17352000,-0.20293802,0.1930313,-10.166829
17400000,17400000,-0.1676896,0.13003218,-10.2030325
17452000,17452000,-0.13725066,0.083945334,-10.229994
17500000,17500000,-0.06553645,-0.018349182,-10.288584
17552000,17552000,-0.026951458,0.008729958,-10.235537
17600000,17600000,-0.17758444,0.1465564,-10.205034
17652000,17652000,-0.16790934,0.16023508,-10.380545
17700000,17700000,-0.16552244,0.15944022,-10.4981575
17748000,17748000,-0.15023309,0.12841551,-10.583014
17796000,17796000,-0.12490788,0.119469695,-10.647583
17848000,17848000,-0.13132124,0.10313797,-10.673079
17900000,17900000,-0.092433155,0.10955905,-10.726775
17952000,17952000,-0.08857469,0.09716477,-10.7219515
18000000,18000000,-0.06347423,0.103155494,-10.719639
18048000,18048000,-0.056762166,0.09710175,-10.694566
18100000,18100000,-0.08637359,0.074784145,-10.641182
18152000,18152000,-0.08796777,0.06707321,-10.410755
18200000,18200000,-0.08734296,0.08358958,-10.147382
18248000,18248000,-0.082594946,0.07567237,-9.899974
18300000,18300000,-0.08643572,0.11007904,-9.709863
18352000,18352000,-0.09867079,0.109169334,-9.583034
18400000,18400000,-0.08148102,0.09617823,-9.725544
18448000,18448000,-0.10467246,0.1057641,-9.86763
18500000,18500000,-0.10171625,0.08331997,-9.9543915
18552000,18552000,-0.08614986,0.10552008,-9.955301
18600000,18600000,-0.10499459,0.09879278,-9.981031
18652000,18652000,-0.09097157,0.10720871,-9.981984
18700000,18700000,-0.12823664,0.08977062,-9.965612
18752000,18752000,-0.122421496,0.11894539,-9.923535
18800000,18800000,-0.13002484,0.10613213,-9.901665
18852000,18852000,-0.15114386,0.12258741,-9.906216
18900000,18900000,-0.1544182,0.11264101,-9.904555
18952000,18952000,-0.16455033,0.1435116,-9.897427
19000000,19000000,-0.14575824,0.117961705,-9.848131
19052000,19052000,-0.1594013,0.15314317,-9.922297
19100000,19100000,-0.14968786,0.13045602,-9.87162
19152000,19152000,-0.13414523,0.14933024,-9.832319
19200000,19200000,-0.15426752,0.14922827,-9.799782
19252000,19252000,-0.14850184,0.15381274,-9.844374
19300000,19300000,-0.14526317,0.15878618,-9.833897
19352000,19352000,-0.14726591,0.13526617,-9.82531
19400000,19400000,-0.17613752,0.18666066,-9.827338
19452000,19452000,-0.15692772,0.19319195,-9.787699
19500000,19500000,-0.16203511,0.17297253,-9.783264
19552000,19552000,-0.13530828,0.18706289,-9.752762
19600000,19600000,-0.17483209,0.18904246,-9.713937
19648000,19648000,-0.18233418,0.18444912,-9.708483
19700000,19700000,-0.14607924,0.17823644,-9.758897
19752000,19752000,-0.15603709,0.19882426,-9.740878
19800000,19800000,-0.1744832,0.1982582,-9.715323
19848000,19848000,-0.18877907,0.18667644,-9.742516
19900000,19900000,-0.19078976,0.18166956,-9.707693
19952000,19952000,-0.16389632,0.20209014,-9.677154
20000000,20000000,-0.18482628,0.2021991,-9.623716
20052000,20052000,-0.1863662,0.20669699,-9.693742
20096000,20096000,-0.2070896,0.1979024,-9.662478
20152000,20152000,-0.17847861,0.19838245,-9.652413
20200000,20200000,-0.18244419,0.20179483,-9.643444
20252000,20252000,-0.20431957,0.18969776,-9.657307
20300000,20300000,-0.16775654,0.19301397,-9.670196
20352000,20352000,-0.2289069,0.21325558,-9.656391
20400000,20400000,-0.18884052,0.19644913,-9.612057
20448000,20448000,-0.18386562,0.17134336,-9.645571
20496000,20496000,-0.18781751,0.19237801,-9.618487
20548000,20548000,-0.19542348,0.18833493,-9.620635
20600000,20600000,-0.20765124,0.19381715,-9.592478
20652000,20652000,-0.18504822,0.20065059,-9.44608
20700000,20700000,-0.19112289,0.20972028,-9.246327
20752000,20752000,-0.18173397,0.18766016,-9.028229
20800000,20800000,-0.20883028,0.2046249,-8.792925
20852000,20852000,-0.1750988,0.18708028,-8.574283
20900000,20900000,-0.20392175,0.17622861,-8.493781
20952000,20952000,-0.18778354,0.18496889,-8.695907
21000000,21000000,-0.19721757,0.19547948,-8.991163
21052000,21052000,-0.2035836,0.16369972,-9.223449
21096000,21096000,-0.1783696,0.16504015,-9.374273
21152000,21152000,-0.19884515,0.18807378,-9.586288
21196000,21196000,-0.19262332,0.19243044,-9.705542
21248000,21248000,-0.2085343,0.19439968,-9.865456
21296000,21296000,-0.19668864,0.18860029,-9.934756
21348000,21348000,-0.19102877,0.18061863,-10.044798
21400000,21400000,-0.17889649,0.16056314,-9.999345
21452000,21452000,-0.18357262,0.17510086,-10.003492
21500000,21500000,-0.18136363,0.17678377,-9.91317
21552000,21552000,-0.1935319,0.17964748,-9.814907
21600000,21600000,-0.1916042,0.1741355,-9.779548
21648000,21648000,-0.16895384,0.19031507,-9.757558
21700000,21700000,-0.17450602,0.19387594,-9.747211
21752000,21752000,-0.2080452,0.18707332,-9.759788
21800000,21800000,-0.21623337,0.17545983,-9.753221
21852000,21852000,-0.1857486,0.18694982,-9.740156
21900000,21900000,-0.17777242,0.18604365,-9.741203
21952000,21952000,-0.201979,0.18046725,-9.733258
22000000,22000000,-0.18094969,0.16648856,-9.716603
22048000,22048000,-0.1962753,0.20009394,-9.732486
22100000,22100000,-0.15513268,0.17227733,-9.7254715
22152000,22152000,-0.18043071,0.19372067,-9.732617
22196000,22196000,-0.20154074,0.18803683,-9.719853
22252000,22252000,-0.20991305,0.18541011,-9.732325
22300000,22300000,-0.16602205,0.16616592,-9.721221
22352000,22352000,-0.17939621,0.18313073,-9.733357
22400000,22400000,-0.17404222,0.1820596,-9.749738
22448000,22448000,-0.15347409,0.18391602,-9.765242
22500000,22500000,-0.19284342,0.17811349,-9.739686
22552000,22552000,-0.19991624,0.17696923,-9.72664
22600000,22600000,-0.17630881,0.1821518,-9.761543
22652000,22652000,-0.16307387,0.14732327,-9.747127
22700000,22700000,-0.1519708,0.18820506,-9.762791
22752000,22752000,-0.1431537,0.15459162,-9.755722
22800000,22800000,-0.13005677,0.18008918,-9.733581
22852000,22852000,-0.16498142,0.18123165,-9.758527
22900000,22900000,-0.19591686,0.16634618,-9.742482
22952000,22952000,-0.1576749,0.14885698,-9.763235
23000000,23000000,-0.14856446,0.15024772,-9.778982
23052000,23052000,-0.15891507,0.16007969,-9.750188
23100000,23100000,-0.168496,0.18072578,-9.722021
23152000,23152000,-0.16957763,0.1903251,-9.736223
23200000,23200000,-0.17550007,0.17944498,-9.707896
23252000,23252000,-0.14635472,0.16570681,-9.709107
23300000,23300000,-0.15604326,0.1660881,-9.75632
23352000,23352000,-0.15463597,0.17043713,-9.741516
23396000,23396000,-0.15233687,0.17184162,-9.703226
23452000,23452000,-0.14927426,0.18233798,-9.760872
23500000,23500000,-0.15223882,0.14399308,-9.751654
23552000,23552000,-0.16758847,0.1487463,-9.733414
23600000,23600000,-0.1215162,0.1729565,-9.70421
23652000,23652000,-0.1484586,0.15812647,-9.726769
23696000,23696000,-0.12160307,0.16101041,-9.755493
23752000,23752000,-0.14863151,0.17115891,-9.732954
23796000,23796000,-0.1326643,0.14011222,-9.7331295
23848000,23848000,-0.1373959,0.17401251,-9.762017
23900000,23900000,-0.1383641,0.13797607,-9.738255
23952000,23952000,-0.12526575,0.14642176,-9.73044
24000000,24000000,-0.16581342,0.14907965,-9.715597
24052000,24052000,-0.15139556,0.14093891,-9.736036
24100000,24100000,-0.14007963,0.14863947,-9.711879
24152000,24152000,-0.16499904,0.13896446,-9.742479
24200000,24200000,-0.16080025,0.17883876,-9.7519655
24252000,24252000,-0.13301787,0.14728376,-9.752792
24300000,24300000,-0.13256393,0.15632486,-9.739107
24352000,24352000,-0.14983399,0.16052887,-9.72006
24400000,24400000,-0.14984682,0.12718463,-9.699817
24452000,24452000,-0.1300736,0.14606419,-9.69915
24500000,24500000,-0.1454379,0.15046886,-9.720755
24552000,24552000,-0.15140866,0.11976596,-9.7365265
24596000,24596000,-0.16366918,0.14578584,-9.721387
24648000,24648000,-0.13900366,0.15585016,-9.792347
24700000,24700000,-0.12811853,0.16702668,-9.742701
24752000,24752000,-0.14571303,0.1644181,-9.74504
24800000,24800000,-0.12934074,0.1515339,-9.719835
24852000,24852000,-0.13368848,0.13064817,-9.7491865
24900000,24900000,-0.16694115,0.14326988,-9.76197
24952000,24952000,-0.1543489,0.15323173,-9.767638
25000000,25000000,-0.15672548,0.1638304,-9.774096
25052000,25052000,-0.15362799,0.1588381,-9.761135
25100000,25100000,-0.14476785,0.16962188,-9.783037
25152000,25152000,-0.16773614,0.15990093,-9.761981
25200000,25200000,-0.14610013,0.16728593,-9.809009
25252000,25252000,-0.15202716,0.15895969,-9.78669
25300000,25300000,-0.1872593,0.15769918,-9.797134
25352000,25352000,-0.14312316,0.14955184,-9.8148365
25400000,25400000,-0.18046899,0.16655006,-9.783939
25452000,25452000,-0.15515101,0.17225146,-9.778
25496000,25496000,-0.13725519,0.15806949,-9.754404
25552000,25552000,-0.16612306,0.17134193,-9.787395
25600000,25600000,-0.16823539,0.16105326,-9.762872
25652000,25652000,-0.15213254,0.18871634,-9.803659
25696000,25696000,-0.18716338,0.17711246,-9.79642
25752000,25752000,-0.15056469,0.17270045,-9.790189
25800000,25800000,-0.17096946,0.16812325,-9.755655
25852000,25852000,-0.18274298,0.15310389,-9.780183
25900000,25900000,-0.18712187,0.1815885,-9.764923
25952000,25952000,-0.17847815,0.17189002,-9.732374
26000000,26000000,-0.17837825,0.18717258,-9.727016
26052000,26052000,-0.1828202,0.20029448,-9.738216
26100000,26100000,-0.14473632,0.16204172,-9.761933
26152000,26152000,-0.18748929,0.17265749,-9.780378
26196000,26196000,-0.19007786,0.17408153,-9.773238
26252000,26252000,-0.16626754,0.16243619,-9.769897
26300000,26300000,-0.18370523,0.1556761,-9.7712145
26352000,26352000,-0.17014883,0.16189419,-9.720211
26400000,26400000,-0.17745586,0.15779825,-9.732751
26452000,26452000,-0.19853985,0.16052029,-9.753658
26500000,26500000,-0.16924138,0.17615455,-9.755647
26552000,26552000,-0.18376239,0.17423236,-9.752572
26600000,26600000,-0.17017476,0.17238137,-9.765481
26652000,26652000,-0.16980089,0.19502833,-9.762296
26700000,26700000,-0.16880268,0.18594733,-9.766358
26752000,26752000,-0.19661462,0.18386701,-9.783881
26800000,26800000,-0.18148786,0.16501376,-9.730736
26848000,26848000,-0.17863393,0.20229402,-9.739306
26900000,26900000,-0.16980511,0.15911758,-9.789695
26952000,26952000,-0.19087064,0.21853954,-9.777427
27000000,27000000,-0.17161787,0.17532675,-9.758181
27052000,27052000,-0.16343309,0.18275495,-9.747627
27100000,27100000,-0.14443688,0.15914665,-9.764324
27152000,27152000,-0.17434308,0.20603551,-9.782695
27200000,27200000,-0.16884625,0.18449637,-9.785429
27252000,27252000,-0.18198556,0.21057741,-9.778291
27300000,27300000,-0.20132329,0.17610405,-9.769565
27352000,27352000,-0.18960236,0.19977641,-9.796951
27400000,27400000,-0.1652426,0.16582765,-9.801551
27452000,27452000,-0.20141202,0.15763494,-9.795328
27496000,27496000,-0.18785462,0.18439098,-9.787738
27548000,27548000,-0.18475582,0.2059398,-9.769009
27600000,27600000,-0.18124852,0.17393148,-9.774258
27648000,27648000,-0.17035258,0.211128,-9.7705
27700000,27700000,-0.18882802,0.19666538,-9.810046
27752000,27752000,-0.160553,0.17915012,-9.809783
27800000,27800000,-0.19338259,0.19753742,-9.809971
27852000,27852000,-0.16672021,0.19055466,-9.818049
27900000,27900000,-0.16447662,0.1708717,-9.798626
27952000,27952000,-0.1812918,0.18734975,-9.788394
28000000,28000000,-0.17264596,0.19598879,-9.759247
28052000,28052000,-0.17506808,0.21525915,-9.773298
28100000,28100000,-0.1542895,0.19719788,-9.759421
28152000,28152000,-0.17849106,0.19916455,-9.788874
28200000,28200000,-0.16196766,0.17736846,-9.788014
28252000,28252000,-0.1988053,0.19389765,-9.786921
28300000,28300000,-0.17970109,0.1682351,-9.7745
28352000,28352000,-0.20316379,0.16282222,-9.750423
28400000,28400000,-0.20144513,0.17305343,-9.789579
28452000,28452000,-0.17013477,0.19560978,-9.774992
28500000,28500000,-0.16374518,0.19565561,-9.739887
28552000,28552000,-0.16510326,0.20152557,-9.751483
28600000,28600000,-0.17088056,0.17984031,-9.785401
28652000,28652000,-0.19749483,0.20753235,-9.786995
28700000,28700000,-0.18603092,0.16918878,-9.767644
28752000,28752000,-0.17235073,0.19384162,-9.720358
28800000,28800000,-0.18281093,0.16909742,-9.719831
28852000,28852000,-0.1632339,0.17382863,-9.755247
28896000,28896000,-0.1798029,0.22534929,-9.718662
28952000,28952000,-0.18316692,0.16318244,-9.7865305
29000000,29000000,-0.18615058,0.17647251,-9.760011
29052000,29052000,-0.14096767,0.17499657,-9.813634
29100000,29100000,-0.16289784,0.16509078,-9.776558
29152000,29152000,-0.19940463,0.20070043,-9.722972
29196000,29196000,-0.19228496,0.13451648,-9.70937
29248000,29248000,-0.17982899,0.17067279,-9.731059
29296000,29296000,-0.14314349,0.17530662,-9.72402
29352000,29352000,-0.16973406,0.18251403,-9.726019
29400000,29400000,-0.16721374,0.19550398,-9.570884
29452000,29452000,-0.17329924,0.16923611,-9.189093
29500000,29500000,-0.17598411,0.16712828,-8.837051
29548000,29548000,-0.19908625,0.17178395,-8.524395
29596000,29596000,-0.18264997,0.16206865,-8.290671
29652000,29652000,-0.21711537,0.14736363,-8.041529
29700000,29700000,-0.17980069,0.17232056,-7.8285737
29752000,29752000,-0.1873689,0.17356308,-7.6713247
29800000,29800000,-0.20153363,0.1671103,-7.7676063
29852000,29852000,-0.17898312,0.17858447,-8.284635
29900000,29900000,-0.22265217,0.18730101,-8.747787
29952000,29952000,-0.17165153,0.15475674,-9.119144
30000000,30000000,-0.20084521,0.1844607,-9.4755745
30052000,30052000,-0.17984498,0.16635875,-9.81734
30100000,30100000,-0.19915575,0.16590737,-10.064736
30152000,30152000,-0.19241199,0.16647168,-10.333917
30196000,30196000,-0.18110822,0.15506284,-10.522916
30248000,30248000,-0.18196425,0.17726639,-10.413057
30296000,30296000,-0.17847615,0.17758009,-10.182375
30348000,30348000,-0.1932938,0.15592478,-9.966919
30400000,30400000,-0.1960198,0.17759737,-9.846613
30452000,30452000,-0.17013219,0.16971946,-9.785
30500000,30500000,-0.19124983,0.1599397,-9.733684
30552000,30552000,-0.17755145,0.17752755,-9.745921
30600000,30600000,-0.18442878,0.17189717,-9.749749
30652000,30652000,-0.17303842,0.1859163,-9.766772
30700000,30700000,-0.1892256,0.1506239,-9.733079
30752000,30752000,-0.18631479,0.16233492,-9.687444
30800000,30800000,-0.1897698,0.18852022,-9.689693
30852000,30852000,-0.18019612,0.16634883,-9.690708
30900000,30900000,-0.20605528,0.15994738,-9.7021265
30952000,30952000,-0.17326996,0.19452886,-9.712627
31000000,31000000,-0.18621813,0.15729526,-9.732879
31052000,31052000,-0.16304666,0.17987165,-9.742602
31100000,31100000,-0.19042557,0.17717962,-9.749101
31148000,31148000,-0.20337646,0.16268526,-9.730476
31200000,31200000,-0.19041485,0.1875644,-9.752565
31248000,31248000,-0.19769381,0.15725686,-9.745073
31296000,31296000,-0.20732316,0.14557707,-9.761598
31352000,31352000,-0.19365689,0.16136158,-9.795238
31400000,31400000,-0.19250852,0.17654146,-9.775045
31452000,31452000,-0.19246249,0.15698043,-9.815237
31500000,31500000,-0.18687253,0.13494813,-9.780724
31552000,31552000,-0.20048441,0.16812158,-9.747056
31600000,31600000,-0.18354194,0.16297154,-9.771603
31652000,31652000,-0.18449092,0.1809948,-9.760168
31700000,31700000,-0.1811486,0.1746447,-9.744382
31752000,31752000,-0.16266891,0.15729417,-9.773661
31800000,31800000,-0.20177597,0.16250077,-9.79842
31852000,31852000,-0.20412815,0.15560672,-9.811394
31900000,31900000,-0.17482889,0.15368725,-9.772627
31952000,31952000,-0.17063738,0.13066214,-9.748629
32000000,32000000,-0.19525972,0.15646851,-9.753153
32048000,32048000,-0.19629204,0.16160753,-9.754087
32100000,32100000,-0.20169628,0.15799524,-9.759001
32152000,32152000,-0.1903608,0.16318479,-9.807636
32196000,32196000,-0.17610818,0.13845532,-9.79752
32252000,32252000,-0.20345208,0.15053222,-9.776714
32300000,32300000,-0.17141472,0.12783897,-9.789021
32352000,32352000,-0.17594819,0.15160213,-9.753586
32400000,32400000,-0.19648604,0.13437375,-9.764215
32452000,32452000,-0.18378715,0.16059032,-9.761459
32500000,32500000,-0.18583468,0.13227928,-9.756987
32552000,32552000,-0.18602887,0.15452331,-9.798603
32596000,32596000,-0.17181976,0.13948128,-9.7966175
32648000,32648000,-0.17968106,0.16803089,-9.800474
32700000,32700000,-0.19194582,0.12866445,-9.784065
32752000,32752000,-0.14153913,0.13234112,-9.745251
32800000,32800000,-0.17856964,0.15378012,-9.72126
32852000,32852000,-0.19453275,0.15135783,-9.727798
32900000,32900000,-0.15931574,0.13799377,-9.746105
32952000,32952000,-0.18423885,0.17223902,-9.789828
32996000,32996000,-0.18564337,0.14957395,-9.78582
33048000,33048000,-0.1934138,0.14065295,-9.794975
33100000,33100000,-0.18127117,0.14153297,-9.763282
33148000,33148000,-0.21712372,0.12839831,-9.716406
33200000,33200000,-0.18838553,0.18436134,-9.739001
33252000,33252000,-0.19230124,0.14793012,-9.706374
33300000,33300000,-0.18222374,0.1352202,-9.735163
33348000,33348000,-0.1631054,0.1528841,-9.752674
33400000,33400000,-0.160673,0.16244818,-9.74984
33448000,33448000,-0.18858258,0.13430822,-9.777523
33500000,33500000,-0.17002812,0.17400703,-9.792854
33552000,33552000,0.37215936,-2.2584908,27.712212
33596000,33596000,-0.17739388,0.13435072,-12.8343315
33652000,33652000,-0.1955347,0.16593888,-13.753902
33700000,33700000,-0.2053288,0.15717417,-12.555769
33752000,33752000,-0.21025826,0.1446791,-11.316697
33800000,33800000,-0.17525342,0.14758721,-10.600678
33848000,33848000,-0.19083014,0.15496537,-10.175436
33900000,33900000,-0.16299112,0.14104268,-9.634148
33952000,33952000,-0.18145429,0.15321907,-9.264681
34000000,34000000,-0.17110409,0.1561419,-9.076062
34048000,34048000,-0.20827849,0.14406201,-9.059853
34100000,34100000,-0.18810977,0.13773535,-9.091291
34152000,34152000,-0.2027184,0.13493237,-9.184489
34200000,34200000,-0.18079251,0.1449231,-9.288473
34248000,34248000,-0.17240469,0.16529983,-9.332885
34296000,34296000,-0.17825666,0.14539635,-9.13892
34352000,34352000,-0.17004903,0.13463233,-8.936758
34396000,34396000,-0.18860114,0.14628556,-8.855618
34448000,34448000,-0.15263712,0.13860703,-8.884761
34496000,34496000,-0.21222508,0.16217579,-8.987392
34548000,34548000,-0.18688664,0.15736514,-9.112888
34600000,34600000,-0.22186457,0.122684754,-9.268765
34652000,34652000,-0.18863532,0.15504134,-9.359431
34700000,34700000,-0.18620917,0.15549852,-9.190208
34752000,34752000,-0.20157614,0.15094717,-9.000118
34800000,34800000,-0.17367968,0.14733322,-8.953349
34852000,34852000,-0.20562457,0.1644963,-8.985327
34896000,34896000,-0.18891248,0.16329378,-9.063692
34952000,34952000,-0.19668227,0.16622984,-9.2015
35000000,35000000,-0.18593346,0.15190816,-9.349836
35052000,35052000,-0.19407383,0.18321428,-9.454264
35100000,35100000,-0.19584973,0.1497106,-9.273231
35152000,35152000,-0.19498217,0.17344926,-9.133663
35196000,35196000,-0.19915965,0.18808018,-9.052138
35248000,35248000,-0.1954968,0.19157305,-9.085384
35300000,35300000,-0.2064018,0.15436028,-9.232097
35352000,35352000,-0.19982845,0.18050955,-9.382517
35400000,35400000,-0.16028689,0.17985368,-9.543558
35452000,35452000,-0.20424616,0.1808258,-9.623762
35500000,35500000,-0.1949533,0.15294164,-9.387476
35552000,35552000,-0.1936471,0.15409821,-9.270868
35600000,35600000,-0.17435749,0.17343724,-9.206721
35652000,35652000,-0.19490722,0.17472458,-9.285644
35700000,35700000,-0.18910678,0.19387731,-9.368519
35752000,35752000,-0.1517992,0.16928223,-9.506466
35800000,35800000,-0.16782862,0.17090252,-9.6482935
35852000,35852000,-0.16429526,0.16438939,-9.730198
35900000,35900000,-0.21186143,0.16778703,-9.572267
35952000,35952000,-0.17031835,0.1652894,-9.426859
36000000,36000000,-0.16987069,0.19526893,-9.3217325
36052000,36052000,-0.18327591,0.17203027,-9.423692
36100000,36100000,-0.1675076,0.1758646,-9.470744
36152000,36152000,-0.4827485,-0.02691359,-8.039014
36200000,36200000,-0.18399584,0.15881938,-9.837481
36252000,36252000,-0.20882261,0.21557054,-9.817027
36300000,36300000,-0.1905448,0.16921404,-9.798772
36352000,36352000,-0.18629818,0.19868317,-9.814826
36400000,36400000,-0.17946196,0.16721565,-9.781566
36452000,36452000,-0.21760792,0.18676743,-9.828104
36500000,36500000,-0.19462983,0.17446798,-9.815539
36552000,36552000,-0.20072284,0.19068427,-9.804386
36600000,36600000,-0.19375564,0.1739299,-9.839062
36652000,36652000,-0.1755495,0.18187323,-9.822369
36700000,36700000,-0.17446677,0.18639913,-9.818718
36752000,36752000,-0.18922418,0.16668406,-9.809542
36800000,36800000,-0.22728913,0.17393745,-9.805826
36852000,36852000,-0.19656593,0.20238468,-9.802592
36900000,36900000,-0.2009278,0.17781278,-9.802732
36952000,36952000,-0.22753535,0.1954241,-9.808396
37000000,37000000,-0.21108721,0.17426367,-9.795725
37052000,37052000,-0.18050875,0.17283747,-9.818003
37100000,37100000,-0.18023211,0.16312331,-9.809153
37152000,37152000,-0.20196311,0.15533556,-9.785248
37196000,37196000,-0.2027374,0.18366423,-9.81879
37252000,37252000,-0.18993881,0.20476647,-9.820143
37300000,37300000,-0.21157783,0.15110601,-9.813544
37352000,37352000,-0.18148573,0.18855223,-9.815315
37400000,37400000,-0.17884038,0.18054155,-9.787052
37448000,37448000,-0.1922434,0.2008962,-9.798932
37496000,37496000,-0.19020233,0.15995918,-9.791128
37548000,37548000,-0.19523743,0.18453199,-9.796053
37600000,37600000,-0.19291472,0.16156742,-9.807814
37652000,37652000,-0.18840173,0.15749717,-9.819079
37700000,37700000,-0.18563333,0.19113043,-9.796454
37752000,37752000,-0.18310024,0.18083428,-9.803724
37800000,37800000,-0.17931421,0.17226043,-9.806415
37852000,37852000,-0.19226438,0.16227004,-9.792917
37900000,37900000,-0.18314698,0.16863778,-9.798104
37952000,37952000,-0.20976743,0.1844481,-9.789151
38000000,38000000,-0.18304887,0.15374748,-9.795784
38052000,38052000,-0.19182189,0.19779918,-9.801283
38100000,38100000,-0.17187744,0.1779186,-9.775782
38152000,38152000,-0.1785319,0.18707137,-9.79382
38200000,38200000,-0.18141939,0.17607507,-9.813076
38252000,38252000,-0.16492718,0.17359766,-9.796199
38300000,38300000,-0.18342145,0.17810127,-9.795818
38352000,38352000,-0.21969561,0.16474047,-9.801528
38400000,38400000,-0.1959799,0.18485275,-9.781368
38452000,38452000,-0.17757387,0.15166076,-9.782884
38500000,38500000,-0.17575498,0.19647273,-9.795475
38552000,38552000,-0.21093571,0.15904066,-9.791657
38596000,38596000,-0.18276617,0.16130975,-9.775248
38648000,38648000,-0.19130552,0.16402014,-9.789329
38696000,38696000,-0.18747427,0.16514327,-9.802314
38752000,38752000,-0.18925163,0.1857188,-9.782244
38796000,38796000,-0.19500022,0.16910207,-9.773568
38852000,38852000,-0.19971211,0.16602129,-9.793892
38900000,38900000,-0.1933407,0.17563002,-9.784911
38952000,38952000,-0.19989733,0.15557353,-9.775695
39000000,39000000,-0.1827872,0.15671557,-9.786222
39048000,39048000,-0.22029975,0.16369103,-9.792784
39096000,39096000,-0.1802753,0.17947918,-9.803212
39152000,39152000,-0.20362966,0.1488046,-9.7921295
39200000,39200000,-0.18023726,0.1691629,-9.776625
39248000,39248000,-0.18338206,0.18216851,-9.814021
39296000,39296000,-0.20915894,0.1710746,-9.8048725
39348000,39348000,-0.21417053,0.15182346,-9.816782
39400000,39400000,-0.18880916,0.18617874,-9.78092
39452000,39452000,-0.20810753,0.14754184,-9.821835
39500000,39500000,-0.17301725,0.17869815,-9.815306
39552000,39552000,-0.14595678,0.17026724,-9.786125
39600000,39600000,-0.16764522,0.20106266,-9.782152
39652000,39652000,-0.18299481,0.18566053,-9.816978
39700000,39700000,-0.17723623,0.16436774,-9.81649
39752000,39752000,-0.16754848,0.18645611,-9.792367
39800000,39800000,-0.1904375,0.16155949,-9.788918
39852000,39852000,-0.21169017,0.16595273,-9.775502
39900000,39900000,-0.16696419,0.17483048,-9.785141
39952000,39952000,-0.19779709,0.1804156,-9.77782
40000000,40000000,-0.18899328,0.17191392,-9.806625
40052000,40052000,-0.17084788,0.15196943,-9.80856
40100000,40100000,-0.20026617,0.19193366,-9.789185
40152000,40152000,-0.19999766,0.16345987,-9.789121
40200000,40200000,-0.19485715,0.19090208,-9.820009
40248000,40248000,-0.19125019,0.17477688,-9.8185625
40300000,40300000,-0.16227804,0.16323434,-9.824247
40352000,40352000,-0.19700883,0.15251955,-9.81142
40400000,40400000,-0.20299989,0.15700494,-9.819006
40452000,40452000,-0.20954409,0.20622799,-9.809271
40496000,40496000,-0.19682445,0.1747554,-9.81528
40548000,40548000,-0.18369092,0.18406186,-9.798091
40600000,40600000,-0.21440277,0.17878209,-9.792833
40652000,40652000,-0.19151314,0.18216047,-9.819809
40700000,40700000,-0.20776913,0.17756008,-9.826752
40752000,40752000,-0.21946219,0.15718122,-9.81515
40800000,40800000,-0.2108278,0.18522936,-9.8134575
40852000,40852000,-0.2070426,0.18916541,-9.815234
40900000,40900000,-0.20404448,0.15430516,-9.797667
40952000,40952000,-0.19593608,0.16001323,-9.821781
41000000,41000000,-0.19187078,0.1587888,-9.818068
41052000,41052000,-0.17957816,0.2036204,-9.805372
41100000,41100000,-0.18136367,0.19825803,-9.810829
41152000,41152000,-0.22763968,0.17668763,-9.802867
41200000,41200000,-0.19282499,0.16826974,-9.799768
41252000,41252000,-0.18275745,0.21609399,-9.807689
41300000,41300000,-0.20398377,0.16410251,-9.818551
41352000,41352000,-0.18185715,0.15802315,-9.809166
41400000,41400000,-0.19301702,0.19058205,-9.81856
41448000,41448000,-0.20081064,0.19372372,-9.79919
41496000,41496000,-0.17553902,0.17782061,-9.825818
41552000,41552000,-0.20770067,0.21176875,-9.809378
41600000,41600000,-0.17693825,0.17838362,-9.831151
41652000,41652000,-0.19430746,0.19683744,-9.82687
41696000,41696000,-0.18562067,0.18032293,-9.827849
41752000,41752000,-0.20643882,0.18517846,-9.809219
41800000,41800000,-0.19085386,0.19115251,-9.803914
41848000,41848000,-0.17713505,0.1713121,-9.820236
41896000,41896000,-0.18925188,0.19647968,-9.833109
41952000,41952000,-0.19654024,0.179901,-9.847276
42000000,42000000,-0.1635076,0.18218929,-9.799392
42048000,42048000,-0.20013551,0.18948807,-9.830611
42100000,42100000,-0.1950558,0.18055394,-9.808282
42152000,42152000,-0.1807187,0.19153444,-9.821685
42200000,42200000,-0.15246393,0.15747207,-9.812746
42248000,42248000,-0.18329099,0.19578059,-9.823353
42300000,42300000,-0.20068598,0.16380939,-9.823607
42352000,42352000,-0.19645008,0.1823278,-9.819933
42396000,42396000,-0.19041976,0.16318071,-9.83944
42448000,42448000,-0.20287842,0.19288974,-9.838518
42500000,42500000,-0.2129781,0.18117064,-9.821544
42552000,42552000,-0.17736395,0.19839206,-9.815866
42600000,42600000,-0.18523945,0.18033887,-9.828943
42652000,42652000,-0.18246037,0.16331705,-9.830748
42700000,42700000,-0.18110785,0.18036321,-9.81689
42752000,42752000,-0.19337305,0.1731927,-9.827445
42800000,42800000,-0.19909514,0.1943447,-9.833225
42852000,42852000,-0.2050133,0.18337038,-9.8142185
42900000,42900000,-0.21017924,0.17347477,-9.827339
42952000,42952000,-0.16417363,0.17303354,-9.814515
43000000,43000000,-0.19673169,0.18927522,-9.817343
43052000,43052000,-0.19023855,0.1742807,-9.822329
43096000,43096000,-0.2045526,0.17341393,-9.818113
43152000,43152000,-0.18176064,0.1681034,-9.846969
43200000,43200000,-0.19395153,0.16007996,-9.8118305
43252000,43252000,-0.18340239,0.21796489,-9.831505
43300000,43300000,-0.19177765,0.14855072,-9.826405
43352000,43352000,-0.17161599,0.14135131,-9.813169
43400000,43400000,-0.17599675,0.1646137,-9.821922
43452000,43452000,-0.17909916,0.15914103,-9.809891
43500000,43500000,-0.1708013,0.17251852,-9.812903
43548000,43548000,-0.20511262,0.16203377,-9.819893
43600000,43600000,-0.1849967,0.18131971,-9.813659
43648000,43648000,-0.19289431,0.15534154,-9.827096
43700000,43700000,-0.18303347,0.18362686,-9.805405
43752000,43752000,-0.19040267,0.19024332,-9.812145
43800000,43800000,-0.17869207,0.19051841,-9.824597
43852000,43852000,-0.18246545,0.18586071,-9.828249
43900000,43900000,-0.19959329,0.19520369,-9.819714
43952000,43952000,-0.20002013,0.1955966,-9.8205385
44000000,44000000,-0.17910269,0.17922807,-9.838617
44052000,44052000,-0.19913295,0.17329668,-9.820166
44100000,44100000,-0.20800745,0.16416356,-9.828265
44148000,44148000,-0.20586202,0.1862805,-9.863413
44196000,44196000,-0.18273012,0.17915066,-9.81868
