timestamp,timestamp_sample,xyz[0],xyz[1],xyz[2]
3200000,3200000,0.0003782765,0.001371923,-0.00022346692
3204000,3204000,0.00020570307,0.0009608809,-6.552972e-05
3220000,3220000,0.0002755393,0.00019461408,0.0005392537
3240000,3240000,0.00033708784,0.0005385026,-8.707112e-05
3260000,3260000,2.1572545e-05,0.00046094967,8.65893e-05
3280000,3280000,-0.0009084581,1.9655738e-05,0.00038898268
3300000,3300000,-0.0004392471,0.0010822864,-0.00011325004
3320000,3320000,0.0010344523,0.00015492772,-0.00016430579
3340000,3340000,0.0010840311,0.00021302281,-0.00025770182
3360000,3360000,0.00037146156,0.0010593125,-5.9475566e-05
3380000,3380000,0.0010897326,0.0018679927,0.00024542955
3400000,3400000,-0.00044910738,0.00012823343,0.000181595
3420000,3420000,0.0005523563,-2.6937982e-05,0.00040671285
3440000,3440000,0.019885426,0.02199124,-0.00018008542
3460000,3460000,0.019914618,0.023408046,-0.00021426675
3480000,3480000,0.019888885,0.023334218,0.0002471941
3496000,3496000,0.02008539,0.022810683,-1.3328856e-05
3520000,3520000,0.020366859,0.02378386,-0.00049211655
3540000,3540000,0.018788436,0.022163866,0.00032420547
3560000,3560000,0.019490285,0.022342669,-0.00016014812
3580000,3580000,0.020029765,0.023561351,-1.8850085e-05
3600000,3600000,0.019910723,0.022813052,0.00032697656
3616000,3616000,0.01931536,0.02268944,0.00013438861
3640000,3640000,0.018894415,0.023663105,7.6441735e-05
3656000,3656000,0.019247483,0.023306778,-0.00010374278
3676000,3676000,0.019547319,0.024097744,0.00041223792
3700000,3700000,0.019771598,0.023756795,0.0003424849
3720000,3720000,0.019098325,0.024466466,-0.00019528871
3740000,3740000,0.019229967,0.022879366,0.00014485617
3760000,3760000,0.019958828,0.023811266,0.00042797538
3780000,3780000,0.020036297,0.023782704,-5.316548e-05
3800000,3800000,0.020529114,0.024628198,-0.0002864611
3820000,3820000,0.020585462,0.024105672,0.00071769004
3840000,3840000,0.019948326,0.025091955,7.336843e-07
3860000,3860000,0.02022513,0.023467287,-0.00045459342
3880000,3880000,0.019134827,0.025334794,0.00010286696
3900000,3900000,0.019931942,0.023934733,8.5880805e-05
3920000,3920000,0.019292342,0.02462972,3.8922404e-05
3940000,3940000,0.018649219,0.024106024,-5.991557e-05
3960000,3960000,0.020433672,0.024766413,0.0006618685
3980000,3980000,0.020110035,0.023407815,0.00013311811
4000000,4000000,0.020732347,0.024497405,0.0003572179
4016000,4016000,0.019427728,0.02405237,0.000115758055
4040000,4040000,0.019382516,0.024674494,0.0003847308
4060000,4060000,0.020639384,0.024738794,0.00048404766
4076000,4076000,0.019782832,0.023957152,0.00076382514
4096000,4096000,0.020164052,0.023557188,0.00050017587
4116000,4116000,0.020169334,0.024535097,0.00021962782
4140000,4140000,0.01915971,0.023829628,-0.00016589001
4156000,4156000,0.01931393,0.024996398,8.955033e-05
4176000,4176000,0.018840065,0.023442872,0.00027562663
4200000,4200000,0.020669525,0.023504514,0.00020832315
4220000,4220000,0.020533498,0.023325285,-7.334033e-05
4240000,4240000,0.019515507,0.023252703,0.00016743636
4260000,4260000,0.020266155,0.022140441,0.0003277503
4280000,4280000,0.019045511,0.023047429,0.00025638062
4300000,4300000,0.019053286,0.022602694,0.0006505018
4320000,4320000,0.019080652,0.023306621,4.56369e-05
4340000,4340000,0.018774778,0.02292982,0.0003374583
4360000,4360000,0.020275488,0.022595856,0.000602591
4380000,4380000,0.019522967,0.021828575,0.0003557727
4400000,4400000,0.019571695,0.022158686,0.00064025284
4420000,4420000,0.019177394,0.022800302,-0.00017565508
4440000,4440000,0.01844134,0.02243086,0.00014090011
4460000,4460000,0.020150922,0.022775311,0.0004142317
4476000,4476000,0.018541114,0.021459434,0.00071001874
4496000,4496000,0.019457353,0.021969838,-4.860526e-05
4520000,4520000,0.019096222,0.021081261,0.00053938845
4540000,4540000,0.019617608,0.022513926,-0.00012725288
4560000,4560000,0.019416919,0.021213375,-8.40724e-05
4580000,4580000,0.019487567,0.02132843,0.00013011985
4600000,4600000,0.019264704,0.021859365,0.00019710576
4620000,4620000,0.01916047,0.022038044,0.00017715464
4640000,4640000,0.018567223,0.022541473,-0.0005603207
4660000,4660000,0.019647572,0.021190636,0.00032242836
4680000,4680000,0.019347746,0.02109129,6.859266e-05
4700000,4700000,0.019013334,0.02140581,0.00049827946
4720000,4720000,0.019893233,0.021376422,0.00020286658
4740000,4740000,0.019252758,0.020395203,-0.00015675287
4760000,4760000,0.018677423,0.020047342,0.00036738135
4776000,4776000,0.01916384,0.022245865,0.0012600137
4796000,4796000,0.018783908,0.020005608,0.00074688945
4820000,4820000,0.019126087,0.022219775,0.0011125657
4840000,4840000,0.01934584,0.02062487,0.000630204
4860000,4860000,0.018723525,0.021588951,0.0009855534
4880000,4880000,0.017555727,0.020684138,0.0009143371
4896000,4896000,0.019596018,0.021187134,4.1742944e-05
4916000,4916000,0.018106598,0.021306068,0.00021023773
4936000,4936000,0.017882083,0.021199964,0.00010769005
4960000,4960000,0.017671334,0.02116872,0.0005593472
4980000,4980000,0.018271962,0.02096304,-0.0005047219
5000000,5000000,0.018175092,0.020222627,4.460391e-05
5016000,5016000,0.01809686,0.021364346,0.0011335019
5036000,5036000,0.016899174,0.020054627,0.00025678525
5056000,5056000,0.018487252,0.020317737,-1.41153405e-05
5080000,5080000,0.018271293,0.020857066,0.000598106
5100000,5100000,0.017444532,0.021428159,0.00020548674
5120000,5120000,0.01713772,0.02008465,0.00031903683
5140000,5140000,0.018516889,0.021478541,0.00014132952
5160000,5160000,0.018334845,0.02148464,0.0006364728
5180000,5180000,0.01776289,0.02084869,2.8917928e-05
5200000,5200000,0.018083226,0.021043947,0.00012861617
5220000,5220000,0.01766507,0.020739615,0.00055750104
5240000,5240000,0.01778655,0.020302432,0.0004111975
5260000,5260000,0.017943252,0.019802628,-0.00033600998
5276000,5276000,0.016095974,0.021974655,-9.3812356e-05
5300000,5300000,0.018117117,0.020069368,0.0006385351
5320000,5320000,0.016441273,0.0207731,0.0005904275
5340000,5340000,0.016740985,0.020555051,-0.00027599963
5356000,5356000,0.018335221,0.02250631,-0.0007252141
5380000,5380000,0.017016154,0.020848311,0.000116881776
5400000,5400000,0.01767355,0.021201868,0.0005870416
5420000,5420000,0.016550822,0.020347599,-6.0436734e-05
5440000,5440000,0.01650041,0.02051632,0.00032755084
5460000,5460000,0.017821103,0.020476379,-5.9112626e-05
5480000,5480000,0.017571801,0.021166235,0.0003776606
5500000,5500000,0.017686682,0.020457458,0.00038645434
5520000,5520000,0.01809253,0.020505982,-3.9301955e-05
5540000,5540000,0.017257875,0.021027595,0.000398991
5560000,5560000,0.016704358,0.021114713,0.00016192059
5580000,5580000,0.017343653,0.019807173,0.00040243464
5600000,5600000,0.017767452,0.020709116,0.00047245467
5620000,5620000,0.016805397,0.020910015,0.0006564022
5640000,5640000,0.016751798,0.020239212,0.000117511096
5660000,5660000,0.01650883,0.020816458,6.462087e-05
5680000,5680000,0.01752059,0.019985363,-0.000230977
5700000,5700000,0.016927062,0.019491473,3.7136186e-05
5716000,5716000,0.017560894,0.021134693,0.00045221273
5740000,5740000,0.01679821,0.020342212,7.983528e-05
5760000,5760000,0.017587226,0.019858211,2.6608117e-05
5780000,5780000,0.017870804,0.020786155,0.00020206987
5800000,5800000,0.0182682,0.02054208,-1.3305655e-05
5820000,5820000,0.01795631,0.020010998,0.00021872393
5840000,5840000,0.016954638,0.021955388,0.00033890453
5856000,5856000,0.017279875,0.020705448,8.353311e-05
5880000,5880000,0.017216258,0.020055918,-0.00032382095
5900000,5900000,0.01769588,0.019356582,-2.9712031e-05
5920000,5920000,0.017838538,0.020541802,-0.00039018
5940000,5940000,0.016816767,0.020492788,6.141985e-05
5960000,5960000,0.018240077,0.020542296,-0.00019851276
5980000,5980000,0.016789058,0.02056808,-0.00046495674
6000000,6000000,0.017184146,0.020438503,-9.3413055e-06
6020000,6020000,0.017040463,0.020569531,-0.0002740517
6040000,6040000,0.017689861,0.021492762,-0.00037795026
6060000,6060000,0.016931355,0.020703387,-0.0005249248
6080000,6080000,0.017544538,0.02097677,7.9700665e-05
6100000,6100000,0.017277403,0.021171363,0.00032654722
6120000,6120000,0.018050572,0.021312265,3.23608e-05
6136000,6136000,0.016473403,0.020504031,-6.008317e-05
6156000,6156000,0.017439919,0.019138617,0.00040789787
6176000,6176000,0.018309774,0.02060888,-0.00022367186
6200000,6200000,0.017073615,0.020802474,0.0011325994
6220000,6220000,0.017583223,0.02086197,-0.0006687467
6240000,6240000,0.016452432,0.019887488,0.00044738344
6260000,6260000,0.01693507,0.020853354,-3.605065e-05
6280000,6280000,0.016597195,0.019803293,-0.00081104174
6296000,6296000,0.01788403,0.019984575,0.00032732738
6316000,6316000,0.018154902,0.021037428,-0.00021408421
6336000,6336000,0.0176806,0.019980477,0.00032552838
6360000,6360000,0.01759113,0.019545019,-0.00013421247
6380000,6380000,0.01761492,0.020240653,-0.00038028648
6400000,6400000,0.01762966,0.021724507,0.0005097794
6420000,6420000,0.017092342,0.01943713,0.00032971124
6440000,6440000,0.01707849,0.019996975,0.0004747441
6456000,6456000,0.0174869,0.020238165,0.0003045966
6476000,6476000,0.016954917,0.02005096,-0.00021822847
6500000,6500000,0.01762803,0.020571101,0.0005483245
6520000,6520000,0.01635483,0.021156453,0.00024885
6540000,6540000,0.017062372,0.020274496,0.00023475596
6560000,6560000,0.015721492,0.020473147,-0.00054904225
6580000,6580000,0.017638203,0.019605882,0.0003816731
6600000,6600000,0.017798234,0.019141888,8.9923844e-05
6620000,6620000,0.016769633,0.020987235,5.7864238e-08
6640000,6640000,0.017631589,0.020049226,-0.00043371957
6660000,6660000,0.015897553,0.021170832,8.426018e-05
6680000,6680000,0.017904982,0.019301867,-0.00018728552
6700000,6700000,0.017008321,0.019971466,0.00026795664
6720000,6720000,0.017111817,0.020151284,0.00027247908
6740000,6740000,0.01690908,0.019669648,5.5265817e-05
6760000,6760000,0.017523523,0.020093122,0.0003751437
6780000,6780000,0.01623196,0.020243611,-0.00062922656
6800000,6800000,0.016643723,0.020365072,-0.00040459383
6820000,6820000,0.017031815,0.019526338,0.00046765967
6840000,6840000,0.016566457,0.020711705,-9.144111e-05
6856000,6856000,0.016769154,0.019927645,-0.000106788604
6880000,6880000,0.01594346,0.02078273,-0.00029934623
6900000,6900000,0.017830212,0.020606574,-8.331698e-05
6920000,6920000,0.015988955,0.021991733,3.382006e-05
6940000,6940000,0.016630815,0.019711222,0.0001801919
6956000,6956000,0.016856454,0.021023123,-0.00024884017
6980000,6980000,0.016987463,0.019456988,-0.00032585236
6996000,6996000,0.017244358,0.021607887,0.0006559213
7016000,7016000,0.015839493,0.02063877,3.0241092e-06
7040000,7040000,0.01665834,0.019522302,5.2629377e-05
7060000,7060000,0.017600765,0.021079052,-0.00028568186
7080000,7080000,0.017438482,0.020873472,0.00035505727
7100000,7100000,0.016012464,0.020457298,0.0002490689
7120000,7120000,0.016776608,0.020198992,0.00029090754
7140000,7140000,0.015943306,0.021743583,-7.714725e-05
7160000,7160000,0.016883655,0.020869447,0.00026000952
7180000,7180000,0.017840585,0.01969041,-0.00037418446
7196000,7196000,0.0161674,0.019822579,-8.024921e-05
7220000,7220000,0.017683545,0.020742618,-0.0001470367
7240000,7240000,0.016055798,0.021177988,0.00050949195
7260000,7260000,0.016250063,0.02087417,-9.184659e-05
7280000,7280000,0.016237251,0.020373572,-5.1910152e-05
7300000,7300000,0.01614239,0.019509595,-0.00022047479
7316000,7316000,0.017027354,0.019830793,-0.00057775364
7340000,7340000,0.017583003,0.021991145,-0.00028190596
7360000,7360000,0.017831914,0.020103596,0.00019145178
7376000,7376000,0.016841179,0.021491302,-0.00053904636
7396000,7396000,0.016505128,0.020670136,2.3014518e-05
7420000,7420000,0.018011948,0.021518473,-0.0002902733
7436000,7436000,0.017045889,0.020435164,-0.00048434464
7460000,7460000,0.017973766,0.0220816,-9.878272e-05
7480000,7480000,0.016987821,0.020304805,-0.00019073983
7500000,7500000,0.01793189,0.021687035,-8.604887e-05
7516000,7516000,0.017556509,0.0200597,0.00011690385
7540000,7540000,0.017013611,0.020508435,0.0002428401
7560000,7560000,0.016767096,0.021016436,0.00024238678
7576000,7576000,0.018237818,0.021006389,-0.0003577666
7596000,7596000,0.017323984,0.020272512,0.00084447017
7616000,7616000,0.01747951,0.021964222,-0.00014727608
7640000,7640000,0.017199147,0.02082593,4.140148e-05
7660000,7660000,0.016451338,0.019863218,-0.00026661923
7680000,7680000,0.016834524,0.020506328,1.08931445e-05
7700000,7700000,0.017706156,0.02137607,-0.00019539418
7720000,7720000,0.017128613,0.02122246,-0.0003638754
7736000,7736000,0.01716883,0.019492622,1.5761121e-06
7756000,7756000,0.017031135,0.020990739,-0.00043815785
7776000,7776000,0.018249039,0.021465855,-0.0003204045
7796000,7796000,0.017178213,0.020594086,0.0001550274
7816000,7816000,0.016286805,0.02139379,0.00029789115
7840000,7840000,0.016699634,0.019893572,-0.0001646657
7860000,7860000,0.017733254,0.020058637,0.00024121933
7876000,7876000,0.017547278,0.020401131,-0.00027640464
7900000,7900000,0.017316224,0.020588662,0.00065204094
7916000,7916000,0.0171276,0.02178052,0.00039477312
7936000,7936000,0.017366359,0.020893712,4.644813e-05
7956000,7956000,0.017678598,0.020679083,-0.00034988215
7976000,7976000,0.018149652,0.020837145,-0.00014482484
7996000,7996000,0.017062632,0.021177566,0.00016775346
8020000,8020000,0.017543767,0.020328801,0.00047537847
8040000,8040000,0.01742302,0.01993391,0.00024858018
8060000,8060000,0.01652621,0.020074012,0.00018808815
8080000,8080000,0.017724931,0.019729264,0.00034844087
8096000,8096000,0.017314985,0.020415047,0.00020933834
8120000,8120000,0.017378343,0.019817058,0.00026061875
8140000,8140000,0.018152362,0.020454075,-0.00013206294
8160000,8160000,0.01683452,0.02081852,0.00012414153
8180000,8180000,0.017571202,0.020537112,0.00039230948
8200000,8200000,0.017788664,0.019993573,-0.00018058997
8220000,8220000,0.016695594,0.021170849,0.00020000283
8240000,8240000,0.017285528,0.020183608,-0.0002506399
8260000,8260000,0.017324362,0.020367915,0.00063527917
8280000,8280000,0.01746159,0.020140799,0.00027917486
8300000,8300000,0.017918443,0.020408724,-0.00016354844
8316000,8316000,0.018014058,0.019654619,-0.00013211532
8340000,8340000,0.017527232,0.02066534,-1.5014957e-06
8360000,8360000,0.017835205,0.020407774,0.00029087058
8380000,8380000,0.016951831,0.020010939,4.3577747e-06
8400000,8400000,0.016471231,0.020030316,0.00023187583
8416000,8416000,0.017628195,0.020498317,0.00040386786
8440000,8440000,0.017682742,0.019316128,1.8887235e-05
8460000,8460000,0.016627517,0.020496696,-0.00023754872
8480000,8480000,0.01708802,0.020051172,8.7571236e-05
8500000,8500000,0.01741642,0.020646108,0.00024718253
8520000,8520000,0.017356446,0.020273782,-0.00035061484
8540000,8540000,0.017232763,0.02059322,0.00016789662
8560000,8560000,0.016794646,0.019766433,-6.1162216e-05
8580000,8580000,0.017073764,0.020296192,6.91491e-05
8600000,8600000,0.016958954,0.020146625,-0.00031195543
8620000,8620000,0.016660044,0.019641666,-8.300331e-05
8640000,8640000,0.016859917,0.02045319,-0.00041005728
8660000,8660000,0.016601106,0.020600012,0.00024234818
8676000,8676000,0.016868768,0.02116725,0.00035739035
8700000,8700000,0.017017027,0.019684773,6.274162e-05
8716000,8716000,0.016801018,0.019732518,0.00038349684
8736000,8736000,0.016872585,0.020266572,-0.00047048027
8756000,8756000,0.01739702,0.020142691,-8.57397e-05
8776000,8776000,0.016785756,0.019998936,5.0787337e-05
8800000,8800000,0.017496103,0.020117598,0.00039944935
8820000,8820000,0.016361747,0.022139004,0.0001536737
8840000,8840000,0.017775957,0.019047407,0.0004944382
8860000,8860000,0.016468856,0.020702928,7.8984594e-05
8880000,8880000,0.017893951,0.020517888,-3.4764456e-05
8900000,8900000,0.016336115,0.019676594,3.5298617e-05
8920000,8920000,0.01857397,0.019917669,-1.715991e-05
8940000,8940000,0.016551767,0.019658575,0.0002213604
8960000,8960000,0.017118562,0.019609869,-0.00020973435
8980000,8980000,0.016608723,0.020993466,-0.00015272736
8996000,8996000,0.017259255,0.01923579,-0.00017175461
9016000,9016000,0.01751555,0.018973742,0.00017215688
9040000,9040000,0.016670449,0.020940892,-5.9035516e-05
9060000,9060000,0.016925743,0.018990846,0.0002312631
9080000,9080000,0.016608668,0.020363688,9.913123e-05
9096000,9096000,0.017677944,0.01897915,-9.205828e-05
9120000,9120000,0.017102972,0.01989263,-0.00037293564
9140000,9140000,0.017091088,0.021440169,0.0004642712
9160000,9160000,0.016738705,0.020405577,0.0006705305
9180000,9180000,0.016666446,0.0207445,0.0006532709
9200000,9200000,0.01701026,0.019449418,0.00021051987
9220000,9220000,0.016988643,0.020533064,0.00026506674
9240000,9240000,0.016077263,0.02147244,0.00024987417
9260000,9260000,0.016426586,0.019498548,-0.0007405036
9280000,9280000,0.017079288,0.021367464,0.00024949168
9300000,9300000,0.016635623,0.019299673,-0.00017777951
9320000,9320000,0.01684974,0.019898785,-0.00072788395
9336000,9336000,0.016869567,0.020121718,0.00034470792
9360000,9360000,0.01707735,0.020366767,4.745308e-05
9380000,9380000,0.018119995,0.020044468,-0.00034276838
9400000,9400000,0.016888443,0.018361429,-0.00022173734
9420000,9420000,0.01644,0.019831453,-0.00051660097
9436000,9436000,0.016849274,0.019550217,-8.397619e-07
9456000,9456000,0.017209582,0.020074569,-0.00011327169
9476000,9476000,0.017395966,0.020434536,7.852001e-05
9500000,9500000,0.017130427,0.019634422,0.00012594686
9520000,9520000,0.017742606,0.020416878,0.00012478413
9540000,9540000,0.017017636,0.018885957,0.00029362258
9560000,9560000,0.016515492,0.020051794,0.0004437429
9580000,9580000,0.016449133,0.019270426,2.1071162e-05
9600000,9600000,0.016887944,0.020115938,2.8264128e-06
9620000,9620000,0.016967619,0.020454511,-0.00015085815
9640000,9640000,0.01792251,0.018978473,0.00048095567
9660000,9660000,0.016715182,0.020300915,0.0002186235
9680000,9680000,0.01720477,0.01823985,-0.00013623886
9700000,9700000,0.016508762,0.020185646,0.0003183601
9720000,9720000,0.016583284,0.01981926,4.553806e-05
9740000,9740000,0.01652372,0.020055091,-0.00038788444
9760000,9760000,0.017276276,0.01975943,0.00051539624
9776000,9776000,0.016026884,0.019410841,0.0005629027
9800000,9800000,0.01608233,0.019672504,6.2599334e-05
9820000,9820000,0.017223733,0.01885498,0.00029107532
9836000,9836000,0.016496612,0.020464733,0.000558502
9860000,9860000,0.01676607,0.01937817,-5.6830668e-05
9876000,9876000,0.016377484,0.020303892,-0.00012519919
9900000,9900000,0.015576387,0.019978965,0.00030382583
9920000,9920000,0.016990228,0.020398075,0.00016653727
9940000,9940000,0.015112007,0.02006344,7.331886e-05
9956000,9956000,0.01817469,0.019393368,-0.00065453426
9976000,9976000,0.015769545,0.019892897,8.055818e-05
10000000,10000000,0.016555961,0.020041827,-9.8484794e-05
10020000,10020000,0.017427655,0.019684678,-8.881657e-05
10040000,10040000,0.016854484,0.019050492,0.00050555693
10060000,10060000,0.017411318,0.020594072,0.00022475817
10076000,10076000,0.01689832,0.019863136,0.0006326838
10100000,10100000,0.016118763,0.019843964,3.9360293e-05
10116000,10116000,0.016577484,0.02024666,0.00044391459
10136000,10136000,0.016655162,0.019933699,0.00053554535
10160000,10160000,0.017662268,0.02084934,0.00012035223
10180000,10180000,0.016591847,0.018363364,-9.738209e-05
10200000,10200000,0.016243437,0.01918419,2.8171851e-05
10220000,10220000,0.016932417,0.020056449,7.861486e-05
10240000,10240000,0.016356375,0.019626258,0.00039576666
10260000,10260000,0.016723117,0.020147404,0.00011800786
10280000,10280000,0.015501196,0.020816538,0.00047230316
10300000,10300000,0.018271746,0.019245941,-1.5434565e-05
10316000,10316000,0.016866127,0.01944704,0.00054920296
10340000,10340000,0.017453989,0.018634766,0.0003620292
10360000,10360000,0.01623603,0.019825809,3.061226e-05
10380000,10380000,0.01866382,0.01957523,-1.1050282e-05
10400000,10400000,0.017125487,0.020352587,-6.475107e-05
10420000,10420000,0.016381333,0.01947574,0.00037628223
10440000,10440000,0.01693674,0.019470042,-2.6404485e-05
10460000,10460000,0.016838524,0.021110494,-0.0006993564
10480000,10480000,0.016572658,0.01932261,0.00024724018
10500000,10500000,0.017229842,0.018231828,-0.00021869519
10520000,10520000,0.017693533,0.020749865,2.0147889e-05
10540000,10540000,0.016336855,0.01899672,0.00073268433
10560000,10560000,0.015987447,0.019984726,0.00038517197
10580000,10580000,0.016692007,0.020392045,3.7065747e-05
10600000,10600000,0.016659219,0.020662274,0.0003736607
10620000,10620000,0.015842479,0.01943295,-1.6029448e-05
10640000,10640000,0.016562358,0.020454155,0.00030833288
10660000,10660000,0.016060181,0.01882066,0.0002666629
10680000,10680000,0.01757093,0.02045649,0.00043489254
10700000,10700000,0.01622892,0.0197093,0.00025251857
10720000,10720000,0.016097605,0.019897496,0.00072389917
10740000,10740000,0.017125728,0.019118669,1.4923833e-05
10760000,10760000,0.016645532,0.019928606,-0.0001620695
10780000,10780000,0.016751517,0.018173195,-0.00023939238
10800000,10800000,0.01705199,0.020279799,-0.00030963952
10820000,10820000,0.016265538,0.019265065,-0.00036683204
10840000,10840000,0.016435051,0.018813401,1.613901e-05
10860000,10860000,0.016093727,0.020708501,0.0003276769
10880000,10880000,0.016524546,0.020233223,0.00018412137
10900000,10900000,0.015647665,0.01908288,0.0006978681
10920000,10920000,0.016760387,0.019829055,0.0001428125
10940000,10940000,0.016910292,0.02040425,-0.00016381858
10960000,10960000,0.016418716,0.019075051,3.7138914e-05
10976000,10976000,0.016058804,0.020278143,0.00037482582
10996000,10996000,0.01676391,0.020764994,0.00037051353
11016000,11016000,0.016487919,0.019409709,-0.00025844105
11036000,11036000,0.01680131,0.019800909,0.0002695976
11056000,11056000,0.01631085,0.019804485,0.00038093142
11076000,11076000,0.016921218,0.020010462,1.9250718e-05
11100000,11100000,0.016613,0.019600892,-5.1330544e-06
11120000,11120000,0.016760366,0.019776082,0.0006172036
11136000,11136000,0.015140527,0.019406384,0.00025240687
11160000,11160000,0.016433842,0.018926583,4.9286453e-05
11180000,11180000,0.016439267,0.018668778,0.00016106549
11200000,11200000,0.017065244,0.018951131,0.0006357309
11220000,11220000,0.015953612,0.019509804,0.0002602248
11240000,11240000,0.016815526,0.019504772,0.00018172523
11260000,11260000,0.0161112,0.020301454,5.6021945e-05
11280000,11280000,0.016536096,0.018451262,-0.0002870415
11300000,11300000,0.015430559,0.020752482,3.6794332e-05
11320000,11320000,0.016950479,0.018989587,-0.0004515574
11340000,11340000,0.01695445,0.019275889,7.380554e-05
11360000,11360000,0.016206622,0.020968715,3.9171482e-05
11380000,11380000,0.017419055,0.018667826,0.00054900494
11400000,11400000,0.016003579,0.020719526,-0.00024289456
11420000,11420000,0.016659103,0.018801564,1.9753677e-05
11440000,11440000,0.016931612,0.019467482,-0.00014136695
11460000,11460000,0.016573371,0.018931774,-0.00025040755
11480000,11480000,0.016232187,0.018826343,0.00038563207
11500000,11500000,0.016604686,0.018999113,6.744598e-05
11516000,11516000,0.015932178,0.020603979,6.198696e-05
11536000,11536000,0.01738759,0.019215183,0.00024010042
11556000,11556000,0.016362125,0.018888414,0.00023058095
11580000,11580000,0.016167263,0.020181905,0.0002025242
11596000,11596000,0.01639873,0.019584656,-3.8914954e-05
11620000,11620000,0.015784804,0.018091328,0.00023757345
11640000,11640000,0.017550796,0.020702695,0.00016254619
11660000,11660000,0.016398178,0.019063232,-4.460041e-05
11680000,11680000,0.01678337,0.019464035,0.00041336752
11700000,11700000,0.016666519,0.019057844,0.0004171077
11720000,11720000,0.016829723,0.020127604,5.3139385e-05
11740000,11740000,0.016924817,0.019187525,0.00045031254
11756000,11756000,0.016873846,0.018792182,0.00017503886
11780000,11780000,0.016016738,0.017268147,0.0004091005
11800000,11800000,0.017368097,0.019809911,0.0003995826
11820000,11820000,0.01638699,0.019867128,-5.966914e-05
11840000,11840000,0.016503762,0.020036953,0.00016985471
11860000,11860000,0.01595841,0.01883472,0.00027770695
11880000,11880000,0.016361091,0.018755805,0.000259538
11900000,11900000,0.01669683,0.020004533,0.00053584506
11920000,11920000,0.016756661,0.020391174,0.00010953476
11940000,11940000,0.016197924,0.01922193,0.00040564055
11956000,11956000,0.0153025165,0.019065857,0.0003401773
11980000,11980000,0.016728645,0.019790513,0.00043819548
12000000,12000000,0.016252393,0.017653814,0.00019283588
12016000,12016000,0.016392987,0.018934907,0.0003066292
12040000,12040000,0.016456734,0.018956415,0.00023227399
12060000,12060000,0.016346348,0.0183961,-0.0005381504
12080000,12080000,0.01626031,0.019743124,4.5291712e-05
12100000,12100000,0.01629472,0.01850131,-0.00028595884
12120000,12120000,0.016344342,0.017668113,0.0005207855
12140000,12140000,0.016107012,0.019700926,0.00035340487
12160000,12160000,0.015573216,0.018393684,-2.5390438e-05
12180000,12180000,0.016126355,0.019221276,-0.000120862016
12196000,12196000,0.016631506,0.019507993,0.00058376655
12220000,12220000,0.016004028,0.01948715,0.00019188171
12236000,12236000,0.015630454,0.01906813,0.0004533988
12256000,12256000,0.015869828,0.01947312,-0.00025485302
12280000,12280000,0.016313165,0.019497076,0.00027559628
12300000,12300000,0.01635864,0.019629082,0.00012275211
12316000,12316000,0.017134285,0.020304423,0.00033163687
12336000,12336000,0.014918712,0.017315937,-0.0001026423
12356000,12356000,0.016012283,0.020549417,0.00015169724
12380000,12380000,0.016010439,0.018410172,-0.00045022214
12400000,12400000,0.015287461,0.01973734,0.00014077853
12420000,12420000,0.015935747,0.019554619,0.00030039524
12440000,12440000,0.016087767,0.019056335,0.00029773326
12460000,12460000,0.016062604,0.019031212,0.00017208447
12476000,12476000,0.016251044,0.019332027,-0.0007503102
12500000,12500000,0.016813302,0.019129883,5.5212167e-05
12520000,12520000,0.016938902,0.018027227,3.8606267e-05
12540000,12540000,0.015126549,0.019414112,-0.00025829353
12560000,12560000,0.015868329,0.019169774,0.0003755306
12580000,12580000,0.015846964,0.019162007,8.6782304e-05
12600000,12600000,0.01590119,0.018707225,3.5596488e-05
12620000,12620000,0.015941598,0.019438924,0.0007345022
12636000,12636000,0.016455527,0.019422654,-1.3877079e-05
12660000,12660000,0.015901355,0.019559698,0.000388186
12680000,12680000,0.016435463,0.01904724,0.00029811714
12696000,12696000,0.01696428,0.018682951,6.483333e-05
12716000,12716000,0.015804583,0.020700116,-0.0003388014
12736000,12736000,0.016367957,0.018683221,0.00013214527
12756000,12756000,0.01627742,0.01874735,-0.000104312996
12776000,12776000,0.016339298,0.020625345,0.00061452726
12800000,12800000,0.016883729,0.018748838,-8.23501e-05
12820000,12820000,0.016003955,0.019348992,-0.00027800864
12840000,12840000,0.016325941,0.019725462,0.0006331384
12860000,12860000,0.01559275,0.018611286,9.619766e-05
12880000,12880000,0.0155564165,0.019385047,0.00027911572
12900000,12900000,0.015729012,0.019513626,0.00013830278
12920000,12920000,0.016227836,0.018897336,-0.00021795924
12940000,12940000,0.015885226,0.020797338,0.00033606926
12960000,12960000,0.015615924,0.019333888,0.00046361508
12980000,12980000,0.016556565,0.01979827,0.00023118527
12996000,12996000,0.016590482,0.017175023,0.00031084666
13020000,13020000,0.0154742105,0.019828131,-3.6483016e-05
13036000,13036000,0.017215526,0.018699188,0.00012769089
13060000,13060000,0.01572794,0.01853237,-9.697374e-06
13080000,13080000,0.016273357,0.018415138,-0.00021784022
13100000,13100000,0.015762841,0.020616913,0.00026195982
13116000,13116000,0.014954446,0.019083885,-0.00020278986
13140000,13140000,0.016025756,0.02046569,-7.603457e-06
13156000,13156000,0.015510771,0.019735629,-0.00015535652
13180000,13180000,0.0157663,0.019069122,0.00044089928
13200000,13200000,0.015753709,0.018920101,-0.000212329
13220000,13220000,0.015882496,0.019245304,-8.0556194e-05
13240000,13240000,0.015125218,0.019156687,-2.847691e-05
13260000,13260000,0.01592157,0.018288925,-6.2903964e-05
13280000,13280000,0.016185395,0.019849682,0.000332435
13300000,13300000,0.016729578,0.018850243,0.00045171168
13320000,13320000,0.015803,0.019742504,0.00014712104
13336000,13336000,0.01626862,0.019072363,0.0009288488
13360000,13360000,0.0154096335,0.019660583,0.000177952
13380000,13380000,0.016187534,0.01904408,7.775193e-05
13400000,13400000,0.016872302,0.018747281,0.00063746044
13420000,13420000,0.015880557,0.019410742,3.069062e-05
13440000,13440000,0.01540989,0.019701725,0.00022393561
13460000,13460000,0.016663563,0.01871897,0.00040461804
13480000,13480000,0.015732408,0.019952066,-0.00014366848
13500000,13500000,0.015201866,0.019091446,4.1901614e-05
13520000,13520000,0.015338178,0.019788083,-8.735515e-05
13540000,13540000,0.016366968,0.019417578,8.570054e-06
13560000,13560000,0.016440667,0.018138701,-1.366873e-05
13580000,13580000,0.01565319,0.01967771,-0.0004930157
13600000,13600000,0.015083798,0.019026065,0.00027988647
13616000,13616000,0.016048277,0.01973353,-0.00013522022
13636000,13636000,0.015146612,0.019096894,-7.314924e-05
13660000,13660000,0.015225325,0.01770204,0.00077414856
13680000,13680000,0.01552259,0.019272577,-7.6531505e-05
13700000,13700000,0.015384698,0.01884654,0.00052569294
13720000,13720000,0.01663201,0.018833172,8.719923e-05
13740000,13740000,0.015879236,0.019121611,8.2061066e-05
13760000,13760000,0.016748613,0.019671014,0.0001716929
13780000,13780000,0.0157102,0.019086966,0.0006662024
13800000,13800000,0.014520281,0.02013941,0.00022873432
13820000,13820000,0.0132477945,0.019168265,-0.00019161639
13840000,13840000,0.013500081,0.02009272,0.00039714907
13856000,13856000,0.013378273,0.019808916,0.00032112593
13880000,13880000,0.014004987,0.019313494,0.00014884224
13900000,13900000,0.014766158,0.020552004,-0.00011954943
13920000,13920000,0.014821046,0.019732488,-8.823117e-06
13940000,13940000,0.012461394,0.019106433,0.00048471178
13960000,13960000,0.013400426,0.0199782,-0.0003831531
13980000,13980000,0.013642851,0.019180156,2.3948629e-05
14000000,14000000,0.01467349,0.019673284,9.361005e-05
14020000,14020000,0.0115438895,0.020189302,6.05697e-05
14040000,14040000,0.012826668,0.019489113,-0.00017562193
14060000,14060000,0.01447383,0.020059947,0.0002955131
14080000,14080000,0.012639977,0.018924762,-0.0001402978
14100000,14100000,0.0133418385,0.020038616,0.00020441975
14120000,14120000,0.012079371,0.021103358,0.00014225858
14140000,14140000,0.013649695,0.019612351,-3.37858e-05
14160000,14160000,0.011707428,0.020057522,0.00018582448
14176000,14176000,0.012883349,0.020107478,-0.00013553319
14200000,14200000,0.011927792,0.0211937,0.00058638095
14220000,14220000,0.013219315,0.020490883,9.13397e-06
14240000,14240000,0.014364291,0.020829305,0.00039405338
14260000,14260000,0.012078876,0.0195543,0.00060924474
14280000,14280000,0.014446373,0.020469343,0.00030843526
14296000,14296000,0.013123181,0.019465713,0.00032028518
14320000,14320000,0.014378386,0.020627588,0.0005005643
14340000,14340000,0.014347626,0.019193806,0.00032794106
14360000,14360000,0.013616974,0.020780852,0.0004124102
14380000,14380000,0.013728383,0.018374804,0.00013523425
14400000,14400000,0.014317894,0.019706817,0.000247573
14420000,14420000,0.013983744,0.020452913,0.00019210296
14440000,14440000,0.01488274,0.018995825,0.00032431254
14460000,14460000,0.013373877,0.02016585,0.00078233855
14480000,14480000,0.015094051,0.019175556,-7.52133e-05
14500000,14500000,0.013670625,0.020360155,0.0004268522
14520000,14520000,0.013924931,0.01881858,0.00040724222
14540000,14540000,0.013268416,0.020828376,3.2190095e-05
14560000,14560000,0.013917484,0.019942174,-2.3697328e-05
14580000,14580000,0.013908569,0.020480664,0.00041199912
14600000,14600000,0.013842432,0.021117264,0.00010268207
14620000,14620000,0.015107354,0.021720253,0.0005471513
14640000,14640000,0.01619759,0.022319522,-0.00019990676
14660000,14660000,0.016430803,0.022750039,0.00012726334
14680000,14680000,0.017449502,0.02173756,-0.00010677612
14700000,14700000,0.017601265,0.021640016,-0.00030308808
14720000,14720000,0.018425053,0.023681276,0.0003926705
14740000,14740000,0.019047411,0.022576243,0.0001346765
14760000,14760000,0.018588264,0.024580378,-3.3697484e-05
14776000,14776000,0.01943793,0.023026405,0.00036813054
14796000,14796000,0.02073152,0.026053404,0.00033522883
14816000,14816000,0.020501923,0.025495112,-0.00015639316
14840000,14840000,0.02021341,0.025367973,0.0002404171
14860000,14860000,0.020017203,0.026637152,0.00010924599
14880000,14880000,0.022176063,0.027788661,0.0005681675
14896000,14896000,0.022292,0.026924353,0.00023019654
14916000,14916000,0.022424838,0.027819945,4.0358707e-05
14936000,14936000,0.022747172,0.029190216,0.00040650435
14956000,14956000,0.02225571,0.030148683,0.00014986433
14976000,14976000,0.023850102,0.029612387,0.0008095977
15000000,15000000,0.022932878,0.028911913,0.00033983268
15020000,15020000,0.024280112,0.030589977,5.644033e-06
15040000,15040000,0.025103427,0.030933222,-0.00049487414
15060000,15060000,0.025588688,0.03125371,0.00042335538
15080000,15080000,0.026824476,0.030426808,0.00024926904
15096000,15096000,0.027148325,0.030783713,-0.00033255602
15120000,15120000,0.028259667,0.032414645,-0.00012354659
15140000,15140000,0.029634995,0.033275817,0.00048572954
15160000,15160000,0.029191613,0.033080965,0.0003266642
15176000,15176000,0.029548373,0.032971133,0.00020896614
15200000,15200000,0.030204812,0.03358851,0.0010504022
15220000,15220000,0.031028038,0.035439495,0.0004912293
15236000,15236000,0.03158406,0.035940923,0.00026752928
15256000,15256000,0.032335382,0.034975927,0.00023104477
15280000,15280000,0.033749275,0.03610004,-2.9455114e-06
15300000,15300000,0.03298423,0.037043266,0.00035886592
15316000,15316000,0.033477265,0.03663877,0.0005943648
15336000,15336000,0.03370105,0.03740674,0.00057938497
15356000,15356000,0.03464203,0.038409133,0.00032894002
15376000,15376000,0.035917193,0.039380785,0.00042953013
15400000,15400000,0.035084087,0.03891371,-0.00011304029
15416000,15416000,0.035962507,0.039578803,0.0002720477
15436000,15436000,0.03656657,0.040346168,-0.0001090594
15460000,15460000,0.037198126,0.040526796,-9.756209e-05
15480000,15480000,0.03622489,0.04063519,0.0007719611
15500000,15500000,0.03759868,0.04140347,-9.1398484e-05
15520000,15520000,0.038513638,0.041782033,6.39592e-05
15536000,15536000,0.038593244,0.042733792,0.00018781447
15556000,15556000,0.03973726,0.042194262,0.0007628355
15580000,15580000,0.040806092,0.04292129,0.0002884793
15600000,15600000,0.04003857,0.04318847,0.00012362517
15620000,15620000,0.04034093,0.04312258,-0.00033515657
15640000,15640000,0.041127842,0.04261489,0.0004036691
15656000,15656000,0.041501477,0.043224797,0.00024899573
15676000,15676000,0.042995885,0.04427301,0.00014140746
15700000,15700000,0.041534815,0.044662204,0.00017857287
15716000,15716000,0.04285778,0.04468241,-0.00055262004
15736000,15736000,0.04347645,0.045027554,0.00044399095
15756000,15756000,0.043286923,0.04551857,0.000314894
15780000,15780000,0.04406293,0.046882283,0.00034180895
15796000,15796000,0.04449162,0.047198348,0.0005823036
15820000,15820000,0.044834044,0.047859497,0.0004939799
15840000,15840000,0.046307422,0.047651134,0.000201858
15856000,15856000,0.046420217,0.047283437,0.0006580431
15876000,15876000,0.047831718,0.04773248,0.00015722816
15900000,15900000,0.047001828,0.049547054,0.00018882423
15920000,15920000,0.04801163,0.048204903,2.3091918e-05
15940000,15940000,0.047933206,0.049602512,0.00018663137
15960000,15960000,0.048414856,0.04949143,0.0002966921
15976000,15976000,0.047826663,0.049322523,0.0004516157
15996000,15996000,0.049865298,0.05086881,0.0008144554
16020000,16020000,0.05004167,0.050793227,1.5544123e-05
16040000,16040000,0.050630562,0.05132018,0.00037803652
16060000,16060000,0.050695468,0.051454414,0.00010263893
16080000,16080000,0.051751256,0.054188102,0.00071556115
16100000,16100000,0.05158086,0.053581927,0.00021359816
16120000,16120000,0.051504515,0.05404955,0.00043614808
16140000,16140000,0.051396772,0.05443498,0.00048632416
16156000,16156000,0.054456774,0.054112907,4.7789457e-05
16180000,16180000,0.053743046,0.05575392,0.00012833292
16200000,16200000,0.054902554,0.056351658,0.0008096898
16220000,16220000,0.054872748,0.05444461,0.0006934337
16240000,16240000,0.054524574,0.057030577,0.00071239437
16260000,16260000,0.05569117,0.05783628,0.0003711172
16280000,16280000,0.055604976,0.057849545,0.00034439864
16300000,16300000,0.05828946,0.05835618,-9.030868e-05
16316000,16316000,0.05663782,0.05863263,0.00035224858
16340000,16340000,0.0579354,0.059775203,-0.00014487235
16360000,16360000,0.05844782,0.059384983,0.00064087135
16380000,16380000,0.058815785,0.059590258,-8.272812e-05
16400000,16400000,0.059411373,0.06114654,0.00056859205
16420000,16420000,0.060502164,0.061040904,0.00037279673
16440000,16440000,0.060544785,0.06260775,0.00022500427
16460000,16460000,0.061126128,0.061790925,0.00051755994
16476000,16476000,0.0614342,0.062352434,0.00019383774
16496000,16496000,0.061126254,0.062264193,0.0008122891
16520000,16520000,0.062998906,0.06375543,0.0002612298
16540000,16540000,0.06240246,0.06512226,0.00020506012
16560000,16560000,0.063051656,0.06534228,0.00043231976
16580000,16580000,0.06403652,0.06514972,0.00021419377
16600000,16600000,0.065434925,0.06537192,0.0005333496
16620000,16620000,0.06440932,0.065898255,0.00027101167
16640000,16640000,0.06634309,0.06742406,0.00014790513
16656000,16656000,0.06562404,0.06741784,0.00029308
16680000,16680000,0.06545158,0.066235,0.00025631097
16700000,16700000,0.067134514,0.067494206,0.000777219
16720000,16720000,0.06706899,0.06833797,0.00024292684
16740000,16740000,0.06812064,0.06819233,0.000713823
16760000,16760000,0.0685675,0.06878289,0.000231196
16780000,16780000,0.06896788,0.06867502,-3.660994e-05
16800000,16800000,0.06914451,0.06942681,0.00017171622
16820000,16820000,0.07066098,0.07067114,0.00012770164
16836000,16836000,0.07105478,0.07104891,0.0006335862
16860000,16860000,0.07047492,0.07152599,0.00041031546
16880000,16880000,0.07161091,0.071990654,-8.199655e-05
16900000,16900000,0.07170193,0.07233495,0.00041615713
16916000,16916000,0.07174039,0.073070556,0.00040054845
16940000,16940000,0.07333879,0.0750885,0.00031175214
16960000,16960000,0.073953144,0.073749766,0.00048755098
16976000,16976000,0.07403783,0.07384673,0.0008404696
17000000,17000000,0.07513606,0.07477431,0.0005060597
17020000,17020000,0.07544938,0.074759506,-6.5071436e-05
17036000,17036000,0.075704396,0.07674094,0.0007154081
17060000,17060000,0.07674322,0.07701418,0.00013499873
17080000,17080000,0.07696128,0.07667318,0.0004150035
17100000,17100000,0.07702645,0.07790649,0.00018639272
17120000,17120000,0.0772639,0.07686276,0.00027781757
17140000,17140000,0.07915866,0.078254364,0.00050782785
17160000,17160000,0.07924306,0.078613274,0.0005156152
17180000,17180000,0.079516165,0.07968257,0.0004942961
17196000,17196000,0.08074809,0.080051765,-0.00022843841
17220000,17220000,0.08122832,0.07923401,0.00047291658
17236000,17236000,0.08036633,0.08090343,0.000104941224
17260000,17260000,0.07818301,0.08028634,0.0009251372
17280000,17280000,0.075743504,0.08126886,0.00018349256
17300000,17300000,0.06963453,0.082464084,0.00025147918
17320000,17320000,0.06616359,0.08104719,0.0008842495
17340000,17340000,0.06288071,0.078465395,0.00047705256
17360000,17360000,0.05708323,0.07423243,0.0010286093
17380000,17380000,0.053106323,0.070524044,-0.00017435013
17400000,17400000,0.04864819,0.06519643,-0.00034635013
17420000,17420000,0.0422312,0.060399767,-0.000860013
17440000,17440000,0.036614828,0.0528789,-0.0013131998
17460000,17460000,0.030461358,0.04669883,-0.0027860452
17480000,17480000,0.023593973,0.038857173,-0.0036953057
17500000,17500000,0.017208517,0.030314228,-0.004771828
17520000,17520000,0.010181722,0.019757519,-0.0047104284
17540000,17540000,0.001846309,0.009518269,-0.0052862037
17560000,17560000,-0.008104701,-0.00018936698,-0.004001197
17580000,17580000,-0.017428134,-0.0140041625,-0.0041659335
17600000,17600000,-0.021689175,-0.019220585,-0.0026616345
17620000,17620000,-0.02232711,-0.02245021,-0.002334731
17640000,17640000,-0.020138357,-0.022661015,-0.00093014963
17660000,17660000,-0.019585859,-0.02355887,-0.0012732872
17680000,17680000,-0.01627146,-0.019795375,-0.00048820337
17700000,17700000,-0.015512453,-0.019433264,-0.0003877197
17716000,17716000,-0.012479685,-0.017040057,-4.16057e-05
17736000,17736000,-0.009172486,-0.012989806,-0.00058985484
17756000,17756000,-0.0066032596,-0.009289458,-0.0007719469
17776000,17776000,-0.003743859,-0.0042305463,-6.430723e-05
17796000,17796000,-0.0026527834,-0.0029848805,-0.0011784367
17816000,17816000,0.0002816338,0.0038042865,-0.0005849995
17840000,17840000,0.0016689224,0.0062182616,-0.00036928395
17856000,17856000,0.0034094588,0.00952506,-0.0005154324
17880000,17880000,0.0041938005,0.01086663,-0.00011388961
17900000,17900000,0.0038644788,0.011302221,-0.0002849898
17920000,17920000,0.0063714446,0.015341828,-0.00065432687
17940000,17940000,0.005136792,0.013974867,-0.0001175442
17960000,17960000,0.0052514235,0.016720472,-0.0005029443
17980000,17980000,0.004706087,0.013482373,-0.0003895703
18000000,18000000,0.0052493587,0.015681451,-0.00029442803
18020000,18020000,0.003693829,0.011546327,-0.00043314486
18040000,18040000,0.0026116234,0.012624844,-0.00070355716
18056000,18056000,0.003080145,0.011777162,-0.00025207532
18080000,18080000,0.002550494,0.01249946,0.000110529
18100000,18100000,0.0032295755,0.01039844,-2.325412e-05
18120000,18120000,0.0015805764,0.0073207384,-0.00011617475
18140000,18140000,0.0031308732,0.008024534,-0.0006655513
18160000,18160000,-6.411644e-05,0.005671436,0.00018209306
18180000,18180000,0.0014215283,0.005224934,-0.0004305634
18196000,18196000,0.001275482,0.004590717,-0.00052561844
18216000,18216000,5.7444035e-05,0.0038934525,-0.00037160993
18236000,18236000,-0.0014548544,0.0042800256,-0.00015550086
18256000,18256000,-0.001165881,0.003357696,7.229319e-05
18280000,18280000,-0.0012490032,0.0022446066,-3.2261218e-05
18296000,18296000,-5.4681208e-05,0.0038704532,0.0003158569
18320000,18320000,0.00025098643,0.002024154,-4.1462044e-05
18340000,18340000,-0.00059683423,0.0038319565,-0.00051641004
18360000,18360000,0.0011456877,0.0030640643,-0.00016113771
18380000,18380000,0.0020154193,0.0052972063,-0.00064328243
18400000,18400000,0.00092452526,0.0038316366,0.00049241504
18416000,18416000,0.0018261627,0.00401247,-0.0003181812
18440000,18440000,0.0016491767,0.0046038427,-0.00067633745
18456000,18456000,0.0031162046,0.0072445935,-0.00048076734
18480000,18480000,0.002630772,0.0054090717,-0.00035760558
18496000,18496000,0.0013130897,0.006485388,0.00015207061
18520000,18520000,0.0016023121,0.005982863,-9.044427e-05
18540000,18540000,0.0021209784,0.0070501138,0.0005656824
18560000,18560000,0.0019335405,0.007456777,-0.00020094837
18580000,18580000,0.000855734,0.0064583276,0.00025867007
18600000,18600000,0.001730704,0.0059524053,8.2263796e-05
18620000,18620000,0.0013850413,0.00682059,-0.00025017158
18640000,18640000,0.00021602178,0.005821599,-0.0003811799
18660000,18660000,0.0010254885,0.00519365,0.0002505662
18680000,18680000,0.0003901272,0.005739668,-9.574367e-05
18700000,18700000,0.0016241068,0.0047459397,0.00043606956
18720000,18720000,0.00074042915,0.005161621,-0.00017036685
18740000,18740000,-0.00080167834,0.004355911,0.00012806524
18760000,18760000,0.00074962,0.005325813,-0.00018535391
18780000,18780000,0.0011781902,0.006807665,-3.436384e-05
18800000,18800000,0.0012255219,0.004622464,0.00039307342
18820000,18820000,0.0006302291,0.006704107,-4.3387816e-05
18836000,18836000,0.0004473002,0.00366196,0.0002503803
18856000,18856000,0.0006091725,0.003987855,-3.091448e-05
18880000,18880000,0.0010889417,0.004093467,0.0004141261
18896000,18896000,0.00025469513,0.0038767317,0.0008297381
18920000,18920000,0.0008588374,0.0051432815,-0.00015454117
18940000,18940000,0.00038082284,0.0040314263,9.772915e-05
18960000,18960000,0.0009473425,0.0044196825,-8.237312e-05
18976000,18976000,0.0007570668,0.006328573,5.05199e-05
19000000,19000000,0.0014139097,0.0051554004,-0.00030862447
19020000,19020000,0.0007195159,0.004139839,8.386647e-05
19040000,19040000,-0.0008142119,0.0064041144,-0.00036477065
19060000,19060000,-0.0003680948,0.0042264713,-8.443736e-05
19076000,19076000,-0.0011871941,0.0041054655,-5.1663847e-05
19096000,19096000,0.0006713974,0.0053701024,-0.00017849819
19116000,19116000,-0.0002947125,0.004145862,0.00022343072
19136000,19136000,-3.5812118e-05,0.0044676675,0.0006387278
19160000,19160000,-1.9773339e-05,0.004592267,-4.8187874e-05
19180000,19180000,-0.0005242591,0.00480954,7.0518727e-06
19200000,19200000,0.00028582563,0.004896583,0.00018972043
19220000,19220000,0.0007322776,0.004278407,0.00034067966
19240000,19240000,-0.000777817,0.0047290022,0.00015747923
19260000,19260000,0.00053777057,0.004654343,-4.957289e-05
19280000,19280000,0.00018825935,0.004654992,0.00026485458
19300000,19300000,-0.00019804563,0.005902161,0.0005079325
19320000,19320000,0.001172312,0.0054522348,2.5987509e-05
19340000,19340000,0.0017836229,0.005490024,-0.00060252775
19360000,19360000,0.00047644094,0.004686589,0.0004128312
19380000,19380000,0.0015571092,0.00483744,-0.00035815855
19400000,19400000,-0.00057003926,0.0051033925,-0.00023335507
19416000,19416000,0.0009142577,0.0035000597,-0.00025323796
19440000,19440000,-0.0008335031,0.0027758528,-0.00031305666
19460000,19460000,-0.000412084,0.0038919686,-0.0005445252
19480000,19480000,-0.0008291841,0.0032117197,0.000621282
19496000,19496000,0.00056761573,0.0031187278,0.00014537873
19520000,19520000,0.0006930456,0.0028074775,-6.5936765e-06
19540000,19540000,0.00022112377,0.003392656,0.00049469766
19560000,19560000,3.4214463e-06,0.003935918,1.910027e-05
19580000,19580000,0.0004991132,0.0041695354,-0.00016428092
19600000,19600000,0.00021745297,0.004377457,-0.0001732964
19620000,19620000,0.00027331442,0.0037985041,2.7088216e-05
19640000,19640000,-0.0013323224,0.0037418888,-4.737888e-05
19656000,19656000,0.00038329582,0.0038889651,0.00039949748
19680000,19680000,0.00010209624,0.004607736,6.069999e-05
19700000,19700000,0.00038139144,0.0052543133,0.00013151695
19720000,19720000,0.00029262784,0.004270106,-0.00018056238
19740000,19740000,-0.00017747984,0.0044101374,5.275094e-05
19760000,19760000,-0.0004690594,0.0055879876,-0.00045844214
19780000,19780000,-2.5713543e-05,0.004833703,9.583409e-05
19800000,19800000,0.00041050412,0.0039188247,0.00011371298
19816000,19816000,-0.0006728034,0.0051647727,-0.00017578108
19840000,19840000,5.2120828e-05,0.004855391,-0.0006258115
19860000,19860000,0.0004413788,0.0036887203,0.00033166716
19876000,19876000,0.00045263447,0.0017587874,0.0001575557
19900000,19900000,-0.0012710658,0.0026976108,-0.00036242278
19920000,19920000,0.00017757274,0.0028427136,-0.00020634543
19940000,19940000,0.0012007107,0.004022858,-1.4060955e-05
19960000,19960000,-0.00026999332,0.0042241625,0.00026458214
19980000,19980000,-6.397504e-05,0.004794926,-0.0002836964
20000000,20000000,0.0005774725,0.0034289528,-8.758725e-07
20020000,20020000,-0.00222016,0.0028386167,0.00061842834
20036000,20036000,0.00013180502,0.002745393,-0.0005309298
20056000,20056000,-0.0016957526,0.004416027,0.00015778383
20080000,20080000,-3.9423234e-05,0.0042249034,0.00010195544
20096000,20096000,-0.00077572087,0.004546001,-0.00042586273
20120000,20120000,-0.00024691326,0.0037051109,0.00020144656
20140000,20140000,-0.001393164,0.00517642,0.00053925073
20160000,20160000,-0.000901137,0.0055100652,-0.00012033564
20180000,20180000,0.00052050594,0.0029673814,0.00024908673
20196000,20196000,-0.0017345224,0.0030498742,0.00029092288
20220000,20220000,-5.014532e-06,0.0045334487,-0.00011520593
20240000,20240000,-0.00052106165,0.0034015714,-5.9493595e-05
20260000,20260000,-0.00097605644,0.0032764717,-0.00021766502
20280000,20280000,-0.001054473,0.00396576,0.00045697973
20300000,20300000,-0.0009703238,0.0027794146,-0.0036674258
20320000,20320000,-0.00052241026,0.0041729966,-0.00020924694
20340000,20340000,-0.0011012931,0.0040622693,8.9730325e-05
20360000,20360000,-0.0016186812,0.0035584206,0.00051878917
20380000,20380000,-5.4262462e-05,0.0047156247,-2.4556426e-05
20400000,20400000,-0.00072957994,0.004501274,0.00061773305
20420000,20420000,-0.0005980028,0.0036663774,0.0002521684
20436000,20436000,-0.0011249492,0.0036750932,7.1172035e-05
20456000,20456000,0.00019116813,0.0036978493,0.00025433546
20476000,20476000,-3.5294317e-05,0.00433313,-3.438072e-05
20496000,20496000,-8.0614045e-05,0.00478322,-0.00020051471
20516000,20516000,0.00016288964,0.004068789,8.0239e-05
20536000,20536000,0.0010457248,0.0027207716,-0.00015579432
20556000,20556000,0.0007336177,0.005224374,0.00021816009
20580000,20580000,0.0014097947,0.0027165809,-0.0003335757
20600000,20600000,-1.84065e-05,0.0036155519,0.0002948223
20620000,20620000,6.3670435e-05,0.0031133587,0.00027840663
20640000,20640000,-0.0005300457,0.0029203591,0.00035732932
20660000,20660000,-0.001155037,0.0040183747,0.00011702947
20680000,20680000,0.00086314534,0.0030361125,-0.00023340207
20700000,20700000,-0.0011516172,0.002816248,-0.00010506004
20720000,20720000,-9.1271184e-05,0.0023536582,0.0005175397
20740000,20740000,-0.0006059595,0.0027307707,-0.000217398
20760000,20760000,-2.8206501e-05,0.003316591,0.00023386448
20780000,20780000,-0.00048309762,0.002140048,-0.00029470454
20800000,20800000,-0.00083345163,0.002921346,0.00044968986
20820000,20820000,-0.0005655748,0.0034372434,-4.3634634e-05
20840000,20840000,0.00038599985,0.003806838,-9.985114e-05
20860000,20860000,-0.0004085094,0.005113879,0.000908038
20880000,20880000,-0.00025763095,0.0033800886,3.7976264e-05
20900000,20900000,0.00083076,0.004427617,-0.00025441268
20920000,20920000,-0.00036931614,0.004431253,-0.00025277084
20940000,20940000,-0.0008293671,0.004070492,0.00039248634
20960000,20960000,0.00061708584,0.003712963,0.0001844984
20980000,20980000,-0.00021488579,0.0030739391,-0.0009702327
21000000,21000000,-0.00043453206,0.0047448426,-2.537157e-05
21016000,21016000,0.00016785967,0.004549563,0.00033246216
21036000,21036000,0.00094650796,0.0048840465,0.00043701293
21060000,21060000,-0.00046423165,0.004549239,6.02031e-05
21080000,21080000,-9.264643e-05,0.004260855,-9.320227e-05
21100000,21100000,0.000118412805,0.004812973,0.00028878497
21120000,21120000,0.0014468156,0.005694423,0.00058773364
21140000,21140000,-0.00032991462,0.00559224,0.0005933063
21160000,21160000,-0.00010837443,0.004476268,-0.00030611828
21180000,21180000,-0.0010265823,0.002503393,5.788682e-05
21196000,21196000,-0.0017319373,0.0036484145,-0.0001979131
21220000,21220000,-0.0003775121,0.004494725,0.00042325404
21240000,21240000,7.1126444e-05,0.004755954,-0.0004560123
21256000,21256000,0.0005417303,0.0047401474,0.0003461673
21280000,21280000,-0.0005331692,0.004935568,0.00046666036
21300000,21300000,0.0002737696,0.0038707787,-1.35664795e-05
21320000,21320000,-0.0005928995,0.0037732455,0.0004154372
21340000,21340000,-2.280323e-05,0.002204546,-0.00039777035
21356000,21356000,0.00016871614,0.00451132,-0.0006437323
21380000,21380000,-3.6749698e-05,0.0041477703,-0.0006538415
21400000,21400000,0.0008076085,0.0048311586,-0.00079754123
21420000,21420000,-0.0005031827,0.004309404,0.0004296833
21440000,21440000,-0.00031153375,0.0037248242,-0.00022037033
21460000,21460000,-0.00022619963,0.004276097,-4.5976907e-05
21480000,21480000,-0.0010700014,0.0033096732,9.3160575e-05
21500000,21500000,-0.0007193326,0.0040639634,0.00046059373
21520000,21520000,-0.00028978835,0.003295132,0.00024489182
21540000,21540000,-0.0009621469,0.0035152854,0.00039218614
21560000,21560000,-0.0022016466,0.0038152605,0.00018850877
21580000,21580000,-0.00035188493,0.0032892516,0.0010424262
21600000,21600000,-3.8929313e-05,0.00458056,0.00089034013
21620000,21620000,0.00039531334,0.0047785323,0.00054189464
21640000,21640000,-0.00138434,0.0033387009,4.1663097e-05
21660000,21660000,-0.001226331,0.004451698,0.0004651518
21680000,21680000,0.0005539233,0.0038009388,0.00026493717
21700000,21700000,-0.0002348735,0.0035464333,0.0005828935
21720000,21720000,-0.0009063083,0.0039835107,0.00042238215
21740000,21740000,0.00024743198,0.004391893,-5.322293e-05
21760000,21760000,0.0006220775,0.0037026769,0.00021830418
21780000,21780000,0.0012006692,0.0038170782,8.623852e-05
21800000,21800000,-0.0006338505,0.0045894664,-2.9187731e-05
21820000,21820000,-0.00049136474,0.0021890372,-6.238546e-05
21840000,21840000,0.00059608946,0.004220625,-0.0004975018
21860000,21860000,-0.0021959904,0.0047611715,-0.00034082687
21880000,21880000,0.0005228104,0.0035293163,-0.00057489885
21900000,21900000,0.00042948162,0.0047914986,-0.00040541106
21920000,21920000,-0.00018288175,0.005168039,-0.0004419138
21940000,21940000,0.001401976,0.0043898094,-0.00026396598
21960000,21960000,-0.00012175733,0.0036122198,-7.3732386e-05
21980000,21980000,9.9923476e-05,0.0037141722,-0.0006800354
22000000,22000000,-0.000310501,0.0031936106,-0.00064364844
22020000,22020000,0.00037346905,0.0037731247,-0.00070781895
22040000,22040000,0.0011900959,0.0045344615,-0.00015670159
22060000,22060000,0.0005741736,0.0052295886,-0.00046203483
22080000,22080000,9.057648e-05,0.004535987,-0.0006610593
22100000,22100000,0.00033157138,0.0037206232,-0.0012427496
22120000,22120000,-0.00096597034,0.0042913198,-0.0006740239
22136000,22136000,0.0009954026,0.0050219293,-0.00029076613
22160000,22160000,0.0007255733,0.0037812914,-0.00027529072
22180000,22180000,0.00015147627,0.003942815,-0.0006201951
22200000,22200000,-0.00018567727,0.0029824171,-0.00032538566
22216000,22216000,0.00021051665,0.0044880253,0.000504004
22236000,22236000,0.00030851748,0.0036904758,0.0001336736
22256000,22256000,0.0007659512,0.002869129,0.0003662563
22276000,22276000,-0.00012251182,0.0038465085,0.00039687305
22296000,22296000,0.000304146,0.0039374046,-0.00025779952
22316000,22316000,-0.0010992695,0.005384036,-5.7338733e-05
22340000,22340000,0.000727768,0.0039200066,0.00022924127
22360000,22360000,0.0002679919,0.0050953254,0.0006269995
22376000,22376000,0.0003985924,0.003581763,-0.0005640989
22400000,22400000,0.0007883684,0.005627913,-0.00014371221
22420000,22420000,-3.0746145e-05,0.0047259,0.00056813547
22440000,22440000,0.00045689248,0.0044640545,0.0011429775
22460000,22460000,-0.00053037435,0.0048370115,0.00011779979
22480000,22480000,-0.00056005723,0.004668238,0.0002961594
22500000,22500000,-0.0017062274,0.0048436113,0.00010677072
22520000,22520000,0.0011154693,0.0048215776,0.00012204994
22540000,22540000,-2.1707965e-06,0.0043586786,0.00027158958
22560000,22560000,-0.0002697014,0.0038451042,0.00015650093
22580000,22580000,-0.00011081521,0.0049881204,3.72271e-05
22600000,22600000,0.0003394779,0.0038186654,0.0009909559
22616000,22616000,0.00045078603,0.00383658,-0.00024785264
22640000,22640000,-0.0018533124,0.0042642644,-9.99624e-05
22660000,22660000,0.00071971596,0.0028504739,6.048545e-05
22680000,22680000,-0.0003566734,0.005174093,0.00071186654
22700000,22700000,0.0002709226,0.0042161434,0.000247277
22720000,22720000,-0.0012498735,0.005054733,0.00057852676
22740000,22740000,-0.000567061,0.003929449,0.00028772702
22760000,22760000,-4.8073416e-06,0.006668302,8.7975044e-05
22780000,22780000,1.7522136e-05,0.0045359237,0.00028502068
22800000,22800000,-0.0004856597,0.004515663,0.00041128226
22820000,22820000,3.368908e-05,0.0053566834,8.5692576e-05
22840000,22840000,-1.8968785e-05,0.0035763662,-4.0630388e-05
22860000,22860000,-0.00023510514,0.004487007,9.9965146e-05
22880000,22880000,0.00045764688,0.0040091607,-0.00042583502
22900000,22900000,8.509698e-05,0.0030679768,-0.00063005806
22920000,22920000,0.0008160946,0.003610471,-0.00033627352
22940000,22940000,-0.0011356629,0.004548084,-7.1585615e-05
22960000,22960000,0.0007768667,0.0038542042,-0.0006515352
22980000,22980000,6.0090413e-05,0.0029519675,-0.00024527204
23000000,23000000,0.00026268655,0.003333188,-0.00034399654
23020000,23020000,0.0009236838,0.0036369355,0.00010695681
23040000,23040000,0.00016331096,0.0057963915,0.00025961437
23060000,23060000,0.0009782991,0.003368772,-0.0005649191
23080000,23080000,0.0010582282,0.0041363603,0.00014762371
23100000,23100000,0.0010832979,0.004503791,1.8871046e-05
23120000,23120000,0.0011504518,0.0036760147,0.00018545572
23140000,23140000,-3.1485863e-05,0.0044285087,0.0003090768
23160000,23160000,-0.00040778733,0.0049125375,-3.775779e-05
23176000,23176000,-0.0006844788,0.004837816,0.00020504057
23200000,23200000,8.7110566e-05,0.0030034191,-6.598074e-05
23220000,23220000,0.00048333683,0.0040476564,0.00083854434
23240000,23240000,-0.0014219859,0.0052094394,-0.0002513785
23256000,23256000,0.00033347096,0.0038754514,-0.00050979067
23280000,23280000,-8.4270636e-05,0.0057486407,-0.00046040528
23300000,23300000,-0.0009102779,0.0033562437,2.1369246e-05
23320000,23320000,-0.00039377535,0.003821287,-0.0006181873
23340000,23340000,-0.0007742016,0.004444373,-0.00051450013
23360000,23360000,0.00012255344,0.0044125537,-3.268768e-05
23376000,23376000,-0.00042510475,0.004259462,7.160485e-05
23396000,23396000,0.0005253301,0.005290915,9.88924e-05
23420000,23420000,0.0009723082,0.0043024337,-0.00016107778
23440000,23440000,-0.0006417245,0.0042279167,-0.00021953853
23460000,23460000,0.0005921881,0.0050939536,-2.2634673e-05
23480000,23480000,-0.001023485,0.0041057845,-0.00021185311
23500000,23500000,-0.0006533294,0.0035886713,-0.0004793812
23520000,23520000,0.0010829262,0.005310382,-6.6044544e-05
23540000,23540000,-5.4857956e-06,0.0040904884,-0.00061879185
23560000,23560000,0.0012513094,0.004670898,-0.00018900496
23580000,23580000,-0.0006034485,0.0039506587,0.0001406251
23600000,23600000,0.000188725,0.0040861014,-0.00043926426
23620000,23620000,-0.00031103674,0.0043284087,-6.203827e-05
23640000,23640000,-0.00058802415,0.0048802383,-4.0614214e-06
23660000,23660000,-0.0008903977,0.0047649317,-0.00051671016
23676000,23676000,-0.00026014214,0.00286,-0.00044185246
23700000,23700000,-0.00017879056,0.0032250045,0.0006901038
23720000,23720000,0.0009800105,0.003876244,-8.898816e-06
23740000,23740000,0.000390555,0.0051799617,-0.00031808173
23760000,23760000,0.0011438702,0.0036572802,0.00060467166
23776000,23776000,-0.00088638655,0.0043066866,-0.00018502178
23796000,23796000,-0.0007679273,0.0037860076,-0.00038467284
23816000,23816000,-9.807991e-08,0.004624444,3.7870024e-05
23836000,23836000,0.0008025359,0.003800232,6.502225e-05
23856000,23856000,0.0002709505,0.0040119905,-0.0004831511
23876000,23876000,-0.0005854908,0.0038822414,3.918182e-05
23900000,23900000,0.00046341078,0.0037904475,-0.00024089187
23920000,23920000,0.00061906356,0.0043853642,0.00022635685
23940000,23940000,0.00070822326,0.0039223833,0.0003752266
23960000,23960000,0.00045176042,0.0038485443,0.0004726752
23980000,23980000,0.001033406,0.003918366,2.8802682e-05
24000000,24000000,-1.4366611e-05,0.0040811133,0.00020796072
24020000,24020000,0.00072646764,0.0053826906,0.00022998222
24040000,24040000,-0.00049312593,0.0043450864,0.00053281506
24060000,24060000,-0.00089323265,0.0040490166,-0.00031504245
24076000,24076000,0.00020513897,0.0058676205,0.0005544323
24100000,24100000,-0.0007275379,0.0052017164,0.00043838596
24120000,24120000,-0.0002199979,0.004232918,0.00015504278
24136000,24136000,-0.0010920834,0.0044120206,-0.00025046043
24160000,24160000,4.4910095e-05,0.004434039,-4.8984715e-05
24180000,24180000,0.0014071728,0.0054046777,-0.0007366378
24196000,24196000,-0.0015062813,0.0040738564,-0.0002521402
24220000,24220000,-0.0011641504,0.003645807,-0.00033804117
24240000,24240000,-0.00010555389,0.004079444,0.00026792008
24260000,24260000,-3.893819e-05,0.0038368693,9.9862096e-05
24280000,24280000,-0.0014865354,0.0037885264,0.00034903042
24300000,24300000,-0.0013385268,0.0039814827,-1.4079505e-05
24320000,24320000,-0.0003308766,0.004722848,0.00046390563
24340000,24340000,-0.0005818973,0.004528496,9.904943e-05
24360000,24360000,0.0010411477,0.003832153,0.0010629309
24380000,24380000,-0.00026023874,0.0040337685,7.450415e-05
24400000,24400000,2.314552e-05,0.0051242453,0.0004332238
24420000,24420000,0.0011245467,0.004087575,0.00046524932
24440000,24440000,0.0012293758,0.0039574,0.00018441575
24460000,24460000,0.00085067935,0.0050696293,0.0006363064
24480000,24480000,0.00017056603,0.0058165058,9.278332e-05
24500000,24500000,0.00080387923,0.0037658939,0.00024981884
24520000,24520000,-7.703384e-05,0.00461627,-0.00011838766
24540000,24540000,0.00026859995,0.0044259764,7.606102e-05
24560000,24560000,-0.0006395576,0.00538506,0.0005025525
24580000,24580000,-0.00047790256,0.0048610102,0.0005282255
24600000,24600000,-0.0006332507,0.0059044934,0.00039342785
24620000,24620000,-0.00094403425,0.005227729,-0.00011922925
24636000,24636000,0.00041738732,0.0034939733,0.00031909352
