timestamp,timestamp_sample,control_mode_flags,output_tracking_error[0],output_tracking_error[1],output_tracking_error[2],filter_fault_flags,pos_horiz_accuracy,pos_vert_accuracy,mag_test_ratio,vel_test_ratio,pos_test_ratio,hgt_test_ratio,tas_test_ratio,hagl_test_ratio,beta_test_ratio,time_slip,accel_device_id,gyro_device_id,baro_device_id,mag_device_id,gps_check_fail_flags,innovation_check_flags,solution_status_flags,reset_count_vel_ne,reset_count_vel_d,reset_count_pos_ne,reset_count_pod_d,reset_count_quat,pre_flt_fail_innov_heading,pre_flt_fail_innov_vel_horiz,pre_flt_fail_innov_vel_vert,pre_flt_fail_innov_height,pre_flt_fail_mag_field_disturbed,health_flags,timeout_flags
3200000,3120000,13488881664,0.0007547682,0.017667945,0.0014608809,0,14.172738,10.008659,nan,nan,nan,nan,0.0,0.0,0.0,0.0,1310988,1310988,6620172,197388,0,0,128,1,1,1,1,0,0,0,0,0,0,0,0
3208000,3128000,13488881664,0.0006873336,0.0047688293,0.0015482885,0,14.142143,10.0,nan,nan,nan,nan,0.0,0.0,0.0,0.0,1310988,1310988,6620172,197388,0,0,128,1,1,1,1,0,0,0,0,0,0,0,0
3216000,3136000,13488881664,0.00062599336,0.0046765795,0.0015427815,0,14.142143,10.0,nan,nan,nan,nan,0.0,0.0,0.0,0.0,1310988,1310988,6620172,197388,0,0,128,1,1,1,1,0,0,0,0,0,0,0,0
3224000,3144000,13488881664,0.000100323916,0.0011482467,4.0655308e-05,0,14.142143,10.0,nan,nan,nan,nan,0.0,0.0,0.0,0.0,1310988,1310988,6620172,197388,0,0,128,1,1,1,1,0,0,0,0,0,0,0,0
3232000,3152000,13488881664,0.00015552684,0.0011368518,6.874134e-05,0,14.142143,10.0,nan,nan,nan,nan,0.0,0.0,0.0,0.0,1310988,1310988,6620172,197388,0,0,128,1,1,1,1,0,0,0,0,0,0,0,0
3240000,3160000,13488881664,0.00020963703,0.0012141095,9.735422e-05,0,14.142143,10.0,nan,nan,nan,nan,0.0,0.0,0.0,0.0,1310988,1310988,6620172,197388,0,0,128,1,1,1,1,0,0,0,0,0,0,0,0
3248000,3168000,13488881664,0.00026280587,0.0010952565,0.00012573902,0,14.142143,10.0,nan,nan,nan,nan,0.0,0.0,0.0,0.0,1310988,1310988,6620172,197388,0,0,128,1,1,1,1,0,0,0,0,0,0,0,0
3256000,3176000,13488881664,0.00031523404,0.001078579,0.00015394393,0,14.142143,10.0,nan,nan,nan,nan,0.0,0.0,0.0,0.0,1310988,1310988,6620172,197388,0,0,128,1,1,1,1,0,0,0,0,0,0,0,0
3264000,3184000,13488881664,0.00036710605,0.0011064707,0.00018199289,0,14.142143,10.0,nan,nan,nan,nan,0.0,0.0,0.0,0.0,1310988,1310988,6620172,197388,0,0,128,1,1,1,1,0,0,0,0,0,0,0,0
3272000,3192000,13488881664,0.0004142036,0.001105108,0.0002105175,0,14.142143,10.0,nan,nan,nan,nan,0.0,0.0,0.0,0.0,1310988,1310988,6620172,197388,0,0,128,1,1,1,1,0,0,0,0,0,0,0,0
3280000,3200000,13488881664,0.00045581776,0.0011414161,0.00024001575,0,14.142143,10.0,nan,nan,nan,nan,0.0,0.0,0.0,0.0,1310988,1310988,6620172,197388,0,0,128,1,1,1,1,0,0,0,0,0,0,0,0
3288000,3208000,13488881664,0.00049356994,0.0012114538,0.00027107267,0,14.142142,10.0,nan,nan,nan,nan,0.0,0.0,0.0,0.0,1310988,1310988,6620172,197388,0,0,128,1,1,1,1,0,0,0,0,0,0,0,0
3296000,3216000,13488881664,0.0005279004,0.0014323032,0.00030019664,0,14.142142,10.0,nan,nan,nan,nan,0.0,0.0,0.0,0.0,1310988,1310988,6620172,197388,0,0,128,1,1,1,1,0,0,0,0,0,0,0,0
3304000,3224000,13488881664,0.00049687736,0.0014972738,0.00018839298,0,14.142142,10.0,nan,nan,nan,nan,0.0,0.0,0.0,0.0,1310988,1310988,6620172,197388,0,0,128,1,1,1,1,0,0,0,0,0,0,0,0
3312000,3232000,13488881664,0.00049197633,0.0014121087,0.00018216818,0,14.142142,10.0,nan,nan,nan,nan,0.0,0.0,0.0,0.0,1310988,1310988,6620172,197388,0,0,128,1,1,1,1,0,0,0,0,0,0,0,0
3320000,3240000,13488881664,0.00048430832,0.0013302349,0.0001767309,0,14.142142,10.0,nan,nan,nan,nan,0.0,0.0,0.0,0.0,1310988,1310988,6620172,197388,0,0,128,1,1,1,1,0,0,0,0,0,0,0,0
3328000,3248000,13488881664,0.00047386778,0.0012511008,0.00017202302,0,14.142142,10.0,nan,nan,nan,nan,0.0,0.0,0.0,0.0,1310988,1310988,6620172,197388,0,0,128,1,1,1,1,0,0,0,0,0,0,0,0
3336000,3256000,13488881664,0.00046078663,0.0011757546,0.00016816087,0,14.142142,10.0,nan,nan,nan,nan,0.0,0.0,0.0,0.0,1310988,1310988,6620172,197388,0,0,128,1,1,1,1,0,0,0,0,0,0,0,0
3344000,3264000,13488881664,0.00044503933,0.0011036384,0.0001649879,0,14.142142,10.0,nan,nan,nan,nan,0.0,0.0,0.0,0.0,1310988,1310988,6620172,197388,0,0,128,1,1,1,1,0,0,0,0,0,0,0,0
3352000,3272000,13488881664,0.0004267385,0.0010349966,0.00016200732,0,14.142143,10.0,nan,nan,nan,nan,0.0,0.0,0.0,0.0,1310988,1310988,6620172,197388,0,0,128,1,1,1,1,0,0,0,0,0,0,0,0
3360000,3280000,13488881664,0.00040609323,0.00097043073,0.00015982662,0,14.142144,10.0,nan,nan,nan,nan,0.0,0.0,0.0,0.0,1310988,1310988,6620172,197388,0,0,128,1,1,1,1,0,0,0,0,0,0,0,0
3368000,3288000,13488881664,0.0003834092,0.00090925925,0.00015799023,0,14.142145,10.0,nan,nan,nan,nan,0.0,0.0,0.0,0.0,1310988,1310988,6620172,197388,0,0,128,1,1,1,1,0,0,0,0,0,0,0,0
3376000,3296000,13488881664,0.0003587959,0.0008513125,0.00015653043,0,14.142147,10.0,nan,nan,nan,nan,0.0,0.0,0.0,0.0,1310988,1310988,6620172,197388,0,0,128,1,1,1,1,0,0,0,0,0,0,0,0
3384000,3304000,13488881664,0.0003325086,0.0007979457,0.0004808497,0,0.014084185,7.071068,nan,nan,nan,nan,0.0,0.0,0.0,0.0,1310988,1310988,6620172,197388,0,0,128,1,1,1,1,0,0,0,0,0,0,0,0
3392000,3312000,13488881664,0.000307714,0.0007477541,0.00046249008,0,0.014298914,7.071068,nan,nan,nan,nan,0.0,0.0,0.0,0.0,1310988,1310988,6620172,197388,0,0,128,1,1,1,1,0,0,0,0,0,0,0,0
3400000,3320000,13488881664,0.0002831777,0.00070106215,0.00044524632,0,0.014962205,7.071068,nan,nan,nan,nan,0.0,0.0,0.0,0.0,1310988,1310988,6620172,197388,0,0,128,1,1,1,1,0,0,0,0,0,0,0,0
3408000,3328000,13488881664,0.00025918797,0.00065819616,0.000428636,0,0.01607267,7.071068,nan,nan,nan,nan,0.0,0.0,0.0,0.0,1310988,1310988,6620172,197388,0,0,128,1,1,1,1,0,0,0,0,0,0,0,0
3416000,3336000,13488881664,0.0018526039,0.028470822,0.0025836981,0,0.01408681,7.071067,nan,nan,nan,nan,0.0,0.0,0.0,0.0,1310988,1310988,6620172,197388,0,0,128,1,1,1,1,0,0,0,0,0,0,0,0
3424000,3344000,13488881665,0.0018360107,0.028396752,0.0027302091,0,0.0140868835,7.071067,nan,nan,nan,nan,0.0,0.0,0.0,0.0,1310988,1310988,6620172,197388,0,0,128,1,1,1,1,0,0,0,0,0,0,0,0
3432000,3352000,13488881665,0.0018201619,0.028323,0.0028784717,0,0.014086941,7.071067,nan,nan,nan,nan,0.0,0.0,0.0,0.0,1310988,1310988,6620172,197388,0,0,128,1,1,1,1,0,0,0,0,0,0,0,0
3440000,3360000,13488881683,0.0023172144,0.028250141,0.0030284906,0,0.014087189,7.071067,0.01845823,nan,nan,nan,0.0,0.0,0.0,0.0,1310988,1310988,6620172,197388,0,0,129,1,1,1,1,1,0,0,0,0,0,0,0
3448000,3368000,13488881683,0.0023108367,0.028178308,0.0031801073,0,0.0140879005,7.071067,0.01845823,nan,nan,nan,0.0,0.0,0.0,0.0,1310988,1310988,6620172,197388,0,0,129,1,1,1,1,1,0,0,0,0,0,0,0
3456000,3376000,13488881683,0.0023049475,0.028106874,0.0033333597,0,0.014089408,7.071067,0.01845823,nan,nan,nan,0.0,0.0,0.0,0.0,1310988,1310988,6620172,197388,0,0,129,1,1,1,1,1,0,0,0,0,0,0,0
3464000,3384000,13488881683,0.00229986,0.028035685,0.0034881087,0,0.014092242,7.071067,0.01845823,nan,nan,nan,0.0,0.0,0.0,0.0,1310988,1310988,6620172,197388,0,0,129,1,1,1,1,1,0,0,0,0,0,0,0
3472000,3392000,13488881683,0.0022955637,0.02796541,0.0036445323,0,0.014097294,7.071067,0.01845823,nan,nan,nan,0.0,0.0,0.0,0.0,1310988,1310988,6620172,197388,0,0,129,1,1,1,1,1,0,0,0,0,0,0,0
3480000,3400000,13488881683,0.0022918822,0.027895933,0.0038022103,0,0.01410582,7.071067,0.01845823,nan,nan,nan,0.0,0.0,0.0,0.0,1310988,1310988,6620172,197388,0,0,129,1,1,1,1,1,0,0,0,0,0,0,0
3488000,3408000,13488881683,0.002288689,0.02782708,0.003961386,0,0.01411943,7.071067,0.01845823,nan,nan,nan,0.0,0.0,0.0,0.0,1310988,1310988,6620172,197388,0,0,129,1,1,1,1,1,0,0,0,0,0,0,0
3496000,3416000,13488881683,0.0022861022,0.027758585,0.0041218554,0,0.014140085,7.071067,0.01845823,nan,nan,nan,0.0,0.0,0.0,0.0,1310988,1310988,6620172,197388,0,0,129,1,1,1,1,1,0,0,0,0,0,0,0
3504000,3424000,13488881683,0.002220917,0.026883235,0.0042730323,0,0.014170079,7.071067,0.01845823,nan,nan,nan,0.0,0.0,0.0,0.0,1310988,1310988,6620172,197388,0,0,129,1,1,1,1,1,0,0,0,0,0,0,0
3512000,3432000,13488881683,0.0022820353,0.026032498,0.004412071,0,0.014212024,7.071067,0.002289687,nan,nan,nan,0.0,0.0,0.0,0.0,1310988,1310988,6620172,197388,0,0,129,1,1,1,1,1,0,0,0,0,0,0,0
3520000,3440000,13488881683,0.0022252714,0.025205798,0.0045391642,0,0.014268834,7.071067,0.002289687,nan,nan,nan,0.0,0.0,0.0,0.0,1310988,1310988,6620172,197388,0,0,129,1,1,1,1,1,0,0,0,0,0,0,0
3528000,3448000,13488881683,0.0021120694,0.024402509,0.0046546534,0,0.014343689,7.071067,0.002289687,nan,nan,nan,0.0,0.0,0.0,0.0,1310988,1310988,6620172,197388,0,0,129,1,1,1,1,1,0,0,0,0,0,0,0
3536000,3456000,13488881683,0.00199911,0.023622015,0.004759142,0,0.014439984,7.071067,0.002289687,nan,nan,nan,0.0,0.0,0.0,0.0,1310988,1310988,6620172,197388,0,0,129,1,1,1,1,1,0,0,0,0,0,0,0
3544000,3464000,13488881683,0.0018867889,0.02286348,0.004852599,0,0.0145613095,7.071067,0.002289687,nan,nan,nan,0.0,0.0,0.0,0.0,1310988,1310988,6620172,197388,0,0,129,1,1,1,1,1,0,0,0,0,0,0,0
3552000,3472000,13488881683,0.0017746767,0.022126118,0.0049358048,0,0.014711366,7.071067,0.002289687,nan,nan,nan,0.0,0.0,0.0,0.0,1310988,1310988,6620172,197388,0,0,129,1,1,1,1,1,0,0,0,0,0,0,0
3560000,3480000,13488881683,0.0016630417,0.021409199,0.005008645,0,0.014893906,7.071067,0.002289687,nan,nan,nan,0.0,0.0,0.0,0.0,1310988,1310988,6620172,197388,0,0,129,1,1,1,1,1,0,0,0,0,0,0,0
3568000,3488000,13488881683,0.0015516998,0.020712122,0.0050716437,0,0.015112626,7.071067,0.002289687,nan,nan,nan,0.0,0.0,0.0,0.0,1310988,1310988,6620172,197388,0,0,129,1,1,1,1,1,0,0,0,0,0,0,0
3576000,3496000,13488881683,0.001440967,0.02003444,0.0051249405,0,0.015371152,7.071067,0.002289687,nan,nan,nan,0.0,0.0,0.0,0.0,1310988,1310988,6620172,197388,0,0,129,1,1,1,1,1,0,0,0,0,0,0,0
3584000,3504000,13488881683,0.0024292592,0.019375604,0.0051690587,0,0.01567294,7.071067,0.017503435,nan,nan,nan,0.0,0.0,0.0,0.0,1310988,1310988,6620172,197388,0,0,129,1,1,1,1,1,0,0,0,0,0,0,0
3592000,3512000,13488881683,0.0023368034,0.018737439,0.0049703694,0,0.010602418,5.7735023,0.017503435,nan,nan,nan,0.0,0.0,0.0,0.0,1310988,1310988,6620172,197388,0,0,129,1,1,1,1,1,0,0,0,0,0,0,0
3600000,3520000,13488881683,0.0022358554,0.018114222,0.0050051296,0,0.010879039,5.7735023,0.017503435,nan,nan,nan,0.0,0.0,0.0,0.0,1310988,1310988,6620172,197388,0,0,129,1,1,1,1,1,0,0,0,0,0,0,0
3608000,3528000,13488881683,0.0021369546,0.01750813,0.00503152,0,0.011218091,5.7735023,0.017503435,nan,nan,nan,0.0,0.0,0.0,0.0,1310988,1310988,6620172,197388,0,0,129,1,1,1,1,1,0,0,0,0,0,0,0
3616000,3536000,13488881683,0.0020439378,0.016918529,0.0050503965,0,0.011622261,5.7735023,0.017503435,nan,nan,nan,0.0,0.0,0.0,0.0,1310988,1310988,6620172,197388,0,0,129,1,1,1,1,1,0,0,0,0,0,0,0
3624000,3544000,13488881683,0.0019653556,0.016429218,0.0050685112,0,0.011882985,5.7735023,0.017503435,nan,nan,nan,0.0,0.0,0.0,0.0,1310988,1310988,6620172,197388,0,0,129,1,1,1,1,1,0,0,0,0,0,0,0
3632000,3552000,13488881683,0.0018827354,0.015871285,0.005073877,0,0.012371537,5.7735023,0.017503435,nan,nan,nan,0.0,0.0,0.0,0.0,1310988,1310988,6620172,197388,0,0,129,1,1,1,1,1,0,0,0,0,0,0,0
3640000,3560000,13488881683,0.0018053692,0.015328612,0.005072468,0,0.012923469,5.7735023,0.017503435,nan,nan,nan,0.0,0.0,0.0,0.0,1310988,1310988,6620172,197388,0,0,129,1,1,1,1,1,0,0,0,0,0,0,0
3648000,3568000,13488881683,0.0017335996,0.014801036,0.0050651636,0,0.013538725,5.7735023,0.017503435,nan,nan,nan,0.0,0.0,0.0,0.0,1310988,1310988,6620172,197388,0,0,129,1,1,1,1,1,0,0,0,0,0,0,0
3656000,3576000,13488881683,0.0013917837,0.014288044,0.0050518005,0,0.014216802,5.7735023,0.004326777,nan,nan,nan,0.0,0.0,0.0,0.0,1310988,1310988,6620172,197388,0,0,129,1,1,1,1,1,0,0,0,0,0,0,0
3664000,3584000,13488881683,0.0013289114,0.013789527,0.005033481,0,0.014956888,5.7735023,0.004326777,nan,nan,nan,0.0,0.0,0.0,0.0,1310988,1310988,6620172,197388,0,0,129,1,1,1,1,1,0,0,0,0,0,0,0
3672000,3592000,13488881683,0.0012105836,0.013304986,0.005009636,0,0.015757956,5.7735023,0.004326777,nan,nan,nan,0.0,0.0,0.0,0.0,1310988,1310988,6620172,197388,0,0,129,1,1,1,1,1,0,0,0,0,0,0,0
3680000,3600000,13488881683,0.0010963272,0.0128338775,0.0049813404,0,0.016618863,5.7735023,0.004326777,nan,nan,nan,0.0,0.0,0.0,0.0,1310988,1310988,6620172,197388,0,0,129,1,1,1,1,1,0,0,0,0,0,0,0
3688000,3608000,13488881683,0.0009869968,0.01237597,0.004948393,0,0.017538387,5.7735023,0.004326777,nan,nan,nan,0.0,0.0,0.0,0.0,1310988,1310988,6620172,197388,0,0,129,1,1,1,1,1,0,0,0,0,0,0,0
3696000,3616000,13488881683,0.0008826965,0.011930924,0.004911138,0,0.018515313,5.7735023,0.004326777,nan,nan,nan,0.0,0.0,0.0,0.0,1310988,1310988,6620172,197388,0,0,129,1,1,1,1,1,0,0,0,0,0,0,0
3704000,3624000,13488881683,0.0007828914,0.011498495,0.004870335,0,0.019548558,5.7735023,0.004326777,nan,nan,nan,0.0,0.0,0.0,0.0,1310988,1310988,6620172,197388,0,0,129,1,1,1,1,1,0,0,0,0,0,0,0
3712000,3632000,13488881683,0.00068693707,0.011076955,0.004825539,0,0.020637074,5.7735023,0.004326777,nan,nan,nan,0.0,0.0,0.0,0.0,1310988,1310988,6620172,197388,0,0,129,1,1,1,1,1,0,0,0,0,0,0,0
3720000,3640000,13488881683,0.00059535314,0.010667374,0.004777466,0,0.021779904,5.7735023,0.004326777,nan,nan,nan,0.0,0.0,0.0,0.0,1310988,1310988,6620172,197388,0,0,129,1,1,1,1,1,0,0,0,0,0,0,0
3728000,3648000,13488881683,0.0009311724,0.010269838,0.0047259564,0,0.022976154,5.7735023,0.007051646,nan,nan,nan,0.0,0.0,0.0,0.0,1310988,1310988,6620172,197388,0,0,129,1,1,1,1,1,0,0,0,0,0,0,0
3736000,3656000,13488881683,0.00084668567,0.009883368,0.004671534,0,0.024225144,5.7735023,0.007051646,nan,nan,nan,0.0,0.0,0.0,0.0,1310988,1310988,6620172,197388,0,0,129,1,1,1,1,1,0,0,0,0,0,0,0
3744000,3664000,13488881683,0.00077948975,0.00950794,0.004614497,0,0.025526356,5.7735023,0.007051646,nan,nan,nan,0.0,0.0,0.0,0.0,1310988,1310988,6620172,197388,0,0,129,1,1,1,1,1,0,0,0,0,0,0,0
3752000,3672000,13488881683,0.00071548874,0.009143387,0.0045548207,0,0.026879279,5.7735023,0.007051646,nan,nan,nan,0.0,0.0,0.0,0.0,1310988,1310988,6620172,197388,0,0,129,1,1,1,1,1,0,0,0,0,0,0,0
3760000,3680000,13488881683,0.00065694086,0.008789313,0.0044928407,0,0.028283508,5.7735023,0.007051646,nan,nan,nan,0.0,0.0,0.0,0.0,1310988,1310988,6620172,197388,0,0,129,1,1,1,1,1,0,0,0,0,0,0,0
3768000,3688000,13488881683,0.0006042885,0.008445464,0.004428682,0,0.029738735,5.7735033,0.007051646,nan,nan,nan,0.0,0.0,0.0,0.0,1310988,1310988,6620172,197388,0,0,129,1,1,1,1,1,0,0,0,0,0,0,0
3776000,3696000,13488881683,0.00055666134,0.008111635,0.004362535,0,0.031244729,5.773504,0.007051646,nan,nan,nan,0.0,0.0,0.0,0.0,1310988,1310988,6620172,197388,0,0,129,1,1,1,1,1,0,0,0,0,0,0,0
3784000,3704000,13488881683,0.00051408313,0.007787547,0.004294389,0,0.032801334,5.7735047,0.007051646,nan,nan,nan,0.0,0.0,0.0,0.0,1310988,1310988,6620172,197388,0,0,129,1,1,1,1,1,0,0,0,0,0,0,0
3792000,3712000,13488881683,0.0004765816,0.007472956,0.0042247954,0,0.034408547,5.773505,0.007051646,nan,nan,nan,0.0,0.0,0.0,0.0,1310988,1310988,6620172,197388,0,0,129,1,1,1,1,1,0,0,0,0,0,0,0
3800000,3720000,13488881683,0.0008890418,0.007783153,0.0044023436,0,0.013166143,5.000002,0.0049264445,nan,nan,nan,0.0,0.0,0.0,0.0,1310988,1310988,6620172,197388,0,0,129,1,1,1,1,1,0,0,0,0,0,0,0
3808000,3728000,13488881683,0.00086692424,0.0074933674,0.004325192,0,0.013800314,5.0000024,0.0049264445,nan,nan,nan,0.0,0.0,0.0,0.0,1310988,1310988,6620172,197388,0,0,129,1,1,1,1,1,0,0,0,0,0,0,0
3816000,3736000,13488881683,0.00083198055,0.0072125616,0.004247346,0,0.014473748,5.000003,0.0049264445,nan,nan,nan,0.0,0.0,0.0,0.0,1310988,1310988,6620172,197388,0,0,129,1,1,1,1,1,0,0,0,0,0,0,0
3824000,3744000,13488881683,0.0008017916,0.006940914,0.0041687563,0,0.015186228,5.0000033,0.0049264445,nan,nan,nan,0.0,0.0,0.0,0.0,1310988,1310988,6620172,197388,0,0,129,1,1,1,1,1,0,0,0,0,0,0,0
3832000,3752000,13488881683,0.0008335436,0.007048997,0.004145985,0,0.015264792,5.0000033,0.0049264445,nan,nan,nan,0.0,0.0,0.0,0.0,1310988,1310988,6620172,197388,0,0,129,1,1,1,1,1,0,0,0,0,0,0,0
3840000,3760000,13488881683,0.0008137913,0.0067902314,0.004067086,0,0.01598603,5.000004,0.0049264445,nan,nan,nan,0.0,0.0,0.0,0.0,1310988,1310988,6620172,197388,0,0,129,1,1,1,1,1,0,0,0,0,0,0,0
3848000,3768000,13488881683,0.00079734554,0.006540315,0.0039875475,0,0.01674359,5.0000043,0.0049264445,nan,nan,nan,0.0,0.0,0.0,0.0,1310988,1310988,6620172,197388,0,0,129,1,1,1,1,1,0,0,0,0,0,0,0
3856000,3776000,13488881683,0.000783697,0.0062986375,0.0039082486,0,0.017537627,5.000005,0.0049264445,nan,nan,nan,0.0,0.0,0.0,0.0,1310988,1310988,6620172,197388,0,0,129,1,1,1,1,1,0,0,0,0,0,0,0
3864000,3784000,4898947603,0.0007727452,0.0060654,0.0038284021,0,0.018368267,5.0000057,0.0049264445,nan,nan,0.0011260792,0.0,0.0,0.0,0.0,1310988,1310988,6620172,197388,0,0,165,1,1,1,1,1,0,0,0,0,0,0,0
3872000,3792000,4898947603,0.00105263,0.00583861,0.0037484653,0,0.01923564,5.000006,0.022487907,nan,nan,0.0011260792,0.0,0.0,0.0,0.0,1310988,1310988,6620172,197388,0,0,165,1,1,1,1,1,0,0,0,0,0,0,0
3880000,3800000,4898947603,0.0010759509,0.0056218402,0.0036685574,0,0.020140044,5.000007,0.022487907,nan,nan,0.0011260792,0.0,0.0,0.0,0.0,1310988,1310988,6620172,197388,0,0,165,1,1,1,1,1,0,0,0,0,0,0,0
3888000,3808000,4898947603,0.0010918175,0.005404678,0.0035886052,0,0.021081736,5.0000076,0.022487907,nan,nan,0.0011260792,0.0,0.0,0.0,0.0,1310988,1310988,6620172,197388,0,0,165,1,1,1,1,1,0,0,0,0,0,0,0
3896000,3816000,4898947603,0.0011082005,0.0051939273,0.003508694,0,0.022061132,5.0000086,0.022487907,nan,nan,0.0011260792,0.0,0.0,0.0,0.0,1310988,1310988,6620172,197388,0,0,165,1,1,1,1,1,0,0,0,0,0,0,0
3904000,3824000,4898947603,0.0011240324,0.0049889563,0.0034288322,0,0.023078589,5.0000095,0.022487907,nan,nan,0.0011260792,0.0,0.0,0.0,0.0,1310988,1310988,6620172,197388,0,0,165,1,1,1,1,1,0,0,0,0,0,0,0
3912000,3832000,4898947603,0.0011390862,0.0047898707,0.0033492178,0,0.024134578,5.00001,0.022487907,nan,nan,0.0011260792,0.0,0.0,0.0,0.0,1310988,1310988,6620172,197388,0,0,165,1,1,1,1,1,0,0,0,0,0,0,0
3920000,3840000,4898947603,0.0011514968,0.0045930976,0.007541204,0,0.025229564,2.8673136,0.022487907,nan,nan,0.0005178107,0.0,0.0,0.0,0.0,1310988,1310988,6620172,197388,0,0,165,1,1,1,1,1,0,0,0,0,0,0,0
3928000,3848000,4898947603,0.0011634601,0.004401688,0.007283721,0,0.026364006,2.8673143,0.022487907,nan,nan,0.0005178107,0.0,0.0,0.0,0.0,1310988,1310988,6620172,197388,0,0,165,1,1,1,1,1,0,0,0,0,0,0,0
3936000,3856000,4898947603,0.0011752391,0.004215441,0.007035698,0,0.027538512,2.8673148,0.022487907,nan,nan,0.0005178107,0.0,0.0,0.0,0.0,1310988,1310988,6620172,197388,0,0,165,1,1,1,1,1,0,0,0,0,0,0,0
3944000,3864000,4898947603,0.0017915432,0.004032571,0.0067969915,0,0.028753651,2.8673155,0.011742748,nan,nan,0.0005178107,0.0,0.0,0.0,0.0,1310988,1310988,6620172,197388,0,0,165,1,1,1,1,1,0,0,0,0,0,0,0
3952000,3872000,4898947603,0.0018087842,0.0038567728,0.0065670954,0,0.030010035,2.8673162,0.011742748,nan,nan,0.0005178107,0.0,0.0,0.0,0.0,1310988,1310988,6620172,197388,0,0,165,1,1,1,1,1,0,0,0,0,0,0,0
3960000,3880000,4898947603,0.0017623969,0.0036856502,0.0063456227,0,0.031308383,2.867317,0.011742748,nan,nan,0.0005178107,0.0,0.0,0.0,0.0,1310988,1310988,6620172,197388,0,0,165,1,1,1,1,1,0,0,0,0,0,0,0
3968000,3888000,4898947603,0.0017148888,0.0035184128,0.0061323796,0,0.032649312,2.8673182,0.011742748,nan,nan,0.0005178107,0.0,0.0,0.0,0.0,1310988,1310988,6620172,197388,0,0,165,1,1,1,1,1,0,0,0,0,0,0,0
3976000,3896000,4898947603,0.0016660729,0.0033547059,0.04547643,0,0.034033455,2.2180383,0.011742748,nan,nan,0.004359792,0.0,0.0,0.0,0.0,1310988,1310988,6620172,197388,0,0,165,1,1,1,1,1,0,0,0,0,0,0,0
3984000,3904000,4898947603,0.0016159026,0.0031965203,0.044006217,0,0.035461508,2.2180393,0.011742748,nan,nan,0.004359792,0.0,0.0,0.0,0.0,1310988,1310988,6620172,197388,0,0,165,1,1,1,1,1,0,0,0,0,0,0,0
3992000,3912000,4898947603,0.001564525,0.0030425244,0.042580094,0,0.03693419,2.2180402,0.011742748,nan,nan,0.004359792,0.0,0.0,0.0,0.0,1310988,1310988,6620172,197388,0,0,165,1,1,1,1,1,0,0,0,0,0,0,0
4000000,3920000,4898947603,0.0015120854,0.0028926868,0.04119687,0,0.038452156,2.2180412,0.011742748,nan,nan,0.004359792,0.0,0.0,0.0,0.0,1310988,1310988,6620172,197388,0,0,165,1,1,1,1,1,0,0,0,0,0,0,0
4008000,3928000,4898947603,0.0017571255,0.005094617,0.03987366,0,0.013333927,2.2180424,0.011742748,nan,nan,0.004359792,0.0,0.0,0.0,0.0,1310988,1310988,6620172,197388,0,0,165,1,1,1,1,1,0,0,0,0,0,0,0
4016000,3936000,4898947603,0.0021730487,0.0049625267,0.0385729,0,0.013883891,2.2180438,0.010269273,nan,nan,0.004359792,0.0,0.0,0.0,0.0,1310988,1310988,6620172,197388,0,0,165,1,1,1,1,1,0,0,0,0,0,0,0
4024000,3944000,4898947603,0.002121311,0.0048360154,0.037311405,0,0.014476786,2.218045,0.010269273,nan,nan,0.004359792,0.0,0.0,0.0,0.0,1310988,1310988,6620172,197388,0,0,165,1,1,1,1,1,0,0,0,0,0,0,0
4032000,3952000,4898947603,0.002039931,0.004713169,0.03400898,0,0.015113528,1.873514,0.010269273,nan,nan,0.0003505138,0.0,0.0,0.0,0.0,1310988,1310988,6620172,197388,0,0,165,1,1,1,1,1,0,0,0,0,0,0,0
4040000,3960000,4898947603,0.0020631575,0.005195016,0.032816697,0,0.015216191,1.8735148,0.010269273,nan,nan,0.0003505138,0.0,0.0,0.0,0.0,1310988,1310988,6620172,197388,0,0,165,1,1,1,1,1,0,0,0,0,0,0,0
4048000,3968000,4898947603,0.0019899341,0.005067038,0.031727236,0,0.015869888,1.8735162,0.010269273,nan,nan,0.0003505138,0.0,0.0,0.0,0.0,1310988,1310988,6620172,197388,0,0,165,1,1,1,1,1,0,0,0,0,0,0,0
4056000,3976000,4898947603,0.0019204058,0.004944012,0.03067091,0,0.016565952,1.8735179,0.010269273,nan,nan,0.0003505138,0.0,0.0,0.0,0.0,1310988,1310988,6620172,197388,0,0,165,1,1,1,1,1,0,0,0,0,0,0,0
4064000,3984000,4898947603,0.0018545499,0.004826007,0.029646132,0,0.017305192,1.8735195,0.010269273,nan,nan,0.0003505138,0.0,0.0,0.0,0.0,1310988,1310988,6620172,197388,0,0,165,1,1,1,1,1,0,0,0,0,0,0,0
4072000,3992000,4898947603,0.0017924771,0.004712829,0.028652547,0,0.018088266,1.8735214,0.010269273,nan,nan,0.0003505138,0.0,0.0,0.0,0.0,1310988,1310988,6620172,197388,0,0,165,1,1,1,1,1,0,0,0,0,0,0,0
4080000,4000000,4898947603,0.0017343807,0.004604755,0.027688924,0,0.01891575,1.8735234,0.010269273,nan,nan,0.0003505138,0.0,0.0,0.0,0.0,1310988,1310988,6620172,197388,0,0,165,1,1,1,1,1,0,0,0,0,0,0,0
4088000,4008000,4898947603,0.0020875654,0.004499203,0.04012181,0,0.019788211,1.6517648,0.0098838825,nan,nan,0.0030266277,0.0,0.0,0.0,0.0,1310988,1310988,6620172,197388,0,0,165,1,1,1,1,1,0,0,0,0,0,0,0
4096000,4016000,4898947603,0.002003553,0.004394989,0.038785484,0,0.020706175,1.6517668,0.0098838825,nan,nan,0.0030266277,0.0,0.0,0.0,0.0,1310988,1310988,6620172,197388,0,0,165,1,1,1,1,1,0,0,0,0,0,0,0
4104000,4024000,4898947603,0.0018984362,0.004291513,0.037489478,0,0.021670049,1.651769,0.0098838825,nan,nan,0.0030266277,0.0,0.0,0.0,0.0,1310988,1310988,6620172,197388,0,0,165,1,1,1,1,1,0,0,0,0,0,0,0
4112000,4032000,4898947603,0.0017957574,0.004189565,0.03623187,0,0.022680286,1.6517714,0.0098838825,nan,nan,0.0030266277,0.0,0.0,0.0,0.0,1310988,1310988,6620172,197388,0,0,165,1,1,1,1,1,0,0,0,0,0,0,0
4120000,4040000,4898947603,0.0016972505,0.0040887436,0.035011712,0,0.023737399,1.6517739,0.0098838825,nan,nan,0.0030266277,0.0,0.0,0.0,0.0,1310988,1310988,6620172,197388,0,0,165,1,1,1,1,1,0,0,0,0,0,0,0
4128000,4048000,4898947603,0.0015951645,0.0039883656,0.033828445,0,0.024841772,1.6517767,0.0098838825,nan,nan,0.0030266277,0.0,0.0,0.0,0.0,1310988,1310988,6620172,197388,0,0,165,1,1,1,1,1,0,0,0,0,0,0,0
4136000,4056000,4898947603,0.0014967017,0.0038891218,0.032680538,0,0.025993917,1.6517797,0.0098838825,nan,nan,0.0030266277,0.0,0.0,0.0,0.0,1310988,1310988,6620172,197388,0,0,165,1,1,1,1,1,0,0,0,0,0,0,0
4144000,4064000,4898947603,0.0014016858,0.0037904866,0.03156706,0,0.027194317,1.6517828,0.0098838825,nan,nan,0.0030266277,0.0,0.0,0.0,0.0,1310988,1310988,6620172,197388,0,0,165,1,1,1,1,1,0,0,0,0,0,0,0
4152000,4072000,4898947603,0.001310289,0.0036923152,0.026049325,0,0.028443454,1.4937887,0.0098838825,nan,nan,0.0012605333,0.0,0.0,0.0,0.0,1310988,1310988,6620172,197388,0,0,165,1,1,1,1,1,0,0,0,0,0,0,0
4160000,4080000,4898947603,0.00093506527,0.0035959948,0.025144618,0,0.029741643,1.493792,0.007238508,nan,nan,0.0012605333,0.0,0.0,0.0,0.0,1310988,1310988,6620172,197388,0,0,165,1,1,1,1,1,0,0,0,0,0,0,0
4168000,4088000,4898947603,0.00084915815,0.0034981412,0.0242674,0,0.031089388,1.4937954,0.007238508,nan,nan,0.0012605333,0.0,0.0,0.0,0.0,1310988,1310988,6620172,197388,0,0,165,1,1,1,1,1,0,0,0,0,0,0,0
4176000,4096000,4898947603,0.0007475058,0.0034007123,0.023416672,0,0.032487225,1.4937991,0.007238508,nan,nan,0.0012605333,0.0,0.0,0.0,0.0,1310988,1310988,6620172,197388,0,0,165,1,1,1,1,1,0,0,0,0,0,0,0
4184000,4104000,4898947603,0.0006511127,0.00330376,0.02259174,0,0.033935506,1.493803,0.007238508,nan,nan,0.0012605333,0.0,0.0,0.0,0.0,1310988,1310988,6620172,197388,0,0,165,1,1,1,1,1,0,0,0,0,0,0,0
4192000,4112000,4898947603,0.0005611443,0.0032081837,0.02179178,0,0.035434846,1.4938072,0.007238508,nan,nan,0.0012605333,0.0,0.0,0.0,0.0,1310988,1310988,6620172,197388,0,0,165,1,1,1,1,1,0,0,0,0,0,0,0
4200000,4120000,4898947603,0.00047782692,0.0031133192,0.021016235,0,0.036985666,1.4938116,0.007238508,nan,nan,0.0012605333,0.0,0.0,0.0,0.0,1310988,1310988,6620172,197388,0,0,165,1,1,1,1,1,0,0,0,0,0,0,0
4208000,4128000,4898947603,0.00040150544,0.0030191764,0.011342961,0,0.03858855,1.373911,0.007238508,nan,nan,0.0030538563,0.0,0.0,0.0,0.0,1310988,1310988,6620172,197388,0,0,165,1,1,1,1,1,0,0,0,0,0,0,0
4216000,4136000,4898947603,0.0013436887,0.005776522,0.010984726,0,0.013342295,1.3739157,0.007238508,nan,nan,0.0030538563,0.0,0.0,0.0,0.0,1310988,1310988,6620172,197388,0,0,165,1,1,1,1,1,0,0,0,0,0,0,0
4224000,4144000,4898947603,0.0013087785,0.0056648944,0.010560589,0,0.013923554,1.3739204,0.007238508,nan,nan,0.0030538563,0.0,0.0,0.0,0.0,1310988,1310988,6620172,197388,0,0,165,1,1,1,1,1,0,0,0,0,0,0,0
4232000,4152000,4898947603,0.001304227,0.005556305,0.010150005,0,0.0145522235,1.3739256,0.005020984,nan,nan,0.0030538563,0.0,0.0,0.0,0.0,1310988,1310988,6620172,197388,0,0,165,1,1,1,1,1,0,0,0,0,0,0,0
4240000,4160000,4898947603,0.001292199,0.0054493602,0.009752581,0,0.015228312,1.3739309,0.005020984,nan,nan,0.0030538563,0.0,0.0,0.0,0.0,1310988,1310988,6620172,197388,0,0,165,1,1,1,1,1,0,0,0,0,0,0,0
4248000,4168000,4898947603,0.0013804814,0.005594018,0.009122763,0,0.015276269,1.3739295,0.005020984,nan,nan,0.0030538563,0.0,0.0,0.0,0.0,1310988,1310988,6620172,197388,0,0,165,1,1,1,1,1,0,0,0,0,0,0,0
4256000,4176000,4898947603,0.0013706982,0.0054722275,0.011358954,0,0.015962187,1.2789243,0.005020984,nan,nan,0.007875708,0.0,0.0,0.0,0.0,1310988,1310988,6620172,197388,0,0,165,1,1,1,1,1,0,0,0,0,0,0,0
4264000,4184000,4898947603,0.0013631555,0.005352144,0.011093688,0,0.016691413,1.2789296,0.005020984,nan,nan,0.007875708,0.0,0.0,0.0,0.0,1310988,1310988,6620172,197388,0,0,165,1,1,1,1,1,0,0,0,0,0,0,0
4272000,4192000,4898947603,0.0013574167,0.0052364916,0.010835275,0,0.01746387,1.2789351,0.005020984,nan,nan,0.007875708,0.0,0.0,0.0,0.0,1310988,1310988,6620172,197388,0,0,165,1,1,1,1,1,0,0,0,0,0,0,0
4280000,4200000,4898947603,0.001353266,0.005123898,0.010583793,0,0.018279528,1.2789409,0.005020984,nan,nan,0.007875708,0.0,0.0,0.0,0.0,1310988,1310988,6620172,197388,0,0,165,1,1,1,1,1,0,0,0,0,0,0,0
4288000,4208000,4898947603,0.0013503851,0.005014415,0.010338344,0,0.019138182,1.2789471,0.005020984,nan,nan,0.007875708,0.0,0.0,0.0,0.0,1310988,1310988,6620172,197388,0,0,165,1,1,1,1,1,0,0,0,0,0,0,0
4296000,4216000,4898947603,0.0013487244,0.004909247,0.010099385,0,0.020039711,1.2789536,0.005020984,nan,nan,0.007875708,0.0,0.0,0.0,0.0,1310988,1310988,6620172,197388,0,0,165,1,1,1,1,1,0,0,0,0,0,0,0
4304000,4224000,4898947603,0.0012026869,0.0048081223,0.009866478,0,0.020984063,1.2789603,0.009511838,nan,nan,0.007875708,0.0,0.0,0.0,0.0,1310988,1310988,6620172,197388,0,0,165,1,1,1,1,1,0,0,0,0,0,0,0
4312000,4232000,4898947603,0.001139041,0.0047079707,0.009639317,0,0.021971054,1.2789674,0.009511838,nan,nan,0.007875708,0.0,0.0,0.0,0.0,1310988,1310988,6620172,197388,0,0,165,1,1,1,1,1,0,0,0,0,0,0,0
4320000,4240000,4898947603,0.0010770672,0.0046066223,0.0017233783,0,0.023000697,1.201282,0.009511838,nan,nan,0.0041641514,0.0,0.0,0.0,0.0,1310988,1310988,6620172,197388,0,0,165,1,1,1,1,1,0,0,0,0,0,0,0
4328000,4248000,4898947603,0.0010166657,0.004504514,0.0017156941,0,0.024072861,1.2012893,0.009511838,nan,nan,0.0041641514,0.0,0.0,0.0,0.0,1310988,1310988,6620172,197388,0,0,165,1,1,1,1,1,0,0,0,0,0,0,0
4336000,4256000,4898947603,0.00095144846,0.004402773,0.0017102552,0,0.025187513,1.2012969,0.009511838,nan,nan,0.0041641514,0.0,0.0,0.0,0.0,1310988,1310988,6620172,197388,0,0,165,1,1,1,1,1,0,0,0,0,0,0,0
4344000,4264000,4898947603,0.0008878023,0.0043001254,0.0017067728,0,0.026344657,1.201305,0.009511838,nan,nan,0.0041641514,0.0,0.0,0.0,0.0,1310988,1310988,6620172,197388,0,0,165,1,1,1,1,1,0,0,0,0,0,0,0
4352000,4272000,4898947603,0.00082581944,0.0041972958,0.0017050873,0,0.027544286,1.2013135,0.009511838,nan,nan,0.0041641514,0.0,0.0,0.0,0.0,1310988,1310988,6620172,197388,0,0,165,1,1,1,1,1,0,0,0,0,0,0,0
4360000,4280000,4898947603,0.0007656835,0.004093888,0.0017042657,0,0.028786404,1.2013223,0.009511838,nan,nan,0.0041641514,0.0,0.0,0.0,0.0,1310988,1310988,6620172,197388,0,0,165,1,1,1,1,1,0,0,0,0,0,0,0
4368000,4288000,4898947603,0.0007075589,0.0039900863,0.0017047328,0,0.030071156,1.2013315,0.009511838,nan,nan,0.0041641514,0.0,0.0,0.0,0.0,1310988,1310988,6620172,197388,0,0,165,1,1,1,1,1,0,0,0,0,0,0,0
4376000,4296000,4898947603,0.0006652704,0.0038855916,0.0016431265,0,0.03139863,1.13627,0.00089937093,nan,nan,0.00011209994,0.0,0.0,0.0,0.0,1310988,1310988,6620172,197388,0,0,165,1,1,1,1,1,0,0,0,0,0,0,0
4384000,4304000,4898947603,0.00061541103,0.003781037,0.0016393841,0,0.03276891,1.1362795,0.00089937093,nan,nan,0.00011209994,0.0,0.0,0.0,0.0,1310988,1310988,6620172,197388,0,0,165,1,1,1,1,1,0,0,0,0,0,0,0
4392000,4312000,4898947603,0.0005606023,0.003676763,0.0016368137,0,0.034182142,1.1362895,0.00089937093,nan,nan,0.00011209994,0.0,0.0,0.0,0.0,1310988,1310988,6620172,197388,0,0,165,1,1,1,1,1,0,0,0,0,0,0,0
4400000,4320000,4898947603,0.00050976215,0.003573106,0.0016351512,0,0.035638526,1.1362997,0.00089937093,nan,nan,0.00011209994,0.0,0.0,0.0,0.0,1310988,1310988,6620172,197388,0,0,165,1,1,1,1,1,0,0,0,0,0,0,0
4408000,4328000,4898947603,0.0004625324,0.0034697857,0.001634175,0,0.037138324,1.1363106,0.00089937093,nan,nan,0.00011209994,0.0,0.0,0.0,0.0,1310988,1310988,6620172,197388,0,0,165,1,1,1,1,1,0,0,0,0,0,0,0
4416000,4336000,4898947603,0.0004189604,0.0033674326,0.0016335837,0,0.038681682,1.1363218,0.00089937093,nan,nan,0.00011209994,0.0,0.0,0.0,0.0,1310988,1310988,6620172,197388,0,0,165,1,1,1,1,1,0,0,0,0,0,0,0
4424000,4344000,4898947603,0.000981118,0.005213899,0.0020178752,0,0.013343196,1.1363335,0.00089937093,nan,nan,0.00011209994,0.0,0.0,0.0,0.0,1310988,1310988,6620172,197388,0,0,165,1,1,1,1,1,0,0,0,0,0,0,0
4432000,4352000,4898947603,0.0009435779,0.005089085,0.0020155988,0,0.013894252,1.1363456,0.00089937093,nan,nan,0.00011209994,0.0,0.0,0.0,0.0,1310988,1310988,6620172,197388,0,0,165,1,1,1,1,1,0,0,0,0,0,0,0
4440000,4360000,4898947603,0.0009089126,0.004965561,0.003855691,0,0.01448097,1.080819,0.00089937093,nan,nan,0.0014725983,0.0,0.0,0.0,0.0,1310988,1310988,6620172,197388,0,0,165,1,1,1,1,1,0,0,0,0,0,0,0
4448000,4368000,4898947603,0.0010688066,0.0048445733,0.003810249,0,0.015103033,1.0808315,0.008317866,nan,nan,0.0014725983,0.0,0.0,0.0,0.0,1310988,1310988,6620172,197388,0,0,165,1,1,1,1,1,0,0,0,0,0,0,0
4456000,4376000,4898947603,0.0010818458,0.004775957,0.004186279,0,0.015183879,1.0808158,0.008317866,nan,nan,0.0014725983,0.0,0.0,0.0,0.0,1310988,1310988,6620172,197388,0,0,165,1,1,1,1,1,0,0,0,0,0,0,0
4464000,4384000,4898947603,0.0010564523,0.0046316334,0.004141488,0,0.015816148,1.0808274,0.008317866,nan,nan,0.0014725983,0.0,0.0,0.0,0.0,1310988,1310988,6620172,197388,0,0,165,1,1,1,1,1,0,0,0,0,0,0,0
4472000,4392000,4898947603,0.0010327997,0.004491005,0.0040968014,0,0.016480865,1.0808394,0.008317866,nan,nan,0.0014725983,0.0,0.0,0.0,0.0,1310988,1310988,6620172,197388,0,0,165,1,1,1,1,1,0,0,0,0,0,0,0
4480000,4400000,4898947603,0.0010116453,0.0043542474,0.004052594,0,0.01717778,1.0808519,0.008317866,nan,nan,0.0014725983,0.0,0.0,0.0,0.0,1310988,1310988,6620172,197388,0,0,165,1,1,1,1,1,0,0,0,0,0,0,0
4488000,4408000,4898947603,0.0009926405,0.0042213527,0.0040087253,0,0.017906694,1.0808648,0.008317866,nan,nan,0.0014725983,0.0,0.0,0.0,0.0,1310988,1310988,6620172,197388,0,0,165,1,1,1,1,1,0,0,0,0,0,0,0
4496000,4416000,4898947603,0.0009759677,0.004092478,0.0036943455,0,0.018667359,1.0327522,0.008317866,nan,nan,0.00018969175,0.0,0.0,0.0,0.0,1310988,1310988,6620172,197388,0,0,165,1,1,1,1,1,0,0,0,0,0,0,0
4504000,4424000,4898947603,0.0009612263,0.0039679497,0.0036597662,0,0.019459592,1.0327654,0.008317866,nan,nan,0.00018969175,0.0,0.0,0.0,0.0,1310988,1310988,6620172,197388,0,0,165,1,1,1,1,1,0,0,0,0,0,0,0
4512000,4432000,4898947603,0.0009178725,0.0038508233,0.003624573,0,0.020283109,1.0327792,0.008317866,nan,nan,0.00018969175,0.0,0.0,0.0,0.0,1310988,1310988,6620172,197388,0,0,165,1,1,1,1,1,0,0,0,0,0,0,0
4520000,4440000,4898947603,0.00076008006,0.0037351751,0.003589763,0,0.021137763,1.0327935,0.0040465225,nan,nan,0.00018969175,0.0,0.0,0.0,0.0,1310988,1310988,6620172,197388,0,0,165,1,1,1,1,1,0,0,0,0,0,0,0
4528000,4448000,4898947603,0.00071693107,0.0036203747,0.003554684,0,0.022023479,1.0328083,0.0040465225,nan,nan,0.00018969175,0.0,0.0,0.0,0.0,1310988,1310988,6620172,197388,0,0,165,1,1,1,1,1,0,0,0,0,0,0,0
4536000,4456000,4898947603,0.00066451385,0.0035071832,0.0035199223,0,0.022940144,1.0328237,0.0040465225,nan,nan,0.00018969175,0.0,0.0,0.0,0.0,1310988,1310988,6620172,197388,0,0,165,1,1,1,1,1,0,0,0,0,0,0,0
4544000,4464000,4898947603,0.0006111126,0.0033960354,0.008686003,0,0.023887575,0.99060756,0.0040465225,nan,nan,0.0037148406,0.0,0.0,0.0,0.0,1310988,1310988,6620172,197388,0,0,165,1,1,1,1,1,0,0,0,0,0,0,0
4552000,4472000,4898947603,0.0005592154,0.0032868253,0.008483262,0,0.02486571,0.9906233,0.0040465225,nan,nan,0.0037148406,0.0,0.0,0.0,0.0,1310988,1310988,6620172,197388,0,0,165,1,1,1,1,1,0,0,0,0,0,0,0
4560000,4480000,4898947603,0.00050876976,0.0031798992,0.008285316,0,0.025874566,0.9906396,0.0040465225,nan,nan,0.0037148406,0.0,0.0,0.0,0.0,1310988,1310988,6620172,197388,0,0,165,1,1,1,1,1,0,0,0,0,0,0,0
4568000,4488000,4898947603,0.00045975315,0.0030753461,0.0080916,0,0.026914032,0.99065655,0.0040465225,nan,nan,0.0037148406,0.0,0.0,0.0,0.0,1310988,1310988,6620172,197388,0,0,165,1,1,1,1,1,0,0,0,0,0,0,0
4576000,4496000,4898947603,0.00041208445,0.0029732212,0.007902279,0,0.027984088,0.990674,0.0040465225,nan,nan,0.0037148406,0.0,0.0,0.0,0.0,1310988,1310988,6620172,197388,0,0,165,1,1,1,1,1,0,0,0,0,0,0,0
4584000,4504000,4898947603,0.00036583978,0.0028733383,0.0077175708,0,0.029084781,0.99069214,0.0040465225,nan,nan,0.0037148406,0.0,0.0,0.0,0.0,1310988,1310988,6620172,197388,0,0,165,1,1,1,1,1,0,0,0,0,0,0,0
4592000,4512000,4898947603,0.0003158154,0.0027763708,0.007536763,0,0.030216077,0.9907108,0.0027723669,nan,nan,0.0037148406,0.0,0.0,0.0,0.0,1310988,1310988,6620172,197388,0,0,165,1,1,1,1,1,0,0,0,0,0,0,0
4600000,4520000,4898947603,0.0002892734,0.0026818542,0.007360202,0,0.03137801,0.9907301,0.0027723669,nan,nan,0.0037148406,0.0,0.0,0.0,0.0,1310988,1310988,6620172,197388,0,0,165,1,1,1,1,1,0,0,0,0,0,0,0
4608000,4528000,4898947603,0.00026518284,0.0025874777,0.012166551,0,0.03257067,0.95329255,0.0027723669,nan,nan,0.0037287036,0.0,0.0,0.0,0.0,1310988,1310988,6620172,197388,0,0,165,1,1,1,1,1,0,0,0,0,0,0,0
4616000,4536000,4898947603,0.0002462054,0.002499821,0.011837805,0,0.033794135,0.95331234,0.0027723669,nan,nan,0.0037287036,0.0,0.0,0.0,0.0,1310988,1310988,6620172,197388,0,0,165,1,1,1,1,1,0,0,0,0,0,0,0
4624000,4544000,4898947603,0.0002317013,0.0024157963,0.011517618,0,0.03504851,0.9533327,0.0027723669,nan,nan,0.0037287036,0.0,0.0,0.0,0.0,1310988,1310988,6620172,197388,0,0,165,1,1,1,1,1,0,0,0,0,0,0,0
4632000,4552000,4898947603,0.00055467145,0.0035484408,0.011241365,0,0.013179026,0.9533538,0.0027723669,nan,nan,0.0037287036,0.0,0.0,0.0,0.0,1310988,1310988,6620172,197388,0,0,165,1,1,1,1,1,0,0,0,0,0,0,0
4640000,4560000,4898947603,0.0005390706,0.0034450027,0.010937928,0,0.013663527,0.9533756,0.0027723669,nan,nan,0.0037287036,0.0,0.0,0.0,0.0,1310988,1310988,6620172,197388,0,0,165,1,1,1,1,1,0,0,0,0,0,0,0
4648000,4568000,4898947603,0.0005254845,0.003345604,0.010642408,0,0.0141731715,0.953398,0.0027723669,nan,nan,0.0037287036,0.0,0.0,0.0,0.0,1310988,1310988,6620172,197388,0,0,165,1,1,1,1,1,0,0,0,0,0,0,0
4656000,4576000,4898947603,0.0005137278,0.003249814,0.010354414,0,0.014707749,0.95342106,0.0027723669,nan,nan,0.0037287036,0.0,0.0,0.0,0.0,1310988,1310988,6620172,197388,0,0,165,1,1,1,1,1,0,0,0,0,0,0,0
4664000,4584000,4898947603,0.000529909,0.003215329,0.014448884,0,0.01484494,0.91984725,0.0067465794,nan,nan,0.0029830497,0.0,0.0,0.0,0.0,1310988,1310988,6620172,197388,0,0,165,1,1,1,1,1,0,0,0,0,0,0,0
4672000,4592000,4898947603,0.0005172736,0.0030760248,0.014051909,0,0.015392277,0.919867,0.0067465794,nan,nan,0.0029830497,0.0,0.0,0.0,0.0,1310988,1310988,6620172,197388,0,0,165,1,1,1,1,1,0,0,0,0,0,0,0
4680000,4600000,4898947603,0.0005091094,0.002941524,0.013665428,0,0.01596296,0.9198873,0.0067465794,nan,nan,0.0029830497,0.0,0.0,0.0,0.0,1310988,1310988,6620172,197388,0,0,165,1,1,1,1,1,0,0,0,0,0,0,0
4688000,4608000,4898947603,0.0005031671,0.0028114582,0.01328964,0,0.016556803,0.9199082,0.0067465794,nan,nan,0.0029830497,0.0,0.0,0.0,0.0,1310988,1310988,6620172,197388,0,0,165,1,1,1,1,1,0,0,0,0,0,0,0
4696000,4616000,4898947603,0.0004990467,0.0026864293,0.012923915,0,0.017173657,0.9199298,0.0067465794,nan,nan,0.0029830497,0.0,0.0,0.0,0.0,1310988,1310988,6620172,197388,0,0,165,1,1,1,1,1,0,0,0,0,0,0,0
4704000,4624000,4898947603,0.0004967269,0.0025664493,0.012568041,0,0.017813308,0.91995203,0.0067465794,nan,nan,0.0029830497,0.0,0.0,0.0,0.0,1310988,1310988,6620172,197388,0,0,165,1,1,1,1,1,0,0,0,0,0,0,0
4712000,4632000,4898947603,0.0004960391,0.0024515209,0.012221913,0,0.01847563,0.9199749,0.0067465794,nan,nan,0.0029830497,0.0,0.0,0.0,0.0,1310988,1310988,6620172,197388,0,0,165,1,1,1,1,1,0,0,0,0,0,0,0
4720000,4640000,4898947603,0.00047615063,0.0023440828,0.011885084,0,0.019160528,0.9199984,0.0067465794,nan,nan,0.0029830497,0.0,0.0,0.0,0.0,1310988,1310988,6620172,197388,0,0,165,1,1,1,1,1,0,0,0,0,0,0,0
4728000,4648000,4898947603,0.00045806888,0.0022395712,0.009066309,0,0.019867886,0.8897948,0.0067465794,nan,nan,0.0021449998,0.0,0.0,0.0,0.0,1310988,1310988,6620172,197388,0,0,165,1,1,1,1,1,0,0,0,0,0,0,0
4736000,4656000,4898947603,0.002674125,0.0021439344,0.008827698,0,0.020597603,0.8898189,0.046135794,nan,nan,0.0021449998,0.0,0.0,0.0,0.0,1310988,1310988,6620172,197388,0,0,165,1,1,1,1,1,0,0,0,0,0,0,0
4744000,4664000,4898947603,0.002691114,0.0020476638,0.008595224,0,0.02134952,0.8898437,0.046135794,nan,nan,0.0021449998,0.0,0.0,0.0,0.0,1310988,1310988,6620172,197388,0,0,165,1,1,1,1,1,0,0,0,0,0,0,0
4752000,4672000,4898947603,0.0026893436,0.0019550372,0.008368275,0,0.022123514,0.88986915,0.046135794,nan,nan,0.0021449998,0.0,0.0,0.0,0.0,1310988,1310988,6620172,197388,0,0,165,1,1,1,1,1,0,0,0,0,0,0,0
4760000,4680000,4898947603,0.0026879914,0.0018679042,0.008146594,0,0.022919556,0.8898953,0.046135794,nan,nan,0.0021449998,0.0,0.0,0.0,0.0,1310988,1310988,6620172,197388,0,0,165,1,1,1,1,1,0,0,0,0,0,0,0
4768000,4688000,4898947603,0.0026869169,0.0017854283,0.007930336,0,0.023737665,0.8899222,0.046135794,nan,nan,0.0021449998,0.0,0.0,0.0,0.0,1310988,1310988,6620172,197388,0,0,165,1,1,1,1,1,0,0,0,0,0,0,0
4776000,4696000,4898947603,0.0026858575,0.0017076656,0.007719543,0,0.024577776,0.88994986,0.046135794,nan,nan,0.0021449998,0.0,0.0,0.0,0.0,1310988,1310988,6620172,197388,0,0,165,1,1,1,1,1,0,0,0,0,0,0,0
4784000,4704000,4898947603,0.0026845634,0.0016361118,0.0064965254,0,0.025439838,0.8625302,0.046135794,nan,nan,0.00093648664,0.0,0.0,0.0,0.0,1310988,1310988,6620172,197388,0,0,165,1,1,1,1,1,0,0,0,0,0,0,0
4792000,4712000,4898947603,0.002683198,0.0015701044,0.006328089,0,0.026323814,0.8625584,0.046135794,nan,nan,0.00093648664,0.0,0.0,0.0,0.0,1310988,1310988,6620172,197388,0,0,165,1,1,1,1,1,0,0,0,0,0,0,0
4800000,4720000,4898947603,0.0026816884,0.00151052,0.0061631775,0,0.027229723,0.8625875,0.046135794,nan,nan,0.00093648664,0.0,0.0,0.0,0.0,1310988,1310988,6620172,197388,0,0,165,1,1,1,1,1,0,0,0,0,0,0,0
4808000,4728000,4898947603,0.0025360119,0.0014562451,0.0060021468,0,0.028157528,0.8626173,0.0027125762,nan,nan,0.00093648664,0.0,0.0,0.0,0.0,1310988,1310988,6620172,197388,0,0,165,1,1,1,1,1,0,0,0,0,0,0,0
4816000,4736000,4898947603,0.0025335206,0.0014082791,0.0058447905,0,0.029107256,0.8626479,0.0027125762,nan,nan,0.00093648664,0.0,0.0,0.0,0.0,1310988,1310988,6620172,197388,0,0,165,1,1,1,1,1,0,0,0,0,0,0,0
4824000,4744000,4898947603,0.002399329,0.0013675519,0.0056910194,0,0.030078942,0.86267936,0.0027125762,nan,nan,0.00093648664,0.0,0.0,0.0,0.0,1310988,1310988,6620172,197388,0,0,165,1,1,1,1,1,0,0,0,0,0,0,0
4832000,4752000,4898947603,0.0022643597,0.001332674,0.005540663,0,0.031072613,0.8627116,0.0027125762,nan,nan,0.00093648664,0.0,0.0,0.0,0.0,1310988,1310988,6620172,197388,0,0,165,1,1,1,1,1,0,0,0,0,0,0,0
4840000,4760000,4898947603,0.0021998289,0.0027904566,0.005447192,0,0.01294105,0.8627447,0.0027125762,nan,nan,0.00093648664,0.0,0.0,0.0,0.0,1310988,1310988,6620172,197388,0,0,165,1,1,1,1,1,0,0,0,0,0,0,0
4848000,4768000,4898947603,0.0020674183,0.0027246214,0.009230462,0,0.013364507,0.837702,0.0027125762,nan,nan,0.003847065,0.0,0.0,0.0,0.0,1310988,1310988,6620172,197388,0,0,165,1,1,1,1,1,0,0,0,0,0,0,0
4856000,4776000,4898947603,0.0019356069,0.0026688448,0.008964595,0,0.013806553,0.8377358,0.0027125762,nan,nan,0.003847065,0.0,0.0,0.0,0.0,1310988,1310988,6620172,197388,0,0,165,1,1,1,1,1,0,0,0,0,0,0,0
4864000,4784000,4898947603,0.0018042222,0.0026169014,0.008705956,0,0.014267033,0.8377704,0.0027125762,nan,nan,0.003847065,0.0,0.0,0.0,0.0,1310988,1310988,6620172,197388,0,0,165,1,1,1,1,1,0,0,0,0,0,0,0
4872000,4792000,4898947603,0.0016846765,0.0026786658,0.009280564,0,0.0144376885,0.83764315,0.0027125762,nan,nan,0.003847065,0.0,0.0,0.0,0.0,1310988,1310988,6620172,197388,0,0,165,1,1,1,1,1,0,0,0,0,0,0,0
4880000,4800000,4898947603,0.0016597187,0.0025678196,0.00902467,0,0.014911435,0.8376729,0.056381684,nan,nan,0.003847065,0.0,0.0,0.0,0.0,1310988,1310988,6620172,197388,0,0,165,1,1,1,1,1,0,0,0,0,0,0,0
4888000,4808000,4898947603,0.0017977384,0.0024667594,0.008776171,0,0.015402684,0.83770335,0.056381684,nan,nan,0.003847065,0.0,0.0,0.0,0.0,1310988,1310988,6620172,197388,0,0,165,1,1,1,1,1,0,0,0,0,0,0,0
4896000,4816000,4898947603,0.0019297468,0.0023715056,0.0085339695,0,0.015911352,0.8377345,0.056381684,nan,nan,0.003847065,0.0,0.0,0.0,0.0,1310988,1310988,6620172,197388,0,0,165,1,1,1,1,1,0,0,0,0,0,0,0
4904000,4824000,4898947603,0.0020630946,0.0022798614,0.0059944117,0,0.016437318,0.8147514,0.056381684,nan,nan,0.002382407,0.0,0.0,0.0,0.0,1310988,1310988,6620172,197388,0,0,165,1,1,1,1,1,0,0,0,0,0,0,0
4912000,4832000,4898947603,0.0021907708,0.0021981304,0.0058389613,0,0.016980495,0.8147832,0.056381684,nan,nan,0.002382407,0.0,0.0,0.0,0.0,1310988,1310988,6620172,197388,0,0,165,1,1,1,1,1,0,0,0,0,0,0,0
4920000,4840000,4898947603,0.0023127222,0.0021225992,0.0056878235,0,0.0175408,0.8148159,0.056381684,nan,nan,0.002382407,0.0,0.0,0.0,0.0,1310988,1310988,6620172,197388,0,0,165,1,1,1,1,1,0,0,0,0,0,0,0
4928000,4848000,4898947603,0.0024232273,0.0020557505,0.0055402163,0,0.018118104,0.8148494,0.056381684,nan,nan,0.002382407,0.0,0.0,0.0,0.0,1310988,1310988,6620172,197388,0,0,165,1,1,1,1,1,0,0,0,0,0,0,0
4936000,4856000,4898947603,0.0025281268,0.0019926718,0.005396384,0,0.018712295,0.81488365,0.056381684,nan,nan,0.002382407,0.0,0.0,0.0,0.0,1310988,1310988,6620172,197388,0,0,165,1,1,1,1,1,0,0,0,0,0,0,0
4944000,4864000,4898947603,0.0026275439,0.0019338465,0.005256172,0,0.019323314,0.8149187,0.056381684,nan,nan,0.002382407,0.0,0.0,0.0,0.0,1310988,1310988,6620172,197388,0,0,165,1,1,1,1,1,0,0,0,0,0,0,0
4952000,4872000,4898947603,0.0032646589,0.0018784563,0.0051193736,0,0.019951083,0.8149546,0.010170587,nan,nan,0.002382407,0.0,0.0,0.0,0.0,1310988,1310988,6620172,197388,0,0,165,1,1,1,1,1,0,0,0,0,0,0,0
4960000,4880000,4898947603,0.0033550095,0.0018275275,0.004985924,0,0.0205956,0.8149913,0.010170587,nan,nan,0.002382407,0.0,0.0,0.0,0.0,1310988,1310988,6620172,197388,0,0,165,1,1,1,1,1,0,0,0,0,0,0,0
4968000,4888000,4898947603,0.0032767542,0.0017823513,0.005691326,0,0.021256806,0.7937909,0.010170587,nan,nan,0.00091413164,0.0,0.0,0.0,0.0,1310988,1310988,6620172,197388,0,0,165,1,1,1,1,1,0,0,0,0,0,0,0
4976000,4896000,4898947603,0.0031911614,0.0017418485,0.0055364557,0,0.021934642,0.79382837,0.010170587,nan,nan,0.00091413164,0.0,0.0,0.0,0.0,1310988,1310988,6620172,197388,0,0,165,1,1,1,1,1,0,0,0,0,0,0,0
4984000,4904000,4898947603,0.0030989854,0.0017059938,0.00538511,0,0.022629062,0.7938667,0.010170587,nan,nan,0.00091413164,0.0,0.0,0.0,0.0,1310988,1310988,6620172,197388,0,0,165,1,1,1,1,1,0,0,0,0,0,0,0
4992000,4912000,4898947603,0.002999857,0.0016746433,0.005237312,0,0.023340056,0.7939059,0.010170587,nan,nan,0.00091413164,0.0,0.0,0.0,0.0,1310988,1310988,6620172,197388,0,0,165,1,1,1,1,1,0,0,0,0,0,0,0
5000000,4920000,4898947603,0.00289425,0.0016479624,0.0050927023,0,0.024067586,0.79394597,0.010170587,nan,nan,0.00091413164,0.0,0.0,0.0,0.0,1310988,1310988,6620172,197388,0,0,165,1,1,1,1,1,0,0,0,0,0,0,0
5008000,4928000,4898947603,0.0027826268,0.001625728,0.0049515488,0,0.024811637,0.79398704,0.010170587,nan,nan,0.00091413164,0.0,0.0,0.0,0.0,1310988,1310988,6620172,197388,0,0,165,1,1,1,1,1,0,0,0,0,0,0,0
5016000,4936000,4898947603,0.0026650613,0.0016072385,0.004813795,0,0.025572242,0.794029,0.010170587,nan,nan,0.00091413164,0.0,0.0,0.0,0.0,1310988,1310988,6620172,197388,0,0,165,1,1,1,1,1,0,0,0,0,0,0,0
5024000,4944000,4898947603,0.0024285575,0.0015905162,0.0059217946,0,0.026349358,0.77439165,0.0020963443,nan,nan,0.0014250581,0.0,0.0,0.0,0.0,1310988,1310988,6620172,197388,0,0,165,1,1,1,1,1,0,0,0,0,0,0,0
5032000,4952000,4898947603,0.0023000017,0.0015808012,0.005750348,0,0.027142981,0.7744344,0.0020963443,nan,nan,0.0014250581,0.0,0.0,0.0,0.0,1310988,1310988,6620172,197388,0,0,165,1,1,1,1,1,0,0,0,0,0,0,0
5040000,4960000,4898947603,0.002137072,0.0015749021,0.0055829333,0,0.027953109,0.7744781,0.0020963443,nan,nan,0.0014250581,0.0,0.0,0.0,0.0,1310988,1310988,6620172,197388,0,0,165,1,1,1,1,1,0,0,0,0,0,0,0
5048000,4968000,4898947603,0.0020101287,0.002816653,0.005469439,0,0.012692512,0.7745228,0.0020963443,nan,nan,0.0014250581,0.0,0.0,0.0,0.0,1310988,1310988,6620172,197388,0,0,165,1,1,1,1,1,0,0,0,0,0,0,0
5056000,4976000,4898947603,0.0018475848,0.0027786163,0.0053114505,0,0.013068075,0.7745685,0.0020963443,nan,nan,0.0014250581,0.0,0.0,0.0,0.0,1310988,1310988,6620172,197388,0,0,165,1,1,1,1,1,0,0,0,0,0,0,0
5064000,4984000,4898947603,0.0016895855,0.002743791,0.0051574674,0,0.013458223,0.77461517,0.0020963443,nan,nan,0.0014250581,0.0,0.0,0.0,0.0,1310988,1310988,6620172,197388,0,0,165,1,1,1,1,1,0,0,0,0,0,0,0
5072000,4992000,4898947603,0.0015366141,0.002711838,0.0050073504,0,0.0138628585,0.77466285,0.0020963443,nan,nan,0.0014250581,0.0,0.0,0.0,0.0,1310988,1310988,6620172,197388,0,0,165,1,1,1,1,1,0,0,0,0,0,0,0
5080000,5000000,4898947603,0.0013891709,0.002717006,0.005865089,0,0.014048257,0.7744292,0.0020963443,nan,nan,0.0014250581,0.0,0.0,0.0,0.0,1310988,1310988,6620172,197388,0,0,165,1,1,1,1,1,0,0,0,0,0,0,0
5088000,5008000,4898947603,0.0012473923,0.0026261199,0.005728076,0,0.0144656515,0.756178,0.0020963443,nan,nan,2.6265512e-05,0.0,0.0,0.0,0.0,1310988,1310988,6620172,197388,0,0,165,1,1,1,1,1,0,0,0,0,0,0,0
5096000,5016000,4898947603,0.00072521635,0.0025410936,0.00557265,0,0.014896913,0.7562181,0.007644652,nan,nan,2.6265512e-05,0.0,0.0,0.0,0.0,1310988,1310988,6620172,197388,0,0,165,1,1,1,1,1,0,0,0,0,0,0,0
5104000,5024000,4898947603,0.0006048119,0.0024614742,0.005421394,0,0.0153419785,0.7562589,0.007644652,nan,nan,2.6265512e-05,0.0,0.0,0.0,0.0,1310988,1310988,6620172,197388,0,0,165,1,1,1,1,1,0,0,0,0,0,0,0
5112000,5032000,4898947603,0.0005021425,0.0023875334,0.005274064,0,0.015800761,0.7563006,0.007644652,nan,nan,2.6265512e-05,0.0,0.0,0.0,0.0,1310988,1310988,6620172,197388,0,0,165,1,1,1,1,1,0,0,0,0,0,0,0
5120000,5040000,4898947603,0.00041541422,0.0023187383,0.005130529,0,0.016273208,0.75634325,0.007644652,nan,nan,2.6265512e-05,0.0,0.0,0.0,0.0,1310988,1310988,6620172,197388,0,0,165,1,1,1,1,1,0,0,0,0,0,0,0
5128000,5048000,4898947603,0.00035094892,0.0022560963,0.004990725,0,0.016759243,0.75638676,0.007644652,nan,nan,2.6265512e-05,0.0,0.0,0.0,0.0,1310988,1310988,6620172,197388,0,0,165,1,1,1,1,1,0,0,0,0,0,0,0
5136000,5056000,4898947603,0.00029764755,0.0022074243,0.009674397,0,0.017258829,0.73936075,0.007644652,nan,nan,0.0060810237,0.0,0.0,0.0,0.0,1310988,1310988,6620172,197388,0,0,165,1,1,1,1,1,0,0,0,0,0,0,0
5144000,5064000,4898947603,0.00027305487,0.0021546846,0.009385844,0,0.017771909,0.73940504,0.007644652,nan,nan,0.0060810237,0.0,0.0,0.0,0.0,1310988,1310988,6620172,197388,0,0,165,1,1,1,1,1,0,0,0,0,0,0,0
5152000,5072000,4898947603,0.00027672586,0.002106233,0.009104726,0,0.01829838,0.7394502,0.007644652,nan,nan,0.0060810237,0.0,0.0,0.0,0.0,1310988,1310988,6620172,197388,0,0,165,1,1,1,1,1,0,0,0,0,0,0,0
5160000,5080000,4898947603,0.0003010064,0.0020621282,0.008831968,0,0.01883823,0.7394964,0.007644652,nan,nan,0.0060810237,0.0,0.0,0.0,0.0,1310988,1310988,6620172,197388,0,0,165,1,1,1,1,1,0,0,0,0,0,0,0
5168000,5088000,4898947603,0.00026164547,0.002021062,0.00856611,0,0.01939143,0.73954356,0.007408906,nan,nan,0.0060810237,0.0,0.0,0.0,0.0,1310988,1310988,6620172,197388,0,0,165,1,1,1,1,1,0,0,0,0,0,0,0
5176000,5096000,4898947603,0.00021688896,0.0019849315,0.008306887,0,0.019957876,0.7395916,0.007408906,nan,nan,0.0060810237,0.0,0.0,0.0,0.0,1310988,1310988,6620172,197388,0,0,165,1,1,1,1,1,0,0,0,0,0,0,0
5184000,5104000,4898947603,0.00019008444,0.001953277,0.008054046,0,0.02053751,0.7396407,0.007408906,nan,nan,0.0060810237,0.0,0.0,0.0,0.0,1310988,1310988,6620172,197388,0,0,165,1,1,1,1,1,0,0,0,0,0,0,0
5192000,5112000,4898947603,0.0001678986,0.0019257697,0.008860129,0,0.021130338,0.72370523,0.007408906,nan,nan,0.0013827148,0.0,0.0,0.0,0.0,1310988,1310988,6620172,197388,0,0,165,1,1,1,1,1,0,0,0,0,0,0,0
5200000,5120000,4898947603,0.000148895,0.0019028969,0.008586012,0,0.02173632,0.7237552,0.007408906,nan,nan,0.0013827148,0.0,0.0,0.0,0.0,1310988,1310988,6620172,197388,0,0,165,1,1,1,1,1,0,0,0,0,0,0,0
5208000,5128000,4898947603,0.0001319184,0.0018842414,0.008319447,0,0.022355447,0.72380614,0.007408906,nan,nan,0.0013827148,0.0,0.0,0.0,0.0,1310988,1310988,6620172,197388,0,0,165,1,1,1,1,1,0,0,0,0,0,0,0
5216000,5136000,4898947603,0.00011596841,0.0018696083,0.008059563,0,0.022987727,0.7238581,0.007408906,nan,nan,0.0013827148,0.0,0.0,0.0,0.0,1310988,1310988,6620172,197388,0,0,165,1,1,1,1,1,0,0,0,0,0,0,0
5224000,5144000,4898947603,0.00010126517,0.0018584877,0.0078065433,0,0.023633135,0.7239111,0.007408906,nan,nan,0.0013827148,0.0,0.0,0.0,0.0,1310988,1310988,6620172,197388,0,0,165,1,1,1,1,1,0,0,0,0,0,0,0
5232000,5152000,4898947603,8.7671026e-05,0.0018509568,0.0075602457,0,0.024291683,0.72396517,0.007408906,nan,nan,0.0013827148,0.0,0.0,0.0,0.0,1310988,1310988,6620172,197388,0,0,165,1,1,1,1,1,0,0,0,0,0,0,0
5240000,5160000,4898947603,0.00027973493,0.0018467227,0.007320276,0,0.024963362,0.72402024,0.0051077185,nan,nan,0.0013827148,0.0,0.0,0.0,0.0,1310988,1310988,6620172,197388,0,0,165,1,1,1,1,1,0,0,0,0,0,0,0
5248000,5168000,4898947603,0.00026675581,0.001845596,0.007086657,0,0.02564819,0.7240764,0.0051077185,nan,nan,0.0013827148,0.0,0.0,0.0,0.0,1310988,1310988,6620172,197388,0,0,165,1,1,1,1,1,0,0,0,0,0,0,0
5256000,5176000,4898947603,0.00030079964,0.001990518,0.004807105,0,0.012460468,0.7091156,0.0051077185,nan,nan,0.0028416768,0.0,0.0,0.0,0.0,1310988,1310988,6620172,197388,0,0,165,1,1,1,1,1,0,0,0,0,0,0,0
5264000,5184000,4898947603,0.00030173457,0.001980099,0.0046526426,0,0.012799732,0.7091727,0.0051077185,nan,nan,0.0028416768,0.0,0.0,0.0,0.0,1310988,1310988,6620172,197388,0,0,165,1,1,1,1,1,0,0,0,0,0,0,0
5272000,5192000,4898947603,0.00030207183,0.0019724632,0.0045022843,0,0.013151035,0.70923096,0.0051077185,nan,nan,0.0028416768,0.0,0.0,0.0,0.0,1310988,1310988,6620172,197388,0,0,165,1,1,1,1,1,0,0,0,0,0,0,0
5280000,5200000,4898947603,0.00030212133,0.0019679824,0.004355729,0,0.013514302,0.7092903,0.0051077185,nan,nan,0.0028416768,0.0,0.0,0.0,0.0,1310988,1310988,6620172,197388,0,0,165,1,1,1,1,1,0,0,0,0,0,0,0
5288000,5208000,4898947603,0.00030013113,0.0019500784,0.0052829906,0,0.013704493,0.7089504,0.0051077185,nan,nan,0.0028416768,0.0,0.0,0.0,0.0,1310988,1310988,6620172,197388,0,0,165,1,1,1,1,1,0,0,0,0,0,0,0
5296000,5216000,4898947603,0.00029960365,0.0018680571,0.0051243985,0,0.014079693,0.7089999,0.0051077185,nan,nan,0.0028416768,0.0,0.0,0.0,0.0,1310988,1310988,6620172,197388,0,0,165,1,1,1,1,1,0,0,0,0,0,0,0
5304000,5224000,4898947603,0.00029920173,0.0017924586,0.0049701487,0,0.014466436,0.7090503,0.0051077185,nan,nan,0.0028416768,0.0,0.0,0.0,0.0,1310988,1310988,6620172,197388,0,0,165,1,1,1,1,1,0,0,0,0,0,0,0
5312000,5232000,4898947603,0.0019279902,0.0017281693,0.005460725,0,0.014864651,0.69498163,0.029686578,nan,nan,0.0009229104,0.0,0.0,0.0,0.0,1310988,1310988,6620172,197388,0,0,165,1,1,1,1,1,0,0,0,0,0,0,0
5320000,5240000,4898947603,0.001935398,0.0016658617,0.005293322,0,0.015274261,0.69503284,0.029686578,nan,nan,0.0009229104,0.0,0.0,0.0,0.0,1310988,1310988,6620172,197388,0,0,165,1,1,1,1,1,0,0,0,0,0,0,0
5328000,5248000,4898947603,0.0019279845,0.0016102258,0.0051304274,0,0.01569524,0.6950851,0.029686578,nan,nan,0.0009229104,0.0,0.0,0.0,0.0,1310988,1310988,6620172,197388,0,0,165,1,1,1,1,1,0,0,0,0,0,0,0
5336000,5256000,4898947603,0.0019209326,0.0015610261,0.0049716504,0,0.016127523,0.6951383,0.029686578,nan,nan,0.0009229104,0.0,0.0,0.0,0.0,1310988,1310988,6620172,197388,0,0,165,1,1,1,1,1,0,0,0,0,0,0,0
5344000,5264000,4898947603,0.0019134918,0.0015193996,0.004817359,0,0.01657107,0.69519246,0.029686578,nan,nan,0.0009229104,0.0,0.0,0.0,0.0,1310988,1310988,6620172,197388,0,0,165,1,1,1,1,1,0,0,0,0,0,0,0
5352000,5272000,4898947603,0.0019057083,0.0014840446,0.004667141,0,0.017025836,0.69524765,0.029686578,nan,nan,0.0009229104,0.0,0.0,0.0,0.0,1310988,1310988,6620172,197388,0,0,165,1,1,1,1,1,0,0,0,0,0,0,0
5360000,5280000,4898947603,0.0018979366,0.0014546548,0.0045210775,0,0.017491786,0.6953038,0.029686578,nan,nan,0.0009229104,0.0,0.0,0.0,0.0,1310988,1310988,6620172,197388,0,0,165,1,1,1,1,1,0,0,0,0,0,0,0
5368000,5288000,4898947603,0.0018899984,0.0014313644,0.0043790573,0,0.017968891,0.695361,0.029686578,nan,nan,0.0009229104,0.0,0.0,0.0,0.0,1310988,1310988,6620172,197388,0,0,165,1,1,1,1,1,0,0,0,0,0,0,0
5376000,5296000,4898947603,0.0018819423,0.0014145564,0.004324662,0,0.018457081,0.6820858,0.029686578,nan,nan,0.00012678847,0.0,0.0,0.0,0.0,1310988,1310988,6620172,197388,0,0,165,1,1,1,1,1,0,0,0,0,0,0,0
5384000,5304000,4898947603,0.0022452304,0.0014057622,0.004186393,0,0.018956328,0.6821439,0.0067059672,nan,nan,0.00012678847,0.0,0.0,0.0,0.0,1310988,1310988,6620172,197388,0,0,165,1,1,1,1,1,0,0,0,0,0,0,0
5392000,5312000,4898947603,0.002238753,0.0014022271,0.004051503,0,0.019466612,0.6822031,0.0067059672,nan,nan,0.00012678847,0.0,0.0,0.0,0.0,1310988,1310988,6620172,197388,0,0,165,1,1,1,1,1,0,0,0,0,0,0,0
5400000,5320000,4898947603,0.0021435127,0.0014040492,0.003919687,0,0.019987881,0.6822633,0.0067059672,nan,nan,0.00012678847,0.0,0.0,0.0,0.0,1310988,1310988,6620172,197388,0,0,165,1,1,1,1,1,0,0,0,0,0,0,0
5408000,5328000,4898947603,0.002047913,0.0014110772,0.0037911932,0,0.020520119,0.6823246,0.0067059672,nan,nan,0.00012678847,0.0,0.0,0.0,0.0,1310988,1310988,6620172,197388,0,0,165,1,1,1,1,1,0,0,0,0,0,0,0
5416000,5336000,4898947603,0.0019527287,0.0014228952,0.0036656847,0,0.021063289,0.682387,0.0067059672,nan,nan,0.00012678847,0.0,0.0,0.0,0.0,1310988,1310988,6620172,197388,0,0,165,1,1,1,1,1,0,0,0,0,0,0,0
5424000,5344000,4898947603,0.001857722,0.0014392551,0.0035432244,0,0.021617377,0.6824504,0.0067059672,nan,nan,0.00012678847,0.0,0.0,0.0,0.0,1310988,1310988,6620172,197388,0,0,165,1,1,1,1,1,0,0,0,0,0,0,0
5432000,5352000,4898947603,0.0017630737,0.0014640085,0.0023612923,0,0.02218238,0.66989684,0.0067059672,nan,nan,0.0016928632,0.0,0.0,0.0,0.0,1310988,1310988,6620172,197388,0,0,165,1,1,1,1,1,0,0,0,0,0,0,0
5440000,5360000,4898947603,0.0016687257,0.0014865566,0.002282012,0,0.022758301,0.66996133,0.0067059672,nan,nan,0.0016928632,0.0,0.0,0.0,0.0,1310988,1310988,6620172,197388,0,0,165,1,1,1,1,1,0,0,0,0,0,0,0
5448000,5368000,4898947603,0.0015750326,0.0015121201,0.002204377,0,0.023345113,0.67002696,0.0067059672,nan,nan,0.0016928632,0.0,0.0,0.0,0.0,1310988,1310988,6620172,197388,0,0,165,1,1,1,1,1,0,0,0,0,0,0,0
5456000,5376000,4898947603,0.0017495722,0.0015407398,0.0021289967,0,0.023942802,0.67009366,0.00483599,nan,nan,0.0016928632,0.0,0.0,0.0,0.0,1310988,1310988,6620172,197388,0,0,165,1,1,1,1,1,0,0,0,0,0,0,0
5464000,5384000,4898947603,0.0016666269,0.0016426797,0.0020207565,0,0.012254492,0.67016155,0.00483599,nan,nan,0.0016928632,0.0,0.0,0.0,0.0,1310988,1310988,6620172,197388,0,0,165,1,1,1,1,1,0,0,0,0,0,0,0
5472000,5392000,4898947603,0.0015559142,0.0016827967,0.001950412,0,0.012566187,0.6702306,0.00483599,nan,nan,0.0016928632,0.0,0.0,0.0,0.0,1310988,1310988,6620172,197388,0,0,165,1,1,1,1,1,0,0,0,0,0,0,0
5480000,5400000,4898947603,0.0014456776,0.0017226639,0.0018822913,0,0.012888239,0.6703009,0.00483599,nan,nan,0.0016928632,0.0,0.0,0.0,0.0,1310988,1310988,6620172,197388,0,0,165,1,1,1,1,1,0,0,0,0,0,0,0
5488000,5408000,4898947603,0.0013401367,0.0017625694,0.0018160525,0,0.013220598,0.6703723,0.00483599,nan,nan,0.0016928632,0.0,0.0,0.0,0.0,1310988,1310988,6620172,197388,0,0,165,1,1,1,1,1,0,0,0,0,0,0,0
5496000,5416000,4898947603,0.0012431665,0.0017670315,0.0014379611,0,0.013410839,0.6579526,0.00483599,nan,nan,0.002388265,0.0,0.0,0.0,0.0,1310988,1310988,6620172,197388,0,0,165,1,1,1,1,1,0,0,0,0,0,0,0
5504000,5424000,4898947603,0.0011480774,0.0017263253,0.0014031373,0,0.013754422,0.6580109,0.00483599,nan,nan,0.002388265,0.0,0.0,0.0,0.0,1310988,1310988,6620172,197388,0,0,165,1,1,1,1,1,0,0,0,0,0,0,0
5512000,5432000,4898947603,0.0010578402,0.0016920071,0.0013698346,0,0.014107995,0.65807015,0.00483599,nan,nan,0.002388265,0.0,0.0,0.0,0.0,1310988,1310988,6620172,197388,0,0,165,1,1,1,1,1,0,0,0,0,0,0,0
5520000,5440000,4898947603,0.0009724795,0.0016646734,0.0013376669,0,0.014471498,0.6581304,0.00483599,nan,nan,0.002388265,0.0,0.0,0.0,0.0,1310988,1310988,6620172,197388,0,0,165,1,1,1,1,1,0,0,0,0,0,0,0
5528000,5448000,4898947603,0.00109329,0.0016434987,0.0013069119,0,0.014844875,0.6581917,0.0037134362,nan,nan,0.002388265,0.0,0.0,0.0,0.0,1310988,1310988,6620172,197388,0,0,165,1,1,1,1,1,0,0,0,0,0,0,0
5536000,5456000,4898947603,0.0010178282,0.0016280719,0.0012771373,0,0.0152280815,0.6582539,0.0037134362,nan,nan,0.002388265,0.0,0.0,0.0,0.0,1310988,1310988,6620172,197388,0,0,165,1,1,1,1,1,0,0,0,0,0,0,0
5544000,5464000,4898947603,0.00093299634,0.001618151,0.0012487517,0,0.015621059,0.6583172,0.0037134362,nan,nan,0.002388265,0.0,0.0,0.0,0.0,1310988,1310988,6620172,197388,0,0,165,1,1,1,1,1,0,0,0,0,0,0,0
5552000,5472000,4898947603,0.000850683,0.0016151397,0.0020807558,0,0.016023774,0.6470334,0.0037134362,nan,nan,0.0016102098,0.0,0.0,0.0,0.0,1310988,1310988,6620172,197388,0,0,165,1,1,1,1,1,0,0,0,0,0,0,0
5560000,5480000,4898947603,0.0007739781,0.0016141123,0.0020180743,0,0.016436184,0.64709765,0.0037134362,nan,nan,0.0016102098,0.0,0.0,0.0,0.0,1310988,1310988,6620172,197388,0,0,165,1,1,1,1,1,0,0,0,0,0,0,0
5568000,5488000,4898947603,0.00070280395,0.0016173573,0.001957807,0,0.016858265,0.647163,0.0037134362,nan,nan,0.0016102098,0.0,0.0,0.0,0.0,1310988,1310988,6620172,197388,0,0,165,1,1,1,1,1,0,0,0,0,0,0,0
5576000,5496000,4898947603,0.00063691236,0.0016241227,0.0018993454,0,0.01728997,0.6472294,0.0037134362,nan,nan,0.0016102098,0.0,0.0,0.0,0.0,1310988,1310988,6620172,197388,0,0,165,1,1,1,1,1,0,0,0,0,0,0,0
5584000,5504000,4898947603,0.00057559175,0.001634496,0.0018423618,0,0.017731264,0.6472968,0.0037134362,nan,nan,0.0016102098,0.0,0.0,0.0,0.0,1310988,1310988,6620172,197388,0,0,165,1,1,1,1,1,0,0,0,0,0,0,0
