timestamp,timestamp_sample,gps_hvel[0],gps_hvel[1],gps_vvel,gps_hpos[0],gps_hpos[1],gps_vpos,ev_hvel[0],ev_hvel[1],ev_vvel,ev_hpos[0],ev_hpos[1],ev_vpos,rng_vpos,baro_vpos,aux_hvel[0],aux_hvel[1],aux_vvel,flow[0],flow[1],terr_flow[0],terr_flow[1],heading,mag_field[0],mag_field[1],mag_field[2],gravity[0],gravity[1],gravity[2],drag[0],drag[1],airspeed,beta,hagl,hagl_rate
3200000,3120000,0.0,0.0,0.0,0.0,0.0,0.0,0.0,0.0,0.0,0.0,0.0,0.0,0.0,112.42326,0.0,0.0,nan,0.0,0.0,0.0,0.0,0.0,0.0,0.0,0.0,1.9799451,1.980148,1.0008664,0.0,0.0,0.0,0.0,0.0,0.0
3208000,3128000,0.0,0.0,0.0,0.0,0.0,0.0,0.0,0.0,0.0,0.0,0.0,0.0,0.0,112.42326,0.0,0.0,nan,0.0,0.0,0.0,0.0,0.0,0.0,0.0,0.0,1.9826808,1.9829376,1.0008717,0.0,0.0,0.0,0.0,0.0,0.0
3216000,3136000,0.0,0.0,0.0,0.0,0.0,0.0,0.0,0.0,0.0,0.0,0.0,0.0,0.0,112.42326,0.0,0.0,nan,0.0,0.0,0.0,0.0,0.0,0.0,0.0,0.0,1.9847578,1.9850206,1.0008762,0.0,0.0,0.0,0.0,0.0,0.0
3224000,3144000,0.0,0.0,0.0,0.0,0.0,0.0,0.0,0.0,0.0,0.0,0.0,0.0,0.0,112.42326,0.0,0.0,nan,0.0,0.0,0.0,0.0,0.0,0.0,0.0,0.0,1.9884362,1.9885464,1.016374,0.0,0.0,0.0,0.0,0.0,0.0
3232000,3152000,0.0,0.0,0.0,0.0,0.0,0.0,0.0,0.0,0.0,0.0,0.0,0.0,0.0,112.42326,0.0,0.0,nan,0.0,0.0,0.0,0.0,0.0,0.0,0.0,0.0,1.989825,1.9899701,1.0142304,0.0,0.0,0.0,0.0,0.0,0.0
3240000,3160000,0.0,0.0,0.0,0.0,0.0,0.0,0.0,0.0,0.0,0.0,0.0,0.0,0.0,112.42326,0.0,0.0,nan,0.0,0.0,0.0,0.0,0.0,0.0,0.0,0.0,1.9916353,1.9918053,1.0125638,0.0,0.0,0.0,0.0,0.0,0.0
3248000,3168000,0.0,0.0,0.0,0.0,0.0,0.0,0.0,0.0,0.0,0.0,0.0,0.0,0.0,112.42326,0.0,0.0,nan,0.0,0.0,0.0,0.0,0.0,0.0,0.0,0.0,1.9938011,1.9939888,1.0112386,0.0,0.0,0.0,0.0,0.0,0.0
3256000,3176000,0.0,0.0,0.0,0.0,0.0,0.0,0.0,0.0,0.0,0.0,0.0,0.0,0.0,112.42326,0.0,0.0,nan,0.0,0.0,0.0,0.0,0.0,0.0,0.0,0.0,1.9962797,1.9964814,1.0101712,0.0,0.0,0.0,0.0,0.0,0.0
3264000,3184000,0.0,0.0,0.0,0.0,0.0,0.0,0.0,0.0,0.0,0.0,0.0,0.0,0.0,112.25,0.0,0.0,nan,0.0,0.0,0.0,0.0,0.0,0.0,0.0,0.0,1.9990443,1.9992573,1.0093063,0.0,0.0,0.0,0.0,0.0,0.0
3272000,3192000,0.0,0.0,0.0,0.0,0.0,0.0,0.0,0.0,0.0,0.0,0.0,0.0,0.0,112.25,0.0,0.0,nan,0.0,0.0,0.0,0.0,0.0,0.0,0.0,0.0,2.0020752,2.0022979,1.008606,0.0,0.0,0.0,0.0,0.0,0.0
3280000,3200000,0.0,0.0,0.0,0.0,0.0,0.0,0.0,0.0,0.0,0.0,0.0,0.0,0.0,112.25,0.0,0.0,nan,0.0,0.0,0.0,0.0,0.0,0.0,0.0,0.0,2.0053573,2.0055895,1.0080421,0.0,0.0,0.0,0.0,0.0,0.0
3288000,3208000,0.0,0.0,0.0,0.0,0.0,0.0,0.0,0.0,0.0,0.0,0.0,0.0,0.0,112.25,0.0,0.0,nan,0.0,0.0,0.0,0.0,0.0,0.0,0.0,0.0,2.0088797,2.0091214,1.0075921,0.0,0.0,0.0,0.0,0.0,0.0
3296000,3216000,0.0,0.0,0.0,0.0,0.0,0.0,0.0,0.0,0.0,0.0,0.0,0.0,0.0,112.25,0.0,0.0,nan,0.0,0.0,0.0,0.0,0.0,0.0,0.0,0.0,2.0126348,2.0128841,1.0072379,0.0,0.0,0.0,0.0,0.0,0.0
3304000,3224000,0.0,0.0,0.0,0.0,0.0,0.0,0.0,0.0,0.0,0.0,0.0,0.0,0.0,112.25,0.0,0.0,nan,0.0,0.0,0.0,0.0,0.0,0.0,0.0,0.0,2.0166147,2.0168705,1.0069642,0.0,0.0,0.0,0.0,0.0,0.0
3312000,3232000,0.0,0.0,0.0,0.0,0.0,0.0,0.0,0.0,0.0,0.0,0.0,0.0,0.0,112.25,0.0,0.0,nan,0.0,0.0,0.0,0.0,0.0,0.0,0.0,0.0,2.0208125,2.0210726,1.006758,0.0,0.0,0.0,0.0,0.0,0.0
3320000,3240000,0.0,0.0,0.0,0.0,0.0,0.0,0.0,0.0,0.0,0.0,0.0,0.0,0.0,112.25,0.0,0.0,nan,0.0,0.0,0.0,0.0,0.0,0.0,0.0,0.0,2.025222,2.0254867,1.0066061,0.0,0.0,0.0,0.0,0.0,0.0
3328000,3248000,0.0,0.0,0.0,0.0,0.0,0.0,0.0,0.0,0.0,0.0,0.0,0.0,0.0,112.25,0.0,0.0,nan,0.0,0.0,0.0,0.0,0.0,0.0,0.0,0.0,2.0298393,2.0301065,1.0064987,0.0,0.0,0.0,0.0,0.0,0.0
3336000,3256000,0.0,0.0,0.0,0.0,0.0,0.0,0.0,0.0,0.0,0.0,0.0,0.0,0.0,112.25,0.0,0.0,nan,0.0,0.0,0.0,0.0,0.0,0.0,0.0,0.0,2.0346599,2.0349288,1.0064251,0.0,0.0,0.0,0.0,0.0,0.0
3344000,3264000,0.0,0.0,0.0,0.0,0.0,0.0,0.0,0.0,0.0,0.0,0.0,0.0,0.0,112.25,0.0,0.0,nan,0.0,0.0,0.0,0.0,0.0,0.0,0.0,0.0,2.0396812,2.039949,1.0063789,0.0,0.0,0.0,0.0,0.0,0.0
3352000,3272000,0.0,0.0,0.0,0.0,0.0,0.0,0.0,0.0,0.0,0.0,0.0,0.0,0.0,112.25,0.0,0.0,nan,0.0,0.0,0.0,0.0,0.0,0.0,0.0,0.0,2.0449004,2.0451655,1.0063523,0.0,0.0,0.0,0.0,0.0,0.0
3360000,3280000,0.0,0.0,0.0,0.0,0.0,0.0,0.0,0.0,0.0,0.0,0.0,0.0,0.0,112.25,0.0,0.0,nan,0.0,0.0,0.0,0.0,0.0,0.0,0.0,0.0,2.0503159,2.050576,1.006339,0.0,0.0,0.0,0.0,0.0,0.0
3368000,3288000,0.0,0.0,0.0,0.0,0.0,0.0,0.0,0.0,0.0,0.0,0.0,0.0,0.0,112.25,0.0,0.0,nan,0.0,0.0,0.0,0.0,0.0,0.0,0.0,0.0,2.0559254,2.0561783,1.0063354,0.0,0.0,0.0,0.0,0.0,0.0
3376000,3296000,0.0,0.0,0.0,0.0,0.0,0.0,0.0,0.0,0.0,0.0,0.0,0.0,0.0,112.25,0.0,0.0,nan,0.0,0.0,0.0,0.0,0.0,0.0,0.0,0.0,2.061727,2.0619712,1.0063386,0.0,0.0,0.0,0.0,0.0,0.0
3384000,3304000,0.0,0.0,0.0,0.0,0.0,0.0,0.0,0.0,0.0,0.0,0.0,0.0,0.0,112.25,0.0,0.0,nan,0.0,0.0,0.0,0.0,0.0,0.0,0.0,0.0,2.0677211,2.067955,1.0063431,0.0,0.0,0.0,0.0,0.0,0.0
3392000,3312000,0.0,0.0,0.0,0.0,0.0,0.0,0.0,0.0,0.0,0.0,0.0,0.0,0.0,112.25,0.0,0.0,nan,0.0,0.0,0.0,0.0,0.0,0.0,0.0,0.0,2.0739045,2.074127,1.0063487,0.0,0.0,0.0,0.0,0.0,0.0
3400000,3320000,0.0,0.0,0.0,0.0,0.0,0.0,0.0,0.0,0.0,0.0,0.0,0.0,0.0,112.25,0.0,0.0,nan,0.0,0.0,0.0,0.0,0.0,0.0,0.0,0.0,2.0802798,2.0804887,1.0063541,0.0,0.0,0.0,0.0,0.0,0.0
3408000,3328000,0.13232005,0.13225448,0.2053005,1.0001292,1.0001291,51.0,0.0,0.0,0.0,0.0,0.0,0.0,0.0,112.25,0.0,0.0,nan,0.0,0.0,0.0,0.0,0.0,0.0,0.0,0.0,2.0868464,2.08704,1.0063566,0.0,0.0,0.0,0.0,0.0,0.0
3416000,3336000,0.13232005,0.13225448,0.2053005,1.0001292,1.0001291,51.0,0.0,0.0,0.0,0.0,0.0,0.0,0.0,112.25,0.0,0.0,nan,0.0,0.0,0.0,0.0,0.0,0.0,0.0,0.0,2.0936027,2.0937803,1.0063567,0.0,0.0,0.0,0.0,0.0,0.0
3424000,3344000,0.13232005,0.13225448,0.2053005,1.0001292,1.0001291,51.0,0.0,0.0,0.0,0.0,0.0,0.0,0.0,112.25,0.0,0.0,nan,0.0,0.0,0.0,0.0,0.0,0.0,0.0,0.0,1.0799029,1.0798331,1.0060124,0.0,0.0,0.0,0.0,0.0,0.0
3432000,3352000,0.13232005,0.13225448,0.2053005,1.0001292,1.0001291,51.0,0.0,0.0,0.0,0.0,0.0,0.0,0.0,112.25,0.0,0.0,nan,0.0,0.0,0.0,0.0,0.0,0.0,0.0,0.0,1.0828083,1.0827403,1.0060157,0.0,0.0,0.0,0.0,0.0,0.0
3440000,3360000,0.13232005,0.13225448,0.2053005,1.0001292,1.0001291,51.0,0.0,0.0,0.0,0.0,0.0,0.0,0.0,62.249985,0.0,0.0,nan,0.0,0.0,0.0,0.0,0.100126825,0.0,0.0,0.0,1.0858952,1.0858288,1.0060046,0.0,0.0,0.0,0.0,0.0,0.0
3448000,3368000,0.13232005,0.13225448,0.2053005,1.0001292,1.0001291,51.0,0.0,0.0,0.0,0.0,0.0,0.0,0.0,62.249985,0.0,0.0,nan,0.0,0.0,0.0,0.0,0.100126825,0.0,0.0,0.0,1.0859877,1.0859214,1.0060046,0.0,0.0,0.0,0.0,0.0,0.0
3456000,3376000,0.13232005,0.13225448,0.2053005,1.0001292,1.0001291,51.0,0.0,0.0,0.0,0.0,0.0,0.0,0.0,62.249985,0.0,0.0,nan,0.0,0.0,0.0,0.0,0.100126825,0.0,0.0,0.0,1.0862615,1.0861953,1.006005,0.0,0.0,0.0,0.0,0.0,0.0
3464000,3384000,0.13232005,0.13225448,0.2053005,1.0001292,1.0001291,51.0,0.0,0.0,0.0,0.0,0.0,0.0,0.0,62.249985,0.0,0.0,nan,0.0,0.0,0.0,0.0,0.100126825,0.0,0.0,0.0,1.0867165,1.0866506,1.0060055,0.0,0.0,0.0,0.0,0.0,0.0
3472000,3392000,0.13232005,0.13225448,0.2053005,1.0001292,1.0001291,51.0,0.0,0.0,0.0,0.0,0.0,0.0,0.0,62.249985,0.0,0.0,nan,0.0,0.0,0.0,0.0,0.100126825,0.0,0.0,0.0,1.0873528,1.0872871,1.006006,0.0,0.0,0.0,0.0,0.0,0.0
3480000,3400000,0.13232005,0.13225448,0.2053005,1.0001292,1.0001291,51.0,0.0,0.0,0.0,0.0,0.0,0.0,0.0,62.249985,0.0,0.0,nan,0.0,0.0,0.0,0.0,0.100126825,0.0,0.0,0.0,1.0881703,1.0881048,1.0060067,0.0,0.0,0.0,0.0,0.0,0.0
3488000,3408000,0.13232005,0.13225448,0.2053005,1.0001292,1.0001291,51.0,0.0,0.0,0.0,0.0,0.0,0.0,0.0,62.249985,0.0,0.0,nan,0.0,0.0,0.0,0.0,0.100126825,0.0,0.0,0.0,1.0891689,1.089104,1.0060077,0.0,0.0,0.0,0.0,0.0,0.0
3496000,3416000,0.13232005,0.13225448,0.2053005,1.0001292,1.0001291,51.0,0.0,0.0,0.0,0.0,0.0,0.0,0.0,62.249985,0.0,0.0,nan,0.0,0.0,0.0,0.0,0.100126825,0.0,0.0,0.0,1.090349,1.0902845,1.0060087,0.0,0.0,0.0,0.0,0.0,0.0
3504000,3424000,0.13232005,0.13225448,0.2053005,1.0001292,1.0001291,51.0,0.0,0.0,0.0,0.0,0.0,0.0,0.0,62.249985,0.0,0.0,nan,0.0,0.0,0.0,0.0,0.100126825,0.0,0.0,0.0,1.0917102,1.0916461,1.0060102,0.0,0.0,0.0,0.0,0.0,0.0
3512000,3432000,0.13232005,0.13225448,0.2053005,1.0001292,1.0001291,51.0,0.0,0.0,0.0,0.0,0.0,0.0,0.0,62.249985,0.0,0.0,nan,0.0,0.0,0.0,0.0,0.09912703,0.0,0.0,0.0,1.0932525,1.093189,1.0060114,0.0,0.0,0.0,0.0,0.0,0.0
3520000,3440000,0.13232005,0.13225448,0.2053005,1.0001292,1.0001291,51.0,0.0,0.0,0.0,0.0,0.0,0.0,0.0,62.249985,0.0,0.0,nan,0.0,0.0,0.0,0.0,0.09912703,0.0,0.0,0.0,1.0949763,1.0949132,1.006013,0.0,0.0,0.0,0.0,0.0,0.0
3528000,3448000,0.13232005,0.13225448,0.2053005,1.0001292,1.0001291,51.0,0.0,0.0,0.0,0.0,0.0,0.0,0.0,62.249985,0.0,0.0,nan,0.0,0.0,0.0,0.0,0.09912703,0.0,0.0,0.0,1.0968813,1.0968189,1.0060147,0.0,0.0,0.0,0.0,0.0,0.0
3536000,3456000,0.13232005,0.13225448,0.2053005,1.0001292,1.0001291,51.0,0.0,0.0,0.0,0.0,0.0,0.0,0.0,62.249985,0.0,0.0,nan,0.0,0.0,0.0,0.0,0.09912703,0.0,0.0,0.0,1.0989674,1.0989057,1.0060165,0.0,0.0,0.0,0.0,0.0,0.0
3544000,3464000,0.13232005,0.13225448,0.2053005,1.0001292,1.0001291,51.0,0.0,0.0,0.0,0.0,0.0,0.0,0.0,62.249985,0.0,0.0,nan,0.0,0.0,0.0,0.0,0.09912703,0.0,0.0,0.0,1.1012348,1.1011739,1.0060188,0.0,0.0,0.0,0.0,0.0,0.0
3552000,3472000,0.13232005,0.13225448,0.2053005,1.0001292,1.0001291,51.0,0.0,0.0,0.0,0.0,0.0,0.0,0.0,62.249985,0.0,0.0,nan,0.0,0.0,0.0,0.0,0.09912703,0.0,0.0,0.0,1.1036832,1.103623,1.0060213,0.0,0.0,0.0,0.0,0.0,0.0
3560000,3480000,0.13232005,0.13225448,0.2053005,1.0001292,1.0001291,51.0,0.0,0.0,0.0,0.0,0.0,0.0,0.0,62.249985,0.0,0.0,nan,0.0,0.0,0.0,0.0,0.09912703,0.0,0.0,0.0,1.1063131,1.1062537,1.0060238,0.0,0.0,0.0,0.0,0.0,0.0
3568000,3488000,0.13232005,0.13225448,0.2053005,1.0001292,1.0001291,51.0,0.0,0.0,0.0,0.0,0.0,0.0,0.0,62.249985,0.0,0.0,nan,0.0,0.0,0.0,0.0,0.09912703,0.0,0.0,0.0,1.1091241,1.1090658,1.0060264,0.0,0.0,0.0,0.0,0.0,0.0
3576000,3496000,0.13232005,0.13225448,0.2053005,1.0001292,1.0001291,51.0,0.0,0.0,0.0,0.0,0.0,0.0,0.0,62.249985,0.0,0.0,nan,0.0,0.0,0.0,0.0,0.09912703,0.0,0.0,0.0,1.1121163,1.1120591,1.0060292,0.0,0.0,0.0,0.0,0.0,0.0
3584000,3504000,0.13232005,0.13225448,0.2053005,1.0001292,1.0001291,51.0,0.0,0.0,0.0,0.0,0.0,0.0,0.0,62.249985,0.0,0.0,nan,0.0,0.0,0.0,0.0,0.09835506,0.0,0.0,0.0,1.1152899,1.1152337,1.0060319,0.0,0.0,0.0,0.0,0.0,0.0
3592000,3512000,0.13232005,0.13225448,0.2053005,1.0001292,1.0001291,51.0,0.0,0.0,0.0,0.0,0.0,0.0,0.0,62.249985,0.0,0.0,nan,0.0,0.0,0.0,0.0,0.09835506,0.0,0.0,0.0,1.1186447,1.1185895,1.0060347,0.0,0.0,0.0,0.0,0.0,0.0
3600000,3520000,0.13232005,0.13225448,0.2053005,1.0001292,1.0001291,51.0,0.0,0.0,0.0,0.0,0.0,0.0,0.0,62.249985,0.0,0.0,nan,0.0,0.0,0.0,0.0,0.09835506,0.0,0.0,0.0,1.1147032,1.1146516,1.006034,0.0,0.0,0.0,0.0,0.0,0.0
3608000,3528000,0.13232005,0.13225448,0.2053005,1.0001292,1.0001291,51.0,0.0,0.0,0.0,0.0,0.0,0.0,0.0,62.249985,0.0,0.0,nan,0.0,0.0,0.0,0.0,0.09835506,0.0,0.0,0.0,1.118304,1.1182537,1.0060374,0.0,0.0,0.0,0.0,0.0,0.0
3616000,3536000,0.13232005,0.13225448,0.2053005,1.0001292,1.0001291,51.0,0.0,0.0,0.0,0.0,0.0,0.0,0.0,62.249985,0.0,0.0,nan,0.0,0.0,0.0,0.0,0.09835506,0.0,0.0,0.0,1.1220852,1.1220363,1.0060408,0.0,0.0,0.0,0.0,0.0,0.0
3624000,3544000,0.13232005,0.13225448,0.2053005,1.0001292,1.0001291,51.0,0.0,0.0,0.0,0.0,0.0,0.0,0.0,45.58333,0.0,0.0,nan,0.0,0.0,0.0,0.0,0.09835506,0.0,0.0,0.0,1.1260467,1.1259993,1.0060445,0.0,0.0,0.0,0.0,0.0,0.0
3632000,3552000,0.13232005,0.13225448,0.2053005,1.0001292,1.0001291,51.0,0.0,0.0,0.0,0.0,0.0,0.0,0.0,45.58333,0.0,0.0,nan,0.0,0.0,0.0,0.0,0.09835506,0.0,0.0,0.0,1.1228945,1.1228507,1.006044,0.0,0.0,0.0,0.0,0.0,0.0
3640000,3560000,0.13232005,0.13225448,0.2053005,1.0001292,1.0001291,51.0,0.0,0.0,0.0,0.0,0.0,0.0,0.0,45.58333,0.0,0.0,nan,0.0,0.0,0.0,0.0,0.09835506,0.0,0.0,0.0,1.1270747,1.1270324,1.006048,0.0,0.0,0.0,0.0,0.0,0.0
3648000,3568000,0.13232005,0.13225448,0.2053005,1.0001292,1.0001291,51.0,0.0,0.0,0.0,0.0,0.0,0.0,0.0,45.58333,0.0,0.0,nan,0.0,0.0,0.0,0.0,0.09835506,0.0,0.0,0.0,1.1314337,1.1313932,1.0060521,0.0,0.0,0.0,0.0,0.0,0.0
3656000,3576000,0.13232005,0.13225448,0.2053005,1.0001292,1.0001291,51.0,0.0,0.0,0.0,0.0,0.0,0.0,0.0,45.58333,0.0,0.0,nan,0.0,0.0,0.0,0.0,0.097754285,0.0,0.0,0.0,1.1359717,1.1359328,1.0060565,0.0,0.0,0.0,0.0,0.0,0.0
3664000,3584000,0.13232005,0.13225448,0.2053005,1.0001292,1.0001291,51.0,0.0,0.0,0.0,0.0,0.0,0.0,0.0,45.58333,0.0,0.0,nan,0.0,0.0,0.0,0.0,0.097754285,0.0,0.0,0.0,1.1406887,1.1406515,1.0060612,0.0,0.0,0.0,0.0,0.0,0.0
3672000,3592000,0.13232005,0.13225448,0.2053005,1.0001292,1.0001291,51.0,0.0,0.0,0.0,0.0,0.0,0.0,0.0,45.58333,0.0,0.0,nan,0.0,0.0,0.0,0.0,0.097754285,0.0,0.0,0.0,1.1455843,1.1455495,1.006066,0.0,0.0,0.0,0.0,0.0,0.0
3680000,3600000,0.13232005,0.13225448,0.2053005,1.0001292,1.0001291,51.0,0.0,0.0,0.0,0.0,0.0,0.0,0.0,45.58333,0.0,0.0,nan,0.0,0.0,0.0,0.0,0.097754285,0.0,0.0,0.0,1.1506592,1.1506262,1.006071,0.0,0.0,0.0,0.0,0.0,0.0
3688000,3608000,0.13232005,0.13225448,0.2053005,1.0001292,1.0001291,51.0,0.0,0.0,0.0,0.0,0.0,0.0,0.0,45.58333,0.0,0.0,nan,0.0,0.0,0.0,0.0,0.097754285,0.0,0.0,0.0,1.1559132,1.1558819,1.0060762,0.0,0.0,0.0,0.0,0.0,0.0
3696000,3616000,0.13232005,0.13225448,0.2053005,1.0001292,1.0001291,51.0,0.0,0.0,0.0,0.0,0.0,0.0,0.0,45.58333,0.0,0.0,nan,0.0,0.0,0.0,0.0,0.097754285,0.0,0.0,0.0,1.161346,1.1613166,1.0060815,0.0,0.0,0.0,0.0,0.0,0.0
3704000,3624000,0.13232005,0.13225448,0.2053005,1.0001292,1.0001291,51.0,0.0,0.0,0.0,0.0,0.0,0.0,0.0,45.58333,0.0,0.0,nan,0.0,0.0,0.0,0.0,0.097754285,0.0,0.0,0.0,1.1669575,1.1669307,1.006087,0.0,0.0,0.0,0.0,0.0,0.0
3712000,3632000,0.13232005,0.13225448,0.2053005,1.0001292,1.0001291,51.0,0.0,0.0,0.0,0.0,0.0,0.0,0.0,45.58333,0.0,0.0,nan,0.0,0.0,0.0,0.0,0.097754285,0.0,0.0,0.0,1.1727481,1.1727235,1.0060925,0.0,0.0,0.0,0.0,0.0,0.0
3720000,3640000,0.13232005,0.13225448,0.2053005,1.0001292,1.0001291,51.0,0.0,0.0,0.0,0.0,0.0,0.0,0.0,45.58333,0.0,0.0,nan,0.0,0.0,0.0,0.0,0.097754285,0.0,0.0,0.0,1.1787176,1.1786954,1.0060984,0.0,0.0,0.0,0.0,0.0,0.0
3728000,3648000,0.13232005,0.13225448,0.2053005,1.0001292,1.0001291,51.0,0.0,0.0,0.0,0.0,0.0,0.0,0.0,45.58333,0.0,0.0,nan,0.0,0.0,0.0,0.0,0.09728594,0.0,0.0,0.0,1.184866,1.1848464,1.0061046,0.0,0.0,0.0,0.0,0.0,0.0
3736000,3656000,0.13232005,0.13225448,0.2053005,1.0001292,1.0001291,51.0,0.0,0.0,0.0,0.0,0.0,0.0,0.0,45.58333,0.0,0.0,nan,0.0,0.0,0.0,0.0,0.09728594,0.0,0.0,0.0,1.1911933,1.1911763,1.0061109,0.0,0.0,0.0,0.0,0.0,0.0
3744000,3664000,0.13232005,0.13225448,0.2053005,1.0001292,1.0001291,51.0,0.0,0.0,0.0,0.0,0.0,0.0,0.0,45.58333,0.0,0.0,nan,0.0,0.0,0.0,0.0,0.09728594,0.0,0.0,0.0,1.1976994,1.1976854,1.0061173,0.0,0.0,0.0,0.0,0.0,0.0
3752000,3672000,0.13232005,0.13225448,0.2053005,1.0001292,1.0001291,51.0,0.0,0.0,0.0,0.0,0.0,0.0,0.0,45.58333,0.0,0.0,nan,0.0,0.0,0.0,0.0,0.09728594,0.0,0.0,0.0,1.2043846,1.2043736,1.0061239,0.0,0.0,0.0,0.0,0.0,0.0
3760000,3680000,0.13232005,0.13225448,0.2053005,1.0001292,1.0001291,51.0,0.0,0.0,0.0,0.0,0.0,0.0,0.0,45.58333,0.0,0.0,nan,0.0,0.0,0.0,0.0,0.09728594,0.0,0.0,0.0,1.2112489,1.2112405,1.0061308,0.0,0.0,0.0,0.0,0.0,0.0
3768000,3688000,0.13232005,0.13225448,0.2053005,1.0001292,1.0001291,51.0,0.0,0.0,0.0,0.0,0.0,0.0,0.0,45.58333,0.0,0.0,nan,0.0,0.0,0.0,0.0,0.09728594,0.0,0.0,0.0,1.2182918,1.2182868,1.0061377,0.0,0.0,0.0,0.0,0.0,0.0
3776000,3696000,0.13232005,0.13225448,0.2053005,1.0001292,1.0001291,51.0,0.0,0.0,0.0,0.0,0.0,0.0,0.0,45.58333,0.0,0.0,nan,0.0,0.0,0.0,0.0,0.09728594,0.0,0.0,0.0,1.2255139,1.2255119,1.0061451,0.0,0.0,0.0,0.0,0.0,0.0
3784000,3704000,0.13232005,0.13225448,0.2053005,1.0001292,1.0001291,51.0,0.0,0.0,0.0,0.0,0.0,0.0,0.0,45.58333,0.0,0.0,nan,0.0,0.0,0.0,0.0,0.09728594,0.0,0.0,0.0,1.2329149,1.232916,1.0061526,0.0,0.0,0.0,0.0,0.0,0.0
3792000,3712000,0.13232005,0.13225448,0.2053005,1.0001292,1.0001291,51.0,0.0,0.0,0.0,0.0,0.0,0.0,0.0,45.58333,0.0,0.0,nan,0.0,0.0,0.0,0.0,0.09728594,0.0,0.0,0.0,1.2404946,1.2404989,1.0061604,0.0,0.0,0.0,0.0,0.0,0.0
3800000,3720000,0.13232005,0.13225448,0.2053005,1.0001292,1.0001291,51.0,0.0,0.0,0.0,0.0,0.0,0.0,0.0,45.58337,0.0,0.0,nan,0.0,0.0,0.0,0.0,0.09692248,0.0,0.0,0.0,1.2482531,1.2482611,1.0061682,0.0,0.0,0.0,0.0,0.0,0.0
3808000,3728000,0.09475164,0.09475205,0.2040036,1.0000952,1.0000952,26.000025,0.0,0.0,0.0,0.0,0.0,0.0,0.0,45.58337,0.0,0.0,nan,0.0,0.0,0.0,0.0,0.09692248,0.0,0.0,0.0,1.168814,1.1688265,1.0061119,0.0,0.0,0.0,0.0,0.0,0.0
3816000,3736000,0.09475164,0.09475205,0.2040036,1.0000952,1.0000952,26.000025,0.0,0.0,0.0,0.0,0.0,0.0,0.0,45.58337,0.0,0.0,nan,0.0,0.0,0.0,0.0,0.09692248,0.0,0.0,0.0,1.1752082,1.1752231,1.0061183,0.0,0.0,0.0,0.0,0.0,0.0
3824000,3744000,0.09475164,0.09475205,0.2040036,1.0000952,1.0000952,26.000025,0.0,0.0,0.0,0.0,0.0,0.0,0.0,45.58337,0.0,0.0,nan,0.0,0.0,0.0,0.0,0.09692248,0.0,0.0,0.0,1.1817645,1.1817822,1.006125,0.0,0.0,0.0,0.0,0.0,0.0
3832000,3752000,0.09475164,0.09475205,0.2040036,1.0000952,1.0000952,26.000025,0.0,0.0,0.0,0.0,0.0,0.0,0.0,45.58337,0.0,0.0,nan,0.0,0.0,0.0,0.0,0.09692248,0.0,0.0,0.0,1.1884829,1.1885034,1.0061319,0.0,0.0,0.0,0.0,0.0,0.0
3840000,3760000,0.09475164,0.09475205,0.2040036,1.0000952,1.0000952,26.000025,0.0,0.0,0.0,0.0,0.0,0.0,0.0,45.58337,0.0,0.0,nan,0.0,0.0,0.0,0.0,0.09692248,0.0,0.0,0.0,1.1851157,1.185139,1.0061296,0.0,0.0,0.0,0.0,0.0,0.0
3848000,3768000,0.09475164,0.09475205,0.2040036,1.0000952,1.0000952,26.000025,0.0,0.0,0.0,0.0,0.0,0.0,0.0,45.58337,0.0,0.0,nan,0.0,0.0,0.0,0.0,0.09692248,0.0,0.0,0.0,1.1918173,1.1918433,1.0061365,0.0,0.0,0.0,0.0,0.0,0.0
3856000,3776000,0.09475164,0.09475205,0.2040036,1.0000952,1.0000952,26.000025,0.0,0.0,0.0,0.0,0.0,0.0,0.0,45.58337,0.0,0.0,nan,0.0,0.0,0.0,0.0,0.09692248,0.0,0.0,0.0,1.1986756,1.1987046,1.0061435,0.0,0.0,0.0,0.0,0.0,0.0
3864000,3784000,0.09475164,0.09475205,0.2040036,1.0000952,1.0000952,26.000025,0.0,0.0,0.0,0.0,0.0,0.0,0.0,37.250053,0.0,0.0,nan,0.0,0.0,0.0,0.0,0.09692248,0.0,0.0,0.0,1.2056903,1.2057221,1.0061507,0.0,0.0,0.0,0.0,0.0,0.0
3872000,3792000,0.09475164,0.09475205,0.2040036,1.0000952,1.0000952,26.000025,0.0,0.0,0.0,0.0,0.0,0.0,0.0,37.250053,0.0,0.0,nan,0.0,0.0,0.0,0.0,0.09664353,0.0,0.0,0.0,1.2128611,1.2128965,1.0061587,0.0,0.0,0.0,0.0,0.0,0.0
3880000,3800000,0.09475164,0.09475205,0.2040036,1.0000952,1.0000952,26.000025,0.0,0.0,0.0,0.0,0.0,0.0,0.0,37.250053,0.0,0.0,nan,0.0,0.0,0.0,0.0,0.09664353,0.0,0.0,0.0,1.2201886,1.2202274,1.0061666,0.0,0.0,0.0,0.0,0.0,0.0
3888000,3808000,0.09475164,0.09475205,0.2040036,1.0000952,1.0000952,26.000025,0.0,0.0,0.0,0.0,0.0,0.0,0.0,37.250053,0.0,0.0,nan,0.0,0.0,0.0,0.0,0.09664353,0.0,0.0,0.0,1.2276729,1.227715,1.0061743,0.0,0.0,0.0,0.0,0.0,0.0
3896000,3816000,0.09475164,0.09475205,0.2040036,1.0000952,1.0000952,26.000025,0.0,0.0,0.0,0.0,0.0,0.0,0.0,37.250053,0.0,0.0,nan,0.0,0.0,0.0,0.0,0.09664353,0.0,0.0,0.0,1.2353135,1.2353592,1.0061826,0.0,0.0,0.0,0.0,0.0,0.0
3904000,3824000,0.09475164,0.09475205,0.2040036,1.0000952,1.0000952,26.000025,0.0,0.0,0.0,0.0,0.0,0.0,0.0,37.250053,0.0,0.0,nan,0.0,0.0,0.0,0.0,0.09664353,0.0,0.0,0.0,1.2431109,1.2431597,1.0061908,0.0,0.0,0.0,0.0,0.0,0.0
3912000,3832000,0.09475164,0.09475205,0.2040036,1.0000952,1.0000952,26.000025,0.0,0.0,0.0,0.0,0.0,0.0,0.0,37.250053,0.0,0.0,nan,0.0,0.0,0.0,0.0,0.09664353,0.0,0.0,0.0,1.251065,1.2511172,1.0061989,0.0,0.0,0.0,0.0,0.0,0.0
3920000,3840000,0.09475164,0.09475205,0.2040036,1.0000952,1.0000952,26.000025,0.0,0.0,0.0,0.0,0.0,0.0,0.0,37.250107,0.0,0.0,nan,0.0,0.0,0.0,0.0,0.09664353,0.0,0.0,0.0,1.2591752,1.2592312,1.0062073,0.0,0.0,0.0,0.0,0.0,0.0
3928000,3848000,0.09475164,0.09475205,0.2040036,1.0000952,1.0000952,26.000025,0.0,0.0,0.0,0.0,0.0,0.0,0.0,37.250107,0.0,0.0,nan,0.0,0.0,0.0,0.0,0.09664353,0.0,0.0,0.0,1.2674422,1.2675017,1.0062163,0.0,0.0,0.0,0.0,0.0,0.0
3936000,3856000,0.09475164,0.09475205,0.2040036,1.0000952,1.0000952,26.000025,0.0,0.0,0.0,0.0,0.0,0.0,0.0,37.250107,0.0,0.0,nan,0.0,0.0,0.0,0.0,0.09664353,0.0,0.0,0.0,1.2758656,1.275929,1.0062251,0.0,0.0,0.0,0.0,0.0,0.0
3944000,3864000,0.09475164,0.09475205,0.2040036,1.0000952,1.0000952,26.000025,0.0,0.0,0.0,0.0,0.0,0.0,0.0,37.250107,0.0,0.0,nan,0.0,0.0,0.0,0.0,0.09643368,0.0,0.0,0.0,1.2844453,1.2845126,1.0062345,0.0,0.0,0.0,0.0,0.0,0.0
3952000,3872000,0.09475164,0.09475205,0.2040036,1.0000952,1.0000952,26.000025,0.0,0.0,0.0,0.0,0.0,0.0,0.0,37.250107,0.0,0.0,nan,0.0,0.0,0.0,0.0,0.09643368,0.0,0.0,0.0,1.2931818,1.2932531,1.006244,0.0,0.0,0.0,0.0,0.0,0.0
3960000,3880000,0.09475164,0.09475205,0.2040036,1.0000952,1.0000952,26.000025,0.0,0.0,0.0,0.0,0.0,0.0,0.0,37.250107,0.0,0.0,nan,0.0,0.0,0.0,0.0,0.09643368,0.0,0.0,0.0,1.3020743,1.3021502,1.0062535,0.0,0.0,0.0,0.0,0.0,0.0
3968000,3888000,0.09475164,0.09475205,0.2040036,1.0000952,1.0000952,26.000025,0.0,0.0,0.0,0.0,0.0,0.0,0.0,37.250107,0.0,0.0,nan,0.0,0.0,0.0,0.0,0.09643368,0.0,0.0,0.0,1.311124,1.3112038,1.006263,0.0,0.0,0.0,0.0,0.0,0.0
3976000,3896000,0.09475164,0.09475205,0.2040036,1.0000952,1.0000952,26.000025,0.0,0.0,0.0,0.0,0.0,0.0,0.0,20.47152,0.0,0.0,nan,0.0,0.0,0.0,0.0,0.09643368,0.0,0.0,0.0,1.3203301,1.320414,1.0062728,0.0,0.0,0.0,0.0,0.0,0.0
3984000,3904000,0.09475164,0.09475205,0.2040036,1.0000952,1.0000952,26.000025,0.0,0.0,0.0,0.0,0.0,0.0,0.0,20.47152,0.0,0.0,nan,0.0,0.0,0.0,0.0,0.09643368,0.0,0.0,0.0,1.3296927,1.3297807,1.0062828,0.0,0.0,0.0,0.0,0.0,0.0
3992000,3912000,0.09475164,0.09475205,0.2040036,1.0000952,1.0000952,26.000025,0.0,0.0,0.0,0.0,0.0,0.0,0.0,20.47152,0.0,0.0,nan,0.0,0.0,0.0,0.0,0.09643368,0.0,0.0,0.0,1.339212,1.3393042,1.0062928,0.0,0.0,0.0,0.0,0.0,0.0
4000000,3920000,0.09475164,0.09475205,0.2040036,1.0000952,1.0000952,26.000025,0.0,0.0,0.0,0.0,0.0,0.0,0.0,20.47152,0.0,0.0,nan,0.0,0.0,0.0,0.0,0.09643368,0.0,0.0,0.0,1.3488873,1.3489845,1.0063032,0.0,0.0,0.0,0.0,0.0,0.0
4008000,3928000,0.09475164,0.09475205,0.2040036,1.0000952,1.0000952,26.000025,0.0,0.0,0.0,0.0,0.0,0.0,0.0,20.47152,0.0,0.0,nan,0.0,0.0,0.0,0.0,0.09643368,0.0,0.0,0.0,1.3587192,1.3588212,1.0063137,0.0,0.0,0.0,0.0,0.0,0.0
4016000,3936000,0.09475164,0.09475205,0.2040036,1.0000952,1.0000952,26.000025,0.0,0.0,0.0,0.0,0.0,0.0,0.0,20.47152,0.0,0.0,nan,0.0,0.0,0.0,0.0,0.0962806,0.0,0.0,0.0,1.245526,1.2456006,1.0062044,0.0,0.0,0.0,0.0,0.0,0.0
4024000,3944000,0.09475164,0.09475205,0.2040036,1.0000952,1.0000952,26.000025,0.0,0.0,0.0,0.0,0.0,0.0,0.0,20.47152,0.0,0.0,nan,0.0,0.0,0.0,0.0,0.0962806,0.0,0.0,0.0,1.2526153,1.2526935,1.0062116,0.0,0.0,0.0,0.0,0.0,0.0
4032000,3952000,0.09475164,0.09475205,0.2040036,1.0000952,1.0000952,26.000025,0.0,0.0,0.0,0.0,0.0,0.0,0.0,17.169731,0.0,0.0,nan,0.0,0.0,0.0,0.0,0.0962806,0.0,0.0,0.0,1.2598243,1.2599053,1.0062189,0.0,0.0,0.0,0.0,0.0,0.0
4040000,3960000,0.09475164,0.09475205,0.2040036,1.0000952,1.0000952,26.000025,0.0,0.0,0.0,0.0,0.0,0.0,0.0,17.169731,0.0,0.0,nan,0.0,0.0,0.0,0.0,0.0962806,0.0,0.0,0.0,1.267152,1.2672364,1.0062267,0.0,0.0,0.0,0.0,0.0,0.0
4048000,3968000,0.09475164,0.09475205,0.2040036,1.0000952,1.0000952,26.000025,0.0,0.0,0.0,0.0,0.0,0.0,0.0,17.169731,0.0,0.0,nan,0.0,0.0,0.0,0.0,0.0962806,0.0,0.0,0.0,1.2501031,1.2501776,1.0062082,0.0,0.0,0.0,0.0,0.0,0.0
4056000,3976000,0.09475164,0.09475205,0.2040036,1.0000952,1.0000952,26.000025,0.0,0.0,0.0,0.0,0.0,0.0,0.0,17.169731,0.0,0.0,nan,0.0,0.0,0.0,0.0,0.0962806,0.0,0.0,0.0,1.2569343,1.2570117,1.0062152,0.0,0.0,0.0,0.0,0.0,0.0
4064000,3984000,0.09475164,0.09475205,0.2040036,1.0000952,1.0000952,26.000025,0.0,0.0,0.0,0.0,0.0,0.0,0.0,17.169731,0.0,0.0,nan,0.0,0.0,0.0,0.0,0.0962806,0.0,0.0,0.0,1.2638737,1.263954,1.0062224,0.0,0.0,0.0,0.0,0.0,0.0
4072000,3992000,0.09475164,0.09475205,0.2040036,1.0000952,1.0000952,26.000025,0.0,0.0,0.0,0.0,0.0,0.0,0.0,17.169731,0.0,0.0,nan,0.0,0.0,0.0,0.0,0.0962806,0.0,0.0,0.0,1.2709213,1.2710049,1.0062296,0.0,0.0,0.0,0.0,0.0,0.0
4080000,4000000,0.09475164,0.09475205,0.2040036,1.0000952,1.0000952,26.000025,0.0,0.0,0.0,0.0,0.0,0.0,0.0,17.169731,0.0,0.0,nan,0.0,0.0,0.0,0.0,0.0962806,0.0,0.0,0.0,1.2780771,1.2781637,1.0062375,0.0,0.0,0.0,0.0,0.0,0.0
4088000,4008000,0.09475164,0.09475205,0.2040036,1.0000952,1.0000952,26.000025,0.0,0.0,0.0,0.0,0.0,0.0,0.0,15.7600975,0.0,0.0,nan,0.0,0.0,0.0,0.0,0.09617457,0.0,0.0,0.0,1.2853409,1.2854307,1.0062455,0.0,0.0,0.0,0.0,0.0,0.0
4096000,4016000,0.09475164,0.09475205,0.2040036,1.0000952,1.0000952,26.000025,0.0,0.0,0.0,0.0,0.0,0.0,0.0,15.7600975,0.0,0.0,nan,0.0,0.0,0.0,0.0,0.09617457,0.0,0.0,0.0,1.2927133,1.2928064,1.0062531,0.0,0.0,0.0,0.0,0.0,0.0
4104000,4024000,0.09475164,0.09475205,0.2040036,1.0000952,1.0000952,26.000025,0.0,0.0,0.0,0.0,0.0,0.0,0.0,15.7600975,0.0,0.0,nan,0.0,0.0,0.0,0.0,0.09617457,0.0,0.0,0.0,1.3001939,1.3002899,1.006261,0.0,0.0,0.0,0.0,0.0,0.0
4112000,4032000,0.09475164,0.09475205,0.2040036,1.0000952,1.0000952,26.000025,0.0,0.0,0.0,0.0,0.0,0.0,0.0,15.7600975,0.0,0.0,nan,0.0,0.0,0.0,0.0,0.09617457,0.0,0.0,0.0,1.3077829,1.3078818,1.0062687,0.0,0.0,0.0,0.0,0.0,0.0
4120000,4040000,0.09475164,0.09475205,0.2040036,1.0000952,1.0000952,26.000025,0.0,0.0,0.0,0.0,0.0,0.0,0.0,15.7600975,0.0,0.0,nan,0.0,0.0,0.0,0.0,0.09617457,0.0,0.0,0.0,1.3154799,1.3155823,1.006277,0.0,0.0,0.0,0.0,0.0,0.0
4128000,4048000,0.09475164,0.09475205,0.2040036,1.0000952,1.0000952,26.000025,0.0,0.0,0.0,0.0,0.0,0.0,0.0,15.7600975,0.0,0.0,nan,0.0,0.0,0.0,0.0,0.09617457,0.0,0.0,0.0,1.3232852,1.3233912,1.0062847,0.0,0.0,0.0,0.0,0.0,0.0
4136000,4056000,0.09475164,0.09475205,0.2040036,1.0000952,1.0000952,26.000025,0.0,0.0,0.0,0.0,0.0,0.0,0.0,15.7600975,0.0,0.0,nan,0.0,0.0,0.0,0.0,0.09617457,0.0,0.0,0.0,1.3311987,1.331308,1.006293,0.0,0.0,0.0,0.0,0.0,0.0
4144000,4064000,0.09475164,0.09475205,0.2040036,1.0000952,1.0000952,26.000025,0.0,0.0,0.0,0.0,0.0,0.0,0.0,15.7600975,0.0,0.0,nan,0.0,0.0,0.0,0.0,0.09617457,0.0,0.0,0.0,1.3392203,1.3393328,1.0063016,0.0,0.0,0.0,0.0,0.0,0.0
4152000,4072000,0.09475164,0.09475205,0.2040036,1.0000952,1.0000952,26.000025,0.0,0.0,0.0,0.0,0.0,0.0,0.0,14.978397,0.0,0.0,nan,0.0,0.0,0.0,0.0,0.09617457,0.0,0.0,0.0,1.3473499,1.3474666,1.0063105,0.0,0.0,0.0,0.0,0.0,0.0
4160000,4080000,0.09475164,0.09475205,0.2040036,1.0000952,1.0000952,26.000025,0.0,0.0,0.0,0.0,0.0,0.0,0.0,14.978397,0.0,0.0,nan,0.0,0.0,0.0,0.0,0.09610734,0.0,0.0,0.0,1.355588,1.355708,1.0063187,0.0,0.0,0.0,0.0,0.0,0.0
4168000,4088000,0.09475164,0.09475205,0.2040036,1.0000952,1.0000952,26.000025,0.0,0.0,0.0,0.0,0.0,0.0,0.0,14.978397,0.0,0.0,nan,0.0,0.0,0.0,0.0,0.09610734,0.0,0.0,0.0,1.3639346,1.3640575,1.0063277,0.0,0.0,0.0,0.0,0.0,0.0
4176000,4096000,0.09475164,0.09475205,0.2040036,1.0000952,1.0000952,26.000025,0.0,0.0,0.0,0.0,0.0,0.0,0.0,14.978397,0.0,0.0,nan,0.0,0.0,0.0,0.0,0.09610734,0.0,0.0,0.0,1.3723893,1.3725154,1.006337,0.0,0.0,0.0,0.0,0.0,0.0
4184000,4104000,0.09475164,0.09475205,0.2040036,1.0000952,1.0000952,26.000025,0.0,0.0,0.0,0.0,0.0,0.0,0.0,14.978397,0.0,0.0,nan,0.0,0.0,0.0,0.0,0.09610734,0.0,0.0,0.0,1.3809526,1.3810818,1.0063457,0.0,0.0,0.0,0.0,0.0,0.0
4192000,4112000,0.09475164,0.09475205,0.2040036,1.0000952,1.0000952,26.000025,0.0,0.0,0.0,0.0,0.0,0.0,0.0,14.978397,0.0,0.0,nan,0.0,0.0,0.0,0.0,0.09610734,0.0,0.0,0.0,1.3896235,1.3897566,1.006355,0.0,0.0,0.0,0.0,0.0,0.0
4200000,4120000,0.09475164,0.09475205,0.2040036,1.0000952,1.0000952,26.000025,0.0,0.0,0.0,0.0,0.0,0.0,0.0,14.978397,0.0,0.0,nan,0.0,0.0,0.0,0.0,0.09610734,0.0,0.0,0.0,1.3984029,1.3985394,1.0063645,0.0,0.0,0.0,0.0,0.0,0.0
4208000,4128000,0.11151658,0.111515306,0.20701154,1.0007446,1.0007446,2.8876317,0.0,0.0,0.0,0.0,0.0,0.0,0.0,14.481487,0.0,0.0,nan,0.0,0.0,0.0,0.0,0.09610734,0.0,0.0,0.0,1.4072907,1.4074303,1.0063738,0.0,0.0,0.0,0.0,0.0,0.0
4216000,4136000,0.11151658,0.111515306,0.20701154,1.0007446,1.0007446,2.8876317,0.0,0.0,0.0,0.0,0.0,0.0,0.0,14.481487,0.0,0.0,nan,0.0,0.0,0.0,0.0,0.09610734,0.0,0.0,0.0,1.4162866,1.4164304,1.0063831,0.0,0.0,0.0,0.0,0.0,0.0
4224000,4144000,0.11151658,0.111515306,0.20701154,1.0007446,1.0007446,2.8876317,0.0,0.0,0.0,0.0,0.0,0.0,0.0,14.481487,0.0,0.0,nan,0.0,0.0,0.0,0.0,0.09610734,0.0,0.0,0.0,1.2103606,1.2103981,1.0061663,0.0,0.0,0.0,0.0,0.0,0.0
4232000,4152000,0.11151658,0.111515306,0.20701154,1.0007446,1.0007446,2.8876317,0.0,0.0,0.0,0.0,0.0,0.0,0.0,14.481487,0.0,0.0,nan,0.0,0.0,0.0,0.0,0.09607188,0.0,0.0,0.0,1.2147624,1.2148012,1.0061706,0.0,0.0,0.0,0.0,0.0,0.0
4240000,4160000,0.11151658,0.111515306,0.20701154,1.0007446,1.0007446,2.8876317,0.0,0.0,0.0,0.0,0.0,0.0,0.0,14.481487,0.0,0.0,nan,0.0,0.0,0.0,0.0,0.09607188,0.0,0.0,0.0,1.219219,1.2192595,1.0061752,0.0,0.0,0.0,0.0,0.0,0.0
4248000,4168000,0.11151658,0.111515306,0.20701154,1.0007446,1.0007446,2.8876317,0.0,0.0,0.0,0.0,0.0,0.0,0.0,14.481487,0.0,0.0,nan,0.0,0.0,0.0,0.0,0.09607188,0.0,0.0,0.0,1.223731,1.2237723,1.0061797,0.0,0.0,0.0,0.0,0.0,0.0
4256000,4176000,0.11151658,0.111515306,0.20701154,1.0007446,1.0007446,2.8876317,0.0,0.0,0.0,0.0,0.0,0.0,0.0,14.137697,0.0,0.0,nan,0.0,0.0,0.0,0.0,0.09607188,0.0,0.0,0.0,1.2033951,1.2034255,1.0061578,0.0,0.0,0.0,0.0,0.0,0.0
4264000,4184000,0.11151658,0.111515306,0.20701154,1.0007446,1.0007446,2.8876317,0.0,0.0,0.0,0.0,0.0,0.0,0.0,14.137697,0.0,0.0,nan,0.0,0.0,0.0,0.0,0.09607188,0.0,0.0,0.0,1.2074354,1.2074666,1.0061616,0.0,0.0,0.0,0.0,0.0,0.0
4272000,4192000,0.11151658,0.111515306,0.20701154,1.0007446,1.0007446,2.8876317,0.0,0.0,0.0,0.0,0.0,0.0,0.0,14.137697,0.0,0.0,nan,0.0,0.0,0.0,0.0,0.09607188,0.0,0.0,0.0,1.2115237,1.2115557,1.0061659,0.0,0.0,0.0,0.0,0.0,0.0
4280000,4200000,0.11151658,0.111515306,0.20701154,1.0007446,1.0007446,2.8876317,0.0,0.0,0.0,0.0,0.0,0.0,0.0,14.137697,0.0,0.0,nan,0.0,0.0,0.0,0.0,0.09607188,0.0,0.0,0.0,1.2156602,1.2156932,1.0061704,0.0,0.0,0.0,0.0,0.0,0.0
4288000,4208000,0.11151658,0.111515306,0.20701154,1.0007446,1.0007446,2.8876317,0.0,0.0,0.0,0.0,0.0,0.0,0.0,14.137697,0.0,0.0,nan,0.0,0.0,0.0,0.0,0.09607188,0.0,0.0,0.0,1.2198453,1.2198793,1.0061742,0.0,0.0,0.0,0.0,0.0,0.0
4296000,4216000,0.11151658,0.111515306,0.20701154,1.0007446,1.0007446,2.8876317,0.0,0.0,0.0,0.0,0.0,0.0,0.0,14.137697,0.0,0.0,nan,0.0,0.0,0.0,0.0,0.09607188,0.0,0.0,0.0,1.2240785,1.2241136,1.0061784,0.0,0.0,0.0,0.0,0.0,0.0
4304000,4224000,0.11151658,0.111515306,0.20701154,1.0007446,1.0007446,2.8876317,0.0,0.0,0.0,0.0,0.0,0.0,0.0,14.137697,0.0,0.0,nan,0.0,0.0,0.0,0.0,0.096062325,0.0,0.0,0.0,1.22836,1.228396,1.006183,0.0,0.0,0.0,0.0,0.0,0.0
4312000,4232000,0.11151658,0.111515306,0.20701154,1.0007446,1.0007446,2.8876317,0.0,0.0,0.0,0.0,0.0,0.0,0.0,14.137697,0.0,0.0,nan,0.0,0.0,0.0,0.0,0.096062325,0.0,0.0,0.0,1.2326899,1.232727,1.0061871,0.0,0.0,0.0,0.0,0.0,0.0
4320000,4240000,0.11151658,0.111515306,0.20701154,1.0007446,1.0007446,2.8876317,0.0,0.0,0.0,0.0,0.0,0.0,0.0,13.8857765,0.0,0.0,nan,0.0,0.0,0.0,0.0,0.096062325,0.0,0.0,0.0,1.2370679,1.2371063,1.0061915,0.0,0.0,0.0,0.0,0.0,0.0
4328000,4248000,0.11151658,0.111515306,0.20701154,1.0007446,1.0007446,2.8876317,0.0,0.0,0.0,0.0,0.0,0.0,0.0,13.8857765,0.0,0.0,nan,0.0,0.0,0.0,0.0,0.096062325,0.0,0.0,0.0,1.2414944,1.2415339,1.0061958,0.0,0.0,0.0,0.0,0.0,0.0
4336000,4256000,0.11151658,0.111515306,0.20701154,1.0007446,1.0007446,2.8876317,0.0,0.0,0.0,0.0,0.0,0.0,0.0,13.8857765,0.0,0.0,nan,0.0,0.0,0.0,0.0,0.096062325,0.0,0.0,0.0,1.2459693,1.2460097,1.0062001,0.0,0.0,0.0,0.0,0.0,0.0
4344000,4264000,0.11151658,0.111515306,0.20701154,1.0007446,1.0007446,2.8876317,0.0,0.0,0.0,0.0,0.0,0.0,0.0,13.8857765,0.0,0.0,nan,0.0,0.0,0.0,0.0,0.096062325,0.0,0.0,0.0,1.2504923,1.2505338,1.0062045,0.0,0.0,0.0,0.0,0.0,0.0
4352000,4272000,0.11151658,0.111515306,0.20701154,1.0007446,1.0007446,2.8876317,0.0,0.0,0.0,0.0,0.0,0.0,0.0,13.8857765,0.0,0.0,nan,0.0,0.0,0.0,0.0,0.096062325,0.0,0.0,0.0,1.2550637,1.255106,1.0062093,0.0,0.0,0.0,0.0,0.0,0.0
4360000,4280000,0.11151658,0.111515306,0.20701154,1.0007446,1.0007446,2.8876317,0.0,0.0,0.0,0.0,0.0,0.0,0.0,13.8857765,0.0,0.0,nan,0.0,0.0,0.0,0.0,0.096062325,0.0,0.0,0.0,1.2596833,1.2597268,1.006214,0.0,0.0,0.0,0.0,0.0,0.0
4368000,4288000,0.11151658,0.111515306,0.20701154,1.0007446,1.0007446,2.8876317,0.0,0.0,0.0,0.0,0.0,0.0,0.0,13.8857765,0.0,0.0,nan,0.0,0.0,0.0,0.0,0.096062325,0.0,0.0,0.0,1.264351,1.264396,1.0062184,0.0,0.0,0.0,0.0,0.0,0.0
4376000,4296000,0.11151658,0.111515306,0.20701154,1.0007446,1.0007446,2.8876317,0.0,0.0,0.0,0.0,0.0,0.0,0.0,13.69322,0.0,0.0,nan,0.0,0.0,0.0,0.0,0.09607337,0.0,0.0,0.0,1.2690672,1.2691137,1.006223,0.0,0.0,0.0,0.0,0.0,0.0
4384000,4304000,0.11151658,0.111515306,0.20701154,1.0007446,1.0007446,2.8876317,0.0,0.0,0.0,0.0,0.0,0.0,0.0,13.69322,0.0,0.0,nan,0.0,0.0,0.0,0.0,0.09607337,0.0,0.0,0.0,1.2738317,1.2738795,1.0062276,0.0,0.0,0.0,0.0,0.0,0.0
4392000,4312000,0.11151658,0.111515306,0.20701154,1.0007446,1.0007446,2.8876317,0.0,0.0,0.0,0.0,0.0,0.0,0.0,13.69322,0.0,0.0,nan,0.0,0.0,0.0,0.0,0.09607337,0.0,0.0,0.0,1.2786447,1.2786933,1.0062324,0.0,0.0,0.0,0.0,0.0,0.0
4400000,4320000,0.11151658,0.111515306,0.20701154,1.0007446,1.0007446,2.8876317,0.0,0.0,0.0,0.0,0.0,0.0,0.0,13.69322,0.0,0.0,nan,0.0,0.0,0.0,0.0,0.09607337,0.0,0.0,0.0,1.2835056,1.2835559,1.0062374,0.0,0.0,0.0,0.0,0.0,0.0
4408000,4328000,0.11151658,0.111515306,0.20701154,1.0007446,1.0007446,2.8876317,0.0,0.0,0.0,0.0,0.0,0.0,0.0,13.69322,0.0,0.0,nan,0.0,0.0,0.0,0.0,0.09607337,0.0,0.0,0.0,1.2884151,1.2884665,1.0062422,0.0,0.0,0.0,0.0,0.0,0.0
4416000,4336000,0.11151658,0.111515306,0.20701154,1.0007446,1.0007446,2.8876317,0.0,0.0,0.0,0.0,0.0,0.0,0.0,13.69322,0.0,0.0,nan,0.0,0.0,0.0,0.0,0.09607337,0.0,0.0,0.0,1.293373,1.2934256,1.0062468,0.0,0.0,0.0,0.0,0.0,0.0
4424000,4344000,0.11151658,0.111515306,0.20701154,1.0007446,1.0007446,2.8876317,0.0,0.0,0.0,0.0,0.0,0.0,0.0,13.69322,0.0,0.0,nan,0.0,0.0,0.0,0.0,0.09607337,0.0,0.0,0.0,1.2983787,1.2984328,1.0062516,0.0,0.0,0.0,0.0,0.0,0.0
4432000,4352000,0.11151658,0.111515306,0.20701154,1.0007446,1.0007446,2.8876317,0.0,0.0,0.0,0.0,0.0,0.0,0.0,13.69322,0.0,0.0,nan,0.0,0.0,0.0,0.0,0.09607337,0.0,0.0,0.0,1.1305953,1.1305838,1.00608,0.0,0.0,0.0,0.0,0.0,0.0
4440000,4360000,0.11151658,0.111515306,0.20701154,1.0007446,1.0007446,2.8876317,0.0,0.0,0.0,0.0,0.0,0.0,0.0,13.54131,0.0,0.0,nan,0.0,0.0,0.0,0.0,0.09607337,0.0,0.0,0.0,1.1325078,1.1324962,1.006082,0.0,0.0,0.0,0.0,0.0,0.0
4448000,4368000,0.11151658,0.111515306,0.20701154,1.0007446,1.0007446,2.8876317,0.0,0.0,0.0,0.0,0.0,0.0,0.0,13.54131,0.0,0.0,nan,0.0,0.0,0.0,0.0,0.096100315,0.0,0.0,0.0,1.1344392,1.1344278,1.006084,0.0,0.0,0.0,0.0,0.0,0.0
4456000,4376000,0.11151658,0.111515306,0.20701154,1.0007446,1.0007446,2.8876317,0.0,0.0,0.0,0.0,0.0,0.0,0.0,13.54131,0.0,0.0,nan,0.0,0.0,0.0,0.0,0.096100315,0.0,0.0,0.0,1.13639,1.1363786,1.0060859,0.0,0.0,0.0,0.0,0.0,0.0
4464000,4384000,0.11151658,0.111515306,0.20701154,1.0007446,1.0007446,2.8876317,0.0,0.0,0.0,0.0,0.0,0.0,0.0,13.54131,0.0,0.0,nan,0.0,0.0,0.0,0.0,0.096100315,0.0,0.0,0.0,1.1275753,1.1275619,1.0060765,0.0,0.0,0.0,0.0,0.0,0.0
4472000,4392000,0.11151658,0.111515306,0.20701154,1.0007446,1.0007446,2.8876317,0.0,0.0,0.0,0.0,0.0,0.0,0.0,13.54131,0.0,0.0,nan,0.0,0.0,0.0,0.0,0.096100315,0.0,0.0,0.0,1.1293612,1.1293478,1.0060785,0.0,0.0,0.0,0.0,0.0,0.0
4480000,4400000,0.11151658,0.111515306,0.20701154,1.0007446,1.0007446,2.8876317,0.0,0.0,0.0,0.0,0.0,0.0,0.0,13.54131,0.0,0.0,nan,0.0,0.0,0.0,0.0,0.096100315,0.0,0.0,0.0,1.1311643,1.1311508,1.0060803,0.0,0.0,0.0,0.0,0.0,0.0
4488000,4408000,0.11151658,0.111515306,0.20701154,1.0007446,1.0007446,2.8876317,0.0,0.0,0.0,0.0,0.0,0.0,0.0,13.54131,0.0,0.0,nan,0.0,0.0,0.0,0.0,0.096100315,0.0,0.0,0.0,1.1329848,1.1329712,1.0060819,0.0,0.0,0.0,0.0,0.0,0.0
4496000,4416000,0.11151658,0.111515306,0.20701154,1.0007446,1.0007446,2.8876317,0.0,0.0,0.0,0.0,0.0,0.0,0.0,13.418298,0.0,0.0,nan,0.0,0.0,0.0,0.0,0.096100315,0.0,0.0,0.0,1.1348224,1.1348087,1.0060837,0.0,0.0,0.0,0.0,0.0,0.0
4504000,4424000,0.11151658,0.111515306,0.20701154,1.0007446,1.0007446,2.8876317,0.0,0.0,0.0,0.0,0.0,0.0,0.0,13.418298,0.0,0.0,nan,0.0,0.0,0.0,0.0,0.096100315,0.0,0.0,0.0,1.1366771,1.1366634,1.0060855,0.0,0.0,0.0,0.0,0.0,0.0
4512000,4432000,0.11151658,0.111515306,0.20701154,1.0007446,1.0007446,2.8876317,0.0,0.0,0.0,0.0,0.0,0.0,0.0,13.418298,0.0,0.0,nan,0.0,0.0,0.0,0.0,0.096100315,0.0,0.0,0.0,1.1385491,1.1385355,1.0060874,0.0,0.0,0.0,0.0,0.0,0.0
4520000,4440000,0.11151658,0.111515306,0.20701154,1.0007446,1.0007446,2.8876317,0.0,0.0,0.0,0.0,0.0,0.0,0.0,13.418298,0.0,0.0,nan,0.0,0.0,0.0,0.0,0.09613921,0.0,0.0,0.0,1.1404382,1.1404248,1.0060891,0.0,0.0,0.0,0.0,0.0,0.0
4528000,4448000,0.11151658,0.111515306,0.20701154,1.0007446,1.0007446,2.8876317,0.0,0.0,0.0,0.0,0.0,0.0,0.0,13.418298,0.0,0.0,nan,0.0,0.0,0.0,0.0,0.09613921,0.0,0.0,0.0,1.1423448,1.1423314,1.0060908,0.0,0.0,0.0,0.0,0.0,0.0
4536000,4456000,0.11151658,0.111515306,0.20701154,1.0007446,1.0007446,2.8876317,0.0,0.0,0.0,0.0,0.0,0.0,0.0,13.418298,0.0,0.0,nan,0.0,0.0,0.0,0.0,0.09613921,0.0,0.0,0.0,1.1442685,1.1442549,1.0060928,0.0,0.0,0.0,0.0,0.0,0.0
4544000,4464000,0.11151658,0.111515306,0.20701154,1.0007446,1.0007446,2.8876317,0.0,0.0,0.0,0.0,0.0,0.0,0.0,13.316757,0.0,0.0,nan,0.0,0.0,0.0,0.0,0.09613921,0.0,0.0,0.0,1.1462095,1.146196,1.0060946,0.0,0.0,0.0,0.0,0.0,0.0
4552000,4472000,0.11151658,0.111515306,0.20701154,1.0007446,1.0007446,2.8876317,0.0,0.0,0.0,0.0,0.0,0.0,0.0,13.316757,0.0,0.0,nan,0.0,0.0,0.0,0.0,0.09613921,0.0,0.0,0.0,1.1481678,1.1481543,1.0060964,0.0,0.0,0.0,0.0,0.0,0.0
4560000,4480000,0.11151658,0.111515306,0.20701154,1.0007446,1.0007446,2.8876317,0.0,0.0,0.0,0.0,0.0,0.0,0.0,13.316757,0.0,0.0,nan,0.0,0.0,0.0,0.0,0.09613921,0.0,0.0,0.0,1.1501434,1.1501298,1.006098,0.0,0.0,0.0,0.0,0.0,0.0
4568000,4488000,0.11151658,0.111515306,0.20701154,1.0007446,1.0007446,2.8876317,0.0,0.0,0.0,0.0,0.0,0.0,0.0,13.316757,0.0,0.0,nan,0.0,0.0,0.0,0.0,0.09613921,0.0,0.0,0.0,1.1521361,1.1521223,1.0061,0.0,0.0,0.0,0.0,0.0,0.0
4576000,4496000,0.11151658,0.111515306,0.20701154,1.0007446,1.0007446,2.8876317,0.0,0.0,0.0,0.0,0.0,0.0,0.0,13.316757,0.0,0.0,nan,0.0,0.0,0.0,0.0,0.09613921,0.0,0.0,0.0,1.1541461,1.1541322,1.006102,0.0,0.0,0.0,0.0,0.0,0.0
4584000,4504000,0.11151658,0.111515306,0.20701154,1.0007446,1.0007446,2.8876317,0.0,0.0,0.0,0.0,0.0,0.0,0.0,13.316757,0.0,0.0,nan,0.0,0.0,0.0,0.0,0.09613921,0.0,0.0,0.0,1.1561733,1.1561594,1.0061036,0.0,0.0,0.0,0.0,0.0,0.0
4592000,4512000,0.11151658,0.111515306,0.20701154,1.0007446,1.0007446,2.8876317,0.0,0.0,0.0,0.0,0.0,0.0,0.0,13.316757,0.0,0.0,nan,0.0,0.0,0.0,0.0,0.0961864,0.0,0.0,0.0,1.1582179,1.1582038,1.0061054,0.0,0.0,0.0,0.0,0.0,0.0
4600000,4520000,0.11151658,0.111515306,0.20701154,1.0007446,1.0007446,2.8876317,0.0,0.0,0.0,0.0,0.0,0.0,0.0,13.316757,0.0,0.0,nan,0.0,0.0,0.0,0.0,0.0961864,0.0,0.0,0.0,1.1602796,1.1602654,1.0061072,0.0,0.0,0.0,0.0,0.0,0.0
4608000,4528000,0.1022642,0.10226518,0.2098782,1.0005304,1.0005305,1.9087666,0.0,0.0,0.0,0.0,0.0,0.0,0.0,13.2315855,0.0,0.0,nan,0.0,0.0,0.0,0.0,0.0961864,0.0,0.0,0.0,1.1623585,1.1623445,1.0061094,0.0,0.0,0.0,0.0,0.0,0.0
4616000,4536000,0.1022642,0.10226518,0.2098782,1.0005304,1.0005305,1.9087666,0.0,0.0,0.0,0.0,0.0,0.0,0.0,13.2315855,0.0,0.0,nan,0.0,0.0,0.0,0.0,0.0961864,0.0,0.0,0.0,1.1644545,1.1644403,1.0061114,0.0,0.0,0.0,0.0,0.0,0.0
4624000,4544000,0.1022642,0.10226518,0.2098782,1.0005304,1.0005305,1.9087666,0.0,0.0,0.0,0.0,0.0,0.0,0.0,13.2315855,0.0,0.0,nan,0.0,0.0,0.0,0.0,0.0961864,0.0,0.0,0.0,1.1665677,1.1665537,1.0061135,0.0,0.0,0.0,0.0,0.0,0.0
4632000,4552000,0.1022642,0.10226518,0.2098782,1.0005304,1.0005305,1.9087666,0.0,0.0,0.0,0.0,0.0,0.0,0.0,13.2315855,0.0,0.0,nan,0.0,0.0,0.0,0.0,0.0961864,0.0,0.0,0.0,1.1686983,1.1686842,1.0061156,0.0,0.0,0.0,0.0,0.0,0.0
4640000,4560000,0.1022642,0.10226518,0.2098782,1.0005304,1.0005305,1.9087666,0.0,0.0,0.0,0.0,0.0,0.0,0.0,13.2315855,0.0,0.0,nan,0.0,0.0,0.0,0.0,0.0961864,0.0,0.0,0.0,1.0855266,1.0855001,1.0060322,0.0,0.0,0.0,0.0,0.0,0.0
4648000,4568000,0.1022642,0.10226518,0.2098782,1.0005304,1.0005305,1.9087666,0.0,0.0,0.0,0.0,0.0,0.0,0.0,13.2315855,0.0,0.0,nan,0.0,0.0,0.0,0.0,0.0961864,0.0,0.0,0.0,1.0863702,1.0863438,1.006033,0.0,0.0,0.0,0.0,0.0,0.0
4656000,4576000,0.1022642,0.10226518,0.2098782,1.0005304,1.0005305,1.9087666,0.0,0.0,0.0,0.0,0.0,0.0,0.0,13.2315855,0.0,0.0,nan,0.0,0.0,0.0,0.0,0.0961864,0.0,0.0,0.0,1.087221,1.0871944,1.0060338,0.0,0.0,0.0,0.0,0.0,0.0
4664000,4584000,0.1022642,0.10226518,0.2098782,1.0005304,1.0005305,1.9087666,0.0,0.0,0.0,0.0,0.0,0.0,0.0,13.159058,0.0,0.0,nan,0.0,0.0,0.0,0.0,0.0962387,0.0,0.0,0.0,1.0880789,1.0880524,1.0060347,0.0,0.0,0.0,0.0,0.0,0.0
4672000,4592000,0.1022642,0.10226518,0.2098782,1.0005304,1.0005305,1.9087666,0.0,0.0,0.0,0.0,0.0,0.0,0.0,13.159058,0.0,0.0,nan,0.0,0.0,0.0,0.0,0.0962387,0.0,0.0,0.0,1.0849342,1.0849078,1.0060315,0.0,0.0,0.0,0.0,0.0,0.0
4680000,4600000,0.1022642,0.10226518,0.2098782,1.0005304,1.0005305,1.9087666,0.0,0.0,0.0,0.0,0.0,0.0,0.0,13.159058,0.0,0.0,nan,0.0,0.0,0.0,0.0,0.0962387,0.0,0.0,0.0,1.0857432,1.0857167,1.0060323,0.0,0.0,0.0,0.0,0.0,0.0
4688000,4608000,0.1022642,0.10226518,0.2098782,1.0005304,1.0005305,1.9087666,0.0,0.0,0.0,0.0,0.0,0.0,0.0,13.159058,0.0,0.0,nan,0.0,0.0,0.0,0.0,0.0962387,0.0,0.0,0.0,1.0865587,1.0865321,1.0060331,0.0,0.0,0.0,0.0,0.0,0.0
4696000,4616000,0.1022642,0.10226518,0.2098782,1.0005304,1.0005305,1.9087666,0.0,0.0,0.0,0.0,0.0,0.0,0.0,13.159058,0.0,0.0,nan,0.0,0.0,0.0,0.0,0.0962387,0.0,0.0,0.0,1.0873809,1.0873541,1.0060337,0.0,0.0,0.0,0.0,0.0,0.0
4704000,4624000,0.1022642,0.10226518,0.2098782,1.0005304,1.0005305,1.9087666,0.0,0.0,0.0,0.0,0.0,0.0,0.0,13.159058,0.0,0.0,nan,0.0,0.0,0.0,0.0,0.0962387,0.0,0.0,0.0,1.0882095,1.0881827,1.0060345,0.0,0.0,0.0,0.0,0.0,0.0
4712000,4632000,0.1022642,0.10226518,0.2098782,1.0005304,1.0005305,1.9087666,0.0,0.0,0.0,0.0,0.0,0.0,0.0,13.159058,0.0,0.0,nan,0.0,0.0,0.0,0.0,0.0962387,0.0,0.0,0.0,1.0890448,1.0890179,1.0060353,0.0,0.0,0.0,0.0,0.0,0.0
4720000,4640000,0.1022642,0.10226518,0.2098782,1.0005304,1.0005305,1.9087666,0.0,0.0,0.0,0.0,0.0,0.0,0.0,13.159058,0.0,0.0,nan,0.0,0.0,0.0,0.0,0.0962387,0.0,0.0,0.0,1.0898867,1.0898596,1.006036,0.0,0.0,0.0,0.0,0.0,0.0
4728000,4648000,0.1022642,0.10226518,0.2098782,1.0005304,1.0005305,1.9087666,0.0,0.0,0.0,0.0,0.0,0.0,0.0,13.096441,0.0,0.0,nan,0.0,0.0,0.0,0.0,0.0962387,0.0,0.0,0.0,1.0907351,1.090708,1.006037,0.0,0.0,0.0,0.0,0.0,0.0
4736000,4656000,0.1022642,0.10226518,0.2098782,1.0005304,1.0005305,1.9087666,0.0,0.0,0.0,0.0,0.0,0.0,0.0,13.096441,0.0,0.0,nan,0.0,0.0,0.0,0.0,0.09629348,0.0,0.0,0.0,1.0915899,1.0915629,1.00604,0.0,0.0,0.0,0.0,0.0,0.0
4744000,4664000,0.1022642,0.10226518,0.2098782,1.0005304,1.0005305,1.9087666,0.0,0.0,0.0,0.0,0.0,0.0,0.0,13.096441,0.0,0.0,nan,0.0,0.0,0.0,0.0,0.09629348,0.0,0.0,0.0,1.0924516,1.0924243,1.0060408,0.0,0.0,0.0,0.0,0.0,0.0
4752000,4672000,0.1022642,0.10226518,0.2098782,1.0005304,1.0005305,1.9087666,0.0,0.0,0.0,0.0,0.0,0.0,0.0,13.096441,0.0,0.0,nan,0.0,0.0,0.0,0.0,0.09629348,0.0,0.0,0.0,1.0933199,1.0932925,1.0060416,0.0,0.0,0.0,0.0,0.0,0.0
4760000,4680000,0.1022642,0.10226518,0.2098782,1.0005304,1.0005305,1.9087666,0.0,0.0,0.0,0.0,0.0,0.0,0.0,13.096441,0.0,0.0,nan,0.0,0.0,0.0,0.0,0.09629348,0.0,0.0,0.0,1.0941947,1.094167,1.0060426,0.0,0.0,0.0,0.0,0.0,0.0
4768000,4688000,0.1022642,0.10226518,0.2098782,1.0005304,1.0005305,1.9087666,0.0,0.0,0.0,0.0,0.0,0.0,0.0,13.096441,0.0,0.0,nan,0.0,0.0,0.0,0.0,0.09629348,0.0,0.0,0.0,1.0950762,1.0950483,1.0060433,0.0,0.0,0.0,0.0,0.0,0.0
4776000,4696000,0.1022642,0.10226518,0.2098782,1.0005304,1.0005305,1.9087666,0.0,0.0,0.0,0.0,0.0,0.0,0.0,13.096441,0.0,0.0,nan,0.0,0.0,0.0,0.0,0.09629348,0.0,0.0,0.0,1.0959642,1.0959362,1.0060441,0.0,0.0,0.0,0.0,0.0,0.0
4784000,4704000,0.1022642,0.10226518,0.2098782,1.0005304,1.0005305,1.9087666,0.0,0.0,0.0,0.0,0.0,0.0,0.0,13.042061,0.0,0.0,nan,0.0,0.0,0.0,0.0,0.09629348,0.0,0.0,0.0,1.0968589,1.0968308,1.0060449,0.0,0.0,0.0,0.0,0.0,0.0
4792000,4712000,0.1022642,0.10226518,0.2098782,1.0005304,1.0005305,1.9087666,0.0,0.0,0.0,0.0,0.0,0.0,0.0,13.042061,0.0,0.0,nan,0.0,0.0,0.0,0.0,0.09629348,0.0,0.0,0.0,1.0977601,1.0977318,1.0060457,0.0,0.0,0.0,0.0,0.0,0.0
4800000,4720000,0.1022642,0.10226518,0.2098782,1.0005304,1.0005305,1.9087666,0.0,0.0,0.0,0.0,0.0,0.0,0.0,13.042061,0.0,0.0,nan,0.0,0.0,0.0,0.0,0.09629348,0.0,0.0,0.0,1.0986677,1.0986394,1.0060465,0.0,0.0,0.0,0.0,0.0,0.0
4808000,4728000,0.1022642,0.10226518,0.2098782,1.0005304,1.0005305,1.9087666,0.0,0.0,0.0,0.0,0.0,0.0,0.0,13.042061,0.0,0.0,nan,0.0,0.0,0.0,0.0,0.09634834,0.0,0.0,0.0,1.0995822,1.0995535,1.0060471,0.0,0.0,0.0,0.0,0.0,0.0
4816000,4736000,0.1022642,0.10226518,0.2098782,1.0005304,1.0005305,1.9087666,0.0,0.0,0.0,0.0,0.0,0.0,0.0,13.042061,0.0,0.0,nan,0.0,0.0,0.0,0.0,0.09634834,0.0,0.0,0.0,1.1005032,1.1004744,1.006048,0.0,0.0,0.0,0.0,0.0,0.0
4824000,4744000,0.1022642,0.10226518,0.2098782,1.0005304,1.0005305,1.9087666,0.0,0.0,0.0,0.0,0.0,0.0,0.0,13.042061,0.0,0.0,nan,0.0,0.0,0.0,0.0,0.09634834,0.0,0.0,0.0,1.1014308,1.1014016,1.0060489,0.0,0.0,0.0,0.0,0.0,0.0
4832000,4752000,0.1022642,0.10226518,0.2098782,1.0005304,1.0005305,1.9087666,0.0,0.0,0.0,0.0,0.0,0.0,0.0,13.042061,0.0,0.0,nan,0.0,0.0,0.0,0.0,0.09634834,0.0,0.0,0.0,1.1023649,1.1023356,1.0060494,0.0,0.0,0.0,0.0,0.0,0.0
4840000,4760000,0.1022642,0.10226518,0.2098782,1.0005304,1.0005305,1.9087666,0.0,0.0,0.0,0.0,0.0,0.0,0.0,13.042061,0.0,0.0,nan,0.0,0.0,0.0,0.0,0.09634834,0.0,0.0,0.0,1.1033057,1.1032763,1.0060502,0.0,0.0,0.0,0.0,0.0,0.0
4848000,4768000,0.1022642,0.10226518,0.2098782,1.0005304,1.0005305,1.9087666,0.0,0.0,0.0,0.0,0.0,0.0,0.0,12.994387,0.0,0.0,nan,0.0,0.0,0.0,0.0,0.09634834,0.0,0.0,0.0,1.0643771,1.0643498,1.006012,0.0,0.0,0.0,0.0,0.0,0.0
4856000,4776000,0.1022642,0.10226518,0.2098782,1.0005304,1.0005305,1.9087666,0.0,0.0,0.0,0.0,0.0,0.0,0.0,12.994387,0.0,0.0,nan,0.0,0.0,0.0,0.0,0.09634834,0.0,0.0,0.0,1.0647999,1.0647726,1.0060123,0.0,0.0,0.0,0.0,0.0,0.0
4864000,4784000,0.1022642,0.10226518,0.2098782,1.0005304,1.0005305,1.9087666,0.0,0.0,0.0,0.0,0.0,0.0,0.0,12.994387,0.0,0.0,nan,0.0,0.0,0.0,0.0,0.09634834,0.0,0.0,0.0,1.0652258,1.0651985,1.0060128,0.0,0.0,0.0,0.0,0.0,0.0
4872000,4792000,0.1022642,0.10226518,0.2098782,1.0005304,1.0005305,1.9087666,0.0,0.0,0.0,0.0,0.0,0.0,0.0,12.994387,0.0,0.0,nan,0.0,0.0,0.0,0.0,0.09634834,0.0,0.0,0.0,1.065655,1.0656275,1.006013,0.0,0.0,0.0,0.0,0.0,0.0
4880000,4800000,0.1022642,0.10226518,0.2098782,1.0005304,1.0005305,1.9087666,0.0,0.0,0.0,0.0,0.0,0.0,0.0,12.994387,0.0,0.0,nan,0.0,0.0,0.0,0.0,0.09640132,0.0,0.0,0.0,1.0644395,1.0644125,1.0060096,0.0,0.0,0.0,0.0,0.0,0.0
4888000,4808000,0.1022642,0.10226518,0.2098782,1.0005304,1.0005305,1.9087666,0.0,0.0,0.0,0.0,0.0,0.0,0.0,12.994387,0.0,0.0,nan,0.0,0.0,0.0,0.0,0.09640132,0.0,0.0,0.0,1.0648525,1.0648254,1.0060099,0.0,0.0,0.0,0.0,0.0,0.0
4896000,4816000,0.1022642,0.10226518,0.2098782,1.0005304,1.0005305,1.9087666,0.0,0.0,0.0,0.0,0.0,0.0,0.0,12.994387,0.0,0.0,nan,0.0,0.0,0.0,0.0,0.09640132,0.0,0.0,0.0,1.0652683,1.0652412,1.0060102,0.0,0.0,0.0,0.0,0.0,0.0
4904000,4824000,0.1022642,0.10226518,0.2098782,1.0005304,1.0005305,1.9087666,0.0,0.0,0.0,0.0,0.0,0.0,0.0,12.951853,0.0,0.0,nan,0.0,0.0,0.0,0.0,0.09640132,0.0,0.0,0.0,1.065687,1.0656599,1.0060107,0.0,0.0,0.0,0.0,0.0,0.0
4912000,4832000,0.1022642,0.10226518,0.2098782,1.0005304,1.0005305,1.9087666,0.0,0.0,0.0,0.0,0.0,0.0,0.0,12.951853,0.0,0.0,nan,0.0,0.0,0.0,0.0,0.09640132,0.0,0.0,0.0,1.0661086,1.0660815,1.0060109,0.0,0.0,0.0,0.0,0.0,0.0
4920000,4840000,0.1022642,0.10226518,0.2098782,1.0005304,1.0005305,1.9087666,0.0,0.0,0.0,0.0,0.0,0.0,0.0,12.951853,0.0,0.0,nan,0.0,0.0,0.0,0.0,0.09640132,0.0,0.0,0.0,1.0665333,1.066506,1.0060111,0.0,0.0,0.0,0.0,0.0,0.0
4928000,4848000,0.1022642,0.10226518,0.2098782,1.0005304,1.0005305,1.9087666,0.0,0.0,0.0,0.0,0.0,0.0,0.0,12.951853,0.0,0.0,nan,0.0,0.0,0.0,0.0,0.09640132,0.0,0.0,0.0,1.0669609,1.0669335,1.0060115,0.0,0.0,0.0,0.0,0.0,0.0
4936000,4856000,0.1022642,0.10226518,0.2098782,1.0005304,1.0005305,1.9087666,0.0,0.0,0.0,0.0,0.0,0.0,0.0,12.951853,0.0,0.0,nan,0.0,0.0,0.0,0.0,0.09640132,0.0,0.0,0.0,1.0673914,1.067364,1.0060117,0.0,0.0,0.0,0.0,0.0,0.0
4944000,4864000,0.1022642,0.10226518,0.2098782,1.0005304,1.0005305,1.9087666,0.0,0.0,0.0,0.0,0.0,0.0,0.0,12.951853,0.0,0.0,nan,0.0,0.0,0.0,0.0,0.09640132,0.0,0.0,0.0,1.0678248,1.0677973,1.0060121,0.0,0.0,0.0,0.0,0.0,0.0
4952000,4872000,0.1022642,0.10226518,0.2098782,1.0005304,1.0005305,1.9087666,0.0,0.0,0.0,0.0,0.0,0.0,0.0,12.951853,0.0,0.0,nan,0.0,0.0,0.0,0.0,0.09645094,0.0,0.0,0.0,1.0682611,1.0682336,1.0060124,0.0,0.0,0.0,0.0,0.0,0.0
4960000,4880000,0.1022642,0.10226518,0.2098782,1.0005304,1.0005305,1.9087666,0.0,0.0,0.0,0.0,0.0,0.0,0.0,12.951853,0.0,0.0,nan,0.0,0.0,0.0,0.0,0.09645094,0.0,0.0,0.0,1.0687004,1.0686729,1.0060128,0.0,0.0,0.0,0.0,0.0,0.0
4968000,4888000,0.1022642,0.10226518,0.2098782,1.0005304,1.0005305,1.9087666,0.0,0.0,0.0,0.0,0.0,0.0,0.0,12.914272,0.0,0.0,nan,0.0,0.0,0.0,0.0,0.09645094,0.0,0.0,0.0,1.0691426,1.0691149,1.006013,0.0,0.0,0.0,0.0,0.0,0.0
4976000,4896000,0.1022642,0.10226518,0.2098782,1.0005304,1.0005305,1.9087666,0.0,0.0,0.0,0.0,0.0,0.0,0.0,12.914272,0.0,0.0,nan,0.0,0.0,0.0,0.0,0.09645094,0.0,0.0,0.0,1.0695877,1.0695599,1.0060136,0.0,0.0,0.0,0.0,0.0,0.0
4984000,4904000,0.1022642,0.10226518,0.2098782,1.0005304,1.0005305,1.9087666,0.0,0.0,0.0,0.0,0.0,0.0,0.0,12.914272,0.0,0.0,nan,0.0,0.0,0.0,0.0,0.09645094,0.0,0.0,0.0,1.0700357,1.0700078,1.006014,0.0,0.0,0.0,0.0,0.0,0.0
4992000,4912000,0.1022642,0.10226518,0.2098782,1.0005304,1.0005305,1.9087666,0.0,0.0,0.0,0.0,0.0,0.0,0.0,12.914272,0.0,0.0,nan,0.0,0.0,0.0,0.0,0.09645094,0.0,0.0,0.0,1.0704867,1.0704587,1.0060143,0.0,0.0,0.0,0.0,0.0,0.0
5000000,4920000,0.1022642,0.10226518,0.2098782,1.0005304,1.0005305,1.9087666,0.0,0.0,0.0,0.0,0.0,0.0,0.0,12.914272,0.0,0.0,nan,0.0,0.0,0.0,0.0,0.09645094,0.0,0.0,0.0,1.0709405,1.0709126,1.0060148,0.0,0.0,0.0,0.0,0.0,0.0
5008000,4928000,0.0951666,0.095167674,0.21131268,1.0003078,1.0003078,1.6304154,0.0,0.0,0.0,0.0,0.0,0.0,0.0,12.914272,0.0,0.0,nan,0.0,0.0,0.0,0.0,0.09645094,0.0,0.0,0.0,1.0713974,1.0713694,1.0060151,0.0,0.0,0.0,0.0,0.0,0.0
5016000,4936000,0.0951666,0.095167674,0.21131268,1.0003078,1.0003078,1.6304154,0.0,0.0,0.0,0.0,0.0,0.0,0.0,12.914272,0.0,0.0,nan,0.0,0.0,0.0,0.0,0.09645094,0.0,0.0,0.0,1.0718571,1.071829,1.0060154,0.0,0.0,0.0,0.0,0.0,0.0
5024000,4944000,0.0951666,0.095167674,0.21131268,1.0003078,1.0003078,1.6304154,0.0,0.0,0.0,0.0,0.0,0.0,0.0,12.88055,0.0,0.0,nan,0.0,0.0,0.0,0.0,0.09649584,0.0,0.0,0.0,1.0723199,1.0722915,1.0060159,0.0,0.0,0.0,0.0,0.0,0.0
5032000,4952000,0.0951666,0.095167674,0.21131268,1.0003078,1.0003078,1.6304154,0.0,0.0,0.0,0.0,0.0,0.0,0.0,12.88055,0.0,0.0,nan,0.0,0.0,0.0,0.0,0.09649584,0.0,0.0,0.0,1.0727854,1.0727569,1.0060164,0.0,0.0,0.0,0.0,0.0,0.0
5040000,4960000,0.0951666,0.095167674,0.21131268,1.0003078,1.0003078,1.6304154,0.0,0.0,0.0,0.0,0.0,0.0,0.0,12.88055,0.0,0.0,nan,0.0,0.0,0.0,0.0,0.09649584,0.0,0.0,0.0,1.073254,1.0732254,1.0060167,0.0,0.0,0.0,0.0,0.0,0.0
5048000,4968000,0.0951666,0.095167674,0.21131268,1.0003078,1.0003078,1.6304154,0.0,0.0,0.0,0.0,0.0,0.0,0.0,12.88055,0.0,0.0,nan,0.0,0.0,0.0,0.0,0.09649584,0.0,0.0,0.0,1.0737256,1.0736969,1.006017,0.0,0.0,0.0,0.0,0.0,0.0
5056000,4976000,0.0951666,0.095167674,0.21131268,1.0003078,1.0003078,1.6304154,0.0,0.0,0.0,0.0,0.0,0.0,0.0,12.88055,0.0,0.0,nan,0.0,0.0,0.0,0.0,0.09649584,0.0,0.0,0.0,1.0539536,1.0539281,1.0059984,0.0,0.0,0.0,0.0,0.0,0.0
5064000,4984000,0.0951666,0.095167674,0.21131268,1.0003078,1.0003078,1.6304154,0.0,0.0,0.0,0.0,0.0,0.0,0.0,12.88055,0.0,0.0,nan,0.0,0.0,0.0,0.0,0.09649584,0.0,0.0,0.0,1.0541943,1.0541688,1.0059985,0.0,0.0,0.0,0.0,0.0,0.0
5072000,4992000,0.0951666,0.095167674,0.21131268,1.0003078,1.0003078,1.6304154,0.0,0.0,0.0,0.0,0.0,0.0,0.0,12.88055,0.0,0.0,nan,0.0,0.0,0.0,0.0,0.09649584,0.0,0.0,0.0,1.0544366,1.0544109,1.0059987,0.0,0.0,0.0,0.0,0.0,0.0
5080000,5000000,0.0951666,0.095167674,0.21131268,1.0003078,1.0003078,1.6304154,0.0,0.0,0.0,0.0,0.0,0.0,0.0,12.88055,0.0,0.0,nan,0.0,0.0,0.0,0.0,0.09649584,0.0,0.0,0.0,1.0546803,1.0546547,1.005999,0.0,0.0,0.0,0.0,0.0,0.0
5088000,5008000,0.0951666,0.095167674,0.21131268,1.0003078,1.0003078,1.6304154,0.0,0.0,0.0,0.0,0.0,0.0,0.0,12.849803,0.0,0.0,nan,0.0,0.0,0.0,0.0,0.09649584,0.0,0.0,0.0,1.0541446,1.0541192,1.0059984,0.0,0.0,0.0,0.0,0.0,0.0
5096000,5016000,0.0951666,0.095167674,0.21131268,1.0003078,1.0003078,1.6304154,0.0,0.0,0.0,0.0,0.0,0.0,0.0,12.849803,0.0,0.0,nan,0.0,0.0,0.0,0.0,0.09653498,0.0,0.0,0.0,1.0543822,1.0543568,1.0059986,0.0,0.0,0.0,0.0,0.0,0.0
5104000,5024000,0.0951666,0.095167674,0.21131268,1.0003078,1.0003078,1.6304154,0.0,0.0,0.0,0.0,0.0,0.0,0.0,12.849803,0.0,0.0,nan,0.0,0.0,0.0,0.0,0.09653498,0.0,0.0,0.0,1.0546213,1.0545958,1.005999,0.0,0.0,0.0,0.0,0.0,0.0
5112000,5032000,0.0951666,0.095167674,0.21131268,1.0003078,1.0003078,1.6304154,0.0,0.0,0.0,0.0,0.0,0.0,0.0,12.849803,0.0,0.0,nan,0.0,0.0,0.0,0.0,0.09653498,0.0,0.0,0.0,1.0548619,1.0548364,1.0059991,0.0,0.0,0.0,0.0,0.0,0.0
5120000,5040000,0.0951666,0.095167674,0.21131268,1.0003078,1.0003078,1.6304154,0.0,0.0,0.0,0.0,0.0,0.0,0.0,12.849803,0.0,0.0,nan,0.0,0.0,0.0,0.0,0.09653498,0.0,0.0,0.0,1.055104,1.0550785,1.0059992,0.0,0.0,0.0,0.0,0.0,0.0
5128000,5048000,0.0951666,0.095167674,0.21131268,1.0003078,1.0003078,1.6304154,0.0,0.0,0.0,0.0,0.0,0.0,0.0,12.849803,0.0,0.0,nan,0.0,0.0,0.0,0.0,0.09653498,0.0,0.0,0.0,1.0553478,1.0553222,1.0059993,0.0,0.0,0.0,0.0,0.0,0.0
5136000,5056000,0.0951666,0.095167674,0.21131268,1.0003078,1.0003078,1.6304154,0.0,0.0,0.0,0.0,0.0,0.0,0.0,12.822188,0.0,0.0,nan,0.0,0.0,0.0,0.0,0.09653498,0.0,0.0,0.0,1.0555928,1.055567,1.0059996,0.0,0.0,0.0,0.0,0.0,0.0
5144000,5064000,0.0951666,0.095167674,0.21131268,1.0003078,1.0003078,1.6304154,0.0,0.0,0.0,0.0,0.0,0.0,0.0,12.822188,0.0,0.0,nan,0.0,0.0,0.0,0.0,0.09653498,0.0,0.0,0.0,1.0558394,1.0558136,1.0059997,0.0,0.0,0.0,0.0,0.0,0.0
5152000,5072000,0.0951666,0.095167674,0.21131268,1.0003078,1.0003078,1.6304154,0.0,0.0,0.0,0.0,0.0,0.0,0.0,12.822188,0.0,0.0,nan,0.0,0.0,0.0,0.0,0.09653498,0.0,0.0,0.0,1.0560876,1.0560616,1.0059998,0.0,0.0,0.0,0.0,0.0,0.0
5160000,5080000,0.0951666,0.095167674,0.21131268,1.0003078,1.0003078,1.6304154,0.0,0.0,0.0,0.0,0.0,0.0,0.0,12.822188,0.0,0.0,nan,0.0,0.0,0.0,0.0,0.09653498,0.0,0.0,0.0,1.0563372,1.0563111,1.006,0.0,0.0,0.0,0.0,0.0,0.0
5168000,5088000,0.0951666,0.095167674,0.21131268,1.0003078,1.0003078,1.6304154,0.0,0.0,0.0,0.0,0.0,0.0,0.0,12.822188,0.0,0.0,nan,0.0,0.0,0.0,0.0,0.096567795,0.0,0.0,0.0,1.0565882,1.0565622,1.0060003,0.0,0.0,0.0,0.0,0.0,0.0
5176000,5096000,0.0951666,0.095167674,0.21131268,1.0003078,1.0003078,1.6304154,0.0,0.0,0.0,0.0,0.0,0.0,0.0,12.822188,0.0,0.0,nan,0.0,0.0,0.0,0.0,0.096567795,0.0,0.0,0.0,1.0568408,1.0568148,1.0060004,0.0,0.0,0.0,0.0,0.0,0.0
5184000,5104000,0.0951666,0.095167674,0.21131268,1.0003078,1.0003078,1.6304154,0.0,0.0,0.0,0.0,0.0,0.0,0.0,12.822188,0.0,0.0,nan,0.0,0.0,0.0,0.0,0.096567795,0.0,0.0,0.0,1.0570948,1.0570688,1.0060008,0.0,0.0,0.0,0.0,0.0,0.0
5192000,5112000,0.0951666,0.095167674,0.21131268,1.0003078,1.0003078,1.6304154,0.0,0.0,0.0,0.0,0.0,0.0,0.0,12.797142,0.0,0.0,nan,0.0,0.0,0.0,0.0,0.096567795,0.0,0.0,0.0,1.0573504,1.0573243,1.006001,0.0,0.0,0.0,0.0,0.0,0.0
5200000,5120000,0.0951666,0.095167674,0.21131268,1.0003078,1.0003078,1.6304154,0.0,0.0,0.0,0.0,0.0,0.0,0.0,12.797142,0.0,0.0,nan,0.0,0.0,0.0,0.0,0.096567795,0.0,0.0,0.0,1.0576074,1.0575813,1.0060011,0.0,0.0,0.0,0.0,0.0,0.0
5208000,5128000,0.0951666,0.095167674,0.21131268,1.0003078,1.0003078,1.6304154,0.0,0.0,0.0,0.0,0.0,0.0,0.0,12.797142,0.0,0.0,nan,0.0,0.0,0.0,0.0,0.096567795,0.0,0.0,0.0,1.0578661,1.0578399,1.0060014,0.0,0.0,0.0,0.0,0.0,0.0
5216000,5136000,0.0951666,0.095167674,0.21131268,1.0003078,1.0003078,1.6304154,0.0,0.0,0.0,0.0,0.0,0.0,0.0,12.797142,0.0,0.0,nan,0.0,0.0,0.0,0.0,0.096567795,0.0,0.0,0.0,1.0581261,1.0580999,1.0060015,0.0,0.0,0.0,0.0,0.0,0.0
5224000,5144000,0.0951666,0.095167674,0.21131268,1.0003078,1.0003078,1.6304154,0.0,0.0,0.0,0.0,0.0,0.0,0.0,12.797142,0.0,0.0,nan,0.0,0.0,0.0,0.0,0.096567795,0.0,0.0,0.0,1.0583878,1.0583613,1.0060018,0.0,0.0,0.0,0.0,0.0,0.0
5232000,5152000,0.0951666,0.095167674,0.21131268,1.0003078,1.0003078,1.6304154,0.0,0.0,0.0,0.0,0.0,0.0,0.0,12.797142,0.0,0.0,nan,0.0,0.0,0.0,0.0,0.096567795,0.0,0.0,0.0,1.0586507,1.0586244,1.006002,0.0,0.0,0.0,0.0,0.0,0.0
5240000,5160000,0.0951666,0.095167674,0.21131268,1.0003078,1.0003078,1.6304154,0.0,0.0,0.0,0.0,0.0,0.0,0.0,12.797142,0.0,0.0,nan,0.0,0.0,0.0,0.0,0.09659375,0.0,0.0,0.0,1.0589151,1.0588888,1.0060023,0.0,0.0,0.0,0.0,0.0,0.0
5248000,5168000,0.0951666,0.095167674,0.21131268,1.0003078,1.0003078,1.6304154,0.0,0.0,0.0,0.0,0.0,0.0,0.0,12.797142,0.0,0.0,nan,0.0,0.0,0.0,0.0,0.09659375,0.0,0.0,0.0,1.0591815,1.0591549,1.0060024,0.0,0.0,0.0,0.0,0.0,0.0
5256000,5176000,0.0951666,0.095167674,0.21131268,1.0003078,1.0003078,1.6304154,0.0,0.0,0.0,0.0,0.0,0.0,0.0,12.774369,0.0,0.0,nan,0.0,0.0,0.0,0.0,0.09659375,0.0,0.0,0.0,1.0594491,1.0594224,1.0060027,0.0,0.0,0.0,0.0,0.0,0.0
5264000,5184000,0.0951666,0.095167674,0.21131268,1.0003078,1.0003078,1.6304154,0.0,0.0,0.0,0.0,0.0,0.0,0.0,12.774369,0.0,0.0,nan,0.0,0.0,0.0,0.0,0.09659375,0.0,0.0,0.0,1.0483332,1.048309,1.0059925,0.0,0.0,0.0,0.0,0.0,0.0
5272000,5192000,0.0951666,0.095167674,0.21131268,1.0003078,1.0003078,1.6304154,0.0,0.0,0.0,0.0,0.0,0.0,0.0,12.774369,0.0,0.0,nan,0.0,0.0,0.0,0.0,0.09659375,0.0,0.0,0.0,1.0484852,1.0484608,1.0059924,0.0,0.0,0.0,0.0,0.0,0.0
5280000,5200000,0.0951666,0.095167674,0.21131268,1.0003078,1.0003078,1.6304154,0.0,0.0,0.0,0.0,0.0,0.0,0.0,12.774369,0.0,0.0,nan,0.0,0.0,0.0,0.0,0.09659375,0.0,0.0,0.0,1.0486379,1.0486137,1.0059927,0.0,0.0,0.0,0.0,0.0,0.0
5288000,5208000,0.0951666,0.095167674,0.21131268,1.0003078,1.0003078,1.6304154,0.0,0.0,0.0,0.0,0.0,0.0,0.0,12.774369,0.0,0.0,nan,0.0,0.0,0.0,0.0,0.09659375,0.0,0.0,0.0,1.0487915,1.0487672,1.0059928,0.0,0.0,0.0,0.0,0.0,0.0
5296000,5216000,0.0951666,0.095167674,0.21131268,1.0003078,1.0003078,1.6304154,0.0,0.0,0.0,0.0,0.0,0.0,0.0,12.774369,0.0,0.0,nan,0.0,0.0,0.0,0.0,0.09659375,0.0,0.0,0.0,1.0485251,1.0485009,1.0059925,0.0,0.0,0.0,0.0,0.0,0.0
5304000,5224000,0.0951666,0.095167674,0.21131268,1.0003078,1.0003078,1.6304154,0.0,0.0,0.0,0.0,0.0,0.0,0.0,12.774369,0.0,0.0,nan,0.0,0.0,0.0,0.0,0.09659375,0.0,0.0,0.0,1.048676,1.0486518,1.0059928,0.0,0.0,0.0,0.0,0.0,0.0
5312000,5232000,0.0951666,0.095167674,0.21131268,1.0003078,1.0003078,1.6304154,0.0,0.0,0.0,0.0,0.0,0.0,0.0,12.752825,0.0,0.0,nan,0.0,0.0,0.0,0.0,0.09661258,0.0,0.0,0.0,1.0488276,1.0488036,1.0059932,0.0,0.0,0.0,0.0,0.0,0.0
5320000,5240000,0.0951666,0.095167674,0.21131268,1.0003078,1.0003078,1.6304154,0.0,0.0,0.0,0.0,0.0,0.0,0.0,12.752825,0.0,0.0,nan,0.0,0.0,0.0,0.0,0.09661258,0.0,0.0,0.0,1.0489805,1.0489563,1.0059934,0.0,0.0,0.0,0.0,0.0,0.0
5328000,5248000,0.0951666,0.095167674,0.21131268,1.0003078,1.0003078,1.6304154,0.0,0.0,0.0,0.0,0.0,0.0,0.0,12.752825,0.0,0.0,nan,0.0,0.0,0.0,0.0,0.09661258,0.0,0.0,0.0,1.049134,1.0491097,1.0059935,0.0,0.0,0.0,0.0,0.0,0.0
5336000,5256000,0.0951666,0.095167674,0.21131268,1.0003078,1.0003078,1.6304154,0.0,0.0,0.0,0.0,0.0,0.0,0.0,12.752825,0.0,0.0,nan,0.0,0.0,0.0,0.0,0.09661258,0.0,0.0,0.0,1.0492884,1.0492641,1.0059937,0.0,0.0,0.0,0.0,0.0,0.0
5344000,5264000,0.0951666,0.095167674,0.21131268,1.0003078,1.0003078,1.6304154,0.0,0.0,0.0,0.0,0.0,0.0,0.0,12.752825,0.0,0.0,nan,0.0,0.0,0.0,0.0,0.09661258,0.0,0.0,0.0,1.0494435,1.0494193,1.0059937,0.0,0.0,0.0,0.0,0.0,0.0
5352000,5272000,0.0951666,0.095167674,0.21131268,1.0003078,1.0003078,1.6304154,0.0,0.0,0.0,0.0,0.0,0.0,0.0,12.752825,0.0,0.0,nan,0.0,0.0,0.0,0.0,0.09661258,0.0,0.0,0.0,1.0495996,1.0495754,1.005994,0.0,0.0,0.0,0.0,0.0,0.0
5360000,5280000,0.0951666,0.095167674,0.21131268,1.0003078,1.0003078,1.6304154,0.0,0.0,0.0,0.0,0.0,0.0,0.0,12.752825,0.0,0.0,nan,0.0,0.0,0.0,0.0,0.09661258,0.0,0.0,0.0,1.0497566,1.0497323,1.0059938,0.0,0.0,0.0,0.0,0.0,0.0
5368000,5288000,0.0951666,0.095167674,0.21131268,1.0003078,1.0003078,1.6304154,0.0,0.0,0.0,0.0,0.0,0.0,0.0,12.752825,0.0,0.0,nan,0.0,0.0,0.0,0.0,0.09661258,0.0,0.0,0.0,1.0499144,1.0498902,1.0059941,0.0,0.0,0.0,0.0,0.0,0.0
5376000,5296000,0.0951666,0.095167674,0.21131268,1.0003078,1.0003078,1.6304154,0.0,0.0,0.0,0.0,0.0,0.0,0.0,12.733608,0.0,0.0,nan,0.0,0.0,0.0,0.0,0.09661258,0.0,0.0,0.0,1.050073,1.0500488,1.0059943,0.0,0.0,0.0,0.0,0.0,0.0
5384000,5304000,0.0951666,0.095167674,0.21131268,1.0003078,1.0003078,1.6304154,0.0,0.0,0.0,0.0,0.0,0.0,0.0,12.733608,0.0,0.0,nan,0.0,0.0,0.0,0.0,0.09662421,0.0,0.0,0.0,1.0502325,1.0502082,1.0059946,0.0,0.0,0.0,0.0,0.0,0.0
5392000,5312000,0.0951666,0.095167674,0.21131268,1.0003078,1.0003078,1.6304154,0.0,0.0,0.0,0.0,0.0,0.0,0.0,12.733608,0.0,0.0,nan,0.0,0.0,0.0,0.0,0.09662421,0.0,0.0,0.0,1.050393,1.0503687,1.0059947,0.0,0.0,0.0,0.0,0.0,0.0
5400000,5320000,0.0951666,0.095167674,0.21131268,1.0003078,1.0003078,1.6304154,0.0,0.0,0.0,0.0,0.0,0.0,0.0,12.733608,0.0,0.0,nan,0.0,0.0,0.0,0.0,0.09662421,0.0,0.0,0.0,1.0505542,1.0505298,1.0059948,0.0,0.0,0.0,0.0,0.0,0.0
