timestamp,data_rate,rate_multiplier,tx_rate_avg,tx_error_rate_avg,tx_message_count,tx_buffer_overruns,rx_rate_avg,rx_message_count,rx_message_lost_count,rx_buffer_overruns,rx_parse_errors,rx_packet_drop_count,rx_message_lost_rate,type,mode,flow_control,forwarding,mavlink_v2,ftp,streams,heartbeat_type_antenna_tracker,heartbeat_type_gcs,heartbeat_type_onboard_controller,heartbeat_type_gimbal,heartbeat_type_adsb,heartbeat_type_camera,heartbeat_type_parachute,heartbeat_type_open_drone_id,heartbeat_component_telemetry_radio,heartbeat_component_log,heartbeat_component_osd,heartbeat_component_obstacle_avoidance,heartbeat_component_vio,heartbeat_component_pairing_manager,heartbeat_component_udp_bridge,heartbeat_component_uart_bridge,avoidance_system_healthy,open_drone_id_system_healthy,parachute_system_healthy
4124000,4000000.0,1.0,13554.781,0.0,297,0,0.0,0,0,0,0,0,0.0,0,0,0,1,1,1,52,0,0,0,0,0,0,0,0,0,0,0,0,0,0,0,0,0,0,0
4384000,4000000.0,1.0,13554.781,0.0,380,0,0.0,0,0,0,0,0,0.0,0,0,0,1,1,1,52,0,0,0,0,0,0,0,0,0,0,0,0,0,0,0,0,0,0,0
5644000,4000000.0,1.0,15085.658,0.0,797,0,0.0,0,0,0,0,0,0.0,0,0,0,1,1,1,52,0,0,0,0,0,0,0,0,0,0,0,0,0,0,0,0,0,0,0
6896000,4000000.0,1.0,15148.407,0.0,1203,0,0.0,0,0,0,0,0,0.0,0,0,0,1,1,1,52,0,0,0,0,0,0,0,0,0,0,0,0,0,0,0,0,0,0,0
8156000,4000000.0,1.0,14949.204,0.0,1625,0,0.0,0,0,0,0,0,0.0,0,0,0,1,1,1,52,0,0,0,0,0,0,0,0,0,0,0,0,0,0,0,0,0,0,0
9156000,4000000.0,1.0,16499.004,0.0,1991,0,0.0,0,0,0,0,0,0.0,0,0,0,1,1,1,52,0,0,0,0,0,0,0,0,0,0,0,0,0,0,0,0,0,0,0
9408000,4000000.0,1.0,16499.004,0.0,2081,0,0.0,0,0,0,0,0,0.0,0,0,0,1,1,1,52,0,0,0,0,0,0,0,0,0,0,0,0,0,0,0,0,0,0,0
10664000,4000000.0,1.0,16857.57,0.0,2550,0,0.0,0,0,0,0,0,0.0,0,0,0,1,1,1,52,0,0,0,0,0,0,0,0,0,0,0,0,0,0,0,0,0,0,0
11924000,4000000.0,1.0,17343.627,0.0,3028,0,0.0,0,0,0,0,0,0.0,0,0,0,1,1,1,52,0,0,0,0,0,0,0,0,0,0,0,0,0,0,0,0,0,0,0
13184000,4000000.0,1.0,17437.252,0.0,3520,0,0.0,0,0,0,0,0,0.0,0,0,0,1,1,1,52,0,0,0,0,0,0,0,0,0,0,0,0,0,0,0,0,0,0,0
14184000,4000000.0,1.0,16988.049,0.0,3897,0,0.0,0,0,0,0,0,0.0,0,0,0,1,1,1,52,0,0,0,0,0,0,0,0,0,0,0,0,0,0,0,0,0,0,0
14440000,4000000.0,1.0,16988.049,0.0,3990,0,0.0,0,0,0,0,0,0.0,0,0,0,1,1,1,52,0,0,0,0,0,0,0,0,0,0,0,0,0,0,0,0,0,0,0
15700000,4000000.0,1.0,17257.969,0.0,4467,0,0.0,0,0,0,0,0,0.0,0,0,0,1,1,1,52,0,0,0,0,0,0,0,0,0,0,0,0,0,0,0,0,0,0,0
16956000,4000000.0,1.0,17005.977,0.0,4941,0,0.0,0,0,0,0,0,0.0,0,0,0,1,1,1,52,0,0,0,0,0,0,0,0,0,0,0,0,0,0,0,0,0,0,0
17956000,4000000.0,1.0,17322.709,0.0,5320,0,0.0,0,0,0,0,0,0.0,0,0,0,1,1,1,52,0,0,0,0,0,0,0,0,0,0,0,0,0,0,0,0,0,0,0
18212000,4000000.0,1.0,17080.678,0.0,5427,0,0.0,0,0,0,0,0,0.0,0,0,0,1,1,1,52,0,0,0,0,0,0,0,0,0,0,0,0,0,0,0,0,0,0,0
19472000,4000000.0,1.0,17267.93,0.0,5902,0,0.0,0,0,0,0,0,0.0,0,0,0,1,1,1,52,0,0,0,0,0,0,0,0,0,0,0,0,0,0,0,0,0,0,0
20728000,4000000.0,1.0,16957.172,0.0,6371,0,0.0,0,0,0,0,0,0.0,0,0,0,1,1,1,52,0,0,0,0,0,0,0,0,0,0,0,0,0,0,0,0,0,0,0
21988000,4000000.0,1.0,17269.92,0.0,6847,0,0.0,0,0,0,0,0,0.0,0,0,0,1,1,1,52,0,0,0,0,0,0,0,0,0,0,0,0,0,0,0,0,0,0,0
22988000,4000000.0,1.0,17059.762,0.0,7225,0,0.0,0,0,0,0,0,0.0,0,0,0,1,1,1,52,0,0,0,0,0,0,0,0,0,0,0,0,0,0,0,0,0,0,0
23244000,4000000.0,1.0,17384.463,0.0,7334,0,0.0,0,0,0,0,0,0.0,0,0,0,1,1,1,52,0,0,0,0,0,0,0,0,0,0,0,0,0,0,0,0,0,0,0
24496000,4000000.0,1.0,17017.93,0.0,7805,0,0.0,0,0,0,0,0,0.0,0,0,0,1,1,1,52,0,0,0,0,0,0,0,0,0,0,0,0,0,0,0,0,0,0,0
25752000,4000000.0,1.0,17208.168,0.0,8279,0,0.0,0,0,0,0,0,0.0,0,0,0,1,1,1,52,0,0,0,0,0,0,0,0,0,0,0,0,0,0,0,0,0,0,0
27008000,4000000.0,1.0,17005.977,0.0,8749,0,0.0,0,0,0,0,0,0.0,0,0,0,1,1,1,52,0,0,0,0,0,0,0,0,0,0,0,0,0,0,0,0,0,0,0
28008000,4000000.0,1.0,17323.705,0.0,9129,0,0.0,0,0,0,0,0,0.0,0,0,0,1,1,1,52,0,0,0,0,0,0,0,0,0,0,0,0,0,0,0,0,0,0,0
28264000,4000000.0,1.0,17080.678,0.0,9233,0,0.0,0,0,0,0,0,0.0,0,0,0,1,1,1,52,0,0,0,0,0,0,0,0,0,0,0,0,0,0,0,0,0,0,0
29520000,4000000.0,1.0,17255.977,0.0,9708,0,0.0,0,0,0,0,0,0.0,0,0,0,1,1,1,52,0,0,0,0,0,0,0,0,0,0,0,0,0,0,0,0,0,0,0
30780000,4000000.0,1.0,16995.02,0.0,10183,0,0.0,0,0,0,0,0,0.0,0,0,0,1,1,1,52,0,0,0,0,0,0,0,0,0,0,0,0,0,0,0,0,0,0,0
32036000,4000000.0,1.0,17269.92,0.0,10657,0,0.0,0,0,0,0,0,0.0,0,0,0,1,1,1,52,0,0,0,0,0,0,0,0,0,0,0,0,0,0,0,0,0,0,0
33036000,4000000.0,1.0,17046.812,0.0,11034,0,0.0,0,0,0,0,0,0.0,0,0,0,1,1,1,52,0,0,0,0,0,0,0,0,0,0,0,0,0,0,0,0,0,0,0
33296000,4000000.0,1.0,17410.36,0.0,11147,0,0.0,0,0,0,0,0,0.0,0,0,0,1,1,1,52,0,0,0,0,0,0,0,0,0,0,0,0,0,0,0,0,0,0,0
34552000,4000000.0,1.0,17004.98,0.0,11617,0,0.0,0,0,0,0,0,0.0,0,0,0,1,1,1,52,0,0,0,0,0,0,0,0,0,0,0,0,0,0,0,0,0,0,0
35812000,4000000.0,1.0,17208.168,0.0,12093,0,0.0,0,0,0,0,0,0.0,0,0,0,1,1,1,52,0,0,0,0,0,0,0,0,0,0,0,0,0,0,0,0,0,0,0
37068000,4000000.0,1.0,17018.926,0.0,12563,0,0.0,0,0,0,0,0,0.0,0,0,0,1,1,1,52,0,0,0,0,0,0,0,0,0,0,0,0,0,0,0,0,0,0,0
38068000,4000000.0,1.0,17323.705,0.0,12943,0,0.0,0,0,0,0,0,0.0,0,0,0,1,1,1,52,0,0,0,0,0,0,0,0,0,0,0,0,0,0,0,0,0,0,0
38324000,4000000.0,1.0,17067.73,0.0,13047,0,0.0,0,0,0,0,0,0.0,0,0,0,1,1,1,52,0,0,0,0,0,0,0,0,0,0,0,0,0,0,0,0,0,0,0
39584000,4000000.0,1.0,17281.873,0.0,13523,0,0.0,0,0,0,0,0,0.0,0,0,0,1,1,1,52,0,0,0,0,0,0,0,0,0,0,0,0,0,0,0,0,0,0,0
40840000,4000000.0,1.0,16957.172,0.0,13995,0,0.0,0,0,0,0,0,0.0,0,0,0,1,1,1,52,0,0,0,0,0,0,0,0,0,0,0,0,0,0,0,0,0,0,0
42100000,4000000.0,1.0,17281.873,0.0,14470,0,0.0,0,0,0,0,0,0.0,0,0,0,1,1,1,52,0,0,0,0,0,0,0,0,0,0,0,0,0,0,0,0,0,0,0
43100000,4000000.0,1.0,17064.742,0.0,14848,0,0.0,0,0,0,0,0,0.0,0,0,0,1,1,1,52,0,0,0,0,0,0,0,0,0,0,0,0,0,0,0,0,0,0,0
43360000,4000000.0,1.0,17402.39,0.0,14962,0,0.0,0,0,0,0,0,0.0,0,0,0,1,1,1,52,0,0,0,0,0,0,0,0,0,0,0,0,0,0,0,0,0,0,0
