timestamp,timestamp_sample,device_id,bias,bias_var,innov,innov_var,innov_test_ratio
8756000,8671999,6620172,487.32776,0.0009465664,-0.06295776,13.250966,3.323598e-05
11740000,11660000,6620172,487.32675,0.047921866,-0.00881958,12.387659,6.9769254e-07
12460000,12380000,6620172,487.3281,0.057324063,0.12271118,12.382992,0.00013511394
13060000,12980000,6620172,487.32935,0.06439543,0.08798218,12.38526,6.944513e-05
14060000,13976000,6620172,487.33075,0.074484624,0.07992554,12.385021,5.731019e-05
14300000,14216000,6620172,487.32916,0.07666098,-0.15386963,12.38818,0.00021235172
14420000,14336000,6620172,487.32797,0.07770891,-0.10116577,12.385679,9.181314e-05
15196000,15116000,6620172,487.32916,0.083827324,0.035003662,12.389356,1.0988432e-05
15556000,15476000,6620172,487.33035,0.08633506,0.08074951,12.391522,5.8467245e-05
16156000,16076000,6620172,487.33148,0.090069145,0.069885254,12.401456,4.3757842e-05
16748000,16664000,6620172,487.33316,0.0931782,0.102508545,12.410177,9.4080504e-05
16868000,16784000,6620172,487.33417,0.09377315,0.10803223,12.414183,0.00010445903
17516000,17432000,6620172,487.3354,0.096545495,0.09725952,12.427068,8.457716e-05
18172000,18092000,6620172,487.33655,0.09901516,0.08905029,12.449969,7.077175e-05
18820000,18740000,6620172,487.33826,0.10097011,0.10702515,12.462703,0.00010212144
18940000,18860000,6620172,487.34012,0.10132567,0.16238403,12.469608,0.00023495858
19540000,19460000,6620172,487.34244,0.10294199,0.10821533,12.47514,0.00010430128
19964000,19880000,6620172,487.34616,0.10399461,0.06732178,12.48328,4.0340376e-05
20500000,20420000,6620172,487.34766,0.105037674,0.08929443,12.496459,7.08956e-05
20972000,20888000,6620172,487.3512,0.10577271,0.04156494,12.504291,1.535157e-05
21380000,21296000,6620172,487.35388,0.106259085,0.07788086,12.506897,5.3885185e-05
21916000,21836000,6620172,487.35696,0.10698495,0.078552246,12.494875,5.487099e-05
22460000,22374666,6620172,487.36032,0.107729524,0.08639526,12.5037155,6.632821e-05
23060000,22974666,6620172,487.36737,0.10836988,0.074798584,12.515,4.96722e-05
23420000,23334666,6620172,487.37054,0.108701535,0.045074463,12.512791,1.8041159e-05
23932000,23852000,6620172,487.37335,0.10868459,0.07192993,12.496288,4.6004014e-05
24532000,24452000,6620172,487.3765,0.10915719,0.090667725,12.506885,7.3032104e-05
24892000,24812000,6620172,487.37906,0.10940237,0.131073,12.504898,0.00015265244
25372000,25292000,6620172,487.38187,0.10969228,0.10183716,12.509326,9.211623e-05
25948000,25868000,6620172,487.38702,0.10962832,0.12701416,12.49712,0.00014343392
26548000,26468000,6620172,487.39078,0.10994614,0.06442261,12.508125,3.6867346e-05
27028000,26948000,6620172,487.3976,0.11016409,0.07366943,12.5129595,4.8191683e-05
27508000,27428000,6620172,487.4022,0.11035259,0.1352539,12.49677,0.00016265198
27916000,27836000,6620172,487.40683,0.11029813,0.14376831,12.497096,0.00018377004
28516000,28436000,6620172,487.41296,0.11050759,0.20852661,12.508234,0.0003862642
29060000,28976000,6620172,487.42026,0.11073613,0.16186523,12.5168085,0.00023257929
29540000,29456000,6620172,487.42606,0.11085734,0.03189087,12.500094,9.040176e-06
29948000,29864000,6620172,487.43066,0.11076281,0.13986206,12.500329,0.00017387449
30484000,30404000,6620172,487.43765,0.11082664,0.08734131,12.507764,6.7766836e-05
31028000,30944000,6620172,487.44635,0.111007005,0.12738037,12.516129,0.00014404311
31388000,31304000,6620172,487.45053,0.11107265,0.18466187,12.51411,0.0003027694
31988000,31904000,6620172,487.45633,0.1111665,0.17312622,12.503514,0.000266349
32524000,32444000,6620172,487.46396,0.111171834,0.0826416,12.510768,6.065561e-05
33004000,32924000,6620172,487.47137,0.11122665,0.17330933,12.515223,0.000266663
33484000,33404000,6620172,487.47922,0.11127518,0.13479614,12.519705,0.0001612569
33956000,33872000,6620172,487.4843,0.11120159,0.15353394,12.501658,0.00020950704
34436000,34352000,6620172,487.4887,0.11126049,0.12145996,12.506018,0.00013107042
34964000,34880000,6620172,487.4931,0.111136846,0.1182251,12.51256,0.00012411684
35500000,35420000,6620172,487.49765,0.11114802,0.124694824,12.520052,0.0001379902
35972000,35888000,6620172,487.50034,0.111090146,0.0899353,12.50214,7.188422e-05
36436000,36356000,6620172,487.49997,0.110912204,-0.111083984,12.505076,0.00010964127
37028000,36944000,6620172,487.50198,0.11090819,0.039855957,12.515475,1.41025175e-05
37268000,37184000,6620172,487.5003,0.11095897,-0.094451904,12.506985,7.925493e-05
37684000,37604000,6620172,487.49747,0.1109726,-0.20462036,12.507902,0.00037193813
38108000,38024000,6620172,487.49606,0.11111135,-0.06463623,12.509586,3.710792e-05
39044000,38960000,6620172,487.5051,0.110880114,0.3580017,12.515863,0.0011378026
39524000,39440000,6620172,487.5459,0.1109822,0.667511,12.497259,0.003961499
40052000,39968000,6620172,487.6203,0.11089615,1.0289612,12.500039,0.00941118
40532000,40448000,6620172,487.70013,0.11099222,1.1820679,12.500476,0.012419834
41012000,40928000,6620172,487.7881,0.111072786,1.3376465,12.500754,0.015903912
41524000,41442000,6620172,487.89075,0.11070758,1.0859375,12.484513,0.010495316
42052000,41972000,6620172,487.9938,0.110649064,1.2379456,12.487423,0.013636024
42524000,42440000,6620172,488.08176,0.11064514,1.2233276,12.488229,0.013315032
43060000,42980000,6620172,488.17856,0.110714115,1.1893005,12.491211,0.012581608
43532000,43448000,6620172,488.25598,0.11070016,0.9723511,12.477014,0.008419631
44012000,43928000,6620172,488.32626,0.11081115,0.91119385,12.478702,0.007392812
44548000,44468000,6620172,488.39844,0.11085031,0.9095459,12.482752,0.007363705
45020000,44936000,6620172,488.45532,0.11081919,0.6639404,12.485369,0.003922964
45556000,45476000,6620172,488.5096,0.11085818,0.57302856,12.477184,0.0029241082
46036000,45956000,6620172,488.54767,0.11093916,0.46377563,12.482163,0.001914624
46516000,46436000,6620172,488.57346,0.11100989,0.19744873,12.468249,0.0003474247
47060000,46976000,6620172,488.57764,0.111128874,-0.18258667,12.453857,0.00029743477
47540000,47456000,6620172,488.56403,0.11115818,-0.2652588,12.435649,0.00062867854
48020000,47936000,6620172,488.54605,0.11117899,-0.34823608,12.431711,0.0010838624
48556000,48475000,6620172,488.52023,0.111128286,-0.36984253,12.429238,0.0012227753
49028000,48942666,6620172,488.50024,0.111014836,-0.31167603,12.425008,0.00086869556
