timestamp,timestamp_sample,ref_timestamp,ref_lat,ref_lon,x,y,z,delta_xy[0],delta_xy[1],delta_z,vx,vy,vz,z_deriv,delta_vxy[0],delta_vxy[1],delta_vz,ax,ay,az,heading,delta_heading,ref_alt,dist_bottom,eph,epv,evh,evv,vxy_max,vz_max,hagl_min,hagl_max,xy_valid,z_valid,v_xy_valid,v_z_valid,xy_reset_counter,z_reset_counter,vxy_reset_counter,vz_reset_counter,heading_reset_counter,heading_good_for_control,xy_global,z_global,dist_bottom_valid,dist_bottom_sensor_bitfield,dead_reckoning
3340000,3340000,0,nan,nan,-5.0940194e-05,-9.32533e-05,-0.00077513105,-4.5966356e-08,1.891097e-08,0.0,-0.00018729764,-0.0023030103,-0.014932819,-0.016474973,-7.6610595e-06,3.1518284e-06,0.0017121732,-0.023746876,-0.004883637,-0.13062264,-0.00013002001,0.0,nan,0.1,14.172738,10.008659,7.074013,3.1623116,inf,inf,inf,inf,0,0,0,0,1,1,1,1,0,0,0,0,0,0,1
3348000,3348000,0,nan,nan,-5.261573e-05,-0.00011073448,-0.0008667586,-4.5966356e-08,1.891097e-08,0.0,-0.00026705163,-0.0023779487,-0.01591985,-0.017376846,-7.6610595e-06,3.1518284e-06,0.0017121732,0.003137218,-0.018334743,-0.13217142,-0.000139372,0.0,nan,0.102309816,14.142143,10.0,0.001953125,0.001,inf,inf,inf,inf,0,0,0,0,1,1,1,1,0,0,0,0,0,0,1
3356000,3356000,0,nan,nan,-5.3889995e-05,-0.00012989508,-0.00096151995,-4.5966356e-08,1.891097e-08,0.0,-0.00020899996,-0.0027591323,-0.016554423,-0.017917762,-7.6610595e-06,3.1518284e-06,0.0017121732,-0.0020771984,-0.057175215,-0.0847578,-0.00013956444,0.0,nan,0.10240013,14.142143,10.0,0.0128935,0.0041895425,inf,inf,inf,inf,0,0,0,0,1,1,1,1,0,0,0,0,0,0,1
3364000,3364000,0,nan,nan,-3.2230997e-05,-7.890752e-05,0.0005497352,-4.5966356e-08,1.891097e-08,0.0,0.00033393255,-0.0027969943,-0.012868377,-0.018548755,-7.6610595e-06,3.1518284e-06,0.0017121732,0.019613449,0.010118732,-0.115703784,1.6279694,0.0,nan,0.100875296,14.142143,10.0,0.024572773,0.0064848023,inf,inf,inf,inf,0,0,0,0,1,1,1,1,0,0,0,0,0,0,1
3372000,3372000,0,nan,nan,-2.8745095e-05,-0.00010062155,0.00044404034,-4.5966356e-08,1.891097e-08,0.0,0.000529622,-0.002659602,-0.013961383,-0.019443588,-7.6610595e-06,3.1518284e-06,0.0017121732,0.040308222,0.017130703,-0.14355591,1.6279557,0.0,nan,0.10095874,14.142143,10.0,0.033455193,0.00863141,inf,inf,inf,inf,0,0,0,0,1,1,1,1,0,0,0,0,0,0,1
3380000,3380000,0,nan,nan,-2.251031e-05,-0.00012139244,0.00033002658,-4.5966356e-08,1.891097e-08,0.0,0.0009011967,-0.0026064394,-0.0151537135,-0.02043348,-7.6610595e-06,3.1518284e-06,0.0017121732,0.043999255,-0.0014079122,-0.15109962,1.6279442,0.0,nan,0.10104212,14.142143,10.0,0.04370987,0.010719071,inf,inf,inf,inf,0,0,0,0,1,1,1,1,0,0,0,0,0,0,1
3388000,3388000,0,nan,nan,-1.3025795e-05,-0.00014169482,0.00020839123,-4.5966356e-08,1.891097e-08,0.0,0.0012515436,-0.002553758,-0.016078915,-0.021154284,-7.6610595e-06,3.1518284e-06,0.0017121732,0.03353841,0.0024767795,-0.11171772,1.6279553,0.0,nan,0.10112461,14.142143,10.0,0.05456074,0.012776814,inf,inf,inf,inf,0,0,0,0,1,1,1,1,0,0,0,0,0,0,1
3396000,3396000,0,nan,nan,-1.5122255e-06,-0.00016132693,8.013945e-05,-4.5966356e-08,1.891097e-08,0.0,0.001346689,-0.002491526,-0.017101072,-0.021971885,-7.6610595e-06,3.1518284e-06,0.0017121732,0.0039332076,0.002820263,-0.13627483,1.6279567,0.0,nan,0.10120446,14.142143,10.0,0.06576094,0.014817238,inf,inf,inf,inf,0,0,0,0,1,1,1,1,0,0,0,0,0,0,1
3404000,3404000,0,nan,nan,1.0647062e-05,-0.00018000102,-5.6040986e-05,-4.5966356e-08,1.891097e-08,0.0,0.0013611938,-0.0024293116,-0.018298041,-0.022965528,-7.6610595e-06,3.1518284e-06,0.0017121732,0.0020890436,-0.002278102,-0.15560164,1.627961,0.0,nan,0.10128247,14.142143,10.0,0.07712735,0.01684644,inf,inf,inf,inf,0,0,0,0,1,1,1,1,0,0,0,0,0,0,1
3412000,3412000,0,nan,nan,2.4357942e-05,-0.00019766686,-0.0002003599,-4.5966356e-08,1.891097e-08,0.0,0.0016604399,-0.0023193106,-0.01933547,-0.023801923,-7.6610595e-06,3.1518284e-06,0.0017121732,0.042572863,0.0128190145,-0.12209545,1.6279716,0.0,nan,0.1013601,14.142143,10.0,0.08859019,0.0188681,inf,inf,inf,inf,0,0,0,0,1,1,1,1,0,0,0,0,0,0,1
3420000,3420000,0,nan,nan,4.0532806e-05,-0.0002138519,-0.0003513803,-4.5966356e-08,1.891097e-08,0.0,0.0018127406,-0.0022643672,-0.020296326,-0.024564836,-7.6610595e-06,3.1518284e-06,0.0017121732,0.003009758,-0.00835373,-0.1269914,1.6279747,0.0,nan,0.10143624,14.142143,10.0,0.10015037,0.0208844,inf,inf,inf,inf,0,0,0,0,1,1,1,1,0,0,0,0,0,0,1
3428000,3428000,0,nan,nan,5.8253547e-05,-0.00022866273,-0.0005102262,-4.5966356e-08,1.891097e-08,0.0,0.0020068837,-0.0020786754,-0.0215748,-0.02564905,-7.6610595e-06,3.1518284e-06,0.0017121732,0.021380939,0.020336257,-0.16787274,1.627986,0.0,nan,0.101511605,14.142142,10.0,0.11177806,0.022896757,inf,inf,inf,inf,0,0,0,0,1,1,1,1,0,0,0,0,0,0,1
3436000,3436000,0,nan,nan,7.652402e-05,-0.00024085527,-0.00067732943,-4.5966356e-08,1.891097e-08,0.0,0.0018269587,-0.0017969684,-0.022576993,-0.026461096,-7.6610595e-06,3.1518284e-06,0.0017121732,-0.032298934,0.02108389,-0.121048644,1.6279988,0.0,nan,0.10158793,14.142142,10.0,0.12341118,0.024906466,inf,inf,inf,inf,0,0,0,0,1,1,1,1,0,0,0,0,0,0,1
3444000,3444000,0,nan,nan,9.550848e-05,-0.00025138215,-0.00085580983,-4.5966356e-08,1.891097e-08,0.0,0.00213576,-0.0016461168,-0.023642266,-0.027314262,-7.6610595e-06,3.1518284e-06,0.0017121732,0.042807236,0.009025636,-0.12818444,1.6279955,0.0,nan,0.10166929,14.142142,10.0,0.13510336,0.026913615,inf,inf,inf,inf,0,0,0,0,1,1,1,1,0,0,0,0,0,0,1
3452000,3452000,0,nan,nan,0.000117078685,-0.00026012424,-0.0010419284,-4.5966356e-08,1.891097e-08,0.0,0.0023402553,-0.0015500896,-0.02446639,-0.027931519,-7.6610595e-06,3.1518284e-06,0.0017121732,0.018784381,-0.001125314,-0.09777955,1.6280041,0.0,nan,0.10175047,14.142142,10.0,0.14687292,0.028919084,inf,inf,inf,inf,0,0,0,0,1,1,1,1,0,0,0,0,0,0,1
3460000,3460000,0,nan,nan,0.00013956554,-0.00026681658,-0.0012345868,-4.5966356e-08,1.891097e-08,0.0,0.002229917,-0.0012677117,-0.025277937,-0.028541576,-7.6610595e-06,3.1518284e-06,0.0017121732,-0.033514254,0.033243135,-0.10163895,1.6279973,0.0,nan,0.10182889,14.142142,10.0,0.15869227,0.030923268,inf,inf,inf,inf,0,0,0,0,1,1,1,1,0,0,0,0,0,0,1
3468000,3468000,0,nan,nan,0.00016178095,-0.00027013518,-0.0014342113,-4.5966356e-08,1.891097e-08,0.0,0.0023081307,-0.00092988426,-0.026179845,-0.02924745,-7.6610595e-06,3.1518284e-06,0.0017121732,0.018564546,0.02725489,-0.11149886,1.6280007,0.0,nan,0.10190565,14.142142,10.0,0.17050788,0.03292627,inf,inf,inf,inf,0,0,0,0,1,1,1,1,0,0,0,0,0,0,1
3476000,3476000,0,nan,nan,0.00018639515,-0.00027070974,-0.0016410118,-4.5966356e-08,1.891097e-08,0.0,0.0027343356,-0.000735155,-0.027063403,-0.02994045,-7.6610595e-06,3.1518284e-06,0.0017121732,0.056838077,0.011857627,-0.113487236,1.6280007,0.0,nan,0.10198164,14.142142,10.0,0.18202668,0.034928046,inf,inf,inf,inf,0,0,0,0,1,1,1,1,0,0,0,0,0,0,1
3484000,3484000,0,nan,nan,0.00021439223,-0.00026966073,-0.0018551487,-4.5966356e-08,1.891097e-08,0.0,0.0030269371,-0.0006683416,-0.027947608,-0.030639563,-7.6610595e-06,3.1518284e-06,0.0017121732,0.026136024,-0.0018374557,-0.10365806,1.6280069,0.0,nan,0.10205593,14.142142,10.0,0.1936254,0.036928955,inf,inf,inf,inf,0,0,0,0,1,1,1,1,0,0,0,0,0,0,1
3492000,3492000,0,nan,nan,0.00024465835,-0.0002674697,-0.0020765066,-4.5966356e-08,1.891097e-08,0.0,0.003231292,-0.0005875514,-0.028890444,-0.031402722,-7.6610595e-06,3.1518284e-06,0.0017121732,0.014249452,0.001656488,-0.12298207,1.6280032,0.0,nan,0.10212835,14.142143,10.0,0.20525694,0.038929485,inf,inf,inf,inf,0,0,0,0,1,1,1,1,0,0,0,0,0,0,1
3500000,3500000,0,nan,nan,0.00027687816,-0.00026429148,-0.0023056106,-4.5966356e-08,1.891097e-08,0.0,0.003515131,-0.00058821985,-0.029828524,-0.03216648,-7.6610595e-06,3.1518284e-06,0.0017121732,0.039112445,-0.01703306,-0.115739174,1.628003,0.0,nan,0.102200374,14.142144,10.0,0.21693267,0.040929306,inf,inf,inf,inf,0,0,0,0,1,1,1,1,0,0,0,0,0,0,1
3508000,3508000,0,nan,nan,0.00031219027,-0.0002606169,-0.0025426701,-4.5966356e-08,1.891097e-08,0.0,0.003909469,-0.00049982534,-0.030857783,-0.033026684,-7.6610595e-06,3.1518284e-06,0.0017121732,0.04352236,0.016010772,-0.12924801,1.6279967,0.0,nan,0.102271244,14.142145,10.0,0.2287075,0.042928707,inf,inf,inf,inf,0,0,0,0,1,1,1,1,0,0,0,0,0,0,1
3516000,3516000,0,nan,nan,0.00035015165,-0.0002555993,-0.0027878007,-4.5966356e-08,1.891097e-08,0.0,0.0041310247,-0.00044730873,-0.03182406,-0.03382908,-7.6610595e-06,3.1518284e-06,0.0017121732,0.023312837,-0.008956136,-0.12306775,1.6279906,0.0,nan,0.10234093,14.142147,10.0,0.24049558,0.044927374,inf,inf,inf,inf,0,0,0,0,1,1,1,1,0,0,0,0,0,0,1
3524000,3524000,0,nan,nan,0.00038027778,-0.00025274817,-0.0030313344,-4.5966356e-08,1.891097e-08,0.0,0.004499658,-0.00033986714,-0.032881644,-0.034717955,-7.6610595e-06,3.1518284e-06,0.0017121732,0.041509394,0.011813288,-0.12701283,1.6279954,0.0,nan,0.10271089,0.014084185,7.071068,0.252339,0.0469261,inf,inf,inf,inf,0,0,0,0,1,1,1,1,0,0,0,0,0,0,1
3532000,3532000,0,nan,nan,0.00041355472,-0.00024779566,-0.0032837007,-4.5966356e-08,1.891097e-08,0.0,0.0047993795,-4.4691664e-05,-0.033950306,-0.03562321,-7.6610595e-06,3.1518284e-06,0.0017121732,0.032051027,0.033105068,-0.13269296,1.62801,0.0,nan,0.10277202,0.014295206,7.071068,0.26419687,0.04892443,inf,inf,inf,inf,0,0,0,0,1,1,1,1,0,0,0,0,0,0,1
3540000,3540000,0,nan,nan,0.00044933867,-0.00024030395,-0.0035443723,-4.5966356e-08,1.891097e-08,0.0,0.005018341,0.00016958281,-0.0348833,-0.03639799,-7.6610595e-06,3.1518284e-06,0.0017121732,0.021909654,0.018024059,-0.121281475,1.628012,0.0,nan,0.102834985,0.014946785,7.071068,0.27610007,0.05092228,inf,inf,inf,inf,0,0,0,0,1,1,1,1,0,0,0,0,0,0,1
3548000,3548000,0,nan,nan,0.0004871645,-0.00023120214,-0.003813805,-4.5966356e-08,1.891097e-08,0.0,0.0052013765,0.00022741346,-0.036007334,-0.03736886,-7.6610595e-06,3.1518284e-06,0.0017121732,0.016656877,-0.0105393985,-0.13524573,1.628019,0.0,nan,0.102899924,0.016037988,7.071068,0.28806117,0.05292008,inf,inf,inf,inf,0,0,0,0,1,1,1,1,0,0,0,0,0,0,1
3556000,3556000,0,nan,nan,0.0005220115,-0.00022247547,-0.004026568,-4.5966356e-08,1.891097e-08,0.0,0.005116676,0.0004007767,-0.036264103,-0.037328653,-7.6610595e-06,3.1518284e-06,0.0017121732,-0.004907153,0.03684325,-0.1453543,1.628035,0.0,nan,0.10495396,0.01408761,7.071067,0.0046271877,0.0010904431,inf,inf,inf,inf,0,0,0,0,1,1,1,1,0,0,0,0,0,0,1
3564000,3564000,0,nan,nan,0.0005554615,-0.00021161415,-0.004233976,-4.5966356e-08,1.891097e-08,0.0,0.005032138,0.0006727958,-0.035796363,-0.03657027,-7.6610595e-06,3.1518284e-06,0.0017121732,0.00801972,0.02881832,-0.039468516,1.6280377,0.0,nan,0.105160795,0.01408819,7.071067,0.0069930144,0.003613349,inf,inf,inf,inf,0,0,0,0,1,1,1,1,0,0,0,0,0,0,1
3572000,3572000,0,nan,nan,0.00058799447,-0.00019889585,-0.004431475,-4.5966356e-08,1.891097e-08,0.0,0.0050008046,0.0008540543,-0.035035767,-0.03552524,-7.6610595e-06,3.1518284e-06,0.0017121732,0.008752729,0.01408295,-0.0144746145,1.6280333,0.0,nan,0.10535662,0.0140889045,7.071067,0.009113833,0.0050709834,inf,inf,inf,inf,0,0,0,0,1,1,1,1,0,0,0,0,0,0,1
3580000,3580000,0,nan,nan,0.0006203383,-0.0001854814,-0.004618464,-4.5966356e-08,1.891097e-08,0.0,0.0051188515,0.0009151725,-0.034373924,-0.034585048,-7.6610595e-06,3.1518284e-06,0.0017121732,0.025076296,0.012946387,-0.023580154,1.6268872,-0.0011434555,nan,0.10554066,0.014089974,7.071067,0.0111749815,0.0062582213,inf,inf,inf,inf,0,0,0,0,1,1,1,1,1,0,0,0,0,0,1
3588000,3588000,0,nan,nan,0.0006520716,-0.00017140276,-0.004795515,-4.5966356e-08,1.891097e-08,0.0,0.0050288755,0.0009940166,-0.03381481,-0.033753548,-7.6610595e-06,3.1518284e-06,0.0017121732,0.0061116586,0.0039784205,-0.04435982,1.6268101,-0.0011434555,nan,0.10571313,0.0140916845,7.071067,0.012972819,0.007308077,inf,inf,inf,inf,0,0,0,0,1,1,1,1,1,0,0,0,0,0,1
3596000,3596000,0,nan,nan,0.00068322045,-0.00015738115,-0.004964164,-4.5966356e-08,1.891097e-08,0.0,0.005082552,0.0009356057,-0.033498697,-0.033170886,-7.6610595e-06,3.1518284e-06,0.0017121732,0.011527037,-0.011888536,-0.06960332,1.6267179,-0.0011434555,nan,0.105875455,0.014094343,7.071067,0.015805056,0.008273047,inf,inf,inf,inf,0,0,0,0,1,1,1,1,1,0,0,0,0,0,1
3604000,3604000,0,nan,nan,0.00071346236,-0.00014408634,-0.0051247724,-4.5966356e-08,1.891097e-08,0.0,0.005071334,0.0008876421,-0.033057373,-0.032468732,-7.6610595e-06,3.1518284e-06,0.0017121732,0.028863737,-0.00061086024,-0.052043233,1.6266497,-0.0011434555,nan,0.10602791,0.01409848,7.071067,0.01922134,0.00917997,inf,inf,inf,inf,0,0,0,0,1,1,1,1,1,0,0,0,0,0,1
3612000,3612000,0,nan,nan,0.00074377196,-0.00013100846,-0.00527662,-4.5966356e-08,1.891097e-08,0.0,0.005137258,0.00092682196,-0.032538906,-0.031695027,-7.6610595e-06,3.1518284e-06,0.0017121732,0.0043231263,0.010864619,-0.031730156,1.6265882,-0.0011434555,nan,0.10616936,0.01410499,7.071067,0.022963258,0.010044595,inf,inf,inf,inf,0,0,0,0,1,1,1,1,1,0,0,0,0,0,1
3620000,3620000,0,nan,nan,0.00077284576,-0.00011709073,-0.005418685,-4.5966356e-08,1.891097e-08,0.0,0.005063748,0.0011380195,-0.0319552,-0.030861562,-7.6610595e-06,3.1518284e-06,0.0017121732,0.016919656,0.0298012,-0.038047317,1.6265,-0.0011434555,nan,0.10629929,0.014115132,7.071067,0.026893646,0.010877033,inf,inf,inf,inf,0,0,0,0,1,1,1,1,1,0,0,0,0,0,1
3628000,3628000,0,nan,nan,0.0008017548,-0.000101754515,-0.0055505745,-4.5966356e-08,1.891097e-08,0.0,0.0052168546,0.0012952494,-0.03126593,-0.02992789,-7.6610595e-06,3.1518284e-06,0.0017121732,0.028494569,0.0119244065,-0.017703509,1.6264015,-0.0011434555,nan,0.10641709,0.014130517,7.071067,0.030951155,0.011684184,inf,inf,inf,inf,0,0,0,0,1,1,1,1,1,0,0,0,0,0,1
3636000,3636000,0,nan,nan,0.0008300511,-8.581595e-05,-0.0056724306,-4.5966356e-08,1.891097e-08,0.0,0.0050900513,0.0014064235,-0.030825842,-0.029248647,-7.6610595e-06,3.1518284e-06,0.0017121732,-0.010233518,0.02040612,-0.065997235,1.6263136,-0.0011434555,nan,0.106522195,0.014153108,7.071067,0.03509211,0.012470972,inf,inf,inf,inf,0,0,0,0,1,1,1,1,1,0,0,0,0,0,1
3644000,3644000,0,nan,nan,0.0008564033,-6.9111295e-05,-0.0057862108,-4.5966356e-08,1.891097e-08,0.0,0.0049835346,0.0015360718,-0.030403126,-0.028594386,-7.6610595e-06,3.1518284e-06,0.0017121732,0.00770796,0.01831383,-0.03678258,1.6262469,-0.0011434555,nan,0.106616385,0.0141852,7.071067,0.039295867,0.013241051,inf,inf,inf,inf,0,0,0,0,1,1,1,1,1,0,0,0,0,0,1
3652000,3652000,0,nan,nan,0.00088216923,-5.163825e-05,-0.0058909357,-4.5966356e-08,1.891097e-08,0.0,0.005125009,0.0016680286,-0.029815761,-0.02778293,-7.6610595e-06,3.1518284e-06,0.0017121732,0.036820184,0.018493854,-0.032445412,1.6261716,-0.0011434555,nan,0.1066997,0.014229411,7.071067,0.043538872,0.013997191,inf,inf,inf,inf,0,0,0,0,1,1,1,1,1,0,0,0,0,0,1
3660000,3660000,0,nan,nan,0.0009081029,-3.2943834e-05,-0.0059865722,-4.5966356e-08,1.891097e-08,0.0,0.0051897587,0.0019031973,-0.029172499,-0.026922872,-7.6610595e-06,3.1518284e-06,0.0017121732,0.021794388,0.02925332,-0.0107605,1.6261165,-0.0011434555,nan,0.106772855,0.014288639,7.071067,0.04782507,0.014741551,inf,inf,inf,inf,0,0,0,0,1,1,1,1,1,0,0,0,0,0,1
3668000,3668000,0,nan,nan,0.0009335577,-1.3328768e-05,-0.0060729794,-4.5966356e-08,1.891097e-08,0.0,0.005187575,0.0019477089,-0.028589638,-0.026130358,-7.6610595e-06,3.1518284e-06,0.0017121732,0.013673444,-0.0005940673,-0.035417262,1.6260538,-0.0011434555,nan,0.10683492,0.014366055,7.071067,0.05214998,0.015475839,inf,inf,inf,inf,0,0,0,0,1,1,1,1,1,0,0,0,0,0,1
3676000,3676000,0,nan,nan,0.00095888256,5.0392437e-06,-0.0061518014,-4.5966356e-08,1.891097e-08,0.0,0.005330608,0.0017193556,-0.028078824,-0.025416879,-7.6610595e-06,3.1518284e-06,0.0017121732,0.030502034,-0.021395855,-0.012674368,1.6259971,-0.0011434555,nan,0.106886156,0.014465057,7.071067,0.056515574,0.01620144,inf,inf,inf,inf,0,0,0,0,1,1,1,1,1,0,0,0,0,0,1
3684000,3684000,0,nan,nan,0.0009835232,2.2087122e-05,-0.006223,-4.5966356e-08,1.891097e-08,0.0,0.005163049,0.0016505246,-0.027638039,-0.024780262,-7.6610595e-06,3.1518284e-06,0.0017121732,-0.01434976,-0.011829702,-0.04789326,1.6259307,-0.0011434555,nan,0.10692604,0.014589233,7.071067,0.060908567,0.016919482,inf,inf,inf,inf,0,0,0,0,1,1,1,1,1,0,0,0,0,0,1
3692000,3692000,0,nan,nan,0.0010056482,3.8446855e-05,-0.0062877527,-4.5966356e-08,1.891097e-08,0.0,0.004903329,0.001667718,-0.02713965,-0.024092734,-7.6610595e-06,3.1518284e-06,0.0017121732,-0.017931087,0.010318893,-0.016146338,1.6258712,-0.0011434555,nan,0.10695656,0.014742264,7.071067,0.06532987,0.017630903,inf,inf,inf,inf,0,0,0,0,1,1,1,1,1,0,0,0,0,0,1
3700000,3700000,0,nan,nan,0.0010253733,5.4733886e-05,-0.0063452637,-4.5966356e-08,1.891097e-08,0.0,0.004744721,0.0016837762,-0.026552703,-0.02332319,-7.6610595e-06,3.1518284e-06,0.0017121732,9.953509e-06,0.004188012,-0.013398937,1.6258233,-0.0011434555,nan,0.106977485,0.014927873,7.071067,0.06977985,0.01833648,inf,inf,inf,inf,0,0,0,0,1,1,1,1,1,0,0,0,0,0,1
3708000,3708000,0,nan,nan,0.0010433742,7.089278e-05,-0.0063961833,-4.5966356e-08,1.891097e-08,0.0,0.0045855413,0.0017181102,-0.026132036,-0.022726322,-7.6610595e-06,3.1518284e-06,0.0017121732,-0.010874646,0.007907772,-0.039716247,1.6257793,-0.0011434555,nan,0.10699014,0.01514976,7.071067,0.07425745,0.019036878,inf,inf,inf,inf,0,0,0,0,1,1,1,1,1,0,0,0,0,0,1
3716000,3716000,0,nan,nan,0.0010589906,8.680895e-05,-0.006441956,-4.5966356e-08,1.891097e-08,0.0,0.004320148,0.0017041179,-0.025703456,-0.022127796,-7.6610595e-06,3.1518284e-06,0.0017121732,-0.018908395,0.0035331175,-0.012277625,1.6257303,-0.0011434555,nan,0.10699542,0.015411508,7.071067,0.07877567,0.019732647,inf,inf,inf,inf,0,0,0,0,1,1,1,1,1,0,0,0,0,0,1
3724000,3724000,0,nan,nan,0.0010719773,0.00010309271,-0.0064819045,-4.5966356e-08,1.891097e-08,0.0,0.0040846867,0.0018508247,-0.025220547,-0.021481058,-7.6610595e-06,3.1518284e-06,0.0017121732,-0.011410666,0.015306736,-0.022486782,1.6256875,-0.0011434555,nan,0.10699165,0.015716571,7.071067,0.08332673,0.020424277,inf,inf,inf,inf,0,0,0,0,1,1,1,1,1,0,0,0,0,0,1
3732000,3732000,0,nan,nan,0.0010822326,0.00011961548,-0.006520925,-4.5966356e-08,1.891097e-08,0.0,0.004064991,0.0019113562,-0.024555802,-0.020663517,-7.6610595e-06,3.1518284e-06,0.0017121732,0.012487085,0.016167292,0.014057382,1.6256496,-0.0011434555,nan,0.10682656,0.010615934,5.7735023,0.0822397,0.021112181,inf,inf,inf,inf,0,0,0,0,1,1,1,1,1,0,0,0,0,0,1
3740000,3740000,0,nan,nan,0.0010911499,0.00013708245,-0.006553367,-4.5966356e-08,1.891097e-08,0.0,0.0038716441,0.0021601594,-0.02401141,-0.019971995,-7.6610595e-06,3.1518284e-06,0.0017121732,-0.0102357,0.040068842,-0.014403834,1.625614,-0.0011434555,nan,0.10681147,0.010894293,5.7735023,0.08658483,0.021796728,inf,inf,inf,inf,0,0,0,0,1,1,1,1,1,0,0,0,0,0,1
3748000,3748000,0,nan,nan,0.0010986915,0.00015610833,-0.0065813228,-4.5966356e-08,1.891097e-08,0.0,0.0038415662,0.0023071207,-0.0237312,-0.01955019,-7.6610595e-06,3.1518284e-06,0.0017121732,0.010767122,0.011075157,-0.042107884,1.6255898,-0.0011434555,nan,0.1067907,0.011235062,5.7735023,0.09096738,0.022478217,inf,inf,inf,inf,0,0,0,0,1,1,1,1,1,0,0,0,0,0,1
3756000,3756000,0,nan,nan,0.0011057401,0.00017568878,-0.0066060983,-4.5966356e-08,1.891097e-08,0.0,0.0038979407,0.0024083753,-0.023427382,-0.019110186,-7.6610595e-06,3.1518284e-06,0.0017121732,0.03128289,0.015849538,-0.025900079,1.6255648,-0.0011434555,nan,0.106765196,0.01164091,5.7735023,0.09538933,0.023156932,inf,inf,inf,inf,0,0,0,0,1,1,1,1,1,0,0,0,0,0,1
3764000,3764000,0,nan,nan,0.0011129945,0.00019583399,-0.0066271564,-4.5966356e-08,1.891097e-08,0.0,0.0039544683,0.0025726715,-0.023090616,-0.018641965,-7.6610595e-06,3.1518284e-06,0.0017121732,0.007484224,0.028316934,-0.02711173,1.6255366,-0.0011434555,nan,0.10674231,0.011901679,5.7735023,0.0941571,0.023665665,inf,inf,inf,inf,0,0,0,0,1,1,1,1,1,0,0,0,0,0,1
3772000,3772000,0,nan,nan,0.0011197833,0.0002164228,-0.006644966,-4.5966356e-08,1.891097e-08,0.0,0.003976859,0.0025314852,-0.022753105,-0.018178174,-7.6610595e-06,3.1518284e-06,0.0017121732,0.027031025,-0.0111947,-0.021374783,1.6254925,-0.0011434555,nan,0.10670679,0.012391552,5.7735023,0.09841446,0.024337873,inf,inf,inf,inf,0,0,0,0,1,1,1,1,1,0,0,0,0,0,1
3780000,3780000,0,nan,nan,0.0011264299,0.00023643581,-0.0066595003,-4.5966356e-08,1.891097e-08,0.0,0.003931637,0.0025602633,-0.022376435,-0.01768028,-7.6610595e-06,3.1518284e-06,0.0017121732,-0.0011444207,0.013873547,-0.015177763,1.6254702,-0.0011434555,nan,0.106666915,0.012944687,5.7735023,0.10270958,0.025007926,inf,inf,inf,inf,0,0,0,0,1,1,1,1,1,0,0,0,0,0,1
3788000,3788000,0,nan,nan,0.0011320683,0.00025749148,-0.0066707204,-4.5966356e-08,1.891097e-08,0.0,0.003853672,0.0028295196,-0.0219794,-0.017166957,-7.6610595e-06,3.1518284e-06,0.0017121732,0.0056831045,0.03729999,-0.010757706,1.6254523,-0.0011434555,nan,0.106622495,0.013561035,5.7735023,0.10705318,0.025675992,inf,inf,inf,inf,0,0,0,0,1,1,1,1,1,0,0,0,0,0,1
3796000,3796000,0,nan,nan,0.0011369792,0.0002796731,-0.0066790995,-4.5966356e-08,1.891097e-08,0.0,0.003826627,0.0028539815,-0.021734638,-0.016810726,-7.6610595e-06,3.1518284e-06,0.0017121732,0.0121219335,-0.0055829147,-0.041488554,1.6254241,-0.0011434555,nan,0.106573515,0.014240136,5.7735023,0.11144072,0.026342226,inf,inf,inf,inf,0,0,0,0,1,1,1,1,1,0,0,0,0,0,1
3804000,3804000,0,nan,nan,0.0011410929,0.0003010249,-0.006686259,-4.5966356e-08,1.891097e-08,0.0,0.003669764,0.002776389,-0.021589046,-0.016558373,-7.6610595e-06,3.1518284e-06,0.0017121732,-0.017328056,0.005202164,-0.03806315,1.6254121,-0.0011434555,nan,0.106521994,0.01498118,5.7735023,0.11587225,0.027006777,inf,inf,inf,inf,0,0,0,0,1,1,1,1,1,0,0,0,0,0,1
3812000,3812000,0,nan,nan,0.0011435638,0.00032277504,-0.0066915555,-4.5966356e-08,1.891097e-08,0.0,0.00354726,0.0029524053,-0.02114728,-0.01601444,-7.6610595e-06,3.1518284e-06,0.0017121732,0.0045561753,0.022538034,0.0143880015,1.6254106,-0.0011434555,nan,0.10646839,0.015783114,5.7735023,0.12034429,0.027669767,inf,inf,inf,inf,0,0,0,0,1,1,1,1,1,0,0,0,0,0,1
3820000,3820000,0,nan,nan,0.0011443107,0.00034563555,-0.0066932137,-4.5966356e-08,1.891097e-08,0.0,0.0032073047,0.003100899,-0.020698354,-0.015467835,-7.6610595e-06,3.1518284e-06,0.0017121732,-0.043775156,0.017362107,-0.01406297,1.625403,-0.0011434555,nan,0.10641129,0.016644735,5.7735023,0.12487006,0.028331315,inf,inf,inf,inf,0,0,0,0,1,1,1,1,1,0,0,0,0,0,1
3828000,3828000,0,nan,nan,0.0011426028,0.00036931495,-0.0066929036,-4.5966356e-08,1.891097e-08,0.0,0.0031113545,0.0032780252,-0.02043308,-0.015109258,-7.6610595e-06,3.1518284e-06,0.0017121732,0.019861909,0.037777424,-0.014645047,1.6253966,-0.0011434555,nan,0.10635098,0.017564872,5.7735023,0.12945703,0.028991522,inf,inf,inf,inf,0,0,0,0,1,1,1,1,1,0,0,0,0,0,1
3836000,3836000,0,nan,nan,0.0011407591,0.0003945148,-0.006690887,-4.5966356e-08,1.891097e-08,0.0,0.003065789,0.0034251187,-0.02012141,-0.014708557,-7.6610595e-06,3.1518284e-06,0.0017121732,-0.009806637,0.00761653,-0.012214295,1.6253833,-0.0011434555,nan,0.1062869,0.018542418,5.7735023,0.13409558,0.029650485,inf,inf,inf,inf,0,0,0,0,1,1,1,1,1,0,0,0,0,0,1
3844000,3844000,0,nan,nan,0.0011371863,0.00041991216,-0.0066868467,-4.5966356e-08,1.891097e-08,0.0,0.0028067739,0.003446497,-0.019731957,-0.01423424,-7.6610595e-06,3.1518284e-06,0.0017121732,-0.012516436,0.009984519,-0.0025043262,1.6253716,-0.0011434555,nan,0.10621904,0.019576246,5.7735023,0.13878703,0.030308291,inf,inf,inf,inf,0,0,0,0,1,1,1,1,1,0,0,0,0,0,1
3852000,3852000,0,nan,nan,0.0011323664,0.00044616286,-0.006680987,-4.5966356e-08,1.891097e-08,0.0,0.0027111801,0.0036499016,-0.01944636,-0.013867849,-7.6610595e-06,3.1518284e-06,0.0017121732,-0.008080707,0.02409231,-0.016333533,1.6253537,-0.0011434555,nan,0.10614788,0.020665316,5.7735023,0.14353402,0.030965006,inf,inf,inf,inf,0,0,0,0,1,1,1,1,1,0,0,0,0,0,1
3860000,3860000,0,nan,nan,0.001126264,0.00047316938,-0.00667496,-4.5966356e-08,1.891097e-08,0.0,0.0025691662,0.003722012,-0.019477049,-0.013821715,-7.6610595e-06,3.1518284e-06,0.0017121732,0.0028006178,0.018994177,-0.06523914,1.6253358,-0.0011434555,nan,0.10607533,0.021808693,5.7735023,0.14833643,0.031620715,inf,inf,inf,inf,0,0,0,0,1,1,1,1,1,0,0,0,0,0,1
3868000,3868000,0,nan,nan,0.0011200783,0.0005014675,-0.0066701765,-4.5966356e-08,1.891097e-08,0.0,0.0026652634,0.003982898,-0.01935063,-0.013622343,-7.6610595e-06,3.1518284e-06,0.0017121732,0.021451123,0.032226466,-0.0129472455,1.6253307,-0.0011434555,nan,0.10600315,0.023005534,5.7735023,0.15319645,0.03227549,inf,inf,inf,inf,0,0,0,0,1,1,1,1,1,0,0,0,0,0,1
3876000,3876000,0,nan,nan,0.0011139145,0.00053119985,-0.0066641415,-4.5966356e-08,1.891097e-08,0.0,0.0025395849,0.0041364995,-0.018943751,-0.013146288,-7.6610595e-06,3.1518284e-06,0.0017121732,-0.015314057,0.023007711,0.0018244608,1.6254508,-0.0011434555,nan,0.10592845,0.024255136,5.7735023,0.15812328,0.03292937,inf,inf,inf,inf,0,0,0,0,1,1,1,1,1,0,0,0,0,0,1
3884000,3884000,0,nan,nan,0.0011064268,0.0005624245,-0.006656912,-4.5966356e-08,1.891097e-08,0.0,0.0023868955,0.00437306,-0.018702958,-0.012839995,-7.6610595e-06,3.1518284e-06,0.0017121732,-0.004542773,0.02924782,-0.012082978,1.6255679,-0.0011434555,nan,0.10585039,0.02555694,5.7735023,0.16311616,0.03358241,inf,inf,inf,inf,0,0,0,0,1,1,1,1,1,0,0,0,0,0,1
3892000,3892000,0,nan,nan,0.0010983916,0.00059498847,-0.006648494,-4.5966356e-08,1.891097e-08,0.0,0.0023936327,0.004514286,-0.018312698,-0.012387823,-7.6610595e-06,3.1518284e-06,0.0017121732,0.016298683,0.01977365,0.004947185,1.6257093,-0.0011434555,nan,0.10576986,0.02691049,5.7735023,0.16815831,0.034234695,inf,inf,inf,inf,0,0,0,0,1,1,1,1,1,0,0,0,0,0,1
3900000,3900000,0,nan,nan,0.0010908041,0.0006280001,-0.0066394294,-4.5966356e-08,1.891097e-08,0.0,0.0024405492,0.004513554,-0.018173687,-0.012190396,-7.6610595e-06,3.1518284e-06,0.0017121732,0.0107906815,0.0013986718,-0.025440937,1.6258245,-0.0011434555,nan,0.10568872,0.028315283,5.7735023,0.1732641,0.03488624,inf,inf,inf,inf,0,0,0,0,1,1,1,1,1,0,0,0,0,0,1
3908000,3908000,0,nan,nan,0.0010836332,0.00066189934,-0.0066302232,-4.5966356e-08,1.891097e-08,0.0,0.0025156036,0.004765173,-0.017883284,-0.011844981,-7.6610595e-06,3.1518284e-06,0.0017121732,0.02535984,0.033506263,-0.0027082858,1.625927,-0.0011434555,nan,0.105606884,0.029771017,5.7735033,0.17844424,0.035537116,inf,inf,inf,inf,0,0,0,0,1,1,1,1,1,0,0,0,0,0,1
3916000,3916000,0,nan,nan,0.0010775218,0.000696941,-0.0066207913,-4.5966356e-08,1.891097e-08,0.0,0.0026237469,0.0048046065,-0.01773529,-0.011645292,-7.6610595e-06,3.1518284e-06,0.0017121732,0.01588954,0.0013511307,-0.023934057,1.62604,-0.0011434555,nan,0.10552381,0.03127754,5.773504,0.18368892,0.036187343,inf,inf,inf,inf,0,0,0,0,1,1,1,1,1,0,0,0,0,0,1
3924000,3924000,0,nan,nan,0.0010719687,0.00073180365,-0.0066118697,-4.5966356e-08,1.891097e-08,0.0,0.0026539252,0.004811982,-0.017549772,-0.01141131,-7.6610595e-06,3.1518284e-06,0.0017121732,0.014783756,0.014366217,-0.0067502256,1.6261686,-0.0011434555,nan,0.10544082,0.032834698,5.7735047,0.18899761,0.036836952,inf,inf,inf,inf,0,0,0,0,1,1,1,1,1,0,0,0,0,0,1
3932000,3932000,0,nan,nan,0.001066904,0.0007683444,-0.0066023455,-4.5966356e-08,1.891097e-08,0.0,0.0026717428,0.0052031297,-0.017219117,-0.011035338,-7.6610595e-06,3.1518284e-06,0.0017121732,0.0043960023,0.05143447,-0.0035222617,1.6263005,-0.0011434555,nan,0.105356805,0.03444239,5.773505,0.19438092,0.03748601,inf,inf,inf,inf,0,0,0,0,1,1,1,1,1,0,0,0,0,0,1
3940000,3940000,0,nan,nan,0.0010575339,0.00079898903,-0.006582375,-4.5966356e-08,1.891097e-08,0.0,0.0025231054,0.0055390466,-0.017100334,-0.010863818,-7.6610595e-06,3.1518284e-06,0.0017121732,-0.00975716,0.056290776,-0.022721475,1.6264249,-0.0011434555,nan,0.1055881,0.013167812,5.000002,0.09434761,0.038134284,inf,inf,inf,inf,0,0,0,0,1,1,1,1,1,0,0,0,0,0,1
3948000,3948000,0,nan,nan,0.0010469076,0.0008325064,-0.006563664,-4.5966356e-08,1.891097e-08,0.0,0.0023279502,0.0058899675,-0.016979596,-0.010693697,-7.6610595e-06,3.1518284e-06,0.0017121732,-0.014249526,0.038160853,-0.014727934,1.6265508,-0.0011434555,nan,0.1054903,0.0138017405,5.0000024,0.09758082,0.038782272,inf,inf,inf,inf,0,0,0,0,1,1,1,1,1,0,0,0,0,0,1
3956000,3956000,0,nan,nan,0.001035284,0.00086728635,-0.0065460904,-4.5966356e-08,1.891097e-08,0.0,0.0022566088,0.0059718564,-0.016903946,-0.010571931,-7.6610595e-06,3.1518284e-06,0.0017121732,0.0062851175,0.021891551,-0.033801418,1.6266737,-0.0011434555,nan,0.105392896,0.014475076,5.000003,0.10089192,0.039429776,inf,inf,inf,inf,0,0,0,0,1,1,1,1,1,0,0,0,0,0,1
3964000,3964000,0,nan,nan,0.0010240293,0.00090209156,-0.0065312865,-4.5966356e-08,1.891097e-08,0.0,0.0023554517,0.0058798664,-0.01709509,-0.010720135,-7.6610595e-06,3.1518284e-06,0.0017121732,0.02203557,-0.015928874,-0.058297064,1.6267745,-0.0011434555,nan,0.10529807,0.015187524,5.0000033,0.10429839,0.04007683,inf,inf,inf,inf,0,0,0,0,1,1,1,1,1,0,0,0,0,0,1
3972000,3972000,0,nan,nan,0.001013365,0.0009353645,-0.0065176673,-4.5966356e-08,1.891097e-08,0.0,0.002314452,0.006050593,-0.017185017,-0.010766764,-7.6610595e-06,3.1518284e-06,0.0017121732,-0.00022494349,0.053746186,-0.04488602,1.6268762,-0.0011434555,nan,0.10527347,0.015266068,5.0000033,0.10072324,0.039904624,inf,inf,inf,inf,0,0,0,0,1,1,1,1,1,0,0,0,0,0,1
3980000,3980000,0,nan,nan,0.0010020592,0.00097132655,-0.0065066996,-4.5966356e-08,1.891097e-08,0.0,0.0021733763,0.0064596115,-0.017191546,-0.010733088,-7.6610595e-06,3.1518284e-06,0.0017121732,-0.006119851,0.045836683,-0.028939916,1.6269923,-0.0011434555,nan,0.105185,0.015987284,5.000004,0.10409543,0.040542748,inf,inf,inf,inf,0,0,0,0,1,1,1,1,1,0,0,0,0,0,1
3988000,3988000,0,nan,nan,0.0009906142,0.0010089647,-0.0064980597,-4.5966356e-08,1.891097e-08,0.0,0.0022333798,0.006588992,-0.017246138,-0.010750486,-7.6610595e-06,3.1518284e-06,0.0017121732,0.020514648,0.026154853,-0.04199985,1.6270863,-0.0011434555,nan,0.105098076,0.016744928,5.0000043,0.10755394,0.041180473,inf,inf,inf,inf,0,0,0,0,1,1,1,1,1,0,0,0,0,0,1
3996000,3996000,0,nan,nan,0.0009800505,0.001047873,-0.0064923265,-4.5966356e-08,1.891097e-08,0.0,0.002322854,0.0068322425,-0.017341942,-0.010812021,-7.6610595e-06,3.1518284e-06,0.0017121732,0.019708734,0.03935238,-0.041571442,1.6271698,-0.0011434555,nan,0.10501337,0.017539069,5.000005,0.11111125,0.041817807,inf,inf,inf,inf,0,0,0,0,1,1,1,1,1,0,0,0,0,0,1
4004000,4004000,0,nan,nan,0.0009702426,0.0010882043,-0.0064892685,-4.5966356e-08,1.891097e-08,0.0,0.0023339516,0.0069970773,-0.017332282,-0.010770938,-7.6610595e-06,3.1518284e-06,0.0017121732,0.0018519785,0.028341731,-0.02171099,1.6272321,-0.0011434555,nan,0.10493032,0.018369876,5.0000057,0.11476112,0.042454775,inf,inf,inf,inf,0,1,0,1,1,1,1,1,1,0,0,0,0,0,1
4012000,4012000,0,nan,nan,0.0009597948,0.0011294535,-0.006487699,-4.5966356e-08,1.891097e-08,0.0,0.002110544,0.00709863,-0.017157244,-0.010567244,-7.6610595e-06,3.1518284e-06,0.0017121732,-0.025585322,0.015742669,-0.0020693985,1.6273074,-0.0011434555,nan,0.10484853,0.019237543,5.000006,0.118499525,0.04309141,inf,inf,inf,inf,0,1,0,1,1,1,1,1,1,0,0,0,0,0,1
4020000,4020000,0,nan,nan,0.00094706455,0.0011709013,-0.0064869523,-4.5966356e-08,1.891097e-08,0.0,0.0017447621,0.007118791,-0.017045336,-0.010429369,-7.6610595e-06,3.1518284e-06,0.0017121732,-0.033190094,0.008992355,-0.027424654,1.6273372,-0.0011434555,nan,0.10476712,0.020142293,5.000007,0.12234302,0.043727715,inf,inf,inf,inf,0,1,0,1,1,1,1,1,1,0,0,0,0,0,1
4028000,4028000,0,nan,nan,0.0009330182,0.0012119133,-0.006488654,-4.5966356e-08,1.891097e-08,0.0,0.0017263052,0.0070894524,-0.017125398,-0.010486077,-7.6610595e-06,3.1518284e-06,0.0017121732,0.012000134,0.01312881,-0.031165777,1.6273532,-0.0011434555,nan,0.10468697,0.021084478,5.0000076,0.12628292,0.04436371,inf,inf,inf,inf,0,1,0,1,1,1,1,1,1,0,0,0,0,0,1
4036000,4036000,0,nan,nan,0.0009196298,0.0012535095,-0.0064926064,-4.5966356e-08,1.891097e-08,0.0,0.001836588,0.0072626956,-0.017059593,-0.010399454,-7.6610595e-06,3.1518284e-06,0.0017121732,0.026395267,0.024605526,-0.01732446,1.6273623,-0.0011434555,nan,0.10460776,0.022064451,5.0000086,0.13032205,0.0449994,inf,inf,inf,inf,0,1,0,1,1,1,1,1,1,0,0,0,0,0,1
4044000,4044000,0,nan,nan,0.0009069232,0.0012955673,-0.0064978655,-4.5966356e-08,1.891097e-08,0.0,0.001758258,0.007274543,-0.016905922,-0.010227433,-7.6610595e-06,3.1518284e-06,0.0017121732,-0.01485311,0.008801623,-0.011193565,1.627364,-0.0011434555,nan,0.10452737,0.02308262,5.0000095,0.1344723,0.045634795,inf,inf,inf,inf,0,1,0,1,1,1,1,1,1,0,0,0,0,0,1
4052000,4052000,0,nan,nan,0.00089324516,0.001337674,-0.00650502,-4.5966356e-08,1.891097e-08,0.0,0.0015828585,0.0073099895,-0.016921407,-0.010226959,-7.6610595e-06,3.1518284e-06,0.0017121732,-0.012266478,0.0093536945,-0.02061296,1.6273379,-0.0011434555,nan,0.104445726,0.024139501,5.00001,0.13871683,0.046269942,inf,inf,inf,inf,0,1,0,1,1,1,1,1,1,0,0,0,0,0,1
4060000,4060000,0,nan,nan,0.00087913644,0.0013798574,-0.00813329,-4.5966356e-08,1.891097e-08,0.0,0.0015758392,0.0073665953,-0.016694006,-0.011600573,-7.6610595e-06,3.1518284e-06,0.0017121732,0.008332513,0.018665304,0.0040568407,1.6273359,-0.0011434555,nan,0.1,0.025235552,2.8673136,0.14305624,0.04690478,inf,inf,inf,inf,0,1,0,1,1,1,1,1,1,0,0,0,0,0,1
4068000,4068000,0,nan,nan,0.00086504995,0.0014227135,-0.009716291,-4.5966356e-08,1.891097e-08,0.0,0.0014952873,0.00750163,-0.016796682,-0.013249285,-7.6610595e-06,3.1518284e-06,0.0017121732,-0.005318259,0.024193853,-0.049856488,1.6273364,-0.0011434555,nan,0.1,0.026371263,2.8673143,0.14749749,0.04753943,inf,inf,inf,inf,0,1,0,1,1,1,1,1,1,0,0,0,0,0,1
4076000,4076000,0,nan,nan,0.00085067167,0.0014661563,-0.011257281,-4.5966356e-08,1.891097e-08,0.0,0.0014635136,0.0075644357,-0.016905012,-0.014850223,-7.6610595e-06,3.1518284e-06,0.0017121732,0.010101517,0.018652935,-0.02685189,1.6273111,-0.0011434555,nan,0.1,0.02754719,2.8673148,0.15204076,0.04817387,inf,inf,inf,inf,0,1,0,1,1,1,1,1,1,0,0,0,0,0,1
4084000,4084000,0,nan,nan,0.0008363409,0.001510234,-0.012756529,-4.5966356e-08,1.891097e-08,0.0,0.0013561418,0.0076607983,-0.016893933,-0.016279833,-7.6610595e-06,3.1518284e-06,0.0017121732,-0.016322112,0.016076373,-0.023714265,1.6272818,-0.0011434555,nan,0.1,0.028763909,2.8673155,0.15667789,0.048808083,inf,inf,inf,inf,0,1,0,1,1,1,1,1,1,0,0,0,0,0,1
4092000,4092000,0,nan,nan,0.00082123117,0.0015551856,-0.014215302,-4.5966356e-08,1.891097e-08,0.0,0.0012216321,0.007860327,-0.016933113,-0.017709251,-7.6610595e-06,3.1518284e-06,0.0017121732,-0.01158459,0.040608935,-0.024109146,1.6272029,-0.0011434555,nan,0.1,0.030022006,2.8673162,0.1614054,0.049442064,inf,inf,inf,inf,0,1,0,1,1,1,1,1,1,0,0,0,0,0,1
4100000,4100000,0,nan,nan,0.0008049816,0.0016014813,-0.015634906,-4.5966356e-08,1.891097e-08,0.0,0.0010147995,0.0079342015,-0.016985958,-0.019103311,-7.6610595e-06,3.1518284e-06,0.0017121732,-0.014069591,0.0025262705,-0.031017696,1.6271279,-0.0011434555,nan,0.1,0.03132203,2.867317,0.16623668,0.05007583,inf,inf,inf,inf,0,1,0,1,1,1,1,1,1,0,0,0,0,0,1
4108000,4108000,0,nan,nan,0.0007887123,0.0016479576,-0.017016022,-4.5966356e-08,1.891097e-08,0.0,0.0011393902,0.008019127,-0.01680179,-0.020212725,-7.6610595e-06,3.1518284e-06,0.0017121732,0.029106695,0.02680272,0.018404795,1.627054,-0.0011434555,nan,0.1,0.03266463,2.8673182,0.17118034,0.050709415,inf,inf,inf,inf,0,1,0,1,1,1,1,1,1,0,0,0,0,0,1
4116000,4116000,0,nan,nan,0.000773616,0.0016950583,-0.0186073,-4.5966356e-08,1.891097e-08,0.0,0.0011487376,0.008051208,-0.016610788,-0.02151748,-7.6610595e-06,3.1518284e-06,0.0017121732,-0.0037884891,0.005308524,-0.00900682,1.6269816,-0.0011434555,nan,0.1,0.034050554,2.2180383,0.17621581,0.051342797,inf,inf,inf,inf,0,1,0,1,1,1,1,1,1,0,0,0,0,0,1
4124000,4124000,0,nan,nan,0.0007587257,0.0017422718,-0.020154715,-4.5966356e-08,1.891097e-08,0.0,0.0011965252,0.008091169,-0.016580878,-0.022929559,-7.6610595e-06,3.1518284e-06,0.0017121732,0.02352752,0.013118551,-0.014194286,1.6269197,-0.0011434555,nan,0.1,0.035480414,2.2180393,0.18134628,0.051976033,inf,inf,inf,inf,0,1,0,1,1,1,1,1,1,0,0,0,0,0,1
4132000,4132000,0,nan,nan,0.0007446622,0.0017900936,-0.021659477,-4.5966356e-08,1.891097e-08,0.0,0.0011412023,0.008235223,-0.01641512,-0.024153551,-7.6610595e-06,3.1518284e-06,0.0017121732,-0.021060957,0.030778622,0.007072463,1.6268348,-0.0011434555,nan,0.1,0.03695486,2.2180402,0.18658873,0.05260911,inf,inf,inf,inf,0,1,0,1,1,1,1,1,1,0,0,0,0,0,1
4140000,4140000,0,nan,nan,0.00072946545,0.0018389986,-0.023122653,-4.5966356e-08,1.891097e-08,0.0,0.00095821003,0.008312193,-0.016419977,-0.025497414,-7.6610595e-06,3.1518284e-06,0.0017121732,-0.0036766722,0.0076655555,-0.030222347,1.6267511,-0.0011434555,nan,0.1,0.03847468,2.2180412,0.19191605,0.05324203,inf,inf,inf,inf,0,1,0,1,1,1,1,1,1,0,0,0,0,0,1
4148000,4148000,0,nan,nan,0.000712624,0.0018672044,-0.024546992,-4.5966356e-08,1.891097e-08,0.0,0.0010653597,0.008323011,-0.016522795,-0.026889967,-7.6610595e-06,3.1518284e-06,0.0017121732,0.021871295,0.024943247,-0.030417925,1.6266586,-0.0011434555,nan,0.1,0.01333483,2.2180424,0.09551771,0.05387454,inf,inf,inf,inf,0,1,0,1,1,1,1,1,1,0,0,0,0,0,1
4156000,4156000,0,nan,nan,0.00069680746,0.0018952019,-0.025934247,-4.5966356e-08,1.891097e-08,0.0,0.001096929,0.008276275,-0.016703667,-0.02831269,-7.6610595e-06,3.1518284e-06,0.0017121732,0.0047239587,0.010254574,-0.03459211,1.626579,-0.0011434555,nan,0.1,0.013885224,2.2180438,0.09943676,0.054507162,inf,inf,inf,inf,0,1,0,1,1,1,1,1,1,0,0,0,0,0,1
4164000,4164000,0,nan,nan,0.0006812253,0.0019224574,-0.027284605,-4.5966356e-08,1.891097e-08,0.0,0.0010676563,0.008191552,-0.016616836,-0.029421201,-7.6610595e-06,3.1518284e-06,0.0017121732,0.004191475,0.0071351673,-0.008234753,1.6264795,-0.0011434555,nan,0.1,0.014478642,2.218045,0.1034498,0.05513965,inf,inf,inf,inf,0,1,0,1,1,1,1,1,1,0,0,0,0,0,1
4172000,4172000,0,nan,nan,0.0006652988,0.0019490034,-0.028396128,-4.5966356e-08,1.891097e-08,0.0,0.0008943297,0.008163432,-0.016630195,-0.030382806,-7.6610595e-06,3.1518284e-06,0.0017121732,-0.021429615,0.01881577,-0.015499069,1.6263671,-0.0011434555,nan,0.1,0.015115996,1.873514,0.107565366,0.055771932,inf,inf,inf,inf,0,1,0,1,1,1,1,1,1,0,0,0,0,0,1
4180000,4180000,0,nan,nan,0.00064906524,0.0019746528,-0.02947582,-4.5966356e-08,1.891097e-08,0.0,0.00091991,0.008309094,-0.016767187,-0.03142473,-7.6610595e-06,3.1518284e-06,0.0017121732,0.016545935,0.04037481,-0.04169624,1.6262697,-0.0011434555,nan,0.1,0.015218152,1.8735148,0.103956684,0.054286588,inf,inf,inf,inf,0,1,0,1,1,1,1,1,1,0,0,0,0,0,1
4188000,4188000,0,nan,nan,0.0006338487,0.002000736,-0.030527333,-4.5966356e-08,1.891097e-08,0.0,0.0010338896,0.00829516,-0.01667088,-0.03219787,-7.6610595e-06,3.1518284e-06,0.0017121732,0.021247396,0.01076667,-0.0063572074,1.6261814,-0.0011434555,nan,0.1,0.015872434,1.8735162,0.1079683,0.054901328,inf,inf,inf,inf,0,1,0,1,1,1,1,1,1,0,0,0,0,0,1
4196000,4196000,0,nan,nan,0.0006198475,0.002026972,-0.031551573,-4.5966356e-08,1.891097e-08,0.0,0.0011209731,0.008470305,-0.016846819,-0.0332088,-7.6610595e-06,3.1518284e-06,0.0017121732,0.013941927,0.049017295,-0.04135072,1.6261019,-0.0011434555,nan,0.1,0.016569156,1.8735179,0.112073354,0.055515934,inf,inf,inf,inf,0,1,0,1,1,1,1,1,1,0,0,0,0,0,1
4204000,4204000,0,nan,nan,0.00060685794,0.0020538631,-0.032550063,-4.5966356e-08,1.891097e-08,0.0,0.0011829985,0.008452609,-0.016906885,-0.034070406,-7.6610595e-06,3.1518284e-06,0.0017121732,0.007351569,0.0072114193,-0.023268161,1.6260428,-0.0011434555,nan,0.1,0.017309032,1.8735195,0.116281204,0.056130424,inf,inf,inf,inf,0,1,0,1,1,1,1,1,1,0,0,0,0,0,1
4212000,4212000,0,nan,nan,0.00059303845,0.0020805022,-0.033523563,-4.5966356e-08,1.891097e-08,0.0,0.00081743835,0.0085386075,-0.017128907,-0.0350615,-7.6610595e-06,3.1518284e-06,0.0017121732,-0.04866572,0.03685684,-0.05341414,1.6259629,-0.0011434555,nan,0.1,0.018092746,1.8735214,0.12057359,0.0567448,inf,inf,inf,inf,0,1,0,1,1,1,1,1,1,0,0,0,0,0,1
4220000,4220000,0,nan,nan,0.00057680614,0.0021078694,-0.03447343,-4.5966356e-08,1.891097e-08,0.0,0.0005408034,0.00865742,-0.01723662,-0.03590677,-7.6610595e-06,3.1518284e-06,0.0017121732,-0.024788007,0.029800225,-0.025502404,1.6258832,-0.0011434555,nan,0.1,0.01892085,1.8735234,0.124968514,0.057359062,inf,inf,inf,inf,0,1,0,1,1,1,1,1,1,0,0,0,0,0,1
4228000,4228000,0,nan,nan,0.00055917166,0.0021351778,-0.03521517,-4.5966356e-08,1.891097e-08,0.0,0.0003671364,0.008613548,-0.017244063,-0.03643758,-7.6610595e-06,3.1518284e-06,0.0017121732,-0.014836622,0.0151617415,-0.011207535,1.6258415,-0.0011434555,nan,0.1,0.019793943,1.6517648,0.12946148,0.057973098,inf,inf,inf,inf,0,1,0,1,1,1,1,1,1,0,0,0,0,0,1
4236000,4236000,0,nan,nan,0.00054079347,0.0021625897,-0.035937935,-4.5966356e-08,1.891097e-08,0.0,0.00027795736,0.008732151,-0.017119408,-0.03681311,-7.6610595e-06,3.1518284e-06,0.0017121732,-0.0015918484,0.032067165,-0.0032493842,1.625802,-0.0011434555,nan,0.1,0.02071258,1.6517668,0.13405089,0.058587156,inf,inf,inf,inf,0,1,0,1,1,1,1,1,1,0,0,0,0,0,1
4244000,4244000,0,nan,nan,0.00052261783,0.0021908649,-0.036642253,-4.5966356e-08,1.891097e-08,0.0,0.0003129464,0.008901758,-0.017080236,-0.037251644,-7.6610595e-06,3.1518284e-06,0.0017121732,0.009932045,0.04231353,-0.012265517,1.6257616,-0.0011434555,nan,0.1,0.021677276,1.651769,0.13871357,0.059201118,inf,inf,inf,inf,0,1,0,1,1,1,1,1,1,0,0,0,0,0,1
4252000,4252000,0,nan,nan,0.00050503644,0.0022203783,-0.03732918,-4.5966356e-08,1.891097e-08,0.0,0.0003109848,0.009061598,-0.017083127,-0.03771043,-7.6610595e-06,3.1518284e-06,0.0017121732,-0.0015528202,0.033320695,-0.016209668,1.6257288,-0.0011434555,nan,0.1,0.0226884,1.6517714,0.14347304,0.059814986,inf,inf,inf,inf,0,1,0,1,1,1,1,1,1,0,0,0,0,0,1
4260000,4260000,0,nan,nan,0.00048713665,0.0022496497,-0.037999995,-4.5966356e-08,1.891097e-08,0.0,0.00016610905,0.008866136,-0.017263126,-0.038325172,-7.6610595e-06,3.1518284e-06,0.0017121732,-0.013733558,-0.016339296,-0.043932345,1.6256844,-0.0011434555,nan,0.1,0.023746444,1.6517739,0.14833336,0.060428776,inf,inf,inf,inf,0,1,0,1,1,1,1,1,1,0,0,0,0,0,1
4268000,4268000,0,nan,nan,0.00046858616,0.0022772895,-0.038655084,-4.5966356e-08,1.891097e-08,0.0,7.7165794e-05,0.008760336,-0.017121706,-0.038598012,-7.6610595e-06,3.1518284e-06,0.0017121732,-0.0022539606,0.011280513,0.018150544,1.6256505,-0.0011434555,nan,0.1,0.024851914,1.6517767,0.15326768,0.06104248,inf,inf,inf,inf,0,1,0,1,1,1,1,1,1,0,0,0,0,0,1
4276000,4276000,0,nan,nan,0.00044993055,0.002303945,-0.03929294,-4.5966356e-08,1.891097e-08,0.0,4.835725e-06,0.008611093,-0.016983835,-0.038854543,-7.6610595e-06,3.1518284e-06,0.0017121732,-0.011792318,-0.0046546627,-0.0062845643,1.6256342,-0.0011434555,nan,0.1,0.026005158,1.6517797,0.15831038,0.061656117,inf,inf,inf,inf,0,1,0,1,1,1,1,1,1,0,0,0,0,0,1
4284000,4284000,0,nan,nan,0.00043029798,0.002330236,-0.039915625,-4.5966356e-08,1.891097e-08,0.0,-0.0002217899,0.008776102,-0.01711202,-0.03935787,-7.6610595e-06,3.1518284e-06,0.0017121732,-0.022753403,0.054007027,-0.032489184,1.62562,-0.0011434555,nan,0.1,0.027206734,1.6517828,0.1634337,0.062269665,inf,inf,inf,inf,0,1,0,1,1,1,1,1,1,0,0,0,0,0,1
4292000,4292000,0,nan,nan,0.00041002705,0.0023580776,-0.040401347,-4.5966356e-08,1.891097e-08,0.0,-0.00021920957,0.00891539,-0.016990103,-0.03947034,-7.6610595e-06,3.1518284e-06,0.0017121732,0.0116884615,0.024664942,0.0142147755,1.6256005,-0.0011434555,nan,0.1,0.028457033,1.4937887,0.16865727,0.06288291,inf,inf,inf,inf,0,1,0,1,1,1,1,1,1,0,0,0,0,0,1
4300000,4300000,4296000,47.3977508,8.5456073,0.00039057666,0.002386727,-0.04087503,-4.5966356e-08,1.891097e-08,0.0,-0.00013331583,0.009039882,-0.016893467,-0.039594326,-7.6610595e-06,3.1518284e-06,0.0017121732,0.01411933,0.032347742,-0.0130021935,1.6255774,-0.0011434555,488.0535,0.1,0.029756567,1.493792,0.17396078,0.063496314,inf,inf,inf,inf,0,1,0,1,1,1,1,1,1,0,1,1,0,0,1
4308000,4308000,4296000,47.3977508,8.5456073,0.00037196596,0.0024164314,-0.041338623,-4.5966356e-08,1.891097e-08,0.0,-0.00011726399,0.00921448,-0.017024525,-0.039932664,-7.6610595e-06,3.1518284e-06,0.0017121732,0.0005028559,0.04500312,-0.02842862,1.6256256,-0.0011434555,488.0535,0.1,0.031105755,1.4937954,0.17934476,0.064109646,inf,inf,inf,inf,0,1,0,1,1,1,1,1,1,0,1,1,0,0,1
4316000,4316000,4296000,47.3977508,8.5456073,0.00035322303,0.0024477202,-0.04179232,-4.5966356e-08,1.891097e-08,0.0,-0.00022818576,0.009377681,-0.016935475,-0.040037982,-7.6610595e-06,3.1518284e-06,0.0017121732,-0.0086864745,0.028041467,0.0010048969,1.6256691,-0.0011434555,488.0535,0.1,0.032504994,1.4937991,0.18480624,0.06472293,inf,inf,inf,inf,0,1,0,1,1,1,1,1,1,0,1,1,0,0,1
4324000,4324000,4296000,47.3977508,8.5456073,0.00033446378,0.0024801577,-0.04223652,-4.5966356e-08,1.891097e-08,0.0,-0.0002141652,0.009546198,-0.017119352,-0.040403716,-7.6610595e-06,3.1518284e-06,0.0017121732,0.005665526,0.040545736,-0.039054077,1.6257069,-0.0011434555,488.0535,0.1,0.03395468,1.493803,0.19036174,0.06533617,inf,inf,inf,inf,0,1,0,1,1,1,1,1,1,0,1,1,0,0,1
4332000,4332000,4296000,47.3977508,8.5456073,0.00031653835,0.0025138059,-0.042672247,-4.5966356e-08,1.891097e-08,0.0,-6.941492e-05,0.009633831,-0.01714216,-0.040596277,-7.6610595e-06,3.1518284e-06,0.0017121732,0.031229557,0.020827005,-0.009041279,1.6257513,-0.0011434555,488.0535,0.1,0.035455324,1.4938072,0.1960077,0.06594934,inf,inf,inf,inf,0,1,0,1,1,1,1,1,1,0,1,1,0,0,1
4340000,4340000,4296000,47.3977508,8.5456073,0.0003005101,0.0025477242,-0.043098893,-4.5966356e-08,1.891097e-08,0.0,9.990095e-05,0.009629177,-0.017178558,-0.040790703,-7.6610595e-06,3.1518284e-06,0.0017121732,0.015990168,0.01660938,-0.020127742,1.6257777,-0.0011434555,488.0535,0.1,0.037007425,1.4938116,0.20175482,0.06656243,inf,inf,inf,inf,0,1,0,1,1,1,1,1,1,0,1,1,0,0,1
4348000,4348000,4296000,47.3977508,8.5456073,0.000285345,0.0025821382,-0.042824287,-4.5966356e-08,1.891097e-08,0.0,9.201109e-05,0.009737975,-0.017265199,-0.04033326,-7.6610595e-06,3.1518284e-06,0.0017121732,0.0020408623,0.03139251,-0.021139158,1.6258153,-0.0011434555,488.0535,0.11600177,0.038611576,1.373911,0.2075626,0.06717511,inf,inf,inf,inf,0,1,0,1,1,1,1,1,1,0,1,1,0,0,1
4356000,4356000,4296000,47.3977508,8.5456073,0.00027022423,0.0025980163,-0.042561755,-4.5966356e-08,1.891097e-08,0.0,-8.0256104e-05,0.009798675,-0.01730788,-0.03984539,-7.6610595e-06,3.1518284e-06,0.0017121732,-0.030898575,0.03761565,-0.009533948,1.6258546,-0.0011434555,488.0535,0.115609765,0.013343174,1.3739157,0.10299286,0.06778796,inf,inf,inf,inf,0,1,0,1,1,1,1,1,1,0,1,1,0,0,1
4364000,4364000,4296000,47.3977508,8.5456073,0.00025348604,0.002613705,-0.04231009,-4.5966356e-08,1.891097e-08,0.0,-0.00030679785,0.00962526,-0.01725886,-0.039278995,-7.6610595e-06,3.1518284e-06,0.0017121732,-0.014689052,-0.012632241,-0.014002434,1.6259047,-0.0011434555,488.0535,0.11522816,0.013924475,1.3739204,0.106736496,0.068400905,inf,inf,inf,inf,0,1,0,1,1,1,1,1,1,0,1,1,0,0,1
4372000,4372000,4296000,47.3977508,8.5456073,0.00023623185,0.0026278954,-0.042069856,-4.5966356e-08,1.891097e-08,0.0,-0.0003530861,0.009570923,-0.017397027,-0.038912635,-7.6610595e-06,3.1518284e-06,0.0017121732,-0.006358255,0.03433284,-0.023378057,1.6259507,-0.0011434555,488.0535,0.11485714,0.014553231,1.3739256,0.11053065,0.069013804,inf,inf,inf,inf,0,1,0,1,1,1,1,1,1,0,1,1,0,0,1
4380000,4380000,4296000,47.3977508,8.5456073,0.00021882274,0.0026420818,-0.04184121,-4.5966356e-08,1.891097e-08,0.0,-0.00038279963,0.009555017,-0.017535701,-0.038559314,-7.6610595e-06,3.1518284e-06,0.0017121732,0.007680471,0.01803589,-0.029416753,1.6259822,-0.0011434555,488.0535,0.11449778,0.0152293835,1.3739309,0.114390045,0.06962665,inf,inf,inf,inf,0,1,0,1,1,1,1,1,1,0,1,1,0,0,1
4388000,4388000,4296000,47.3977508,8.5456073,0.00020248066,0.0026551133,-0.04161252,-4.5966356e-08,1.891097e-08,0.0,-0.0002658241,0.009548621,-0.017509146,-0.03803628,-7.6610595e-06,3.1518284e-06,0.0017121732,0.014944496,0.02712589,-0.011001713,1.6260124,-0.0011434555,488.0535,0.11448327,0.015277305,1.3739295,0.10915881,0.06627133,inf,inf,inf,inf,0,1,0,1,1,1,1,1,1,0,1,1,0,0,1
4396000,4396000,4296000,47.3977508,8.5456073,0.00018716541,0.0026674774,-0.041507736,-4.5966356e-08,1.891097e-08,0.0,-0.00022727302,0.009404514,-0.017525043,-0.037681807,-7.6610595e-06,3.1518284e-06,0.0017121732,0.0016403791,0.008168121,-0.017159617,1.6260184,-0.0011434555,488.0535,0.11070666,0.015963234,1.2789243,0.11284871,0.06685654,inf,inf,inf,inf,0,1,0,1,1,1,1,1,1,0,1,1,0,0,1
4404000,4404000,4296000,47.3977508,8.5456073,0.00017197953,0.0026790216,-0.041409463,-4.5966356e-08,1.891097e-08,0.0,-0.00031107626,0.009339346,-0.017596811,-0.03739125,-7.6610595e-06,3.1518284e-06,0.0017121732,-0.011426527,0.012101517,-0.033989545,1.6260377,-0.0011434555,488.0535,0.11048941,0.016692473,1.2789296,0.116613165,0.06744211,inf,inf,inf,inf,0,1,0,1,1,1,1,1,1,0,1,1,0,0,1
4412000,4412000,4296000,47.3977508,8.5456073,0.00015628707,0.0026891455,-0.041318756,-4.5966356e-08,1.891097e-08,0.0,-0.00038978935,0.009071176,-0.017839042,-0.03727901,-7.6610595e-06,3.1518284e-06,0.0017121732,0.002037297,-0.012515839,-0.045033168,1.6260649,-0.0011434555,488.0535,0.11027831,0.017465025,1.2789351,0.120428264,0.06802763,inf,inf,inf,inf,0,1,0,1,1,1,1,1,1,0,1,1,0,0,1
4420000,4420000,4296000,47.3977508,8.5456073,0.00014148066,0.0026966557,-0.041235678,-4.5966356e-08,1.891097e-08,0.0,-0.00022162803,0.008725524,-0.017970974,-0.037064146,-7.6610595e-06,3.1518284e-06,0.0017121732,0.02094706,-0.016229605,-0.023124738,1.6260927,-0.0011434555,488.0535,0.11007402,0.018280746,1.2789409,0.12430329,0.068613105,inf,inf,inf,inf,0,1,0,1,1,1,1,1,1,0,1,1,0,0,1
4428000,4428000,4296000,47.3977508,8.5456073,0.00012744371,0.0027024657,-0.04115851,-4.5966356e-08,1.891097e-08,0.0,-0.00027217073,0.008690831,-0.01787194,-0.036625817,-7.6610595e-06,3.1518284e-06,0.0017121732,-0.0038806025,0.030388981,0.0015934928,1.6261109,-0.0011434555,488.0535,0.10987459,0.019139515,1.2789471,0.12824008,0.06919855,inf,inf,inf,inf,0,1,0,1,1,1,1,1,1,0,1,1,0,0,1
4436000,4436000,4296000,47.3977508,8.5456073,0.00011397847,0.002708083,-0.04108637,-4.5966356e-08,1.891097e-08,0.0,-0.00015747233,0.008626915,-0.017835269,-0.03625718,-7.6610595e-06,3.1518284e-06,0.0017121732,0.017733807,0.01112213,-0.013959593,1.6261251,-0.0011434555,488.0535,0.109679125,0.020041218,1.2789536,0.13223301,0.069783956,inf,inf,inf,inf,0,1,0,1,1,1,1,1,1,0,1,1,0,0,1
4444000,4444000,4296000,47.3977508,8.5456073,0.00010183506,0.0027129643,-0.041019656,-4.5966356e-08,1.891097e-08,0.0,-4.0797568e-05,0.008529153,-0.017825685,-0.035922788,-7.6610595e-06,3.1518284e-06,0.0017121732,0.0151121635,0.012873264,-0.013879499,1.6261463,-0.0011434555,488.0535,0.10948866,0.020985717,1.2789603,0.13627905,0.07036931,inf,inf,inf,inf,0,1,0,1,1,1,1,1,1,0,1,1,0,0,1
4452000,4452000,4296000,47.3977508,8.5456073,9.072405e-05,0.0027170007,-0.04095826,-4.5966356e-08,1.891097e-08,0.0,1.5671772e-05,0.008401929,-0.017781919,-0.035561208,-7.6610595e-06,3.1518284e-06,0.0017121732,0.0069284867,0.00692236,-0.0021215526,1.6259977,-0.0011434555,488.0535,0.109302595,0.021972872,1.2789674,0.14039467,0.070954636,inf,inf,inf,inf,0,1,0,1,1,1,1,1,1,0,1,1,0,0,1
4460000,4460000,4296000,47.3977508,8.5456073,8.01204e-05,0.0027209618,-0.04119868,-4.5966356e-08,1.891097e-08,0.0,-2.0410143e-05,0.008545813,-0.01788906,-0.035653,-7.6610595e-06,3.1518284e-06,0.0017121732,-0.010477073,0.051932946,-0.0372054,1.6258535,-0.0011434555,488.0535,0.10017905,0.023002658,1.201282,0.14456865,0.07153927,inf,inf,inf,inf,0,1,0,1,1,1,1,1,1,0,1,1,0,0,1
4468000,4468000,4296000,47.3977508,8.5456073,6.923933e-05,0.0027258843,-0.041436594,-4.5966356e-08,1.891097e-08,0.0,-4.9587223e-05,0.008538668,-0.017958757,-0.035703544,-7.6610595e-06,3.1518284e-06,0.0017121732,0.011639334,0.01137465,-0.018530523,1.6257159,-0.0011434555,488.0535,0.10028951,0.024075016,1.2012893,0.14879428,0.072124526,inf,inf,inf,inf,0,1,0,1,1,1,1,1,1,0,1,1,0,0,1
4476000,4476000,4296000,47.3977508,8.5456073,5.960153e-05,0.0027303665,-0.041671585,-4.5966356e-08,1.891097e-08,0.0,0.00013569865,0.008463312,-0.01797589,-0.035697907,-7.6610595e-06,3.1518284e-06,0.0017121732,0.019662924,0.015798606,-0.00980962,1.6255687,-0.0011434555,488.0535,0.10039614,0.025189864,1.2012969,0.15308118,0.07270975,inf,inf,inf,inf,0,1,0,1,1,1,1,1,1,0,1,1,0,0,1
4484000,4484000,4296000,47.3977508,8.5456073,5.0495153e-05,0.002735368,-0.041903306,-4.5966356e-08,1.891097e-08,0.0,-4.3161826e-06,0.00867507,-0.017965911,-0.035661682,-7.6610595e-06,3.1518284e-06,0.0017121732,-0.023165789,0.061074123,-0.014241784,1.6254201,-0.0011434555,488.0535,0.100498155,0.026347205,1.201305,0.15742928,0.073294945,inf,inf,inf,inf,0,1,0,1,1,1,1,1,1,0,1,1,0,0,1
4492000,4492000,4296000,47.3977508,8.5456073,4.0966675e-05,0.0027423615,-0.04213249,-4.5966356e-08,1.891097e-08,0.0,1.8111848e-05,0.008817046,-0.01810069,-0.03576687,-7.6610595e-06,3.1518284e-06,0.0017121732,0.014024771,0.025870321,-0.031086614,1.6252624,-0.0011434555,488.0535,0.10059543,0.027547078,1.2013135,0.16184592,0.073880106,inf,inf,inf,inf,0,1,0,1,1,1,1,1,1,0,1,1,0,0,1
4500000,4500000,4296000,47.3977508,8.5456073,3.247235e-05,0.0027494926,-0.042359512,-4.5966356e-08,1.891097e-08,0.0,0.000110323264,0.008729227,-0.01812696,-0.035760332,-7.6610595e-06,3.1518284e-06,0.0017121732,0.006026006,0.01369485,-0.008695758,1.6251094,-0.0011434555,488.0535,0.10068812,0.0287896,1.2013223,0.16631332,0.07446524,inf,inf,inf,inf,0,1,0,1,1,1,1,1,1,0,1,1,0,0,1
4508000,4508000,4296000,47.3977508,8.5456073,2.4108049e-05,0.0027566145,-0.042584296,-4.5966356e-08,1.891097e-08,0.0,1.0163863e-05,0.008725297,-0.018286392,-0.035883866,-7.6610595e-06,3.1518284e-06,0.0017121732,-0.009069961,0.015528551,-0.035208646,1.6249702,-0.0011434555,488.0535,0.10077754,0.030074796,1.2013315,0.17082304,0.075050354,inf,inf,inf,inf,0,1,0,1,1,1,1,1,1,0,1,1,0,0,1
4516000,4516000,4296000,47.3977508,8.5456073,1.6147042e-05,0.0027631966,-0.042846814,-4.5966356e-08,1.891097e-08,0.0,0.00014259206,0.008558998,-0.01807869,-0.03567751,-7.6610595e-06,3.1518284e-06,0.0017121732,0.0216342,0.0011472292,0.029763205,1.6248405,-0.0011434555,488.0535,0.1,0.031402647,1.13627,0.17539418,0.075634524,inf,inf,inf,inf,0,1,0,1,1,1,1,1,1,0,1,1,0,0,1
4524000,4524000,4296000,47.3977508,8.5456073,9.572478e-06,0.0027692437,-0.04310379,-4.5966356e-08,1.891097e-08,0.0,0.00026070024,0.0085357325,-0.017980168,-0.03557606,-7.6610595e-06,3.1518284e-06,0.0017121732,0.014314572,0.02210753,-0.017714685,1.624713,-0.0011434555,488.0535,0.1,0.0327733,1.1362795,0.18002433,0.07621959,inf,inf,inf,inf,0,1,0,1,1,1,1,1,1,0,1,1,0,0,1
4532000,4532000,4296000,47.3977508,8.5456073,3.9101196e-06,0.00277564,-0.04335788,-4.5966356e-08,1.891097e-08,0.0,0.00031584007,0.008541882,-0.018157234,-0.03574608,-7.6610595e-06,3.1518284e-06,0.0017121732,0.010946707,0.018399397,-0.024982726,1.6245788,-0.0011434555,488.0535,0.1,0.034186907,1.1362895,0.18470927,0.07680464,inf,inf,inf,inf,0,1,0,1,1,1,1,1,1,0,1,1,0,0,1
4540000,4540000,4296000,47.3977508,8.5456073,-8.583993e-08,0.0027821844,-0.043609813,-4.5966356e-08,1.891097e-08,0.0,0.00058004627,0.008508637,-0.018366825,-0.03594465,-7.6610595e-06,3.1518284e-06,0.0017121732,0.030496316,0.018336503,-0.041318122,1.6244621,-0.0011434555,488.0535,0.1,0.035643607,1.1362997,0.18946145,0.07738968,inf,inf,inf,inf,0,1,0,1,1,1,1,1,1,0,1,1,0,0,1
4548000,4548000,4296000,47.3977508,8.5456073,-3.1187105e-06,0.0027888864,-0.043859284,-4.5966356e-08,1.891097e-08,0.0,0.00048209808,0.00845197,-0.018312605,-0.035875592,-7.6610595e-06,3.1518284e-06,0.0017121732,-0.0152543355,0.005023146,0.010270624,1.6243256,-0.0011434555,488.0535,0.10010931,0.037143655,1.1363106,0.19426817,0.07797469,inf,inf,inf,inf,0,1,0,1,1,1,1,1,1,0,1,1,0,0,1
4556000,4556000,4296000,47.3977508,8.5456073,-6.6530415e-06,0.0027949512,-0.04410486,-4.5966356e-08,1.891097e-08,0.0,0.00041771078,0.008271703,-0.018310491,-0.035854958,-7.6610595e-06,3.1518284e-06,0.0017121732,-0.0030495282,-0.005687718,-0.022028571,1.6242105,-0.0011434555,488.0535,0.1002142,0.038687233,1.1363218,0.19912826,0.07855969,inf,inf,inf,inf,0,1,0,1,1,1,1,1,1,0,1,1,0,0,1
4564000,4564000,4296000,47.3977508,8.5456073,-8.321476e-06,0.0027843358,-0.044348557,-4.5966356e-08,1.891097e-08,0.0,0.0006135919,0.008009002,-0.01856909,-0.03609151,-7.6610595e-06,3.1518284e-06,0.0017121732,0.025974875,-0.0052163666,-0.04056282,1.6240852,-0.0011434555,488.0535,0.10031607,0.01334341,1.1363335,0.09328154,0.07914459,inf,inf,inf,inf,0,1,0,1,1,1,1,1,1,0,1,1,0,0,1
4572000,4572000,4296000,47.3977508,8.5456073,-8.818952e-06,0.002771759,-0.044590462,-4.5966356e-08,1.891097e-08,0.0,0.0006146013,0.00770737,-0.018575376,-0.03607234,-7.6610595e-06,3.1518284e-06,0.0017121732,-0.0045755873,-0.011202428,0.001897104,1.6239672,-0.0011434555,488.0535,0.100415275,0.013894503,1.1363456,0.096082084,0.07972955,inf,inf,inf,inf,0,1,0,1,1,1,1,1,1,0,1,1,0,0,1
4580000,4580000,4296000,47.3977508,8.5456073,-9.056435e-06,0.0027570245,-0.04475784,-4.5966356e-08,1.891097e-08,0.0,0.0006446449,0.007411762,-0.018582495,-0.03597954,-7.6610595e-06,3.1518284e-06,0.0017121732,0.0075388523,-0.0059195003,-0.014446675,1.6238636,-0.0011434555,488.0535,0.10266273,0.014481301,1.080819,0.09891488,0.08031311,inf,inf,inf,inf,0,1,0,1,1,1,1,1,1,0,1,1,0,0,1
4588000,4588000,4296000,47.3977508,8.5456073,-9.327394e-06,0.0027408926,-0.044925008,-4.5966356e-08,1.891097e-08,0.0,0.0005042281,0.007239263,-0.018720804,-0.0360173,-7.6610595e-06,3.1518284e-06,0.0017121732,-0.022267355,-0.00036864364,-0.033962537,1.6237825,-0.0011434555,488.0535,0.102684475,0.015103481,1.0808315,0.10178969,0.08089804,inf,inf,inf,inf,0,1,0,1,1,1,1,1,1,0,1,1,0,0,1
4596000,4596000,4296000,47.3977508,8.5456073,-9.997843e-06,0.0027227446,-0.04507106,-4.5966356e-08,1.891097e-08,0.0,0.0005906991,0.007031195,-0.01862547,-0.035791617,-7.6610595e-06,3.1518284e-06,0.0017121732,0.019540194,0.008725881,0.007829628,1.6236885,-0.0011434555,488.0535,0.103347264,0.0151843205,1.0808158,0.09817679,0.07546054,inf,inf,inf,inf,0,1,0,1,1,1,1,1,1,0,1,1,0,0,1
4604000,4604000,4296000,47.3977508,8.5456073,-9.129391e-06,0.0027038353,-0.04521518,-4.5966356e-08,1.891097e-08,0.0,0.0008152512,0.00693072,-0.01849801,-0.035534143,-7.6610595e-06,3.1518284e-06,0.0017121732,0.034078576,0.013070588,-0.008890404,1.6236002,-0.0011434555,488.0535,0.10336684,0.015816653,1.0808274,0.1009413,0.07601044,inf,inf,inf,inf,0,1,0,1,1,1,1,1,1,0,1,1,0,0,1
4612000,4612000,4296000,47.3977508,8.5456073,-5.8260644e-06,0.0026844596,-0.045358226,-4.5966356e-08,1.891097e-08,0.0,0.001115239,0.006816566,-0.018497208,-0.03540369,-7.6610595e-06,3.1518284e-06,0.0017121732,0.038039796,0.007978422,-0.016043892,1.6235063,-0.0011434555,488.0535,0.10338455,0.01648142,1.0808394,0.103751525,0.076560326,inf,inf,inf,inf,0,1,0,1,1,1,1,1,1,0,1,1,0,0,1
4620000,4620000,4296000,47.3977508,8.5456073,-1.8046057e-07,0.0026641686,-0.045500625,-4.5966356e-08,1.891097e-08,0.0,0.0012994709,0.0066195573,-0.018508427,-0.035285644,-7.6610595e-06,3.1518284e-06,0.0017121732,0.013331882,-0.00083952904,-0.020238569,1.6234334,-0.0011434555,488.0535,0.10339959,0.017178442,1.0808519,0.10659779,0.0771102,inf,inf,inf,inf,0,1,0,1,1,1,1,1,1,0,1,1,0,0,1
4628000,4628000,4296000,47.3977508,8.5456073,5.979709e-06,0.0026428392,-0.045642864,-4.5966356e-08,1.891097e-08,0.0,0.0012015211,0.0064631384,-0.018608507,-0.035256874,-7.6610595e-06,3.1518284e-06,0.0017121732,-0.017714366,0.00339096,-0.03023911,1.6233761,-0.0011434555,488.0535,0.10341342,0.017907497,1.0808648,0.10946745,0.07766006,inf,inf,inf,inf,0,1,0,1,1,1,1,1,1,0,1,1,0,0,1
4636000,4636000,4296000,47.3977508,8.5456073,1.1919515e-05,0.0026203967,-0.045606744,-4.5966356e-08,1.891097e-08,0.0,0.0012557078,0.00626329,-0.018493867,-0.034836598,-7.6610595e-06,3.1518284e-06,0.0017121732,0.018938823,0.0019938159,-0.0007748603,1.623325,-0.0011434555,488.0535,0.10878602,0.018668296,1.0327522,0.112373665,0.078208424,inf,inf,inf,inf,0,1,0,1,1,1,1,1,1,0,1,1,0,0,1
4644000,4644000,4296000,47.3977508,8.5456073,1.9894547e-05,0.0025971914,-0.045574818,-4.5966356e-08,1.891097e-08,0.0,0.0016243779,0.0061546834,-0.018493773,-0.034537613,-7.6610595e-06,3.1518284e-06,0.0017121732,0.051189195,0.00823893,-0.010728835,1.6232947,-0.0011434555,488.0535,0.1086241,0.019460637,1.0327654,0.11532543,0.07875824,inf,inf,inf,inf,0,1,0,1,1,1,1,1,1,0,1,1,0,0,1
4652000,4652000,4296000,47.3977508,8.5456073,3.041002e-05,0.0025733705,-0.04554655,-4.5966356e-08,1.891097e-08,0.0,0.0017833672,0.006039321,-0.018304085,-0.034055624,-7.6610595e-06,3.1518284e-06,0.0017121732,0.011999421,0.015982863,0.010342336,1.6232535,-0.0011434555,488.0535,0.10846439,0.020284403,1.0327792,0.11830061,0.07930805,inf,inf,inf,inf,0,1,0,1,1,1,1,1,1,0,1,1,0,0,1
