timestamp,timestamp_sample,gps_hvel[0],gps_hvel[1],gps_vvel,gps_hpos[0],gps_hpos[1],gps_vpos,ev_hvel[0],ev_hvel[1],ev_vvel,ev_hpos[0],ev_hpos[1],ev_vpos,rng_vpos,baro_vpos,aux_hvel[0],aux_hvel[1],aux_vvel,flow[0],flow[1],terr_flow[0],terr_flow[1],heading,mag_field[0],mag_field[1],mag_field[2],gravity[0],gravity[1],gravity[2],drag[0],drag[1],airspeed,beta,hagl,hagl_rate
3340000,3260000,0.0,0.0,0.0,0.0,0.0,0.0,0.0,0.0,0.0,0.0,0.0,0.0,0.0,3.0745286e-06,0.0,0.0,nan,0.0,0.0,0.0,0.0,0.0,-0.008824453,0.2176095,-0.42623472,-0.010550515,0.03391097,0.0008780988,0.0,0.0,0.0,0.0,0.0,0.0
3348000,3268000,0.0,0.0,0.0,0.0,0.0,0.0,0.0,0.0,0.0,0.0,0.0,0.0,0.0,3.0745286e-06,0.0,0.0,nan,0.0,0.0,0.0,0.0,0.0,-0.008824453,0.2176095,-0.42623472,0.022179002,0.014321583,-0.00019681152,0.0,0.0,0.0,0.0,0.0,0.0
3356000,3276000,0.0,0.0,0.0,0.0,0.0,0.0,0.0,0.0,0.0,0.0,0.0,0.0,0.0,3.0745286e-06,0.0,0.0,nan,0.0,0.0,0.0,0.0,0.0,-0.008824453,0.2176095,-0.42623472,0.025688432,0.025269317,-6.8751346e-05,0.0,0.0,0.0,0.0,0.0,0.0
3364000,3284000,0.0,0.0,0.0,0.0,0.0,0.0,0.0,0.0,0.0,0.0,0.0,0.0,0.0,3.0745286e-06,0.0,0.0,nan,0.0,0.0,0.0,0.0,0.0,-0.008019219,0.21460307,-0.4276759,-0.0042865,0.03146097,0.0007109642,0.0,0.0,0.0,0.0,0.0,0.0
3372000,3292000,0.0,0.0,0.0,0.0,0.0,0.0,0.0,0.0,0.0,0.0,0.0,0.0,0.0,3.0745286e-06,0.0,0.0,nan,0.0,0.0,0.0,0.0,0.0,-0.008019219,0.21460307,-0.4276759,0.008119294,0.022404924,0.00027942657,0.0,0.0,0.0,0.0,0.0,0.0
3380000,3300000,0.0,0.0,0.0,0.0,0.0,0.0,0.0,0.0,0.0,0.0,0.0,0.0,0.0,3.0745286e-06,0.0,0.0,nan,0.0,0.0,0.0,0.0,0.0,-0.008019219,0.21460307,-0.4276759,-0.005612593,0.026941225,0.00065612793,0.0,0.0,0.0,0.0,0.0,0.0
3388000,3308000,0.0,0.0,0.0,0.0,0.0,0.0,0.0,0.0,0.0,0.0,0.0,0.0,0.0,3.0745286e-06,0.0,0.0,nan,0.0,0.0,0.0,0.0,0.0,-0.008019219,0.21460307,-0.4276759,-0.014655666,0.038057953,0.001039505,0.0,0.0,0.0,0.0,0.0,0.0
3396000,3316000,0.0,0.0,0.0,0.0,0.0,0.0,0.0,0.0,0.0,0.0,0.0,0.0,0.0,3.0745286e-06,0.0,0.0,nan,0.0,0.0,0.0,0.0,0.0,-0.008019219,0.21460307,-0.4276759,-0.026802419,0.05347033,0.0015335083,0.0,0.0,0.0,0.0,0.0,0.0
3404000,3324000,0.0,0.0,0.0,0.0,0.0,0.0,0.0,0.0,0.0,0.0,0.0,0.0,0.0,0.038030624,0.0,0.0,nan,0.0,0.0,0.0,0.0,0.0,-0.008019219,0.21460307,-0.4276759,-0.018616943,0.029212445,0.0009636879,0.0,0.0,0.0,0.0,0.0,0.0
3412000,3332000,0.0,0.0,0.0,0.0,0.0,0.0,0.0,0.0,0.0,0.0,0.0,0.0,0.0,0.038030624,0.0,0.0,nan,0.0,0.0,0.0,0.0,0.0,-0.008019219,0.21460307,-0.4276759,-0.030380081,0.020788014,0.0010251999,0.0,0.0,0.0,0.0,0.0,0.0
3420000,3340000,0.0,0.0,0.0,0.0,0.0,0.0,0.0,0.0,0.0,0.0,0.0,0.0,0.0,0.038030624,0.0,0.0,nan,0.0,0.0,0.0,0.0,0.0,-0.008019219,0.21460307,-0.4276759,0.0038563898,0.017131746,0.00027132034,0.0,0.0,0.0,0.0,0.0,0.0
3428000,3348000,0.0,0.0,0.0,0.0,0.0,0.0,0.0,0.0,0.0,0.0,0.0,0.0,0.0,0.038030624,0.0,0.0,nan,0.0,0.0,0.0,0.0,0.0,-0.008019219,0.21460307,-0.4276759,0.009966265,0.010309488,-2.3841858e-06,0.0,0.0,0.0,0.0,0.0,0.0
3436000,3356000,0.0,0.0,0.0,0.0,0.0,0.0,0.0,0.0,0.0,0.0,0.0,0.0,0.0,0.038030624,0.0,0.0,nan,0.0,0.0,0.0,0.0,0.0,0.0014331252,8.709729e-05,-0.008453876,-0.0065788412,0.048140943,0.0010576248,0.0,0.0,0.0,0.0,0.0,0.0
3444000,3364000,0.0,0.0,0.0,0.0,0.0,0.0,0.0,0.0,0.0,0.0,0.0,0.0,0.0,0.038030624,0.0,0.0,nan,0.0,0.0,0.0,0.0,0.0,0.0014331252,8.709729e-05,-0.008453876,-0.014341608,0.008917227,0.00048398972,0.0,0.0,0.0,0.0,0.0,0.0
3452000,3372000,0.0,0.0,0.0,0.0,0.0,0.0,0.0,0.0,0.0,0.0,0.0,0.0,0.0,0.038030624,0.0,0.0,nan,0.0,0.0,0.0,0.0,0.0,0.0014331252,8.709729e-05,-0.008453876,-0.011245907,0.022692144,0.0006995201,0.0,0.0,0.0,0.0,0.0,0.0
3460000,3380000,0.0,0.0,0.0,0.0,0.0,0.0,0.0,0.0,0.0,0.0,0.0,0.0,0.0,-0.029129816,0.0,0.0,nan,0.0,0.0,0.0,0.0,0.0,0.0014331252,8.709729e-05,-0.008453876,0.0012021856,0.04295309,0.0008068085,0.0,0.0,0.0,0.0,0.0,0.0
3468000,3388000,0.0,0.0,0.0,0.0,0.0,0.0,0.0,0.0,0.0,0.0,0.0,0.0,0.0,-0.029129816,0.0,0.0,nan,0.0,0.0,0.0,0.0,0.0,0.0014331252,8.709729e-05,-0.008453876,0.0026093577,0.03966038,0.0007209778,0.0,0.0,0.0,0.0,0.0,0.0
3476000,3396000,0.0,0.0,0.0,0.0,0.0,0.0,0.0,0.0,0.0,0.0,0.0,0.0,0.0,-0.029129816,0.0,0.0,nan,0.0,0.0,0.0,0.0,0.0,0.0014331252,8.709729e-05,-0.008453876,0.0018499526,0.007437572,0.00011777878,0.0,0.0,0.0,0.0,0.0,0.0
3484000,3404000,0.0,0.0,0.0,0.0,0.0,0.0,0.0,0.0,0.0,0.0,0.0,0.0,0.0,-0.029129816,0.0,0.0,nan,0.0,0.0,0.0,0.0,0.0,0.0014331252,8.709729e-05,-0.008453876,0.0026436178,-0.0028416663,-0.000118255615,0.0,0.0,0.0,0.0,0.0,0.0
3492000,3412000,0.0,0.0,0.0,0.0,0.0,0.0,0.0,0.0,0.0,0.0,0.0,0.0,0.0,-0.029129816,0.0,0.0,nan,0.0,0.0,0.0,0.0,0.0,0.0014331252,8.709729e-05,-0.008453876,7.69617e-05,0.032781467,0.0006508827,0.0,0.0,0.0,0.0,0.0,0.0
3500000,3420000,0.003279728,0.0004847502,-0.040124524,0.0002446405,7.784176e-05,488.10394,0.0,0.0,0.0,0.0,0.0,0.0,0.0,-0.029129816,0.0,0.0,nan,0.0,0.0,0.0,0.0,0.0,0.0014331252,8.709729e-05,-0.008453876,0.0059052585,0.0137655735,0.00015592575,0.0,0.0,0.0,0.0,0.0,0.0
3508000,3428000,0.003279728,0.0004847502,-0.040124524,0.0002446405,7.784176e-05,488.10394,0.0,0.0,0.0,0.0,0.0,0.0,0.0,-0.029129816,0.0,0.0,nan,0.0,0.0,0.0,0.0,0.0,-0.0018521668,-0.00010621548,-0.0020499825,-0.010147366,0.019213036,0.00061273575,0.0,0.0,0.0,0.0,0.0,0.0
3516000,3436000,0.003279728,0.0004847502,-0.040124524,0.0002446405,7.784176e-05,488.10394,0.0,0.0,0.0,0.0,0.0,0.0,0.0,-0.029129816,0.0,0.0,nan,0.0,0.0,0.0,0.0,0.0,-0.0018521668,-0.00010621548,-0.0020499825,-0.023367736,-0.027406722,-0.00014829636,0.0,0.0,0.0,0.0,0.0,0.0
3524000,3444000,0.003279728,0.0004847502,-0.040124524,0.0002446405,7.784176e-05,488.10394,0.0,0.0,0.0,0.0,0.0,0.0,0.0,0.03715014,0.0,0.0,nan,0.0,0.0,0.0,0.0,0.0,-0.0018521668,-0.00010621548,-0.0020499825,-0.003696885,0.03185013,0.0007176399,0.0,0.0,0.0,0.0,0.0,0.0
3532000,3452000,0.003279728,0.0004847502,-0.040124524,0.0002446405,7.784176e-05,488.10394,0.0,0.0,0.0,0.0,0.0,0.0,0.0,0.03715014,0.0,0.0,nan,0.0,0.0,0.0,0.0,0.0,-0.0018521668,-0.00010621548,-0.0020499825,0.0018107155,0.018913835,0.000351429,0.0,0.0,0.0,0.0,0.0,0.0
3540000,3460000,0.003279728,0.0004847502,-0.040124524,0.0002446405,7.784176e-05,488.10394,0.0,0.0,0.0,0.0,0.0,0.0,0.0,0.03715014,0.0,0.0,nan,0.0,0.0,0.0,0.0,0.0,-0.0018521668,-0.00010621548,-0.0020499825,-0.023982905,-0.018370852,8.249283e-05,0.0,0.0,0.0,0.0,0.0,0.0
3548000,3468000,0.003279728,0.0004847502,-0.040124524,0.0002446405,7.784176e-05,488.10394,0.0,0.0,0.0,0.0,0.0,0.0,0.0,0.03715014,0.0,0.0,nan,0.0,0.0,0.0,0.0,0.0,-0.0018521668,-0.00010621548,-0.0020499825,-0.029887125,0.005556226,0.00073194504,0.0,0.0,0.0,0.0,0.0,0.0
3556000,3476000,0.003279728,0.0004847502,-0.040124524,0.0002446405,7.784176e-05,488.10394,0.0,0.0,0.0,0.0,0.0,0.0,0.0,0.03715014,0.0,0.0,nan,0.0,0.0,0.0,0.0,0.0,-0.0018521668,-0.00010621548,-0.0020499825,-0.01028428,0.04769583,0.0011386871,0.0,0.0,0.0,0.0,0.0,0.0
3564000,3484000,0.003279728,0.0004847502,-0.040124524,0.0002446405,7.784176e-05,488.10394,0.0,0.0,0.0,0.0,0.0,0.0,0.0,0.03715014,0.0,0.0,nan,0.0,0.0,0.0,0.0,0.0,-0.0018521668,-0.00010621548,-0.0020499825,0.010513618,0.012000933,-1.4305115e-06,0.0,0.0,0.0,0.0,0.0,0.0
3572000,3492000,0.003279728,0.0004847502,-0.040124524,0.0002446405,7.784176e-05,488.10394,0.0,0.0,0.0,0.0,0.0,0.0,0.0,0.03715014,0.0,0.0,nan,0.0,0.0,0.0,0.0,0.0,-0.0018521668,-0.00010621548,-0.0020499825,0.0076663634,0.0013178438,-0.00014400482,0.0,0.0,0.0,0.0,0.0,0.0
3580000,3500000,0.003279728,0.0004847502,-0.040124524,0.0002446405,7.784176e-05,488.10394,0.0,0.0,0.0,0.0,0.0,0.0,0.0,0.033453934,0.0,0.0,nan,0.0,0.0,0.0,0.0,0.016159534,-0.0036858255,0.0042012334,-0.00072425604,0.01801791,0.010833621,-0.00019788742,0.0,0.0,0.0,0.0,0.0,0.0
3588000,3508000,0.003279728,0.0004847502,-0.040124524,0.0002446405,7.784176e-05,488.10394,0.0,0.0,0.0,0.0,0.0,0.0,0.0,0.033453934,0.0,0.0,nan,0.0,0.0,0.0,0.0,0.016159534,-0.0036858255,0.0042012334,-0.00072425604,0.0072212936,0.025370002,0.0003118515,0.0,0.0,0.0,0.0,0.0,0.0
3596000,3516000,0.003279728,0.0004847502,-0.040124524,0.0002446405,7.784176e-05,488.10394,0.0,0.0,0.0,0.0,0.0,0.0,0.0,0.033453934,0.0,0.0,nan,0.0,0.0,0.0,0.0,0.016159534,-0.0036858255,0.0042012334,-0.00072425604,0.0101221,0.0038125217,-0.00015068054,0.0,0.0,0.0,0.0,0.0,0.0
3604000,3524000,0.003279728,0.0004847502,-0.040124524,0.0002446405,7.784176e-05,488.10394,0.0,0.0,0.0,0.0,0.0,0.0,0.0,0.033453934,0.0,0.0,nan,0.0,0.0,0.0,0.0,0.016159534,-0.0036858255,0.0042012334,-0.00072425604,0.0040016714,0.022643372,0.00033521652,0.0,0.0,0.0,0.0,0.0,0.0
3612000,3532000,0.003279728,0.0004847502,-0.040124524,0.0002446405,7.784176e-05,488.10394,0.0,0.0,0.0,0.0,0.0,0.0,0.0,0.033453934,0.0,0.0,nan,0.0,0.0,0.0,0.0,0.016159534,-0.0036858255,0.0042012334,-0.00072425604,-0.020258447,0.015589878,0.0007157326,0.0,0.0,0.0,0.0,0.0,0.0
3620000,3540000,0.003279728,0.0004847502,-0.040124524,0.0002446405,7.784176e-05,488.10394,0.0,0.0,0.0,0.0,0.0,0.0,0.0,0.033453934,0.0,0.0,nan,0.0,0.0,0.0,0.0,0.016159534,-0.0036858255,0.0042012334,-0.00072425604,-0.011126113,0.0051759034,0.00033569336,0.0,0.0,0.0,0.0,0.0,0.0
3628000,3548000,0.003279728,0.0004847502,-0.040124524,0.0002446405,7.784176e-05,488.10394,0.0,0.0,0.0,0.0,0.0,0.0,0.0,0.033453934,0.0,0.0,nan,0.0,0.0,0.0,0.0,0.016159534,-0.0036858255,0.0042012334,-0.00072425604,0.007801838,-0.0002875775,-0.0001783371,0.0,0.0,0.0,0.0,0.0,0.0
3636000,3556000,0.003279728,0.0004847502,-0.040124524,0.0002446405,7.784176e-05,488.10394,0.0,0.0,0.0,0.0,0.0,0.0,0.0,0.033453934,0.0,0.0,nan,0.0,0.0,0.0,0.0,0.016159534,-0.0036858255,0.0042012334,-0.00072425604,-0.012772746,-0.01694645,-8.1539154e-05,0.0,0.0,0.0,0.0,0.0,0.0
3644000,3564000,0.003279728,0.0004847502,-0.040124524,0.0002446405,7.784176e-05,488.10394,0.0,0.0,0.0,0.0,0.0,0.0,0.0,-0.13045645,0.0,0.0,nan,0.0,0.0,0.0,0.0,0.016159534,-0.0036858255,0.0042012334,-0.00072425604,-0.026014071,-0.014249891,0.00024032593,0.0,0.0,0.0,0.0,0.0,0.0
3652000,3572000,0.003279728,0.0004847502,-0.040124524,0.0002446405,7.784176e-05,488.10394,0.0,0.0,0.0,0.0,0.0,0.0,0.0,-0.13045645,0.0,0.0,nan,0.0,0.0,0.0,0.0,-0.0043011904,0.0008623721,-0.0038221478,-0.0012379885,-0.0151399765,-0.0070226192,0.00017929077,0.0,0.0,0.0,0.0,0.0,0.0
3660000,3580000,0.003279728,0.0004847502,-0.040124524,0.0002446405,7.784176e-05,488.10394,0.0,0.0,0.0,0.0,0.0,0.0,0.0,-0.13045645,0.0,0.0,nan,0.0,0.0,0.0,0.0,-0.0043011904,0.0008623721,-0.0038221478,-0.0012379885,0.00024046749,0.011892766,0.00022315979,0.0,0.0,0.0,0.0,0.0,0.0
3668000,3588000,0.003279728,0.0004847502,-0.040124524,0.0002446405,7.784176e-05,488.10394,0.0,0.0,0.0,0.0,0.0,0.0,0.0,-0.13045645,0.0,0.0,nan,0.0,0.0,0.0,0.0,-0.0043011904,0.0008623721,-0.0038221478,-0.0012379885,-0.0040910877,-0.012708247,-0.00017356873,0.0,0.0,0.0,0.0,0.0,0.0
3676000,3596000,0.003279728,0.0004847502,-0.040124524,0.0002446405,7.784176e-05,488.10394,0.0,0.0,0.0,0.0,0.0,0.0,0.0,-0.13045645,0.0,0.0,nan,0.0,0.0,0.0,0.0,-0.0043011904,0.0008623721,-0.0038221478,-0.0012379885,0.013329741,0.0053323954,-0.00019788742,0.0,0.0,0.0,0.0,0.0,0.0
3684000,3604000,0.003279728,0.0004847502,-0.040124524,0.0002446405,7.784176e-05,488.10394,0.0,0.0,0.0,0.0,0.0,0.0,0.0,-0.13045645,0.0,0.0,nan,0.0,0.0,0.0,0.0,-0.0043011904,0.0008623721,-0.0038221478,-0.0012379885,0.010954123,-0.0014486164,-0.0002770424,0.0,0.0,0.0,0.0,0.0,0.0
3692000,3612000,0.003279728,0.0004847502,-0.040124524,0.0002446405,7.784176e-05,488.10394,0.0,0.0,0.0,0.0,0.0,0.0,0.0,-0.13045645,0.0,0.0,nan,0.0,0.0,0.0,0.0,-0.0043011904,0.0008623721,-0.0038221478,-0.0012379885,0.00013110787,0.009858534,0.00018930435,0.0,0.0,0.0,0.0,0.0,0.0
3700000,3620000,0.003279728,0.0004847502,-0.040124524,0.0002446405,7.784176e-05,488.10394,0.0,0.0,0.0,0.0,0.0,0.0,0.0,0.013571668,0.0,0.0,nan,0.0,0.0,0.0,0.0,-0.0043011904,0.0008623721,-0.0038221478,-0.0012379885,-0.022811694,-0.0050904155,0.00037622452,0.0,0.0,0.0,0.0,0.0,0.0
3708000,3628000,0.003279728,0.0004847502,-0.040124524,0.0002446405,7.784176e-05,488.10394,0.0,0.0,0.0,0.0,0.0,0.0,0.0,0.013571668,0.0,0.0,nan,0.0,0.0,0.0,0.0,-0.0043011904,0.0008623721,-0.0038221478,-0.0012379885,-0.015163014,0.023928419,0.0007739067,0.0,0.0,0.0,0.0,0.0,0.0
3716000,3636000,0.003279728,0.0004847502,-0.040124524,0.0002446405,7.784176e-05,488.10394,0.0,0.0,0.0,0.0,0.0,0.0,0.0,0.013571668,0.0,0.0,nan,0.0,0.0,0.0,0.0,-0.0043011904,0.0008623721,-0.0038221478,-0.0012379885,-0.011864373,-0.010138497,4.863739e-05,0.0,0.0,0.0,0.0,0.0,0.0
3724000,3644000,0.003279728,0.0004847502,-0.040124524,0.0002446405,7.784176e-05,488.10394,0.0,0.0,0.0,0.0,0.0,0.0,0.0,0.013571668,0.0,0.0,nan,0.0,0.0,0.0,0.0,0.0018650293,-0.00039267074,-0.0012134314,-0.0002785921,-0.014536606,-0.006466359,0.00018405914,0.0,0.0,0.0,0.0,0.0,0.0
3732000,3652000,0.003279728,0.0004847502,-0.040124524,0.0002446405,7.784176e-05,488.10394,0.0,0.0,0.0,0.0,0.0,0.0,0.0,0.013571668,0.0,0.0,nan,0.0,0.0,0.0,0.0,0.0018650293,-0.00039267074,-0.0012134314,-0.0002785921,-0.01367439,0.025430262,0.0007715225,0.0,0.0,0.0,0.0,0.0,0.0
3740000,3660000,0.003279728,0.0004847502,-0.040124524,0.0002446405,7.784176e-05,488.10394,0.0,0.0,0.0,0.0,0.0,0.0,0.0,0.013571668,0.0,0.0,nan,0.0,0.0,0.0,0.0,0.0018650293,-0.00039267074,-0.0012134314,-0.0002785921,-0.027461972,0.016954795,0.00089788437,0.0,0.0,0.0,0.0,0.0,0.0
3748000,3668000,0.003279728,0.0004847502,-0.040124524,0.0002446405,7.784176e-05,488.10394,0.0,0.0,0.0,0.0,0.0,0.0,0.0,0.013571668,0.0,0.0,nan,0.0,0.0,0.0,0.0,0.0018650293,-0.00039267074,-0.0012134314,-0.0002785921,-0.0046090707,0.0081231,0.00025987625,0.0,0.0,0.0,0.0,0.0,0.0
3756000,3676000,0.003279728,0.0004847502,-0.040124524,0.0002446405,7.784176e-05,488.10394,0.0,0.0,0.0,0.0,0.0,0.0,0.0,0.013571668,0.0,0.0,nan,0.0,0.0,0.0,0.0,0.0018650293,-0.00039267074,-0.0012134314,-0.0002785921,0.030041132,0.025086164,-0.0002503395,0.0,0.0,0.0,0.0,0.0,0.0
3764000,3684000,0.003279728,0.0004847502,-0.040124524,0.0002446405,7.784176e-05,488.10394,0.0,0.0,0.0,0.0,0.0,0.0,0.0,0.007980382,0.0,0.0,nan,0.0,0.0,0.0,0.0,0.0018650293,-0.00039267074,-0.0012134314,-0.0002785921,0.0077185333,-0.0117625445,-0.00042009354,0.0,0.0,0.0,0.0,0.0,0.0
3772000,3692000,0.003279728,0.0004847502,-0.040124524,0.0002446405,7.784176e-05,488.10394,0.0,0.0,0.0,0.0,0.0,0.0,0.0,0.007980382,0.0,0.0,nan,0.0,0.0,0.0,0.0,0.0018650293,-0.00039267074,-0.0012134314,-0.0002785921,-0.0036103856,-0.02266246,-0.00039863586,0.0,0.0,0.0,0.0,0.0,0.0
3780000,3700000,0.003279728,0.0004847502,-0.040124524,0.0002446405,7.784176e-05,488.10394,0.0,0.0,0.0,0.0,0.0,0.0,0.0,0.007980382,0.0,0.0,nan,0.0,0.0,0.0,0.0,0.0018650293,-0.00039267074,-0.0012134314,-0.0002785921,-0.0031104367,-0.009598598,-0.00012779236,0.0,0.0,0.0,0.0,0.0,0.0
3788000,3708000,0.003279728,0.0004847502,-0.040124524,0.0002446405,7.784176e-05,488.10394,0.0,0.0,0.0,0.0,0.0,0.0,0.0,0.007980382,0.0,0.0,nan,0.0,0.0,0.0,0.0,0.0018650293,-0.00039267074,-0.0012134314,-0.0002785921,-0.0056463312,-0.009042859,-5.8174133e-05,0.0,0.0,0.0,0.0,0.0,0.0
3796000,3716000,0.003279728,0.0004847502,-0.040124524,0.0002446405,7.784176e-05,488.10394,0.0,0.0,0.0,0.0,0.0,0.0,0.0,0.007980382,0.0,0.0,nan,0.0,0.0,0.0,0.0,0.00043284893,-0.00013893936,-0.0009936243,-0.0022193193,-0.000552861,-0.022173226,-0.00045633316,0.0,0.0,0.0,0.0,0.0,0.0
3804000,3724000,0.003279728,0.0004847502,-0.040124524,0.0002446405,7.784176e-05,488.10394,0.0,0.0,0.0,0.0,0.0,0.0,0.0,0.007980382,0.0,0.0,nan,0.0,0.0,0.0,0.0,0.00043284893,-0.00013893936,-0.0009936243,-0.0022193193,-0.020561108,-0.017060429,8.916855e-05,0.0,0.0,0.0,0.0,0.0,0.0
3812000,3732000,0.003279728,0.0004847502,-0.040124524,0.0002446405,7.784176e-05,488.10394,0.0,0.0,0.0,0.0,0.0,0.0,0.0,0.007980382,0.0,0.0,nan,0.0,0.0,0.0,0.0,0.00043284893,-0.00013893936,-0.0009936243,-0.0022193193,-0.0085507855,0.009926826,0.00038290024,0.0,0.0,0.0,0.0,0.0,0.0
3820000,3740000,0.003279728,0.0004847502,-0.040124524,0.0002446405,7.784176e-05,488.10394,0.0,0.0,0.0,0.0,0.0,0.0,0.0,0.024101624,0.0,0.0,nan,0.0,0.0,0.0,0.0,0.00043284893,-0.00013893936,-0.0009936243,-0.0022193193,-0.03333579,-0.0101391375,0.00049448013,0.0,0.0,0.0,0.0,0.0,0.0
3828000,3748000,0.003279728,0.0004847502,-0.040124524,0.0002446405,7.784176e-05,488.10394,0.0,0.0,0.0,0.0,0.0,0.0,0.0,0.024101624,0.0,0.0,nan,0.0,0.0,0.0,0.0,0.00043284893,-0.00013893936,-0.0009936243,-0.0022193193,-0.019610407,0.009682238,0.00061798096,0.0,0.0,0.0,0.0,0.0,0.0
3836000,3756000,0.003279728,0.0004847502,-0.040124524,0.0002446405,7.784176e-05,488.10394,0.0,0.0,0.0,0.0,0.0,0.0,0.0,0.024101624,0.0,0.0,nan,0.0,0.0,0.0,0.0,0.00043284893,-0.00013893936,-0.0009936243,-0.0022193193,-0.013447031,0.02027513,0.00068187714,0.0,0.0,0.0,0.0,0.0,0.0
3844000,3764000,0.003279728,0.0004847502,-0.040124524,0.0002446405,7.784176e-05,488.10394,0.0,0.0,0.0,0.0,0.0,0.0,0.0,0.024101624,0.0,0.0,nan,0.0,0.0,0.0,0.0,0.00043284893,-0.00013893936,-0.0009936243,-0.0022193193,-0.021644136,0.021191776,0.000872612,0.0,0.0,0.0,0.0,0.0,0.0
3852000,3772000,0.003279728,0.0004847502,-0.040124524,0.0002446405,7.784176e-05,488.10394,0.0,0.0,0.0,0.0,0.0,0.0,0.0,0.024101624,0.0,0.0,nan,0.0,0.0,0.0,0.0,0.00043284893,-0.00013893936,-0.0009936243,-0.0022193193,0.0034762453,0.015732318,0.00022172928,0.0,0.0,0.0,0.0,0.0,0.0
3860000,3780000,0.003279728,0.0004847502,-0.040124524,0.0002446405,7.784176e-05,488.10394,0.0,0.0,0.0,0.0,0.0,0.0,0.0,0.024101624,0.0,0.0,nan,0.0,0.0,0.0,0.0,0.00043284893,-0.00013893936,-0.0009936243,-0.0022193193,-0.0057810917,0.0077791363,0.00028276443,0.0,0.0,0.0,0.0,0.0,0.0
3868000,3788000,0.003279728,0.0004847502,-0.040124524,0.0002446405,7.784176e-05,488.10394,0.0,0.0,0.0,0.0,0.0,0.0,0.0,0.024101624,0.0,0.0,nan,0.0,0.0,0.0,0.0,-0.033013582,0.0067154006,-0.00590533,-0.000310719,-0.035965927,0.0052057654,0.0008673668,0.0,0.0,0.0,0.0,0.0,0.0
3876000,3796000,0.003279728,0.0004847502,-0.040124524,0.0002446405,7.784176e-05,488.10394,0.0,0.0,0.0,0.0,0.0,0.0,0.0,0.024101624,0.0,0.0,nan,0.0,0.0,0.0,0.0,-0.033013582,0.0067154006,-0.00590533,-0.000310719,-0.0051187705,0.009753883,0.0003066063,0.0,0.0,0.0,0.0,0.0,0.0
3884000,3804000,0.003279728,0.0004847502,-0.040124524,0.0002446405,7.784176e-05,488.10394,0.0,0.0,0.0,0.0,0.0,0.0,0.0,-0.14310999,0.0,0.0,nan,0.0,0.0,0.0,0.0,-0.033013582,0.0067154006,-0.00590533,-0.000310719,0.006681675,-0.0072305202,-0.00030517578,0.0,0.0,0.0,0.0,0.0,0.0
3892000,3812000,0.003279728,0.0004847502,-0.040124524,0.0002446405,7.784176e-05,488.10394,0.0,0.0,0.0,0.0,0.0,0.0,0.0,-0.14310999,0.0,0.0,nan,0.0,0.0,0.0,0.0,-0.033013582,0.0067154006,-0.00590533,-0.000310719,-0.024690453,-0.0013929158,0.00051546097,0.0,0.0,0.0,0.0,0.0,0.0
3900000,3820000,0.0005267855,0.0023185823,0.010998886,0.00012438846,0.0002084218,488.11008,0.0,0.0,0.0,0.0,0.0,0.0,0.0,-0.14310999,0.0,0.0,nan,0.0,0.0,0.0,0.0,-0.033013582,0.0067154006,-0.00590533,-0.000310719,-0.02279088,-0.02893351,-0.00011777878,0.0,0.0,0.0,0.0,0.0,0.0
3908000,3828000,0.0005267855,0.0023185823,0.010998886,0.00012438846,0.0002084218,488.11008,0.0,0.0,0.0,0.0,0.0,0.0,0.0,-0.14310999,0.0,0.0,nan,0.0,0.0,0.0,0.0,-0.033013582,0.0067154006,-0.00590533,-0.000310719,-0.024703791,0.0015004724,0.0005750656,0.0,0.0,0.0,0.0,0.0,0.0
3916000,3836000,0.0005267855,0.0023185823,0.010998886,0.00012438846,0.0002084218,488.11008,0.0,0.0,0.0,0.0,0.0,0.0,0.0,-0.14310999,0.0,0.0,nan,0.0,0.0,0.0,0.0,-0.033013582,0.0067154006,-0.00590533,-0.000310719,-0.020577682,0.007359281,0.00060224533,0.0,0.0,0.0,0.0,0.0,0.0
3924000,3844000,0.0005267855,0.0023185823,0.010998886,0.00012438846,0.0002084218,488.11008,0.0,0.0,0.0,0.0,0.0,0.0,0.0,-0.14310999,0.0,0.0,nan,0.0,0.0,0.0,0.0,-0.033013582,0.0067154006,-0.00590533,-0.000310719,-0.006337397,-0.020389363,-0.00028324127,0.0,0.0,0.0,0.0,0.0,0.0
3932000,3852000,0.0005267855,0.0023185823,0.010998886,0.00012438846,0.0002084218,488.11008,0.0,0.0,0.0,0.0,0.0,0.0,0.0,-0.14310999,0.0,0.0,nan,0.0,0.0,0.0,0.0,-0.033013582,0.0067154006,-0.00590533,-0.000310719,-0.027868276,0.00093466043,0.0006303787,0.0,0.0,0.0,0.0,0.0,0.0
3940000,3860000,0.0005267855,0.0023185823,0.010998886,0.00012438846,0.0002084218,488.11008,0.0,0.0,0.0,0.0,0.0,0.0,0.0,-0.035837434,0.0,0.0,nan,0.0,0.0,0.0,0.0,0.004832506,-0.0010728212,-0.00026591122,-0.002684623,-0.011749286,-0.005961016,0.00014781952,0.0,0.0,0.0,0.0,0.0,0.0
3948000,3868000,0.0005267855,0.0023185823,0.010998886,0.00012438846,0.0002084218,488.11008,0.0,0.0,0.0,0.0,0.0,0.0,0.0,-0.035837434,0.0,0.0,nan,0.0,0.0,0.0,0.0,0.004832506,-0.0010728212,-0.00026591122,-0.002684623,-0.029289344,0.022358611,0.0010509491,0.0,0.0,0.0,0.0,0.0,0.0
3956000,3876000,0.0005267855,0.0023185823,0.010998886,0.00012438846,0.0002084218,488.11008,0.0,0.0,0.0,0.0,0.0,0.0,0.0,-0.035837434,0.0,0.0,nan,0.0,0.0,0.0,0.0,0.004832506,-0.0010728212,-0.00026591122,-0.002684623,-0.017446887,-0.006318271,0.00026082993,0.0,0.0,0.0,0.0,0.0,0.0
3964000,3884000,0.0005267855,0.0023185823,0.010998886,0.00012438846,0.0002084218,488.11008,0.0,0.0,0.0,0.0,0.0,0.0,0.0,-0.035837434,0.0,0.0,nan,0.0,0.0,0.0,0.0,0.004832506,-0.0010728212,-0.00026591122,-0.002684623,-0.027811257,-0.00938037,0.00041627884,0.0,0.0,0.0,0.0,0.0,0.0
3972000,3892000,0.0005267855,0.0023185823,0.010998886,0.00012438846,0.0002084218,488.11008,0.0,0.0,0.0,0.0,0.0,0.0,0.0,-0.035837434,0.0,0.0,nan,0.0,0.0,0.0,0.0,0.004832506,-0.0010728212,-0.00026591122,-0.002684623,-0.014788695,0.009487182,0.0005168915,0.0,0.0,0.0,0.0,0.0,0.0
3980000,3900000,0.0005267855,0.0023185823,0.010998886,0.00012438846,0.0002084218,488.11008,0.0,0.0,0.0,0.0,0.0,0.0,0.0,-0.035837434,0.0,0.0,nan,0.0,0.0,0.0,0.0,0.004832506,-0.0010728212,-0.00026591122,-0.002684623,0.0044433586,0.013265297,0.00015068054,0.0,0.0,0.0,0.0,0.0,0.0
3988000,3908000,0.0005267855,0.0023185823,0.010998886,0.00012438846,0.0002084218,488.11008,0.0,0.0,0.0,0.0,0.0,0.0,0.0,-0.035837434,0.0,0.0,nan,0.0,0.0,0.0,0.0,0.004832506,-0.0010728212,-0.00026591122,-0.002684623,-0.026675912,0.018228859,0.00092983246,0.0,0.0,0.0,0.0,0.0,0.0
3996000,3916000,0.0005267855,0.0023185823,0.010998886,0.00012438846,0.0002084218,488.11008,0.0,0.0,0.0,0.0,0.0,0.0,0.0,-0.035837434,0.0,0.0,nan,0.0,0.0,0.0,0.0,0.004832506,-0.0010728212,-0.00026591122,-0.002684623,2.3445114e-05,0.020466775,0.00038576126,0.0,0.0,0.0,0.0,0.0,0.0
4004000,3924000,0.0005267855,0.0023185823,0.010998886,0.00012438846,0.0002084218,488.11008,0.0,0.0,0.0,0.0,0.0,0.0,0.0,0.15173084,0.0,0.0,nan,0.0,0.0,0.0,0.0,0.004832506,-0.0010728212,-0.00026591122,-0.002684623,0.0035903603,0.010325745,0.00011539459,0.0,0.0,0.0,0.0,0.0,0.0
4012000,3932000,0.0005267855,0.0023185823,0.010998886,0.00012438846,0.0002084218,488.11008,0.0,0.0,0.0,0.0,0.0,0.0,0.0,0.15173084,0.0,0.0,nan,0.0,0.0,0.0,0.0,0.013441801,-0.0029180115,0.0035663396,-0.002593875,-0.044271916,0.0110978335,0.001147747,0.0,0.0,0.0,0.0,0.0,0.0
4020000,3940000,0.0005267855,0.0023185823,0.010998886,0.00012438846,0.0002084218,488.11008,0.0,0.0,0.0,0.0,0.0,0.0,0.0,0.15173084,0.0,0.0,nan,0.0,0.0,0.0,0.0,0.013441801,-0.0029180115,0.0035663396,-0.002593875,-0.043961123,-0.0074227005,0.0007777214,0.0,0.0,0.0,0.0,0.0,0.0
4028000,3948000,0.0005267855,0.0023185823,0.010998886,0.00012438846,0.0002084218,488.11008,0.0,0.0,0.0,0.0,0.0,0.0,0.0,0.15173084,0.0,0.0,nan,0.0,0.0,0.0,0.0,0.013441801,-0.0029180115,0.0035663396,-0.002593875,-0.047269925,-0.012794912,0.0007286072,0.0,0.0,0.0,0.0,0.0,0.0
4036000,3956000,0.0005267855,0.0023185823,0.010998886,0.00012438846,0.0002084218,488.11008,0.0,0.0,0.0,0.0,0.0,0.0,0.0,0.15173084,0.0,0.0,nan,0.0,0.0,0.0,0.0,0.013441801,-0.0029180115,0.0035663396,-0.002593875,-0.012989342,0.0005607754,0.00030708313,0.0,0.0,0.0,0.0,0.0,0.0
4044000,3964000,0.0005267855,0.0023185823,0.010998886,0.00012438846,0.0002084218,488.11008,0.0,0.0,0.0,0.0,0.0,0.0,0.0,0.15173084,0.0,0.0,nan,0.0,0.0,0.0,0.0,0.013441801,-0.0029180115,0.0035663396,-0.002593875,0.0097836815,0.02030994,0.00014925003,0.0,0.0,0.0,0.0,0.0,0.0
4052000,3972000,0.0005267855,0.0023185823,0.010998886,0.00012438846,0.0002084218,488.11008,0.0,0.0,0.0,0.0,0.0,0.0,0.0,0.15173084,0.0,0.0,nan,0.0,0.0,0.0,0.0,0.013441801,-0.0029180115,0.0035663396,-0.002593875,-0.025034312,0.0045802146,0.00064849854,0.0,0.0,0.0,0.0,0.0,0.0
4060000,3980000,0.0005267855,0.0023185823,0.010998886,0.00012438846,0.0002084218,488.11008,0.0,0.0,0.0,0.0,0.0,0.0,0.0,0.07518103,0.0,0.0,nan,0.0,0.0,0.0,0.0,0.013441801,-0.0029180115,0.0035663396,-0.002593875,-0.055725604,-0.0064136833,0.0010251999,0.0,0.0,0.0,0.0,0.0,0.0
4068000,3988000,0.0005267855,0.0023185823,0.010998886,0.00012438846,0.0002084218,488.11008,0.0,0.0,0.0,0.0,0.0,0.0,0.0,0.07518103,0.0,0.0,nan,0.0,0.0,0.0,0.0,0.013441801,-0.0029180115,0.0035663396,-0.002593875,-0.01969571,0.016446948,0.0007596016,0.0,0.0,0.0,0.0,0.0,0.0
4076000,3996000,0.0005267855,0.0023185823,0.010998886,0.00012438846,0.0002084218,488.11008,0.0,0.0,0.0,0.0,0.0,0.0,0.0,0.07518103,0.0,0.0,nan,0.0,0.0,0.0,0.0,0.013441801,-0.0029180115,0.0035663396,-0.002593875,-0.033807553,0.020778432,0.0011339188,0.0,0.0,0.0,0.0,0.0,0.0
4084000,4004000,0.0005267855,0.0023185823,0.010998886,0.00012438846,0.0002084218,488.11008,0.0,0.0,0.0,0.0,0.0,0.0,0.0,0.07518103,0.0,0.0,nan,0.0,0.0,0.0,0.0,0.012370586,-0.002602431,-0.0026919693,-0.0020536184,-0.02485567,0.010377586,0.00076055527,0.0,0.0,0.0,0.0,0.0,0.0
4092000,4012000,0.0005267855,0.0023185823,0.010998886,0.00012438846,0.0002084218,488.11008,0.0,0.0,0.0,0.0,0.0,0.0,0.0,0.07518103,0.0,0.0,nan,0.0,0.0,0.0,0.0,0.012370586,-0.002602431,-0.0026919693,-0.0020536184,-0.018814735,-0.019412175,2.0980835e-05,0.0,0.0,0.0,0.0,0.0,0.0
4100000,4020000,0.0005267855,0.0023185823,0.010998886,0.00012438846,0.0002084218,488.11008,0.0,0.0,0.0,0.0,0.0,0.0,0.0,0.07518103,0.0,0.0,nan,0.0,0.0,0.0,0.0,0.012370586,-0.002602431,-0.0026919693,-0.0020536184,-0.009836908,-0.037856117,-0.00059843063,0.0,0.0,0.0,0.0,0.0,0.0
4108000,4028000,0.0005267855,0.0023185823,0.010998886,0.00012438846,0.0002084218,488.11008,0.0,0.0,0.0,0.0,0.0,0.0,0.0,0.07518103,0.0,0.0,nan,0.0,0.0,0.0,0.0,0.012370586,-0.002602431,-0.0026919693,-0.0020536184,-0.0013578646,0.0049559325,0.00013065338,0.0,0.0,0.0,0.0,0.0,0.0
4116000,4036000,0.0005267855,0.0023185823,0.010998886,0.00012438846,0.0002084218,488.11008,0.0,0.0,0.0,0.0,0.0,0.0,0.0,0.019332565,0.0,0.0,nan,0.0,0.0,0.0,0.0,0.012370586,-0.002602431,-0.0026919693,-0.0020536184,-0.025863336,0.022299409,0.0010023117,0.0,0.0,0.0,0.0,0.0,0.0
4124000,4044000,0.0005267855,0.0023185823,0.010998886,0.00012438846,0.0002084218,488.11008,0.0,0.0,0.0,0.0,0.0,0.0,0.0,0.019332565,0.0,0.0,nan,0.0,0.0,0.0,0.0,0.012370586,-0.002602431,-0.0026919693,-0.0020536184,-0.007331051,-0.0025173724,0.000121593475,0.0,0.0,0.0,0.0,0.0,0.0
4132000,4052000,0.0005267855,0.0023185823,0.010998886,0.00012438846,0.0002084218,488.11008,0.0,0.0,0.0,0.0,0.0,0.0,0.0,0.019332565,0.0,0.0,nan,0.0,0.0,0.0,0.0,0.012370586,-0.002602431,-0.0026919693,-0.0020536184,-0.010990258,-0.014578804,-4.5776367e-05,0.0,0.0,0.0,0.0,0.0,0.0
4140000,4060000,0.0005267855,0.0023185823,0.010998886,0.00012438846,0.0002084218,488.11008,0.0,0.0,0.0,0.0,0.0,0.0,0.0,0.019332565,0.0,0.0,nan,0.0,0.0,0.0,0.0,0.012370586,-0.002602431,-0.0026919693,-0.0020536184,-0.012559462,0.006415531,0.00041866302,0.0,0.0,0.0,0.0,0.0,0.0
4148000,4068000,0.0005267855,0.0023185823,0.010998886,0.00012438846,0.0002084218,488.11008,0.0,0.0,0.0,0.0,0.0,0.0,0.0,0.019332565,0.0,0.0,nan,0.0,0.0,0.0,0.0,0.012370586,-0.002602431,-0.0026919693,-0.0020536184,-0.022912094,-0.0023209304,0.00047779083,0.0,0.0,0.0,0.0,0.0,0.0
4156000,4076000,0.0005267855,0.0023185823,0.010998886,0.00012438846,0.0002084218,488.11008,0.0,0.0,0.0,0.0,0.0,0.0,0.0,0.019332565,0.0,0.0,nan,0.0,0.0,0.0,0.0,0.003095746,-0.00068053324,-0.001996234,-0.0017785728,-0.004615141,0.0017207712,0.00013875961,0.0,0.0,0.0,0.0,0.0,0.0
4164000,4084000,0.0005267855,0.0023185823,0.010998886,0.00012438846,0.0002084218,488.11008,0.0,0.0,0.0,0.0,0.0,0.0,0.0,0.019332565,0.0,0.0,nan,0.0,0.0,0.0,0.0,0.003095746,-0.00068053324,-0.001996234,-0.0017785728,-0.009293806,-0.0075954646,5.6743622e-05,0.0,0.0,0.0,0.0,0.0,0.0
4172000,4092000,0.0005267855,0.0023185823,0.010998886,0.00012438846,0.0002084218,488.11008,0.0,0.0,0.0,0.0,0.0,0.0,0.0,-0.022022087,0.0,0.0,nan,0.0,0.0,0.0,0.0,0.003095746,-0.00068053324,-0.001996234,-0.0017785728,-0.022249002,-0.01045841,0.00027799606,0.0,0.0,0.0,0.0,0.0,0.0
4180000,4100000,0.0005267855,0.0023185823,0.010998886,0.00012438846,0.0002084218,488.11008,0.0,0.0,0.0,0.0,0.0,0.0,0.0,-0.022022087,0.0,0.0,nan,0.0,0.0,0.0,0.0,0.003095746,-0.00068053324,-0.001996234,-0.0017785728,-0.0070606675,-0.020462692,-0.00026464462,0.0,0.0,0.0,0.0,0.0,0.0
4188000,4108000,0.0005267855,0.0023185823,0.010998886,0.00012438846,0.0002084218,488.11008,0.0,0.0,0.0,0.0,0.0,0.0,0.0,-0.022022087,0.0,0.0,nan,0.0,0.0,0.0,0.0,0.003095746,-0.00068053324,-0.001996234,-0.0017785728,-0.004271917,0.020923376,0.00048971176,0.0,0.0,0.0,0.0,0.0,0.0
4196000,4116000,0.0005267855,0.0023185823,0.010998886,0.00012438846,0.0002084218,488.11008,0.0,0.0,0.0,0.0,0.0,0.0,0.0,-0.022022087,0.0,0.0,nan,0.0,0.0,0.0,0.0,0.003095746,-0.00068053324,-0.001996234,-0.0017785728,0.0015782174,0.0059762597,7.867813e-05,0.0,0.0,0.0,0.0,0.0,0.0
4204000,4124000,0.0005267855,0.0023185823,0.010998886,0.00012438846,0.0002084218,488.11008,0.0,0.0,0.0,0.0,0.0,0.0,0.0,-0.022022087,0.0,0.0,nan,0.0,0.0,0.0,0.0,0.003095746,-0.00068053324,-0.001996234,-0.0017785728,0.0010333844,0.010679811,0.00018119812,0.0,0.0,0.0,0.0,0.0,0.0
4212000,4132000,0.0005267855,0.0023185823,0.010998886,0.00012438846,0.0002084218,488.11008,0.0,0.0,0.0,0.0,0.0,0.0,0.0,-0.022022087,0.0,0.0,nan,0.0,0.0,0.0,0.0,0.003095746,-0.00068053324,-0.001996234,-0.0017785728,-0.012523569,-0.0015716404,0.00024843216,0.0,0.0,0.0,0.0,0.0,0.0
4220000,4140000,0.0005267855,0.0023185823,0.010998886,0.00012438846,0.0002084218,488.11008,0.0,0.0,0.0,0.0,0.0,0.0,0.0,-0.022022087,0.0,0.0,nan,0.0,0.0,0.0,0.0,0.003095746,-0.00068053324,-0.001996234,-0.0017785728,-0.004881786,-0.018026829,-0.00026273727,0.0,0.0,0.0,0.0,0.0,0.0
4228000,4148000,0.0005267855,0.0023185823,0.010998886,0.00012438846,0.0002084218,488.11008,0.0,0.0,0.0,0.0,0.0,0.0,0.0,-0.025760692,0.0,0.0,nan,0.0,0.0,0.0,0.0,-0.0014424324,0.00025293324,-0.0016588271,-0.0020933747,-0.006429484,0.019185245,0.0005083084,0.0,0.0,0.0,0.0,0.0,0.0
4236000,4156000,0.0005267855,0.0023185823,0.010998886,0.00012438846,0.0002084218,488.11008,0.0,0.0,0.0,0.0,0.0,0.0,0.0,-0.025760692,0.0,0.0,nan,0.0,0.0,0.0,0.0,-0.0014424324,0.00025293324,-0.0016588271,-0.0020933747,-0.00038570166,0.009318054,0.00018978119,0.0,0.0,0.0,0.0,0.0,0.0
4244000,4164000,0.0005267855,0.0023185823,0.010998886,0.00012438846,0.0002084218,488.11008,0.0,0.0,0.0,0.0,0.0,0.0,0.0,-0.025760692,0.0,0.0,nan,0.0,0.0,0.0,0.0,-0.0014424324,0.00025293324,-0.0016588271,-0.0020933747,0.0036347955,0.0014688224,-5.6266785e-05,0.0,0.0,0.0,0.0,0.0,0.0
4252000,4172000,0.0005267855,0.0023185823,0.010998886,0.00012438846,0.0002084218,488.11008,0.0,0.0,0.0,0.0,0.0,0.0,0.0,-0.025760692,0.0,0.0,nan,0.0,0.0,0.0,0.0,-0.0014424324,0.00025293324,-0.0016588271,-0.0020933747,-0.0047424976,-0.016218022,-0.00022649765,0.0,0.0,0.0,0.0,0.0,0.0
4260000,4180000,0.0005267855,0.0023185823,0.010998886,0.00012438846,0.0002084218,488.11008,0.0,0.0,0.0,0.0,0.0,0.0,0.0,-0.025760692,0.0,0.0,nan,0.0,0.0,0.0,0.0,-0.0014424324,0.00025293324,-0.0016588271,-0.0020933747,-0.02676669,0.009519458,0.00077199936,0.0,0.0,0.0,0.0,0.0,0.0
4268000,4188000,0.0005267855,0.0023185823,0.010998886,0.00012438846,0.0002084218,488.11008,0.0,0.0,0.0,0.0,0.0,0.0,0.0,-0.025760692,0.0,0.0,nan,0.0,0.0,0.0,0.0,-0.0014424324,0.00025293324,-0.0016588271,-0.0020933747,-0.006536288,0.01943791,0.00051784515,0.0,0.0,0.0,0.0,0.0,0.0
4276000,4196000,0.0005267855,0.0023185823,0.010998886,0.00012438846,0.0002084218,488.11008,0.0,0.0,0.0,0.0,0.0,0.0,0.0,-0.025760692,0.0,0.0,nan,0.0,0.0,0.0,0.0,-0.0014424324,0.00025293324,-0.0016588271,-0.0020933747,-0.03061897,0.017268285,0.0009932518,0.0,0.0,0.0,0.0,0.0,0.0
4284000,4204000,0.0005267855,0.0023185823,0.010998886,0.00012438846,0.0002084218,488.11008,0.0,0.0,0.0,0.0,0.0,0.0,0.0,-0.025760692,0.0,0.0,nan,0.0,0.0,0.0,0.0,-0.0014424324,0.00025293324,-0.0016588271,-0.0020933747,-0.007196624,0.01284875,0.00041151047,0.0,0.0,0.0,0.0,0.0,0.0
4292000,4212000,0.0005267855,0.0023185823,0.010998886,0.00012438846,0.0002084218,488.11008,0.0,0.0,0.0,0.0,0.0,0.0,0.0,-0.020943455,0.0,0.0,nan,0.0,0.0,0.0,0.0,-0.0014424324,0.00025293324,-0.0016588271,-0.0020933747,-0.023456477,-0.03972338,-0.00035238266,0.0,0.0,0.0,0.0,0.0,0.0
4300000,4220000,-0.00018218547,0.0036181153,0.02444651,1.1366628e-05,0.00046010173,-0.00013160706,0.0,0.0,0.0,0.0,0.0,0.0,0.0,-0.020943455,0.0,0.0,nan,0.0,0.0,0.0,0.0,-0.014757514,0.0030198153,-0.00087594986,-0.0023720562,-0.027423875,-0.028533101,-1.1444092e-05,0.0,0.0,0.0,0.0,0.0,0.0
4308000,4228000,-0.00018218547,0.0036181153,0.02444651,1.1366628e-05,0.00046010173,-0.00013160706,0.0,0.0,0.0,0.0,0.0,0.0,0.0,-0.020943455,0.0,0.0,nan,0.0,0.0,0.0,0.0,-0.014757514,0.0030198153,-0.00087594986,-0.0023720562,-0.006935928,-0.016851261,-0.00019216537,0.0,0.0,0.0,0.0,0.0,0.0
4316000,4236000,-0.00018218547,0.0036181153,0.02444651,1.1366628e-05,0.00046010173,-0.00013160706,0.0,0.0,0.0,0.0,0.0,0.0,0.0,-0.020943455,0.0,0.0,nan,0.0,0.0,0.0,0.0,-0.014757514,0.0030198153,-0.00087594986,-0.0023720562,-0.027077643,-0.005308196,0.0004878044,0.0,0.0,0.0,0.0,0.0,0.0
4324000,4244000,-0.00018218547,0.0036181153,0.02444651,1.1366628e-05,0.00046010173,-0.00013160706,0.0,0.0,0.0,0.0,0.0,0.0,0.0,-0.020943455,0.0,0.0,nan,0.0,0.0,0.0,0.0,-0.014757514,0.0030198153,-0.00087594986,-0.0023720562,-0.032901675,0.010469824,0.0009188652,0.0,0.0,0.0,0.0,0.0,0.0
4332000,4252000,-0.00018218547,0.0036181153,0.02444651,1.1366628e-05,0.00046010173,-0.00013160706,0.0,0.0,0.0,0.0,0.0,0.0,0.0,-0.020943455,0.0,0.0,nan,0.0,0.0,0.0,0.0,-0.014757514,0.0030198153,-0.00087594986,-0.0023720562,-0.0322598,0.0057249367,0.00081682205,0.0,0.0,0.0,0.0,0.0,0.0
4340000,4260000,-0.00018218547,0.0036181153,0.02444651,1.1366628e-05,0.00046010173,-0.00013160706,0.0,0.0,0.0,0.0,0.0,0.0,0.0,-0.020943455,0.0,0.0,nan,0.0,0.0,0.0,0.0,-0.014757514,0.0030198153,-0.00087594986,-0.0023720562,0.010563161,-0.01458101,-0.0005555153,0.0,0.0,0.0,0.0,0.0,0.0
4348000,4268000,-0.00018218547,0.0036181153,0.02444651,1.1366628e-05,0.00046010173,-0.00013160706,0.0,0.0,0.0,0.0,0.0,0.0,0.0,-0.14008304,0.0,0.0,nan,0.0,0.0,0.0,0.0,-0.014757514,0.0030198153,-0.00087594986,-0.0023720562,-0.00048710406,-0.007036507,-0.00013256073,0.0,0.0,0.0,0.0,0.0,0.0
4356000,4276000,-0.00018218547,0.0036181153,0.02444651,1.1366628e-05,0.00046010173,-0.00013160706,0.0,0.0,0.0,0.0,0.0,0.0,0.0,-0.14008304,0.0,0.0,nan,0.0,0.0,0.0,0.0,-0.014757514,0.0030198153,-0.00087594986,-0.0023720562,0.004749419,-0.0053440183,-0.00022315979,0.0,0.0,0.0,0.0,0.0,0.0
4364000,4284000,-0.00018218547,0.0036181153,0.02444651,1.1366628e-05,0.00046010173,-0.00013160706,0.0,0.0,0.0,0.0,0.0,0.0,0.0,-0.14008304,0.0,0.0,nan,0.0,0.0,0.0,0.0,-0.014757514,0.0030198153,-0.00087594986,-0.0023720562,-0.025765201,-0.02297403,5.9127808e-05,0.0,0.0,0.0,0.0,0.0,0.0
4372000,4292000,-0.00018218547,0.0036181153,0.02444651,1.1366628e-05,0.00046010173,-0.00013160706,0.0,0.0,0.0,0.0,0.0,0.0,0.0,-0.14008304,0.0,0.0,nan,0.0,0.0,0.0,0.0,0.0072102547,-0.0015253508,-0.0002950281,-0.00085276365,-0.021202423,0.005276084,0.00055646896,0.0,0.0,0.0,0.0,0.0,0.0
4380000,4300000,-0.00018218547,0.0036181153,0.02444651,1.1366628e-05,0.00046010173,-0.00013160706,0.0,0.0,0.0,0.0,0.0,0.0,0.0,-0.14008304,0.0,0.0,nan,0.0,0.0,0.0,0.0,0.0072102547,-0.0015253508,-0.0002950281,-0.00085276365,-0.018883495,0.015577093,0.0007033348,0.0,0.0,0.0,0.0,0.0,0.0
4388000,4308000,-0.00018218547,0.0036181153,0.02444651,1.1366628e-05,0.00046010173,-0.00013160706,0.0,0.0,0.0,0.0,0.0,0.0,0.0,-0.14008304,0.0,0.0,nan,0.0,0.0,0.0,0.0,0.0072102547,-0.0015253508,-0.0002950281,-0.00085276365,-0.025477646,0.0070865303,0.0006766319,0.0,0.0,0.0,0.0,0.0,0.0
4396000,4316000,-0.00018218547,0.0036181153,0.02444651,1.1366628e-05,0.00046010173,-0.00013160706,0.0,0.0,0.0,0.0,0.0,0.0,0.0,0.026616318,0.0,0.0,nan,0.0,0.0,0.0,0.0,0.0072102547,-0.0015253508,-0.0002950281,-0.00085276365,-0.023747701,-0.008717656,0.0003232956,0.0,0.0,0.0,0.0,0.0,0.0
4404000,4324000,-0.00018218547,0.0036181153,0.02444651,1.1366628e-05,0.00046010173,-0.00013160706,0.0,0.0,0.0,0.0,0.0,0.0,0.0,0.026616318,0.0,0.0,nan,0.0,0.0,0.0,0.0,0.0072102547,-0.0015253508,-0.0002950281,-0.00085276365,-0.02329655,0.0068562627,0.000626564,0.0,0.0,0.0,0.0,0.0,0.0
4412000,4332000,-0.00018218547,0.0036181153,0.02444651,1.1366628e-05,0.00046010173,-0.00013160706,0.0,0.0,0.0,0.0,0.0,0.0,0.0,0.026616318,0.0,0.0,nan,0.0,0.0,0.0,0.0,0.0072102547,-0.0015253508,-0.0002950281,-0.00085276365,-0.012264108,0.022507638,0.00068855286,0.0,0.0,0.0,0.0,0.0,0.0
4420000,4340000,-0.00018218547,0.0036181153,0.02444651,1.1366628e-05,0.00046010173,-0.00013160706,0.0,0.0,0.0,0.0,0.0,0.0,0.0,0.026616318,0.0,0.0,nan,0.0,0.0,0.0,0.0,0.0072102547,-0.0015253508,-0.0002950281,-0.00085276365,-0.00042627007,0.024848893,0.0004720688,0.0,0.0,0.0,0.0,0.0,0.0
4428000,4348000,-0.00018218547,0.0036181153,0.02444651,1.1366628e-05,0.00046010173,-0.00013160706,0.0,0.0,0.0,0.0,0.0,0.0,0.0,0.026616318,0.0,0.0,nan,0.0,0.0,0.0,0.0,0.0072102547,-0.0015253508,-0.0002950281,-0.00085276365,-0.015559826,0.0034050643,0.0004014969,0.0,0.0,0.0,0.0,0.0,0.0
4436000,4356000,-0.00018218547,0.0036181153,0.02444651,1.1366628e-05,0.00046010173,-0.00013160706,0.0,0.0,0.0,0.0,0.0,0.0,0.0,0.026616318,0.0,0.0,nan,0.0,0.0,0.0,0.0,0.0072102547,-0.0015253508,-0.0002950281,-0.00085276365,-0.022571828,-0.016965285,0.00012493134,0.0,0.0,0.0,0.0,0.0,0.0
4444000,4364000,-0.00018218547,0.0036181153,0.02444651,1.1366628e-05,0.00046010173,-0.00013160706,0.0,0.0,0.0,0.0,0.0,0.0,0.0,0.026616318,0.0,0.0,nan,0.0,0.0,0.0,0.0,0.042500973,-0.00867651,-0.0063313544,-0.0024735928,0.006846193,-0.02557379,-0.0007009506,0.0,0.0,0.0,0.0,0.0,0.0
4452000,4372000,-0.00018218547,0.0036181153,0.02444651,1.1366628e-05,0.00046010173,-0.00013160706,0.0,0.0,0.0,0.0,0.0,0.0,0.0,0.026616318,0.0,0.0,nan,0.0,0.0,0.0,0.0,0.042500973,-0.00867651,-0.0063313544,-0.0024735928,-0.0070392136,-0.0022875369,0.00010871887,0.0,0.0,0.0,0.0,0.0,0.0
4460000,4380000,-0.00018218547,0.0036181153,0.02444651,1.1366628e-05,0.00046010173,-0.00013160706,0.0,0.0,0.0,0.0,0.0,0.0,0.0,0.07841705,0.0,0.0,nan,0.0,0.0,0.0,0.0,0.042500973,-0.00867651,-0.0063313544,-0.0024735928,-0.01198265,-1.2665987e-05,0.0002603531,0.0,0.0,0.0,0.0,0.0,0.0
4468000,4388000,-0.00018218547,0.0036181153,0.02444651,1.1366628e-05,0.00046010173,-0.00013160706,0.0,0.0,0.0,0.0,0.0,0.0,0.0,0.07841705,0.0,0.0,nan,0.0,0.0,0.0,0.0,0.042500973,-0.00867651,-0.0063313544,-0.0024735928,-0.013676971,0.018091515,0.00063943863,0.0,0.0,0.0,0.0,0.0,0.0
4476000,4396000,-0.00018218547,0.0036181153,0.02444651,1.1366628e-05,0.00046010173,-0.00013160706,0.0,0.0,0.0,0.0,0.0,0.0,0.0,0.07841705,0.0,0.0,nan,0.0,0.0,0.0,0.0,0.042500973,-0.00867651,-0.0063313544,-0.0024735928,0.0027914047,0.0072747767,7.915497e-05,0.0,0.0,0.0,0.0,0.0,0.0
4484000,4404000,-0.00018218547,0.0036181153,0.02444651,1.1366628e-05,0.00046010173,-0.00013160706,0.0,0.0,0.0,0.0,0.0,0.0,0.0,0.07841705,0.0,0.0,nan,0.0,0.0,0.0,0.0,0.042500973,-0.00867651,-0.0063313544,-0.0024735928,-0.008212704,-0.007526219,2.8133392e-05,0.0,0.0,0.0,0.0,0.0,0.0
4492000,4412000,-0.00018218547,0.0036181153,0.02444651,1.1366628e-05,0.00046010173,-0.00013160706,0.0,0.0,0.0,0.0,0.0,0.0,0.0,0.07841705,0.0,0.0,nan,0.0,0.0,0.0,0.0,0.042500973,-0.00867651,-0.0063313544,-0.0024735928,0.016743362,-0.008316144,-0.0005607605,0.0,0.0,0.0,0.0,0.0,0.0
4500000,4420000,-0.00018218547,0.0036181153,0.02444651,1.1366628e-05,0.00046010173,-0.00013160706,0.0,0.0,0.0,0.0,0.0,0.0,0.0,0.07841705,0.0,0.0,nan,0.0,0.0,0.0,0.0,0.042500973,-0.00867651,-0.0063313544,-0.0024735928,0.027682075,0.021760285,-0.0002541542,0.0,0.0,0.0,0.0,0.0,0.0
4508000,4428000,-0.00018218547,0.0036181153,0.02444651,1.1366628e-05,0.00046010173,-0.00013160706,0.0,0.0,0.0,0.0,0.0,0.0,0.0,0.07841705,0.0,0.0,nan,0.0,0.0,0.0,0.0,0.042500973,-0.00867651,-0.0063313544,-0.0024735928,-0.012904527,-0.0033718646,0.00021457672,0.0,0.0,0.0,0.0,0.0,0.0
4516000,4436000,-0.00018218547,0.0036181153,0.02444651,1.1366628e-05,0.00046010173,-0.00013160706,0.0,0.0,0.0,0.0,0.0,0.0,0.0,0.011921048,0.0,0.0,nan,0.0,0.0,0.0,0.0,-0.0031541586,0.00062300265,-0.002130255,-0.0016700327,-0.008416669,0.016944662,0.0005083084,0.0,0.0,0.0,0.0,0.0,0.0
4524000,4444000,-0.00018218547,0.0036181153,0.02444651,1.1366628e-05,0.00046010173,-0.00013160706,0.0,0.0,0.0,0.0,0.0,0.0,0.0,0.011921048,0.0,0.0,nan,0.0,0.0,0.0,0.0,-0.0031541586,0.00062300265,-0.002130255,-0.0016700327,-0.0045297276,0.016869932,0.00042200089,0.0,0.0,0.0,0.0,0.0,0.0
4532000,4452000,-0.00018218547,0.0036181153,0.02444651,1.1366628e-05,0.00046010173,-0.00013160706,0.0,0.0,0.0,0.0,0.0,0.0,0.0,0.011921048,0.0,0.0,nan,0.0,0.0,0.0,0.0,-0.0031541586,0.00062300265,-0.002130255,-0.0016700327,-0.0015633795,0.009005874,0.00020980835,0.0,0.0,0.0,0.0,0.0,0.0
4540000,4460000,-0.00018218547,0.0036181153,0.02444651,1.1366628e-05,0.00046010173,-0.00013160706,0.0,0.0,0.0,0.0,0.0,0.0,0.0,0.011921048,0.0,0.0,nan,0.0,0.0,0.0,0.0,-0.0031541586,0.00062300265,-0.002130255,-0.0016700327,-0.036207072,-0.00072075427,0.00073575974,0.0,0.0,0.0,0.0,0.0,0.0
4548000,4468000,-0.00018218547,0.0036181153,0.02444651,1.1366628e-05,0.00046010173,-0.00013160706,0.0,0.0,0.0,0.0,0.0,0.0,0.0,0.011921048,0.0,0.0,nan,0.0,0.0,0.0,0.0,-0.0031541586,0.00062300265,-0.002130255,-0.0016700327,-0.01766767,-0.0009505749,0.0003633499,0.0,0.0,0.0,0.0,0.0,0.0
4556000,4476000,-0.00018218547,0.0036181153,0.02444651,1.1366628e-05,0.00046010173,-0.00013160706,0.0,0.0,0.0,0.0,0.0,0.0,0.0,0.011921048,0.0,0.0,nan,0.0,0.0,0.0,0.0,-0.0031541586,0.00062300265,-0.002130255,-0.0016700327,-0.00794146,0.025197998,0.000644207,0.0,0.0,0.0,0.0,0.0,0.0
4564000,4484000,-0.00018218547,0.0036181153,0.02444651,1.1366628e-05,0.00046010173,-0.00013160706,0.0,0.0,0.0,0.0,0.0,0.0,0.0,0.011921048,0.0,0.0,nan,0.0,0.0,0.0,0.0,-0.0031541586,0.00062300265,-0.002130255,-0.0016700327,-0.046084907,-0.013540432,0.0006532669,0.0,0.0,0.0,0.0,0.0,0.0
4572000,4492000,-0.00018218547,0.0036181153,0.02444651,1.1366628e-05,0.00046010173,-0.00013160706,0.0,0.0,0.0,0.0,0.0,0.0,0.0,0.011921048,0.0,0.0,nan,0.0,0.0,0.0,0.0,-0.0031541586,0.00062300265,-0.002130255,-0.0016700327,-0.029568326,0.0062687546,0.0007224083,0.0,0.0,0.0,0.0,0.0,0.0
4580000,4500000,-0.00018218547,0.0036181153,0.02444651,1.1366628e-05,0.00046010173,-0.00013160706,0.0,0.0,0.0,0.0,0.0,0.0,0.0,-0.02332313,0.0,0.0,nan,0.0,0.0,0.0,0.0,-0.0031541586,0.00062300265,-0.002130255,-0.0016700327,-0.000524655,0.013352975,0.00026750565,0.0,0.0,0.0,0.0,0.0,0.0
4588000,4508000,-0.00018218547,0.0036181153,0.02444651,1.1366628e-05,0.00046010173,-0.00013160706,0.0,0.0,0.0,0.0,0.0,0.0,0.0,-0.02332313,0.0,0.0,nan,0.0,0.0,0.0,0.0,0.0030231476,-0.00058118533,-0.005062327,0.0008621812,-0.012186905,-0.010081634,5.1021576e-05,0.0,0.0,0.0,0.0,0.0,0.0
4596000,4516000,-0.00018218547,0.0036181153,0.02444651,1.1366628e-05,0.00046010173,-0.00013160706,0.0,0.0,0.0,0.0,0.0,0.0,0.0,-0.02332313,0.0,0.0,nan,0.0,0.0,0.0,0.0,0.0030231476,-0.00058118533,-0.005062327,0.0008621812,0.009699933,0.017785698,0.0001206398,0.0,0.0,0.0,0.0,0.0,0.0
4604000,4524000,-0.00018218547,0.0036181153,0.02444651,1.1366628e-05,0.00046010173,-0.00013160706,0.0,0.0,0.0,0.0,0.0,0.0,0.0,-0.02332313,0.0,0.0,nan,0.0,0.0,0.0,0.0,0.0030231476,-0.00058118533,-0.005062327,0.0008621812,-0.007533144,0.016605735,0.00047683716,0.0,0.0,0.0,0.0,0.0,0.0
4612000,4532000,-0.00018218547,0.0036181153,0.02444651,1.1366628e-05,0.00046010173,-0.00013160706,0.0,0.0,0.0,0.0,0.0,0.0,0.0,-0.02332313,0.0,0.0,nan,0.0,0.0,0.0,0.0,0.0030231476,-0.00058118533,-0.005062327,0.0008621812,-0.011383459,0.008884385,0.0004143715,0.0,0.0,0.0,0.0,0.0,0.0
4620000,4540000,-0.00018218547,0.0036181153,0.02444651,1.1366628e-05,0.00046010173,-0.00013160706,0.0,0.0,0.0,0.0,0.0,0.0,0.0,-0.02332313,0.0,0.0,nan,0.0,0.0,0.0,0.0,0.0030231476,-0.00058118533,-0.005062327,0.0008621812,-0.0049200794,0.034514293,0.00073194504,0.0,0.0,0.0,0.0,0.0,0.0
4628000,4548000,-0.00018218547,0.0036181153,0.02444651,1.1366628e-05,0.00046010173,-0.00013160706,0.0,0.0,0.0,0.0,0.0,0.0,0.0,-0.02332313,0.0,0.0,nan,0.0,0.0,0.0,0.0,0.0030231476,-0.00058118533,-0.005062327,0.0008621812,-0.004174239,-0.010813013,-0.00013399124,0.0,0.0,0.0,0.0,0.0,0.0
4636000,4556000,-0.00018218547,0.0036181153,0.02444651,1.1366628e-05,0.00046010173,-0.00013160706,0.0,0.0,0.0,0.0,0.0,0.0,0.0,-0.063598305,0.0,0.0,nan,0.0,0.0,0.0,0.0,0.0030231476,-0.00058118533,-0.005062327,0.0008621812,0.011750832,-0.00751999,-0.00041675568,0.0,0.0,0.0,0.0,0.0,0.0
4644000,4564000,-0.00018218547,0.0036181153,0.02444651,1.1366628e-05,0.00046010173,-0.00013160706,0.0,0.0,0.0,0.0,0.0,0.0,0.0,-0.063598305,0.0,0.0,nan,0.0,0.0,0.0,0.0,0.0030231476,-0.00058118533,-0.005062327,0.0008621812,0.014686961,0.024208069,0.000121593475,0.0,0.0,0.0,0.0,0.0,0.0
4652000,4572000,-0.00018218547,0.0036181153,0.02444651,1.1366628e-05,0.00046010173,-0.00013160706,0.0,0.0,0.0,0.0,0.0,0.0,0.0,-0.063598305,0.0,0.0,nan,0.0,0.0,0.0,0.0,0.0030231476,-0.00058118533,-0.005062327,0.0008621812,0.019141978,-0.00036238134,-0.0004415512,0.0,0.0,0.0,0.0,0.0,0.0
4660000,4580000,-0.00018218547,0.0036181153,0.02444651,1.1366628e-05,0.00046010173,-0.00013160706,0.0,0.0,0.0,0.0,0.0,0.0,0.0,-0.063598305,0.0,0.0,nan,0.0,0.0,0.0,0.0,-0.0020090342,0.0004253965,0.00036118925,0.00026264787,0.018570323,0.0032045841,-0.00035715103,0.0,0.0,0.0,0.0,0.0,0.0
4668000,4588000,-0.00018218547,0.0036181153,0.02444651,1.1366628e-05,0.00046010173,-0.00013160706,0.0,0.0,0.0,0.0,0.0,0.0,0.0,-0.063598305,0.0,0.0,nan,0.0,0.0,0.0,0.0,-0.0020090342,0.0004253965,0.00036118925,0.00026264787,0.0020991936,-0.017277226,-0.00040626526,0.0,0.0,0.0,0.0,0.0,0.0
4676000,4596000,-0.00018218547,0.0036181153,0.02444651,1.1366628e-05,0.00046010173,-0.00013160706,0.0,0.0,0.0,0.0,0.0,0.0,0.0,-0.063598305,0.0,0.0,nan,0.0,0.0,0.0,0.0,-0.0020090342,0.0004253965,0.00036118925,0.00026264787,0.0073378505,0.011034057,5.1498413e-05,0.0,0.0,0.0,0.0,0.0,0.0
4684000,4604000,-0.00018218547,0.0036181153,0.02444651,1.1366628e-05,0.00046010173,-0.00013160706,0.0,0.0,0.0,0.0,0.0,0.0,0.0,-0.063598305,0.0,0.0,nan,0.0,0.0,0.0,0.0,-0.0020090342,0.0004253965,0.00036118925,0.00026264787,-0.005070936,0.028874606,0.0006418228,0.0,0.0,0.0,0.0,0.0,0.0
4692000,4612000,-0.00018218547,0.0036181153,0.02444651,1.1366628e-05,0.00046010173,-0.00013160706,0.0,0.0,0.0,0.0,0.0,0.0,0.0,-0.063598305,0.0,0.0,nan,0.0,0.0,0.0,0.0,-0.0020090342,0.0004253965,0.00036118925,0.00026264787,-0.002902696,0.0380978,0.000746727,0.0,0.0,0.0,0.0,0.0,0.0
4700000,4620000,-0.018266486,-0.009010561,0.022994436,0.00010569115,-0.007314797,0.015751801,0.0,0.0,0.0,0.0,0.0,0.0,0.0,-0.06382412,0.0,0.0,nan,0.0,0.0,0.0,0.0,-0.0020090342,0.0004253965,0.00036118925,0.00026264787,0.0067115994,0.023100436,0.00028324127,0.0,0.0,0.0,0.0,0.0,0.0
4708000,4628000,-0.018266486,-0.009010561,0.022994436,0.00010569115,-0.007314797,0.015751801,0.0,0.0,0.0,0.0,0.0,0.0,0.0,-0.06382412,0.0,0.0,nan,0.0,0.0,0.0,0.0,-0.0020090342,0.0004253965,0.00036118925,0.00026264787,-0.0001814412,-0.011870667,-0.00023984909,0.0,0.0,0.0,0.0,0.0,0.0
4716000,4636000,-0.018266486,-0.009010561,0.022994436,0.00010569115,-0.007314797,0.015751801,0.0,0.0,0.0,0.0,0.0,0.0,0.0,-0.06382412,0.0,0.0,nan,0.0,0.0,0.0,0.0,-0.0020090342,0.0004253965,0.00036118925,0.00026264787,0.006237237,0.0068033487,-4.7683716e-06,0.0,0.0,0.0,0.0,0.0,0.0
4724000,4644000,-0.018266486,-0.009010561,0.022994436,0.00010569115,-0.007314797,0.015751801,0.0,0.0,0.0,0.0,0.0,0.0,0.0,-0.06382412,0.0,0.0,nan,0.0,0.0,0.0,0.0,-0.0020090342,0.0004253965,0.00036118925,0.00026264787,-0.0031336425,0.046541885,0.0008840561,0.0,0.0,0.0,0.0,0.0,0.0
4732000,4652000,-0.018266486,-0.009010561,0.022994436,0.00010569115,-0.007314797,0.015751801,0.0,0.0,0.0,0.0,0.0,0.0,0.0,-0.06382412,0.0,0.0,nan,0.0,0.0,0.0,0.0,0.0033881664,-0.0007105991,-0.00021770597,-0.00015047193,-0.003721455,0.020382494,0.00046634674,0.0,0.0,0.0,0.0,0.0,0.0
4740000,4660000,-0.018266486,-0.009010561,0.022994436,0.00010569115,-0.007314797,0.015751801,0.0,0.0,0.0,0.0,0.0,0.0,0.0,-0.06382412,0.0,0.0,nan,0.0,0.0,0.0,0.0,0.0033881664,-0.0007105991,-0.00021770597,-0.00015047193,-0.00523098,0.03026244,0.00066947937,0.0,0.0,0.0,0.0,0.0,0.0
4748000,4668000,-0.018266486,-0.009010561,0.022994436,0.00010569115,-0.007314797,0.015751801,0.0,0.0,0.0,0.0,0.0,0.0,0.0,-0.06382412,0.0,0.0,nan,0.0,0.0,0.0,0.0,0.0033881664,-0.0007105991,-0.00021770597,-0.00015047193,-0.013369105,-0.0060139894,0.00016021729,0.0,0.0,0.0,0.0,0.0,0.0
4756000,4676000,-0.018266486,-0.009010561,0.022994436,0.00010569115,-0.007314797,0.015751801,0.0,0.0,0.0,0.0,0.0,0.0,0.0,-0.05030891,0.0,0.0,nan,0.0,0.0,0.0,0.0,0.0033881664,-0.0007105991,-0.00021770597,-0.00015047193,-0.04198709,-0.026242718,0.00026464462,0.0,0.0,0.0,0.0,0.0,0.0
4764000,4684000,-0.018266486,-0.009010561,0.022994436,0.00010569115,-0.007314797,0.015751801,0.0,0.0,0.0,0.0,0.0,0.0,0.0,-0.05030891,0.0,0.0,nan,0.0,0.0,0.0,0.0,0.0033881664,-0.0007105991,-0.00021770597,-0.00015047193,-0.001158013,0.011714786,0.00025224686,0.0,0.0,0.0,0.0,0.0,0.0
4772000,4692000,-0.018266486,-0.009010561,0.022994436,0.00010569115,-0.007314797,0.015751801,0.0,0.0,0.0,0.0,0.0,0.0,0.0,-0.05030891,0.0,0.0,nan,0.0,0.0,0.0,0.0,0.0033881664,-0.0007105991,-0.00021770597,-0.00015047193,-0.0046541467,0.025255173,0.00057172775,0.0,0.0,0.0,0.0,0.0,0.0
4780000,4700000,-0.018266486,-0.009010561,0.022994436,0.00010569115,-0.007314797,0.015751801,0.0,0.0,0.0,0.0,0.0,0.0,0.0,-0.05030891,0.0,0.0,nan,0.0,0.0,0.0,0.0,0.0033881664,-0.0007105991,-0.00021770597,-0.00015047193,-0.0009487821,0.015133351,0.00030565262,0.0,0.0,0.0,0.0,0.0,0.0
4788000,4708000,-0.018266486,-0.009010561,0.022994436,0.00010569115,-0.007314797,0.015751801,0.0,0.0,0.0,0.0,0.0,0.0,0.0,-0.05030891,0.0,0.0,nan,0.0,0.0,0.0,0.0,0.0033881664,-0.0007105991,-0.00021770597,-0.00015047193,0.0053279195,0.039027914,0.0005726814,0.0,0.0,0.0,0.0,0.0,0.0
4796000,4716000,-0.018266486,-0.009010561,0.022994436,0.00010569115,-0.007314797,0.015751801,0.0,0.0,0.0,0.0,0.0,0.0,0.0,-0.05030891,0.0,0.0,nan,0.0,0.0,0.0,0.0,0.0033881664,-0.0007105991,-0.00021770597,-0.00015047193,-0.0075881733,0.032094806,0.00073862076,0.0,0.0,0.0,0.0,0.0,0.0
4804000,4724000,-0.018266486,-0.009010561,0.022994436,0.00010569115,-0.007314797,0.015751801,0.0,0.0,0.0,0.0,0.0,0.0,0.0,-0.05030891,0.0,0.0,nan,0.0,0.0,0.0,0.0,0.009786725,-0.002089031,-0.0027313828,-0.0036981702,0.029434996,0.0075874776,-0.00053071976,0.0,0.0,0.0,0.0,0.0,0.0
4812000,4732000,-0.018266486,-0.009010561,0.022994436,0.00010569115,-0.007314797,0.015751801,0.0,0.0,0.0,0.0,0.0,0.0,0.0,-0.05030891,0.0,0.0,nan,0.0,0.0,0.0,0.0,0.009786725,-0.002089031,-0.0027313828,-0.0036981702,0.03310154,0.00092710555,-0.00074863434,0.0,0.0,0.0,0.0,0.0,0.0
4820000,4740000,-0.018266486,-0.009010561,0.022994436,0.00010569115,-0.007314797,0.015751801,0.0,0.0,0.0,0.0,0.0,0.0,0.0,0.042567957,0.0,0.0,nan,0.0,0.0,0.0,0.0,0.009786725,-0.002089031,-0.0027313828,-0.0036981702,0.00826179,0.02061285,0.00019979477,0.0,0.0,0.0,0.0,0.0,0.0
4828000,4748000,-0.018266486,-0.009010561,0.022994436,0.00010569115,-0.007314797,0.015751801,0.0,0.0,0.0,0.0,0.0,0.0,0.0,0.042567957,0.0,0.0,nan,0.0,0.0,0.0,0.0,0.009786725,-0.002089031,-0.0027313828,-0.0036981702,0.005374172,0.0030996054,-5.8174133e-05,0.0,0.0,0.0,0.0,0.0,0.0
4836000,4756000,-0.018266486,-0.009010561,0.022994436,0.00010569115,-0.007314797,0.015751801,0.0,0.0,0.0,0.0,0.0,0.0,0.0,0.042567957,0.0,0.0,nan,0.0,0.0,0.0,0.0,0.009786725,-0.002089031,-0.0027313828,-0.0036981702,0.009412828,0.013490781,4.863739e-05,0.0,0.0,0.0,0.0,0.0,0.0
4844000,4764000,-0.018266486,-0.009010561,0.022994436,0.00010569115,-0.007314797,0.015751801,0.0,0.0,0.0,0.0,0.0,0.0,0.0,0.042567957,0.0,0.0,nan,0.0,0.0,0.0,0.0,0.009786725,-0.002089031,-0.0027313828,-0.0036981702,0.011881821,-0.014662981,-0.0005617142,0.0,0.0,0.0,0.0,0.0,0.0
4852000,4772000,-0.018266486,-0.009010561,0.022994436,0.00010569115,-0.007314797,0.015751801,0.0,0.0,0.0,0.0,0.0,0.0,0.0,0.042567957,0.0,0.0,nan,0.0,0.0,0.0,0.0,0.009786725,-0.002089031,-0.0027313828,-0.0036981702,0.009187417,0.019143224,0.0001540184,0.0,0.0,0.0,0.0,0.0,0.0
4860000,4780000,-0.018266486,-0.009010561,0.022994436,0.00010569115,-0.007314797,0.015751801,0.0,0.0,0.0,0.0,0.0,0.0,0.0,0.042567957,0.0,0.0,nan,0.0,0.0,0.0,0.0,0.009786725,-0.002089031,-0.0027313828,-0.0036981702,-0.011240198,0.02971597,0.00077199936,0.0,0.0,0.0,0.0,0.0,0.0
4868000,4788000,-0.018266486,-0.009010561,0.022994436,0.00010569115,-0.007314797,0.015751801,0.0,0.0,0.0,0.0,0.0,0.0,0.0,0.042567957,0.0,0.0,nan,0.0,0.0,0.0,0.0,0.009786725,-0.002089031,-0.0027313828,-0.0036981702,-0.01690961,0.009711757,0.0005326271,0.0,0.0,0.0,0.0,0.0,0.0
4876000,4796000,-0.018266486,-0.009010561,0.022994436,0.00010569115,-0.007314797,0.015751801,0.0,0.0,0.0,0.0,0.0,0.0,0.0,0.01997643,0.0,0.0,nan,0.0,0.0,0.0,0.0,0.01836288,-0.0037071593,-0.0045071393,0.0015351474,-0.016061861,0.00229761,0.00037574768,0.0,0.0,0.0,0.0,0.0,0.0
4884000,4804000,-0.018266486,-0.009010561,0.022994436,0.00010569115,-0.007314797,0.015751801,0.0,0.0,0.0,0.0,0.0,0.0,0.0,0.01997643,0.0,0.0,nan,0.0,0.0,0.0,0.0,0.01836288,-0.0037071593,-0.0045071393,0.0015351474,0.0012029661,0.035987943,0.0006132126,0.0,0.0,0.0,0.0,0.0,0.0
4892000,4812000,-0.018266486,-0.009010561,0.022994436,0.00010569115,-0.007314797,0.015751801,0.0,0.0,0.0,0.0,0.0,0.0,0.0,0.01997643,0.0,0.0,nan,0.0,0.0,0.0,0.0,0.01836288,-0.0037071593,-0.0045071393,0.0015351474,0.030564602,0.032118887,-0.00012540817,0.0,0.0,0.0,0.0,0.0,0.0
4900000,4820000,-0.018266486,-0.009010561,0.022994436,0.00010569115,-0.007314797,0.015751801,0.0,0.0,0.0,0.0,0.0,0.0,0.0,0.01997643,0.0,0.0,nan,0.0,0.0,0.0,0.0,0.01836288,-0.0037071593,-0.0045071393,0.0015351474,0.004682229,0.009596676,8.249283e-05,0.0,0.0,0.0,0.0,0.0,0.0
4908000,4828000,-0.018266486,-0.009010561,0.022994436,0.00010569115,-0.007314797,0.015751801,0.0,0.0,0.0,0.0,0.0,0.0,0.0,0.01997643,0.0,0.0,nan,0.0,0.0,0.0,0.0,0.01836288,-0.0037071593,-0.0045071393,0.0015351474,-0.008078577,0.022287577,0.0005803108,0.0,0.0,0.0,0.0,0.0,0.0
4916000,4836000,-0.018266486,-0.009010561,0.022994436,0.00010569115,-0.007314797,0.015751801,0.0,0.0,0.0,0.0,0.0,0.0,0.0,0.01997643,0.0,0.0,nan,0.0,0.0,0.0,0.0,0.01836288,-0.0037071593,-0.0045071393,0.0015351474,0.024499789,0.025817424,-8.1539154e-05,0.0,0.0,0.0,0.0,0.0,0.0
4924000,4844000,-0.018266486,-0.009010561,0.022994436,0.00010569115,-0.007314797,0.015751801,0.0,0.0,0.0,0.0,0.0,0.0,0.0,0.01997643,0.0,0.0,nan,0.0,0.0,0.0,0.0,0.01836288,-0.0037071593,-0.0045071393,0.0015351474,-2.8250739e-05,0.0019289553,3.71933e-05,0.0,0.0,0.0,0.0,0.0,0.0
4932000,4852000,-0.018266486,-0.009010561,0.022994436,0.00010569115,-0.007314797,0.015751801,0.0,0.0,0.0,0.0,0.0,0.0,0.0,0.01997643,0.0,0.0,nan,0.0,0.0,0.0,0.0,0.01836288,-0.0037071593,-0.0045071393,0.0015351474,0.032448664,-0.020107105,-0.001162529,0.0,0.0,0.0,0.0,0.0,0.0
4940000,4860000,-0.018266486,-0.009010561,0.022994436,0.00010569115,-0.007314797,0.015751801,0.0,0.0,0.0,0.0,0.0,0.0,0.0,-0.06684624,0.0,0.0,nan,0.0,0.0,0.0,0.0,0.01836288,-0.0037071593,-0.0045071393,0.0015351474,0.0061143115,-0.01327388,-0.0004029274,0.0,0.0,0.0,0.0,0.0,0.0
4948000,4868000,-0.018266486,-0.009010561,0.022994436,0.00010569115,-0.007314797,0.015751801,0.0,0.0,0.0,0.0,0.0,0.0,0.0,-0.06684624,0.0,0.0,nan,0.0,0.0,0.0,0.0,-0.008918881,0.0018109437,-0.0010674596,-0.002407074,0.014708636,-0.0068662763,-0.00046110153,0.0,0.0,0.0,0.0,0.0,0.0
4956000,4876000,-0.018266486,-0.009010561,0.022994436,0.00010569115,-0.007314797,0.015751801,0.0,0.0,0.0,0.0,0.0,0.0,0.0,-0.06684624,0.0,0.0,nan,0.0,0.0,0.0,0.0,-0.008918881,0.0018109437,-0.0010674596,-0.002407074,0.0075046504,-0.005267635,-0.000269413,0.0,0.0,0.0,0.0,0.0,0.0
4964000,4884000,-0.018266486,-0.009010561,0.022994436,0.00010569115,-0.007314797,0.015751801,0.0,0.0,0.0,0.0,0.0,0.0,0.0,-0.06684624,0.0,0.0,nan,0.0,0.0,0.0,0.0,-0.008918881,0.0018109437,-0.0010674596,-0.002407074,-0.03525401,-0.0044133216,0.0006017685,0.0,0.0,0.0,0.0,0.0,0.0
4972000,4892000,-0.018266486,-0.009010561,0.022994436,0.00010569115,-0.007314797,0.015751801,0.0,0.0,0.0,0.0,0.0,0.0,0.0,-0.06684624,0.0,0.0,nan,0.0,0.0,0.0,0.0,-0.008918881,0.0018109437,-0.0010674596,-0.002407074,-0.011836642,0.023779497,0.000682354,0.0,0.0,0.0,0.0,0.0,0.0
4980000,4900000,-0.018266486,-0.009010561,0.022994436,0.00010569115,-0.007314797,0.015751801,0.0,0.0,0.0,0.0,0.0,0.0,0.0,-0.06684624,0.0,0.0,nan,0.0,0.0,0.0,0.0,-0.008918881,0.0018109437,-0.0010674596,-0.002407074,0.025847655,0.0048674047,-0.0004925728,0.0,0.0,0.0,0.0,0.0,0.0
4988000,4908000,-0.018266486,-0.009010561,0.022994436,0.00010569115,-0.007314797,0.015751801,0.0,0.0,0.0,0.0,0.0,0.0,0.0,-0.06684624,0.0,0.0,nan,0.0,0.0,0.0,0.0,-0.008918881,0.0018109437,-0.0010674596,-0.002407074,0.05387285,0.011978522,-0.0010786057,0.0,0.0,0.0,0.0,0.0,0.0
4996000,4916000,-0.018266486,-0.009010561,0.022994436,0.00010569115,-0.007314797,0.015751801,0.0,0.0,0.0,0.0,0.0,0.0,0.0,0.044268113,0.0,0.0,nan,0.0,0.0,0.0,0.0,-0.008918881,0.0018109437,-0.0010674596,-0.002407074,0.026979476,-0.035053313,-0.0013437271,0.0,0.0,0.0,0.0,0.0,0.0
5004000,4924000,-0.018266486,-0.009010561,0.022994436,0.00010569115,-0.007314797,0.015751801,0.0,0.0,0.0,0.0,0.0,0.0,0.0,0.044268113,0.0,0.0,nan,0.0,0.0,0.0,0.0,-0.008918881,0.0018109437,-0.0010674596,-0.002407074,0.0040237308,-0.011169076,-0.00030612946,0.0,0.0,0.0,0.0,0.0,0.0
5012000,4932000,-0.018266486,-0.009010561,0.022994436,0.00010569115,-0.007314797,0.015751801,0.0,0.0,0.0,0.0,0.0,0.0,0.0,0.044268113,0.0,0.0,nan,0.0,0.0,0.0,0.0,-0.008918881,0.0018109437,-0.0010674596,-0.002407074,-0.00402656,0.019189164,0.00042963028,0.0,0.0,0.0,0.0,0.0,0.0
5020000,4940000,-0.018266486,-0.009010561,0.022994436,0.00010569115,-0.007314797,0.015751801,0.0,0.0,0.0,0.0,0.0,0.0,0.0,0.044268113,0.0,0.0,nan,0.0,0.0,0.0,0.0,-0.011365294,0.0024169628,0.0015362352,0.0013994873,-0.01981897,-0.016335651,7.915497e-05,0.0,0.0,0.0,0.0,0.0,0.0
5028000,4948000,-0.018266486,-0.009010561,0.022994436,0.00010569115,-0.007314797,0.015751801,0.0,0.0,0.0,0.0,0.0,0.0,0.0,0.044268113,0.0,0.0,nan,0.0,0.0,0.0,0.0,-0.011365294,0.0024169628,0.0015362352,0.0013994873,-0.009054169,-0.009190008,1.04904175e-05,0.0,0.0,0.0,0.0,0.0,0.0
5036000,4956000,-0.018266486,-0.009010561,0.022994436,0.00010569115,-0.007314797,0.015751801,0.0,0.0,0.0,0.0,0.0,0.0,0.0,0.044268113,0.0,0.0,nan,0.0,0.0,0.0,0.0,-0.011365294,0.0024169628,0.0015362352,0.0013994873,0.0018786769,0.009694293,0.00013637543,0.0,0.0,0.0,0.0,0.0,0.0
5044000,4964000,-0.018266486,-0.009010561,0.022994436,0.00010569115,-0.007314797,0.015751801,0.0,0.0,0.0,0.0,0.0,0.0,0.0,0.044268113,0.0,0.0,nan,0.0,0.0,0.0,0.0,-0.011365294,0.0024169628,0.0015362352,0.0013994873,-0.0062215067,0.015751466,0.00041389465,0.0,0.0,0.0,0.0,0.0,0.0
5052000,4972000,-0.018266486,-0.009010561,0.022994436,0.00010569115,-0.007314797,0.015751801,0.0,0.0,0.0,0.0,0.0,0.0,0.0,0.044268113,0.0,0.0,nan,0.0,0.0,0.0,0.0,-0.011365294,0.0024169628,0.0015362352,0.0013994873,0.016121875,0.020168245,1.4305115e-06,0.0,0.0,0.0,0.0,0.0,0.0
5060000,4980000,-0.018266486,-0.009010561,0.022994436,0.00010569115,-0.007314797,0.015751801,0.0,0.0,0.0,0.0,0.0,0.0,0.0,-0.014276914,0.0,0.0,nan,0.0,0.0,0.0,0.0,-0.011365294,0.0024169628,0.0015362352,0.0013994873,-0.00868535,0.011373058,0.00038909912,0.0,0.0,0.0,0.0,0.0,0.0
5068000,4988000,-0.018266486,-0.009010561,0.022994436,0.00010569115,-0.007314797,0.015751801,0.0,0.0,0.0,0.0,0.0,0.0,0.0,-0.014276914,0.0,0.0,nan,0.0,0.0,0.0,0.0,-0.011365294,0.0024169628,0.0015362352,0.0013994873,0.009998482,-0.00787507,-0.0003709793,0.0,0.0,0.0,0.0,0.0,0.0
5076000,4996000,-0.018266486,-0.009010561,0.022994436,0.00010569115,-0.007314797,0.015751801,0.0,0.0,0.0,0.0,0.0,0.0,0.0,-0.014276914,0.0,0.0,nan,0.0,0.0,0.0,0.0,-0.011365294,0.0024169628,0.0015362352,0.0013994873,0.008036051,-0.011832818,-0.00040483475,0.0,0.0,0.0,0.0,0.0,0.0
5084000,5004000,-0.018266486,-0.009010561,0.022994436,0.00010569115,-0.007314797,0.015751801,0.0,0.0,0.0,0.0,0.0,0.0,0.0,-0.014276914,0.0,0.0,nan,0.0,0.0,0.0,0.0,-0.011365294,0.0024169628,0.0015362352,0.0013994873,-0.0019001365,0.016029134,0.00032949448,0.0,0.0,0.0,0.0,0.0,0.0
