timestamp,timestamp_sample,lat,lon,alt,alt_ellipsoid,delta_alt,eph,epv,terrain_alt,lat_lon_reset_counter,alt_reset_counter,terrain_alt_valid,dead_reckoning
8700000,8700000,47.397750801509275,8.545607398187217,488.10016,488.10303,0.01748497,1.7320508,1.4142135,nan,2,2,0,0
8708000,8708000,47.39775080014647,8.54560739830277,488.0998,488.10266,0.01748497,1.7320541,1.4142181,nan,2,2,0,0
8716000,8716000,47.3977507987224,8.545607398419241,488.09943,488.1023,0.01748497,1.7320641,1.4142319,nan,2,2,0,0
8724000,8724000,47.39775079725222,8.54560739853828,488.09903,488.1019,0.01748497,1.7320807,1.4142549,nan,2,2,0,0
8732000,8732000,47.39775079573359,8.545607398662,488.0986,488.10147,0.01748497,1.7321041,1.4142869,nan,2,2,0,0
8740000,8740000,47.397750794176936,8.54560739880101,488.09818,488.10104,0.01748497,1.732134,1.4143282,nan,2,2,0,0
8748000,8748000,47.39775079258375,8.545607398937605,488.09775,488.10062,0.01748497,1.7321706,1.4143786,nan,2,2,0,0
8756000,8756000,47.39775079095765,8.545607399071466,488.09714,488.1,0.01748497,1.7322139,1.3874714,nan,2,2,0,0
8764000,8764000,47.39775078928559,8.545607399207041,488.09656,488.09943,0.01748497,1.7322638,1.3875366,nan,2,2,0,0
8772000,8772000,47.39775078755664,8.54560739935857,488.09595,488.09882,0.01748497,1.7323204,1.3876112,nan,2,2,0,0
8780000,8780000,47.39775078578983,8.545607399523831,488.09534,488.0982,0.01748497,1.7323836,1.387695,nan,2,2,0,0
8788000,8788000,47.39775078403752,8.545607399683526,488.09473,488.0976,0.01748497,1.7324536,1.3877882,nan,2,2,0,0
8796000,8796000,47.39775078230458,8.545607399839561,488.09412,488.097,0.01748497,1.73253,1.3878907,nan,2,2,0,0
8804000,8804000,47.397750780585504,8.545607399993102,488.0935,488.09637,0.01748497,1.7326132,1.3880025,nan,2,2,0,0
8812000,8812000,47.397750778857365,8.545607400155205,488.09305,488.09592,0.01748497,1.7327031,1.3644406,nan,2,2,0,0
8820000,8820000,47.3977507771208,8.545607400324794,488.0926,488.09546,0.01748497,1.7327996,1.3645643,nan,2,2,0,0
8828000,8828000,47.397750775387784,8.545607400506515,488.09213,488.095,0.01748497,1.7329028,1.3646976,nan,2,2,0,0
8836000,8836000,47.39775077365908,8.545607400685526,488.09167,488.09454,0.01748497,1.7330127,1.3648404,nan,2,2,0,0
8844000,8844000,47.39775077193596,8.545607400851972,488.09122,488.0941,0.01748497,1.7331291,1.3649926,nan,2,2,0,0
8852000,8852000,47.39775077022298,8.545607401031438,488.09076,488.09363,0.01748497,1.7332523,1.3651545,nan,2,2,0,0
8860000,8860000,47.39775076850793,8.545607401228871,488.09033,488.0932,0.01748497,1.7333821,1.3653257,nan,2,2,0,0
8868000,8868000,47.39775076678721,8.545607401430372,488.08987,488.09274,0.01748497,1.7335185,1.3655064,nan,2,2,0,0
8876000,8876000,47.39775076506823,8.545607401646862,488.08926,488.09213,0.01748497,1.7336617,1.344646,nan,2,2,0,0
8884000,8884000,47.39775076335789,8.545607401892733,488.08868,488.09155,0.01748497,1.7338114,1.3448358,nan,2,2,0,0
8892000,8892000,47.397750761650336,8.545607402160751,488.08807,488.09094,0.01748497,1.7339678,1.3450351,nan,2,2,0,0
8900000,8900000,47.3977507599294,8.545607402430658,488.0875,488.09036,0.01748497,1.7341309,1.345244,nan,2,2,0,0
8908000,8908000,47.39775075819736,8.545607402708564,488.0869,488.08978,0.01748497,1.7343006,1.3454627,nan,2,2,0,0
8916000,8916000,47.39775075646206,8.54560740299064,488.08636,488.08923,0.01748497,1.7344769,1.3456908,nan,2,2,0,0
8924000,8924000,47.39775075471994,8.54560740327193,488.0858,488.08865,0.01748497,1.7346599,1.3459287,nan,2,2,0,0
8932000,8932000,47.39775075297546,8.545607403553504,488.08527,488.08813,0.01748497,1.7348496,1.3272921,nan,2,2,0,0
8940000,8940000,47.39775075123272,8.545607403831948,488.08475,488.08762,0.01748497,1.7350459,1.3275368,nan,2,2,0,0
8948000,8948000,47.397750749493575,8.545607404096577,488.08423,488.0871,0.01748497,1.7352488,1.3277913,nan,2,2,0,0
8956000,8956000,47.397750747744475,8.54560740435789,488.0837,488.08658,0.01748497,1.7354585,1.3280554,nan,2,2,0,0
8964000,8964000,47.39775074598466,8.54560740461158,488.08322,488.0861,0.01748497,1.7356747,1.3283293,nan,2,2,0,0
8972000,8972000,47.39775074421402,8.545607404864343,488.0827,488.08557,0.01748497,1.7358977,1.3286129,nan,2,2,0,0
8980000,8980000,47.39775074244384,8.545607405124136,488.0822,488.08508,0.01748497,1.7361273,1.3289062,nan,2,2,0,0
8988000,8988000,47.39775074068604,8.545607405374769,488.0817,488.08456,0.01748497,1.7363634,1.3292092,nan,2,2,0,0
8996000,8996000,47.397750738940495,8.545607405624143,488.08124,488.0841,0.01748497,1.7366062,1.3123947,nan,2,2,0,0
9004000,9004000,47.397750737192844,8.545607405872587,488.08078,488.08365,0.01748497,1.7368556,1.3127023,nan,2,2,0,0
9012000,9012000,47.39775073544162,8.545607406119336,488.08032,488.0832,0.01748497,1.7371118,1.3130198,nan,2,2,0,0
9020000,9020000,47.397750733698274,8.545607406389435,488.07986,488.08273,0.01748497,1.7373745,1.313347,nan,2,2,0,0
9028000,9028000,47.39775073196839,8.54560740669111,488.0794,488.08228,0.01748497,1.737644,1.3136839,nan,2,2,0,0
9036000,9036000,47.39775073023063,8.545607406997647,488.07895,488.08182,0.01748497,1.7379199,1.3140306,nan,2,2,0,0
9044000,9044000,47.397750728480474,8.545607407314392,488.0785,488.08136,0.01748497,1.7382026,1.3143871,nan,2,2,0,0
9052000,9052000,47.397750726735275,8.545607407643423,488.07825,488.08112,0.01748497,1.7384918,1.2991133,nan,2,2,0,0
9060000,9060000,47.39775072499294,8.54560740796804,488.078,488.08087,0.01748497,1.7387877,1.2994727,nan,2,2,0,0
9068000,9068000,47.39775072324716,8.545607408303455,488.07773,488.0806,0.01748497,1.7390902,1.2998421,nan,2,2,0,0
9076000,9076000,47.39775072148725,8.545607408654623,488.07745,488.08032,0.01748497,1.7393993,1.3002213,nan,2,2,0,0
9084000,9084000,47.39775071972633,8.545607409022287,488.0772,488.08008,0.01748497,1.7397151,1.3006103,nan,2,2,0,0
9092000,9092000,47.397750717958424,8.545607409391161,488.07693,488.0798,0.01748497,1.7400374,1.3010092,nan,2,2,0,0
9100000,9100000,47.39775071873192,8.545607409491572,488.0771,488.081,0.01748497,1.4167635,1.1856006,nan,2,2,0,0
9108000,9108000,47.39775071949744,8.545607409591225,488.07724,488.08115,0.01748497,1.4168671,1.1857383,nan,2,2,0,0
9116000,9116000,47.39775072024514,8.545607409691623,488.07742,488.08133,0.01748497,1.416975,1.1803719,nan,2,2,0,0
9124000,9124000,47.39775072096774,8.54560740978967,488.0776,488.0815,0.01748497,1.4170867,1.1805165,nan,2,2,0,0
9132000,9132000,47.39775072167555,8.545607409883955,488.0778,488.0817,0.01748497,1.4172027,1.1806664,nan,2,2,0,0
9140000,9140000,47.397750722371676,8.545607409984427,488.07794,488.08185,0.01748497,1.4173226,1.1808218,nan,2,2,0,0
9148000,9148000,47.39775072304997,8.545607410118837,488.07812,488.08203,0.01748497,1.4174466,1.1809826,nan,2,2,0,0
9156000,9156000,47.39775072371296,8.545607410259535,488.0783,488.0822,0.01748497,1.4175748,1.1811489,nan,2,2,0,0
9164000,9164000,47.397750724369416,8.545607410385793,488.07846,488.08237,0.01748497,1.4177068,1.1813205,nan,2,2,0,0
9172000,9172000,47.39775072500439,8.545607410517457,488.07867,488.08258,0.01748497,1.4178431,1.1762431,nan,2,2,0,0
9180000,9180000,47.397750725610784,8.545607410659812,488.0789,488.0828,0.01748497,1.4179834,1.1764208,nan,2,2,0,0
9188000,9188000,47.397750726185336,8.545607410811659,488.0791,488.083,0.01748497,1.4181277,1.1766039,nan,2,2,0,0
9196000,9196000,47.397750726741236,8.545607410958148,488.0793,488.08322,0.01748497,1.4182761,1.1767925,nan,2,2,0,0
9204000,9204000,47.3977507272813,8.545607411104264,488.07953,488.08344,0.01748497,1.4184285,1.1769865,nan,2,2,0,0
9212000,9212000,47.397750727805814,8.545607411246497,488.0797,488.08362,0.01748497,1.4185851,1.1771859,nan,2,2,0,0
9220000,9220000,47.39775072830172,8.545607411403106,488.07993,488.08383,0.01748497,1.4187456,1.1773908,nan,2,2,0,0
9228000,9228000,47.39775072876094,8.545607411577187,488.0801,488.084,0.01748497,1.4189104,1.1776011,nan,2,2,0,0
9236000,9236000,47.39775072917336,8.545607411743571,488.08038,488.0843,0.01748497,1.4190791,1.1727719,nan,2,2,0,0
9244000,9244000,47.39775072954833,8.545607411905538,488.08063,488.08453,0.01748497,1.4192519,1.1729873,nan,2,2,0,0
9252000,9252000,47.397750729898924,8.545607412074025,488.08087,488.08478,0.01748497,1.4194288,1.1732082,nan,2,2,0,0
9260000,9260000,47.39775073023899,8.54560741224677,488.08112,488.08502,0.01748497,1.4196098,1.1734345,nan,2,2,0,0
9268000,9268000,47.397750730566585,8.545607412436677,488.08136,488.08527,0.01748497,1.4197948,1.1736662,nan,2,2,0,0
9276000,9276000,47.39775073087042,8.545607412646604,488.08157,488.08548,0.01748497,1.4199839,1.1739035,nan,2,2,0,0
9284000,9284000,47.39775073114445,8.54560741283954,488.08182,488.08572,0.01748497,1.4201771,1.174146,nan,2,2,0,0
9292000,9292000,47.39775073140467,8.545607413027492,488.08197,488.08588,0.01748497,1.4203744,1.1695404,nan,2,2,0,0
9300000,9300000,47.39775073165317,8.545607413232382,488.08215,488.08606,0.01748497,1.4205757,1.1697874,nan,2,2,0,0
9308000,9308000,47.39775073189775,8.545607413423006,488.0823,488.0862,0.01748497,1.4207811,1.1700398,nan,2,2,0,0
9316000,9316000,47.397750732136096,8.545607413614917,488.08246,488.08636,0.01748497,1.4209906,1.1702976,nan,2,2,0,0
9324000,9324000,47.3977507323538,8.545607413813126,488.0826,488.08652,0.01748497,1.4212042,1.170561,nan,2,2,0,0
9332000,9332000,47.39775073254013,8.545607413991872,488.08276,488.08667,0.01748497,1.4214219,1.1708298,nan,2,2,0,0
9340000,9340000,47.39775073271276,8.54560741416172,488.0829,488.0868,0.01748497,1.4216436,1.171104,nan,2,2,0,0
9348000,9348000,47.39775073288172,8.545607414360042,488.083,488.0869,0.01748497,1.4218694,1.1713836,nan,2,2,0,0
9356000,9356000,47.39775073302753,8.545607414574855,488.08313,488.08704,0.01748497,1.4220994,1.1669647,nan,2,2,0,0
9364000,9364000,47.39775073315017,8.54560741479421,488.08325,488.08716,0.01748497,1.4223332,1.1672478,nan,2,2,0,0
9372000,9372000,47.39775073326119,8.545607415030082,488.08334,488.08725,0.01748497,1.4225714,1.1675364,nan,2,2,0,0
9380000,9380000,47.397750733359175,8.545607415280283,488.08344,488.08734,0.01748497,1.4228134,1.1678303,nan,2,2,0,0
9388000,9388000,47.39775073342327,8.545607415523866,488.08356,488.08746,0.01748497,1.4230597,1.1681298,nan,2,2,0,0
9396000,9396000,47.39775073345176,8.545607415779957,488.08365,488.08755,0.01748497,1.42331,1.1684347,nan,2,2,0,0
9404000,9404000,47.39775073344749,8.545607416046158,488.08374,488.08765,0.01748497,1.4235644,1.168745,nan,2,2,0,0
9412000,9412000,47.397750733418334,8.545607416307384,488.0838,488.0877,0.01748497,1.4238229,1.1644977,nan,2,2,0,0
9420000,9420000,47.39775073337526,8.545607416551078,488.08386,488.08777,0.01748497,1.4240855,1.1648109,nan,2,2,0,0
9428000,9428000,47.39775073330748,8.545607416800847,488.0839,488.0878,0.01748497,1.4243522,1.1651294,nan,2,2,0,0
9436000,9436000,47.3977507332155,8.545607417040122,488.08395,488.08786,0.01748497,1.4246229,1.1654536,nan,2,2,0,0
9444000,9444000,47.39775073308976,8.54560741727013,488.08398,488.0879,0.01748497,1.4248978,1.1657829,nan,2,2,0,0
9452000,9452000,47.39775073292852,8.545607417506499,488.08405,488.08795,0.01748497,1.4251767,1.1661178,nan,2,2,0,0
9460000,9460000,47.397750732744534,8.54560741774841,488.08408,488.08798,0.01748497,1.4254597,1.1664581,nan,2,2,0,0
9468000,9468000,47.397750732550506,8.545607417978022,488.0841,488.088,0.01748497,1.4257469,1.1668038,nan,2,2,0,0
9476000,9476000,47.39775073232953,8.545607418205062,488.08414,488.08804,0.01748497,1.426038,1.1626937,nan,2,2,0,0
9484000,9484000,47.39775073207772,8.545607418456687,488.08414,488.08804,0.01748497,1.4263334,1.1630415,nan,2,2,0,0
9492000,9492000,47.39775073180296,8.545607418745925,488.08417,488.08807,0.01748497,1.4266328,1.1633946,nan,2,2,0,0
9500000,9500000,47.39775073277206,8.545607416968554,488.08432,488.08875,0.01748497,1.2957767,1.1209899,nan,2,2,0,0
9508000,9508000,47.39775073371871,8.545607415182499,488.0845,488.08893,0.01748497,1.2959256,1.1211783,nan,2,2,0,0
9516000,9516000,47.397750734647715,8.545607413385131,488.08466,488.08908,0.01748497,1.2960775,1.1213703,nan,2,2,0,0
9524000,9524000,47.397750735555434,8.54560741160145,488.0848,488.08923,0.01748497,1.2962323,1.121566,nan,2,2,0,0
9532000,9532000,47.39775073643898,8.545607409839176,488.08496,488.0894,0.01748497,1.2963902,1.1193871,nan,2,2,0,0
9540000,9540000,47.39775073728316,8.545607408098244,488.08508,488.0895,0.01748497,1.296551,1.1195867,nan,2,2,0,0
9548000,9548000,47.39775073808673,8.545607406380958,488.0852,488.08963,0.01748497,1.2967148,1.1197901,nan,2,2,0,0
9556000,9556000,47.39775073886326,8.54560740468592,488.0853,488.08972,0.01748497,1.2968816,1.119997,nan,2,2,0,0
9564000,9564000,47.39775073960809,8.545607403001911,488.08542,488.08984,0.01748497,1.2970513,1.1202079,nan,2,2,0,0
9572000,9572000,47.397750740330935,8.545607401336285,488.08554,488.08997,0.01748497,1.297224,1.1204225,nan,2,2,0,0
9580000,9580000,47.39775074103143,8.54560739968383,488.08563,488.09006,0.01748497,1.2973999,1.1206406,nan,2,2,0,0
9588000,9588000,47.39775074171595,8.545607398065265,488.08575,488.09018,0.01748497,1.2975787,1.1208627,nan,2,2,0,0
9596000,9596000,47.39775074236746,8.54560739646409,488.08588,488.0903,0.01748497,1.2977604,1.1187365,nan,2,2,0,0
9604000,9604000,47.39775074297901,8.545607394885998,488.086,488.09042,0.01748497,1.2979451,1.1189618,nan,2,2,0,0
9612000,9612000,47.39775074356661,8.54560739332596,488.0861,488.0905,0.01748497,1.2981329,1.1191908,nan,2,2,0,0
9620000,9620000,47.39775074413741,8.54560739177952,488.0862,488.09064,0.01748497,1.2983236,1.1194236,nan,2,2,0,0
9628000,9628000,47.39775074468231,8.545607390264315,488.08633,488.09076,0.01748497,1.2985175,1.1196601,nan,2,2,0,0
9636000,9636000,47.39775074518879,8.545607388785205,488.08643,488.09085,0.01748497,1.2987143,1.1199005,nan,2,2,0,0
9644000,9644000,47.39775074567296,8.545607387326205,488.08655,488.09097,0.01748497,1.2989141,1.1201445,nan,2,2,0,0
9652000,9652000,47.397750746137724,8.545607385876247,488.0866,488.09103,0.01748497,1.299117,1.1180671,nan,2,2,0,0
9660000,9660000,47.397750746571404,8.545607384424816,488.0867,488.09113,0.01748497,1.2993228,1.118314,nan,2,2,0,0
9668000,9668000,47.397750746978275,8.545607382985471,488.08676,488.0912,0.01748497,1.2995317,1.1185647,nan,2,2,0,0
9676000,9676000,47.397750747351246,8.54560738155956,488.08685,488.09128,0.01748497,1.2997437,1.1188191,nan,2,2,0,0
9684000,9684000,47.397750747682196,8.545607380138524,488.0869,488.09134,0.01748497,1.2999586,1.1190772,nan,2,2,0,0
9692000,9692000,47.397750747981306,8.545607378739444,488.08698,488.0914,0.01748497,1.3001765,1.1193391,nan,2,2,0,0
9700000,9700000,47.397750748256975,8.54560737737421,488.08704,488.09146,0.01748497,1.3003975,1.1196046,nan,2,2,0,0
9708000,9708000,47.39775074849688,8.545607376035004,488.08707,488.0915,0.01748497,1.3006215,1.1198739,nan,2,2,0,0
9716000,9716000,47.397750748698364,8.545607374709459,488.0871,488.09152,0.01748497,1.3008486,1.1178315,nan,2,2,0,0
9724000,9724000,47.397750748865136,8.545607373399974,488.08713,488.09155,0.01748497,1.3010788,1.1181033,nan,2,2,0,0
9732000,9732000,47.39775074900079,8.545607372110746,488.08713,488.09155,0.01748497,1.3013119,1.1183788,nan,2,2,0,0
9740000,9740000,47.39775074911248,8.54560737084523,488.08716,488.09158,0.01748497,1.3015481,1.1186578,nan,2,2,0,0
9748000,9748000,47.39775074919322,8.545607369604449,488.0872,488.0916,0.01748497,1.3017874,1.1189408,nan,2,2,0,0
9756000,9756000,47.397750749242896,8.545607368402525,488.0872,488.0916,0.01748497,1.3020297,1.1192275,nan,2,2,0,0
9764000,9764000,47.39775074927077,8.545607367233792,488.0872,488.0916,0.01748497,1.3022751,1.1195178,nan,2,2,0,0
9772000,9772000,47.397750749280796,8.545607366081054,488.08716,488.09158,0.01748497,1.3025235,1.1175095,nan,2,2,0,0
9780000,9780000,47.39775074927555,8.545607364929484,488.08713,488.09155,0.01748497,1.302775,1.1178018,nan,2,2,0,0
9788000,9788000,47.39775074924071,8.54560736379385,488.0871,488.09152,0.01748497,1.3030295,1.118098,nan,2,2,0,0
9796000,9796000,47.39775074917011,8.545607362680212,488.08707,488.0915,0.01748497,1.3032871,1.1183978,nan,2,2,0,0
9804000,9804000,47.39775074907924,8.545607361592001,488.087,488.09143,0.01748497,1.3035479,1.1187013,nan,2,2,0,0
9812000,9812000,47.397750748971745,8.545607360528745,488.08698,488.0914,0.01748497,1.3038117,1.1190085,nan,2,2,0,0
9820000,9820000,47.397750748838675,8.545607359487596,488.0869,488.09134,0.01748497,1.3040786,1.1193196,nan,2,2,0,0
9828000,9828000,47.397750748692665,8.54560735848179,488.08688,488.0913,0.01748497,1.3043485,1.1196343,nan,2,2,0,0
9836000,9836000,47.39775074854056,8.545607357504846,488.0868,488.09122,0.01748497,1.3046216,1.1176449,nan,2,2,0,0
9844000,9844000,47.397750748370136,8.545607356547784,488.08673,488.09116,0.01748497,1.3048977,1.1179612,nan,2,2,0,0
9852000,9852000,47.39775074819477,8.545607355601508,488.08664,488.09106,0.01748497,1.3051769,1.1182811,nan,2,2,0,0
9860000,9860000,47.397750748001386,8.545607354663415,488.08655,488.09097,0.01748497,1.3054593,1.1186048,nan,2,2,0,0
9868000,9868000,47.397750747780144,8.545607353744137,488.0865,488.0909,0.01748497,1.3057446,1.1189321,nan,2,2,0,0
9876000,9876000,47.39775074754374,8.545607352850663,488.0864,488.09082,0.01748497,1.3060331,1.1192632,nan,2,2,0,0
9884000,9884000,47.397750747289685,8.545607351996017,488.0863,488.09073,0.01748497,1.3063248,1.119598,nan,2,2,0,0
9892000,9892000,47.39775074701294,8.545607351183444,488.08627,488.0907,0.01748497,1.3066195,1.1176295,nan,2,2,0,0
9900000,9900000,47.3977507466249,8.545607351960673,488.08646,488.0909,0.01748497,1.2321504,1.0929579,nan,2,2,0,0
9908000,9908000,47.39775074621708,8.545607352724524,488.08667,488.09113,0.01748497,1.2323257,1.0931691,nan,2,2,0,0
9916000,9916000,47.39775074579583,8.545607353453308,488.08685,488.0913,0.01748497,1.2325034,1.0933831,nan,2,2,0,0
9924000,9924000,47.39775074535252,8.54560735414842,488.08704,488.0915,0.01748497,1.2326834,1.0936,nan,2,2,0,0
9932000,9932000,47.39775074490207,8.545607354815095,488.08722,488.09167,0.01748497,1.2328659,1.0938197,nan,2,2,0,0
9940000,9940000,47.397750744441176,8.54560735545523,488.0874,488.09186,0.01748497,1.233051,1.0940422,nan,2,2,0,0
9948000,9948000,47.39775074396404,8.545607356085988,488.0876,488.09204,0.01748497,1.2332383,1.0942675,nan,2,2,0,0
9956000,9956000,47.39775074346548,8.5456073566978,488.08774,488.0922,0.01748497,1.2334281,1.0930595,nan,2,2,0,0
9964000,9964000,47.39775074294822,8.54560735730814,488.08792,488.09238,0.01748497,1.2336204,1.0932871,nan,2,2,0,0
9972000,9972000,47.39775074240925,8.545607357926826,488.08807,488.09253,0.01748497,1.2338151,1.0935175,nan,2,2,0,0
9980000,9980000,47.39775074184168,8.545607358525238,488.08826,488.0927,0.01748497,1.2340122,1.0937507,nan,2,2,0,0
9988000,9988000,47.39775074125441,8.54560735908983,488.0884,488.09286,0.01748497,1.2342119,1.0939869,nan,2,2,0,0
9996000,9996000,47.397750740647275,8.545607359634685,488.08856,488.09302,0.01748497,1.234414,1.0942256,nan,2,2,0,0
10004000,10004000,47.39775074001741,8.54560736017543,488.0887,488.09317,0.01748497,1.2346185,1.0944674,nan,2,2,0,0
10012000,10012000,47.39775073936459,8.545607360721293,488.08878,488.09323,0.01748497,1.2348255,1.0932692,nan,2,2,0,0
10020000,10020000,47.39775073869813,8.545607361277394,488.08884,488.0933,0.01748497,1.2350351,1.093513,nan,2,2,0,0
10028000,10028000,47.39775073801896,8.545607361822979,488.0889,488.09335,0.01748497,1.2352469,1.0937595,nan,2,2,0,0
10036000,10036000,47.397750737328614,8.545607362361965,488.08896,488.0934,0.01748497,1.2354615,1.0940088,nan,2,2,0,0
10044000,10044000,47.397750736634826,8.545607362898961,488.08902,488.09348,0.01748497,1.2356783,1.094261,nan,2,2,0,0
10052000,10052000,47.39775073593162,8.545607363433161,488.08908,488.09354,0.01748497,1.2358978,1.0945159,nan,2,2,0,0
10060000,10060000,47.39775073521187,8.54560736395007,488.08914,488.0936,0.01748497,1.2361197,1.0947738,nan,2,2,0,0
10068000,10068000,47.39775073447025,8.545607364459228,488.0892,488.09366,0.01748497,1.2363441,1.0950344,nan,2,2,0,0
10076000,10076000,47.39775073370139,8.545607364956458,488.08926,488.09372,0.01748497,1.2365711,1.0938375,nan,2,2,0,0
10084000,10084000,47.397750732914794,8.545607365441477,488.08936,488.0938,0.01748497,1.2368006,1.0940998,nan,2,2,0,0
10092000,10092000,47.39775073210122,8.54560736591623,488.08942,488.09387,0.01748497,1.2370324,1.0943649,nan,2,2,0,0
10100000,10100000,47.39775073126305,8.545607366397421,488.08948,488.09393,0.01748497,1.2372669,1.0946327,nan,2,2,0,0
10108000,10108000,47.39775073040859,8.54560736687713,488.0895,488.09396,0.01748497,1.2375039,1.0949035,nan,2,2,0,0
10116000,10116000,47.39775072952713,8.54560736734579,488.08957,488.09402,0.01748497,1.2377435,1.095177,nan,2,2,0,0
10124000,10124000,47.39775072862999,8.545607367813435,488.08963,488.0941,0.01748497,1.2379856,1.0954533,nan,2,2,0,0
10132000,10132000,47.397750727733595,8.545607368293057,488.08972,488.09418,0.01748497,1.2382302,1.094259,nan,2,2,0,0
10140000,10140000,47.39775072682514,8.545607368770353,488.08978,488.09424,0.01748497,1.2384773,1.0945369,nan,2,2,0,0
10148000,10148000,47.39775072590266,8.545607369227827,488.08987,488.09433,0.01748497,1.2387271,1.0948174,nan,2,2,0,0
10156000,10156000,47.397750724959124,8.545607369695274,488.08997,488.09442,0.01748497,1.2389793,1.0951008,nan,2,2,0,0
10164000,10164000,47.39775072400544,8.545607370172027,488.09003,488.09448,0.01748497,1.2392342,1.095387,nan,2,2,0,0
10172000,10172000,47.397750723049526,8.545607370637375,488.09012,488.09457,0.01748497,1.2394916,1.095676,nan,2,2,0,0
10180000,10180000,47.39775072208604,8.54560737110119,488.09018,488.09464,0.01748497,1.2397516,1.0959677,nan,2,2,0,0
10188000,10188000,47.39775072111741,8.545607371565941,488.09024,488.0947,0.01748497,1.2400142,1.0962623,nan,2,2,0,0
10196000,10196000,47.39775072015316,8.545607372037422,488.0903,488.09476,0.01748497,1.2402794,1.095061,nan,2,2,0,0
10204000,10204000,47.397750719190384,8.545607372513016,488.09033,488.0948,0.01748497,1.2405472,1.0953567,nan,2,2,0,0
10212000,10212000,47.39775071823047,8.545607372977505,488.09036,488.09482,0.01748497,1.2408175,1.0956552,nan,2,2,0,0
10220000,10220000,47.39775071726422,8.545607373416246,488.0904,488.09485,0.01748497,1.2410905,1.0959564,nan,2,2,0,0
10228000,10228000,47.39775071628515,8.545607373829515,488.09042,488.09488,0.01748497,1.2413661,1.0962605,nan,2,2,0,0
10236000,10236000,47.3977507153004,8.545607374233345,488.09045,488.0949,0.01748497,1.2416444,1.0965674,nan,2,2,0,0
10244000,10244000,47.39775071431277,8.545607374644957,488.09048,488.09494,0.01748497,1.2419252,1.096877,nan,2,2,0,0
10252000,10252000,47.39775071332437,8.54560737504164,488.0905,488.09497,0.01748497,1.2422087,1.0956714,nan,2,2,0,0
10260000,10260000,47.397750712334236,8.545607375420879,488.09055,488.095,0.01748497,1.2424948,1.0959818,nan,2,2,0,0
10268000,10268000,47.3977507113368,8.54560737580846,488.09055,488.095,0.01748497,1.2427835,1.0962952,nan,2,2,0,0
10276000,10276000,47.39775071033336,8.54560737620859,488.09058,488.09503,0.01748497,1.243075,1.0966113,nan,2,2,0,0
10284000,10284000,47.39775070932673,8.545607376610286,488.09058,488.09503,0.01748497,1.2433691,1.0969301,nan,2,2,0,0
10292000,10292000,47.39775070831479,8.54560737700158,488.09058,488.09503,0.01748497,1.2436658,1.0972518,nan,2,2,0,0
10300000,10300000,47.39775071002912,8.545607378864691,488.09064,488.09494,0.01748497,1.1934704,1.0790685,nan,2,2,0,0
10308000,10308000,47.39775071169636,8.545607380685048,488.09067,488.09497,0.01748497,1.193664,1.0792927,nan,2,2,0,0
10316000,10316000,47.3977507133149,8.545607382462666,488.09076,488.09506,0.01748497,1.1938597,1.0785006,nan,2,2,0,0
10324000,10324000,47.397750714896105,8.545607384205193,488.09085,488.09515,0.01748497,1.1940575,1.0787263,nan,2,2,0,0
10332000,10332000,47.39775071643391,8.5456073859163,488.09094,488.09525,0.01748497,1.1942575,1.0789543,nan,2,2,0,0
10340000,10340000,47.397750717930705,8.545607387602614,488.09103,488.09534,0.01748497,1.1944596,1.0791845,nan,2,2,0,0
10348000,10348000,47.39775071938958,8.545607389251884,488.0911,488.0954,0.01748497,1.1946639,1.079417,nan,2,2,0,0
10356000,10356000,47.39775072080835,8.545607390852012,488.0912,488.0955,0.01748497,1.1948704,1.0796517,nan,2,2,0,0
10364000,10364000,47.397750722185144,8.545607392430494,488.09125,488.09555,0.01748497,1.195079,1.0798886,nan,2,2,0,0
10372000,10372000,47.397750723529406,8.54560739400162,488.09128,488.09558,0.01748497,1.1952897,1.0790939,nan,2,2,0,0
10380000,10380000,47.397750724843206,8.545607395573333,488.0913,488.0956,0.01748497,1.1955028,1.0793322,nan,2,2,0,0
10388000,10388000,47.39775072612648,8.54560739713329,488.09134,488.09564,0.01748497,1.1957179,1.0795729,nan,2,2,0,0
10396000,10396000,47.39775072737598,8.545607398686457,488.09137,488.09567,0.01748497,1.1959352,1.0798157,nan,2,2,0,0
10404000,10404000,47.39775072859471,8.54560740024579,488.0914,488.0957,0.01748497,1.1961548,1.0800608,nan,2,2,0,0
10412000,10412000,47.39775072978199,8.545607401785443,488.09143,488.09573,0.01748497,1.1963766,1.0803082,nan,2,2,0,0
10420000,10420000,47.3977507309344,8.545607403302455,488.09146,488.09576,0.01748497,1.1966006,1.0805578,nan,2,2,0,0
10428000,10428000,47.39775073205013,8.54560740478503,488.0915,488.0958,0.01748497,1.1968268,1.0808096,nan,2,2,0,0
10436000,10436000,47.39775073312805,8.54560740624,488.09152,488.09583,0.01748497,1.1970552,1.0800056,nan,2,2,0,0
10444000,10444000,47.39775073417608,8.545607407673405,488.09152,488.09583,0.01748497,1.1972859,1.0802587,nan,2,2,0,0
10452000,10452000,47.39775073519442,8.545607409068824,488.09155,488.09586,0.01748497,1.1975188,1.080514,nan,2,2,0,0
10460000,10460000,47.397750736172945,8.545607410426824,488.09158,488.0959,0.01748497,1.197754,1.0807714,nan,2,2,0,0
10468000,10468000,47.397750737119196,8.545607411767289,488.0916,488.09592,0.01748497,1.1979915,1.0810312,nan,2,2,0,0
10476000,10476000,47.39775073803811,8.54560741310829,488.0916,488.09592,0.01748497,1.1982311,1.0812932,nan,2,2,0,0
10484000,10484000,47.39775073893166,8.545607414444538,488.09164,488.09595,0.01748497,1.1984731,1.0815574,nan,2,2,0,0
10492000,10492000,47.39775073979614,8.54560741575343,488.09164,488.09595,0.01748497,1.1987174,1.080746,nan,2,2,0,0
10500000,10500000,47.39775074062575,8.545607417039466,488.09167,488.09598,0.01748497,1.198964,1.0810113,nan,2,2,0,0
10508000,10508000,47.39775074143429,8.545607418309059,488.09167,488.09598,0.01748497,1.1992128,1.0812788,nan,2,2,0,0
10516000,10516000,47.39775074221721,8.545607419561405,488.09167,488.09598,0.01748497,1.199464,1.0815486,nan,2,2,0,0
10524000,10524000,47.39775074297353,8.54560742077471,488.09167,488.09598,0.01748497,1.1997175,1.0818205,nan,2,2,0,0
10532000,10532000,47.39775074370742,8.545607421947903,488.09167,488.09598,0.01748497,1.1999733,1.0820947,nan,2,2,0,0
10540000,10540000,47.39775074440183,8.545607423097994,488.09167,488.09598,0.01748497,1.2002314,1.0823711,nan,2,2,0,0
10548000,10548000,47.39775074506679,8.545607424212252,488.09167,488.09598,0.01748497,1.2004919,1.0826497,nan,2,2,0,0
10556000,10556000,47.39775074570622,8.545607425288832,488.09167,488.09598,0.01748497,1.2007548,1.0818237,nan,2,2,0,0
10564000,10564000,47.3977507463074,8.545607426357583,488.09167,488.09598,0.01748497,1.20102,1.0821031,nan,2,2,0,0
10572000,10572000,47.39775074687986,8.545607427406905,488.09164,488.09595,0.01748497,1.2012876,1.0823848,nan,2,2,0,0
10580000,10580000,47.39775074742375,8.545607428443457,488.09164,488.09595,0.01748497,1.2015575,1.0826688,nan,2,2,0,0
10588000,10588000,47.39775074794355,8.545607429489229,488.09164,488.09595,0.01748497,1.2018299,1.0829549,nan,2,2,0,0
10596000,10596000,47.39775074844089,8.545607430548882,488.0916,488.09592,0.01748497,1.2021046,1.0832431,nan,2,2,0,0
10604000,10604000,47.3977507489148,8.545607431594691,488.09158,488.0959,0.01748497,1.2023817,1.0835338,nan,2,2,0,0
10612000,10612000,47.39775074936233,8.54560743263018,488.09158,488.0959,0.01748497,1.2026613,1.0826958,nan,2,2,0,0
10620000,10620000,47.39775074977754,8.545607433655041,488.09158,488.0959,0.01748497,1.2029433,1.082987,nan,2,2,0,0
10628000,10628000,47.397750750171184,8.545607434654203,488.09158,488.0959,0.01748497,1.2032276,1.0832804,nan,2,2,0,0
10636000,10636000,47.397750750552554,8.545607435642461,488.09158,488.0959,0.01748497,1.2035146,1.083576,nan,2,2,0,0
10644000,10644000,47.39775075092198,8.54560743663301,488.09158,488.0959,0.01748497,1.2038038,1.0838739,nan,2,2,0,0
10652000,10652000,47.39775075127763,8.545607437611556,488.09155,488.09586,0.01748497,1.2040956,1.0841739,nan,2,2,0,0
10660000,10660000,47.39775075161313,8.545607438598356,488.09155,488.09586,0.01748497,1.2043898,1.0844762,nan,2,2,0,0
10668000,10668000,47.397750751913904,8.545607439585986,488.09155,488.09586,0.01748497,1.2046865,1.0847807,nan,2,2,0,0
10676000,10676000,47.397750752184066,8.545607440570732,488.09152,488.09583,0.01748497,1.2049857,1.0839227,nan,2,2,0,0
10684000,10684000,47.397750752424606,8.545607441549292,488.09152,488.09583,0.01748497,1.2052875,1.0842276,nan,2,2,0,0
10692000,10692000,47.39775075263965,8.545607442519424,488.0915,488.0958,0.01748497,1.2055917,1.0845346,nan,2,2,0,0
10700000,10700000,47.39775075349876,8.545607442804878,488.09146,488.09576,0.01748497,1.1679361,1.0700289,nan,2,2,0,0
10708000,10708000,47.39775075432052,8.545607443090232,488.0914,488.0957,0.01748497,1.1681451,1.0702558,nan,2,2,0,0
10716000,10716000,47.397750755125955,8.545607443385164,488.09137,488.09567,0.01748497,1.1683558,1.0704845,nan,2,2,0,0
10724000,10724000,47.3977507559078,8.54560744371005,488.0913,488.0956,0.01748497,1.1685687,1.0707151,nan,2,2,0,0
10732000,10732000,47.3977507566564,8.545607444061739,488.09122,488.09552,0.01748497,1.1687837,1.0701364,nan,2,2,0,0
10740000,10740000,47.39775075737388,8.545607444424315,488.09116,488.09546,0.01748497,1.1690006,1.070368,nan,2,2,0,0
10748000,10748000,47.39775075805786,8.545607444806986,488.09106,488.09537,0.01748497,1.1692196,1.0706016,nan,2,2,0,0
10756000,10756000,47.397750758724214,8.545607445190287,488.09097,488.09528,0.01748497,1.1694406,1.070837,nan,2,2,0,0
10764000,10764000,47.397750759388074,8.545607445578526,488.09088,488.09518,0.01748497,1.1696638,1.0710741,nan,2,2,0,0
10772000,10772000,47.397750760043316,8.545607445980414,488.09082,488.09512,0.01748497,1.169889,1.0713133,nan,2,2,0,0
10780000,10780000,47.39775076069107,8.545607446411328,488.09073,488.09503,0.01748497,1.1701163,1.0715541,nan,2,2,0,0
10788000,10788000,47.39775076132792,8.545607446847425,488.09064,488.09494,0.01748497,1.1703458,1.0717968,nan,2,2,0,0
10796000,10796000,47.397750761938255,8.54560744728548,488.0905,488.09482,0.01748497,1.1705773,1.0712053,nan,2,2,0,0
10804000,10804000,47.39775076251347,8.54560744774473,488.09042,488.09473,0.01748497,1.1708109,1.0714488,nan,2,2,0,0
10812000,10812000,47.39775076306335,8.545607448204201,488.0903,488.0946,0.01748497,1.1710466,1.0716944,nan,2,2,0,0
10820000,10820000,47.397750763599696,8.54560744865787,488.0902,488.0945,0.01748497,1.1712846,1.0719416,nan,2,2,0,0
10828000,10828000,47.3977507641314,8.545607449131673,488.0901,488.0944,0.01748497,1.1715246,1.0721909,nan,2,2,0,0
10836000,10836000,47.39775076466546,8.545607449612984,488.08997,488.09427,0.01748497,1.1717669,1.0724418,nan,2,2,0,0
10844000,10844000,47.397750765186515,8.545607450099082,488.08987,488.09418,0.01748497,1.1720113,1.0726947,nan,2,2,0,0
10852000,10852000,47.39775076567744,8.545607450605772,488.08975,488.09406,0.01748497,1.1722578,1.0720922,nan,2,2,0,0
10860000,10860000,47.39775076614736,8.545607451119551,488.08963,488.09393,0.01748497,1.1725067,1.0723459,nan,2,2,0,0
10868000,10868000,47.39775076658986,8.54560745162807,488.08948,488.09378,0.01748497,1.1727576,1.0726013,nan,2,2,0,0
10876000,10876000,47.39775076701077,8.545607452137506,488.08936,488.09366,0.01748497,1.1730108,1.0728586,nan,2,2,0,0
10884000,10884000,47.39775076740918,8.54560745264865,488.08923,488.09354,0.01748497,1.1732662,1.0731177,nan,2,2,0,0
10892000,10892000,47.39775076778208,8.545607453168405,488.0891,488.0934,0.01748497,1.1735238,1.0733788,nan,2,2,0,0
10900000,10900000,47.397750768131985,8.545607453699086,488.08896,488.09326,0.01748497,1.1737838,1.0736415,nan,2,2,0,0
10908000,10908000,47.39775076847815,8.545607454242028,488.08884,488.09314,0.01748497,1.1740459,1.0739062,nan,2,2,0,0
10916000,10916000,47.39775076881022,8.545607454803445,488.0887,488.09302,0.01748497,1.1743103,1.0732868,nan,2,2,0,0
10924000,10924000,47.39775076911923,8.545607455368561,488.08856,488.09286,0.01748497,1.174577,1.073552,nan,2,2,0,0
10932000,10932000,47.39775076940029,8.545607455920363,488.0884,488.0927,0.01748497,1.174846,1.0738192,nan,2,2,0,0
10940000,10940000,47.3977507696495,8.54560745646629,488.0883,488.0926,0.01748497,1.1751174,1.0740881,nan,2,2,0,0
10948000,10948000,47.397750769885626,8.54560745699854,488.08813,488.09244,0.01748497,1.175391,1.0743588,nan,2,2,0,0
10956000,10956000,47.397750770126144,8.545607457524296,488.08798,488.0923,0.01748497,1.1756669,1.0746315,nan,2,2,0,0
10964000,10964000,47.39775077033831,8.545607458054148,488.08783,488.09213,0.01748497,1.1759452,1.0749059,nan,2,2,0,0
10972000,10972000,47.39775077052249,8.545607458584076,488.08774,488.09204,0.01748497,1.1762258,1.0742722,nan,2,2,0,0
10980000,10980000,47.397750770696966,8.545607459119767,488.08762,488.09192,0.01748497,1.1765088,1.074547,nan,2,2,0,0
10988000,10988000,47.39775077087184,8.54560745965489,488.08752,488.09183,0.01748497,1.1767942,1.0748237,nan,2,2,0,0
10996000,10996000,47.39775077104244,8.545607460186549,488.0874,488.0917,0.01748497,1.177082,1.0751023,nan,2,2,0,0
11004000,11004000,47.39775077120621,8.545607460701973,488.0873,488.0916,0.01748497,1.1773721,1.0753827,nan,2,2,0,0
11012000,11012000,47.39775077136486,8.54560746121449,488.0872,488.0915,0.01748497,1.1776646,1.075665,nan,2,2,0,0
11020000,11020000,47.397750771508,8.545607461731905,488.0871,488.0914,0.01748497,1.1779597,1.0759491,nan,2,2,0,0
11028000,11028000,47.39775077163804,8.545607462243147,488.08698,488.09128,0.01748497,1.1782571,1.076235,nan,2,2,0,0
11036000,11036000,47.39775077174914,8.545607462749231,488.08688,488.0912,0.01748497,1.178557,1.0755802,nan,2,2,0,0
11044000,11044000,47.39775077185094,8.5456074632444,488.0868,488.0911,0.01748497,1.1788594,1.0758663,nan,2,2,0,0
11052000,11052000,47.39775077195342,8.545607463726158,488.0867,488.091,0.01748497,1.1791642,1.0761544,nan,2,2,0,0
11060000,11060000,47.397750772050536,8.545607464207245,488.0866,488.0909,0.01748497,1.1794715,1.0764443,nan,2,2,0,0
11068000,11068000,47.39775077213268,8.54560746468753,488.08652,488.09082,0.01748497,1.1797813,1.076736,nan,2,2,0,0
11076000,11076000,47.39775077220364,8.545607465157842,488.08643,488.09073,0.01748497,1.1800936,1.0770295,nan,2,2,0,0
11084000,11084000,47.3977507722812,8.545607465625714,488.08633,488.09064,0.01748497,1.1804085,1.0773249,nan,2,2,0,0
11092000,11092000,47.39775077234215,8.545607466113028,488.0862,488.0905,0.01748497,1.1807259,1.0766524,nan,2,2,0,0
11100000,11100000,47.39775077346087,8.54560746401849,488.08615,488.09073,0.01748497,1.1502076,1.0642899,nan,2,2,0,0
11108000,11108000,47.39775077455244,8.545607461949393,488.0861,488.09067,0.01748497,1.1504314,1.0645155,nan,2,2,0,0
11116000,11116000,47.397750775629,8.545607459890777,488.08606,488.09064,0.01748497,1.1506572,1.0647427,nan,2,2,0,0
11124000,11124000,47.397750776684134,8.545607457846783,488.086,488.09058,0.01748497,1.1508849,1.0649714,nan,2,2,0,0
11132000,11132000,47.39775077771123,8.54560745582635,488.08594,488.0905,0.01748497,1.1511148,1.0652018,nan,2,2,0,0
11140000,11140000,47.3977507787114,8.545607453844683,488.08585,488.09042,0.01748497,1.1513467,1.0654336,nan,2,2,0,0
11148000,11148000,47.39775077969346,8.545607451886761,488.0858,488.09036,0.01748497,1.1515808,1.065667,nan,2,2,0,0
11156000,11156000,47.39775078065581,8.545607449962926,488.08572,488.0903,0.01748497,1.1518168,1.0652021,nan,2,2,0,0
11164000,11164000,47.39775078159847,8.545607448076336,488.08566,488.09024,0.01748497,1.1520551,1.0654362,nan,2,2,0,0
11172000,11172000,47.397750782515494,8.545607446206226,488.08557,488.09015,0.01748497,1.1522955,1.0656719,nan,2,2,0,0
11180000,11180000,47.39775078340818,8.545607444363117,488.0855,488.0901,0.01748497,1.1525378,1.0659091,nan,2,2,0,0
11188000,11188000,47.39775078428249,8.545607442556669,488.08542,488.09,0.01748497,1.1527824,1.066148,nan,2,2,0,0
11196000,11196000,47.397750785144034,8.545607440817582,488.08533,488.0899,0.01748497,1.1530292,1.0663884,nan,2,2,0,0
11204000,11204000,47.39775078596962,8.545607439145606,488.08527,488.08984,0.01748497,1.1532781,1.0666302,nan,2,2,0,0
11212000,11212000,47.39775078676272,8.5456074375316,488.0852,488.08978,0.01748497,1.1535292,1.0661532,nan,2,2,0,0
11220000,11220000,47.39775078753959,8.545607435981887,488.08514,488.08972,0.01748497,1.1537825,1.0663956,nan,2,2,0,0
11228000,11228000,47.39775078829814,8.545607434477065,488.0851,488.0897,0.01748497,1.154038,1.0666398,nan,2,2,0,0
11236000,11236000,47.397750789042306,8.545607433000738,488.08505,488.08963,0.01748497,1.1542957,1.0668855,nan,2,2,0,0
11244000,11244000,47.39775078976685,8.545607431532714,488.085,488.08957,0.01748497,1.1545556,1.0671327,nan,2,2,0,0
11252000,11252000,47.397750790468024,8.545607430062438,488.0849,488.08948,0.01748497,1.1548178,1.0673814,nan,2,2,0,0
11260000,11260000,47.39775079115483,8.545607428607143,488.08484,488.08942,0.01748497,1.1550822,1.0676318,nan,2,2,0,0
11268000,11268000,47.39775079182318,8.545607427171612,488.08478,488.08936,0.01748497,1.155349,1.0678837,nan,2,2,0,0
11276000,11276000,47.39775079248137,8.545607425748416,488.0847,488.08926,0.01748497,1.155618,1.0673892,nan,2,2,0,0
11284000,11284000,47.3977507931258,8.54560742432376,488.0846,488.08917,0.01748497,1.1558893,1.0676415,nan,2,2,0,0
11292000,11292000,47.39775079376428,8.545607422905663,488.0845,488.08908,0.01748497,1.1561629,1.0678955,nan,2,2,0,0
11300000,11300000,47.397750794388976,8.545607421513832,488.0844,488.089,0.01748497,1.1564388,1.068151,nan,2,2,0,0
11308000,11308000,47.39775079499141,8.545607420147913,488.08432,488.0889,0.01748497,1.1567172,1.068408,nan,2,2,0,0
11316000,11316000,47.39775079557833,8.54560741880762,488.08423,488.0888,0.01748497,1.1569978,1.0686666,nan,2,2,0,0
11324000,11324000,47.39775079615582,8.545607417505819,488.08414,488.0887,0.01748497,1.1572808,1.0689268,nan,2,2,0,0
11332000,11332000,47.39775079673256,8.545607416227687,488.08398,488.08856,0.01748497,1.1575662,1.0684175,nan,2,2,0,0
11340000,11340000,47.39775079730127,8.54560741497376,488.08386,488.08844,0.01748497,1.1578541,1.068678,nan,2,2,0,0
11348000,11348000,47.3977507978559,8.545607413729247,488.0837,488.0883,0.01748497,1.1581444,1.0689402,nan,2,2,0,0
11356000,11356000,47.39775079839358,8.545607412507849,488.08356,488.08813,0.01748497,1.1584369,1.0692037,nan,2,2,0,0
11364000,11364000,47.39775079892974,8.545607411311678,488.08344,488.088,0.01748497,1.158732,1.069469,nan,2,2,0,0
11372000,11372000,47.39775079945895,8.54560741014101,488.08328,488.08786,0.01748497,1.1590296,1.0697358,nan,2,2,0,0
11380000,11380000,47.39775079997869,8.545607408995881,488.08313,488.0877,0.01748497,1.1593298,1.0700041,nan,2,2,0,0
11388000,11388000,47.39775080047715,8.545607407864523,488.08298,488.08755,0.01748497,1.1596323,1.070274,nan,2,2,0,0
11396000,11396000,47.3977508009615,8.545607406743176,488.08286,488.08743,0.01748497,1.1599373,1.0697441,nan,2,2,0,0
11404000,11404000,47.397750801449206,8.545607405646612,488.0827,488.08728,0.01748497,1.160245,1.0700142,nan,2,2,0,0
11412000,11412000,47.397750801938294,8.545607404561778,488.08255,488.08713,0.01748497,1.160555,1.0702858,nan,2,2,0,0
11420000,11420000,47.39775080242743,8.545607403484887,488.0824,488.08698,0.01748497,1.1608677,1.070559,nan,2,2,0,0
11428000,11428000,47.397750802917784,8.545607402419499,488.08224,488.08682,0.01748497,1.1611829,1.0708338,nan,2,2,0,0
11436000,11436000,47.39775080340228,8.545607401349061,488.0821,488.08667,0.01748497,1.1615008,1.0711101,nan,2,2,0,0
11444000,11444000,47.397750803874345,8.545607400272171,488.08194,488.08652,0.01748497,1.1618212,1.0713881,nan,2,2,0,0
11452000,11452000,47.39775080434789,8.545607399207213,488.0818,488.08636,0.01748497,1.1621443,1.0708407,nan,2,2,0,0
11460000,11460000,47.39775080482087,8.545607398181865,488.08163,488.0862,0.01748497,1.16247,1.0711187,nan,2,2,0,0
11468000,11468000,47.397750805273084,8.545607397210297,488.0815,488.0861,0.01748497,1.1627983,1.0713983,nan,2,2,0,0
11476000,11476000,47.39775080570901,8.545607396268567,488.08136,488.08594,0.01748497,1.1631293,1.0716792,nan,2,2,0,0
11484000,11484000,47.39775080613092,8.545607395360745,488.0812,488.0858,0.01748497,1.163463,1.071962,nan,2,2,0,0
11492000,11492000,47.39775080652866,8.5456073944915,488.08105,488.08563,0.01748497,1.1637994,1.0722462,nan,2,2,0,0
11500000,11500000,47.39775080755201,8.545607393875393,488.08102,488.0867,0.01748497,1.1375164,1.0610332,nan,2,2,0,0
11508000,11508000,47.397750808561504,8.545607393251077,488.081,488.08667,0.01748497,1.1377562,1.0612574,nan,2,2,0,0
11516000,11516000,47.39775080956688,8.545607392634617,488.08093,488.0866,0.01748497,1.1379981,1.0608734,nan,2,2,0,0
11524000,11524000,47.39775081057179,8.5456073920293,488.08084,488.08652,0.01748497,1.1382421,1.0610981,nan,2,2,0,0
11532000,11532000,47.39775081155887,8.545607391429378,488.08078,488.08646,0.01748497,1.1384883,1.0613241,nan,2,2,0,0
11540000,11540000,47.39775081253301,8.545607390842294,488.08072,488.0864,0.01748497,1.1387367,1.0615515,nan,2,2,0,0
11548000,11548000,47.397750813499684,8.545607390269506,488.08063,488.0863,0.01748497,1.1389873,1.0617802,nan,2,2,0,0
11556000,11556000,47.397750814446646,8.545607389697837,488.08054,488.0862,0.01748497,1.13924,1.0620103,nan,2,2,0,0
11564000,11564000,47.39775081536882,8.545607389146785,488.08044,488.08612,0.01748497,1.139495,1.0622418,nan,2,2,0,0
11572000,11572000,47.397750816273664,8.545607388616908,488.08035,488.08603,0.01748497,1.1397523,1.0618455,nan,2,2,0,0
11580000,11580000,47.39775081716316,8.545607388104195,488.08023,488.0859,0.01748497,1.1400118,1.0620774,nan,2,2,0,0
11588000,11588000,47.3977508180304,8.54560738760022,488.08014,488.08582,0.01748497,1.1402735,1.0623107,nan,2,2,0,0
11596000,11596000,47.39775081889376,8.545607387121432,488.08002,488.0857,0.01748497,1.1405375,1.0625453,nan,2,2,0,0
11604000,11604000,47.39775081975623,8.545607386658935,488.0799,488.08557,0.01748497,1.1408038,1.0627812,nan,2,2,0,0
11612000,11612000,47.397750820614,8.545607386192183,488.07977,488.08545,0.01748497,1.1410724,1.0630186,nan,2,2,0,0
11620000,11620000,47.39775082146516,8.545607385722706,488.07965,488.08533,0.01748497,1.1413434,1.0626124,nan,2,2,0,0
11628000,11628000,47.39775082231202,8.545607385256249,488.07953,488.0852,0.01748497,1.1416167,1.0628501,nan,2,2,0,0
11636000,11636000,47.39775082315964,8.54560738479783,488.0794,488.08508,0.01748497,1.1418924,1.0630893,nan,2,2,0,0
11644000,11644000,47.39775082400888,8.545607384332113,488.07928,488.08496,0.01748497,1.1421704,1.0633297,nan,2,2,0,0
11652000,11652000,47.39775082484456,8.545607383872456,488.07916,488.08484,0.01748497,1.1424509,1.0635715,nan,2,2,0,0
11660000,11660000,47.397750825668076,8.545607383414499,488.079,488.0847,0.01748497,1.1427338,1.0638146,nan,2,2,0,0
11668000,11668000,47.397750826494566,8.545607382950225,488.0789,488.08456,0.01748497,1.1430191,1.0640591,nan,2,2,0,0
11676000,11676000,47.39775082731963,8.545607382475652,488.07874,488.0844,0.01748497,1.1433067,1.0643051,nan,2,2,0,0
11684000,11684000,47.39775082813204,8.545607382005484,488.07858,488.08426,0.01748497,1.143597,1.063881,nan,2,2,0,0
11692000,11692000,47.397750828927904,8.545607381544466,488.07846,488.08414,0.01748497,1.1438897,1.0641272,nan,2,2,0,0
11700000,11700000,47.397750829702275,8.545607381071283,488.0783,488.08398,0.01748497,1.1441848,1.0643747,nan,2,2,0,0
11708000,11708000,47.39775083046392,8.54560738057878,488.07816,488.08383,0.01748497,1.1444825,1.0646237,nan,2,2,0,0
11716000,11716000,47.397750831212754,8.545607380088367,488.078,488.08368,0.01748497,1.1447827,1.0648739,nan,2,2,0,0
11724000,11724000,47.39775083194204,8.54560737960574,488.07785,488.08353,0.01748497,1.1450855,1.0651256,nan,2,2,0,0
11732000,11732000,47.39775083265703,8.545607379138163,488.07767,488.08334,0.01748497,1.1453907,1.0653785,nan,2,2,0,0
11740000,11740000,47.39775083336156,8.545607378683869,488.0775,488.0832,0.01748497,1.1456985,1.0649391,nan,2,2,0,0
11748000,11748000,47.39775083405581,8.545607378244025,488.07736,488.08304,0.01748497,1.1460091,1.0651923,nan,2,2,0,0
11756000,11756000,47.39775083474142,8.545607377802552,488.07718,488.08286,0.01748497,1.1463223,1.0654469,nan,2,2,0,0
11764000,11764000,47.39775083541489,8.545607377344218,488.07703,488.0827,0.01748497,1.1466379,1.0657028,nan,2,2,0,0
11772000,11772000,47.397750836065896,8.545607376871196,488.07684,488.08252,0.01748497,1.1469563,1.06596,nan,2,2,0,0
11780000,11780000,47.397750836702606,8.54560737637964,488.07666,488.08234,0.01748497,1.1472774,1.0662187,nan,2,2,0,0
11788000,11788000,47.39775083732702,8.54560737589367,488.0765,488.08218,0.01748497,1.1476011,1.0664787,nan,2,2,0,0
11796000,11796000,47.397750837946795,8.545607375408572,488.07632,488.082,0.01748497,1.1479276,1.0667402,nan,2,2,0,0
11804000,11804000,47.39775083855876,8.545607374916212,488.07614,488.08182,0.01748497,1.1482569,1.06628,nan,2,2,0,0
11812000,11812000,47.39775083917015,8.54560737442564,488.076,488.08167,0.01748497,1.1485888,1.0665416,nan,2,2,0,0
11820000,11820000,47.39775083978135,8.545607373925472,488.0758,488.08148,0.01748497,1.1489235,1.0668043,nan,2,2,0,0
11828000,11828000,47.39775084039394,8.545607373427988,488.07565,488.08133,0.01748497,1.149261,1.0670685,nan,2,2,0,0
11836000,11836000,47.39775084099744,8.545607372933116,488.07547,488.08115,0.01748497,1.1496013,1.0673342,nan,2,2,0,0
11844000,11844000,47.397750841589826,8.545607372426216,488.07532,488.081,0.01748497,1.1499444,1.0676011,nan,2,2,0,0
11852000,11852000,47.397750842167355,8.545607371914226,488.07513,488.0808,0.01748497,1.1502904,1.0678694,nan,2,2,0,0
11860000,11860000,47.397750842737935,8.545607371422676,488.07495,488.08063,0.01748497,1.1506392,1.0673916,nan,2,2,0,0
11868000,11868000,47.39775084329537,8.545607370954542,488.07477,488.08044,0.01748497,1.1509908,1.06766,nan,2,2,0,0
11876000,11876000,47.397750843848584,8.545607370491743,488.0746,488.08026,0.01748497,1.1513455,1.0679295,nan,2,2,0,0
11884000,11884000,47.39775084439358,8.545607370026133,488.0744,488.08008,0.01748497,1.151703,1.0682006,nan,2,2,0,0
11892000,11892000,47.39775084492601,8.545607369569932,488.07422,488.0799,0.01748497,1.1520635,1.068473,nan,2,2,0,0
11900000,11900000,47.39775084461378,8.545607369510236,488.07428,488.08115,0.01748497,1.1282784,1.0582663,nan,2,2,0,0
11908000,11908000,47.39775084431557,8.545607369450828,488.07437,488.08124,0.01748497,1.1285356,1.0584855,nan,2,2,0,0
11916000,11916000,47.39775084403204,8.545607369385532,488.0744,488.08127,0.01748497,1.1287951,1.0587058,nan,2,2,0,0
11924000,11924000,47.397750843769025,8.545607369290437,488.0745,488.08136,0.01748497,1.129057,1.0583677,nan,2,2,0,0
11932000,11932000,47.397750843523525,8.545607369165088,488.07455,488.08142,0.01748497,1.1293212,1.0585884,nan,2,2,0,0
11940000,11940000,47.397750843294524,8.545607369015155,488.07462,488.08148,0.01748497,1.1295877,1.0588104,nan,2,2,0,0
11948000,11948000,47.397750843071805,8.545607368871245,488.07468,488.08154,0.01748497,1.1298565,1.0590335,nan,2,2,0,0
11956000,11956000,47.39775084284166,8.54560736871635,488.07474,488.0816,0.01748497,1.1301277,1.0592579,nan,2,2,0,0
11964000,11964000,47.397750842600004,8.545607368547477,488.07477,488.08163,0.01748497,1.1304013,1.0594834,nan,2,2,0,0
11972000,11972000,47.39775084235046,8.545607368379555,488.07483,488.0817,0.01748497,1.1306773,1.0597103,nan,2,2,0,0
11980000,11980000,47.39775084209745,8.54560736819998,488.07486,488.08173,0.01748497,1.1309557,1.0593592,nan,2,2,0,0
11988000,11988000,47.397750841846744,8.545607368003514,488.0749,488.08176,0.01748497,1.1312366,1.0595863,nan,2,2,0,0
11996000,11996000,47.397750841590025,8.545607367804514,488.0749,488.08176,0.01748497,1.1315198,1.0598146,nan,2,2,0,0
12004000,12004000,47.39775084133426,8.545607367598635,488.07492,488.0818,0.01748497,1.1318057,1.060044,nan,2,2,0,0
12012000,12012000,47.39775084108215,8.545607367391726,488.07495,488.08182,0.01748497,1.1320939,1.0602748,nan,2,2,0,0
12020000,12020000,47.39775084083413,8.545607367189218,488.07495,488.08182,0.01748497,1.1323847,1.0605067,nan,2,2,0,0
12028000,12028000,47.39775084060161,8.54560736699552,488.07495,488.08182,0.01748497,1.132678,1.0607399,nan,2,2,0,0
12036000,12036000,47.397750840388355,8.545607366792527,488.07495,488.08182,0.01748497,1.1329739,1.0609742,nan,2,2,0,0
12044000,12044000,47.39775084020106,8.54560736656601,488.07492,488.0818,0.01748497,1.1332723,1.0606062,nan,2,2,0,0
12052000,12052000,47.39775084003305,8.545607366323152,488.0749,488.08176,0.01748497,1.1335734,1.0608408,nan,2,2,0,0
12060000,12060000,47.39775083987683,8.545607366057249,488.07486,488.08173,0.01748497,1.1338769,1.0610766,nan,2,2,0,0
12068000,12068000,47.39775083972785,8.545607365777492,488.07483,488.0817,0.01748497,1.1341833,1.0613136,nan,2,2,0,0
12076000,12076000,47.39775083958395,8.545607365499643,488.0748,488.08167,0.01748497,1.1344922,1.0615519,nan,2,2,0,0
12084000,12084000,47.39775083944153,8.54560736521808,488.07477,488.08163,0.01748497,1.1348037,1.0617914,nan,2,2,0,0
12092000,12092000,47.39775083930271,8.545607364934229,488.0747,488.08157,0.01748497,1.135118,1.0620321,nan,2,2,0,0
12100000,12100000,47.39775083917244,8.545607364677439,488.07465,488.0815,0.01748497,1.1354349,1.0616493,nan,2,2,0,0
12108000,12108000,47.397750839051255,8.545607364448891,488.07455,488.08142,0.01748497,1.1357546,1.0618902,nan,2,2,0,0
12116000,12116000,47.3977508389299,8.545607364230849,488.0745,488.08136,0.01748497,1.1360769,1.0621322,nan,2,2,0,0
12124000,12124000,47.39775083880909,8.545607364020006,488.0744,488.08127,0.01748497,1.1364021,1.0623755,nan,2,2,0,0
12132000,12132000,47.39775083869211,8.54560736379895,488.07434,488.0812,0.01748497,1.1367301,1.06262,nan,2,2,0,0
12140000,12140000,47.397750838584926,8.545607363567722,488.07425,488.08112,0.01748497,1.1370609,1.0628657,nan,2,2,0,0
12148000,12148000,47.39775083848529,8.545607363334168,488.07416,488.08102,0.01748497,1.1373944,1.0631127,nan,2,2,0,0
12156000,12156000,47.39775083839007,8.54560736308896,488.07407,488.08093,0.01748497,1.1377308,1.0633609,nan,2,2,0,0
12164000,12164000,47.397750838302855,8.545607362828395,488.07397,488.08084,0.01748497,1.1380701,1.0629588,nan,2,2,0,0
12172000,12172000,47.3977508382264,8.545607362559196,488.07388,488.08075,0.01748497,1.1384122,1.063207,nan,2,2,0,0
12180000,12180000,47.39775083816695,8.545607362290113,488.0738,488.08066,0.01748497,1.1387573,1.0634564,nan,2,2,0,0
12188000,12188000,47.39775083812624,8.545607362012609,488.0737,488.08057,0.01748497,1.1391053,1.0637071,nan,2,2,0,0
12196000,12196000,47.39775083809593,8.545607361713612,488.0736,488.08047,0.01748497,1.1394563,1.0639591,nan,2,2,0,0
12204000,12204000,47.39775083806788,8.545607361396508,488.07352,488.08038,0.01748497,1.1398101,1.0642122,nan,2,2,0,0
12212000,12212000,47.39775083804184,8.54560736109122,488.0734,488.08026,0.01748497,1.1401669,1.0644667,nan,2,2,0,0
12220000,12220000,47.39775083804234,8.545607360790374,488.07336,488.08023,0.01748497,1.1405269,1.0640479,nan,2,2,0,0
12228000,12228000,47.397750838055984,8.545607360472651,488.07327,488.08014,0.01748497,1.1408896,1.0643022,nan,2,2,0,0
12236000,12236000,47.39775083807599,8.545607360151662,488.0732,488.08008,0.01748497,1.1412556,1.0645578,nan,2,2,0,0
12244000,12244000,47.39775083810202,8.545607359830264,488.07315,488.08002,0.01748497,1.1416247,1.0648147,nan,2,2,0,0
12252000,12252000,47.39775083813428,8.545607359504448,488.07306,488.07993,0.01748497,1.1419969,1.0650728,nan,2,2,0,0
12260000,12260000,47.39775083818193,8.545607359188068,488.073,488.07986,0.01748497,1.142372,1.065332,nan,2,2,0,0
12268000,12268000,47.39775083824216,8.545607358874188,488.0729,488.07977,0.01748497,1.1427504,1.0655926,nan,2,2,0,0
12276000,12276000,47.397750838307346,8.545607358565588,488.0728,488.07968,0.01748497,1.1431319,1.0658545,nan,2,2,0,0
12284000,12284000,47.3977508383772,8.545607358242695,488.0727,488.07956,0.01748497,1.1435167,1.065414,nan,2,2,0,0
12292000,12292000,47.39775083846119,8.545607357910734,488.0726,488.07947,0.01748497,1.1439046,1.0656755,nan,2,2,0,0
12300000,12300000,47.397750838260905,8.545607358096442,488.0727,488.0804,0.01748497,1.1215065,1.056219,nan,2,2,0,0
12308000,12308000,47.39775083806384,8.54560735827922,488.07275,488.08047,0.01748497,1.1217823,1.0564326,nan,2,2,0,0
12316000,12316000,47.39775083786515,8.545607358436504,488.07285,488.08057,0.01748497,1.1220605,1.0566473,nan,2,2,0,0
12324000,12324000,47.39775083767785,8.545607358587068,488.0729,488.08063,0.01748497,1.1223412,1.0568632,nan,2,2,0,0
12332000,12332000,47.39775083750319,8.545607358737566,488.07297,488.0807,0.01748497,1.1226243,1.0570801,nan,2,2,0,0
12340000,12340000,47.39775083733451,8.545607358867747,488.07306,488.08078,0.01748497,1.12291,1.0567691,nan,2,2,0,0
12348000,12348000,47.39775083717111,8.54560735898736,488.07315,488.08087,0.01748497,1.1231983,1.0569863,nan,2,2,0,0
12356000,12356000,47.39775083701984,8.545607359100712,488.0732,488.08093,0.01748497,1.123489,1.0572046,nan,2,2,0,0
12364000,12364000,47.397750836870564,8.545607359199389,488.0733,488.08102,0.01748497,1.1237823,1.057424,nan,2,2,0,0
12372000,12372000,47.397750836732826,8.54560735927295,488.07336,488.0811,0.01748497,1.1240782,1.0576445,nan,2,2,0,0
12380000,12380000,47.397750836607536,8.545607359346974,488.0734,488.08112,0.01748497,1.1243767,1.0578661,nan,2,2,0,0
12388000,12388000,47.39775083649317,8.545607359418794,488.07346,488.08118,0.01748497,1.1246778,1.0580888,nan,2,2,0,0
12396000,12396000,47.39775083639656,8.54560735948827,488.0735,488.0812,0.01748497,1.1249815,1.0583127,nan,2,2,0,0
12404000,12404000,47.39775083632612,8.545607359569123,488.07352,488.08124,0.01748497,1.125288,1.0579855,nan,2,2,0,0
12412000,12412000,47.397750836273566,8.545607359646562,488.07355,488.08127,0.01748497,1.125597,1.0582095,nan,2,2,0,0
12420000,12420000,47.39775083622781,8.545607359706759,488.07358,488.0813,0.01748497,1.1259089,1.0584346,nan,2,2,0,0
12428000,12428000,47.397750836192195,8.545607359745494,488.07358,488.0813,0.01748497,1.1262233,1.0586609,nan,2,2,0,0
12436000,12436000,47.397750836163056,8.545607359758034,488.07358,488.0813,0.01748497,1.1265407,1.0588882,nan,2,2,0,0
12444000,12444000,47.39775083613289,8.545607359760762,488.07358,488.0813,0.01748497,1.1268606,1.0591167,nan,2,2,0,0
12452000,12452000,47.39775083611014,8.545607359760979,488.07358,488.0813,0.01748497,1.1271834,1.0593463,nan,2,2,0,0
12460000,12460000,47.39775083609242,8.545607359762162,488.0736,488.08133,0.01748497,1.1275091,1.0590053,nan,2,2,0,0
12468000,12468000,47.39775083607472,8.545607359747807,488.07364,488.08136,0.01748497,1.1278375,1.059235,nan,2,2,0,0
12476000,12476000,47.39775083605795,8.545607359725388,488.07367,488.0814,0.01748497,1.1281688,1.0594658,nan,2,2,0,0
12484000,12484000,47.39775083603932,8.5456073597003,488.07367,488.0814,0.01748497,1.1285028,1.0596976,nan,2,2,0,0
12492000,12492000,47.397750836023015,8.545607359688837,488.0737,488.08142,0.01748497,1.12884,1.0599307,nan,2,2,0,0
12500000,12500000,47.397750835999034,8.545607359677051,488.0737,488.08142,0.01748497,1.12918,1.0601649,nan,2,2,0,0
12508000,12508000,47.39775083596452,8.545607359645047,488.07367,488.0814,0.01748497,1.1295228,1.0604002,nan,2,2,0,0
12516000,12516000,47.39775083592698,8.545607359599154,488.07367,488.0814,0.01748497,1.1298686,1.0606366,nan,2,2,0,0
12524000,12524000,47.39775083589759,8.545607359540863,488.07364,488.08136,0.01748497,1.1302174,1.0602776,nan,2,2,0,0
12532000,12532000,47.39775083586943,8.545607359497966,488.0736,488.08133,0.01748497,1.1305691,1.060514,nan,2,2,0,0
12540000,12540000,47.39775083582557,8.54560735947409,488.07355,488.08127,0.01748497,1.130924,1.0607516,nan,2,2,0,0
12548000,12548000,47.39775083575846,8.545607359452214,488.07352,488.08124,0.01748497,1.1312819,1.0609902,nan,2,2,0,0
12556000,12556000,47.397750835676746,8.545607359438993,488.07346,488.08118,0.01748497,1.1316427,1.0612301,nan,2,2,0,0
12564000,12564000,47.39775083559075,8.545607359424707,488.0734,488.08112,0.01748497,1.1320066,1.0614711,nan,2,2,0,0
12572000,12572000,47.397750835503466,8.545607359391635,488.07333,488.08105,0.01748497,1.1323737,1.0617132,nan,2,2,0,0
12580000,12580000,47.397750835412594,8.545607359355152,488.0733,488.08102,0.01748497,1.1327438,1.0613384,nan,2,2,0,0
12588000,12588000,47.39775083530729,8.545607359321453,488.07324,488.08096,0.01748497,1.1331172,1.0615805,nan,2,2,0,0
12596000,12596000,47.39775083519752,8.545607359281314,488.07318,488.0809,0.01748497,1.1334938,1.0618237,nan,2,2,0,0
12604000,12604000,47.39775083509014,8.545607359234277,488.07312,488.08084,0.01748497,1.1338735,1.0620681,nan,2,2,0,0
12612000,12612000,47.39775083499136,8.545607359183204,488.07306,488.08078,0.01748497,1.1342564,1.0623136,nan,2,2,0,0
12620000,12620000,47.39775083489407,8.545607359151157,488.07297,488.0807,0.01748497,1.1346425,1.0625602,nan,2,2,0,0
12628000,12628000,47.397750834798586,8.545607359126683,488.0729,488.08063,0.01748497,1.1350319,1.062808,nan,2,2,0,0
12636000,12636000,47.39775083469782,8.545607359080703,488.0728,488.08054,0.01748497,1.1354245,1.063057,nan,2,2,0,0
12644000,12644000,47.3977508345928,8.545607359003409,488.07275,488.08047,0.01748497,1.1358205,1.0626619,nan,2,2,0,0
12652000,12652000,47.397750834476895,8.545607358907223,488.0727,488.0804,0.01748497,1.1362199,1.0629107,nan,2,2,0,0
12660000,12660000,47.39775083434727,8.54560735881292,488.07263,488.08035,0.01748497,1.1366225,1.0631607,nan,2,2,0,0
12668000,12668000,47.39775083421175,8.545607358725526,488.07254,488.08026,0.01748497,1.1370286,1.0634117,nan,2,2,0,0
12676000,12676000,47.39775083406826,8.54560735864312,488.07248,488.0802,0.01748497,1.1374379,1.063664,nan,2,2,0,0
12684000,12684000,47.39775083390879,8.545607358566418,488.0724,488.0801,0.01748497,1.1378509,1.0639173,nan,2,2,0,0
12692000,12692000,47.39775083374102,8.545607358505196,488.0723,488.08002,0.01748497,1.1382672,1.0641719,nan,2,2,0,0
12700000,12700000,47.397750832641776,8.545607359951386,488.07254,488.08118,0.01748497,1.1165379,1.054634,nan,2,2,0,0
12708000,12708000,47.39775083156042,8.545607361386423,488.07278,488.08142,0.01748497,1.1168323,1.0548421,nan,2,2,0,0
12716000,12716000,47.39775083049128,8.545607362811852,488.07303,488.08167,0.01748497,1.1171291,1.0550512,nan,2,2,0,0
12724000,12724000,47.39775082942868,8.54560736423229,488.07324,488.08188,0.01748497,1.1174288,1.0552614,nan,2,2,0,0
12732000,12732000,47.39775082838073,8.545607365624218,488.07346,488.0821,0.01748497,1.117731,1.0554726,nan,2,2,0,0
12740000,12740000,47.39775082735435,8.545607366994183,488.07367,488.0823,0.01748497,1.1180358,1.0556848,nan,2,2,0,0
12748000,12748000,47.39775082634084,8.545607368339574,488.07385,488.0825,0.01748497,1.1183432,1.0558981,nan,2,2,0,0
12756000,12756000,47.397750825331265,8.545607369671549,488.07404,488.08267,0.01748497,1.1186535,1.0561123,nan,2,2,0,0
12764000,12764000,47.397750824324625,8.54560737096645,488.07422,488.08286,0.01748497,1.1189665,1.0558164,nan,2,2,0,0
12772000,12772000,47.39775082331185,8.545607372227284,488.0744,488.08304,0.01748497,1.1192821,1.0560309,nan,2,2,0,0
12780000,12780000,47.39775082228573,8.545607373454505,488.0746,488.08322,0.01748497,1.1196007,1.0562464,nan,2,2,0,0
12788000,12788000,47.397750821267444,8.545607374659577,488.07474,488.08337,0.01748497,1.1199219,1.0564628,nan,2,2,0,0
12796000,12796000,47.39775082025535,8.54560737584281,488.07492,488.08356,0.01748497,1.120246,1.0566803,nan,2,2,0,0
12804000,12804000,47.3977508192402,8.545607376991384,488.07504,488.08368,0.01748497,1.1205728,1.056899,nan,2,2,0,0
12812000,12812000,47.397750818222846,8.54560737811292,488.0752,488.08383,0.01748497,1.1209027,1.0571185,nan,2,2,0,0
12820000,12820000,47.39775081719365,8.545607379197548,488.07532,488.08395,0.01748497,1.1212351,1.0568097,nan,2,2,0,0
12828000,12828000,47.397750816169655,8.54560738026045,488.0754,488.08405,0.01748497,1.1215707,1.0570294,nan,2,2,0,0
12836000,12836000,47.397750815177695,8.545607381305002,488.07553,488.08417,0.01748497,1.121909,1.05725,nan,2,2,0,0
