timestamp,timestamp_sample,gps_hvel[0],gps_hvel[1],gps_vvel,gps_hpos[0],gps_hpos[1],gps_vpos,ev_hvel[0],ev_hvel[1],ev_vvel,ev_hpos[0],ev_hpos[1],ev_vpos,rng_vpos,baro_vpos,aux_hvel[0],aux_hvel[1],aux_vvel,flow[0],flow[1],terr_flow[0],terr_flow[1],heading,mag_field[0],mag_field[1],mag_field[2],gravity[0],gravity[1],gravity[2],drag[0],drag[1],airspeed,beta,hagl,hagl_rate
3340000,3260000,0.0,0.0,0.0,0.0,0.0,0.0,0.0,0.0,0.0,0.0,0.0,0.0,0.0,112.42326,0.0,0.0,nan,0.0,0.0,0.0,0.0,0.0,0.0,0.0,0.0,1.9801189,1.9799548,1.000877,0.0,0.0,0.0,0.0,0.0,0.0
3348000,3268000,0.0,0.0,0.0,0.0,0.0,0.0,0.0,0.0,0.0,0.0,0.0,0.0,0.0,112.42326,0.0,0.0,nan,0.0,0.0,0.0,0.0,0.0,0.0,0.0,0.0,1.9829065,1.9826866,1.000882,0.0,0.0,0.0,0.0,0.0,0.0
3356000,3276000,0.0,0.0,0.0,0.0,0.0,0.0,0.0,0.0,0.0,0.0,0.0,0.0,0.0,112.42326,0.0,0.0,nan,0.0,0.0,0.0,0.0,0.0,0.0,0.0,0.0,1.9849887,1.9847642,1.000886,0.0,0.0,0.0,0.0,0.0,0.0
3364000,3284000,0.0,0.0,0.0,0.0,0.0,0.0,0.0,0.0,0.0,0.0,0.0,0.0,0.0,112.42326,0.0,0.0,nan,0.0,0.0,0.0,0.0,0.0,0.0,0.0,0.0,1.9884742,1.9876528,1.0173968,0.0,0.0,0.0,0.0,0.0,0.0
3372000,3292000,0.0,0.0,0.0,0.0,0.0,0.0,0.0,0.0,0.0,0.0,0.0,0.0,0.0,112.42326,0.0,0.0,nan,0.0,0.0,0.0,0.0,0.0,0.0,0.0,0.0,1.9898161,1.9887861,1.0153906,0.0,0.0,0.0,0.0,0.0,0.0
3380000,3300000,0.0,0.0,0.0,0.0,0.0,0.0,0.0,0.0,0.0,0.0,0.0,0.0,0.0,112.42326,0.0,0.0,nan,0.0,0.0,0.0,0.0,0.0,0.0,0.0,0.0,1.9915833,1.9903878,1.0138267,0.0,0.0,0.0,0.0,0.0,0.0
3388000,3308000,0.0,0.0,0.0,0.0,0.0,0.0,0.0,0.0,0.0,0.0,0.0,0.0,0.0,112.42326,0.0,0.0,nan,0.0,0.0,0.0,0.0,0.0,0.0,0.0,0.0,1.9937098,1.9923792,1.0125806,0.0,0.0,0.0,0.0,0.0,0.0
3396000,3316000,0.0,0.0,0.0,0.0,0.0,0.0,0.0,0.0,0.0,0.0,0.0,0.0,0.0,112.42326,0.0,0.0,nan,0.0,0.0,0.0,0.0,0.0,0.0,0.0,0.0,1.9961534,1.9947124,1.0115755,0.0,0.0,0.0,0.0,0.0,0.0
3404000,3324000,0.0,0.0,0.0,0.0,0.0,0.0,0.0,0.0,0.0,0.0,0.0,0.0,0.0,112.25,0.0,0.0,nan,0.0,0.0,0.0,0.0,0.0,0.0,0.0,0.0,1.998887,1.9973526,1.0107621,0.0,0.0,0.0,0.0,0.0,0.0
3412000,3332000,0.0,0.0,0.0,0.0,0.0,0.0,0.0,0.0,0.0,0.0,0.0,0.0,0.0,112.25,0.0,0.0,nan,0.0,0.0,0.0,0.0,0.0,0.0,0.0,0.0,2.0018914,2.000278,1.0101024,0.0,0.0,0.0,0.0,0.0,0.0
3420000,3340000,0.0,0.0,0.0,0.0,0.0,0.0,0.0,0.0,0.0,0.0,0.0,0.0,0.0,112.25,0.0,0.0,nan,0.0,0.0,0.0,0.0,0.0,0.0,0.0,0.0,2.0051513,2.0034704,1.0095725,0.0,0.0,0.0,0.0,0.0,0.0
3428000,3348000,0.0,0.0,0.0,0.0,0.0,0.0,0.0,0.0,0.0,0.0,0.0,0.0,0.0,112.25,0.0,0.0,nan,0.0,0.0,0.0,0.0,0.0,0.0,0.0,0.0,2.008655,2.006918,1.0091484,0.0,0.0,0.0,0.0,0.0,0.0
3436000,3356000,0.0,0.0,0.0,0.0,0.0,0.0,0.0,0.0,0.0,0.0,0.0,0.0,0.0,112.25,0.0,0.0,nan,0.0,0.0,0.0,0.0,0.0,0.0,0.0,0.0,2.012393,2.0106084,1.0088164,0.0,0.0,0.0,0.0,0.0,0.0
3444000,3364000,0.0,0.0,0.0,0.0,0.0,0.0,0.0,0.0,0.0,0.0,0.0,0.0,0.0,112.25,0.0,0.0,nan,0.0,0.0,0.0,0.0,0.0,0.0,0.0,0.0,2.016357,2.014534,1.0085607,0.0,0.0,0.0,0.0,0.0,0.0
3452000,3372000,0.0,0.0,0.0,0.0,0.0,0.0,0.0,0.0,0.0,0.0,0.0,0.0,0.0,112.25,0.0,0.0,nan,0.0,0.0,0.0,0.0,0.0,0.0,0.0,0.0,2.0205398,2.0186868,1.008366,0.0,0.0,0.0,0.0,0.0,0.0
3460000,3380000,0.0,0.0,0.0,0.0,0.0,0.0,0.0,0.0,0.0,0.0,0.0,0.0,0.0,112.25,0.0,0.0,nan,0.0,0.0,0.0,0.0,0.0,0.0,0.0,0.0,2.0249352,2.0230582,1.0082245,0.0,0.0,0.0,0.0,0.0,0.0
3468000,3388000,0.0,0.0,0.0,0.0,0.0,0.0,0.0,0.0,0.0,0.0,0.0,0.0,0.0,112.25,0.0,0.0,nan,0.0,0.0,0.0,0.0,0.0,0.0,0.0,0.0,2.0295372,2.027642,1.008127,0.0,0.0,0.0,0.0,0.0,0.0
3476000,3396000,0.0,0.0,0.0,0.0,0.0,0.0,0.0,0.0,0.0,0.0,0.0,0.0,0.0,112.25,0.0,0.0,nan,0.0,0.0,0.0,0.0,0.0,0.0,0.0,0.0,2.034343,2.032436,1.0080595,0.0,0.0,0.0,0.0,0.0,0.0
3484000,3404000,0.0,0.0,0.0,0.0,0.0,0.0,0.0,0.0,0.0,0.0,0.0,0.0,0.0,112.25,0.0,0.0,nan,0.0,0.0,0.0,0.0,0.0,0.0,0.0,0.0,2.035069,2.033452,1.0079507,0.0,0.0,0.0,0.0,0.0,0.0
3492000,3412000,0.0,0.0,0.0,0.0,0.0,0.0,0.0,0.0,0.0,0.0,0.0,0.0,0.0,112.25,0.0,0.0,nan,0.0,0.0,0.0,0.0,0.0,0.0,0.0,0.0,2.0367656,2.0354052,1.0078814,0.0,0.0,0.0,0.0,0.0,0.0
3500000,3420000,0.11354774,0.113604054,0.20417522,101.00013,101.00012,101.0,0.0,0.0,0.0,0.0,0.0,0.0,0.0,112.25,0.0,0.0,nan,0.0,0.0,0.0,0.0,0.0,0.0,0.0,0.0,2.0393002,2.0381799,1.0078386,0.0,0.0,0.0,0.0,0.0,0.0
3508000,3428000,0.11354774,0.113604054,0.20417522,101.00013,101.00012,101.0,0.0,0.0,0.0,0.0,0.0,0.0,0.0,112.25,0.0,0.0,nan,0.0,0.0,0.0,0.0,0.0,0.0,0.0,0.0,2.042574,2.041671,1.0078169,0.0,0.0,0.0,0.0,0.0,0.0
3516000,3436000,0.11354774,0.113604054,0.20417522,101.00013,101.00012,101.0,0.0,0.0,0.0,0.0,0.0,0.0,0.0,112.25,0.0,0.0,nan,0.0,0.0,0.0,0.0,0.0,0.0,0.0,0.0,2.046494,2.0457873,1.0078106,0.0,0.0,0.0,0.0,0.0,0.0
3524000,3444000,0.11354774,0.113604054,0.20417522,101.00013,101.00012,101.0,0.0,0.0,0.0,0.0,0.0,0.0,0.0,112.25,0.0,0.0,nan,0.0,0.0,0.0,0.0,0.0,0.0,0.0,0.0,2.0509737,2.0504563,1.007812,0.0,0.0,0.0,0.0,0.0,0.0
3532000,3452000,0.11354774,0.113604054,0.20417522,101.00013,101.00012,101.0,0.0,0.0,0.0,0.0,0.0,0.0,0.0,112.25,0.0,0.0,nan,0.0,0.0,0.0,0.0,0.0,0.0,0.0,0.0,2.0559514,2.0556068,1.0078198,0.0,0.0,0.0,0.0,0.0,0.0
3540000,3460000,0.11354774,0.113604054,0.20417522,101.00013,101.00012,101.0,0.0,0.0,0.0,0.0,0.0,0.0,0.0,112.25,0.0,0.0,nan,0.0,0.0,0.0,0.0,0.0,0.0,0.0,0.0,2.0613687,2.0611892,1.0078281,0.0,0.0,0.0,0.0,0.0,0.0
3548000,3468000,0.11354774,0.113604054,0.20417522,101.00013,101.00012,101.0,0.0,0.0,0.0,0.0,0.0,0.0,0.0,112.25,0.0,0.0,nan,0.0,0.0,0.0,0.0,0.0,0.0,0.0,0.0,2.0671773,2.0671523,1.0078377,0.0,0.0,0.0,0.0,0.0,0.0
3556000,3476000,0.11354774,0.113604054,0.20417522,101.00013,101.00012,101.0,0.0,0.0,0.0,0.0,0.0,0.0,0.0,112.25,0.0,0.0,nan,0.0,0.0,0.0,0.0,0.0,0.0,0.0,0.0,2.0733352,2.0734558,1.0078472,0.0,0.0,0.0,0.0,0.0,0.0
3564000,3484000,0.11354774,0.113604054,0.20417522,101.00013,101.00012,101.0,0.0,0.0,0.0,0.0,0.0,0.0,0.0,112.25,0.0,0.0,nan,0.0,0.0,0.0,0.0,0.0,0.0,0.0,0.0,1.080209,1.0797825,1.0061868,0.0,0.0,0.0,0.0,0.0,0.0
3572000,3492000,0.11354774,0.113604054,0.20417522,101.00013,101.00012,101.0,0.0,0.0,0.0,0.0,0.0,0.0,0.0,112.25,0.0,0.0,nan,0.0,0.0,0.0,0.0,0.0,0.0,0.0,0.0,1.0831144,1.0826889,1.0061891,0.0,0.0,0.0,0.0,0.0,0.0
3580000,3500000,0.11354774,0.113604054,0.20417522,101.00013,101.00012,101.0,0.0,0.0,0.0,0.0,0.0,0.0,0.0,62.249985,0.0,0.0,nan,0.0,0.0,0.0,0.0,0.10012668,0.0,0.0,0.0,1.0862002,1.0857769,1.0061947,0.0,0.0,0.0,0.0,0.0,0.0
3588000,3508000,0.11354774,0.113604054,0.20417522,101.00013,101.00012,101.0,0.0,0.0,0.0,0.0,0.0,0.0,0.0,62.249985,0.0,0.0,nan,0.0,0.0,0.0,0.0,0.10012668,0.0,0.0,0.0,1.086293,1.0858697,1.0061948,0.0,0.0,0.0,0.0,0.0,0.0
3596000,3516000,0.11354774,0.113604054,0.20417522,101.00013,101.00012,101.0,0.0,0.0,0.0,0.0,0.0,0.0,0.0,62.249985,0.0,0.0,nan,0.0,0.0,0.0,0.0,0.10012668,0.0,0.0,0.0,1.0865667,1.0861435,1.0061954,0.0,0.0,0.0,0.0,0.0,0.0
3604000,3524000,0.11354774,0.113604054,0.20417522,101.00013,101.00012,101.0,0.0,0.0,0.0,0.0,0.0,0.0,0.0,62.249985,0.0,0.0,nan,0.0,0.0,0.0,0.0,0.10012668,0.0,0.0,0.0,1.0870217,1.0865986,1.0061959,0.0,0.0,0.0,0.0,0.0,0.0
3612000,3532000,0.11354774,0.113604054,0.20417522,101.00013,101.00012,101.0,0.0,0.0,0.0,0.0,0.0,0.0,0.0,62.249985,0.0,0.0,nan,0.0,0.0,0.0,0.0,0.10012668,0.0,0.0,0.0,1.0876582,1.0872352,1.0061965,0.0,0.0,0.0,0.0,0.0,0.0
3620000,3540000,0.11354774,0.113604054,0.20417522,101.00013,101.00012,101.0,0.0,0.0,0.0,0.0,0.0,0.0,0.0,62.249985,0.0,0.0,nan,0.0,0.0,0.0,0.0,0.10012668,0.0,0.0,0.0,1.0884757,1.0880529,1.0061972,0.0,0.0,0.0,0.0,0.0,0.0
3628000,3548000,0.11354774,0.113604054,0.20417522,101.00013,101.00012,101.0,0.0,0.0,0.0,0.0,0.0,0.0,0.0,62.249985,0.0,0.0,nan,0.0,0.0,0.0,0.0,0.10012668,0.0,0.0,0.0,1.0894746,1.0890521,1.0061983,0.0,0.0,0.0,0.0,0.0,0.0
3636000,3556000,0.11354774,0.113604054,0.20417522,101.00013,101.00012,101.0,0.0,0.0,0.0,0.0,0.0,0.0,0.0,62.249985,0.0,0.0,nan,0.0,0.0,0.0,0.0,0.10012668,0.0,0.0,0.0,1.0906547,1.0902325,1.0061995,0.0,0.0,0.0,0.0,0.0,0.0
3644000,3564000,0.11354774,0.113604054,0.20417522,101.00013,101.00012,101.0,0.0,0.0,0.0,0.0,0.0,0.0,0.0,62.249985,0.0,0.0,nan,0.0,0.0,0.0,0.0,0.10012668,0.0,0.0,0.0,1.0920161,1.091594,1.006201,0.0,0.0,0.0,0.0,0.0,0.0
3652000,3572000,0.11354774,0.113604054,0.20417522,101.00013,101.00012,101.0,0.0,0.0,0.0,0.0,0.0,0.0,0.0,62.249985,0.0,0.0,nan,0.0,0.0,0.0,0.0,0.09912683,0.0,0.0,0.0,1.0935588,1.0931369,1.0062013,0.0,0.0,0.0,0.0,0.0,0.0
3660000,3580000,0.11354774,0.113604054,0.20417522,101.00013,101.00012,101.0,0.0,0.0,0.0,0.0,0.0,0.0,0.0,62.249985,0.0,0.0,nan,0.0,0.0,0.0,0.0,0.09912683,0.0,0.0,0.0,1.0952827,1.0948611,1.006203,0.0,0.0,0.0,0.0,0.0,0.0
3668000,3588000,0.11354774,0.113604054,0.20417522,101.00013,101.00012,101.0,0.0,0.0,0.0,0.0,0.0,0.0,0.0,62.249985,0.0,0.0,nan,0.0,0.0,0.0,0.0,0.09912683,0.0,0.0,0.0,1.0971879,1.0967667,1.006205,0.0,0.0,0.0,0.0,0.0,0.0
3676000,3596000,0.11354774,0.113604054,0.20417522,101.00013,101.00012,101.0,0.0,0.0,0.0,0.0,0.0,0.0,0.0,62.249985,0.0,0.0,nan,0.0,0.0,0.0,0.0,0.09912683,0.0,0.0,0.0,1.0992743,1.0988535,1.0062071,0.0,0.0,0.0,0.0,0.0,0.0
3684000,3604000,0.11354774,0.113604054,0.20417522,101.00013,101.00012,101.0,0.0,0.0,0.0,0.0,0.0,0.0,0.0,62.249985,0.0,0.0,nan,0.0,0.0,0.0,0.0,0.09912683,0.0,0.0,0.0,1.1015421,1.1011217,1.0062093,0.0,0.0,0.0,0.0,0.0,0.0
3692000,3612000,0.11354774,0.113604054,0.20417522,101.00013,101.00012,101.0,0.0,0.0,0.0,0.0,0.0,0.0,0.0,62.249985,0.0,0.0,nan,0.0,0.0,0.0,0.0,0.09912683,0.0,0.0,0.0,1.103991,1.1035712,1.0062118,0.0,0.0,0.0,0.0,0.0,0.0
3700000,3620000,0.11354774,0.113604054,0.20417522,101.00013,101.00012,101.0,0.0,0.0,0.0,0.0,0.0,0.0,0.0,62.249985,0.0,0.0,nan,0.0,0.0,0.0,0.0,0.09912683,0.0,0.0,0.0,1.1066213,1.1062019,1.0062143,0.0,0.0,0.0,0.0,0.0,0.0
3708000,3628000,0.11354774,0.113604054,0.20417522,101.00013,101.00012,101.0,0.0,0.0,0.0,0.0,0.0,0.0,0.0,62.249985,0.0,0.0,nan,0.0,0.0,0.0,0.0,0.09912683,0.0,0.0,0.0,1.1094328,1.1090142,1.0062168,0.0,0.0,0.0,0.0,0.0,0.0
3716000,3636000,0.11354774,0.113604054,0.20417522,101.00013,101.00012,101.0,0.0,0.0,0.0,0.0,0.0,0.0,0.0,62.249985,0.0,0.0,nan,0.0,0.0,0.0,0.0,0.09912683,0.0,0.0,0.0,1.1124257,1.1120074,1.0062196,0.0,0.0,0.0,0.0,0.0,0.0
3724000,3644000,0.11354774,0.113604054,0.20417522,101.00013,101.00012,101.0,0.0,0.0,0.0,0.0,0.0,0.0,0.0,62.249985,0.0,0.0,nan,0.0,0.0,0.0,0.0,0.09835482,0.0,0.0,0.0,1.1155996,1.1151822,1.0062227,0.0,0.0,0.0,0.0,0.0,0.0
3732000,3652000,0.11354774,0.113604054,0.20417522,101.00013,101.00012,101.0,0.0,0.0,0.0,0.0,0.0,0.0,0.0,62.249985,0.0,0.0,nan,0.0,0.0,0.0,0.0,0.09835482,0.0,0.0,0.0,1.118955,1.118538,1.0062258,0.0,0.0,0.0,0.0,0.0,0.0
3740000,3660000,0.11354774,0.113604054,0.20417522,101.00013,101.00012,101.0,0.0,0.0,0.0,0.0,0.0,0.0,0.0,62.249985,0.0,0.0,nan,0.0,0.0,0.0,0.0,0.09835482,0.0,0.0,0.0,1.1149706,1.1145809,1.0062196,0.0,0.0,0.0,0.0,0.0,0.0
3748000,3668000,0.11354774,0.113604054,0.20417522,101.00013,101.00012,101.0,0.0,0.0,0.0,0.0,0.0,0.0,0.0,62.249985,0.0,0.0,nan,0.0,0.0,0.0,0.0,0.09835482,0.0,0.0,0.0,1.1185712,1.1181828,1.0062231,0.0,0.0,0.0,0.0,0.0,0.0
3756000,3676000,0.11354774,0.113604054,0.20417522,101.00013,101.00012,101.0,0.0,0.0,0.0,0.0,0.0,0.0,0.0,62.249985,0.0,0.0,nan,0.0,0.0,0.0,0.0,0.09835482,0.0,0.0,0.0,1.122352,1.121965,1.0062269,0.0,0.0,0.0,0.0,0.0,0.0
3764000,3684000,0.11354774,0.113604054,0.20417522,101.00013,101.00012,101.0,0.0,0.0,0.0,0.0,0.0,0.0,0.0,45.58333,0.0,0.0,nan,0.0,0.0,0.0,0.0,0.09835482,0.0,0.0,0.0,1.1263132,1.1259278,1.0062307,0.0,0.0,0.0,0.0,0.0,0.0
3772000,3692000,0.11354774,0.113604054,0.20417522,101.00013,101.00012,101.0,0.0,0.0,0.0,0.0,0.0,0.0,0.0,45.58333,0.0,0.0,nan,0.0,0.0,0.0,0.0,0.09835482,0.0,0.0,0.0,1.1231245,1.1227738,1.0062257,0.0,0.0,0.0,0.0,0.0,0.0
3780000,3700000,0.11354774,0.113604054,0.20417522,101.00013,101.00012,101.0,0.0,0.0,0.0,0.0,0.0,0.0,0.0,45.58333,0.0,0.0,nan,0.0,0.0,0.0,0.0,0.09835482,0.0,0.0,0.0,1.127304,1.126955,1.0062299,0.0,0.0,0.0,0.0,0.0,0.0
3788000,3708000,0.11354774,0.113604054,0.20417522,101.00013,101.00012,101.0,0.0,0.0,0.0,0.0,0.0,0.0,0.0,45.58333,0.0,0.0,nan,0.0,0.0,0.0,0.0,0.09835482,0.0,0.0,0.0,1.1316625,1.1313154,1.0062342,0.0,0.0,0.0,0.0,0.0,0.0
3796000,3716000,0.11354774,0.113604054,0.20417522,101.00013,101.00012,101.0,0.0,0.0,0.0,0.0,0.0,0.0,0.0,45.58333,0.0,0.0,nan,0.0,0.0,0.0,0.0,0.097753905,0.0,0.0,0.0,1.1361998,1.1358548,1.0062382,0.0,0.0,0.0,0.0,0.0,0.0
3804000,3724000,0.11354774,0.113604054,0.20417522,101.00013,101.00012,101.0,0.0,0.0,0.0,0.0,0.0,0.0,0.0,45.58333,0.0,0.0,nan,0.0,0.0,0.0,0.0,0.097753905,0.0,0.0,0.0,1.1409161,1.1405731,1.0062428,0.0,0.0,0.0,0.0,0.0,0.0
3812000,3732000,0.11354774,0.113604054,0.20417522,101.00013,101.00012,101.0,0.0,0.0,0.0,0.0,0.0,0.0,0.0,45.58333,0.0,0.0,nan,0.0,0.0,0.0,0.0,0.097753905,0.0,0.0,0.0,1.1458114,1.1454707,1.0062473,0.0,0.0,0.0,0.0,0.0,0.0
3820000,3740000,0.11354774,0.113604054,0.20417522,101.00013,101.00012,101.0,0.0,0.0,0.0,0.0,0.0,0.0,0.0,45.58333,0.0,0.0,nan,0.0,0.0,0.0,0.0,0.097753905,0.0,0.0,0.0,1.1508857,1.1505469,1.0062526,0.0,0.0,0.0,0.0,0.0,0.0
3828000,3748000,0.11354774,0.113604054,0.20417522,101.00013,101.00012,101.0,0.0,0.0,0.0,0.0,0.0,0.0,0.0,45.58333,0.0,0.0,nan,0.0,0.0,0.0,0.0,0.097753905,0.0,0.0,0.0,1.1561389,1.1558025,1.0062575,0.0,0.0,0.0,0.0,0.0,0.0
3836000,3756000,0.11354774,0.113604054,0.20417522,101.00013,101.00012,101.0,0.0,0.0,0.0,0.0,0.0,0.0,0.0,45.58333,0.0,0.0,nan,0.0,0.0,0.0,0.0,0.097753905,0.0,0.0,0.0,1.1615709,1.161237,1.0062629,0.0,0.0,0.0,0.0,0.0,0.0
3844000,3764000,0.11354774,0.113604054,0.20417522,101.00013,101.00012,101.0,0.0,0.0,0.0,0.0,0.0,0.0,0.0,45.58333,0.0,0.0,nan,0.0,0.0,0.0,0.0,0.097753905,0.0,0.0,0.0,1.1671821,1.1668508,1.0062683,0.0,0.0,0.0,0.0,0.0,0.0
3852000,3772000,0.11354774,0.113604054,0.20417522,101.00013,101.00012,101.0,0.0,0.0,0.0,0.0,0.0,0.0,0.0,45.58333,0.0,0.0,nan,0.0,0.0,0.0,0.0,0.097753905,0.0,0.0,0.0,1.172972,1.1726433,1.0062741,0.0,0.0,0.0,0.0,0.0,0.0
3860000,3780000,0.11354774,0.113604054,0.20417522,101.00013,101.00012,101.0,0.0,0.0,0.0,0.0,0.0,0.0,0.0,45.58333,0.0,0.0,nan,0.0,0.0,0.0,0.0,0.097753905,0.0,0.0,0.0,1.1789411,1.178615,1.0062798,0.0,0.0,0.0,0.0,0.0,0.0
3868000,3788000,0.11354774,0.113604054,0.20417522,101.00013,101.00012,101.0,0.0,0.0,0.0,0.0,0.0,0.0,0.0,45.58333,0.0,0.0,nan,0.0,0.0,0.0,0.0,0.097285435,0.0,0.0,0.0,1.1850895,1.1847653,1.0062826,0.0,0.0,0.0,0.0,0.0,0.0
3876000,3796000,0.11354774,0.113604054,0.20417522,101.00013,101.00012,101.0,0.0,0.0,0.0,0.0,0.0,0.0,0.0,45.58333,0.0,0.0,nan,0.0,0.0,0.0,0.0,0.097285435,0.0,0.0,0.0,1.1914164,1.1910948,1.0062888,0.0,0.0,0.0,0.0,0.0,0.0
3884000,3804000,0.11354774,0.113604054,0.20417522,101.00013,101.00012,101.0,0.0,0.0,0.0,0.0,0.0,0.0,0.0,45.58333,0.0,0.0,nan,0.0,0.0,0.0,0.0,0.097285435,0.0,0.0,0.0,1.1979222,1.1976033,1.0062954,0.0,0.0,0.0,0.0,0.0,0.0
3892000,3812000,0.11354774,0.113604054,0.20417522,101.00013,101.00012,101.0,0.0,0.0,0.0,0.0,0.0,0.0,0.0,45.58333,0.0,0.0,nan,0.0,0.0,0.0,0.0,0.097285435,0.0,0.0,0.0,1.204607,1.204291,1.0063024,0.0,0.0,0.0,0.0,0.0,0.0
3900000,3820000,0.1049968,0.10502366,0.20371707,1.0004001,1.0004016,34.333332,0.0,0.0,0.0,0.0,0.0,0.0,0.0,45.58333,0.0,0.0,nan,0.0,0.0,0.0,0.0,0.097285435,0.0,0.0,0.0,1.2114708,1.2111576,1.0063092,0.0,0.0,0.0,0.0,0.0,0.0
3908000,3828000,0.1049968,0.10502366,0.20371707,1.0004001,1.0004016,34.333332,0.0,0.0,0.0,0.0,0.0,0.0,0.0,45.58333,0.0,0.0,nan,0.0,0.0,0.0,0.0,0.097285435,0.0,0.0,0.0,1.218514,1.2182033,1.0063161,0.0,0.0,0.0,0.0,0.0,0.0
3916000,3836000,0.1049968,0.10502366,0.20371707,1.0004001,1.0004016,34.333332,0.0,0.0,0.0,0.0,0.0,0.0,0.0,45.58333,0.0,0.0,nan,0.0,0.0,0.0,0.0,0.097285435,0.0,0.0,0.0,1.2257358,1.2254279,1.0063231,0.0,0.0,0.0,0.0,0.0,0.0
3924000,3844000,0.1049968,0.10502366,0.20371707,1.0004001,1.0004016,34.333332,0.0,0.0,0.0,0.0,0.0,0.0,0.0,45.58333,0.0,0.0,nan,0.0,0.0,0.0,0.0,0.097285435,0.0,0.0,0.0,1.2331365,1.2328316,1.0063305,0.0,0.0,0.0,0.0,0.0,0.0
3932000,3852000,0.1049968,0.10502366,0.20371707,1.0004001,1.0004016,34.333332,0.0,0.0,0.0,0.0,0.0,0.0,0.0,45.58333,0.0,0.0,nan,0.0,0.0,0.0,0.0,0.097285435,0.0,0.0,0.0,1.2407162,1.240414,1.0063382,0.0,0.0,0.0,0.0,0.0,0.0
3940000,3860000,0.1049968,0.10502366,0.20371707,1.0004001,1.0004016,34.333332,0.0,0.0,0.0,0.0,0.0,0.0,0.0,45.58337,0.0,0.0,nan,0.0,0.0,0.0,0.0,0.096921846,0.0,0.0,0.0,1.2484745,1.2481757,1.0063462,0.0,0.0,0.0,0.0,0.0,0.0
3948000,3868000,0.1049968,0.10502366,0.20371707,1.0004001,1.0004016,34.333332,0.0,0.0,0.0,0.0,0.0,0.0,0.0,45.58337,0.0,0.0,nan,0.0,0.0,0.0,0.0,0.096921846,0.0,0.0,0.0,1.1690203,1.1687144,1.0062509,0.0,0.0,0.0,0.0,0.0,0.0
3956000,3876000,0.1049968,0.10502366,0.20371707,1.0004001,1.0004016,34.333332,0.0,0.0,0.0,0.0,0.0,0.0,0.0,45.58337,0.0,0.0,nan,0.0,0.0,0.0,0.0,0.096921846,0.0,0.0,0.0,1.1754156,1.1751099,1.0062572,0.0,0.0,0.0,0.0,0.0,0.0
3964000,3884000,0.1049968,0.10502366,0.20371707,1.0004001,1.0004016,34.333332,0.0,0.0,0.0,0.0,0.0,0.0,0.0,45.58337,0.0,0.0,nan,0.0,0.0,0.0,0.0,0.096921846,0.0,0.0,0.0,1.1819732,1.1816677,1.0062634,0.0,0.0,0.0,0.0,0.0,0.0
3972000,3892000,0.1049968,0.10502366,0.20371707,1.0004001,1.0004016,34.333332,0.0,0.0,0.0,0.0,0.0,0.0,0.0,45.58337,0.0,0.0,nan,0.0,0.0,0.0,0.0,0.096921846,0.0,0.0,0.0,1.1886928,1.1883874,1.0062703,0.0,0.0,0.0,0.0,0.0,0.0
3980000,3900000,0.1049968,0.10502366,0.20371707,1.0004001,1.0004016,34.333332,0.0,0.0,0.0,0.0,0.0,0.0,0.0,45.58337,0.0,0.0,nan,0.0,0.0,0.0,0.0,0.096921846,0.0,0.0,0.0,1.1852487,1.1850193,1.0062662,0.0,0.0,0.0,0.0,0.0,0.0
3988000,3908000,0.1049968,0.10502366,0.20371707,1.0004001,1.0004016,34.333332,0.0,0.0,0.0,0.0,0.0,0.0,0.0,45.58337,0.0,0.0,nan,0.0,0.0,0.0,0.0,0.096921846,0.0,0.0,0.0,1.1919498,1.1917224,1.0062728,0.0,0.0,0.0,0.0,0.0,0.0
3996000,3916000,0.1049968,0.10502366,0.20371707,1.0004001,1.0004016,34.333332,0.0,0.0,0.0,0.0,0.0,0.0,0.0,45.58337,0.0,0.0,nan,0.0,0.0,0.0,0.0,0.096921846,0.0,0.0,0.0,1.1988077,1.1985817,1.0062793,0.0,0.0,0.0,0.0,0.0,0.0
4004000,3924000,0.1049968,0.10502366,0.20371707,1.0004001,1.0004016,34.333332,0.0,0.0,0.0,0.0,0.0,0.0,0.0,37.250053,0.0,0.0,nan,0.0,0.0,0.0,0.0,0.096921846,0.0,0.0,0.0,1.2058223,1.2055978,1.0062859,0.0,0.0,0.0,0.0,0.0,0.0
4012000,3932000,0.1049968,0.10502366,0.20371707,1.0004001,1.0004016,34.333332,0.0,0.0,0.0,0.0,0.0,0.0,0.0,37.250053,0.0,0.0,nan,0.0,0.0,0.0,0.0,0.09664241,0.0,0.0,0.0,1.212993,1.2127706,1.006294,0.0,0.0,0.0,0.0,0.0,0.0
4020000,3940000,0.1049968,0.10502366,0.20371707,1.0004001,1.0004016,34.333332,0.0,0.0,0.0,0.0,0.0,0.0,0.0,37.250053,0.0,0.0,nan,0.0,0.0,0.0,0.0,0.09664241,0.0,0.0,0.0,1.2203207,1.2201,1.0063012,0.0,0.0,0.0,0.0,0.0,0.0
4028000,3948000,0.1049968,0.10502366,0.20371707,1.0004001,1.0004016,34.333332,0.0,0.0,0.0,0.0,0.0,0.0,0.0,37.250053,0.0,0.0,nan,0.0,0.0,0.0,0.0,0.09664241,0.0,0.0,0.0,1.2278049,1.2275858,1.0063084,0.0,0.0,0.0,0.0,0.0,0.0
4036000,3956000,0.1049968,0.10502366,0.20371707,1.0004001,1.0004016,34.333332,0.0,0.0,0.0,0.0,0.0,0.0,0.0,37.250053,0.0,0.0,nan,0.0,0.0,0.0,0.0,0.09664241,0.0,0.0,0.0,1.2354457,1.2352283,1.0063158,0.0,0.0,0.0,0.0,0.0,0.0
4044000,3964000,0.1049968,0.10502366,0.20371707,1.0004001,1.0004016,34.333332,0.0,0.0,0.0,0.0,0.0,0.0,0.0,37.250053,0.0,0.0,nan,0.0,0.0,0.0,0.0,0.09664241,0.0,0.0,0.0,1.2432429,1.2430273,1.0063238,0.0,0.0,0.0,0.0,0.0,0.0
4052000,3972000,0.1049968,0.10502366,0.20371707,1.0004001,1.0004016,34.333332,0.0,0.0,0.0,0.0,0.0,0.0,0.0,37.250053,0.0,0.0,nan,0.0,0.0,0.0,0.0,0.09664241,0.0,0.0,0.0,1.2511965,1.2509831,1.0063318,0.0,0.0,0.0,0.0,0.0,0.0
4060000,3980000,0.1049968,0.10502366,0.20371707,1.0004001,1.0004016,34.333332,0.0,0.0,0.0,0.0,0.0,0.0,0.0,37.250107,0.0,0.0,nan,0.0,0.0,0.0,0.0,0.09664241,0.0,0.0,0.0,1.2593069,1.2590954,1.0063397,0.0,0.0,0.0,0.0,0.0,0.0
4068000,3988000,0.1049968,0.10502366,0.20371707,1.0004001,1.0004016,34.333332,0.0,0.0,0.0,0.0,0.0,0.0,0.0,37.250107,0.0,0.0,nan,0.0,0.0,0.0,0.0,0.09664241,0.0,0.0,0.0,1.267574,1.2673643,1.006348,0.0,0.0,0.0,0.0,0.0,0.0
4076000,3996000,0.1049968,0.10502366,0.20371707,1.0004001,1.0004016,34.333332,0.0,0.0,0.0,0.0,0.0,0.0,0.0,37.250107,0.0,0.0,nan,0.0,0.0,0.0,0.0,0.09664241,0.0,0.0,0.0,1.2759976,1.2757896,1.0063561,0.0,0.0,0.0,0.0,0.0,0.0
4084000,4004000,0.1049968,0.10502366,0.20371707,1.0004001,1.0004016,34.333332,0.0,0.0,0.0,0.0,0.0,0.0,0.0,37.250107,0.0,0.0,nan,0.0,0.0,0.0,0.0,0.096432306,0.0,0.0,0.0,1.2845775,1.2843716,1.0063654,0.0,0.0,0.0,0.0,0.0,0.0
4092000,4012000,0.1049968,0.10502366,0.20371707,1.0004001,1.0004016,34.333332,0.0,0.0,0.0,0.0,0.0,0.0,0.0,37.250107,0.0,0.0,nan,0.0,0.0,0.0,0.0,0.096432306,0.0,0.0,0.0,1.293314,1.2931106,1.0063741,0.0,0.0,0.0,0.0,0.0,0.0
4100000,4020000,0.1049968,0.10502366,0.20371707,1.0004001,1.0004016,34.333332,0.0,0.0,0.0,0.0,0.0,0.0,0.0,37.250107,0.0,0.0,nan,0.0,0.0,0.0,0.0,0.096432306,0.0,0.0,0.0,1.3022069,1.3020058,1.0063833,0.0,0.0,0.0,0.0,0.0,0.0
4108000,4028000,0.1049968,0.10502366,0.20371707,1.0004001,1.0004016,34.333332,0.0,0.0,0.0,0.0,0.0,0.0,0.0,37.250107,0.0,0.0,nan,0.0,0.0,0.0,0.0,0.096432306,0.0,0.0,0.0,1.3112565,1.3110578,1.0063924,0.0,0.0,0.0,0.0,0.0,0.0
4116000,4036000,0.1049968,0.10502366,0.20371707,1.0004001,1.0004016,34.333332,0.0,0.0,0.0,0.0,0.0,0.0,0.0,20.47152,0.0,0.0,nan,0.0,0.0,0.0,0.0,0.096432306,0.0,0.0,0.0,1.3204627,1.3202665,1.0064014,0.0,0.0,0.0,0.0,0.0,0.0
4124000,4044000,0.1049968,0.10502366,0.20371707,1.0004001,1.0004016,34.333332,0.0,0.0,0.0,0.0,0.0,0.0,0.0,20.47152,0.0,0.0,nan,0.0,0.0,0.0,0.0,0.096432306,0.0,0.0,0.0,1.329826,1.3296314,1.0064105,0.0,0.0,0.0,0.0,0.0,0.0
4132000,4052000,0.1049968,0.10502366,0.20371707,1.0004001,1.0004016,34.333332,0.0,0.0,0.0,0.0,0.0,0.0,0.0,20.47152,0.0,0.0,nan,0.0,0.0,0.0,0.0,0.096432306,0.0,0.0,0.0,1.3393453,1.3391529,1.0064204,0.0,0.0,0.0,0.0,0.0,0.0
4140000,4060000,0.1049968,0.10502366,0.20371707,1.0004001,1.0004016,34.333332,0.0,0.0,0.0,0.0,0.0,0.0,0.0,20.47152,0.0,0.0,nan,0.0,0.0,0.0,0.0,0.096432306,0.0,0.0,0.0,1.349021,1.348831,1.0064305,0.0,0.0,0.0,0.0,0.0,0.0
4148000,4068000,0.1049968,0.10502366,0.20371707,1.0004001,1.0004016,34.333332,0.0,0.0,0.0,0.0,0.0,0.0,0.0,20.47152,0.0,0.0,nan,0.0,0.0,0.0,0.0,0.096432306,0.0,0.0,0.0,1.3588535,1.3586658,1.0064408,0.0,0.0,0.0,0.0,0.0,0.0
4156000,4076000,0.1049968,0.10502366,0.20371707,1.0004001,1.0004016,34.333332,0.0,0.0,0.0,0.0,0.0,0.0,0.0,20.47152,0.0,0.0,nan,0.0,0.0,0.0,0.0,0.0962788,0.0,0.0,0.0,1.2452899,1.2453703,1.006319,0.0,0.0,0.0,0.0,0.0,0.0
4164000,4084000,0.1049968,0.10502366,0.20371707,1.0004001,1.0004016,34.333332,0.0,0.0,0.0,0.0,0.0,0.0,0.0,20.47152,0.0,0.0,nan,0.0,0.0,0.0,0.0,0.0962788,0.0,0.0,0.0,1.252374,1.2524583,1.0063257,0.0,0.0,0.0,0.0,0.0,0.0
4172000,4092000,0.1049968,0.10502366,0.20371707,1.0004001,1.0004016,34.333332,0.0,0.0,0.0,0.0,0.0,0.0,0.0,17.169731,0.0,0.0,nan,0.0,0.0,0.0,0.0,0.0962788,0.0,0.0,0.0,1.2595772,1.2596654,1.0063326,0.0,0.0,0.0,0.0,0.0,0.0
4180000,4100000,0.1049968,0.10502366,0.20371707,1.0004001,1.0004016,34.333332,0.0,0.0,0.0,0.0,0.0,0.0,0.0,17.169731,0.0,0.0,nan,0.0,0.0,0.0,0.0,0.0962788,0.0,0.0,0.0,1.2668995,1.2669916,1.0063399,0.0,0.0,0.0,0.0,0.0,0.0
4188000,4108000,0.1049968,0.10502366,0.20371707,1.0004001,1.0004016,34.333332,0.0,0.0,0.0,0.0,0.0,0.0,0.0,17.169731,0.0,0.0,nan,0.0,0.0,0.0,0.0,0.0962788,0.0,0.0,0.0,1.2498142,1.2499201,1.006323,0.0,0.0,0.0,0.0,0.0,0.0
4196000,4116000,0.1049968,0.10502366,0.20371707,1.0004001,1.0004016,34.333332,0.0,0.0,0.0,0.0,0.0,0.0,0.0,17.169731,0.0,0.0,nan,0.0,0.0,0.0,0.0,0.0962788,0.0,0.0,0.0,1.2566398,1.2567488,1.0063295,0.0,0.0,0.0,0.0,0.0,0.0
4204000,4124000,0.1049968,0.10502366,0.20371707,1.0004001,1.0004016,34.333332,0.0,0.0,0.0,0.0,0.0,0.0,0.0,17.169731,0.0,0.0,nan,0.0,0.0,0.0,0.0,0.0962788,0.0,0.0,0.0,1.2635736,1.263686,1.0063361,0.0,0.0,0.0,0.0,0.0,0.0
4212000,4132000,0.1049968,0.10502366,0.20371707,1.0004001,1.0004016,34.333332,0.0,0.0,0.0,0.0,0.0,0.0,0.0,17.169731,0.0,0.0,nan,0.0,0.0,0.0,0.0,0.0962788,0.0,0.0,0.0,1.2706155,1.2707311,1.0063429,0.0,0.0,0.0,0.0,0.0,0.0
4220000,4140000,0.1049968,0.10502366,0.20371707,1.0004001,1.0004016,34.333332,0.0,0.0,0.0,0.0,0.0,0.0,0.0,17.169731,0.0,0.0,nan,0.0,0.0,0.0,0.0,0.0962788,0.0,0.0,0.0,1.2777658,1.2778847,1.0063493,0.0,0.0,0.0,0.0,0.0,0.0
4228000,4148000,0.1049968,0.10502366,0.20371707,1.0004001,1.0004016,34.333332,0.0,0.0,0.0,0.0,0.0,0.0,0.0,15.7600975,0.0,0.0,nan,0.0,0.0,0.0,0.0,0.09617249,0.0,0.0,0.0,1.2850242,1.2851462,1.006356,0.0,0.0,0.0,0.0,0.0,0.0
4236000,4156000,0.1049968,0.10502366,0.20371707,1.0004001,1.0004016,34.333332,0.0,0.0,0.0,0.0,0.0,0.0,0.0,15.7600975,0.0,0.0,nan,0.0,0.0,0.0,0.0,0.09617249,0.0,0.0,0.0,1.2923907,1.292516,1.0063633,0.0,0.0,0.0,0.0,0.0,0.0
4244000,4164000,0.1049968,0.10502366,0.20371707,1.0004001,1.0004016,34.333332,0.0,0.0,0.0,0.0,0.0,0.0,0.0,15.7600975,0.0,0.0,nan,0.0,0.0,0.0,0.0,0.09617249,0.0,0.0,0.0,1.2998652,1.2999942,1.0063705,0.0,0.0,0.0,0.0,0.0,0.0
4252000,4172000,0.1049968,0.10502366,0.20371707,1.0004001,1.0004016,34.333332,0.0,0.0,0.0,0.0,0.0,0.0,0.0,15.7600975,0.0,0.0,nan,0.0,0.0,0.0,0.0,0.09617249,0.0,0.0,0.0,1.3074483,1.3075804,1.0063779,0.0,0.0,0.0,0.0,0.0,0.0
4260000,4180000,0.1049968,0.10502366,0.20371707,1.0004001,1.0004016,34.333332,0.0,0.0,0.0,0.0,0.0,0.0,0.0,15.7600975,0.0,0.0,nan,0.0,0.0,0.0,0.0,0.09617249,0.0,0.0,0.0,1.3151399,1.3152745,1.0063857,0.0,0.0,0.0,0.0,0.0,0.0
4268000,4188000,0.1049968,0.10502366,0.20371707,1.0004001,1.0004016,34.333332,0.0,0.0,0.0,0.0,0.0,0.0,0.0,15.7600975,0.0,0.0,nan,0.0,0.0,0.0,0.0,0.09617249,0.0,0.0,0.0,1.3229396,1.323077,1.0063933,0.0,0.0,0.0,0.0,0.0,0.0
4276000,4196000,0.1049968,0.10502366,0.20371707,1.0004001,1.0004016,34.333332,0.0,0.0,0.0,0.0,0.0,0.0,0.0,15.7600975,0.0,0.0,nan,0.0,0.0,0.0,0.0,0.09617249,0.0,0.0,0.0,1.3308477,1.3309875,1.0064008,0.0,0.0,0.0,0.0,0.0,0.0
4284000,4204000,0.1049968,0.10502366,0.20371707,1.0004001,1.0004016,34.333332,0.0,0.0,0.0,0.0,0.0,0.0,0.0,15.7600975,0.0,0.0,nan,0.0,0.0,0.0,0.0,0.09617249,0.0,0.0,0.0,1.3388637,1.3390069,1.0064088,0.0,0.0,0.0,0.0,0.0,0.0
4292000,4212000,0.1049968,0.10502366,0.20371707,1.0004001,1.0004016,34.333332,0.0,0.0,0.0,0.0,0.0,0.0,0.0,14.978397,0.0,0.0,nan,0.0,0.0,0.0,0.0,0.09617249,0.0,0.0,0.0,1.346988,1.3471336,1.0064168,0.0,0.0,0.0,0.0,0.0,0.0
4300000,4220000,0.10511933,0.105143026,0.2065318,1.0004425,1.000443,3.2314146,0.0,0.0,0.0,0.0,0.0,0.0,0.0,14.978397,0.0,0.0,nan,0.0,0.0,0.0,0.0,0.096104994,0.0,0.0,0.0,1.3552209,1.3553689,1.0064238,0.0,0.0,0.0,0.0,0.0,0.0
4308000,4228000,0.10511933,0.105143026,0.2065318,1.0004425,1.000443,3.2314146,0.0,0.0,0.0,0.0,0.0,0.0,0.0,14.978397,0.0,0.0,nan,0.0,0.0,0.0,0.0,0.096104994,0.0,0.0,0.0,1.3635619,1.3637125,1.0064319,0.0,0.0,0.0,0.0,0.0,0.0
4316000,4236000,0.10511933,0.105143026,0.2065318,1.0004425,1.000443,3.2314146,0.0,0.0,0.0,0.0,0.0,0.0,0.0,14.978397,0.0,0.0,nan,0.0,0.0,0.0,0.0,0.096104994,0.0,0.0,0.0,1.3720108,1.3721645,1.00644,0.0,0.0,0.0,0.0,0.0,0.0
4324000,4244000,0.10511933,0.105143026,0.2065318,1.0004425,1.000443,3.2314146,0.0,0.0,0.0,0.0,0.0,0.0,0.0,14.978397,0.0,0.0,nan,0.0,0.0,0.0,0.0,0.096104994,0.0,0.0,0.0,1.3805678,1.3807247,1.0064486,0.0,0.0,0.0,0.0,0.0,0.0
4332000,4252000,0.10511933,0.105143026,0.2065318,1.0004425,1.000443,3.2314146,0.0,0.0,0.0,0.0,0.0,0.0,0.0,14.978397,0.0,0.0,nan,0.0,0.0,0.0,0.0,0.096104994,0.0,0.0,0.0,1.3892329,1.3893931,1.0064576,0.0,0.0,0.0,0.0,0.0,0.0
4340000,4260000,0.10511933,0.105143026,0.2065318,1.0004425,1.000443,3.2314146,0.0,0.0,0.0,0.0,0.0,0.0,0.0,14.978397,0.0,0.0,nan,0.0,0.0,0.0,0.0,0.096104994,0.0,0.0,0.0,1.3980068,1.3981693,1.006466,0.0,0.0,0.0,0.0,0.0,0.0
4348000,4268000,0.10511933,0.105143026,0.2065318,1.0004425,1.000443,3.2314146,0.0,0.0,0.0,0.0,0.0,0.0,0.0,14.481487,0.0,0.0,nan,0.0,0.0,0.0,0.0,0.096104994,0.0,0.0,0.0,1.4068887,1.4070542,1.0064746,0.0,0.0,0.0,0.0,0.0,0.0
4356000,4276000,0.10511933,0.105143026,0.2065318,1.0004425,1.000443,3.2314146,0.0,0.0,0.0,0.0,0.0,0.0,0.0,14.481487,0.0,0.0,nan,0.0,0.0,0.0,0.0,0.096104994,0.0,0.0,0.0,1.4158794,1.4160472,1.0064831,0.0,0.0,0.0,0.0,0.0,0.0
4364000,4284000,0.10511933,0.105143026,0.2065318,1.0004425,1.000443,3.2314146,0.0,0.0,0.0,0.0,0.0,0.0,0.0,14.481487,0.0,0.0,nan,0.0,0.0,0.0,0.0,0.096104994,0.0,0.0,0.0,1.2102786,1.2101032,1.006283,0.0,0.0,0.0,0.0,0.0,0.0
4372000,4292000,0.10511933,0.105143026,0.2065318,1.0004425,1.000443,3.2314146,0.0,0.0,0.0,0.0,0.0,0.0,0.0,14.481487,0.0,0.0,nan,0.0,0.0,0.0,0.0,0.09606922,0.0,0.0,0.0,1.2146839,1.2145004,1.0062877,0.0,0.0,0.0,0.0,0.0,0.0
4380000,4300000,0.10511933,0.105143026,0.2065318,1.0004425,1.000443,3.2314146,0.0,0.0,0.0,0.0,0.0,0.0,0.0,14.481487,0.0,0.0,nan,0.0,0.0,0.0,0.0,0.09606922,0.0,0.0,0.0,1.2191445,1.218953,1.0062914,0.0,0.0,0.0,0.0,0.0,0.0
4388000,4308000,0.10511933,0.105143026,0.2065318,1.0004425,1.000443,3.2314146,0.0,0.0,0.0,0.0,0.0,0.0,0.0,14.481487,0.0,0.0,nan,0.0,0.0,0.0,0.0,0.09606922,0.0,0.0,0.0,1.22366,1.2234604,1.0062956,0.0,0.0,0.0,0.0,0.0,0.0
4396000,4316000,0.10511933,0.105143026,0.2065318,1.0004425,1.000443,3.2314146,0.0,0.0,0.0,0.0,0.0,0.0,0.0,14.137697,0.0,0.0,nan,0.0,0.0,0.0,0.0,0.09606922,0.0,0.0,0.0,1.2033793,1.2031516,1.0062768,0.0,0.0,0.0,0.0,0.0,0.0
4404000,4324000,0.10511933,0.105143026,0.2065318,1.0004425,1.000443,3.2314146,0.0,0.0,0.0,0.0,0.0,0.0,0.0,14.137697,0.0,0.0,nan,0.0,0.0,0.0,0.0,0.09606922,0.0,0.0,0.0,1.2074239,1.2071879,1.0062805,0.0,0.0,0.0,0.0,0.0,0.0
4412000,4332000,0.10511933,0.105143026,0.2065318,1.0004425,1.000443,3.2314146,0.0,0.0,0.0,0.0,0.0,0.0,0.0,14.137697,0.0,0.0,nan,0.0,0.0,0.0,0.0,0.09606922,0.0,0.0,0.0,1.2115173,1.2112724,1.0062842,0.0,0.0,0.0,0.0,0.0,0.0
4420000,4340000,0.10511933,0.105143026,0.2065318,1.0004425,1.000443,3.2314146,0.0,0.0,0.0,0.0,0.0,0.0,0.0,14.137697,0.0,0.0,nan,0.0,0.0,0.0,0.0,0.09606922,0.0,0.0,0.0,1.2156591,1.2154052,1.006288,0.0,0.0,0.0,0.0,0.0,0.0
4428000,4348000,0.10511933,0.105143026,0.2065318,1.0004425,1.000443,3.2314146,0.0,0.0,0.0,0.0,0.0,0.0,0.0,14.137697,0.0,0.0,nan,0.0,0.0,0.0,0.0,0.09606922,0.0,0.0,0.0,1.2198496,1.2195863,1.0062916,0.0,0.0,0.0,0.0,0.0,0.0
4436000,4356000,0.10511933,0.105143026,0.2065318,1.0004425,1.000443,3.2314146,0.0,0.0,0.0,0.0,0.0,0.0,0.0,14.137697,0.0,0.0,nan,0.0,0.0,0.0,0.0,0.09606922,0.0,0.0,0.0,1.2240884,1.2238152,1.0062954,0.0,0.0,0.0,0.0,0.0,0.0
4444000,4364000,0.10511933,0.105143026,0.2065318,1.0004425,1.000443,3.2314146,0.0,0.0,0.0,0.0,0.0,0.0,0.0,14.137697,0.0,0.0,nan,0.0,0.0,0.0,0.0,0.09605939,0.0,0.0,0.0,1.2283748,1.2280927,1.0063027,0.0,0.0,0.0,0.0,0.0,0.0
4452000,4372000,0.10511933,0.105143026,0.2065318,1.0004425,1.000443,3.2314146,0.0,0.0,0.0,0.0,0.0,0.0,0.0,14.137697,0.0,0.0,nan,0.0,0.0,0.0,0.0,0.09605939,0.0,0.0,0.0,1.2327102,1.2324184,1.0063068,0.0,0.0,0.0,0.0,0.0,0.0
4460000,4380000,0.10511933,0.105143026,0.2065318,1.0004425,1.000443,3.2314146,0.0,0.0,0.0,0.0,0.0,0.0,0.0,13.8857765,0.0,0.0,nan,0.0,0.0,0.0,0.0,0.09605939,0.0,0.0,0.0,1.2370943,1.2367924,1.0063108,0.0,0.0,0.0,0.0,0.0,0.0
4468000,4388000,0.10511933,0.105143026,0.2065318,1.0004425,1.000443,3.2314146,0.0,0.0,0.0,0.0,0.0,0.0,0.0,13.8857765,0.0,0.0,nan,0.0,0.0,0.0,0.0,0.09605939,0.0,0.0,0.0,1.2415266,1.2412149,1.0063145,0.0,0.0,0.0,0.0,0.0,0.0
4476000,4396000,0.10511933,0.105143026,0.2065318,1.0004425,1.000443,3.2314146,0.0,0.0,0.0,0.0,0.0,0.0,0.0,13.8857765,0.0,0.0,nan,0.0,0.0,0.0,0.0,0.09605939,0.0,0.0,0.0,1.2460073,1.2456855,1.0063187,0.0,0.0,0.0,0.0,0.0,0.0
4484000,4404000,0.10511933,0.105143026,0.2065318,1.0004425,1.000443,3.2314146,0.0,0.0,0.0,0.0,0.0,0.0,0.0,13.8857765,0.0,0.0,nan,0.0,0.0,0.0,0.0,0.09605939,0.0,0.0,0.0,1.2505366,1.2502043,1.0063229,0.0,0.0,0.0,0.0,0.0,0.0
4492000,4412000,0.10511933,0.105143026,0.2065318,1.0004425,1.000443,3.2314146,0.0,0.0,0.0,0.0,0.0,0.0,0.0,13.8857765,0.0,0.0,nan,0.0,0.0,0.0,0.0,0.09605939,0.0,0.0,0.0,1.2551141,1.2547714,1.0063273,0.0,0.0,0.0,0.0,0.0,0.0
4500000,4420000,0.10511933,0.105143026,0.2065318,1.0004425,1.000443,3.2314146,0.0,0.0,0.0,0.0,0.0,0.0,0.0,13.8857765,0.0,0.0,nan,0.0,0.0,0.0,0.0,0.09605939,0.0,0.0,0.0,1.2597404,1.2593867,1.0063313,0.0,0.0,0.0,0.0,0.0,0.0
4508000,4428000,0.10511933,0.105143026,0.2065318,1.0004425,1.000443,3.2314146,0.0,0.0,0.0,0.0,0.0,0.0,0.0,13.8857765,0.0,0.0,nan,0.0,0.0,0.0,0.0,0.09605939,0.0,0.0,0.0,1.264415,1.2640502,1.0063354,0.0,0.0,0.0,0.0,0.0,0.0
4516000,4436000,0.10511933,0.105143026,0.2065318,1.0004425,1.000443,3.2314146,0.0,0.0,0.0,0.0,0.0,0.0,0.0,13.69322,0.0,0.0,nan,0.0,0.0,0.0,0.0,0.09607014,0.0,0.0,0.0,1.2691379,1.268762,1.0063392,0.0,0.0,0.0,0.0,0.0,0.0
4524000,4444000,0.10511933,0.105143026,0.2065318,1.0004425,1.000443,3.2314146,0.0,0.0,0.0,0.0,0.0,0.0,0.0,13.69322,0.0,0.0,nan,0.0,0.0,0.0,0.0,0.09607014,0.0,0.0,0.0,1.2739093,1.2735223,1.0063436,0.0,0.0,0.0,0.0,0.0,0.0
4532000,4452000,0.10511933,0.105143026,0.2065318,1.0004425,1.000443,3.2314146,0.0,0.0,0.0,0.0,0.0,0.0,0.0,13.69322,0.0,0.0,nan,0.0,0.0,0.0,0.0,0.09607014,0.0,0.0,0.0,1.278729,1.2783304,1.006348,0.0,0.0,0.0,0.0,0.0,0.0
4540000,4460000,0.10511933,0.105143026,0.2065318,1.0004425,1.000443,3.2314146,0.0,0.0,0.0,0.0,0.0,0.0,0.0,13.69322,0.0,0.0,nan,0.0,0.0,0.0,0.0,0.09607014,0.0,0.0,0.0,1.2835972,1.283187,1.0063527,0.0,0.0,0.0,0.0,0.0,0.0
4548000,4468000,0.10511933,0.105143026,0.2065318,1.0004425,1.000443,3.2314146,0.0,0.0,0.0,0.0,0.0,0.0,0.0,13.69322,0.0,0.0,nan,0.0,0.0,0.0,0.0,0.09607014,0.0,0.0,0.0,1.2885141,1.2880921,1.0063568,0.0,0.0,0.0,0.0,0.0,0.0
4556000,4476000,0.10511933,0.105143026,0.2065318,1.0004425,1.000443,3.2314146,0.0,0.0,0.0,0.0,0.0,0.0,0.0,13.69322,0.0,0.0,nan,0.0,0.0,0.0,0.0,0.09607014,0.0,0.0,0.0,1.2934794,1.2930452,1.0063612,0.0,0.0,0.0,0.0,0.0,0.0
4564000,4484000,0.10511933,0.105143026,0.2065318,1.0004425,1.000443,3.2314146,0.0,0.0,0.0,0.0,0.0,0.0,0.0,13.69322,0.0,0.0,nan,0.0,0.0,0.0,0.0,0.09607014,0.0,0.0,0.0,1.2984931,1.298046,1.0063661,0.0,0.0,0.0,0.0,0.0,0.0
4572000,4492000,0.10511933,0.105143026,0.2065318,1.0004425,1.000443,3.2314146,0.0,0.0,0.0,0.0,0.0,0.0,0.0,13.69322,0.0,0.0,nan,0.0,0.0,0.0,0.0,0.09607014,0.0,0.0,0.0,1.1309402,1.1304001,1.0062128,0.0,0.0,0.0,0.0,0.0,0.0
4580000,4500000,0.10511933,0.105143026,0.2065318,1.0004425,1.000443,3.2314146,0.0,0.0,0.0,0.0,0.0,0.0,0.0,13.54131,0.0,0.0,nan,0.0,0.0,0.0,0.0,0.09607014,0.0,0.0,0.0,1.1328633,1.1323099,1.0062146,0.0,0.0,0.0,0.0,0.0,0.0
4588000,4508000,0.10511933,0.105143026,0.2065318,1.0004425,1.000443,3.2314146,0.0,0.0,0.0,0.0,0.0,0.0,0.0,13.54131,0.0,0.0,nan,0.0,0.0,0.0,0.0,0.096096896,0.0,0.0,0.0,1.1348054,1.1342386,1.0062164,0.0,0.0,0.0,0.0,0.0,0.0
4596000,4516000,0.10511933,0.105143026,0.2065318,1.0004425,1.000443,3.2314146,0.0,0.0,0.0,0.0,0.0,0.0,0.0,13.54131,0.0,0.0,nan,0.0,0.0,0.0,0.0,0.096096896,0.0,0.0,0.0,1.1367669,1.1361866,1.0062182,0.0,0.0,0.0,0.0,0.0,0.0
4604000,4524000,0.10511933,0.105143026,0.2065318,1.0004425,1.000443,3.2314146,0.0,0.0,0.0,0.0,0.0,0.0,0.0,13.54131,0.0,0.0,nan,0.0,0.0,0.0,0.0,0.096096896,0.0,0.0,0.0,1.1279302,1.127385,1.0062104,0.0,0.0,0.0,0.0,0.0,0.0
4612000,4532000,0.10511933,0.105143026,0.2065318,1.0004425,1.000443,3.2314146,0.0,0.0,0.0,0.0,0.0,0.0,0.0,13.54131,0.0,0.0,nan,0.0,0.0,0.0,0.0,0.096096896,0.0,0.0,0.0,1.1297264,1.1291686,1.0062121,0.0,0.0,0.0,0.0,0.0,0.0
4620000,4540000,0.10511933,0.105143026,0.2065318,1.0004425,1.000443,3.2314146,0.0,0.0,0.0,0.0,0.0,0.0,0.0,13.54131,0.0,0.0,nan,0.0,0.0,0.0,0.0,0.096096896,0.0,0.0,0.0,1.13154,1.1309696,1.0062135,0.0,0.0,0.0,0.0,0.0,0.0
4628000,4548000,0.10511933,0.105143026,0.2065318,1.0004425,1.000443,3.2314146,0.0,0.0,0.0,0.0,0.0,0.0,0.0,13.54131,0.0,0.0,nan,0.0,0.0,0.0,0.0,0.096096896,0.0,0.0,0.0,1.1333709,1.1327875,1.0062153,0.0,0.0,0.0,0.0,0.0,0.0
4636000,4556000,0.10511933,0.105143026,0.2065318,1.0004425,1.000443,3.2314146,0.0,0.0,0.0,0.0,0.0,0.0,0.0,13.418298,0.0,0.0,nan,0.0,0.0,0.0,0.0,0.096096896,0.0,0.0,0.0,1.1352192,1.1346226,1.0062169,0.0,0.0,0.0,0.0,0.0,0.0
4644000,4564000,0.10511933,0.105143026,0.2065318,1.0004425,1.000443,3.2314146,0.0,0.0,0.0,0.0,0.0,0.0,0.0,13.418298,0.0,0.0,nan,0.0,0.0,0.0,0.0,0.096096896,0.0,0.0,0.0,1.1370851,1.136475,1.0062184,0.0,0.0,0.0,0.0,0.0,0.0
4652000,4572000,0.10511933,0.105143026,0.2065318,1.0004425,1.000443,3.2314146,0.0,0.0,0.0,0.0,0.0,0.0,0.0,13.418298,0.0,0.0,nan,0.0,0.0,0.0,0.0,0.096096896,0.0,0.0,0.0,1.1389681,1.1383446,1.00622,0.0,0.0,0.0,0.0,0.0,0.0
4660000,4580000,0.10511933,0.105143026,0.2065318,1.0004425,1.000443,3.2314146,0.0,0.0,0.0,0.0,0.0,0.0,0.0,13.418298,0.0,0.0,nan,0.0,0.0,0.0,0.0,0.096135564,0.0,0.0,0.0,1.1408685,1.140231,1.0062212,0.0,0.0,0.0,0.0,0.0,0.0
4668000,4588000,0.10511933,0.105143026,0.2065318,1.0004425,1.000443,3.2314146,0.0,0.0,0.0,0.0,0.0,0.0,0.0,13.418298,0.0,0.0,nan,0.0,0.0,0.0,0.0,0.096135564,0.0,0.0,0.0,1.1427864,1.1421349,1.0062228,0.0,0.0,0.0,0.0,0.0,0.0
4676000,4596000,0.10511933,0.105143026,0.2065318,1.0004425,1.000443,3.2314146,0.0,0.0,0.0,0.0,0.0,0.0,0.0,13.418298,0.0,0.0,nan,0.0,0.0,0.0,0.0,0.096135564,0.0,0.0,0.0,1.1447216,1.1440564,1.0062244,0.0,0.0,0.0,0.0,0.0,0.0
4684000,4604000,0.10511933,0.105143026,0.2065318,1.0004425,1.000443,3.2314146,0.0,0.0,0.0,0.0,0.0,0.0,0.0,13.418298,0.0,0.0,nan,0.0,0.0,0.0,0.0,0.096135564,0.0,0.0,0.0,1.1466742,1.1459948,1.0062261,0.0,0.0,0.0,0.0,0.0,0.0
4692000,4612000,0.10511933,0.105143026,0.2065318,1.0004425,1.000443,3.2314146,0.0,0.0,0.0,0.0,0.0,0.0,0.0,13.418298,0.0,0.0,nan,0.0,0.0,0.0,0.0,0.096135564,0.0,0.0,0.0,1.1486442,1.1479505,1.0062275,0.0,0.0,0.0,0.0,0.0,0.0
4700000,4620000,0.099359855,0.09937643,0.20932387,1.0003347,1.0003349,1.9813619,0.0,0.0,0.0,0.0,0.0,0.0,0.0,13.316827,0.0,0.0,nan,0.0,0.0,0.0,0.0,0.096135564,0.0,0.0,0.0,1.1506315,1.1499236,1.0062293,0.0,0.0,0.0,0.0,0.0,0.0
4708000,4628000,0.099359855,0.09937643,0.20932387,1.0003347,1.0003349,1.9813619,0.0,0.0,0.0,0.0,0.0,0.0,0.0,13.316827,0.0,0.0,nan,0.0,0.0,0.0,0.0,0.096135564,0.0,0.0,0.0,1.1526362,1.1519135,1.0062313,0.0,0.0,0.0,0.0,0.0,0.0
4716000,4636000,0.099359855,0.09937643,0.20932387,1.0003347,1.0003349,1.9813619,0.0,0.0,0.0,0.0,0.0,0.0,0.0,13.316827,0.0,0.0,nan,0.0,0.0,0.0,0.0,0.096135564,0.0,0.0,0.0,1.1546582,1.1539208,1.0062332,0.0,0.0,0.0,0.0,0.0,0.0
4724000,4644000,0.099359855,0.09937643,0.20932387,1.0003347,1.0003349,1.9813619,0.0,0.0,0.0,0.0,0.0,0.0,0.0,13.316827,0.0,0.0,nan,0.0,0.0,0.0,0.0,0.096135564,0.0,0.0,0.0,1.1566975,1.1559453,1.0062349,0.0,0.0,0.0,0.0,0.0,0.0
4732000,4652000,0.099359855,0.09937643,0.20932387,1.0003347,1.0003349,1.9813619,0.0,0.0,0.0,0.0,0.0,0.0,0.0,13.316827,0.0,0.0,nan,0.0,0.0,0.0,0.0,0.096182585,0.0,0.0,0.0,1.1587542,1.1579866,1.0062368,0.0,0.0,0.0,0.0,0.0,0.0
4740000,4660000,0.099359855,0.09937643,0.20932387,1.0003347,1.0003349,1.9813619,0.0,0.0,0.0,0.0,0.0,0.0,0.0,13.316827,0.0,0.0,nan,0.0,0.0,0.0,0.0,0.096182585,0.0,0.0,0.0,1.1608282,1.1600455,1.0062386,0.0,0.0,0.0,0.0,0.0,0.0
4748000,4668000,0.099359855,0.09937643,0.20932387,1.0003347,1.0003349,1.9813619,0.0,0.0,0.0,0.0,0.0,0.0,0.0,13.316827,0.0,0.0,nan,0.0,0.0,0.0,0.0,0.096182585,0.0,0.0,0.0,1.1629196,1.1621217,1.0062404,0.0,0.0,0.0,0.0,0.0,0.0
4756000,4676000,0.099359855,0.09937643,0.20932387,1.0003347,1.0003349,1.9813619,0.0,0.0,0.0,0.0,0.0,0.0,0.0,13.23162,0.0,0.0,nan,0.0,0.0,0.0,0.0,0.096182585,0.0,0.0,0.0,1.1650287,1.1642148,1.0062423,0.0,0.0,0.0,0.0,0.0,0.0
4764000,4684000,0.099359855,0.09937643,0.20932387,1.0003347,1.0003349,1.9813619,0.0,0.0,0.0,0.0,0.0,0.0,0.0,13.23162,0.0,0.0,nan,0.0,0.0,0.0,0.0,0.096182585,0.0,0.0,0.0,1.1671549,1.1663253,1.0062441,0.0,0.0,0.0,0.0,0.0,0.0
4772000,4692000,0.099359855,0.09937643,0.20932387,1.0003347,1.0003349,1.9813619,0.0,0.0,0.0,0.0,0.0,0.0,0.0,13.23162,0.0,0.0,nan,0.0,0.0,0.0,0.0,0.096182585,0.0,0.0,0.0,1.1692985,1.1684532,1.0062461,0.0,0.0,0.0,0.0,0.0,0.0
4780000,4700000,0.099359855,0.09937643,0.20932387,1.0003347,1.0003349,1.9813619,0.0,0.0,0.0,0.0,0.0,0.0,0.0,13.23162,0.0,0.0,nan,0.0,0.0,0.0,0.0,0.096182585,0.0,0.0,0.0,1.0859205,1.085393,1.0061727,0.0,0.0,0.0,0.0,0.0,0.0
4788000,4708000,0.099359855,0.09937643,0.20932387,1.0003347,1.0003349,1.9813619,0.0,0.0,0.0,0.0,0.0,0.0,0.0,13.23162,0.0,0.0,nan,0.0,0.0,0.0,0.0,0.096182585,0.0,0.0,0.0,1.0867728,1.0862358,1.0061734,0.0,0.0,0.0,0.0,0.0,0.0
4796000,4716000,0.099359855,0.09937643,0.20932387,1.0003347,1.0003349,1.9813619,0.0,0.0,0.0,0.0,0.0,0.0,0.0,13.23162,0.0,0.0,nan,0.0,0.0,0.0,0.0,0.096182585,0.0,0.0,0.0,1.0876324,1.0870855,1.0061741,0.0,0.0,0.0,0.0,0.0,0.0
4804000,4724000,0.099359855,0.09937643,0.20932387,1.0003347,1.0003349,1.9813619,0.0,0.0,0.0,0.0,0.0,0.0,0.0,13.23162,0.0,0.0,nan,0.0,0.0,0.0,0.0,0.09623474,0.0,0.0,0.0,1.0884991,1.0879419,1.0061754,0.0,0.0,0.0,0.0,0.0,0.0
4812000,4732000,0.099359855,0.09937643,0.20932387,1.0003347,1.0003349,1.9813619,0.0,0.0,0.0,0.0,0.0,0.0,0.0,13.23162,0.0,0.0,nan,0.0,0.0,0.0,0.0,0.09623474,0.0,0.0,0.0,1.0853264,1.0848014,1.0061727,0.0,0.0,0.0,0.0,0.0,0.0
4820000,4740000,0.099359855,0.09937643,0.20932387,1.0003347,1.0003349,1.9813619,0.0,0.0,0.0,0.0,0.0,0.0,0.0,13.158968,0.0,0.0,nan,0.0,0.0,0.0,0.0,0.09623474,0.0,0.0,0.0,1.0861435,1.0856094,1.0061735,0.0,0.0,0.0,0.0,0.0,0.0
4828000,4748000,0.099359855,0.09937643,0.20932387,1.0003347,1.0003349,1.9813619,0.0,0.0,0.0,0.0,0.0,0.0,0.0,13.158968,0.0,0.0,nan,0.0,0.0,0.0,0.0,0.09623474,0.0,0.0,0.0,1.0869676,1.0864238,1.0061741,0.0,0.0,0.0,0.0,0.0,0.0
4836000,4756000,0.099359855,0.09937643,0.20932387,1.0003347,1.0003349,1.9813619,0.0,0.0,0.0,0.0,0.0,0.0,0.0,13.158968,0.0,0.0,nan,0.0,0.0,0.0,0.0,0.09623474,0.0,0.0,0.0,1.0877981,1.0872449,1.0061749,0.0,0.0,0.0,0.0,0.0,0.0
4844000,4764000,0.099359855,0.09937643,0.20932387,1.0003347,1.0003349,1.9813619,0.0,0.0,0.0,0.0,0.0,0.0,0.0,13.158968,0.0,0.0,nan,0.0,0.0,0.0,0.0,0.09623474,0.0,0.0,0.0,1.0886354,1.0880723,1.0061756,0.0,0.0,0.0,0.0,0.0,0.0
4852000,4772000,0.099359855,0.09937643,0.20932387,1.0003347,1.0003349,1.9813619,0.0,0.0,0.0,0.0,0.0,0.0,0.0,13.158968,0.0,0.0,nan,0.0,0.0,0.0,0.0,0.09623474,0.0,0.0,0.0,1.0894794,1.0889064,1.0061764,0.0,0.0,0.0,0.0,0.0,0.0
4860000,4780000,0.099359855,0.09937643,0.20932387,1.0003347,1.0003349,1.9813619,0.0,0.0,0.0,0.0,0.0,0.0,0.0,13.158968,0.0,0.0,nan,0.0,0.0,0.0,0.0,0.09623474,0.0,0.0,0.0,1.0903301,1.0897473,1.0061772,0.0,0.0,0.0,0.0,0.0,0.0
4868000,4788000,0.099359855,0.09937643,0.20932387,1.0003347,1.0003349,1.9813619,0.0,0.0,0.0,0.0,0.0,0.0,0.0,13.158968,0.0,0.0,nan,0.0,0.0,0.0,0.0,0.09623474,0.0,0.0,0.0,1.0911875,1.0905946,1.0061778,0.0,0.0,0.0,0.0,0.0,0.0
4876000,4796000,0.099359855,0.09937643,0.20932387,1.0003347,1.0003349,1.9813619,0.0,0.0,0.0,0.0,0.0,0.0,0.0,13.096473,0.0,0.0,nan,0.0,0.0,0.0,0.0,0.09628936,0.0,0.0,0.0,1.0920511,1.0914482,1.00618,0.0,0.0,0.0,0.0,0.0,0.0
4884000,4804000,0.099359855,0.09937643,0.20932387,1.0003347,1.0003349,1.9813619,0.0,0.0,0.0,0.0,0.0,0.0,0.0,13.096473,0.0,0.0,nan,0.0,0.0,0.0,0.0,0.09628936,0.0,0.0,0.0,1.092922,1.0923088,1.0061806,0.0,0.0,0.0,0.0,0.0,0.0
4892000,4812000,0.099359855,0.09937643,0.20932387,1.0003347,1.0003349,1.9813619,0.0,0.0,0.0,0.0,0.0,0.0,0.0,13.096473,0.0,0.0,nan,0.0,0.0,0.0,0.0,0.09628936,0.0,0.0,0.0,1.0937994,1.0931758,1.0061815,0.0,0.0,0.0,0.0,0.0,0.0
4900000,4820000,0.099359855,0.09937643,0.20932387,1.0003347,1.0003349,1.9813619,0.0,0.0,0.0,0.0,0.0,0.0,0.0,13.096473,0.0,0.0,nan,0.0,0.0,0.0,0.0,0.09628936,0.0,0.0,0.0,1.0946834,1.0940495,1.0061823,0.0,0.0,0.0,0.0,0.0,0.0
4908000,4828000,0.099359855,0.09937643,0.20932387,1.0003347,1.0003349,1.9813619,0.0,0.0,0.0,0.0,0.0,0.0,0.0,13.096473,0.0,0.0,nan,0.0,0.0,0.0,0.0,0.09628936,0.0,0.0,0.0,1.0955743,1.0949297,1.0061829,0.0,0.0,0.0,0.0,0.0,0.0
4916000,4836000,0.099359855,0.09937643,0.20932387,1.0003347,1.0003349,1.9813619,0.0,0.0,0.0,0.0,0.0,0.0,0.0,13.096473,0.0,0.0,nan,0.0,0.0,0.0,0.0,0.09628936,0.0,0.0,0.0,1.0964715,1.0958165,1.0061836,0.0,0.0,0.0,0.0,0.0,0.0
4924000,4844000,0.099359855,0.09937643,0.20932387,1.0003347,1.0003349,1.9813619,0.0,0.0,0.0,0.0,0.0,0.0,0.0,13.096473,0.0,0.0,nan,0.0,0.0,0.0,0.0,0.09628936,0.0,0.0,0.0,1.0973758,1.0967098,1.0061843,0.0,0.0,0.0,0.0,0.0,0.0
4932000,4852000,0.099359855,0.09937643,0.20932387,1.0003347,1.0003349,1.9813619,0.0,0.0,0.0,0.0,0.0,0.0,0.0,13.096473,0.0,0.0,nan,0.0,0.0,0.0,0.0,0.09628936,0.0,0.0,0.0,1.0982865,1.0976098,1.0061848,0.0,0.0,0.0,0.0,0.0,0.0
4940000,4860000,0.099359855,0.09937643,0.20932387,1.0003347,1.0003349,1.9813619,0.0,0.0,0.0,0.0,0.0,0.0,0.0,13.042148,0.0,0.0,nan,0.0,0.0,0.0,0.0,0.09628936,0.0,0.0,0.0,1.0992041,1.0985165,1.0061855,0.0,0.0,0.0,0.0,0.0,0.0
4948000,4868000,0.099359855,0.09937643,0.20932387,1.0003347,1.0003349,1.9813619,0.0,0.0,0.0,0.0,0.0,0.0,0.0,13.042148,0.0,0.0,nan,0.0,0.0,0.0,0.0,0.09634414,0.0,0.0,0.0,1.1001278,1.0994294,1.0061854,0.0,0.0,0.0,0.0,0.0,0.0
4956000,4876000,0.099359855,0.09937643,0.20932387,1.0003347,1.0003349,1.9813619,0.0,0.0,0.0,0.0,0.0,0.0,0.0,13.042148,0.0,0.0,nan,0.0,0.0,0.0,0.0,0.09634414,0.0,0.0,0.0,1.1010586,1.1003491,1.0061861,0.0,0.0,0.0,0.0,0.0,0.0
4964000,4884000,0.099359855,0.09937643,0.20932387,1.0003347,1.0003349,1.9813619,0.0,0.0,0.0,0.0,0.0,0.0,0.0,13.042148,0.0,0.0,nan,0.0,0.0,0.0,0.0,0.09634414,0.0,0.0,0.0,1.1019961,1.1012754,1.0061868,0.0,0.0,0.0,0.0,0.0,0.0
4972000,4892000,0.099359855,0.09937643,0.20932387,1.0003347,1.0003349,1.9813619,0.0,0.0,0.0,0.0,0.0,0.0,0.0,13.042148,0.0,0.0,nan,0.0,0.0,0.0,0.0,0.09634414,0.0,0.0,0.0,1.1029402,1.1022084,1.0061873,0.0,0.0,0.0,0.0,0.0,0.0
4980000,4900000,0.099359855,0.09937643,0.20932387,1.0003347,1.0003349,1.9813619,0.0,0.0,0.0,0.0,0.0,0.0,0.0,13.042148,0.0,0.0,nan,0.0,0.0,0.0,0.0,0.09634414,0.0,0.0,0.0,1.1038911,1.1031477,1.006188,0.0,0.0,0.0,0.0,0.0,0.0
4988000,4908000,0.099359855,0.09937643,0.20932387,1.0003347,1.0003349,1.9813619,0.0,0.0,0.0,0.0,0.0,0.0,0.0,13.042148,0.0,0.0,nan,0.0,0.0,0.0,0.0,0.09634414,0.0,0.0,0.0,1.0647035,1.0642816,1.0061548,0.0,0.0,0.0,0.0,0.0,0.0
4996000,4916000,0.099359855,0.09937643,0.20932387,1.0003347,1.0003349,1.9813619,0.0,0.0,0.0,0.0,0.0,0.0,0.0,12.994421,0.0,0.0,nan,0.0,0.0,0.0,0.0,0.09634414,0.0,0.0,0.0,1.0651323,1.0647042,1.0061553,0.0,0.0,0.0,0.0,0.0,0.0
5004000,4924000,0.099359855,0.09937643,0.20932387,1.0003347,1.0003349,1.9813619,0.0,0.0,0.0,0.0,0.0,0.0,0.0,12.994421,0.0,0.0,nan,0.0,0.0,0.0,0.0,0.09634414,0.0,0.0,0.0,1.0655643,1.0651298,1.0061554,0.0,0.0,0.0,0.0,0.0,0.0
5012000,4932000,0.099359855,0.09937643,0.20932387,1.0003347,1.0003349,1.9813619,0.0,0.0,0.0,0.0,0.0,0.0,0.0,12.994421,0.0,0.0,nan,0.0,0.0,0.0,0.0,0.09634414,0.0,0.0,0.0,1.0659994,1.0655583,1.0061556,0.0,0.0,0.0,0.0,0.0,0.0
5020000,4940000,0.099359855,0.09937643,0.20932387,1.0003347,1.0003349,1.9813619,0.0,0.0,0.0,0.0,0.0,0.0,0.0,12.994421,0.0,0.0,nan,0.0,0.0,0.0,0.0,0.09639704,0.0,0.0,0.0,1.0647651,1.064343,1.0061535,0.0,0.0,0.0,0.0,0.0,0.0
5028000,4948000,0.099359855,0.09937643,0.20932387,1.0003347,1.0003349,1.9813619,0.0,0.0,0.0,0.0,0.0,0.0,0.0,12.994421,0.0,0.0,nan,0.0,0.0,0.0,0.0,0.09639704,0.0,0.0,0.0,1.0651839,1.0647557,1.0061537,0.0,0.0,0.0,0.0,0.0,0.0
5036000,4956000,0.099359855,0.09937643,0.20932387,1.0003347,1.0003349,1.9813619,0.0,0.0,0.0,0.0,0.0,0.0,0.0,12.994421,0.0,0.0,nan,0.0,0.0,0.0,0.0,0.09639704,0.0,0.0,0.0,1.0656055,1.065171,1.006154,0.0,0.0,0.0,0.0,0.0,0.0
5044000,4964000,0.099359855,0.09937643,0.20932387,1.0003347,1.0003349,1.9813619,0.0,0.0,0.0,0.0,0.0,0.0,0.0,12.994421,0.0,0.0,nan,0.0,0.0,0.0,0.0,0.09639704,0.0,0.0,0.0,1.06603,1.0655893,1.0061544,0.0,0.0,0.0,0.0,0.0,0.0
5052000,4972000,0.099359855,0.09937643,0.20932387,1.0003347,1.0003349,1.9813619,0.0,0.0,0.0,0.0,0.0,0.0,0.0,12.994421,0.0,0.0,nan,0.0,0.0,0.0,0.0,0.09639704,0.0,0.0,0.0,1.0664576,1.0660106,1.0061545,0.0,0.0,0.0,0.0,0.0,0.0
5060000,4980000,0.099359855,0.09937643,0.20932387,1.0003347,1.0003349,1.9813619,0.0,0.0,0.0,0.0,0.0,0.0,0.0,12.951939,0.0,0.0,nan,0.0,0.0,0.0,0.0,0.09639704,0.0,0.0,0.0,1.0668881,1.066435,1.0061548,0.0,0.0,0.0,0.0,0.0,0.0
5068000,4988000,0.099359855,0.09937643,0.20932387,1.0003347,1.0003349,1.9813619,0.0,0.0,0.0,0.0,0.0,0.0,0.0,12.951939,0.0,0.0,nan,0.0,0.0,0.0,0.0,0.09639704,0.0,0.0,0.0,1.0673217,1.066862,1.0061553,0.0,0.0,0.0,0.0,0.0,0.0
5076000,4996000,0.099359855,0.09937643,0.20932387,1.0003347,1.0003349,1.9813619,0.0,0.0,0.0,0.0,0.0,0.0,0.0,12.951939,0.0,0.0,nan,0.0,0.0,0.0,0.0,0.09639704,0.0,0.0,0.0,1.067758,1.0672919,1.0061556,0.0,0.0,0.0,0.0,0.0,0.0
5084000,5004000,0.099359855,0.09937643,0.20932387,1.0003347,1.0003349,1.9813619,0.0,0.0,0.0,0.0,0.0,0.0,0.0,12.951939,0.0,0.0,nan,0.0,0.0,0.0,0.0,0.09639704,0.0,0.0,0.0,1.0681975,1.0677248,1.0061557,0.0,0.0,0.0,0.0,0.0,0.0
5092000,5012000,0.099359855,0.09937643,0.20932387,1.0003347,1.0003349,1.9813619,0.0,0.0,0.0,0.0,0.0,0.0,0.0,12.951939,0.0,0.0,nan,0.0,0.0,0.0,0.0,0.09644662,0.0,0.0,0.0,1.0686398,1.0681605,1.0061558,0.0,0.0,0.0,0.0,0.0,0.0
5100000,5020000,0.09415545,0.09417571,0.21079332,1.0002121,1.0002124,1.6641798,0.0,0.0,0.0,0.0,0.0,0.0,0.0,12.951939,0.0,0.0,nan,0.0,0.0,0.0,0.0,0.09644662,0.0,0.0,0.0,1.0690852,1.0685993,1.0061561,0.0,0.0,0.0,0.0,0.0,0.0
5108000,5028000,0.09415545,0.09417571,0.21079332,1.0002121,1.0002124,1.6641798,0.0,0.0,0.0,0.0,0.0,0.0,0.0,12.951939,0.0,0.0,nan,0.0,0.0,0.0,0.0,0.09644662,0.0,0.0,0.0,1.0695336,1.069041,1.0061563,0.0,0.0,0.0,0.0,0.0,0.0
5116000,5036000,0.09415545,0.09417571,0.21079332,1.0002121,1.0002124,1.6641798,0.0,0.0,0.0,0.0,0.0,0.0,0.0,12.914303,0.0,0.0,nan,0.0,0.0,0.0,0.0,0.09644662,0.0,0.0,0.0,1.0699849,1.0694857,1.0061568,0.0,0.0,0.0,0.0,0.0,0.0
5124000,5044000,0.09415545,0.09417571,0.21079332,1.0002121,1.0002124,1.6641798,0.0,0.0,0.0,0.0,0.0,0.0,0.0,12.914303,0.0,0.0,nan,0.0,0.0,0.0,0.0,0.09644662,0.0,0.0,0.0,1.0704393,1.069933,1.006157,0.0,0.0,0.0,0.0,0.0,0.0
5132000,5052000,0.09415545,0.09417571,0.21079332,1.0002121,1.0002124,1.6641798,0.0,0.0,0.0,0.0,0.0,0.0,0.0,12.914303,0.0,0.0,nan,0.0,0.0,0.0,0.0,0.09644662,0.0,0.0,0.0,1.0708966,1.0703835,1.0061573,0.0,0.0,0.0,0.0,0.0,0.0
5140000,5060000,0.09415545,0.09417571,0.21079332,1.0002121,1.0002124,1.6641798,0.0,0.0,0.0,0.0,0.0,0.0,0.0,12.914303,0.0,0.0,nan,0.0,0.0,0.0,0.0,0.09644662,0.0,0.0,0.0,1.0713569,1.0708369,1.0061575,0.0,0.0,0.0,0.0,0.0,0.0
5148000,5068000,0.09415545,0.09417571,0.21079332,1.0002121,1.0002124,1.6641798,0.0,0.0,0.0,0.0,0.0,0.0,0.0,12.914303,0.0,0.0,nan,0.0,0.0,0.0,0.0,0.09644662,0.0,0.0,0.0,1.0718201,1.0712934,1.006158,0.0,0.0,0.0,0.0,0.0,0.0
5156000,5076000,0.09415545,0.09417571,0.21079332,1.0002121,1.0002124,1.6641798,0.0,0.0,0.0,0.0,0.0,0.0,0.0,12.914303,0.0,0.0,nan,0.0,0.0,0.0,0.0,0.09644662,0.0,0.0,0.0,1.0722864,1.0717525,1.0061584,0.0,0.0,0.0,0.0,0.0,0.0
5164000,5084000,0.09415545,0.09417571,0.21079332,1.0002121,1.0002124,1.6641798,0.0,0.0,0.0,0.0,0.0,0.0,0.0,12.914303,0.0,0.0,nan,0.0,0.0,0.0,0.0,0.096491516,0.0,0.0,0.0,1.0727553,1.0722145,1.0061595,0.0,0.0,0.0,0.0,0.0,0.0
5172000,5092000,0.09415545,0.09417571,0.21079332,1.0002121,1.0002124,1.6641798,0.0,0.0,0.0,0.0,0.0,0.0,0.0,12.914303,0.0,0.0,nan,0.0,0.0,0.0,0.0,0.096491516,0.0,0.0,0.0,1.0732276,1.0726794,1.00616,0.0,0.0,0.0,0.0,0.0,0.0
5180000,5100000,0.09415545,0.09417571,0.21079332,1.0002121,1.0002124,1.6641798,0.0,0.0,0.0,0.0,0.0,0.0,0.0,12.880654,0.0,0.0,nan,0.0,0.0,0.0,0.0,0.096491516,0.0,0.0,0.0,1.0737028,1.0731475,1.0061603,0.0,0.0,0.0,0.0,0.0,0.0
5188000,5108000,0.09415545,0.09417571,0.21079332,1.0002121,1.0002124,1.6641798,0.0,0.0,0.0,0.0,0.0,0.0,0.0,12.880654,0.0,0.0,nan,0.0,0.0,0.0,0.0,0.096491516,0.0,0.0,0.0,1.0741808,1.0736184,1.0061605,0.0,0.0,0.0,0.0,0.0,0.0
5196000,5116000,0.09415545,0.09417571,0.21079332,1.0002121,1.0002124,1.6641798,0.0,0.0,0.0,0.0,0.0,0.0,0.0,12.880654,0.0,0.0,nan,0.0,0.0,0.0,0.0,0.096491516,0.0,0.0,0.0,1.054204,1.0538765,1.0061445,0.0,0.0,0.0,0.0,0.0,0.0
5204000,5124000,0.09415545,0.09417571,0.21079332,1.0002121,1.0002124,1.6641798,0.0,0.0,0.0,0.0,0.0,0.0,0.0,12.880654,0.0,0.0,nan,0.0,0.0,0.0,0.0,0.096491516,0.0,0.0,0.0,1.0544485,1.0541168,1.0061445,0.0,0.0,0.0,0.0,0.0,0.0
5212000,5132000,0.09415545,0.09417571,0.21079332,1.0002121,1.0002124,1.6641798,0.0,0.0,0.0,0.0,0.0,0.0,0.0,12.880654,0.0,0.0,nan,0.0,0.0,0.0,0.0,0.096491516,0.0,0.0,0.0,1.0546948,1.0543592,1.0061445,0.0,0.0,0.0,0.0,0.0,0.0
5220000,5140000,0.09415545,0.09417571,0.21079332,1.0002121,1.0002124,1.6641798,0.0,0.0,0.0,0.0,0.0,0.0,0.0,12.880654,0.0,0.0,nan,0.0,0.0,0.0,0.0,0.096491516,0.0,0.0,0.0,1.0549425,1.0546027,1.0061448,0.0,0.0,0.0,0.0,0.0,0.0
5228000,5148000,0.09415545,0.09417571,0.21079332,1.0002121,1.0002124,1.6641798,0.0,0.0,0.0,0.0,0.0,0.0,0.0,12.880654,0.0,0.0,nan,0.0,0.0,0.0,0.0,0.096491516,0.0,0.0,0.0,1.0543971,1.0540679,1.0061443,0.0,0.0,0.0,0.0,0.0,0.0
5236000,5156000,0.09415545,0.09417571,0.21079332,1.0002121,1.0002124,1.6641798,0.0,0.0,0.0,0.0,0.0,0.0,0.0,12.84983,0.0,0.0,nan,0.0,0.0,0.0,0.0,0.096530676,0.0,0.0,0.0,1.0546384,1.0543052,1.006144,0.0,0.0,0.0,0.0,0.0,0.0
5244000,5164000,0.09415545,0.09417571,0.21079332,1.0002121,1.0002124,1.6641798,0.0,0.0,0.0,0.0,0.0,0.0,0.0,12.84983,0.0,0.0,nan,0.0,0.0,0.0,0.0,0.096530676,0.0,0.0,0.0,1.0548812,1.0545441,1.0061442,0.0,0.0,0.0,0.0,0.0,0.0
5252000,5172000,0.09415545,0.09417571,0.21079332,1.0002121,1.0002124,1.6641798,0.0,0.0,0.0,0.0,0.0,0.0,0.0,12.84983,0.0,0.0,nan,0.0,0.0,0.0,0.0,0.096530676,0.0,0.0,0.0,1.0551257,1.0547845,1.0061445,0.0,0.0,0.0,0.0,0.0,0.0
5260000,5180000,0.09415545,0.09417571,0.21079332,1.0002121,1.0002124,1.6641798,0.0,0.0,0.0,0.0,0.0,0.0,0.0,12.84983,0.0,0.0,nan,0.0,0.0,0.0,0.0,0.096530676,0.0,0.0,0.0,1.0553716,1.0550263,1.0061446,0.0,0.0,0.0,0.0,0.0,0.0
5268000,5188000,0.09415545,0.09417571,0.21079332,1.0002121,1.0002124,1.6641798,0.0,0.0,0.0,0.0,0.0,0.0,0.0,12.84983,0.0,0.0,nan,0.0,0.0,0.0,0.0,0.096530676,0.0,0.0,0.0,1.0556191,1.0552697,1.0061448,0.0,0.0,0.0,0.0,0.0,0.0
5276000,5196000,0.09415545,0.09417571,0.21079332,1.0002121,1.0002124,1.6641798,0.0,0.0,0.0,0.0,0.0,0.0,0.0,12.84983,0.0,0.0,nan,0.0,0.0,0.0,0.0,0.096530676,0.0,0.0,0.0,1.0558681,1.0555148,1.006145,0.0,0.0,0.0,0.0,0.0,0.0
5284000,5204000,0.09415545,0.09417571,0.21079332,1.0002121,1.0002124,1.6641798,0.0,0.0,0.0,0.0,0.0,0.0,0.0,12.84983,0.0,0.0,nan,0.0,0.0,0.0,0.0,0.096530676,0.0,0.0,0.0,1.0561188,1.0557612,1.0061452,0.0,0.0,0.0,0.0,0.0,0.0
5292000,5212000,0.09415545,0.09417571,0.21079332,1.0002121,1.0002124,1.6641798,0.0,0.0,0.0,0.0,0.0,0.0,0.0,12.84983,0.0,0.0,nan,0.0,0.0,0.0,0.0,0.096530676,0.0,0.0,0.0,1.0563709,1.0560089,1.0061452,0.0,0.0,0.0,0.0,0.0,0.0
5300000,5220000,0.09415545,0.09417571,0.21079332,1.0002121,1.0002124,1.6641798,0.0,0.0,0.0,0.0,0.0,0.0,0.0,12.822357,0.0,0.0,nan,0.0,0.0,0.0,0.0,0.096530676,0.0,0.0,0.0,1.0566245,1.0562584,1.0061455,0.0,0.0,0.0,0.0,0.0,0.0
5308000,5228000,0.09415545,0.09417571,0.21079332,1.0002121,1.0002124,1.6641798,0.0,0.0,0.0,0.0,0.0,0.0,0.0,12.822357,0.0,0.0,nan,0.0,0.0,0.0,0.0,0.09656354,0.0,0.0,0.0,1.0568793,1.056509,1.0061467,0.0,0.0,0.0,0.0,0.0,0.0
5316000,5236000,0.09415545,0.09417571,0.21079332,1.0002121,1.0002124,1.6641798,0.0,0.0,0.0,0.0,0.0,0.0,0.0,12.822357,0.0,0.0,nan,0.0,0.0,0.0,0.0,0.09656354,0.0,0.0,0.0,1.0571359,1.0567615,1.0061468,0.0,0.0,0.0,0.0,0.0,0.0
5324000,5244000,0.09415545,0.09417571,0.21079332,1.0002121,1.0002124,1.6641798,0.0,0.0,0.0,0.0,0.0,0.0,0.0,12.822357,0.0,0.0,nan,0.0,0.0,0.0,0.0,0.09656354,0.0,0.0,0.0,1.0573941,1.0570153,1.0061469,0.0,0.0,0.0,0.0,0.0,0.0
5332000,5252000,0.09415545,0.09417571,0.21079332,1.0002121,1.0002124,1.6641798,0.0,0.0,0.0,0.0,0.0,0.0,0.0,12.822357,0.0,0.0,nan,0.0,0.0,0.0,0.0,0.09656354,0.0,0.0,0.0,1.0576539,1.0572706,1.0061471,0.0,0.0,0.0,0.0,0.0,0.0
5340000,5260000,0.09415545,0.09417571,0.21079332,1.0002121,1.0002124,1.6641798,0.0,0.0,0.0,0.0,0.0,0.0,0.0,12.822357,0.0,0.0,nan,0.0,0.0,0.0,0.0,0.09656354,0.0,0.0,0.0,1.0579151,1.0575275,1.0061474,0.0,0.0,0.0,0.0,0.0,0.0
5348000,5268000,0.09415545,0.09417571,0.21079332,1.0002121,1.0002124,1.6641798,0.0,0.0,0.0,0.0,0.0,0.0,0.0,12.822357,0.0,0.0,nan,0.0,0.0,0.0,0.0,0.09656354,0.0,0.0,0.0,1.0581778,1.0577857,1.0061476,0.0,0.0,0.0,0.0,0.0,0.0
5356000,5276000,0.09415545,0.09417571,0.21079332,1.0002121,1.0002124,1.6641798,0.0,0.0,0.0,0.0,0.0,0.0,0.0,12.797321,0.0,0.0,nan,0.0,0.0,0.0,0.0,0.09656354,0.0,0.0,0.0,1.0584421,1.0580456,1.0061479,0.0,0.0,0.0,0.0,0.0,0.0
5364000,5284000,0.09415545,0.09417571,0.21079332,1.0002121,1.0002124,1.6641798,0.0,0.0,0.0,0.0,0.0,0.0,0.0,12.797321,0.0,0.0,nan,0.0,0.0,0.0,0.0,0.09656354,0.0,0.0,0.0,1.058708,1.0583069,1.0061479,0.0,0.0,0.0,0.0,0.0,0.0
5372000,5292000,0.09415545,0.09417571,0.21079332,1.0002121,1.0002124,1.6641798,0.0,0.0,0.0,0.0,0.0,0.0,0.0,12.797321,0.0,0.0,nan,0.0,0.0,0.0,0.0,0.09656354,0.0,0.0,0.0,1.0589752,1.0585699,1.0061481,0.0,0.0,0.0,0.0,0.0,0.0
5380000,5300000,0.09415545,0.09417571,0.21079332,1.0002121,1.0002124,1.6641798,0.0,0.0,0.0,0.0,0.0,0.0,0.0,12.797321,0.0,0.0,nan,0.0,0.0,0.0,0.0,0.09658956,0.0,0.0,0.0,1.0592438,1.0588341,1.0061485,0.0,0.0,0.0,0.0,0.0,0.0
5388000,5308000,0.09415545,0.09417571,0.21079332,1.0002121,1.0002124,1.6641798,0.0,0.0,0.0,0.0,0.0,0.0,0.0,12.797321,0.0,0.0,nan,0.0,0.0,0.0,0.0,0.09658956,0.0,0.0,0.0,1.0595142,1.0590998,1.0061486,0.0,0.0,0.0,0.0,0.0,0.0
5396000,5316000,0.09415545,0.09417571,0.21079332,1.0002121,1.0002124,1.6641798,0.0,0.0,0.0,0.0,0.0,0.0,0.0,12.797321,0.0,0.0,nan,0.0,0.0,0.0,0.0,0.09658956,0.0,0.0,0.0,1.0597861,1.0593673,1.0061488,0.0,0.0,0.0,0.0,0.0,0.0
5404000,5324000,0.09415545,0.09417571,0.21079332,1.0002121,1.0002124,1.6641798,0.0,0.0,0.0,0.0,0.0,0.0,0.0,12.797321,0.0,0.0,nan,0.0,0.0,0.0,0.0,0.09658956,0.0,0.0,0.0,1.0485244,1.0482674,1.0061399,0.0,0.0,0.0,0.0,0.0,0.0
5412000,5332000,0.09415545,0.09417571,0.21079332,1.0002121,1.0002124,1.6641798,0.0,0.0,0.0,0.0,0.0,0.0,0.0,12.797321,0.0,0.0,nan,0.0,0.0,0.0,0.0,0.09658956,0.0,0.0,0.0,1.0486788,1.0484192,1.0061401,0.0,0.0,0.0,0.0,0.0,0.0
5420000,5340000,0.09415545,0.09417571,0.21079332,1.0002121,1.0002124,1.6641798,0.0,0.0,0.0,0.0,0.0,0.0,0.0,12.774563,0.0,0.0,nan,0.0,0.0,0.0,0.0,0.09658956,0.0,0.0,0.0,1.0488342,1.048572,1.0061401,0.0,0.0,0.0,0.0,0.0,0.0
5428000,5348000,0.09415545,0.09417571,0.21079332,1.0002121,1.0002124,1.6641798,0.0,0.0,0.0,0.0,0.0,0.0,0.0,12.774563,0.0,0.0,nan,0.0,0.0,0.0,0.0,0.09658956,0.0,0.0,0.0,1.0489905,1.0487254,1.0061404,0.0,0.0,0.0,0.0,0.0,0.0
5436000,5356000,0.09415545,0.09417571,0.21079332,1.0002121,1.0002124,1.6641798,0.0,0.0,0.0,0.0,0.0,0.0,0.0,12.774563,0.0,0.0,nan,0.0,0.0,0.0,0.0,0.09658956,0.0,0.0,0.0,1.0487193,1.0484602,1.0061401,0.0,0.0,0.0,0.0,0.0,0.0
5444000,5364000,0.09415545,0.09417571,0.21079332,1.0002121,1.0002124,1.6641798,0.0,0.0,0.0,0.0,0.0,0.0,0.0,12.774563,0.0,0.0,nan,0.0,0.0,0.0,0.0,0.09658956,0.0,0.0,0.0,1.0488727,1.048611,1.0061402,0.0,0.0,0.0,0.0,0.0,0.0
5452000,5372000,0.09415545,0.09417571,0.21079332,1.0002121,1.0002124,1.6641798,0.0,0.0,0.0,0.0,0.0,0.0,0.0,12.774563,0.0,0.0,nan,0.0,0.0,0.0,0.0,0.09660847,0.0,0.0,0.0,1.0490268,1.0487628,1.00614,0.0,0.0,0.0,0.0,0.0,0.0
5460000,5380000,0.09415545,0.09417571,0.21079332,1.0002121,1.0002124,1.6641798,0.0,0.0,0.0,0.0,0.0,0.0,0.0,12.774563,0.0,0.0,nan,0.0,0.0,0.0,0.0,0.09660847,0.0,0.0,0.0,1.0491822,1.0489155,1.0061401,0.0,0.0,0.0,0.0,0.0,0.0
5468000,5388000,0.09415545,0.09417571,0.21079332,1.0002121,1.0002124,1.6641798,0.0,0.0,0.0,0.0,0.0,0.0,0.0,12.774563,0.0,0.0,nan,0.0,0.0,0.0,0.0,0.09660847,0.0,0.0,0.0,1.0493382,1.0490688,1.0061401,0.0,0.0,0.0,0.0,0.0,0.0
5476000,5396000,0.09415545,0.09417571,0.21079332,1.0002121,1.0002124,1.6641798,0.0,0.0,0.0,0.0,0.0,0.0,0.0,12.752989,0.0,0.0,nan,0.0,0.0,0.0,0.0,0.09660847,0.0,0.0,0.0,1.0494952,1.0492233,1.0061402,0.0,0.0,0.0,0.0,0.0,0.0
5484000,5404000,0.09415545,0.09417571,0.21079332,1.0002121,1.0002124,1.6641798,0.0,0.0,0.0,0.0,0.0,0.0,0.0,12.752989,0.0,0.0,nan,0.0,0.0,0.0,0.0,0.09660847,0.0,0.0,0.0,1.0496532,1.0493784,1.0061404,0.0,0.0,0.0,0.0,0.0,0.0
5492000,5412000,0.09415545,0.09417571,0.21079332,1.0002121,1.0002124,1.6641798,0.0,0.0,0.0,0.0,0.0,0.0,0.0,12.752989,0.0,0.0,nan,0.0,0.0,0.0,0.0,0.09660847,0.0,0.0,0.0,1.0498118,1.0495346,1.0061405,0.0,0.0,0.0,0.0,0.0,0.0
5500000,5420000,0.09236522,0.092379384,0.21104494,1.000153,1.0001533,1.4833783,0.0,0.0,0.0,0.0,0.0,0.0,0.0,12.752989,0.0,0.0,nan,0.0,0.0,0.0,0.0,0.09660847,0.0,0.0,0.0,1.0499715,1.0496916,1.0061405,0.0,0.0,0.0,0.0,0.0,0.0
5508000,5428000,0.09236522,0.092379384,0.21104494,1.000153,1.0001533,1.4833783,0.0,0.0,0.0,0.0,0.0,0.0,0.0,12.752989,0.0,0.0,nan,0.0,0.0,0.0,0.0,0.09660847,0.0,0.0,0.0,1.050132,1.0498493,1.0061406,0.0,0.0,0.0,0.0,0.0,0.0
5516000,5436000,0.09236522,0.092379384,0.21104494,1.000153,1.0001533,1.4833783,0.0,0.0,0.0,0.0,0.0,0.0,0.0,12.752989,0.0,0.0,nan,0.0,0.0,0.0,0.0,0.09660847,0.0,0.0,0.0,1.0502934,1.0500079,1.0061406,0.0,0.0,0.0,0.0,0.0,0.0
5524000,5444000,0.09236522,0.092379384,0.21104494,1.000153,1.0001533,1.4833783,0.0,0.0,0.0,0.0,0.0,0.0,0.0,12.752989,0.0,0.0,nan,0.0,0.0,0.0,0.0,0.09662021,0.0,0.0,0.0,1.0504555,1.0501673,1.0061413,0.0,0.0,0.0,0.0,0.0,0.0
