timestamp,timestamp_sample,time_last_fuse,device_id,observation[0],observation[1],observation[2],observation_variance[0],observation_variance[1],observation_variance[2],innovation[0],innovation[1],innovation[2],innovation_variance[0],innovation_variance[1],innovation_variance[2],test_ratio[0],test_ratio[1],test_ratio[2],estimator_instance,fusion_enabled,innovation_rejected,fused
3236000,3211000,0,0,0.008824453,-0.2176095,0.42623472,0.0,0.0,0.0,-0.008824453,0.2176095,-0.42623472,0.0,0.0,0.0,0.0,0.0,0.0,0,0,0,0
3364000,3282201,0,0,0.008019219,-0.21460307,0.4276759,0.0,0.0,0.0,-0.008019219,0.21460307,-0.4276759,0.0,0.0,0.0,inf,inf,inf,0,0,1,0
3436000,3354950,0,0,0.0074648946,-0.21746828,0.4347926,0.0,0.0,0.0,0.0014331252,8.709729e-05,-0.008453876,0.0,0.0,0.0,inf,inf,inf,0,0,1,0
3508000,3426015,0,0,0.010922943,-0.21729359,0.4283756,0.0,0.0,0.0,-0.0018521668,-0.00010621548,-0.0020499825,0.0,0.0,0.0,inf,inf,inf,0,0,1,0
3580000,3499124,0,0,0.012662404,-0.2208443,0.42743695,0.0,0.0,0.0,-0.0036858255,0.0042012334,-0.00072425604,0.0,0.0,0.0,inf,inf,inf,0,0,1,0
3652000,3570171,0,0,0.008857775,-0.21389131,0.4285528,0.0,0.0,0.0,0.0008623721,-0.0038221478,-0.0012379885,0.0,0.0,0.0,inf,inf,inf,0,0,1,0
3724000,3643269,0,0,0.010165687,-0.21654108,0.42757124,0.0,0.0,0.0,-0.00039267074,-0.0012134314,-0.0002785921,0.0,0.0,0.0,inf,inf,inf,0,0,1,0
3796000,3713559,0,0,0.010099129,-0.21675973,0.4295082,0.0,0.0,0.0,-0.00013893936,-0.0009936243,-0.0022193193,0.0,0.0,0.0,inf,inf,inf,0,0,1,0
3868000,3787390,0,0,0.003462465,-0.21183299,0.42760217,0.0,0.0,0.0,0.0067154006,-0.00590533,-0.000310719,0.0,0.0,0.0,inf,inf,inf,0,0,1,0
3940000,3858395,0,0,0.010888887,-0.21749772,0.42997167,0.0,0.0,0.0,-0.0010728212,-0.00026591122,-0.002684623,0.0,0.0,0.0,inf,inf,inf,0,0,1,0
4012000,3931491,0,0,0.012772626,-0.22128722,0.4299018,0.0,0.0,0.0,-0.0029180115,0.0035663396,-0.002593875,0.0,0.0,0.0,inf,inf,inf,0,0,1,0
4084000,4002839,0,0,0.012779201,-0.21504419,0.42934626,0.0,0.0,0.0,-0.002602431,-0.0026919693,-0.0020536184,0.0,0.0,0.0,inf,inf,inf,0,0,1,0
4156000,4075575,0,0,0.010802907,-0.21566938,0.42910835,0.0,0.0,0.0,-0.00068053324,-0.001996234,-0.0017785728,0.0,0.0,0.0,inf,inf,inf,0,0,1,0
4228000,4145819,0,0,0.009917139,-0.21602196,0.42941433,0.0,0.0,0.0,0.00025293324,-0.0016588271,-0.0020933747,0.0,0.0,0.0,inf,inf,inf,0,0,1,0
4300000,4219646,0,0,0.007231662,-0.21685575,0.4296651,0.0,0.0,0.0,0.0030198153,-0.00087594986,-0.0023720562,0.0,0.0,0.0,inf,inf,inf,0,0,1,0
4372000,4290610,0,0,0.01118599,-0.21742834,0.4281639,0.0,0.0,0.0,-0.0015253508,-0.0002950281,-0.00085276365,0.0,0.0,0.0,inf,inf,inf,0,0,1,0
4444000,4363704,0,0,0.018399607,-0.21139956,0.42977944,0.0,0.0,0.0,-0.00867651,-0.0063313544,-0.0024735928,0.0,0.0,0.0,inf,inf,inf,0,0,1,0
4516000,4434657,0,0,0.00973691,-0.21555956,0.42898187,0.0,0.0,0.0,0.00062300265,-0.002130255,-0.0016700327,0.0,0.0,0.0,inf,inf,inf,0,0,1,0
4588000,4507753,0,0,0.01061486,-0.21265829,0.42644173,0.0,0.0,0.0,-0.00058118533,-0.005062327,0.0008621812,0.0,0.0,0.0,inf,inf,inf,0,0,1,0
4660000,4577971,0,0,0.009640167,-0.21807992,0.4270415,0.0,0.0,0.0,0.0004253965,0.00036118925,0.00026264787,0.0,0.0,0.0,inf,inf,inf,0,0,1,0
4732000,4651794,0,0,0.010743514,-0.21750513,0.4274533,0.0,0.0,0.0,-0.0007105991,-0.00021770597,-0.00015047193,0.0,0.0,0.0,inf,inf,inf,0,0,1,0
4804000,4722006,0,0,0.012038991,-0.21487781,0.4310608,0.0,0.0,0.0,-0.002089031,-0.0027313828,-0.0036981702,0.0,0.0,0.0,inf,inf,inf,0,0,1,0
4876000,4795828,0,0,0.013821151,-0.21307668,0.42583653,0.0,0.0,0.0,-0.0037071593,-0.0045071393,0.0015351474,0.0,0.0,0.0,inf,inf,inf,0,0,1,0
4948000,4866035,0,0,0.008520918,-0.21651496,0.42977428,0.0,0.0,0.0,0.0018109437,-0.0010674596,-0.002407074,0.0,0.0,0.0,inf,inf,inf,0,0,1,0
5020000,4939857,0,0,0.007850355,-0.21883255,0.42611477,0.0,0.0,0.0,0.0024169628,0.0015362352,0.0013994873,0.0,0.0,0.0,inf,inf,inf,0,0,1,0
5092000,5010059,0,0,0.009197014,-0.21676338,0.42842573,0.0,0.0,0.0,0.00092538167,-0.00048604608,-0.0008841157,0.0,0.0,0.0,inf,inf,inf,0,0,1,0
5164000,5083881,0,0,0.013612775,-0.21911617,0.43367678,0.0,0.0,0.0,-0.0035585817,0.0018866509,-0.006123483,0.0,0.0,0.0,inf,inf,inf,0,0,1,0
5236000,5154079,0,0,0.009675379,-0.21636236,0.42817143,0.0,0.0,0.0,0.000633304,-0.0007240027,-0.000551492,0.0,0.0,0.0,inf,inf,inf,0,0,1,0
5308000,5227900,0,0,0.013444212,-0.21714449,0.4281817,0.0,0.0,0.0,-0.0031585516,7.599592e-05,-0.00055217743,0.0,0.0,0.0,inf,inf,inf,0,0,1,0
5380000,5299187,0,0,0.011125308,-0.21612038,0.42952776,0.0,0.0,0.0,-0.0005890252,-0.0009345561,-0.0018973947,0.0,0.0,0.0,inf,inf,inf,0,0,1,0
5452000,5371917,0,0,0.010049947,-0.20963867,0.42640236,0.0,0.0,0.0,0.00054033846,-0.007362291,0.0012539923,0.0,0.0,0.0,inf,inf,inf,0,0,1,0
5524000,5442838,0,0,0.012309374,-0.21679318,0.42920828,0.0,0.0,0.0,-0.0017294977,-0.00015634298,-0.0015255213,0.0,0.0,0.0,inf,inf,inf,0,0,1,0
5596000,5515931,0,0,0.01029931,-0.21670233,0.4211833,0.0,0.0,0.0,0.0004345253,-0.00021190941,0.006513536,0.0,0.0,0.0,inf,inf,inf,0,0,1,0
5668000,5587214,0,0,0.009434827,-0.21453933,0.43112713,0.0,0.0,0.0,0.0013061836,-0.0024761856,-0.003481865,0.0,0.0,0.0,inf,inf,inf,0,0,1,0
5740000,5659942,0,0,0.006175791,-0.21254571,0.4267381,0.0,0.0,0.0,0.004451814,-0.004439041,0.0009255707,0.0,0.0,0.0,inf,inf,inf,0,0,1,0
5812000,5730860,0,0,0.008672748,-0.21669295,0.42954624,0.0,0.0,0.0,0.001660239,-0.00029338896,-0.0018761158,0.0,0.0,0.0,inf,inf,inf,0,0,1,0
5884000,5803952,0,0,0.00851287,-0.20892636,0.4257072,0.0,0.0,0.0,0.0016690707,-0.008180052,0.0019055903,0.0,0.0,0.0,inf,inf,inf,0,0,1,0
5956000,5874504,0,0,0.0099408915,-0.21611075,0.4287219,0.0,0.0,0.0,0.00014769379,-0.0009974092,-0.0011077523,0.0,0.0,0.0,inf,inf,inf,0,0,1,0
6028000,5947960,0,0,0.007867536,-0.21527176,0.4297004,0.0,0.0,0.0,0.002248982,-0.0018671304,-0.0021025538,0.0,0.0,0.0,inf,inf,inf,0,0,1,0
6100000,6018147,0,0,0.010784844,-0.2148926,0.427702,0.0,0.0,0.0,-0.0008291323,-0.0022158623,-8.493662e-05,0.0,0.0,0.0,inf,inf,inf,0,0,1,0
6172000,6091967,0,0,0.015238209,-0.21555068,0.4291808,0.0,0.0,0.0,-0.005239835,-0.0015669018,-0.0015692711,0.0,0.0,0.0,inf,inf,inf,0,0,1,0
6244000,6162153,0,0,0.008638483,-0.2149682,0.42956123,0.0,0.0,0.0,0.0017061271,-0.002139911,-0.0019532144,0.0,0.0,0.0,inf,inf,inf,0,0,1,0
6316000,6235972,0,0,0.010463324,-0.20905414,0.4204287,0.0,0.0,0.0,-0.00020937342,-0.008041412,0.007187903,0.0,0.0,0.0,inf,inf,inf,0,0,1,0
6388000,6307249,0,0,0.010075313,-0.21476933,0.42900014,0.0,0.0,0.0,0.00024479162,-0.0022947192,-0.0013691783,0.0,0.0,0.0,inf,inf,inf,0,0,1,0
6460000,6379977,0,0,0.007076331,-0.21745571,0.4294035,0.0,0.0,0.0,0.003257304,0.00044634938,-0.0017451346,0.0,0.0,0.0,inf,inf,inf,0,0,1,0
6532000,6451252,0,0,0.010347001,-0.21679534,0.42812213,0.0,0.0,0.0,-0.00021060556,-0.00020052493,-0.00045213103,0.0,0.0,0.0,inf,inf,inf,0,0,1,0
6604000,6523981,0,0,0.018154688,-0.21675277,0.43222177,0.0,0.0,0.0,-0.007985964,-0.00020758808,-0.0045345426,0.0,0.0,0.0,inf,inf,inf,0,0,1,0
6676000,6594893,0,0,0.009543749,-0.2157419,0.429736,0.0,0.0,0.0,0.0012032073,-0.0012052953,-0.0020562112,0.0,0.0,0.0,inf,inf,inf,0,0,1,0
6748000,6667984,0,0,0.015293713,-0.21380447,0.4274136,0.0,0.0,0.0,-0.004610653,-0.0030781627,0.00030049682,0.0,0.0,0.0,inf,inf,inf,0,0,1,0
6820000,6739259,0,0,0.009219237,-0.21713464,0.42963064,0.0,0.0,0.0,0.0017728582,0.00029186904,-0.00190413,0.0,0.0,0.0,inf,inf,inf,0,0,1,0
6892000,6811987,0,0,0.007392026,-0.22382455,0.4315075,0.0,0.0,0.0,0.0036032056,0.006997302,-0.0037731826,0.0,0.0,0.0,inf,inf,inf,0,0,1,0
6964000,6883989,0,0,0.009494049,-0.21726124,0.42996347,0.0,0.0,0.0,0.001275654,0.0004823953,-0.002198875,0.0,0.0,0.0,inf,inf,inf,0,0,1,0
7036000,6951989,0,0,0.007348439,-0.21226484,0.42550355,0.0,0.0,0.0,0.003363864,-0.0044763833,0.0022815466,0.0,0.0,0.0,inf,inf,inf,0,0,1,0
7100000,7019591,0,0,0.01135339,-0.21471755,0.42893782,0.0,0.0,0.0,-0.0007508565,-0.0020682216,-0.0011725724,0.0,0.0,0.0,inf,inf,inf,0,0,1,0
7172000,7087991,0,0,0.012644212,-0.21966943,0.4289547,0.0,0.0,0.0,-0.0019830493,0.0029000044,-0.0011826456,0.0,0.0,0.0,inf,inf,inf,0,0,1,0
7244000,7158901,0,0,0.011281978,-0.21452193,0.4296207,0.0,0.0,0.0,-0.000489939,-0.0022257417,-0.0018409193,0.0,0.0,0.0,inf,inf,inf,0,0,1,0
7316000,7231992,0,0,0.001400695,-0.21519457,0.43025696,0.0,0.0,0.0,0.009474947,-0.0016354173,-0.0025210083,0.0,0.0,0.0,inf,inf,inf,0,0,1,0
7388000,7303266,0,0,0.008936202,-0.21507533,0.4305164,0.0,0.0,0.0,0.0013853628,-0.001749441,-0.0027640164,0.0,0.0,0.0,inf,inf,inf,0,0,1,0
7460000,7375994,0,0,0.010909791,-0.21254556,0.4311165,0.0,0.0,0.0,-0.0006434424,-0.004225552,-0.003335625,0.0,0.0,0.0,inf,inf,inf,0,0,1,0
7532000,7446176,0,0,0.010628713,-0.21330579,0.43300036,0.0,0.0,0.0,-0.00033663772,-0.0035651773,-0.0052706897,0.0,0.0,0.0,inf,inf,inf,0,0,1,0
7596000,7515995,0,0,0.008384908,-0.22066295,0.4376733,0.0,0.0,0.0,0.0019587185,0.0037810802,-0.009950429,0.0,0.0,0.0,inf,inf,inf,0,0,1,0
7668000,7585196,0,0,0.00887722,-0.21546955,0.42906705,0.0,0.0,0.0,0.0013968702,-0.0014017671,-0.0013371408,0.0,0.0,0.0,inf,inf,inf,0,0,1,0
7732000,7651996,0,0,0.012706193,-0.22196808,0.4292716,0.0,0.0,0.0,-0.0025126738,0.0049865246,-0.0015957057,0.0,0.0,0.0,inf,inf,inf,0,0,1,0
7804000,7722541,0,0,0.012752166,-0.21577395,0.42867917,0.0,0.0,0.0,-0.0024080854,-0.0012028366,-0.0010044575,0.0,0.0,0.0,inf,inf,inf,0,0,1,0
7876000,7795997,0,0,0.012540931,-0.21601605,0.42573655,0.0,0.0,0.0,-0.002093481,-0.00095668435,0.0019376874,0.0,0.0,0.0,inf,inf,inf,0,0,1,0
7948000,7866178,0,0,0.009125622,-0.21477087,0.4277676,0.0,0.0,0.0,0.0014351662,-0.0022610575,-0.00012612343,0.0,0.0,0.0,inf,inf,inf,0,0,1,0
8020000,7939997,0,0,0.007913508,-0.21455874,0.42960358,0.0,0.0,0.0,0.0025624922,-0.002424851,-0.0019355118,0.0,0.0,0.0,inf,inf,inf,0,0,1,0
8092000,8010907,0,0,0.01091119,-0.21757144,0.4293399,0.0,0.0,0.0,-0.0005382979,0.0006030202,-0.0016616285,0.0,0.0,0.0,inf,inf,inf,0,0,1,0
8164000,8083998,0,0,0.010298254,-0.2207238,0.43358472,0.0,0.0,0.0,0.00011236034,0.0037146658,-0.0059280097,0.0,0.0,0.0,inf,inf,inf,0,0,1,0
8236000,8154543,0,0,0.010728283,-0.21665515,0.4277801,0.0,0.0,0.0,-0.00032890402,-0.00033527613,-0.000113636255,0.0,0.0,0.0,inf,inf,inf,0,0,1,0
8308000,8227998,0,0,0.010868839,-0.22049132,0.43353283,0.0,0.0,0.0,-0.00046953466,0.003512621,-0.005860448,0.0,0.0,0.0,inf,inf,inf,0,0,1,0
8380000,8299271,0,0,0.0066550598,-0.21566853,0.42925835,0.0,0.0,0.0,0.003780134,-0.0013127923,-0.0015881658,0.0,0.0,0.0,inf,inf,inf,0,0,1,0
8452000,8371999,0,0,0.0142179495,-0.21481772,0.43137395,0.0,0.0,0.0,-0.0039785122,-0.0021553785,-0.0036948323,0.0,0.0,0.0,inf,inf,inf,0,0,1,0
8524000,8443271,0,0,0.009422071,-0.21593364,0.42770466,0.0,0.0,0.0,0.0010098517,-0.0010208637,-2.0802021e-05,0.0,0.0,0.0,inf,inf,inf,0,0,1,0
8596000,8515999,0,0,0.011721137,-0.21458584,0.4344056,0.0,0.0,0.0,-0.0013029305,-0.0023260713,-0.0066998005,0.0,0.0,0.0,inf,inf,inf,0,0,1,0
8668000,8586908,0,0,0.009171946,-0.21480854,0.42973706,0.0,0.0,0.0,0.001286367,-0.0020946115,-0.0020278096,0.0,0.0,0.0,inf,inf,inf,0,0,1,0
8740000,8659999,0,0,0.013246536,-0.21665843,0.4287039,0.0,0.0,0.0,-0.0028714389,-0.00021414459,-0.000977099,0.0,0.0,0.0,inf,inf,inf,0,0,1,0
8812000,8730908,0,0,0.008551456,-0.21732724,0.42760056,0.0,0.0,0.0,0.0019667745,0.0004938245,0.00014260411,0.0,0.0,0.0,inf,inf,inf,0,0,1,0
8884000,8803999,0,0,0.011612541,-0.22159393,0.43399385,0.0,0.0,0.0,-0.0011397218,0.0047608167,-0.006249398,0.0,0.0,0.0,inf,inf,inf,0,0,1,0
8956000,8875272,0,0,0.010187958,-0.21483725,0.42824304,0.0,0.0,0.0,0.00032367837,-0.0019913912,-0.00049734116,0.0,0.0,0.0,inf,inf,inf,0,0,1,0
9028000,8948000,0,0,0.009698083,-0.21800247,0.42811513,0.0,0.0,0.0,0.00081493985,0.0011794418,-0.00036656857,0.0,0.0,0.0,inf,inf,inf,0,0,1,0
9100000,9020000,0,0,0.008320717,-0.21486366,0.4275691,0.0,0.0,0.0,0.0021601487,-0.0019379258,0.0001911521,0.0,0.0,0.0,inf,inf,inf,0,0,1,0
9172000,9092000,0,0,0.006721952,-0.21389194,0.42773998,0.0,0.0,0.0,0.0036585992,-0.0028948486,3.015995e-05,0.0,0.0,0.0,inf,inf,inf,0,0,1,0
9244000,9162909,0,0,0.009123143,-0.21697348,0.42955023,0.0,0.0,0.0,0.0010717846,0.00016851723,-0.0017848015,0.0,0.0,0.0,inf,inf,inf,0,0,1,0
9316000,9236000,0,0,0.012076965,-0.21748926,0.43318325,0.0,0.0,0.0,-0.0019498374,0.00068600476,-0.00541535,0.0,0.0,0.0,inf,inf,inf,0,0,1,0
9388000,9307272,0,0,0.009616937,-0.2157369,0.42929095,0.0,0.0,0.0,0.0006354349,-0.001067847,-0.001526773,0.0,0.0,0.0,inf,inf,inf,0,0,1,0
9460000,9380000,0,0,0.009882825,-0.21970929,0.42788473,0.0,0.0,0.0,0.00036439765,0.00293912,-0.00010290742,0.0,0.0,0.0,inf,inf,inf,0,0,1,0
9532000,9449818,0,0,0.008310146,-0.21650375,0.4296604,0.0,0.0,0.0,0.0019015605,-0.0002590567,-0.0018740296,0.0,0.0,0.0,inf,inf,inf,0,0,1,0
9604000,9524000,0,0,0.017221972,-0.21432026,0.43140075,0.0,0.0,0.0,-0.007123925,-0.0024373084,-0.0036090314,0.0,0.0,0.0,inf,inf,inf,0,0,1,0
9676000,9595636,0,0,0.0072504217,-0.21659648,0.43086743,0.0,0.0,0.0,0.0031320741,-0.00013872981,-0.0030712187,0.0,0.0,0.0,inf,inf,inf,0,0,1,0
9748000,9668000,0,0,0.0024552415,-0.21637517,0.42805517,0.0,0.0,0.0,0.0078033214,-0.0003297031,-0.00024056435,0.0,0.0,0.0,inf,inf,inf,0,0,1,0
9820000,9738909,0,0,0.010186306,-0.2153829,0.42767844,0.0,0.0,0.0,-0.00026167836,-0.0013068467,0.00015166402,0.0,0.0,0.0,inf,inf,inf,0,0,1,0
9892000,9812000,0,0,0.014399681,-0.21430264,0.42608076,0.0,0.0,0.0,-0.004503671,-0.002412334,0.001737237,0.0,0.0,0.0,inf,inf,inf,0,0,1,0
9964000,9883272,0,0,0.008567432,-0.21576384,0.42689255,0.0,0.0,0.0,0.0015440714,-0.0009329617,0.00092962384,0.0,0.0,0.0,inf,inf,inf,0,0,1,0
10036000,9956000,0,0,0.0139725655,-0.21294738,0.4286481,0.0,0.0,0.0,-0.003921978,-0.0037452728,-0.0008223653,0.0,0.0,0.0,inf,inf,inf,0,0,1,0
10108000,10026909,0,0,0.009170877,-0.21859393,0.4307898,0.0,0.0,0.0,0.0010386761,0.001946032,-0.002945155,0.0,0.0,0.0,inf,inf,inf,0,0,1,0
10180000,10100000,0,0,0.0069226515,-0.21389633,0.42702276,0.0,0.0,0.0,0.0032560932,-0.0027184784,0.0008393526,0.0,0.0,0.0,inf,inf,inf,0,0,1,0
10252000,10170545,0,0,0.009803575,-0.21572125,0.42899126,0.0,0.0,0.0,0.00029164087,-0.0008969605,-0.001128912,0.0,0.0,0.0,inf,inf,inf,0,0,1,0
10324000,10244000,0,0,0.010689744,-0.21604267,0.4258592,0.0,0.0,0.0,-0.0005728686,-0.00062665343,0.001976788,0.0,0.0,0.0,inf,inf,inf,0,0,1,0
10396000,10314181,0,0,0.009633791,-0.21528813,0.4297733,0.0,0.0,0.0,0.0004972778,-0.0014030039,-0.0019486845,0.0,0.0,0.0,inf,inf,inf,0,0,1,0
10468000,10388000,0,0,0.011111036,-0.22134462,0.43934295,0.0,0.0,0.0,-0.0009955317,0.0046693087,-0.011509925,0.0,0.0,0.0,inf,inf,inf,0,0,1,0
10540000,10459636,0,0,0.010994737,-0.21399757,0.4289616,0.0,0.0,0.0,-0.0008749338,-0.0026772618,-0.0011285245,0.0,0.0,0.0,inf,inf,inf,0,0,1,0
10612000,10532000,0,0,0.0069550234,-0.21552995,0.42856655,0.0,0.0,0.0,0.003198382,-0.0011662245,-0.00074502826,0.0,0.0,0.0,inf,inf,inf,0,0,1,0
10684000,10602545,0,0,0.00923403,-0.21640186,0.4289275,0.0,0.0,0.0,0.0007792078,-0.00026004016,-0.0010853112,0.0,0.0,0.0,inf,inf,inf,0,0,1,0
10756000,10676000,0,0,0.008294021,-0.2093563,0.42568246,0.0,0.0,0.0,0.0017122058,-0.0073310286,0.002146989,0.0,0.0,0.0,inf,inf,inf,0,0,1,0
10828000,10745454,0,0,0.008924467,-0.21539706,0.4313108,0.0,0.0,0.0,0.001071508,-0.0012515485,-0.0034614801,0.0,0.0,0.0,inf,inf,inf,0,0,1,0
10900000,10820000,0,0,0.014215811,-0.2119526,0.4265217,0.0,0.0,0.0,-0.0042868024,-0.004682362,0.0013360977,0.0,0.0,0.0,inf,inf,inf,0,0,1,0
10972000,10891272,0,0,0.008561607,-0.21529162,0.42794567,0.0,0.0,0.0,0.0014708601,-0.0013129264,-7.4863434e-05,0.0,0.0,0.0,inf,inf,inf,0,0,1,0
11044000,10964000,0,0,0.00792688,-0.21776776,0.4320095,0.0,0.0,0.0,0.0020601759,0.001207456,-0.0041152537,0.0,0.0,0.0,inf,inf,inf,0,0,1,0
11116000,11034545,0,0,0.009046537,-0.21635327,0.4294171,0.0,0.0,0.0,0.00082710665,-0.00024980307,-0.0015419126,0.0,0.0,0.0,inf,inf,inf,0,0,1,0
11188000,11108000,0,0,0.006031785,-0.20963287,0.42558298,0.0,0.0,0.0,0.0038604103,-0.0069535375,0.0023002625,0.0,0.0,0.0,inf,inf,inf,0,0,1,0
11260000,11178181,0,0,0.009433994,-0.21713571,0.4317294,0.0,0.0,0.0,0.00028987043,0.00053168833,-0.0038512647,0.0,0.0,0.0,inf,inf,inf,0,0,1,0
11332000,11252000,0,0,0.012335279,-0.21458977,0.42900816,0.0,0.0,0.0,-0.0026096636,-0.0020064116,-0.0011260808,0.0,0.0,0.0,inf,inf,inf,0,0,1,0
11404000,11322909,0,0,0.008932024,-0.21722558,0.42986134,0.0,0.0,0.0,0.00086274743,0.00062811375,-0.0019815266,0.0,0.0,0.0,inf,inf,inf,0,0,1,0
11476000,11396000,0,0,0.011361385,-0.21231918,0.4315282,0.0,0.0,0.0,-0.0016288776,-0.0042688698,-0.0036421418,0.0,0.0,0.0,inf,inf,inf,0,0,1,0
11548000,11466909,0,0,0.010475494,-0.2160039,0.42945525,0.0,0.0,0.0,-0.00071002543,-0.00060117245,-0.0015785396,0.0,0.0,0.0,inf,inf,inf,0,0,1,0
11620000,11540000,0,0,0.0036344815,-0.21531874,0.43019143,0.0,0.0,0.0,0.0061741704,-0.0012802184,-0.0023126304,0.0,0.0,0.0,inf,inf,inf,0,0,1,0
11692000,11610545,0,0,0.008963344,-0.21579184,0.42916283,0.0,0.0,0.0,0.00064894836,-0.00081562996,-0.0012839139,0.0,0.0,0.0,inf,inf,inf,0,0,1,0
11764000,11684000,0,0,0.014233502,-0.2174245,0.42657566,0.0,0.0,0.0,-0.004621597,0.0008209348,0.0013052821,0.0,0.0,0.0,inf,inf,inf,0,0,1,0
11836000,11755272,0,0,0.007473845,-0.21521287,0.42940903,0.0,0.0,0.0,0.0022691526,-0.0013648123,-0.0015180111,0.0,0.0,0.0,inf,inf,inf,0,0,1,0
11908000,11828000,0,0,0.014352168,-0.2186129,0.42900628,0.0,0.0,0.0,-0.0046871556,0.0020287782,-0.001116693,0.0,0.0,0.0,inf,inf,inf,0,0,1,0
11980000,11898909,0,0,0.009521894,-0.21451259,0.42944154,0.0,0.0,0.0,0.0002503097,-0.002064675,-0.0015509129,0.0,0.0,0.0,inf,inf,inf,0,0,1,0
12052000,11972000,0,0,0.007698201,-0.21115062,0.42961368,0.0,0.0,0.0,0.0020428072,-0.0054186583,-0.0017183125,0.0,0.0,0.0,inf,inf,inf,0,0,1,0
12124000,12042545,0,0,0.009994189,-0.2152944,0.4272869,0.0,0.0,0.0,-0.00032320153,-0.0012573451,0.0006189048,0.0,0.0,0.0,inf,inf,inf,0,0,1,0
12196000,12116000,0,0,0.0047616363,-0.20755473,0.4311612,0.0,0.0,0.0,0.004892461,-0.008971542,-0.0032421052,0.0,0.0,0.0,inf,inf,inf,0,0,1,0
12268000,12186545,0,0,0.008402842,-0.2155394,0.4285234,0.0,0.0,0.0,0.0010692896,-0.0009573996,-0.0005852878,0.0,0.0,0.0,inf,inf,inf,0,0,1,0
12340000,12260000,0,0,0.009083634,-0.21734974,0.42223367,0.0,0.0,0.0,0.00038122572,0.0008868575,0.005721718,0.0,0.0,0.0,inf,inf,inf,0,0,1,0
12412000,12331272,0,0,0.010474645,-0.21794608,0.42930883,0.0,0.0,0.0,-0.0009704307,0.0014941394,-0.0013487339,0.0,0.0,0.0,inf,inf,inf,0,0,1,0
12484000,12404000,0,0,0.0037972124,-0.22030762,0.42872402,0.0,0.0,0.0,0.005755132,0.0038594604,-0.00076308846,0.0,0.0,0.0,inf,inf,inf,0,0,1,0
12556000,12475272,0,0,0.009739732,-0.21834199,0.42894208,0.0,0.0,0.0,-0.0003640633,0.0018971115,-0.0009756088,0.0,0.0,0.0,inf,inf,inf,0,0,1,0
12628000,12548000,0,0,0.012176097,-0.21413982,0.42755336,0.0,0.0,0.0,-0.0027681896,-0.0022891164,0.00042045116,0.0,0.0,0.0,inf,inf,inf,0,0,1,0
12700000,12618909,0,0,0.010735055,-0.21555851,0.42782515,0.0,0.0,0.0,-0.0012595635,-0.0009021759,0.00013113022,0.0,0.0,0.0,inf,inf,inf,0,0,1,0
12772000,12692000,0,0,0.013932921,-0.21851276,0.4245472,0.0,0.0,0.0,-0.0043905824,0.002086535,0.003425002,0.0,0.0,0.0,inf,inf,inf,0,0,1,0
12844000,12762545,0,0,0.0096336,-0.21626306,0.4287498,0.0,0.0,0.0,3.6240555e-05,-0.00013667345,-0.0007671118,0.0,0.0,0.0,inf,inf,inf,0,0,1,0
12916000,12836000,0,0,0.012623851,-0.21337263,0.4262542,0.0,0.0,0.0,-0.0029264437,-0.0030359477,0.0017234385,0.0,0.0,0.0,inf,inf,inf,0,0,1,0
12988000,12908000,0,0,0.008602196,-0.216248,0.42769876,0.0,0.0,0.0,0.0011644345,-0.0001565814,0.00027936697,0.0,0.0,0.0,inf,inf,inf,0,0,1,0
13060000,12980000,0,0,0.005921521,-0.21340752,0.42840385,0.0,0.0,0.0,0.003823123,-0.0029714704,-0.00041237473,0.0,0.0,0.0,inf,inf,inf,0,0,1,0
13132000,13050545,0,0,0.008033385,-0.21460673,0.4305449,0.0,0.0,0.0,0.0015815748,-0.0017940253,-0.0025613904,0.0,0.0,0.0,inf,inf,inf,0,0,1,0
13204000,13124000,0,0,0.012069772,-0.22282352,0.42681795,0.0,0.0,0.0,-0.0024959845,0.006420642,0.0011653304,0.0,0.0,0.0,inf,inf,inf,0,0,1,0
13276000,13196000,0,0,0.010813228,-0.2156862,0.42698002,0.0,0.0,0.0,-0.0011913618,-0.0007355213,0.0009926558,0.0,0.0,0.0,inf,inf,inf,0,0,1,0
13348000,13268000,0,0,0.011553577,-0.216384,0.4315438,0.0,0.0,0.0,-0.0019019535,-2.5480986e-06,-0.0035539865,0.0,0.0,0.0,inf,inf,inf,0,0,1,0
13420000,13339636,0,0,0.007920369,-0.21685681,0.4291888,0.0,0.0,0.0,0.0017570863,0.00046658516,-0.001201421,0.0,0.0,0.0,inf,inf,inf,0,0,1,0
13492000,13412000,0,0,0.012132491,-0.21428783,0.43350455,0.0,0.0,0.0,-0.0024966253,-0.002104953,-0.0055175126,0.0,0.0,0.0,inf,inf,inf,0,0,1,0
13564000,13482545,0,0,0.010340862,-0.21758828,0.4320044,0.0,0.0,0.0,-0.00067008287,0.0012875497,-0.0039716363,0.0,0.0,0.0,inf,inf,inf,0,0,1,0
13636000,13556000,0,0,0.0035152219,-0.21214664,0.43179622,0.0,0.0,0.0,0.006181895,-0.004177198,-0.0037757456,0.0,0.0,0.0,inf,inf,inf,0,0,1,0
13708000,13625818,0,0,0.009249259,-0.2172296,0.42972323,0.0,0.0,0.0,0.0002788417,0.0009121001,-0.001695782,0.0,0.0,0.0,inf,inf,inf,0,0,1,0
13780000,13700000,0,0,0.0047227545,-0.21355297,0.43050018,0.0,0.0,0.0,0.0047865557,-0.0027432293,-0.0024615228,0.0,0.0,0.0,inf,inf,inf,0,0,1,0
13852000,13770545,0,0,0.00884269,-0.21724175,0.4293694,0.0,0.0,0.0,0.00055137463,0.0009808242,-0.0013103485,0.0,0.0,0.0,inf,inf,inf,0,0,1,0
13924000,13844000,0,0,0.0131364465,-0.20814624,0.43353578,0.0,0.0,0.0,-0.0037836656,-0.008107364,-0.0054721534,0.0,0.0,0.0,inf,inf,inf,0,0,1,0
13996000,13914545,0,0,0.009417385,-0.21607666,0.428676,0.0,0.0,0.0,3.683567e-05,-0.00020836294,-0.00063049793,0.0,0.0,0.0,inf,inf,inf,0,0,1,0
14068000,13988000,0,0,0.016069464,-0.21492943,0.43688127,0.0,0.0,0.0,-0.00660415,-0.0013452172,-0.008830696,0.0,0.0,0.0,inf,inf,inf,0,0,1,0
14140000,14059272,0,0,0.01077348,-0.21756408,0.4285203,0.0,0.0,0.0,-0.0011440068,0.0012875497,-0.00047433376,0.0,0.0,0.0,inf,inf,inf,0,0,1,0
14212000,14132000,0,0,0.013306974,-0.21341766,0.435527,0.0,0.0,0.0,-0.003681696,-0.0028368682,-0.007469803,0.0,0.0,0.0,inf,inf,inf,0,0,1,0
14284000,14202545,0,0,0.010215085,-0.2156248,0.43008295,0.0,0.0,0.0,-0.00053096935,-0.0006419271,-0.002033323,0.0,0.0,0.0,inf,inf,inf,0,0,1,0
14356000,14276000,0,0,0.01622869,-0.21813923,0.42561245,0.0,0.0,0.0,-0.006549798,0.0018134415,0.0024074614,0.0,0.0,0.0,inf,inf,inf,0,0,1,0
14428000,14346909,0,0,0.009323441,-0.21472219,0.42703712,0.0,0.0,0.0,0.0005333489,-0.0015993267,0.0009809136,0.0,0.0,0.0,inf,inf,inf,0,0,1,0
14500000,14420000,0,0,0.0074708043,-0.21414997,0.42268112,0.0,0.0,0.0,0.0023311572,-0.00217174,0.005338043,0.0,0.0,0.0,inf,inf,inf,0,0,1,0
14572000,14490909,0,0,0.009851842,-0.21635494,0.43044513,0.0,0.0,0.0,-0.000121234916,4.0769577e-05,-0.0024205148,0.0,0.0,0.0,inf,inf,inf,0,0,1,0
14644000,14564000,0,0,0.008326907,-0.20816068,0.4296465,0.0,0.0,0.0,0.0014252402,-0.008148983,-0.0016201437,0.0,0.0,0.0,inf,inf,inf,0,0,1,0
14716000,14636000,0,0,0.009562495,-0.21513495,0.42960307,0.0,0.0,0.0,7.331837e-05,-0.001224935,-0.0015994012,0.0,0.0,0.0,inf,inf,inf,0,0,1,0
14788000,14708000,0,0,0.008210758,-0.21375525,0.42775387,0.0,0.0,0.0,0.0013811793,-0.0025995523,0.00025331974,0.0,0.0,0.0,inf,inf,inf,0,0,1,0
14860000,14778545,0,0,0.009370923,-0.21719684,0.42936987,0.0,0.0,0.0,0.00019535422,0.0008523613,-0.0013568401,0.0,0.0,0.0,inf,inf,inf,0,0,1,0
14932000,14852000,0,0,0.01724076,-0.2130648,0.42148829,0.0,0.0,0.0,-0.007706454,-0.0032639652,0.0065333545,0.0,0.0,0.0,inf,inf,inf,0,0,1,0
15004000,14922909,0,0,0.01118364,-0.21533817,0.43107182,0.0,0.0,0.0,-0.001464976,-0.0010070652,-0.0030626059,0.0,0.0,0.0,inf,inf,inf,0,0,1,0
15076000,14996000,0,0,0.008351532,-0.2102829,0.43180272,0.0,0.0,0.0,0.0014489396,-0.0060487688,-0.0037885606,0.0,0.0,0.0,inf,inf,inf,0,0,1,0
15148000,15066909,0,0,0.008004163,-0.21557043,0.43059587,0.0,0.0,0.0,0.0017379178,-0.00082202256,-0.0026111007,0.0,0.0,0.0,inf,inf,inf,0,0,1,0
15220000,15140000,0,0,0.011924749,-0.21058154,0.4315926,0.0,0.0,0.0,-0.0022148248,-0.0058201104,-0.0036117733,0.0,0.0,0.0,inf,inf,inf,0,0,1,0
15292000,15210909,0,0,0.009907836,-0.21565774,0.43002757,0.0,0.0,0.0,-0.00018355437,-0.00073465705,-0.002042383,0.0,0.0,0.0,inf,inf,inf,0,0,1,0
15364000,15284000,0,0,0.007165218,-0.2220081,0.4302525,0.0,0.0,0.0,0.0025310721,0.0056622773,-0.0022430718,0.0,0.0,0.0,inf,inf,inf,0,0,1,0
15436000,15354181,0,0,0.011062234,-0.21407568,0.43077362,0.0,0.0,0.0,-0.0014154529,-0.0022513568,-0.0027536154,0.0,0.0,0.0,inf,inf,inf,0,0,1,0
15508000,15428000,0,0,0.008473943,-0.21500169,0.42907095,0.0,0.0,0.0,0.0011411654,-0.0012743026,-0.0010244548,0.0,0.0,0.0,inf,inf,inf,0,0,1,0
15580000,15498545,0,0,0.011883273,-0.2154528,0.43068436,0.0,0.0,0.0,-0.0023231646,-0.0008030683,-0.0026264489,0.0,0.0,0.0,inf,inf,inf,0,0,1,0
15652000,15572000,0,0,0.0063186823,-0.21506572,0.42955992,0.0,0.0,0.0,0.0032388926,-0.0011827648,-0.0014982224,0.0,0.0,0.0,inf,inf,inf,0,0,1,0
15724000,15643636,0,0,0.011168278,-0.21537855,0.43002933,0.0,0.0,0.0,-0.00172156,-0.0008521378,-0.0019562244,0.0,0.0,0.0,inf,inf,inf,0,0,1,0
15796000,15716000,0,0,0.012387605,-0.2169265,0.42989486,0.0,0.0,0.0,-0.002901161,0.00069625676,-0.0018223524,0.0,0.0,0.0,inf,inf,inf,0,0,1,0
15868000,15788000,0,0,0.010137038,-0.21613906,0.42963645,0.0,0.0,0.0,-0.0006379578,-0.00010159612,-0.0015694797,0.0,0.0,0.0,inf,inf,inf,0,0,1,0
15940000,15860000,0,0,0.0048073484,-0.22039737,0.43074957,0.0,0.0,0.0,0.0046707885,0.0041754693,-0.002672702,0.0,0.0,0.0,inf,inf,inf,0,0,1,0
16012000,15932000,0,0,0.0097283395,-0.21634272,0.43030223,0.0,0.0,0.0,-0.00035723764,0.00013756752,-0.0022145212,0.0,0.0,0.0,inf,inf,inf,0,0,1,0
16084000,16004000,0,0,0.015902769,-0.21358928,0.42471725,0.0,0.0,0.0,-0.0065531097,-0.0026405156,0.0033584833,0.0,0.0,0.0,inf,inf,inf,0,0,1,0
16156000,16074545,0,0,0.010609917,-0.21632338,0.42943332,0.0,0.0,0.0,-0.0011487678,9.0286136e-05,-0.0013616979,0.0,0.0,0.0,inf,inf,inf,0,0,1,0
16228000,16148000,0,0,0.01595335,-0.21846828,0.43566778,0.0,0.0,0.0,-0.0065089203,0.0022381395,-0.007594317,0.0,0.0,0.0,inf,inf,inf,0,0,1,0
16300000,16218545,0,0,0.010566476,-0.21536204,0.43036515,0.0,0.0,0.0,-0.00098377,-0.00089231133,-0.0023069382,0.0,0.0,0.0,inf,inf,inf,0,0,1,0
16372000,16292000,0,0,0.015912356,-0.21495666,0.4368432,0.0,0.0,0.0,-0.006282078,-0.0013022125,-0.008788347,0.0,0.0,0.0,inf,inf,inf,0,0,1,0
16444000,16362181,0,0,0.010155196,-0.21508193,0.43034902,0.0,0.0,0.0,-0.00037361216,-0.0011986196,-0.0023085773,0.0,0.0,0.0,inf,inf,inf,0,0,1,0
16516000,16436000,0,0,0.011514748,-0.21261139,0.42988282,0.0,0.0,0.0,-0.0017654328,-0.003652379,-0.0018331409,0.0,0.0,0.0,inf,inf,inf,0,0,1,0
16588000,16506545,0,0,0.009273777,-0.21887702,0.42839915,0.0,0.0,0.0,0.0005138498,0.0026295185,-0.00034213066,0.0,0.0,0.0,inf,inf,inf,0,0,1,0
16660000,16580000,0,0,0.008715953,-0.21539073,0.42819697,0.0,0.0,0.0,0.0010312544,-0.00088335574,-0.00015246868,0.0,0.0,0.0,inf,inf,inf,0,0,1,0
16732000,16650545,0,0,0.008886693,-0.21769588,0.42773327,0.0,0.0,0.0,0.000815453,0.0014518052,0.0003273785,0.0,0.0,0.0,inf,inf,inf,0,0,1,0
16804000,16724000,0,0,0.006865666,-0.21382797,0.4290318,0.0,0.0,0.0,0.0028323825,-0.0024071634,-0.0009665191,0.0,0.0,0.0,inf,inf,inf,0,0,1,0
16876000,16795272,0,0,0.010212311,-0.21661165,0.4300988,0.0,0.0,0.0,-0.00054924283,0.00034677982,-0.0020477474,0.0,0.0,0.0,inf,inf,inf,0,0,1,0
16948000,16868000,0,0,0.0062095844,-0.21081755,0.4329054,0.0,0.0,0.0,0.0034623868,-0.005468026,-0.0048650205,0.0,0.0,0.0,inf,inf,inf,0,0,1,0
17020000,16938545,0,0,0.010786184,-0.21537517,0.429331,0.0,0.0,0.0,-0.0011834064,-0.00094015896,-0.00130409,0.0,0.0,0.0,inf,inf,inf,0,0,1,0
17092000,17012000,0,0,0.0067601088,-0.21407932,0.431636,0.0,0.0,0.0,0.0028502462,-0.002240926,-0.0036118329,0.0,0.0,0.0,inf,inf,inf,0,0,1,0
17164000,17083636,0,0,0.008984863,-0.21391696,0.4284722,0.0,0.0,0.0,0.0005497942,-0.0023962855,-0.0004426837,0.0,0.0,0.0,inf,inf,inf,0,0,1,0
17236000,17156000,0,0,0.012721292,-0.21950664,0.42850047,0.0,0.0,0.0,-0.0031989953,0.0031898916,-0.00047248602,0.0,0.0,0.0,inf,inf,inf,0,0,1,0
17308000,17226545,0,0,0.009722852,-0.21486628,0.43069553,0.0,0.0,0.0,-0.00015841518,-0.0014410615,-0.002663672,0.0,0.0,0.0,inf,inf,inf,0,0,1,0
17380000,17300000,0,0,0.013424727,-0.20936404,0.42677927,0.0,0.0,0.0,-0.003838907,-0.0069343895,0.0012565851,0.0,0.0,0.0,inf,inf,inf,0,0,1,0
17452000,17369818,0,0,0.008357178,-0.21699427,0.43043804,0.0,0.0,0.0,0.0013052411,0.00068606436,-0.002408892,0.0,0.0,0.0,inf,inf,inf,0,0,1,0
17524000,17444000,0,0,0.010939984,-0.21192135,0.43147054,0.0,0.0,0.0,-0.0012640413,-0.0043476075,-0.003421843,0.0,0.0,0.0,inf,inf,inf,0,0,1,0
17596000,17514545,0,0,0.009603648,-0.21599987,0.42941844,0.0,0.0,0.0,0.00010664109,-0.00025218725,-0.0013619661,0.0,0.0,0.0,inf,inf,inf,0,0,1,0
17668000,17588000,0,0,0.011166386,-0.21511488,0.43126017,0.0,0.0,0.0,-0.001451984,-0.0010860264,-0.0031779706,0.0,0.0,0.0,inf,inf,inf,0,0,1,0
17740000,17658545,0,0,0.009389922,-0.21658185,0.43026492,0.0,0.0,0.0,0.0004040748,0.00041110814,-0.0021693408,0.0,0.0,0.0,inf,inf,inf,0,0,1,0
17812000,17732000,0,0,0.009874553,-0.2212902,0.43400818,0.0,0.0,0.0,-0.00011779461,0.005138457,-0.0059021115,0.0,0.0,0.0,inf,inf,inf,0,0,1,0
17884000,17802909,0,0,0.008882669,-0.21560867,0.42849606,0.0,0.0,0.0,0.0008782027,-0.0005288869,-0.00038290024,0.0,0.0,0.0,inf,inf,inf,0,0,1,0
17956000,17876000,0,0,0.014838815,-0.21733287,0.42967752,0.0,0.0,0.0,-0.0051503405,0.0014504194,-0.001434058,0.0,0.0,0.0,inf,inf,inf,0,0,1,0
18028000,17946545,0,0,0.00844074,-0.21550918,0.4303944,0.0,0.0,0.0,0.0013063699,0.0015978664,-0.0011642277,0.0,0.0,0.0,inf,inf,inf,0,0,1,0
18100000,18020000,0,0,0.010894665,-0.20264538,0.43452486,0.0,0.0,0.0,-0.0023993114,-0.0072707385,-0.0033002794,0.0,0.0,0.0,inf,inf,inf,0,0,1,0
18172000,18090545,0,0,0.0018656334,-0.20317025,0.43705362,0.0,0.0,0.0,0.0024308036,-0.0014952123,-0.0032505393,0.0,0.0,0.0,inf,inf,inf,0,0,1,0
18244000,18164000,0,0,-0.0037048417,-0.19645737,0.44091263,0.0,0.0,0.0,0.00015604822,-0.0017679185,-0.0041224062,0.0,0.0,0.0,inf,inf,inf,0,0,1,0
18316000,18234545,0,0,-0.013167582,-0.19092329,0.44067234,0.0,0.0,0.0,0.00029214472,-0.0011770874,-0.0013282299,0.0,0.0,0.0,inf,inf,inf,0,0,1,0
18388000,18308000,0,0,-0.015549763,-0.18608698,0.43873838,0.0,0.0,0.0,-0.0018457035,-0.0048387945,0.00096186996,0.0,0.0,0.0,inf,inf,inf,0,0,1,0
18460000,18378909,0,0,-0.014432567,-0.19455194,0.44184434,0.0,0.0,0.0,-0.0010867761,-0.00015550852,-0.0037350655,0.0,0.0,0.0,inf,inf,inf,0,0,1,0
18532000,18452000,0,0,-0.00564589,-0.20166592,0.43172592,0.0,0.0,0.0,-0.0038497113,0.000996232,0.0038576424,0.0,0.0,0.0,inf,inf,inf,0,0,1,0
18604000,18522909,0,0,-0.0033383598,-0.20681827,0.43407416,0.0,0.0,0.0,0.00083902525,0.00031347573,-0.0011294782,0.0,0.0,0.0,inf,inf,inf,0,0,1,0
18676000,18596000,0,0,0.010924065,-0.21098624,0.42809373,0.0,0.0,0.0,-0.0076747322,-6.322563e-05,0.0026488304,0.0,0.0,0.0,inf,inf,inf,0,0,1,0
18748000,18666909,0,0,0.0068028667,-0.21413895,0.43023008,0.0,0.0,0.0,0.00030004,-3.235042e-05,-0.0010777116,0.0,0.0,0.0,inf,inf,inf,0,0,1,0
18820000,18740000,0,0,0.011313634,-0.21135496,0.43138784,0.0,0.0,0.0,-0.0022277478,-0.004927188,-0.0033328533,0.0,0.0,0.0,inf,inf,inf,0,0,1,0
18892000,18810909,0,0,0.009597341,-0.21623166,0.42780995,0.0,0.0,0.0,0.00050827675,-0.0016065687,-0.00056773424,0.0,0.0,0.0,inf,inf,inf,0,0,1,0
18964000,18884000,0,0,0.008132408,-0.2231576,0.43043888,0.0,0.0,0.0,0.0027421908,0.003975928,-0.0039031506,0.0,0.0,0.0,inf,inf,inf,0,0,1,0
19036000,18955272,0,0,0.0116157755,-0.21949323,0.4266006,0.0,0.0,0.0,7.6144934e-05,-0.0009881109,-0.0007568896,0.0,0.0,0.0,inf,inf,inf,0,0,1,0
19108000,19028000,0,0,0.01448761,-0.22060592,0.42992318,0.0,0.0,0.0,-0.0017166445,-0.0009880215,-0.004688382,0.0,0.0,0.0,inf,inf,inf,0,0,1,0
19180000,19098545,0,0,0.014264445,-0.22301057,0.4263667,0.0,0.0,0.0,-0.00020676386,0.00041675568,-0.0016950965,0.0,0.0,0.0,inf,inf,inf,0,0,1,0
19252000,19172000,0,0,0.016251605,-0.22776191,0.42338857,0.0,0.0,0.0,-0.0011567734,0.004472658,0.00088211894,0.0,0.0,0.0,inf,inf,inf,0,0,1,0
19324000,19243636,0,0,0.016301721,-0.22450265,0.42465925,0.0,0.0,0.0,-0.0005084127,0.00061768293,-0.00072804093,0.0,0.0,0.0,inf,inf,inf,0,0,1,0
19396000,19316000,0,0,0.017949888,-0.22451109,0.4220784,0.0,0.0,0.0,-0.00168317,0.00021597743,0.0016180277,0.0,0.0,0.0,inf,inf,inf,0,0,1,0
19468000,19387636,0,0,0.016270105,-0.22333887,0.4239193,0.0,0.0,0.0,0.0002794154,-0.0012599975,-0.00039479136,0.0,0.0,0.0,inf,inf,inf,0,0,1,0
19540000,19460000,0,0,0.018151151,-0.2227212,0.42212808,0.0,0.0,0.0,-0.0016267393,-0.0018609166,0.001406312,0.0,0.0,0.0,inf,inf,inf,0,0,1,0
19612000,19531272,0,0,0.014784979,-0.22347978,0.42478064,0.0,0.0,0.0,0.0015893336,-0.001064986,-0.0012206137,0.0,0.0,0.0,inf,inf,inf,0,0,1,0
19684000,19604000,0,0,0.015024314,-0.21772806,0.42963976,0.0,0.0,0.0,0.0011097025,-0.006696433,-0.0060067475,0.0,0.0,0.0,inf,inf,inf,0,0,1,0
19756000,19674545,0,0,0.01632464,-0.22489598,0.42435262,0.0,0.0,0.0,-0.00034028292,0.00044173002,-0.00072970986,0.0,0.0,0.0,inf,inf,inf,0,0,1,0
19828000,19748000,0,0,0.018568195,-0.22149959,0.4316948,0.0,0.0,0.0,-0.0026811212,-0.002934128,-0.008057296,0.0,0.0,0.0,inf,inf,inf,0,0,1,0
19900000,19818909,0,0,0.014759558,-0.22386268,0.4252954,0.0,0.0,0.0,0.0010890113,-0.00048452616,-0.0016107261,0.0,0.0,0.0,inf,inf,inf,0,0,1,0
19972000,19892000,0,0,0.018571457,-0.22288758,0.4180033,0.0,0.0,0.0,-0.0030293446,-0.0011081994,0.005878657,0.0,0.0,0.0,inf,inf,inf,0,0,1,0
20044000,19962909,0,0,0.013301464,-0.2230659,0.4251351,0.0,0.0,0.0,0.0019533243,-0.00048318505,-0.0010069907,0.0,0.0,0.0,inf,inf,inf,0,0,1,0
20116000,20036000,0,0,0.0132960165,-0.22021632,0.43056569,0.0,0.0,0.0,0.0015307209,-0.0029436052,-0.0062175095,0.0,0.0,0.0,inf,inf,inf,0,0,1,0
20188000,20107636,0,0,0.012737815,-0.22265314,0.42589235,0.0,0.0,0.0,0.0017322851,-0.00014163554,-0.001339972,0.0,0.0,0.0,inf,inf,inf,0,0,1,0
20260000,20180000,0,0,0.01783144,-0.22367771,0.42636773,0.0,0.0,0.0,-0.0036886577,0.0012922734,-0.0015898049,0.0,0.0,0.0,inf,inf,inf,0,0,1,0
20332000,20250181,0,0,0.013955569,-0.22183478,0.42766693,0.0,0.0,0.0,-9.64161e-05,-6.182492e-05,-0.0026241243,0.0,0.0,0.0,inf,inf,inf,0,0,1,0
20404000,20324000,0,0,0.01335404,-0.22095245,0.43311664,0.0,0.0,0.0,0.0001485357,-0.0004734546,-0.007816941,0.0,0.0,0.0,inf,inf,inf,0,0,1,0
20476000,20394909,0,0,0.013621631,-0.22031993,0.42559808,0.0,0.0,0.0,-0.0005125506,-0.00067678094,-6.28829e-05,0.0,0.0,0.0,inf,inf,inf,0,0,1,0
20548000,20464000,0,0,0.011157357,-0.21987082,0.4253417,0.0,0.0,0.0,0.0017195484,-0.000676617,0.000433594,0.0,0.0,0.0,inf,inf,inf,0,0,1,0
20620000,20533600,0,0,0.010110515,-0.21776004,0.42759416,0.0,0.0,0.0,0.0025656046,-0.0024995357,-0.0016638935,0.0,0.0,0.0,inf,inf,inf,0,0,1,0
20684000,20604000,0,0,0.012251391,-0.22109422,0.42901003,0.0,0.0,0.0,0.00018043164,0.0011472106,-0.0029110312,0.0,0.0,0.0,inf,inf,inf,0,0,1,0
20764000,20676400,0,0,0.010173089,-0.21999314,0.42703992,0.0,0.0,0.0,0.0019357139,0.0004786849,-0.0007086396,0.0,0.0,0.0,inf,inf,inf,0,0,1,0
20828000,20744000,0,0,0.011760774,-0.21606027,0.43321696,0.0,0.0,0.0,8.745212e-05,-0.0030217618,-0.0066559613,0.0,0.0,0.0,inf,inf,inf,0,0,1,0
20900000,20814909,0,0,0.012250637,-0.21789669,0.42726362,0.0,0.0,0.0,-0.0006875815,-0.00077937543,-0.00048655272,0.0,0.0,0.0,inf,inf,inf,0,0,1,0
20972000,20888000,0,0,0.003111315,-0.21453683,0.42806226,0.0,0.0,0.0,0.00927339,-0.004979998,-8.85129e-05,0.0,0.0,0.0,inf,inf,inf,0,0,1,0
21044000,20959272,0,0,0.011917186,-0.2162966,0.42786956,0.0,0.0,0.0,-0.00069093425,-0.0031097978,0.00019276142,0.0,0.0,0.0,inf,inf,inf,0,0,1,0
21108000,21028000,0,0,0.011674088,-0.21107842,0.42799407,0.0,0.0,0.0,-0.00060421694,-0.008047864,0.00021576881,0.0,0.0,0.0,inf,inf,inf,0,0,1,0
21180000,21096800,0,0,0.010839505,-0.2147541,0.42970285,0.0,0.0,0.0,7.243641e-05,-0.004057318,-0.0013279617,0.0,0.0,0.0,inf,inf,inf,0,0,1,0
21244000,21164000,0,0,0.006609704,-0.21653728,0.42744863,0.0,0.0,0.0,0.004127462,-0.0019807369,0.0010803938,0.0,0.0,0.0,inf,inf,inf,0,0,1,0
21316000,21234545,0,0,0.009115951,-0.2153059,0.42874935,0.0,0.0,0.0,0.0010986533,-0.0030473918,-0.00012359023,0.0,0.0,0.0,inf,inf,inf,0,0,1,0
21388000,21308000,0,0,0.009701812,-0.22066924,0.43267858,0.0,0.0,0.0,0.00020402577,0.002338171,-0.004034281,0.0,0.0,0.0,inf,inf,inf,0,0,1,0
21460000,21378909,0,0,0.009191567,-0.21764511,0.42708105,0.0,0.0,0.0,0.00053025596,-0.0007840097,0.0015175343,0.0,0.0,0.0,inf,inf,inf,0,0,1,0
21532000,21452000,0,0,0.016037494,-0.21136367,0.4236158,0.0,0.0,0.0,-0.0065083727,-0.007002026,0.0050194263,0.0,0.0,0.0,inf,inf,inf,0,0,1,0
21604000,21523272,0,0,0.008538833,-0.21709704,0.4287587,0.0,0.0,0.0,0.0012955684,-0.0012463331,-0.00011906028,0.0,0.0,0.0,inf,inf,inf,0,0,1,0
21676000,21596000,0,0,0.01022,-0.21836658,0.4279503,0.0,0.0,0.0,-0.0005239481,7.2449446e-05,0.0007176697,0.0,0.0,0.0,inf,inf,inf,0,0,1,0
21748000,21667272,0,0,0.007917991,-0.21688037,0.42979583,0.0,0.0,0.0,0.0017415751,-0.0013881624,-0.0011140108,0.0,0.0,0.0,inf,inf,inf,0,0,1,0
21820000,21740000,0,0,0.007827781,-0.22034669,0.4255837,0.0,0.0,0.0,0.0017231703,0.002023548,0.0030727088,0.0,0.0,0.0,inf,inf,inf,0,0,1,0
21892000,21810545,0,0,0.008026358,-0.21535482,0.4281354,0.0,0.0,0.0,0.0013491474,-0.0029286891,0.0005450547,0.0,0.0,0.0,inf,inf,inf,0,0,1,0
21964000,21884000,0,0,0.0012981711,-0.21429992,0.4279909,0.0,0.0,0.0,0.007784705,-0.0039700866,0.00070273876,0.0,0.0,0.0,inf,inf,inf,0,0,1,0
22036000,21955636,0,0,0.007923119,-0.21595013,0.42984185,0.0,0.0,0.0,0.0007192567,-0.0021668077,-0.0010612309,0.0,0.0,0.0,inf,inf,inf,0,0,1,0
22108000,22028000,0,0,0.006537952,-0.21335226,0.42906272,0.0,0.0,0.0,0.0020979117,-0.004546806,-0.00017118454,0.0,0.0,0.0,inf,inf,inf,0,0,1,0
22180000,22099636,0,0,0.009771346,-0.21523127,0.42817944,0.0,0.0,0.0,-0.0010044267,-0.0024111867,0.00083968043,0.0,0.0,0.0,inf,inf,inf,0,0,1,0
22252000,22172000,0,0,0.011938344,-0.21823496,0.42707002,0.0,0.0,0.0,-0.002858649,0.0008405298,0.0020684004,0.0,0.0,0.0,inf,inf,inf,0,0,1,0
22324000,22242181,0,0,0.00752667,-0.21400034,0.43046135,0.0,0.0,0.0,0.0020549255,-0.0030951202,-0.0011825562,0.0,0.0,0.0,inf,inf,inf,0,0,1,0
22396000,22316000,0,0,0.011068043,-0.2124889,0.4342343,0.0,0.0,0.0,-0.0014582472,-0.004369855,-0.00483647,0.0,0.0,0.0,inf,inf,inf,0,0,1,0
22468000,22386181,0,0,0.010234381,-0.21479778,0.42963225,0.0,0.0,0.0,-0.0005553691,-0.0019013137,-0.00015544891,0.0,0.0,0.0,inf,inf,inf,0,0,1,0
22540000,22460000,0,0,0.0117485225,-0.21264558,0.42922533,0.0,0.0,0.0,-0.0022481903,-0.0039366335,0.0003144741,0.0,0.0,0.0,inf,inf,inf,0,0,1,0
22612000,22530909,0,0,0.00858532,-0.2150493,0.4288087,0.0,0.0,0.0,0.000568158,-0.0014538169,0.00077849627,0.0,0.0,0.0,inf,inf,inf,0,0,1,0
22684000,22604000,0,0,0.009675094,-0.22011393,0.4323702,0.0,0.0,0.0,-0.0010121772,0.003719598,-0.0027179718,0.0,0.0,0.0,inf,inf,inf,0,0,1,0
22756000,22674545,0,0,0.008737996,-0.21349972,0.42952108,0.0,0.0,0.0,-0.0001848787,-0.002745241,0.00020849705,0.0,0.0,0.0,inf,inf,inf,0,0,1,0
22828000,22748000,0,0,0.0023137524,-0.22005525,0.4267263,0.0,0.0,0.0,0.0060604243,0.0039005429,0.003052175,0.0,0.0,0.0,inf,inf,inf,0,0,1,0
22900000,22818545,0,0,0.0062828846,-0.21366309,0.42963123,0.0,0.0,0.0,0.001665432,-0.0024490505,0.00017672777,0.0,0.0,0.0,inf,inf,inf,0,0,1,0
22972000,22892000,0,0,0.0093535045,-0.21185853,0.43324485,0.0,0.0,0.0,-0.0019476721,-0.004337594,-0.0034694076,0.0,0.0,0.0,inf,inf,inf,0,0,1,0
23044000,22964000,0,0,0.0049140416,-0.21519586,0.43086153,0.0,0.0,0.0,0.0019420348,-0.0011492968,-0.001151979,0.0,0.0,0.0,inf,inf,inf,0,0,1,0
23116000,23036000,0,0,0.0082458425,-0.21457806,0.4282529,0.0,0.0,0.0,-0.0020538736,-0.0018485487,0.0014257133,0.0,0.0,0.0,inf,inf,inf,0,0,1,0
23188000,23107272,0,0,0.0039520753,-0.21474211,0.42883107,0.0,0.0,0.0,0.001995306,-0.0017908663,0.00079742074,0.0,0.0,0.0,inf,inf,inf,0,0,1,0
23260000,23180000,0,0,0.0007011587,-0.21691261,0.4301925,0.0,0.0,0.0,0.0051258584,0.0003569275,-0.0005738437,0.0,0.0,0.0,inf,inf,inf,0,0,1,0
23332000,23250545,0,0,0.005903007,-0.21553887,0.42827594,0.0,0.0,0.0,7.8423414e-05,-0.001163587,0.0012666583,0.0,0.0,0.0,inf,inf,inf,0,0,1,0
23404000,23324000,0,0,0.0019769873,-0.21440361,0.4327572,0.0,0.0,0.0,0.0046101306,-0.0024903417,-0.0033201873,0.0,0.0,0.0,inf,inf,inf,0,0,1,0
23476000,23395636,0,0,0.005573011,-0.2140648,0.43067312,0.0,0.0,0.0,0.0015532235,-0.0030150115,-0.0013386011,0.0,0.0,0.0,inf,inf,inf,0,0,1,0
23548000,23468000,0,0,0.0044534965,-0.21386385,0.42766842,0.0,0.0,0.0,0.0030666278,-0.0033471286,0.0015929639,0.0,0.0,0.0,inf,inf,inf,0,0,1,0
23620000,23539272,0,0,0.0050904457,-0.21609052,0.43124223,0.0,0.0,0.0,0.002708144,-0.0012570173,-0.0020548701,0.0,0.0,0.0,inf,inf,inf,0,0,1,0
23692000,23612000,0,0,0.0014128003,-0.21288869,0.4219318,0.0,0.0,0.0,0.006498442,-0.004585564,0.0071893036,0.0,0.0,0.0,inf,inf,inf,0,0,1,0
23764000,23682545,0,0,0.0067693978,-0.21615021,0.43012962,0.0,0.0,0.0,0.0012412206,-0.001484558,-0.0010917485,0.0,0.0,0.0,inf,inf,inf,0,0,1,0
23836000,23756000,0,0,0.01020151,-0.22316672,0.43735403,0.0,0.0,0.0,-0.0019982718,0.0053536147,-0.008410335,0.0,0.0,0.0,inf,inf,inf,0,0,1,0
23908000,23825818,0,0,0.008600065,-0.21838734,0.4280619,0.0,0.0,0.0,-0.00018037949,0.0003913343,0.00078466535,0.0,0.0,0.0,inf,inf,inf,0,0,1,0
23980000,23900000,0,0,0.005953728,-0.21752377,0.4276017,0.0,0.0,0.0,0.0026611695,-0.00057034194,0.0011911094,0.0,0.0,0.0,inf,inf,inf,0,0,1,0
24052000,23970181,0,0,0.008851433,-0.21580094,0.42800272,0.0,0.0,0.0,-0.0001255516,-0.0023848414,0.00074124336,0.0,0.0,0.0,inf,inf,inf,0,0,1,0
24124000,24044000,0,0,0.0023325135,-0.21809496,0.43605992,0.0,0.0,0.0,0.0065412624,-9.23723e-05,-0.007319778,0.0,0.0,0.0,inf,inf,inf,0,0,1,0
24196000,24114181,0,0,0.008450332,-0.21734528,0.42644113,0.0,0.0,0.0,0.00043831486,-0.0008331686,0.0023031533,0.0,0.0,0.0,inf,inf,inf,0,0,1,0
24268000,24188000,0,0,0.016713612,-0.22095662,0.4322658,0.0,0.0,0.0,-0.007597707,0.0027867854,-0.0035218298,0.0,0.0,0.0,inf,inf,inf,0,0,1,0
24340000,24258181,0,0,0.009219775,-0.21595205,0.42698687,0.0,0.0,0.0,4.0007755e-05,-0.002195999,0.0017650723,0.0,0.0,0.0,inf,inf,inf,0,0,1,0
24412000,24332000,0,0,0.012362421,-0.21684094,0.4340973,0.0,0.0,0.0,-0.0030123517,-0.001287803,-0.0053375363,0.0,0.0,0.0,inf,inf,inf,0,0,1,0
24484000,24404000,0,0,0.01090821,-0.21659486,0.42800337,0.0,0.0,0.0,-0.001275071,-0.001476422,0.00077936053,0.0,0.0,0.0,inf,inf,inf,0,0,1,0
24556000,24476000,0,0,0.012727609,-0.2106091,0.43031695,0.0,0.0,0.0,-0.0026160162,-0.0073806196,-0.0015036762,0.0,0.0,0.0,inf,inf,inf,0,0,1,0
24628000,24548000,0,0,0.011045639,-0.21607096,0.42988786,0.0,0.0,0.0,-0.00029037613,-0.0017583221,-0.0010087788,0.0,0.0,0.0,inf,inf,inf,0,0,1,0
24700000,24620000,0,0,0.015714705,-0.221969,0.4326378,0.0,0.0,0.0,-0.0044782907,0.004262641,-0.0037086308,0.0,0.0,0.0,inf,inf,inf,0,0,1,0
24772000,24690909,0,0,0.011407586,-0.21603158,0.42817587,0.0,0.0,0.0,0.0002017077,-0.0015975535,0.000782609,0.0,0.0,0.0,inf,inf,inf,0,0,1,0
24844000,24764000,0,0,0.012218434,-0.21554299,0.43411845,0.0,0.0,0.0,-0.0005416982,-0.0020086914,-0.0051225424,0.0,0.0,0.0,inf,inf,inf,0,0,1,0
24916000,24834909,0,0,0.012313281,-0.21533297,0.42925355,0.0,0.0,0.0,-0.0007493617,-0.0021198988,-0.00020453334,0.0,0.0,0.0,inf,inf,inf,0,0,1,0
24988000,24908000,0,0,0.008806487,-0.21500126,0.43157852,0.0,0.0,0.0,0.0024805842,-0.002354145,-0.0024727285,0.0,0.0,0.0,inf,inf,inf,0,0,1,0
25060000,24979272,0,0,0.010726716,-0.21553577,0.42969167,0.0,0.0,0.0,0.00025810674,-0.0016708672,-0.0005027056,0.0,0.0,0.0,inf,inf,inf,0,0,1,0
25132000,25052000,0,0,0.014243179,-0.21645114,0.42439523,0.0,0.0,0.0,-0.0034440467,-0.0006415844,0.00485608,0.0,0.0,0.0,inf,inf,inf,0,0,1,0
25204000,25122545,0,0,0.010828868,-0.21388659,0.4296704,0.0,0.0,0.0,-1.3373792e-05,-0.0030932128,-0.00036239624,0.0,0.0,0.0,inf,inf,inf,0,0,1,0
25276000,25196000,0,0,0.0071843164,-0.21606855,0.4248273,0.0,0.0,0.0,0.0035010455,-0.000907585,0.0044858158,0.0,0.0,0.0,inf,inf,inf,0,0,1,0
25348000,25266909,0,0,0.011692279,-0.2157245,0.43048948,0.0,0.0,0.0,-0.0012622112,-0.001254499,-0.0011715293,0.0,0.0,0.0,inf,inf,inf,0,0,1,0
25420000,25340000,0,0,0.008343838,-0.2116911,0.42651576,0.0,0.0,0.0,0.0019164607,-0.005282566,0.0028089583,0.0,0.0,0.0,inf,inf,inf,0,0,1,0
25492000,25411272,0,0,0.008940076,-0.21572192,0.43090385,0.0,0.0,0.0,0.0011697877,-0.0012598187,-0.0015797019,0.0,0.0,0.0,inf,inf,inf,0,0,1,0
25564000,25484000,0,0,0.008975501,-0.21541297,0.4252584,0.0,0.0,0.0,0.00097225327,-0.0015767217,0.0040655136,0.0,0.0,0.0,inf,inf,inf,0,0,1,0
25636000,25554909,0,0,0.008966075,-0.21483238,0.42726898,0.0,0.0,0.0,0.0008304026,-0.0022565424,0.0020082593,0.0,0.0,0.0,inf,inf,inf,0,0,1,0
25708000,25628000,0,0,0.010876859,-0.21355231,0.42959866,0.0,0.0,0.0,-0.0012074132,-0.0035871267,-0.000344038,0.0,0.0,0.0,inf,inf,inf,0,0,1,0
25780000,25698545,0,0,0.00980631,-0.21493591,0.43019852,0.0,0.0,0.0,-0.0002939375,-0.0022107959,-0.00094404817,0.0,0.0,0.0,inf,inf,inf,0,0,1,0
25852000,25772000,0,0,0.0052092834,-0.21729828,0.4244681,0.0,0.0,0.0,0.004082373,0.0001386702,0.0047846437,0.0,0.0,0.0,inf,inf,inf,0,0,1,0
25924000,25842909,0,0,0.007898827,-0.21634963,0.43046236,0.0,0.0,0.0,0.0011658622,-0.000867784,-0.001233995,0.0,0.0,0.0,inf,inf,inf,0,0,1,0
25996000,25916000,0,0,0.006862263,-0.21479258,0.42484155,0.0,0.0,0.0,0.002066438,-0.0025162846,0.004343301,0.0,0.0,0.0,inf,inf,inf,0,0,1,0
26068000,25987272,0,0,0.0075667016,-0.2172736,0.42947128,0.0,0.0,0.0,0.0012587644,-0.000109136105,-0.00032165647,0.0,0.0,0.0,inf,inf,inf,0,0,1,0
26140000,26060000,0,0,0.010405566,-0.21261586,0.42308545,0.0,0.0,0.0,-0.0015802337,-0.004808232,0.0060431957,0.0,0.0,0.0,inf,inf,inf,0,0,1,0
26212000,26130909,0,0,0.009273432,-0.21481755,0.42870596,0.0,0.0,0.0,-0.00037745386,-0.00269562,0.0003761351,0.0,0.0,0.0,inf,inf,inf,0,0,1,0
26284000,26204000,0,0,0.003376487,-0.2185273,0.43212622,0.0,0.0,0.0,0.005504784,0.0009499192,-0.003076464,0.0,0.0,0.0,inf,inf,inf,0,0,1,0
26356000,26274909,0,0,0.00808628,-0.21520084,0.42732725,0.0,0.0,0.0,0.0007426506,-0.002436474,0.001693219,0.0,0.0,0.0,inf,inf,inf,0,0,1,0
26428000,26348000,0,0,0.010027496,-0.20711155,0.42729077,0.0,0.0,0.0,-0.0012289565,-0.010602221,0.0016915798,0.0,0.0,0.0,inf,inf,inf,0,0,1,0
26500000,26418181,0,0,0.008644854,-0.21472394,0.42660025,0.0,0.0,0.0,0.00021191221,-0.002980858,0.0023854077,0.0,0.0,0.0,inf,inf,inf,0,0,1,0
26572000,26492000,0,0,0.014593273,-0.22174847,0.42681974,0.0,0.0,0.0,-0.0056120977,0.00418894,0.0022370815,0.0,0.0,0.0,inf,inf,inf,0,0,1,0
26644000,26563272,0,0,0.0091232,-0.21590775,0.42900378,0.0,0.0,0.0,0.000101073645,-0.0014592111,0.00014543533,0.0,0.0,0.0,inf,inf,inf,0,0,1,0
26716000,26636000,0,0,0.013328041,-0.21274708,0.42864046,0.0,0.0,0.0,-0.0038680388,-0.004539266,0.00054448843,0.0,0.0,0.0,inf,inf,inf,0,0,1,0
26788000,26706181,0,0,0.009213291,-0.21434984,0.42885938,0.0,0.0,0.0,0.000474751,-0.0029919446,0.00029239058,0.0,0.0,0.0,inf,inf,inf,0,0,1,0
26860000,26780000,0,0,0.010989457,-0.21489696,0.42317995,0.0,0.0,0.0,-0.0011969954,-0.0025120229,0.0059354007,0.0,0.0,0.0,inf,inf,inf,0,0,1,0
26932000,26851272,0,0,0.008114849,-0.21457495,0.42865357,0.0,0.0,0.0,0.0017060591,-0.0029250383,0.00041496754,0.0,0.0,0.0,inf,inf,inf,0,0,1,0
27004000,26924000,0,0,0.009308408,-0.21701209,0.43206576,0.0,0.0,0.0,0.0004885243,-0.00053216517,-0.0030190647,0.0,0.0,0.0,inf,inf,inf,0,0,1,0
27076000,26995636,0,0,0.008182347,-0.21579592,0.4269038,0.0,0.0,0.0,0.0016430616,-0.0017929971,0.0021195114,0.0,0.0,0.0,inf,inf,inf,0,0,1,0
27148000,27068000,0,0,0.009660407,-0.21879472,0.4239451,0.0,0.0,0.0,0.00019994471,0.0011761338,0.005062431,0.0,0.0,0.0,inf,inf,inf,0,0,1,0
27220000,27138909,0,0,0.009400675,-0.21590488,0.43136868,0.0,0.0,0.0,0.0005360972,-0.0017497092,-0.0023811758,0.0,0.0,0.0,inf,inf,inf,0,0,1,0
27292000,27212000,0,0,0.009841482,-0.213883,0.42207086,0.0,0.0,0.0,5.970616e-05,-0.003818974,0.0068933964,0.0,0.0,0.0,inf,inf,inf,0,0,1,0
27364000,27282909,0,0,0.008872554,-0.21621148,0.42744806,0.0,0.0,0.0,0.0010781363,-0.0014548749,0.0015331805,0.0,0.0,0.0,inf,inf,inf,0,0,1,0
27436000,27356000,0,0,0.008408599,-0.21259399,0.4289588,0.0,0.0,0.0,0.0014522523,-0.0050082207,5.7041645e-05,0.0,0.0,0.0,inf,inf,inf,0,0,1,0
27508000,27426909,0,0,0.008947507,-0.21571821,0.42612827,0.0,0.0,0.0,0.0008067861,-0.0019281805,0.0028675795,0.0,0.0,0.0,inf,inf,inf,0,0,1,0
27580000,27500000,0,0,0.0042974534,-0.21593277,0.42784464,0.0,0.0,0.0,0.0054640365,-0.0017984957,0.0011079907,0.0,0.0,0.0,inf,inf,inf,0,0,1,0
27652000,27572000,0,0,0.009085864,-0.2199183,0.42801443,0.0,0.0,0.0,0.00070058554,0.0019572526,0.0008209348,0.0,0.0,0.0,inf,inf,inf,0,0,1,0
27724000,27640000,0,0,0.011154348,-0.21799791,0.4283104,0.0,0.0,0.0,-0.0013165642,2.1904707e-05,0.0005161464,0.0,0.0,0.0,inf,inf,inf,0,0,1,0
27796000,27709600,0,0,0.010250553,-0.21682365,0.42969304,0.0,0.0,0.0,-0.00029446092,-0.0010855943,-0.0008352399,0.0,0.0,0.0,inf,inf,inf,0,0,1,0
27868000,27782000,0,0,0.006365991,-0.2182,0.42883393,0.0,0.0,0.0,0.0037152702,0.00039975345,7.6293945e-05,0.0,0.0,0.0,inf,inf,inf,0,0,1,0
27940000,27852800,0,0,0.011737337,-0.21593432,0.42904097,0.0,0.0,0.0,-0.001594184,-0.0018778592,-0.00013834238,0.0,0.0,0.0,inf,inf,inf,0,0,1,0
28004000,27924000,0,0,0.009229993,-0.21327113,0.43065524,0.0,0.0,0.0,0.0010443125,-0.00455679,-0.0017636716,0.0,0.0,0.0,inf,inf,inf,0,0,1,0
28076000,27991555,0,0,0.010060492,-0.21824585,0.43197748,0.0,0.0,0.0,0.00025022496,0.0003619343,-0.0031152368,0.0,0.0,0.0,inf,inf,inf,0,0,1,0
28148000,28064000,0,0,0.008953563,-0.21268056,0.4302237,0.0,0.0,0.0,0.0013736868,-0.0051260144,-0.0013225675,0.0,0.0,0.0,inf,inf,inf,0,0,1,0
28220000,28134666,0,0,0.012890157,-0.21815297,0.42837498,0.0,0.0,0.0,-0.0026459815,0.0004542917,0.0005829632,0.0,0.0,0.0,inf,inf,inf,0,0,1,0
28284000,28202000,0,0,0.014177181,-0.21573633,0.42727995,0.0,0.0,0.0,-0.0038546026,-0.0018734932,0.0017211735,0.0,0.0,0.0,inf,inf,inf,0,0,1,0
28356000,28274000,0,0,0.010620758,-0.21517618,0.43025,0.0,0.0,0.0,-0.00027512014,-0.0024851263,-0.0012755692,0.0,0.0,0.0,inf,inf,inf,0,0,1,0
28428000,28344000,0,0,0.01125727,-0.21713349,0.4270267,0.0,0.0,0.0,-0.000950085,-0.00062298775,0.0019004047,0.0,0.0,0.0,inf,inf,inf,0,0,1,0
28492000,28411111,0,0,0.008555003,-0.21619233,0.4292069,0.0,0.0,0.0,0.0016610092,-0.0016260296,-0.0003091097,0.0,0.0,0.0,inf,inf,inf,0,0,1,0
28564000,28478000,0,0,0.010598739,-0.21605578,0.42866033,0.0,0.0,0.0,-0.00039931107,-0.001620084,0.00031021237,0.0,0.0,0.0,inf,inf,inf,0,0,1,0
28628000,28548000,0,0,0.011980349,-0.21595614,0.42975733,0.0,0.0,0.0,-0.00173405,-0.0015788376,-0.000716418,0.0,0.0,0.0,inf,inf,inf,0,0,1,0
28700000,28616000,0,0,0.012979568,-0.21817662,0.42901826,0.0,0.0,0.0,-0.0026369998,0.0006879121,4.374981e-05,0.0,0.0,0.0,inf,inf,inf,0,0,1,0
28772000,28686181,0,0,0.009727261,-0.2181504,0.42859104,0.0,0.0,0.0,0.00069438014,0.0005685687,0.00042188168,0.0,0.0,0.0,inf,inf,inf,0,0,1,0
28844000,28760000,0,0,0.0077404943,-0.21697822,0.43162495,0.0,0.0,0.0,0.0026258784,-0.0007390827,-0.0026794374,0.0,0.0,0.0,inf,inf,inf,0,0,1,0
28916000,28831272,0,0,0.011083173,-0.21589085,0.42834553,0.0,0.0,0.0,-0.00074751116,-0.0018990338,0.00056385994,0.0,0.0,0.0,inf,inf,inf,0,0,1,0
28988000,28904000,0,0,0.009827542,-0.22598267,0.42881402,0.0,0.0,0.0,0.00050341804,0.008261323,0.00013029575,0.0,0.0,0.0,inf,inf,inf,0,0,1,0
29060000,28974909,0,0,0.00975702,-0.21558812,0.42893752,0.0,0.0,0.0,0.00054465234,-0.0020262748,6.1780214e-05,0.0,0.0,0.0,inf,inf,inf,0,0,1,0
29124000,29044000,0,0,0.014018811,-0.21935126,0.4296913,0.0,0.0,0.0,-0.0037485808,0.0017434657,-0.0006878972,0.0,0.0,0.0,inf,inf,inf,0,0,1,0
29196000,29114000,0,0,0.008933383,-0.21630836,0.429938,0.0,0.0,0.0,0.0012680041,-0.0013046563,-0.0009356439,0.0,0.0,0.0,inf,inf,inf,0,0,1,0
29268000,29186000,0,0,0.012472561,-0.21744177,0.42637336,0.0,0.0,0.0,-0.0022927057,-0.00028312206,0.0025727153,0.0,0.0,0.0,inf,inf,inf,0,0,1,0
29340000,29257600,0,0,0.010735277,-0.21706283,0.43067977,0.0,0.0,0.0,-0.00056284294,-0.00068202615,-0.0017436445,0.0,0.0,0.0,inf,inf,inf,0,0,1,0
29412000,29328000,0,0,0.011085025,-0.21517694,0.43089372,0.0,0.0,0.0,-0.0009504175,-0.0023796111,-0.0018610954,0.0,0.0,0.0,inf,inf,inf,0,0,1,0
29476000,29394666,0,0,0.010612641,-0.21614328,0.43057692,0.0,0.0,0.0,-0.00045369286,-0.0012224764,-0.0014481544,0.0,0.0,0.0,inf,inf,inf,0,0,1,0
29548000,29465333,0,0,0.0062588006,-0.21459708,0.4349602,0.0,0.0,0.0,0.003925368,-0.0026111603,-0.005752325,0.0,0.0,0.0,inf,inf,inf,0,0,1,0
29620000,29532500,0,0,0.01086006,-0.21471167,0.4311187,0.0,0.0,0.0,-0.00072030444,-0.0024910271,-0.0019069612,0.0,0.0,0.0,inf,inf,inf,0,0,1,0
29692000,29605000,0,0,0.010259251,-0.215911,0.42742744,0.0,0.0,0.0,-0.00010800641,-0.001444906,0.0017064512,0.0,0.0,0.0,inf,inf,inf,0,0,1,0
29756000,29672000,0,0,0.00740225,-0.21462372,0.4289028,0.0,0.0,0.0,0.0026650117,-0.002757609,0.00022017956,0.0,0.0,0.0,inf,inf,inf,0,0,1,0
29828000,29742400,0,0,0.011473504,-0.21657787,0.42914835,0.0,0.0,0.0,-0.0014824988,-0.0007314235,1.2904406e-05,0.0,0.0,0.0,inf,inf,inf,0,0,1,0
29892000,29809333,0,0,0.00918632,-0.21609168,0.43086356,0.0,0.0,0.0,0.000824742,-0.001143977,-0.001665473,0.0,0.0,0.0,inf,inf,inf,0,0,1,0
29964000,29881333,0,0,0.008306804,-0.21439432,0.43012223,0.0,0.0,0.0,0.0017700018,-0.002789706,-0.0008995533,0.0,0.0,0.0,inf,inf,inf,0,0,1,0
30036000,29952666,0,0,0.009763135,-0.21611053,0.4316978,0.0,0.0,0.0,0.00039385445,-0.0011431575,-0.0025122464,0.0,0.0,0.0,inf,inf,inf,0,0,1,0
30108000,30025333,0,0,0.008329567,-0.21574971,0.43038017,0.0,0.0,0.0,0.0019469522,-0.0015977472,-0.001244992,0.0,0.0,0.0,inf,inf,inf,0,0,1,0
30172000,30092000,0,0,0.007606599,-0.21638334,0.42964873,0.0,0.0,0.0,0.0027664793,-0.0009949207,-0.0005314648,0.0,0.0,0.0,inf,inf,inf,0,0,1,0
30244000,30164000,0,0,0.012608107,-0.21423143,0.4273173,0.0,0.0,0.0,-0.0021920465,-0.0030739903,0.0018358231,0.0,0.0,0.0,inf,inf,inf,0,0,1,0
30316000,30235200,0,0,0.0068261637,-0.21571139,0.42799088,0.0,0.0,0.0,0.0037226365,-0.0015490055,0.0011818111,0.0,0.0,0.0,inf,inf,inf,0,0,1,0
30388000,30302000,0,0,0.009429331,-0.21611035,0.43017775,0.0,0.0,0.0,0.001016249,-0.0011121184,-0.0009833574,0.0,0.0,0.0,inf,inf,inf,0,0,1,0
30460000,30374000,0,0,0.011989795,-0.21827671,0.42836937,0.0,0.0,0.0,-0.0015141293,0.0010893941,0.0008420944,0.0,0.0,0.0,inf,inf,inf,0,0,1,0
30532000,30446000,0,0,0.009606361,-0.21508132,0.43051335,0.0,0.0,0.0,0.0006906986,-0.0020452589,-0.0012668669,0.0,0.0,0.0,inf,inf,inf,0,0,1,0
30604000,30518000,0,0,0.008470877,-0.21366392,0.42656255,0.0,0.0,0.0,0.0016132528,-0.00336726,0.0027372837,0.0,0.0,0.0,inf,inf,inf,0,0,1,0
30676000,30590000,0,0,0.007466509,-0.21528387,0.43003806,0.0,0.0,0.0,0.0024241218,-0.0016031265,-0.0006608963,0.0,0.0,0.0,inf,inf,inf,0,0,1,0
30748000,30662000,0,0,0.010368,-0.21531579,0.43028456,0.0,0.0,0.0,-0.00063716155,-0.0015548468,-0.0008954704,0.0,0.0,0.0,inf,inf,inf,0,0,1,0
30820000,30734000,0,0,0.010236761,-0.21369426,0.4314828,0.0,0.0,0.0,-0.00043621473,-0.00316675,-0.0020904243,0.0,0.0,0.0,inf,inf,inf,0,0,1,0
30892000,30806000,0,0,0.00865384,-0.21420455,0.43232593,0.0,0.0,0.0,0.0012125615,-0.0027160645,-0.0029652417,0.0,0.0,0.0,inf,inf,inf,0,0,1,0
30956000,30876000,0,0,0.010254982,-0.2162885,0.42964742,0.0,0.0,0.0,-0.00033699255,-0.00064083934,-0.00029230118,0.0,0.0,0.0,inf,inf,inf,0,0,1,0
31028000,30944000,0,0,0.012200396,-0.21627246,0.4332504,0.0,0.0,0.0,-0.0023750542,-0.0006367713,-0.0038829744,0.0,0.0,0.0,inf,inf,inf,0,0,1,0
31100000,31014857,0,0,0.008733752,-0.21349774,0.4277551,0.0,0.0,0.0,0.0010028677,-0.0034121424,0.0016140044,0.0,0.0,0.0,inf,inf,inf,0,0,1,0
31172000,31086400,0,0,0.008583664,-0.2178415,0.4273757,0.0,0.0,0.0,0.0011701593,0.0009505451,0.002002567,0.0,0.0,0.0,inf,inf,inf,0,0,1,0
31236000,31154000,0,0,0.008737309,-0.21276632,0.4277826,0.0,0.0,0.0,0.0010487232,-0.004181057,0.0015664697,0.0,0.0,0.0,inf,inf,inf,0,0,1,0
31308000,31226000,0,0,0.008921705,-0.21544307,0.42685837,0.0,0.0,0.0,0.00094854087,-0.0016591847,0.0024104118,0.0,0.0,0.0,inf,inf,inf,0,0,1,0
31380000,31298000,0,0,0.010673612,-0.21492317,0.4294474,0.0,0.0,0.0,-0.0008537099,-0.0023317635,-0.00025466084,0.0,0.0,0.0,inf,inf,inf,0,0,1,0
31452000,31370000,0,0,0.0064723245,-0.21455209,0.43118805,0.0,0.0,0.0,0.0033678436,-0.0028444678,-0.0020674467,0.0,0.0,0.0,inf,inf,inf,0,0,1,0
31524000,31442000,0,0,0.00961437,-0.21607552,0.42908567,0.0,0.0,0.0,0.00036952738,-0.0014032573,-1.0102987e-05,0.0,0.0,0.0,inf,inf,inf,0,0,1,0
31596000,31514000,0,0,0.011148377,-0.21439895,0.42864907,0.0,0.0,0.0,-0.0010883948,-0.0031048656,0.0004120469,0.0,0.0,0.0,inf,inf,inf,0,0,1,0
31668000,31586000,0,0,0.009226478,-0.2146425,0.43225512,0.0,0.0,0.0,0.0009078244,-0.0029642284,-0.0032479465,0.0,0.0,0.0,inf,inf,inf,0,0,1,0
31740000,31658000,0,0,0.010464385,-0.21475434,0.42934453,0.0,0.0,0.0,-0.00036647916,-0.0029569268,-0.00038954616,0.0,0.0,0.0,inf,inf,inf,0,0,1,0
31812000,31728000,0,0,0.010381815,-0.21358013,0.4289056,0.0,0.0,0.0,-0.00053037424,-0.0042010993,1.9580126e-05,0.0,0.0,0.0,inf,inf,inf,0,0,1,0
31876000,31795200,0,0,0.00879991,-0.21767472,0.42692646,0.0,0.0,0.0,0.000853681,-0.00018276274,0.0019645393,0.0,0.0,0.0,inf,inf,inf,0,0,1,0
31948000,31866857,0,0,0.008315859,-0.2155612,0.42918628,0.0,0.0,0.0,0.0012756456,-0.0023569316,-0.0003247261,0.0,0.0,0.0,inf,inf,inf,0,0,1,0
32020000,31939200,0,0,0.009172532,-0.21616338,0.43215987,0.0,0.0,0.0,0.0003802674,-0.0017935187,-0.003317207,0.0,0.0,0.0,inf,inf,inf,0,0,1,0
32092000,32010857,0,0,0.009297889,-0.21640654,0.42950803,0.0,0.0,0.0,0.0002857931,-0.00157471,-0.00067839026,0.0,0.0,0.0,inf,inf,inf,0,0,1,0
32164000,32082400,0,0,0.008048467,-0.2179013,0.4294519,0.0,0.0,0.0,0.0013725385,-0.00016482174,-0.0006618202,0.0,0.0,0.0,inf,inf,inf,0,0,1,0
32236000,32153714,0,0,0.009567968,-0.21636465,0.42799848,0.0,0.0,0.0,-0.00035944488,-0.0018272102,0.00073230267,0.0,0.0,0.0,inf,inf,inf,0,0,1,0
32308000,32221000,0,0,0.008529049,-0.2167952,0.4281411,0.0,0.0,0.0,0.000585909,-0.0015344024,0.00052151084,0.0,0.0,0.0,inf,inf,inf,0,0,1,0
32380000,32292500,0,0,0.009349176,-0.21621254,0.42722407,0.0,0.0,0.0,-0.00023101363,-0.0022684336,0.0013613999,0.0,0.0,0.0,inf,inf,inf,0,0,1,0
32444000,32360000,0,0,0.010415203,-0.21684363,0.4275844,0.0,0.0,0.0,-0.0012117242,-0.0016499013,0.0009928048,0.0,0.0,0.0,inf,inf,inf,0,0,1,0
32516000,32432000,0,0,0.009427666,-0.2166765,0.42928877,0.0,0.0,0.0,-0.00022825506,-0.0017232746,-0.0006637275,0.0,0.0,0.0,inf,inf,inf,0,0,1,0
32588000,32504000,0,0,0.006532382,-0.22018832,0.42908132,0.0,0.0,0.0,0.0026271902,0.0018998384,-0.00039869547,0.0,0.0,0.0,inf,inf,inf,0,0,1,0
32660000,32575555,0,0,0.0060792672,-0.21492578,0.42836607,0.0,0.0,0.0,0.0028478322,-0.0033096522,0.00034847856,0.0,0.0,0.0,inf,inf,inf,0,0,1,0
32732000,32646666,0,0,0.009994477,-0.21685487,0.43051314,0.0,0.0,0.0,-0.0010843277,-0.0012853742,-0.0017498434,0.0,0.0,0.0,inf,inf,inf,0,0,1,0
32804000,32717777,0,0,0.0088026365,-0.21438219,0.42919773,0.0,0.0,0.0,0.00012701098,-0.0036941469,-0.00040233135,0.0,0.0,0.0,inf,inf,inf,0,0,1,0
32876000,32790666,0,0,0.004910478,-0.2173833,0.4277422,0.0,0.0,0.0,0.0041372613,-0.00070506334,0.0010446608,0.0,0.0,0.0,inf,inf,inf,0,0,1,0
32948000,32862666,0,0,0.006348776,-0.21630792,0.43051997,0.0,0.0,0.0,0.002597121,-0.0018252581,-0.0017538369,0.0,0.0,0.0,inf,inf,inf,0,0,1,0
33020000,32934666,0,0,0.0067936135,-0.21893369,0.43089384,0.0,0.0,0.0,0.0019892128,0.00079746544,-0.0021257997,0.0,0.0,0.0,inf,inf,inf,0,0,1,0
33092000,33006666,0,0,0.006866022,-0.21525772,0.43062612,0.0,0.0,0.0,0.0016989717,-0.0028083771,-0.0018180311,0.0,0.0,0.0,inf,inf,inf,0,0,1,0
33164000,33078666,0,0,0.0057462244,-0.2175412,0.4276244,0.0,0.0,0.0,0.002862914,-0.00040505826,0.0012436509,0.0,0.0,0.0,inf,inf,inf,0,0,1,0
33236000,33151111,0,0,0.008814091,-0.21697803,0.42819977,0.0,0.0,0.0,-5.991198e-05,-0.0008106977,0.0007454455,0.0,0.0,0.0,inf,inf,inf,0,0,1,0
33308000,33222666,0,0,0.005513803,-0.2178007,0.43084872,0.0,0.0,0.0,0.0034333533,8.314848e-05,-0.0018713772,0.0,0.0,0.0,inf,inf,inf,0,0,1,0
33380000,33294222,0,0,0.00811978,-0.21512982,0.43189684,0.0,0.0,0.0,0.0009123655,-0.0025437772,-0.0028989613,0.0,0.0,0.0,inf,inf,inf,0,0,1,0
33444000,33362000,0,0,0.004815018,-0.21159546,0.43034875,0.0,0.0,0.0,0.004364798,-0.00606969,-0.0013497472,0.0,0.0,0.0,inf,inf,inf,0,0,1,0
