timestamp,timestamp_sample,xyz[0],xyz[1],xyz[2]
3344000,3344000,-0.21439071,0.20012856,-9.933155
3348000,3348000,-0.22367549,0.20381978,-9.935479
3396000,3396000,-0.21809861,0.19090983,-9.92647
3444000,3444000,-0.20392528,0.2121379,-9.934558
3496000,3496000,-0.22325791,0.19261481,-9.917853
3544000,3544000,-0.20244615,0.18994911,-9.927263
3596000,3596000,-0.22349837,0.1964697,-9.857104
3644000,3644000,-0.20590417,0.20644478,-9.857891
3696000,3696000,-0.21929626,0.21786341,-9.827111
3744000,3744000,-0.19364299,0.1973544,-9.809322
3796000,3796000,-0.20507498,0.18951766,-9.8221035
3844000,3844000,-0.2179702,0.20535687,-9.810762
3892000,3892000,-0.20654678,0.19568567,-9.803529
3944000,3944000,-0.17830119,0.20151925,-9.820635
3996000,3996000,-0.2033419,0.17799246,-9.8435
4044000,4044000,-0.21936601,0.18130304,-9.815711
4096000,4096000,-0.20737496,0.20862445,-9.82725
4144000,4144000,-0.22055268,0.2052924,-9.820037
4196000,4196000,-0.20993277,0.17535593,-9.830145
4244000,4244000,-0.20074333,0.19085649,-9.808652
4292000,4292000,-0.19404304,0.20425078,-9.817826
4344000,4344000,-0.21682301,0.17347457,-9.81986
4396000,4396000,-0.21527842,0.18165949,-9.81951
4444000,4444000,-0.21281166,0.17855355,-9.812689
4496000,4496000,-0.18762444,0.19139539,-9.827511
4544000,4544000,-0.2068945,0.17325144,-9.837604
4596000,4596000,-0.22022031,0.19997784,-9.820608
4644000,4644000,-0.21348672,0.16906872,-9.813879
4696000,4696000,-0.21039332,0.17140873,-9.82863
4740000,4740000,-0.23522164,0.1809203,-9.843142
4796000,4796000,-0.19239488,0.18665601,-9.802986
4844000,4844000,-0.2204574,0.17942074,-9.819769
4896000,4896000,-0.19549608,0.17449862,-9.8132515
4940000,4940000,-0.19307782,0.18613243,-9.801103
4996000,4996000,-0.220875,0.19673193,-9.81879
5044000,5044000,-0.20786446,0.19950244,-9.794543
5096000,5096000,-0.19783542,0.19680144,-9.809691
5144000,5144000,-0.18494369,0.17240772,-9.852701
5196000,5196000,-0.2113593,0.19015929,-9.784651
5244000,5244000,-0.2036,0.20032793,-9.828966
5296000,5296000,-0.21995345,0.19209981,-9.7769575
5340000,5340000,-0.21315612,0.18692957,-9.809148
5396000,5396000,-0.2083137,0.18375677,-9.824965
5440000,5440000,-0.23108517,0.1909258,-9.807553
5496000,5496000,-0.22426453,0.19080913,-9.824474
5544000,5544000,-0.18663754,0.16015229,-9.811113
5596000,5596000,-0.20104067,0.18554677,-9.819109
5640000,5640000,-0.21360675,0.17459628,-9.799934
5696000,5696000,-0.19308504,0.1867573,-9.823686
5740000,5740000,-0.22108191,0.1930658,-9.829781
5796000,5796000,-0.22339417,0.17738715,-9.818325
5844000,5844000,-0.2001289,0.1663038,-9.80896
5896000,5896000,-0.19906029,0.19201922,-9.800214
5940000,5940000,-0.21137571,0.17738532,-9.802286
5996000,5996000,-0.2206704,0.1815935,-9.827168
6044000,6044000,-0.1827464,0.19235808,-9.7910385
6096000,6096000,-0.21327153,0.1895406,-9.820869
6144000,6144000,-0.2017448,0.1773466,-9.816206
6196000,6196000,-0.20886019,0.1727246,-9.802364
6244000,6244000,-0.21318956,0.17936826,-9.799397
6296000,6296000,-0.21943419,0.18974173,-9.822575
6344000,6344000,-0.25306836,0.18197095,-9.812391
6396000,6396000,-0.21605627,0.1762943,-9.801073
6444000,6444000,-0.22165036,0.17569405,-9.795479
6496000,6496000,-0.21478423,0.16397448,-9.809204
6544000,6544000,-0.22636987,0.1867205,-9.806097
6596000,6596000,-0.21081075,0.16305767,-9.787698
6644000,6644000,-0.20288229,0.18450877,-9.8113575
6696000,6696000,-0.20682888,0.19604322,-9.815094
6744000,6744000,-0.21638152,0.18017815,-9.814826
6796000,6796000,-0.22958037,0.19682276,-9.786839
6844000,6844000,-0.20384145,0.15191871,-9.802447
6896000,6896000,-0.20848933,0.18984339,-9.759514
6940000,6940000,-0.2028758,0.20653504,-9.790216
6996000,6996000,-0.20709899,0.19277781,-9.814678
7044000,7044000,-0.19046487,0.18512183,-9.78698
7092000,7092000,-0.18714644,0.18739873,-9.79235
7144000,7144000,-0.20096923,0.19176348,-9.787266
7196000,7196000,-0.22333857,0.18259476,-9.795256
7244000,7244000,-0.19892977,0.14748,-9.80353
7296000,7296000,-0.1816689,0.20119235,-9.811495
7344000,7344000,-0.20453076,0.20253539,-9.789984
7396000,7396000,-0.20828687,0.18497947,-9.79102
7444000,7444000,-0.19643447,0.18521425,-9.772373
7496000,7496000,-0.20080347,0.17846422,-9.7942705
7544000,7544000,-0.19311562,0.15897694,-9.783781
7596000,7596000,-0.20660229,0.18688379,-9.760989
7644000,7644000,-0.22576128,0.18748046,-9.809569
7696000,7696000,-0.21628134,0.17884612,-9.820473
7744000,7744000,-0.21417159,0.1890338,-9.81083
7796000,7796000,-0.2239182,0.19070701,-9.791447
7844000,7844000,-0.20841499,0.19876242,-9.8006
7892000,7892000,-0.21641597,0.18458071,-9.813402
7940000,7940000,-0.20157878,0.17562959,-9.794028
7992000,7992000,-0.1978559,0.17616218,-9.794545
8040000,8040000,-0.2153379,0.18572028,-9.801054
8092000,8092000,-0.19830692,0.19577365,-9.812316
8140000,8140000,-0.21377687,0.18952124,-9.815517
8196000,8196000,-0.21068276,0.20106901,-9.799891
8244000,8244000,-0.21268806,0.16946106,-9.833114
8296000,8296000,-0.20719959,0.19653292,-9.809132
8344000,8344000,-0.2010839,0.17025186,-9.796745
8392000,8392000,-0.19314095,0.18774268,-9.817624
8440000,8440000,-0.21310475,0.18040799,-9.816
8496000,8496000,-0.20461029,0.18611327,-9.772501
8540000,8540000,-0.2112698,0.16706836,-9.7934
8596000,8596000,-0.19443406,0.16992256,-9.808693
8644000,8644000,-0.2001282,0.18018189,-9.802922
8696000,8696000,-0.18622234,0.1795837,-9.785912
8744000,8744000,-0.19704741,0.16591606,-9.804632
8796000,8796000,-0.20699127,0.15344174,-9.79808
8844000,8844000,-0.21443132,0.17468724,-9.821629
8896000,8896000,-0.1876795,0.1936638,-9.812163
8944000,8944000,-0.21257152,0.17379272,-9.793966
8996000,8996000,-0.20442078,0.15947428,-9.814756
9044000,9044000,-0.18577018,0.19730167,-9.785775
9096000,9096000,-0.20036325,0.18497053,-9.797669
9144000,9144000,-0.1721327,0.16838606,-9.811714
9196000,9196000,-0.20191565,0.18179381,-9.792307
9240000,9240000,-0.20723623,0.22141448,-9.799839
9296000,9296000,-0.19005126,0.16434512,-9.820762
9344000,9344000,-0.18872951,0.15212046,-9.784232
9396000,9396000,-0.18982205,0.20659724,-9.812784
9444000,9444000,-0.20910923,0.20342046,-9.802526
9496000,9496000,-0.15880713,0.1745095,-9.802753
9544000,9544000,-0.18061948,0.19977328,-9.793366
9592000,9592000,-0.17690714,0.16707276,-9.787352
9644000,9644000,-0.18640582,0.17317942,-9.792804
9696000,9696000,-0.17837326,0.17527325,-9.783429
9744000,9744000,-0.18641801,0.18127562,-9.82441
9796000,9796000,-0.18672724,0.20118803,-9.786069
9840000,9840000,-0.1855379,0.16563186,-9.782535
9896000,9896000,-0.17080835,0.19791426,-9.80592
9944000,9944000,-0.20532855,0.16120121,-9.808441
9996000,9996000,-0.21512076,0.17756471,-9.791655
10044000,10044000,-0.19366026,0.15399373,-9.809912
10096000,10096000,-0.19056624,0.19810936,-9.792445
10144000,10144000,-0.20625407,0.17512336,-9.765036
10196000,10196000,-0.18447141,0.14945473,-9.778753
10244000,10244000,-0.18520075,0.16212033,-9.804847
10296000,10296000,-0.20156144,0.17885306,-9.806232
10344000,10344000,-0.19637297,0.16850331,-9.7897
10392000,10392000,-0.18409634,0.16706517,-9.828205
10444000,10444000,-0.1991091,0.16869998,-9.802786
10496000,10496000,-0.20469353,0.18237107,-9.780666
10544000,10544000,-0.20579503,0.1899151,-9.794329
10592000,10592000,-0.16082543,0.16646858,-9.806263
10644000,10644000,-0.18251741,0.15411447,-9.813342
10696000,10696000,-0.20037228,0.18174809,-9.788365
10744000,10744000,-0.17974167,0.17986001,-9.775948
10792000,10792000,-0.19849913,0.16149366,-9.776523
10844000,10844000,-0.1892899,0.15638246,-9.780062
10892000,10892000,-0.1849069,0.18135247,-9.79903
10940000,10940000,-0.20410268,0.1965446,-9.7912445
10992000,10992000,-0.19736299,0.1421787,-9.794362
11044000,11044000,-0.21058492,0.16259342,-9.786265
11096000,11096000,-0.17387833,0.18799427,-9.792023
11144000,11144000,-0.20065163,0.16365094,-9.789657
11196000,11196000,-0.15085304,0.15433106,-9.784548
11244000,11244000,-0.22095054,0.17219563,-9.790359
11296000,11296000,-0.20643136,0.15467307,-9.77027
11344000,11344000,-0.20419408,0.16368571,-9.777693
11396000,11396000,-0.20453961,0.17102057,-9.782731
11444000,11444000,-0.22056976,0.1699407,-9.761877
11492000,11492000,-0.16872439,0.18631579,-9.769905
11540000,11540000,-0.19140334,0.16161002,-9.764853
11596000,11596000,-0.17713721,0.15072042,-9.760374
11644000,11644000,-0.21049446,0.1440824,-9.779421
11696000,11696000,-0.2012591,0.1855852,-9.807414
11744000,11744000,-0.1841546,0.16694656,-9.805636
11796000,11796000,-0.1977749,0.16170757,-9.786441
11844000,11844000,-0.20925468,0.1753804,-9.797679
11896000,11896000,-0.18259731,0.16809309,-9.788099
11944000,11944000,-0.1977976,0.16810754,-9.823711
11992000,11992000,-0.1974141,0.18574667,-9.805054
12040000,12040000,-0.21105355,0.13915339,-9.773251
12092000,12092000,-0.18703596,0.17265785,-9.787403
12144000,12144000,-0.19630414,0.16061634,-9.81272
12196000,12196000,-0.21455812,0.15538335,-9.780837
12244000,12244000,-0.18875496,0.16495684,-9.796488
12296000,12296000,-0.19717115,0.14498943,-9.791882
12340000,12340000,-0.19959854,0.16888905,-9.791246
12396000,12396000,-0.18292966,0.14517763,-9.774516
12444000,12444000,-0.19479655,0.17641404,-9.799626
12492000,12492000,-0.1672708,0.17075719,-9.77547
12544000,12544000,-0.16987988,0.20836174,-9.802083
12596000,12596000,-0.19085559,0.18317021,-9.792658
12644000,12644000,-0.22346371,0.18217053,-9.770487
12696000,12696000,-0.15696359,0.17651464,-9.784098
12740000,12740000,-0.19074668,0.15764637,-9.779221
12796000,12796000,-0.19338283,0.17868039,-9.762171
12844000,12844000,-0.20846416,0.13203724,-9.769717
12896000,12896000,-0.20642893,0.1486624,-9.7983265
12944000,12944000,-0.20469593,0.18161716,-9.814484
12992000,12992000,-0.21080752,0.16481699,-9.818211
13044000,13044000,-0.20766728,0.17641592,-9.825038
13096000,13096000,-0.18931377,0.12705721,-9.798316
13144000,13144000,-0.16697185,0.17282845,-9.767559
13196000,13196000,-0.17759138,0.17212532,-9.786034
13244000,13244000,-0.18465222,0.1588538,-9.783345
13296000,13296000,-0.19184496,0.1805732,-9.803801
13344000,13344000,-0.17525305,0.1725693,-9.794918
13392000,13392000,-0.17272103,0.16383107,-9.76543
13440000,13440000,-0.18959856,0.16867502,-9.807503
13496000,13496000,-0.17457159,0.18902482,-9.822534
13544000,13544000,-0.1936409,0.1686984,-9.778116
13596000,13596000,-0.16919982,0.17556377,-9.808514
13640000,13640000,-0.18469168,0.154984,-9.804127
13692000,13692000,-0.1764356,0.15604436,-9.785395
13740000,13740000,-0.19969471,0.14272474,-9.756615
13792000,13792000,-0.20627245,0.17026073,-9.790076
13840000,13840000,-0.19324106,0.16509962,-9.805064
13896000,13896000,-0.20319456,0.15243188,-9.825873
13944000,13944000,-0.17351776,0.16956519,-9.7715435
13996000,13996000,-0.18710914,0.1760237,-9.801807
14044000,14044000,-0.1850043,0.17051934,-9.772585
14092000,14092000,-0.1879687,0.1813314,-9.791796
14140000,14140000,-0.18091613,0.15527892,-9.798178
14192000,14192000,-0.1547515,0.15255685,-9.816307
14240000,14240000,-0.17160133,0.16247734,-9.77472
14296000,14296000,-0.18011121,0.13879839,-9.786154
14344000,14344000,-0.17279148,0.17293271,-9.790234
14396000,14396000,-0.19708312,0.15661319,-9.806796
14444000,14444000,-0.17990005,0.16922088,-9.804712
14496000,14496000,-0.19316249,0.19462156,-9.794199
14544000,14544000,-0.16665581,0.15298803,-9.782002
14596000,14596000,-0.14914174,0.17101882,-9.800215
14644000,14644000,-0.19369282,0.17516853,-9.801458
14696000,14696000,-0.17504331,0.1472583,-9.81065
14740000,14740000,-0.17437539,0.17501941,-9.827705
14792000,14792000,-0.17398223,0.17959784,-9.769334
14844000,14844000,-0.18887301,0.18080962,-9.783486
14896000,14896000,-0.16724475,0.14929432,-9.82221
14940000,14940000,-0.1569775,0.18429735,-9.802546
14992000,14992000,-0.19618255,0.1505939,-9.794205
15040000,15040000,-0.19033757,0.18753381,-9.782861
15092000,15092000,-0.17708509,0.15665458,-9.788126
15140000,15140000,-0.15913448,0.1644347,-9.7661
15192000,15192000,-0.16616653,0.15148574,-9.813498
15240000,15240000,-0.18597373,0.1748302,-9.784888
15292000,15292000,-0.18404697,0.14719473,-9.834215
15340000,15340000,-0.16217223,0.14814839,-9.7915125
15392000,15392000,-0.17884994,0.17211246,-9.7951765
15444000,15444000,-0.16333283,0.16694468,-9.789768
15496000,15496000,-0.18282096,0.16094668,-9.792866
15544000,15544000,-0.16605604,0.15904053,-9.786919
15596000,15596000,-0.18028218,0.14740142,-9.801712
15644000,15644000,-0.18545614,0.13390583,-9.783514
15692000,15692000,-0.20131166,0.17901558,-9.756524
15744000,15744000,-0.17178278,0.16914365,-9.794559
15796000,15796000,-0.18083575,0.17152455,-9.778408
15844000,15844000,-0.18245366,0.16918847,-9.784315
15896000,15896000,-0.12422229,0.15717556,-9.816007
15944000,15944000,-0.18709014,0.13174084,-9.786441
15996000,15996000,-0.1590147,0.14469686,-9.80448
16044000,16044000,-0.18377285,0.1703777,-9.770001
16092000,16092000,-0.16196989,0.17216685,-9.803884
16144000,16144000,-0.16152088,0.17519417,-9.789862
16192000,16192000,-0.1576895,0.1491786,-9.811845
16244000,16244000,-0.15369326,0.16373223,-9.806798
16296000,16296000,-0.17827798,0.14636758,-9.785872
16340000,16340000,-0.1564983,0.1439799,-9.80845
16392000,16392000,-0.166478,0.14548598,-9.795586
16440000,16440000,-0.19458519,0.15781575,-9.740163
16496000,16496000,-0.17096937,0.13014016,-9.7804165
16544000,16544000,-0.16346571,0.16520998,-9.763598
16596000,16596000,-0.17025371,0.1693967,-9.78266
16644000,16644000,-0.17612906,0.17377916,-9.793109
16696000,16696000,-0.18965629,0.16005638,-9.791004
16744000,16744000,-0.18922317,0.14632541,-9.770275
16796000,16796000,-0.1722723,0.15373358,-9.8069515
16844000,16844000,-0.16430926,0.13038176,-9.802873
16896000,16896000,-0.16878432,0.16492191,-9.780714
16944000,16944000,-0.14820415,0.14934827,-9.793555
16996000,16996000,-0.17966397,0.17430255,-9.797172
17040000,17040000,-0.1645573,0.16454,-9.777752
17096000,17096000,-0.15603916,0.13598354,-9.808848
17140000,17140000,-0.15073222,0.13169768,-9.782822
17192000,17192000,-0.17247765,0.15859532,-9.800597
17244000,17244000,-0.16002017,0.12800959,-9.792849
17296000,17296000,-0.15182701,0.14762448,-9.780492
17344000,17344000,-0.1750611,0.15843181,-9.80415
17396000,17396000,-0.18678574,0.18716046,-9.788345
17444000,17444000,-0.17675795,0.18254112,-9.803619
17496000,17496000,-0.17094637,0.15827012,-9.77462
17544000,17544000,-0.1758157,0.17341356,-9.779797
17592000,17592000,-0.16909486,0.1475439,-9.828821
17644000,17644000,-0.17254877,0.17310786,-9.815405
17696000,17696000,-0.17378646,0.15472524,-9.811477
17744000,17744000,-0.17104714,0.17474677,-9.798239
17796000,17796000,-0.16389485,0.19097437,-9.810001
17844000,17844000,-0.1729405,0.16495337,-9.861403
17896000,17896000,-0.1531103,0.19487073,-9.997758
17944000,17944000,-0.2142032,0.15897262,-10.0639515
17996000,17996000,-0.18436259,0.14479357,-10.199053
18040000,18040000,-0.14011624,0.085249834,-10.222406
18092000,18092000,-0.067095,0.016454149,-10.243905
18144000,18144000,0.0044493135,-0.042281494,-10.190084
18196000,18196000,-0.1543945,0.14882146,-10.191571
18244000,18244000,-0.16246812,0.12252366,-10.374134
18296000,18296000,-0.16449118,0.12506579,-10.458714
18344000,18344000,-0.14086384,0.114822604,-10.552717
18396000,18396000,-0.12332119,0.13735434,-10.684003
18444000,18444000,-0.10770291,0.123639874,-10.692545
18496000,18496000,-0.08068286,0.0948032,-10.714347
18544000,18544000,-0.08656499,0.10749598,-10.744091
18596000,18596000,-0.083187334,0.079899855,-10.736432
18644000,18644000,-0.062405348,0.09013557,-10.722187
18692000,18692000,-0.07382464,0.07325337,-10.734048
18740000,18740000,-0.046380438,0.08546085,-10.5218935
18792000,18792000,-0.10056925,0.062481873,-10.259592
18840000,18840000,-0.09244448,0.087540075,-10.033492
18896000,18896000,-0.09528937,0.07126866,-9.746395
18944000,18944000,-0.12148739,0.090480596,-9.572739
18992000,18992000,-0.12331194,0.07602542,-9.688842
19044000,19044000,-0.13013199,0.10429252,-9.853375
19096000,19096000,-0.10780077,0.09348782,-9.89666
19144000,19144000,-0.12296583,0.11351518,-10.000449
19192000,19192000,-0.11282529,0.08878465,-9.98563
19244000,19244000,-0.09714787,0.10862298,-9.977022
19296000,19296000,-0.11943458,0.105537504,-9.927469
19344000,19344000,-0.1140831,0.112362,-9.957989
19396000,19396000,-0.1138283,0.11937361,-9.955711
19440000,19440000,-0.12158045,0.105727054,-9.957239
19496000,19496000,-0.14357564,0.15234601,-9.927637
19544000,19544000,-0.12457379,0.15358518,-9.880242
19596000,19596000,-0.118202165,0.13065094,-9.884884
19644000,19644000,-0.10526342,0.1523597,-9.860414
19692000,19692000,-0.1464443,0.15432522,-9.818612
19744000,19744000,-0.16060603,0.1577254,-9.79835
19792000,19792000,-0.11946066,0.14391945,-9.853819
19840000,19840000,-0.13504377,0.15846954,-9.850583
19892000,19892000,-0.15256816,0.17027289,-9.814357
19940000,19940000,-0.1667968,0.157533,-9.816451
19992000,19992000,-0.17149118,0.15636347,-9.787354
20040000,20040000,-0.14331299,0.17963816,-9.7768
20092000,20092000,-0.16747856,0.18258774,-9.715725
20144000,20144000,-0.16802505,0.18749765,-9.77239
20192000,20192000,-0.18547875,0.18808861,-9.736852
20240000,20240000,-0.16012636,0.18115537,-9.757767
20292000,20292000,-0.16950454,0.18943658,-9.727409
20344000,20344000,-0.19200255,0.17835276,-9.711661
20396000,20396000,-0.15359765,0.17993498,-9.733694
20444000,20444000,-0.21779415,0.20687397,-9.734429
20496000,20496000,-0.18171984,0.20094879,-9.679291
20544000,20544000,-0.1615298,0.17193428,-9.700096
20596000,20596000,-0.19475873,0.17606652,-9.698031
20644000,20644000,-0.18828462,0.18774602,-9.692434
20696000,20696000,-0.20591013,0.19223833,-9.640274
20744000,20744000,-0.1757321,0.20386708,-9.661043
20796000,20796000,-0.19251078,0.2014115,-9.684431
20844000,20844000,-0.1750824,0.19373846,-9.677561
20896000,20896000,-0.19865556,0.20010965,-9.594353
20944000,20944000,-0.17034648,0.19609666,-9.595446
20996000,20996000,-0.19741406,0.1929879,-9.639774
21044000,21044000,-0.18295486,0.19345722,-9.617845
21096000,21096000,-0.19117412,0.20137958,-9.631165
21144000,21144000,-0.20071161,0.175249,-9.612238
21196000,21196000,-0.1770685,0.18225782,-9.60525
21244000,21244000,-0.19587728,0.1983091,-9.558659
21296000,21296000,-0.19639793,0.20250402,-9.34547
21344000,21344000,-0.2029135,0.20650873,-9.158801
21396000,21396000,-0.18578294,0.20855257,-8.922569
21440000,21440000,-0.18818446,0.19153786,-8.758203
21492000,21492000,-0.17294663,0.17289528,-8.517814
21544000,21544000,-0.179156,0.18768613,-8.623129
21596000,21596000,-0.18029206,0.17212453,-8.856701
21644000,21644000,-0.19116405,0.19492097,-9.069686
21696000,21696000,-0.19898081,0.18391731,-9.301216
21744000,21744000,-0.1668075,0.21192707,-9.446847
21796000,21796000,-0.17442404,0.2136213,-9.626123
21844000,21844000,-0.20691127,0.20322034,-9.81024
21896000,21896000,-0.2167954,0.19247709,-9.92477
21944000,21944000,-0.1912237,0.19940235,-9.996921
21996000,21996000,-0.1843704,0.203974,-10.021373
22044000,22044000,-0.2074703,0.19440374,-10.01346
22096000,22096000,-0.19632097,0.1737446,-9.917432
22144000,22144000,-0.1864688,0.21461529,-9.865847
22196000,22196000,-0.17443644,0.19039512,-9.803177
22244000,22244000,-0.18592465,0.20614564,-9.78369
22296000,22296000,-0.1977789,0.20679961,-9.748211
22344000,22344000,-0.21277249,0.1973153,-9.745071
22396000,22396000,-0.18507013,0.16241507,-9.712253
22444000,22444000,-0.18266192,0.19377866,-9.717711
22496000,22496000,-0.17691469,0.19249211,-9.7141285
22544000,22544000,-0.15374911,0.19723514,-9.726123
22592000,22592000,-0.19936159,0.1871111,-9.709038
22644000,22644000,-0.20393673,0.18347272,-9.702633
22696000,22696000,-0.17676874,0.19266045,-9.732613
22744000,22744000,-0.1659706,0.15633042,-9.726706
22796000,22796000,-0.16381943,0.18350816,-9.72271
22844000,22844000,-0.1452706,0.16187671,-9.70364
22896000,22896000,-0.14604142,0.1836048,-9.684181
22944000,22944000,-0.16444312,0.18827383,-9.7032
22996000,22996000,-0.18062693,0.16883016,-9.693371
23040000,23040000,-0.1491542,0.16260614,-9.722481
23092000,23092000,-0.14801875,0.156382,-9.744272
23144000,23144000,-0.16046865,0.16844338,-9.718847
23192000,23192000,-0.169908,0.1884189,-9.700612
23240000,23240000,-0.16404265,0.20098066,-9.73539
23296000,23296000,-0.170771,0.19207877,-9.717395
23344000,23344000,-0.14433692,0.17242852,-9.70925
23396000,23396000,-0.15882307,0.17719686,-9.759438
23440000,23440000,-0.14818153,0.18257992,-9.754453
23492000,23492000,-0.15136173,0.17948548,-9.723177
23544000,23544000,-0.14783731,0.19151364,-9.764221
23596000,23596000,-0.15773515,0.15792546,-9.768991
23644000,23644000,-0.16615593,0.15981634,-9.7535
23696000,23696000,-0.12485262,0.16897692,-9.729478
23744000,23744000,-0.14702573,0.16940507,-9.7425
23792000,23792000,-0.10294147,0.16005343,-9.762362
23844000,23844000,-0.14856902,0.18334273,-9.753574
23892000,23892000,-0.13238958,0.16027261,-9.754968
23944000,23944000,-0.15010956,0.1883783,-9.777611
23996000,23996000,-0.13910806,0.16856809,-9.766745
24040000,24040000,-0.127728,0.1620641,-9.769035
24096000,24096000,-0.16885957,0.1793235,-9.758601
24140000,24140000,-0.1522697,0.15721458,-9.762583
24192000,24192000,-0.1439858,0.16584145,-9.745336
24240000,24240000,-0.16003287,0.16475502,-9.776594
24296000,24296000,-0.14972451,0.2031343,-9.762144
24344000,24344000,-0.139892,0.16650254,-9.7557535
24396000,24396000,-0.13970068,0.17992991,-9.752059
24444000,24444000,-0.15530528,0.17922224,-9.758013
24496000,24496000,-0.1577428,0.14366473,-9.72724
24544000,24544000,-0.13782139,0.16685125,-9.721578
24596000,24596000,-0.1663908,0.17195751,-9.754692
24644000,24644000,-0.16027395,0.14052549,-9.7603035
24696000,24696000,-0.15790662,0.17962034,-9.765849
24744000,24744000,-0.14828888,0.18529195,-9.788581
24796000,24796000,-0.15337035,0.18030831,-9.742689
24844000,24844000,-0.15468934,0.18390758,-9.737197
24892000,24892000,-0.13950747,0.17094778,-9.703495
24944000,24944000,-0.14365372,0.15024361,-9.72727
24996000,24996000,-0.1743846,0.17269236,-9.7404995
25040000,25040000,-0.15431309,0.17536259,-9.742944
25092000,25092000,-0.16490497,0.18184285,-9.7549715
25144000,25144000,-0.16269404,0.17554411,-9.733735
25192000,25192000,-0.15151133,0.18678525,-9.749109
25244000,25244000,-0.17563945,0.17546865,-9.721218
25296000,25296000,-0.16726977,0.17888336,-9.760089
25344000,25344000,-0.15738568,0.17365627,-9.743047
25396000,25396000,-0.20443808,0.18506111,-9.737209
25444000,25444000,-0.14824113,0.16375938,-9.778222
25496000,25496000,-0.17803957,0.1674591,-9.758013
25544000,25544000,-0.15843321,0.1838098,-9.748455
25596000,25596000,-0.15842748,0.15534419,-9.73159
25644000,25644000,-0.16706114,0.18172362,-9.750078
25696000,25696000,-0.16411658,0.17379794,-9.734002
25744000,25744000,-0.15443341,0.19926617,-9.766978
25792000,25792000,-0.19591005,0.1797366,-9.756312
25844000,25844000,-0.14963247,0.18333107,-9.764574
25896000,25896000,-0.1696136,0.18239388,-9.730795
25944000,25944000,-0.17933735,0.16250472,-9.761036
25996000,25996000,-0.18142757,0.18836509,-9.742203
26044000,26044000,-0.1738962,0.18076733,-9.719017
26096000,26096000,-0.17842484,0.18709567,-9.729777
26144000,26144000,-0.17628121,0.20902917,-9.732212
26196000,26196000,-0.14996848,0.1769311,-9.756684
26244000,26244000,-0.17975783,0.18073842,-9.774526
26296000,26296000,-0.16604091,0.17987125,-9.764946
26344000,26344000,-0.15827441,0.16877568,-9.772514
26396000,26396000,-0.17708866,0.16253255,-9.771812
26444000,26444000,-0.15903029,0.17023304,-9.735199
26496000,26496000,-0.16767333,0.17340605,-9.755142
26544000,26544000,-0.18708147,0.16748409,-9.771858
26596000,26596000,-0.16632381,0.18312341,-9.775961
26644000,26644000,-0.17230412,0.17988986,-9.769182
26696000,26696000,-0.15912335,0.18863629,-9.786231
26744000,26744000,-0.1569474,0.2001273,-9.77612
26796000,26796000,-0.181512,0.19406705,-9.77902
26844000,26844000,-0.18357205,0.18730995,-9.8011675
26896000,26896000,-0.16302846,0.17081968,-9.757913
26944000,26944000,-0.16458355,0.20268649,-9.757109
26996000,26996000,-0.15670529,0.15815146,-9.78976
27044000,27044000,-0.17701027,0.22233933,-9.788385
27092000,27092000,-0.15696359,0.17680575,-9.769631
27144000,27144000,-0.15099633,0.18685022,-9.751167
27196000,27196000,-0.14537612,0.15176001,-9.76791
27244000,27244000,-0.1617951,0.20820889,-9.753061
27296000,27296000,-0.15511739,0.18908921,-9.743431
27344000,27344000,-0.17122178,0.21254772,-9.741167
27396000,27396000,-0.1902767,0.18128178,-9.737288
27444000,27444000,-0.1786981,0.20096768,-9.766888
27496000,27496000,-0.14193165,0.16903767,-9.761914
27544000,27544000,-0.19082558,0.15772726,-9.771432
27596000,27596000,-0.19788338,0.19636668,-9.775073
27640000,27640000,-0.17561042,0.20793542,-9.761068
27696000,27696000,-0.17159109,0.1723597,-9.778528
27744000,27744000,-0.15560023,0.20553328,-9.771827
27796000,27796000,-0.17984983,0.20472164,-9.80753
27844000,27844000,-0.15423219,0.17924295,-9.810517
27892000,27892000,-0.18768393,0.19903076,-9.813733
27944000,27944000,-0.16107829,0.19110197,-9.822234
27996000,27996000,-0.15840043,0.17468853,-9.792141
28040000,28040000,-0.1874826,0.1895922,-9.790104
28092000,28092000,-0.17010497,0.19566572,-9.759154
28140000,28140000,-0.16693826,0.20979275,-9.780275
28196000,28196000,-0.13838686,0.19682458,-9.75756
28244000,28244000,-0.17739743,0.19915274,-9.795563
28296000,28296000,-0.15836067,0.17549182,-9.820543
28344000,28344000,-0.19820315,0.19497113,-9.791803
28396000,28396000,-0.18625486,0.161519,-9.773078
28444000,28444000,-0.20445228,0.16259836,-9.751389
28496000,28496000,-0.20016843,0.17697428,-9.793147
28544000,28544000,-0.17423052,0.19538817,-9.777617
28596000,28596000,-0.16554761,0.19330372,-9.737848
28640000,28640000,-0.17310819,0.19901706,-9.750812
28692000,28692000,-0.17572372,0.17985925,-9.780773
28744000,28744000,-0.2015552,0.20807049,-9.788598
28796000,28796000,-0.20356534,0.16188724,-9.771111
28844000,28844000,-0.17641394,0.1966067,-9.729457
28896000,28896000,-0.18930088,0.15930897,-9.720177
28944000,28944000,-0.16728084,0.17488204,-9.768216
28996000,28996000,-0.18216692,0.18671298,-9.734648
29044000,29044000,-0.1899096,0.16291925,-9.797146
29096000,29096000,-0.20638153,0.17749149,-9.768839
29144000,29144000,-0.14613232,0.17457843,-9.819136
29196000,29196000,-0.17296413,0.1683886,-9.786512
29244000,29244000,-0.20586152,0.20306407,-9.731955
29296000,29296000,-0.20372161,0.144408,-9.723577
29344000,29344000,-0.18094128,0.16408914,-9.743204
29396000,29396000,-0.1544767,0.18237785,-9.726577
29444000,29444000,-0.17388847,0.1843536,-9.728304
29496000,29496000,-0.17635387,0.20861682,-9.810036
29544000,29544000,-0.17936927,0.17025664,-9.792719
29596000,29596000,-0.17000793,0.16993967,-9.774015
29644000,29644000,-0.20776448,0.16619879,-9.761139
29696000,29696000,-0.18886541,0.16975695,-9.76473
29744000,29744000,-0.22122848,0.14694941,-9.753124
29796000,29796000,-0.18516842,0.170092,-9.761577
29844000,29844000,-0.19143352,0.17197102,-9.807138
29896000,29896000,-0.19476758,0.15794921,-9.802988
29940000,29940000,-0.17841563,0.17247623,-9.79866
29992000,29992000,-0.22446802,0.18220931,-9.813043
30040000,30040000,-0.16785061,0.14449474,-9.7648
30092000,30092000,-0.20162553,0.17943355,-9.780367
30144000,30144000,-0.17915468,0.15835063,-9.8081
30196000,30196000,-0.18525884,0.15612157,-9.787262
30244000,30244000,-0.1904209,0.15888177,-9.822943
30296000,30296000,-0.16823457,0.14731985,-9.8193
30344000,30344000,-0.17194696,0.17543307,-9.822676
30396000,30396000,-0.19093567,0.1735588,-9.776085
30444000,30444000,-0.19149724,0.14890754,-9.762815
30496000,30496000,-0.20601617,0.16302499,-9.752895
30544000,30544000,-0.17018421,0.16025604,-9.765395
30596000,30596000,-0.20200804,0.1583131,-9.761822
30644000,30644000,-0.17759655,0.16829401,-9.779453
30696000,30696000,-0.18768482,0.15830433,-9.798393
30744000,30744000,-0.1731584,0.17729983,-9.814877
30796000,30796000,-0.19158685,0.14253011,-9.799463
30844000,30844000,-0.18794155,0.15342814,-9.763147
30896000,30896000,-0.19806585,0.17415577,-9.747359
30944000,30944000,-0.18115875,0.1566832,-9.757832
30996000,30996000,-0.20041704,0.14838709,-9.77605
31044000,31044000,-0.17472136,0.186255,-9.769792
31096000,31096000,-0.19346593,0.14796598,-9.793377
31140000,31140000,-0.1591514,0.17054644,-9.803939
31192000,31192000,-0.19330819,0.1684295,-9.763572
31240000,31240000,-0.20506987,0.15328518,-9.715684
31292000,31292000,-0.1925589,0.18267398,-9.709002
31340000,31340000,-0.19825278,0.14844117,-9.698232
31392000,31392000,-0.21170625,0.14259084,-9.733696
31440000,31440000,-0.20100938,0.15698282,-9.758101
31496000,31496000,-0.19025236,0.17228532,-9.750986
31544000,31544000,-0.19640951,0.1493597,-9.794839
31596000,31596000,-0.17506602,0.13964818,-9.756578
31644000,31644000,-0.2049888,0.1630637,-9.740567
31692000,31692000,-0.18901664,0.15819547,-9.766061
31744000,31744000,-0.18904155,0.17659083,-9.765947
31796000,31796000,-0.18681793,0.16807273,-9.772284
31844000,31844000,-0.1680664,0.15501885,-9.78813
31892000,31892000,-0.20569465,0.15939085,-9.802795
31940000,31940000,-0.19725142,0.16415124,-9.815429
31996000,31996000,-0.17804307,0.16509995,-9.783262
32044000,32044000,-0.17599699,0.13067117,-9.759089
32096000,32096000,-0.20388228,0.14933541,-9.748938
32144000,32144000,-0.20242117,0.16396002,-9.753418
32192000,32192000,-0.20474492,0.15798807,-9.767636
32244000,32244000,-0.19586685,0.16440628,-9.81892
32296000,32296000,-0.16094366,0.14342466,-9.790887
32344000,32344000,-0.20827313,0.15370512,-9.780977
32396000,32396000,-0.17823313,0.1449959,-9.801622
32444000,32444000,-0.1815963,0.1555011,-9.760671
32496000,32496000,-0.20928505,0.15194958,-9.772465
32544000,32544000,-0.18949823,0.16530031,-9.767055
32596000,32596000,-0.19511923,0.13419972,-9.779843
32644000,32644000,-0.19028799,0.16129112,-9.814553
32692000,32692000,-0.17909558,0.15376075,-9.810644
32744000,32744000,-0.1875173,0.17844829,-9.790677
32796000,32796000,-0.1921531,0.14312066,-9.790541
32844000,32844000,-0.14453603,0.14068273,-9.761436
32896000,32896000,-0.19588235,0.15193194,-9.729712
32944000,32944000,-0.19817246,0.16086933,-9.7402935
32996000,32996000,-0.16683546,0.1388658,-9.776447
33044000,33044000,-0.1862885,0.18168262,-9.806465
33096000,33096000,-0.17827305,0.15226889,-9.801479
33144000,33144000,-0.19313392,0.14482224,-9.78723
33196000,33196000,-0.17960043,0.15200692,-9.798804
33244000,33244000,-0.21380731,0.14030273,-9.785408
33296000,33296000,-0.20097992,0.18030778,-9.76759
33344000,33344000,-0.19593692,0.15751663,-9.759736
33396000,33396000,-0.17717814,0.14752959,-9.7870865
33444000,33444000,-0.17583981,0.15748844,-9.802478
33492000,33492000,-0.16159919,0.17202492,-9.782839
33544000,33544000,-0.19739518,0.1470517,-9.814062
33596000,33596000,-0.17931074,0.17652106,-9.802087
33644000,33644000,-0.18865958,0.19169642,-9.763361
33696000,33696000,-0.19296011,0.13054664,-9.736756
33744000,33744000,-0.192953,0.16917638,-9.738825
33796000,33796000,-0.17742467,0.1471987,-9.766996
33844000,33844000,-0.20962535,0.14436758,-9.781856
33896000,33896000,-0.16370775,0.15694024,-9.8211
33944000,33944000,-0.1923018,0.16301192,-9.842088
33992000,33992000,-0.16178718,0.1430862,-9.780972
34044000,34044000,-0.18174918,0.15783456,-9.736361
34096000,34096000,-0.1724032,0.15739582,-9.682537
34144000,34144000,-0.20920402,0.15279226,-9.710572
34196000,34196000,-0.19448362,0.14607759,-9.73085
34244000,34244000,-0.20393305,0.1408708,-9.753439
34296000,34296000,-0.17995869,0.15089305,-9.780848
34344000,34344000,-0.19084674,0.18099186,-9.788993
34396000,34396000,-0.17597799,0.143722,-9.779133
34440000,34440000,-0.17328635,0.1384055,-9.752518
34492000,34492000,-0.19503614,0.14891614,-9.7520895
34544000,34544000,-0.15090413,0.14783543,-9.725106
34596000,34596000,-0.18190514,0.142702,-9.773506
34644000,34644000,-0.19338143,0.17123236,-9.5437355
34696000,34696000,-0.23255253,0.12441616,-9.186819
34744000,34744000,-0.19459365,0.16053581,-8.860823
34796000,34796000,-0.19296166,0.16442448,-8.5505495
34844000,34844000,-0.20763437,0.15570468,-8.267979
34896000,34896000,-0.18302321,0.15361956,-8.046173
34944000,34944000,-0.2135978,0.16918217,-7.8316307
34996000,34996000,-0.1896324,0.17627168,-7.6146193
35044000,35044000,-0.20882352,0.17178339,-7.73412
35096000,35096000,-0.20324981,0.15806109,-8.341115
35144000,35144000,-0.20742565,0.1827538,-8.799836
35196000,35196000,-0.20815007,0.1444219,-9.240765
35244000,35244000,-0.2117616,0.17226551,-9.577132
35292000,35292000,-0.21880263,0.18781403,-9.798605
35340000,35340000,-0.21641661,0.18826422,-10.049283
35396000,35396000,-0.21471307,0.16573048,-10.352425
35440000,35440000,-0.21627349,0.18272537,-10.542475
35496000,35496000,-0.190756,0.16838077,-10.4150915
35544000,35544000,-0.22837853,0.17430905,-10.22522
35596000,35596000,-0.21011247,0.13737345,-10.004809
35640000,35640000,-0.21482451,0.15293023,-9.927836
35696000,35696000,-0.20889053,0.15843168,-9.839512
35744000,35744000,-0.21857756,0.16625944,-9.819753
35796000,35796000,-0.21178362,0.18267514,-9.770774
35844000,35844000,-0.17808849,0.16060096,-9.760947
35896000,35896000,-0.18702924,0.15659043,-9.77321
35944000,35944000,-0.19069333,0.15149191,-9.757729
35996000,35996000,-0.23852265,0.14072236,-9.7505
36040000,36040000,-0.2084068,0.1606693,-9.746554
36096000,36096000,-0.20414089,0.18092039,-9.687922
36144000,36144000,-0.20990531,0.1581218,-9.72915
36196000,36196000,-0.20413083,0.15854275,-9.699288
36244000,36244000,-0.22586676,0.1611185,-9.743578
36296000,36296000,-0.1788728,0.16062826,-9.733951
36344000,36344000,-0.22599581,0.20520462,-9.766512
36396000,36396000,-0.2020394,0.15488544,-9.721069
36444000,36444000,-0.20293859,0.18830654,-9.732423
36496000,36496000,-0.20653845,0.16482575,-9.71846
36544000,36544000,-0.23183112,0.17726144,-9.764273
36596000,36596000,-0.19144614,0.16506872,-9.763122
36644000,36644000,-0.21478152,0.18030769,-9.75436
36692000,36692000,-0.2074151,0.16355327,-9.801391
36744000,36744000,-0.18795244,0.17293176,-9.809629
36796000,36796000,-0.1892094,0.16720313,-9.78656
36840000,36840000,-0.19469544,0.15784067,-9.772231
36892000,36892000,-0.23856097,0.16516796,-9.776018
36944000,36944000,-0.20508236,0.19258915,-9.79009
36996000,36996000,-0.20852377,0.1565179,-9.792399
37044000,37044000,-0.23497008,0.1877476,-9.805154
37096000,37096000,-0.203168,0.17530403,-9.801425
37144000,37144000,-0.18810141,0.16542539,-9.843267
37196000,37196000,-0.1913563,0.14562213,-9.816114
37240000,37240000,-0.20196873,0.15276895,-9.774426
37292000,37292000,-0.20925072,0.17836119,-9.797475
37340000,37340000,-0.20403604,0.19638649,-9.79517
37396000,37396000,-0.20168093,0.15180786,-9.792901
37440000,37440000,-0.17791174,0.16753793,-9.800016
37496000,37496000,-0.18579893,0.17414856,-9.790454
37544000,37544000,-0.18977095,0.1822043,-9.81116
37596000,37596000,-0.19294295,0.15739799,-9.7801285
37644000,37644000,-0.1952616,0.16456749,-9.798276
37696000,37696000,-0.19736077,0.1552706,-9.801431
37744000,37744000,-0.19227414,0.15118675,-9.817722
37796000,37796000,-0.19900396,0.17987241,-9.793621
37844000,37844000,-0.1890463,0.1770059,-9.805019
37896000,37896000,-0.1956737,0.1682928,-9.824507
37944000,37944000,-0.1960223,0.15612757,-9.82188
37996000,37996000,-0.19975595,0.15048784,-9.815251
38044000,38044000,-0.21219665,0.17773347,-9.766417
38096000,38096000,-0.1796616,0.14134791,-9.783022
38144000,38144000,-0.193113,0.19285192,-9.789454
38196000,38196000,-0.17827228,0.16873422,-9.755088
38240000,38240000,-0.18348278,0.17645223,-9.806836
38292000,38292000,-0.18260331,0.17227875,-9.820765
38340000,38340000,-0.16070864,0.17054622,-9.815143
38392000,38392000,-0.18227616,0.17302316,-9.795284
38444000,38444000,-0.2188629,0.16006002,-9.779169
38496000,38496000,-0.19593102,0.19142261,-9.758863
38540000,38540000,-0.18284236,0.15322678,-9.769076
38596000,38596000,-0.16225028,0.17903091,-9.7957325
38644000,38644000,0.008700751,0.28394705,-3.4983702
38696000,38696000,-0.20838341,0.16875792,-12.47768
38744000,38744000,-0.19615991,0.1609596,-14.067197
38796000,38796000,-0.18074873,0.14394827,-12.780024
38844000,38844000,-0.19307327,0.17744891,-11.543967
38896000,38896000,-0.18990636,0.15607288,-10.651754
38944000,38944000,-0.20361677,0.16278034,-10.181534
38992000,38992000,-0.1963747,0.1709051,-9.908329
39044000,39044000,-0.20299886,0.15217073,-9.755578
39096000,39096000,-0.18900466,0.14999141,-9.73442
39144000,39144000,-0.2059981,0.15999709,-9.676634
39196000,39196000,-0.17655165,0.1623872,-9.333323
39244000,39244000,-0.2014849,0.14406818,-9.091602
39296000,39296000,-0.17730017,0.16964777,-8.935434
39344000,39344000,-0.17909695,0.17333649,-8.972867
39392000,39392000,-0.21491912,0.16009757,-9.016021
39444000,39444000,-0.20461707,0.15524462,-9.093905
39496000,39496000,-0.19079186,0.170519,-9.192097
39544000,39544000,-0.2032895,0.1432804,-9.263725
39596000,39596000,-0.17586932,0.1811152,-9.049453
39644000,39644000,-0.14138201,0.16667527,-8.84218
39696000,39696000,-0.15722643,0.19309123,-8.77551
39744000,39744000,-0.18127841,0.18279545,-8.877851
39796000,39796000,-0.18154216,0.15859337,-8.988881
39844000,39844000,-0.16403499,0.1836344,-9.089155
39896000,39896000,-0.19212753,0.1520867,-9.233615
39944000,39944000,-0.20577268,0.16436295,-9.304554
39996000,39996000,-0.16663274,0.17823002,-9.117983
40044000,40044000,-0.18938236,0.17730556,-8.941798
40092000,40092000,-0.18141998,0.16920702,-8.929505
40144000,40144000,-0.16332203,0.14946458,-8.975314
40196000,40196000,-0.19307515,0.19344056,-9.066664
40244000,40244000,-0.19147545,0.16135827,-9.18405
40296000,40296000,-0.18650362,0.18729773,-9.3646
40344000,40344000,-0.17859349,0.17688525,-9.463106
40392000,40392000,-0.15156403,0.1662302,-9.284069
40444000,40444000,-0.18512407,0.15555641,-9.084875
40496000,40496000,-0.19687486,0.15468673,-9.048632
40544000,40544000,-0.19997627,0.2100983,-9.114742
40596000,40596000,-0.19931588,0.19396792,-9.243267
40644000,40644000,-0.16959193,0.18579277,-9.355166
40696000,40696000,-0.19685301,0.1820029,-9.534473
40744000,40744000,-0.18015236,0.18803877,-9.65893
40796000,40796000,-0.20686446,0.18559931,-9.460966
40844000,40844000,-0.20540015,0.16462754,-9.266957
40896000,40896000,-0.1997347,0.1966029,-9.209887
40944000,40944000,-0.1929811,0.1958422,-9.268091
40996000,40996000,-0.17898382,0.16696836,-9.378954
41044000,41044000,-0.18054347,0.1684688,-9.527155
41096000,41096000,-0.1770725,0.17758222,-9.671834
41140000,41140000,-0.15679382,0.21002632,-9.748049
41196000,41196000,-0.17466104,0.21173994,-9.519981
41240000,41240000,-0.20849061,0.18370229,-9.360492
41292000,41292000,-0.17482583,0.17542619,-9.290306
41340000,41340000,-0.15861757,0.21435939,-9.353991
41392000,41392000,-0.18770719,0.17226219,-9.474064
41440000,41440000,-0.15472317,0.16749859,-9.580232
41492000,41492000,-0.17362477,0.19781646,-9.729866
41540000,41540000,-0.18193792,0.20123084,-9.815537
41596000,41596000,-0.09802066,0.16950855,-9.599213
41644000,41644000,-0.18774793,0.20941824,-9.786705
41696000,41696000,-0.14956486,0.17442672,-9.810903
41744000,41744000,-0.17002904,0.19219962,-9.804295
41792000,41792000,-0.16516237,0.18511431,-9.815324
41840000,41840000,-0.18352064,0.18662976,-9.795133
41896000,41896000,-0.15760157,0.18484414,-9.773678
41944000,41944000,-0.15689303,0.1638814,-9.786585
41992000,41992000,-0.15494321,0.19968015,-9.803103
42044000,42044000,-0.17492443,0.17312664,-9.820864
42096000,42096000,-0.15551925,0.18964238,-9.780405
42144000,42144000,-0.17671876,0.17867772,-9.787958
42196000,42196000,-0.18465829,0.1677458,-9.792323
42244000,42244000,-0.15794343,0.18825838,-9.795271
42296000,42296000,-0.13061562,0.14607593,-9.784756
42344000,42344000,-0.16311936,0.17670982,-9.8037815
42396000,42396000,-0.18470013,0.16320166,-9.7943945
42444000,42444000,-0.17439558,0.17783888,-9.791003
42492000,42492000,-0.17375328,0.15783343,-9.812176
42544000,42544000,-0.18832546,0.18069749,-9.807991
42596000,42596000,-0.1924019,0.17916965,-9.788407
42644000,42644000,-0.15681137,0.19260581,-9.78694
42696000,42696000,-0.15626684,0.1876611,-9.790175
42740000,42740000,-0.16957237,0.1492325,-9.797169
42792000,42792000,-0.16276993,0.1733804,-9.787002
42840000,42840000,-0.18222359,0.16078062,-9.789161
42896000,42896000,-0.1801961,0.19594589,-9.796158
42944000,42944000,-0.18597765,0.17810209,-9.78433
42996000,42996000,-0.19231147,0.1728507,-9.783911
43044000,43044000,-0.14754748,0.16747613,-9.784628
43092000,43092000,-0.18031311,0.18331167,-9.7874565
43144000,43144000,-0.17621219,0.16878188,-9.7927475
43196000,43196000,-0.1753055,0.16146895,-9.797791
43244000,43244000,-0.17072614,0.16207525,-9.8173895
43292000,43292000,-0.18211715,0.15591949,-9.782249
43340000,43340000,-0.15707463,0.20375304,-9.8050785
43392000,43392000,-0.18036976,0.14252275,-9.7968235
43444000,43444000,-0.1594524,0.1339272,-9.783588
43496000,43496000,-0.13551736,0.15899418,-9.787422
43544000,43544000,-0.17261842,0.15481347,-9.781729
43596000,43596000,-0.17304783,0.16383103,-9.784396
43644000,43644000,-0.2027201,0.16620654,-9.783066
43696000,43696000,-0.18504867,0.17173833,-9.788141
43744000,43744000,-0.1873428,0.15442133,-9.791275
43792000,43792000,-0.17520258,0.18004692,-9.777248
43840000,43840000,-0.18960345,0.17669769,-9.787189
43892000,43892000,-0.1730583,0.1848657,-9.796439
43940000,43940000,-0.16850016,0.17843735,-9.811793
43996000,43996000,-0.18640816,0.18065763,-9.792721
44044000,44044000,-0.1994297,0.1895613,-9.796408
44096000,44096000,-0.1686282,0.18290997,-9.817172
44144000,44144000,-0.19863236,0.16868776,-9.796034
44196000,44196000,-0.20206445,0.15850331,-9.79794
44244000,44244000,-0.18887022,0.16207425,-9.850314
44296000,44296000,-0.16971287,0.17263654,-9.778114
44344000,44344000,-0.19055432,0.18387754,-9.819458
44396000,44396000,-0.20113903,0.16432546,-9.782455
44444000,44444000,-0.15966246,0.1745095,-9.799598
44496000,44496000,-0.2056928,0.17616402,-9.807707
44544000,44544000,-0.19540131,0.17418756,-9.834196
44596000,44596000,-0.21377794,0.1721786,-9.814819
44644000,44644000,-0.19270074,0.15215161,-9.816306
44696000,44696000,-0.18978226,0.13732702,-9.806523
44744000,44744000,-0.19330388,0.16920795,-9.820147
44796000,44796000,-0.18025792,0.16853368,-9.805498
44844000,44844000,-0.19587035,0.14571702,-9.814441
44896000,44896000,-0.17889513,0.17349449,-9.802983
44940000,44940000,-0.2155704,0.17747343,-9.806052
44996000,44996000,-0.19220263,0.18209213,-9.81925
45044000,45044000,-0.18382113,0.16892254,-9.805715
45096000,45096000,-0.19544347,0.14827228,-9.826944
45144000,45144000,-0.15951464,0.13270858,-9.806887
45196000,45196000,-0.2028476,0.16569042,-9.812648
45244000,45244000,-0.17907605,0.17851014,-9.817345
45296000,45296000,-0.19141553,0.14594495,-9.810058
45344000,45344000,-0.1952093,0.1430712,-9.810785
45392000,45392000,-0.20576888,0.15865237,-9.824835
45444000,45444000,-0.19276528,0.16325976,-9.83072
45492000,45492000,-0.22183433,0.15254913,-9.811789
45544000,45544000,-0.17590837,0.15041503,-9.837335
45592000,45592000,-0.19800436,0.17578153,-9.823114
45640000,45640000,-0.20122986,0.1810878,-9.812254
45692000,45692000,-0.20240882,0.14878824,-9.817419
45744000,45744000,-0.1748134,0.16886938,-9.831154
45796000,45796000,-0.19810319,0.1528337,-9.820863
45844000,45844000,-0.1930099,0.15615004,-9.8082695
45896000,45896000,-0.16997156,0.12724847,-9.814955
45944000,45944000,-0.2161215,0.13432527,-9.840785
45996000,45996000,-0.2132634,0.13751015,-9.845981
46044000,46044000,-0.18361935,0.16588771,-9.826952
46096000,46096000,-0.19663346,0.14970112,-9.814886
46144000,46144000,-0.20287319,0.1470559,-9.840261
46196000,46196000,-0.22039461,0.119463615,-9.824193
46240000,46240000,-0.18099172,0.15487842,-9.784899
46296000,46296000,-0.19388448,0.14326394,-9.82202
46340000,46340000,-0.18119155,0.12830499,-9.806739
46392000,46392000,-0.19386482,0.15536092,-9.808131
46444000,46444000,-0.20994774,0.14094195,-9.824736
46496000,46496000,-0.19335401,0.139101,-9.794857
46544000,46544000,-0.21553206,0.14974326,-9.823118
46596000,46596000,-0.20768887,0.1567758,-9.820721
46644000,46644000,-0.18490699,0.12616542,-9.835947
46696000,46696000,-0.23300034,0.13545713,-9.810016
46744000,46744000,-0.21148767,0.17845523,-9.841618
46796000,46796000,-0.20463762,0.13642424,-9.809945
46844000,46844000,-0.18527544,0.14169747,-9.852043
46896000,46896000,-0.2219992,0.1555317,-9.838889
46944000,46944000,-0.21987297,0.15881759,-9.838949
46996000,46996000,-0.21247536,0.12949678,-9.826445
47044000,47044000,-0.22228298,0.13638768,-9.842711
47096000,47096000,-0.20757489,0.16495101,-9.811541
47144000,47144000,-0.21473989,0.15462987,-9.858744
47196000,47196000,-0.20697924,0.14151691,-9.807716
47244000,47244000,-0.18370286,0.14209571,-9.847986
47296000,47296000,-0.19450808,0.16481702,-9.817557
47344000,47344000,-0.2098654,0.17609653,-9.831334
47396000,47396000,-0.19199964,0.16271065,-9.811152
47444000,47444000,-0.19426085,0.12758729,-9.828316
47496000,47496000,-0.20261204,0.15906537,-9.807332
47544000,47544000,-0.21477233,0.14430524,-9.835384
47596000,47596000,-0.2235219,0.16986078,-9.839271
47644000,47644000,-0.20022514,0.14418966,-9.83086
47696000,47696000,-0.19662163,0.13051204,-9.8042
47744000,47744000,-0.22805722,0.17667776,-9.836726
47796000,47796000,-0.20755595,0.18149614,-9.813008
47844000,47844000,-0.18175973,0.14864421,-9.84375
47896000,47896000,-0.20027229,0.131846,-9.829016
47944000,47944000,-0.19290848,0.1340173,-9.822751
47996000,47996000,-0.22361314,0.15741654,-9.820091
48044000,48044000,-0.21175948,0.16515274,-9.808471
48092000,48092000,-0.21667442,0.16509205,-9.826455
48140000,48140000,-0.1973856,0.14624332,-9.813764
48196000,48196000,-0.20231293,0.13465422,-9.817519
48244000,48244000,-0.19960384,0.17882545,-9.838387
48296000,48296000,-0.19746888,0.1593208,-9.828295
48344000,48344000,-0.19700381,0.16718836,-9.837166
48396000,48396000,-0.20649174,0.14461392,-9.815739
48444000,48444000,-0.21643953,0.17790404,-9.825085
48492000,48492000,-0.22446698,0.14670694,-9.800363
48544000,48544000,-0.21574003,0.122043446,-9.828471
48596000,48596000,-0.20946111,0.15414424,-9.83049
48644000,48644000,-0.2057865,0.15871611,-9.821055
48696000,48696000,-0.19452143,0.13591826,-9.822099
48744000,48744000,-0.21548787,0.14746971,-9.804343
48796000,48796000,-0.22719133,0.15315044,-9.831452
48844000,48844000,-0.22684233,0.15538065,-9.825481
48896000,48896000,-0.21291173,0.14367852,-9.787082
48944000,48944000,-0.17859048,0.18810448,-9.8132925
48996000,48996000,-0.21924534,0.17232938,-9.842852
49044000,49044000,-0.21516338,0.1285094,-9.811605
49096000,49096000,-0.200778,0.1473045,-9.82632
49144000,49144000,-0.20482162,0.17093992,-9.7989855
49196000,49196000,-0.21544582,0.16145726,-9.821961
49240000,49240000,-0.21193464,0.14542781,-9.820321
49292000,49292000,-0.19778596,0.14207125,-9.837262
49344000,49344000,-0.20623387,0.16249804,-9.800694
49396000,49396000,-0.23710565,0.14842878,-9.82662
