timestamp,timestamp_sample,time_last_fuse,device_id,observation[0],observation[1],observation_variance[0],observation_variance[1],innovation[0],innovation[1],innovation_variance[0],innovation_variance[1],test_ratio[0],test_ratio[1],estimator_instance,fusion_enabled,innovation_rejected,fused
3500000,3385115,0,0,0.0,0.0,1.0,1.0,0.0002446405,7.784176e-05,101.00013,101.00012,2.3702536e-11,2.3997358e-12,0,1,0,0
3900000,3781465,0,0,0.0,0.0,1.0,1.0,0.00012438846,0.0002084218,1.0004001,1.0004016,6.186521e-10,1.7368882e-09,0,1,0,0
4300000,4181676,0,0,0.0,0.0,1.0,1.0,1.1366628e-05,0.00046010173,1.0004425,1.000443,5.1657233e-12,8.463995e-09,0,1,0,0
4700000,4581804,0,0,0.0,0.0075268387,1.0,1.0,0.00010569115,-0.007314797,1.0003347,1.0003349,4.4667522e-10,2.1395338e-06,0,1,0,0
5100000,4981882,0,0,0.0,0.0075268387,1.0,1.0,0.0002675069,-0.007643337,1.0002121,1.0002124,2.8617906e-09,2.3363277e-06,0,1,0,0
5500000,5381929,0,0,0.0,0.0075268387,1.0,1.0,-0.00016661028,-0.0075215176,1.000153,1.0001533,1.1101896e-09,2.2625823e-06,0,1,0,0
5900000,5781957,0,0,0.0,0.0075268387,1.0,1.0,-0.0002866142,-0.0075446493,1.0001215,1.0001217,3.285509e-09,2.2765923e-06,0,1,0,0
6300000,6181974,0,0,0.0,0.0075268387,1.0,1.0,-4.45122e-05,-0.007532857,1.0001022,1.0001023,7.924533e-11,2.269525e-06,0,1,0,0
6700000,6581985,0,0,0.0,0.0075268387,1.0,1.0,-4.8239803e-05,-0.007936177,1.0000889,1.000089,9.307486e-11,2.5190918e-06,0,1,0,0
7100000,6981991,0,0,0.0,0.0075268387,1.0,1.0,-0.00034234984,-0.007857844,1.000079,1.0000792,4.687766e-09,2.4696333e-06,0,1,0,0
7500000,7381995,0,0,0.0,0.0075268387,1.0,1.0,-0.00071219733,-0.007587228,1.0000721,1.0000721,2.0287539e-08,2.302475e-06,0,1,0,0
7900000,7781997,0,0,0.0,0.0075268387,1.0,1.0,-0.00042223136,-0.0074626277,1.0000656,1.0000656,7.1307054e-09,2.2274864e-06,0,1,0,0
8300000,8181998,0,0,0.0,0.0075268387,1.0,1.0,-0.00035353051,-0.0077421246,1.0001597,1.0001599,4.9985545e-09,2.3972366e-06,0,1,0,0
8700000,8581999,8620000,0,0.0,0.0075268387,1.0,1.0,-0.00013347103,-0.0078912,1.0001445,1.0001446,7.1247763e-10,2.4904812e-06,0,1,0,0
9100000,8982000,9020000,0,0.0,0.0075268387,1.0,1.0,-0.008514533,0.00038492726,2.0144377,2.0144377,1.4395534e-06,2.942141e-09,0,1,0,1
9500000,9382000,9420000,0,0.0,0.0075268387,1.0,1.0,-0.004743404,0.00074720895,1.5180736,1.5180738,5.9285355e-07,1.4711308e-08,0,1,0,1
9900000,9782000,9820000,0,0.0,0.0075268387,1.0,1.0,-0.004652028,-0.0054101907,1.3540162,1.3540169,6.393237e-07,8.6469123e-07,0,1,0,1
10300000,10182000,10220000,0,0.0,0.015053677,1.0,1.0,-0.010899229,-0.008502459,1.2737241,1.2737255,3.7305786e-06,2.2702477e-06,0,1,0,1
10700000,10582000,10620000,0,0.0,0.0075268387,1.0,1.0,-0.004276038,0.0040295324,1.227094,1.2270969,5.960261e-07,5.29286e-07,0,1,0,1
11100000,10982000,11020000,0,0.0,0.0075268387,1.0,1.0,-0.004076238,0.0043956726,1.1974319,1.1974374,5.55045e-07,6.4544287e-07,0,1,0,1
11500000,11382000,11420000,0,0.0,0.0075268387,1.0,1.0,-0.0006892739,-0.0019095545,1.1776047,1.1776139,1.6137792e-08,1.2385718e-07,0,1,0,1
11900000,11782000,11820000,0,-0.011119492,0.0075268387,1.0,1.0,0.014067911,-0.0018653804,1.164037,1.1640506,6.8006807e-06,1.195702e-07,0,1,0,1
12300000,12182000,12220000,0,0.0,0.0075268387,1.0,1.0,0.001169202,-0.0021686926,1.1546972,1.1547154,4.7355563e-08,1.6292249e-07,0,1,0,1
12700000,12582000,12620000,0,0.0,0.0075268387,1.0,1.0,0.0014385211,-0.002172025,1.1482928,1.1483152,7.2084156e-08,1.643344e-07,0,1,0,1
13100000,12982000,13020000,0,0.0,0.0075268387,1.0,1.0,-0.003194777,0.0015685228,1.1439325,1.1439575,3.568952e-07,8.60264e-08,0,1,0,1
13500000,13382000,13420000,0,0.0,0.0075268387,1.0,1.0,0.0004738239,0.001570378,1.1409771,1.1410035,7.870765e-09,8.645326e-08,0,1,0,1
13900000,13782000,13820000,0,0.0,0.015053677,1.0,1.0,-0.011581657,-0.0053781867,1.1389683,1.1389948,4.710747e-06,1.0158042e-06,0,1,0,1
14300000,14182000,14220000,0,0.0,0.0,1.0,1.0,-0.014233379,0.010263705,1.137584,1.1376095,7.1234854e-06,3.7040352e-06,0,1,0,1
14700000,14582000,14620000,0,0.0,0.0075268387,1.0,1.0,-0.008693779,0.0019304571,1.1366073,1.136631,2.6599087e-06,1.3114773e-07,0,1,0,1
15100000,14982000,15020000,0,0.0,0.0075268387,1.0,1.0,-0.0036236378,-0.0018988028,1.1358943,1.135916,4.6239342e-07,1.2696192e-07,0,1,0,1
15500000,15382000,15420000,0,0.0,0.0075268387,1.0,1.0,0.0050515495,-0.0015775152,1.1353488,1.1353685,8.990419e-07,8.767388e-08,0,1,0,1
15900000,15782000,15820000,0,0.0,0.0,1.0,1.0,0.00039398108,0.002307264,1.1349118,1.1349294,5.4707723e-09,1.8762283e-07,0,1,0,1
16300000,16182000,16220000,0,0.0,0.0,1.0,1.0,0.0009171005,0.0025441656,1.1345446,1.1345603,2.965325e-08,2.2820396e-07,0,1,0,1
16700000,16582000,16620000,0,0.0,0.0075268387,1.0,1.0,0.00153834,-0.0009322502,1.1342204,1.1342344,8.3457856e-08,3.064941e-08,0,1,0,1
17100000,16982000,17020000,0,0.0,0.0075268387,1.0,1.0,0.0018626831,-0.005033691,1.133923,1.1339357,1.2239238e-07,8.938089e-07,0,1,0,1
17500000,17382000,17420000,0,0.0,0.0075268387,1.0,1.0,0.0024326954,-0.0044849045,1.1336427,1.1336539,2.0881383e-07,7.0971817e-07,0,1,0,1
17900000,17782000,17820000,0,0.0,0.0075268387,1.0,1.0,-0.0060859285,0.004097679,1.1333728,1.1333828,1.3071966e-06,5.925968e-07,0,1,0,1
18300000,18182000,18220000,0,0.0,0.0,1.0,1.0,-0.014274154,0.010027986,1.1331393,1.1331482,7.1924596e-06,3.549774e-06,0,1,0,1
18700000,18582000,18620000,0,-0.066716954,-0.04516103,1.0,1.0,0.0077344887,0.0023477674,1.1329628,1.1329702,2.1120663e-06,1.9460394e-07,0,1,0,1
19100000,18982000,19020000,0,-0.14455341,-0.11290258,1.0,1.0,0.019525558,0.0015151724,1.1327691,1.132776,1.3462493e-05,8.106624e-08,0,1,0,1
19500000,19382000,19420000,0,-0.20015086,-0.15806362,1.0,1.0,0.025478944,-0.0012252331,1.1325171,1.1325235,2.2928629e-05,5.3021278e-08,0,1,0,1
19900000,19782000,19820000,0,-0.22238985,-0.18064414,1.0,1.0,0.026262641,0.006444961,1.1322572,1.1322632,2.4366418e-05,1.4674158e-06,0,1,0,1
20300000,20182000,20220000,0,-0.21127036,-0.16559045,1.0,1.0,0.025507316,-0.00066420436,1.1319863,1.1319915,2.2990498e-05,1.5589071e-08,0,1,0,1
20700000,20582000,20620000,0,-0.18903138,-0.14300995,1.0,1.0,0.027889818,-0.00039747357,1.1317061,1.1317109,2.7492719e-05,5.5839435e-09,0,1,0,1
21100000,20982000,21020000,0,-0.1556729,-0.105375744,1.0,1.0,0.026154146,-0.0075399727,1.1312172,1.1312215,2.4187726e-05,2.0102582e-06,0,1,0,1
21500000,21382000,21420000,0,-0.11119492,-0.07526839,1.0,1.0,0.006895229,-0.005195245,1.1307205,1.1307248,1.6819075e-06,9.548061e-07,0,1,0,1
21900000,21782000,21820000,0,-0.07783645,-0.037634194,1.0,1.0,-0.0010351762,-0.013334259,1.1313796,1.1313852,3.7886128e-08,6.2861873e-06,0,1,0,1
22300000,22182000,22220000,0,-0.05559746,-0.022580516,1.0,1.0,0.0077150688,-0.010927327,1.1327784,1.1327845,2.1018157e-06,4.216388e-06,0,1,0,1
22700000,22582000,22620000,0,-0.022238987,0.0,1.0,1.0,-0.00201248,-0.005293606,1.1339074,1.1339129,1.4287147e-07,9.885156e-07,0,1,0,1
23100000,22982000,23020000,0,-0.011119492,0.022580516,1.0,1.0,-0.0010481887,0.0035530217,1.1345727,1.1345772,3.873527e-08,4.4506316e-07,0,1,0,1
23500000,23382000,23420000,0,0.0,0.015053677,1.0,1.0,-0.007317347,0.0070181126,1.1348995,1.1349028,1.8871651e-06,1.735969e-06,0,1,0,1
23900000,23782000,23820000,0,0.0,0.0075268387,1.0,1.0,-0.008682728,0.007544791,1.1350116,1.1350142,2.656881e-06,2.0061025e-06,0,1,0,1
24300000,24182000,24220000,0,0.011119493,0.0,1.0,1.0,-0.018777674,0.010089379,1.1349837,1.1349858,1.2426648e-05,3.5875537e-06,0,1,0,1
24700000,24582000,24620000,0,0.022238987,-0.0075268387,1.0,1.0,-0.022963207,-0.005219321,1.1348574,1.1348591,1.8585908e-05,9.601655e-07,0,1,0,1
25100000,24982000,25020000,0,0.03335848,-0.0075268387,1.0,1.0,-0.023838837,-0.004618468,1.1346571,1.1346585,2.0033898e-05,7.519531e-07,0,1,0,1
25500000,25382000,25420000,0,0.03335848,-0.0075268387,1.0,1.0,-0.018910922,0.0020359308,1.134399,1.1344,1.26101295e-05,1.4615705e-07,0,1,0,1
25900000,25782000,25820000,0,0.03335848,-0.0075268387,1.0,1.0,-0.01840157,0.014260339,1.1340925,1.1340934,1.1943216e-05,7.1725044e-06,0,1,0,1
26300000,26182000,26220000,0,0.04447797,-0.0075268387,1.0,1.0,-0.028784467,0.019220777,1.1337447,1.1337454,2.9232173e-05,1.3034258e-05,0,1,0,1
26700000,26582000,26620000,0,0.04447797,-0.0075268387,1.0,1.0,-0.025639828,0.015395995,1.1333635,1.1333642,2.3201765e-05,8.365772e-06,0,1,0,1
27100000,26982000,27020000,0,0.04447797,-0.0075268387,1.0,1.0,-0.024335673,0.013363183,1.1329539,1.1329544,2.090906e-05,6.304743e-06,0,1,0,1
27500000,27382000,27420000,0,0.04447797,-0.0075268387,1.0,1.0,-0.023124337,0.012091338,1.1325207,1.1325212,1.8886542e-05,5.163716e-06,0,1,0,1
27900000,27782000,27820000,0,0.055597465,-0.015053677,1.0,1.0,-0.03310668,0.014388985,1.1320703,1.132071,3.872736e-05,7.3155443e-06,0,1,0,1
28300000,28182000,28220000,0,0.04447797,-0.015053677,1.0,1.0,-0.019650819,0.013354264,1.1316112,1.1316118,1.3649729e-05,6.3038005e-06,0,1,0,1
28700000,28582000,28620000,0,0.04447797,-0.0075268387,1.0,1.0,-0.018944478,0.0079275835,1.1311485,1.1311492,1.2691287e-05,2.2223976e-06,0,1,0,1
29100000,28982000,29020000,0,0.04447797,0.0,1.0,1.0,-0.018801339,0.002832545,1.1306894,1.1306902,1.2505304e-05,2.8383764e-07,0,1,0,1
29500000,29382000,29420000,0,0.04447797,0.0075268387,1.0,1.0,-0.015102865,-0.0016873544,1.1302435,1.1302445,8.072474e-06,1.007628e-07,0,1,0,1
29900000,29782000,29820000,0,0.04447797,0.015053677,1.0,1.0,-0.0159305,-0.006287596,1.1298177,1.1298188,8.984842e-06,1.3996532e-06,0,1,0,1
30300000,30182000,30220000,0,0.04447797,0.022580516,1.0,1.0,-0.016475976,-0.014638712,1.1294215,1.1294228,9.614047e-06,7.5894304e-06,0,1,0,1
30700000,30582000,30620000,0,0.04447797,0.037634194,1.0,1.0,-0.016058726,-0.01826853,1.1290607,1.1290623,9.136185e-06,1.1823588e-05,0,1,0,1
31100000,30982000,31020000,0,0.03335848,0.04516103,1.0,1.0,-0.005452307,-0.02207504,1.1287403,1.128742,1.0534807e-06,1.7269045e-05,0,1,0,1
31500000,31382000,31420000,0,0.022238987,0.06021471,1.0,1.0,-0.006065281,-0.033683933,1.1284639,1.1284655,1.3039897e-06,4.0217707e-05,0,1,0,1
31900000,31782000,31820000,0,0.011119493,0.06774155,1.0,1.0,-0.0052797627,-0.03289585,1.1282344,1.128236,9.883015e-07,3.836562e-05,0,1,0,1
32300000,32182000,32220000,0,3.5366154e-10,0.07526839,1.0,1.0,-0.0067946822,-0.0294845,1.1280544,1.128056,1.6370739e-06,3.0825977e-05,0,1,0,1
32700000,32582000,32620000,0,-0.022238985,0.082795225,1.0,1.0,0.008263979,-0.030541375,1.1279216,1.1279231,2.4219185e-06,3.3079403e-05,0,1,0,1
33100000,32982000,33020000,0,-0.022238985,0.09032206,1.0,1.0,0.0056752395,-0.032046422,1.1278331,1.1278346,1.1423089e-06,3.642283e-05,0,1,0,1
33500000,33382000,33420000,0,-0.022238985,0.09032206,1.0,1.0,0.006775041,-0.03380302,1.127785,1.1277862,1.6280119e-06,4.0526975e-05,0,1,0,1
33900000,33782000,33820000,0,-0.033358477,0.082795225,1.0,1.0,0.008148562,-0.029804826,1.1277714,1.1277726,2.355054e-06,3.1507334e-05,0,1,0,1
34300000,34182000,34220000,0,-0.04447797,0.082795225,1.0,1.0,0.017373562,-0.03734512,1.127785,1.127786,1.070561e-05,4.9465336e-05,0,1,0,1
34700000,34582000,34620000,0,-0.05559746,0.07526839,1.0,1.0,0.02558277,-0.02894403,1.1278191,1.1278201,2.3212166e-05,2.971243e-05,0,1,0,1
35100000,34982000,35020000,0,-0.05559746,0.07526839,1.0,1.0,0.02272442,-0.033126973,1.1277974,1.1277983,1.831532e-05,3.8921724e-05,0,1,0,1
35500000,35382000,35420000,0,-0.066716954,0.082795225,1.0,1.0,0.031283762,-0.03844463,1.1277554,1.1277565,3.471227e-05,5.2422296e-05,0,1,0,1
35900000,35782000,35820000,0,-0.07783645,0.09784891,1.0,1.0,0.037591036,-0.04342219,1.1278298,1.127831,5.0116992e-05,6.687124e-05,0,1,0,1
36300000,36178000,36220000,0,-0.07783645,0.11290258,1.0,1.0,0.035144657,-0.042047426,1.1278931,1.1278943,4.3803688e-05,6.270041e-05,0,1,0,1
36700000,36582000,36620000,0,-0.07783645,0.12042942,1.0,1.0,0.03222775,-0.032002248,1.1279622,1.1279634,3.683201e-05,3.631834e-05,0,1,0,1
37100000,36982000,37020000,0,-0.08895594,0.12042942,1.0,1.0,0.03770353,-0.030482002,1.1280364,1.1280373,5.0408165e-05,3.2947577e-05,0,1,0,1
37500000,37382000,37420000,0,-0.08895594,0.1354831,1.0,1.0,0.032177303,-0.046857044,1.1281118,1.1281127,3.6711917e-05,7.784976e-05,0,1,0,1
37900000,37782000,37820000,0,-0.08895594,0.12795626,1.0,1.0,0.034630395,-0.041493967,1.1281819,1.1281828,4.2520245e-05,6.104505e-05,0,1,0,1
38300000,38182000,38220000,0,-0.08895594,0.12795626,1.0,1.0,0.036290616,-0.03644821,1.1282455,1.1282463,4.6692276e-05,4.7098652e-05,0,1,0,1
38700000,38582000,38620000,0,-0.07783645,0.12042942,1.0,1.0,0.02305406,-0.028518267,1.1282992,1.1283001,1.8842153e-05,2.8832454e-05,0,1,0,1
39100000,38982000,39020000,0,-0.08895594,0.12042942,1.0,1.0,0.03441274,-0.025067315,1.1284047,1.1284057,4.197915e-05,2.2274622e-05,0,1,0,1
39500000,39382000,39420000,0,-0.07783645,0.11290258,1.0,1.0,0.028291162,-0.023188204,1.1290134,1.1290152,2.8357143e-05,1.9049976e-05,0,1,0,1
39900000,39782000,39820000,0,-0.07783645,0.105375744,1.0,1.0,0.024786316,-0.015570328,1.1301519,1.1301548,2.1744385e-05,8.580597e-06,0,1,0,1
40300000,40182000,40220000,0,-0.066716954,0.09784891,1.0,1.0,0.019533701,-0.015666917,1.1315014,1.1315053,1.348882e-05,8.677018e-06,0,1,0,1
40700000,40582000,40620000,0,-0.066716954,0.09032206,1.0,1.0,0.016188882,-0.010062598,1.1326598,1.1326638,9.25538e-06,3.575849e-06,0,1,0,1
41100000,40982000,41020000,0,-0.05559746,0.09032206,1.0,1.0,0.01173301,-0.008543886,1.1334859,1.1334896,4.8580587e-06,2.5760446e-06,0,1,0,1
41500000,41382000,41420000,0,-0.033358477,0.07526839,1.0,1.0,0.004725354,0.003131844,1.1340014,1.1340046,7.8761695e-07,3.459756e-07,0,1,0,1
41900000,41782000,41820000,0,-0.033358477,0.07526839,1.0,1.0,0.012407349,0.013146348,1.1342782,1.1342804,5.4287325e-06,6.0946645e-06,0,1,0,1
42300000,42182000,42220000,0,-0.022238985,0.06774155,1.0,1.0,-0.0010306742,0.021941997,1.1340189,1.1340204,3.74699e-08,1.6982101e-05,0,1,0,1
42700000,42582000,42620000,0,-0.033358477,0.07526839,1.0,1.0,0.009778077,0.010121949,1.1339256,1.1339269,3.3727358e-06,3.6141255e-06,0,1,0,1
43100000,42982000,43020000,0,-0.022238985,0.06774155,1.0,1.0,-0.0073592346,0.01837948,1.1339526,1.1339539,1.9104268e-06,1.1916014e-05,0,1,0,1
43500000,43382000,43420000,0,-0.022238985,0.07526839,1.0,1.0,-0.0062563866,0.009778403,1.1340377,1.134039,1.3806375e-06,3.372623e-06,0,1,0,1
43900000,43782000,43820000,0,-0.033358477,0.07526839,1.0,1.0,0.0013663583,0.005221367,1.1341228,1.1341243,6.584595e-08,9.615409e-07,0,1,0,1
44300000,44182000,44220000,0,-0.033358477,0.07526839,1.0,1.0,0.0049139354,-0.00019507855,1.134169,1.1341704,8.516107e-07,1.3421491e-09,0,1,0,1
44700000,44582000,44620000,0,-0.022238985,0.07526839,1.0,1.0,-0.006670093,-0.00091353804,1.1341604,1.1341617,1.5690953e-06,2.9433256e-08,0,1,0,1
45100000,44978000,45020000,0,-0.033358477,0.07526839,1.0,1.0,0.009890607,-0.0018341541,1.1340951,1.1340964,3.4502962e-06,1.1865381e-07,0,1,0,1
45500000,45382000,45420000,0,-0.033358477,0.07526839,1.0,1.0,0.008843912,0.002308309,1.1339768,1.1339779,2.7589551e-06,1.8795042e-07,0,1,0,1
45900000,45782000,45820000,0,-0.022238985,0.07526839,1.0,1.0,-0.00735439,0.0006767437,1.1338124,1.1338134,1.908148e-06,1.6157227e-08,0,1,0,1
46300000,46182000,46220000,0,-0.033358477,0.06774155,1.0,1.0,0.0012227967,0.0076209903,1.1336073,1.1336082,5.276014e-08,2.0493674e-06,0,1,0,1
46700000,46582000,46620000,0,-0.033358477,0.07526839,1.0,1.0,0.0018042661,-0.005504377,1.1333665,1.1333672,1.1489227e-07,1.0693152e-06,0,1,0,1
47100000,46982000,47020000,0,-0.033358477,0.07526839,1.0,1.0,0.0030083265,0.0023564994,1.1330962,1.1330969,3.194796e-07,1.9603229e-07,0,1,0,1
47500000,47382000,47420000,0,-0.033358477,0.07526839,1.0,1.0,0.003081696,0.004891008,1.1328005,1.132801,3.3534064e-07,8.447012e-07,0,1,0,1
47900000,47782000,47820000,0,-0.033358477,0.07526839,1.0,1.0,0.0068587307,0.0027100816,1.132483,1.1324834,1.6615592e-06,2.594137e-07,0,1,0,1
48300000,48182000,48220000,0,-0.033358477,0.07526839,1.0,1.0,0.0066888425,0.0007860139,1.1321485,1.1321489,1.5807332e-06,2.182815e-08,0,1,0,1
48700000,48582000,48620000,0,-0.033358477,0.07526839,1.0,1.0,0.017900418,-0.0010136291,1.131802,1.1318022,1.1324419e-05,3.6311786e-08,0,1,0,1
49100000,48982000,49020000,0,-0.033358477,0.07526839,1.0,1.0,0.019927423,-0.014713928,1.131448,1.131448,1.4038726e-05,7.653897e-06,0,1,0,1
