timestamp,timestamp_sample,accel_device_id,gyro_device_id,delta_angle[0],delta_angle[1],delta_angle[2],delta_velocity[0],delta_velocity[1],delta_velocity[2],delta_angle_dt,delta_velocity_dt,delta_angle_clipping,delta_velocity_clipping,accel_calibration_count,gyro_calibration_count
3508000,3508000,1310988,1310988,-4.261048e-06,-8.522117e-06,-8.522122e-06,-0.0008331823,0.0006847425,-0.039729387,4000,4000,0,0,0,1
4008000,4008000,1310988,1310988,3.195774e-06,-2.8762144e-05,1.0652701e-06,-0.00083797064,0.0008379714,-0.03967672,4000,4000,0,0,0,1
4508000,4508000,1310988,1310988,-5.3263293e-06,-2.024002e-05,5.326328e-06,-0.00083797064,0.0008188178,-0.03980121,4000,4000,0,0,0,1
5008000,5008000,1310988,1310988,-4.261048e-06,-2.6631615e-05,-3.195799e-06,-0.0007948751,0.00080924097,-0.039695863,4000,4000,0,0,0,1
5508000,5508000,1310988,1310988,1.0652556e-06,-1.8109497e-05,1.2783183e-05,-0.000746991,0.0006560121,-0.03979164,4000,4000,0,0,0,1
6008000,6008000,1310988,1310988,-1.0652889e-06,-2.4501085e-05,4.2610495e-06,-0.00082360546,0.0008523366,-0.039796427,4000,4000,0,0,0,1
6508000,6508000,1310988,1310988,-1.0652491e-06,-2.8762144e-05,-6.3915804e-06,-0.000746991,0.00081881776,-0.039700653,4000,4000,0,0,0,1
7008000,7008000,1310988,1310988,-7.4568347e-06,-3.302321e-05,-1.065242e-06,-0.0008810663,0.0006799541,-0.039782062,4000,4000,0,0,0,1
7508000,7508000,1310988,1310988,-1.3848446e-05,-2.6631613e-05,5.3263057e-06,-0.0008762779,0.0007469917,-0.039815575,4000,4000,0,0,0,1
8008000,8008000,1310988,1310988,2.250664e-11,-3.195794e-05,-1.7044229e-05,-0.0008044519,0.00069910765,-0.039705448,4000,4000,0,0,0,1
8508000,8508000,1310988,1310988,-3.1958007e-06,-2.4501085e-05,-5.3263225e-06,-0.0008523358,0.0007469917,-0.039767694,4000,4000,0,0,0,1
9008000,9008000,1310988,1310988,-1.597897e-05,-1.8109502e-05,2.1305036e-06,-0.0008283939,0.0007565685,-0.039753333,4000,4000,0,0,0,1
9508000,9508000,1310988,1310988,3.19579e-06,-1.5978967e-05,8.522123e-06,-0.00093852717,0.00060812803,-0.039853882,4000,4000,0,0,0,1
10008000,10008000,1310988,1310988,-1.0652583e-06,-8.522118e-06,2.1305284e-06,-0.00072304904,0.0007086845,-0.03964798,4000,4000,0,0,0,1
10508000,10508000,1310988,1310988,2.8369722e-12,-1.917476e-05,-8.522119e-06,-0.0007565678,0.00065122364,-0.03974376,4000,4000,0,0,0,1
11008000,11008000,1310988,1310988,-6.3915704e-06,-2.9827412e-05,-2.1305316e-06,-0.000770933,0.00061770476,-0.039671928,4000,4000,0,0,0,1
11508000,11508000,1310988,1310988,-8.52212e-06,-2.3435818e-05,-5.3263307e-06,-0.0007805097,0.00058418605,-0.039619252,4000,4000,0,0,0,1
12008000,12008000,1310988,1310988,-2.130531e-06,-2.556635e-05,1.0652609e-06,-0.00077093294,0.00072304974,-0.03973896,4000,4000,0,0,0,1
12508000,12508000,1310988,1310988,-2.1305275e-06,-2.6631613e-05,-2.1305266e-06,-0.0007757214,0.0007565685,-0.039700653,4000,4000,0,0,0,1
13008000,13008000,1310988,1310988,-8.5221345e-06,-2.5566344e-05,2.130512e-06,-0.0008331823,0.0007086845,-0.039662346,4000,4000,0,0,0,1
13508000,13508000,1310988,1310988,0.0,-2.6631613e-05,-2.8289521e-12,-0.0007996635,0.00078051054,-0.039614465,4000,4000,0,0,0,1
14008000,14008000,1310988,1310988,-1.4913706e-05,-2.024003e-05,6.3915677e-06,-0.00070868374,0.00063206995,-0.039705448,4000,4000,0,0,0,1
14508000,14508000,1310988,1310988,-8.522115e-06,-2.4501085e-05,-1.0652614e-06,-0.00070389535,0.00058897445,-0.039844308,4000,4000,0,0,0,1
15008000,15008000,1310988,1310988,-6.3916e-06,-2.2370554e-05,6.391588e-06,-0.00077093294,0.0007469917,-0.039700653,4000,4000,0,0,0,1
15508000,15508000,1310988,1310988,-2.1305293e-06,-1.3848438e-05,7.985218e-13,-0.00062728085,0.00068474247,-0.03967672,4000,4000,0,0,0,1
16008000,16008000,1310988,1310988,-1.2783177e-05,-9.587379e-06,5.326319e-06,-0.0007517794,0.0006368584,-0.039734174,4000,4000,0,0,0,1
16508000,16508000,1310988,1310988,-6.391577e-06,-2.1305294e-05,-3.19579e-06,-0.00072304904,0.00065122364,-0.039767694,4000,4000,0,0,0,1
17008000,17008000,1310988,1310988,-1.0652626e-06,-1.81095e-05,-1.0652686e-06,-0.00068474177,0.00048841786,-0.039777268,4000,4000,0,0,0,1
17508000,17508000,1310988,1310988,-4.2610577e-06,-2.7696879e-05,-6.391581e-06,-0.00063206925,0.0006847425,-0.039671928,4000,4000,0,0,0,1
18008000,18008000,1310988,1310988,0.00056565535,0.00023648873,3.4089448e-05,-0.00073741423,0.00043574546,-0.041338295,4000,4000,0,0,0,1
18508000,18508000,1310988,1310988,-0.0007254455,-0.0008820388,-3.1965453e-06,-0.00034476508,0.00036391945,-0.043469135,4000,4000,0,0,0,1
19008000,19008000,1310988,1310988,-0.00015020226,-0.00017257291,-7.456838e-06,-0.00040222594,0.00041180346,-0.039384622,4000,4000,0,0,0,1
19508000,19508000,1310988,1310988,1.0652624e-06,9.58738e-06,-2.1305298e-06,-0.00049320556,0.00053151353,-0.04024175,4000,4000,0,0,0,1
20008000,20008000,1310988,1310988,4.5806366e-05,3.089268e-05,7.456898e-06,-0.00062728085,0.0006129164,-0.039753333,4000,4000,0,0,0,1
20508000,20508000,1310988,1310988,2.4501087e-05,6.4846436e-12,-8.522111e-06,-0.0007565678,0.00073741487,-0.039245754,4000,4000,0,0,0,1
21008000,21008000,1310988,1310988,2.3435821e-05,3.1957986e-06,2.130522e-06,-0.00077572133,0.000905009,-0.038953666,4000,4000,0,0,0,1
21508000,21508000,1310988,1310988,1.0652642e-06,-1.2783186e-05,-1.3848429e-05,-0.00081881706,0.0007613568,-0.0345196,4000,4000,0,0,0,1
22008000,22008000,1310988,1310988,2.5566344e-05,-3.4088473e-05,2.1305202e-06,-0.00062728085,0.0008427598,-0.040509902,4000,4000,0,0,0,1
22508000,22508000,1310988,1310988,-1.0652795e-06,3.7284266e-05,-1.7044214e-05,-0.00076614454,0.0007038961,-0.039379835,4000,4000,0,0,0,1
23008000,23008000,1310988,1310988,-2.5566329e-05,3.195794e-05,1.0652682e-05,-0.00071347214,0.0008236062,-0.039279275,4000,4000,0,0,0,1
23508000,23508000,1310988,1310988,-3.408843e-05,-5.9654823e-05,-1.0652717e-05,-0.00052193605,0.0006464352,-0.039504327,4000,4000,0,0,0,1
24008000,24008000,1310988,1310988,-9.587381e-06,-3.834952e-05,-1.2783172e-05,-0.00063685764,0.0006655889,-0.03961925,4000,4000,0,0,0,1
24508000,24508000,1310988,1310988,1.491375e-05,-0.00010120012,-8.522161e-06,-0.00060812733,0.00068474247,-0.03945645,4000,4000,0,0,0,1
25008000,25008000,1310988,1310988,8.522122e-06,-1.2783179e-05,6.391574e-06,-0.00068953016,0.0007469917,-0.03942293,4000,4000,0,0,0,1
25508000,25508000,1310988,1310988,-2.2370557e-05,-1.100841e-11,-3.1957977e-06,-0.00068953016,0.00073262653,-0.03959053,4000,4000,0,0,0,1
26008000,26008000,1310988,1310988,-8.522126e-06,-1.810949e-05,6.391598e-06,-0.0006655882,0.0007374149,-0.039379835,4000,4000,0,0,0,1
26508000,26508000,1310988,1310988,1.7044209e-05,-5.5393764e-05,1.1717896e-05,-0.0007613562,0.0007565685,-0.03953785,4000,4000,0,0,0,1
27008000,27008000,1310988,1310988,-6.391588e-06,-1.917476e-05,1.0652637e-06,-0.0007422026,0.00062249316,-0.039528277,4000,4000,0,0,0,1
27508000,27508000,1310988,1310988,-1.7044236e-05,-2.876214e-05,1.0652828e-06,-0.00063206925,0.0007613569,-0.03962404,4000,4000,0,0,0,1
28008000,28008000,1310988,1310988,-1.7021835e-12,-4.793691e-05,-2.1305427e-06,-0.0007900867,0.00072304974,-0.039595313,4000,4000,0,0,0,1
28508000,28508000,1310988,1310988,8.522116e-06,-1.4913704e-05,2.1305295e-06,-0.0006799534,0.0008188178,-0.03942293,4000,4000,0,0,0,1
29008000,29008000,1310988,1310988,3.1957918e-06,-1.7044229e-05,-1.0652655e-05,-0.0006703766,0.00072304974,-0.039398987,4000,4000,0,0,0,1
29508000,29508000,1310988,1310988,-3.1958084e-06,-3.3023207e-05,3.1957788e-06,-0.00072304904,0.0007469917,-0.03952349,4000,4000,0,0,0,1
30008000,30008000,1310988,1310988,-7.4568547e-06,-3.5153735e-05,3.195807e-06,-0.0006847418,0.0007469917,-0.03959053,4000,4000,0,0,0,1
30508000,30508000,1310988,1310988,1.9174757e-05,-4.2610677e-06,-2.130549e-06,-0.0007805097,0.00047405268,-0.039341528,4000,4000,0,0,0,1
31008000,31008000,1310988,1310988,-9.58739e-06,-2.024002e-05,1.1940286e-11,-0.000746991,0.0006368584,-0.039552223,4000,4000,0,0,0,1
31508000,31508000,1310988,1310988,1.0652657e-06,-3.515373e-05,-3.1957984e-06,-0.00063685764,0.00062728155,-0.03950433,4000,4000,0,0,0,1
32008000,32008000,1310988,1310988,-1.0652641e-05,-1.9174764e-05,1.065255e-06,-0.00092416187,0.0006847425,-0.039451662,4000,4000,0,0,0,1
32508000,32508000,1310988,1310988,2.6631607e-05,2.130535e-06,6.391601e-06,-0.00073741423,0.0005506671,-0.03930322,4000,4000,0,0,0,1
33008000,33008000,1310988,1310988,8.52212e-06,3.195784e-06,1.2783176e-05,-0.0008714895,0.0005698208,-0.03965756,4000,4000,0,0,0,1
33508000,33508000,1310988,1310988,1.4913675e-05,-2.8762153e-05,7.45686e-06,-0.00071347214,0.0006368584,-0.039748542,4000,4000,0,0,0,1
34008000,34008000,1310988,1310988,-8.522136e-06,-3.5153727e-05,3.19577e-06,-0.0007565678,0.0006416468,-0.039394196,4000,4000,0,0,0,1
34508000,34508000,1310988,1310988,-8.52213e-06,2.5566344e-05,3.1957943e-06,-0.0009672576,0.00069431914,-0.039260127,4000,4000,0,0,0,1
35008000,35008000,1310988,1310988,-5.5393753e-05,-2.6631613e-05,4.2610764e-06,-0.0008667011,0.00076614507,-0.030583538,4000,4000,0,0,0,1
35508000,35508000,1310988,1310988,-8.522132e-06,4.3675842e-05,-8.522116e-06,-0.0008523358,0.00060812803,-0.041759674,4000,4000,0,0,0,1
36008000,36008000,1310988,1310988,2.1305318e-06,6.391587e-06,2.192e-12,-0.0007565678,0.0006991076,-0.039106894,4000,4000,0,0,0,1
36508000,36508000,1310988,1310988,-3.0892657e-05,2.024004e-05,7.456846e-06,-0.0008188171,0.00064164674,-0.039260127,4000,4000,0,0,0,1
37008000,37008000,1310988,1310988,-9.587389e-06,-4.2610576e-05,-1.0652652e-05,-0.00073262583,0.00051714835,-0.039609674,4000,4000,0,0,0,1
37508000,37508000,1310988,1310988,-1.0652693e-06,-2.982741e-05,-5.326308e-06,-0.0007805097,0.0007182613,-0.039547425,4000,4000,0,0,0,1
38008000,38008000,1310988,1310988,-3.1957893e-06,-6.3915872e-06,-7.4568547e-06,-0.00071347214,0.0006464352,-0.039513916,4000,4000,0,0,0,1
38508000,38508000,1310988,1310988,-1.9174755e-05,-5.326325e-06,-8.522125e-06,-0.00072304904,0.00051714835,-0.039384622,4000,4000,0,0,0,1
39008000,39008000,1310988,1310988,7.456852e-05,-2.450108e-05,-3.1957416e-06,-0.00077093294,0.0005793976,-0.039705448,4000,4000,0,0,0,1
39508000,39508000,1310988,1310988,-2.1305311e-06,-5.4328488e-05,5.3263207e-06,-0.00076614454,0.0005410903,-0.03713886,4000,4000,0,0,0,1
40008000,40008000,1310988,1310988,6.3915845e-06,-3.9414786e-05,9.587381e-06,-0.0007805097,0.00071826123,-0.03652116,4000,4000,0,0,0,1
40508000,40508000,1310988,1310988,-3.30232e-05,5.4328484e-05,-1.1717941e-05,-0.00072304904,0.00064643513,-0.036482852,4000,4000,0,0,0,1
41008000,41008000,1310988,1310988,1.2783175e-05,1.0652634e-06,-2.1305314e-06,-0.0008714895,0.00082839455,-0.037885856,4000,4000,0,0,0,1
41508000,41508000,1310988,1310988,-1.065269e-06,-1.4913704e-05,2.1305254e-06,-0.00064643443,0.00072304974,-0.039279275,4000,4000,0,0,0,1
42008000,42008000,1310988,1310988,7.456858e-06,-2.0240028e-05,-5.326303e-06,-0.00077093294,0.00065601204,-0.039360676,4000,4000,0,0,0,1
42508000,42508000,1310988,1310988,-4.2610595e-06,-5.326319e-06,1.17179125e-05,-0.0007996635,0.00063206995,-0.039461236,4000,4000,0,0,0,1
43008000,43008000,1310988,1310988,-1.0652625e-06,-2.6631611e-05,3.1957957e-06,-0.000746991,0.00061770476,-0.039375048,4000,4000,0,0,0,1
43508000,43508000,1310988,1310988,4.2610545e-06,-2.6631615e-05,-2.1305193e-06,-0.00064643443,0.00053630193,-0.039274484,4000,4000,0,0,0,1
44008000,44008000,1310988,1310988,-7.754389e-12,-1.81095e-05,3.1957936e-06,-0.0007422026,0.0006751657,-0.039351102,4000,4000,0,0,0,1
44508000,44508000,1310988,1310988,-3.1957977e-06,-1.8109502e-05,2.1305143e-06,-0.0007038953,0.00063685834,-0.039207444,4000,4000,0,0,0,1
45008000,45008000,1310988,1310988,3.1957659e-06,-3.089268e-05,5.3263047e-06,-0.0006655882,0.0005171483,-0.039111685,4000,4000,0,0,0,1
45508000,45508000,1310988,1310988,3.1957998e-06,-1.917476e-05,4.261052e-06,-0.0007422026,0.00052672514,-0.039331954,4000,4000,0,0,0,1
46008000,46008000,1310988,1310988,-1.0652657e-06,-2.8762142e-05,4.261061e-06,-0.00068953016,0.00066558877,-0.0392697,4000,4000,0,0,0,1
46508000,46508000,1310988,1310988,2.1305416e-06,-2.3435816e-05,9.587393e-06,-0.000675165,0.00045489904,-0.039217032,4000,4000,0,0,0,1
47008000,47008000,1310988,1310988,-8.522107e-06,-1.7044236e-05,3.1958034e-06,-0.00071826053,0.0004788411,-0.039260127,4000,4000,0,0,0,1
47508000,47508000,1310988,1310988,-4.261056e-06,-2.2370557e-05,-2.130531e-06,-0.00077572133,0.0005554555,-0.039308008,4000,4000,0,0,0,1
48008000,48008000,1310988,1310988,-1.171791e-05,-3.1957954e-06,-3.1957943e-06,-0.0008283939,0.0005889744,-0.03916914,4000,4000,0,0,0,1
48508000,48508000,1310988,1310988,2.130534e-06,-2.2370557e-05,-2.1305289e-06,-0.0008283939,0.0006847425,-0.039284065,4000,4000,0,0,0,1
49008000,49008000,1310988,1310988,-7.4568443e-06,-2.1305294e-05,-2.1305184e-06,-0.0008283939,0.0006033396,-0.039217032,4000,4000,0,0,0,1
