timestamp,timestamp_sample,lat,lon,alt,alt_ellipsoid,delta_alt,eph,epv,terrain_alt,lat_lon_reset_counter,alt_reset_counter,terrain_alt_valid,dead_reckoning
3344000,0,47.3977508,8.5456074,488.104,0.0,0.0,0.0,0.0,0.0,0,0,0,0
3348000,0,47.3977508,8.5456074,488.104,0.0,0.0,0.0,0.0,0.0,0,0,0,0
3444000,0,47.3977508,8.5456074,488.104,0.0,0.0,0.0,0.0,0.0,0,0,0,0
3544000,0,47.3977508,8.5456074,488.104,0.0,0.0,0.0,0.0,0.0,0,0,0,0
3644000,0,47.3977508,8.5456074,488.104,0.0,0.0,0.0,0.0,0.0,0,0,0,0
3744000,0,47.3977508,8.5456074,488.104,0.0,0.0,0.0,0.0,0.0,0,0,0,0
3844000,0,47.3977508,8.5456074,488.104,0.0,0.0,0.0,0.0,0.0,0,0,0,0
3944000,0,47.3977508,8.5456074,488.104,0.0,0.0,0.0,0.0,0.0,0,0,0,0
4044000,0,47.3977508,8.5456074,488.104,0.0,0.0,0.0,0.0,0.0,0,0,0,0
4144000,0,47.3977508,8.5456074,488.104,0.0,0.0,0.0,0.0,0.0,0,0,0,0
4244000,0,47.3977508,8.5456074,488.104,0.0,0.0,0.0,0.0,0.0,0,0,0,0
4344000,0,47.3977508,8.5456074,488.104,0.0,0.0,0.0,0.0,0.0,0,0,0,0
4444000,0,47.3977508,8.5456074,488.104,0.0,0.0,0.0,0.0,0.0,0,0,0,0
4544000,0,47.3977508,8.5456074,488.104,0.0,0.0,0.0,0.0,0.0,0,0,0,0
4644000,0,47.3977508,8.5456074,488.104,0.0,0.0,0.0,0.0,0.0,0,0,0,0
4744000,0,47.3977508,8.5456074,488.104,0.0,0.0,0.0,0.0,0.0,0,0,0,0
4844000,0,47.3977508,8.5456074,488.104,0.0,0.0,0.0,0.0,0.0,0,0,0,0
4944000,0,47.3977508,8.5456074,488.104,0.0,0.0,0.0,0.0,0.0,0,0,0,0
5044000,0,47.3977508,8.5456074,488.104,0.0,0.0,0.0,0.0,0.0,0,0,0,0
5144000,0,47.3977508,8.5456074,488.104,0.0,0.0,0.0,0.0,0.0,0,0,0,0
5244000,0,47.3977508,8.5456074,488.104,0.0,0.0,0.0,0.0,0.0,0,0,0,0
5344000,0,47.3977508,8.5456074,488.104,0.0,0.0,0.0,0.0,0.0,0,0,0,0
5444000,0,47.3977508,8.5456074,488.104,0.0,0.0,0.0,0.0,0.0,0,0,0,0
5544000,0,47.3977508,8.5456074,488.104,0.0,0.0,0.0,0.0,0.0,0,0,0,0
5644000,0,47.3977508,8.5456074,488.104,0.0,0.0,0.0,0.0,0.0,0,0,0,0
5744000,0,47.3977508,8.5456074,488.104,0.0,0.0,0.0,0.0,0.0,0,0,0,0
5844000,0,47.3977508,8.5456074,488.104,0.0,0.0,0.0,0.0,0.0,0,0,0,0
5944000,0,47.3977508,8.5456074,488.104,0.0,0.0,0.0,0.0,0.0,0,0,0,0
6044000,0,47.3977508,8.5456074,488.104,0.0,0.0,0.0,0.0,0.0,0,0,0,0
6144000,0,47.3977508,8.5456074,488.104,0.0,0.0,0.0,0.0,0.0,0,0,0,0
6244000,0,47.3977508,8.5456074,488.104,0.0,0.0,0.0,0.0,0.0,0,0,0,0
6344000,0,47.3977508,8.5456074,488.104,0.0,0.0,0.0,0.0,0.0,0,0,0,0
6444000,0,47.3977508,8.5456074,488.104,0.0,0.0,0.0,0.0,0.0,0,0,0,0
6544000,0,47.3977508,8.5456074,488.104,0.0,0.0,0.0,0.0,0.0,0,0,0,0
6644000,0,47.3977508,8.5456074,488.104,0.0,0.0,0.0,0.0,0.0,0,0,0,0
6744000,0,47.3977508,8.5456074,488.104,0.0,0.0,0.0,0.0,0.0,0,0,0,0
6844000,0,47.3977508,8.5456074,488.104,0.0,0.0,0.0,0.0,0.0,0,0,0,0
6944000,0,47.3977508,8.5456074,488.104,0.0,0.0,0.0,0.0,0.0,0,0,0,0
7044000,0,47.3977508,8.5456074,488.104,0.0,0.0,0.0,0.0,0.0,0,0,0,0
7144000,0,47.3977508,8.5456074,488.104,0.0,0.0,0.0,0.0,0.0,0,0,0,0
7244000,0,47.3977508,8.5456074,488.104,0.0,0.0,0.0,0.0,0.0,0,0,0,0
7344000,0,47.3977508,8.5456074,488.104,0.0,0.0,0.0,0.0,0.0,0,0,0,0
7444000,0,47.3977508,8.5456074,488.104,0.0,0.0,0.0,0.0,0.0,0,0,0,0
7544000,0,47.3977508,8.5456074,488.104,0.0,0.0,0.0,0.0,0.0,0,0,0,0
7644000,0,47.3977508,8.5456074,488.104,0.0,0.0,0.0,0.0,0.0,0,0,0,0
7744000,0,47.3977508,8.5456074,488.104,0.0,0.0,0.0,0.0,0.0,0,0,0,0
7844000,0,47.3977508,8.5456074,488.104,0.0,0.0,0.0,0.0,0.0,0,0,0,0
7944000,0,47.3977508,8.5456074,488.104,0.0,0.0,0.0,0.0,0.0,0,0,0,0
8044000,0,47.3977508,8.5456074,488.104,0.0,0.0,0.0,0.0,0.0,0,0,0,0
8144000,0,47.3977508,8.5456074,488.104,0.0,0.0,0.0,0.0,0.0,0,0,0,0
8244000,0,47.3977508,8.5456074,488.104,0.0,0.0,0.0,0.0,0.0,0,0,0,0
8344000,0,47.3977508,8.5456074,488.104,0.0,0.0,0.0,0.0,0.0,0,0,0,0
8444000,0,47.3977508,8.5456074,488.104,0.0,0.0,0.0,0.0,0.0,0,0,0,0
8544000,0,47.3977508,8.5456074,488.104,0.0,0.0,0.0,0.0,0.0,0,0,0,0
8644000,0,47.3977508,8.5456074,488.104,0.0,0.0,0.0,0.0,0.0,0,0,0,0
8744000,0,47.3977508,8.5456074,488.104,0.0,0.0,0.0,0.0,0.0,0,0,0,0
8844000,0,47.3977508,8.5456074,488.104,0.0,0.0,0.0,0.0,0.0,0,0,0,0
8944000,0,47.3977508,8.5456074,488.104,0.0,0.0,0.0,0.0,0.0,0,0,0,0
9044000,0,47.3977508,8.5456074,488.104,0.0,0.0,0.0,0.0,0.0,0,0,0,0
9144000,0,47.3977508,8.5456074,488.104,0.0,0.0,0.0,0.0,0.0,0,0,0,0
9244000,0,47.3977508,8.5456074,488.104,0.0,0.0,0.0,0.0,0.0,0,0,0,0
9344000,0,47.3977508,8.5456074,488.104,0.0,0.0,0.0,0.0,0.0,0,0,0,0
9444000,0,47.3977508,8.5456074,488.104,0.0,0.0,0.0,0.0,0.0,0,0,0,0
9544000,0,47.3977508,8.5456074,488.104,0.0,0.0,0.0,0.0,0.0,0,0,0,0
9644000,0,47.3977508,8.5456074,488.104,0.0,0.0,0.0,0.0,0.0,0,0,0,0
9744000,0,47.3977508,8.5456074,488.104,0.0,0.0,0.0,0.0,0.0,0,0,0,0
9844000,0,47.3977508,8.5456074,488.104,0.0,0.0,0.0,0.0,0.0,0,0,0,0
9944000,0,47.3977508,8.5456074,488.104,0.0,0.0,0.0,0.0,0.0,0,0,0,0
10044000,0,47.3977508,8.5456074,488.104,0.0,0.0,0.0,0.0,0.0,0,0,0,0
10144000,0,47.3977508,8.5456074,488.104,0.0,0.0,0.0,0.0,0.0,0,0,0,0
10244000,0,47.3977508,8.5456074,488.104,0.0,0.0,0.0,0.0,0.0,0,0,0,0
10344000,0,47.3977508,8.5456074,488.104,0.0,0.0,0.0,0.0,0.0,0,0,0,0
10444000,0,47.3977508,8.5456074,488.104,0.0,0.0,0.0,0.0,0.0,0,0,0,0
10544000,0,47.3977508,8.5456074,488.104,0.0,0.0,0.0,0.0,0.0,0,0,0,0
10644000,0,47.3977508,8.5456074,488.104,0.0,0.0,0.0,0.0,0.0,0,0,0,0
10744000,0,47.3977508,8.5456074,488.104,0.0,0.0,0.0,0.0,0.0,0,0,0,0
10844000,0,47.3977508,8.5456074,488.104,0.0,0.0,0.0,0.0,0.0,0,0,0,0
10944000,0,47.3977508,8.5456074,488.104,0.0,0.0,0.0,0.0,0.0,0,0,0,0
11044000,0,47.3977508,8.5456074,488.104,0.0,0.0,0.0,0.0,0.0,0,0,0,0
11144000,0,47.3977508,8.5456074,488.104,0.0,0.0,0.0,0.0,0.0,0,0,0,0
11244000,0,47.3977508,8.5456074,488.104,0.0,0.0,0.0,0.0,0.0,0,0,0,0
11344000,0,47.3977508,8.5456074,488.104,0.0,0.0,0.0,0.0,0.0,0,0,0,0
11444000,0,47.3977508,8.5456074,488.104,0.0,0.0,0.0,0.0,0.0,0,0,0,0
11544000,0,47.3977508,8.5456074,488.104,0.0,0.0,0.0,0.0,0.0,0,0,0,0
11644000,0,47.3977508,8.5456074,488.104,0.0,0.0,0.0,0.0,0.0,0,0,0,0
11744000,0,47.3977508,8.5456074,488.104,0.0,0.0,0.0,0.0,0.0,0,0,0,0
11844000,0,47.3977508,8.5456074,488.104,0.0,0.0,0.0,0.0,0.0,0,0,0,0
11944000,0,47.3977508,8.5456074,488.104,0.0,0.0,0.0,0.0,0.0,0,0,0,0
12044000,0,47.3977508,8.5456074,488.104,0.0,0.0,0.0,0.0,0.0,0,0,0,0
12144000,0,47.3977508,8.5456074,488.104,0.0,0.0,0.0,0.0,0.0,0,0,0,0
12244000,0,47.3977508,8.5456074,488.104,0.0,0.0,0.0,0.0,0.0,0,0,0,0
12344000,0,47.3977508,8.5456074,488.104,0.0,0.0,0.0,0.0,0.0,0,0,0,0
12444000,0,47.3977508,8.5456074,488.104,0.0,0.0,0.0,0.0,0.0,0,0,0,0
12544000,0,47.3977508,8.5456074,488.104,0.0,0.0,0.0,0.0,0.0,0,0,0,0
12644000,0,47.3977508,8.5456074,488.104,0.0,0.0,0.0,0.0,0.0,0,0,0,0
12744000,0,47.3977508,8.5456074,488.104,0.0,0.0,0.0,0.0,0.0,0,0,0,0
12844000,0,47.3977508,8.5456074,488.104,0.0,0.0,0.0,0.0,0.0,0,0,0,0
12944000,0,47.3977508,8.5456074,488.104,0.0,0.0,0.0,0.0,0.0,0,0,0,0
13044000,0,47.3977508,8.5456074,488.104,0.0,0.0,0.0,0.0,0.0,0,0,0,0
13144000,0,47.3977508,8.5456074,488.104,0.0,0.0,0.0,0.0,0.0,0,0,0,0
13244000,0,47.3977508,8.5456074,488.104,0.0,0.0,0.0,0.0,0.0,0,0,0,0
13344000,0,47.3977508,8.5456074,488.104,0.0,0.0,0.0,0.0,0.0,0,0,0,0
13444000,0,47.3977508,8.5456074,488.104,0.0,0.0,0.0,0.0,0.0,0,0,0,0
13544000,0,47.3977508,8.5456074,488.104,0.0,0.0,0.0,0.0,0.0,0,0,0,0
13644000,0,47.3977508,8.5456074,488.104,0.0,0.0,0.0,0.0,0.0,0,0,0,0
13744000,0,47.3977508,8.5456074,488.104,0.0,0.0,0.0,0.0,0.0,0,0,0,0
13844000,0,47.3977508,8.5456074,488.104,0.0,0.0,0.0,0.0,0.0,0,0,0,0
13944000,0,47.3977508,8.5456074,488.104,0.0,0.0,0.0,0.0,0.0,0,0,0,0
14044000,0,47.3977508,8.5456074,488.104,0.0,0.0,0.0,0.0,0.0,0,0,0,0
14144000,0,47.3977508,8.5456074,488.104,0.0,0.0,0.0,0.0,0.0,0,0,0,0
14244000,0,47.3977508,8.5456074,488.104,0.0,0.0,0.0,0.0,0.0,0,0,0,0
14344000,0,47.3977508,8.5456074,488.104,0.0,0.0,0.0,0.0,0.0,0,0,0,0
14444000,0,47.3977508,8.5456074,488.104,0.0,0.0,0.0,0.0,0.0,0,0,0,0
14544000,0,47.3977508,8.5456074,488.104,0.0,0.0,0.0,0.0,0.0,0,0,0,0
14644000,0,47.3977508,8.5456074,488.104,0.0,0.0,0.0,0.0,0.0,0,0,0,0
14744000,0,47.3977508,8.5456074,488.104,0.0,0.0,0.0,0.0,0.0,0,0,0,0
14844000,0,47.3977508,8.5456074,488.104,0.0,0.0,0.0,0.0,0.0,0,0,0,0
14944000,0,47.3977508,8.5456074,488.104,0.0,0.0,0.0,0.0,0.0,0,0,0,0
15044000,0,47.3977508,8.5456074,488.104,0.0,0.0,0.0,0.0,0.0,0,0,0,0
15144000,0,47.3977508,8.5456074,488.104,0.0,0.0,0.0,0.0,0.0,0,0,0,0
15244000,0,47.3977508,8.5456074,488.104,0.0,0.0,0.0,0.0,0.0,0,0,0,0
15344000,0,47.3977508,8.5456074,488.104,0.0,0.0,0.0,0.0,0.0,0,0,0,0
15444000,0,47.3977508,8.5456074,488.104,0.0,0.0,0.0,0.0,0.0,0,0,0,0
15544000,0,47.3977508,8.5456074,488.104,0.0,0.0,0.0,0.0,0.0,0,0,0,0
15644000,0,47.3977508,8.5456074,488.104,0.0,0.0,0.0,0.0,0.0,0,0,0,0
15744000,0,47.3977508,8.5456074,488.104,0.0,0.0,0.0,0.0,0.0,0,0,0,0
15844000,0,47.3977508,8.5456074,488.104,0.0,0.0,0.0,0.0,0.0,0,0,0,0
15944000,0,47.3977508,8.5456074,488.104,0.0,0.0,0.0,0.0,0.0,0,0,0,0
16044000,0,47.3977508,8.5456074,488.104,0.0,0.0,0.0,0.0,0.0,0,0,0,0
16144000,0,47.3977508,8.5456074,488.104,0.0,0.0,0.0,0.0,0.0,0,0,0,0
16244000,0,47.3977508,8.5456074,488.104,0.0,0.0,0.0,0.0,0.0,0,0,0,0
16344000,0,47.3977508,8.5456074,488.104,0.0,0.0,0.0,0.0,0.0,0,0,0,0
16444000,0,47.3977508,8.5456074,488.104,0.0,0.0,0.0,0.0,0.0,0,0,0,0
16544000,0,47.3977508,8.5456074,488.104,0.0,0.0,0.0,0.0,0.0,0,0,0,0
16644000,0,47.3977508,8.5456074,488.104,0.0,0.0,0.0,0.0,0.0,0,0,0,0
16744000,0,47.3977508,8.5456074,488.104,0.0,0.0,0.0,0.0,0.0,0,0,0,0
16844000,0,47.3977508,8.5456074,488.104,0.0,0.0,0.0,0.0,0.0,0,0,0,0
16944000,0,47.3977508,8.5456074,488.104,0.0,0.0,0.0,0.0,0.0,0,0,0,0
17044000,0,47.3977508,8.5456074,488.104,0.0,0.0,0.0,0.0,0.0,0,0,0,0
17144000,0,47.3977508,8.5456074,488.104,0.0,0.0,0.0,0.0,0.0,0,0,0,0
17244000,0,47.3977508,8.5456074,488.104,0.0,0.0,0.0,0.0,0.0,0,0,0,0
17344000,0,47.3977508,8.5456074,488.104,0.0,0.0,0.0,0.0,0.0,0,0,0,0
17444000,0,47.3977508,8.5456074,488.104,0.0,0.0,0.0,0.0,0.0,0,0,0,0
17544000,0,47.3977508,8.5456074,488.104,0.0,0.0,0.0,0.0,0.0,0,0,0,0
17644000,0,47.3977508,8.5456074,488.104,0.0,0.0,0.0,0.0,0.0,0,0,0,0
17744000,0,47.3977508,8.5456074,488.104,0.0,0.0,0.0,0.0,0.0,0,0,0,0
17844000,0,47.3977508,8.5456074,488.104,0.0,0.0,0.0,0.0,0.0,0,0,0,0
17944000,0,47.3977508,8.5456074,488.105,0.0,0.0,0.0,0.0,0.0,0,0,0,0
18044000,0,47.3977508,8.5456074,488.11,0.0,0.0,0.0,0.0,0.0,0,0,0,0
18144000,0,47.3977508,8.5456074,488.118,0.0,0.0,0.0,0.0,0.0,0,0,0,0
18244000,0,47.397750699999996,8.5456074,488.132,0.0,0.0,0.0,0.0,0.0,0,0,0,0
18344000,0,47.397750599999995,8.5456073,488.15,0.0,0.0,0.0,0.0,0.0,0,0,0,0
18444000,0,47.3977505,8.5456071,488.178,0.0,0.0,0.0,0.0,0.0,0,0,0,0
18544000,0,47.3977503,8.5456068,488.214,0.0,0.0,0.0,0.0,0.0,0,0,0,0
18644000,0,47.397750099999996,8.5456066,488.26,0.0,0.0,0.0,0.0,0.0,0,0,0,0
18744000,0,47.3977499,8.5456063,488.314,0.0,0.0,0.0,0.0,0.0,0,0,0,0
18844000,0,47.3977497,8.545606099999999,488.373,0.0,0.0,0.0,0.0,0.0,0,0,0,0
18944000,0,47.3977496,8.5456059,488.437,0.0,0.0,0.0,0.0,0.0,0,0,0,0
19044000,0,47.397749399999995,8.5456057,488.496,0.0,0.0,0.0,0.0,0.0,0,0,0,0
19144000,0,47.3977493,8.545605499999999,488.56,0.0,0.0,0.0,0.0,0.0,0,0,0,0
19244000,0,47.3977491,8.5456053,488.621,0.0,0.0,0.0,0.0,0.0,0,0,0,0
19344000,0,47.397749,8.545605199999999,488.686,0.0,0.0,0.0,0.0,0.0,0,0,0,0
19444000,0,47.397749,8.5456051,488.752,0.0,0.0,0.0,0.0,0.0,0,0,0,0
19544000,0,47.397748899999996,8.545605,488.82,0.0,0.0,0.0,0.0,0.0,0,0,0,0
19644000,0,47.397748799999995,8.545605,488.888,0.0,0.0,0.0,0.0,0.0,0,0,0,0
19744000,0,47.397748799999995,8.545605,488.96,0.0,0.0,0.0,0.0,0.0,0,0,0,0
19844000,0,47.397748799999995,8.545604899999999,489.03,0.0,0.0,0.0,0.0,0.0,0,0,0,0
19944000,0,47.397748799999995,8.545605,489.099,0.0,0.0,0.0,0.0,0.0,0,0,0,0
20044000,0,47.397748799999995,8.545605,489.169,0.0,0.0,0.0,0.0,0.0,0,0,0,0
20144000,0,47.397748899999996,8.5456051,489.236,0.0,0.0,0.0,0.0,0.0,0,0,0,0
20244000,0,47.397748899999996,8.5456051,489.305,0.0,0.0,0.0,0.0,0.0,0,0,0,0
20344000,0,47.397749,8.545605199999999,489.374,0.0,0.0,0.0,0.0,0.0,0,0,0,0
20444000,0,47.397749,8.5456053,489.442,0.0,0.0,0.0,0.0,0.0,0,0,0,0
20544000,0,47.3977491,8.5456054,489.512,0.0,0.0,0.0,0.0,0.0,0,0,0,0
20644000,0,47.3977492,8.545605499999999,489.578,0.0,0.0,0.0,0.0,0.0,0,0,0,0
20744000,0,47.3977493,8.5456056,489.641,0.0,0.0,0.0,0.0,0.0,0,0,0,0
20844000,0,47.3977493,8.5456057,489.707,0.0,0.0,0.0,0.0,0.0,0,0,0,0
20944000,0,47.397749399999995,8.545605799999999,489.77,0.0,0.0,0.0,0.0,0.0,0,0,0,0
21044000,0,47.397749499999996,8.5456059,489.828,0.0,0.0,0.0,0.0,0.0,0,0,0,0
21144000,0,47.3977496,8.545606,489.887,0.0,0.0,0.0,0.0,0.0,0,0,0,0
21244000,0,47.3977497,8.545606099999999,489.947,0.0,0.0,0.0,0.0,0.0,0,0,0,0
21344000,0,47.3977497,8.5456063,490.001,0.0,0.0,0.0,0.0,0.0,0,0,0,0
21444000,0,47.3977498,8.5456064,490.047,0.0,0.0,0.0,0.0,0.0,0,0,0,0
21544000,0,47.3977499,8.5456065,490.083,0.0,0.0,0.0,0.0,0.0,0,0,0,0
21644000,0,47.397749999999995,8.5456066,490.109,0.0,0.0,0.0,0.0,0.0,0,0,0,0
21744000,0,47.397749999999995,8.5456067,490.128,0.0,0.0,0.0,0.0,0.0,0,0,0,0
21844000,0,47.397750099999996,8.5456068,490.144,0.0,0.0,0.0,0.0,0.0,0,0,0,0
21944000,0,47.3977502,8.5456069,490.16,0.0,0.0,0.0,0.0,0.0,0,0,0,0
22044000,0,47.3977502,8.5456069,490.178,0.0,0.0,0.0,0.0,0.0,0,0,0,0
22144000,0,47.3977503,8.545607,490.197,0.0,0.0,0.0,0.0,0.0,0,0,0,0
22244000,0,47.3977504,8.5456071,490.219,0.0,0.0,0.0,0.0,0.0,0,0,0,0
22344000,0,47.3977504,8.5456072,490.239,0.0,0.0,0.0,0.0,0.0,0,0,0,0
22444000,0,47.3977505,8.5456072,490.259,0.0,0.0,0.0,0.0,0.0,0,0,0,0
22544000,0,47.3977505,8.5456073,490.278,0.0,0.0,0.0,0.0,0.0,0,0,0,0
22644000,0,47.397750599999995,8.5456074,490.298,0.0,0.0,0.0,0.0,0.0,0,0,0,0
22744000,0,47.397750599999995,8.5456074,490.316,0.0,0.0,0.0,0.0,0.0,0,0,0,0
22844000,0,47.397750599999995,8.5456075,490.332,0.0,0.0,0.0,0.0,0.0,0,0,0,0
22944000,0,47.397750699999996,8.5456075,490.349,0.0,0.0,0.0,0.0,0.0,0,0,0,0
23044000,0,47.397750699999996,8.5456075,490.366,0.0,0.0,0.0,0.0,0.0,0,0,0,0
23144000,0,47.397750699999996,8.5456076,490.381,0.0,0.0,0.0,0.0,0.0,0,0,0,0
23244000,0,47.3977508,8.5456076,490.396,0.0,0.0,0.0,0.0,0.0,0,0,0,0
23344000,0,47.3977508,8.5456076,490.41,0.0,0.0,0.0,0.0,0.0,0,0,0,0
23444000,0,47.3977508,8.5456076,490.423,0.0,0.0,0.0,0.0,0.0,0,0,0,0
23544000,0,47.3977508,8.5456075,490.436,0.0,0.0,0.0,0.0,0.0,0,0,0,0
23644000,0,47.3977508,8.5456075,490.449,0.0,0.0,0.0,0.0,0.0,0,0,0,0
23744000,0,47.3977508,8.5456075,490.461,0.0,0.0,0.0,0.0,0.0,0,0,0,0
23844000,0,47.3977508,8.5456075,490.473,0.0,0.0,0.0,0.0,0.0,0,0,0,0
23944000,0,47.3977509,8.5456074,490.485,0.0,0.0,0.0,0.0,0.0,0,0,0,0
24044000,0,47.3977509,8.5456074,490.496,0.0,0.0,0.0,0.0,0.0,0,0,0,0
24144000,0,47.3977509,8.5456074,490.507,0.0,0.0,0.0,0.0,0.0,0,0,0,0
24244000,0,47.3977509,8.5456073,490.518,0.0,0.0,0.0,0.0,0.0,0,0,0,0
24344000,0,47.3977509,8.5456073,490.528,0.0,0.0,0.0,0.0,0.0,0,0,0,0
24444000,0,47.3977509,8.5456073,490.539,0.0,0.0,0.0,0.0,0.0,0,0,0,0
24544000,0,47.397751,8.5456073,490.549,0.0,0.0,0.0,0.0,0.0,0,0,0,0
24644000,0,47.397751,8.5456072,490.558,0.0,0.0,0.0,0.0,0.0,0,0,0,0
24744000,0,47.397751,8.5456072,490.568,0.0,0.0,0.0,0.0,0.0,0,0,0,0
24844000,0,47.397751,8.5456072,490.577,0.0,0.0,0.0,0.0,0.0,0,0,0,0
24944000,0,47.397751,8.5456072,490.585,0.0,0.0,0.0,0.0,0.0,0,0,0,0
25044000,0,47.3977511,8.5456072,490.593,0.0,0.0,0.0,0.0,0.0,0,0,0,0
25144000,0,47.3977511,8.5456072,490.601,0.0,0.0,0.0,0.0,0.0,0,0,0,0
25244000,0,47.3977511,8.5456072,490.609,0.0,0.0,0.0,0.0,0.0,0,0,0,0
25344000,0,47.3977511,8.5456072,490.615,0.0,0.0,0.0,0.0,0.0,0,0,0,0
25444000,0,47.3977511,8.5456072,490.622,0.0,0.0,0.0,0.0,0.0,0,0,0,0
25544000,0,47.3977511,8.5456072,490.628,0.0,0.0,0.0,0.0,0.0,0,0,0,0
25644000,0,47.3977511,8.5456072,490.634,0.0,0.0,0.0,0.0,0.0,0,0,0,0
25744000,0,47.3977511,8.5456073,490.64,0.0,0.0,0.0,0.0,0.0,0,0,0,0
25844000,0,47.3977511,8.5456073,490.644,0.0,0.0,0.0,0.0,0.0,0,0,0,0
25944000,0,47.3977511,8.5456073,490.649,0.0,0.0,0.0,0.0,0.0,0,0,0,0
26044000,0,47.3977511,8.5456073,490.653,0.0,0.0,0.0,0.0,0.0,0,0,0,0
26144000,0,47.3977511,8.5456073,490.657,0.0,0.0,0.0,0.0,0.0,0,0,0,0
26244000,0,47.3977511,8.5456073,490.66,0.0,0.0,0.0,0.0,0.0,0,0,0,0
26344000,0,47.3977511,8.5456073,490.663,0.0,0.0,0.0,0.0,0.0,0,0,0,0
26444000,0,47.397751199999995,8.5456073,490.666,0.0,0.0,0.0,0.0,0.0,0,0,0,0
26544000,0,47.397751199999995,8.5456072,490.669,0.0,0.0,0.0,0.0,0.0,0,0,0,0
26644000,0,47.397751199999995,8.5456072,490.672,0.0,0.0,0.0,0.0,0.0,0,0,0,0
26744000,0,47.397751199999995,8.5456072,490.675,0.0,0.0,0.0,0.0,0.0,0,0,0,0
26844000,0,47.397751199999995,8.5456072,490.678,0.0,0.0,0.0,0.0,0.0,0,0,0,0
26944000,0,47.397751199999995,8.5456072,490.68,0.0,0.0,0.0,0.0,0.0,0,0,0,0
27044000,0,47.397751199999995,8.5456072,490.683,0.0,0.0,0.0,0.0,0.0,0,0,0,0
27144000,0,47.397751199999995,8.5456072,490.686,0.0,0.0,0.0,0.0,0.0,0,0,0,0
27244000,0,47.397751199999995,8.5456072,490.689,0.0,0.0,0.0,0.0,0.0,0,0,0,0
27344000,0,47.397751199999995,8.5456072,490.691,0.0,0.0,0.0,0.0,0.0,0,0,0,0
27444000,0,47.397751199999995,8.5456072,490.693,0.0,0.0,0.0,0.0,0.0,0,0,0,0
27544000,0,47.397751199999995,8.5456072,490.695,0.0,0.0,0.0,0.0,0.0,0,0,0,0
27644000,0,47.397751199999995,8.5456072,490.698,0.0,0.0,0.0,0.0,0.0,0,0,0,0
27744000,0,47.397751199999995,8.5456072,490.7,0.0,0.0,0.0,0.0,0.0,0,0,0,0
27844000,0,47.397751199999995,8.5456072,490.703,0.0,0.0,0.0,0.0,0.0,0,0,0,0
27944000,0,47.397751199999995,8.5456072,490.705,0.0,0.0,0.0,0.0,0.0,0,0,0,0
28044000,0,47.397751199999995,8.5456072,490.709,0.0,0.0,0.0,0.0,0.0,0,0,0,0
28144000,0,47.397751199999995,8.5456072,490.712,0.0,0.0,0.0,0.0,0.0,0,0,0,0
28244000,0,47.397751199999995,8.5456072,490.715,0.0,0.0,0.0,0.0,0.0,0,0,0,0
28344000,0,47.397751199999995,8.5456072,490.718,0.0,0.0,0.0,0.0,0.0,0,0,0,0
28444000,0,47.397751199999995,8.5456072,490.722,0.0,0.0,0.0,0.0,0.0,0,0,0,0
28544000,0,47.397751199999995,8.5456072,490.725,0.0,0.0,0.0,0.0,0.0,0,0,0,0
28644000,0,47.397751199999995,8.5456072,490.728,0.0,0.0,0.0,0.0,0.0,0,0,0,0
28744000,0,47.397751199999995,8.5456072,490.731,0.0,0.0,0.0,0.0,0.0,0,0,0,0
28844000,0,47.397751199999995,8.5456073,490.735,0.0,0.0,0.0,0.0,0.0,0,0,0,0
28944000,0,47.397751199999995,8.5456073,490.738,0.0,0.0,0.0,0.0,0.0,0,0,0,0
29044000,0,47.397751199999995,8.5456073,490.74,0.0,0.0,0.0,0.0,0.0,0,0,0,0
29144000,0,47.397751199999995,8.5456073,490.743,0.0,0.0,0.0,0.0,0.0,0,0,0,0
29244000,0,47.397751199999995,8.5456074,490.746,0.0,0.0,0.0,0.0,0.0,0,0,0,0
29344000,0,47.397751199999995,8.5456074,490.749,0.0,0.0,0.0,0.0,0.0,0,0,0,0
29444000,0,47.397751199999995,8.5456074,490.751,0.0,0.0,0.0,0.0,0.0,0,0,0,0
29544000,0,47.397751199999995,8.5456074,490.754,0.0,0.0,0.0,0.0,0.0,0,0,0,0
29644000,0,47.397751199999995,8.5456075,490.756,0.0,0.0,0.0,0.0,0.0,0,0,0,0
29744000,0,47.397751199999995,8.5456075,490.758,0.0,0.0,0.0,0.0,0.0,0,0,0,0
29844000,0,47.397751199999995,8.5456075,490.759,0.0,0.0,0.0,0.0,0.0,0,0,0,0
29944000,0,47.397751199999995,8.5456075,490.761,0.0,0.0,0.0,0.0,0.0,0,0,0,0
30044000,0,47.397751199999995,8.5456076,490.764,0.0,0.0,0.0,0.0,0.0,0,0,0,0
30144000,0,47.397751199999995,8.5456076,490.766,0.0,0.0,0.0,0.0,0.0,0,0,0,0
30244000,0,47.397751199999995,8.5456076,490.768,0.0,0.0,0.0,0.0,0.0,0,0,0,0
30344000,0,47.397751199999995,8.5456077,490.771,0.0,0.0,0.0,0.0,0.0,0,0,0,0
30444000,0,47.397751199999995,8.5456077,490.774,0.0,0.0,0.0,0.0,0.0,0,0,0,0
30544000,0,47.397751199999995,8.545607799999999,490.776,0.0,0.0,0.0,0.0,0.0,0,0,0,0
30644000,0,47.397751199999995,8.545607799999999,490.779,0.0,0.0,0.0,0.0,0.0,0,0,0,0
30744000,0,47.3977511,8.545607799999999,490.781,0.0,0.0,0.0,0.0,0.0,0,0,0,0
30844000,0,47.3977511,8.5456079,490.784,0.0,0.0,0.0,0.0,0.0,0,0,0,0
30944000,0,47.3977511,8.5456079,490.787,0.0,0.0,0.0,0.0,0.0,0,0,0,0
31044000,0,47.3977511,8.5456079,490.789,0.0,0.0,0.0,0.0,0.0,0,0,0,0
31144000,0,47.397751,8.545608,490.791,0.0,0.0,0.0,0.0,0.0,0,0,0,0
31244000,0,47.397751,8.545608,490.794,0.0,0.0,0.0,0.0,0.0,0,0,0,0
31344000,0,47.397751,8.545608,490.796,0.0,0.0,0.0,0.0,0.0,0,0,0,0
31444000,0,47.397751,8.545608099999999,490.797,0.0,0.0,0.0,0.0,0.0,0,0,0,0
31544000,0,47.3977509,8.545608099999999,490.798,0.0,0.0,0.0,0.0,0.0,0,0,0,0
31644000,0,47.3977509,8.545608099999999,490.799,0.0,0.0,0.0,0.0,0.0,0,0,0,0
31744000,0,47.3977509,8.5456082,490.799,0.0,0.0,0.0,0.0,0.0,0,0,0,0
31844000,0,47.3977509,8.5456082,490.8,0.0,0.0,0.0,0.0,0.0,0,0,0,0
31944000,0,47.3977508,8.5456083,490.8,0.0,0.0,0.0,0.0,0.0,0,0,0,0
32044000,0,47.3977508,8.5456083,490.801,0.0,0.0,0.0,0.0,0.0,0,0,0,0
32144000,0,47.3977508,8.5456083,490.801,0.0,0.0,0.0,0.0,0.0,0,0,0,0
32244000,0,47.397750699999996,8.5456083,490.801,0.0,0.0,0.0,0.0,0.0,0,0,0,0
32344000,0,47.397750699999996,8.545608399999999,490.802,0.0,0.0,0.0,0.0,0.0,0,0,0,0
32444000,0,47.397750699999996,8.545608399999999,490.802,0.0,0.0,0.0,0.0,0.0,0,0,0,0
32544000,0,47.397750699999996,8.545608399999999,490.803,0.0,0.0,0.0,0.0,0.0,0,0,0,0
32644000,0,47.397750699999996,8.545608399999999,490.803,0.0,0.0,0.0,0.0,0.0,0,0,0,0
32744000,0,47.397750599999995,8.545608399999999,490.803,0.0,0.0,0.0,0.0,0.0,0,0,0,0
32844000,0,47.397750599999995,8.545608399999999,490.804,0.0,0.0,0.0,0.0,0.0,0,0,0,0
32944000,0,47.397750599999995,8.5456085,490.804,0.0,0.0,0.0,0.0,0.0,0,0,0,0
33044000,0,47.397750599999995,8.5456085,490.805,0.0,0.0,0.0,0.0,0.0,0,0,0,0
33144000,0,47.397750599999995,8.5456085,490.805,0.0,0.0,0.0,0.0,0.0,0,0,0,0
33244000,0,47.397750599999995,8.5456085,490.805,0.0,0.0,0.0,0.0,0.0,0,0,0,0
33344000,0,47.3977505,8.5456085,490.805,0.0,0.0,0.0,0.0,0.0,0,0,0,0
33444000,0,47.3977505,8.545608399999999,490.805,0.0,0.0,0.0,0.0,0.0,0,0,0,0
33544000,0,47.3977505,8.545608399999999,490.806,0.0,0.0,0.0,0.0,0.0,0,0,0,0
33644000,0,47.3977505,8.545608399999999,490.806,0.0,0.0,0.0,0.0,0.0,0,0,0,0
33744000,0,47.3977505,8.545608399999999,490.806,0.0,0.0,0.0,0.0,0.0,0,0,0,0
33844000,0,47.3977504,8.545608399999999,490.806,0.0,0.0,0.0,0.0,0.0,0,0,0,0
33944000,0,47.3977504,8.545608399999999,490.806,0.0,0.0,0.0,0.0,0.0,0,0,0,0
34044000,0,47.3977504,8.545608399999999,490.805,0.0,0.0,0.0,0.0,0.0,0,0,0,0
34144000,0,47.3977504,8.545608399999999,490.805,0.0,0.0,0.0,0.0,0.0,0,0,0,0
34244000,0,47.3977504,8.545608399999999,490.803,0.0,0.0,0.0,0.0,0.0,0,0,0,0
34344000,0,47.3977504,8.5456083,490.801,0.0,0.0,0.0,0.0,0.0,0,0,0,0
34444000,0,47.3977503,8.5456083,490.799,0.0,0.0,0.0,0.0,0.0,0,0,0,0
34544000,0,47.3977503,8.5456083,490.796,0.0,0.0,0.0,0.0,0.0,0,0,0,0
34644000,0,47.3977503,8.5456083,490.793,0.0,0.0,0.0,0.0,0.0,0,0,0,0
34744000,0,47.3977503,8.5456083,490.786,0.0,0.0,0.0,0.0,0.0,0,0,0,0
34844000,0,47.3977503,8.5456083,490.768,0.0,0.0,0.0,0.0,0.0,0,0,0,0
34944000,0,47.3977503,8.5456083,490.734,0.0,0.0,0.0,0.0,0.0,0,0,0,0
35044000,0,47.3977502,8.5456083,490.683,0.0,0.0,0.0,0.0,0.0,0,0,0,0
35144000,0,47.3977502,8.5456083,490.611,0.0,0.0,0.0,0.0,0.0,0,0,0,0
35244000,0,47.3977502,8.545608399999999,490.528,0.0,0.0,0.0,0.0,0.0,0,0,0,0
35344000,0,47.3977502,8.545608399999999,490.446,0.0,0.0,0.0,0.0,0.0,0,0,0,0
35444000,0,47.3977502,8.545608399999999,490.367,0.0,0.0,0.0,0.0,0.0,0,0,0,0
35544000,0,47.3977502,8.5456085,490.295,0.0,0.0,0.0,0.0,0.0,0,0,0,0
35644000,0,47.397750099999996,8.5456085,490.226,0.0,0.0,0.0,0.0,0.0,0,0,0,0
35744000,0,47.397750099999996,8.5456086,490.159,0.0,0.0,0.0,0.0,0.0,0,0,0,0
35844000,0,47.397750099999996,8.5456086,490.091,0.0,0.0,0.0,0.0,0.0,0,0,0,0
35944000,0,47.397750099999996,8.545608699999999,490.024,0.0,0.0,0.0,0.0,0.0,0,0,0,0
36044000,0,47.397750099999996,8.545608699999999,489.956,0.0,0.0,0.0,0.0,0.0,0,0,0,0
36144000,0,47.397750099999996,8.5456088,489.89,0.0,0.0,0.0,0.0,0.0,0,0,0,0
36244000,0,47.397750099999996,8.5456088,489.817,0.0,0.0,0.0,0.0,0.0,0,0,0,0
36344000,0,47.397750099999996,8.5456088,489.749,0.0,0.0,0.0,0.0,0.0,0,0,0,0
36444000,0,47.397750099999996,8.5456089,489.676,0.0,0.0,0.0,0.0,0.0,0,0,0,0
36544000,0,47.397749999999995,8.5456089,489.604,0.0,0.0,0.0,0.0,0.0,0,0,0,0
36644000,0,47.397749999999995,8.5456089,489.532,0.0,0.0,0.0,0.0,0.0,0,0,0,0
36744000,0,47.397749999999995,8.545608999999999,489.46,0.0,0.0,0.0,0.0,0.0,0,0,0,0
36844000,0,47.397749999999995,8.545608999999999,489.387,0.0,0.0,0.0,0.0,0.0,0,0,0,0
36944000,0,47.397749999999995,8.545608999999999,489.318,0.0,0.0,0.0,0.0,0.0,0,0,0,0
37044000,0,47.397749999999995,8.545608999999999,489.245,0.0,0.0,0.0,0.0,0.0,0,0,0,0
37144000,0,47.397749999999995,8.545608999999999,489.173,0.0,0.0,0.0,0.0,0.0,0,0,0,0
37244000,0,47.397749999999995,8.545608999999999,489.1,0.0,0.0,0.0,0.0,0.0,0,0,0,0
37344000,0,47.397749999999995,8.545608999999999,489.025,0.0,0.0,0.0,0.0,0.0,0,0,0,0
37444000,0,47.397749999999995,8.545608999999999,488.953,0.0,0.0,0.0,0.0,0.0,0,0,0,0
37544000,0,47.397749999999995,8.545608999999999,488.881,0.0,0.0,0.0,0.0,0.0,0,0,0,0
37644000,0,47.397749999999995,8.545608999999999,488.809,0.0,0.0,0.0,0.0,0.0,0,0,0,0
37744000,0,47.397749999999995,8.545608999999999,488.74,0.0,0.0,0.0,0.0,0.0,0,0,0,0
37844000,0,47.397749999999995,8.545608999999999,488.665,0.0,0.0,0.0,0.0,0.0,0,0,0,0
37944000,0,47.397749999999995,8.545608999999999,488.597,0.0,0.0,0.0,0.0,0.0,0,0,0,0
38044000,0,47.397749999999995,8.545608999999999,488.525,0.0,0.0,0.0,0.0,0.0,0,0,0,0
38144000,0,47.397749999999995,8.545608999999999,488.454,0.0,0.0,0.0,0.0,0.0,0,0,0,0
38244000,0,47.397749999999995,8.5456089,488.38,0.0,0.0,0.0,0.0,0.0,0,0,0,0
38344000,0,47.397749999999995,8.5456089,488.309,0.0,0.0,0.0,0.0,0.0,0,0,0,0
38444000,0,47.397749999999995,8.5456089,488.239,0.0,0.0,0.0,0.0,0.0,0,0,0,0
38544000,0,47.397749999999995,8.5456089,488.171,0.0,0.0,0.0,0.0,0.0,0,0,0,0
38644000,0,47.397749999999995,8.5456089,488.104,0.0,0.0,0.0,0.0,0.0,0,0,0,0
38744000,0,47.397749999999995,8.5456089,488.115,0.0,0.0,0.0,0.0,0.0,0,0,0,0
38844000,0,47.397749999999995,8.5456089,488.161,0.0,0.0,0.0,0.0,0.0,0,0,0,0
38944000,0,47.397750099999996,8.5456089,488.222,0.0,0.0,0.0,0.0,0.0,0,0,0,0
39044000,0,47.397750099999996,8.5456088,488.285,0.0,0.0,0.0,0.0,0.0,0,0,0,0
39144000,0,47.397750099999996,8.5456088,488.352,0.0,0.0,0.0,0.0,0.0,0,0,0,0
39244000,0,47.397750099999996,8.5456088,488.415,0.0,0.0,0.0,0.0,0.0,0,0,0,0
39344000,0,47.397750099999996,8.5456088,488.47,0.0,0.0,0.0,0.0,0.0,0,0,0,0
39444000,0,47.397750099999996,8.5456088,488.518,0.0,0.0,0.0,0.0,0.0,0,0,0,0
39544000,0,47.397750099999996,8.5456088,488.559,0.0,0.0,0.0,0.0,0.0,0,0,0,0
39644000,0,47.397750099999996,8.545608699999999,488.593,0.0,0.0,0.0,0.0,0.0,0,0,0,0
39744000,0,47.397750099999996,8.545608699999999,488.62,0.0,0.0,0.0,0.0,0.0,0,0,0,0
39844000,0,47.397750099999996,8.545608699999999,488.638,0.0,0.0,0.0,0.0,0.0,0,0,0,0
39944000,0,47.397750099999996,8.545608699999999,488.649,0.0,0.0,0.0,0.0,0.0,0,0,0,0
40044000,0,47.3977502,8.545608699999999,488.654,0.0,0.0,0.0,0.0,0.0,0,0,0,0
40144000,0,47.3977502,8.5456086,488.652,0.0,0.0,0.0,0.0,0.0,0,0,0,0
40244000,0,47.3977502,8.5456086,488.642,0.0,0.0,0.0,0.0,0.0,0,0,0,0
40344000,0,47.3977502,8.5456086,488.627,0.0,0.0,0.0,0.0,0.0,0,0,0,0
40444000,0,47.3977502,8.5456086,488.608,0.0,0.0,0.0,0.0,0.0,0,0,0,0
40544000,0,47.3977502,8.5456086,488.58,0.0,0.0,0.0,0.0,0.0,0,0,0,0
40644000,0,47.3977503,8.5456085,488.548,0.0,0.0,0.0,0.0,0.0,0,0,0,0
40744000,0,47.3977503,8.5456085,488.513,0.0,0.0,0.0,0.0,0.0,0,0,0,0
40844000,0,47.3977503,8.5456085,488.474,0.0,0.0,0.0,0.0,0.0,0,0,0,0
40944000,0,47.3977503,8.5456085,488.431,0.0,0.0,0.0,0.0,0.0,0,0,0,0
41044000,0,47.3977504,8.545608399999999,488.383,0.0,0.0,0.0,0.0,0.0,0,0,0,0
41144000,0,47.3977504,8.545608399999999,488.33,0.0,0.0,0.0,0.0,0.0,0,0,0,0
41244000,0,47.3977504,8.545608399999999,488.278,0.0,0.0,0.0,0.0,0.0,0,0,0,0
41344000,0,47.3977505,8.5456083,488.221,0.0,0.0,0.0,0.0,0.0,0,0,0,0
41444000,0,47.3977505,8.5456083,488.161,0.0,0.0,0.0,0.0,0.0,0,0,0,0
41544000,0,47.3977505,8.5456083,488.103,0.0,0.0,0.0,0.0,0.0,0,0,0,0
41644000,0,47.3977505,8.5456083,488.104,0.0,0.0,0.0,0.0,0.0,0,0,0,0
41744000,0,47.3977505,8.5456083,488.104,0.0,0.0,0.0,0.0,0.0,0,0,0,0
41844000,0,47.3977505,8.5456083,488.104,0.0,0.0,0.0,0.0,0.0,0,0,0,0
41944000,0,47.3977505,8.5456083,488.104,0.0,0.0,0.0,0.0,0.0,0,0,0,0
42044000,0,47.3977505,8.5456083,488.104,0.0,0.0,0.0,0.0,0.0,0,0,0,0
42144000,0,47.3977505,8.5456083,488.104,0.0,0.0,0.0,0.0,0.0,0,0,0,0
42244000,0,47.3977505,8.5456083,488.104,0.0,0.0,0.0,0.0,0.0,0,0,0,0
42344000,0,47.3977505,8.5456083,488.104,0.0,0.0,0.0,0.0,0.0,0,0,0,0
42444000,0,47.3977505,8.5456083,488.104,0.0,0.0,0.0,0.0,0.0,0,0,0,0
42544000,0,47.3977505,8.5456083,488.104,0.0,0.0,0.0,0.0,0.0,0,0,0,0
42644000,0,47.3977505,8.5456083,488.104,0.0,0.0,0.0,0.0,0.0,0,0,0,0
42744000,0,47.3977505,8.5456083,488.104,0.0,0.0,0.0,0.0,0.0,0,0,0,0
42844000,0,47.3977505,8.5456083,488.104,0.0,0.0,0.0,0.0,0.0,0,0,0,0
42944000,0,47.3977505,8.5456083,488.104,0.0,0.0,0.0,0.0,0.0,0,0,0,0
43044000,0,47.3977505,8.5456083,488.104,0.0,0.0,0.0,0.0,0.0,0,0,0,0
43144000,0,47.3977505,8.5456083,488.104,0.0,0.0,0.0,0.0,0.0,0,0,0,0
43244000,0,47.3977505,8.5456083,488.104,0.0,0.0,0.0,0.0,0.0,0,0,0,0
43344000,0,47.3977505,8.5456083,488.104,0.0,0.0,0.0,0.0,0.0,0,0,0,0
43444000,0,47.3977505,8.5456083,488.104,0.0,0.0,0.0,0.0,0.0,0,0,0,0
43544000,0,47.3977505,8.5456083,488.104,0.0,0.0,0.0,0.0,0.0,0,0,0,0
43644000,0,47.3977505,8.5456083,488.104,0.0,0.0,0.0,0.0,0.0,0,0,0,0
43744000,0,47.3977505,8.5456083,488.104,0.0,0.0,0.0,0.0,0.0,0,0,0,0
43844000,0,47.3977505,8.5456083,488.104,0.0,0.0,0.0,0.0,0.0,0,0,0,0
43944000,0,47.3977505,8.5456083,488.104,0.0,0.0,0.0,0.0,0.0,0,0,0,0
44044000,0,47.3977505,8.5456083,488.104,0.0,0.0,0.0,0.0,0.0,0,0,0,0
44144000,0,47.3977505,8.5456083,488.104,0.0,0.0,0.0,0.0,0.0,0,0,0,0
44244000,0,47.3977505,8.5456083,488.104,0.0,0.0,0.0,0.0,0.0,0,0,0,0
44344000,0,47.3977505,8.5456083,488.104,0.0,0.0,0.0,0.0,0.0,0,0,0,0
44444000,0,47.3977505,8.5456083,488.104,0.0,0.0,0.0,0.0,0.0,0,0,0,0
44544000,0,47.3977505,8.5456083,488.104,0.0,0.0,0.0,0.0,0.0,0,0,0,0
44644000,0,47.3977505,8.5456083,488.104,0.0,0.0,0.0,0.0,0.0,0,0,0,0
44744000,0,47.3977505,8.5456083,488.104,0.0,0.0,0.0,0.0,0.0,0,0,0,0
44844000,0,47.3977505,8.5456083,488.104,0.0,0.0,0.0,0.0,0.0,0,0,0,0
44944000,0,47.3977505,8.5456083,488.104,0.0,0.0,0.0,0.0,0.0,0,0,0,0
45044000,0,47.3977505,8.5456083,488.104,0.0,0.0,0.0,0.0,0.0,0,0,0,0
45144000,0,47.3977505,8.5456083,488.104,0.0,0.0,0.0,0.0,0.0,0,0,0,0
45244000,0,47.3977505,8.5456083,488.104,0.0,0.0,0.0,0.0,0.0,0,0,0,0
45344000,0,47.3977505,8.5456083,488.104,0.0,0.0,0.0,0.0,0.0,0,0,0,0
45444000,0,47.3977505,8.5456083,488.104,0.0,0.0,0.0,0.0,0.0,0,0,0,0
45544000,0,47.3977505,8.5456083,488.104,0.0,0.0,0.0,0.0,0.0,0,0,0,0
45644000,0,47.3977505,8.5456083,488.104,0.0,0.0,0.0,0.0,0.0,0,0,0,0
45744000,0,47.3977505,8.5456083,488.104,0.0,0.0,0.0,0.0,0.0,0,0,0,0
45844000,0,47.3977505,8.5456083,488.104,0.0,0.0,0.0,0.0,0.0,0,0,0,0
45944000,0,47.3977505,8.5456083,488.104,0.0,0.0,0.0,0.0,0.0,0,0,0,0
46044000,0,47.3977505,8.5456083,488.104,0.0,0.0,0.0,0.0,0.0,0,0,0,0
46144000,0,47.3977505,8.5456083,488.104,0.0,0.0,0.0,0.0,0.0,0,0,0,0
46244000,0,47.3977505,8.5456083,488.104,0.0,0.0,0.0,0.0,0.0,0,0,0,0
46344000,0,47.3977505,8.5456083,488.104,0.0,0.0,0.0,0.0,0.0,0,0,0,0
46444000,0,47.3977505,8.5456083,488.104,0.0,0.0,0.0,0.0,0.0,0,0,0,0
46544000,0,47.3977505,8.5456083,488.104,0.0,0.0,0.0,0.0,0.0,0,0,0,0
46644000,0,47.3977505,8.5456083,488.104,0.0,0.0,0.0,0.0,0.0,0,0,0,0
46744000,0,47.3977505,8.5456083,488.104,0.0,0.0,0.0,0.0,0.0,0,0,0,0
46844000,0,47.3977505,8.5456083,488.104,0.0,0.0,0.0,0.0,0.0,0,0,0,0
46944000,0,47.3977505,8.5456083,488.104,0.0,0.0,0.0,0.0,0.0,0,0,0,0
47044000,0,47.3977505,8.5456083,488.104,0.0,0.0,0.0,0.0,0.0,0,0,0,0
47144000,0,47.3977505,8.5456083,488.104,0.0,0.0,0.0,0.0,0.0,0,0,0,0
47244000,0,47.3977505,8.5456083,488.104,0.0,0.0,0.0,0.0,0.0,0,0,0,0
47344000,0,47.3977505,8.5456083,488.104,0.0,0.0,0.0,0.0,0.0,0,0,0,0
47444000,0,47.3977505,8.5456083,488.104,0.0,0.0,0.0,0.0,0.0,0,0,0,0
47544000,0,47.3977505,8.5456083,488.104,0.0,0.0,0.0,0.0,0.0,0,0,0,0
47644000,0,47.3977505,8.5456083,488.104,0.0,0.0,0.0,0.0,0.0,0,0,0,0
47744000,0,47.3977505,8.5456083,488.104,0.0,0.0,0.0,0.0,0.0,0,0,0,0
47844000,0,47.3977505,8.5456083,488.104,0.0,0.0,0.0,0.0,0.0,0,0,0,0
47944000,0,47.3977505,8.5456083,488.104,0.0,0.0,0.0,0.0,0.0,0,0,0,0
48044000,0,47.3977505,8.5456083,488.104,0.0,0.0,0.0,0.0,0.0,0,0,0,0
48144000,0,47.3977505,8.5456083,488.104,0.0,0.0,0.0,0.0,0.0,0,0,0,0
48244000,0,47.3977505,8.5456083,488.104,0.0,0.0,0.0,0.0,0.0,0,0,0,0
48344000,0,47.3977505,8.5456083,488.104,0.0,0.0,0.0,0.0,0.0,0,0,0,0
48444000,0,47.3977505,8.5456083,488.104,0.0,0.0,0.0,0.0,0.0,0,0,0,0
48544000,0,47.3977505,8.5456083,488.104,0.0,0.0,0.0,0.0,0.0,0,0,0,0
48644000,0,47.3977505,8.5456083,488.104,0.0,0.0,0.0,0.0,0.0,0,0,0,0
48744000,0,47.3977505,8.5456083,488.104,0.0,0.0,0.0,0.0,0.0,0,0,0,0
48844000,0,47.3977505,8.5456083,488.104,0.0,0.0,0.0,0.0,0.0,0,0,0,0
48944000,0,47.3977505,8.5456083,488.104,0.0,0.0,0.0,0.0,0.0,0,0,0,0
49044000,0,47.3977505,8.5456083,488.104,0.0,0.0,0.0,0.0,0.0,0,0,0,0
49144000,0,47.3977505,8.5456083,488.104,0.0,0.0,0.0,0.0,0.0,0,0,0,0
49244000,0,47.3977505,8.5456083,488.104,0.0,0.0,0.0,0.0,0.0,0,0,0,0
49344000,0,47.3977505,8.5456083,488.104,0.0,0.0,0.0,0.0,0.0,0,0,0,0
