timestamp,timestamp_sample,yaw_composite,yaw_variance,yaw[0],yaw[1],yaw[2],yaw[3],yaw[4],innov_vn[0],innov_vn[1],innov_vn[2],innov_vn[3],innov_vn[4],innov_ve[0],innov_ve[1],innov_ve[2],innov_ve[3],innov_ve[4],weight[0],weight[1],weight[2],weight[3],weight[4],yaw_composite_valid
15500000,15420000,2.6779451,3.5801747,-2.5132742,-1.2566371,0.0,1.2566371,2.5132742,0.0,0.0,0.0,0.0,0.0,0.0,0.0,0.0,0.0,0.0,0.2,0.2,0.2,0.2,0.2,0
15508000,15428000,2.3561945,3.577728,-2.5132895,-1.2566524,-1.519564e-05,1.2566218,2.513259,0.0,0.0,0.0,0.0,0.0,0.0,0.0,0.0,0.0,0.0,0.2,0.2,0.2,0.2,0.2,0
15516000,15436000,2.6779451,3.5801764,-2.513276,-1.256639,-1.86174e-06,1.2566352,2.5132723,0.0,0.0,0.0,0.0,0.0,0.0,0.0,0.0,0.0,0.0,0.2,0.2,0.2,0.2,0.2,0
15524000,15444000,2.8501358,3.666541,-2.5132833,-1.2566459,-8.843234e-06,1.2566283,2.5132654,0.0,0.0,0.0,0.0,0.0,0.0,0.0,0.0,0.0,0.0,0.2,0.2,0.2,0.2,0.2,0
15532000,15452000,3.1415927,3.9478445,-2.5132742,-1.2566369,1.8663404e-07,1.2566372,2.5132744,0.0,0.0,0.0,0.0,0.0,0.0,0.0,0.0,0.0,0.0,0.2,0.2,0.2,0.2,0.2,0
15540000,15460000,-2.6779451,3.5801835,-2.5132556,-1.2566184,1.8668481e-05,1.2566557,2.513293,0.0,0.0,0.0,0.0,0.0,0.0,0.0,0.0,0.0,0.0,0.2,0.2,0.2,0.2,0.2,0
15548000,15468000,2.976444,3.7675798,-2.5132658,-1.2566286,8.487335e-06,1.2566456,2.5132828,0.0,0.0,0.0,0.0,0.0,0.0,0.0,0.0,0.0,0.0,0.2,0.2,0.2,0.2,0.2,0
15556000,15476000,-2.0899425,3.7322679,-2.5132697,-1.2566324,4.6101013e-06,1.2566416,2.513279,0.0,0.0,0.0,0.0,0.0,0.0,0.0,0.0,0.0,0.0,0.2,0.2,0.2,0.2,0.2,0
15564000,15484000,-2.6779451,3.580182,-2.5132666,-1.2566295,7.5892312e-06,1.2566447,2.5132818,0.0,0.0,0.0,0.0,0.0,0.0,0.0,0.0,0.0,0.0,0.2,0.2,0.2,0.2,0.2,0
15572000,15492000,2.6779451,3.5801737,-2.5132558,-1.2566185,1.8529729e-05,1.2566556,2.5132928,0.0,0.0,0.0,0.0,0.0,0.0,0.0,0.0,0.0,0.0,0.2,0.2,0.2,0.2,0.2,0
15580000,15500000,2.976444,3.7675796,-2.5132623,-1.256625,1.2008222e-05,1.256649,2.5132864,0.0,0.0,0.0,0.0,0.0,0.0,0.0,0.0,0.0,0.0,0.2,0.2,0.2,0.2,0.2,0
15588000,15508000,-2.3561945,3.5777354,-2.5132632,-1.2566261,1.0936192e-05,1.2566481,2.5132852,0.0,0.0,0.0,0.0,0.0,0.0,0.0,0.0,0.0,0.0,0.2,0.2,0.2,0.2,0.2,0
15596000,15516000,-2.896614,3.7000325,-2.5132513,-1.2566141,2.2977632e-05,1.25666,2.5132973,0.0,0.0,0.0,0.0,0.0,0.0,0.0,0.0,0.0,0.0,0.2,0.2,0.2,0.2,0.2,0
15604000,15524000,-3.0584514,3.850328,-2.5132341,-1.2565968,4.0298888e-05,1.2566774,2.5133147,0.0,0.0,0.0,0.0,0.0,0.0,0.0,0.0,0.0,0.0,0.2,0.2,0.2,0.2,0.2,0
15612000,15532000,-2.6779451,3.580196,-2.5132363,-1.2565991,3.803296e-05,1.256675,2.5133123,0.0,0.0,0.0,0.0,0.0,0.0,0.0,0.0,0.0,0.0,0.2,0.2,0.2,0.2,0.2,0
15620000,15540000,3.1415927,3.9478183,-2.513248,-1.2566108,2.6395268e-05,1.2566634,2.5133007,0.0,0.0,0.0,0.0,0.0,0.0,0.0,0.0,0.0,0.0,0.2,0.2,0.2,0.2,0.2,0
15628000,15548000,3.1415927,3.94781,-2.513241,-1.2566038,3.3287517e-05,1.2566704,2.5133076,0.0,0.0,0.0,0.0,0.0,0.0,0.0,0.0,0.0,0.0,0.2,0.2,0.2,0.2,0.2,0
15636000,15556000,3.1415927,3.947805,-2.5132363,-1.2565991,3.8050646e-05,1.2566751,2.5133123,0.0,0.0,0.0,0.0,0.0,0.0,0.0,0.0,0.0,0.0,0.2,0.2,0.2,0.2,0.2,0
15644000,15564000,3.1415927,3.9478116,-2.513241,-1.2566038,3.323417e-05,1.2566702,2.5133076,0.0,0.0,0.0,0.0,0.0,0.0,0.0,0.0,0.0,0.0,0.2,0.2,0.2,0.2,0.2,0
15652000,15572000,-2.4227626,3.5612597,-2.513263,-1.2566259,1.1241942e-05,1.2566483,2.5132856,0.0,0.0,0.0,0.0,0.0,0.0,0.0,0.0,0.0,0.0,0.2,0.2,0.2,0.2,0.2,0
15660000,15580000,2.976444,3.7675867,-2.5132637,-1.2566265,1.0625048e-05,1.2566477,2.513285,0.0,0.0,0.0,0.0,0.0,0.0,0.0,0.0,0.0,0.0,0.2,0.2,0.2,0.2,0.2,0
15668000,15588000,2.55359,3.5546935,-2.5132418,-1.2566044,3.2590753e-05,1.2566696,2.5133069,0.0,0.0,0.0,0.0,0.0,0.0,0.0,0.0,0.0,0.0,0.2,0.2,0.2,0.2,0.2,0
15676000,15596000,2.4468544,3.5574863,-2.51325,-1.2566128,2.4264808e-05,1.2566613,2.5132985,0.0,0.0,0.0,0.0,0.0,0.0,0.0,0.0,0.0,0.0,0.2,0.2,0.2,0.2,0.2,0
15684000,15604000,2.158799,3.6787527,-2.5132353,-1.256598,3.902497e-05,1.2566761,2.5133133,0.0,0.0,0.0,0.0,0.0,0.0,0.0,0.0,0.0,0.0,0.2,0.2,0.2,0.2,0.2,0
15692000,15612000,-2.6779451,3.580203,-2.5132325,-1.2565954,4.1780586e-05,1.2566788,2.5133162,0.0,0.0,0.0,0.0,0.0,0.0,0.0,0.0,0.0,0.0,0.2,0.2,0.2,0.2,0.2,0
15700000,15620000,3.0172377,3.807022,-2.5132442,-1.2566069,3.0172258e-05,1.2566673,2.5133045,0.0,0.0,0.0,0.0,0.0,0.0,0.0,0.0,0.0,0.0,0.2,0.2,0.2,0.2,0.2,0
15708000,15628000,2.896614,3.7000003,-2.5132444,-1.256607,2.9980558e-05,1.2566671,2.5133042,0.0,0.0,0.0,0.0,0.0,0.0,0.0,0.0,0.0,0.0,0.2,0.2,0.2,0.2,0.2,0
15716000,15636000,2.896614,3.69999,-2.5132298,-1.2565928,4.437803e-05,1.2566814,2.5133185,0.0,0.0,0.0,0.0,0.0,0.0,0.0,0.0,0.0,0.0,0.2,0.2,0.2,0.2,0.2,0
15724000,15644000,2.782822,3.6257098,-2.5132341,-1.2565968,4.021471e-05,1.2566774,2.5133145,0.0,0.0,0.0,0.0,0.0,0.0,0.0,0.0,0.0,0.0,0.2,0.2,0.2,0.2,0.2,0
15732000,15652000,2.6779451,3.5801878,-2.5132592,-1.2566218,1.5155207e-05,1.2566522,2.5132895,0.0,0.0,0.0,0.0,0.0,0.0,0.0,0.0,0.0,0.0,0.2,0.2,0.2,0.2,0.2,0
15740000,15660000,2.896614,3.700021,-2.513268,-1.2566309,6.271636e-06,1.2566434,2.5132804,0.0,0.0,0.0,0.0,0.0,0.0,0.0,0.0,0.0,0.0,0.2,0.2,0.2,0.2,0.2,0
15748000,15668000,2.3561945,3.5777545,-2.5132651,-1.256628,9.097687e-06,1.2566462,2.5132833,0.0,0.0,0.0,0.0,0.0,0.0,0.0,0.0,0.0,0.0,0.2,0.2,0.2,0.2,0.2,0
15756000,15676000,2.819842,3.647061,-2.5132735,-1.2566363,8.591823e-07,1.256638,2.5132751,0.0,0.0,0.0,0.0,0.0,0.0,0.0,0.0,0.0,0.0,0.2,0.2,0.2,0.2,0.2,0
15764000,15684000,2.3561945,3.5777533,-2.5132732,-1.2566361,9.818416e-07,1.256638,2.5132751,0.0,0.0,0.0,0.0,0.0,0.0,0.0,0.0,0.0,0.0,0.2,0.2,0.2,0.2,0.2,0
15772000,15692000,2.896614,3.700026,-2.5132713,-1.2566341,2.9833036e-06,1.2566401,2.5132773,0.0,0.0,0.0,0.0,0.0,0.0,0.0,0.0,0.0,0.0,0.2,0.2,0.2,0.2,0.2,0
15780000,15700000,2.976444,3.7676096,-2.5132787,-1.2566414,-4.3104387e-06,1.2566328,2.51327,0.0,0.0,0.0,0.0,0.0,0.0,0.0,0.0,0.0,0.0,0.2,0.2,0.2,0.2,0.2,0
15788000,15708000,2.976444,3.7675953,-2.5132623,-1.2566249,1.2106125e-05,1.2566493,2.5132864,0.0,0.0,0.0,0.0,0.0,0.0,0.0,0.0,0.0,0.0,0.2,0.2,0.2,0.2,0.2,0
15796000,15716000,-2.6779451,3.5802066,-2.5132475,-1.2566103,2.6835944e-05,1.2566639,2.5133011,0.0,0.0,0.0,0.0,0.0,0.0,0.0,0.0,0.0,0.0,0.2,0.2,0.2,0.2,0.2,0
15804000,15724000,3.1415927,3.9478157,-2.5132344,-1.256597,4.000422e-05,1.2566772,2.5133142,0.0,0.0,0.0,0.0,0.0,0.0,0.0,0.0,0.0,0.0,0.2,0.2,0.2,0.2,0.2,0
15812000,15732000,2.5829935,3.5579386,-2.5132422,-1.2566049,3.2165342e-05,1.2566693,2.5133064,0.0,0.0,0.0,0.0,0.0,0.0,0.0,0.0,0.0,0.0,0.2,0.2,0.2,0.2,0.2,0
15820000,15740000,2.4227626,3.5612757,-2.5132725,-1.2566352,1.9259671e-06,1.256639,2.513276,0.0,0.0,0.0,0.0,0.0,0.0,0.0,0.0,0.0,0.0,0.2,0.2,0.2,0.2,0.2,0
15828000,15748000,2.4227626,3.5612757,-2.5132751,-1.2566378,-7.1328344e-07,1.2566364,2.5132735,0.0,0.0,0.0,0.0,0.0,0.0,0.0,0.0,0.0,0.0,0.2,0.2,0.2,0.2,0.2,0
15836000,15756000,2.896614,3.700021,-2.513258,-1.2566208,1.6345954e-05,1.2566534,2.5132906,0.0,0.0,0.0,0.0,0.0,0.0,0.0,0.0,0.0,0.0,0.2,0.2,0.2,0.2,0.2,0
15844000,15764000,2.2794228,3.6077828,-2.513249,-1.2566116,2.54995e-05,1.2566626,2.5132997,0.0,0.0,0.0,0.0,0.0,0.0,0.0,0.0,0.0,0.0,0.2,0.2,0.2,0.2,0.2,0
15852000,15772000,2.4980917,3.5533168,-2.5132487,-1.2566113,2.572552e-05,1.2566628,2.5133,0.0,0.0,0.0,0.0,0.0,0.0,0.0,0.0,0.0,0.0,0.2,0.2,0.2,0.2,0.2,0
15860000,15780000,2.6779451,3.580192,-2.5132434,-1.2566061,3.0988616e-05,1.2566681,2.5133052,0.0,0.0,0.0,0.0,0.0,0.0,0.0,0.0,0.0,0.0,0.2,0.2,0.2,0.2,0.2,0
15868000,15788000,2.158799,3.678763,-2.5132408,-1.2566035,3.362955e-05,1.2566707,2.5133078,0.0,0.0,0.0,0.0,0.0,0.0,0.0,0.0,0.0,0.0,0.2,0.2,0.2,0.2,0.2,0
15876000,15796000,2.4980917,3.5533185,-2.5132444,-1.256607,3.0082594e-05,1.2566671,2.5133042,0.0,0.0,0.0,0.0,0.0,0.0,0.0,0.0,0.0,0.0,0.2,0.2,0.2,0.2,0.2,0
15884000,15804000,2.782822,3.6257145,-2.5132198,-1.2565826,5.4504297e-05,1.2566916,2.5133288,0.0,0.0,0.0,0.0,0.0,0.0,0.0,0.0,0.0,0.0,0.2,0.2,0.2,0.2,0.2,0
15892000,15812000,2.4468544,3.5575092,-2.5132048,-1.2565676,6.95468e-05,1.2567066,2.5133438,0.0,0.0,0.0,0.0,0.0,0.0,0.0,0.0,0.0,0.0,0.2,0.2,0.2,0.2,0.2,0
15900000,15820000,1.0010349,3.5955267,-2.5140994,-1.2546886,0.0021160136,1.2560834,2.510903,-0.08828367,-0.001587366,0.07348294,0.03318269,-0.06679463,-0.04428148,-0.095045775,-0.028279673,0.06374832,0.053858686,0.1988332,0.19920483,0.20067589,0.20121402,0.20007206,0
15908000,15828000,1.0010264,3.5955272,-2.5141084,-1.2546978,0.0021069772,1.2560743,2.5108938,-0.08828367,-0.001587366,0.07348294,0.03318269,-0.06679463,-0.04428148,-0.095045775,-0.028279673,0.06374832,0.053858686,0.1988332,0.19920483,0.20067589,0.20121402,0.20007206,0
15916000,15836000,1.001049,3.5955253,-2.5140908,-1.2546799,0.0021247205,1.2560921,2.5109117,-0.08828367,-0.001587366,0.07348294,0.03318269,-0.06679463,-0.04428148,-0.095045775,-0.028279673,0.06374832,0.053858686,0.1988332,0.19920483,0.20067589,0.20121402,0.20007206,0
15924000,15844000,1.0010558,3.5955243,-2.5140877,-1.2546769,0.0021278001,1.2560952,2.5109148,-0.08828367,-0.001587366,0.07348294,0.03318269,-0.06679463,-0.04428148,-0.095045775,-0.028279673,0.06374832,0.053858686,0.1988332,0.19920483,0.20067589,0.20121402,0.20007206,0
15932000,15852000,1.0010397,3.5955334,-2.5140877,-1.254677,0.0021276048,1.2560949,2.5109146,-0.08828367,-0.001587366,0.07348294,0.03318269,-0.06679463,-0.04428148,-0.095045775,-0.028279673,0.06374832,0.053858686,0.1988332,0.19920483,0.20067589,0.20121402,0.20007206,0
15940000,15860000,1.0010462,3.5955286,-2.5140908,-1.2546802,0.0021245396,1.2560918,2.5109115,-0.08828367,-0.001587366,0.07348294,0.03318269,-0.06679463,-0.04428148,-0.095045775,-0.028279673,0.06374832,0.053858686,0.1988332,0.19920483,0.20067589,0.20121402,0.20007206,0
15948000,15868000,1.0010226,3.5955331,-2.514107,-1.2546964,0.0021082384,1.2560756,2.5108953,-0.08828367,-0.001587366,0.07348294,0.03318269,-0.06679463,-0.04428148,-0.095045775,-0.028279673,0.06374832,0.053858686,0.1988332,0.19920483,0.20067589,0.20121402,0.20007206,0
15956000,15876000,1.0010283,3.595534,-2.5141008,-1.2546902,0.0021145097,1.2560818,2.5109015,-0.08828367,-0.001587366,0.07348294,0.03318269,-0.06679463,-0.04428148,-0.095045775,-0.028279673,0.06374832,0.053858686,0.1988332,0.19920483,0.20067589,0.20121402,0.20007206,0
15964000,15884000,1.0010244,3.5955296,-2.5141149,-1.2547042,0.0021005124,1.2560679,2.5108874,-0.08828367,-0.001587366,0.07348294,0.03318269,-0.06679463,-0.04428148,-0.095045775,-0.028279673,0.06374832,0.053858686,0.1988332,0.19920483,0.20067589,0.20121402,0.20007206,0
15972000,15892000,1.0010046,3.5955362,-2.5141232,-1.2547126,0.002092123,1.2560594,2.510879,-0.08828367,-0.001587366,0.07348294,0.03318269,-0.06679463,-0.04428148,-0.095045775,-0.028279673,0.06374832,0.053858686,0.1988332,0.19920483,0.20067589,0.20121402,0.20007206,0
15980000,15900000,1.001017,3.5955296,-2.5141244,-1.2547137,0.0020910243,1.2560585,2.510878,-0.08828367,-0.001587366,0.07348294,0.03318269,-0.06679463,-0.04428148,-0.095045775,-0.028279673,0.06374832,0.053858686,0.1988332,0.19920483,0.20067589,0.20121402,0.20007206,0
15988000,15908000,1.0010046,3.5955322,-2.514133,-1.2547221,0.0020824713,1.2560499,2.5108695,-0.08828367,-0.001587366,0.07348294,0.03318269,-0.06679463,-0.04428148,-0.095045775,-0.028279673,0.06374832,0.053858686,0.1988332,0.19920483,0.20067589,0.20121402,0.20007206,0
15996000,15916000,1.0009997,3.5955327,-2.5141385,-1.2547276,0.0020769907,1.2560444,2.510864,-0.08828367,-0.001587366,0.07348294,0.03318269,-0.06679463,-0.04428148,-0.095045775,-0.028279673,0.06374832,0.053858686,0.1988332,0.19920483,0.20067589,0.20121402,0.20007206,0
16004000,15924000,1.0010161,3.5955322,-2.5141237,-1.2547129,0.00209178,1.2560592,2.5108788,-0.08828367,-0.001587366,0.07348294,0.03318269,-0.06679463,-0.04428148,-0.095045775,-0.028279673,0.06374832,0.053858686,0.1988332,0.19920483,0.20067589,0.20121402,0.20007206,0
16012000,15932000,1.0010178,3.5955315,-2.5141244,-1.2547135,0.0020911393,1.2560585,2.510878,-0.08828367,-0.001587366,0.07348294,0.03318269,-0.06679463,-0.04428148,-0.095045775,-0.028279673,0.06374832,0.053858686,0.1988332,0.19920483,0.20067589,0.20121402,0.20007206,0
16020000,15940000,1.0010132,3.5955343,-2.5141244,-1.2547138,0.002090939,1.2560583,2.5108778,-0.08828367,-0.001587366,0.07348294,0.03318269,-0.06679463,-0.04428148,-0.095045775,-0.028279673,0.06374832,0.053858686,0.1988332,0.19920483,0.20067589,0.20121402,0.20007206,0
16028000,15948000,1.0009978,3.595534,-2.514142,-1.2547313,0.0020733816,1.2560408,2.5108602,-0.08828367,-0.001587366,0.07348294,0.03318269,-0.06679463,-0.04428148,-0.095045775,-0.028279673,0.06374832,0.053858686,0.1988332,0.19920483,0.20067589,0.20121402,0.20007206,0
16036000,15956000,1.0009903,3.5955362,-2.5141466,-1.2547357,0.0020689212,1.2560363,2.510856,-0.08828367,-0.001587366,0.07348294,0.03318269,-0.06679463,-0.04428148,-0.095045775,-0.028279673,0.06374832,0.053858686,0.1988332,0.19920483,0.20067589,0.20121402,0.20007206,0
16044000,15964000,1.0010026,3.5955327,-2.5141428,-1.254732,0.0020726982,1.2560401,2.5108597,-0.08828367,-0.001587366,0.07348294,0.03318269,-0.06679463,-0.04428148,-0.095045775,-0.028279673,0.06374832,0.053858686,0.1988332,0.19920483,0.20067589,0.20121402,0.20007206,0
16052000,15972000,1.0009968,3.5955377,-2.5141397,-1.2547289,0.002075754,1.2560432,2.5108626,-0.08828367,-0.001587366,0.07348294,0.03318269,-0.06679463,-0.04428148,-0.095045775,-0.028279673,0.06374832,0.053858686,0.1988332,0.19920483,0.20067589,0.20121402,0.20007206,0
16060000,15980000,1.0010129,3.5955374,-2.514125,-1.2547144,0.002090297,1.2560576,2.5108771,-0.08828367,-0.001587366,0.07348294,0.03318269,-0.06679463,-0.04428148,-0.095045775,-0.028279673,0.06374832,0.053858686,0.1988332,0.19920483,0.20067589,0.20121402,0.20007206,0
16068000,15988000,1.0010196,3.595534,-2.5141268,-1.2547162,0.0020886296,1.2560561,2.5108755,-0.08828367,-0.001587366,0.07348294,0.03318269,-0.06679463,-0.04428148,-0.095045775,-0.028279673,0.06374832,0.053858686,0.1988332,0.19920483,0.20067589,0.20121402,0.20007206,0
16076000,15996000,1.001016,3.5955405,-2.5141182,-1.2547076,0.0020971426,1.2560645,2.510884,-0.08828367,-0.001587366,0.07348294,0.03318269,-0.06679463,-0.04428148,-0.095045775,-0.028279673,0.06374832,0.053858686,0.1988332,0.19920483,0.20067589,0.20121402,0.20007206,0
16084000,16004000,1.0010264,3.5955377,-2.5141146,-1.2547039,0.0021008367,1.2560682,2.5108879,-0.08828367,-0.001587366,0.07348294,0.03318269,-0.06679463,-0.04428148,-0.095045775,-0.028279673,0.06374832,0.053858686,0.1988332,0.19920483,0.20067589,0.20121402,0.20007206,0
16092000,16012000,1.001035,3.5955381,-2.5141068,-1.2546961,0.0021086296,1.256076,2.5108957,-0.08828367,-0.001587366,0.07348294,0.03318269,-0.06679463,-0.04428148,-0.095045775,-0.028279673,0.06374832,0.053858686,0.1988332,0.19920483,0.20067589,0.20121402,0.20007206,0
16100000,16020000,1.0010397,3.5955417,-2.5140963,-1.2546856,0.0021190676,1.2560865,2.510906,-0.08828367,-0.001587366,0.07348294,0.03318269,-0.06679463,-0.04428148,-0.095045775,-0.028279673,0.06374832,0.053858686,0.1988332,0.19920483,0.20067589,0.20121402,0.20007206,0
16108000,16028000,1.0010512,3.5955393,-2.5140903,-1.2546796,0.0021251664,1.2560925,2.5109122,-0.08828367,-0.001587366,0.07348294,0.03318269,-0.06679463,-0.04428148,-0.095045775,-0.028279673,0.06374832,0.053858686,0.1988332,0.19920483,0.20067589,0.20121402,0.20007206,0
16116000,16036000,1.0010493,3.5955372,-2.5140982,-1.2546875,0.0021173023,1.2560847,2.5109043,-0.08828367,-0.001587366,0.07348294,0.03318269,-0.06679463,-0.04428148,-0.095045775,-0.028279673,0.06374832,0.053858686,0.1988332,0.19920483,0.20067589,0.20121402,0.20007206,0
16124000,16044000,1.0010369,3.595538,-2.51411,-1.2546993,0.002105456,1.2560729,2.5108924,-0.08828367,-0.001587366,0.07348294,0.03318269,-0.06679463,-0.04428148,-0.095045775,-0.028279673,0.06374832,0.053858686,0.1988332,0.19920483,0.20067589,0.20121402,0.20007206,0
16132000,16052000,1.0010266,3.5955422,-2.5141132,-1.2547026,0.0021022062,1.2560697,2.5108893,-0.08828367,-0.001587366,0.07348294,0.03318269,-0.06679463,-0.04428148,-0.095045775,-0.028279673,0.06374832,0.053858686,0.1988332,0.19920483,0.20067589,0.20121402,0.20007206,0
16140000,16060000,1.0010362,3.5955367,-2.5141153,-1.2547045,0.0021002924,1.2560678,2.5108874,-0.08828367,-0.001587366,0.07348294,0.03318269,-0.06679463,-0.04428148,-0.095045775,-0.028279673,0.06374832,0.053858686,0.1988332,0.19920483,0.20067589,0.20121402,0.20007206,0
16148000,16068000,1.0010227,3.5955403,-2.5141234,-1.2547127,0.0020920716,1.2560595,2.510879,-0.08828367,-0.001587366,0.07348294,0.03318269,-0.06679463,-0.04428148,-0.095045775,-0.028279673,0.06374832,0.053858686,0.1988332,0.19920483,0.20067589,0.20121402,0.20007206,0
16156000,16076000,1.0009998,3.5955405,-2.514147,-1.2547363,0.0020685084,1.2560359,2.5108554,-0.08828367,-0.001587366,0.07348294,0.03318269,-0.06679463,-0.04428148,-0.095045775,-0.028279673,0.06374832,0.053858686,0.1988332,0.19920483,0.20067589,0.20121402,0.20007206,0
16164000,16084000,1.0009648,3.5955448,-2.5141764,-1.2547657,0.00203903,1.2560065,2.510826,-0.08828367,-0.001587366,0.07348294,0.03318269,-0.06679463,-0.04428148,-0.095045775,-0.028279673,0.06374832,0.053858686,0.1988332,0.19920483,0.20067589,0.20121402,0.20007206,0
16172000,16092000,1.0009569,3.5955403,-2.514193,-1.2547823,0.0020224855,1.2559899,2.5108094,-0.08828367,-0.001587366,0.07348294,0.03318269,-0.06679463,-0.04428148,-0.095045775,-0.028279673,0.06374832,0.053858686,0.1988332,0.19920483,0.20067589,0.20121402,0.20007206,0
16180000,16100000,1.0009438,3.5955427,-2.5142026,-1.2547919,0.0020129585,1.2559804,2.5108,-0.08828367,-0.001587366,0.07348294,0.03318269,-0.06679463,-0.04428148,-0.095045775,-0.028279673,0.06374832,0.053858686,0.1988332,0.19920483,0.20067589,0.20121402,0.20007206,0
16188000,16108000,1.0009514,3.5955424,-2.514197,-1.2547865,0.0020183763,1.2559859,2.5108054,-0.08828367,-0.001587366,0.07348294,0.03318269,-0.06679463,-0.04428148,-0.095045775,-0.028279673,0.06374832,0.053858686,0.1988332,0.19920483,0.20067589,0.20121402,0.20007206,0
16196000,16116000,1.0009553,3.5955439,-2.514191,-1.2547804,0.0020244634,1.2559919,2.5108116,-0.08828367,-0.001587366,0.07348294,0.03318269,-0.06679463,-0.04428148,-0.095045775,-0.028279673,0.06374832,0.053858686,0.1988332,0.19920483,0.20067589,0.20121402,0.20007206,0
16204000,16124000,1.000974,3.595543,-2.514176,-1.2547652,0.0020396558,1.2560071,2.5108266,-0.08828367,-0.001587366,0.07348294,0.03318269,-0.06679463,-0.04428148,-0.095045775,-0.028279673,0.06374832,0.053858686,0.1988332,0.19920483,0.20067589,0.20121402,0.20007206,0
16212000,16132000,1.0009714,3.5955415,-2.5141826,-1.254772,0.0020329247,1.2560004,2.51082,-0.08828367,-0.001587366,0.07348294,0.03318269,-0.06679463,-0.04428148,-0.095045775,-0.028279673,0.06374832,0.053858686,0.1988332,0.19920483,0.20067589,0.20121402,0.20007206,0
16220000,16140000,1.000963,3.5955467,-2.5141816,-1.254771,0.0020338031,1.2560012,2.5108209,-0.08828367,-0.001587366,0.07348294,0.03318269,-0.06679463,-0.04428148,-0.095045775,-0.028279673,0.06374832,0.053858686,0.1988332,0.19920483,0.20067589,0.20121402,0.20007206,0
16228000,16148000,1.000961,3.5955462,-2.5141852,-1.2547745,0.0020303442,1.2559978,2.5108173,-0.08828367,-0.001587366,0.07348294,0.03318269,-0.06679463,-0.04428148,-0.095045775,-0.028279673,0.06374832,0.053858686,0.1988332,0.19920483,0.20067589,0.20121402,0.20007206,0
16236000,16156000,1.0009788,3.5955472,-2.5141673,-1.2547566,0.0020482189,1.2560157,2.5108352,-0.08828367,-0.001587366,0.07348294,0.03318269,-0.06679463,-0.04428148,-0.095045775,-0.028279673,0.06374832,0.053858686,0.1988332,0.19920483,0.20067589,0.20121402,0.20007206,0
16244000,16164000,1.0009657,3.5955486,-2.5141788,-1.2547681,0.0020366432,1.2560041,2.5108237,-0.08828367,-0.001587366,0.07348294,0.03318269,-0.06679463,-0.04428148,-0.095045775,-0.028279673,0.06374832,0.053858686,0.1988332,0.19920483,0.20067589,0.20121402,0.20007206,0
16252000,16172000,1.000957,3.5955458,-2.5141947,-1.254784,0.0020208482,1.2559882,2.5108078,-0.08828367,-0.001587366,0.07348294,0.03318269,-0.06679463,-0.04428148,-0.095045775,-0.028279673,0.06374832,0.053858686,0.1988332,0.19920483,0.20067589,0.20121402,0.20007206,0
16260000,16180000,1.0009439,3.5955486,-2.514204,-1.2547934,0.0020113655,1.2559788,2.5107985,-0.08828367,-0.001587366,0.07348294,0.03318269,-0.06679463,-0.04428148,-0.095045775,-0.028279673,0.06374832,0.053858686,0.1988332,0.19920483,0.20067589,0.20121402,0.20007206,0
16268000,16188000,1.0009469,3.59555,-2.5142,-1.2547894,0.002015531,1.2559829,2.5108027,-0.08828367,-0.001587366,0.07348294,0.03318269,-0.06679463,-0.04428148,-0.095045775,-0.028279673,0.06374832,0.053858686,0.1988332,0.19920483,0.20067589,0.20121402,0.20007206,0
16276000,16196000,1.0009335,3.5955534,-2.5142066,-1.254796,0.0020088004,1.2559762,2.5107958,-0.08828367,-0.001587366,0.07348294,0.03318269,-0.06679463,-0.04428148,-0.095045775,-0.028279673,0.06374832,0.053858686,0.1988332,0.19920483,0.20067589,0.20121402,0.20007206,0
16284000,16204000,1.0009308,3.5955515,-2.5142152,-1.2548046,0.0020002497,1.2559676,2.5107875,-0.08828367,-0.001587366,0.07348294,0.03318269,-0.06679463,-0.04428148,-0.095045775,-0.028279673,0.06374832,0.053858686,0.1988332,0.19920483,0.20067589,0.20121402,0.20007206,0
16292000,16212000,1.0009286,3.5955493,-2.5142226,-1.2548119,0.0019929938,1.2559605,2.51078,-0.08828367,-0.001587366,0.07348294,0.03318269,-0.06679463,-0.04428148,-0.095045775,-0.028279673,0.06374832,0.053858686,0.1988332,0.19920483,0.20067589,0.20121402,0.20007206,0
16300000,16220000,1.3231447,3.4891102,-2.517742,-1.2530282,0.0065927277,1.2570108,2.5068157,-0.11648606,0.006738537,0.11407062,0.05756895,-0.08470446,-0.06264027,-0.13580643,-0.041233614,0.089884214,0.07697693,0.197207,0.1969217,0.20088054,0.20364267,0.20134804,0
16308000,16228000,1.3231261,3.4891105,-2.5177584,-1.2530446,0.006576234,1.2569944,2.506799,-0.11648606,0.006738537,0.11407062,0.05756895,-0.08470446,-0.06264027,-0.13580643,-0.041233614,0.089884214,0.07697693,0.197207,0.1969217,0.20088054,0.20364267,0.20134804,0
16316000,16236000,1.3231232,3.489111,-2.5177612,-1.2530472,0.006573581,1.2569916,2.5067964,-0.11648606,0.006738537,0.11407062,0.05756895,-0.08470446,-0.06264027,-0.13580643,-0.041233614,0.089884214,0.07697693,0.197207,0.1969217,0.20088054,0.20364267,0.20134804,0
16324000,16244000,1.3231175,3.4891117,-2.5177698,-1.2530558,0.0065650237,1.256983,2.5067878,-0.11648606,0.006738537,0.11407062,0.05756895,-0.08470446,-0.06264027,-0.13580643,-0.041233614,0.089884214,0.07697693,0.197207,0.1969217,0.20088054,0.20364267,0.20134804,0
16332000,16252000,1.3231297,3.4891129,-2.517758,-1.2530441,0.006576719,1.2569948,2.5067997,-0.11648606,0.006738537,0.11407062,0.05756895,-0.08470446,-0.06264027,-0.13580643,-0.041233614,0.089884214,0.07697693,0.197207,0.1969217,0.20088054,0.20364267,0.20134804,0
16340000,16260000,1.32314,3.4891133,-2.5177443,-1.2530304,0.0065904274,1.2570086,2.5068133,-0.11648606,0.006738537,0.11407062,0.05756895,-0.08470446,-0.06264027,-0.13580643,-0.041233614,0.089884214,0.07697693,0.197207,0.1969217,0.20088054,0.20364267,0.20134804,0
16348000,16268000,1.323144,3.4891133,-2.5177379,-1.2530241,0.0065966835,1.2570148,2.5068195,-0.11648606,0.006738537,0.11407062,0.05756895,-0.08470446,-0.06264027,-0.13580643,-0.041233614,0.089884214,0.07697693,0.197207,0.1969217,0.20088054,0.20364267,0.20134804,0
16356000,16276000,1.3231514,3.4891143,-2.5177321,-1.2530184,0.0066024535,1.2570206,2.5068252,-0.11648606,0.006738537,0.11407062,0.05756895,-0.08470446,-0.06264027,-0.13580643,-0.041233614,0.089884214,0.07697693,0.197207,0.1969217,0.20088054,0.20364267,0.20134804,0
16364000,16284000,1.323145,3.489115,-2.5177393,-1.2530255,0.0065953042,1.2570134,2.506818,-0.11648606,0.006738537,0.11407062,0.05756895,-0.08470446,-0.06264027,-0.13580643,-0.041233614,0.089884214,0.07697693,0.197207,0.1969217,0.20088054,0.20364267,0.20134804,0
16372000,16292000,1.3231269,3.489116,-2.5177593,-1.2530453,0.0065754796,1.2569935,2.5067983,-0.11648606,0.006738537,0.11407062,0.05756895,-0.08470446,-0.06264027,-0.13580643,-0.041233614,0.089884214,0.07697693,0.197207,0.1969217,0.20088054,0.20364267,0.20134804,0
16380000,16300000,1.3231043,3.4891164,-2.51778,-1.2530663,0.0065545896,1.2569727,2.5067775,-0.11648606,0.006738537,0.11407062,0.05756895,-0.08470446,-0.06264027,-0.13580643,-0.041233614,0.089884214,0.07697693,0.197207,0.1969217,0.20088054,0.20364267,0.20134804,0
16388000,16308000,1.3230909,3.4891171,-2.5177944,-1.2530805,0.0065403576,1.2569585,2.5067632,-0.11648606,0.006738537,0.11407062,0.05756895,-0.08470446,-0.06264027,-0.13580643,-0.041233614,0.089884214,0.07697693,0.197207,0.1969217,0.20088054,0.20364267,0.20134804,0
16396000,16316000,1.3230779,3.4891179,-2.5178099,-1.2530961,0.006524791,1.2569429,2.5067477,-0.11648606,0.006738537,0.11407062,0.05756895,-0.08470446,-0.06264027,-0.13580643,-0.041233614,0.089884214,0.07697693,0.197207,0.1969217,0.20088054,0.20364267,0.20134804,0
16404000,16324000,1.323071,3.4891186,-2.5178156,-1.2531017,0.006519113,1.2569373,2.506742,-0.11648606,0.006738537,0.11407062,0.05756895,-0.08470446,-0.06264027,-0.13580643,-0.041233614,0.089884214,0.07697693,0.197207,0.1969217,0.20088054,0.20364267,0.20134804,0
16412000,16332000,1.323051,3.4891186,-2.5178325,-1.2531186,0.006502182,1.2569202,2.506725,-0.11648606,0.006738537,0.11407062,0.05756895,-0.08470446,-0.06264027,-0.13580643,-0.041233614,0.089884214,0.07697693,0.197207,0.1969217,0.20088054,0.20364267,0.20134804,0
16420000,16340000,1.3230433,3.4891198,-2.5178437,-1.2531298,0.006491066,1.2569091,2.5067139,-0.11648606,0.006738537,0.11407062,0.05756895,-0.08470446,-0.06264027,-0.13580643,-0.041233614,0.089884214,0.07697693,0.197207,0.1969217,0.20088054,0.20364267,0.20134804,0
16428000,16348000,1.3230364,3.48912,-2.517848,-1.2531343,0.0064865686,1.2569046,2.5067096,-0.11648606,0.006738537,0.11407062,0.05756895,-0.08470446,-0.06264027,-0.13580643,-0.041233614,0.089884214,0.07697693,0.197207,0.1969217,0.20088054,0.20364267,0.20134804,0
16436000,16356000,1.3230355,3.489121,-2.5178523,-1.2531384,0.006482448,1.2569005,2.5067053,-0.11648606,0.006738537,0.11407062,0.05756895,-0.08470446,-0.06264027,-0.13580643,-0.041233614,0.089884214,0.07697693,0.197207,0.1969217,0.20088054,0.20364267,0.20134804,0
16444000,16364000,1.323023,3.4891214,-2.5178626,-1.2531488,0.0064721312,1.2568902,2.506695,-0.11648606,0.006738537,0.11407062,0.05756895,-0.08470446,-0.06264027,-0.13580643,-0.041233614,0.089884214,0.07697693,0.197207,0.1969217,0.20088054,0.20364267,0.20134804,0
16452000,16372000,1.3230202,3.489122,-2.5178647,-1.2531509,0.0064699156,1.256888,2.506693,-0.11648606,0.006738537,0.11407062,0.05756895,-0.08470446,-0.06264027,-0.13580643,-0.041233614,0.089884214,0.07697693,0.197207,0.1969217,0.20088054,0.20364267,0.20134804,0
16460000,16380000,1.3230302,3.4891229,-2.517858,-1.2531443,0.0064766374,1.2568947,2.5066996,-0.11648606,0.006738537,0.11407062,0.05756895,-0.08470446,-0.06264027,-0.13580643,-0.041233614,0.089884214,0.07697693,0.197207,0.1969217,0.20088054,0.20364267,0.20134804,0
16468000,16388000,1.3230413,3.4891233,-2.5178428,-1.2531291,0.006491761,1.2569098,2.5067146,-0.11648606,0.006738537,0.11407062,0.05756895,-0.08470446,-0.06264027,-0.13580643,-0.041233614,0.089884214,0.07697693,0.197207,0.1969217,0.20088054,0.20364267,0.20134804,0
16476000,16396000,1.3230525,3.4891238,-2.5178335,-1.2531196,0.006501255,1.2569194,2.506724,-0.11648606,0.006738537,0.11407062,0.05756895,-0.08470446,-0.06264027,-0.13580643,-0.041233614,0.089884214,0.07697693,0.197207,0.1969217,0.20088054,0.20364267,0.20134804,0
16484000,16404000,1.32305,3.4891245,-2.5178335,-1.2531197,0.006501128,1.2569193,2.5067239,-0.11648606,0.006738537,0.11407062,0.05756895,-0.08470446,-0.06264027,-0.13580643,-0.041233614,0.089884214,0.07697693,0.197207,0.1969217,0.20088054,0.20364267,0.20134804,0
16492000,16412000,1.3230484,3.4891255,-2.5178382,-1.2531244,0.006496511,1.2569146,2.5067194,-0.11648606,0.006738537,0.11407062,0.05756895,-0.08470446,-0.06264027,-0.13580643,-0.041233614,0.089884214,0.07697693,0.197207,0.1969217,0.20088054,0.20364267,0.20134804,0
16500000,16420000,1.3230387,3.4891255,-2.5178487,-1.2531347,0.0064860717,1.2569042,2.5067089,-0.11648606,0.006738537,0.11407062,0.05756895,-0.08470446,-0.06264027,-0.13580643,-0.041233614,0.089884214,0.07697693,0.197207,0.1969217,0.20088054,0.20364267,0.20134804,0
16508000,16428000,1.3230572,3.4891264,-2.5178282,-1.2531145,0.0065063946,1.2569245,2.5067294,-0.11648606,0.006738537,0.11407062,0.05756895,-0.08470446,-0.06264027,-0.13580643,-0.041233614,0.089884214,0.07697693,0.197207,0.1969217,0.20088054,0.20364267,0.20134804,0
16516000,16436000,1.3230537,3.489127,-2.5178282,-1.2531145,0.006506332,1.2569244,2.5067291,-0.11648606,0.006738537,0.11407062,0.05756895,-0.08470446,-0.06264027,-0.13580643,-0.041233614,0.089884214,0.07697693,0.197207,0.1969217,0.20088054,0.20364267,0.20134804,0
16524000,16444000,1.3230639,3.4891279,-2.5178232,-1.2531095,0.0065114405,1.2569295,2.5067344,-0.11648606,0.006738537,0.11407062,0.05756895,-0.08470446,-0.06264027,-0.13580643,-0.041233614,0.089884214,0.07697693,0.197207,0.1969217,0.20088054,0.20364267,0.20134804,0
16532000,16452000,1.3230487,3.4891284,-2.5178375,-1.2531235,0.006497232,1.2569153,2.50672,-0.11648606,0.006738537,0.11407062,0.05756895,-0.08470446,-0.06264027,-0.13580643,-0.041233614,0.089884214,0.07697693,0.197207,0.1969217,0.20088054,0.20364267,0.20134804,0
16540000,16460000,1.3230445,3.4891288,-2.5178404,-1.2531265,0.0064943116,1.2569125,2.5067172,-0.11648606,0.006738537,0.11407062,0.05756895,-0.08470446,-0.06264027,-0.13580643,-0.041233614,0.089884214,0.07697693,0.197207,0.1969217,0.20088054,0.20364267,0.20134804,0
16548000,16468000,1.3230677,3.4891295,-2.517819,-1.2531052,0.0065156915,1.2569338,2.5067387,-0.11648606,0.006738537,0.11407062,0.05756895,-0.08470446,-0.06264027,-0.13580643,-0.041233614,0.089884214,0.07697693,0.197207,0.1969217,0.20088054,0.20364267,0.20134804,0
16556000,16476000,1.3230654,3.4891303,-2.5178225,-1.2531085,0.006512314,1.2569305,2.5067353,-0.11648606,0.006738537,0.11407062,0.05756895,-0.08470446,-0.06264027,-0.13580643,-0.041233614,0.089884214,0.07697693,0.197207,0.1969217,0.20088054,0.20364267,0.20134804,0
16564000,16484000,1.3230424,3.4891303,-2.5178413,-1.2531273,0.0064934525,1.2569115,2.5067163,-0.11648606,0.006738537,0.11407062,0.05756895,-0.08470446,-0.06264027,-0.13580643,-0.041233614,0.089884214,0.07697693,0.197207,0.1969217,0.20088054,0.20364267,0.20134804,0
16572000,16492000,1.3230379,3.4891317,-2.5178509,-1.253137,0.0064838715,1.256902,2.5067067,-0.11648606,0.006738537,0.11407062,0.05756895,-0.08470446,-0.06264027,-0.13580643,-0.041233614,0.089884214,0.07697693,0.197207,0.1969217,0.20088054,0.20364267,0.20134804,0
16580000,16500000,1.3230383,3.4891322,-2.5178504,-1.2531365,0.006484337,1.2569025,2.5067072,-0.11648606,0.006738537,0.11407062,0.05756895,-0.08470446,-0.06264027,-0.13580643,-0.041233614,0.089884214,0.07697693,0.197207,0.1969217,0.20088054,0.20364267,0.20134804,0
16588000,16508000,1.3230332,3.489133,-2.5178518,-1.2531381,0.006482785,1.2569009,2.5067058,-0.11648606,0.006738537,0.11407062,0.05756895,-0.08470446,-0.06264027,-0.13580643,-0.041233614,0.089884214,0.07697693,0.197207,0.1969217,0.20088054,0.20364267,0.20134804,0
16596000,16516000,1.323035,3.4891334,-2.5178506,-1.2531369,0.00648394,1.2569021,2.506707,-0.11648606,0.006738537,0.11407062,0.05756895,-0.08470446,-0.06264027,-0.13580643,-0.041233614,0.089884214,0.07697693,0.197207,0.1969217,0.20088054,0.20364267,0.20134804,0
16604000,16524000,1.3230456,3.4891338,-2.5178397,-1.2531259,0.0064949407,1.2569131,2.506718,-0.11648606,0.006738537,0.11407062,0.05756895,-0.08470446,-0.06264027,-0.13580643,-0.041233614,0.089884214,0.07697693,0.197207,0.1969217,0.20088054,0.20364267,0.20134804,0
16612000,16532000,1.3230499,3.4891353,-2.5178382,-1.2531244,0.006496508,1.2569146,2.5067196,-0.11648606,0.006738537,0.11407062,0.05756895,-0.08470446,-0.06264027,-0.13580643,-0.041233614,0.089884214,0.07697693,0.197207,0.1969217,0.20088054,0.20364267,0.20134804,0
16620000,16540000,1.3230448,3.489136,-2.5178452,-1.2531313,0.006489631,1.2569078,2.5067127,-0.11648606,0.006738537,0.11407062,0.05756895,-0.08470446,-0.06264027,-0.13580643,-0.041233614,0.089884214,0.07697693,0.197207,0.1969217,0.20088054,0.20364267,0.20134804,0
16628000,16548000,1.3230268,3.4891355,-2.517855,-1.2531412,0.006479634,1.2568977,2.5067027,-0.11648606,0.006738537,0.11407062,0.05756895,-0.08470446,-0.06264027,-0.13580643,-0.041233614,0.089884214,0.07697693,0.197207,0.1969217,0.20088054,0.20364267,0.20134804,0
16636000,16556000,1.3230283,3.4891367,-2.51786,-1.2531459,0.0064748847,1.2568929,2.506698,-0.11648606,0.006738537,0.11407062,0.05756895,-0.08470446,-0.06264027,-0.13580643,-0.041233614,0.089884214,0.07697693,0.197207,0.1969217,0.20088054,0.20364267,0.20134804,0
16644000,16564000,1.3230224,3.4891372,-2.5178626,-1.2531488,0.006472042,1.2568902,2.506695,-0.11648606,0.006738537,0.11407062,0.05756895,-0.08470446,-0.06264027,-0.13580643,-0.041233614,0.089884214,0.07697693,0.197207,0.1969217,0.20088054,0.20364267,0.20134804,0
16652000,16572000,1.3230333,3.4891374,-2.5178535,-1.2531396,0.006481209,1.2568994,2.506704,-0.11648606,0.006738537,0.11407062,0.05756895,-0.08470446,-0.06264027,-0.13580643,-0.041233614,0.089884214,0.07697693,0.197207,0.1969217,0.20088054,0.20364267,0.20134804,0
16660000,16580000,1.3230455,3.4891384,-2.5178418,-1.2531279,0.0064929877,1.256911,2.506716,-0.11648606,0.006738537,0.11407062,0.05756895,-0.08470446,-0.06264027,-0.13580643,-0.041233614,0.089884214,0.07697693,0.197207,0.1969217,0.20088054,0.20364267,0.20134804,0
16668000,16588000,1.3230293,3.4891396,-2.5178607,-1.2531469,0.006474035,1.2568922,2.5066972,-0.11648606,0.006738537,0.11407062,0.05756895,-0.08470446,-0.06264027,-0.13580643,-0.041233614,0.089884214,0.07697693,0.197207,0.1969217,0.20088054,0.20364267,0.20134804,0
16676000,16596000,1.3230155,3.4891396,-2.5178714,-1.2531575,0.0064634117,1.2568815,2.5066864,-0.11648606,0.006738537,0.11407062,0.05756895,-0.08470446,-0.06264027,-0.13580643,-0.041233614,0.089884214,0.07697693,0.197207,0.1969217,0.20088054,0.20364267,0.20134804,0
16684000,16604000,1.3230197,3.4891405,-2.5178668,-1.2531531,0.006467844,1.2568859,2.506691,-0.11648606,0.006738537,0.11407062,0.05756895,-0.08470446,-0.06264027,-0.13580643,-0.041233614,0.089884214,0.07697693,0.197207,0.1969217,0.20088054,0.20364267,0.20134804,0
16692000,16612000,1.3230193,3.489141,-2.5178673,-1.2531536,0.0064673107,1.2568854,2.5066905,-0.11648606,0.006738537,0.11407062,0.05756895,-0.08470446,-0.06264027,-0.13580643,-0.041233614,0.089884214,0.07697693,0.197207,0.1969217,0.20088054,0.20364267,0.20134804,0
16700000,16620000,0.6003732,3.8378258,-2.5134523,-1.2525015,0.0024777455,1.2537844,2.508762,-0.13909471,0.009246263,0.14060555,0.07414631,-0.0976526,-0.044449344,-0.13550986,-0.022233536,0.13679658,0.1238611,0.19757505,0.19933282,0.20202135,0.20191239,0.19915836,0
16708000,16628000,0.60038185,3.8378282,-2.513445,-1.2524941,0.002485185,1.2537918,2.5087693,-0.13909471,0.009246263,0.14060555,0.07414631,-0.0976526,-0.044449344,-0.13550986,-0.022233536,0.13679658,0.1238611,0.19757505,0.19933282,0.20202135,0.20191239,0.19915836,0
16716000,16636000,0.60038483,3.8378296,-2.513443,-1.2524922,0.0024870767,1.2537937,2.5087712,-0.13909471,0.009246263,0.14060555,0.07414631,-0.0976526,-0.044449344,-0.13550986,-0.022233536,0.13679658,0.1238611,0.19757505,0.19933282,0.20202135,0.20191239,0.19915836,0
16724000,16644000,0.6003749,3.837832,-2.513454,-1.2525032,0.002476116,1.2537827,2.5087602,-0.13909471,0.009246263,0.14060555,0.07414631,-0.0976526,-0.044449344,-0.13550986,-0.022233536,0.13679658,0.1238611,0.19757505,0.19933282,0.20202135,0.20191239,0.19915836,0
16732000,16652000,0.60036874,3.8378305,-2.5134585,-1.2525077,0.00247158,1.2537782,2.5087557,-0.13909471,0.009246263,0.14060555,0.07414631,-0.0976526,-0.044449344,-0.13550986,-0.022233536,0.13679658,0.1238611,0.19757505,0.19933282,0.20202135,0.20191239,0.19915836,0
16740000,16660000,0.600362,3.8378315,-2.5134656,-1.2525148,0.002464441,1.2537711,2.5087485,-0.13909471,0.009246263,0.14060555,0.07414631,-0.0976526,-0.044449344,-0.13550986,-0.022233536,0.13679658,0.1238611,0.19757505,0.19933282,0.20202135,0.20191239,0.19915836,0
16748000,16668000,0.6003643,3.8378341,-2.513465,-1.252514,0.0024652656,1.2537719,2.5087495,-0.13909471,0.009246263,0.14060555,0.07414631,-0.0976526,-0.044449344,-0.13550986,-0.022233536,0.13679658,0.1238611,0.19757505,0.19933282,0.20202135,0.20191239,0.19915836,0
16756000,16676000,0.6003616,3.8378313,-2.513465,-1.2525141,0.0024650996,1.2537718,2.5087492,-0.13909471,0.009246263,0.14060555,0.07414631,-0.0976526,-0.044449344,-0.13550986,-0.022233536,0.13679658,0.1238611,0.19757505,0.19933282,0.20202135,0.20191239,0.19915836,0
16764000,16684000,0.6003579,3.8378348,-2.513471,-1.2525201,0.0024592069,1.2537658,2.5087433,-0.13909471,0.009246263,0.14060555,0.07414631,-0.0976526,-0.044449344,-0.13550986,-0.022233536,0.13679658,0.1238611,0.19757505,0.19933282,0.20202135,0.20191239,0.19915836,0
16772000,16692000,0.60035455,3.8378427,-2.5134802,-1.2525293,0.0024500017,1.2537568,2.508734,-0.13909471,0.009246263,0.14060555,0.07414631,-0.0976526,-0.044449344,-0.13550986,-0.022233536,0.13679658,0.1238611,0.19757505,0.19933282,0.20202135,0.20191239,0.19915836,0
16780000,16700000,0.60034645,3.8378315,-2.5134785,-1.2525277,0.002451518,1.2537582,2.5087357,-0.13909471,0.009246263,0.14060555,0.07414631,-0.0976526,-0.044449344,-0.13550986,-0.022233536,0.13679658,0.1238611,0.19757505,0.19933282,0.20202135,0.20191239,0.19915836,0
16788000,16708000,0.6003529,3.8378363,-2.5134752,-1.2525244,0.002454834,1.2537615,2.508739,-0.13909471,0.009246263,0.14060555,0.07414631,-0.0976526,-0.044449344,-0.13550986,-0.022233536,0.13679658,0.1238611,0.19757505,0.19933282,0.20202135,0.20191239,0.19915836,0
16796000,16716000,0.60035014,3.8378403,-2.5134811,-1.2525303,0.0024489681,1.2537557,2.508733,-0.13909471,0.009246263,0.14060555,0.07414631,-0.0976526,-0.044449344,-0.13550986,-0.022233536,0.13679658,0.1238611,0.19757505,0.19933282,0.20202135,0.20191239,0.19915836,0
16804000,16724000,0.60035217,3.8378391,-2.5134776,-1.2525268,0.002452577,1.2537593,2.5087366,-0.13909471,0.009246263,0.14060555,0.07414631,-0.0976526,-0.044449344,-0.13550986,-0.022233536,0.13679658,0.1238611,0.19757505,0.19933282,0.20202135,0.20191239,0.19915836,0
16812000,16732000,0.6003581,3.837842,-2.5134735,-1.2525226,0.0024567368,1.2537634,2.508741,-0.13909471,0.009246263,0.14060555,0.07414631,-0.0976526,-0.044449344,-0.13550986,-0.022233536,0.13679658,0.1238611,0.19757505,0.19933282,0.20202135,0.20191239,0.19915836,0
16820000,16740000,0.6003586,3.8378425,-2.5134728,-1.252522,0.0024573335,1.253764,2.5087414,-0.13909471,0.009246263,0.14060555,0.07414631,-0.0976526,-0.044449344,-0.13550986,-0.022233536,0.13679658,0.1238611,0.19757505,0.19933282,0.20202135,0.20191239,0.19915836,0
16828000,16748000,0.60035807,3.8378406,-2.5134711,-1.2525203,0.0024589573,1.2537656,2.508743,-0.13909471,0.009246263,0.14060555,0.07414631,-0.0976526,-0.044449344,-0.13550986,-0.022233536,0.13679658,0.1238611,0.19757505,0.19933282,0.20202135,0.20191239,0.19915836,0
16836000,16756000,0.6003539,3.8378422,-2.5134764,-1.2525256,0.0024537523,1.2537605,2.5087378,-0.13909471,0.009246263,0.14060555,0.07414631,-0.0976526,-0.044449344,-0.13550986,-0.022233536,0.13679658,0.1238611,0.19757505,0.19933282,0.20202135,0.20191239,0.19915836,0
16844000,16764000,0.60035217,3.8378444,-2.5134792,-1.2525283,0.0024509714,1.2537577,2.5087352,-0.13909471,0.009246263,0.14060555,0.07414631,-0.0976526,-0.044449344,-0.13550986,-0.022233536,0.13679658,0.1238611,0.19757505,0.19933282,0.20202135,0.20191239,0.19915836,0
16852000,16772000,0.60035115,3.837841,-2.5134768,-1.2525262,0.0024531449,1.2537599,2.5087373,-0.13909471,0.009246263,0.14060555,0.07414631,-0.0976526,-0.044449344,-0.13550986,-0.022233536,0.13679658,0.1238611,0.19757505,0.19933282,0.20202135,0.20191239,0.19915836,0
16860000,16780000,0.6003605,3.8378477,-2.513473,-1.252522,0.0024572257,1.2537639,2.5087414,-0.13909471,0.009246263,0.14060555,0.07414631,-0.0976526,-0.044449344,-0.13550986,-0.022233536,0.13679658,0.1238611,0.19757505,0.19933282,0.20202135,0.20191239,0.19915836,0
16868000,16788000,0.6003274,3.8378444,-2.5135021,-1.2525514,0.0024278574,1.2537346,2.5087118,-0.13909471,0.009246263,0.14060555,0.07414631,-0.0976526,-0.044449344,-0.13550986,-0.022233536,0.13679658,0.1238611,0.19757505,0.19933282,0.20202135,0.20191239,0.19915836,0
16876000,16796000,0.6003225,3.8378432,-2.513506,-1.2525553,0.0024240438,1.2537308,2.5087082,-0.13909471,0.009246263,0.14060555,0.07414631,-0.0976526,-0.044449344,-0.13550986,-0.022233536,0.13679658,0.1238611,0.19757505,0.19933282,0.20202135,0.20191239,0.19915836,0
16884000,16804000,0.60031825,3.8378396,-2.5135064,-1.2525556,0.002423607,1.2537303,2.5087078,-0.13909471,0.009246263,0.14060555,0.07414631,-0.0976526,-0.044449344,-0.13550986,-0.022233536,0.13679658,0.1238611,0.19757505,0.19933282,0.20202135,0.20191239,0.19915836,0
16892000,16812000,0.60032845,3.8378482,-2.5135026,-1.2525518,0.0024275393,1.2537342,2.5087118,-0.13909471,0.009246263,0.14060555,0.07414631,-0.0976526,-0.044449344,-0.13550986,-0.022233536,0.13679658,0.1238611,0.19757505,0.19933282,0.20202135,0.20191239,0.19915836,0
16900000,16820000,0.6003203,3.8378437,-2.513507,-1.2525562,0.0024230615,1.2537298,2.5087073,-0.13909471,0.009246263,0.14060555,0.07414631,-0.0976526,-0.044449344,-0.13550986,-0.022233536,0.13679658,0.1238611,0.19757505,0.19933282,0.20202135,0.20191239,0.19915836,0
16908000,16828000,0.60031456,3.837847,-2.513515,-1.2525642,0.0024150978,1.2537218,2.5086992,-0.13909471,0.009246263,0.14060555,0.07414631,-0.0976526,-0.044449344,-0.13550986,-0.022233536,0.13679658,0.1238611,0.19757505,0.19933282,0.20202135,0.20191239,0.19915836,0
16916000,16836000,0.6002982,3.837848,-2.5135314,-1.2525806,0.002398689,1.2537054,2.5086827,-0.13909471,0.009246263,0.14060555,0.07414631,-0.0976526,-0.044449344,-0.13550986,-0.022233536,0.13679658,0.1238611,0.19757505,0.19933282,0.20202135,0.20191239,0.19915836,0
16924000,16844000,0.60029775,3.837842,-2.5135267,-1.252576,0.002403322,1.25371,2.5086875,-0.13909471,0.009246263,0.14060555,0.07414631,-0.0976526,-0.044449344,-0.13550986,-0.022233536,0.13679658,0.1238611,0.19757505,0.19933282,0.20202135,0.20191239,0.19915836,0
16932000,16852000,0.6003005,3.8378441,-2.513525,-1.2525743,0.0024049412,1.2537117,2.5086892,-0.13909471,0.009246263,0.14060555,0.07414631,-0.0976526,-0.044449344,-0.13550986,-0.022233536,0.13679658,0.1238611,0.19757505,0.19933282,0.20202135,0.20191239,0.19915836,0
16940000,16860000,0.60031164,3.8378553,-2.5135226,-1.2525718,0.0024075152,1.2537143,2.5086915,-0.13909471,0.009246263,0.14060555,0.07414631,-0.0976526,-0.044449344,-0.13550986,-0.022233536,0.13679658,0.1238611,0.19757505,0.19933282,0.20202135,0.20191239,0.19915836,0
16948000,16868000,0.6003255,3.8378541,-2.5135074,-1.2525566,0.0024227942,1.2537296,2.508707,-0.13909471,0.009246263,0.14060555,0.07414631,-0.0976526,-0.044449344,-0.13550986,-0.022233536,0.13679658,0.1238611,0.19757505,0.19933282,0.20202135,0.20191239,0.19915836,0
16956000,16876000,0.6003239,3.837852,-2.5135067,-1.2525558,0.002423417,1.2537302,2.5087075,-0.13909471,0.009246263,0.14060555,0.07414631,-0.0976526,-0.044449344,-0.13550986,-0.022233536,0.13679658,0.1238611,0.19757505,0.19933282,0.20202135,0.20191239,0.19915836,0
16964000,16884000,0.6003214,3.8378553,-2.5135114,-1.2525606,0.002418678,1.2537254,2.5087028,-0.13909471,0.009246263,0.14060555,0.07414631,-0.0976526,-0.044449344,-0.13550986,-0.022233536,0.13679658,0.1238611,0.19757505,0.19933282,0.20202135,0.20191239,0.19915836,0
16972000,16892000,0.6003227,3.83785,-2.513505,-1.2525544,0.002424985,1.2537317,2.5087092,-0.13909471,0.009246263,0.14060555,0.07414631,-0.0976526,-0.044449344,-0.13550986,-0.022233536,0.13679658,0.1238611,0.19757505,0.19933282,0.20202135,0.20191239,0.19915836,0
16980000,16900000,0.6003214,3.8378584,-2.5135128,-1.252562,0.0024173046,1.253724,2.5087013,-0.13909471,0.009246263,0.14060555,0.07414631,-0.0976526,-0.044449344,-0.13550986,-0.022233536,0.13679658,0.1238611,0.19757505,0.19933282,0.20202135,0.20191239,0.19915836,0
16988000,16908000,0.6003078,3.8378491,-2.5135179,-1.2525672,0.002412169,1.2537189,2.5086963,-0.13909471,0.009246263,0.14060555,0.07414631,-0.0976526,-0.044449344,-0.13550986,-0.022233536,0.13679658,0.1238611,0.19757505,0.19933282,0.20202135,0.20191239,0.19915836,0
16996000,16916000,0.6003301,3.8378546,-2.5135002,-1.2525494,0.0024299012,1.2537366,2.508714,-0.13909471,0.009246263,0.14060555,0.07414631,-0.0976526,-0.044449344,-0.13550986,-0.022233536,0.13679658,0.1238611,0.19757505,0.19933282,0.20202135,0.20191239,0.19915836,0
17004000,16924000,0.6003239,3.8378558,-2.5135067,-1.2525558,0.0024235018,1.2537302,2.5087075,-0.13909471,0.009246263,0.14060555,0.07414631,-0.0976526,-0.044449344,-0.13550986,-0.022233536,0.13679658,0.1238611,0.19757505,0.19933282,0.20202135,0.20191239,0.19915836,0
17012000,16932000,0.6003187,3.8378606,-2.5135152,-1.2525644,0.0024148836,1.2537216,2.508699,-0.13909471,0.009246263,0.14060555,0.07414631,-0.0976526,-0.044449344,-0.13550986,-0.022233536,0.13679658,0.1238611,0.19757505,0.19933282,0.20202135,0.20191239,0.19915836,0
17020000,16940000,0.6003207,3.8378606,-2.5135126,-1.2525617,0.0024176568,1.2537243,2.5087018,-0.13909471,0.009246263,0.14060555,0.07414631,-0.0976526,-0.044449344,-0.13550986,-0.022233536,0.13679658,0.1238611,0.19757505,0.19933282,0.20202135,0.20191239,0.19915836,0
17028000,16948000,0.6003234,3.8378673,-2.513515,-1.252564,0.002415301,1.253722,2.5086994,-0.13909471,0.009246263,0.14060555,0.07414631,-0.0976526,-0.044449344,-0.13550986,-0.022233536,0.13679658,0.1238611,0.19757505,0.19933282,0.20202135,0.20191239,0.19915836,0
17036000,16956000,0.60031104,3.837853,-2.513515,-1.2525643,0.0024150377,1.2537217,2.5086992,-0.13909471,0.009246263,0.14060555,0.07414631,-0.0976526,-0.044449344,-0.13550986,-0.022233536,0.13679658,0.1238611,0.19757505,0.19933282,0.20202135,0.20191239,0.19915836,0
17044000,16964000,0.60033256,3.8378637,-2.5135021,-1.2525513,0.00242802,1.2537347,2.508712,-0.13909471,0.009246263,0.14060555,0.07414631,-0.0976526,-0.044449344,-0.13550986,-0.022233536,0.13679658,0.1238611,0.19757505,0.19933282,0.20202135,0.20191239,0.19915836,0
17052000,16972000,0.60034525,3.8378599,-2.5134852,-1.2525343,0.0024450815,1.2537518,2.5087292,-0.13909471,0.009246263,0.14060555,0.07414631,-0.0976526,-0.044449344,-0.13550986,-0.022233536,0.13679658,0.1238611,0.19757505,0.19933282,0.20202135,0.20191239,0.19915836,0
17060000,16980000,0.6003591,3.8378646,-2.5134747,-1.2525239,0.002455421,1.2537621,2.5087395,-0.13909471,0.009246263,0.14060555,0.07414631,-0.0976526,-0.044449344,-0.13550986,-0.022233536,0.13679658,0.1238611,0.19757505,0.19933282,0.20202135,0.20191239,0.19915836,0
17068000,16988000,0.6003631,3.8378668,-2.5134723,-1.2525214,0.0024579936,1.2537647,2.508742,-0.13909471,0.009246263,0.14060555,0.07414631,-0.0976526,-0.044449344,-0.13550986,-0.022233536,0.13679658,0.1238611,0.19757505,0.19933282,0.20202135,0.20191239,0.19915836,0
17076000,16996000,0.6003574,3.8378649,-2.513476,-1.2525251,0.0024542476,1.253761,2.5087385,-0.13909471,0.009246263,0.14060555,0.07414631,-0.0976526,-0.044449344,-0.13550986,-0.022233536,0.13679658,0.1238611,0.19757505,0.19933282,0.20202135,0.20191239,0.19915836,0
17084000,17004000,0.6003593,3.8378694,-2.5134773,-1.2525264,0.0024529882,1.2537597,2.508737,-0.13909471,0.009246263,0.14060555,0.07414631,-0.0976526,-0.044449344,-0.13550986,-0.022233536,0.13679658,0.1238611,0.19757505,0.19933282,0.20202135,0.20191239,0.19915836,0
17092000,17012000,0.60035884,3.8378694,-2.5134776,-1.2525266,0.0024527558,1.2537595,2.5087368,-0.13909471,0.009246263,0.14060555,0.07414631,-0.0976526,-0.044449344,-0.13550986,-0.022233536,0.13679658,0.1238611,0.19757505,0.19933282,0.20202135,0.20191239,0.19915836,0
17100000,17020000,0.751744,3.6998053,-2.5142992,-1.2517704,0.003759984,1.2538402,2.5075028,-0.15353574,0.011125423,0.15758689,0.08479158,-0.10725884,-0.06487656,-0.1661817,-0.04120333,0.13651498,0.12283503,0.19691989,0.19870256,0.20228943,0.20271069,0.19937745,0
17108000,17028000,0.7517541,3.6998057,-2.5142891,-1.2517602,0.0037701475,1.2538503,2.5075128,-0.15353574,0.011125423,0.15758689,0.08479158,-0.10725884,-0.06487656,-0.1661817,-0.04120333,0.13651498,0.12283503,0.19691989,0.19870256,0.20228943,0.20271069,0.19937745,0
17116000,17036000,0.75175506,3.6998062,-2.5142884,-1.2517595,0.0037708334,1.253851,2.5075135,-0.15353574,0.011125423,0.15758689,0.08479158,-0.10725884,-0.06487656,-0.1661817,-0.04120333,0.13651498,0.12283503,0.19691989,0.19870256,0.20228943,0.20271069,0.19937745,0
17124000,17044000,0.7517511,3.6998043,-2.5142946,-1.2517656,0.0037647386,1.253845,2.5075073,-0.15353574,0.011125423,0.15758689,0.08479158,-0.10725884,-0.06487656,-0.1661817,-0.04120333,0.13651498,0.12283503,0.19691989,0.19870256,0.20228943,0.20271069,0.19937745,0
17132000,17052000,0.7517431,3.6998072,-2.5143006,-1.2517717,0.003758679,1.2538389,2.5075014,-0.15353574,0.011125423,0.15758689,0.08479158,-0.10725884,-0.06487656,-0.1661817,-0.04120333,0.13651498,0.12283503,0.19691989,0.19870256,0.20228943,0.20271069,0.19937745,0
17140000,17060000,0.7517476,3.6998086,-2.5142953,-1.2517664,0.003763836,1.253844,2.5075066,-0.15353574,0.011125423,0.15758689,0.08479158,-0.10725884,-0.06487656,-0.1661817,-0.04120333,0.13651498,0.12283503,0.19691989,0.19870256,0.20228943,0.20271069,0.19937745,0
17148000,17068000,0.751726,3.6998105,-2.5143158,-1.251787,0.0037434346,1.2538236,2.5074863,-0.15353574,0.011125423,0.15758689,0.08479158,-0.10725884,-0.06487656,-0.1661817,-0.04120333,0.13651498,0.12283503,0.19691989,0.19870256,0.20228943,0.20271069,0.19937745,0
17156000,17076000,0.7517236,3.6998055,-2.514324,-1.2517949,0.003735419,1.2538157,2.5074782,-0.15353574,0.011125423,0.15758689,0.08479158,-0.10725884,-0.06487656,-0.1661817,-0.04120333,0.13651498,0.12283503,0.19691989,0.19870256,0.20228943,0.20271069,0.19937745,0
17164000,17084000,0.7517276,3.699811,-2.5143147,-1.2517859,0.0037445466,1.2538247,2.5074873,-0.15353574,0.011125423,0.15758689,0.08479158,-0.10725884,-0.06487656,-0.1661817,-0.04120333,0.13651498,0.12283503,0.19691989,0.19870256,0.20228943,0.20271069,0.19937745,0
17172000,17092000,0.7517231,3.6998081,-2.5143228,-1.2517937,0.0037366364,1.2538168,2.5074794,-0.15353574,0.011125423,0.15758689,0.08479158,-0.10725884,-0.06487656,-0.1661817,-0.04120333,0.13651498,0.12283503,0.19691989,0.19870256,0.20228943,0.20271069,0.19937745,0
17180000,17100000,0.75172263,3.6998081,-2.5143237,-1.2517948,0.0037355744,1.2538159,2.5074782,-0.15353574,0.011125423,0.15758689,0.08479158,-0.10725884,-0.06487656,-0.1661817,-0.04120333,0.13651498,0.12283503,0.19691989,0.19870256,0.20228943,0.20271069,0.19937745,0
17188000,17108000,0.7517317,3.6998112,-2.5143125,-1.2517836,0.0037467266,1.253827,2.5074894,-0.15353574,0.011125423,0.15758689,0.08479158,-0.10725884,-0.06487656,-0.1661817,-0.04120333,0.13651498,0.12283503,0.19691989,0.19870256,0.20228943,0.20271069,0.19937745,0
17196000,17116000,0.7517454,3.6998105,-2.5142999,-1.251771,0.0037594368,1.2538397,2.5075023,-0.15353574,0.011125423,0.15758689,0.08479158,-0.10725884,-0.06487656,-0.1661817,-0.04120333,0.13651498,0.12283503,0.19691989,0.19870256,0.20228943,0.20271069,0.19937745,0
17204000,17124000,0.751739,3.699812,-2.5143056,-1.2517767,0.0037536921,1.253834,2.5074966,-0.15353574,0.011125423,0.15758689,0.08479158,-0.10725884,-0.06487656,-0.1661817,-0.04120333,0.13651498,0.12283503,0.19691989,0.19870256,0.20228943,0.20271069,0.19937745,0
17212000,17132000,0.7517261,3.6998093,-2.5143218,-1.2517927,0.0037376857,1.2538179,2.5074806,-0.15353574,0.011125423,0.15758689,0.08479158,-0.10725884,-0.06487656,-0.1661817,-0.04120333,0.13651498,0.12283503,0.19691989,0.19870256,0.20228943,0.20271069,0.19937745,0
17220000,17140000,0.7517205,3.6998143,-2.5143232,-1.2517943,0.0037360603,1.2538164,2.507479,-0.15353574,0.011125423,0.15758689,0.08479158,-0.10725884,-0.06487656,-0.1661817,-0.04120333,0.13651498,0.12283503,0.19691989,0.19870256,0.20228943,0.20271069,0.19937745,0
17228000,17148000,0.7517356,3.699811,-2.5143113,-1.2517823,0.0037480667,1.2538283,2.5074909,-0.15353574,0.011125423,0.15758689,0.08479158,-0.10725884,-0.06487656,-0.1661817,-0.04120333,0.13651498,0.12283503,0.19691989,0.19870256,0.20228943,0.20271069,0.19937745,0
17236000,17156000,0.75173694,3.6998138,-2.5143085,-1.2517796,0.0037508754,1.2538311,2.5074937,-0.15353574,0.011125423,0.15758689,0.08479158,-0.10725884,-0.06487656,-0.1661817,-0.04120333,0.13651498,0.12283503,0.19691989,0.19870256,0.20228943,0.20271069,0.19937745,0
17244000,17164000,0.751742,3.6998155,-2.5143023,-1.2517732,0.003757158,1.2538373,2.5075,-0.15353574,0.011125423,0.15758689,0.08479158,-0.10725884,-0.06487656,-0.1661817,-0.04120333,0.13651498,0.12283503,0.19691989,0.19870256,0.20228943,0.20271069,0.19937745,0
17252000,17172000,0.7517404,3.6998143,-2.5143058,-1.2517769,0.003753468,1.2538338,2.5074964,-0.15353574,0.011125423,0.15758689,0.08479158,-0.10725884,-0.06487656,-0.1661817,-0.04120333,0.13651498,0.12283503,0.19691989,0.19870256,0.20228943,0.20271069,0.19937745,0
17260000,17180000,0.751764,3.699814,-2.5142827,-1.2517538,0.003776539,1.2538568,2.5075192,-0.15353574,0.011125423,0.15758689,0.08479158,-0.10725884,-0.06487656,-0.1661817,-0.04120333,0.13651498,0.12283503,0.19691989,0.19870256,0.20228943,0.20271069,0.19937745,0
17268000,17188000,0.7517673,3.6998177,-2.5142765,-1.2517476,0.0037827801,1.253863,2.5075257,-0.15353574,0.011125423,0.15758689,0.08479158,-0.10725884,-0.06487656,-0.1661817,-0.04120333,0.13651498,0.12283503,0.19691989,0.19870256,0.20228943,0.20271069,0.19937745,0
17276000,17196000,0.75177926,3.6998167,-2.5142663,-1.2517374,0.0037931046,1.2538733,2.507536,-0.15353574,0.011125423,0.15758689,0.08479158,-0.10725884,-0.06487656,-0.1661817,-0.04120333,0.13651498,0.12283503,0.19691989,0.19870256,0.20228943,0.20271069,0.19937745,0
17284000,17204000,0.7517679,3.6998155,-2.5142796,-1.2517507,0.0037797207,1.25386,2.5075226,-0.15353574,0.011125423,0.15758689,0.08479158,-0.10725884,-0.06487656,-0.1661817,-0.04120333,0.13651498,0.12283503,0.19691989,0.19870256,0.20228943,0.20271069,0.19937745,0
17292000,17212000,0.75177133,3.6998177,-2.5142744,-1.2517455,0.003784963,1.2538652,2.5075278,-0.15353574,0.011125423,0.15758689,0.08479158,-0.10725884,-0.06487656,-0.1661817,-0.04120333,0.13651498,0.12283503,0.19691989,0.19870256,0.20228943,0.20271069,0.19937745,0
17300000,17220000,0.75176483,3.6998177,-2.5142815,-1.2517526,0.0037778448,1.2538581,2.5075207,-0.15353574,0.011125423,0.15758689,0.08479158,-0.10725884,-0.06487656,-0.1661817,-0.04120333,0.13651498,0.12283503,0.19691989,0.19870256,0.20228943,0.20271069,0.19937745,0
17308000,17228000,0.75176626,3.6998167,-2.5142822,-1.2517532,0.003777239,1.2538575,2.5075202,-0.15353574,0.011125423,0.15758689,0.08479158,-0.10725884,-0.06487656,-0.1661817,-0.04120333,0.13651498,0.12283503,0.19691989,0.19870256,0.20228943,0.20271069,0.19937745,0
17316000,17236000,0.75176185,3.6998158,-2.514288,-1.2517589,0.0037715537,1.2538518,2.5075145,-0.15353574,0.011125423,0.15758689,0.08479158,-0.10725884,-0.06487656,-0.1661817,-0.04120333,0.13651498,0.12283503,0.19691989,0.19870256,0.20228943,0.20271069,0.19937745,0
17324000,17244000,0.7517598,3.6998203,-2.5142858,-1.2517569,0.0037735652,1.2538538,2.5075164,-0.15353574,0.011125423,0.15758689,0.08479158,-0.10725884,-0.06487656,-0.1661817,-0.04120333,0.13651498,0.12283503,0.19691989,0.19870256,0.20228943,0.20271069,0.19937745,0
17332000,17252000,0.7517573,3.699817,-2.5142925,-1.2517636,0.0037669495,1.2538472,2.5075097,-0.15353574,0.011125423,0.15758689,0.08479158,-0.10725884,-0.06487656,-0.1661817,-0.04120333,0.13651498,0.12283503,0.19691989,0.19870256,0.20228943,0.20271069,0.19937745,0
17340000,17260000,0.7517334,3.699822,-2.5143116,-1.2517827,0.003747831,1.253828,2.5074906,-0.15353574,0.011125423,0.15758689,0.08479158,-0.10725884,-0.06487656,-0.1661817,-0.04120333,0.13651498,0.12283503,0.19691989,0.19870256,0.20228943,0.20271069,0.19937745,0
17348000,17268000,0.75172454,3.6998165,-2.5143273,-1.2517984,0.0037321497,1.2538124,2.507475,-0.15353574,0.011125423,0.15758689,0.08479158,-0.10725884,-0.06487656,-0.1661817,-0.04120333,0.13651498,0.12283503,0.19691989,0.19870256,0.20228943,0.20271069,0.19937745,0
17356000,17276000,0.7517144,3.6998215,-2.514333,-1.2518041,0.0037264577,1.2538067,2.5074694,-0.15353574,0.011125423,0.15758689,0.08479158,-0.10725884,-0.06487656,-0.1661817,-0.04120333,0.13651498,0.12283503,0.19691989,0.19870256,0.20228943,0.20271069,0.19937745,0
17364000,17284000,0.7517295,3.699822,-2.514318,-1.251789,0.003741509,1.2538217,2.5074844,-0.15353574,0.011125423,0.15758689,0.08479158,-0.10725884,-0.06487656,-0.1661817,-0.04120333,0.13651498,0.12283503,0.19691989,0.19870256,0.20228943,0.20271069,0.19937745,0
17372000,17292000,0.7517425,3.6998215,-2.5143058,-1.2517769,0.0037535403,1.2538338,2.5074964,-0.15353574,0.011125423,0.15758689,0.08479158,-0.10725884,-0.06487656,-0.1661817,-0.04120333,0.13651498,0.12283503,0.19691989,0.19870256,0.20228943,0.20271069,0.19937745,0
17380000,17300000,0.7517314,3.6998248,-2.5143144,-1.2517855,0.0037449321,1.2538252,2.507488,-0.15353574,0.011125423,0.15758689,0.08479158,-0.10725884,-0.06487656,-0.1661817,-0.04120333,0.13651498,0.12283503,0.19691989,0.19870256,0.20228943,0.20271069,0.19937745,0
17388000,17308000,0.75172246,3.6998258,-2.5143228,-1.2517939,0.003736599,1.2538168,2.5074797,-0.15353574,0.011125423,0.15758689,0.08479158,-0.10725884,-0.06487656,-0.1661817,-0.04120333,0.13651498,0.12283503,0.19691989,0.19870256,0.20228943,0.20271069,0.19937745,0
17396000,17316000,0.7517249,3.6998234,-2.5143237,-1.2517948,0.00373571,1.253816,2.5074787,-0.15353574,0.011125423,0.15758689,0.08479158,-0.10725884,-0.06487656,-0.1661817,-0.04120333,0.13651498,0.12283503,0.19691989,0.19870256,0.20228943,0.20271069,0.19937745,0
17404000,17324000,0.7517329,3.6998227,-2.5143168,-1.2517878,0.0037427235,1.253823,2.5074856,-0.15353574,0.011125423,0.15758689,0.08479158,-0.10725884,-0.06487656,-0.1661817,-0.04120333,0.13651498,0.12283503,0.19691989,0.19870256,0.20228943,0.20271069,0.19937745,0
17412000,17332000,0.7517354,3.6998217,-2.5143158,-1.2517868,0.0037436578,1.253824,2.5074866,-0.15353574,0.011125423,0.15758689,0.08479158,-0.10725884,-0.06487656,-0.1661817,-0.04120333,0.13651498,0.12283503,0.19691989,0.19870256,0.20228943,0.20271069,0.19937745,0
17420000,17340000,0.751717,3.6998234,-2.5143332,-1.2518042,0.003726246,1.2538066,2.5074692,-0.15353574,0.011125423,0.15758689,0.08479158,-0.10725884,-0.06487656,-0.1661817,-0.04120333,0.13651498,0.12283503,0.19691989,0.19870256,0.20228943,0.20271069,0.19937745,0
17428000,17348000,0.75168717,3.6998215,-2.5143657,-1.2518367,0.0036938214,1.2537742,2.5074368,-0.15353574,0.011125423,0.15758689,0.08479158,-0.10725884,-0.06487656,-0.1661817,-0.04120333,0.13651498,0.12283503,0.19691989,0.19870256,0.20228943,0.20271069,0.19937745,0
17436000,17356000,0.75168127,3.6998231,-2.5143704,-1.2518413,0.003689118,1.2537694,2.507432,-0.15353574,0.011125423,0.15758689,0.08479158,-0.10725884,-0.06487656,-0.1661817,-0.04120333,0.13651498,0.12283503,0.19691989,0.19870256,0.20228943,0.20271069,0.19937745,0
17444000,17364000,0.75168306,3.6998231,-2.5143697,-1.2518408,0.0036897035,1.2537701,2.5074327,-0.15353574,0.011125423,0.15758689,0.08479158,-0.10725884,-0.06487656,-0.1661817,-0.04120333,0.13651498,0.12283503,0.19691989,0.19870256,0.20228943,0.20271069,0.19937745,0
17452000,17372000,0.75168645,3.6998265,-2.5143633,-1.2518344,0.0036961627,1.2537766,2.5074391,-0.15353574,0.011125423,0.15758689,0.08479158,-0.10725884,-0.06487656,-0.1661817,-0.04120333,0.13651498,0.12283503,0.19691989,0.19870256,0.20228943,0.20271069,0.19937745,0
17460000,17380000,0.75169843,3.6998258,-2.5143523,-1.2518234,0.0037071556,1.2537875,2.50745,-0.15353574,0.011125423,0.15758689,0.08479158,-0.10725884,-0.06487656,-0.1661817,-0.04120333,0.13651498,0.12283503,0.19691989,0.19870256,0.20228943,0.20271069,0.19937745,0
