timestamp,roll,pitch,yaw,thrust_body[0],thrust_body[1],thrust_body[2],reset_integral
4460000,0.12913686,0.14991967,0.0010451674,0.0,0.0,-0.001,0
4464000,0.12906542,0.1497261,0.00082945824,0.0,0.0,-0.001,0
4480000,0.12918346,0.14896752,0.00084364414,0.0,0.0,-0.001,0
4500000,0.12952034,0.14825939,0.0010643601,0.0,0.0,-0.001,0
4516000,0.12959313,0.14791383,0.0009980202,0.0,0.0,-0.001,0
4540000,0.12957144,0.14759375,0.000960052,0.0,0.0,-0.001,0
4556000,0.12979107,0.14746074,0.00095671415,0.0,0.0,-0.001,0
4580000,0.12973693,0.14653867,0.0009199977,0.0,0.0,-0.001,0
4596000,0.12975228,0.14582352,0.0008903742,0.0,0.0,-0.001,0
4620000,0.12964246,0.14475429,0.00082570314,0.0,0.0,-0.001,0
4640000,0.1297609,0.14421505,0.0006659031,0.0,0.0,-0.001,0
4660000,0.12977181,0.14349617,0.00069344044,0.0,0.0,-0.001,0
4676000,0.12981264,0.14305618,0.00069594383,0.0,0.0,-0.001,0
4700000,0.12985463,0.14244407,0.0006542206,0.0,0.0,-0.001,0
4720000,0.12994643,0.14205275,0.0005824566,0.0,0.0,-0.001,0
4736000,0.1298164,0.14199066,0.0006220937,0.0,0.0,-0.001,0
4760000,0.12999958,0.14193414,0.0006175041,0.0,0.0,-0.001,0
4780000,0.13006026,0.1415475,0.0007009506,0.0,0.0,-0.001,0
4800000,0.12975146,0.14105353,0.00061249733,0.0,0.0,-0.001,0
4820000,0.1295745,0.14065175,0.00069093704,0.0,0.0,-0.001,0
4836000,0.1293271,0.14027165,0.0006713271,0.0,0.0,-0.001,0
4856000,0.1289017,0.13952452,0.00062835217,0.0,0.0,-0.001,0
4876000,0.12850854,0.13939688,0.0007276535,0.0,0.0,-0.001,0
4900000,0.1278196,0.13895588,0.0008928776,0.0,0.0,-0.001,0
4920000,0.12728196,0.13907152,0.000757277,0.0,0.0,-0.001,0
4940000,0.12696365,0.13867152,0.0008624196,0.0,0.0,-0.001,0
4956000,0.12660512,0.13847326,0.00079482794,0.0,0.0,-0.001,0
4980000,0.12618345,0.13834044,0.00072556734,0.0,0.0,-0.001,0
4996000,0.1258903,0.13833086,0.0006901026,0.0,0.0,-0.001,0
5020000,0.12499613,0.13836163,0.0006700754,0.0,0.0,-0.001,0
5036000,0.12450716,0.13837302,0.00058329105,0.0,0.0,-0.001,0
5056000,0.12411673,0.13812616,0.0005570054,0.0,0.0,-0.001,0
5076000,0.123523034,0.13809085,0.00043559074,0.0,0.0,-0.001,0
5096000,0.1231146,0.13797659,0.00048148632,0.0,0.0,-0.001,0
5116000,0.12267223,0.1379147,0.00044184923,0.0,0.0,-0.001,0
5140000,0.12200913,0.13759413,0.00044310093,0.0,0.0,-0.001,0
5160000,0.121694535,0.13736525,0.0005094409,0.0,0.0,-0.001,0
5176000,0.12151901,0.13731688,0.0006020665,0.0,0.0,-0.001,0
5196000,0.12119115,0.13750139,0.0006483793,0.0,0.0,-0.001,0
5220000,0.12079521,0.13736454,0.0006529689,0.0,0.0,-0.001,0
5240000,0.12062476,0.13733773,0.0006133318,0.0,0.0,-0.001,0
5256000,0.12039585,0.13733009,0.00062835217,0.0,0.0,-0.001,0
5280000,0.1201182,0.13746578,0.00057411194,0.0,0.0,-0.001,0
5300000,0.1198907,0.13765176,0.0006996989,0.0,0.0,-0.001,0
5316000,0.11969721,0.13772684,0.0008223653,0.0,0.0,-0.001,0
5336000,0.11946392,0.13774945,0.0006521344,0.0,0.0,-0.001,0
5356000,0.11944905,0.13772023,0.0007314086,0.0,0.0,-0.001,0
5376000,0.118980795,0.13788532,0.0006763339,0.0,0.0,-0.001,0
5396000,0.11886215,0.13787404,0.0008060932,0.0,0.0,-0.001,0
5420000,0.1184068,0.1377505,0.0008111,0.0,0.0,-0.001,0
5436000,0.1181159,0.13760781,0.0007055402,0.0,0.0,-0.001,0
5456000,0.118143275,0.13779855,0.00059330463,0.0,0.0,-0.001,0
5476000,0.117922515,0.13773376,0.00067424774,0.0,0.0,-0.001,0
5496000,0.11765382,0.13774094,0.0005816221,0.0,0.0,-0.001,0
5520000,0.117397204,0.13766031,0.00058579445,0.0,0.0,-0.001,0
5536000,0.11722427,0.13755795,0.0006070733,0.0,0.0,-0.001,0
5560000,0.1172722,0.1374724,0.0005887151,0.0,0.0,-0.001,0
5580000,0.117325366,0.13750784,0.00068718195,0.0,0.0,-0.001,0
5596000,0.117306985,0.13739078,0.00066256523,0.0,0.0,-0.001,0
5620000,0.117398046,0.13704263,0.00063210726,0.0,0.0,-0.001,0
5636000,0.11739084,0.13691805,0.0006245971,0.0,0.0,-0.001,0
5656000,0.11729908,0.13681525,0.00057703257,0.0,0.0,-0.001,0
5676000,0.1175051,0.1365164,0.00052696466,0.0,0.0,-0.001,0
5696000,0.11774085,0.13657844,0.00051862,0.0,0.0,-0.001,0
5716000,0.11778093,0.1366169,0.0006170869,0.0,0.0,-0.001,0
5736000,0.11804664,0.13645291,0.00051903725,0.0,0.0,-0.001,0
5756000,0.118164316,0.1363666,0.00030082464,0.0,0.0,-0.001,0
5776000,0.118440315,0.1361366,0.00041013956,0.0,0.0,-0.001,0
5796000,0.11852198,0.13574891,0.0002949834,0.0,0.0,-0.001,0
5816000,0.11874027,0.13572629,0.0003784299,0.0,0.0,-0.001,0
5836000,0.11889936,0.13574661,0.00025826693,0.0,0.0,-0.001,0
5856000,0.1191263,0.13562529,0.00037801266,0.0,0.0,-0.001,0
5876000,0.119323805,0.1355865,0.00031918287,0.0,0.0,-0.001,0
5900000,0.119667575,0.13565464,0.00028830767,0.0,0.0,-0.001,0
5916000,0.119913444,0.13542302,0.00030082464,0.0,0.0,-0.001,0
5936000,0.119781226,0.13572295,0.00046896935,0.0,0.0,-0.001,0
5956000,0.11963326,0.13592675,0.0004118085,0.0,0.0,-0.001,0
5976000,0.11953558,0.13596797,0.00047188997,0.0,0.0,-0.001,0
5996000,0.11955614,0.13572575,0.00045102835,0.0,0.0,-0.001,0
6016000,0.11946911,0.13549663,0.00049859285,0.0,0.0,-0.001,0
6036000,0.11943743,0.13546853,0.00040513277,0.0,0.0,-0.001,0
6060000,0.11995902,0.1353732,0.0003796816,0.0,0.0,-0.001,0
6076000,0.12006847,0.13534805,0.00038802624,0.0,0.0,-0.001,0
6096000,0.12005987,0.13518365,0.0004823208,0.0,0.0,-0.001,0
6120000,0.12008701,0.13526648,0.0005207062,0.0,0.0,-0.001,0
6140000,0.12008658,0.13528639,0.00046688318,0.0,0.0,-0.001,0
6160000,0.11992547,0.13509767,0.00054115057,0.0,0.0,-0.001,0
6180000,0.12003571,0.13511276,0.0008273721,0.0,0.0,-0.001,0
6200000,0.1198969,0.13515857,0.00067842007,0.0,0.0,-0.001,0
6220000,0.11989833,0.13505368,0.0008023381,0.0,0.0,-0.001,0
6240000,0.11994155,0.13495107,0.0006942749,0.0,0.0,-0.001,0
6256000,0.11989888,0.13475671,0.000662148,0.0,0.0,-0.001,0
6276000,0.11990263,0.13471183,0.0007009506,0.0,0.0,-0.001,0
6300000,0.11957171,0.13486126,0.00071012974,0.0,0.0,-0.001,0
6320000,0.11948036,0.13496056,0.0005953908,0.0,0.0,-0.001,0
6336000,0.119225524,0.13484259,0.00057786703,0.0,0.0,-0.001,0
6360000,0.11900118,0.1350189,0.000572443,0.0,0.0,-0.001,0
6380000,0.11876248,0.13511458,0.00059622526,0.0,0.0,-0.001,0
6396000,0.118690245,0.13503331,0.00057035685,0.0,0.0,-0.001,0
6420000,0.118684605,0.13530396,0.0005645156,0.0,0.0,-0.001,0
6440000,0.11855955,0.13533172,0.0005378127,0.0,0.0,-0.001,0
6460000,0.1184741,0.13512485,0.000554502,0.0,0.0,-0.001,0
6480000,0.11834195,0.13501573,0.00046688318,0.0,0.0,-0.001,0
6500000,0.11823028,0.13528425,0.0003838539,0.0,0.0,-0.001,0
6516000,0.11813892,0.13529591,0.00039303303,0.0,0.0,-0.001,0
6540000,0.11792922,0.13523093,0.0004297495,0.0,0.0,-0.001,0
6560000,0.117924996,0.13502501,0.00041639805,0.0,0.0,-0.001,0
6576000,0.11787342,0.13493146,0.0005040169,0.0,0.0,-0.001,0
6600000,0.11777572,0.13491425,0.00049859285,0.0,0.0,-0.001,0
6620000,0.117465734,0.13496931,0.0008428097,0.0,0.0,-0.001,0
6636000,0.11735321,0.13486117,0.0008444786,0.0,0.0,-0.001,0
6660000,0.11694966,0.13476503,0.00081694126,0.0,0.0,-0.001,0
6680000,0.116702326,0.1348633,0.0006592274,0.0,0.0,-0.001,0
6700000,0.11665816,0.13482204,0.00086283684,0.0,0.0,-0.001,0
6716000,0.11644366,0.13497871,0.00074601173,0.0,0.0,-0.001,0
6736000,0.11632865,0.1352421,0.0006400347,0.0,0.0,-0.001,0
6756000,0.11605521,0.13541709,0.0009329319,0.0,0.0,-0.001,0
6780000,0.1158509,0.13541879,0.000852406,0.0,0.0,-0.001,0
6796000,0.11581682,0.13550107,0.0008945465,0.0,0.0,-0.001,0
6820000,0.11560354,0.13564008,0.00083988905,0.0,0.0,-0.001,0
6836000,0.115359396,0.13546434,0.00069469213,0.0,0.0,-0.001,0
6860000,0.11525184,0.13546537,0.0006825924,0.0,0.0,-0.001,0
6880000,0.11510288,0.13554348,0.000572443,0.0,0.0,-0.001,0
6900000,0.114955574,0.13572559,0.00047314167,0.0,0.0,-0.001,0
6916000,0.11491156,0.13576785,0.00046521425,0.0,0.0,-0.001,0
6940000,0.11475094,0.13595104,0.00046145916,0.0,0.0,-0.001,0
6956000,0.11465431,0.1359508,0.00038468838,0.0,0.0,-0.001,0
6980000,0.11437386,0.13594373,0.0002670288,0.0,0.0,-0.001,0
6996000,0.114486165,0.13609977,0.0003233552,0.0,0.0,-0.001,0
7016000,0.114551775,0.136488,0.000441432,0.0,0.0,-0.001,0
7036000,0.114442,0.13665158,0.00037926435,0.0,0.0,-0.001,0
7060000,0.11440717,0.13671799,0.00029039383,0.0,0.0,-0.001,0
7076000,0.11444641,0.13663179,0.0002757907,0.0,0.0,-0.001,0
7096000,0.11448392,0.1367384,0.00039595366,0.0,0.0,-0.001,0
7116000,0.11432135,0.13692668,0.00035130978,0.0,0.0,-0.001,0
7136000,0.11426222,0.13691927,0.00047898293,0.0,0.0,-0.001,0
7160000,0.11455873,0.1370282,0.00049316883,0.0,0.0,-0.001,0
7180000,0.11485114,0.1371263,0.00056785345,0.0,0.0,-0.001,0
7200000,0.114843264,0.13710308,0.00058454275,0.0,0.0,-0.001,0
7220000,0.11477317,0.13687009,0.0006533861,0.0,0.0,-0.001,0
7240000,0.11450952,0.13686924,0.0006020665,0.0,0.0,-0.001,0
7260000,0.11446424,0.13708116,0.0006300211,0.0,0.0,-0.001,0
7276000,0.11470395,0.13693827,0.00061166286,0.0,0.0,-0.001,0
7300000,0.11477669,0.1367577,0.0007172227,0.0,0.0,-0.001,0
7320000,0.11509412,0.13674565,0.00038135052,0.0,0.0,-0.001,0
7340000,0.11511481,0.1368321,0.0002732873,0.0,0.0,-0.001,0
7360000,0.11484604,0.13697797,0.0003759265,0.0,0.0,-0.001,0
7380000,0.11469953,0.13709626,0.0002232194,0.0,0.0,-0.001,0
7400000,0.11459334,0.13684134,0.00032669306,0.0,0.0,-0.001,0
7420000,0.114469856,0.13657737,0.00016021729,0.0,0.0,-0.001,0
7440000,0.11450935,0.13684182,0.0003504753,0.0,0.0,-0.001,0
7460000,0.11471975,0.13686809,0.00025826693,0.0,0.0,-0.001,0
7480000,0.11499653,0.13713393,0.00042891502,0.0,0.0,-0.001,0
7500000,0.11518342,0.1371724,0.00035089254,0.0,0.0,-0.001,0
7516000,0.11549492,0.13742295,0.00042140484,0.0,0.0,-0.001,0
7540000,0.11567037,0.13744481,0.000500679,0.0,0.0,-0.001,0
7560000,0.115800366,0.13780306,0.0005386472,0.0,0.0,-0.001,0
7580000,0.11583777,0.13784492,0.0005144477,0.0,0.0,-0.001,0
7600000,0.116421886,0.13800186,0.0005056858,0.0,0.0,-0.001,0
7620000,0.11670189,0.13777949,0.0005565882,0.0,0.0,-0.001,0
7640000,0.116742514,0.1375959,0.00052779913,0.0,0.0,-0.001,0
7660000,0.1166051,0.13756707,0.00046771765,0.0,0.0,-0.001,0
7680000,0.11661169,0.13756609,0.0005378127,0.0,0.0,-0.001,0
7700000,0.11671108,0.1374384,0.0004310012,0.0,0.0,-0.001,0
7720000,0.11706167,0.13753586,0.00048357248,0.0,0.0,-0.001,0
7740000,0.11729315,0.13739549,0.00057661533,0.0,0.0,-0.001,0
7760000,0.11737829,0.1370645,0.0005328059,0.0,0.0,-0.001,0
7780000,0.11760308,0.13683909,0.00056535006,0.0,0.0,-0.001,0
7800000,0.11787108,0.1368969,0.00051903725,0.0,0.0,-0.001,0
7820000,0.117981695,0.137031,0.00071930885,0.0,0.0,-0.001,0
7840000,0.1180494,0.13680041,0.0006350279,0.0,0.0,-0.001,0
7856000,0.11798978,0.1367196,0.0006195903,0.0,0.0,-0.001,0
7876000,0.1180667,0.13685659,0.0006775856,0.0,0.0,-0.001,0
7896000,0.11790231,0.13672389,0.0006504655,0.0,0.0,-0.001,0
7916000,0.1177774,0.13645458,0.00074350834,0.0,0.0,-0.001,0
7936000,0.117795885,0.13624677,0.0006275177,0.0,0.0,-0.001,0
7956000,0.11780855,0.13630769,0.0006863475,0.0,0.0,-0.001,0
7976000,0.11789501,0.13626218,0.0005595088,0.0,0.0,-0.001,0
7996000,0.118018284,0.13614821,0.0006725788,0.0,0.0,-0.001,0
8016000,0.117964335,0.13627043,0.0006003976,0.0,0.0,-0.001,0
8036000,0.11791082,0.1363174,0.0004940033,0.0,0.0,-0.001,0
8056000,0.11788509,0.13630904,0.0005056858,0.0,0.0,-0.001,0
8076000,0.11810043,0.13624069,0.0004451871,0.0,0.0,-0.001,0
8096000,0.11814765,0.13614817,0.00048691034,0.0,0.0,-0.001,0
8116000,0.1182269,0.1361328,0.00048065186,0.0,0.0,-0.001,0
8136000,0.11823895,0.13584158,0.0005398989,0.0,0.0,-0.001,0
8156000,0.118128166,0.13582171,0.00049316883,0.0,0.0,-0.001,0
8180000,0.118268065,0.1356261,0.0005144477,0.0,0.0,-0.001,0
8196000,0.11827025,0.13554332,0.00052654743,0.0,0.0,-0.001,0
8220000,0.11817793,0.1352539,0.00051653385,0.0,0.0,-0.001,0
8240000,0.11829214,0.13516036,0.0005645156,0.0,0.0,-0.001,0
8260000,0.11816545,0.13527568,0.0005565882,0.0,0.0,-0.001,0
8276000,0.11804492,0.13536084,0.00058704615,0.0,0.0,-0.001,0
8300000,0.11809779,0.13503966,0.000536561,0.0,0.0,-0.001,0
8320000,0.11803663,0.13487837,0.0005248785,0.0,0.0,-0.001,0
8340000,0.118139945,0.13475302,0.0006020665,0.0,0.0,-0.001,0
8356000,0.11825348,0.13473333,0.00062960386,0.0,0.0,-0.001,0
8380000,0.11816858,0.13470925,0.0005553365,0.0,0.0,-0.001,0
8396000,0.1182979,0.13480249,0.00041139126,0.0,0.0,-0.001,0
8416000,0.118262336,0.13457604,0.00047063828,0.0,0.0,-0.001,0
8436000,0.117927395,0.13440421,0.00043225288,0.0,0.0,-0.001,0
8456000,0.11764533,0.13418981,0.0005799532,0.0,0.0,-0.001,0
8476000,0.11746901,0.13419197,0.00054615736,0.0,0.0,-0.001,0
8496000,0.11718392,0.1342109,0.00057035685,0.0,0.0,-0.001,0
8516000,0.11710818,0.13431075,0.0006212592,0.0,0.0,-0.001,0
8536000,0.11723897,0.13428347,0.00052654743,0.0,0.0,-0.001,0
8556000,0.117033534,0.13422969,0.0005478263,0.0,0.0,-0.001,0
8580000,0.11701196,0.13409708,0.00056910515,0.0,0.0,-0.001,0
8600000,0.116991,0.13404672,0.00056910515,0.0,0.0,-0.001,0
8620000,0.11695272,0.13388978,0.00055617094,0.0,0.0,-0.001,0
8640000,0.116941005,0.13395031,0.0005453229,0.0,0.0,-0.001,0
8660000,0.116731726,0.13381685,0.0005891323,0.0,0.0,-0.001,0
8676000,0.11660669,0.1338011,0.00054323673,0.0,0.0,-0.001,0
8700000,0.116402335,0.13381691,0.0005323887,0.0,0.0,-0.001,0
8720000,0.11627876,0.13379604,0.00051027536,0.0,0.0,-0.001,0
8740000,0.11631234,0.13403991,0.0005161166,0.0,0.0,-0.001,0
8756000,0.11634331,0.13422735,0.0006200075,0.0,0.0,-0.001,0
8780000,0.11623388,0.13436025,0.0005887151,0.0,0.0,-0.001,0
8800000,0.11620913,0.13430545,0.00058454275,0.0,0.0,-0.001,0
8820000,0.11623915,0.13412437,0.00051653385,0.0,0.0,-0.001,0
8840000,0.116196856,0.13418084,0.00051778555,0.0,0.0,-0.001,0
8856000,0.116216,0.1341055,0.0005507469,0.0,0.0,-0.001,0
8880000,0.11612912,0.13395496,0.0004990101,0.0,0.0,-0.001,0
8900000,0.116262265,0.1337647,0.0005503297,0.0,0.0,-0.001,0
8916000,0.116074145,0.13400006,0.00054365396,0.0,0.0,-0.001,0
8936000,0.11616282,0.1338683,0.00053071976,0.0,0.0,-0.001,0
8956000,0.11592977,0.13383056,0.00055742264,0.0,0.0,-0.001,0
8976000,0.116029456,0.13359267,0.0005328059,0.0,0.0,-0.001,0
8996000,0.115707204,0.13369411,0.00050610304,0.0,0.0,-0.001,0
9020000,0.115701035,0.13370906,0.000549078,0.0,0.0,-0.001,0
9040000,0.11575779,0.13370271,0.0005211234,0.0,0.0,-0.001,0
9060000,0.115756914,0.13356134,0.00048357248,0.0,0.0,-0.001,0
9080000,0.11544565,0.1336477,0.00049859285,0.0,0.0,-0.001,0
9100000,0.11544996,0.13348761,0.00052446127,0.0,0.0,-0.001,0
9120000,0.11568377,0.13315552,0.000477314,0.0,0.0,-0.001,0
9136000,0.115692966,0.13314277,0.0004748106,0.0,0.0,-0.001,0
9156000,0.11560129,0.1328802,0.00044101477,0.0,0.0,-0.001,0
9180000,0.11559964,0.13291177,0.00033169985,0.0,0.0,-0.001,0
9200000,0.115664914,0.13268793,0.00043559074,0.0,0.0,-0.001,0
9220000,0.11568554,0.13241039,0.00039762259,0.0,0.0,-0.001,0
9236000,0.11567501,0.13246469,0.00035339594,0.0,0.0,-0.001,0
9256000,0.115830414,0.13265276,0.00042808056,0.0,0.0,-0.001,0
9276000,0.11581028,0.13304283,0.0004017949,0.0,0.0,-0.001,0
9300000,0.11570585,0.13302644,0.00036883354,0.0,0.0,-0.001,0
9320000,0.11575128,0.13287026,0.0005386472,0.0,0.0,-0.001,0
9340000,0.11555527,0.1329681,0.0004247427,0.0,0.0,-0.001,0
9356000,0.115425274,0.13281217,0.0004376769,0.0,0.0,-0.001,0
9380000,0.115206316,0.133154,0.00051903725,0.0,0.0,-0.001,0
9400000,0.11496433,0.13303304,0.0005111098,0.0,0.0,-0.001,0
9420000,0.114975795,0.1329845,0.00047397614,0.0,0.0,-0.001,0
9440000,0.11499205,0.1329435,0.0005248785,0.0,0.0,-0.001,0
9460000,0.11498142,0.1331786,0.00053572655,0.0,0.0,-0.001,0
9476000,0.11515814,0.1333302,0.00049316883,0.0,0.0,-0.001,0
9500000,0.115079105,0.13322648,0.0004885793,0.0,0.0,-0.001,0
9520000,0.11494446,0.13288373,0.00049108267,0.0,0.0,-0.001,0
9540000,0.11486722,0.13251092,0.00042140484,0.0,0.0,-0.001,0
9556000,0.11485118,0.13246617,0.00048816204,0.0,0.0,-0.001,0
9576000,0.11483326,0.1325325,0.00049984455,0.0,0.0,-0.001,0
9596000,0.114655316,0.13232979,0.00047814846,0.0,0.0,-0.001,0
9620000,0.114574224,0.132375,0.00067299604,0.0,0.0,-0.001,0
9636000,0.114587806,0.13212043,0.0006759167,0.0,0.0,-0.001,0
9660000,0.11427811,0.13211183,0.0006842613,0.0,0.0,-0.001,0
9676000,0.11410381,0.13205442,0.0006788373,0.0,0.0,-0.001,0
9700000,0.113966964,0.13217546,0.000536561,0.0,0.0,-0.001,0
9716000,0.113835536,0.13224469,0.00059080124,0.0,0.0,-0.001,0
9740000,0.11395527,0.13177937,0.00052154064,0.0,0.0,-0.001,0
9756000,0.11403251,0.13171837,0.00030708313,0.0,0.0,-0.001,0
9780000,0.11430783,0.13135295,0.00035005808,0.0,0.0,-0.001,0
9800000,0.114386186,0.13119702,0.00039595366,0.0,0.0,-0.001,0
9820000,0.11430014,0.13101232,0.00029039383,0.0,0.0,-0.001,0
9836000,0.11429776,0.13089567,0.00024199486,0.0,0.0,-0.001,0
9856000,0.11430502,0.13088739,0.00042808056,0.0,0.0,-0.001,0
9876000,0.114152625,0.13104552,0.00036633015,0.0,0.0,-0.001,0
9900000,0.11413469,0.13122246,0.00048565865,0.0,0.0,-0.001,0
9916000,0.11418048,0.13106762,0.0005415678,0.0,0.0,-0.001,0
9940000,0.11410441,0.13111468,0.00046813488,0.0,0.0,-0.001,0
9956000,0.114083774,0.13110214,0.0005607605,0.0,0.0,-0.001,0
9980000,0.11399515,0.13108535,0.00054448843,0.0,0.0,-0.001,0
9996000,0.113707095,0.13098648,0.0005978942,0.0,0.0,-0.001,0
10020000,0.11352603,0.13082479,0.00062167645,0.0,0.0,-0.001,0
10040000,0.11308062,0.13102205,0.0005173683,0.0,0.0,-0.001,0
10060000,0.11317222,0.13119306,0.00064462423,0.0,0.0,-0.001,0
10076000,0.11300781,0.13110512,0.00066548586,0.0,0.0,-0.001,0
10096000,0.11292429,0.13114443,0.00055992603,0.0,0.0,-0.001,0
10116000,0.11288499,0.13121544,0.00058704615,0.0,0.0,-0.001,0
10140000,0.112886935,0.1313211,0.00059330463,0.0,0.0,-0.001,0
10156000,0.112857684,0.13145663,0.0005887151,0.0,0.0,-0.001,0
10180000,0.11296606,0.13150391,0.00052446127,0.0,0.0,-0.001,0
10200000,0.112913705,0.13160174,0.00048190355,0.0,0.0,-0.001,0
10220000,0.11290802,0.13158317,0.0004568696,0.0,0.0,-0.001,0
10240000,0.11295112,0.13149527,0.00047439337,0.0,0.0,-0.001,0
10256000,0.11307642,0.13170546,0.00045353174,0.0,0.0,-0.001,0
10280000,0.11324687,0.1316997,0.00045269728,0.0,0.0,-0.001,0
10300000,0.11320429,0.13146949,0.0004143119,0.0,0.0,-0.001,0
10320000,0.113381736,0.13136934,0.0004618764,0.0,0.0,-0.001,0
10340000,0.1134388,0.13135464,0.00044184923,0.0,0.0,-0.001,0
10356000,0.113586225,0.13136488,0.00048065186,0.0,0.0,-0.001,0
10380000,0.113338456,0.13137433,0.0005136132,0.0,0.0,-0.001,0
10396000,0.113532215,0.13110787,0.00050860643,0.0,0.0,-0.001,0
10416000,0.11362186,0.13072696,0.00051027536,0.0,0.0,-0.001,0
10440000,0.11371253,0.1304864,0.00048440695,0.0,0.0,-0.001,0
10456000,0.11371938,0.13056019,0.00049608946,0.0,0.0,-0.001,0
10476000,0.11397511,0.13072003,0.0005069375,0.0,0.0,-0.001,0
10500000,0.11421638,0.13078508,0.0004965067,0.0,0.0,-0.001,0
10520000,0.11409985,0.13065897,0.0005019307,0.0,0.0,-0.001,0
10540000,0.11408285,0.13044533,0.00051778555,0.0,0.0,-0.001,0
10556000,0.11400143,0.13051383,0.0004977584,0.0,0.0,-0.001,0
10580000,0.1136351,0.13054745,0.0005878806,0.0,0.0,-0.001,0
10596000,0.113584824,0.13029185,0.00052779913,0.0,0.0,-0.001,0
10620000,0.11376628,0.1304819,0.0004735589,0.0,0.0,-0.001,0
10640000,0.11375275,0.13046269,0.0004518628,0.0,0.0,-0.001,0
10660000,0.113732085,0.13038048,0.00045520067,0.0,0.0,-0.001,0
10676000,0.11374425,0.13049355,0.00043308735,0.0,0.0,-0.001,0
10700000,0.11352685,0.1307329,0.0003746748,0.0,0.0,-0.001,0
10720000,0.11327579,0.13076971,0.00046145916,0.0,0.0,-0.001,0
10740000,0.11321974,0.13097832,0.00047272444,0.0,0.0,-0.001,0
10756000,0.11313537,0.13083908,0.000387609,0.0,0.0,-0.001,0
10776000,0.11331981,0.13085796,0.00044226646,0.0,0.0,-0.001,0
10796000,0.11341384,0.13075295,0.00043851137,0.0,0.0,-0.001,0
10816000,0.11315428,0.13037696,0.000477314,0.0,0.0,-0.001,0
10840000,0.11291297,0.12999941,0.0004297495,0.0,0.0,-0.001,0
10856000,0.11275095,0.12997216,0.00043976307,0.0,0.0,-0.001,0
10876000,0.11258214,0.12959374,0.0004042983,0.0,0.0,-0.001,0
10900000,0.112608254,0.1295611,0.0004310012,0.0,0.0,-0.001,0
10916000,0.112475164,0.1294736,0.00050902367,0.0,0.0,-0.001,0
10936000,0.11231555,0.12951702,0.0005106926,0.0,0.0,-0.001,0
10956000,0.11207253,0.12978172,0.00055909157,0.0,0.0,-0.001,0
10976000,0.11202534,0.12982167,0.0005378127,0.0,0.0,-0.001,0
10996000,0.111953996,0.12983684,0.000590384,0.0,0.0,-0.001,0
11020000,0.112029396,0.12980373,0.00052279234,0.0,0.0,-0.001,0
11036000,0.112144865,0.1298942,0.0005390644,0.0,0.0,-0.001,0
11056000,0.11227303,0.12982742,0.0005040169,0.0,0.0,-0.001,0
11076000,0.11215162,0.1300035,0.0004710555,0.0,0.0,-0.001,0
11100000,0.11192453,0.13036294,0.00044435263,0.0,0.0,-0.001,0
11116000,0.111885495,0.13003063,0.0004297495,0.0,0.0,-0.001,0
11140000,0.111940846,0.12961176,0.0004172325,0.0,0.0,-0.001,0
11160000,0.11215914,0.12943421,0.00046020746,0.0,0.0,-0.001,0
11180000,0.11238925,0.12941831,0.0003684163,0.0,0.0,-0.001,0
11200000,0.11260901,0.12944987,0.0004105568,0.0,0.0,-0.001,0
11220000,0.11273008,0.12939212,0.00042265654,0.0,0.0,-0.001,0
11240000,0.11248112,0.12929676,0.00041139126,0.0,0.0,-0.001,0
11260000,0.11252185,0.12917435,0.0003746748,0.0,0.0,-0.001,0
11280000,0.112519585,0.12879059,0.00042682886,0.0,0.0,-0.001,0
11300000,0.11265753,0.1284174,0.000441432,0.0,0.0,-0.001,0
11320000,0.112583295,0.1284007,0.00046771765,0.0,0.0,-0.001,0
11340000,0.112580284,0.12827538,0.00050359964,0.0,0.0,-0.001,0
11356000,0.112514645,0.12829934,0.0004723072,0.0,0.0,-0.001,0
11376000,0.11263521,0.1278563,0.00046104193,0.0,0.0,-0.001,0
11400000,0.11244559,0.12785813,0.0004581213,0.0,0.0,-0.001,0
11420000,0.11244423,0.1275967,0.0005040169,0.0,0.0,-0.001,0
11436000,0.11248815,0.12753798,0.00049984455,0.0,0.0,-0.001,0
11456000,0.11235578,0.12770605,0.00049191713,0.0,0.0,-0.001,0
11476000,0.11225373,0.12749743,0.00052779913,0.0,0.0,-0.001,0
11500000,0.112177566,0.12781204,0.00052821636,0.0,0.0,-0.001,0
11520000,0.112253964,0.1278246,0.0004760623,0.0,0.0,-0.001,0
11540000,0.1122755,0.12803738,0.0005261302,0.0,0.0,-0.001,0
11560000,0.112400554,0.1280908,0.00051778555,0.0,0.0,-0.001,0
11580000,0.11253015,0.12799369,0.00054991245,0.0,0.0,-0.001,0
11600000,0.11262576,0.12792826,0.0004889965,0.0,0.0,-0.001,0
11620000,0.112596005,0.12827152,0.00055867434,0.0,0.0,-0.001,0
11640000,0.11278664,0.12840141,0.00044810772,0.0,0.0,-0.001,0
11660000,0.112833716,0.12832838,0.00038093328,0.0,0.0,-0.001,0
11680000,0.11264169,0.12834868,0.0004130602,0.0,0.0,-0.001,0
11700000,0.11264528,0.12851293,0.00032001734,0.0,0.0,-0.001,0
11720000,0.11238018,0.12820572,0.00039428473,0.0,0.0,-0.001,0
11740000,0.112378486,0.12825978,0.00036382675,0.0,0.0,-0.001,0
11756000,0.112278864,0.12814209,0.00033837557,0.0,0.0,-0.001,0
11780000,0.112240806,0.12800463,0.0005261302,0.0,0.0,-0.001,0
11796000,0.11245888,0.12781927,0.0005194545,0.0,0.0,-0.001,0
11816000,0.11265811,0.12786764,0.00048691034,0.0,0.0,-0.001,0
11836000,0.11270685,0.12777391,0.00054490566,0.0,0.0,-0.001,0
11860000,0.11278655,0.12779485,0.0005136132,0.0,0.0,-0.001,0
11880000,0.11252774,0.1273015,0.0004969239,0.0,0.0,-0.001,0
11900000,0.11253313,0.12693198,0.00049066544,0.0,0.0,-0.001,0
11916000,0.11252701,0.1267912,0.0005686879,0.0,0.0,-0.001,0
11940000,0.112557925,0.12680262,0.0005494952,0.0,0.0,-0.001,0
11960000,0.11238565,0.12677017,0.00054240227,0.0,0.0,-0.001,0
11976000,0.11227122,0.12652302,0.00054615736,0.0,0.0,-0.001,0
11996000,0.1121827,0.1263939,0.0005970597,0.0,0.0,-0.001,0
12016000,0.11214864,0.12644807,0.00052154064,0.0,0.0,-0.001,0
12036000,0.11206496,0.12647809,0.0005745292,0.0,0.0,-0.001,0
12056000,0.111768916,0.12632076,0.00048607588,0.0,0.0,-0.001,0
12076000,0.111556664,0.12631714,0.00047647953,0.0,0.0,-0.001,0
12096000,0.11152763,0.12600833,0.00044977665,0.0,0.0,-0.001,0
12116000,0.11147979,0.1257544,0.00043684244,0.0,0.0,-0.001,0
12136000,0.11133079,0.1256722,0.00042808056,0.0,0.0,-0.001,0
12156000,0.11117774,0.12560296,0.0004130602,0.0,0.0,-0.001,0
12180000,0.11104075,0.12565772,0.00041222572,0.0,0.0,-0.001,0
12200000,0.110992625,0.12562338,0.00038260221,0.0,0.0,-0.001,0
12220000,0.11096702,0.12542844,0.00034546852,0.0,0.0,-0.001,0
12240000,0.110936545,0.12560561,0.00039970875,0.0,0.0,-0.001,0
12256000,0.11075002,0.12563965,0.00041681528,0.0,0.0,-0.001,0
12276000,0.110614926,0.12575534,0.00031083822,0.0,0.0,-0.001,0
12300000,0.11071847,0.12589696,0.0003529787,0.0,0.0,-0.001,0
12316000,0.11072333,0.12605157,0.00038844347,0.0,0.0,-0.001,0
12336000,0.11047723,0.12624398,0.00041347742,0.0,0.0,-0.001,0
12356000,0.11036592,0.12622565,0.00037384033,0.0,0.0,-0.001,0
12376000,0.11038436,0.12640256,0.0004364252,0.0,0.0,-0.001,0
12396000,0.11037569,0.12668242,0.00043809414,0.0,0.0,-0.001,0
12416000,0.11038889,0.12682915,0.00045770407,0.0,0.0,-0.001,0
12440000,0.11025004,0.12665154,0.00046938658,0.0,0.0,-0.001,0
12460000,0.110288434,0.12696674,0.00041097403,0.0,0.0,-0.001,0
12480000,0.110251606,0.12678972,0.0004284978,0.0,0.0,-0.001,0
12496000,0.11002085,0.12693638,0.00041681528,0.0,0.0,-0.001,0
12516000,0.10995098,0.1269926,0.00042682886,0.0,0.0,-0.001,0
12536000,0.10993711,0.12680557,0.0004197359,0.0,0.0,-0.001,0
12556000,0.10992077,0.1270921,0.00038552284,0.0,0.0,-0.001,0
12576000,0.10991369,0.12725264,0.00042140484,0.0,0.0,-0.001,0
12596000,0.110103615,0.12740919,0.00037258863,0.0,0.0,-0.001,0
12616000,0.11035889,0.12709893,0.00042641163,0.0,0.0,-0.001,0
12636000,0.11041632,0.12687579,0.00044935942,0.0,0.0,-0.001,0
12660000,0.11056235,0.12682024,0.0004543662,0.0,0.0,-0.001,0
12676000,0.11063168,0.12672132,0.00050109625,0.0,0.0,-0.001,0
12700000,0.11060452,0.12676936,0.0005303025,0.0,0.0,-0.001,0
12716000,0.11033169,0.12684146,0.0005995631,0.0,0.0,-0.001,0
12740000,0.11021279,0.12675661,0.0005941391,0.0,0.0,-0.001,0
12756000,0.10998274,0.12686923,0.00050777197,0.0,0.0,-0.001,0
12780000,0.109957956,0.1269192,0.00062918663,0.0,0.0,-0.001,0
12800000,0.11002822,0.12704417,0.0005415678,0.0,0.0,-0.001,0
12820000,0.10984274,0.1274112,0.0006579757,0.0,0.0,-0.001,0
12840000,0.10995154,0.12736577,0.00049984455,0.0,0.0,-0.001,0
12860000,0.1098864,0.12716883,0.00059455633,0.0,0.0,-0.001,0
12880000,0.10979415,0.12739974,0.00050985813,0.0,0.0,-0.001,0
12900000,0.10977373,0.12735176,0.00050485134,0.0,0.0,-0.001,0
12920000,0.109518975,0.12730911,0.000536561,0.0,0.0,-0.001,0
12940000,0.109375626,0.12725052,0.0006195903,0.0,0.0,-0.001,0
12956000,0.10921843,0.12719098,0.0005736947,0.0,0.0,-0.001,0
12980000,0.10920685,0.12747331,0.0005065203,0.0,0.0,-0.001,0
12996000,0.10912682,0.1274544,0.0005457401,0.0,0.0,-0.001,0
13020000,0.10887862,0.12728783,0.00046229362,0.0,0.0,-0.001,0
13036000,0.108732164,0.12722464,0.00051403046,0.0,0.0,-0.001,0
13060000,0.10855978,0.12706499,0.00044894218,0.0,0.0,-0.001,0
13076000,0.10860685,0.1272241,0.0004143119,0.0,0.0,-0.001,0
13100000,0.10862125,0.12700298,0.00041389465,0.0,0.0,-0.001,0
13120000,0.10869013,0.12703699,0.00040096045,0.0,0.0,-0.001,0
13140000,0.109115064,0.1271024,0.00037133694,0.0,0.0,-0.001,0
13160000,0.10925895,0.12679212,0.00040221214,0.0,0.0,-0.001,0
13180000,0.10949928,0.12648928,0.00036340952,0.0,0.0,-0.001,0
13200000,0.10945296,0.12657906,0.00045853853,0.0,0.0,-0.001,0
13220000,0.109295145,0.12658112,0.00041139126,0.0,0.0,-0.001,0
13240000,0.10934182,0.12685597,0.00045144558,0.0,0.0,-0.001,0
13260000,0.1092988,0.12679216,0.00044852495,0.0,0.0,-0.001,0
13276000,0.10930572,0.12657039,0.000495255,0.0,0.0,-0.001,0
13300000,0.109296426,0.12643628,0.0005052686,0.0,0.0,-0.001,0
13320000,0.109473825,0.12640521,0.0005019307,0.0,0.0,-0.001,0
13340000,0.109456114,0.12631135,0.00048190355,0.0,0.0,-0.001,0
13356000,0.10952818,0.12609597,0.00052696466,0.0,0.0,-0.001,0
13380000,0.10958986,0.12627189,0.00050610304,0.0,0.0,-0.001,0
13400000,0.10959652,0.12624587,0.00051903725,0.0,0.0,-0.001,0
13420000,0.10954724,0.12623157,0.00053697824,0.0,0.0,-0.001,0
13436000,0.109667115,0.12622504,0.0005348921,0.0,0.0,-0.001,0
13456000,0.10977551,0.12626536,0.00047814846,0.0,0.0,-0.001,0
13476000,0.10973884,0.12618034,0.00044059753,0.0,0.0,-0.001,0
13496000,0.10989624,0.12572813,0.0005173683,0.0,0.0,-0.001,0
13520000,0.10962537,0.12579755,0.000513196,0.0,0.0,-0.001,0
13540000,0.1094825,0.12590478,0.00048482418,0.0,0.0,-0.001,0
13560000,0.1095009,0.1257403,0.00046104193,0.0,0.0,-0.001,0
13580000,0.109321356,0.12572591,0.0005161166,0.0,0.0,-0.001,0
13600000,0.10906626,0.12574768,0.00046104193,0.0,0.0,-0.001,0
13620000,0.10868703,0.12590726,0.00047397614,0.0,0.0,-0.001,0
13636000,0.108600534,0.12603271,0.0004969239,0.0,0.0,-0.001,0
13656000,0.10862142,0.12598354,0.00041222572,0.0,0.0,-0.001,0
13676000,0.10836041,0.12608469,0.00031876564,0.0,0.0,-0.001,0
13696000,0.10799793,0.12587851,0.00041514635,0.0,0.0,-0.001,0
13716000,0.107857876,0.1258255,0.00032794476,0.0,0.0,-0.001,0
13736000,0.10763404,0.1258978,0.00039970875,0.0,0.0,-0.001,0
13756000,0.10743886,0.1258728,0.00045019388,0.0,0.0,-0.001,0
13776000,0.107281916,0.1259688,0.00041890144,0.0,0.0,-0.001,0
13796000,0.10717253,0.12600578,0.0002949834,0.0,0.0,-0.001,0
13820000,0.107241705,0.12600654,0.00025826693,0.0,0.0,-0.001,0
13840000,0.10717036,0.12588666,0.00037759542,0.0,0.0,-0.001,0
13856000,0.10727184,0.12597944,0.0003913641,0.0,0.0,-0.001,0
13880000,0.10733188,0.12594782,0.00042057037,0.0,0.0,-0.001,0
13900000,0.107665315,0.12588839,0.0004080534,0.0,0.0,-0.001,0
13916000,0.10767425,0.12567075,0.0003400445,0.0,0.0,-0.001,0
13940000,0.107599124,0.125783,0.00050610304,0.0,0.0,-0.001,0
13960000,0.107430175,0.12577298,0.00046479702,0.0,0.0,-0.001,0
13980000,0.10744154,0.12555365,0.00052696466,0.0,0.0,-0.001,0
13996000,0.10773601,0.12556428,0.0004606247,0.0,0.0,-0.001,0
14020000,0.107987896,0.1255876,0.0005182028,0.0,0.0,-0.001,0
14040000,0.107769154,0.12545376,0.00046563148,0.0,0.0,-0.001,0
14060000,0.10768546,0.1255401,0.0004798174,0.0,0.0,-0.001,0
14076000,0.10773734,0.1254091,0.0005686879,0.0,0.0,-0.001,0
14096000,0.10780032,0.12511486,0.00052154064,0.0,0.0,-0.001,0
14116000,0.10748701,0.12526056,0.0005661845,0.0,0.0,-0.001,0
14140000,0.10735834,0.1251959,0.0005528331,0.0,0.0,-0.001,0
14156000,0.10768634,0.12517327,0.0006175041,0.0,0.0,-0.001,0
14176000,0.10750792,0.12482772,0.0005173683,0.0,0.0,-0.001,0
14196000,0.10758315,0.124831475,0.0005803704,0.0,0.0,-0.001,0
14216000,0.107366964,0.12484349,0.00054740906,0.0,0.0,-0.001,0
14236000,0.1073707,0.124864005,0.00058078766,0.0,0.0,-0.001,0
14260000,0.107248075,0.12474911,0.0005707741,0.0,0.0,-0.001,0
14280000,0.10726041,0.1247135,0.00048941374,0.0,0.0,-0.001,0
14300000,0.10693767,0.12486029,0.00056660175,0.0,0.0,-0.001,0
14316000,0.106940165,0.12473251,0.0005169511,0.0,0.0,-0.001,0
14340000,0.107460365,0.12461969,0.00054490566,0.0,0.0,-0.001,0
14360000,0.10760714,0.12421955,0.0004902482,0.0,0.0,-0.001,0
14380000,0.10795037,0.12401081,0.0006233454,0.0,0.0,-0.001,0
14396000,0.09782843,0.13073882,0.0006738305,0.0,0.0,-0.008075848,0
14416000,0.0984314,0.12945563,0.0005841255,0.0,0.0,-0.011059212,0
14436000,0.099370435,0.13007306,0.00063836575,0.0,0.0,-0.013121714,0
14460000,0.10011776,0.12951897,0.0005878806,0.0,0.0,-0.016267708,0
14476000,0.10173541,0.12848753,0.00058954954,0.0,0.0,-0.018469498,0
14500000,0.100331426,0.12733181,0.0005803704,0.0,0.0,-0.021919569,0
14516000,0.100583926,0.1278339,0.0005148649,0.0,0.0,-0.02423095,0
14540000,0.09960319,0.128411,0.0005323887,0.0,0.0,-0.027799224,0
14556000,0.1010641,0.12967235,0.0005553365,0.0,0.0,-0.03023169,0
14580000,0.10172136,0.12993366,0.00048607588,0.0,0.0,-0.034011375,0
14596000,0.10020716,0.1305508,0.0004723072,0.0,0.0,-0.036570486,0
14620000,0.10104752,0.13140938,0.0004710555,0.0,0.0,-0.040534228,0
14636000,0.100725695,0.1314492,0.0004247427,0.0,0.0,-0.043234564,0
14660000,0.100306645,0.13023922,0.00045144558,0.0,0.0,-0.047341686,0
14676000,0.10064199,0.13052253,0.00045895576,0.0,0.0,-0.050110564,0
14700000,0.10183196,0.13138036,0.00045520067,0.0,0.0,-0.054297082,0
14720000,0.10656153,0.13167045,0.0004685521,0.0,0.0,-0.058587737,0
14736000,0.10733736,0.13167477,0.00044977665,0.0,0.0,-0.06149466,0
14756000,0.107217856,0.12930328,0.0004310012,0.0,0.0,-0.064417675,0
14776000,0.10636799,0.12585743,0.00046020746,0.0,0.0,-0.06904335,0
14796000,0.105591886,0.12563816,0.0003684163,0.0,0.0,-0.072235726,0
14816000,0.106841475,0.12297326,0.00045228004,0.0,0.0,-0.07706518,0
14836000,0.10765864,0.12329396,0.00041222572,0.0,0.0,-0.08032478,0
14856000,0.10758382,0.12313421,0.00042390823,0.0,0.0,-0.08532015,0
14876000,0.108464874,0.12061101,0.0004339218,0.0,0.0,-0.08864814,0
14900000,0.11039068,0.122328095,0.00039470196,0.0,0.0,-0.09373453,0
14916000,0.11066382,0.12218171,0.00038051605,0.0,0.0,-0.0972041,0
14940000,0.11068443,0.12173332,0.00057536364,0.0,0.0,-0.102497436,0
14956000,0.10837902,0.1230728,0.0005607605,0.0,0.0,-0.10615161,0
14976000,0.10845353,0.12117308,0.000513196,0.0,0.0,-0.111668736,0
14996000,0.11086948,0.121540606,0.00059330463,0.0,0.0,-0.11542911,0
15016000,0.108508505,0.12127508,0.0005069375,0.0,0.0,-0.121172935,0
15036000,0.10839123,0.121190466,0.0005557537,0.0,0.0,-0.12503827,0
15056000,0.10830156,0.12127932,0.00047397614,0.0,0.0,-0.13094765,0
15076000,0.108517535,0.121290565,0.0006045699,0.0,0.0,-0.13498491,0
15096000,0.10845074,0.12130106,0.0004940033,0.0,0.0,-0.14108583,0
15116000,0.11284006,0.12011132,0.0004643798,0.0,0.0,-0.14515352,0
15136000,0.11574318,0.121791996,0.00040012598,0.0,0.0,-0.15142703,0
15156000,0.117424265,0.12061352,0.00038427114,0.0,0.0,-0.15569113,0
15176000,0.11847633,0.1197872,0.0003671646,0.0,0.0,-0.16211528,0
15196000,0.11921761,0.120018885,0.0004247427,0.0,0.0,-0.16636091,0
15216000,0.121576644,0.11999034,0.00037050247,0.0,0.0,-0.17293967,0
15236000,0.122752264,0.117779106,0.00040096045,0.0,0.0,-0.17733638,0
15256000,0.12279388,0.117508665,0.00034338236,0.0,0.0,-0.18413231,0
15276000,0.12273765,0.11658767,0.0003851056,0.0,0.0,-0.18870945,0
15296000,0.124110125,0.11697678,0.0003838539,0.0,0.0,-0.19552799,0
15316000,0.12604953,0.11812388,0.00041097403,0.0,0.0,-0.20030656,0
15336000,0.12591292,0.11900652,0.00037759542,0.0,0.0,-0.20743398,0
15356000,0.12679087,0.119483896,0.0004197359,0.0,0.0,-0.21221,0
15376000,0.12604904,0.119474344,0.00032877922,0.0,0.0,-0.2195258,0
15396000,0.12568624,0.11943475,0.00037425756,0.0,0.0,-0.22443812,0
15416000,0.12520927,0.11936933,0.00034546852,0.0,0.0,-0.23196763,0
15436000,0.12585354,0.11811547,0.00028789043,0.0,0.0,-0.2369866,0
15460000,0.12560065,0.11941263,0.00029790401,0.0,0.0,-0.24467638,0
15480000,0.12643404,0.120518506,0.0003492236,0.0,0.0,-0.25249025,0
15500000,0.12703542,0.12005362,0.00037258863,0.0,0.0,-0.25777063,0
15516000,0.124158494,0.11868079,0.00031250715,0.0,0.0,-0.26300862,0
15540000,0.12393388,0.11859139,0.00038009882,0.0,0.0,-0.27103192,0
15556000,0.12444651,0.11772512,0.00032919645,0.0,0.0,-0.27644378,0
15580000,0.12244046,0.11856447,0.00035631657,0.0,0.0,-0.28453603,0
15596000,0.12201523,0.11817858,0.00041139126,0.0,0.0,-0.2900385,0
15620000,0.1238147,0.11577758,0.00040847063,0.0,0.0,-0.29840064,0
15640000,0.12408217,0.11370923,0.00034755468,0.0,0.0,-0.3069849,0
15660000,0.1253069,0.1124809,0.0003350377,0.0,0.0,-0.312667,0
15676000,0.12649319,0.11096652,0.0003246069,0.0,0.0,-0.3184245,0
15700000,0.12311185,0.108292475,0.0003233552,0.0,0.0,-0.32374966,0
15720000,0.1234555,0.10665523,0.0002849698,0.0,0.0,-0.3260629,0
15740000,0.12267058,0.1058235,0.00040012598,0.0,0.0,-0.32774082,0
15760000,0.122353844,0.10790818,0.00030875206,0.0,0.0,-0.3300153,0
15780000,0.12224229,0.10833099,0.0003170967,0.0,0.0,-0.3317856,0
15800000,0.121355765,0.108081326,0.0003387928,0.0,0.0,-0.3342553,0
15820000,0.1214109,0.10788383,0.00039678812,0.0,0.0,-0.3359368,0
15840000,0.12066479,0.10677955,0.00033587217,0.0,0.0,-0.33841506,0
15860000,0.12252251,0.10691039,0.00038301945,0.0,0.0,-0.3401514,0
15880000,0.12264783,0.108411506,0.00036633015,0.0,0.0,-0.34263957,0
15900000,0.12245688,0.111042544,0.00039303303,0.0,0.0,-0.34433517,0
15920000,0.12262479,0.11025279,0.00033587217,0.0,0.0,-0.3467894,0
15940000,0.1239777,0.1098317,0.00036883354,0.0,0.0,-0.34852988,0
15956000,0.12488408,0.10850488,0.00029832125,0.0,0.0,-0.35118723,0
15980000,0.12347154,0.10820191,0.00024199486,0.0,0.0,-0.35297486,0
16000000,0.12392811,0.10852729,0.00029832125,0.0,0.0,-0.35574505,0
16016000,0.1225883,0.1067318,0.00028413534,0.0,0.0,-0.3574602,0
16040000,0.12179864,0.105325185,0.0003221035,0.0,0.0,-0.3604901,0
16056000,0.12171867,0.10563502,0.00030124187,0.0,0.0,-0.3622782,0
16076000,0.12320689,0.104665235,0.0003437996,0.0,0.0,-0.36523753,0
16096000,0.12203023,0.10611885,0.0003759265,0.0,0.0,-0.36705342,0
16116000,0.12169897,0.10641228,0.00038218498,0.0,0.0,-0.36996776,0
16140000,0.122837275,0.10543424,0.00039678812,0.0,0.0,-0.3718898,0
16156000,0.12103829,0.10648002,0.00036340952,0.0,0.0,-0.37488344,0
16176000,0.12176501,0.10753766,0.0004017949,0.0,0.0,-0.37677273,0
16196000,0.12301017,0.107715145,0.00044184923,0.0,0.0,-0.37977195,0
16216000,0.122047566,0.10601807,0.00037926435,0.0,0.0,-0.3816391,0
16236000,0.12168561,0.1058919,0.00050359964,0.0,0.0,-0.38487098,0
16260000,0.12165072,0.10765166,0.00044560432,0.0,0.0,-0.38677052,0
16280000,0.12357013,0.10700484,0.00040596724,0.0,0.0,-0.39021233,0
16300000,0.12385527,0.10681655,0.000513196,0.0,0.0,-0.39198226,0
16316000,0.12298561,0.10657525,0.00050860643,0.0,0.0,-0.39515686,0
16336000,0.12273256,0.108415924,0.00041598082,0.0,0.0,-0.39704257,0
16356000,0.124329075,0.109706804,0.0004389286,0.0,0.0,-0.4003894,0
16376000,0.124193534,0.110390246,0.0004118085,0.0,0.0,-0.4023148,0
16396000,0.12425925,0.11081277,0.00046145916,0.0,0.0,-0.40568137,0
16416000,0.12557474,0.10996939,0.0004172325,0.0,0.0,-0.40765098,0
16436000,0.12515129,0.1087214,0.00045144558,0.0,0.0,-0.41112822,0
16456000,0.12567593,0.10886101,0.00040137768,0.0,0.0,-0.4132969,0
16476000,0.12556767,0.10878272,0.00043308735,0.0,0.0,-0.4168646,0
16496000,0.12576798,0.10914716,0.00037509203,0.0,0.0,-0.41890356,0
16516000,0.12657762,0.10949515,0.00038343668,0.0,0.0,-0.422522,0
16540000,0.12604633,0.11003281,0.00042182207,0.0,0.0,-0.4246699,0
16556000,0.12556241,0.109860465,0.00040638447,0.0,0.0,-0.42836538,0
16580000,0.1250639,0.110975,0.000351727,0.0,0.0,-0.43045416,0
16600000,0.12392611,0.110734485,0.0003412962,0.0,0.0,-0.4345792,0
16616000,0.1255267,0.11026087,0.00031542778,0.0,0.0,-0.43638998,0
16636000,0.12547085,0.11117221,0.0003450513,0.0,0.0,-0.44028676,0
16660000,0.124750756,0.11100721,0.00036340952,0.0,0.0,-0.44241259,0
16680000,0.12459341,0.112357154,0.00033921003,0.0,0.0,-0.44672042,0
16700000,0.12486484,0.11114008,0.00031334162,0.0,0.0,-0.4484999,0
16720000,0.12515755,0.10939876,0.0003233552,0.0,0.0,-0.4526991,0
16740000,0.124831654,0.10982598,0.0003004074,0.0,0.0,-0.45443577,0
16756000,0.12659806,0.108059146,0.00030332804,0.0,0.0,-0.45849547,0
16776000,0.12501813,0.1079802,0.00029248,0.0,0.0,-0.46059388,0
16800000,0.12544551,0.10691692,0.00031417608,0.0,0.0,-0.46501786,0
16820000,0.1256898,0.10783062,0.00027370453,0.0,0.0,-0.4667507,0
16840000,0.12463623,0.10810581,0.00029456615,0.0,0.0,-0.47132087,0
16860000,0.12716495,0.10706629,0.00025492907,0.0,0.0,-0.47310755,0
16880000,0.12745926,0.10506998,0.00029414892,0.0,0.0,-0.4778153,0
16900000,0.12641336,0.10471387,0.00029540062,0.0,0.0,-0.47961006,0
16916000,0.12633365,0.10636917,0.00023823977,0.0,0.0,-0.48392257,0
16940000,0.12584586,0.10599953,0.00028789043,0.0,0.0,-0.48616108,0
16956000,0.12702516,0.107172914,0.00025492907,0.0,0.0,-0.49045733,0
16980000,0.126415,0.107724175,0.00023281574,0.0,0.0,-0.4928285,0
16996000,0.12643866,0.10741006,0.00027787685,0.0,0.0,-0.49712348,0
17020000,0.12808767,0.1052789,0.00021404028,0.0,0.0,-0.49939734,0
17036000,0.12855253,0.10416735,0.0002720356,0.0,0.0,-0.50391227,0
17056000,0.12856138,0.10481534,0.0002912283,0.0,0.0,-0.5062138,0
17076000,0.1296181,0.10391031,0.00031000376,0.0,0.0,-0.5107257,0
17100000,0.13146582,0.103722885,0.00025075674,0.0,0.0,-0.51311153,0
17116000,0.13013503,0.10436959,0.00022488832,0.0,0.0,-0.517672,0
17136000,0.13035424,0.10575267,0.00029540062,0.0,0.0,-0.5200443,0
17156000,0.12938206,0.10601233,0.00026535988,0.0,0.0,-0.5246617,0
17176000,0.12721549,0.10359068,0.00025868416,0.0,0.0,-0.5269562,0
17196000,0.12729481,0.10298445,0.00024157763,0.0,0.0,-0.5316257,0
17220000,0.12831193,0.102605075,0.00029331446,0.0,0.0,-0.5339668,0
17236000,0.12914382,0.103962146,0.00029331446,0.0,0.0,-0.5387891,0
17256000,0.13159999,0.10270968,0.0003196001,0.0,0.0,-0.54115486,0
17280000,0.13074555,0.103664935,0.00030124187,0.0,0.0,-0.54662883,0
17296000,0.1311467,0.104714885,0.0003233552,0.0,0.0,-0.54843694,0
17320000,0.1325155,0.10288031,0.00029748678,0.0,0.0,-0.55406487,0
17340000,0.13098311,0.10177284,0.00037425756,0.0,0.0,-0.5558575,0
17356000,0.13115112,0.101862796,0.00033587217,0.0,0.0,-0.5607964,0
17380000,0.13074753,0.102699876,0.00029289722,0.0,0.0,-0.5632683,0
17400000,0.1299629,0.10093448,0.00035005808,0.0,0.0,-0.5689855,0
17420000,0.13096984,0.10046406,0.0003592372,0.0,0.0,-0.59631,0
17436000,0.13109007,0.09912448,0.00032544136,0.0,0.0,-0.60142094,0
17460000,0.12963948,0.10113334,0.00033295155,0.0,0.0,-0.60381776,0
17476000,0.12984061,0.10136025,0.00029540062,0.0,0.0,-0.609018,0
17500000,0.1305597,0.10185214,0.0003671646,0.0,0.0,-0.6115838,0
17520000,0.12616406,0.10505275,0.00032669306,0.0,0.0,-0.61738694,0
17540000,0.12581812,0.10585818,0.0003709197,0.0,0.0,-0.6191196,0
17560000,0.12252211,0.106827885,0.00034087896,0.0,0.0,-0.6251051,0
17576000,0.122358575,0.10723637,0.0003387928,0.0,0.0,-0.6267572,0
17596000,0.12202641,0.108236484,0.0003579855,0.0,0.0,-0.63201225,0
17620000,0.12159,0.10697426,0.00035589933,0.0,0.0,-0.6344035,0
17640000,0.118900195,0.1076125,0.00034672022,0.0,0.0,-0.6404241,0
17660000,0.11758847,0.110226855,0.00042307377,0.0,0.0,-0.6422146,0
17680000,0.11847923,0.11080622,0.00035089254,0.0,0.0,-0.6484087,0
17700000,0.11744836,0.110650234,0.00036424398,0.0,0.0,-0.65014833,0
17716000,0.11877401,0.110567905,0.00031501055,0.0,0.0,-0.6556618,0
17740000,0.11560738,0.11331227,0.00039845705,0.0,0.0,-0.65825236,0
17756000,0.114205554,0.11222938,0.0003771782,0.0,0.0,-0.66388637,0
17780000,0.114482366,0.11204574,0.0003888607,0.0,0.0,-0.66645914,0
17796000,0.114022404,0.11153693,0.00034713745,0.0,0.0,-0.6721572,0
17820000,0.11297048,0.11348679,0.0003709197,0.0,0.0,-0.6747428,0
17840000,0.112574935,0.11291786,0.00035381317,0.0,0.0,-0.6812269,0
17860000,0.111010395,0.11287896,0.00038719177,0.0,0.0,-0.6826602,0
17876000,0.10763692,0.11535513,0.00038594007,0.0,0.0,-0.6879575,0
17900000,0.09810099,0.11578402,0.00032919645,0.0,0.0,-0.6895922,0
17920000,0.083901964,0.1170684,0.000351727,0.0,0.0,-0.6950584,0
17940000,0.07144354,0.117090255,0.00034463406,0.0,0.0,-0.6958957,0
17960000,0.05468824,0.11360844,0.0002874732,0.0,0.0,-0.70120186,0
17976000,0.04111853,0.11136264,0.00025326014,0.0,0.0,-0.7017392,0
18000000,0.015716668,0.103446536,0.000113487244,0.0,0.0,-0.70658934,0
18016000,-0.0016529588,0.0959717,6.80089e-05,0.0,0.0,-0.7069355,0
18036000,-0.023641208,0.08544712,-0.00016438961,0.0,0.0,-0.711593,0
18056000,-0.049622275,0.06995091,-0.00014728308,0.0,0.0,-0.71198046,0
18076000,-0.07533227,0.05153112,-0.00053197145,0.0,0.0,-0.7166178,0
18100000,-0.1101497,0.024341067,-0.0006583929,0.0,0.0,-0.71683353,0
18116000,-0.1331429,0.0008951181,-0.0007560253,0.0,0.0,-0.7215904,0
18136000,-0.16476987,-0.029073019,-0.00035130978,0.0,0.0,-0.72195977,0
18156000,-0.2006996,-0.066597216,-0.00070387125,0.0,0.0,-0.7269151,0
18180000,-0.25982818,-0.126136,-0.00035256147,0.0,0.0,-0.7275182,0
18200000,-0.31584206,-0.18933465,0.0003951192,0.0,0.0,-0.7328532,0
18220000,-0.35909784,-0.2441565,0.00038343668,0.0,0.0,-0.73300624,0
18240000,-0.40232816,-0.30110475,0.00089496374,0.0,0.0,-0.7375689,0
18260000,-0.43062213,-0.34505612,0.00090914965,0.0,0.0,-0.7373963,0
18280000,-0.458943,-0.3884308,0.0010843873,0.0,0.0,-0.7416708,0
18300000,-0.4731716,-0.41669255,0.000859499,0.0,0.0,-0.7411998,0
18320000,-0.4820452,-0.4443454,0.0007426739,0.0,0.0,-0.74503106,0
18340000,-0.48172343,-0.45524037,0.00043183565,0.0,0.0,-0.74421865,0
18356000,-0.47903225,-0.46239528,6.258488e-05,0.0,0.0,-0.7483743,0
18380000,-0.4698227,-0.46241194,-0.0004760623,0.0,0.0,-0.74644995,0
18400000,-0.46115863,-0.45765355,-0.0010535121,0.0,0.0,-0.7495065,0
18420000,-0.44252205,-0.44241488,-0.001412332,0.0,0.0,-0.748165,0
18436000,-0.42929107,-0.42986473,-0.0018099546,0.0,0.0,-0.75204635,0
18456000,-0.41238728,-0.4110977,-0.0022042394,0.0,0.0,-0.74957377,0
18476000,-0.3914771,-0.38832325,-0.002415359,0.0,0.0,-0.75324076,0
18500000,-0.36735374,-0.3585341,-0.0026118755,0.0,0.0,-0.7503834,0
18516000,-0.3508763,-0.3397183,-0.0027587414,0.0,0.0,-0.7541103,0
18540000,-0.328172,-0.3105427,-0.0028033853,0.0,0.0,-0.7510277,0
18556000,-0.31491598,-0.2908532,-0.0028121471,0.0,0.0,-0.7546866,0
18580000,-0.2954788,-0.2642203,-0.0027316213,0.0,0.0,-0.75145507,0
18596000,-0.28267637,-0.24768753,-0.002716601,0.0,0.0,-0.7551459,0
18620000,-0.2669208,-0.22687851,-0.0026477575,0.0,0.0,-0.7519087,0
18640000,-0.2525013,-0.20953874,-0.0025609732,0.0,0.0,-0.7542899,0
18656000,-0.2439565,-0.19825473,-0.002483368,0.0,0.0,-0.7523264,0
18676000,-0.23609442,-0.18780437,-0.0023790598,0.0,0.0,-0.75125575,0
18696000,-0.22664809,-0.17826201,-0.002302289,0.0,0.0,-0.74408203,0
18716000,-0.21948187,-0.17198052,-0.0022672415,0.0,0.0,-0.74242294,0
18740000,-0.21255222,-0.164761,-0.0022380352,0.0,0.0,-0.73539066,0
18756000,-0.20799786,-0.162422,-0.002183795,0.0,0.0,-0.7337373,0
18776000,-0.20168668,-0.16126023,-0.0023210645,0.0,0.0,-0.7271407,0
18796000,-0.19521637,-0.15990879,-0.0021971464,0.0,0.0,-0.72554207,0
18816000,-0.19234122,-0.16042235,-0.00240618,0.0,0.0,-0.7194359,0
18836000,-0.1916889,-0.15713003,-0.0023068786,0.0,0.0,-0.7177083,0
18856000,-0.18703449,-0.15612969,-0.0024537444,0.0,0.0,-0.712107,0
18876000,-0.18268885,-0.15335362,-0.0023423433,0.0,0.0,-0.710373,0
18900000,-0.17569901,-0.1534237,-0.0023385882,0.0,0.0,-0.70526296,0
18920000,-0.1702839,-0.15369527,-0.0024378896,0.0,0.0,-0.7106323,0
18936000,-0.1674213,-0.15298662,-0.0025046468,0.0,0.0,-0.70980036,0
18960000,-0.16111535,-0.1518607,-0.0025326014,0.0,0.0,-0.7162044,0
18976000,-0.15655024,-0.150785,-0.0025167465,0.0,0.0,-0.7150761,0
18996000,-0.14956541,-0.14722808,-0.002390325,0.0,0.0,-0.72099346,0
19016000,-0.14539483,-0.14235348,-0.0024374723,0.0,0.0,-0.7190541,0
19040000,-0.14001156,-0.13619871,-0.0023836493,0.0,0.0,-0.7240556,0
19060000,-0.13436803,-0.13080648,-0.0023027062,0.0,0.0,-0.72151977,0
19080000,-0.12836975,-0.12336486,-0.00218755,0.0,0.0,-0.725833,0
19100000,-0.12175391,-0.117464036,-0.0020406842,0.0,0.0,-0.7227998,0
19116000,-0.12068131,-0.11343805,-0.0019547343,0.0,0.0,-0.72732645,0
19140000,-0.11704317,-0.10629316,-0.0018650293,0.0,0.0,-0.7229813,0
19156000,-0.116999775,-0.10413643,-0.0018145442,0.0,0.0,-0.7270553,0
19176000,-0.11425481,-0.098464906,-0.0017840862,0.0,0.0,-0.7226819,0
19196000,-0.109466925,-0.09464238,-0.0016822815,0.0,0.0,-0.7267992,0
19220000,-0.10519526,-0.0897764,-0.0014886856,0.0,0.0,-0.7224383,0
19236000,-0.1009028,-0.08722085,-0.0014352798,0.0,0.0,-0.72651297,0
19256000,-0.09793063,-0.08337112,-0.0014494658,0.0,0.0,-0.722144,0
19276000,-0.09606743,-0.08037252,-0.0014231801,0.0,0.0,-0.72622836,0
19300000,-0.091751,-0.07708786,-0.0013005137,0.0,0.0,-0.7219168,0
19316000,-0.08965851,-0.07593658,-0.0012475252,0.0,0.0,-0.7259807,0
19340000,-0.08516522,-0.07155803,-0.0011945367,0.0,0.0,-0.72171915,0
19356000,-0.082131475,-0.06767626,-0.0011903644,0.0,0.0,-0.72564334,0
19380000,-0.076562114,-0.062273283,-0.0010042787,0.0,0.0,-0.72138476,0
19396000,-0.073526844,-0.059744738,-0.0009742379,0.0,0.0,-0.7253247,0
19416000,-0.068956666,-0.057074986,-0.0009813309,0.0,0.0,-0.72108316,0
19436000,-0.066546656,-0.05414542,-0.00093334913,0.0,0.0,-0.7250706,0
19456000,-0.061468028,-0.05248641,-0.0008711815,0.0,0.0,-0.7207807,0
19476000,-0.05786386,-0.050145436,-0.0008215308,0.0,0.0,-0.7247665,0
19500000,-0.05685083,-0.049957983,-0.00085407495,0.0,0.0,-0.72047704,0
19516000,-0.058360815,-0.049908508,-0.0008315444,0.0,0.0,-0.72442335,0
19540000,-0.06130177,-0.04955544,-0.0007760525,0.0,0.0,-0.7199394,0
19556000,-0.061717387,-0.049617663,-0.0008277893,0.0,0.0,-0.7237909,0
19580000,-0.05941276,-0.050066635,-0.0007727146,0.0,0.0,-0.71939856,0
19600000,-0.057568155,-0.047984723,-0.0008240342,0.0,0.0,-0.7224757,0
19620000,-0.05471471,-0.048215374,-0.0007777214,0.0,0.0,-0.7189169,0
19636000,-0.052833855,-0.047119077,-0.0007330775,0.0,0.0,-0.7228134,0
19660000,-0.05181334,-0.042999458,-0.00065755844,0.0,0.0,-0.7186409,0
19680000,-0.049488686,-0.042280223,-0.00073850155,0.0,0.0,-0.7217497,0
19696000,-0.04803662,-0.041430943,-0.00071430206,0.0,0.0,-0.7184441,0
19716000,-0.046190057,-0.041436974,-0.00068217516,0.0,0.0,-0.7223858,0
19740000,-0.04301659,-0.03926578,-0.00061541796,0.0,0.0,-0.7183686,0
19756000,-0.041860525,-0.037853606,-0.00055491924,0.0,0.0,-0.7222792,0
19776000,-0.038371302,-0.033945564,-0.0005528331,0.0,0.0,-0.71823025,0
19796000,-0.03570191,-0.030167554,-0.00044685602,0.0,0.0,-0.7219944,0
19816000,-0.031458072,-0.02903013,-0.00048482418,0.0,0.0,-0.7179672,0
19836000,-0.029932106,-0.028352559,-0.00039303303,0.0,0.0,-0.7218202,0
19856000,-0.028054789,-0.02409973,-0.00035089254,0.0,0.0,-0.71774966,0
19876000,-0.02474318,-0.021345735,-0.00023949146,0.0,0.0,-0.7214972,0
19896000,-0.02291824,-0.019148003,-0.0002603531,0.0,0.0,-0.7174648,0
19916000,-0.024276279,-0.02019235,-0.00024282932,0.0,0.0,-0.7210814,0
19936000,-0.024208091,-0.02243242,-0.0003529787,0.0,0.0,-0.7167418,0
19956000,-0.025322292,-0.023182267,-0.00025993586,0.0,0.0,-0.72030395,0
19976000,-0.02433696,-0.023164365,-0.00032043457,0.0,0.0,-0.7160117,0
19996000,-0.024141187,-0.024700439,-0.00033295155,0.0,0.0,-0.71965593,0
20016000,-0.022469498,-0.021535723,-0.0002770424,0.0,0.0,-0.71546566,0
20036000,-0.020619737,-0.020535981,-0.00023323298,0.0,0.0,-0.7190455,0
20056000,-0.019976845,-0.0180502,-0.0002374053,0.0,0.0,-0.7150828,0
20076000,-0.018953787,-0.018485494,-0.00025826693,0.0,0.0,-0.7187473,0
20096000,-0.018788148,-0.018350719,-0.00029456615,0.0,0.0,-0.7149931,0
20120000,-0.016054235,-0.018579759,-0.0002670288,0.0,0.0,-0.7180099,0
20140000,-0.0150103895,-0.018461568,-0.00023698807,0.0,0.0,-0.7148833,0
20156000,-0.015767548,-0.0179758,-0.00023365021,0.0,0.0,-0.7185009,0
20176000,-0.012735375,-0.0140197,-0.00018525124,0.0,0.0,-0.7147031,0
20196000,-0.012570463,-0.014932763,-0.00023698807,0.0,0.0,-0.7184357,0
20216000,-0.010895433,-0.013033186,-0.00020778179,0.0,0.0,-0.7146068,0
20236000,-0.010220917,-0.010375302,-0.00012892485,0.0,0.0,-0.7182078,0
20256000,-0.009603644,-0.008752021,-0.00013142824,0.0,0.0,-0.71451104,0
20276000,-0.008536407,-0.010478588,-8.928776e-05,0.0,0.0,-0.7181262,0
20296000,-0.0071257493,-0.007612731,-6.67572e-05,0.0,0.0,-0.7143593,0
20316000,-0.008275703,-0.008911861,-8.302927e-05,0.0,0.0,-0.7177828,0
20340000,-0.0075143296,-0.01308445,-0.000107228756,0.0,0.0,-0.71363294,0
20360000,-0.008882128,-0.014116567,-0.00014060736,0.0,0.0,-0.7163429,0
20376000,-0.009404081,-0.013564614,-0.00013059378,0.0,0.0,-0.71305346,0
20396000,-0.010317908,-0.013198272,-8.34465e-05,0.0,0.0,-0.71646667,0
20420000,-0.008914381,-0.012526912,-6.967783e-05,0.0,0.0,-0.71262723,0
20440000,-0.009307889,-0.013548903,-0.00014811754,0.0,0.0,-0.71544504,0
20456000,-0.0110363485,-0.013462822,-0.0001335144,0.0,0.0,-0.7122834,0
20480000,-0.01064048,-0.010763242,-9.179115e-05,0.0,0.0,-0.7150142,0
20500000,-0.009976945,-0.010111708,-7.3850155e-05,0.0,0.0,-0.7119608,0
20520000,-0.008246185,-0.009276882,-9.429455e-05,0.0,0.0,-0.71482885,0
20540000,-0.0065820273,-0.009249811,-5.13196e-05,0.0,0.0,-0.71175265,0
20556000,-0.005257367,-0.0070278775,-0.00010848045,0.0,0.0,-0.7151813,0
20580000,-0.0038123978,-0.0075687356,-0.00011181831,0.0,0.0,-0.7116609,0
20596000,-0.0032988107,-0.0063790493,-6.467104e-05,0.0,0.0,-0.7151498,0
20620000,-0.0026387991,-0.0053967657,-7.843971e-05,0.0,0.0,-0.71154135,0
20636000,-0.0022888044,-0.0043525393,-3.838539e-05,0.0,0.0,-0.7149368,0
20660000,0.0003125714,-0.0032157688,-5.3822994e-05,0.0,0.0,-0.7113791,0
20676000,0.0018210188,-0.0030409826,-6.842613e-05,0.0,0.0,-0.714822,0
20700000,0.0010520304,-0.0035846457,-3.838539e-05,0.0,0.0,-0.7114683,0
20720000,0.00062199496,-0.0035700577,-5.3822994e-05,0.0,0.0,-0.71406925,0
20740000,-0.00086027663,-0.0051758946,-6.842613e-05,0.0,0.0,-0.710754,0
20756000,-0.0027929964,-0.0042747324,-5.0485134e-05,0.0,0.0,-0.7139356,0
20776000,-0.0040739374,-0.0043947888,-5.7160854e-05,0.0,0.0,-0.7099576,0
20796000,-0.0065117814,-0.0042803227,-6.80089e-05,0.0,0.0,-0.713088,0
20820000,-0.0055653015,-0.0052398564,-2.8789043e-05,0.0,0.0,-0.7092717,0
20836000,-0.0067559592,-0.005652822,-8.511543e-05,0.0,0.0,-0.7125062,0
20860000,-0.00616307,-0.0044895215,-2.5451183e-05,0.0,0.0,-0.7088574,0
20876000,-0.006300063,-0.003669491,-8.970499e-05,0.0,0.0,-0.7121299,0
20900000,-0.006604813,-0.0050388775,-4.506111e-05,0.0,0.0,-0.7087822,0
20916000,-0.0060925577,-0.0047627166,-7.468462e-05,0.0,0.0,-0.71214044,0
20940000,-0.004715195,-0.0021453912,3.5464764e-05,0.0,0.0,-0.70877194,0
20960000,-0.002554061,-0.0025782357,-2.4199486e-05,0.0,0.0,-0.7116448,0
20980000,-0.0014624037,-0.0016303184,-0.00069886446,0.0,0.0,-0.7087634,0
21000000,0.0002548322,-0.0012155286,-0.00036466122,0.0,0.0,-0.711495,0
21020000,-0.00032610726,-0.0015894099,-0.00066173077,0.0,0.0,-0.70867336,0
21040000,0.0010215444,0.0010429939,-0.00029832125,0.0,0.0,-0.71145946,0
21060000,0.0017094146,0.0006948001,-0.000590384,0.0,0.0,-0.7086307,0
21076000,0.0018100012,0.0016152861,-0.0005745292,0.0,0.0,-0.71179664,0
21096000,0.0022730771,0.002220935,-0.00017482042,0.0,0.0,-0.7084298,0
21116000,-0.0012366287,4.039168e-05,-0.0003233552,0.0,0.0,-0.7115187,0
21136000,-0.0037176348,-0.0004145696,-0.00014770031,0.0,0.0,-0.70801204,0
21156000,-0.0050105257,-0.000774961,-0.00017774105,0.0,0.0,-0.71103036,0
21180000,-0.0073573478,-0.0018701571,-6.0081482e-05,0.0,0.0,-0.7090856,0
21200000,-0.0072636744,-0.00022860103,4.5895576e-06,0.0,0.0,-0.70496184,0
21220000,-0.0075059757,0.00047304423,-2.503395e-06,0.0,0.0,-0.70193946,0
21240000,-0.009339525,-0.0012405936,6.67572e-06,0.0,0.0,-0.69726914,0
21260000,-0.009655559,-0.00020041227,-0.00016021729,0.0,0.0,-0.6940752,0
21280000,-0.009972598,-0.00078032986,-7.927418e-05,0.0,0.0,-0.68926024,0
21300000,-0.0100415,-0.0017853371,-0.00017023087,0.0,0.0,-0.68615,0
21320000,-0.009756509,-0.0017276308,-0.0001193285,0.0,0.0,-0.6814841,0
21340000,-0.008548199,-0.0022316533,-0.00021237135,0.0,0.0,-0.6784462,0
21360000,-0.0074709374,-0.0018680422,-0.00011140108,0.0,0.0,-0.67392445,0
21380000,-0.0063029565,-0.003720216,-0.000117242336,0.0,0.0,-0.67106366,0
21400000,-0.005447341,-0.002694396,-9.638071e-05,0.0,0.0,-0.6667444,0
21420000,-0.0052082483,-0.0020874084,-7.635355e-05,0.0,0.0,-0.663907,0
21440000,-0.0026565483,-0.0032742803,-5.5491924e-05,0.0,0.0,-0.6595933,0
21460000,-0.003104914,-0.0024479013,-9.471178e-05,0.0,0.0,-0.65675306,0
21480000,-0.0013012327,-0.0020932835,-4.9233437e-05,0.0,0.0,-0.6574844,0
21496000,0.00069942046,-0.0012252404,-4.0471554e-05,0.0,0.0,-0.6607036,0
21516000,-0.0014672102,-0.0032090517,1.1265278e-05,0.0,0.0,-0.66376466,0
21540000,-0.003968859,-0.0024867733,0.00024282932,0.0,0.0,-0.66847795,0
21556000,-0.0050059007,-0.0029988568,0.00024741888,0.0,0.0,-0.6716486,0
21580000,-0.005944995,-0.0041885856,0.00012975931,0.0,0.0,-0.6760303,0
21600000,-0.005547407,-0.0031403673,9.8884106e-05,0.0,0.0,-0.68033594,0
21620000,-0.00607338,-0.0035955296,0.0001706481,0.0,0.0,-0.6831619,0
21640000,-0.0045556948,-0.0025648647,0.000102221966,0.0,0.0,-0.6871096,0
21660000,-0.0048467154,-0.0014765767,0.000108897686,0.0,0.0,-0.68969464,0
21680000,-0.00476251,-0.0008686847,8.928776e-05,0.0,0.0,-0.6932941,0
21700000,-0.003247791,-0.0006788216,0.00010639429,0.0,0.0,-0.6956467,0
21720000,-0.0018242998,-0.0012799264,4.464388e-05,0.0,0.0,-0.69912046,0
21740000,-0.0018583694,-0.00045749755,3.963709e-05,0.0,0.0,-0.70130646,0
21760000,-0.0014638323,0.0022142367,8.34465e-06,0.0,0.0,-0.7046289,0
21780000,-0.0014480688,0.0017133934,6.67572e-06,0.0,0.0,-0.7066253,0
21800000,-0.0014199317,0.0033113556,4.798174e-05,0.0,0.0,-0.70955986,0
21820000,-0.0010113623,0.0022036885,-3.5464764e-05,0.0,0.0,-0.7113369,0
21840000,0.0004747836,0.0022961178,-4.965067e-05,0.0,0.0,-0.7139209,0
21860000,0.00077797193,0.0015247818,-3.33786e-06,0.0,0.0,-0.7153454,0
21880000,0.003157544,0.0008365946,-9.596348e-06,0.0,0.0,-0.7174824,0
21900000,0.0041601285,5.9527287e-05,-0.00015687943,0.0,0.0,-0.7185425,0
21916000,0.0054568816,-0.0025084743,-0.00012391806,0.0,0.0,-0.71997917,0
21936000,0.0054268357,-0.0038779816,-0.00059074187,0.0,0.0,-0.71974105,0
21956000,0.006320701,-0.005111785,-0.0008358505,0.0,0.0,-0.72040707,0
21976000,0.0064259623,-0.0065725716,-0.0015033358,0.0,0.0,-0.7193892,0
22000000,0.0064491546,-0.0066243364,-0.002345312,0.0,0.0,-0.71847343,0
22020000,0.0061033005,-0.0059448592,-0.0030562952,0.0,0.0,-0.7173557,0
22036000,0.0061867684,-0.008482604,-0.0035089853,0.0,0.0,-0.71683806,0
22060000,0.0069501596,-0.008330368,-0.00412788,0.0,0.0,-0.71479625,0
22076000,0.00768275,-0.0080255335,-0.0044946363,0.0,0.0,-0.7143437,0
22100000,0.007806446,-0.006933101,-0.0049591437,0.0,0.0,-0.7126828,0
22116000,0.0076847184,-0.0075599486,-0.005256892,0.0,0.0,-0.712478,0
22140000,0.00794127,-0.0064565013,-0.00562058,0.0,0.0,-0.71112454,0
22156000,0.0067537483,-0.0042835744,-0.0057454254,0.0,0.0,-0.7111841,0
22180000,0.007514441,-0.00356932,-0.0058923666,0.0,0.0,-0.7101871,0
22196000,0.0075307395,-0.00020509018,-0.005926644,0.0,0.0,-0.7104041,0
22220000,0.005687654,0.00061426184,-0.005843466,0.0,0.0,-0.7096463,0
22240000,0.0039330036,0.0023232088,-0.005619292,0.0,0.0,-0.70964867,0
22260000,0.004229346,0.0010404255,-0.0052562556,0.0,0.0,-0.709227,0
22280000,0.0045174602,0.0005029263,-0.004788594,0.0,0.0,-0.70933294,0
22300000,0.0028197956,-0.00045900335,-0.004278649,0.0,0.0,-0.70908934,0
22320000,0.0024580725,0.0061030937,-0.0035616835,0.0,0.0,-0.7085656,0
22340000,0.002057964,0.007098325,-0.0032317482,0.0,0.0,-0.70799524,0
22356000,0.0025041779,0.0088085905,-0.002895593,0.0,0.0,-0.7081523,0
22380000,0.0017448767,0.011496002,-0.0024371005,0.0,0.0,-0.7071998,0
22400000,0.0033245573,0.014188097,-0.0020997198,0.0,0.0,-0.7072451,0
22420000,0.0023029675,0.014059263,-0.001865802,0.0,0.0,-0.7068711,0
22440000,0.0019061185,0.014751078,-0.0015983214,0.0,0.0,-0.70704997,0
22460000,0.0006652304,0.015324713,-0.0012711737,0.0,0.0,-0.70683086,0
22480000,0.00086426997,0.014998281,-0.0010775824,0.0,0.0,-0.70716333,0
22500000,0.0009023715,0.014256931,-0.00089638366,0.0,0.0,-0.70681757,0
22520000,0.0020974865,0.011852922,-0.00055497966,0.0,0.0,-0.70715463,0
22540000,0.003590384,0.010885046,-0.00011343211,0.0,0.0,-0.70680475,0
22560000,0.0009513452,0.010390933,0.0002127717,0.0,0.0,-0.7071519,0
22580000,0.001742776,0.008604698,0.0005057087,0.0,0.0,-0.7069084,0
22596000,0.0008496272,0.006562596,0.0006657776,0.0,0.0,-0.70756644,0
22616000,0.0024293377,0.006957168,0.00084968196,0.0,0.0,-0.70720685,0
22636000,0.002563465,0.005365617,0.0010681726,0.0,0.0,-0.7079034,0
22656000,0.001297262,0.0021003224,0.0011847187,0.0,0.0,-0.7076409,0
22680000,0.0035174168,0.0011438858,0.0012622647,0.0,0.0,-0.7081657,0
22700000,0.0025981362,5.6261633e-05,0.0014332439,0.0,0.0,-0.70783496,0
22720000,0.0007198499,0.0066421344,0.0015084248,0.0,0.0,-0.707718,0
22740000,-0.0003251319,0.00999025,0.0014918089,0.0,0.0,-0.7070622,0
22760000,-0.00028446142,0.014777825,0.0015500699,0.0,0.0,-0.70701,0
22780000,-0.0027569581,0.015457311,0.001720506,0.0,0.0,-0.7063593,0
22796000,-0.0049958145,0.017732402,0.0017677284,0.0,0.0,-0.7067404,0
22820000,-0.005393009,0.018697707,0.0019028088,0.0,0.0,-0.7058324,0
22836000,-0.0054846997,0.02020767,0.0018347173,0.0,0.0,-0.70642054,0
22856000,-0.0053091682,0.021453155,0.0015284559,0.0,0.0,-0.7058233,0
22876000,-0.0052456097,0.018257154,0.0012870826,0.0,0.0,-0.7064988,0
22896000,-0.005390918,0.019061765,0.0010831177,0.0,0.0,-0.70602995,0
22916000,-0.0044198483,0.016799722,0.00071062567,0.0,0.0,-0.7067008,0
22940000,-0.0033826642,0.014084964,0.0002472037,0.0,0.0,-0.7062539,0
22960000,-0.0021632412,0.011053341,-2.6910448e-05,0.0,0.0,-0.70679945,0
22980000,-0.0025647117,0.009209376,-0.00031087155,0.0,0.0,-0.70646614,0
22996000,-0.0021084426,0.005333919,-0.00056002534,0.0,0.0,-0.70721924,0
