timestamp,timestamp_sample,time_last_fuse,device_id,observation,observation_variance,innovation,innovation_variance,test_ratio,estimator_instance,fusion_enabled,innovation_rejected,fused
3340000,3258068,0,0,-0.00076293945,12.25,1.3730314e-05,112.39042,6.7095235e-14,3,0,0,0
3404000,3319105,0,0,-0.037017822,12.25,0.038035635,112.25001,5.1553116e-07,3,0,0,0
3460000,3379199,0,0,0.029541016,12.25,-0.029155249,112.25001,3.0290548e-07,3,0,0,0
3524000,3439230,0,0,-0.037963867,12.25,0.037124835,112.25001,4.9113703e-07,3,0,0,0
3580000,3499311,0,0,-0.032714844,12.25,0.033459526,62.24998,7.1938325e-07,3,0,0,0
3644000,3559332,0,0,0.13113403,12.25,-0.13046902,62.24998,1.0937942e-05,3,0,0,0
3700000,3619408,0,0,-0.013092041,12.25,0.01358176,62.24998,1.18531254e-07,3,0,0,0
3764000,3679431,0,0,-0.00793457,12.25,0.007995261,45.583324,5.6094372e-08,3,0,0,0
3820000,3738491,0,0,-0.024383545,12.25,0.024097865,45.583324,5.095785e-07,3,0,0,0
3884000,3799511,0,0,0.14233398,12.25,-0.14308208,45.583324,1.7964887e-05,3,0,0,0
3940000,3859566,0,0,0.03463745,12.25,-0.035836764,45.58335,1.1269673e-06,3,0,0,0
4004000,3919575,3924000,0,-0.15316772,12.25,0.15178698,37.25004,2.474015e-05,3,0,0,0
4060000,3979623,3980000,0,-0.07714844,12.25,0.07525475,37.25009,6.0813572e-06,3,1,0,1
4116000,4035634,4036000,0,-0.07244873,12.25,0.019443251,20.471516,7.386654e-07,3,1,0,1
4172000,4087666,4092000,0,-0.039611816,12.25,-0.021861829,17.169727,1.1134471e-06,3,1,0,1
4228000,4147686,4148000,0,-0.030212402,12.25,-0.025572963,15.760093,1.659829e-06,3,1,0,1
4292000,4207713,4212000,0,-0.030212402,12.25,-0.020685725,14.978389,1.142711e-06,3,1,0,1
4348000,4265730,4268000,0,0.09185791,12.25,-0.139768,14.481474,5.395886e-05,3,1,0,1
4396000,4315746,4316000,0,-0.05368042,12.25,0.02691481,14.137684,2.0495777e-06,3,1,0,1
4460000,4375768,4380000,0,-0.11001587,12.25,0.07878792,13.885757,1.7881739e-05,3,1,0,1
4516000,4435781,4436000,0,-0.05368042,12.25,0.012351282,13.693196,4.4563492e-07,3,1,0,1
4580000,4494466,4500000,0,-0.020812988,12.25,-0.022815786,13.541278,1.5376985e-06,3,1,0,1
4636000,4555812,4556000,0,0.02142334,12.25,-0.06314533,13.418266,1.1886283e-05,3,1,0,1
4700000,4615828,4620000,0,0.026123047,12.25,-0.06330391,13.316786,1.2037094e-05,3,1,0,1
4756000,4675838,4676000,0,0.01675415,12.25,-0.049734402,13.23157,7.4776035e-06,3,1,0,1
4820000,4734518,4740000,0,-0.07244873,12.25,0.043062404,13.158921,5.636847e-06,3,1,0,1
4876000,4795861,4796000,0,-0.05368042,12.25,0.020515185,13.096418,1.2854593e-06,3,1,0,1
4940000,4855873,4860000,0,0.030822754,12.25,-0.06625123,13.042081,1.3461735e-05,3,1,0,1
4996000,4915881,4916000,0,-0.07714844,12.25,0.04490636,12.994344,6.207566e-06,3,1,0,1
5060000,4975892,4980000,0,-0.020812988,12.25,-0.013748523,12.951872,5.83767e-07,3,1,0,1
5116000,5035897,5036000,0,-0.011413574,12.25,-0.02318304,12.914226,1.6646861e-06,3,1,0,1
5180000,5095907,5100000,0,-0.03491211,12.25,0.000595659,12.880564,1.1018451e-09,3,1,0,1
5236000,5155912,5156000,0,0.05899048,12.25,-0.092754,12.849757,2.6781221e-05,3,1,0,1
5300000,5215919,5220000,0,-0.025512695,12.25,-0.004759606,12.822273,7.06703e-08,3,1,0,1
5356000,5275924,5276000,0,-0.11001587,12.25,0.07918475,12.797228,1.9598696e-05,3,1,0,1
5420000,5335931,5340000,0,0.026123047,12.25,-0.06123026,12.774456,1.1739506e-05,3,1,0,1
5476000,5395935,5396000,0,-0.048980713,12.25,0.017134603,12.752906,9.208713e-07,3,1,0,1
5540000,5455941,5460000,0,-0.063079834,12.25,0.029759102,12.733691,2.7819242e-06,3,1,0,1
5596000,5515944,5516000,0,-0.048980713,12.25,0.013802089,12.715911,5.992419e-07,3,1,0,1
5660000,5575949,5580000,0,0.0026550293,12.25,-0.037507657,12.69884,4.4313474e-06,3,1,0,1
5716000,5635952,5636000,0,0.12942505,12.25,-0.16363865,12.683548,8.444832e-05,3,1,0,1
5780000,5695957,5700000,0,-0.030212402,12.25,0.0007962752,12.669441,2.001838e-09,3,1,0,1
5836000,5753959,5756000,0,-0.12411499,12.25,0.09394842,12.656234,2.7895518e-05,3,1,0,1
5884000,5803962,5804000,0,-0.03491211,12.25,0.0029018372,12.642931,2.6641478e-08,3,1,0,1
5948000,5863965,5868000,0,-0.03491211,12.25,0.002056446,12.631441,1.3391883e-08,3,1,0,1
6004000,5923967,5924000,0,0.0073547363,12.25,-0.040966745,12.620606,5.3191557e-06,3,1,0,1
6068000,5983970,5988000,0,-0.063079834,12.25,0.031656038,12.609603,3.178862e-06,3,1,0,1
6124000,6043971,6044000,0,-0.020812988,12.25,-0.0121541545,12.599995,4.689636e-07,3,1,0,1
6188000,6103974,6108000,0,-0.0067443848,12.25,-0.026643254,12.59107,2.2551314e-06,3,1,0,1
6244000,6163976,6164000,0,-0.039611816,12.25,0.0062277056,12.582581,1.2329527e-07,3,1,0,1
6308000,6223978,6228000,0,-0.0067443848,12.25,-0.02565014,12.573589,2.093053e-06,3,1,0,1
6364000,6283979,6284000,0,0.012054443,12.25,-0.044363864,12.565967,6.2650247e-06,3,1,0,1
6428000,6343981,6348000,0,0.03552246,12.25,-0.06741815,12.558884,1.4476468e-05,3,1,0,1
6484000,6403982,6404000,0,-0.11941528,12.25,0.09027892,12.550952,2.597503e-05,3,1,0,1
6548000,6463984,6468000,0,0.02142334,12.25,-0.053330444,12.544546,9.068917e-06,3,1,0,1
6604000,6523985,6524000,0,-0.15228271,12.25,0.12111333,12.538385,4.6795303e-05,3,1,0,1
6668000,6583986,6588000,0,0.0026550293,12.25,-0.037196167,12.532673,4.415833e-06,3,1,0,1
6724000,6643987,6644000,0,0.05429077,12.25,-0.087028846,12.5258875,2.4186773e-05,3,1,0,1
6788000,6703988,6708000,0,-0.08654785,12.25,0.055202626,12.520673,9.735355e-06,3,1,0,1
6844000,6763989,6764000,0,-0.03491211,12.25,0.0018709451,12.515622,1.1187411e-08,3,1,0,1
6908000,6823990,6828000,0,-0.0020446777,12.25,-0.030192439,12.509672,2.9148116e-06,3,1,0,1
6964000,6883990,6884000,0,-0.016113281,12.25,-0.0158608,12.505033,8.0468385e-07,3,1,0,1
7028000,6942657,6948000,0,0.012054443,12.25,-0.044077553,12.500741,6.2166896e-06,3,1,0,1
7084000,6999992,7004000,0,-0.011413574,12.25,-0.020058978,12.496552,1.2879156e-06,3,1,0,1
7148000,7061326,7068000,0,-0.016113281,12.25,-0.014263123,12.491318,6.5144985e-07,3,1,0,1
7204000,7119993,7124000,0,-0.0067443848,12.25,-0.023637054,12.487444,1.7896709e-06,3,1,0,1
7252000,7171993,7172000,0,0.05899048,12.25,-0.089155056,12.483636,2.5468938e-05,3,1,0,1
7316000,7231994,7236000,0,0.0073547363,12.25,-0.035371825,12.478905,4.010499e-06,3,1,0,1
7372000,7291994,7292000,0,-0.063079834,12.25,0.03549332,12.475476,4.0392074e-06,3,1,0,1
7436000,7351995,7356000,0,0.02142334,12.25,-0.049905606,12.472329,7.9875035e-06,3,1,0,1
7492000,7411995,7412000,0,-0.030212402,12.25,0.0023872145,12.469221,1.828115e-08,3,1,0,1
7556000,7471996,7476000,0,-0.016113281,12.25,-0.011316279,12.464958,4.1093813e-07,3,1,0,1
7612000,7531996,7532000,0,-0.05368042,12.25,0.026303567,12.462054,2.2207498e-06,3,1,0,1
7676000,7591996,7596000,0,-0.058380127,12.25,0.030395074,12.459411,2.9659848e-06,3,1,0,1
7732000,7651997,7652000,0,0.044921875,12.25,-0.07323088,12.455368,1.7222328e-05,3,1,0,1
7796000,7711997,7716000,0,-0.10064697,12.25,0.0734367,12.452889,1.7322724e-05,3,1,0,1
7852000,7771997,7772000,0,-0.025512695,12.25,-0.0030246172,12.450417,2.9391174e-08,3,1,0,1
7916000,7831998,7836000,0,-0.048980713,12.25,0.020365292,12.448189,1.3327084e-06,3,1,0,1
7972000,7891998,7892000,0,0.044921875,12.25,-0.07363183,12.444463,1.7426695e-05,3,1,0,1
8036000,7951998,7956000,0,-0.03491211,12.25,0.007205043,12.442364,1.6688998e-07,3,1,0,1
8092000,8011998,8012000,0,-0.011413574,12.25,-0.016545245,12.440251,8.801917e-07,3,1,0,1
8156000,8071998,8076000,0,-0.07714844,12.25,0.04969538,12.4369,7.942915e-06,3,1,0,1
8212000,8131998,8132000,0,-0.09124756,12.25,0.062920794,12.434903,1.2735205e-05,3,1,0,1
8276000,8191999,8196000,0,-0.0020446777,12.25,-0.027407829,12.433124,2.4167348e-06,3,1,0,1
8332000,8251999,8252000,0,-0.044281006,12.25,0.015022941,12.4313135,7.261944e-07,3,1,0,1
8396000,8311999,8316000,0,-0.15228271,12.25,0.1232831,12.428188,4.891694e-05,3,1,0,1
8452000,8371999,8372000,0,-0.0067443848,12.25,-0.024225855,12.426471,1.8891673e-06,3,1,0,1
8516000,8430665,8436000,0,-0.05368042,12.25,0.022842828,12.424963,1.6798272e-06,3,1,0,1
8572000,8491999,8492000,0,-0.05368042,12.25,0.022937745,12.421909,1.6942328e-06,3,1,0,1
8636000,8550665,8556000,0,-0.063079834,12.25,0.031876974,12.420473,3.2724727e-06,3,1,0,1
8692000,8611999,8612000,0,-0.048980713,12.25,0.017232593,12.418994,9.564777e-07,3,1,0,1
8756000,8671999,8676000,0,0.013702393,12.250947,-0.062949456,13.250966,1.1961797e-05,3,1,0,1
8812000,8732000,8732000,0,-0.098968506,12.251893,0.05438373,13.176488,8.978386e-06,3,1,0,1
8876000,8792000,8796000,0,0.03250122,12.2529745,-0.0810104,13.1127825,2.00192e-05,3,1,0,1
8932000,8852000,8852000,0,-0.05206299,12.253921,0.008801449,13.057464,2.3730645e-07,3,1,0,1
8996000,8912000,8916000,0,-0.04736328,12.255001,0.0035154521,13.009213,3.7998927e-08,3,1,0,1
9052000,8972000,8972000,0,-0.14126587,12.255946,0.09714176,12.966589,2.9110262e-05,3,1,0,1
9116000,9032000,9036000,0,-0.056732178,12.257025,0.0061485656,12.65892,1.1945681e-07,3,1,0,1
9172000,9092000,9092000,0,-0.08956909,12.257968,0.038748816,12.647246,4.7487674e-06,3,1,0,1
9236000,9152000,9156000,0,-0.1083374,12.259045,0.05631351,12.636477,1.0038278e-05,3,1,0,1
9292000,9212000,9212000,0,0.013763428,12.259984,-0.06749418,12.626333,1.4431629e-05,3,1,0,1
9356000,9272000,9276000,0,-0.023864746,12.261058,-0.027960036,12.617033,2.478439e-06,3,1,0,1
9412000,9332000,9332000,0,-0.009796143,12.261995,-0.041231096,12.608052,5.393389e-06,3,1,0,1
9476000,9392000,9396000,0,-0.023925781,12.263065,-0.02600709,12.599916,2.1472165e-06,3,1,0,1
9532000,9452000,9452000,0,-0.0051574707,12.263998,-0.04359606,12.511095,6.0765788e-06,3,1,0,1
9596000,9512000,9516000,0,-0.08035278,12.265064,0.03246251,12.507439,3.3702013e-06,3,1,0,1
9652000,9572000,9572000,0,-0.009887695,12.265992,-0.038638294,12.503924,4.7758376e-06,3,1,0,1
9716000,9632000,9636000,0,0.004119873,12.267054,-0.05188901,12.500787,8.61536e-06,3,1,0,1
9772000,9692000,9692000,0,0.022857666,12.267977,-0.06962699,12.497663,1.5516236e-05,3,1,0,1
9836000,9752000,9756000,0,0.003967285,12.2690325,-0.049476076,12.494657,7.836573e-06,3,1,0,1
9892000,9812000,9812000,0,-0.11816406,12.26995,0.07360999,12.491846,1.7350298e-05,3,1,0,1
9956000,9872000,9876000,0,-0.028808594,12.271,-0.015539583,12.450302,7.758161e-07,3,1,0,1
10012000,9932000,9932000,0,0.11669922,12.271911,-0.16086203,12.448743,8.314604e-05,3,1,0,1
10076000,9992000,9996000,0,-0.05731201,12.272954,0.015557677,12.447662,7.777887e-07,3,1,0,1
10132000,10052000,10052000,0,-0.11831665,12.273858,0.0764903,12.446488,1.8802946e-05,3,1,0,1
10196000,10112000,10116000,0,0.00390625,12.274894,-0.046593416,12.445598,6.9773955e-06,3,1,0,1
10252000,10172000,10172000,0,-0.01965332,12.275791,-0.022528771,12.444225,1.6314252e-06,3,1,0,1
10316000,10232000,10236000,0,-0.14178467,12.276819,0.10081954,12.419672,3.2737033e-05,3,1,0,1
10372000,10292000,10292000,0,0.050933838,12.277707,-0.09283059,12.419314,2.7755215e-05,3,1,0,1
10436000,10352000,10356000,0,-0.052581787,12.278728,0.011636745,12.418853,4.3615572e-07,3,1,0,1
10492000,10412000,10412000,0,-0.047851562,12.279608,0.006964337,12.418567,1.5622412e-07,3,1,0,1
10556000,10472000,10476000,0,-0.043121338,12.280619,0.0023560487,12.418536,1.7879612e-08,3,1,0,1
10612000,10532000,10532000,0,-0.07598877,12.281489,0.03541875,12.41836,4.040752e-06,3,1,0,1
10676000,10590666,10596000,0,-0.0524292,12.282491,0.011287488,12.417937,4.1039792e-07,3,1,0,1
10732000,10652000,10652000,0,0.022735596,12.283353,-0.063850224,12.401908,1.314911e-05,3,1,0,1
10796000,10712000,10716000,0,-0.00091552734,12.284345,-0.039267126,12.402305,4.9729697e-06,3,1,0,1
10852000,10772000,10772000,0,-0.010437012,12.285195,-0.02965137,12.402056,2.835671e-06,3,1,0,1
10916000,10832000,10836000,0,-0.0152282715,12.286178,-0.024201918,12.402485,1.8890822e-06,3,1,0,1
10972000,10892000,10892000,0,-0.13735962,12.287019,0.09854021,12.402751,3.131619e-05,3,1,0,1
11036000,10952000,10956000,0,-0.10888672,12.28799,0.069648065,12.403273,1.5643784e-05,3,1,0,1
11092000,11012000,11012000,0,0.02279663,12.288819,-0.06321661,12.402979,1.2888324e-05,3,1,0,1
11156000,11072000,11076000,0,-0.03842163,12.28978,-0.0012254827,12.391956,4.847686e-09,3,1,0,1
11212000,11132000,11132000,0,-0.14172363,12.290598,0.10260485,12.392467,3.3981145e-05,3,1,0,1
11276000,11192000,11196000,0,-0.009918213,12.291547,-0.030574273,12.392616,3.017236e-06,3,1,0,1
11332000,11252000,11252000,0,0.060424805,12.292354,-0.10012384,12.393135,3.2355925e-05,3,1,0,1
11396000,11310666,11316000,0,-0.033813477,12.293291,-0.004389044,12.393908,6.217154e-08,3,1,0,1
11452000,11372000,11372000,0,-0.07611084,12.294086,0.038579855,12.394496,4.803439e-06,3,1,0,1
11516000,11432000,11436000,0,0.046081543,12.295011,-0.086535335,12.385571,2.4184157e-05,3,1,0,1
11572000,11490000,11492000,0,0.0082092285,12.295794,-0.04737028,12.386244,7.2465664e-06,3,1,0,1
11620000,11540000,11540000,0,-0.06237793,12.296435,0.024190083,12.386725,1.8896362e-06,3,1,0,1
11684000,11600000,11604000,0,-0.015350342,12.297343,-0.023923386,12.386963,1.8481637e-06,3,1,0,1
11740000,11660000,11660000,0,-0.029510498,12.298109,-0.008829709,12.387659,2.5174657e-07,3,1,0,1
11804000,11720000,11724000,0,-0.067108154,12.299004,0.029745921,12.388608,2.856882e-06,3,1,0,1
11860000,11780000,11780000,0,-0.020050049,12.299756,-0.016688682,12.389364,8.991974e-07,3,1,0,1
11924000,11840000,11844000,0,-0.11401367,12.300638,0.0747699,12.382275,1.805981e-05,3,1,0,1
11980000,11900000,11900000,0,-0.024505615,12.301377,-0.014461011,12.383068,6.7550576e-07,3,1,0,1
12044000,11960000,11964000,0,-0.010467529,12.302246,-0.027502649,12.384117,2.4431154e-06,3,1,0,1
12100000,12020000,12020000,0,0.008178711,12.302972,-0.04701406,12.384143,7.1392005e-06,3,1,0,1
12164000,12080000,12084000,0,-0.057769775,12.303826,0.020050492,12.385176,1.2983982e-06,3,1,0,1
12220000,12140000,12140000,0,-0.16564941,12.304539,0.12855315,12.386012,5.33696e-05,3,1,0,1
12284000,12200000,12204000,0,0.027435303,12.305381,-0.06452446,12.387114,1.3444313e-05,3,1,0,1
12340000,12260000,12260000,0,-0.13717651,12.30608,0.098629385,12.380994,3.142803e-05,3,1,0,1
12404000,12318666,12324000,0,-0.024047852,12.306907,-0.014291331,12.3820915,6.5979856e-07,3,1,0,1
12460000,12380000,12380000,0,-0.1602478,12.307592,0.12271999,12.382992,4.8648002e-05,3,1,0,1
12524000,12440000,12444000,0,0.004638672,12.308406,-0.043977026,12.383222,6.247094e-06,3,1,0,1
12580000,12500000,12500000,0,-0.080078125,12.309076,0.04167284,12.3841,5.609211e-06,3,1,0,1
12644000,12560000,12564000,0,-0.09863281,12.309876,0.06080488,12.385241,1.1940772e-05,3,1,0,1
12700000,12620000,12620000,0,-0.03729248,12.310534,-0.00015533715,12.386172,7.7924424e-11,3,1,0,1
12764000,12680000,12684000,0,-0.117126465,12.311319,0.0777913,12.381109,1.955071e-05,3,1,0,1
12820000,12740000,12740000,0,0.010040283,12.311962,-0.049097776,12.382028,7.787389e-06,3,1,0,1
12884000,12800000,12804000,0,-0.0418396,12.312734,0.003915716,12.383211,4.9527802e-08,3,1,0,1
12940000,12860000,12860000,0,-0.13571167,12.313362,0.09646172,12.383162,3.0056503e-05,3,1,0,1
13004000,12920000,12924000,0,-0.003753662,12.314119,-0.035217606,12.3843155,4.0059695e-06,3,1,0,1
13060000,12980000,12980000,0,-0.12600708,12.3147335,0.08797466,12.38526,2.4995974e-05,3,1,0,1
13124000,13040000,13044000,0,-0.06451416,12.315477,0.025972053,12.381792,2.1791598e-06,3,1,0,1
13180000,13100000,13100000,0,-0.097229004,12.316077,0.057306845,12.381754,1.0609399e-05,3,1,0,1
13244000,13160000,13164000,0,0.029846191,12.316806,-0.06928335,12.382935,1.55058e-05,3,1,0,1
13300000,13220000,13220000,0,0.02947998,12.317392,-0.067815065,12.383905,1.4854387e-05,3,1,0,1
13364000,13280000,13284000,0,0.0009460449,12.318107,-0.040193714,12.384037,5.2181194e-06,3,1,0,1
13420000,13340000,13340000,0,-0.036834717,12.318679,-0.0015034005,12.384977,7.299854e-09,3,1,0,1
13484000,13400000,13404000,0,-0.055633545,12.31938,0.01810101,12.386187,1.0581032e-06,3,1,0,1
13540000,13458000,13460000,0,-0.032043457,12.319938,-0.0059561916,12.382977,1.14596745e-07,3,1,0,1
13588000,13508000,13508000,0,-0.07434082,12.3203535,0.03495669,12.382641,3.9473657e-06,3,1,0,1
13652000,13568000,13572000,0,-0.13986206,12.321035,0.1010467,12.383831,3.2979893e-05,3,1,0,1
13708000,13628000,13628000,0,-0.02658081,12.321574,-0.012092248,12.384808,4.7226393e-07,3,1,0,1
13772000,13688000,13692000,0,-0.087677,12.322242,0.04792991,12.384893,7.4196073e-06,3,1,0,1
13828000,13748000,13748000,0,-0.05923462,12.322767,0.019857667,12.385837,1.2734771e-06,3,1,0,1
13892000,13808000,13812000,0,-0.05911255,12.3234215,0.02033288,12.387052,1.3350264e-06,3,1,0,1
13948000,13866000,13868000,0,-0.026123047,12.323933,-0.013190828,12.384224,5.619987e-07,3,1,0,1
13996000,13916000,13916000,0,-0.07318115,12.324303,0.03269399,12.383834,3.4525558e-06,3,1,0,1
14060000,13976000,13980000,0,-0.11993408,12.324938,0.07992187,12.385021,2.0629777e-05,3,1,0,1
14116000,14036000,14036000,0,0.049560547,12.325431,-0.08939777,12.385994,2.5809677e-05,3,1,0,1
14180000,14096000,14100000,0,0.0020751953,12.326054,-0.04263334,12.386033,5.869843e-06,3,1,0,1
14236000,14156000,14156000,0,-0.06863403,12.326532,0.028871339,12.386969,2.6917132e-06,3,1,0,1
14300000,14216000,14220000,0,0.11465454,12.327142,-0.15387477,12.38818,7.6451724e-05,3,1,0,1
14356000,14276000,14276000,0,0.047973633,12.327607,-0.08697489,12.385643,2.4430321e-05,3,1,0,1
14420000,14336000,14340000,0,0.061523438,12.328202,-0.10115738,12.385679,3.304725e-05,3,1,0,1
14476000,14396000,14396000,0,-0.028320312,12.328655,-0.010280907,12.386619,3.4132657e-07,3,1,0,1
14540000,14456000,14460000,0,0.046722412,12.329237,-0.084647894,12.387833,2.3136465e-05,3,1,0,1
14596000,14516000,14516000,0,-0.113464355,12.329677,0.074787505,12.387562,1.8060602e-05,3,1,0,1
14660000,14576000,14580000,0,-0.051940918,12.330246,0.013488159,12.388736,5.874059e-07,3,1,0,1
14716000,14636000,14636000,0,-0.056549072,12.330672,0.017719641,12.386412,1.0139682e-06,3,1,0,1
14780000,14696000,14700000,0,-0.07989502,12.331229,0.041569784,12.387627,5.579913e-06,3,1,0,1
14836000,14756000,14756000,0,-0.051452637,12.331642,0.0119716525,12.38735,4.627962e-07,3,1,0,1
14900000,14816000,14820000,0,-0.07952881,12.332186,0.040463656,12.388524,5.2865294e-06,3,1,0,1
14956000,14876000,14876000,0,-0.022918701,12.332587,-0.015898172,12.389477,8.1602116e-07,3,1,0,1
15020000,14936000,14940000,0,-0.05117798,12.333118,0.011656955,12.389394,4.3871265e-07,3,1,0,1
15076000,14996000,14996000,0,-0.022918701,12.333508,-0.016296461,12.390308,8.5736247e-07,3,1,0,1
15140000,15056000,15060000,0,-0.08874512,12.334025,0.049223088,12.388407,7.82316e-06,3,1,0,1
15196000,15116000,15116000,0,-0.07434082,12.334402,0.03500864,12.389356,3.9569604e-06,3,1,0,1
15260000,15176000,15180000,0,-0.064697266,12.3349085,0.024417505,12.389269,1.9249387e-06,3,1,0,1
15316000,15236000,15236000,0,-0.012908936,12.335274,-0.0,12.390181,2.3625512e-06,3,1,0,1
15380000,15296000,15300000,0,-0.045959473,12.335768,0.006501887,12.391371,1.3646444e-07,3,1,0,1
15436000,15356000,15356000,0,-0.03652954,12.336121,-0.0,12.392336,2.0210532e-08,3,1,0,1
15500000,15416000,15420000,0,-0.13046265,12.336604,0.09197073,12.393595,2.7299953e-05,3,1,0,1
15556000,15476000,15476000,0,-0.12042236,12.336946,0.08073478,12.391522,2.104053e-05,3,1,0,1
15620000,15536000,15540000,0,-0.091674805,12.337417,0.05220679,12.392825,8.797183e-06,3,1,0,1
15676000,15596000,15596000,0,-0.030273438,12.337747,-0.0,12.39389,2.5597467e-07,3,1,0,1
15740000,15656000,15660000,0,-0.006866455,12.338207,-0.0,12.395273,3.240197e-06,3,1,0,1
15796000,15716000,15716000,0,0.0821228,12.338526,-0.0,12.396407,4.652621e-05,3,1,0,1
15860000,15776000,15780000,0,-0.050201416,12.338975,0.012960415,12.397877,5.4193913e-07,3,1,0,1
15916000,15836000,15836000,0,-0.12521362,12.339283,0.08809271,12.39573,2.5041929e-05,3,1,0,1
15980000,15896000,15900000,0,-0.049468994,12.339722,0.01266738,12.397246,5.1773605e-07,3,1,0,1
16036000,15956000,15956000,0,-0.021209717,12.340018,-0.0,12.3985,7.3028093e-07,3,1,0,1
16100000,16016000,16020000,0,-0.12930298,12.340446,0.093773596,12.400117,2.836582e-05,3,1,0,1
16156000,16076000,16076000,0,-0.105163574,12.340733,0.069882855,12.401456,1.5751742e-05,3,1,0,1
16220000,16134666,16140000,0,-0.029510498,12.34115,-0.0,12.403178,8.9363056e-08,3,1,0,1
16276000,16196000,16196000,0,-0.024841309,12.341427,-0.0,12.40461,2.7085503e-07,3,1,0,1
16340000,16256000,16260000,0,0.022033691,12.341835,-0.0,12.402588,1.0164829e-05,3,1,0,1
16396000,16314000,16316000,0,-0.067596436,12.342101,0.03428664,12.404061,3.7909315e-06,3,1,0,1
16444000,16364000,16364000,0,-0.05795288,12.342229,0.02516862,12.40522,2.0425578e-06,3,1,0,1
16508000,16424000,16428000,0,-0.0859375,12.342625,0.053974386,12.407157,9.392109e-06,3,1,0,1
16564000,16484000,16484000,0,-0.043304443,12.342879,0.011963557,12.408775,4.613725e-07,3,1,0,1
16628000,16544000,16548000,0,-0.07608032,12.343266,0.04577951,12.41084,6.754623e-06,3,1,0,1
16684000,16604000,16604000,0,-0.05227661,12.343512,0.022744263,12.412568,1.6670249e-06,3,1,0,1
16748000,16664000,16668000,0,-0.13189697,12.343888,0.10251463,12.410177,3.3873006e-05,3,1,0,1
16804000,16724000,16724000,0,-0.051330566,12.344125,0.0225161,12.4119425,1.6338289e-06,3,1,0,1
16868000,16784000,16788000,0,-0.13565063,12.344492,0.108032525,12.414183,3.7605463e-05,3,1,0,1
16924000,16844000,16844000,0,-0.022125244,12.34472,-0.0,12.416065,7.831319e-08,3,1,0,1
16988000,16904000,16908000,0,0.038879395,12.345078,-0.0,12.418449,1.3412722e-05,3,1,0,1
17044000,16964000,16964000,0,-0.032043457,12.345297,0.0076821223,12.420452,1.900575e-07,3,1,0,1
17108000,17024000,17028000,0,0.01965332,12.345648,-0.0,12.417455,6.3143466e-06,3,1,0,1
17164000,17084000,17084000,0,0.0005493164,12.345857,-0.0,12.4194765,1.830542e-06,3,1,0,1
17228000,17144000,17148000,0,-0.06536865,12.346199,0.043649703,12.422032,6.135217e-06,3,1,0,1
17284000,17204000,17204000,0,-0.09790039,12.3464,0.07730835,12.424182,1.9241768e-05,3,1,0,1
17348000,17264000,17268000,0,-0.07382202,12.346734,0.05435721,12.426892,9.510684e-06,3,1,0,1
17404000,17322000,17324000,0,-0.021728516,12.346928,0.0033574682,12.429171,3.6277857e-08,3,1,0,1
17452000,17372000,17372000,0,-0.021697998,12.346983,0.004572332,12.430983,6.727133e-08,3,1,0,1
17516000,17432000,17436000,0,-0.11557007,12.347307,0.09725809,12.427068,3.044688e-05,3,1,0,1
17572000,17492000,17492000,0,-0.09133911,12.347492,0.07386911,12.429395,1.7560455e-05,3,1,0,1
17636000,17550666,17556000,0,0.0031433105,12.347809,-0.0,12.43232,1.2101132e-06,3,1,0,1
17692000,17612000,17612000,0,0.049926758,12.347985,-0.0,12.434776,1.3464091e-05,3,1,0,1
17756000,17672000,17676000,0,-0.04449463,12.348295,0.03138028,12.437863,3.1668526e-06,3,1,0,1
17812000,17732000,17732000,0,0.012084961,12.348465,-0.0,12.440454,1.8485135e-06,3,1,0,1
17876000,17792000,17796000,0,-0.002166748,12.348767,-0.0,12.443701,2.0783509e-07,3,1,0,1
17932000,17852000,17852000,0,0.035339355,12.348929,-0.0,12.43791,7.3579604e-06,3,1,0,1
17996000,17910666,17916000,0,-0.0025939941,12.349224,-0.0,12.4411125,2.4742715e-07,3,1,0,1
18052000,17972000,17972000,0,-0.0730896,12.34938,0.061866034,12.443797,1.2303016e-05,3,1,0,1
18116000,18032000,18036000,0,-0.07260132,12.349668,0.059657287,12.447157,1.1437124e-05,3,1,0,1
18172000,18092000,18092000,0,-0.10498047,12.349815,0.08904738,12.449969,2.5476162e-05,3,1,0,1
18236000,18152000,18156000,0,0.017791748,12.350097,-0.0,12.45349,4.881269e-06,3,1,0,1
18292000,18212000,18212000,0,-0.038848877,12.350239,0.012426855,12.456427,4.9589414e-07,3,1,0,1
18356000,18272000,18276000,0,-0.09509277,12.350513,0.056900095,12.449609,1.0402321e-05,3,1,0,1
18412000,18330000,18332000,0,-0.033599854,12.350649,-0.0,12.452469,6.28481e-07,3,1,0,1
18460000,18380000,18380000,0,-0.09005737,12.350646,0.032970034,12.454722,3.4911193e-06,3,1,0,1
18524000,18440000,18444000,0,-0.071014404,12.350914,-0.0,12.458347,1.2853471e-08,3,1,0,1
18580000,18500000,18500000,0,-0.03817749,12.351044,-0.0,12.461367,8.512997e-06,3,1,0,1
18644000,18560000,18564000,0,-0.1043396,12.351306,-0.0,12.465143,2.0153907e-07,3,1,0,1
18700000,18620000,18620000,0,-0.16543579,12.351429,0.030275404,12.468271,2.9405844e-06,3,1,0,1
18764000,18680000,18684000,0,-0.25439453,12.351686,0.08593321,12.45968,2.3706922e-05,3,1,0,1
18820000,18740000,18740000,0,-0.30532837,12.351802,0.10703653,12.462703,3.677154e-05,3,1,0,1
18884000,18800000,18804000,0,-0.29974365,12.352052,0.06464206,12.466489,1.340745e-05,3,1,0,1
18940000,18860000,18860000,0,-0.43069458,12.352162,0.16238037,12.469608,8.4581276e-05,3,1,0,1
19004000,18920000,18924000,0,-0.3260498,12.352407,0.018568933,12.473533,1.1057181e-06,3,1,0,1
19060000,18980000,18980000,0,-0.38223267,12.352513,0.042156547,12.476766,5.697549e-06,3,1,0,1
19124000,19040000,19044000,0,-0.34906006,12.352752,-0.0,12.466474,3.3622794e-06,3,1,0,1
19180000,19100000,19100000,0,-0.47607422,12.352852,0.06251925,12.469559,1.2538238e-05,3,1,0,1
19244000,19160000,19164000,0,-0.49905396,12.353085,0.047606975,12.473444,7.2679977e-06,3,1,0,1
19300000,19220000,19220000,0,-0.4892578,12.353179,0.004140109,12.476643,5.4952285e-08,3,1,0,1
19364000,19280000,19284000,0,-0.55026245,12.353408,0.02661872,12.480637,2.2708975e-06,3,1,0,1
19420000,19340000,19340000,0,-0.57821655,12.3534975,0.020077825,12.483925,1.2916421e-06,3,1,0,1
19484000,19400000,19404000,0,-0.5827637,12.353721,-0.0,12.488056,7.4284867e-07,3,1,0,1
19540000,19460000,19460000,0,-0.7471924,12.353806,0.10821372,12.47514,3.7547346e-05,3,1,0,1
19604000,19520000,19524000,0,-0.7744751,12.354024,0.093863666,12.479049,2.8240574e-05,3,1,0,1
19660000,19580000,19580000,0,-0.77368164,12.354103,0.056197286,12.482269,1.0120387e-05,3,1,0,1
19724000,19640000,19644000,0,-0.8952942,12.354316,0.13586617,12.486317,5.91355e-05,3,1,0,1
19780000,19700000,19700000,0,-0.8800659,12.354391,0.082910776,12.489586,2.201577e-05,3,1,0,1
19844000,19760000,19764000,0,-0.855896,12.3546,0.016138077,12.49374,8.3381764e-07,3,1,0,1
19900000,19820000,19820000,0,-0.8698425,12.354671,-0.0,12.4971075,1.4261886e-07,3,1,0,1
19964000,19880000,19884000,0,-0.9919739,12.354876,0.06732428,12.48328,1.4523615e-05,3,1,0,1
20020000,19940000,19940000,0,-1.0618286,12.354941,0.09973419,12.48645,3.1864645e-05,3,1,0,1
20084000,20000000,20004000,0,-1.0751038,12.355141,0.069808364,12.490486,1.5606143e-05,3,1,0,1
20140000,20060000,20060000,0,-0.9618225,12.355202,-0.0,12.49376,2.1050892e-05,3,1,0,1
20204000,20120000,20124000,0,-1.1408997,12.355398,0.05614209,12.497849,1.0087926e-05,3,1,0,1
20260000,20180000,20180000,0,-1.1263428,12.355455,0.0044277906,12.50118,6.273114e-08,3,1,0,1
20324000,20240000,20244000,0,-1.1638794,12.355647,-0.0,12.486138,2.2814352e-07,3,1,0,1
20380000,20300000,20300000,0,-1.0794067,12.3557,-0.0,12.489297,5.3451262e-05,3,1,0,1
20444000,20360000,20364000,0,-1.324646,12.355886,0.07488942,12.493238,1.7956674e-05,3,1,0,1
20500000,20420000,20420000,0,-1.3756714,12.355936,0.089291334,12.496459,2.5520647e-05,3,1,0,1
20564000,20480000,20484000,0,-1.4406433,12.356119,0.112685084,12.500535,4.0631632e-05,3,1,0,1
20620000,20540000,20540000,0,-1.4021301,12.356165,0.03772509,12.503749,4.552818e-06,3,1,0,1
20684000,20598666,20604000,0,-1.4863281,12.356345,0.08169842,12.507898,2.1345333e-05,3,1,0,1
20740000,20656000,20660000,0,-1.5090942,12.356387,0.061130166,12.490879,1.1966803e-05,3,1,0,1
20788000,20708000,20708000,0,-1.5038757,12.356293,0.025962234,12.493209,2.1580927e-06,3,1,0,1
20852000,20768000,20772000,0,-1.5177612,12.356469,0.00097322464,12.497099,3.0316356e-09,3,1,0,1
20908000,20828000,20828000,0,-1.6069641,12.356509,0.05680704,12.500268,1.03263055e-05,3,1,0,1
20972000,20888000,20892000,0,-1.6299438,12.356683,0.041558385,12.504291,5.5248215e-06,3,1,0,1
21028000,20948000,20948000,0,-1.5779419,12.356719,-0.0,12.507437,5.976363e-06,3,1,0,1
21092000,21008000,21012000,0,-1.6393433,12.35689,-0.0,12.511524,1.040296e-06,3,1,0,1
21148000,21068000,21068000,0,-1.8320007,12.356923,0.13294303,12.493768,5.658453e-05,3,1,0,1
21212000,21126666,21132000,0,-1.6947021,12.35709,-0.0,12.497624,5.37669e-06,3,1,0,1
21268000,21186000,21188000,0,-1.9016418,12.357119,0.13571084,12.500654,5.8932696e-05,3,1,0,1
21316000,21236000,21236000,0,-1.8629456,12.357012,0.070022345,12.502941,1.5686323e-05,3,1,0,1
21380000,21296000,21300000,0,-1.9045715,12.357178,0.0778873,12.506897,1.9401874e-05,3,1,0,1
21436000,21356000,21356000,0,-1.7489624,12.357205,-0.0,12.509974,3.587601e-05,3,1,0,1
21500000,21416000,21420000,0,-1.97995,12.357368,0.09693563,12.513987,3.0035246e-05,3,1,0,1
21556000,21476000,21476000,0,-2.002594,12.357393,0.084860325,12.495756,2.3051907e-05,3,1,0,1
21620000,21536000,21540000,0,-2.0441284,12.357553,0.105579734,12.499547,3.567195e-05,3,1,0,1
21676000,21596000,21596000,0,-1.9586792,12.3575735,0.0053750277,12.502515,9.243236e-08,3,1,0,1
21740000,21656000,21660000,0,-1.9398499,12.357729,-0.0,12.506373,2.0702128e-06,3,1,0,1
21796000,21716000,21716000,0,-1.9869995,12.357747,0.013400435,12.509433,5.7419606e-07,3,1,0,1
21860000,21776000,21780000,0,-2.0854797,12.357901,0.103658676,12.513293,3.434786e-05,3,1,0,1
21916000,21836000,21836000,0,-2.079895,12.357917,0.078559875,12.494875,1.9757392e-05,3,1,0,1
21980000,21896000,21900000,0,-1.9994202,12.358067,-0.0,12.49857,3.3026467e-07,3,1,0,1
22036000,21956000,21956000,0,-2.107483,12.358079,0.09099221,12.501516,2.649145e-05,3,1,0,1
22100000,22016000,22020000,0,-2.0597534,12.358226,0.03336048,12.505234,3.559859e-06,3,1,0,1
22156000,22076000,22076000,0,-2.1158142,12.358235,0.08067131,12.508218,2.0811472e-05,3,1,0,1
22220000,22136000,22140000,0,-2.1479797,12.35838,0.10177255,12.512049,3.3112567e-05,3,1,0,1
22276000,22196000,22196000,0,-2.0250244,12.358388,-0.0,12.515011,3.1920888e-06,3,1,0,1
22340000,22256000,22260000,0,-2.0816345,12.358531,0.0032157898,12.49716,3.3099695e-08,3,1,0,1
22396000,22316000,22316000,0,-2.1191711,12.358535,0.031574726,12.500033,3.1902744e-06,3,1,0,1
22460000,22374666,22380000,0,-2.1846313,12.358674,0.08638549,12.5037155,2.3872752e-05,3,1,0,1
22516000,22436000,22436000,0,-2.1932373,12.358676,0.08507776,12.50659,2.3150118e-05,3,1,0,1
22580000,22494666,22500000,0,-2.2347717,12.358813,0.115899086,12.510337,4.2948795e-05,3,1,0,1
22636000,22556000,22556000,0,-2.158661,12.358813,0.030161142,12.513287,2.9079317e-06,3,1,0,1
22700000,22614666,22620000,0,-2.2006226,12.358949,0.06255436,12.517048,1.2504698e-05,3,1,0,1
22756000,22676000,22676000,0,-2.2470398,12.358947,0.08901,12.498274,2.5356396e-05,3,1,0,1
22820000,22736000,22740000,0,-2.2415771,12.359078,0.07392788,12.501878,1.7486434e-05,3,1,0,1
22876000,22796000,22796000,0,-2.2409363,12.359074,0.06513047,12.504733,1.35691935e-05,3,1,0,1
22940000,22856000,22860000,0,-2.3248596,12.359203,0.14013028,12.508373,6.279472e-05,3,1,0,1
22996000,22916000,22916000,0,-2.2673035,12.359197,0.07420468,12.511267,1.7604403e-05,3,1,0,1
23060000,22974666,22980000,0,-2.276062,12.359324,0.07479644,12.515,1.7880966e-05,3,1,0,1
23116000,23036000,23036000,0,-2.2894897,12.359316,0.06770563,12.496351,1.4673251e-05,3,1,0,1
23180000,23096000,23100000,0,-2.2842102,12.359442,0.054831266,12.499886,9.620785e-06,3,1,0,1
23236000,23156000,23156000,0,-2.3494568,12.359429,0.11365461,12.502687,4.13267e-05,3,1,0,1
23300000,23216000,23220000,0,-2.3484497,12.359553,0.1049099,12.506271,3.5201814e-05,3,1,0,1
23356000,23274000,23276000,0,-2.2254639,12.35954,-0.0,12.509115,1.9316187e-06,3,1,0,1
23420000,23334666,23340000,0,-2.3008118,12.359663,0.04508686,12.512791,6.4983906e-06,3,1,0,1
23476000,23396000,23396000,0,-2.2581482,12.359648,-0.0,12.515669,2.567892e-08,3,1,0,1
23540000,23456000,23460000,0,-2.3520813,12.359769,0.07246089,12.497825,1.6804783e-05,3,1,0,1
23596000,23516000,23516000,0,-2.3608398,12.359751,0.075873375,12.500581,1.8420804e-05,3,1,0,1
23660000,23574666,23580000,0,-2.327301,12.359869,0.036445856,12.504133,4.2491565e-06,3,1,0,1
23716000,23634000,23636000,0,-2.2800293,12.35985,-0.0,12.506919,7.762019e-07,3,1,0,1
23764000,23684000,23684000,0,-2.3411865,12.359696,0.042094707,12.508946,5.6662307e-06,3,1,0,1
23828000,23741333,23748000,0,-2.3408203,12.359817,0.03682947,12.512596,4.3361424e-06,3,1,0,1
23884000,23802000,23804000,0,-2.3076172,12.359798,-0.0,12.515453,7.7996143e-10,3,1,0,1
23932000,23852000,23852000,0,-2.39682,12.359647,0.07191801,12.496288,1.6555956e-05,3,1,0,1
23996000,23912000,23916000,0,-2.3163757,12.359766,-0.0,12.499775,5.7919834e-07,3,1,0,1
24052000,23972000,23972000,0,-2.335266,12.359749,0.0019192696,12.502538,1.1785113e-08,3,1,0,1
24116000,24032000,24036000,0,-2.3164673,12.359867,-0.0,12.506104,1.3830895e-06,3,1,0,1
24172000,24092000,24092000,0,-2.3729858,12.359848,0.0323658,12.508901,3.349759e-06,3,1,0,1
24236000,24150666,24156000,0,-2.335144,12.359965,-0.0,12.512537,2.8955589e-07,3,1,0,1
24292000,24212000,24212000,0,-2.3587341,12.359945,0.011036634,12.515386,3.8930418e-07,3,1,0,1
24356000,24272000,24276000,0,-2.5323486,12.360061,0.16634178,12.497832,8.8558045e-05,3,1,0,1
24412000,24332000,24332000,0,-2.418213,12.360038,0.047294617,12.500567,7.157373e-06,3,1,0,1
24476000,24392000,24396000,0,-2.4271545,12.360151,0.0523057,12.504098,8.751966e-06,3,1,0,1
24532000,24452000,24452000,0,-2.4689636,12.3601265,0.090657234,12.506885,2.6285474e-05,3,1,0,1
24596000,24512000,24516000,0,-2.407135,12.360239,0.024681807,12.510481,1.94778e-06,3,1,0,1
24652000,24572000,24572000,0,-2.374054,12.360214,-0.0,12.513311,3.9590628e-07,3,1,0,1
24716000,24632000,24636000,0,-2.4821167,12.360325,0.07967305,12.495928,2.0319563e-05,3,1,0,1
24772000,24692000,24692000,0,-2.4250793,12.360297,0.0194633,12.4986315,1.212357e-06,3,1,0,1
24836000,24752000,24756000,0,-2.453064,12.360405,0.04479289,12.5021305,6.4193955e-06,3,1,0,1
24892000,24812000,24812000,0,-2.54187,12.360376,0.13107896,12.504898,5.4959884e-05,3,1,0,1
24956000,24872000,24876000,0,-2.5172424,12.360484,0.10287428,12.508478,3.384302e-05,3,1,0,1
25012000,24932000,24932000,0,-2.3989563,12.360455,-0.0,12.511287,1.0645311e-06,3,1,0,1
25076000,24992000,24996000,0,-2.4742432,12.360561,0.05547166,12.514938,9.834982e-06,3,1,0,1
25132000,25052000,25052000,0,-2.3657532,12.360531,-0.0,12.496748,1.5275944e-05,3,1,0,1
25196000,25112000,25116000,0,-2.3616638,12.360635,-0.0,12.500215,1.7825618e-05,3,1,0,1
25252000,25172000,25172000,0,-2.5642395,12.360601,0.12685609,12.502965,5.1483687e-05,3,1,0,1
25316000,25232000,25236000,0,-2.530243,12.360705,0.09035373,12.506523,2.611052e-05,3,1,0,1
25372000,25292000,25292000,0,-2.543518,12.360671,0.10184288,12.509326,3.3165565e-05,3,1,0,1
25436000,25352000,25356000,0,-2.4205322,12.360774,-0.0,12.512955,1.6955032e-06,3,1,0,1
25492000,25412000,25412000,0,-2.3832092,12.36074,-0.0,12.515802,1.1778789e-05,3,1,0,1
25556000,25472000,25476000,0,-2.552765,12.360842,0.0922358,12.498355,2.7227403e-05,3,1,0,1
25612000,25530000,25532000,0,-2.528473,12.360805,0.066578865,12.501087,1.4183551e-05,3,1,0,1
25660000,25580000,25580000,0,-2.5466614,12.360634,0.08384347,12.503083,2.2489581e-05,3,1,0,1
25724000,25638666,25644000,0,-2.4754944,12.360737,0.011707306,12.506653,4.3836192e-07,3,1,0,1
25780000,25698000,25700000,0,-2.5552368,12.3607025,0.09157729,12.509467,2.6816173e-05,3,1,0,1
25828000,25748000,25748000,0,-2.6013489,12.360534,0.13697219,12.511494,5.998126e-05,3,1,0,1
25892000,25808000,25812000,0,-2.5250244,12.360639,0.05969906,12.515168,1.13909055e-05,3,1,0,1
25948000,25868000,25868000,0,-2.6090088,12.360607,0.1270163,12.49712,5.163795e-05,3,1,0,1
26012000,25928000,25932000,0,-2.5609436,12.36071,0.07837176,12.500616,1.9653857e-05,3,1,0,1
26068000,25988000,25988000,0,-2.4569397,12.360676,-0.0,12.50339,2.1049025e-06,3,1,0,1
26132000,26048000,26052000,0,-2.5557556,12.360778,0.07434964,12.506976,1.7679315e-05,3,1,0,1
26188000,26108000,26108000,0,-2.4752502,12.360743,-0.0,12.509805,1.05102124e-07,3,1,0,1
26252000,26168000,26172000,0,-2.4518433,12.360845,-0.0,12.513469,2.3986381e-06,3,1,0,1
26308000,26228000,26228000,0,-2.5365906,12.360808,0.043089867,12.495488,5.9437025e-06,3,1,0,1
26372000,26288000,26292000,0,-2.4939575,12.360908,0.0019052029,12.498968,1.16163115e-08,3,1,0,1
26428000,26348000,26348000,0,-2.6253662,12.36087,0.13505292,12.501732,5.8357644e-05,3,1,0,1
26492000,26408000,26412000,0,-2.5678406,12.360969,0.078116655,12.505303,1.9518795e-05,3,1,0,1
26548000,26468000,26468000,0,-2.55307,12.3609295,0.06442881,12.508125,1.3274798e-05,3,1,0,1
26612000,26526666,26532000,0,-2.6135254,12.361028,0.12656975,12.511779,5.1215426e-05,3,1,0,1
26668000,26588000,26588000,0,-2.5888977,12.360989,0.10263872,12.514648,3.3671604e-05,3,1,0,1
26732000,26648000,26652000,0,-2.5879822,12.361086,0.08555603,12.497327,2.342848e-05,3,1,0,1
26788000,26708000,26708000,0,-2.6764526,12.361045,0.17516398,12.500081,9.818312e-05,3,1,0,1
26852000,26768000,26772000,0,-2.5387268,12.36114,0.037888527,12.503635,4.592394e-06,3,1,0,1
26908000,26828000,26828000,0,-2.5853271,12.361098,0.08623409,12.50645,2.3783947e-05,3,1,0,1
26972000,26888000,26892000,0,-2.579895,12.361194,0.082380295,12.510092,2.1699323e-05,3,1,0,1
27028000,26948000,26948000,0,-2.5697632,12.361152,0.07368326,12.5129595,1.7355522e-05,3,1,0,1
27092000,27008000,27012000,0,-2.583191,12.361246,0.089111805,12.516676,2.5377069e-05,3,1,0,1
27148000,27068000,27068000,0,-2.5730286,12.361203,0.062133312,12.498429,1.2355308e-05,3,1,0,1
27212000,27128000,27132000,0,-2.5490112,12.361296,0.040156364,12.501967,5.159295e-06,3,1,0,1
27268000,27188000,27188000,0,-2.5908813,12.361251,0.084038496,12.504772,2.2591275e-05,3,1,0,1
27332000,27248000,27252000,0,-2.580719,12.361343,0.07586813,12.508399,1.8406747e-05,3,1,0,1
27388000,27308000,27308000,0,-2.5049438,12.361299,0.0019211769,12.51126,1.1800317e-08,3,1,0,1
27452000,27366666,27372000,0,-2.5236816,12.36139,0.023972034,12.514967,1.8367078e-06,3,1,0,1
27508000,27428000,27428000,0,-2.650238,12.361344,0.13524699,12.49677,5.8548725e-05,3,1,0,1
27572000,27488000,27492000,0,-2.456543,12.361434,-0.056577682,12.500287,1.0243074e-05,3,1,0,1
27628000,27548000,27548000,0,-2.5415955,12.361387,0.032131195,12.503081,3.3029096e-06,3,1,0,1
27692000,27608000,27612000,0,-2.5976562,12.361477,0.09136391,12.506691,2.6697273e-05,3,1,0,1
27748000,27668000,27668000,0,-2.6062317,12.361429,0.102102995,12.509543,3.333462e-05,3,1,0,1
27812000,27728000,27732000,0,-2.6099854,12.361518,0.10846543,12.513235,3.760738e-05,3,1,0,1
27868000,27786000,27788000,0,-2.59964,12.361471,0.10022497,12.516138,3.21027e-05,3,1,0,1
27916000,27836000,27836000,0,-2.65979,12.361289,0.14376283,12.497096,6.615217e-05,3,1,0,1
27980000,27896000,27900000,0,-2.5129395,12.36138,-0.0010740757,12.500629,3.6914574e-09,3,1,0,1
28036000,27956000,27956000,0,-2.6115417,12.361334,0.10064006,12.503436,3.2402044e-05,3,1,0,1
28100000,28016000,28020000,0,-2.5543213,12.3614235,0.045770884,12.507061,6.7001315e-06,3,1,0,1
28156000,28076000,28076000,0,-2.4647217,12.361378,-0.04122305,12.509926,5.433573e-06,3,1,0,1
28220000,28136000,28140000,0,-2.5167236,12.361467,0.015035629,12.513634,7.226363e-07,3,1,0,1
28276000,28196000,28196000,0,-2.6105042,12.361422,0.11203027,12.516548,4.01094e-05,3,1,0,1
28340000,28256000,28260000,0,-2.57193,12.361511,0.053371668,12.498982,9.116054e-06,3,1,0,1
28396000,28316000,28316000,0,-2.6559753,12.361463,0.1399641,12.501776,6.267893e-05,3,1,0,1
28460000,28376000,28380000,0,-2.5701904,12.36155,0.056186438,12.505381,1.0097784e-05,3,1,0,1
28516000,28436000,28436000,0,-2.7199707,12.361502,0.2085247,12.508234,0.00013905257,3,1,0,1
28580000,28494666,28500000,0,-2.5960388,12.361589,0.08593202,12.511924,2.3607277e-05,3,1,0,1
28636000,28556000,28556000,0,-2.6281128,12.361541,0.12042284,12.514829,4.6350327e-05,3,1,0,1
28700000,28616000,28620000,0,-2.5848083,12.361628,0.079743624,12.518595,2.031872e-05,3,1,0,1
28756000,28676000,28676000,0,-2.5888062,12.361579,0.06442094,12.500077,1.32801015e-05,3,1,0,1
28820000,28736000,28740000,0,-2.5271912,12.361665,0.006132126,12.503658,1.2029429e-07,3,1,0,1
28876000,28796000,28796000,0,-2.6914368,12.361613,0.17393613,12.506497,9.676179e-05,3,1,0,1
28940000,28856000,28860000,0,-2.633545,12.361699,0.11830568,12.510167,4.4751552e-05,3,1,0,1
28996000,28916000,28916000,0,-2.519806,12.361649,0.0070877075,12.513061,1.6058613e-07,3,1,0,1
29060000,28976000,28980000,0,-2.669983,12.361733,0.16186738,12.5168085,8.373076e-05,3,1,0,1
29116000,29036000,29036000,0,-2.5136108,12.361683,-0.01676488,12.49834,8.995152e-07,3,1,0,1
29180000,29096000,29100000,0,-2.6874695,12.361766,0.16176105,12.501894,8.3720544e-05,3,1,0,1
29236000,29156000,29156000,0,-2.6578674,12.361713,0.13425303,12.504717,5.7654644e-05,3,1,0,1
29300000,29216000,29220000,0,-2.5815735,12.361797,0.060913563,12.508364,1.186554e-05,3,1,0,1
29356000,29276000,29276000,0,-2.7030945,12.361744,0.18579888,12.511243,0.00011036866,3,1,0,1
29420000,29336000,29340000,0,-2.541809,12.361828,0.027224302,12.514971,2.3688833e-06,3,1,0,1
29476000,29396000,29396000,0,-2.579132,12.361774,0.0687716,12.517897,1.5112868e-05,3,1,0,1
29540000,29456000,29460000,0,-2.5644226,12.361858,0.031899452,12.500094,3.2562157e-06,3,1,0,1
29596000,29516000,29516000,0,-2.6111145,12.361804,0.08274746,12.502899,2.1905775e-05,3,1,0,1
29660000,29576000,29580000,0,-2.5822144,12.361885,0.058112144,12.506518,1.0800835e-05,3,1,0,1
29716000,29634000,29636000,0,-2.431427,12.361831,-0.08871007,12.509381,2.516344e-05,3,1,0,1
29764000,29684000,29684000,0,-2.7045593,12.361643,0.18958616,12.511457,0.00011491199,3,1,0,1
29828000,29744000,29748000,0,-2.5995789,12.361728,0.08796549,12.515191,2.4731311e-05,3,1,0,1
29884000,29804000,29804000,0,-2.5565186,12.361677,0.04888177,12.518124,7.635097e-06,3,1,0,1
29948000,29864000,29868000,0,-2.6687927,12.361762,0.13986707,12.500329,6.25993e-05,3,1,0,1
30004000,29924000,29924000,0,-2.5924072,12.36171,0.06665754,12.5031395,1.421476e-05,3,1,0,1
30068000,29984000,29988000,0,-2.5917969,12.361793,0.07070804,12.506766,1.5990148e-05,3,1,0,1
30124000,30044000,30044000,0,-2.5817566,12.36174,0.064574,12.509636,1.3333087e-05,3,1,0,1
30188000,30104000,30108000,0,-2.618744,12.361823,0.10629368,12.513346,3.6116147e-05,3,1,0,1
30244000,30164000,30164000,0,-2.6741333,12.361771,0.16521072,12.516264,8.722918e-05,3,1,0,1
30308000,30224000,30228000,0,-2.6304321,12.361854,0.09701419,12.498526,3.0121164e-05,3,1,0,1
30364000,30284000,30284000,0,-2.5544434,12.361799,0.024307728,12.501314,1.8905712e-06,3,1,0,1
30428000,30344000,30348000,0,-2.6246643,12.361881,0.09917855,12.504913,3.1464064e-05,3,1,0,1
30484000,30404000,30404000,0,-2.6096802,12.361827,0.08735132,12.507764,2.4401656e-05,3,1,0,1
30548000,30464000,30468000,0,-2.5760193,12.361908,0.05770111,12.511448,1.06443895e-05,3,1,0,1
30604000,30524000,30524000,0,-2.645935,12.361854,0.13148904,12.51435,5.5262535e-05,3,1,0,1
30668000,30584000,30588000,0,-2.6494446,12.361936,0.13881516,12.518112,6.1573664e-05,3,1,0,1
30724000,30644000,30644000,0,-2.5308228,12.361881,-0.004482031,12.499454,6.428633e-08,3,1,0,1
30788000,30704000,30708000,0,-2.6247559,12.361961,0.094696045,12.503021,2.8688557e-05,3,1,0,1
30844000,30764000,30764000,0,-2.6849365,12.361905,0.15837264,12.505851,8.022451e-05,3,1,0,1
30908000,30824000,30828000,0,-2.7070007,12.361985,0.1838255,12.509507,0.000108051616,3,1,0,1
30964000,30884000,30884000,0,-2.6020508,12.361929,0.08134055,12.512392,2.1151143e-05,3,1,0,1
31028000,30944000,30948000,0,-2.6435852,12.362009,0.12737894,12.516129,5.1854357e-05,3,1,0,1
31084000,31004000,31004000,0,-2.642456,12.361954,0.12959719,12.519059,5.3663556e-05,3,1,0,1
31148000,31064000,31068000,0,-2.6647644,12.362034,0.12508869,12.501099,5.0066577e-05,3,1,0,1
31204000,31124000,31124000,0,-2.4899292,12.361977,-0.04659462,12.503907,6.9452167e-06,3,1,0,1
31268000,31184000,31188000,0,-2.6171265,12.362055,0.08642173,12.507533,2.3885495e-05,3,1,0,1
31324000,31244000,31244000,0,-2.5177612,12.361998,-0.009161234,12.5104,2.6834698e-07,3,1,0,1
31388000,31304000,31308000,0,-2.705658,12.362077,0.18465424,12.51411,0.00010898797,3,1,0,1
31444000,31364000,31364000,0,-2.5115051,12.362019,-0.0063405037,12.517022,1.284714e-07,3,1,0,1
31508000,31424000,31428000,0,-2.553833,12.362098,0.0112288,12.499151,4.035024e-07,3,1,0,1
31564000,31484000,31484000,0,-2.633545,12.36204,0.09617019,12.501937,2.9591269e-05,3,1,0,1
31628000,31544000,31548000,0,-2.6279907,12.362117,0.095807314,12.505532,2.9359939e-05,3,1,0,1
31684000,31604000,31604000,0,-2.645935,12.362058,0.118225336,12.508378,4.4697183e-05,3,1,0,1
31748000,31664000,31668000,0,-2.5509644,12.362136,0.028413296,12.512059,2.5809193e-06,3,1,0,1
31804000,31724000,31724000,0,-2.5835876,12.362077,0.06658554,12.5149555,1.4170674e-05,3,1,0,1
31868000,31784000,31788000,0,-2.531311,12.362155,0.0204072,12.518713,1.3306601e-06,3,1,0,1
31924000,31844000,31844000,0,-2.5827942,12.362097,0.045423508,12.499951,6.60257e-06,3,1,0,1
31988000,31904000,31908000,0,-2.7044678,12.362173,0.17311645,12.503514,9.587481e-05,3,1,0,1
32044000,31964000,31964000,0,-2.5479736,12.362113,0.020332336,12.506338,1.322222e-06,3,1,0,1
32108000,32024000,32028000,0,-2.5947266,12.362189,0.07336688,12.50999,1.7210881e-05,3,1,0,1
32164000,32084000,32084000,0,-2.645691,12.36213,0.12931228,12.512869,5.34543e-05,3,1,0,1
32228000,32144000,32148000,0,-2.7008972,12.362206,0.189821,12.516599,0.00011514953,3,1,0,1
32284000,32204000,32204000,0,-2.647522,12.362147,0.14024138,12.519522,6.283833e-05,3,1,0,1
32348000,32264000,32268000,0,-2.6509705,12.362224,0.11581802,12.501486,4.2919106e-05,3,1,0,1
32404000,32324000,32324000,0,-2.5654297,12.362163,0.03470421,12.504288,3.8527014e-06,3,1,0,1
32468000,32384000,32388000,0,-2.5885925,12.362239,0.064052105,12.507909,1.3120249e-05,3,1,0,1
32524000,32444000,32444000,0,-2.6021118,12.362178,0.082635164,12.510768,2.1832619e-05,3,1,0,1
32588000,32504000,32508000,0,-2.6201477,12.362253,0.10646796,12.51447,3.6231424e-05,3,1,0,1
32644000,32564000,32564000,0,-2.614502,12.362193,0.10559797,12.517377,3.5633446e-05,3,1,0,1
32708000,32624000,32628000,0,-2.6088562,12.362268,0.0722723,12.499453,1.6715245e-05,3,1,0,1
32764000,32684000,32684000,0,-2.5706787,12.362206,0.03896594,12.502232,4.8578354e-06,3,1,0,1
32828000,32742666,32748000,0,-2.5985107,12.362282,0.07282543,12.50582,1.696344e-05,3,1,0,1
32884000,32804000,32804000,0,-2.6729736,12.36222,0.15212584,12.508659,7.400399e-05,3,1,0,1
32948000,32864000,32868000,0,-2.6246643,12.362294,0.108627796,12.512332,3.7722777e-05,3,1,0,1
33004000,32924000,32924000,0,-2.684723,12.362233,0.17332006,12.515223,9.6010575e-05,3,1,0,1
33068000,32984000,32988000,0,-2.6596985,12.3623085,0.15314507,12.518972,7.493719e-05,3,1,0,1
33124000,33044000,33044000,0,-2.6160583,12.362247,0.08167124,12.500177,2.1344309e-05,3,1,0,1
33188000,33104000,33108000,0,-2.6669617,12.362321,0.13813472,12.503733,6.104161e-05,3,1,0,1
33244000,33164000,33164000,0,-2.6516418,12.362258,0.12689304,12.50655,5.1498915e-05,3,1,0,1
33308000,33224000,33228000,0,-2.6833801,12.362332,0.16365409,12.510195,8.5634674e-05,3,1,0,1
33364000,33284000,33284000,0,-2.5739136,12.362269,0.057997227,12.513065,1.0752532e-05,3,1,0,1
33428000,33344000,33348000,0,-2.5264587,12.362344,0.016523361,12.5167885,8.7249686e-07,3,1,0,1
33484000,33404000,33404000,0,-2.638977,12.362282,0.13479829,12.519705,5.8054335e-05,3,1,0,1
33548000,33464000,33468000,0,-2.5954895,12.362357,0.0637691,12.501652,1.3011076e-05,3,1,0,1
33604000,33522000,33524000,0,-2.5526733,12.362293,0.025730371,12.504447,2.117813e-06,3,1,0,1
33652000,33572000,33572000,0,-2.5852966,12.362096,0.06274867,12.506483,1.2593135e-05,3,1,0,1
33716000,33632000,33636000,0,-2.5847473,12.362173,0.06772089,12.510131,1.4663696e-05,3,1,0,1
33772000,33692000,33692000,0,-2.5278015,12.362114,0.015555859,12.513005,7.7354633e-07,3,1,0,1
33836000,33752000,33756000,0,-2.621521,12.36219,0.115689516,12.51673,4.277176e-05,3,1,0,1
33892000,33812000,33812000,0,-2.564148,12.362131,0.06283522,12.519649,1.2614617e-05,3,1,0,1
33956000,33872000,33876000,0,-2.6809692,12.362208,0.1535461,12.501658,7.543448e-05,3,1,0,1
34012000,33932000,33932000,0,-2.5528564,12.362148,0.029261112,12.504458,2.7389037e-06,3,1,0,1
34076000,33992000,33996000,0,-2.637085,12.362224,0.11946654,12.508077,4.5641726e-05,3,1,0,1
34132000,34052000,34052000,0,-2.5139465,12.362164,0.00057053566,12.510934,1.0407247e-09,3,1,0,1
34196000,34112000,34116000,0,-2.504547,12.362239,-0.0020422935,12.514633,1.3331474e-08,3,1,0,1
34252000,34172000,34172000,0,-2.6454468,12.362179,0.14517069,12.517537,6.7344015e-05,3,1,0,1
34316000,34232000,34236000,0,-2.5173645,12.362255,-0.012491703,12.499652,4.993504e-07,3,1,0,1
34372000,34292000,34292000,0,-2.6113892,12.362193,0.08786607,12.502429,2.4700626e-05,3,1,0,1
34436000,34352000,34356000,0,-2.6387634,12.362268,0.12146807,12.506018,4.719165e-05,3,1,0,1
34492000,34412000,34412000,0,-2.5108948,12.362206,-0.0014102459,12.508855,6.3596337e-09,3,1,0,1
34556000,34470666,34476000,0,-2.57193,12.362282,0.06710434,12.512528,1.4395149e-05,3,1,0,1
34612000,34530000,34532000,0,-2.590088,12.362221,0.091187,12.515417,2.6575442e-05,3,1,0,1
34660000,34580000,34580000,0,-2.5986633,12.362025,0.10453701,12.517489,3.4920697e-05,3,1,0,1
34724000,34640000,34644000,0,-2.5179138,12.362104,-0.003670454,12.499664,4.3112305e-08,3,1,0,1
34780000,34700000,34700000,0,-2.5789795,12.362045,0.064976454,12.502446,1.35075625e-05,3,1,0,1
34844000,34760000,34764000,0,-2.5455322,12.3621235,0.042164326,12.506041,5.6863096e-06,3,1,0,1
34900000,34820000,34820000,0,-2.4934998,12.362064,0.003267765,12.5088825,3.4146257e-08,3,1,0,1
34964000,34880000,34884000,0,-2.5873718,12.362142,0.11823106,12.51256,4.4686563e-05,3,1,0,1
35020000,34940000,34940000,0,-2.4971008,12.362083,0.050842762,12.515453,8.2617435e-06,3,1,0,1
35084000,35000000,35004000,0,-2.4450073,12.362161,0.033586264,12.519206,3.6041808e-06,3,1,0,1
35140000,35060000,35060000,0,-2.4212341,12.3621025,0.01266551,12.500486,5.133085e-07,3,1,0,1
35204000,35120000,35124000,0,-2.4398804,12.362179,0.08103061,12.50405,2.1004264e-05,3,1,0,1
35260000,35180000,35180000,0,-2.2936096,12.362119,-0.0,12.506873,1.1054411e-06,3,1,0,1
35324000,35240000,35244000,0,-2.3266296,12.362195,0.07125497,12.510525,1.6233596e-05,3,1,0,1
35380000,35300000,35300000,0,-2.2649536,12.362136,0.059207678,12.513402,1.1205743e-05,3,1,0,1
35444000,35360000,35364000,0,-2.236267,12.362212,0.08714175,12.517131,2.4266534e-05,3,1,0,1
35500000,35420000,35420000,0,-2.2260742,12.362153,0.12470579,12.520052,4.9685204e-05,3,1,0,1
35564000,35480000,35484000,0,-2.1826782,12.362229,0.098091364,12.502053,3.078507e-05,3,1,0,1
35620000,35536000,35540000,0,-2.0409546,12.362168,-0.0,12.504857,1.8514631e-09,3,1,0,1
35668000,35588000,35588000,0,-2.0268555,12.361974,0.021784306,12.506899,1.5177413e-06,3,1,0,1
35732000,35648000,35652000,0,-1.9703369,12.362053,0.013083339,12.510555,5.472939e-07,3,1,0,1
35788000,35708000,35708000,0,-1.9326477,12.361996,0.016982079,12.513435,9.2186036e-07,3,1,0,1
35852000,35768000,35772000,0,-1.87146,12.362075,0.0032321215,12.51717,3.338329e-08,3,1,0,1
35908000,35828000,35828000,0,-1.918396,12.362018,0.057991624,12.498601,1.0762896e-05,3,1,0,1
35972000,35888000,35892000,0,-1.9037781,12.362095,0.08992469,12.50214,2.5872212e-05,3,1,0,1
36028000,35948000,35948000,0,-1.7668457,12.362037,-0.0,12.504949,1.4102908e-07,3,1,0,1
36092000,36008000,36012000,0,-1.7105713,12.362114,-0.0,12.508578,7.631947e-07,3,1,0,1
36148000,36066000,36068000,0,-1.8046265,12.362056,0.120375395,12.511443,4.6326346e-05,3,1,0,1
36196000,36116000,36116000,0,-1.6251221,12.361863,-0.0,12.513511,1.925325e-06,3,1,0,1
36260000,36176000,36180000,0,-1.6300354,12.361945,0.0287776,12.517251,2.6464286e-06,3,1,0,1
36316000,36236000,36236000,0,-1.6157227,12.36189,0.023271084,12.498715,1.7331167e-06,3,1,0,1
36380000,36294666,36300000,0,-1.4934387,12.36197,-0.0,12.502262,8.267784e-06,3,1,0,1
36436000,36356000,36356000,0,-1.3905945,12.361914,-0.0,12.505076,3.946899e-05,3,1,0,1
36500000,36416000,36420000,0,-1.4573364,12.361994,0.004570842,12.508713,6.680973e-08,3,1,0,1
36556000,36476000,36476000,0,-1.4432068,12.3619375,0.033397436,12.511582,3.5659398e-06,3,1,0,1
36620000,36536000,36540000,0,-1.4335327,12.362018,0.07275212,12.5153,1.691648e-05,3,1,0,1
36676000,36594000,36596000,0,-1.3201904,12.361961,0.0019640923,12.518215,1.2326543e-08,3,1,0,1
36724000,36644000,36644000,0,-1.334259,12.361772,0.022376418,12.498859,1.6023993e-06,3,1,0,1
36788000,36704000,36708000,0,-1.2683105,12.361854,0.0055640936,12.502414,9.905012e-08,3,1,0,1
36844000,36764000,36764000,0,-1.2447815,12.361799,0.025267005,12.505233,2.0420941e-06,3,1,0,1
36908000,36824000,36828000,0,-1.1271973,12.361881,-0.0,12.508876,5.9316267e-06,3,1,0,1
36964000,36884000,36884000,0,-1.1886292,12.361827,0.06182909,12.511751,1.2221586e-05,3,1,0,1
37028000,36944000,36948000,0,-1.1176453,12.361909,0.039865375,12.515474,5.0793055e-06,3,1,0,1
37084000,37004000,37004000,0,-1.0186768,12.361855,-0.0,12.518395,8.152228e-07,3,1,0,1
37148000,37064000,37068000,0,-1.0047607,12.361937,-0.0,12.500567,2.6744098e-07,3,1,0,1
37204000,37124000,37124000,0,-0.90625,12.36188,-0.0,12.503367,1.3305563e-05,3,1,0,1
37268000,37184000,37188000,0,-0.82702637,12.361961,-0.0,12.506985,2.8531596e-05,3,1,0,1
37324000,37244000,37244000,0,-0.81848145,12.361905,-0.0,12.509843,1.1466338e-05,3,1,0,1
37388000,37304000,37308000,0,-0.8659668,12.361986,0.03691089,12.513543,4.355006e-06,3,1,0,1
37444000,37364000,37364000,0,-0.7482605,12.36193,-0.0,12.51645,4.63291e-06,3,1,0,1
37508000,37424000,37428000,0,-0.7814636,12.362011,0.017252862,12.498695,9.526155e-07,3,1,0,1
37564000,37484000,37484000,0,-0.654541,12.361954,-0.0,12.501474,1.4379581e-05,3,1,0,1
37628000,37544000,37548000,0,-0.6739502,12.362032,0.0013477802,12.505062,5.8104836e-09,3,1,0,1
37684000,37604000,37604000,0,-0.42510986,12.361975,-0.0,12.507902,0.00013391124,3,1,0,1
37748000,37664000,37668000,0,-0.6194458,12.362054,0.038773656,12.511577,4.806417e-06,3,1,0,1
37804000,37724000,37724000,0,-0.48764038,12.361997,-0.0,12.514469,8.164678e-06,3,1,0,1
37868000,37784000,37788000,0,-0.51156616,12.362077,0.022480935,12.51822,1.6149019e-06,3,1,0,1
37924000,37844000,37844000,0,-0.42684937,12.36202,-0.0,12.499561,6.668709e-06,3,1,0,1
37988000,37904000,37908000,0,-0.4225464,12.362097,-0.0,12.5031185,5.3257065e-09,3,1,0,1
38044000,37964000,37964000,0,-0.3239441,12.362039,-0.0,12.5059395,1.0527707e-05,3,1,0,1
38108000,38024000,38028000,0,-0.26812744,12.362116,-0.0,12.509586,1.336352e-05,3,1,0,1
38164000,38084000,38084000,0,-0.3062744,12.362058,0.016056478,12.512463,8.241719e-07,3,1,0,1
38228000,38144000,38148000,0,-0.2685547,12.362136,0.026918218,12.51619,2.3156904e-06,3,1,0,1
38284000,38204000,38204000,0,-0.2166748,12.362078,0.01747854,12.519111,9.761058e-07,3,1,0,1
38348000,38262666,38268000,0,-0.12731934,12.362156,-0.0,12.50116,7.73849e-06,3,1,0,1
38404000,38324000,38324000,0,-0.16998291,12.362096,0.035914555,12.50396,4.1262297e-06,3,1,0,1
38468000,38384000,38388000,0,-0.10861206,12.362172,0.022611283,12.507578,1.6350732e-06,3,1,0,1
38524000,38442000,38444000,0,-0.019195557,12.362113,-0.0,12.510436,1.939709e-06,3,1,0,1
38572000,38492000,38492000,0,-0.01940918,12.361919,0.0120291505,12.512504,4.6257875e-07,3,1,0,1
38636000,38552000,38556000,0,0.098083496,12.3619995,-0.0,12.516233,1.0340609e-05,3,1,0,1
38692000,38612000,38612000,0,0.26657104,12.361944,-0.0,12.519158,0.00010659151,3,1,0,1
38756000,38672000,38676000,0,0.17572021,12.362024,-0.0,12.501248,8.382052e-06,3,1,0,1
38812000,38732000,38732000,0,0.16119385,12.361967,0.031231299,12.504028,3.1202553e-06,3,1,0,1
38876000,38792000,38796000,0,0.0018310547,12.362046,0.25256062,12.507584,0.00020399422,3,1,0,1
38932000,38848000,38852000,0,-0.0053100586,12.361989,0.3016173,12.510352,0.00029087267,3,1,0,1
38980000,38900000,38900000,0,0.03024292,12.361797,0.29710555,12.512314,0.00028219147,3,1,0,1
39044000,38960000,38964000,0,0.009429932,12.36188,0.3579868,12.515863,0.00040957483,3,1,0,1
39100000,39020000,39020000,0,0.087768555,12.361827,0.31258777,12.518592,0.00031221122,3,1,0,1
39164000,39080000,39084000,0,-0.06439209,12.361909,0.42210507,12.500645,0.0005701232,3,1,0,1
39220000,39140000,39140000,0,-0.13574219,12.361854,0.52507997,12.503208,0.00088204234,3,1,0,1
39284000,39200000,39204000,0,-0.16860962,12.361935,0.59421015,12.506509,0.0011292862,3,1,0,1
39340000,39260000,39260000,0,-0.121032715,12.361879,0.5783386,12.509051,0.0010695474,3,1,0,1
39404000,39320000,39324000,0,-0.14874268,12.36196,0.64624125,12.5123415,0.0013350906,3,1,0,1
39460000,39380000,39380000,0,-0.28381348,12.361905,0.81742007,12.5148535,0.0021356242,3,1,0,1
39524000,39440000,39444000,0,-0.22485352,12.361986,0.6675045,12.49726,0.0014261118,3,1,0,1
39580000,39500000,39500000,0,-0.29867554,12.361929,0.7808325,12.499623,0.001951097,3,1,0,1
39644000,39560000,39564000,0,-0.291687,12.362008,0.82079595,12.502686,0.0021553962,3,1,0,1
39700000,39618000,39620000,0,-0.38293457,12.361951,0.9534961,12.5050335,0.0029081246,3,1,0,1
39748000,39668000,39668000,0,-0.35562134,12.36176,0.96076614,12.506656,0.0029522572,3,1,0,1
39812000,39728000,39732000,0,-0.29071045,12.361843,0.9488416,12.509708,0.0028787253,3,1,0,1
39868000,39788000,39788000,0,-0.16485596,12.361789,0.87092996,12.512021,0.0024249286,3,1,0,1
39932000,39848000,39852000,0,-0.35894775,12.361872,0.95234525,12.494985,0.002903442,3,1,0,1
39988000,39908000,39908000,0,-0.35513306,12.361816,0.99993616,12.497178,0.003200314,3,1,0,1
40052000,39968000,39972000,0,-0.3227234,12.361897,1.0289586,12.50004,0.0033880074,3,1,0,1
40108000,40026000,40028000,0,-0.26654053,12.361842,1.0265383,12.502222,0.0033714992,3,1,0,1
40172000,40086666,40092000,0,-0.25265503,12.361923,1.0785065,12.505085,0.00372065,3,1,0,1
40228000,40148000,40148000,0,-0.40734863,12.361868,1.291347,12.507253,0.0053331526,3,1,0,1
40292000,40208000,40212000,0,-0.315979,12.361949,1.2684402,12.510111,0.0051444485,3,1,0,1
40348000,40268000,40268000,0,-0.14031982,12.361894,0.9522416,12.4929905,0.002903273,3,1,0,1
40412000,40328000,40332000,0,-0.16937256,12.361973,1.0559359,12.495695,0.003569231,3,1,0,1
40468000,40388000,40388000,0,-0.11764526,12.361917,1.0682178,12.497758,0.0036521407,3,1,0,1
40532000,40448000,40452000,0,-0.1550293,12.361996,1.1820613,12.500476,0.0044710906,3,1,0,1
40588000,40508000,40508000,0,-0.074035645,12.361938,1.1673217,12.502536,0.0043595633,3,1,0,1
40652000,40568000,40572000,0,-0.044799805,12.362018,1.2183685,12.505263,0.0047481507,3,1,0,1
40708000,40628000,40628000,0,-0.099609375,12.361961,1.1216894,12.48893,0.004029768,3,1,0,1
40772000,40688000,40692000,0,-0.07546997,12.362039,1.1800585,12.49152,0.004459147,3,1,0,1
40828000,40748000,40748000,0,0.066589355,12.36198,1.1087946,12.493501,0.003936208,3,1,0,1
40892000,40806666,40812000,0,0.038970947,12.362059,1.2204037,12.4961195,0.0047675124,3,1,0,1
40948000,40868000,40868000,0,-0.1237793,12.3619995,1.4551209,12.49811,0.0067766304,3,1,0,1
41012000,40928000,40932000,0,0.077056885,12.362078,1.3376532,12.500754,0.0057254652,3,1,0,1
41068000,40986000,40988000,0,0.11721802,12.36202,1.371199,12.502754,0.0060152723,3,1,0,1
41116000,41036000,41036000,0,0.20462036,12.361827,1.1121751,12.48649,0.0039624698,3,1,0,1
41180000,41096000,41100000,0,0.19580078,12.361907,1.2098136,12.489028,0.004687791,3,1,0,1
41236000,41156000,41156000,0,0.22073364,12.361851,1.2603061,12.490974,0.0050864615,3,1,0,1
41300000,41216000,41220000,0,0.26019287,12.361931,1.3086337,12.493554,0.005482898,3,1,0,1
41356000,41276000,41276000,0,0.44091797,12.361874,1.2035377,12.495525,0.0046368698,3,1,0,1
41420000,41336000,41340000,0,0.2638855,12.361954,1.4716499,12.498145,0.0069314395,3,1,0,1
41476000,41392000,41396000,0,0.37097168,12.361897,1.4408531,12.500139,0.0066433107,3,1,0,1
41524000,41442000,41444000,0,0.5482178,12.361707,1.0859294,12.484513,0.0037782574,3,1,0,1
41588000,41501333,41508000,0,0.4874878,12.361789,1.239358,12.487048,0.0049203243,3,1,0,1
41636000,41552000,41556000,0,0.390625,12.3616,1.3968836,12.488398,0.0062499093,3,1,0,1
41692000,41612000,41612000,0,0.56741333,12.361548,1.2613528,12.490365,0.005095162,3,1,0,1
41756000,41672000,41676000,0,0.6960449,12.361634,1.1834549,12.49296,0.004484335,3,1,0,1
41812000,41732000,41732000,0,0.5751953,12.361583,1.3475587,12.494936,0.005813281,3,1,0,1
41876000,41792000,41796000,0,0.61068726,12.361668,1.3612884,12.49755,0.005931102,3,1,0,1
41932000,41852000,41852000,0,0.49609375,12.361617,1.2711581,12.48303,0.005177727,3,1,0,1
41996000,41912000,41916000,0,0.58724976,12.3617,1.227544,12.4855175,0.0048275585,3,1,0,1
42052000,41972000,41972000,0,0.6170349,12.361648,1.2379363,12.487423,0.004908895,3,1,0,1
