timestamp,data_rate,rate_multiplier,tx_rate_avg,tx_error_rate_avg,tx_message_count,tx_buffer_overruns,rx_rate_avg,rx_message_count,rx_message_lost_count,rx_buffer_overruns,rx_parse_errors,rx_packet_drop_count,rx_message_lost_rate,type,mode,flow_control,forwarding,mavlink_v2,ftp,streams,heartbeat_type_antenna_tracker,heartbeat_type_gcs,heartbeat_type_onboard_controller,heartbeat_type_gimbal,heartbeat_type_adsb,heartbeat_type_camera,heartbeat_type_parachute,heartbeat_type_open_drone_id,heartbeat_component_telemetry_radio,heartbeat_component_log,heartbeat_component_osd,heartbeat_component_obstacle_avoidance,heartbeat_component_vio,heartbeat_component_pairing_manager,heartbeat_component_udp_bridge,heartbeat_component_uart_bridge,avoidance_system_healthy,open_drone_id_system_healthy,parachute_system_healthy
3348000,400000.0,1.0,0.0,0.0,2,0,0.0,0,0,0,0,0,0.0,0,10,0,0,1,1,5,0,0,0,0,0,0,0,0,0,0,0,0,0,0,0,0,0,0,0
4608000,400000.0,1.0,1246.016,0.0,37,0,0.0,0,0,0,0,0,0.0,0,10,0,0,1,1,5,0,0,0,0,0,0,0,0,0,0,0,0,0,0,0,0,0,0,0
5868000,400000.0,1.0,1653.3865,0.0,82,0,0.0,0,0,0,0,0,0.0,0,10,0,0,1,1,5,0,0,0,0,0,0,0,0,0,0,0,0,0,0,0,0,0,0,0
7124000,400000.0,1.0,1445.2191,0.0,122,0,0.0,0,0,0,0,0,0.0,0,10,0,0,1,1,5,0,0,0,0,0,0,0,0,0,0,0,0,0,0,0,0,0,0,0
8124000,400000.0,1.0,1458.1674,0.0,153,0,0.0,0,0,0,0,0,0.0,0,10,0,0,1,1,5,0,0,0,0,0,0,0,0,0,0,0,0,0,0,0,0,0,0,0
8380000,400000.0,1.0,1432.271,0.0,161,0,0.0,0,0,0,0,0,0.0,0,10,0,0,1,1,5,0,0,0,0,0,0,0,0,0,0,0,0,0,0,0,0,0,0,0
9632000,400000.0,1.0,1666.3347,0.0,207,0,0.0,0,0,0,0,0,0.0,0,10,0,0,1,1,5,0,0,0,0,0,0,0,0,0,0,0,0,0,0,0,0,0,0,0
10888000,400000.0,1.0,1445.2191,0.0,249,0,0.0,0,0,0,0,0,0.0,0,10,0,0,1,1,5,0,0,0,0,0,0,0,0,0,0,0,0,0,0,0,0,0,0,0
12144000,400000.0,1.0,1658.3666,0.0,288,0,0.0,0,0,0,0,0,0.0,0,10,0,0,1,1,5,0,0,0,0,0,0,0,0,0,0,0,0,0,0,0,0,0,0,0
13144000,400000.0,1.0,1458.1674,0.0,319,0,0.0,0,0,0,0,0,0.0,0,10,0,0,1,1,5,0,0,0,0,0,0,0,0,0,0,0,0,0,0,0,0,0,0,0
13396000,400000.0,1.0,1432.271,0.0,329,0,0.0,0,0,0,0,0,0.0,0,10,0,0,1,1,5,0,0,0,0,0,0,0,0,0,0,0,0,0,0,0,0,0,0,0
14652000,400000.0,1.0,1500.0,0.0,368,0,0.0,0,0,0,0,0,0.0,0,10,0,0,1,1,5,0,0,0,0,0,0,0,0,0,0,0,0,0,0,0,0,0,0,0
15912000,400000.0,1.0,1483.0677,0.0,408,0,0.0,0,0,0,0,0,0.0,0,10,0,0,1,1,5,0,0,0,0,0,0,0,0,0,0,0,0,0,0,0,0,0,0,0
17168000,400000.0,1.0,1432.271,0.0,446,0,0.0,0,0,0,0,0,0.0,0,10,0,0,1,1,5,0,0,0,0,0,0,0,0,0,0,0,0,0,0,0,0,0,0,0
18168000,400000.0,1.0,1445.2191,0.0,476,0,0.0,0,0,0,0,0,0.0,0,10,0,0,1,1,5,0,0,0,0,0,0,0,0,0,0,0,0,0,0,0,0,0,0,0
18424000,400000.0,1.0,1458.1674,0.0,487,0,0.0,0,0,0,0,0,0.0,0,10,0,0,1,1,5,0,0,0,0,0,0,0,0,0,0,0,0,0,0,0,0,0,0,0
19684000,400000.0,1.0,1432.271,0.0,525,0,0.0,0,0,0,0,0,0.0,0,10,0,0,1,1,5,0,0,0,0,0,0,0,0,0,0,0,0,0,0,0,0,0,0,0
20940000,400000.0,1.0,1445.2191,0.0,563,0,0.0,0,0,0,0,0,0.0,0,10,0,0,1,1,5,0,0,0,0,0,0,0,0,0,0,0,0,0,0,0,0,0,0,0
22200000,400000.0,1.0,1458.1674,0.0,602,0,0.0,0,0,0,0,0,0.0,0,10,0,0,1,1,5,0,0,0,0,0,0,0,0,0,0,0,0,0,0,0,0,0,0,0
23200000,400000.0,1.0,1432.271,0.0,633,0,0.0,0,0,0,0,0,0.0,0,10,0,0,1,1,5,0,0,0,0,0,0,0,0,0,0,0,0,0,0,0,0,0,0,0
23456000,400000.0,1.0,1445.2191,0.0,641,0,0.0,0,0,0,0,0,0.0,0,10,0,0,1,1,5,0,0,0,0,0,0,0,0,0,0,0,0,0,0,0,0,0,0,0
24708000,400000.0,1.0,1522.9084,0.0,680,0,0.0,0,0,0,0,0,0.0,0,10,0,0,1,1,5,0,0,0,0,0,0,0,0,0,0,0,0,0,0,0,0,0,0,0
25964000,400000.0,1.0,1432.271,0.0,718,0,0.0,0,0,0,0,0,0.0,0,10,0,0,1,1,5,0,0,0,0,0,0,0,0,0,0,0,0,0,0,0,0,0,0,0
27224000,400000.0,1.0,1445.2191,0.0,758,0,0.0,0,0,0,0,0,0.0,0,10,0,0,1,1,5,0,0,0,0,0,0,0,0,0,0,0,0,0,0,0,0,0,0,0
28224000,400000.0,1.0,1458.1674,0.0,789,0,0.0,0,0,0,0,0,0.0,0,10,0,0,1,1,5,0,0,0,0,0,0,0,0,0,0,0,0,0,0,0,0,0,0,0
28480000,400000.0,1.0,1432.271,0.0,798,0,0.0,0,0,0,0,0,0.0,0,10,0,0,1,1,5,0,0,0,0,0,0,0,0,0,0,0,0,0,0,0,0,0,0,0
29736000,400000.0,1.0,1445.2191,0.0,836,0,0.0,0,0,0,0,0,0.0,0,10,0,0,1,1,5,0,0,0,0,0,0,0,0,0,0,0,0,0,0,0,0,0,0,0
30996000,400000.0,1.0,1458.1674,0.0,875,0,0.0,0,0,0,0,0,0.0,0,10,0,0,1,1,5,0,0,0,0,0,0,0,0,0,0,0,0,0,0,0,0,0,0,0
32252000,400000.0,1.0,1432.271,0.0,913,0,0.0,0,0,0,0,0,0.0,0,10,0,0,1,1,5,0,0,0,0,0,0,0,0,0,0,0,0,0,0,0,0,0,0,0
33252000,400000.0,1.0,1445.2191,0.0,944,0,0.0,0,0,0,0,0,0.0,0,10,0,0,1,1,5,0,0,0,0,0,0,0,0,0,0,0,0,0,0,0,0,0,0,0
33508000,400000.0,1.0,1458.1674,0.0,953,0,0.0,0,0,0,0,0,0.0,0,10,0,0,1,1,5,0,0,0,0,0,0,0,0,0,0,0,0,0,0,0,0,0,0,0
34768000,400000.0,1.0,1432.271,0.0,992,0,0.0,0,0,0,0,0,0.0,0,10,0,0,1,1,5,0,0,0,0,0,0,0,0,0,0,0,0,0,0,0,0,0,0,0
36024000,400000.0,1.0,1470.1195,0.0,1031,0,0.0,0,0,0,0,0,0.0,0,10,0,0,1,1,5,0,0,0,0,0,0,0,0,0,0,0,0,0,0,0,0,0,0,0
37284000,400000.0,1.0,1522.9084,0.0,1071,0,0.0,0,0,0,0,0,0.0,0,10,0,0,1,1,5,0,0,0,0,0,0,0,0,0,0,0,0,0,0,0,0,0,0,0
38284000,400000.0,1.0,1432.271,0.0,1101,0,0.0,0,0,0,0,0,0.0,0,10,0,0,1,1,5,0,0,0,0,0,0,0,0,0,0,0,0,0,0,0,0,0,0,0
38540000,400000.0,1.0,1445.2191,0.0,1110,0,0.0,0,0,0,0,0,0.0,0,10,0,0,1,1,5,0,0,0,0,0,0,0,0,0,0,0,0,0,0,0,0,0,0,0
39796000,400000.0,1.0,1445.2191,0.0,1148,0,0.0,0,0,0,0,0,0.0,0,10,0,0,1,1,5,0,0,0,0,0,0,0,0,0,0,0,0,0,0,0,0,0,0,0
41052000,400000.0,1.0,1445.2191,0.0,1186,0,0.0,0,0,0,0,0,0.0,0,10,0,0,1,1,5,0,0,0,0,0,0,0,0,0,0,0,0,0,0,0,0,0,0,0
42312000,400000.0,1.0,1445.2191,0.0,1225,0,0.0,0,0,0,0,0,0.0,0,10,0,0,1,1,5,0,0,0,0,0,0,0,0,0,0,0,0,0,0,0,0,0,0,0
43312000,400000.0,1.0,1445.2191,0.0,1256,0,0.0,0,0,0,0,0,0.0,0,10,0,0,1,1,5,0,0,0,0,0,0,0,0,0,0,0,0,0,0,0,0,0,0,0
43572000,400000.0,1.0,1445.2191,0.0,1266,0,0.0,0,0,0,0,0,0.0,0,10,0,0,1,1,5,0,0,0,0,0,0,0,0,0,0,0,0,0,0,0,0,0,0,0
44828000,400000.0,1.0,1432.271,0.0,1303,0,0.0,0,0,0,0,0,0.0,0,10,0,0,1,1,5,0,0,0,0,0,0,0,0,0,0,0,0,0,0,0,0,0,0,0
46088000,400000.0,1.0,1458.1674,0.0,1342,0,0.0,0,0,0,0,0,0.0,0,10,0,0,1,1,5,0,0,0,0,0,0,0,0,0,0,0,0,0,0,0,0,0,0,0
47088000,400000.0,1.0,1457.1714,0.0,1373,0,0.0,0,0,0,0,0,0.0,0,10,0,0,1,1,5,0,0,0,0,0,0,0,0,0,0,0,0,0,0,0,0,0,0,0
47344000,400000.0,1.0,1457.1714,0.0,1382,0,0.0,0,0,0,0,0,0.0,0,10,0,0,1,1,5,0,0,0,0,0,0,0,0,0,0,0,0,0,0,0,0,0,0,0
48596000,400000.0,1.0,1471.1156,0.0,1422,0,0.0,0,0,0,0,0,0.0,0,10,0,0,1,1,5,0,0,0,0,0,0,0,0,0,0,0,0,0,0,0,0,0,0,0
