timestamp,timestamp_sample,states[0],states[1],states[2],states[3],states[4],states[5],states[6],states[7],states[8],states[9],states[10],states[11],states[12],states[13],states[14],states[15],states[16],states[17],states[18],states[19],states[20],states[21],states[22],states[23],covariances[0],covariances[1],covariances[2],covariances[3],covariances[4],covariances[5],covariances[6],covariances[7],covariances[8],covariances[9],covariances[10],covariances[11],covariances[12],covariances[13],covariances[14],covariances[15],covariances[16],covariances[17],covariances[18],covariances[19],covariances[20],covariances[21],covariances[22],covariances[23],n_states
3340000,3260000,0.99988824,-0.010672706,-0.010476955,-0.00016579652,0.0003215383,-0.00038206216,-0.020637438,3.036321e-05,-1.4439167e-05,-0.0014922868,0.0,0.0,0.0,0.0,0.0,0.0,0.0,0.0,0.0,0.0,0.0,0.0,0.0,0.0,5.702458e-07,0.0025489782,0.0025484434,0.0002127986,25.020836,25.020826,10.000214,100.43325,100.43325,100.17326,1.0000002e-06,9.999932e-07,9.844545e-07,4.0000004e-06,4.0000004e-06,4.0000004e-06,0.0,0.0,0.0,0.0,0.0,0.0,0.0,0.0,24
3348000,3268000,0.9998879,-0.0106761865,-0.010505247,-0.0001756513,1.4552038e-11,-5.820866e-11,-1.8626451e-09,1.2207962e-05,5.2667634e-05,0.0014430601,-1.9876004e-10,-6.3047914e-11,-1.5538434e-12,-1.6103376e-10,1.0733135e-10,-8.760088e-09,0.0,0.0,0.0,0.0,0.0,0.0,0.0,0.0,5.7306875e-07,0.0025539014,0.002553352,0.0001156017,1.9073486e-06,1.9073486e-06,1e-06,100.000114,100.000114,100.0,9.999958e-07,9.999874e-07,9.81531e-07,4e-06,4e-06,3.9999986e-06,0.0,0.0,0.0,0.0,0.0,0.0,0.0,0.0,24
3356000,3276000,0.99988765,-0.010682586,-0.010523348,-0.00017499253,-0.00020850833,-0.00020493922,-0.0011131391,1.1373929e-05,5.1847877e-05,0.0014386076,-1.9876004e-10,-6.3047914e-11,-1.5538434e-12,-1.6103376e-10,1.0733135e-10,-8.760088e-09,0.0,0.0,0.0,0.0,0.0,0.0,0.0,0.0,5.761275e-07,0.0025616535,0.0025610973,7.9754114e-05,8.3131745e-05,8.311059e-05,1.7552265e-05,100.000114,100.000114,100.0,9.999958e-07,9.999858e-07,9.781107e-07,4e-06,4e-06,3.9999986e-06,0.0,0.0,0.0,0.0,0.0,0.0,0.0,0.0,24
3364000,3284000,0.68657863,0.0003231828,-0.015012481,0.7269005,-0.00017373903,-0.00046044908,-0.0022824407,9.844939e-06,4.9186325e-05,0.0014250253,-1.9876004e-10,-6.3047914e-11,-1.5538434e-12,-1.6103376e-10,1.0733135e-10,-8.760088e-09,0.20781907,0.011569003,0.43101725,0.0,0.0,0.0,0.0,0.0,5.7897853e-07,0.0025699052,0.0025638016,7.041558e-05,0.00030167124,0.00030214986,4.2052663e-05,100.000114,100.000114,100.0,9.999959e-07,9.999095e-07,9.755602e-07,4.0000004e-06,4.0000004e-06,3.999999e-06,0.0,0.0,0.0,0.0,0.0,0.0,0.0,0.0,24
3372000,3292000,0.68657476,0.0003354782,-0.0150366165,0.7269036,1.1252021e-05,-0.00051574904,-0.0032783002,9.194991e-06,4.5281533e-05,0.0014027823,-1.9876004e-10,-6.3047914e-11,-1.5538434e-12,-1.6103376e-10,1.0733135e-10,-8.760088e-09,0.20781907,0.011569003,0.43101725,0.0,0.0,0.0,0.0,0.0,7.10093e-07,0.0025759954,0.0025656235,6.3065585e-05,0.0005588654,0.00056038453,7.4501244e-05,100.000114,100.000114,100.0,9.999959e-07,9.998413e-07,9.702281e-07,4.0000004e-06,4.0000004e-06,3.999999e-06,0.0,0.0,0.0,0.0,0.0,0.0,0.0,0.0,24
3380000,3300000,0.68657637,0.00034810114,-0.015055095,0.72690177,0.00022691175,-0.00045777444,-0.004381299,1.0147646e-05,4.138744e-05,0.0013721439,-1.9876004e-10,-6.3047914e-11,-1.5538434e-12,-1.6103376e-10,1.0733135e-10,-8.760088e-09,0.20781907,0.011569003,0.43101725,0.0,0.0,0.0,0.0,0.0,1.0899918e-06,0.0025825852,0.0025688633,5.7250185e-05,0.0009537676,0.0009567853,0.00011489849,100.000114,100.000114,100.0,9.999959e-07,9.997788e-07,9.614968e-07,4.0000004e-06,4.0000004e-06,3.999999e-06,0.0,0.0,0.0,0.0,0.0,0.0,0.0,0.0,24
3388000,3308000,0.68658036,0.00035576048,-0.015069569,0.7268977,0.0005281542,-0.00032152463,-0.005404249,1.316791e-05,3.8270246e-05,0.0013330017,-1.9876004e-10,-6.3047914e-11,-1.5538434e-12,-1.6103376e-10,1.0733135e-10,-8.760088e-09,0.20781907,0.011569003,0.43101725,0.0,0.0,0.0,0.0,0.0,1.7069444e-06,0.0025896747,0.0025732971,5.2524454e-05,0.0014860026,0.0014908717,0.000163247,100.000114,100.000114,100.0,9.999959e-07,9.997206e-07,9.4894995e-07,4.0000004e-06,4.0000004e-06,3.999999e-06,0.0,0.0,0.0,0.0,0.0,0.0,0.0,0.0,24
3396000,3316000,0.6865866,0.00036501652,-0.015085504,0.7268914,0.0009499503,-7.902627e-05,-0.0066955015,1.9080328e-05,3.6668043e-05,0.0012846027,-1.9876004e-10,-6.3047914e-11,-1.5538434e-12,-1.6103376e-10,1.0733135e-10,-8.760088e-09,0.20781907,0.011569003,0.43101725,0.0,0.0,0.0,0.0,0.0,2.5431984e-06,0.0025972642,0.002578769,4.8597984e-05,0.0021587468,0.0021657543,0.00021955054,100.000114,100.000114,100.0,9.999959e-07,9.996658e-07,9.323603e-07,4.0000004e-06,4.0000004e-06,3.999999e-06,0.0,0.0,0.0,0.0,0.0,0.0,0.0,0.0,24
3404000,3324000,0.68659174,0.00036925756,-0.015111378,0.72688603,0.0011781664,8.5445645e-05,-0.007848784,2.7592796e-05,3.669372e-05,0.0012264255,-1.9876004e-10,-6.3047914e-11,-1.5538434e-12,-1.6103376e-10,1.0733135e-10,-8.760088e-09,0.20781907,0.011569003,0.43101725,0.0,0.0,0.0,0.0,0.0,3.5748642e-06,0.0026053532,0.002585169,4.5275316e-05,0.0029696624,0.0029789659,0.00028380257,100.000114,100.000114,100.0,9.999959e-07,9.99614e-07,9.116864e-07,4.000001e-06,4.000001e-06,3.9999995e-06,0.0,0.0,0.0,0.0,0.0,0.0,0.0,0.0,24
3412000,3332000,0.6865904,0.0003746743,-0.015130438,0.7268869,0.0013323261,0.0003407903,-0.008824363,3.7634767e-05,3.8398663e-05,0.0011597329,-1.9876004e-10,-6.3047914e-11,-1.5538434e-12,-1.6103376e-10,1.0733135e-10,-8.760088e-09,0.20781907,0.011569003,0.43101725,0.0,0.0,0.0,0.0,0.0,4.770528e-06,0.0026139428,0.0025924202,4.2417207e-05,0.0039182627,0.003929959,0.0003560052,100.000114,100.000114,100.0,9.999959e-07,9.995653e-07,8.8706656e-07,4.000001e-06,4.000001e-06,3.9999995e-06,0.0,0.0,0.0,0.0,0.0,0.0,0.0,0.0,24
3420000,3340000,0.6865889,0.00038030575,-0.015157026,0.72688776,0.0014728239,0.00031750806,-0.009892844,4.8855367e-05,4.1031857e-05,0.0010848641,-1.9876004e-10,-6.3047914e-11,-1.5538434e-12,-1.6103376e-10,1.0733135e-10,-8.760088e-09,0.20781907,0.011569003,0.43101725,0.0,0.0,0.0,0.0,0.0,6.096718e-06,0.0026230323,0.0026004552,3.992573e-05,0.005007903,0.0050221933,0.00043615818,100.00011,100.00011,100.0,9.999959e-07,9.995194e-07,8.588044e-07,4.000001e-06,4.000001e-06,3.9999995e-06,0.0,0.0,0.0,0.0,0.0,0.0,0.0,0.0,24
3428000,3348000,0.6865907,0.00038524976,-0.01517045,0.72688586,0.0015609087,0.00024156884,-0.010978028,6.0990296e-05,4.3268166e-05,0.0010013806,-1.9876004e-10,-6.3047914e-11,-1.5538434e-12,-1.6103376e-10,1.0733135e-10,-8.760088e-09,0.20781907,0.011569003,0.43101725,0.0,0.0,0.0,0.0,0.0,7.5148414e-06,0.0026326212,0.0026092285,3.7727237e-05,0.0062386724,0.0062556625,0.0005242615,100.0001,100.0001,100.0,9.999959e-07,9.994767e-07,8.273433e-07,4.000001e-06,4.000001e-06,3.9999995e-06,0.0,0.0,0.0,0.0,0.0,0.0,0.0,0.0,24
3436000,3356000,0.68658924,0.00038961228,-0.015192177,0.72688675,0.0019460946,0.00031684543,-0.011718519,7.501831e-05,4.5501823e-05,0.0009105944,-1.9876004e-10,-6.3047914e-11,-1.5538434e-12,-1.6103376e-10,1.0733135e-10,-8.760088e-09,0.20781907,0.011569003,0.43101725,0.0,0.0,0.0,0.0,0.0,8.988824e-06,0.00264271,0.0026186905,3.5768997e-05,0.007605236,0.007625082,0.000620332,100.0001,100.0001,100.0,9.999959e-07,9.99437e-07,7.9323297e-07,4.000001e-06,4.000001e-06,3.9999995e-06,0.0,0.0,0.0,0.0,0.0,0.0,0.0,0.0,24
3444000,3364000,0.68658775,0.0003996535,-0.015214873,0.7268877,0.0020115124,0.00043677265,-0.012560405,9.084874e-05,4.8516296e-05,0.0008134787,-1.9876004e-10,-6.3047914e-11,-1.5538434e-12,-1.6103376e-10,1.0733135e-10,-8.760088e-09,0.20781907,0.011569003,0.43101725,0.0,0.0,0.0,0.0,0.0,1.0481731e-05,0.0026532991,0.0026288037,3.400919e-05,0.009115157,0.00913776,0.00072434265,100.0001,100.0001,100.0,9.999959e-07,9.994004e-07,7.570902e-07,4.0000014e-06,4.0000014e-06,4e-06,0.0,0.0,0.0,0.0,0.0,0.0,0.0,0.0,24
3452000,3372000,0.68659294,0.00040981176,-0.015223623,0.7268825,0.0021901848,0.0005384173,-0.013673544,0.000107655535,5.2417057e-05,0.00070854294,-1.9876004e-10,-6.3047914e-11,-1.5538434e-12,-1.6103376e-10,1.0733135e-10,-8.760088e-09,0.20781907,0.011569003,0.43101725,0.0,0.0,0.0,0.0,0.0,1.19593105e-05,0.0026643882,0.0026395393,3.241616e-05,0.010773089,0.010798566,0.0008363134,100.0001,100.0001,100.0,9.99996e-07,9.993672e-07,7.195568e-07,4.0000014e-06,4.0000014e-06,4e-06,0.0,0.0,0.0,0.0,0.0,0.0,0.0,0.0,24
3460000,3380000,0.68659735,0.00041825403,-0.015238829,0.72687805,0.0025391718,0.00054860447,-0.01488594,0.00012657297,5.6765144e-05,0.000594305,-1.9876004e-10,-6.3047914e-11,-1.5538434e-12,-1.6103376e-10,1.0733135e-10,-8.760088e-09,0.20781907,0.011569003,0.43101725,0.0,0.0,0.0,0.0,0.0,1.3394163e-05,0.0026759766,0.002650865,3.096716e-05,0.01257734,0.012605895,0.0009562485,100.0001,100.0001,100.0,9.99996e-07,9.993371e-07,6.812639e-07,4.0000014e-06,4.0000014e-06,4e-06,0.0,0.0,0.0,0.0,0.0,0.0,0.0,0.0,24
3468000,3388000,0.6865938,0.0004326203,-0.015269312,0.7268808,0.002861014,0.0005458609,-0.015831023,0.00014817371,6.114301e-05,0.00047143712,-1.9876004e-10,-6.3047914e-11,-1.5538434e-12,-1.6103376e-10,1.0733135e-10,-8.760088e-09,0.20781907,0.011569003,0.43101725,0.0,0.0,0.0,0.0,0.0,1.4763001e-05,0.0026880656,0.0026627537,2.9642946e-05,0.014520623,0.014552313,0.0010841391,100.0001,100.0001,100.0,9.99996e-07,9.993099e-07,6.428011e-07,4.0000014e-06,4.0000014e-06,4e-06,0.0,0.0,0.0,0.0,0.0,0.0,0.0,0.0,24
3476000,3396000,0.68659383,0.0004502447,-0.015279359,0.7268805,0.0029220707,0.0005343339,-0.016872741,0.00017130605,6.5463784e-05,0.00034062203,-1.9876004e-10,-6.3047914e-11,-1.5538434e-12,-1.6103376e-10,1.0733135e-10,-8.760088e-09,0.20781907,0.011569003,0.43101725,0.0,0.0,0.0,0.0,0.0,1.6117454e-05,0.0027006252,0.0026537646,2.8043227e-05,0.016545793,0.01658792,0.0012199683,100.0001,100.0001,100.0,9.999246e-07,9.989336e-07,6.0344024e-07,4.0000014e-06,4.0000014e-06,4e-06,0.0,0.0,0.0,0.0,0.0,0.0,0.0,0.0,24
3484000,3404000,0.68659294,0.000479059,-0.015299259,0.7268809,0.0029002358,0.000511566,-0.01808893,0.00019459528,6.964739e-05,0.00020077535,-1.9876004e-10,-6.3047914e-11,-1.5538434e-12,-1.6103376e-10,1.0733135e-10,-8.760088e-09,0.20781907,0.011569003,0.43101725,0.0,0.0,0.0,0.0,0.0,1.73876e-05,0.0027136907,0.0026492353,2.6601521e-05,0.01872033,0.018770467,0.0013637479,100.0001,100.0001,100.0,9.998586e-07,9.986251e-07,5.6555865e-07,4.000002e-06,4.000002e-06,4.0000004e-06,0.0,0.0,0.0,0.0,0.0,0.0,0.0,0.0,24
3492000,3412000,0.6865899,0.00049053004,-0.015320406,0.72688335,0.003165673,0.0005261392,-0.019145228,0.00021885891,7.3798205e-05,5.183871e-05,-1.9876004e-10,-6.3047914e-11,-1.5538434e-12,-1.6103376e-10,1.0733135e-10,-8.760088e-09,0.20781907,0.011569003,0.43101725,0.0,0.0,0.0,0.0,0.0,1.8564077e-05,0.002727258,0.0026485154,2.5298847e-05,0.0210372,0.02109321,0.0015155048,100.000114,100.00011,100.0,9.997977e-07,9.983734e-07,5.293286e-07,4.000002e-06,4.000002e-06,4.0000004e-06,0.0,0.0,0.0,0.0,0.0,0.0,0.0,0.0,24
3500000,3420000,0.6865895,0.0005031097,-0.015330072,0.72688353,0.003279728,0.0004847502,-0.020124525,0.0002446405,7.784176e-05,-0.00010524031,-1.9876004e-10,-6.3047914e-11,-1.5538434e-12,-1.6103376e-10,1.0733135e-10,-8.760088e-09,0.20781907,0.011569003,0.43101725,0.0,0.0,0.0,0.0,0.0,1.9640545e-05,0.0027413284,0.0026510789,2.4114548e-05,0.023499992,0.023559788,0.0016752082,100.00013,100.00012,100.0,9.997419e-07,9.981699e-07,4.948711e-07,4.000002e-06,4.000002e-06,4.0000004e-06,0.0,0.0,0.0,0.0,0.0,0.0,0.0,0.0,24
3508000,3428000,0.6865862,0.00052186975,-0.015347096,0.7268862,0.0034310657,0.0005760943,-0.021421053,0.00027148367,8.2085135e-05,-0.0002714226,-1.9876004e-10,-6.3047914e-11,-1.5538434e-12,-1.6103376e-10,1.0733135e-10,-8.760088e-09,0.20781907,0.011569003,0.43101725,0.0,0.0,0.0,0.0,0.0,2.0616675e-05,0.0027559022,0.0026564482,2.3033877e-05,0.026122706,0.026184415,0.0018428738,100.000145,100.00014,100.0,9.996908e-07,9.980067e-07,4.6225975e-07,4.000002e-06,4.000002e-06,4.0000004e-06,0.0,0.0,0.0,0.0,0.0,0.0,0.0,0.0,24
3516000,3436000,0.6865824,0.0005225019,-0.015363131,0.7268895,0.0031985124,0.00075248285,-0.022440866,0.00029800198,8.739944e-05,-0.00044687028,-1.9876004e-10,-6.3047914e-11,-1.5538434e-12,-1.6103376e-10,1.0733135e-10,-8.760088e-09,0.20781907,0.011569003,0.43101725,0.0,0.0,0.0,0.0,0.0,2.1491713e-05,0.0027709757,0.0026642033,2.2046448e-05,0.02888838,0.028949743,0.002018469,100.00017,100.00016,100.0,9.996443e-07,9.978767e-07,4.3152778e-07,4.000002e-06,4.000002e-06,4.0000004e-06,0.0,0.0,0.0,0.0,0.0,0.0,0.0,0.0,24
3524000,3444000,0.6865846,0.00053944235,-0.0153783215,0.7268871,0.0034546647,0.0007971855,-0.023496963,3.2014214e-10,1.0186341e-10,-0.00032044732,-2.0636592e-10,-6.931753e-11,-7.789951e-13,-1.5257842e-10,8.429378e-11,-8.787216e-09,0.20781907,0.011569003,0.43101725,0.0,0.0,0.0,0.0,0.0,2.2268792e-05,0.0027865488,0.0026740087,2.1138216e-05,0.03180739,0.031867586,0.002202059,9.918213e-05,9.918213e-05,50.0,9.996018e-07,9.977744e-07,4.026726e-07,4.0000014e-06,4.0000014e-06,4e-06,0.0,0.0,0.0,0.0,0.0,0.0,0.0,0.0,24
3532000,3452000,0.6865825,0.00055190275,-0.015398162,0.7268886,0.0036081607,0.0007913161,-0.024312079,2.8251623e-05,6.354109e-06,-0.0005116835,-2.0636592e-10,-6.931753e-11,-7.789951e-13,-1.5257842e-10,8.429378e-11,-8.787216e-09,0.20781907,0.011569003,0.43101725,0.0,0.0,0.0,0.0,0.0,2.295204e-05,0.0028026265,0.002685568,2.0302161e-05,0.034871206,0.034928784,0.0023936,0.000102173566,0.000102179365,50.0,9.995632e-07,9.976947e-07,3.7566457e-07,4.000002e-06,4.000002e-06,4.0000004e-06,0.0,0.0,0.0,0.0,0.0,0.0,0.0,0.0,24
3540000,3460000,0.686586,0.0005607788,-0.0154071795,0.7268851,0.00344889,0.00097637257,-0.025114834,5.6479825e-05,1.3424864e-05,-0.0007093912,-2.0636592e-10,-6.931753e-11,-7.789951e-13,-1.5257842e-10,8.429378e-11,-8.787216e-09,0.20781907,0.011569003,0.43101725,0.0,0.0,0.0,0.0,0.0,2.3544606e-05,0.002819205,0.0026986357,1.9530224e-05,0.03808904,0.038142204,0.0025930784,0.00011169173,0.00011171466,50.0,9.995282e-07,9.976335e-07,3.5045136e-07,4.000002e-06,4.000002e-06,4.0000004e-06,0.0,0.0,0.0,0.0,0.0,0.0,0.0,0.0,24
3548000,3468000,0.68658584,0.000580443,-0.015427192,0.72688484,0.0034800519,0.0012204263,-0.026008204,8.419559e-05,2.221206e-05,-0.0009138833,-2.0636592e-10,-6.931753e-11,-7.789951e-13,-1.5257842e-10,8.429378e-11,-8.787216e-09,0.20781907,0.011569003,0.43101725,0.0,0.0,0.0,0.0,0.0,2.405525e-05,0.0028362842,0.0027129985,1.8814573e-05,0.041465726,0.041513525,0.002800535,0.00012858328,0.00012863374,50.0,9.994965e-07,9.975872e-07,3.269647e-07,4.000002e-06,4.000002e-06,4.0000004e-06,0.0,0.0,0.0,0.0,0.0,0.0,0.0,0.0,24
3556000,3476000,0.6866009,0.0009942809,-0.014582085,0.7268875,1.040802e-07,8.0891215e-05,-1.8937513e-05,-2.1144275e-05,-9.877411e-06,0.00092739204,-3.2070277e-06,-3.062216e-06,1.0412866e-06,-1.6439993e-05,1.004484e-05,-0.00092658226,0.20781907,0.011569003,0.43101725,0.0,0.0,0.0,0.0,0.0,2.2990756e-05,0.00020134311,0.00020058939,1.7565142e-05,1e-06,2.0410866e-05,1.1890661e-06,9.921862e-05,9.9242134e-05,49.999985,9.429266e-07,9.4302345e-07,3.0124932e-07,3.7942261e-06,3.7945883e-06,4.1772546e-07,0.0,0.0,0.0,0.0,0.0,0.0,0.0,0.0,24
3564000,3484000,0.6866,0.0010103473,-0.014593955,0.7268882,0.00010089251,2.2860768e-06,-0.00012578815,-2.0740288e-05,-9.544701e-06,0.00092681317,-3.2070277e-06,-3.062216e-06,1.0412866e-06,-1.6439993e-05,1.004484e-05,-0.00092658226,0.20781907,0.011569003,0.43101725,0.0,0.0,0.0,0.0,0.0,2.4942488e-05,0.00020843168,0.00020767146,1.7938295e-05,1.3961033e-05,3.4941215e-05,1.3056291e-05,9.921938e-05,9.925772e-05,49.999985,9.4292653e-07,9.430234e-07,3.0124934e-07,3.7942264e-06,3.7945886e-06,4.177256e-07,0.0,0.0,0.0,0.0,0.0,0.0,0.0,0.0,24
3572000,3492000,0.68660265,0.0010225477,-0.0145999,0.72688556,0.00011494065,-5.8478865e-05,-0.00029007345,-1.9876954e-05,-9.769467e-06,0.0009251497,-3.2071255e-06,-3.0622305e-06,1.037455e-06,-1.6440099e-05,1.0044971e-05,-0.00092658226,0.20781907,0.011569003,0.43101725,0.0,0.0,0.0,0.0,0.0,2.674564e-05,0.00021599173,0.0002152244,1.8262963e-05,3.0223813e-05,5.283815e-05,2.5714871e-05,9.9219855e-05,9.9277386e-05,49.999985,9.429249e-07,9.4302334e-07,2.9869747e-07,3.7942243e-06,3.7945856e-06,4.1772566e-07,0.0,0.0,0.0,0.0,0.0,0.0,0.0,0.0,24
3580000,3500000,0.68761283,0.0010220577,-0.014620603,0.7259296,0.00020983708,-0.00019779832,-0.0004486218,-1.8577843e-05,-1.0794576e-05,0.0009221949,-3.2071255e-06,-3.0622305e-06,1.037455e-06,-1.6440099e-05,1.0044971e-05,-0.00092658226,0.20883538,0.011625568,0.43167603,0.0,0.0,0.0,0.0,0.0,0.0012127159,0.00022450398,0.00022325123,0.0010783599,5.02838e-05,7.459641e-05,3.9165334e-05,9.922291e-05,9.930444e-05,49.999985,9.4292494e-07,9.430234e-07,2.9869747e-07,3.7942243e-06,3.7945856e-06,4.1772574e-07,0.0,0.0,0.0,0.0,0.0,0.0,0.0,0.0,24
3588000,3508000,0.6876163,0.0010286693,-0.014628596,0.72592616,0.00041631036,-0.00024460774,-0.0006975606,-1.6073252e-05,-1.25642e-05,0.0009176102,-3.2071255e-06,-3.0622305e-06,1.037455e-06,-1.6440099e-05,1.0044971e-05,-0.00092658226,0.20883538,0.011625568,0.43167603,0.0,0.0,0.0,0.0,0.0,0.001212746,0.00022474547,0.00022349204,0.0010784091,7.1930655e-05,9.636339e-05,5.340799e-05,9.9232406e-05,9.934316e-05,49.999985,9.4292494e-07,9.430234e-07,2.9869747e-07,3.7942245e-06,3.7945858e-06,4.1772583e-07,0.0,0.0,0.0,0.0,0.0,0.0,0.0,0.0,24
3596000,3516000,0.6876196,0.001039331,-0.014647022,0.72592264,0.0004512317,-0.00032400765,-0.0008821562,-1.26030845e-05,-1.4838662e-05,0.00091129134,-3.2071255e-06,-3.0622305e-06,1.037455e-06,-1.6440099e-05,1.0044971e-05,-0.00092658226,0.20883538,0.011625568,0.43167603,0.0,0.0,0.0,0.0,0.0,0.0012128549,0.0002254592,0.00022420412,0.0010785286,0.000112598056,0.00013720174,6.844332e-05,9.925303e-05,9.939749e-05,49.999985,9.4292494e-07,9.430234e-07,2.986975e-07,3.7942245e-06,3.7945858e-06,4.177259e-07,0.0,0.0,0.0,0.0,0.0,0.0,0.0,0.0,24
3604000,3524000,0.687619,0.0010545545,-0.014669847,0.7259228,0.0006345189,-0.00034620758,-0.0011573359,-8.260082e-06,-1.7519524e-05,0.00090313336,-3.2071255e-06,-3.0622305e-06,1.037455e-06,-1.6440099e-05,1.0044971e-05,-0.00092658226,0.20883538,0.011625568,0.43167603,0.0,0.0,0.0,0.0,0.0,0.0012130545,0.00022664476,0.00022538754,0.0010787062,0.0001723155,0.00019714436,8.427185e-05,9.929224e-05,9.9474906e-05,49.999985,9.4292494e-07,9.430234e-07,2.986975e-07,3.7942245e-06,3.7945858e-06,4.1772597e-07,0.0,0.0,0.0,0.0,0.0,0.0,0.0,0.0,24
3612000,3532000,0.68761474,0.001060257,-0.014677861,0.7259267,0.0007507574,-0.0001769432,-0.0014426038,-2.7189762e-06,-1.9612127e-05,0.0008927336,-3.2071255e-06,-3.0622305e-06,1.037455e-06,-1.6440099e-05,1.0044971e-05,-0.00092658226,0.20883538,0.011625568,0.43167603,0.0,0.0,0.0,0.0,0.0,0.001213345,0.00022830082,0.00022704247,0.0010789434,0.00025110322,0.00027620804,0.000100893885,9.9362675e-05,9.958808e-05,49.999985,9.4292494e-07,9.430234e-07,2.986975e-07,3.7942248e-06,3.794586e-06,4.1772606e-07,0.0,0.0,0.0,0.0,0.0,0.0,0.0,0.0,24
3620000,3540000,0.6876151,0.0010660941,-0.0146873705,0.7259261,0.00078738644,-8.561561e-05,-0.0015909672,3.4335994e-06,-2.0662363e-05,0.0008805993,-3.2071255e-06,-3.0622305e-06,1.037455e-06,-1.6440099e-05,1.0044971e-05,-0.00092658226,0.20883538,0.011625568,0.43167603,0.0,0.0,0.0,0.0,0.0,0.0012136996,0.00023042852,0.00022916874,0.0010792655,0.0003489187,0.00037434942,0.00011830985,9.948212e-05,9.9754834e-05,49.999985,9.4292494e-07,9.430234e-07,2.9869753e-07,3.7942248e-06,3.794586e-06,4.177261e-07,0.0,0.0,0.0,0.0,0.0,0.0,0.0,0.0,24
3628000,3548000,0.6876135,0.0010749241,-0.01469755,0.72592735,0.0007884718,-0.00014834286,-0.0019291267,9.737032e-06,-2.1598196e-05,0.00086651894,-3.2071255e-06,-3.0622305e-06,1.037455e-06,-1.6440099e-05,1.0044971e-05,-0.00092658226,0.20883538,0.011625568,0.43167603,0.0,0.0,0.0,0.0,0.0,0.0012141392,0.00023302782,0.0002317664,0.001079652,0.0004660819,0.00049189216,0.00013652016,9.967341e-05,9.9998106e-05,49.999985,9.4292494e-07,9.430234e-07,2.9869753e-07,3.7942248e-06,3.794586e-06,4.177262e-07,0.0,0.0,0.0,0.0,0.0,0.0,0.0,0.0,24
3636000,3556000,0.68760866,0.0010884743,-0.014717398,0.7259315,0.00064697256,-5.3261698e-05,-0.0022603795,1.547881e-05,-2.2404614e-05,0.0008497609,-3.2071255e-06,-3.0622305e-06,1.037455e-06,-1.6440099e-05,1.0044971e-05,-0.00092658226,0.20883538,0.011625568,0.43167603,0.0,0.0,0.0,0.0,0.0,0.0012146669,0.0002360993,0.00023483536,0.001080099,0.0006026106,0.0006288459,0.00015552514,9.9964534e-05,0.000100345926,49.999985,9.42925e-07,9.4302345e-07,2.9869753e-07,3.794225e-06,3.7945863e-06,4.1772626e-07,0.0,0.0,0.0,0.0,0.0,0.0,0.0,0.0,24
3644000,3564000,0.6876076,0.001103976,-0.014750749,0.7259319,0.0005212927,0.00014935428,-0.002635695,2.015187e-05,-2.2020244e-05,0.0008301766,-3.2071255e-06,-3.0622305e-06,1.037455e-06,-1.6440099e-05,1.0044971e-05,-0.00092658226,0.20883538,0.011625568,0.43167603,0.0,0.0,0.0,0.0,0.0,0.0012152608,0.00023964322,0.00023837555,0.0010806283,0.00075872714,0.000785438,0.00017532542,0.000100388505,0.00010083141,49.999985,9.42925e-07,9.4302345e-07,2.9869753e-07,3.794225e-06,3.7945863e-06,4.1772634e-07,0.0,0.0,0.0,0.0,0.0,0.0,0.0,0.0,24
3652000,3572000,0.68746513,0.0011210516,-0.0147751365,0.72606623,0.0004582924,0.00026730736,-0.0027184638,2.4065259e-05,-2.0348505e-05,0.00080875994,-3.2117202e-06,-3.063899e-06,9.208872e-07,-1.6431668e-05,1.00380685e-05,-0.00092658255,0.20883538,0.011625568,0.43167603,0.0,0.0,0.0,0.0,0.0,0.0011046763,0.00024361334,0.00024238658,0.0009824522,0.0009341961,0.00096143724,0.00019592136,0.00010098341,0.00010149274,49.999985,9.429249e-07,9.4302345e-07,2.9862474e-07,3.7942245e-06,3.794586e-06,4.177264e-07,0.0,0.0,0.0,0.0,0.0,0.0,0.0,0.0,24
3660000,3580000,0.68746567,0.0011318068,-0.01479881,0.7260653,0.0005536437,0.00027061204,-0.0029003918,2.8113003e-05,-1.8196828e-05,0.0007862845,-3.2117202e-06,-3.063899e-06,9.208872e-07,-1.6431668e-05,1.00380685e-05,-0.00092658255,0.20883538,0.011625568,0.43167603,0.0,0.0,0.0,0.0,0.0,0.0011053586,0.00024809953,0.00024686957,0.0009830692,0.0011297015,0.0011575355,0.00021731334,0.000101792204,0.00010237299,49.999985,9.429249e-07,9.4302345e-07,2.9862474e-07,3.7942245e-06,3.794586e-06,4.1772648e-07,0.0,0.0,0.0,0.0,0.0,0.0,0.0,0.0,24
3668000,3588000,0.6874635,0.0011401658,-0.014819533,0.7260668,0.00044996652,0.00029782995,-0.003185019,3.2127446e-05,-1.592306e-05,0.0007619429,-3.2117202e-06,-3.063899e-06,9.208872e-07,-1.6431668e-05,1.00380685e-05,-0.00092658255,0.20883538,0.011625568,0.43167603,0.0,0.0,0.0,0.0,0.0,0.0011061273,0.00025305705,0.00025182398,0.0009837493,0.0013455739,0.0013740466,0.0002395016,0.00010286305,0.00010352048,49.999985,9.429249e-07,9.4302345e-07,2.9862474e-07,3.7942248e-06,3.7945863e-06,4.1772654e-07,0.0,0.0,0.0,0.0,0.0,0.0,0.0,0.0,24
3676000,3596000,0.6874668,0.0011504458,-0.014837559,0.7260633,0.000498701,0.00019296512,-0.003713049,3.5922116e-05,-1.395988e-05,0.0007343506,-3.2117202e-06,-3.063899e-06,9.208872e-07,-1.6431668e-05,1.00380685e-05,-0.00092658255,0.20883538,0.011625568,0.43167603,0.0,0.0,0.0,0.0,0.0,0.0011069597,0.00025848593,0.00025724975,0.0009845153,0.0015824158,0.0016115946,0.0002624867,0.00010424926,0.000104988634,49.999985,9.429249e-07,9.4302345e-07,2.9862477e-07,3.7942248e-06,3.7945863e-06,4.1772662e-07,0.0,0.0,0.0,0.0,0.0,0.0,0.0,0.0,24
3684000,3604000,0.6874613,0.0011573473,-0.014848903,0.72606826,0.0004918672,0.00010435816,-0.0041160807,3.9884388e-05,-1.2770586e-05,0.00070303405,-3.2117202e-06,-3.063899e-06,9.208872e-07,-1.6431668e-05,1.00380685e-05,-0.00092658255,0.20883538,0.011625568,0.43167603,0.0,0.0,0.0,0.0,0.0,0.0011078959,0.00026438595,0.00026314697,0.000985327,0.0018399585,0.0018698951,0.0002862689,0.00010600947,0.000106836276,49.999985,9.429249e-07,9.4302345e-07,2.9862477e-07,3.7942248e-06,3.7945863e-06,4.1772668e-07,0.0,0.0,0.0,0.0,0.0,0.0,0.0,0.0,24
3692000,3612000,0.6874533,0.0011660568,-0.014873005,0.7260753,0.000571026,0.000107653876,-0.004442401,4.413596e-05,-1.1922538e-05,0.00066880014,-3.2117202e-06,-3.063899e-06,9.208872e-07,-1.6431668e-05,1.00380685e-05,-0.00092658255,0.20883538,0.011625568,0.43167603,0.0,0.0,0.0,0.0,0.0,0.0011089173,0.0002707583,0.00026951544,0.0009862023,0.0021186208,0.002149372,0.00031084876,0.00010820722,0.00010912712,49.999985,9.4292494e-07,9.430235e-07,2.9862477e-07,3.794225e-06,3.7945865e-06,4.1772677e-07,0.0,0.0,0.0,0.0,0.0,0.0,0.0,0.0,24
3700000,3620000,0.6874551,0.001180782,-0.014889396,0.7260733,0.0005202675,0.00028828703,-0.0047037154,4.8501133e-05,-1.0338774e-05,0.0006322157,-3.2117202e-06,-3.063899e-06,9.208872e-07,-1.6431668e-05,1.00380685e-05,-0.00092658255,0.20883538,0.011625568,0.43167603,0.0,0.0,0.0,0.0,0.0,0.0011099904,0.0002776017,0.00027635536,0.0009871754,0.0024188103,0.0024504168,0.00033622648,0.000110911285,0.00011193012,49.999985,9.4292494e-07,9.430235e-07,2.9862477e-07,3.794225e-06,3.7945865e-06,4.1772682e-07,0.0,0.0,0.0,0.0,0.0,0.0,0.0,0.0,24
3708000,3628000,0.6874604,0.0011922993,-0.014896071,0.7260681,0.0007052191,0.00042019456,-0.0048600137,5.340308e-05,-7.5048474e-06,0.00059396075,-3.2117202e-06,-3.063899e-06,9.208872e-07,-1.6431668e-05,1.00380685e-05,-0.00092658255,0.20883538,0.011625568,0.43167603,0.0,0.0,0.0,0.0,0.0,0.0011111326,0.00028491608,0.0002836667,0.0009882294,0.0027408178,0.00277335,0.00036240273,0.000114195704,0.00011531952,49.999985,9.4292494e-07,9.430235e-07,2.986248e-07,3.794225e-06,3.7945865e-06,4.177269e-07,0.0,0.0,0.0,0.0,0.0,0.0,0.0,0.0,24
3716000,3636000,0.6874619,0.0012019476,-0.014906191,0.72606647,0.00061861996,0.000511016,-0.0052655563,5.869844e-05,-3.7800048e-06,0.00055345846,-3.2117202e-06,-3.063899e-06,9.208872e-07,-1.6431668e-05,1.00380685e-05,-0.00092658255,0.20883538,0.011625568,0.43167603,0.0,0.0,0.0,0.0,0.0,0.0011123642,0.0002927022,0.0002914494,0.000989343,0.0030860521,0.0031195534,0.00038937735,0.00011813977,0.00011937483,49.999985,9.4292494e-07,9.430235e-07,2.986248e-07,3.7942252e-06,3.7945867e-06,4.1772697e-07,0.0,0.0,0.0,0.0,0.0,0.0,0.0,0.0,24
3724000,3644000,0.68751305,0.001205925,-0.014922631,0.7260176,0.00056063186,0.0006251064,-0.005664177,6.3434e-05,7.750824e-07,0.00050973956,-3.2078296e-06,-3.062496e-06,1.0180667e-06,-1.6438698e-05,1.00438165e-05,-0.0009265823,0.20883538,0.011625568,0.43167603,0.0,0.0,0.0,0.0,0.0,0.0010197433,0.00030092217,0.00029970263,0.0009070751,0.003454408,0.0034889358,0.00041715105,0.00012282889,0.00012418171,49.999985,9.429245e-07,9.4302345e-07,2.9835775e-07,3.7942239e-06,3.7945858e-06,4.1772705e-07,0.0,0.0,0.0,0.0,0.0,0.0,0.0,0.0,24
3732000,3652000,0.6875102,0.0012220171,-0.01491728,0.72602046,0.0006594664,0.00073686225,-0.005874726,3.0089815e-05,2.7348037e-06,0.00030563065,-3.5207927e-06,-3.0597735e-06,1.0140498e-06,-1.6370497e-05,8.195325e-06,-0.00092662,0.20883538,0.011625568,0.43167603,0.0,0.0,0.0,0.0,0.0,0.0010210235,0.0002903709,0.00028925674,0.0009082122,0.00337232,0.0033910489,0.00044572417,5.6208286e-05,5.648977e-05,33.33333,9.3822547e-07,9.383072e-07,2.9834868e-07,3.6305037e-06,3.630408e-06,4.1759102e-07,0.0,0.0,0.0,0.0,0.0,0.0,0.0,0.0,24
3740000,3660000,0.687507,0.0012351635,-0.014931354,0.72602326,0.00078322145,0.00096408225,-0.0060063377,3.586057e-05,9.538582e-06,0.0002581064,-3.5207927e-06,-3.0597735e-06,1.0140498e-06,-1.6370497e-05,8.195325e-06,-0.00092662,0.20883538,0.011625568,0.43167603,0.0,0.0,0.0,0.0,0.0,0.001022389,0.0002992692,0.00029815242,0.0009094221,0.0037389598,0.0037579732,0.00047509736,5.918194e-05,5.950368e-05,33.33333,9.3822547e-07,9.383072e-07,2.983487e-07,3.630504e-06,3.6304082e-06,4.1759108e-07,0.0,0.0,0.0,0.0,0.0,0.0,0.0,0.0,24
3748000,3668000,0.6875065,0.0012427089,-0.014945198,0.72602344,0.00084626826,0.0010045553,-0.0061759353,4.2378528e-05,1.7413133e-05,0.0002093773,-3.5207927e-06,-3.0597735e-06,1.0140498e-06,-1.6370497e-05,8.195325e-06,-0.00092662,0.20883538,0.011625568,0.43167603,0.0,0.0,0.0,0.0,0.0,0.0010238258,0.00030863666,0.0003075171,0.00091070984,0.004127854,0.00414721,0.00050527026,6.293089e-05,6.329572e-05,33.33333,9.382255e-07,9.3830727e-07,2.983487e-07,3.630504e-06,3.6304082e-06,4.1759117e-07,0.0,0.0,0.0,0.0,0.0,0.0,0.0,0.0,24
3756000,3676000,0.6875054,0.0012622341,-0.014970391,0.7260239,0.0010603324,0.0007748465,-0.0063959137,5.0004932e-05,2.453074e-05,0.00015908989,-3.5207927e-06,-3.0597735e-06,1.0140498e-06,-1.6370497e-05,8.195325e-06,-0.00092662,0.20883538,0.011625568,0.43167603,0.0,0.0,0.0,0.0,0.0,0.0010253425,0.000318474,0.00031735067,0.0009120664,0.004539672,0.0045594517,0.0005362435,6.754997e-05,6.7960806e-05,33.33333,9.382255e-07,9.3830727e-07,2.983487e-07,3.630504e-06,3.6304082e-06,4.1759122e-07,0.0,0.0,0.0,0.0,0.0,0.0,0.0,0.0,24
3764000,3684000,0.68750954,0.0012920873,-0.014970403,0.72601986,0.00086250785,0.0006297652,-0.0065715015,5.0887535e-05,2.5149957e-05,0.00011515058,-3.9303195e-06,-3.3035026e-06,1.0036387e-06,-1.531576e-05,6.559147e-06,-0.0009284542,0.20883538,0.011625568,0.43167603,0.0,0.0,0.0,0.0,0.0,0.0010269202,0.00031008708,0.00030903475,0.0009135033,0.0044247853,0.0044407737,0.0005600637,7.0614944e-05,7.1035036e-05,33.33333,9.310792e-07,9.311717e-07,2.9834004e-07,3.5047021e-06,3.504251e-06,4.1459938e-07,0.0,0.0,0.0,0.0,0.0,0.0,0.0,0.0,24
3772000,3692000,0.68751246,0.0013063647,-0.014991763,0.72601664,0.0006794485,0.0006487485,-0.0067606866,5.705536e-05,3.0264011e-05,6.182182e-05,-3.9303195e-06,-3.3035026e-06,1.0036387e-06,-1.531576e-05,6.559147e-06,-0.0009284542,0.20883538,0.011625568,0.43167603,0.0,0.0,0.0,0.0,0.0,0.0010285841,0.00032049563,0.00031944012,0.00091501116,0.0048345816,0.004850824,0.0005923321,7.654341e-05,7.7007164e-05,33.33333,9.310792e-07,9.311717e-07,2.9834004e-07,3.5047024e-06,3.5042513e-06,4.1459947e-07,0.0,0.0,0.0,0.0,0.0,0.0,0.0,0.0,24
3780000,3700000,0.68751276,0.0013096591,-0.015013045,0.7260159,0.0006013432,0.0006694307,-0.0068414733,6.217853e-05,3.5536727e-05,7.413175e-06,-3.9303195e-06,-3.3035026e-06,1.0036387e-06,-1.531576e-05,6.559147e-06,-0.0009284542,0.20883538,0.011625568,0.43167603,0.0,0.0,0.0,0.0,0.0,0.0010303335,0.00033136975,0.00033031098,0.0009165828,0.0052663535,0.0052829026,0.0006253963,8.3527666e-05,8.403727e-05,33.33333,9.310792e-07,9.311717e-07,2.9834004e-07,3.5047024e-06,3.5042513e-06,4.1459953e-07,0.0,0.0,0.0,0.0,0.0,0.0,0.0,0.0,24
3788000,3708000,0.68751305,0.0013169205,-0.015027811,0.7260153,0.0005264417,0.0007107165,-0.0070692226,6.668967e-05,4.1057316e-05,-4.8229613e-05,-3.9303195e-06,-3.3035026e-06,1.0036387e-06,-1.531576e-05,6.559147e-06,-0.0009284542,0.20883538,0.011625568,0.43167603,0.0,0.0,0.0,0.0,0.0,0.0010321619,0.00034270916,0.00034164733,0.00091822504,0.00572174,0.0057386435,0.00065925653,9.167198e-05,9.2229675e-05,33.33333,9.310792e-07,9.311717e-07,2.9834004e-07,3.5047024e-06,3.5042513e-06,4.1459958e-07,0.0,0.0,0.0,0.0,0.0,0.0,0.0,0.0,24
3796000,3716000,0.68752927,0.0013341783,-0.015042711,0.72599965,0.0003486901,0.0007055209,-0.0072702537,7.0198046e-05,4.67285e-05,-0.0001055875,-3.9290617e-06,-3.303074e-06,1.0362832e-06,-1.5317895e-05,6.560757e-06,-0.00092845416,0.20883538,0.011625568,0.43167603,0.0,0.0,0.0,0.0,0.0,0.0009526468,0.0003544815,0.0003534482,0.0008476378,0.0062008677,0.0062181666,0.00069391285,0.00010108669,0.00010169481,33.33333,9.310784e-07,9.311716e-07,2.9778406e-07,3.5047003e-06,3.5042501e-06,4.1459967e-07,0.0,0.0,0.0,0.0,0.0,0.0,0.0,0.0,24
3804000,3724000,0.6875322,0.0013524638,-0.015059054,0.7259965,0.00020324407,0.0008626115,-0.0073987767,7.240578e-05,5.300103e-05,-0.00016426362,-3.9290617e-06,-3.303074e-06,1.0362832e-06,-1.5317895e-05,6.560757e-06,-0.00092845416,0.20883538,0.011625568,0.43167603,0.0,0.0,0.0,0.0,0.0,0.0009544717,0.00036675212,0.0003657154,0.00084928924,0.006704323,0.006722055,0.000729366,0.00011188742,0.00011254834,33.33333,9.310784e-07,9.311716e-07,2.9778406e-07,3.5047003e-06,3.5042501e-06,4.1459973e-07,0.0,0.0,0.0,0.0,0.0,0.0,0.0,0.0,24
3812000,3732000,0.687532,0.0013747752,-0.015073406,0.7259964,0.00027879307,0.0009352117,-0.0073277876,7.433393e-05,6.0192324e-05,-0.00022316987,-3.9290617e-06,-3.303074e-06,1.0362832e-06,-1.5317895e-05,6.560757e-06,-0.00092845416,0.20883538,0.011625568,0.43167603,0.0,0.0,0.0,0.0,0.0,0.0009563828,0.00037948825,0.00037844802,0.00085100345,0.007232257,0.0072504915,0.000765616,0.00012419524,0.00012491146,33.33333,9.3107843e-07,9.3117166e-07,2.9778406e-07,3.5047003e-06,3.5042501e-06,4.1459978e-07,0.0,0.0,0.0,0.0,0.0,0.0,0.0,0.0,24
3820000,3740000,0.6875325,0.0013925879,-0.015101813,0.7259953,0.00018330434,0.0011972464,-0.0073599294,7.6182325e-05,6.8722155e-05,-0.00028192074,-3.9290617e-06,-3.303074e-06,1.0362832e-06,-1.5317895e-05,6.560757e-06,-0.00092845416,0.20883538,0.011625568,0.43167603,0.0,0.0,0.0,0.0,0.0,0.00095837016,0.0003926907,0.00039164594,0.0008527898,0.007786888,0.0078056436,0.00080266345,0.00013813654,0.00013891066,33.33333,9.3107843e-07,9.3117166e-07,2.9778406e-07,3.5047003e-06,3.5042501e-06,4.1459984e-07,0.0,0.0,0.0,0.0,0.0,0.0,0.0,0.0,24
3828000,3748000,0.68753,0.0014104364,-0.015120048,0.72599727,0.00025241708,0.0013587459,-0.007639542,7.792521e-05,7.894613e-05,-0.00034191864,-3.9290617e-06,-3.303074e-06,1.0362832e-06,-1.5317895e-05,6.560757e-06,-0.00092845416,0.20883538,0.011625568,0.43167603,0.0,0.0,0.0,0.0,0.0,0.0009604438,0.00040635827,0.0004053094,0.0008546392,0.008369887,0.0083892355,0.0008405084,0.000153845,0.00015467973,33.33333,9.3107843e-07,9.3117166e-07,2.9778408e-07,3.5047005e-06,3.5042503e-06,4.1459992e-07,0.0,0.0,0.0,0.0,0.0,0.0,0.0,0.0,24
3836000,3756000,0.68752897,0.0014356617,-0.0151312975,0.7259979,0.00040906415,0.0014754088,-0.007879317,8.057113e-05,9.0282745e-05,-0.00040399408,-3.9290617e-06,-3.303074e-06,1.0362832e-06,-1.5317895e-05,6.560757e-06,-0.00092845416,0.20883538,0.011625568,0.43167603,0.0,0.0,0.0,0.0,0.0,0.00096259266,0.00042049104,0.00041943838,0.0008565627,0.008980813,0.009000814,0.0008791512,0.00017146154,0.00017235971,33.33333,9.3107843e-07,9.3117166e-07,2.9778408e-07,3.5047005e-06,3.5042503e-06,4.1459998e-07,0.0,0.0,0.0,0.0,0.0,0.0,0.0,0.0,24
3844000,3764000,0.6875302,0.0014622596,-0.015149661,0.7259963,0.00056939956,0.0016580618,-0.00807336,8.4484986e-05,0.00010281663,-0.00046780478,-3.9290617e-06,-3.303074e-06,1.0362832e-06,-1.5317895e-05,6.560757e-06,-0.00092845416,0.20883538,0.011625568,0.43167603,0.0,0.0,0.0,0.0,0.0,0.0009648142,0.00043508984,0.00043403273,0.00085856207,0.009620572,0.009641267,0.0009185925,0.00019113239,0.00019209702,33.33333,9.3107843e-07,9.3117166e-07,2.9778408e-07,3.5047005e-06,3.5042503e-06,4.1460004e-07,0.0,0.0,0.0,0.0,0.0,0.0,0.0,0.0,24
3852000,3772000,0.6875381,0.001482544,-0.0151663,0.7259884,0.0006969018,0.0016371148,-0.008252822,8.9550194e-05,0.00011599734,-0.00053310953,-3.9290617e-06,-3.303074e-06,1.0362832e-06,-1.5317895e-05,6.560757e-06,-0.00092845416,0.20883538,0.011625568,0.43167603,0.0,0.0,0.0,0.0,0.0,0.00096709793,0.00045015413,0.0004490925,0.0008606483,0.010290278,0.010311735,0.00095883163,0.00021301051,0.00021404476,33.33333,9.3107843e-07,9.3117166e-07,2.9778408e-07,3.5047008e-06,3.5042506e-06,4.146001e-07,0.0,0.0,0.0,0.0,0.0,0.0,0.0,0.0,24
3860000,3780000,0.6875391,0.0015018077,-0.015178455,0.7259872,0.00075665675,0.001686791,-0.008378215,9.536443e-05,0.00012929297,-0.00059963367,-3.9290617e-06,-3.303074e-06,1.0362832e-06,-1.5317895e-05,6.560757e-06,-0.00092845416,0.20883538,0.011625568,0.43167603,0.0,0.0,0.0,0.0,0.0,0.00096947723,0.00046568376,0.0004646178,0.00086278794,0.01099072,0.011012974,0.0009998695,0.00023725594,0.00023836315,33.33333,9.3107843e-07,9.3117166e-07,2.977841e-07,3.5047008e-06,3.5042506e-06,4.1460018e-07,0.0,0.0,0.0,0.0,0.0,0.0,0.0,0.0,24
3868000,3788000,0.68664145,0.0015360242,-0.015188862,0.72683597,0.0007696105,0.0019645335,-0.0084687825,9.996976e-05,0.00014238624,-0.0006670269,-4.0557547e-06,-3.3444317e-06,-2.1758588e-06,-1.5108192e-05,6.3989814e-06,-0.00092846085,0.20883538,0.011625568,0.43167603,0.0,0.0,0.0,0.0,0.0,0.0008997312,0.00048165047,0.000480607,0.000800844,0.011723043,0.011746111,0.0010417072,0.00026403542,0.00026521913,33.33333,9.31077e-07,9.311715e-07,2.9686313e-07,3.504697e-06,3.5042483e-06,4.1460024e-07,0.0,0.0,0.0,0.0,0.0,0.0,0.0,0.0,24
3876000,3796000,0.68664527,0.0015510633,-0.015207832,0.7268319,0.0008454432,0.002010019,-0.00869751,0.00010642997,0.00015828446,-0.0007356921,-4.0557547e-06,-3.3444317e-06,-2.1758588e-06,-1.5108192e-05,6.3989814e-06,-0.00092846085,0.20883538,0.011625568,0.43167603,0.0,0.0,0.0,0.0,0.0,0.0009020769,0.0004981115,0.000497063,0.0008029603,0.012489503,0.012513469,0.0010843434,0.00029352386,0.00029478772,33.33333,9.3107707e-07,9.3117154e-07,2.9686313e-07,3.504697e-06,3.5042483e-06,4.146003e-07,0.0,0.0,0.0,0.0,0.0,0.0,0.0,0.0,24
3884000,3804000,0.68664324,0.001566088,-0.015230575,0.7268333,0.00079050055,0.001953116,-0.009011701,0.00011297375,0.00017413699,-0.00080652896,-4.0557547e-06,-3.3444317e-06,-2.1758588e-06,-1.5108192e-05,6.3989814e-06,-0.00092846085,0.20883538,0.011625568,0.43167603,0.0,0.0,0.0,0.0,0.0,0.00090451434,0.0005150384,0.0005139843,0.00080513326,0.0132909855,0.0133158965,0.0011277783,0.00032590464,0.00032725255,33.33333,9.3107707e-07,9.3117154e-07,2.9686313e-07,3.5046971e-06,3.5042485e-06,4.1460035e-07,0.0,0.0,0.0,0.0,0.0,0.0,0.0,0.0,24
3892000,3812000,0.68663806,0.0015881681,-0.015251989,0.7268377,0.0007681963,0.0021497514,-0.009016439,0.00011920854,0.00019054847,-0.0008786415,-4.0557547e-06,-3.3444317e-06,-2.1758588e-06,-1.5108192e-05,6.3989814e-06,-0.00092846085,0.20883538,0.011625568,0.43167603,0.0,0.0,0.0,0.0,0.0,0.00090703776,0.00053243083,0.00053137104,0.00080736884,0.014125672,0.014151544,0.0011720143,0.00036136917,0.00036280524,33.33333,9.3107707e-07,9.3117154e-07,2.9686316e-07,3.5046971e-06,3.5042485e-06,4.146004e-07,0.0,0.0,0.0,0.0,0.0,0.0,0.0,0.0,24
3900000,3820000,0.68663573,0.0016011641,-0.015269889,0.72683954,0.0005267855,0.0023185823,-0.0090011135,0.00012438846,0.0002084218,-0.0009507117,-4.0557547e-06,-3.3444317e-06,-2.1758588e-06,-1.5108192e-05,6.3989814e-06,-0.00092846085,0.20883538,0.011625568,0.43167603,0.0,0.0,0.0,0.0,0.0,0.0009096332,0.00055028877,0.0005492234,0.00080968096,0.014996796,0.015023653,0.0012170498,0.00040011338,0.0004016419,33.333332,9.3107707e-07,9.3117154e-07,2.9686316e-07,3.5046971e-06,3.5042485e-06,4.1460046e-07,0.0,0.0,0.0,0.0,0.0,0.0,0.0,0.0,24
3908000,3828000,0.6866336,0.0016048261,-0.015277501,0.7268414,0.0005275896,0.0025170275,-0.00915689,0.00012860596,0.00022776423,-0.0010233438,-4.0557547e-06,-3.3444317e-06,-2.1758588e-06,-1.5108192e-05,6.3989814e-06,-0.00092846085,0.20883538,0.011625568,0.43167603,0.0,0.0,0.0,0.0,0.0,0.0009123069,0.0005686117,0.0005675414,0.0008120635,0.015907215,0.015935132,0.0012628866,0.000442344,0.00044396947,33.33334,9.3107707e-07,9.3117154e-07,2.9686316e-07,3.5046971e-06,3.5042485e-06,4.1460052e-07,0.0,0.0,0.0,0.0,0.0,0.0,0.0,0.0,24
3916000,3836000,0.6866344,0.0016169205,-0.01528788,0.7268404,0.000577127,0.0026849997,-0.0092540905,0.00013302482,0.00024857235,-0.0010969876,-4.0557547e-06,-3.3444317e-06,-2.1758588e-06,-1.5108192e-05,6.3989814e-06,-0.00092846085,0.20883538,0.011625568,0.43167603,0.0,0.0,0.0,0.0,0.0,0.00091505214,0.00058740046,0.0005863247,0.00081452297,0.016856292,0.016885327,0.0013095239,0.00048827866,0.0004900058,33.333347,9.3107707e-07,9.3117154e-07,2.9686316e-07,3.5046974e-06,3.5042488e-06,4.146006e-07,0.0,0.0,0.0,0.0,0.0,0.0,0.0,0.0,24
3924000,3844000,0.6866352,0.0016280034,-0.015302428,0.7268393,0.00041136867,0.002726326,-0.0092616975,0.00013697881,0.00027021766,-0.0011710508,-4.0557547e-06,-3.3444317e-06,-2.1758588e-06,-1.5108192e-05,6.3989814e-06,-0.00092846085,0.20883538,0.011625568,0.43167603,0.0,0.0,0.0,0.0,0.0,0.00091787585,0.00060665497,0.00060557335,0.0008170524,0.017844949,0.017875144,0.001356961,0.0005381417,0.0005399756,33.333355,9.3107707e-07,9.3117154e-07,2.9686316e-07,3.5046974e-06,3.5042488e-06,4.1460066e-07,0.0,0.0,0.0,0.0,0.0,0.0,0.0,0.0,24
3932000,3852000,0.6866387,0.0016354864,-0.015320839,0.7268356,0.0004062131,0.0029496844,-0.009361595,0.00014024913,0.0002929217,-0.0012455441,-4.0557547e-06,-3.3444317e-06,-2.1758588e-06,-1.5108192e-05,6.3989814e-06,-0.00092846085,0.20883538,0.011625568,0.43167603,0.0,0.0,0.0,0.0,0.0,0.00092077156,0.00062637526,0.0006252874,0.0008196582,0.018876275,0.01890767,0.0014052008,0.0005921662,0.0005941121,33.333363,9.3107707e-07,9.3117154e-07,2.968632e-07,3.5046974e-06,3.5042488e-06,4.1460072e-07,0.0,0.0,0.0,0.0,0.0,0.0,0.0,0.0,24
3940000,3860000,0.6867699,0.0015850009,-0.015156023,0.7267152,-0.00029939448,0.0016043436,-0.009768131,1.9177369e-05,4.2260624e-05,-0.0009942751,-5.882611e-06,-6.606292e-06,-1.694191e-06,-5.3165504e-06,1.4822932e-06,-0.0009287655,0.20883538,0.011625568,0.43167603,0.0,0.0,0.0,0.0,0.0,0.0008582926,0.00042347735,0.00042277318,0.0007641627,0.0044435477,0.0044579236,0.0014542236,8.667725e-05,8.671399e-05,25.000021,8.4340627e-07,8.4388114e-07,2.9544992e-07,2.7543015e-06,2.7493174e-06,4.1397405e-07,0.0,0.0,0.0,0.0,0.0,0.0,0.0,0.0,24
3948000,3868000,0.6867698,0.0015924257,-0.015164553,0.72671515,-0.00013345631,0.0018492348,-0.010005236,1.7445966e-05,5.607494e-05,-0.0010733686,-5.882611e-06,-6.606292e-06,-1.694191e-06,-5.3165504e-06,1.4822932e-06,-0.0009287655,0.20883538,0.011625568,0.43167603,0.0,0.0,0.0,0.0,0.0,0.0008611377,0.00043969107,0.00043898186,0.0007667066,0.0047530336,0.004768984,0.0015040647,9.522827e-05,9.525976e-05,25.000025,8.434063e-07,8.438812e-07,2.9544992e-07,2.7543017e-06,2.7493177e-06,4.139741e-07,0.0,0.0,0.0,0.0,0.0,0.0,0.0,0.0,24
3956000,3876000,0.6867703,0.0015971527,-0.015183699,0.72671413,-0.0001917294,0.001985678,-0.009951226,1.6145223e-05,7.141459e-05,-0.0011531945,-5.882611e-06,-6.606292e-06,-1.694191e-06,-5.3165504e-06,1.4822932e-06,-0.0009287655,0.20883538,0.011625568,0.43167603,0.0,0.0,0.0,0.0,0.0,0.0008640589,0.00045632717,0.00045561208,0.0007693218,0.005080785,0.0050983937,0.0015547073,0.000104749735,0.0001047781,25.000029,8.434063e-07,8.438812e-07,2.9544992e-07,2.7543017e-06,2.7493177e-06,4.1397416e-07,0.0,0.0,0.0,0.0,0.0,0.0,0.0,0.0,24
3964000,3884000,0.68677235,0.0016146891,-0.015201725,0.7267118,-0.0002792856,0.00220391,-0.010053046,1.42611625e-05,8.817295e-05,-0.0012332116,-5.882611e-06,-6.606292e-06,-1.694191e-06,-5.3165504e-06,1.4822932e-06,-0.0009287655,0.20883538,0.011625568,0.43167603,0.0,0.0,0.0,0.0,0.0,0.0008670552,0.0004733851,0.0004726639,0.0007720098,0.0054293997,0.005448756,0.0016061524,0.00011531658,0.0001153443,25.000032,8.434063e-07,8.438812e-07,2.9544995e-07,2.7543017e-06,2.7493177e-06,4.1397422e-07,0.0,0.0,0.0,0.0,0.0,0.0,0.0,0.0,24
3972000,3892000,0.6867662,0.0015848395,-0.015192848,0.7267179,-0.00018336631,0.0020320849,-0.009597785,1.5559339e-05,7.12474e-05,-0.0012441927,-5.841247e-06,-8.461551e-06,-1.7201426e-06,-4.600382e-06,1.7008178e-06,-0.0009339121,0.20883538,0.011625568,0.43167603,0.0,0.0,0.0,0.0,0.0,0.000870145,0.00046499196,0.00046424524,0.00077474467,0.005064501,0.0050806697,0.001592379,0.000116512274,0.000116540585,25.000034,8.1434257e-07,8.147641e-07,2.954391e-07,2.748118e-06,2.7433134e-06,4.0299665e-07,0.0,0.0,0.0,0.0,0.0,0.0,0.0,0.0,24
3980000,3900000,0.6867695,0.001596022,-0.015206327,0.7267145,-7.513452e-05,0.0020025517,-0.009777047,1.4525335e-05,8.7385946e-05,-0.001321692,-5.841247e-06,-8.461551e-06,-1.7201426e-06,-4.600382e-06,1.7008178e-06,-0.0009339121,0.20883538,0.011625568,0.43167603,0.0,0.0,0.0,0.0,0.0,0.0008732947,0.00048201886,0.00048126504,0.00077757466,0.005409065,0.005426793,0.0016437144,0.00012778265,0.00012781059,25.000038,8.1434257e-07,8.147641e-07,2.954391e-07,2.748118e-06,2.7433134e-06,4.029967e-07,0.0,0.0,0.0,0.0,0.0,0.0,0.0,0.0,24
3988000,3908000,0.6867776,0.001619912,-0.015225838,0.7267064,5.8527614e-05,0.0022240048,-0.009795614,1.4458908e-05,0.00010429217,-0.0013999827,-5.841247e-06,-8.461551e-06,-1.7201426e-06,-4.600382e-06,1.7008178e-06,-0.0009339121,0.20883538,0.011625568,0.43167603,0.0,0.0,0.0,0.0,0.0,0.0008765116,0.00049945345,0.0004986918,0.00078048516,0.0057742493,0.0057936003,0.0016958313,0.00014018122,0.00014021144,25.000042,8.1434257e-07,8.147641e-07,2.954391e-07,2.748118e-06,2.7433134e-06,4.0299676e-07,0.0,0.0,0.0,0.0,0.0,0.0,0.0,0.0,24
3996000,3916000,0.6867822,0.0016165314,-0.0152431065,0.7267017,0.00022236844,0.0022331285,-0.00994733,1.5582493e-05,0.0001221207,-0.0014789545,-5.841247e-06,-8.461551e-06,-1.7201426e-06,-4.600382e-06,1.7008178e-06,-0.0009339121,0.20883538,0.011625568,0.43167603,0.0,0.0,0.0,0.0,0.0,0.0008798142,0.0005172952,0.0005165259,0.00078345765,0.0061623207,0.0061833905,0.001748729,0.0001537917,0.00015382722,25.000048,8.1434257e-07,8.147641e-07,2.9543912e-07,2.748118e-06,2.7433134e-06,4.0299682e-07,0.0,0.0,0.0,0.0,0.0,0.0,0.0,0.0,24
4004000,3924000,0.6867813,0.0016285062,-0.015247891,0.7267024,0.00030659913,0.0022091093,-0.010052592,1.7698363e-05,0.00013988966,-0.0015589541,-5.841247e-06,-8.461551e-06,-1.7201426e-06,-4.600382e-06,1.7008178e-06,-0.0009339121,0.20883538,0.011625568,0.43167603,0.0,0.0,0.0,0.0,0.0,0.00088320766,0.0005355438,0.00053476717,0.00078648754,0.006573624,0.006596491,0.0018024079,0.00016870405,0.0001687483,25.000055,8.1434257e-07,8.147641e-07,2.9543912e-07,2.7481183e-06,2.7433136e-06,4.0299687e-07,0.0,0.0,0.0,0.0,0.0,0.0,0.0,0.0,24
4012000,3932000,0.6871151,0.0016377263,-0.015268444,0.7263864,0.00037894855,0.0025712133,-0.0100042345,2.0805328e-05,0.00015942995,-0.001639176,-5.7863444e-06,-8.456263e-06,1.2488636e-07,-4.6710547e-06,1.749923e-06,-0.0009339102,0.20883538,0.011625568,0.43167603,0.0,0.0,0.0,0.0,0.0,0.0008262695,0.0005541775,0.0005534145,0.00073588995,0.0070087095,0.0070334277,0.0018568696,0.00018501312,0.00018506989,25.000063,8.14341e-07,8.147641e-07,2.9361834e-07,2.7481155e-06,2.7433123e-06,4.0299693e-07,0.0,0.0,0.0,0.0,0.0,0.0,0.0,0.0,24
4020000,3940000,0.6871166,0.0016473612,-0.015282722,0.72638464,0.00030004248,0.0029198336,-0.010159321,2.3521292e-05,0.00018139415,-0.0017198303,-5.7863444e-06,-8.456263e-06,1.2488636e-07,-4.6710547e-06,1.749923e-06,-0.0009339102,0.20883538,0.011625568,0.43167603,0.0,0.0,0.0,0.0,0.0,0.00082957075,0.0005732412,0.00057246996,0.00073885097,0.0074705854,0.007497229,0.0019121129,0.00020281921,0.00020289274,25.00007,8.1434104e-07,8.147642e-07,2.9361834e-07,2.7481155e-06,2.7433123e-06,4.02997e-07,0.0,0.0,0.0,0.0,0.0,0.0,0.0,0.0,24
4028000,3948000,0.6871112,0.0016572144,-0.015296623,0.7263894,0.00017667297,0.0032924889,-0.010304265,2.5428153e-05,0.00020624344,-0.0018016847,-5.7863444e-06,-8.456263e-06,1.2488636e-07,-4.6710547e-06,1.749923e-06,-0.0009339102,0.20883538,0.011625568,0.43167603,0.0,0.0,0.0,0.0,0.0,0.0008329642,0.00059271225,0.0005919325,0.00074186665,0.007959366,0.00798801,0.0019681389,0.00022223014,0.00022232509,25.000078,8.1434104e-07,8.147642e-07,2.9361834e-07,2.7481155e-06,2.7433123e-06,4.0299705e-07,0.0,0.0,0.0,0.0,0.0,0.0,0.0,0.0,24
4036000,3956000,0.687107,0.001662553,-0.015309892,0.72639304,0.00017541429,0.0033967784,-0.010486245,2.6836502e-05,0.00023300051,-0.0018848467,-5.7863444e-06,-8.456263e-06,1.2488636e-07,-4.6710547e-06,1.749923e-06,-0.0009339102,0.20883538,0.011625568,0.43167603,0.0,0.0,0.0,0.0,0.0,0.00083643274,0.0006125907,0.0006118022,0.00074495416,0.00847654,0.008507296,0.0020249458,0.00024335926,0.00024348074,25.000086,8.1434104e-07,8.147642e-07,2.9361837e-07,2.7481158e-06,2.7433125e-06,4.029971e-07,0.0,0.0,0.0,0.0,0.0,0.0,0.0,0.0,24
4044000,3964000,0.68710846,0.0016774973,-0.0153255155,0.72639126,0.00034294874,0.0033272945,-0.01092723,2.8909953e-05,0.0002598968,-0.0019705007,-5.7863444e-06,-8.456263e-06,1.2488636e-07,-4.6710547e-06,1.749923e-06,-0.0009339102,0.20883538,0.011625568,0.43167603,0.0,0.0,0.0,0.0,0.0,0.0008399669,0.00063287653,0.00063207885,0.000748123,0.009024908,0.009057892,0.0020825346,0.00026632685,0.00026648046,25.000093,8.1434104e-07,8.147642e-07,2.9361837e-07,2.7481158e-06,2.7433125e-06,4.0299716e-07,0.0,0.0,0.0,0.0,0.0,0.0,0.0,0.0,24
4052000,3972000,0.6871075,0.0017030365,-0.015344611,0.72639173,0.00036858246,0.0035302597,-0.011272401,3.1756077e-05,0.000287327,-0.0020592993,-5.7863444e-06,-8.456263e-06,1.2488636e-07,-4.6710547e-06,1.749923e-06,-0.0009339102,0.20883538,0.011625568,0.43167603,0.0,0.0,0.0,0.0,0.0,0.0008435839,0.0006535699,0.00065276236,0.0007513559,0.009603548,0.0096388105,0.0021409076,0.00029126182,0.00029145367,25.000101,8.1434104e-07,8.147642e-07,2.9361837e-07,2.7481158e-06,2.7433125e-06,4.0299722e-07,0.0,0.0,0.0,0.0,0.0,0.0,0.0,0.0,24
4060000,3980000,0.68709904,0.0017134895,-0.015355471,0.72639954,0.00029240752,0.003974086,-0.011532377,3.4399884e-05,0.0003173439,-0.052607656,-5.786353e-06,-8.456265e-06,1.2488397e-07,-4.670746e-06,1.7496911e-06,-0.0009338986,0.20883538,0.011625568,0.43167603,0.0,0.0,0.0,0.0,0.0,0.0008472946,0.0006746703,0.0006738534,0.00075464195,0.010213748,0.010251341,0.0022000584,0.00031829817,0.0003185349,8.221487,8.1434104e-07,8.147642e-07,2.9361837e-07,2.7481158e-06,2.7433125e-06,4.029964e-07,0.0,0.0,0.0,0.0,0.0,0.0,0.0,0.0,24
4068000,3988000,0.68709636,0.0017196937,-0.015371707,0.72640175,0.00041555957,0.0041394364,-0.011832021,3.723175e-05,0.00034979798,-0.052701112,-5.786353e-06,-8.456265e-06,1.2488397e-07,-4.670746e-06,1.7496911e-06,-0.0009338986,0.20883538,0.011625568,0.43167603,0.0,0.0,0.0,0.0,0.0,0.0008510702,0.0006961783,0.00069535145,0.0007580098,0.010857727,0.010897781,0.0022599977,0.00034757738,0.00034786607,8.221491,8.1434104e-07,8.147642e-07,2.936184e-07,2.748116e-06,2.7433127e-06,4.0299645e-07,0.0,0.0,0.0,0.0,0.0,0.0,0.0,0.0,24
4076000,3996000,0.6870952,0.0017298923,-0.015381421,0.7264026,0.0005672342,0.0044200253,-0.012165867,4.1162926e-05,0.0003840358,-0.052797105,-5.786353e-06,-8.456265e-06,1.2488397e-07,-4.670746e-06,1.7496911e-06,-0.0009338986,0.20883538,0.011625568,0.43167603,0.0,0.0,0.0,0.0,0.0,0.00085492036,0.00071809324,0.0007172567,0.0007614502,0.011536901,0.011579495,0.002320722,0.00037924963,0.000379598,8.221495,8.1434104e-07,8.147642e-07,2.936184e-07,2.748116e-06,2.7433127e-06,4.029965e-07,0.0,0.0,0.0,0.0,0.0,0.0,0.0,0.0,24
4084000,4004000,0.687399,0.0017355641,-0.015392083,0.7261147,0.00064499053,0.0046291132,-0.012387306,4.6726367e-05,0.00042103571,-0.052895315,-5.726905e-06,-8.450499e-06,2.0483535e-06,-4.744655e-06,1.8032747e-06,-0.0009338965,0.20883538,0.011625568,0.43167603,0.0,0.0,0.0,0.0,0.0,0.0008020721,0.00074039475,0.0007395678,0.0007145033,0.01225137,0.01229659,0.0023822288,0.0004134731,0.0004138893,8.2214985,8.143388e-07,8.147642e-07,2.9128702e-07,2.7481126e-06,2.743311e-06,4.0299656e-07,0.0,0.0,0.0,0.0,0.0,0.0,0.0,0.0,24
4092000,4012000,0.68739694,0.0017555702,-0.015403809,0.7261165,0.00048159697,0.0047710063,-0.012436688,5.1232717e-05,0.0004586362,-0.052994613,-5.726905e-06,-8.450499e-06,2.0483535e-06,-4.744655e-06,1.8032747e-06,-0.0009338965,0.20883538,0.011625568,0.43167603,0.0,0.0,0.0,0.0,0.0,0.00080581324,0.00076312455,0.000762287,0.00071784586,0.0130018955,0.0130498065,0.0024445176,0.00045041394,0.0004509069,8.221502,8.143389e-07,8.1476423e-07,2.9128702e-07,2.7481126e-06,2.743311e-06,4.0299662e-07,0.0,0.0,0.0,0.0,0.0,0.0,0.0,0.0,24
4100000,4020000,0.68739164,0.0017748596,-0.015419319,0.72612107,0.00017444248,0.0048330324,-0.012542672,5.3856875e-05,0.0004970524,-0.05309453,-5.726905e-06,-8.450499e-06,2.0483535e-06,-4.744655e-06,1.8032747e-06,-0.0009338965,0.20883538,0.011625568,0.43167603,0.0,0.0,0.0,0.0,0.0,0.00080963754,0.0007862618,0.0007854133,0.00072125084,0.013791977,0.013842659,0.0025075888,0.0004902451,0.0004908242,8.221507,8.143389e-07,8.1476423e-07,2.9128702e-07,2.7481126e-06,2.743311e-06,4.0299668e-07,0.0,0.0,0.0,0.0,0.0,0.0,0.0,0.0,24
4108000,4028000,0.687389,0.0017993934,-0.015431665,0.7261232,0.0002136032,0.004846127,-0.01283434,5.540906e-05,0.00053576904,-0.053196035,-5.726905e-06,-8.450499e-06,2.0483535e-06,-4.744655e-06,1.8032747e-06,-0.0009338965,0.20883538,0.011625568,0.43167603,0.0,0.0,0.0,0.0,0.0,0.00081353355,0.00080980634,0.0008089468,0.00072473,0.014624558,0.014678151,0.0025714447,0.0005331514,0.0005338267,8.221513,8.143389e-07,8.1476423e-07,2.9128705e-07,2.7481128e-06,2.7433111e-06,4.0299673e-07,0.0,0.0,0.0,0.0,0.0,0.0,0.0,0.0,24
4116000,4036000,0.6873869,0.0018222844,-0.015438776,0.72612506,0.00038077802,0.0050629866,-0.0129744,5.778651e-05,0.0005754052,-0.061063375,-5.7269085e-06,-8.450505e-06,2.0483528e-06,-4.7445697e-06,1.8032089e-06,-0.0009338932,0.20883538,0.011625568,0.43167603,0.0,0.0,0.0,0.0,0.0,0.00081750564,0.000833758,0.0008328875,0.0007282789,0.015497713,0.015554299,0.002636083,0.0005793289,0.0005801112,4.919694,8.143389e-07,8.1476423e-07,2.9128705e-07,2.7481128e-06,2.7433111e-06,4.029962e-07,0.0,0.0,0.0,0.0,0.0,0.0,0.0,0.0,24
4124000,4044000,0.6873854,0.0018247517,-0.015442675,0.72612643,0.00035746515,0.005120504,-0.013020314,6.0739483e-05,0.00061613915,-0.061167356,-5.7269085e-06,-8.450505e-06,2.0483528e-06,-4.7445697e-06,1.8032089e-06,-0.0009338932,0.20883538,0.011625568,0.43167603,0.0,0.0,0.0,0.0,0.0,0.00082155294,0.00085811695,0.00085723563,0.0007318979,0.016413406,0.016473068,0.002701508,0.0006289795,0.0006298802,4.9196978,8.143389e-07,8.1476423e-07,2.9128705e-07,2.7481128e-06,2.7433111e-06,4.0299625e-07,0.0,0.0,0.0,0.0,0.0,0.0,0.0,0.0,24
4132000,4052000,0.6873922,0.0018356654,-0.015459507,0.7261196,0.0002358811,0.005202134,-0.013229609,6.311287e-05,0.0006574297,-0.061272357,-5.7269085e-06,-8.450505e-06,2.0483528e-06,-4.7445697e-06,1.8032089e-06,-0.0009338932,0.20883538,0.011625568,0.43167603,0.0,0.0,0.0,0.0,0.0,0.00082565966,0.0008828837,0.0008819904,0.0007356032,0.017376268,0.01743909,0.0027677182,0.0006823154,0.0006833465,4.919702,8.143389e-07,8.1476423e-07,2.9128705e-07,2.7481128e-06,2.7433111e-06,4.029963e-07,0.0,0.0,0.0,0.0,0.0,0.0,0.0,0.0,24
4140000,4060000,0.6873884,0.0018529099,-0.015481832,0.7261226,0.00028164583,0.0053052735,-0.013190255,6.5182976e-05,0.00069945934,-0.061378036,-5.7269085e-06,-8.450505e-06,2.0483528e-06,-4.7445697e-06,1.8032089e-06,-0.0009338932,0.20883538,0.011625568,0.43167603,0.0,0.0,0.0,0.0,0.0,0.00082986534,0.00090805796,0.0009071521,0.0007393553,0.018382842,0.018448928,0.0028347138,0.0007395633,0.0007407376,4.919707,8.143389e-07,8.1476423e-07,2.9128705e-07,2.748113e-06,2.7433114e-06,4.0299636e-07,0.0,0.0,0.0,0.0,0.0,0.0,0.0,0.0,24
4148000,4068000,0.68738633,0.0015988518,-0.015147676,0.7261323,-2.6253276e-05,0.0024663466,-0.013479633,7.470859e-06,8.2304585e-05,-0.061485033,-7.4495224e-06,-1.9276118e-05,1.9262648e-06,-5.5332475e-07,1.6696196e-06,-0.00093399076,0.20883538,0.011625568,0.43167603,0.0,0.0,0.0,0.0,0.0,0.00083410315,0.00062055734,0.00061953824,0.0007431355,0.004554442,0.0045691906,0.0029024663,8.890068e-05,8.891703e-05,4.919712,6.1926386e-07,6.1982e-07,2.9121546e-07,2.719578e-06,2.715388e-06,4.029721e-07,0.0,0.0,0.0,0.0,0.0,0.0,0.0,0.0,24
4156000,4076000,0.68746114,0.0016050941,-0.015156166,0.72606134,-1.3945387e-05,0.0025047862,-0.0137650175,7.345259e-06,0.000102230944,-0.061594013,-7.4378936e-06,-1.9279512e-05,2.4604628e-06,-5.7201254e-07,1.6841416e-06,-0.00093399023,0.20883538,0.011625568,0.43167603,0.0,0.0,0.0,0.0,0.0,0.00078427873,0.0006386652,0.0006376493,0.0006988618,0.0049360525,0.0049516163,0.0029710308,9.638707e-05,9.6412376e-05,4.919718,6.192625e-07,6.198199e-07,2.8834862e-07,2.7195747e-06,2.715386e-06,4.0297215e-07,0.0,0.0,0.0,0.0,0.0,0.0,0.0,0.0,24
4164000,4084000,0.6874627,0.0016179244,-0.015162112,0.7260596,-7.8791745e-05,0.0025758771,-0.013925776,6.9743105e-06,0.0001225536,-0.061704777,-7.4378936e-06,-1.9279512e-05,2.4604628e-06,-5.7201254e-07,1.6841416e-06,-0.00093399023,0.20883538,0.011625568,0.43167603,0.0,0.0,0.0,0.0,0.0,0.00078841625,0.0006571022,0.0006560701,0.0007025747,0.0053427326,0.0053591277,0.0030403808,0.00010479711,0.00010483394,4.919724,6.1926255e-07,6.1981996e-07,2.8834862e-07,2.7195747e-06,2.715386e-06,4.029722e-07,0.0,0.0,0.0,0.0,0.0,0.0,0.0,0.0,24
4172000,4092000,0.6874654,0.0016250199,-0.015178002,0.7260567,-0.00017225936,0.0027495346,-0.0141312685,5.970127e-06,0.00014385533,-0.055506907,-7.437891e-06,-1.9279507e-05,2.460464e-06,-5.721351e-07,1.6842404e-06,-0.0009339952,0.20883538,0.011625568,0.43167603,0.0,0.0,0.0,0.0,0.0,0.00079262716,0.0006758495,0.0006748003,0.00070635806,0.005776534,0.0057937745,0.0031105082,0.00011422112,0.000114272225,3.510055,6.1926255e-07,6.1981996e-07,2.8834862e-07,2.719575e-06,2.7153862e-06,4.0297138e-07,0.0,0.0,0.0,0.0,0.0,0.0,0.0,0.0,24
4180000,4100000,0.6874664,0.0015558321,-0.0151254395,0.726057,-0.00029331257,0.0024210233,-0.013289335,8.730467e-06,0.00012726305,-0.05551674,-7.2444286e-06,-2.2367482e-05,2.4343885e-06,-2.657771e-06,1.8911502e-06,-0.0009442412,0.20883538,0.011625568,0.43167603,0.0,0.0,0.0,0.0,0.0,0.0007969061,0.0006329976,0.00063197105,0.00071020063,0.005396724,0.0054102675,0.0029470336,0.00011577525,0.000115816874,3.5100577,5.6273814e-07,5.633379e-07,2.8832568e-07,2.6999078e-06,2.6953312e-06,3.8076934e-07,0.0,0.0,0.0,0.0,0.0,0.0,0.0,0.0,24
4188000,4108000,0.68746567,0.0015664806,-0.015133883,0.72605747,-0.00012807103,0.002464321,-0.013252683,7.0449323e-06,0.00014680442,-0.055622905,-7.2444286e-06,-2.2367482e-05,2.4343885e-06,-2.657771e-06,1.8911502e-06,-0.0009442412,0.20883538,0.011625568,0.43167603,0.0,0.0,0.0,0.0,0.0,0.00080127595,0.0006504795,0.00064943713,0.00071411324,0.005821493,0.0058356603,0.0030141557,0.00012593946,0.00012599467,3.5100632,5.6273814e-07,5.633379e-07,2.883257e-07,2.6999078e-06,2.6953312e-06,3.807694e-07,0.0,0.0,0.0,0.0,0.0,0.0,0.0,0.0,24
4196000,4116000,0.68746436,0.001563923,-0.015142306,0.7260586,-7.9655525e-05,0.002454352,-0.013204433,6.214026e-06,0.00016647912,-0.055728734,-7.2444286e-06,-2.2367482e-05,2.4343885e-06,-2.657771e-06,1.8911502e-06,-0.0009442412,0.20883538,0.011625568,0.43167603,0.0,0.0,0.0,0.0,0.0,0.00080572296,0.00066824304,0.00066718477,0.00071809266,0.00627282,0.006287616,0.003082019,0.00013723288,0.00013730409,3.5100691,5.6273814e-07,5.633379e-07,2.883257e-07,2.6999078e-06,2.6953312e-06,3.8076945e-07,0.0,0.0,0.0,0.0,0.0,0.0,0.0,0.0,24
4204000,4124000,0.6874591,0.0015661635,-0.015150216,0.72606343,6.2494364e-06,0.002450788,-0.013312712,5.9204017e-06,0.00018609969,-0.055834804,-7.2444286e-06,-2.2367482e-05,2.4343885e-06,-2.657771e-06,1.8911502e-06,-0.0009442412,0.20883538,0.011625568,0.43167603,0.0,0.0,0.0,0.0,0.0,0.0008102542,0.0006862881,0.00068521366,0.00072213216,0.00675294,0.0067683784,0.0031506245,0.00014975642,0.00014984615,3.5100756,5.6273814e-07,5.633379e-07,2.883257e-07,2.699908e-06,2.6953314e-06,3.8076948e-07,0.0,0.0,0.0,0.0,0.0,0.0,0.0,0.0,24
4212000,4132000,0.6874623,0.0015757811,-0.015159788,0.7260603,-1.173545e-05,0.0025501382,-0.013280839,5.898458e-06,0.00020610339,-0.05594118,-7.2444286e-06,-2.2367482e-05,2.4343885e-06,-2.657771e-06,1.8911502e-06,-0.0009442412,0.20883538,0.011625568,0.43167603,0.0,0.0,0.0,0.0,0.0,0.0008148443,0.00070461485,0.0007035237,0.0007262571,0.007260955,0.0072770347,0.0032199724,0.00016361824,0.00016372917,3.5100825,5.6273814e-07,5.633379e-07,2.883257e-07,2.699908e-06,2.6953314e-06,3.8076954e-07,0.0,0.0,0.0,0.0,0.0,0.0,0.0,0.0,24
4220000,4140000,0.6874651,0.0015891879,-0.015156814,0.7260576,-0.00015812411,0.0025813065,-0.01341518,5.21902e-06,0.00022662917,-0.056047965,-7.2444286e-06,-2.2367482e-05,2.4343885e-06,-2.657771e-06,1.8911502e-06,-0.0009442412,0.20883538,0.011625568,0.43167603,0.0,0.0,0.0,0.0,0.0,0.0008195115,0.0007232227,0.0007221153,0.00073044957,0.0078002037,0.007816926,0.003290062,0.00017893183,0.00017906676,3.5100899,5.6273814e-07,5.633379e-07,2.8832574e-07,2.699908e-06,2.6953314e-06,3.807696e-07,0.0,0.0,0.0,0.0,0.0,0.0,0.0,0.0,24
4228000,4148000,0.6874377,0.0015927736,-0.015168748,0.72608316,-7.4287636e-06,0.0026408534,-0.013642434,4.5249267e-06,0.00024747284,-0.050418764,-7.250242e-06,-2.2365324e-05,2.162556e-06,-2.648176e-06,1.8834061e-06,-0.0009442486,0.20883538,0.011625568,0.43167603,0.0,0.0,0.0,0.0,0.0,0.000771848,0.0007420947,0.0007409879,0.0006880981,0.008371442,0.008388833,0.0033608803,0.0001958192,0.000195981,2.7283268,5.6273655e-07,5.6333766e-07,2.8491013e-07,2.6999037e-06,2.6953285e-06,3.8076845e-07,0.0,0.0,0.0,0.0,0.0,0.0,0.0,0.0,24
