timestamp,timestamp_sample,gps_hvel[0],gps_hvel[1],gps_vvel,gps_hpos[0],gps_hpos[1],gps_vpos,ev_hvel[0],ev_hvel[1],ev_vvel,ev_hpos[0],ev_hpos[1],ev_vpos,rng_vpos,baro_vpos,aux_hvel[0],aux_hvel[1],aux_vvel,flow[0],flow[1],terr_flow[0],terr_flow[1],heading,mag_field[0],mag_field[1],mag_field[2],gravity[0],gravity[1],gravity[2],drag[0],drag[1],airspeed,beta,hagl,hagl_rate
3628000,3548000,0.115676776,0.11568013,0.20415929,101.000084,101.000084,101.00001,0.0,0.0,0.0,0.0,0.0,0.0,0.0,62.24998,0.0,0.0,nan,0.0,0.0,0.0,0.0,0.0,0.0,0.0,0.0,1.1160461,1.1160743,1.0001078,0.0,0.0,0.0,0.0,0.0,0.0
4124000,4044000,0.10217263,0.10217514,0.20364979,1.0002747,1.0002747,34.333324,0.0,0.0,0.0,0.0,0.0,0.0,0.0,20.471516,0.0,0.0,nan,0.0,0.0,0.0,0.0,0.0,0.0,0.0,0.0,1.225745,1.225791,1.0002235,0.0,0.0,0.0,0.0,0.0,0.0
4620000,4540000,0.097005755,0.097005896,0.20633025,1.0003304,1.0003304,3.2314079,0.0,0.0,0.0,0.0,0.0,0.0,0.0,13.541278,0.0,0.0,nan,0.0,0.0,0.0,0.0,0.0,0.0,0.0,0.0,1.0842559,1.0842639,1.0000858,0.0,0.0,0.0,0.0,0.0,0.0
5124000,5044000,0.092738345,0.0927383,0.21056181,1.0001674,1.0001674,1.6641083,0.0,0.0,0.0,0.0,0.0,0.0,0.0,12.914226,0.0,0.0,nan,0.0,0.0,0.0,0.0,0.0,0.0,0.0,0.0,1.0745218,1.074529,1.0000743,0.0,0.0,0.0,0.0,0.0,0.0
5628000,5548000,0.09187836,0.09187834,0.21088274,1.0001332,1.0001332,1.4832948,0.0,0.0,0.0,0.0,0.0,0.0,0.0,12.715911,0.0,0.0,nan,0.0,0.0,0.0,0.0,0.0,0.0,0.0,0.0,1.0647538,1.0647615,1.0000631,0.0,0.0,0.0,0.0,0.0,0.0
6124000,6044000,0.09140527,0.09140528,0.21057716,1.0001103,1.0001103,1.3808919,0.0,0.0,0.0,0.0,0.0,0.0,0.0,12.599995,0.0,0.0,nan,0.0,0.0,0.0,0.0,0.0,0.0,0.0,0.0,1.0631937,1.0631998,1.0000608,0.0,0.0,0.0,0.0,0.0,0.0
6620000,6540000,0.091135755,0.09113579,0.210053,1.0000948,1.0000948,1.323491,0.0,0.0,0.0,0.0,0.0,0.0,0.0,12.538385,0.0,0.0,nan,0.0,0.0,0.0,0.0,0.0,0.0,0.0,0.0,1.0623294,1.0623358,1.000059,0.0,0.0,0.0,0.0,0.0,0.0
7124000,7044000,0.09084796,0.09084794,0.20897646,1.0000749,1.0000749,1.2406714,0.0,0.0,0.0,0.0,0.0,0.0,0.0,12.496552,0.0,0.0,nan,0.0,0.0,0.0,0.0,0.0,0.0,0.0,0.0,1.061066,1.0610739,1.000057,0.0,0.0,0.0,0.0,0.0,0.0
7620000,7540000,0.09077559,0.090775564,0.20959537,1.0000685,1.0000685,1.2154914,0.0,0.0,0.0,0.0,0.0,0.0,0.0,12.462054,0.0,0.0,nan,0.0,0.0,0.0,0.0,0.0,0.0,0.0,0.0,1.0608796,1.060887,1.0000564,0.0,0.0,0.0,0.0,0.0,0.0
8124000,8044000,0.09127071,0.09127068,0.2090909,1.000168,1.000168,1.1979331,0.0,0.0,0.0,0.0,0.0,0.0,0.0,12.440251,0.0,0.0,nan,0.0,0.0,0.0,0.0,0.0,0.0,0.0,0.0,1.0603826,1.0603889,1.0000556,0.0,0.0,0.0,0.0,0.0,0.0
8620000,8540000,0.09115927,0.09115925,0.20869131,1.0001515,1.0001515,1.1808004,0.0,0.0,0.0,0.0,0.0,0.0,0.0,12.421909,0.0,0.0,nan,0.0,0.0,0.0,0.0,0.0,0.0,0.0,0.0,1.0602901,1.0602958,1.000054,0.0,0.0,0.0,0.0,0.0,0.0
9124000,9044000,0.09099297,0.09099302,0.2081774,1.0001256,1.0001256,1.6718497,0.0,0.0,0.0,0.0,0.0,0.0,0.0,12.65892,0.0,0.0,nan,0.0,0.0,0.0,0.0,0.0,0.0,0.0,0.0,1.0602288,1.0602342,1.0000532,0.0,0.0,0.0,0.0,0.0,0.0
9620000,9540000,0.09092874,0.090928756,0.2080132,1.0001153,1.0001153,1.3279651,0.0,0.0,0.0,0.0,0.0,0.0,0.0,12.507439,0.0,0.0,nan,0.0,0.0,0.0,0.0,0.0,0.0,0.0,0.0,1.0599531,1.0599577,1.0000521,0.0,0.0,0.0,0.0,0.0,0.0
10124000,10044000,0.09087251,0.09087251,0.20787944,1.000106,1.000106,1.2180057,0.0,0.0,0.0,0.0,0.0,0.0,0.0,12.447662,0.0,0.0,nan,0.0,0.0,0.0,0.0,0.0,0.0,0.0,0.0,1.0599418,1.0599456,1.0000508,0.0,0.0,0.0,0.0,0.0,0.0
10620000,10540000,0.09082264,0.09082261,0.20776865,1.0000978,1.0000978,1.1665132,0.0,0.0,0.0,0.0,0.0,0.0,0.0,12.41836,0.0,0.0,nan,0.0,0.0,0.0,0.0,0.0,0.0,0.0,0.0,1.0597806,1.059784,1.0000504,0.0,0.0,0.0,0.0,0.0,0.0
11124000,11044000,0.09073696,0.09073698,0.20758756,1.0000837,1.0000837,1.1131848,0.0,0.0,0.0,0.0,0.0,0.0,0.0,12.402979,0.0,0.0,nan,0.0,0.0,0.0,0.0,0.0,0.0,0.0,0.0,1.0597903,1.0597944,1.0000495,0.0,0.0,0.0,0.0,0.0,0.0
11620000,11540000,0.09069924,0.09069927,0.20751278,1.0000776,1.0000776,1.0993934,0.0,0.0,0.0,0.0,0.0,0.0,0.0,12.386725,0.0,0.0,nan,0.0,0.0,0.0,0.0,0.0,0.0,0.0,0.0,1.0598117,1.0598158,1.0000488,0.0,0.0,0.0,0.0,0.0,0.0
12124000,12044000,0.09066412,0.09066416,0.20744225,1.0000721,1.0000721,1.0886037,0.0,0.0,0.0,0.0,0.0,0.0,0.0,12.384143,0.0,0.0,nan,0.0,0.0,0.0,0.0,0.0,0.0,0.0,0.0,1.059729,1.0597326,1.0000477,0.0,0.0,0.0,0.0,0.0,0.0
12620000,12540000,0.09063145,0.09063148,0.20737618,1.0000671,1.0000671,1.0804774,0.0,0.0,0.0,0.0,0.0,0.0,0.0,12.3841,0.0,0.0,nan,0.0,0.0,0.0,0.0,0.0,0.0,0.0,0.0,1.0597434,1.0597476,1.0000474,0.0,0.0,0.0,0.0,0.0,0.0
13124000,13044000,0.09094682,0.09094676,0.20791356,1.0001422,1.0001422,1.0706657,0.0,0.0,0.0,0.0,0.0,0.0,0.0,12.381792,0.0,0.0,nan,0.0,0.0,0.0,0.0,0.0,0.0,0.0,0.0,1.059642,1.0596464,1.000047,0.0,0.0,0.0,0.0,0.0,0.0
13628000,13548000,0.090908185,0.09090809,0.2078494,1.0001323,1.0001323,1.0666697,0.0,0.0,0.0,0.0,0.0,0.0,0.0,12.382641,0.0,0.0,nan,0.0,0.0,0.0,0.0,0.0,0.0,0.0,0.0,1.0596476,1.0596515,1.0000468,0.0,0.0,0.0,0.0,0.0,0.0
14124000,14044000,0.09087175,0.09087166,0.20778818,1.0001233,1.0001233,1.0634168,0.0,0.0,0.0,0.0,0.0,0.0,0.0,12.385994,0.0,0.0,nan,0.0,0.0,0.0,0.0,0.0,0.0,0.0,0.0,1.0596489,1.0596529,1.0000466,0.0,0.0,0.0,0.0,0.0,0.0
14620000,14540000,0.09083679,0.09083669,0.20773362,1.0001148,1.0001148,1.0607374,0.0,0.0,0.0,0.0,0.0,0.0,0.0,12.387562,0.0,0.0,nan,0.0,0.0,0.0,0.0,0.0,0.0,0.0,0.0,1.0595481,1.0595518,1.0000454,0.0,0.0,0.0,0.0,0.0,0.0
15124000,15044000,0.09077159,0.09077149,0.20762126,1.0000997,1.0000997,1.0568846,0.0,0.0,0.0,0.0,0.0,0.0,0.0,12.390308,0.0,0.0,nan,0.0,0.0,0.0,0.0,0.0,0.0,0.0,0.0,1.0595504,1.0595546,1.0000443,0.0,0.0,0.0,0.0,0.0,0.0
15620000,15540000,0.094419666,0.09441994,0.20825262,1.0002606,1.0002606,1.0567286,0.0,0.0,0.0,0.0,0.0,0.0,0.0,12.392825,0.0,0.0,nan,0.0,0.0,0.0,0.0,0.0,0.0,0.0,0.0,1.0596454,1.0596495,1.0000429,0.0,0.0,0.0,0.0,0.0,0.0
16124000,16044000,0.11588821,0.115891196,0.20970187,1.0031592,1.0031593,1.05946,0.0,0.0,0.0,0.0,0.0,0.0,0.0,12.400117,0.0,0.0,nan,0.0,0.0,0.0,0.0,0.0,0.0,0.0,0.0,1.0598513,1.0598539,1.000042,0.0,0.0,0.0,0.0,0.0,0.0
16628000,16548000,0.15647009,0.15647799,0.21130651,1.0188767,1.0188786,1.0635062,0.0,0.0,0.0,0.0,0.0,0.0,0.0,12.41084,0.0,0.0,nan,0.0,0.0,0.0,0.0,0.0,0.0,0.0,0.0,1.0600511,1.0600529,1.0000414,0.0,0.0,0.0,0.0,0.0,0.0
17124000,17044000,0.29448348,0.29450822,0.21477771,1.1745892,1.174611,1.0769991,0.0,0.0,0.0,0.0,0.0,0.0,0.0,12.417455,0.0,0.0,nan,0.0,0.0,0.0,0.0,0.0,0.0,0.0,0.0,1.0601013,1.0601043,1.0000416,0.0,0.0,0.0,0.0,0.0,0.0
17628000,17548000,0.39065608,0.3906977,0.2164622,1.3784289,1.3784846,1.0857968,0.0,0.0,0.0,0.0,0.0,0.0,0.0,12.429395,0.0,0.0,nan,0.0,0.0,0.0,0.0,0.0,0.0,0.0,0.0,1.0599958,1.0600005,1.0000411,0.0,0.0,0.0,0.0,0.0,0.0
18124000,18044000,0.5023395,0.50241256,0.2179967,1.7185402,1.7186726,1.095597,0.0,0.0,0.0,0.0,0.0,0.0,0.0,12.447157,0.0,0.0,nan,0.0,0.0,0.0,0.0,0.0,0.0,0.0,0.0,1.0589986,1.0590122,1.0000132,0.0,0.0,0.0,0.0,0.0,0.0
18628000,18548000,0.63643,0.63659465,0.21926022,2.24987,2.2501812,1.1058104,0.0,0.0,0.0,0.0,0.0,0.0,0.0,12.461367,0.0,0.0,nan,0.0,0.0,0.0,0.0,0.0,0.0,0.0,0.0,1.0576512,1.0576565,1.0000004,0.0,0.0,0.0,0.0,0.0,0.0
19124000,19044000,0.91917515,0.9195622,0.22098474,3.9769702,3.9782915,1.1261495,0.0,0.0,0.0,0.0,0.0,0.0,0.0,12.466474,0.0,0.0,nan,0.0,0.0,0.0,0.0,0.0,0.0,0.0,0.0,1.0553501,1.0553643,1.0000992,0.0,0.0,0.0,0.0,0.0,0.0
19628000,19548000,1.036297,1.0367762,0.22149175,5.153993,5.156199,1.1342254,0.0,0.0,0.0,0.0,0.0,0.0,0.0,12.479049,0.0,0.0,nan,0.0,0.0,0.0,0.0,0.0,0.0,0.0,0.0,1.0499823,1.0499989,1.0001346,0.0,0.0,0.0,0.0,0.0,0.0
20124000,20044000,1.1235762,1.1241214,0.22189184,6.449322,6.452534,1.1408135,0.0,0.0,0.0,0.0,0.0,0.0,0.0,12.490486,0.0,0.0,nan,0.0,0.0,0.0,0.0,0.0,0.0,0.0,0.0,1.0453755,1.0453907,1.0001006,0.0,0.0,0.0,0.0,0.0,0.0
20620000,20540000,1.1716385,1.1722254,0.22190657,7.7479424,7.7521787,1.1475779,0.0,0.0,0.0,0.0,0.0,0.0,0.0,12.503749,0.0,0.0,nan,0.0,0.0,0.0,0.0,0.0,0.0,0.0,0.0,1.0373362,1.0373515,1.0000566,0.0,0.0,0.0,0.0,0.0,0.0
21124000,21044000,1.1480474,1.1486069,0.22145268,9.903169,9.90865,1.1534446,0.0,0.0,0.0,0.0,0.0,0.0,0.0,12.511524,0.0,0.0,nan,0.0,0.0,0.0,0.0,0.0,0.0,0.0,0.0,1.0319891,1.0320044,1.0000337,0.0,0.0,0.0,0.0,0.0,0.0
21628000,21548000,1.0879031,1.0883926,0.22130665,10.622118,10.627583,1.1546584,0.0,0.0,0.0,0.0,0.0,0.0,0.0,12.499547,0.0,0.0,nan,0.0,0.0,0.0,0.0,0.0,0.0,0.0,0.0,1.0270158,1.0270252,1.0000231,0.0,0.0,0.0,0.0,0.0,0.0
22124000,22044000,1.007778,1.0081778,0.22100918,11.079648,11.084806,1.1570187,0.0,0.0,0.0,0.0,0.0,0.0,0.0,12.505234,0.0,0.0,nan,0.0,0.0,0.0,0.0,0.0,0.0,0.0,0.0,1.0205411,1.020546,1.0000156,0.0,0.0,0.0,0.0,0.0,0.0
22628000,22548000,0.9310008,0.9313154,0.22075203,11.317585,11.322213,1.156777,0.0,0.0,0.0,0.0,0.0,0.0,0.0,12.510337,0.0,0.0,nan,0.0,0.0,0.0,0.0,0.0,0.0,0.0,0.0,1.0171742,1.0171787,1.0000105,0.0,0.0,0.0,0.0,0.0,0.0
23124000,23044000,0.7751274,0.7753047,0.2205494,11.317278,11.320623,1.1571681,0.0,0.0,0.0,0.0,0.0,0.0,0.0,12.496351,0.0,0.0,nan,0.0,0.0,0.0,0.0,0.0,0.0,0.0,0.0,1.0131568,1.0131562,1.0000054,0.0,0.0,0.0,0.0,0.0,0.0
23628000,23548000,0.7734839,0.77363765,0.22045802,12.309783,12.313187,1.1561375,0.0,0.0,0.0,0.0,0.0,0.0,0.0,12.500581,0.0,0.0,nan,0.0,0.0,0.0,0.0,0.0,0.0,0.0,0.0,1.0112473,1.0112467,1.000007,0.0,0.0,0.0,0.0,0.0,0.0
24124000,24044000,0.7026286,0.7027298,0.22041607,12.051276,12.053995,1.1550834,0.0,0.0,0.0,0.0,0.0,0.0,0.0,12.506104,0.0,0.0,nan,0.0,0.0,0.0,0.0,0.0,0.0,0.0,0.0,1.0097669,1.0097659,1.0000074,0.0,0.0,0.0,0.0,0.0,0.0
24628000,24548000,0.63996077,0.64002144,0.22042851,11.7478285,11.74996,1.1541886,0.0,0.0,0.0,0.0,0.0,0.0,0.0,12.510481,0.0,0.0,nan,0.0,0.0,0.0,0.0,0.0,0.0,0.0,0.0,1.0080267,1.0080268,1.0000068,0.0,0.0,0.0,0.0,0.0,0.0
25124000,25044000,0.537675,0.537696,0.22067526,11.085636,11.086878,1.154508,0.0,0.0,0.0,0.0,0.0,0.0,0.0,12.514938,0.0,0.0,nan,0.0,0.0,0.0,0.0,0.0,0.0,0.0,0.0,1.0072944,1.0072947,1.0000056,0.0,0.0,0.0,0.0,0.0,0.0
25628000,25548000,0.4969329,0.4969459,0.22074524,10.75195,10.752891,1.1538211,0.0,0.0,0.0,0.0,0.0,0.0,0.0,12.501087,0.0,0.0,nan,0.0,0.0,0.0,0.0,0.0,0.0,0.0,0.0,1.0063937,1.0063933,1.0000044,0.0,0.0,0.0,0.0,0.0,0.0
26124000,26044000,0.46218467,0.46219027,0.22082868,10.426685,10.427405,1.1533008,0.0,0.0,0.0,0.0,0.0,0.0,0.0,12.50339,0.0,0.0,nan,0.0,0.0,0.0,0.0,0.0,0.0,0.0,0.0,1.006086,1.0060849,1.0000037,0.0,0.0,0.0,0.0,0.0,0.0
26620000,26540000,0.432731,0.43273026,0.22106583,10.114111,10.114658,1.1548429,0.0,0.0,0.0,0.0,0.0,0.0,0.0,12.511779,0.0,0.0,nan,0.0,0.0,0.0,0.0,0.0,0.0,0.0,0.0,1.0058936,1.0058926,1.0000037,0.0,0.0,0.0,0.0,0.0,0.0
27124000,27044000,0.38750258,0.38749442,0.22120887,9.536417,9.536727,1.1541883,0.0,0.0,0.0,0.0,0.0,0.0,0.0,12.516676,0.0,0.0,nan,0.0,0.0,0.0,0.0,0.0,0.0,0.0,0.0,1.005589,1.0055885,1.0000037,0.0,0.0,0.0,0.0,0.0,0.0
27620000,27540000,0.37056231,0.37055385,0.22141026,9.273475,9.273703,1.1558279,0.0,0.0,0.0,0.0,0.0,0.0,0.0,12.500287,0.0,0.0,nan,0.0,0.0,0.0,0.0,0.0,0.0,0.0,0.0,1.005593,1.0055925,1.0000037,0.0,0.0,0.0,0.0,0.0,0.0
28124000,28044000,0.35686788,0.35685912,0.22144328,9.028172,9.028336,1.1555246,0.0,0.0,0.0,0.0,0.0,0.0,0.0,12.507061,0.0,0.0,nan,0.0,0.0,0.0,0.0,0.0,0.0,0.0,0.0,1.005504,1.0055038,1.0000039,0.0,0.0,0.0,0.0,0.0,0.0
28620000,28540000,0.34606665,0.34605908,0.22146887,8.8004875,8.800597,1.1552855,0.0,0.0,0.0,0.0,0.0,0.0,0.0,12.511924,0.0,0.0,nan,0.0,0.0,0.0,0.0,0.0,0.0,0.0,0.0,1.0056256,1.0056254,1.0000036,0.0,0.0,0.0,0.0,0.0,0.0
29124000,29044000,0.34714326,0.3471356,0.22162345,8.990555,8.990606,1.1566449,0.0,0.0,0.0,0.0,0.0,0.0,0.0,12.49834,0.0,0.0,nan,0.0,0.0,0.0,0.0,0.0,0.0,0.0,0.0,1.0056621,1.0056622,1.0000037,0.0,0.0,0.0,0.0,0.0,0.0
29628000,29548000,0.34220698,0.3421994,0.22160141,8.787228,8.7872505,1.1562749,0.0,0.0,0.0,0.0,0.0,0.0,0.0,12.502899,0.0,0.0,nan,0.0,0.0,0.0,0.0,0.0,0.0,0.0,0.0,1.005862,1.0058621,1.0000036,0.0,0.0,0.0,0.0,0.0,0.0
30124000,30044000,0.33932322,0.3393145,0.22157186,8.602791,8.602793,1.155891,0.0,0.0,0.0,0.0,0.0,0.0,0.0,12.509636,0.0,0.0,nan,0.0,0.0,0.0,0.0,0.0,0.0,0.0,0.0,1.0060767,1.0060772,1.0000038,0.0,0.0,0.0,0.0,0.0,0.0
30628000,30548000,0.33835143,0.3383421,0.2216951,8.436662,8.4366455,1.157483,0.0,0.0,0.0,0.0,0.0,0.0,0.0,12.51435,0.0,0.0,nan,0.0,0.0,0.0,0.0,0.0,0.0,0.0,0.0,1.0062034,1.0062039,1.0000036,0.0,0.0,0.0,0.0,0.0,0.0
31124000,31044000,0.34106964,0.34105825,0.22160192,8.156672,8.156622,1.1565394,0.0,0.0,0.0,0.0,0.0,0.0,0.0,12.519059,0.0,0.0,nan,0.0,0.0,0.0,0.0,0.0,0.0,0.0,0.0,1.0064497,1.0064502,1.0000035,0.0,0.0,0.0,0.0,0.0,0.0
31628000,31548000,0.34438142,0.34436917,0.22170578,8.041372,8.041311,1.1579933,0.0,0.0,0.0,0.0,0.0,0.0,0.0,12.505532,0.0,0.0,nan,0.0,0.0,0.0,0.0,0.0,0.0,0.0,0.0,1.0065963,1.0065967,1.0000038,0.0,0.0,0.0,0.0,0.0,0.0
32124000,32044000,0.34888557,0.34887445,0.22164826,7.9415655,7.9414945,1.1574123,0.0,0.0,0.0,0.0,0.0,0.0,0.0,12.50999,0.0,0.0,nan,0.0,0.0,0.0,0.0,0.0,0.0,0.0,0.0,1.0068532,1.0068531,1.0000039,0.0,0.0,0.0,0.0,0.0,0.0
32620000,32540000,0.35442454,0.3544154,0.22158945,7.8566337,7.8565497,1.1568024,0.0,0.0,0.0,0.0,0.0,0.0,0.0,12.51447,0.0,0.0,nan,0.0,0.0,0.0,0.0,0.0,0.0,0.0,0.0,1.007111,1.0071105,1.000004,0.0,0.0,0.0,0.0,0.0,0.0
33124000,33044000,0.36789194,0.36788952,0.22163025,7.728288,7.728189,1.1575141,0.0,0.0,0.0,0.0,0.0,0.0,0.0,12.500177,0.0,0.0,nan,0.0,0.0,0.0,0.0,0.0,0.0,0.0,0.0,1.0072421,1.0072415,1.0000037,0.0,0.0,0.0,0.0,0.0,0.0
33620000,33540000,0.3755146,0.3755183,0.22157279,7.68316,7.68306,1.1568489,0.0,0.0,0.0,0.0,0.0,0.0,0.0,12.504447,0.0,0.0,nan,0.0,0.0,0.0,0.0,0.0,0.0,0.0,0.0,1.0074841,1.0074842,1.0000038,0.0,0.0,0.0,0.0,0.0,0.0
34124000,34044000,0.39665902,0.39666718,0.2215236,8.123114,8.123011,1.1562369,0.0,0.0,0.0,0.0,0.0,0.0,0.0,12.508077,0.0,0.0,nan,0.0,0.0,0.0,0.0,0.0,0.0,0.0,0.0,1.0075748,1.0075749,1.0000045,0.0,0.0,0.0,0.0,0.0,0.0
34628000,34548000,0.40512103,0.40513262,0.22163491,8.099024,8.09893,1.1576291,0.0,0.0,0.0,0.0,0.0,0.0,0.0,12.515417,0.0,0.0,nan,0.0,0.0,0.0,0.0,0.0,0.0,0.0,0.0,1.0077952,1.0077953,1.0000048,0.0,0.0,0.0,0.0,0.0,0.0
35124000,35044000,0.41728878,0.41731307,0.2215502,8.079065,8.079023,1.156477,0.0,0.0,0.0,0.0,0.0,0.0,0.0,12.519206,0.0,0.0,nan,0.0,0.0,0.0,0.0,0.0,0.0,0.0,0.0,1.0079908,1.0079925,1.0000062,0.0,0.0,0.0,0.0,0.0,0.0
35620000,35540000,0.42385808,0.42387953,0.22166595,8.075359,8.075344,1.1559073,0.0,0.0,0.0,0.0,0.0,0.0,0.0,12.504857,0.0,0.0,nan,0.0,0.0,0.0,0.0,0.0,0.0,0.0,0.0,1.007991,1.0079911,1.0000056,0.0,0.0,0.0,0.0,0.0,0.0
36124000,36044000,0.4330571,0.43307954,0.22162938,8.079923,8.079937,1.1573669,0.0,0.0,0.0,0.0,0.0,0.0,0.0,12.508578,0.0,0.0,nan,0.0,0.0,0.0,0.0,0.0,0.0,0.0,0.0,1.0081528,1.0081528,1.000005,0.0,0.0,0.0,0.0,0.0,0.0
36620000,36540000,0.44059357,0.44062263,0.22159636,8.090449,8.090492,1.1568706,0.0,0.0,0.0,0.0,0.0,0.0,0.0,12.5153,0.0,0.0,nan,0.0,0.0,0.0,0.0,0.0,0.0,0.0,0.0,1.0080843,1.0080835,1.0000045,0.0,0.0,0.0,0.0,0.0,0.0
37124000,37044000,0.45404512,0.4541161,0.22153924,8.122145,8.122265,1.155982,0.0,0.0,0.0,0.0,0.0,0.0,0.0,12.518395,0.0,0.0,nan,0.0,0.0,0.0,0.0,0.0,0.0,0.0,0.0,1.0081968,1.0081955,1.0000046,0.0,0.0,0.0,0.0,0.0,0.0
37628000,37548000,0.45983416,0.4599203,0.22166345,8.140715,8.140889,1.1575013,0.0,0.0,0.0,0.0,0.0,0.0,0.0,12.505062,0.0,0.0,nan,0.0,0.0,0.0,0.0,0.0,0.0,0.0,0.0,1.0082889,1.0082875,1.0000051,0.0,0.0,0.0,0.0,0.0,0.0
38124000,38044000,0.46475357,0.4648498,0.22162527,8.159342,8.159582,1.1569995,0.0,0.0,0.0,0.0,0.0,0.0,0.0,12.509586,0.0,0.0,nan,0.0,0.0,0.0,0.0,0.0,0.0,0.0,0.0,1.0081227,1.008122,1.0000048,0.0,0.0,0.0,0.0,0.0,0.0
38620000,38540000,0.46876252,0.46886837,0.22158262,8.17683,8.177132,1.1564661,0.0,0.0,0.0,0.0,0.0,0.0,0.0,12.512504,0.0,0.0,nan,0.0,0.0,0.0,0.0,0.0,0.0,0.0,0.0,1.0081605,1.0081592,1.0000046,0.0,0.0,0.0,0.0,0.0,0.0
39124000,39044000,0.49502462,0.49514845,0.21966253,8.762019,8.762518,1.1548017,0.0,0.0,0.0,0.0,0.0,0.0,0.0,12.518592,0.0,0.0,nan,0.0,0.0,0.0,0.0,0.0,0.0,0.0,0.0,1.0079477,1.0079464,1.0000037,0.0,0.0,0.0,0.0,0.0,0.0
39628000,39548000,0.49451116,0.49466997,0.21790169,8.775747,8.776321,1.1542246,0.0,0.0,0.0,0.0,0.0,0.0,0.0,12.499623,0.0,0.0,nan,0.0,0.0,0.0,0.0,0.0,0.0,0.0,0.0,1.007954,1.0079533,1.0000043,0.0,0.0,0.0,0.0,0.0,0.0
40124000,40044000,0.49189365,0.49208033,0.21665537,8.780795,8.781462,1.1507916,0.0,0.0,0.0,0.0,0.0,0.0,0.0,12.502222,0.0,0.0,nan,0.0,0.0,0.0,0.0,0.0,0.0,0.0,0.0,1.0079402,1.0079387,1.0000048,0.0,0.0,0.0,0.0,0.0,0.0
40620000,40540000,0.48888373,0.48909763,0.21588297,8.7771015,8.777869,1.1469665,0.0,0.0,0.0,0.0,0.0,0.0,0.0,12.502536,0.0,0.0,nan,0.0,0.0,0.0,0.0,0.0,0.0,0.0,0.0,1.0076681,1.0076667,1.0000046,0.0,0.0,0.0,0.0,0.0,0.0
41124000,41044000,0.48265454,0.4829336,0.21559882,8.747507,8.748507,1.141222,0.0,0.0,0.0,0.0,0.0,0.0,0.0,12.48649,0.0,0.0,nan,0.0,0.0,0.0,0.0,0.0,0.0,0.0,0.0,1.0076417,1.0076404,1.0000043,0.0,0.0,0.0,0.0,0.0,0.0
41628000,41548000,0.4794308,0.47975832,0.2158754,8.723729,8.724869,1.1382394,0.0,0.0,0.0,0.0,0.0,0.0,0.0,12.487048,0.0,0.0,nan,0.0,0.0,0.0,0.0,0.0,0.0,0.0,0.0,1.0073655,1.0073663,1.0000042,0.0,0.0,0.0,0.0,0.0,0.0
42124000,42044000,0.48283684,0.48307613,0.21533087,8.700132,8.701383,1.1358982,0.0,0.0,0.0,0.0,0.0,0.0,0.0,12.489935,0.0,0.0,nan,0.0,0.0,0.0,0.0,0.0,0.0,0.0,0.0,1.0073215,1.0073225,1.0000042,0.0,0.0,0.0,0.0,0.0,0.0
42620000,42540000,0.47955865,0.4797609,0.21444036,8.674002,8.67531,1.1336217,0.0,0.0,0.0,0.0,0.0,0.0,0.0,12.490074,0.0,0.0,nan,0.0,0.0,0.0,0.0,0.0,0.0,0.0,0.0,1.0072742,1.0072755,1.0000042,0.0,0.0,0.0,0.0,0.0,0.0
43124000,43044000,0.47170404,0.47184122,0.21367715,8.607268,8.608566,1.1304247,0.0,0.0,0.0,0.0,0.0,0.0,0.0,12.478393,0.0,0.0,nan,0.0,0.0,0.0,0.0,0.0,0.0,0.0,0.0,1.0069989,1.0070007,1.0000039,0.0,0.0,0.0,0.0,0.0,0.0
43620000,43540000,0.4672412,0.46734747,0.21371672,8.5673275,8.56857,1.1283047,0.0,0.0,0.0,0.0,0.0,0.0,0.0,12.478724,0.0,0.0,nan,0.0,0.0,0.0,0.0,0.0,0.0,0.0,0.0,1.0069513,1.0069535,1.0000038,0.0,0.0,0.0,0.0,0.0,0.0
44124000,44044000,0.46254107,0.46261734,0.21401867,8.523524,8.524687,1.1265153,0.0,0.0,0.0,0.0,0.0,0.0,0.0,12.480446,0.0,0.0,nan,0.0,0.0,0.0,0.0,0.0,0.0,0.0,0.0,1.0066901,1.0066925,1.0000037,0.0,0.0,0.0,0.0,0.0,0.0
44620000,44540000,0.47857407,0.47863895,0.21460679,9.080416,9.0816555,1.126482,0.0,0.0,0.0,0.0,0.0,0.0,0.0,12.485181,0.0,0.0,nan,0.0,0.0,0.0,0.0,0.0,0.0,0.0,0.0,1.0066483,1.006651,1.0000036,0.0,0.0,0.0,0.0,0.0,0.0
45124000,45044000,0.4680026,0.46803412,0.21615706,8.967806,8.96878,1.1257266,0.0,0.0,0.0,0.0,0.0,0.0,0.0,12.487345,0.0,0.0,nan,0.0,0.0,0.0,0.0,0.0,0.0,0.0,0.0,1.0066153,1.0066184,1.0000036,0.0,0.0,0.0,0.0,0.0,0.0
45628000,45548000,0.46263257,0.4626501,0.2171619,8.907477,8.908316,1.1263927,0.0,0.0,0.0,0.0,0.0,0.0,0.0,12.479848,0.0,0.0,nan,0.0,0.0,0.0,0.0,0.0,0.0,0.0,0.0,1.0063806,1.0063839,1.0000033,0.0,0.0,0.0,0.0,0.0,0.0
46124000,46044000,0.4573134,0.45732293,0.21813203,8.845103,8.845813,1.1290668,0.0,0.0,0.0,0.0,0.0,0.0,0.0,12.48506,0.0,0.0,nan,0.0,0.0,0.0,0.0,0.0,0.0,0.0,0.0,1.0063518,1.0063556,1.0000032,0.0,0.0,0.0,0.0,0.0,0.0
46628000,46548000,0.45205325,0.4520557,0.21908857,8.781153,8.781742,1.1310331,0.0,0.0,0.0,0.0,0.0,0.0,0.0,12.470492,0.0,0.0,nan,0.0,0.0,0.0,0.0,0.0,0.0,0.0,0.0,1.0017968,1.0017985,1.0000011,0.0,0.0,0.0,0.0,0.0,0.0
47124000,47044000,0.09534057,0.095341384,0.21117577,1.0001833,1.0001833,1.0923964,0.0,0.0,0.0,0.0,0.0,0.0,0.0,12.44716,0.0,0.0,nan,0.0,0.0,0.0,0.0,0.0,0.0,0.0,0.0,1.0012187,1.0012194,1.0000007,0.0,0.0,0.0,0.0,0.0,0.0
47620000,47540000,0.0929892,0.092989385,0.20951878,1.0001441,1.0001441,1.0819833,0.0,0.0,0.0,0.0,0.0,0.0,0.0,12.436344,0.0,0.0,nan,0.0,0.0,0.0,0.0,0.0,0.0,0.0,0.0,1.0013633,1.0013638,1.0000008,0.0,0.0,0.0,0.0,0.0,0.0
48124000,48044000,0.09143979,0.091439806,0.20868613,1.0001068,1.0001068,1.0751842,0.0,0.0,0.0,0.0,0.0,0.0,0.0,12.432312,0.0,0.0,nan,0.0,0.0,0.0,0.0,0.0,0.0,0.0,0.0,1.0015122,1.0015126,1.0000007,0.0,0.0,0.0,0.0,0.0,0.0
48620000,48540000,0.09090194,0.090901956,0.20822093,1.0000846,1.0000846,1.0705974,0.0,0.0,0.0,0.0,0.0,0.0,0.0,12.428247,0.0,0.0,nan,0.0,0.0,0.0,0.0,0.0,0.0,0.0,0.0,1.001685,1.0016855,1.0000008,0.0,0.0,0.0,0.0,0.0,0.0
49124000,49044000,0.0906153,0.0906153,0.2077955,1.0000641,1.0000641,1.063432,0.0,0.0,0.0,0.0,0.0,0.0,0.0,12.425471,0.0,0.0,nan,0.0,0.0,0.0,0.0,0.0,0.0,0.0,0.0,1.0018632,1.0018638,1.0000008,0.0,0.0,0.0,0.0,0.0,0.0
