timestamp,timestamp_sample,time_last_fuse,device_id,observation,observation_variance,innovation,innovation_variance,test_ratio,estimator_instance,fusion_enabled,innovation_rejected,fused
3236000,3211000,0,0,1.6258839,0.0,-1.6258954,0.0,0.0,0,0,0,0
3364000,3282201,3284000,0,1.631736,0.0,-1.6318636,0.0,inf,0,0,1,0
3436000,3354950,3284000,0,1.635789,0.0,-0.0077581406,0.0,inf,0,0,1,0
3508000,3426015,3284000,0,1.618881,0.0,0.008686781,0.0,inf,0,0,1,0
3580000,3499124,3500000,0,1.6102576,0.0,0.016159534,0.10012668,0.0003857991,0,1,0,1
3652000,3570171,3572000,0,1.6290859,0.0,-0.0043011904,0.09912683,2.7608288e-05,0,1,0,1
3724000,3643269,3644000,0,1.6233332,0.0,0.0018650293,0.09835482,5.231534e-06,0,1,0,1
3796000,3713559,3716000,0,1.6245897,0.0,0.00043284893,0.097753905,2.8352537e-07,0,1,0,1
3868000,3787390,3788000,0,1.657965,0.0,-0.033013582,0.097285435,0.0016572608,0,1,0,1
3940000,3858395,3860000,0,1.6225791,0.0,0.004832506,0.096921846,3.5643185e-05,0,1,0,1
4012000,3931491,3932000,0,1.6135973,0.0,0.013441801,0.09664241,0.00027656712,0,1,0,1
4084000,4002839,4004000,0,1.6137799,0.0,0.012370586,0.096432306,0.00023475313,0,1,0,1
4156000,4075575,4076000,0,1.622275,0.0,0.003095746,0.0962788,1.4724934e-05,0,1,0,1
4228000,4145819,4148000,0,1.6265823,0.0,-0.0014424324,0.09617249,3.2003202e-06,0,1,0,1
4300000,4219646,4220000,0,1.6398764,0.0,-0.014757514,0.096104994,0.00033522298,0,1,0,1
4372000,4290610,4292000,0,1.6189271,0.0,0.0072102547,0.09606922,8.005166e-05,0,1,0,1
4444000,4363704,4364000,0,1.5831718,0.0,0.042500973,0.09605939,0.0027817062,0,1,0,1
4516000,4434657,4436000,0,1.6260601,0.0,-0.0031541586,0.09607014,1.5319054e-05,0,1,0,1
4588000,4507753,4508000,0,1.6199582,0.0,0.0030231476,0.096096896,1.4068983e-05,0,1,0,1
4660000,4577971,4580000,0,1.6247282,0.0,-0.0020090342,0.096135564,6.2107483e-06,0,1,0,1
4732000,4651794,4652000,0,1.6194628,0.0,0.0033881664,0.096182585,1.7655759e-05,0,1,0,1
4804000,4722006,4724000,0,1.612885,0.0,0.009786725,0.09623474,0.00014722998,0,1,0,1
4876000,4795828,4796000,0,1.6035646,0.0,0.01836288,0.09628936,0.00051803206,0,1,0,1
4948000,4866035,4868000,0,1.629563,0.0,-0.008918881,0.09634414,0.00012213743,0,1,0,1
5020000,4939857,4940000,0,1.6323947,0.0,-0.011365294,0.09639704,0.00019822162,0,1,0,1
5092000,5010059,5012000,0,1.6261864,0.0,-0.0045130253,0.09644662,3.1239342e-05,0,1,0,1
5164000,5083881,5084000,0,1.6056563,0.0,0.016208172,0.096491516,0.00040274695,0,1,0,1
5236000,5154079,5156000,0,1.6236634,0.0,-0.0030736923,0.096530676,1.4478007e-05,0,1,0,1
5308000,5227900,5228000,0,1.605572,0.0,0.015032649,0.09656354,0.00034618736,0,1,0,1
5380000,5299187,5300000,0,1.6167212,0.0,0.0026677847,0.09658956,1.0899956e-05,0,1,0,1
5452000,5371917,5372000,0,1.6213679,0.0,-0.0022791624,0.09660847,7.954057e-06,0,1,0,1
5524000,5442838,5444000,0,1.6109159,0.0,0.008125544,0.09662021,0.000101085825,0,1,0,1
5596000,5515931,5516000,0,1.6197816,0.0,-0.0014151335,0.09662482,3.0659105e-06,0,1,0,1
5668000,5587214,5588000,0,1.6248899,0.0,-0.0065774918,0.09662248,6.623626e-05,0,1,0,1
5740000,5659942,5660000,0,1.6401157,0.0,-0.02147603,0.09661348,0.0007061934,0,1,0,1
5812000,5730860,5732000,0,1.6280798,0.0,-0.008126974,0.09659813,0.00010114452,0,1,0,1
5884000,5803952,5804000,0,1.6282489,0.0,-0.007859945,0.09657685,9.462794e-05,0,1,0,1
5956000,5874504,5876000,0,1.6216084,0.0,-0.0007932186,0.09655005,9.640213e-07,0,1,0,1
6028000,5947960,5948000,0,1.6317614,0.0,-0.011009097,0.09651818,0.00018575804,0,1,0,1
6100000,6018147,6020000,0,1.6173695,0.0,0.004050374,0.096481666,2.515352e-05,0,1,0,1
6172000,6091967,6092000,0,1.5960094,0.0,0.025113702,0.096440986,0.00096741575,0,1,0,1
6244000,6162153,6164000,0,1.6277677,0.0,-0.008363605,0.09639657,0.00010734423,0,1,0,1
6316000,6235972,6236000,0,1.6177838,0.0,0.0020399094,0.09634884,6.388937e-06,0,1,0,1
6388000,6307249,6308000,0,1.6207454,0.0,-0.0012431145,0.096298195,2.3738728e-06,0,1,0,1
6460000,6379977,6380000,0,1.6352935,0.0,-0.01572597,0.096245006,0.00038011064,0,1,0,1
6532000,6451252,6452000,0,1.619585,0.0,0.00096821785,0.09618965,1.4416876e-06,0,1,0,1
6604000,6523981,6524000,0,1.5826572,0.0,0.03775537,0.09613246,0.002193516,0,1,0,1
6676000,6594893,6596000,0,1.6237751,0.0,-0.0059416294,0.0960737,5.435756e-05,0,1,0,1
6748000,6667984,6668000,0,1.5955701,0.0,0.022513509,0.09601371,0.0007809198,0,1,0,1
6820000,6739259,6740000,0,1.6252301,0.0,-0.0086660385,0.09595272,0.000115781,0,1,0,1
6892000,6811987,6812000,0,1.6342953,0.0,-0.017342448,0.09589092,0.00046397725,0,1,0,1
6964000,6883989,6884000,0,1.6242259,0.0,-0.0063233376,0.0958286,6.172356e-05,0,1,0,1
7036000,6951989,6956000,0,1.6341225,0.0,-0.016014218,0.0957659,0.00039614478,0,1,0,1
7100000,7019591,7020000,0,1.6154704,0.0,0.003579259,0.09567091,1.980887e-05,0,1,0,1
7172000,7087991,7092000,0,1.6095623,0.0,0.009126425,0.095610686,0.00012886894,0,1,0,1
7244000,7158901,7164000,0,1.6157522,0.0,0.0022708178,0.095550336,7.98336e-06,0,1,0,1
7316000,7231992,7236000,0,1.663471,0.0,-0.045826793,0.09548997,0.0032533777,0,1,0,1
7388000,7303266,7308000,0,1.6271048,0.0,-0.006906748,0.095429726,7.394637e-05,0,1,0,1
7460000,7375994,7380000,0,1.6175897,0.0,0.0029193163,0.09536973,1.3219198e-05,0,1,0,1
7532000,7446176,7452000,0,1.6191114,0.0,0.0012054443,0.095309965,2.2553263e-06,0,1,0,1
7596000,7515995,7516000,0,1.6305094,0.0,-0.010298133,0.09522404,0.00016474936,0,1,0,1
7668000,7585196,7588000,0,1.627513,0.0,-0.006820321,0.095167354,7.230611e-05,0,1,0,1
7732000,7651996,7652000,0,1.6094605,0.0,0.011446118,0.09508573,0.0002038236,0,1,0,1
7804000,7722541,7724000,0,1.608647,0.0,0.011511326,0.09503184,0.00020626945,0,1,0,1
7876000,7795997,7796000,0,1.6092039,0.0,0.01027596,0.0949783,0.0001644651,0,1,0,1
7948000,7866178,7868000,0,1.6257526,0.0,-0.006865859,0.09492515,7.3461844e-05,0,1,0,1
8020000,7939997,7940000,0,1.6316618,0.0,-0.012504697,0.09487247,0.00024381447,0,1,0,1
8092000,8010907,8012000,0,1.617288,0.0,0.002381444,0.094820276,8.847751e-06,0,1,0,1
8164000,8083998,8084000,0,1.620685,0.0,-0.0012292862,0.094768636,2.3588195e-06,0,1,0,1
8236000,8154543,8156000,0,1.6178372,0.0,0.0015745163,0.09471756,3.8718376e-06,0,1,0,1
8308000,8227998,8228000,0,1.6177021,0.0,0.0015197992,0.09466708,3.609332e-06,0,1,0,1
8380000,8299271,8300000,0,1.6373644,0.0,-0.018297315,0.094617195,0.00052342925,0,1,0,1
8452000,8371999,8372000,0,1.6009343,0.0,0.018916965,0.09456797,0.0005597733,0,1,0,1
8524000,8443271,8444000,0,1.6237224,0.0,-0.0048162937,0.094519384,3.630433e-05,0,1,0,1
8596000,8515999,8516000,0,1.6132636,0.0,0.005717516,0.09447147,5.118792e-05,0,1,0,1
8668000,8586908,8588000,0,1.625006,0.0,-0.0063351393,0.09442423,6.287561e-05,0,1,0,1
8740000,8659999,8660000,0,1.6052732,0.0,0.013650179,0.09437767,0.0002920524,0,1,0,1
8812000,8730908,8732000,0,1.6276313,0.0,-0.009384513,0.094331786,0.00013810798,0,1,0,1
8884000,8803999,8804000,0,1.6140213,0.0,0.0045553446,0.0942866,3.255711e-05,0,1,0,1
8956000,8875272,8876000,0,1.6198287,0.0,-0.0015333891,0.09424208,3.6907381e-06,0,1,0,1
9028000,8948000,8948000,0,1.6222157,0.0,-0.003955126,0.09419824,2.4565814e-05,0,1,0,1
9100000,9020000,9020000,0,1.628695,0.0,-0.010328174,0.09415509,0.00016759329,0,1,0,1
9172000,9092000,9092000,0,1.6364145,0.0,-0.017623901,0.09411261,0.00048821332,0,1,0,1
9244000,9162909,9164000,0,1.6247848,0.0,-0.005298853,0.0940708,4.4153203e-05,0,1,0,1
9316000,9236000,9236000,0,1.6109201,0.0,0.008748174,0.09402966,0.00012039911,0,1,0,1
9388000,9307272,9308000,0,1.6223791,0.0,-0.0031656027,0.093989186,1.5772053e-05,0,1,0,1
9460000,9380000,9380000,0,1.6211364,0.0,-0.0018260479,0.09394936,5.2502965e-06,0,1,0,1
9532000,9449818,9452000,0,1.6286706,0.0,-0.009276032,0.09391017,0.0001355393,0,1,0,1
9604000,9524000,9524000,0,1.585684,0.0,0.034166694,0.09387162,0.0018396064,0,1,0,1
9676000,9595636,9596000,0,1.6336541,0.0,-0.015277028,0.093833715,0.00036793592,0,1,0,1
9748000,9668000,9668000,0,1.656281,0.0,-0.03736317,0.09379641,0.002201682,0,1,0,1
9820000,9738909,9740000,0,1.6191219,0.0,0.0013108253,0.09375971,2.7109827e-06,0,1,0,1
9892000,9812000,9812000,0,1.5983334,0.0,0.0220083,0.09372361,0.0007644997,0,1,0,1
9964000,9883272,9884000,0,1.626664,0.0,-0.0072922707,0.09368811,8.396426e-05,0,1,0,1
10036000,9956000,9956000,0,1.6005118,0.0,0.019128442,0.09365318,0.0005779496,0,1,0,1
10108000,10026909,10028000,0,1.6240768,0.0,-0.005269766,0.09361884,4.388062e-05,0,1,0,1
10180000,10100000,10100000,0,1.63461,0.0,-0.015589595,0.09358505,0.00038416387,0,1,0,1
10252000,10170545,10172000,0,1.6210043,0.0,-0.0014795065,0.09355181,3.4612656e-06,0,1,0,1
10324000,10244000,10244000,0,1.6165172,0.0,0.0029575825,0.0935191,1.3836518e-05,0,1,0,1
10396000,10314181,10316000,0,1.6218791,0.0,-0.0025345087,0.093486935,1.0164593e-05,0,1,0,1
10468000,10388000,10388000,0,1.6159381,0.0,0.0034235716,0.093455285,1.8552751e-05,0,1,0,1
10540000,10459636,10460000,0,1.6149129,0.0,0.004221678,0.09342415,2.822048e-05,0,1,0,1
10612000,10532000,10532000,0,1.6343689,0.0,-0.015405297,0.09339351,0.00037590388,0,1,0,1
10684000,10602545,10604000,0,1.6233552,0.0,-0.0038247108,0.09336337,2.3177898e-05,0,1,0,1
10756000,10676000,10676000,0,1.6276116,0.0,-0.008020759,0.0933337,0.00010196374,0,1,0,1
10828000,10745454,10748000,0,1.6252434,0.0,-0.0054478645,0.0933045,4.7054735e-05,0,1,0,1
10900000,10820000,10820000,0,1.5986971,0.0,0.02123022,0.093275785,0.00071481464,0,1,0,1
10972000,10891272,10892000,0,1.6262615,0.0,-0.007037282,0.09324751,7.856444e-05,0,1,0,1
11044000,10964000,10964000,0,1.6297029,0.0,-0.010222673,0.09321968,0.00016583443,0,1,0,1
11116000,11034545,11036000,0,1.6238779,0.0,-0.0040966272,0.09319227,2.6639518e-05,0,1,0,1
11188000,11108000,11108000,0,1.6384804,0.0,-0.018633008,0.093165316,0.00055127084,0,1,0,1
11260000,11178181,11180000,0,1.6222551,0.0,-0.0017601252,0.09313876,4.9205087e-06,0,1,0,1
11332000,11252000,11252000,0,1.6079713,0.0,0.012544274,0.093112625,0.00024999763,0,1,0,1
11404000,11322909,11324000,0,1.6243048,0.0,-0.0043172836,0.0930869,2.9620058e-05,0,1,0,1
11476000,11396000,11396000,0,1.6124165,0.0,0.0077325106,0.09306157,9.504385e-05,0,1,0,1
11548000,11466909,11468000,0,1.616617,0.0,0.0032750368,0.09303661,1.705422e-05,0,1,0,1
11620000,11540000,11540000,0,1.6496944,0.0,-0.029874325,0.093012035,0.0014194184,0,1,0,1
11692000,11610545,11612000,0,1.6239921,0.0,-0.0032135248,0.092987835,1.6428221e-05,0,1,0,1
11764000,11684000,11684000,0,1.5987477,0.0,0.022096872,0.092964,0.00077696267,0,1,0,1
11836000,11755272,11756000,0,1.6311713,0.0,-0.011021733,0.092940524,0.0001933517,0,1,0,1
11908000,11828000,11828000,0,1.5984235,0.0,0.022024512,0.092917375,0.00077226973,0,1,0,1
11980000,11898909,11900000,0,1.6209632,0.0,-0.0012871027,0.0928946,2.638088e-06,0,1,0,1
12052000,11972000,11972000,0,1.6297059,0.0,-0.010010958,0.09287214,0.0001596317,0,1,0,1
12124000,12042545,12044000,0,1.6182971,0.0,0.001650691,0.092850015,4.3411314e-06,0,1,0,1
12196000,12116000,12116000,0,1.6442851,0.0,-0.02445662,0.092828214,0.0009531609,0,1,0,1
12268000,12186545,12188000,0,1.6258117,0.0,-0.005162835,0.09280673,4.248645e-05,0,1,0,1
12340000,12260000,12260000,0,1.6220967,0.0,-0.0013129711,0.09278554,2.7484218e-06,0,1,0,1
12412000,12331272,12332000,0,1.6163156,0.0,0.0044420958,0.09276467,3.1466367e-05,0,1,0,1
12484000,12404000,12404000,0,1.6478043,0.0,-0.027185082,0.09274409,0.0011787682,0,1,0,1
12556000,12475272,12476000,0,1.6199108,0.0,0.001590848,0.09272381,4.0375644e-06,0,1,0,1
12628000,12548000,12548000,0,1.6079378,0.0,0.013471246,0.09270382,0.00028958177,0,1,0,1
12700000,12618909,12620000,0,1.6150017,0.0,0.0060817003,0.092684105,5.9033446e-05,0,1,0,1
12772000,12692000,12692000,0,1.5999004,0.0,0.02103126,0.09266465,0.0007061059,0,1,0,1
12844000,12762545,12764000,0,1.6204805,0.0,-0.00024080276,0.09264548,9.258743e-08,0,1,0,1
12916000,12836000,12836000,0,1.6057453,0.0,0.014444828,0.09262657,0.0003332288,0,1,0,1
12988000,12908000,12908000,0,1.6253674,0.0,-0.005539298,0.09260793,4.901338e-05,0,1,0,1
13060000,12980000,12980000,0,1.6384146,0.0,-0.018484354,0.09258954,0.00054588355,0,1,0,1
13132000,13050545,13052000,0,1.6282207,0.0,-0.007815242,0.092571385,9.760261e-05,0,1,0,1
13204000,13124000,13124000,0,1.6090958,0.0,0.011505485,0.09255349,0.00021157796,0,1,0,1
13276000,13196000,13196000,0,1.6144357,0.0,0.005828023,0.09253583,5.429826e-05,0,1,0,1
13348000,13268000,13268000,0,1.6113706,0.0,0.008764029,0.092518404,0.00012280974,0,1,0,1
13420000,13339636,13340000,0,1.6284056,0.0,-0.0085065365,0.092501216,0.00011572081,0,1,0,1
13492000,13412000,13412000,0,1.6084844,0.0,0.011608601,0.09248425,0.00021554866,0,1,0,1
13564000,13482545,13484000,0,1.6170046,0.0,0.0027805567,0.092467494,1.2368806e-05,0,1,0,1
13636000,13556000,13556000,0,1.6499995,0.0,-0.03037393,0.09245097,0.0014761955,0,1,0,1
13708000,13625818,13628000,0,1.6219932,0.0,-0.0015087128,0.09243466,3.642769e-06,0,1,0,1
13780000,13700000,13700000,0,1.6438965,0.0,-0.02333963,0.09241856,0.00087193097,0,1,0,1
13852000,13770545,13772000,0,1.6239157,0.0,-0.0027685165,0.09240266,1.2270525e-05,0,1,0,1
13924000,13844000,13844000,0,1.6027457,0.0,0.018504262,0.09238696,0.00054825953,0,1,0,1
13996000,13914545,13916000,0,1.6209252,0.0,-0.00022864342,0.09237148,8.37207e-08,0,1,0,1
14068000,13988000,13988000,0,1.5896357,0.0,0.031001091,0.09235618,0.001539364,0,1,0,1
14140000,14059272,14060000,0,1.6145267,0.0,0.0053516626,0.09234109,4.5881312e-05,0,1,0,1
14212000,14132000,14132000,0,1.6025598,0.0,0.017244935,0.09232617,0.00047648765,0,1,0,1
14284000,14202545,14204000,0,1.6170032,0.0,0.0023816824,0.09231144,9.090034e-06,0,1,0,1
14356000,14276000,14276000,0,1.588112,0.0,0.031172276,0.09229689,0.0015574112,0,1,0,1
14428000,14346909,14348000,0,1.6208253,0.0,-0.0024178028,0.09228253,9.370777e-06,0,1,0,1
14500000,14420000,14420000,0,1.6290941,0.0,-0.0106858015,0.09226834,0.00018306902,0,1,0,1
14572000,14490909,14492000,0,1.6182657,0.0,0.00036036968,0.09225431,2.0823954e-07,0,1,0,1
14644000,14564000,14564000,0,1.6254419,0.0,-0.006921768,0.09224046,7.6836215e-05,0,1,0,1
14716000,14636000,14636000,0,1.6191374,0.0,-0.0004502535,0.09222677,3.2517005e-07,0,1,0,1
14788000,14708000,14708000,0,1.6252476,0.0,-0.006565571,0.09221324,6.915205e-05,0,1,0,1
14860000,14778545,14780000,0,1.6199446,0.0,-0.0010806322,0.092199884,1.8736082e-06,0,1,0,1
14932000,14852000,14852000,0,1.5808263,0.0,0.038077712,0.09218668,0.0023266277,0,1,0,1
15004000,14922909,14924000,0,1.6111956,0.0,0.0068068504,0.092173636,7.4359945e-05,0,1,0,1
15076000,14996000,14996000,0,1.6249964,0.0,-0.0072233677,0.092160754,8.3750376e-05,0,1,0,1
15148000,15066909,15068000,0,1.6264604,0.0,-0.008540392,0.092148,0.00011709088,0,1,0,1
15220000,15140000,15140000,0,1.6073055,0.0,0.010800958,0.0921354,0.00018730586,0,1,0,1
15292000,15210909,15212000,0,1.6171302,0.0,0.0007305145,0.09212296,8.5692574e-07,0,1,0,1
15364000,15284000,15284000,0,1.6300081,0.0,-0.012200475,0.09211064,0.00023905456,0,1,0,1
15436000,15354181,15356000,0,1.6113054,0.0,0.006688714,0.092098475,7.185983e-05,0,1,0,1
15508000,15428000,15428000,0,1.6233195,0.0,-0.00552547,0.092086434,4.9045157e-05,0,1,0,1
15580000,15498545,15500000,0,1.6069905,0.0,0.010953546,0.09207454,0.0001927628,0,1,0,1
15652000,15572000,15572000,0,1.633345,0.0,-0.015652537,0.09206278,0.00039367584,0,1,0,1
15724000,15643636,15644000,0,1.6099411,0.0,0.008129835,0.092051156,0.00010621542,0,1,0,1
15796000,15716000,15716000,0,1.604237,0.0,0.01363802,0.09203965,0.00029893793,0,1,0,1
15868000,15788000,15788000,0,1.6146535,0.0,0.0029224157,0.09202829,1.3728275e-05,0,1,0,1
15940000,15860000,15860000,0,1.639834,0.0,-0.022289991,0.092017025,0.00079873914,0,1,0,1
16012000,15932000,15932000,0,1.6164836,0.0,0.0015144348,0.0920059,3.6875579e-06,0,1,0,1
16084000,16004000,16004000,0,1.5858843,0.0,0.032090902,0.091994904,0.0016559737,0,1,0,1
16156000,16074545,16076000,0,1.6118695,0.0,0.005371332,0.09198401,4.6398614e-05,0,1,0,1
16228000,16148000,16148000,0,1.5870173,0.0,0.030062437,0.091973245,0.0014535842,0,1,0,1
16300000,16218545,16220000,0,1.6118003,0.0,0.004574418,0.0919626,3.365998e-05,0,1,0,1
16372000,16292000,16292000,0,1.586699,0.0,0.029549956,0.09195205,0.0014047712,0,1,0,1
16444000,16362181,16364000,0,1.6138347,0.0,0.0016666651,0.09194162,4.4692833e-06,0,1,0,1
16516000,16436000,16436000,0,1.606852,0.0,0.008629322,0.091931306,0.00011982385,0,1,0,1
16588000,16506545,16508000,0,1.6178488,0.0,-0.002592206,0.091921106,1.081377e-05,0,1,0,1
16660000,16580000,16580000,0,1.6202192,0.0,-0.004916191,0.091911,3.8899438e-05,0,1,0,1
16732000,16650545,16652000,0,1.6192901,0.0,-0.0039207935,0.09190099,2.4744637e-05,0,1,0,1
16804000,16724000,16724000,0,1.6290642,0.0,-0.013650775,0.0918911,0.0002999815,0,1,0,1
16876000,16795272,16796000,0,1.6132159,0.0,0.0024359226,0.09188131,9.553294e-06,0,1,0,1
16948000,16868000,16868000,0,1.632708,0.0,-0.017121553,0.09187162,0.00047201774,0,1,0,1
17020000,16938545,16940000,0,1.6102961,0.0,0.0056226254,0.09186203,5.0909122e-05,0,1,0,1
17092000,17012000,17012000,0,1.6297872,0.0,-0.013961077,0.09185254,0.0003139063,0,1,0,1
17164000,17083636,17084000,0,1.6186754,0.0,-0.0025758743,0.09184313,1.0687005e-05,0,1,0,1
17236000,17156000,17156000,0,1.60128,0.0,0.014866829,0.09183383,0.00035603062,0,1,0,1
17308000,17226545,17228000,0,1.6152455,0.0,0.0006175041,0.09182462,6.142907e-07,0,1,0,1
17380000,17300000,17300000,0,1.5963647,0.0,0.019440413,0.0918155,0.0006089033,0,1,0,1
17452000,17369818,17372000,0,1.6218078,0.0,-0.0064516068,0.09180648,6.706807e-05,0,1,0,1
17524000,17444000,17444000,0,1.6093717,0.0,0.0061178207,0.09179752,6.0313687e-05,0,1,0,1
17596000,17514545,17516000,0,1.6159296,0.0,-0.0006084442,0.09178867,5.96631e-07,0,1,0,1
17668000,17588000,17588000,0,1.6085132,0.0,0.0067750216,0.09177991,7.398217e-05,0,1,0,1
17740000,17658545,17660000,0,1.6171337,0.0,-0.0021277666,0.09177123,7.297848e-06,0,1,0,1
17812000,17732000,17732000,0,1.6152112,0.0,-0.00019276142,0.09176264,5.990012e-08,0,1,0,1
17884000,17802909,17804000,0,1.6191907,0.0,-0.004211068,0.09175413,2.8589875e-05,0,1,0,1
17956000,17876000,17876000,0,1.5908148,0.0,0.024247527,0.09174569,0.00094798737,0,1,0,1
18028000,17946545,17948000,0,1.6210625,0.0,-0.006380081,0.09173736,6.563863e-05,0,1,0,1
18100000,18020000,18020000,0,1.6030906,0.0,0.012053847,0.0917292,0.0002343134,0,1,0,1
18172000,18090545,18092000,0,1.6279368,0.0,-0.011711121,0.09172104,0.00022119805,0,1,0,1
18244000,18164000,18164000,0,1.6196924,0.0,-0.00045979023,0.09171299,3.4099025e-07,0,1,0,1
18316000,18234545,18236000,0,1.6225667,0.0,-0.0011637211,0.09170531,2.1845233e-06,0,1,0,1
18388000,18308000,18308000,0,1.611572,0.0,0.008966923,0.09169827,0.00012971168,0,1,0,1
18460000,18378909,18380000,0,1.6149192,0.0,0.005873561,0.09168989,5.565893e-05,0,1,0,1
18532000,18452000,18452000,0,1.6032388,0.0,0.017845392,0.09168148,0.0005138353,0,1,0,1
18604000,18522909,18524000,0,1.6247786,0.0,-0.0039681196,0.09167334,2.5408544e-05,0,1,0,1
18676000,18596000,18596000,0,1.5840578,0.0,0.036739707,0.09166546,0.0021783065,0,1,0,1
18748000,18666909,18668000,0,1.6213793,0.0,-0.0015022755,0.09165666,3.6424067e-06,0,1,0,1
18820000,18740000,18740000,0,1.6088945,0.0,0.010779142,0.09164911,0.00018753983,0,1,0,1
18892000,18810909,18812000,0,1.6220421,0.0,-0.0024473667,0.0916419,9.668461e-06,0,1,0,1
18964000,18884000,18884000,0,1.6328413,0.0,-0.013404846,0.09163454,0.00029008,0,1,0,1
19036000,18955272,18956000,0,1.619831,0.0,-0.00041520596,0.091627255,2.783273e-07,0,1,0,1
19108000,19028000,19028000,0,1.6114296,0.0,0.007703781,0.091619834,9.582343e-05,0,1,0,1
19180000,19098545,19100000,0,1.6181538,0.0,0.0007375479,0.09161269,8.783713e-07,0,1,0,1
19252000,19172000,19172000,0,1.613353,0.0,0.0053561926,0.0916056,4.6328012e-05,0,1,0,1
19324000,19243636,19244000,0,1.6160941,0.0,0.002282858,0.09159858,8.416323e-06,0,1,0,1
19396000,19316000,19316000,0,1.609829,0.0,0.008278966,0.09159161,0.00011070056,0,1,0,1
19468000,19387636,19388000,0,1.6190583,0.0,-0.0013473034,0.09158469,2.9319817e-06,0,1,0,1
19540000,19460000,19460000,0,1.6094055,0.0,0.008158326,0.0915777,0.000107514184,0,1,0,1
19612000,19531272,19532000,0,1.6251234,0.0,-0.007777214,0.09157091,9.7711105e-05,0,1,0,1
19684000,19604000,19604000,0,1.6234393,0.0,-0.0061136484,0.091564156,6.038496e-05,0,1,0,1
19756000,19674545,19676000,0,1.6157684,0.0,0.0014885664,0.091557465,3.5801072e-06,0,1,0,1
19828000,19748000,19748000,0,1.6051918,0.0,0.011909008,0.09155082,0.00022916184,0,1,0,1
19900000,19818909,19820000,0,1.6221823,0.0,-0.0054371357,0.09154425,4.7770816e-05,0,1,0,1
19972000,19892000,19892000,0,1.6012214,0.0,0.015465617,0.091537006,0.00038653708,0,1,0,1
20044000,19962909,19964000,0,1.6257906,0.0,-0.009477496,0.09153055,0.00014516922,0,1,0,1
20116000,20036000,20036000,0,1.6245308,0.0,-0.008149862,0.09152414,0.000107354,0,1,0,1
20188000,20107636,20108000,0,1.6248436,0.0,-0.008460522,0.09151779,0.00011570233,0,1,0,1
20260000,20180000,20180000,0,1.5991476,0.0,0.017243743,0.091511495,0.0004806631,0,1,0,1
20332000,20250181,20252000,0,1.6158831,0.0,0.00012850761,0.09150408,2.6697501e-08,0,1,0,1
20404000,20324000,20324000,0,1.6175348,0.0,-0.0016566515,0.09149791,4.437154e-06,0,1,0,1
20476000,20394909,20396000,0,1.6132863,0.0,0.0024867058,0.091491796,9.998157e-06,0,1,0,1
20548000,20464000,20468000,0,1.6238027,0.0,-0.008157611,0.091485724,0.000107603395,0,1,0,1
20620000,20533600,20540000,0,1.6281217,0.0,-0.012468576,0.091479704,0.0002513983,0,1,0,1
20684000,20604000,20604000,0,1.6170803,0.0,-0.0012431145,0.09147175,2.4991286e-06,0,1,0,1
20764000,20676400,20684000,0,1.6251292,0.0,-0.009334207,0.091466755,0.00014091098,0,1,0,1
20828000,20744000,20748000,0,1.6168132,0.0,-0.0009752512,0.09145894,1.5383678e-06,0,1,0,1
20900000,20814909,20820000,0,1.6124431,0.0,-0.0017914772,0.10145317,4.6796167e-06,0,1,0,1
20972000,20888000,20892000,0,1.655552,0.0,-0.044776678,0.100160405,0.0029611543,0,1,0,1
21044000,20959272,20964000,0,1.6116511,0.0,0.003527999,0.099130005,1.8573986e-05,0,1,0,1
21108000,21028000,21028000,0,1.6113636,0.0,0.0034840107,0.09828948,1.82686e-05,0,1,0,1
21180000,21096800,21100000,0,1.6147388,0.0,-0.00023317337,0.0975909,8.241418e-08,0,1,0,1
21244000,21164000,21164000,0,1.6340868,0.0,-0.019596696,0.09700103,0.00058565615,0,1,0,1
21316000,21234545,21236000,0,1.620897,0.0,-0.0051498413,0.09649643,4.0656483e-05,0,1,0,1
21388000,21308000,21308000,0,1.617448,0.0,-0.0014126301,0.09605989,3.0730396e-06,0,1,0,1
21460000,21378909,21380000,0,1.6184206,0.0,-0.0023655891,0.095678516,8.65202e-06,0,1,0,1
21532000,21452000,21452000,0,1.583346,0.0,0.032754898,0.095342495,0.0016646362,0,1,0,1
21604000,21523272,21524000,0,1.6203352,0.0,-0.0061320066,0.09504424,5.8523838e-05,0,1,0,1
21676000,21596000,21596000,0,1.6119367,0.0,0.0025417805,0.094777696,1.0083778e-05,0,1,0,1
21748000,21667272,21668000,0,1.6226579,0.0,-0.008341312,0.09453813,0.00010887173,0,1,0,1
21820000,21740000,21740000,0,1.6226666,0.0,-0.007994771,0.09432163,0.000100243014,0,1,0,1
21892000,21810545,21812000,0,1.6212817,0.0,-0.0062983036,0.09412504,6.23441e-05,0,1,0,1
21964000,21884000,21884000,0,1.6526793,0.0,-0.037450314,0.09394571,0.0022084485,0,1,0,1
22036000,21955636,21956000,0,1.6202611,0.0,-0.0034307241,0.09378156,1.8565535e-05,0,1,0,1
22108000,22028000,22028000,0,1.6269794,0.0,-0.009995103,0.09363075,0.0001578372,0,1,0,1
22180000,22099636,22100000,0,1.6121998,0.0,0.0050036907,0.0934917,3.961514e-05,0,1,0,1
22252000,22172000,22172000,0,1.6031584,0.0,0.013652563,0.09336313,0.00029532917,0,1,0,1
22324000,22242181,22244000,0,1.6256477,0.0,-0.0098564625,0.09324399,0.00015412556,0,1,0,1
22396000,22316000,22316000,0,1.6088067,0.0,0.006910801,0.09313311,7.5858814e-05,0,1,0,1
22468000,22386181,22388000,0,1.6123859,0.0,0.0027548075,0.09302976,1.2067408e-05,0,1,0,1
22540000,22460000,22460000,0,1.6036582,0.0,0.011137605,0.09293323,0.000197454,0,1,0,1
22612000,22530909,22532000,0,1.6167955,0.0,-0.0025789738,0.092842855,1.0597385e-05,0,1,0,1
22684000,22604000,22604000,0,1.6099949,0.0,0.0043387413,0.092758015,3.0021292e-05,0,1,0,1
22756000,22674545,22676000,0,1.6130513,0.0,0.0010695457,0.092678346,1.8258866e-06,0,1,0,1
22828000,22748000,22748000,0,1.6424587,0.0,-0.028327465,0.092603385,0.0012818639,0,1,0,1
22900000,22818545,22820000,0,1.6227206,0.0,-0.007864118,0.0925327,9.8868535e-05,0,1,0,1
22972000,22892000,22892000,0,1.6055608,0.0,0.009506702,0.09246595,0.00014458768,0,1,0,1
23044000,22964000,22964000,0,1.6241027,0.0,-0.00927794,0.092402846,0.00013780694,0,1,0,1
23116000,23036000,23036000,0,1.6051402,0.0,0.010011196,0.09234306,0.00016055396,0,1,0,1
23188000,23107272,23108000,0,1.6244084,0.0,-0.009440064,0.09228641,0.00014284515,0,1,0,1
23260000,23180000,23180000,0,1.6395366,0.0,-0.024376988,0.09223264,0.0009530789,0,1,0,1
23332000,23250545,23252000,0,1.615964,0.0,-0.00026357174,0.09218153,1.11482606e-07,0,1,0,1
23404000,23324000,23324000,0,1.6378955,0.0,-0.022218823,0.09213292,0.00079264847,0,1,0,1
23476000,23395636,23396000,0,1.623573,0.0,-0.00741601,0.09208662,8.834814e-05,0,1,0,1
23548000,23468000,23468000,0,1.6307988,0.0,-0.014555335,0.09204244,0.00034049415,0,1,0,1
23620000,23539272,23540000,0,1.6294348,0.0,-0.01302433,0.09200034,0.00027275624,0,1,0,1
23692000,23612000,23612000,0,1.6473986,0.0,-0.030880332,0.091960154,0.0015339726,0,1,0,1
23764000,23682545,23684000,0,1.6229353,0.0,-0.005948305,0.09192174,5.6940542e-05,0,1,0,1
23836000,23756000,23756000,0,1.6083921,0.0,0.0084757805,0.091885,0.00011565598,0,1,0,1
23908000,23825818,23828000,0,1.6154408,0.0,0.0008903742,0.091849834,1.2767919e-06,0,1,0,1
23980000,23900000,23900000,0,1.6286014,0.0,-0.012575507,0.091816165,0.00025479164,0,1,0,1
24052000,23970181,23972000,0,1.6151984,0.0,0.00077962875,0.0917839,9.79631e-07,0,1,0,1
24124000,24044000,24044000,0,1.6473197,0.0,-0.031657696,0.09175295,0.0016158161,0,1,0,1
24196000,24114181,24116000,0,1.6179414,0.0,-0.001881361,0.09172325,5.70845e-06,0,1,0,1
24268000,24188000,24188000,0,1.580646,0.0,0.03523469,0.09169475,0.0020028565,0,1,0,1
24340000,24258181,24260000,0,1.6149817,0.0,6.353855e-05,0.09166736,6.5149823e-09,0,1,0,1
24412000,24332000,24332000,0,1.6008382,0.0,0.014083505,0.09164103,0.00032017313,0,1,0,1
24484000,24404000,24404000,0,1.6082301,0.0,0.0062515736,0.09161573,6.3104744e-05,0,1,0,1
24556000,24476000,24476000,0,1.6010087,0.0,0.013216376,0.091591366,0.00028211335,0,1,0,1
24628000,24548000,24548000,0,1.6122179,0.0,0.0014101267,0.09156805,3.2123708e-06,0,1,0,1
24700000,24620000,24620000,0,1.5933615,0.0,0.020272493,0.09154549,0.00066409574,0,1,0,1
24772000,24690909,24692000,0,1.6140877,0.0,-0.0007894039,0.09152375,1.0072055e-06,0,1,0,1
24844000,24764000,24764000,0,1.6111795,0.0,0.0022195578,0.0915028,7.964378e-06,0,1,0,1
24916000,24834909,24836000,0,1.6098002,0.0,0.0037101507,0.0914826,2.2258606e-05,0,1,0,1
24988000,24908000,24908000,0,1.6256596,0.0,-0.012022018,0.09146313,0.0002337556,0,1,0,1
25060000,24979272,24980000,0,1.6151301,0.0,-0.0011838675,0.09144434,2.2672668e-06,0,1,0,1
25132000,25052000,25052000,0,1.5972104,0.0,0.01688981,0.0914262,0.00046156434,0,1,0,1
25204000,25122545,25124000,0,1.6136829,0.0,0.000218153,0.0914087,7.701728e-08,0,1,0,1
25276000,25196000,25196000,0,1.6302702,0.0,-0.016261697,0.091391824,0.0004280335,0,1,0,1
25348000,25266909,25268000,0,1.608387,0.0,0.006007433,0.091375515,5.8425358e-05,0,1,0,1
25420000,25340000,25340000,0,1.623196,0.0,-0.008792162,0.09135976,0.00012516697,0,1,0,1
25492000,25411272,25412000,0,1.6202817,0.0,-0.005658388,0.091344535,5.1850897e-05,0,1,0,1
25564000,25484000,25484000,0,1.618967,0.0,-0.004232049,0.09132981,2.900963e-05,0,1,0,1
25636000,25554909,25556000,0,1.6184638,0.0,-0.0037009716,0.09131559,2.2189113e-05,0,1,0,1
25708000,25628000,25628000,0,1.6087503,0.0,0.0060145855,0.091301866,5.8611808e-05,0,1,0,1
25780000,25698545,25700000,0,1.6131546,0.0,0.0014642477,0.091288574,3.47429e-06,0,1,0,1
25852000,25772000,25772000,0,1.6339393,0.0,-0.019044042,0.09127567,0.00058778236,0,1,0,1
25924000,25842909,25844000,0,1.6207013,0.0,-0.0056095123,0.09126323,5.1004412e-05,0,1,0,1
25996000,25916000,25916000,0,1.624566,0.0,-0.0094896555,0.09125122,0.00014598746,0,1,0,1
26068000,25987272,25988000,0,1.6210808,0.0,-0.0060055256,0.091239594,5.8475245e-05,0,1,0,1
26140000,26060000,26060000,0,1.6067562,0.0,0.008387208,0.09122835,0.00011406657,0,1,0,1
26212000,26130909,26132000,0,1.6130382,0.0,0.0019956827,0.091217466,6.4588967e-06,0,1,0,1
26284000,26204000,26204000,0,1.6413563,0.0,-0.026333213,0.09120694,0.0011246909,0,1,0,1
26356000,26274909,26276000,0,1.6186546,0.0,-0.0033187866,0.09119673,1.7866223e-05,0,1,0,1
26428000,26348000,26348000,0,1.6083777,0.0,0.00688231,0.09118687,7.684038e-05,0,1,0,1
26500000,26418181,26420000,0,1.6157751,0.0,-0.0006855726,0.09117733,7.625589e-07,0,1,0,1
26572000,26492000,26492000,0,1.588961,0.0,0.026075006,0.09116808,0.0011032129,0,1,0,1
26644000,26563272,26564000,0,1.6150491,0.0,-0.00038933754,0.09115915,2.459833e-07,0,1,0,1
26716000,26636000,26636000,0,1.5954009,0.0,0.019100308,0.0911505,0.0005920727,0,1,0,1
26788000,26706181,26708000,0,1.6160438,0.0,-0.0020873547,0.0911422,7.0717406e-06,0,1,0,1
26860000,26780000,26780000,0,1.6076702,0.0,0.0063790083,0.091134086,6.605092e-05,0,1,0,1
26932000,26851272,26852000,0,1.622309,0.0,-0.008018613,0.09112615,0.00010437797,0,1,0,1
27004000,26924000,26924000,0,1.6169679,0.0,-0.002537489,0.09111857,1.0453333e-05,0,1,0,1
27076000,26995636,26996000,0,1.6221217,0.0,-0.007604003,0.091111206,9.3878494e-05,0,1,0,1
27148000,27068000,27068000,0,1.615233,0.0,-0.00060868263,0.09110409,6.0158544e-07,0,1,0,1
27220000,27138909,27140000,0,1.6170601,0.0,-0.002665162,0.09109728,1.15344055e-05,0,1,0,1
27292000,27212000,27212000,0,1.6143255,0.0,0.0004994869,0.09109053,4.051617e-07,0,1,0,1
27364000,27282909,27284000,0,1.6194117,0.0,-0.004952669,0.09108416,3.983723e-05,0,1,0,1
27436000,27356000,27356000,0,1.6213017,0.0,-0.006779194,0.09107792,7.464425e-05,0,1,0,1
27508000,27426909,27428000,0,1.618459,0.0,-0.0035312176,0.09107179,2.0254356e-05,0,1,0,1
27580000,27500000,27500000,0,1.6409823,0.0,-0.026013136,0.09106594,0.0010992154,0,1,0,1
27652000,27572000,27572000,0,1.6186067,0.0,-0.003340125,0.09106029,1.8123823e-05,0,1,0,1
27724000,27640000,27644000,0,1.6090112,0.0,0.0062992573,0.09105483,6.4465756e-05,0,1,0,1
27796000,27709600,27716000,0,1.6137846,0.0,0.0013978481,0.09104954,3.174648e-06,0,1,0,1
27868000,27782000,27788000,0,1.6325533,0.0,-0.017648458,0.091044515,0.00050607295,0,1,0,1
27940000,27852800,27860000,0,1.6073142,0.0,0.007737875,0.09103956,9.7289645e-05,0,1,0,1
28004000,27924000,27924000,0,1.6198034,0.0,-0.004974842,0.09103399,4.021688e-05,0,1,0,1
28076000,27991555,27996000,0,1.6162637,0.0,-0.0014760494,0.09102937,3.5405735e-06,0,1,0,1
28148000,28064000,28068000,0,1.6212434,0.0,-0.006520748,0.091024905,6.910158e-05,0,1,0,1
28220000,28134666,28140000,0,1.6021866,0.0,0.01257515,0.09102059,0.00025700408,0,1,0,1
28284000,28202000,28204000,0,1.5958518,0.0,0.01873827,0.09101561,0.000570685,0,1,0,1
28356000,28274000,28276000,0,1.6129384,0.0,0.0013583899,0.09101159,2.9992004e-06,0,1,0,1
28428000,28344000,28348000,0,1.6094381,0.0,0.004727483,0.09100772,3.6327463e-05,0,1,0,1
28492000,28411111,28412000,0,1.621992,0.0,-0.007889986,0.091003135,0.00010119276,0,1,0,1
28564000,28478000,28484000,0,1.6121173,0.0,0.0020343065,0.09099952,6.727397e-06,0,1,0,1
28628000,28548000,28548000,0,1.6058407,0.0,0.008338332,0.0909952,0.00011302988,0,1,0,1
28700000,28616000,28620000,0,1.6016862,0.0,0.012458205,0.09099185,0.0002523259,0,1,0,1
28772000,28686181,28692000,0,1.617328,0.0,-0.003289938,0.0909886,1.7597127e-05,0,1,0,1
28844000,28760000,28764000,0,1.6268502,0.0,-0.012719154,0.090985484,0.0002630254,0,1,0,1
28916000,28831272,28836000,0,1.6105394,0.0,0.0037451982,0.090982474,2.2805798e-05,0,1,0,1
28988000,28904000,28908000,0,1.6170022,0.0,-0.0027519464,0.090979576,1.2313723e-05,0,1,0,1
29060000,28974909,28980000,0,1.6168206,0.0,-0.0024920702,0.09097678,1.0098185e-05,0,1,0,1
29124000,29044000,29044000,0,1.5968682,0.0,0.01751542,0.09097321,0.00049886265,0,1,0,1
29196000,29114000,29116000,0,1.6203398,0.0,-0.006070614,0.09097064,5.992628e-05,0,1,0,1
29268000,29186000,29188000,0,1.6031542,0.0,0.011143088,0.09096816,0.00020191802,0,1,0,1
29340000,29257600,29260000,0,1.6115896,0.0,0.0025793314,0.090965785,1.0819061e-05,0,1,0,1
29412000,29328000,29332000,0,1.6096215,0.0,0.004555106,0.09096348,3.3742966e-05,0,1,0,1
29476000,29394666,29396000,0,1.6119947,0.0,0.0021209717,0.09096038,7.3159513e-06,0,1,0,1
29548000,29465333,29468000,0,1.6333656,0.0,-0.019239664,0.09095827,0.0006020134,0,1,0,1
29620000,29532500,29540000,0,1.611003,0.0,0.003448248,0.09095623,1.933828e-05,0,1,0,1
29692000,29605000,29612000,0,1.6136975,0.0,0.00074350834,0.0909543,8.990872e-07,0,1,0,1
29756000,29672000,29676000,0,1.6271542,0.0,-0.012663841,0.090951525,0.00026084005,0,1,0,1
29828000,29742400,29748000,0,1.6075325,0.0,0.0071148872,0.090949744,8.233565e-05,0,1,0,1
29892000,29809333,29812000,0,1.6185755,0.0,-0.004016757,0.09094712,2.6243124e-05,0,1,0,1
29964000,29881333,29884000,0,1.6230353,0.0,-0.008447051,0.09094548,0.000116059964,0,1,0,1
30036000,29952666,29956000,0,1.6167644,0.0,-0.0020327568,0.09094393,6.7212563e-06,0,1,0,1
30108000,30025333,30028000,0,1.6241107,0.0,-0.009348154,0.09094245,0.00014214724,0,1,0,1
30172000,30092000,30092000,0,1.6280408,0.0,-0.013209224,0.090940095,0.00028382623,0,1,0,1
30244000,30164000,30164000,0,1.6039529,0.0,0.010908008,0.09093875,0.00019355092,0,1,0,1
30316000,30235200,30236000,0,1.6323185,0.0,-0.017638445,0.09093746,0.0005060939,0,1,0,1
30388000,30302000,30308000,0,1.6197685,0.0,-0.0048838854,0.09093623,3.8801394e-05,0,1,0,1
30460000,30374000,30380000,0,1.6077067,0.0,0.0071754456,0.09093507,8.375673e-05,0,1,0,1
30532000,30446000,30452000,0,1.6180043,0.0,-0.003311634,0.09093396,1.7840699e-05,0,1,0,1
30604000,30518000,30524000,0,1.6220645,0.0,-0.0073713064,0.090932906,8.8393674e-05,0,1,0,1
30676000,30590000,30596000,0,1.6263651,0.0,-0.0115811825,0.09093191,0.00021819405,0,1,0,1
30748000,30662000,30668000,0,1.6118091,0.0,0.0030657053,0.09093095,1.5289823e-05,0,1,0,1
30820000,30734000,30740000,0,1.6125699,0.0,0.0021147728,0.09093007,7.275674e-06,0,1,0,1
30892000,30806000,30812000,0,1.6204948,0.0,-0.0059303045,0.09092922,5.721421e-05,0,1,0,1
30956000,30876000,30876000,0,1.6130271,0.0,0.0016192198,0.090927444,4.2655e-06,0,1,0,1
31028000,30944000,30948000,0,1.6035601,0.0,0.01105082,0.09092669,0.00019867856,0,1,0,1
31100000,31014857,31020000,0,1.618983,0.0,-0.0045199394,0.09092599,3.323767e-05,0,1,0,1
31172000,31086400,31092000,0,1.6199044,0.0,-0.005433917,0.09092531,4.8039063e-05,0,1,0,1
31236000,31154000,31156000,0,1.6191978,0.0,-0.0047180653,0.090923704,3.62163e-05,0,1,0,1
31308000,31226000,31228000,0,1.6187352,0.0,-0.0042545795,0.090923145,2.9450468e-05,0,1,0,1
31380000,31298000,31300000,0,1.6102749,0.0,0.0042173862,0.0909226,2.8937984e-05,0,1,0,1
31452000,31370000,31372000,0,1.6306597,0.0,-0.016240597,0.0909221,0.000429129,0,1,0,1
31524000,31442000,31444000,0,1.6162673,0.0,-0.0016901493,0.09092163,4.6476807e-06,0,1,0,1
31596000,31514000,31516000,0,1.6091466,0.0,0.005463481,0.09092121,4.8565405e-05,0,1,0,1
31668000,31586000,31588000,0,1.6190392,0.0,-0.0044858456,0.090920806,3.2740005e-05,0,1,0,1
31740000,31658000,31660000,0,1.6126575,0.0,0.0019034147,0.09092045,5.894658e-06,0,1,0,1
31812000,31728000,31732000,0,1.6120166,0.0,0.002816677,0.09092008,1.2908258e-05,0,1,0,1
31876000,31795200,31796000,0,1.6186434,0.0,-0.0038980246,0.090918764,2.4722305e-05,0,1,0,1
31948000,31866857,31868000,0,1.6208363,0.0,-0.0060254335,0.09091848,5.907147e-05,0,1,0,1
32020000,31939200,31940000,0,1.6169682,0.0,-0.0019830465,0.090918235,6.3983525e-06,0,1,0,1
32092000,32010857,32012000,0,1.6163481,0.0,-0.0013343096,0.09091801,2.8967875e-06,0,1,0,1
32164000,32082400,32084000,0,1.6215774,0.0,-0.0065733194,0.09091782,7.0302995e-05,0,1,0,1
32236000,32153714,32156000,0,1.613169,0.0,0.0018805265,0.090917654,5.7539232e-06,0,1,0,1
32308000,32221000,32228000,0,1.6176413,0.0,-0.0026818514,0.09091748,1.1702411e-05,0,1,0,1
32380000,32292500,32300000,0,1.6135672,0.0,0.0013386011,0.09091734,2.9154728e-06,0,1,0,1
32444000,32360000,32364000,0,1.6088183,0.0,0.0059735775,0.09091622,5.806053e-05,0,1,0,1
32516000,32432000,32436000,0,1.6135452,0.0,0.0011446476,0.090916134,2.1318467e-06,0,1,0,1
32588000,32504000,32508000,0,1.6272166,0.0,-0.012517691,0.09091607,0.0002549536,0,1,0,1
32660000,32575555,32580000,0,1.6283712,0.0,-0.013544083,0.090916015,0.00029847788,0,1,0,1
32732000,32646666,32652000,0,1.6099129,0.0,0.0051350594,0.09091597,4.2904623e-05,0,1,0,1
32804000,32717777,32724000,0,1.6155154,0.0,-0.000436306,0.090915956,3.0973882e-07,0,1,0,1
32876000,32790666,32796000,0,1.6346897,0.0,-0.019623518,0.090915956,0.00062656624,0,1,0,1
32948000,32862666,32868000,0,1.62771,0.0,-0.0124861,0.09091596,0.0002536687,0,1,0,1
33020000,32934666,32940000,0,1.6248678,0.0,-0.009616256,0.090915985,0.00015046139,0,1,0,1
33092000,33006666,33012000,0,1.6234634,0.0,-0.0081602335,0.09091602,0.0001083473,0,1,0,1
33164000,33078666,33084000,0,1.6289294,0.0,-0.013532281,0.09091604,0.00029795786,0,1,0,1
33236000,33151111,33156000,0,1.6150991,0.0,0.00038170815,0.0909161,2.3706936e-07,0,1,0,1
33308000,33222666,33228000,0,1.6318283,0.0,-0.01646173,0.09091616,0.0004409235,0,1,0,1
33380000,33294222,33300000,0,1.6198717,0.0,-0.004468441,0.09091624,3.2488075e-05,0,1,0,1
33444000,33362000,33364000,0,1.6364334,0.0,-0.02113986,0.090915285,0.0007271444,0,1,0,1
33516000,33433200,33436000,0,1.6171513,0.0,-0.0017411709,0.09091535,4.9328614e-06,0,1,0,1
33580000,33500000,33500000,0,1.626834,0.0,-0.011455536,0.09091442,0.00021352632,0,1,0,1
33652000,33571636,33572000,0,1.6137406,0.0,0.0017361641,0.09091453,4.904577e-06,0,1,0,1
33724000,33644000,33644000,0,1.6133654,0.0,0.0019540787,0.09091465,6.2130316e-06,0,1,0,1
33796000,33714909,33716000,0,1.6241883,0.0,-0.008956194,0.090914786,0.00013051661,0,1,0,1
33868000,33788000,33788000,0,1.6227736,0.0,-0.007542491,0.09091491,9.256522e-05,0,1,0,1
33940000,33860000,33860000,0,1.6234145,0.0,-0.008278608,0.09091504,0.00011151475,0,1,0,1
34012000,33932000,33932000,0,1.5868201,0.0,0.028317332,0.09091517,0.001304733,0,1,0,1
34084000,34003636,34004000,0,1.6225194,0.0,-0.00770545,0.090915315,9.660782e-05,0,1,0,1
34156000,34076000,34076000,0,1.6141974,0.0,0.0006469488,0.090915464,6.81013e-07,0,1,0,1
34228000,34145818,34148000,0,1.6134526,0.0,0.0013024807,0.090915605,2.7603076e-06,0,1,0,1
34300000,34220000,34220000,0,1.562176,0.0,0.05258596,0.090915754,0.004499392,0,1,0,1
34372000,34290909,34292000,0,1.6117128,0.0,0.002135992,0.09091599,7.4235613e-06,0,1,0,1
34444000,34364000,34364000,0,1.6259638,0.0,-0.012098312,0.09091614,0.00023815624,0,1,0,1
34516000,34434909,34436000,0,1.6148686,0.0,-0.00091803074,0.090916276,1.37128e-06,0,1,0,1
34588000,34508000,34508000,0,1.6186032,0.0,-0.0046653748,0.090916425,3.5414738e-05,0,1,0,1
34660000,34578181,34580000,0,1.6200451,0.0,-0.0056447983,0.09091643,5.1845112e-05,0,1,0,1
34732000,34652000,34652000,0,1.597733,0.0,0.016389847,0.090916686,0.0004370786,0,1,0,1
34804000,34724000,34724000,0,1.6194363,0.0,-0.0055179596,0.09091681,4.9541162e-05,0,1,0,1
34876000,34796000,34796000,0,1.6517162,0.0,-0.03783846,0.09091693,0.0023295684,0,1,0,1
34948000,34868000,34868000,0,1.6293403,0.0,-0.015174985,0.09091705,0.0003746835,0,1,0,1
35020000,34940000,34940000,0,1.5942587,0.0,0.019919395,0.09091718,0.0006455944,0,1,0,1
35092000,35010545,35012000,0,1.6184472,0.0,-0.0045570135,0.0909173,3.378839e-05,0,1,0,1
35164000,35084000,35084000,0,1.6380341,0.0,-0.024114609,0.09091741,0.0009461648,0,1,0,1
35236000,35156000,35156000,0,1.6162996,0.0,-0.0022093058,0.09091752,7.941772e-06,0,1,0,1
35308000,35228000,35228000,0,1.6157947,0.0,-0.001765132,0.090917625,5.0694357e-06,0,1,0,1
35380000,35299272,35300000,0,1.6135228,0.0,0.0005003214,0.09091772,4.072892e-07,0,1,0,1
35452000,35372000,35372000,0,1.6266944,0.0,-0.012741923,0.09091781,0.00026416444,0,1,0,1
35524000,35442181,35444000,0,1.6208307,0.0,-0.0067794323,0.090917885,7.47809e-05,0,1,0,1
35596000,35516000,35516000,0,1.6327095,0.0,-0.01864469,0.09091797,0.000565606,0,1,0,1
35668000,35587272,35588000,0,1.6195246,0.0,-0.0051653385,0.09091803,4.3411113e-05,0,1,0,1
35740000,35660000,35660000,0,1.6061317,0.0,0.008258104,0.09091809,0.000110959314,0,1,0,1
35812000,35729818,35732000,0,1.6154082,0.0,-0.0011461973,0.09091813,2.1375763e-06,0,1,0,1
35884000,35804000,35804000,0,1.6033301,0.0,0.010960221,0.09091818,0.0001954525,0,1,0,1
35956000,35874545,35876000,0,1.6239871,0.0,-0.00989604,0.09091821,0.0001593402,0,1,0,1
36028000,35948000,35948000,0,1.6074418,0.0,0.0065915585,0.09091825,7.0693335e-05,0,1,0,1
36100000,36018181,36020000,0,1.6239512,0.0,-0.01006043,0.090918265,0.00016467788,0,1,0,1
36172000,36092000,36092000,0,1.6269238,0.0,-0.0128878355,0.09091828,0.00027024775,0,1,0,1
36244000,36162545,36164000,0,1.6137413,0.0,0.0006570816,0.09091819,7.0249166e-07,0,1,0,1
36316000,36236000,36236000,0,1.6453545,0.0,-0.031039715,0.090918176,0.0015676102,0,1,0,1
36388000,36306909,36308000,0,1.6187952,0.0,-0.0042284727,0.09091816,2.9091747e-05,0,1,0,1
36460000,36380000,36380000,0,1.6151218,0.0,-0.0005213022,0.09091814,4.4216253e-07,0,1,0,1
36532000,36450909,36452000,0,1.6234823,0.0,-0.00886476,0.09091811,0.00012786068,0,1,0,1
36604000,36524000,36524000,0,1.6779001,0.0,-0.06315112,0.09091805,0.006488814,0,1,0,1
36676000,36594909,36596000,0,1.6208259,0.0,-0.005493641,0.090918,4.910481e-05,0,1,0,1
36748000,36668000,36668000,0,1.6360424,0.0,-0.020763159,0.09091793,0.0007014402,0,1,0,1
36820000,36737818,36740000,0,1.6137034,0.0,0.0016918182,0.090917856,4.657057e-06,0,1,0,1
36892000,36812000,36812000,0,1.619541,0.0,-0.0043183565,0.090917766,3.0341816e-05,0,1,0,1
36964000,36883272,36884000,0,1.6182189,0.0,-0.0030411482,0.09091767,1.504805e-05,0,1,0,1
37036000,36956000,36956000,0,1.6124204,0.0,0.0027202368,0.09091756,1.2039793e-05,0,1,0,1
37108000,37028000,37028000,0,1.6260155,0.0,-0.011094928,0.09091743,0.00020028808,0,1,0,1
37180000,37100000,37100000,0,1.6227487,0.0,-0.007861137,0.0909173,0.00010054897,0,1,0,1
37252000,37172000,37172000,0,1.6216925,0.0,-0.0068774223,0.09091716,7.69589e-05,0,1,0,1
37324000,37244000,37244000,0,1.6216702,0.0,-0.0069499016,0.090917006,7.8589685e-05,0,1,0,1
37396000,37315272,37316000,0,1.6141773,0.0,0.00054883957,0.09091685,4.9011703e-07,0,1,0,1
37468000,37388000,37388000,0,1.6159272,0.0,-0.0012603998,0.09091668,2.5847971e-06,0,1,0,1
37540000,37459272,37460000,0,1.6185938,0.0,-0.003979802,0.09091648,2.5771145e-05,0,1,0,1
37612000,37532000,37532000,0,1.6069859,0.0,0.007583976,0.09091628,9.358486e-05,0,1,0,1
37684000,37602545,37604000,0,1.6102548,0.0,0.004228711,0.09091608,2.9095689e-05,0,1,0,1
37756000,37676000,37676000,0,1.6539075,0.0,-0.039515257,0.090915866,0.002540641,0,1,0,1
37828000,37747272,37748000,0,1.6246862,0.0,-0.009989738,0.090915635,0.00016237644,0,1,0,1
37900000,37820000,37820000,0,1.5930423,0.0,0.02178371,0.0909154,0.0007721107,0,1,0,1
37972000,37891272,37892000,0,1.6153306,0.0,-0.0007802248,0.090915136,9.90505e-07,0,1,0,1
38044000,37964000,37964000,0,1.6205652,0.0,-0.006108284,0.090914875,6.0709524e-05,0,1,0,1
38116000,38036000,38036000,0,1.618601,0.0,-0.004114032,0.09091459,2.7539436e-05,0,1,0,1
38188000,38108000,38108000,0,1.621079,0.0,-0.006649852,0.09091432,7.195235e-05,0,1,0,1
38260000,38179636,38180000,0,1.6133819,0.0,0.0010875463,0.09091401,1.9245006e-06,0,1,0,1
38332000,38252000,38252000,0,1.6144972,0.0,-0.000106692314,0.090913706,1.8522101e-08,0,1,0,1
38404000,38321818,38324000,0,1.6150812,0.0,-0.0007840395,0.090913385,1.0002335e-06,0,1,0,1
38476000,38396000,38396000,0,1.6285998,0.0,-0.014263988,0.09091305,0.00033106175,0,1,0,1
38548000,38466909,38468000,0,1.6086394,0.0,0.0058386326,0.090912715,5.5469085e-05,0,1,0,1
38620000,38540000,38540000,0,1.6030232,0.0,0.011362791,0.090912364,0.0002100876,0,1,0,1
38692000,38610909,38612000,0,1.6176873,0.0,-0.0034655333,0.090912,1.9542147e-05,0,1,0,1
38764000,38684000,38684000,0,1.6363059,0.0,-0.022125483,0.09091162,0.00079656177,0,1,0,1
38836000,38754545,38756000,0,1.6107802,0.0,0.0036529303,0.09091123,2.1712936e-05,0,1,0,1
38908000,38828000,38828000,0,1.5947347,0.0,0.019681096,0.09091084,0.00063028396,0,1,0,1
38980000,38897818,38900000,0,1.6168958,0.0,-0.0026934147,0.090910435,1.1804458e-05,0,1,0,1
39052000,38972000,38972000,0,1.6202236,0.0,-0.0060868263,0.09091001,6.0286973e-05,0,1,0,1
39124000,39042545,39044000,0,1.6123393,0.0,0.0018250942,0.09090958,5.4201873e-06,0,1,0,1
39196000,39116000,39116000,0,1.6089196,0.0,0.005177021,0.090909146,4.3611963e-05,0,1,0,1
39268000,39187272,39188000,0,1.615543,0.0,-0.0014890432,0.09090869,3.6079673e-06,0,1,0,1
39340000,39260000,39260000,0,1.6212095,0.0,-0.007095933,0.090908214,8.193496e-05,0,1,0,1
39412000,39330545,39332000,0,1.6117573,0.0,0.0024424791,0.09090774,9.707654e-06,0,1,0,1
39484000,39404000,39404000,0,1.5840762,0.0,0.030102372,0.09090726,0.0014745389,0,1,0,1
39556000,39475272,39476000,0,1.6065443,0.0,0.0073862076,0.09090678,8.877693e-05,0,1,0,1
39628000,39548000,39548000,0,1.6347268,0.0,-0.021180391,0.09090643,0.00073000643,0,1,0,1
39700000,39619272,39620000,0,1.6112205,0.0,0.0025042295,0.090905905,1.0204919e-05,0,1,0,1
39772000,39692000,39692000,0,1.6021693,0.0,0.011541724,0.090905376,0.00021677301,0,1,0,1
39844000,39762909,39764000,0,1.6142895,0.0,-0.00031971931,0.09090468,1.6634311e-07,0,1,0,1
39916000,39836000,39836000,0,1.631553,0.0,-0.017594099,0.09090414,0.0005037369,0,1,0,1
39988000,39906909,39908000,0,1.6199081,0.0,-0.0056684017,0.09090358,5.2286985e-05,0,1,0,1
40060000,39980000,39980000,0,1.6266555,0.0,-0.012300968,0.090903014,0.00024623718,0,1,0,1
40132000,40050181,40052000,0,1.6125742,0.0,0.0019792318,0.09090244,6.3748676e-06,0,1,0,1
40204000,40124000,40124000,0,1.6446965,0.0,-0.030238032,0.09090185,0.0014879478,0,1,0,1
40276000,40194181,40196000,0,1.6159581,0.0,-0.0011585951,0.09090125,2.184474e-06,0,1,0,1
40348000,40268000,40268000,0,1.6195049,0.0,-0.0046960115,0.09090065,3.588762e-05,0,1,0,1
40420000,40339272,40340000,0,1.6180729,0.0,-0.0032328367,0.090900026,1.7008142e-05,0,1,0,1
40492000,40412000,40412000,0,1.6187097,0.0,-0.0041867495,0.09089956,2.8526307e-05,0,1,0,1
40564000,40482545,40484000,0,1.6307412,0.0,-0.01599741,0.09089877,0.0004164805,0,1,0,1
40636000,40556000,40556000,0,1.5946198,0.0,0.020119071,0.09089813,0.00065874035,0,1,0,1
40708000,40626545,40628000,0,1.6142505,0.0,0.00015032291,0.09089748,3.677493e-08,0,1,0,1
40780000,40700000,40700000,0,1.6037822,0.0,0.010489821,0.090896815,0.00017907744,0,1,0,1
40852000,40769818,40772000,0,1.6230155,0.0,-0.008952618,0.090896145,0.00013043916,0,1,0,1
40924000,40844000,40844000,0,1.5907539,0.0,0.023401976,0.09089546,0.0008912842,0,1,0,1
40996000,40915636,40916000,0,1.6204209,0.0,-0.006584406,0.090894766,7.055823e-05,0,1,0,1
41068000,40988000,40988000,0,1.5946909,0.0,0.01924777,0.09089407,0.00060294627,0,1,0,1
41140000,41058909,41060000,0,1.6138955,0.0,-0.00012123585,0.090893365,2.3921217e-08,0,1,0,1
41212000,41132000,41132000,0,1.5865998,0.0,0.027223706,0.09089264,0.0012061995,0,1,0,1
41284000,41202545,41204000,0,1.6127005,0.0,0.0008881092,0.09089192,1.283692e-06,0,1,0,1
41356000,41276000,41276000,0,1.6151233,0.0,-0.0014873743,0.09089119,3.6005774e-06,0,1,0,1
41428000,41346545,41348000,0,1.629223,0.0,-0.0154544115,0.09089045,0.0003887228,0,1,0,1
41500000,41416000,41420000,0,1.6270713,0.0,-0.013072014,0.0908897,0.00027811454,0,1,0,1
41564000,41484000,41484000,0,1.6221645,0.0,-0.008022547,0.09088805,0.00010475411,0,1,0,1
41636000,41556000,41556000,0,1.6448649,0.0,-0.031005144,0.090887435,0.0015646493,0,1,0,1
41708000,41623111,41628000,0,1.6292953,0.0,-0.015118599,0.09088667,0.00037202853,0,1,0,1
41772000,41690000,41692000,0,1.6460092,0.0,-0.03164029,0.09088501,0.0016294536,0,1,0,1
41844000,41760800,41764000,0,1.6320362,0.0,-0.017383337,0.09088424,0.0004918482,0,1,0,1
41908000,41828000,41828000,0,1.6325545,0.0,-0.017736793,0.09088255,0.0005120626,0,1,0,1
41980000,41897818,41900000,0,1.6239414,0.0,-0.008969188,0.09088177,0.00013094315,0,1,0,1
42052000,41972000,41972000,0,1.6040735,0.0,0.010973096,0.09088099,0.00019599214,0,1,0,1
42124000,42042909,42044000,0,1.6294243,0.0,-0.014531136,0.09088019,0.00034370294,0,1,0,1
42196000,42116000,42116000,0,1.6383876,0.0,-0.023347497,0.0908794,0.000887296,0,1,0,1
42268000,42186181,42188000,0,1.6227739,0.0,-0.0075335503,0.0908786,9.2382805e-05,0,1,0,1
42340000,42260000,42260000,0,1.6085918,0.0,0.0066871643,0.09087772,7.279137e-05,0,1,0,1
42412000,42330545,42332000,0,1.6339834,0.0,-0.01866734,0.09087691,0.00056723715,0,1,0,1
42484000,42404000,42404000,0,1.6316916,0.0,-0.016209006,0.09087608,0.00042767765,0,1,0,1
42556000,42474545,42476000,0,1.6211548,0.0,-0.0054638386,0.09087524,4.8596336e-05,0,1,0,1
42628000,42548000,42548000,0,1.6389025,0.0,-0.023132682,0.0908744,0.0008710914,0,1,0,1
42700000,42618909,42620000,0,1.6194546,0.0,-0.0034519434,0.090873554,1.9397385e-05,0,1,0,1
42772000,42692000,42692000,0,1.6114681,0.0,0.0046184063,0.090872645,3.472198e-05,0,1,0,1
42844000,42762181,42764000,0,1.6232502,0.0,-0.0071685314,0.09087179,8.3653606e-05,0,1,0,1
42916000,42836000,42836000,0,1.6287372,0.0,-0.012591004,0.09087093,0.0002580769,0,1,0,1
42988000,42907272,42908000,0,1.6175482,0.0,-0.0012797117,0.09087005,2.66598e-06,0,1,0,1
43060000,42980000,42980000,0,1.6187961,0.0,-0.002562523,0.09086918,1.0689866e-05,0,1,0,1
43132000,43051272,43052000,0,1.6271164,0.0,-0.010863543,0.09086824,0.00019212512,0,1,0,1
43204000,43124000,43124000,0,1.5985698,0.0,0.017772675,0.090867355,0.0005142224,0,1,0,1
43276000,43194545,43196000,0,1.6299298,0.0,-0.013732791,0.09086646,0.00030702047,0,1,0,1
43348000,43268000,43268000,0,1.6023241,0.0,0.014032602,0.09086556,0.0003205756,0,1,0,1
43420000,43338181,43340000,0,1.6335475,0.0,-0.017249107,0.09086465,0.00048438608,0,1,0,1
43492000,43412000,43412000,0,1.6048492,0.0,0.011631727,0.090863734,0.00022026787,0,1,0,1
43564000,43483272,43484000,0,1.6277254,0.0,-0.011256456,0.090862796,0.00020628642,0,1,0,1
43636000,43556000,43556000,0,1.6486039,0.0,-0.03208673,0.09086187,0.0016761875,0,1,0,1
43708000,43626909,43628000,0,1.6241506,0.0,-0.0072829723,0.09086093,8.6356195e-05,0,1,0,1
43780000,43700000,43700000,0,1.6078017,0.0,0.0091536045,0.09086,0.00013641587,0,1,0,1
43852000,43771272,43772000,0,1.625242,0.0,-0.008322597,0.09085906,0.00011277238,0,1,0,1
43924000,43844000,43844000,0,1.6326566,0.0,-0.015609264,0.09085811,0.00039669298,0,1,0,1
43996000,43914909,43916000,0,1.6267936,0.0,-0.009504914,0.090857156,0.00014709253,0,1,0,1
44068000,43988000,43988000,0,1.5954688,0.0,0.021850705,0.0908562,0.00077737344,0,1,0,1
44140000,44058545,44060000,0,1.6378338,0.0,-0.020717382,0.09085524,0.00069883256,0,1,0,1
44212000,44132000,44132000,0,1.6177701,0.0,-0.00039076805,0.09085427,2.4862572e-07,0,1,0,1
44284000,44201818,44204000,0,1.6266315,0.0,-0.009331822,0.09085331,0.00014178996,0,1,0,1
44356000,44276000,44276000,0,1.6334205,0.0,-0.016028881,0.09085233,0.00041833453,0,1,0,1
44428000,44346545,44348000,0,1.6197081,0.0,-0.0021255016,0.090851344,7.3560536e-06,0,1,0,1
44500000,44420000,44420000,0,1.6316471,0.0,-0.013989568,0.09085037,0.00031866564,0,1,0,1
44572000,44490545,44492000,0,1.6208792,0.0,-0.0031164885,0.09084938,1.5814754e-05,0,1,0,1
44644000,44564000,44564000,0,1.6196759,0.0,-0.0018668175,0.09084839,5.67466e-06,0,1,0,1
44716000,44636000,44636000,0,1.6286403,0.0,-0.010771275,0.090847395,0.00018891874,0,1,0,1
44788000,44708000,44708000,0,1.5971566,0.0,0.020825863,0.0908464,0.00070623896,0,1,0,1
44860000,44778545,44780000,0,1.6312739,0.0,-0.013483286,0.0908454,0.0002960342,0,1,0,1
44932000,44852000,44852000,0,1.6203686,0.0,-0.0023844242,0.090844385,9.2581095e-06,0,1,0,1
45004000,44923636,44924000,0,1.6199782,0.0,-0.0019977093,0.09084338,6.4986725e-06,0,1,0,1
45076000,44996000,44996000,0,1.5754272,0.0,0.042651653,0.090842366,0.002962352,0,1,0,1
45148000,45066181,45068000,0,1.6263636,0.0,-0.008640766,0.090841345,0.00012158341,0,1,0,1
45220000,45140000,45140000,0,1.6361135,0.0,-0.018295765,0.09084033,0.0005450995,0,1,0,1
45292000,45210545,45212000,0,1.6328268,0.0,-0.0147868395,0.090839304,0.0003560658,0,1,0,1
45364000,45284000,45284000,0,1.6216166,0.0,-0.003439188,0.090838276,1.9261775e-05,0,1,0,1
45436000,45354181,45356000,0,1.6284851,0.0,-0.010306954,0.09083725,0.0001730016,0,1,0,1
45508000,45428000,45428000,0,1.6209236,0.0,-0.0026425123,0.09083622,1.1371778e-05,0,1,0,1
45580000,45500000,45500000,0,1.6238761,0.0,-0.0055588484,0.09083518,5.032328e-05,0,1,0,1
45652000,45572000,45572000,0,1.6070902,0.0,0.011287332,0.09083415,0.00020748503,0,1,0,1
45724000,45643636,45644000,0,1.6268533,0.0,-0.008594155,0.0908331,0.000120286146,0,1,0,1
45796000,45716000,45716000,0,1.6204766,0.0,-0.0020992756,0.090832055,7.177168e-06,0,1,0,1
45868000,45786545,45788000,0,1.6163033,0.0,0.0021560192,0.090831004,7.5704984e-06,0,1,0,1
45940000,45860000,45860000,0,1.6596098,0.0,-0.041149497,0.09082996,0.00275774,0,1,0,1
46012000,45930545,45932000,0,1.6187133,0.0,0.000116586685,0.0908289,2.213743e-08,0,1,0,1
46084000,46004000,46004000,0,1.625209,0.0,-0.0063215494,0.09082785,6.508507e-05,0,1,0,1
46156000,46074909,46076000,0,1.617989,0.0,0.00093615055,0.09082679,1.4273511e-06,0,1,0,1
46228000,46148000,46148000,0,1.618548,0.0,0.00043058395,0.09082572,3.019675e-07,0,1,0,1
46300000,46218181,46220000,0,1.6170568,0.0,0.0019546747,0.09082466,6.222982e-06,0,1,0,1
46372000,46292000,46292000,0,1.6286515,0.0,-0.009736061,0.0908236,0.00015439073,0,1,0,1
46444000,46362909,46364000,0,1.6241031,0.0,-0.0050656796,0.090822525,4.1796047e-05,0,1,0,1
46516000,46436000,46436000,0,1.6183783,0.0,0.0006631613,0.09082146,7.163136e-07,0,1,0,1
46588000,46506909,46508000,0,1.6192017,0.0,-7.70092e-05,0.09082039,9.659513e-09,0,1,0,1
46660000,46580000,46580000,0,1.6570784,0.0,-0.03794837,0.090819314,0.0023456402,0,1,0,1
46732000,46650181,46652000,0,1.6190342,0.0,0.0004556179,0.090818234,3.381286e-07,0,1,0,1
46804000,46724000,46724000,0,1.6268276,0.0,-0.0073542595,0.09081716,8.809745e-05,0,1,0,1
46876000,46794545,46796000,0,1.6347755,0.0,-0.015200734,0.09081608,0.0003763741,0,1,0,1
46948000,46868000,46868000,0,1.6152716,0.0,0.004505515,0.09081499,3.306623e-05,0,1,0,1
47020000,46938545,46940000,0,1.6262963,0.0,-0.00650692,0.09081392,6.8968664e-05,0,1,0,1
47092000,47012000,47012000,0,1.6175723,0.0,0.0022644997,0.09081283,8.353157e-06,0,1,0,1
47164000,47082545,47084000,0,1.6278646,0.0,-0.007974744,0.09081174,0.00010359645,0,1,0,1
47236000,47156000,47156000,0,1.6198761,0.0,0.00012481213,0.09081066,2.5376405e-08,0,1,0,1
47308000,47226545,47228000,0,1.6236272,0.0,-0.0036154985,0.09080957,2.1294041e-05,0,1,0,1
47380000,47300000,47300000,0,1.627192,0.0,-0.0071160793,0.09080847,8.249137e-05,0,1,0,1
47452000,47370545,47372000,0,1.621205,0.0,-0.0010837317,0.090807386,1.9132674e-06,0,1,0,1
47524000,47440000,47444000,0,1.6142079,0.0,0.0058840513,0.09080629,5.640145e-05,0,1,0,1
47596000,47508800,47516000,0,1.6235524,0.0,-0.0035653114,0.090805195,2.0707972e-05,0,1,0,1
47660000,47576000,47580000,0,1.6294589,0.0,-0.00947845,0.09080343,0.00014636113,0,1,0,1
47732000,47647636,47652000,0,1.6225091,0.0,-0.0023946762,0.09080234,9.342216e-06,0,1,0,1
47804000,47720000,47724000,0,1.6133145,0.0,0.0068575144,0.090801254,7.661167e-05,0,1,0,1
47876000,47791272,47796000,0,1.6297836,0.0,-0.0096668005,0.090800166,0.0001522412,0,1,0,1
47940000,47860000,47860000,0,1.6350871,0.0,-0.014895558,0.0907984,0.00036148372,0,1,0,1
48012000,47928400,47932000,0,1.6259832,0.0,-0.0055685043,0.09079732,5.0519313e-05,0,1,0,1
48076000,47996000,47996000,0,1.6402901,0.0,-0.019752383,0.090795584,0.00063566404,0,1,0,1
48148000,48067272,48068000,0,1.6187886,0.0,0.00192523,0.0907945,6.0389166e-06,0,1,0,1
48220000,48140000,48140000,0,1.5800711,0.0,0.040583014,0.09079342,0.0026834134,0,1,0,1
48292000,48212000,48212000,0,1.6255457,0.0,-0.0051544905,0.09079235,4.32888e-05,0,1,0,1
48364000,48284000,48284000,0,1.6452112,0.0,-0.024779797,0.09079126,0.0010004716,0,1,0,1
48436000,48354909,48356000,0,1.6219002,0.0,-0.0012607574,0.09079018,2.5898676e-06,0,1,0,1
48508000,48428000,48428000,0,1.6004227,0.0,0.020212173,0.0907891,0.0006656496,0,1,0,1
48580000,48498181,48500000,0,1.6277399,0.0,-0.0072422028,0.09078802,8.546064e-05,0,1,0,1
48652000,48572000,48572000,0,1.6038963,0.0,0.016649961,0.09078694,0.00045170658,0,1,0,1
48724000,48643636,48644000,0,1.6127542,0.0,0.0076411963,0.090785846,9.513885e-05,0,1,0,1
48796000,48716000,48716000,0,1.6061878,0.0,0.014211655,0.090784766,0.00032910134,0,1,0,1
48868000,48786909,48788000,0,1.6256778,0.0,-0.005360365,0.090783685,4.6820307e-05,0,1,0,1
48940000,48860000,48860000,0,1.5963539,0.0,0.0240556,0.090782605,0.00094293803,0,1,0,1
49012000,48931272,48932000,0,1.6197127,0.0,0.0005246401,0.09078152,4.4851691e-07,0,1,0,1
49084000,49004000,49004000,0,1.6169374,0.0,0.003327489,0.09078044,1.80424e-05,0,1,0,1
49156000,49074909,49076000,0,1.6157525,0.0,0.0045626163,0.090779334,3.3923e-05,0,1,0,1
49228000,49148000,49148000,0,1.635838,0.0,-0.015502572,0.09077825,0.0003916328,0,1,0,1
49300000,49218545,49220000,0,1.619044,0.0,0.001447916,0.09077717,3.4163586e-06,0,1,0,1
49372000,49292000,49292000,0,1.6189485,0.0,0.0015699863,0.090776086,4.0167392e-06,0,1,0,1
