timestamp,timestamp_sample,gps_hvel[0],gps_hvel[1],gps_vvel,gps_hpos[0],gps_hpos[1],gps_vpos,ev_hvel[0],ev_hvel[1],ev_vvel,ev_hpos[0],ev_hpos[1],ev_vpos,rng_vpos,baro_vpos,aux_hvel[0],aux_hvel[1],aux_vvel,flow[0],flow[1],terr_flow[0],terr_flow[1],heading,mag_field[0],mag_field[1],mag_field[2],gravity[0],gravity[1],gravity[2],drag[0],drag[1],airspeed,beta,hagl,hagl_rate
3340000,3260000,0.0,0.0,0.0,0.0,0.0,0.0,0.0,0.0,0.0,0.0,0.0,0.0,0.0,3.3632637e-15,0.0,0.0,nan,0.0,0.0,0.0,0.0,0.0,0.0,0.0,0.0,0.0005807981,0.0,0.0,0.0,0.0,0.0,0.0,0.0,0.0
3348000,3268000,0.0,0.0,0.0,0.0,0.0,0.0,0.0,0.0,0.0,0.0,0.0,0.0,0.0,3.3632637e-15,0.0,0.0,nan,0.0,0.0,0.0,0.0,0.0,0.0,0.0,0.0,0.0002480743,0.0,0.0,0.0,0.0,0.0,0.0,0.0,0.0
3356000,3276000,0.0,0.0,0.0,0.0,0.0,0.0,0.0,0.0,0.0,0.0,0.0,0.0,0.0,3.3632637e-15,0.0,0.0,nan,0.0,0.0,0.0,0.0,0.0,0.0,0.0,0.0,0.00033244296,0.0,0.0,0.0,0.0,0.0,0.0,0.0,0.0
3364000,3284000,0.0,0.0,0.0,0.0,0.0,0.0,0.0,0.0,0.0,0.0,0.0,0.0,0.0,3.3632637e-15,0.0,0.0,nan,0.0,0.0,0.0,0.0,0.0,inf,0.0,0.0,0.0004979706,0.0,0.0,0.0,0.0,0.0,0.0,0.0,0.0
3372000,3292000,0.0,0.0,0.0,0.0,0.0,0.0,0.0,0.0,0.0,0.0,0.0,0.0,0.0,3.3632637e-15,0.0,0.0,nan,0.0,0.0,0.0,0.0,0.0,inf,0.0,0.0,0.00025240553,0.0,0.0,0.0,0.0,0.0,0.0,0.0,0.0
3380000,3300000,0.0,0.0,0.0,0.0,0.0,0.0,0.0,0.0,0.0,0.0,0.0,0.0,0.0,3.3632637e-15,0.0,0.0,nan,0.0,0.0,0.0,0.0,0.0,inf,0.0,0.0,0.00036466744,0.0,0.0,0.0,0.0,0.0,0.0,0.0,0.0
3388000,3308000,0.0,0.0,0.0,0.0,0.0,0.0,0.0,0.0,0.0,0.0,0.0,0.0,0.0,3.3632637e-15,0.0,0.0,nan,0.0,0.0,0.0,0.0,0.0,inf,0.0,0.0,0.0007269739,0.0,0.0,0.0,0.0,0.0,0.0,0.0,0.0
3396000,3316000,0.0,0.0,0.0,0.0,0.0,0.0,0.0,0.0,0.0,0.0,0.0,0.0,0.0,3.3632637e-15,0.0,0.0,nan,0.0,0.0,0.0,0.0,0.0,inf,0.0,0.0,0.0014333274,0.0,0.0,0.0,0.0,0.0,0.0,0.0,0.0
3404000,3324000,0.0,0.0,0.0,0.0,0.0,0.0,0.0,0.0,0.0,0.0,0.0,0.0,0.0,5.153954e-07,0.0,0.0,nan,0.0,0.0,0.0,0.0,0.0,inf,0.0,0.0,0.000427249,0.0,0.0,0.0,0.0,0.0,0.0,0.0,0.0
3412000,3332000,0.0,0.0,0.0,0.0,0.0,0.0,0.0,0.0,0.0,0.0,0.0,0.0,0.0,5.153954e-07,0.0,0.0,nan,0.0,0.0,0.0,0.0,0.0,inf,0.0,0.0,0.00046103867,0.0,0.0,0.0,0.0,0.0,0.0,0.0,0.0
3420000,3340000,0.0,0.0,0.0,0.0,0.0,0.0,0.0,0.0,0.0,0.0,0.0,0.0,0.0,5.153954e-07,0.0,0.0,nan,0.0,0.0,0.0,0.0,0.0,inf,0.0,0.0,0.00014649416,0.0,0.0,0.0,0.0,0.0,0.0,0.0,0.0
3428000,3348000,0.0,0.0,0.0,0.0,0.0,0.0,0.0,0.0,0.0,0.0,0.0,0.0,0.0,5.153954e-07,0.0,0.0,nan,0.0,0.0,0.0,0.0,0.0,inf,0.0,0.0,5.295958e-05,0.0,0.0,0.0,0.0,0.0,0.0,0.0,0.0
3436000,3356000,0.0,0.0,0.0,0.0,0.0,0.0,0.0,0.0,0.0,0.0,0.0,0.0,0.0,5.153954e-07,0.0,0.0,nan,0.0,0.0,0.0,0.0,0.0,inf,0.0,0.0,0.0011526612,0.0,0.0,0.0,0.0,0.0,0.0,0.0,0.0
3444000,3364000,0.0,0.0,0.0,0.0,0.0,0.0,0.0,0.0,0.0,0.0,0.0,0.0,0.0,5.153954e-07,0.0,0.0,nan,0.0,0.0,0.0,0.0,0.0,inf,0.0,0.0,0.0001020066,0.0,0.0,0.0,0.0,0.0,0.0,0.0,0.0
3452000,3372000,0.0,0.0,0.0,0.0,0.0,0.0,0.0,0.0,0.0,0.0,0.0,0.0,0.0,5.153954e-07,0.0,0.0,nan,0.0,0.0,0.0,0.0,0.0,inf,0.0,0.0,0.00025508335,0.0,0.0,0.0,0.0,0.0,0.0,0.0,0.0
3460000,3380000,0.0,0.0,0.0,0.0,0.0,0.0,0.0,0.0,0.0,0.0,0.0,0.0,0.0,3.0237726e-07,0.0,0.0,nan,0.0,0.0,0.0,0.0,0.0,inf,0.0,0.0,0.00091196975,0.0,0.0,0.0,0.0,0.0,0.0,0.0,0.0
3468000,3388000,0.0,0.0,0.0,0.0,0.0,0.0,0.0,0.0,0.0,0.0,0.0,0.0,0.0,3.0237726e-07,0.0,0.0,nan,0.0,0.0,0.0,0.0,0.0,inf,0.0,0.0,0.0007757512,0.0,0.0,0.0,0.0,0.0,0.0,0.0,0.0
3476000,3396000,0.0,0.0,0.0,0.0,0.0,0.0,0.0,0.0,0.0,0.0,0.0,0.0,0.0,3.0237726e-07,0.0,0.0,nan,0.0,0.0,0.0,0.0,0.0,inf,0.0,0.0,2.721733e-05,0.0,0.0,0.0,0.0,0.0,0.0,0.0,0.0
3484000,3404000,0.0,0.0,0.0,0.0,0.0,0.0,0.0,0.0,0.0,0.0,0.0,0.0,0.0,3.0237726e-07,0.0,0.0,nan,0.0,0.0,0.0,0.0,0.0,inf,0.0,0.0,3.971113e-06,0.0,0.0,0.0,0.0,0.0,0.0,0.0,0.0
3492000,3412000,0.0,0.0,0.0,0.0,0.0,0.0,0.0,0.0,0.0,0.0,0.0,0.0,0.0,3.0237726e-07,0.0,0.0,nan,0.0,0.0,0.0,0.0,0.0,inf,0.0,0.0,0.00052796595,0.0,0.0,0.0,0.0,0.0,0.0,0.0,0.0
3500000,3420000,3.7892835e-06,0.0,0.00031541093,2.3702536e-11,0.0,94.35464,0.0,0.0,0.0,0.0,0.0,0.0,0.0,3.0237726e-07,0.0,0.0,nan,0.0,0.0,0.0,0.0,0.0,inf,0.0,0.0,9.29707e-05,0.0,0.0,0.0,0.0,0.0,0.0,0.0,0.0
3508000,3428000,3.7892835e-06,0.0,0.00031541093,2.3702536e-11,0.0,94.35464,0.0,0.0,0.0,0.0,0.0,0.0,0.0,3.0237726e-07,0.0,0.0,nan,0.0,0.0,0.0,0.0,0.0,inf,0.0,0.0,0.00018080324,0.0,0.0,0.0,0.0,0.0,0.0,0.0,0.0
3516000,3436000,3.7892835e-06,0.0,0.00031541093,2.3702536e-11,0.0,94.35464,0.0,0.0,0.0,0.0,0.0,0.0,0.0,3.0237726e-07,0.0,0.0,nan,0.0,0.0,0.0,0.0,0.0,inf,0.0,0.0,0.00036715862,0.0,0.0,0.0,0.0,0.0,0.0,0.0,0.0
3524000,3444000,3.7892835e-06,0.0,0.00031541093,2.3702536e-11,0.0,94.35464,0.0,0.0,0.0,0.0,0.0,0.0,0.0,4.918069e-07,0.0,0.0,nan,0.0,0.0,0.0,0.0,0.0,inf,0.0,0.0,0.00049473415,0.0,0.0,0.0,0.0,0.0,0.0,0.0,0.0
3532000,3452000,3.7892835e-06,0.0,0.00031541093,2.3702536e-11,0.0,94.35464,0.0,0.0,0.0,0.0,0.0,0.0,0.0,4.918069e-07,0.0,0.0,nan,0.0,0.0,0.0,0.0,0.0,inf,0.0,0.0,0.00017402801,0.0,0.0,0.0,0.0,0.0,0.0,0.0,0.0
3540000,3460000,3.7892835e-06,0.0,0.00031541093,2.3702536e-11,0.0,94.35464,0.0,0.0,0.0,0.0,0.0,0.0,0.0,4.918069e-07,0.0,0.0,nan,0.0,0.0,0.0,0.0,0.0,inf,0.0,0.0,0.00027902806,0.0,0.0,0.0,0.0,0.0,0.0,0.0,0.0
3548000,3468000,3.7892835e-06,0.0,0.00031541093,2.3702536e-11,0.0,94.35464,0.0,0.0,0.0,0.0,0.0,0.0,0.0,4.918069e-07,0.0,0.0,nan,0.0,0.0,0.0,0.0,0.0,inf,0.0,0.0,0.00043210623,0.0,0.0,0.0,0.0,0.0,0.0,0.0,0.0
3556000,3476000,3.7892835e-06,0.0,0.00031541093,2.3702536e-11,0.0,94.35464,0.0,0.0,0.0,0.0,0.0,0.0,0.0,4.918069e-07,0.0,0.0,nan,0.0,0.0,0.0,0.0,0.0,inf,0.0,0.0,0.0010971501,0.0,0.0,0.0,0.0,0.0,0.0,0.0,0.0
3564000,3484000,3.7892835e-06,0.0,0.00031541093,2.3702536e-11,0.0,94.35464,0.0,0.0,0.0,0.0,0.0,0.0,0.0,4.918069e-07,0.0,0.0,nan,0.0,0.0,0.0,0.0,0.0,inf,0.0,0.0,0.00013338093,0.0,0.0,0.0,0.0,0.0,0.0,0.0,0.0
3572000,3492000,3.7892835e-06,0.0,0.00031541093,2.3702536e-11,0.0,94.35464,0.0,0.0,0.0,0.0,0.0,0.0,0.0,4.918069e-07,0.0,0.0,nan,0.0,0.0,0.0,0.0,0.0,inf,0.0,0.0,5.4263084e-05,0.0,0.0,0.0,0.0,0.0,0.0,0.0,0.0
3580000,3500000,3.7892835e-06,0.0,0.00031541093,2.3702536e-11,0.0,94.35464,0.0,0.0,0.0,0.0,0.0,0.0,0.0,7.191428e-07,0.0,0.0,nan,0.0,0.0,0.0,0.0,0.0003857991,inf,0.0,0.0,0.00029888147,0.0,0.0,0.0,0.0,0.0,0.0,0.0,0.0
3588000,3508000,3.7892835e-06,0.0,0.00031541093,2.3702536e-11,0.0,94.35464,0.0,0.0,0.0,0.0,0.0,0.0,0.0,7.191428e-07,0.0,0.0,nan,0.0,0.0,0.0,0.0,0.0003857991,inf,0.0,0.0,0.0005927387,0.0,0.0,0.0,0.0,0.0,0.0,0.0,0.0
3596000,3516000,3.7892835e-06,0.0,0.00031541093,2.3702536e-11,0.0,94.35464,0.0,0.0,0.0,0.0,0.0,0.0,0.0,7.191428e-07,0.0,0.0,nan,0.0,0.0,0.0,0.0,0.0003857991,inf,0.0,0.0,9.429417e-05,0.0,0.0,0.0,0.0,0.0,0.0,0.0,0.0
3604000,3524000,3.7892835e-06,0.0,0.00031541093,2.3702536e-11,0.0,94.35464,0.0,0.0,0.0,0.0,0.0,0.0,0.0,7.191428e-07,0.0,0.0,nan,0.0,0.0,0.0,0.0,0.0003857991,inf,0.0,0.0,0.00047185988,0.0,0.0,0.0,0.0,0.0,0.0,0.0,0.0
3612000,3532000,3.7892835e-06,0.0,0.00031541093,2.3702536e-11,0.0,94.35464,0.0,0.0,0.0,0.0,0.0,0.0,0.0,7.191428e-07,0.0,0.0,nan,0.0,0.0,0.0,0.0,0.0003857991,inf,0.0,0.0,0.00037732872,0.0,0.0,0.0,0.0,0.0,0.0,0.0,0.0
3620000,3540000,3.7892835e-06,0.0,0.00031541093,2.3702536e-11,0.0,94.35464,0.0,0.0,0.0,0.0,0.0,0.0,0.0,7.191428e-07,0.0,0.0,nan,0.0,0.0,0.0,0.0,0.0003857991,inf,0.0,0.0,0.00011372821,0.0,0.0,0.0,0.0,0.0,0.0,0.0,0.0
3628000,3548000,3.7892835e-06,0.0,0.00031541093,2.3702536e-11,0.0,94.35464,0.0,0.0,0.0,0.0,0.0,0.0,0.0,7.191428e-07,0.0,0.0,nan,0.0,0.0,0.0,0.0,0.0003857991,inf,0.0,0.0,5.5869757e-05,0.0,0.0,0.0,0.0,0.0,0.0,0.0,0.0
3636000,3556000,3.7892835e-06,0.0,0.00031541093,2.3702536e-11,0.0,94.35464,0.0,0.0,0.0,0.0,0.0,0.0,0.0,7.191428e-07,0.0,0.0,nan,0.0,0.0,0.0,0.0,0.0003857991,inf,0.0,0.0,0.00026341368,0.0,0.0,0.0,0.0,0.0,0.0,0.0,0.0
3644000,3564000,3.7892835e-06,0.0,0.00031541093,2.3702536e-11,0.0,94.35464,0.0,0.0,0.0,0.0,0.0,0.0,0.0,1.0935832e-05,0.0,0.0,nan,0.0,0.0,0.0,0.0,0.0003857991,inf,0.0,0.0,0.0006197087,0.0,0.0,0.0,0.0,0.0,0.0,0.0,0.0
3652000,3572000,3.7892835e-06,0.0,0.00031541093,2.3702536e-11,0.0,94.35464,0.0,0.0,0.0,0.0,0.0,0.0,0.0,1.0935832e-05,0.0,0.0,nan,0.0,0.0,0.0,0.0,2.7608288e-05,inf,0.0,0.0,0.0002096082,0.0,0.0,0.0,0.0,0.0,0.0,0.0,0.0
3660000,3580000,3.7892835e-06,0.0,0.00031541093,2.3702536e-11,0.0,94.35464,0.0,0.0,0.0,0.0,0.0,0.0,0.0,1.0935832e-05,0.0,0.0,nan,0.0,0.0,0.0,0.0,2.7608288e-05,inf,0.0,0.0,0.00012918339,0.0,0.0,0.0,0.0,0.0,0.0,0.0,0.0
3668000,3588000,3.7892835e-06,0.0,0.00031541093,2.3702536e-11,0.0,94.35464,0.0,0.0,0.0,0.0,0.0,0.0,0.0,1.0935832e-05,0.0,0.0,nan,0.0,0.0,0.0,0.0,2.7608288e-05,inf,0.0,0.0,0.00014725057,0.0,0.0,0.0,0.0,0.0,0.0,0.0,0.0
3676000,3596000,3.7892835e-06,0.0,0.00031541093,2.3702536e-11,0.0,94.35464,0.0,0.0,0.0,0.0,0.0,0.0,0.0,1.0935832e-05,0.0,0.0,nan,0.0,0.0,0.0,0.0,2.7608288e-05,inf,0.0,0.0,0.00016163572,0.0,0.0,0.0,0.0,0.0,0.0,0.0,0.0
3684000,3604000,3.7892835e-06,0.0,0.00031541093,2.3702536e-11,0.0,94.35464,0.0,0.0,0.0,0.0,0.0,0.0,0.0,1.0935832e-05,0.0,0.0,nan,0.0,0.0,0.0,0.0,2.7608288e-05,inf,0.0,0.0,0.00010893166,0.0,0.0,0.0,0.0,0.0,0.0,0.0,0.0
3692000,3612000,3.7892835e-06,0.0,0.00031541093,2.3702536e-11,0.0,94.35464,0.0,0.0,0.0,0.0,0.0,0.0,0.0,1.0935832e-05,0.0,0.0,nan,0.0,0.0,0.0,0.0,2.7608288e-05,inf,0.0,0.0,8.8069246e-05,0.0,0.0,0.0,0.0,0.0,0.0,0.0,0.0
3700000,3620000,3.7892835e-06,0.0,0.00031541093,2.3702536e-11,0.0,94.35464,0.0,0.0,0.0,0.0,0.0,0.0,0.0,1.1835517e-07,0.0,0.0,nan,0.0,0.0,0.0,0.0,2.7608288e-05,inf,0.0,0.0,0.00047023623,0.0,0.0,0.0,0.0,0.0,0.0,0.0,0.0
3708000,3628000,3.7892835e-06,0.0,0.00031541093,2.3702536e-11,0.0,94.35464,0.0,0.0,0.0,0.0,0.0,0.0,0.0,1.1835517e-07,0.0,0.0,nan,0.0,0.0,0.0,0.0,2.7608288e-05,inf,0.0,0.0,0.00051628664,0.0,0.0,0.0,0.0,0.0,0.0,0.0,0.0
3716000,3636000,3.7892835e-06,0.0,0.00031541093,2.3702536e-11,0.0,94.35464,0.0,0.0,0.0,0.0,0.0,0.0,0.0,1.1835517e-07,0.0,0.0,nan,0.0,0.0,0.0,0.0,2.7608288e-05,inf,0.0,0.0,0.00012653731,0.0,0.0,0.0,0.0,0.0,0.0,0.0,0.0
3724000,3644000,3.7892835e-06,0.0,0.00031541093,2.3702536e-11,0.0,94.35464,0.0,0.0,0.0,0.0,0.0,0.0,0.0,1.1835517e-07,0.0,0.0,nan,0.0,0.0,0.0,0.0,5.231534e-06,inf,0.0,0.0,0.00018941645,0.0,0.0,0.0,0.0,0.0,0.0,0.0,0.0
3732000,3652000,3.7892835e-06,0.0,0.00031541093,2.3702536e-11,0.0,94.35464,0.0,0.0,0.0,0.0,0.0,0.0,0.0,1.1835517e-07,0.0,0.0,nan,0.0,0.0,0.0,0.0,5.231534e-06,inf,0.0,0.0,0.00057816383,0.0,0.0,0.0,0.0,0.0,0.0,0.0,0.0
3740000,3660000,3.7892835e-06,0.0,0.00031541093,2.3702536e-11,0.0,94.35464,0.0,0.0,0.0,0.0,0.0,0.0,0.0,1.1835517e-07,0.0,0.0,nan,0.0,0.0,0.0,0.0,5.231534e-06,inf,0.0,0.0,0.0006763945,0.0,0.0,0.0,0.0,0.0,0.0,0.0,0.0
3748000,3668000,3.7892835e-06,0.0,0.00031541093,2.3702536e-11,0.0,94.35464,0.0,0.0,0.0,0.0,0.0,0.0,0.0,1.1835517e-07,0.0,0.0,nan,0.0,0.0,0.0,0.0,5.231534e-06,inf,0.0,0.0,5.90107e-05,0.0,0.0,0.0,0.0,0.0,0.0,0.0,0.0
3756000,3676000,3.7892835e-06,0.0,0.00031541093,2.3702536e-11,0.0,94.35464,0.0,0.0,0.0,0.0,0.0,0.0,0.0,1.1835517e-07,0.0,0.0,nan,0.0,0.0,0.0,0.0,5.231534e-06,inf,0.0,0.0,0.00080408785,0.0,0.0,0.0,0.0,0.0,0.0,0.0,0.0
3764000,3684000,3.7892835e-06,0.0,0.00031541093,2.3702536e-11,0.0,94.35464,0.0,0.0,0.0,0.0,0.0,0.0,0.0,5.588578e-08,0.0,0.0,nan,0.0,0.0,0.0,0.0,5.231534e-06,inf,0.0,0.0,0.00012288307,0.0,0.0,0.0,0.0,0.0,0.0,0.0,0.0
3772000,3692000,3.7892835e-06,0.0,0.00031541093,2.3702536e-11,0.0,94.35464,0.0,0.0,0.0,0.0,0.0,0.0,0.0,5.588578e-08,0.0,0.0,nan,0.0,0.0,0.0,0.0,5.231534e-06,inf,0.0,0.0,0.0004574271,0.0,0.0,0.0,0.0,0.0,0.0,0.0,0.0
3780000,3700000,3.7892835e-06,0.0,0.00031541093,2.3702536e-11,0.0,94.35464,0.0,0.0,0.0,0.0,0.0,0.0,0.0,5.588578e-08,0.0,0.0,nan,0.0,0.0,0.0,0.0,5.231534e-06,inf,0.0,0.0,8.1754e-05,0.0,0.0,0.0,0.0,0.0,0.0,0.0,0.0
3788000,3708000,3.7892835e-06,0.0,0.00031541093,2.3702536e-11,0.0,94.35464,0.0,0.0,0.0,0.0,0.0,0.0,0.0,5.588578e-08,0.0,0.0,nan,0.0,0.0,0.0,0.0,5.231534e-06,inf,0.0,0.0,7.228162e-05,0.0,0.0,0.0,0.0,0.0,0.0,0.0,0.0
3796000,3716000,3.7892835e-06,0.0,0.00031541093,2.3702536e-11,0.0,94.35464,0.0,0.0,0.0,0.0,0.0,0.0,0.0,5.588578e-08,0.0,0.0,nan,0.0,0.0,0.0,0.0,2.8352537e-07,inf,0.0,0.0,0.0004328475,0.0,0.0,0.0,0.0,0.0,0.0,0.0,0.0
3804000,3724000,3.7892835e-06,0.0,0.00031541093,2.3702536e-11,0.0,94.35464,0.0,0.0,0.0,0.0,0.0,0.0,0.0,5.588578e-08,0.0,0.0,nan,0.0,0.0,0.0,0.0,2.8352537e-07,inf,0.0,0.0,0.00037054362,0.0,0.0,0.0,0.0,0.0,0.0,0.0,0.0
3812000,3732000,3.7892835e-06,0.0,0.00031541093,2.3702536e-11,0.0,94.35464,0.0,0.0,0.0,0.0,0.0,0.0,0.0,5.588578e-08,0.0,0.0,nan,0.0,0.0,0.0,0.0,2.8352537e-07,inf,0.0,0.0,8.6027394e-05,0.0,0.0,0.0,0.0,0.0,0.0,0.0,0.0
3820000,3740000,3.7892835e-06,0.0,0.00031541093,2.3702536e-11,0.0,94.35464,0.0,0.0,0.0,0.0,0.0,0.0,0.0,5.097375e-07,0.0,0.0,nan,0.0,0.0,0.0,0.0,2.8352537e-07,inf,0.0,0.0,0.0009655824,0.0,0.0,0.0,0.0,0.0,0.0,0.0,0.0
3828000,3748000,3.7892835e-06,0.0,0.00031541093,2.3702536e-11,0.0,94.35464,0.0,0.0,0.0,0.0,0.0,0.0,0.0,5.097375e-07,0.0,0.0,nan,0.0,0.0,0.0,0.0,2.8352537e-07,inf,0.0,0.0,0.00033263137,0.0,0.0,0.0,0.0,0.0,0.0,0.0,0.0
3836000,3756000,3.7892835e-06,0.0,0.00031541093,2.3702536e-11,0.0,94.35464,0.0,0.0,0.0,0.0,0.0,0.0,0.0,5.097375e-07,0.0,0.0,nan,0.0,0.0,0.0,0.0,2.8352537e-07,inf,0.0,0.0,0.0003540026,0.0,0.0,0.0,0.0,0.0,0.0,0.0,0.0
3844000,3764000,3.7892835e-06,0.0,0.00031541093,2.3702536e-11,0.0,94.35464,0.0,0.0,0.0,0.0,0.0,0.0,0.0,5.097375e-07,0.0,0.0,nan,0.0,0.0,0.0,0.0,2.8352537e-07,inf,0.0,0.0,0.0004013672,0.0,0.0,0.0,0.0,0.0,0.0,0.0,0.0
3852000,3772000,3.7892835e-06,0.0,0.00031541093,2.3702536e-11,0.0,94.35464,0.0,0.0,0.0,0.0,0.0,0.0,0.0,5.097375e-07,0.0,0.0,nan,0.0,0.0,0.0,0.0,2.8352537e-07,inf,0.0,0.0,0.00021106661,0.0,0.0,0.0,0.0,0.0,0.0,0.0,0.0
3860000,3780000,3.7892835e-06,0.0,0.00031541093,2.3702536e-11,0.0,94.35464,0.0,0.0,0.0,0.0,0.0,0.0,0.0,5.097375e-07,0.0,0.0,nan,0.0,0.0,0.0,0.0,2.8352537e-07,inf,0.0,0.0,5.134413e-05,0.0,0.0,0.0,0.0,0.0,0.0,0.0,0.0
3868000,3788000,3.7892835e-06,0.0,0.00031541093,2.3702536e-11,0.0,94.35464,0.0,0.0,0.0,0.0,0.0,0.0,0.0,5.097375e-07,0.0,0.0,nan,0.0,0.0,0.0,0.0,0.0016572608,inf,0.0,0.0,0.0010915193,0.0,0.0,0.0,0.0,0.0,0.0,0.0,0.0
3876000,3796000,3.7892835e-06,0.0,0.00031541093,2.3702536e-11,0.0,94.35464,0.0,0.0,0.0,0.0,0.0,0.0,0.0,5.097375e-07,0.0,0.0,nan,0.0,0.0,0.0,0.0,0.0016572608,inf,0.0,0.0,7.987461e-05,0.0,0.0,0.0,0.0,0.0,0.0,0.0,0.0
3884000,3804000,3.7892835e-06,0.0,0.00031541093,2.3702536e-11,0.0,94.35464,0.0,0.0,0.0,0.0,0.0,0.0,0.0,1.7971895e-05,0.0,0.0,nan,0.0,0.0,0.0,0.0,0.0016572608,inf,0.0,0.0,4.3654207e-05,0.0,0.0,0.0,0.0,0.0,0.0,0.0,0.0
3892000,3812000,3.7892835e-06,0.0,0.00031541093,2.3702536e-11,0.0,94.35464,0.0,0.0,0.0,0.0,0.0,0.0,0.0,1.7971895e-05,0.0,0.0,nan,0.0,0.0,0.0,0.0,0.0016572608,inf,0.0,0.0,0.00050607254,0.0,0.0,0.0,0.0,0.0,0.0,0.0,0.0
3900000,3820000,2.0474713e-06,0.0,2.375363e-05,1.7368882e-09,0.0,277.57452,0.0,0.0,0.0,0.0,0.0,0.0,0.0,1.7971895e-05,0.0,0.0,nan,0.0,0.0,0.0,0.0,0.0016572608,inf,0.0,0.0,0.0006911966,0.0,0.0,0.0,0.0,0.0,0.0,0.0,0.0
3908000,3828000,2.0474713e-06,0.0,2.375363e-05,1.7368882e-09,0.0,277.57452,0.0,0.0,0.0,0.0,0.0,0.0,0.0,1.7971895e-05,0.0,0.0,nan,0.0,0.0,0.0,0.0,0.0016572608,inf,0.0,0.0,0.00050083734,0.0,0.0,0.0,0.0,0.0,0.0,0.0,0.0
3916000,3836000,2.0474713e-06,0.0,2.375363e-05,1.7368882e-09,0.0,277.57452,0.0,0.0,0.0,0.0,0.0,0.0,0.0,1.7971895e-05,0.0,0.0,nan,0.0,0.0,0.0,0.0,0.0016572608,inf,0.0,0.0,0.00034545863,0.0,0.0,0.0,0.0,0.0,0.0,0.0,0.0
3924000,3844000,2.0474713e-06,0.0,2.375363e-05,1.7368882e-09,0.0,277.57452,0.0,0.0,0.0,0.0,0.0,0.0,0.0,1.7971895e-05,0.0,0.0,nan,0.0,0.0,0.0,0.0,0.0016572608,inf,0.0,0.0,0.00033721243,0.0,0.0,0.0,0.0,0.0,0.0,0.0,0.0
3932000,3852000,2.0474713e-06,0.0,2.375363e-05,1.7368882e-09,0.0,277.57452,0.0,0.0,0.0,0.0,0.0,0.0,0.0,1.7971895e-05,0.0,0.0,nan,0.0,0.0,0.0,0.0,0.0016572608,inf,0.0,0.0,0.0006259617,0.0,0.0,0.0,0.0,0.0,0.0,0.0,0.0
3940000,3860000,2.0474713e-06,0.0,2.375363e-05,1.7368882e-09,0.0,277.57452,0.0,0.0,0.0,0.0,0.0,0.0,0.0,1.127009e-06,0.0,0.0,nan,0.0,0.0,0.0,0.0,3.5643185e-05,inf,0.0,0.0,0.00011057152,0.0,0.0,0.0,0.0,0.0,0.0,0.0,0.0
3948000,3868000,2.0474713e-06,0.0,2.375363e-05,1.7368882e-09,0.0,277.57452,0.0,0.0,0.0,0.0,0.0,0.0,0.0,1.127009e-06,0.0,0.0,nan,0.0,0.0,0.0,0.0,3.5643185e-05,inf,0.0,0.0,0.000733833,0.0,0.0,0.0,0.0,0.0,0.0,0.0,0.0
3956000,3876000,2.0474713e-06,0.0,2.375363e-05,1.7368882e-09,0.0,277.57452,0.0,0.0,0.0,0.0,0.0,0.0,0.0,1.127009e-06,0.0,0.0,nan,0.0,0.0,0.0,0.0,3.5643185e-05,inf,0.0,0.0,0.000258967,0.0,0.0,0.0,0.0,0.0,0.0,0.0,0.0
3964000,3884000,2.0474713e-06,0.0,2.375363e-05,1.7368882e-09,0.0,277.57452,0.0,0.0,0.0,0.0,0.0,0.0,0.0,1.127009e-06,0.0,0.0,nan,0.0,0.0,0.0,0.0,3.5643185e-05,inf,0.0,0.0,0.0006543854,0.0,0.0,0.0,0.0,0.0,0.0,0.0,0.0
3972000,3892000,2.0474713e-06,0.0,2.375363e-05,1.7368882e-09,0.0,277.57452,0.0,0.0,0.0,0.0,0.0,0.0,0.0,1.127009e-06,0.0,0.0,nan,0.0,0.0,0.0,0.0,3.5643185e-05,inf,0.0,0.0,0.00018398823,0.0,0.0,0.0,0.0,0.0,0.0,0.0,0.0
3980000,3900000,2.0474713e-06,0.0,2.375363e-05,1.7368882e-09,0.0,277.57452,0.0,0.0,0.0,0.0,0.0,0.0,0.0,1.127009e-06,0.0,0.0,nan,0.0,0.0,0.0,0.0,3.5643185e-05,inf,0.0,0.0,0.00014849388,0.0,0.0,0.0,0.0,0.0,0.0,0.0,0.0
3988000,3908000,2.0474713e-06,0.0,2.375363e-05,1.7368882e-09,0.0,277.57452,0.0,0.0,0.0,0.0,0.0,0.0,0.0,1.127009e-06,0.0,0.0,nan,0.0,0.0,0.0,0.0,3.5643185e-05,inf,0.0,0.0,0.00059700856,0.0,0.0,0.0,0.0,0.0,0.0,0.0,0.0
3996000,3916000,2.0474713e-06,0.0,2.375363e-05,1.7368882e-09,0.0,277.57452,0.0,0.0,0.0,0.0,0.0,0.0,0.0,1.127009e-06,0.0,0.0,nan,0.0,0.0,0.0,0.0,3.5643185e-05,inf,0.0,0.0,0.00034948712,0.0,0.0,0.0,0.0,0.0,0.0,0.0,0.0
4004000,3924000,2.0474713e-06,0.0,2.375363e-05,1.7368882e-09,0.0,277.57452,0.0,0.0,0.0,0.0,0.0,0.0,0.0,2.472184e-05,0.0,0.0,nan,0.0,0.0,0.0,0.0,3.5643185e-05,inf,0.0,0.0,8.843829e-05,0.0,0.0,0.0,0.0,0.0,0.0,0.0,0.0
4012000,3932000,2.0474713e-06,0.0,2.375363e-05,1.7368882e-09,0.0,277.57452,0.0,0.0,0.0,0.0,0.0,0.0,0.0,2.472184e-05,0.0,0.0,nan,0.0,0.0,0.0,0.0,0.00027656712,inf,0.0,0.0,0.0016158399,0.0,0.0,0.0,0.0,0.0,0.0,0.0,0.0
4020000,3940000,2.0474713e-06,0.0,2.375363e-05,1.7368882e-09,0.0,277.57452,0.0,0.0,0.0,0.0,0.0,0.0,0.0,2.472184e-05,0.0,0.0,nan,0.0,0.0,0.0,0.0,0.00027656712,inf,0.0,0.0,0.0015836658,0.0,0.0,0.0,0.0,0.0,0.0,0.0,0.0
4028000,3948000,2.0474713e-06,0.0,2.375363e-05,1.7368882e-09,0.0,277.57452,0.0,0.0,0.0,0.0,0.0,0.0,0.0,2.472184e-05,0.0,0.0,nan,0.0,0.0,0.0,0.0,0.00027656712,inf,0.0,0.0,0.0018198704,0.0,0.0,0.0,0.0,0.0,0.0,0.0,0.0
4036000,3956000,2.0474713e-06,0.0,2.375363e-05,1.7368882e-09,0.0,277.57452,0.0,0.0,0.0,0.0,0.0,0.0,0.0,2.472184e-05,0.0,0.0,nan,0.0,0.0,0.0,0.0,0.00027656712,inf,0.0,0.0,0.00013656853,0.0,0.0,0.0,0.0,0.0,0.0,0.0,0.0
4044000,3964000,2.0474713e-06,0.0,2.375363e-05,1.7368882e-09,0.0,277.57452,0.0,0.0,0.0,0.0,0.0,0.0,0.0,2.472184e-05,0.0,0.0,nan,0.0,0.0,0.0,0.0,0.00027656712,inf,0.0,0.0,0.000331846,0.0,0.0,0.0,0.0,0.0,0.0,0.0,0.0
4052000,3972000,2.0474713e-06,0.0,2.375363e-05,1.7368882e-09,0.0,277.57452,0.0,0.0,0.0,0.0,0.0,0.0,0.0,2.472184e-05,0.0,0.0,nan,0.0,0.0,0.0,0.0,0.00027656712,inf,0.0,0.0,0.000500894,0.0,0.0,0.0,0.0,0.0,0.0,0.0,0.0
4060000,3980000,2.0474713e-06,0.0,2.375363e-05,1.7368882e-09,0.0,277.57452,0.0,0.0,0.0,0.0,0.0,0.0,0.0,6.0694456e-06,0.0,0.0,nan,0.0,0.0,0.0,0.0,0.00027656712,inf,0.0,0.0,0.0024659145,0.0,0.0,0.0,0.0,0.0,0.0,0.0,0.0
4068000,3988000,2.0474713e-06,0.0,2.375363e-05,1.7368882e-09,0.0,277.57452,0.0,0.0,0.0,0.0,0.0,0.0,0.0,6.0694456e-06,0.0,0.0,nan,0.0,0.0,0.0,0.0,0.00027656712,inf,0.0,0.0,0.00030603423,0.0,0.0,0.0,0.0,0.0,0.0,0.0,0.0
4076000,3996000,2.0474713e-06,0.0,2.375363e-05,1.7368882e-09,0.0,277.57452,0.0,0.0,0.0,0.0,0.0,0.0,0.0,6.0694456e-06,0.0,0.0,nan,0.0,0.0,0.0,0.0,0.00027656712,inf,0.0,0.0,0.000895731,0.0,0.0,0.0,0.0,0.0,0.0,0.0,0.0
4084000,4004000,2.0474713e-06,0.0,2.375363e-05,1.7368882e-09,0.0,277.57452,0.0,0.0,0.0,0.0,0.0,0.0,0.0,6.0694456e-06,0.0,0.0,nan,0.0,0.0,0.0,0.0,0.00023475313,inf,0.0,0.0,0.0004809397,0.0,0.0,0.0,0.0,0.0,0.0,0.0,0.0
4092000,4012000,2.0474713e-06,0.0,2.375363e-05,1.7368882e-09,0.0,277.57452,0.0,0.0,0.0,0.0,0.0,0.0,0.0,6.0694456e-06,0.0,0.0,nan,0.0,0.0,0.0,0.0,0.00023475313,inf,0.0,0.0,0.00029141555,0.0,0.0,0.0,0.0,0.0,0.0,0.0,0.0
4100000,4020000,2.0474713e-06,0.0,2.375363e-05,1.7368882e-09,0.0,277.57452,0.0,0.0,0.0,0.0,0.0,0.0,0.0,6.0694456e-06,0.0,0.0,nan,0.0,0.0,0.0,0.0,0.00023475313,inf,0.0,0.0,0.0011006752,0.0,0.0,0.0,0.0,0.0,0.0,0.0,0.0
4108000,4028000,2.0474713e-06,0.0,2.375363e-05,1.7368882e-09,0.0,277.57452,0.0,0.0,0.0,0.0,0.0,0.0,0.0,6.0694456e-06,0.0,0.0,nan,0.0,0.0,0.0,0.0,0.00023475313,inf,0.0,0.0,1.873393e-05,0.0,0.0,0.0,0.0,0.0,0.0,0.0,0.0
4116000,4036000,2.0474713e-06,0.0,2.375363e-05,1.7368882e-09,0.0,277.57452,0.0,0.0,0.0,0.0,0.0,0.0,0.0,7.302791e-07,0.0,0.0,nan,0.0,0.0,0.0,0.0,0.00023475313,inf,0.0,0.0,0.0005065741,0.0,0.0,0.0,0.0,0.0,0.0,0.0,0.0
4124000,4044000,2.0474713e-06,0.0,2.375363e-05,1.7368882e-09,0.0,277.57452,0.0,0.0,0.0,0.0,0.0,0.0,0.0,7.302791e-07,0.0,0.0,nan,0.0,0.0,0.0,0.0,0.00023475313,inf,0.0,0.0,4.0414543e-05,0.0,0.0,0.0,0.0,0.0,0.0,0.0,0.0
4132000,4052000,2.0474713e-06,0.0,2.375363e-05,1.7368882e-09,0.0,277.57452,0.0,0.0,0.0,0.0,0.0,0.0,0.0,7.302791e-07,0.0,0.0,nan,0.0,0.0,0.0,0.0,0.00023475313,inf,0.0,0.0,0.00015871342,0.0,0.0,0.0,0.0,0.0,0.0,0.0,0.0
4140000,4060000,2.0474713e-06,0.0,2.375363e-05,1.7368882e-09,0.0,277.57452,0.0,0.0,0.0,0.0,0.0,0.0,0.0,7.302791e-07,0.0,0.0,nan,0.0,0.0,0.0,0.0,0.00023475313,inf,0.0,0.0,0.00011692932,0.0,0.0,0.0,0.0,0.0,0.0,0.0,0.0
4148000,4068000,2.0474713e-06,0.0,2.375363e-05,1.7368882e-09,0.0,277.57452,0.0,0.0,0.0,0.0,0.0,0.0,0.0,7.302791e-07,0.0,0.0,nan,0.0,0.0,0.0,0.0,0.00023475313,inf,0.0,0.0,0.00038632867,0.0,0.0,0.0,0.0,0.0,0.0,0.0,0.0
4156000,4076000,2.0474713e-06,0.0,2.375363e-05,1.7368882e-09,0.0,277.57452,0.0,0.0,0.0,0.0,0.0,0.0,0.0,7.302791e-07,0.0,0.0,nan,0.0,0.0,0.0,0.0,1.4724934e-05,inf,0.0,0.0,1.7104072e-05,0.0,0.0,0.0,0.0,0.0,0.0,0.0,0.0
4164000,4084000,2.0474713e-06,0.0,2.375363e-05,1.7368882e-09,0.0,277.57452,0.0,0.0,0.0,0.0,0.0,0.0,0.0,7.302791e-07,0.0,0.0,nan,0.0,0.0,0.0,0.0,1.4724934e-05,inf,0.0,0.0,6.8968875e-05,0.0,0.0,0.0,0.0,0.0,0.0,0.0,0.0
4172000,4092000,2.0474713e-06,0.0,2.375363e-05,1.7368882e-09,0.0,277.57452,0.0,0.0,0.0,0.0,0.0,0.0,0.0,1.1298309e-06,0.0,0.0,nan,0.0,0.0,0.0,0.0,1.4724934e-05,inf,0.0,0.0,0.0003930034,0.0,0.0,0.0,0.0,0.0,0.0,0.0,0.0
4180000,4100000,2.0474713e-06,0.0,2.375363e-05,1.7368882e-09,0.0,277.57452,0.0,0.0,0.0,0.0,0.0,0.0,0.0,1.1298309e-06,0.0,0.0,nan,0.0,0.0,0.0,0.0,1.4724934e-05,inf,0.0,0.0,0.00033048503,0.0,0.0,0.0,0.0,0.0,0.0,0.0,0.0
4188000,4108000,2.0474713e-06,0.0,2.375363e-05,1.7368882e-09,0.0,277.57452,0.0,0.0,0.0,0.0,0.0,0.0,0.0,1.1298309e-06,0.0,0.0,nan,0.0,0.0,0.0,0.0,1.4724934e-05,inf,0.0,0.0,0.00035025252,0.0,0.0,0.0,0.0,0.0,0.0,0.0,0.0
4196000,4116000,2.0474713e-06,0.0,2.375363e-05,1.7368882e-09,0.0,277.57452,0.0,0.0,0.0,0.0,0.0,0.0,0.0,1.1298309e-06,0.0,0.0,nan,0.0,0.0,0.0,0.0,1.4724934e-05,inf,0.0,0.0,2.8419106e-05,0.0,0.0,0.0,0.0,0.0,0.0,0.0,0.0
4204000,4124000,2.0474713e-06,0.0,2.375363e-05,1.7368882e-09,0.0,277.57452,0.0,0.0,0.0,0.0,0.0,0.0,0.0,1.1298309e-06,0.0,0.0,nan,0.0,0.0,0.0,0.0,1.4724934e-05,inf,0.0,0.0,9.025848e-05,0.0,0.0,0.0,0.0,0.0,0.0,0.0,0.0
4212000,4132000,2.0474713e-06,0.0,2.375363e-05,1.7368882e-09,0.0,277.57452,0.0,0.0,0.0,0.0,0.0,0.0,0.0,1.1298309e-06,0.0,0.0,nan,0.0,0.0,0.0,0.0,1.4724934e-05,inf,0.0,0.0,0.00012343608,0.0,0.0,0.0,0.0,0.0,0.0,0.0,0.0
4220000,4140000,2.0474713e-06,0.0,2.375363e-05,1.7368882e-09,0.0,277.57452,0.0,0.0,0.0,0.0,0.0,0.0,0.0,1.1298309e-06,0.0,0.0,nan,0.0,0.0,0.0,0.0,1.4724934e-05,inf,0.0,0.0,0.00025430036,0.0,0.0,0.0,0.0,0.0,0.0,0.0,0.0
4228000,4148000,2.0474713e-06,0.0,2.375363e-05,1.7368882e-09,0.0,277.57452,0.0,0.0,0.0,0.0,0.0,0.0,0.0,1.6842872e-06,0.0,0.0,nan,0.0,0.0,0.0,0.0,3.2003202e-06,inf,0.0,0.0,0.00028640605,0.0,0.0,0.0,0.0,0.0,0.0,0.0,0.0
4236000,4156000,2.0474713e-06,0.0,2.375363e-05,1.7368882e-09,0.0,277.57452,0.0,0.0,0.0,0.0,0.0,0.0,0.0,1.6842872e-06,0.0,0.0,nan,0.0,0.0,0.0,0.0,3.2003202e-06,inf,0.0,0.0,6.717606e-05,0.0,0.0,0.0,0.0,0.0,0.0,0.0,0.0
4244000,4164000,2.0474713e-06,0.0,2.375363e-05,1.7368882e-09,0.0,277.57452,0.0,0.0,0.0,0.0,0.0,0.0,0.0,1.6842872e-06,0.0,0.0,nan,0.0,0.0,0.0,0.0,3.2003202e-06,inf,0.0,0.0,1.0163929e-05,0.0,0.0,0.0,0.0,0.0,0.0,0.0,0.0
4252000,4172000,2.0474713e-06,0.0,2.375363e-05,1.7368882e-09,0.0,277.57452,0.0,0.0,0.0,0.0,0.0,0.0,0.0,1.6842872e-06,0.0,0.0,nan,0.0,0.0,0.0,0.0,3.2003202e-06,inf,0.0,0.0,0.00020115338,0.0,0.0,0.0,0.0,0.0,0.0,0.0,0.0
4260000,4180000,2.0474713e-06,0.0,2.375363e-05,1.7368882e-09,0.0,277.57452,0.0,0.0,0.0,0.0,0.0,0.0,0.0,1.6842872e-06,0.0,0.0,nan,0.0,0.0,0.0,0.0,3.2003202e-06,inf,0.0,0.0,0.0005447753,0.0,0.0,0.0,0.0,0.0,0.0,0.0,0.0
4268000,4188000,2.0474713e-06,0.0,2.375363e-05,1.7368882e-09,0.0,277.57452,0.0,0.0,0.0,0.0,0.0,0.0,0.0,1.6842872e-06,0.0,0.0,nan,0.0,0.0,0.0,0.0,3.2003202e-06,inf,0.0,0.0,0.00028557092,0.0,0.0,0.0,0.0,0.0,0.0,0.0,0.0
4276000,4196000,2.0474713e-06,0.0,2.375363e-05,1.7368882e-09,0.0,277.57452,0.0,0.0,0.0,0.0,0.0,0.0,0.0,1.6842872e-06,0.0,0.0,nan,0.0,0.0,0.0,0.0,3.2003202e-06,inf,0.0,0.0,0.0007044542,0.0,0.0,0.0,0.0,0.0,0.0,0.0,0.0
4284000,4204000,2.0474713e-06,0.0,2.375363e-05,1.7368882e-09,0.0,277.57452,0.0,0.0,0.0,0.0,0.0,0.0,0.0,1.6842872e-06,0.0,0.0,nan,0.0,0.0,0.0,0.0,3.2003202e-06,inf,0.0,0.0,0.00012329314,0.0,0.0,0.0,0.0,0.0,0.0,0.0,0.0
4292000,4212000,2.0474713e-06,0.0,2.375363e-05,1.7368882e-09,0.0,277.57452,0.0,0.0,0.0,0.0,0.0,0.0,0.0,1.1713624e-06,0.0,0.0,nan,0.0,0.0,0.0,0.0,3.2003202e-06,inf,0.0,0.0,0.0011713367,0.0,0.0,0.0,0.0,0.0,0.0,0.0,0.0
4300000,4220000,4.980172e-06,0.0,0.00011574622,8.463995e-09,0.0,2.1440044e-10,0.0,0.0,0.0,0.0,0.0,0.0,0.0,1.1713624e-06,0.0,0.0,nan,0.0,0.0,0.0,0.0,0.00033522298,inf,0.0,0.0,0.0006006762,0.0,0.0,0.0,0.0,0.0,0.0,0.0,0.0
4308000,4228000,4.980172e-06,0.0,0.00011574622,8.463995e-09,0.0,2.1440044e-10,0.0,0.0,0.0,0.0,0.0,0.0,0.0,1.1713624e-06,0.0,0.0,nan,0.0,0.0,0.0,0.0,0.00033522298,inf,0.0,0.0,0.00020822936,0.0,0.0,0.0,0.0,0.0,0.0,0.0,0.0
4316000,4236000,4.980172e-06,0.0,0.00011574622,8.463995e-09,0.0,2.1440044e-10,0.0,0.0,0.0,0.0,0.0,0.0,0.0,1.1713624e-06,0.0,0.0,nan,0.0,0.0,0.0,0.0,0.00033522298,inf,0.0,0.0,0.0005343972,0.0,0.0,0.0,0.0,0.0,0.0,0.0,0.0
4324000,4244000,4.980172e-06,0.0,0.00011574622,8.463995e-09,0.0,2.1440044e-10,0.0,0.0,0.0,0.0,0.0,0.0,0.0,1.1713624e-06,0.0,0.0,nan,0.0,0.0,0.0,0.0,0.00033522298,inf,0.0,0.0,0.0007841123,0.0,0.0,0.0,0.0,0.0,0.0,0.0,0.0
4332000,4252000,4.980172e-06,0.0,0.00011574622,8.463995e-09,0.0,2.1440044e-10,0.0,0.0,0.0,0.0,0.0,0.0,0.0,1.1713624e-06,0.0,0.0,nan,0.0,0.0,0.0,0.0,0.00033522298,inf,0.0,0.0,0.0007491146,0.0,0.0,0.0,0.0,0.0,0.0,0.0,0.0
4340000,4260000,4.980172e-06,0.0,0.00011574622,8.463995e-09,0.0,2.1440044e-10,0.0,0.0,0.0,0.0,0.0,0.0,0.0,1.1713624e-06,0.0,0.0,nan,0.0,0.0,0.0,0.0,0.00033522298,inf,0.0,0.0,0.00015206015,0.0,0.0,0.0,0.0,0.0,0.0,0.0,0.0
4348000,4268000,4.980172e-06,0.0,0.00011574622,8.463995e-09,0.0,2.1440044e-10,0.0,0.0,0.0,0.0,0.0,0.0,0.0,5.4202334e-05,0.0,0.0,nan,0.0,0.0,0.0,0.0,0.00033522298,inf,0.0,0.0,3.5188717e-05,0.0,0.0,0.0,0.0,0.0,0.0,0.0,0.0
4356000,4276000,4.980172e-06,0.0,0.00011574622,8.463995e-09,0.0,2.1440044e-10,0.0,0.0,0.0,0.0,0.0,0.0,0.0,5.4202334e-05,0.0,0.0,nan,0.0,0.0,0.0,0.0,0.00033522298,inf,0.0,0.0,2.0167783e-05,0.0,0.0,0.0,0.0,0.0,0.0,0.0,0.0
4364000,4284000,4.980172e-06,0.0,0.00011574622,8.463995e-09,0.0,2.1440044e-10,0.0,0.0,0.0,0.0,0.0,0.0,0.0,5.4202334e-05,0.0,0.0,nan,0.0,0.0,0.0,0.0,0.00033522298,inf,0.0,0.0,0.0005485064,0.0,0.0,0.0,0.0,0.0,0.0,0.0,0.0
4372000,4292000,4.980172e-06,0.0,0.00011574622,8.463995e-09,0.0,2.1440044e-10,0.0,0.0,0.0,0.0,0.0,0.0,0.0,5.4202334e-05,0.0,0.0,nan,0.0,0.0,0.0,0.0,8.005166e-05,inf,0.0,0.0,0.0003700903,0.0,0.0,0.0,0.0,0.0,0.0,0.0,0.0
4380000,4300000,4.980172e-06,0.0,0.00011574622,8.463995e-09,0.0,2.1440044e-10,0.0,0.0,0.0,0.0,0.0,0.0,0.0,5.4202334e-05,0.0,0.0,nan,0.0,0.0,0.0,0.0,8.005166e-05,inf,0.0,0.0,0.000292489,0.0,0.0,0.0,0.0,0.0,0.0,0.0,0.0
4388000,4308000,4.980172e-06,0.0,0.00011574622,8.463995e-09,0.0,2.1440044e-10,0.0,0.0,0.0,0.0,0.0,0.0,0.0,5.4202334e-05,0.0,0.0,nan,0.0,0.0,0.0,0.0,8.005166e-05,inf,0.0,0.0,0.0005304663,0.0,0.0,0.0,0.0,0.0,0.0,0.0,0.0
4396000,4316000,4.980172e-06,0.0,0.00011574622,8.463995e-09,0.0,2.1440044e-10,0.0,0.0,0.0,0.0,0.0,0.0,0.0,2.004367e-06,0.0,0.0,nan,0.0,0.0,0.0,0.0,8.005166e-05,inf,0.0,0.0,0.00046864137,0.0,0.0,0.0,0.0,0.0,0.0,0.0,0.0
4404000,4324000,4.980172e-06,0.0,0.00011574622,8.463995e-09,0.0,2.1440044e-10,0.0,0.0,0.0,0.0,0.0,0.0,0.0,2.004367e-06,0.0,0.0,nan,0.0,0.0,0.0,0.0,8.005166e-05,inf,0.0,0.0,0.0004494935,0.0,0.0,0.0,0.0,0.0,0.0,0.0,0.0
4412000,4332000,4.980172e-06,0.0,0.00011574622,8.463995e-09,0.0,2.1440044e-10,0.0,0.0,0.0,0.0,0.0,0.0,0.0,2.004367e-06,0.0,0.0,nan,0.0,0.0,0.0,0.0,8.005166e-05,inf,0.0,0.0,0.00041823272,0.0,0.0,0.0,0.0,0.0,0.0,0.0,0.0
4420000,4340000,4.980172e-06,0.0,0.00011574622,8.463995e-09,0.0,2.1440044e-10,0.0,0.0,0.0,0.0,0.0,0.0,0.0,2.004367e-06,0.0,0.0,nan,0.0,0.0,0.0,0.0,8.005166e-05,inf,0.0,0.0,0.00050803425,0.0,0.0,0.0,0.0,0.0,0.0,0.0,0.0
4428000,4348000,4.980172e-06,0.0,0.00011574622,8.463995e-09,0.0,2.1440044e-10,0.0,0.0,0.0,0.0,0.0,0.0,0.0,2.004367e-06,0.0,0.0,nan,0.0,0.0,0.0,0.0,8.005166e-05,inf,0.0,0.0,0.0001984738,0.0,0.0,0.0,0.0,0.0,0.0,0.0,0.0
4436000,4356000,4.980172e-06,0.0,0.00011574622,8.463995e-09,0.0,2.1440044e-10,0.0,0.0,0.0,0.0,0.0,0.0,0.0,2.004367e-06,0.0,0.0,nan,0.0,0.0,0.0,0.0,8.005166e-05,inf,0.0,0.0,0.0004162178,0.0,0.0,0.0,0.0,0.0,0.0,0.0,0.0
4444000,4364000,4.980172e-06,0.0,0.00011574622,8.463995e-09,0.0,2.1440044e-10,0.0,0.0,0.0,0.0,0.0,0.0,0.0,2.004367e-06,0.0,0.0,nan,0.0,0.0,0.0,0.0,0.0027817062,inf,0.0,0.0,0.00053254835,0.0,0.0,0.0,0.0,0.0,0.0,0.0,0.0
4452000,4372000,4.980172e-06,0.0,0.00011574622,8.463995e-09,0.0,2.1440044e-10,0.0,0.0,0.0,0.0,0.0,0.0,0.0,2.004367e-06,0.0,0.0,nan,0.0,0.0,0.0,0.0,0.0027817062,inf,0.0,0.0,4.019641e-05,0.0,0.0,0.0,0.0,0.0,0.0,0.0,0.0
4460000,4380000,4.980172e-06,0.0,0.00011574622,8.463995e-09,0.0,2.1440044e-10,0.0,0.0,0.0,0.0,0.0,0.0,0.0,1.771376e-05,0.0,0.0,nan,0.0,0.0,0.0,0.0,0.0027817062,inf,0.0,0.0,0.00011606544,0.0,0.0,0.0,0.0,0.0,0.0,0.0,0.0
4468000,4388000,4.980172e-06,0.0,0.00011574622,8.463995e-09,0.0,2.1440044e-10,0.0,0.0,0.0,0.0,0.0,0.0,0.0,1.771376e-05,0.0,0.0,nan,0.0,0.0,0.0,0.0,0.0027817062,inf,0.0,0.0,0.0002636956,0.0,0.0,0.0,0.0,0.0,0.0,0.0,0.0
4476000,4396000,4.980172e-06,0.0,0.00011574622,8.463995e-09,0.0,2.1440044e-10,0.0,0.0,0.0,0.0,0.0,0.0,0.0,1.771376e-05,0.0,0.0,nan,0.0,0.0,0.0,0.0,0.0027817062,inf,0.0,0.0,4.2484542e-05,0.0,0.0,0.0,0.0,0.0,0.0,0.0,0.0
4484000,4404000,4.980172e-06,0.0,0.00011574622,8.463995e-09,0.0,2.1440044e-10,0.0,0.0,0.0,0.0,0.0,0.0,0.0,1.771376e-05,0.0,0.0,nan,0.0,0.0,0.0,0.0,0.0027817062,inf,0.0,0.0,5.393566e-05,0.0,0.0,0.0,0.0,0.0,0.0,0.0,0.0
4492000,4412000,4.980172e-06,0.0,0.00011574622,8.463995e-09,0.0,2.1440044e-10,0.0,0.0,0.0,0.0,0.0,0.0,0.0,1.771376e-05,0.0,0.0,nan,0.0,0.0,0.0,0.0,0.0027817062,inf,0.0,0.0,0.00022335832,0.0,0.0,0.0,0.0,0.0,0.0,0.0,0.0
4500000,4420000,4.980172e-06,0.0,0.00011574622,8.463995e-09,0.0,2.1440044e-10,0.0,0.0,0.0,0.0,0.0,0.0,0.0,1.771376e-05,0.0,0.0,nan,0.0,0.0,0.0,0.0,0.0027817062,inf,0.0,0.0,0.0006082978,0.0,0.0,0.0,0.0,0.0,0.0,0.0,0.0
4508000,4428000,4.980172e-06,0.0,0.00011574622,8.463995e-09,0.0,2.1440044e-10,0.0,0.0,0.0,0.0,0.0,0.0,0.0,1.771376e-05,0.0,0.0,nan,0.0,0.0,0.0,0.0,0.0027817062,inf,0.0,0.0,0.00013170265,0.0,0.0,0.0,0.0,0.0,0.0,0.0,0.0
4516000,4436000,4.980172e-06,0.0,0.00011574622,8.463995e-09,0.0,2.1440044e-10,0.0,0.0,0.0,0.0,0.0,0.0,0.0,4.151292e-07,0.0,0.0,nan,0.0,0.0,0.0,0.0,1.5319054e-05,inf,0.0,0.0,0.00022630057,0.0,0.0,0.0,0.0,0.0,0.0,0.0,0.0
4524000,4444000,4.980172e-06,0.0,0.00011574622,8.463995e-09,0.0,2.1440044e-10,0.0,0.0,0.0,0.0,0.0,0.0,0.0,4.151292e-07,0.0,0.0,nan,0.0,0.0,0.0,0.0,1.5319054e-05,inf,0.0,0.0,0.00022347047,0.0,0.0,0.0,0.0,0.0,0.0,0.0,0.0
4532000,4452000,4.980172e-06,0.0,0.00011574622,8.463995e-09,0.0,2.1440044e-10,0.0,0.0,0.0,0.0,0.0,0.0,0.0,4.151292e-07,0.0,0.0,nan,0.0,0.0,0.0,0.0,1.5319054e-05,inf,0.0,0.0,6.344664e-05,0.0,0.0,0.0,0.0,0.0,0.0,0.0,0.0
4540000,4460000,4.980172e-06,0.0,0.00011574622,8.463995e-09,0.0,2.1440044e-10,0.0,0.0,0.0,0.0,0.0,0.0,0.0,4.151292e-07,0.0,0.0,nan,0.0,0.0,0.0,0.0,1.5319054e-05,inf,0.0,0.0,0.0010213112,0.0,0.0,0.0,0.0,0.0,0.0,0.0,0.0
4548000,4468000,4.980172e-06,0.0,0.00011574622,8.463995e-09,0.0,2.1440044e-10,0.0,0.0,0.0,0.0,0.0,0.0,0.0,4.151292e-07,0.0,0.0,nan,0.0,0.0,0.0,0.0,1.5319054e-05,inf,0.0,0.0,0.00024225311,0.0,0.0,0.0,0.0,0.0,0.0,0.0,0.0
4556000,4476000,4.980172e-06,0.0,0.00011574622,8.463995e-09,0.0,2.1440044e-10,0.0,0.0,0.0,0.0,0.0,0.0,0.0,4.151292e-07,0.0,0.0,nan,0.0,0.0,0.0,0.0,1.5319054e-05,inf,0.0,0.0,0.0004910417,0.0,0.0,0.0,0.0,0.0,0.0,0.0,0.0
4564000,4484000,4.980172e-06,0.0,0.00011574622,8.463995e-09,0.0,2.1440044e-10,0.0,0.0,0.0,0.0,0.0,0.0,0.0,4.151292e-07,0.0,0.0,nan,0.0,0.0,0.0,0.0,1.5319054e-05,inf,0.0,0.0,0.0016356026,0.0,0.0,0.0,0.0,0.0,0.0,0.0,0.0
4572000,4492000,4.980172e-06,0.0,0.00011574622,8.463995e-09,0.0,2.1440044e-10,0.0,0.0,0.0,0.0,0.0,0.0,0.0,4.151292e-07,0.0,0.0,nan,0.0,0.0,0.0,0.0,1.5319054e-05,inf,0.0,0.0,0.0007730611,0.0,0.0,0.0,0.0,0.0,0.0,0.0,0.0
4580000,4500000,4.980172e-06,0.0,0.00011574622,8.463995e-09,0.0,2.1440044e-10,0.0,0.0,0.0,0.0,0.0,0.0,0.0,1.6068414e-06,0.0,0.0,nan,0.0,0.0,0.0,0.0,1.5319054e-05,inf,0.0,0.0,0.00015746745,0.0,0.0,0.0,0.0,0.0,0.0,0.0,0.0
4588000,4508000,4.980172e-06,0.0,0.00011574622,8.463995e-09,0.0,2.1440044e-10,0.0,0.0,0.0,0.0,0.0,0.0,0.0,1.6068414e-06,0.0,0.0,nan,0.0,0.0,0.0,0.0,1.4068983e-05,inf,0.0,0.0,0.00013087764,0.0,0.0,0.0,0.0,0.0,0.0,0.0,0.0
4596000,4516000,4.980172e-06,0.0,0.00011574622,8.463995e-09,0.0,2.1440044e-10,0.0,0.0,0.0,0.0,0.0,0.0,0.0,1.6068414e-06,0.0,0.0,nan,0.0,0.0,0.0,0.0,1.4068983e-05,inf,0.0,0.0,0.0002784147,0.0,0.0,0.0,0.0,0.0,0.0,0.0,0.0
4604000,4524000,4.980172e-06,0.0,0.00011574622,8.463995e-09,0.0,2.1440044e-10,0.0,0.0,0.0,0.0,0.0,0.0,0.0,1.6068414e-06,0.0,0.0,nan,0.0,0.0,0.0,0.0,1.4068983e-05,inf,0.0,0.0,0.00024459296,0.0,0.0,0.0,0.0,0.0,0.0,0.0,0.0
4612000,4532000,4.980172e-06,0.0,0.00011574622,8.463995e-09,0.0,2.1440044e-10,0.0,0.0,0.0,0.0,0.0,0.0,0.0,1.6068414e-06,0.0,0.0,nan,0.0,0.0,0.0,0.0,1.4068983e-05,inf,0.0,0.0,0.00011470311,0.0,0.0,0.0,0.0,0.0,0.0,0.0,0.0
4620000,4540000,4.980172e-06,0.0,0.00011574622,8.463995e-09,0.0,2.1440044e-10,0.0,0.0,0.0,0.0,0.0,0.0,0.0,1.6068414e-06,0.0,0.0,nan,0.0,0.0,0.0,0.0,1.4068983e-05,inf,0.0,0.0,0.0010532878,0.0,0.0,0.0,0.0,0.0,0.0,0.0,0.0
4628000,4548000,4.980172e-06,0.0,0.00011574622,8.463995e-09,0.0,2.1440044e-10,0.0,0.0,0.0,0.0,0.0,0.0,0.0,1.6068414e-06,0.0,0.0,nan,0.0,0.0,0.0,0.0,1.4068983e-05,inf,0.0,0.0,0.00010321551,0.0,0.0,0.0,0.0,0.0,0.0,0.0,0.0
4636000,4556000,4.980172e-06,0.0,0.00011574622,8.463995e-09,0.0,2.1440044e-10,0.0,0.0,0.0,0.0,0.0,0.0,0.0,1.2057399e-05,0.0,0.0,nan,0.0,0.0,0.0,0.0,1.4068983e-05,inf,0.0,0.0,0.00012163471,0.0,0.0,0.0,0.0,0.0,0.0,0.0,0.0
4644000,4564000,4.980172e-06,0.0,0.00011574622,8.463995e-09,0.0,2.1440044e-10,0.0,0.0,0.0,0.0,0.0,0.0,0.0,1.2057399e-05,0.0,0.0,nan,0.0,0.0,0.0,0.0,1.4068983e-05,inf,0.0,0.0,0.00051565643,0.0,0.0,0.0,0.0,0.0,0.0,0.0,0.0
4652000,4572000,4.980172e-06,0.0,0.00011574622,8.463995e-09,0.0,2.1440044e-10,0.0,0.0,0.0,0.0,0.0,0.0,0.0,1.2057399e-05,0.0,0.0,nan,0.0,0.0,0.0,0.0,1.4068983e-05,inf,0.0,0.0,0.00032170812,0.0,0.0,0.0,0.0,0.0,0.0,0.0,0.0
4660000,4580000,4.980172e-06,0.0,0.00011574622,8.463995e-09,0.0,2.1440044e-10,0.0,0.0,0.0,0.0,0.0,0.0,0.0,1.2057399e-05,0.0,0.0,nan,0.0,0.0,0.0,0.0,6.2107483e-06,inf,0.0,0.0,0.00030227573,0.0,0.0,0.0,0.0,0.0,0.0,0.0,0.0
4668000,4588000,4.980172e-06,0.0,0.00011574622,8.463995e-09,0.0,2.1440044e-10,0.0,0.0,0.0,0.0,0.0,0.0,0.0,1.2057399e-05,0.0,0.0,nan,0.0,0.0,0.0,0.0,6.2107483e-06,inf,0.0,0.0,0.00026135487,0.0,0.0,0.0,0.0,0.0,0.0,0.0,0.0
4676000,4596000,4.980172e-06,0.0,0.00011574622,8.463995e-09,0.0,2.1440044e-10,0.0,0.0,0.0,0.0,0.0,0.0,0.0,1.2057399e-05,0.0,0.0,nan,0.0,0.0,0.0,0.0,6.2107483e-06,inf,0.0,0.0,0.000106419924,0.0,0.0,0.0,0.0,0.0,0.0,0.0,0.0
4684000,4604000,4.980172e-06,0.0,0.00011574622,8.463995e-09,0.0,2.1440044e-10,0.0,0.0,0.0,0.0,0.0,0.0,0.0,1.2057399e-05,0.0,0.0,nan,0.0,0.0,0.0,0.0,6.2107483e-06,inf,0.0,0.0,0.0007275276,0.0,0.0,0.0,0.0,0.0,0.0,0.0,0.0
4692000,4612000,4.980172e-06,0.0,0.00011574622,8.463995e-09,0.0,2.1440044e-10,0.0,0.0,0.0,0.0,0.0,0.0,0.0,1.2057399e-05,0.0,0.0,nan,0.0,0.0,0.0,0.0,6.2107483e-06,inf,0.0,0.0,0.001264377,0.0,0.0,0.0,0.0,0.0,0.0,0.0,0.0
4700000,4620000,0.00013432567,0.0,0.00010103848,2.1395338e-06,0.0,5.0090644e-06,0.0,0.0,0.0,0.0,0.0,0.0,0.0,1.22357005e-05,0.0,0.0,nan,0.0,0.0,0.0,0.0,6.2107483e-06,inf,0.0,0.0,0.00046405706,0.0,0.0,0.0,0.0,0.0,0.0,0.0,0.0
4708000,4628000,0.00013432567,0.0,0.00010103848,2.1395338e-06,0.0,5.0090644e-06,0.0,0.0,0.0,0.0,0.0,0.0,0.0,1.22357005e-05,0.0,0.0,nan,0.0,0.0,0.0,0.0,6.2107483e-06,inf,0.0,0.0,0.00012232928,0.0,0.0,0.0,0.0,0.0,0.0,0.0,0.0
4716000,4636000,0.00013432567,0.0,0.00010103848,2.1395338e-06,0.0,5.0090644e-06,0.0,0.0,0.0,0.0,0.0,0.0,0.0,1.22357005e-05,0.0,0.0,nan,0.0,0.0,0.0,0.0,6.2107483e-06,inf,0.0,0.0,4.0111554e-05,0.0,0.0,0.0,0.0,0.0,0.0,0.0,0.0
4724000,4644000,0.00013432567,0.0,0.00010103848,2.1395338e-06,0.0,5.0090644e-06,0.0,0.0,0.0,0.0,0.0,0.0,0.0,1.22357005e-05,0.0,0.0,nan,0.0,0.0,0.0,0.0,6.2107483e-06,inf,0.0,0.0,0.0018739183,0.0,0.0,0.0,0.0,0.0,0.0,0.0,0.0
4732000,4652000,0.00013432567,0.0,0.00010103848,2.1395338e-06,0.0,5.0090644e-06,0.0,0.0,0.0,0.0,0.0,0.0,0.0,1.22357005e-05,0.0,0.0,nan,0.0,0.0,0.0,0.0,1.7655759e-05,inf,0.0,0.0,0.00035876586,0.0,0.0,0.0,0.0,0.0,0.0,0.0,0.0
4740000,4660000,0.00013432567,0.0,0.00010103848,2.1395338e-06,0.0,5.0090644e-06,0.0,0.0,0.0,0.0,0.0,0.0,0.0,1.22357005e-05,0.0,0.0,nan,0.0,0.0,0.0,0.0,1.7655759e-05,inf,0.0,0.0,0.000789465,0.0,0.0,0.0,0.0,0.0,0.0,0.0,0.0
4748000,4668000,0.00013432567,0.0,0.00010103848,2.1395338e-06,0.0,5.0090644e-06,0.0,0.0,0.0,0.0,0.0,0.0,0.0,1.22357005e-05,0.0,0.0,nan,0.0,0.0,0.0,0.0,1.7655759e-05,inf,0.0,0.0,0.00015369331,0.0,0.0,0.0,0.0,0.0,0.0,0.0,0.0
4756000,4676000,0.00013432567,0.0,0.00010103848,2.1395338e-06,0.0,5.0090644e-06,0.0,0.0,0.0,0.0,0.0,0.0,0.0,7.651328e-06,0.0,0.0,nan,0.0,0.0,0.0,0.0,1.7655759e-05,inf,0.0,0.0,0.0015131952,0.0,0.0,0.0,0.0,0.0,0.0,0.0,0.0
4764000,4684000,0.00013432567,0.0,0.00010103848,2.1395338e-06,0.0,5.0090644e-06,0.0,0.0,0.0,0.0,0.0,0.0,0.0,7.651328e-06,0.0,0.0,nan,0.0,0.0,0.0,0.0,1.7655759e-05,inf,0.0,0.0,0.00011766547,0.0,0.0,0.0,0.0,0.0,0.0,0.0,0.0
4772000,4692000,0.00013432567,0.0,0.00010103848,2.1395338e-06,0.0,5.0090644e-06,0.0,0.0,0.0,0.0,0.0,0.0,0.0,7.651328e-06,0.0,0.0,nan,0.0,0.0,0.0,0.0,1.7655759e-05,inf,0.0,0.0,0.00054587016,0.0,0.0,0.0,0.0,0.0,0.0,0.0,0.0
4780000,4700000,0.00013432567,0.0,0.00010103848,2.1395338e-06,0.0,5.0090644e-06,0.0,0.0,0.0,0.0,0.0,0.0,0.0,7.651328e-06,0.0,0.0,nan,0.0,0.0,0.0,0.0,1.7655759e-05,inf,0.0,0.0,0.00021100037,0.0,0.0,0.0,0.0,0.0,0.0,0.0,0.0
4788000,4708000,0.00013432567,0.0,0.00010103848,2.1395338e-06,0.0,5.0090644e-06,0.0,0.0,0.0,0.0,0.0,0.0,0.0,7.651328e-06,0.0,0.0,nan,0.0,0.0,0.0,0.0,1.7655759e-05,inf,0.0,0.0,0.0014022536,0.0,0.0,0.0,0.0,0.0,0.0,0.0,0.0
4796000,4716000,0.00013432567,0.0,0.00010103848,2.1395338e-06,0.0,5.0090644e-06,0.0,0.0,0.0,0.0,0.0,0.0,0.0,7.651328e-06,0.0,0.0,nan,0.0,0.0,0.0,0.0,1.7655759e-05,inf,0.0,0.0,0.0009475581,0.0,0.0,0.0,0.0,0.0,0.0,0.0,0.0
4804000,4724000,0.00013432567,0.0,0.00010103848,2.1395338e-06,0.0,5.0090644e-06,0.0,0.0,0.0,0.0,0.0,0.0,0.0,7.651328e-06,0.0,0.0,nan,0.0,0.0,0.0,0.0,0.00014722998,inf,0.0,0.0,0.00079597585,0.0,0.0,0.0,0.0,0.0,0.0,0.0,0.0
4812000,4732000,0.00013432567,0.0,0.00010103848,2.1395338e-06,0.0,5.0090644e-06,0.0,0.0,0.0,0.0,0.0,0.0,0.0,7.651328e-06,0.0,0.0,nan,0.0,0.0,0.0,0.0,0.00014722998,inf,0.0,0.0,0.001009569,0.0,0.0,0.0,0.0,0.0,0.0,0.0,0.0
4820000,4740000,0.00013432567,0.0,0.00010103848,2.1395338e-06,0.0,5.0090644e-06,0.0,0.0,0.0,0.0,0.0,0.0,0.0,5.508125e-06,0.0,0.0,nan,0.0,0.0,0.0,0.0,0.00014722998,inf,0.0,0.0,0.00039138348,0.0,0.0,0.0,0.0,0.0,0.0,0.0,0.0
4828000,4748000,0.00013432567,0.0,0.00010103848,2.1395338e-06,0.0,5.0090644e-06,0.0,0.0,0.0,0.0,0.0,0.0,0.0,5.508125e-06,0.0,0.0,nan,0.0,0.0,0.0,0.0,0.00014722998,inf,0.0,0.0,2.6570915e-05,0.0,0.0,0.0,0.0,0.0,0.0,0.0,0.0
4836000,4756000,0.00013432567,0.0,0.00010103848,2.1395338e-06,0.0,5.0090644e-06,0.0,0.0,0.0,0.0,0.0,0.0,0.0,5.508125e-06,0.0,0.0,nan,0.0,0.0,0.0,0.0,0.00014722998,inf,0.0,0.0,0.00016739668,0.0,0.0,0.0,0.0,0.0,0.0,0.0,0.0
4844000,4764000,0.00013432567,0.0,0.00010103848,2.1395338e-06,0.0,5.0090644e-06,0.0,0.0,0.0,0.0,0.0,0.0,0.0,5.508125e-06,0.0,0.0,nan,0.0,0.0,0.0,0.0,0.00014722998,inf,0.0,0.0,0.00019759993,0.0,0.0,0.0,0.0,0.0,0.0,0.0,0.0
4852000,4772000,0.00013432567,0.0,0.00010103848,2.1395338e-06,0.0,5.0090644e-06,0.0,0.0,0.0,0.0,0.0,0.0,0.0,5.508125e-06,0.0,0.0,nan,0.0,0.0,0.0,0.0,0.00014722998,inf,0.0,0.0,0.00033654223,0.0,0.0,0.0,0.0,0.0,0.0,0.0,0.0
4860000,4780000,0.00013432567,0.0,0.00010103848,2.1395338e-06,0.0,5.0090644e-06,0.0,0.0,0.0,0.0,0.0,0.0,0.0,5.508125e-06,0.0,0.0,nan,0.0,0.0,0.0,0.0,0.00014722998,inf,0.0,0.0,0.00081031525,0.0,0.0,0.0,0.0,0.0,0.0,0.0,0.0
4868000,4788000,0.00013432567,0.0,0.00010103848,2.1395338e-06,0.0,5.0090644e-06,0.0,0.0,0.0,0.0,0.0,0.0,0.0,5.508125e-06,0.0,0.0,nan,0.0,0.0,0.0,0.0,0.00014722998,inf,0.0,0.0,0.00026204015,0.0,0.0,0.0,0.0,0.0,0.0,0.0,0.0
4876000,4796000,0.00013432567,0.0,0.00010103848,2.1395338e-06,0.0,5.0090644e-06,0.0,0.0,0.0,0.0,0.0,0.0,0.0,1.2188252e-06,0.0,0.0,nan,0.0,0.0,0.0,0.0,0.00051803206,inf,0.0,0.0,0.00023623744,0.0,0.0,0.0,0.0,0.0,0.0,0.0,0.0
4884000,4804000,0.00013432567,0.0,0.00010103848,2.1395338e-06,0.0,5.0090644e-06,0.0,0.0,0.0,0.0,0.0,0.0,0.0,1.2188252e-06,0.0,0.0,nan,0.0,0.0,0.0,0.0,0.00051803206,inf,0.0,0.0,0.0011856832,0.0,0.0,0.0,0.0,0.0,0.0,0.0,0.0
4892000,4812000,0.00013432567,0.0,0.00010103848,2.1395338e-06,0.0,5.0090644e-06,0.0,0.0,0.0,0.0,0.0,0.0,0.0,1.2188252e-06,0.0,0.0,nan,0.0,0.0,0.0,0.0,0.00051803206,inf,0.0,0.0,0.0009436935,0.0,0.0,0.0,0.0,0.0,0.0,0.0,0.0
4900000,4820000,0.00013432567,0.0,0.00010103848,2.1395338e-06,0.0,5.0090644e-06,0.0,0.0,0.0,0.0,0.0,0.0,0.0,1.2188252e-06,0.0,0.0,nan,0.0,0.0,0.0,0.0,0.00051803206,inf,0.0,0.0,8.417918e-05,0.0,0.0,0.0,0.0,0.0,0.0,0.0,0.0
4908000,4828000,0.00013432567,0.0,0.00010103848,2.1395338e-06,0.0,5.0090644e-06,0.0,0.0,0.0,0.0,0.0,0.0,0.0,1.2188252e-06,0.0,0.0,nan,0.0,0.0,0.0,0.0,0.00051803206,inf,0.0,0.0,0.0004536694,0.0,0.0,0.0,0.0,0.0,0.0,0.0,0.0
4916000,4836000,0.00013432567,0.0,0.00010103848,2.1395338e-06,0.0,5.0090644e-06,0.0,0.0,0.0,0.0,0.0,0.0,0.0,1.2188252e-06,0.0,0.0,nan,0.0,0.0,0.0,0.0,0.00051803206,inf,0.0,0.0,0.0006082582,0.0,0.0,0.0,0.0,0.0,0.0,0.0,0.0
4924000,4844000,0.00013432567,0.0,0.00010103848,2.1395338e-06,0.0,5.0090644e-06,0.0,0.0,0.0,0.0,0.0,0.0,0.0,1.2188252e-06,0.0,0.0,nan,0.0,0.0,0.0,0.0,0.00051803206,inf,0.0,0.0,3.3927556e-06,0.0,0.0,0.0,0.0,0.0,0.0,0.0,0.0
4932000,4852000,0.00013432567,0.0,0.00010103848,2.1395338e-06,0.0,5.0090644e-06,0.0,0.0,0.0,0.0,0.0,0.0,0.0,1.2188252e-06,0.0,0.0,nan,0.0,0.0,0.0,0.0,0.00051803206,inf,0.0,0.0,0.00095868955,0.0,0.0,0.0,0.0,0.0,0.0,0.0,0.0
4940000,4860000,0.00013432567,0.0,0.00010103848,2.1395338e-06,0.0,5.0090644e-06,0.0,0.0,0.0,0.0,0.0,0.0,0.0,1.3704551e-05,0.0,0.0,nan,0.0,0.0,0.0,0.0,0.00051803206,inf,0.0,0.0,0.0001603944,0.0,0.0,0.0,0.0,0.0,0.0,0.0,0.0
4948000,4868000,0.00013432567,0.0,0.00010103848,2.1395338e-06,0.0,5.0090644e-06,0.0,0.0,0.0,0.0,0.0,0.0,0.0,1.3704551e-05,0.0,0.0,nan,0.0,0.0,0.0,0.0,0.00012213743,inf,0.0,0.0,0.00019665349,0.0,0.0,0.0,0.0,0.0,0.0,0.0,0.0
4956000,4876000,0.00013432567,0.0,0.00010103848,2.1395338e-06,0.0,5.0090644e-06,0.0,0.0,0.0,0.0,0.0,0.0,0.0,1.3704551e-05,0.0,0.0,nan,0.0,0.0,0.0,0.0,0.00012213743,inf,0.0,0.0,5.1150575e-05,0.0,0.0,0.0,0.0,0.0,0.0,0.0,0.0
4964000,4884000,0.00013432567,0.0,0.00010103848,2.1395338e-06,0.0,5.0090644e-06,0.0,0.0,0.0,0.0,0.0,0.0,0.0,1.3704551e-05,0.0,0.0,nan,0.0,0.0,0.0,0.0,0.00012213743,inf,0.0,0.0,0.0011278128,0.0,0.0,0.0,0.0,0.0,0.0,0.0,0.0
4972000,4892000,0.00013432567,0.0,0.00010103848,2.1395338e-06,0.0,5.0090644e-06,0.0,0.0,0.0,0.0,0.0,0.0,0.0,1.3704551e-05,0.0,0.0,nan,0.0,0.0,0.0,0.0,0.00012213743,inf,0.0,0.0,0.0005130286,0.0,0.0,0.0,0.0,0.0,0.0,0.0,0.0
4980000,4900000,0.00013432567,0.0,0.00010103848,2.1395338e-06,0.0,5.0090644e-06,0.0,0.0,0.0,0.0,0.0,0.0,0.0,1.3704551e-05,0.0,0.0,nan,0.0,0.0,0.0,0.0,0.00012213743,inf,0.0,0.0,0.0006052239,0.0,0.0,0.0,0.0,0.0,0.0,0.0,0.0
4988000,4908000,0.00013432567,0.0,0.00010103848,2.1395338e-06,0.0,5.0090644e-06,0.0,0.0,0.0,0.0,0.0,0.0,0.0,1.3704551e-05,0.0,0.0,nan,0.0,0.0,0.0,0.0,0.00012213743,inf,0.0,0.0,0.0027259083,0.0,0.0,0.0,0.0,0.0,0.0,0.0,0.0
4996000,4916000,0.00013432567,0.0,0.00010103848,2.1395338e-06,0.0,5.0090644e-06,0.0,0.0,0.0,0.0,0.0,0.0,0.0,6.03233e-06,0.0,0.0,nan,0.0,0.0,0.0,0.0,0.00012213743,inf,0.0,0.0,0.0011540621,0.0,0.0,0.0,0.0,0.0,0.0,0.0,0.0
5004000,4924000,0.00013432567,0.0,0.00010103848,2.1395338e-06,0.0,5.0090644e-06,0.0,0.0,0.0,0.0,0.0,0.0,0.0,6.03233e-06,0.0,0.0,nan,0.0,0.0,0.0,0.0,0.00012213743,inf,0.0,0.0,0.000117120246,0.0,0.0,0.0,0.0,0.0,0.0,0.0,0.0
5012000,4932000,0.00013432567,0.0,0.00010103848,2.1395338e-06,0.0,5.0090644e-06,0.0,0.0,0.0,0.0,0.0,0.0,0.0,6.03233e-06,0.0,0.0,nan,0.0,0.0,0.0,0.0,0.00012213743,inf,0.0,0.0,0.0003455691,0.0,0.0,0.0,0.0,0.0,0.0,0.0,0.0
5020000,4940000,0.00013432567,0.0,0.00010103848,2.1395338e-06,0.0,5.0090644e-06,0.0,0.0,0.0,0.0,0.0,0.0,0.0,6.03233e-06,0.0,0.0,nan,0.0,0.0,0.0,0.0,0.00019822162,inf,0.0,0.0,0.0003688997,0.0,0.0,0.0,0.0,0.0,0.0,0.0,0.0
5028000,4948000,0.00013432567,0.0,0.00010103848,2.1395338e-06,0.0,5.0090644e-06,0.0,0.0,0.0,0.0,0.0,0.0,0.0,6.03233e-06,0.0,0.0,nan,0.0,0.0,0.0,0.0,0.00019822162,inf,0.0,0.0,7.9319834e-05,0.0,0.0,0.0,0.0,0.0,0.0,0.0,0.0
5036000,4956000,0.00013432567,0.0,0.00010103848,2.1395338e-06,0.0,5.0090644e-06,0.0,0.0,0.0,0.0,0.0,0.0,0.0,6.03233e-06,0.0,0.0,nan,0.0,0.0,0.0,0.0,0.00019822162,inf,0.0,0.0,8.8229324e-05,0.0,0.0,0.0,0.0,0.0,0.0,0.0,0.0
5044000,4964000,0.00013432567,0.0,0.00010103848,2.1395338e-06,0.0,5.0090644e-06,0.0,0.0,0.0,0.0,0.0,0.0,0.0,6.03233e-06,0.0,0.0,nan,0.0,0.0,0.0,0.0,0.00019822162,inf,0.0,0.0,0.00023283708,0.0,0.0,0.0,0.0,0.0,0.0,0.0,0.0
5052000,4972000,0.00013432567,0.0,0.00010103848,2.1395338e-06,0.0,5.0090644e-06,0.0,0.0,0.0,0.0,0.0,0.0,0.0,6.03233e-06,0.0,0.0,nan,0.0,0.0,0.0,0.0,0.00019822162,inf,0.0,0.0,0.00038157043,0.0,0.0,0.0,0.0,0.0,0.0,0.0,0.0
5060000,4980000,0.00013432567,0.0,0.00010103848,2.1395338e-06,0.0,5.0090644e-06,0.0,0.0,0.0,0.0,0.0,0.0,0.0,6.294974e-07,0.0,0.0,nan,0.0,0.0,0.0,0.0,0.00019822162,inf,0.0,0.0,0.000121288635,0.0,0.0,0.0,0.0,0.0,0.0,0.0,0.0
5068000,4988000,0.00013432567,0.0,0.00010103848,2.1395338e-06,0.0,5.0090644e-06,0.0,0.0,0.0,0.0,0.0,0.0,0.0,6.294974e-07,0.0,0.0,nan,0.0,0.0,0.0,0.0,0.00019822162,inf,0.0,0.0,9.366402e-05,0.0,0.0,0.0,0.0,0.0,0.0,0.0,0.0
5076000,4996000,0.00013432567,0.0,0.00010103848,2.1395338e-06,0.0,5.0090644e-06,0.0,0.0,0.0,0.0,0.0,0.0,0.0,6.294974e-07,0.0,0.0,nan,0.0,0.0,0.0,0.0,0.00019822162,inf,0.0,0.0,0.00013118773,0.0,0.0,0.0,0.0,0.0,0.0,0.0,0.0
5084000,5004000,0.00013432567,0.0,0.00010103848,2.1395338e-06,0.0,5.0090644e-06,0.0,0.0,0.0,0.0,0.0,0.0,0.0,6.294974e-07,0.0,0.0,nan,0.0,0.0,0.0,0.0,0.00019822162,inf,0.0,0.0,0.00024063612,0.0,0.0,0.0,0.0,0.0,0.0,0.0,0.0
5092000,5012000,0.00013432567,0.0,0.00010103848,2.1395338e-06,0.0,5.0090644e-06,0.0,0.0,0.0,0.0,0.0,0.0,0.0,6.294974e-07,0.0,0.0,nan,0.0,0.0,0.0,0.0,3.1239342e-05,inf,0.0,0.0,0.00038950454,0.0,0.0,0.0,0.0,0.0,0.0,0.0,0.0
5100000,5020000,9.590045e-07,0.0,5.3172016e-06,2.3363277e-06,0.0,4.3332175e-06,0.0,0.0,0.0,0.0,0.0,0.0,0.0,6.294974e-07,0.0,0.0,nan,0.0,0.0,0.0,0.0,3.1239342e-05,inf,0.0,0.0,0.0004606681,0.0,0.0,0.0,0.0,0.0,0.0,0.0,0.0
5108000,5028000,9.590045e-07,0.0,5.3172016e-06,2.3363277e-06,0.0,4.3332175e-06,0.0,0.0,0.0,0.0,0.0,0.0,0.0,6.294974e-07,0.0,0.0,nan,0.0,0.0,0.0,0.0,3.1239342e-05,inf,0.0,0.0,0.0007143549,0.0,0.0,0.0,0.0,0.0,0.0,0.0,0.0
5116000,5036000,9.590045e-07,0.0,5.3172016e-06,2.3363277e-06,0.0,4.3332175e-06,0.0,0.0,0.0,0.0,0.0,0.0,0.0,1.7462664e-06,0.0,0.0,nan,0.0,0.0,0.0,0.0,3.1239342e-05,inf,0.0,0.0,0.0006970716,0.0,0.0,0.0,0.0,0.0,0.0,0.0,0.0
5124000,5044000,9.590045e-07,0.0,5.3172016e-06,2.3363277e-06,0.0,4.3332175e-06,0.0,0.0,0.0,0.0,0.0,0.0,0.0,1.7462664e-06,0.0,0.0,nan,0.0,0.0,0.0,0.0,3.1239342e-05,inf,0.0,0.0,7.738081e-06,0.0,0.0,0.0,0.0,0.0,0.0,0.0,0.0
5132000,5052000,9.590045e-07,0.0,5.3172016e-06,2.3363277e-06,0.0,4.3332175e-06,0.0,0.0,0.0,0.0,0.0,0.0,0.0,1.7462664e-06,0.0,0.0,nan,0.0,0.0,0.0,0.0,3.1239342e-05,inf,0.0,0.0,0.0001325299,0.0,0.0,0.0,0.0,0.0,0.0,0.0,0.0
5140000,5060000,9.590045e-07,0.0,5.3172016e-06,2.3363277e-06,0.0,4.3332175e-06,0.0,0.0,0.0,0.0,0.0,0.0,0.0,1.7462664e-06,0.0,0.0,nan,0.0,0.0,0.0,0.0,3.1239342e-05,inf,0.0,0.0,6.216038e-05,0.0,0.0,0.0,0.0,0.0,0.0,0.0,0.0
5148000,5068000,9.590045e-07,0.0,5.3172016e-06,2.3363277e-06,0.0,4.3332175e-06,0.0,0.0,0.0,0.0,0.0,0.0,0.0,1.7462664e-06,0.0,0.0,nan,0.0,0.0,0.0,0.0,3.1239342e-05,inf,0.0,0.0,0.00017169316,0.0,0.0,0.0,0.0,0.0,0.0,0.0,0.0
5156000,5076000,9.590045e-07,0.0,5.3172016e-06,2.3363277e-06,0.0,4.3332175e-06,0.0,0.0,0.0,0.0,0.0,0.0,0.0,1.7462664e-06,0.0,0.0,nan,0.0,0.0,0.0,0.0,3.1239342e-05,inf,0.0,0.0,0.00057482015,0.0,0.0,0.0,0.0,0.0,0.0,0.0,0.0
5164000,5084000,9.590045e-07,0.0,5.3172016e-06,2.3363277e-06,0.0,4.3332175e-06,0.0,0.0,0.0,0.0,0.0,0.0,0.0,1.7462664e-06,0.0,0.0,nan,0.0,0.0,0.0,0.0,0.00040274695,inf,0.0,0.0,0.00088621903,0.0,0.0,0.0,0.0,0.0,0.0,0.0,0.0
5172000,5092000,9.590045e-07,0.0,5.3172016e-06,2.3363277e-06,0.0,4.3332175e-06,0.0,0.0,0.0,0.0,0.0,0.0,0.0,1.7462664e-06,0.0,0.0,nan,0.0,0.0,0.0,0.0,0.00040274695,inf,0.0,0.0,6.536037e-05,0.0,0.0,0.0,0.0,0.0,0.0,0.0,0.0
5180000,5100000,9.590045e-07,0.0,5.3172016e-06,2.3363277e-06,0.0,4.3332175e-06,0.0,0.0,0.0,0.0,0.0,0.0,0.0,1.4654269e-13,0.0,0.0,nan,0.0,0.0,0.0,0.0,0.00040274695,inf,0.0,0.0,0.00032542535,0.0,0.0,0.0,0.0,0.0,0.0,0.0,0.0
5188000,5108000,9.590045e-07,0.0,5.3172016e-06,2.3363277e-06,0.0,4.3332175e-06,0.0,0.0,0.0,0.0,0.0,0.0,0.0,1.4654269e-13,0.0,0.0,nan,0.0,0.0,0.0,0.0,0.00040274695,inf,0.0,0.0,9.453695e-06,0.0,0.0,0.0,0.0,0.0,0.0,0.0,0.0
5196000,5116000,9.590045e-07,0.0,5.3172016e-06,2.3363277e-06,0.0,4.3332175e-06,0.0,0.0,0.0,0.0,0.0,0.0,0.0,1.4654269e-13,0.0,0.0,nan,0.0,0.0,0.0,0.0,0.00040274695,inf,0.0,0.0,0.00064796075,0.0,0.0,0.0,0.0,0.0,0.0,0.0,0.0
5204000,5124000,9.590045e-07,0.0,5.3172016e-06,2.3363277e-06,0.0,4.3332175e-06,0.0,0.0,0.0,0.0,0.0,0.0,0.0,1.4654269e-13,0.0,0.0,nan,0.0,0.0,0.0,0.0,0.00040274695,inf,0.0,0.0,1.4412623e-05,0.0,0.0,0.0,0.0,0.0,0.0,0.0,0.0
5212000,5132000,9.590045e-07,0.0,5.3172016e-06,2.3363277e-06,0.0,4.3332175e-06,0.0,0.0,0.0,0.0,0.0,0.0,0.0,1.4654269e-13,0.0,0.0,nan,0.0,0.0,0.0,0.0,0.00040274695,inf,0.0,0.0,0.000118029864,0.0,0.0,0.0,0.0,0.0,0.0,0.0,0.0
5220000,5140000,9.590045e-07,0.0,5.3172016e-06,2.3363277e-06,0.0,4.3332175e-06,0.0,0.0,0.0,0.0,0.0,0.0,0.0,1.4654269e-13,0.0,0.0,nan,0.0,0.0,0.0,0.0,0.00040274695,inf,0.0,0.0,0.0008023867,0.0,0.0,0.0,0.0,0.0,0.0,0.0,0.0
5228000,5148000,9.590045e-07,0.0,5.3172016e-06,2.3363277e-06,0.0,4.3332175e-06,0.0,0.0,0.0,0.0,0.0,0.0,0.0,1.4654269e-13,0.0,0.0,nan,0.0,0.0,0.0,0.0,0.00040274695,inf,0.0,0.0,0.00063680595,0.0,0.0,0.0,0.0,0.0,0.0,0.0,0.0
5236000,5156000,9.590045e-07,0.0,5.3172016e-06,2.3363277e-06,0.0,4.3332175e-06,0.0,0.0,0.0,0.0,0.0,0.0,0.0,2.7062099e-05,0.0,0.0,nan,0.0,0.0,0.0,0.0,1.4478007e-05,inf,0.0,0.0,6.886409e-05,0.0,0.0,0.0,0.0,0.0,0.0,0.0,0.0
5244000,5164000,9.590045e-07,0.0,5.3172016e-06,2.3363277e-06,0.0,4.3332175e-06,0.0,0.0,0.0,0.0,0.0,0.0,0.0,2.7062099e-05,0.0,0.0,nan,0.0,0.0,0.0,0.0,1.4478007e-05,inf,0.0,0.0,0.00018450688,0.0,0.0,0.0,0.0,0.0,0.0,0.0,0.0
5252000,5172000,9.590045e-07,0.0,5.3172016e-06,2.3363277e-06,0.0,4.3332175e-06,0.0,0.0,0.0,0.0,0.0,0.0,0.0,2.7062099e-05,0.0,0.0,nan,0.0,0.0,0.0,0.0,1.4478007e-05,inf,0.0,0.0,4.1565658e-05,0.0,0.0,0.0,0.0,0.0,0.0,0.0,0.0
5260000,5180000,9.590045e-07,0.0,5.3172016e-06,2.3363277e-06,0.0,4.3332175e-06,0.0,0.0,0.0,0.0,0.0,0.0,0.0,2.7062099e-05,0.0,0.0,nan,0.0,0.0,0.0,0.0,1.4478007e-05,inf,0.0,0.0,1.4702881e-06,0.0,0.0,0.0,0.0,0.0,0.0,0.0,0.0
5268000,5188000,9.590045e-07,0.0,5.3172016e-06,2.3363277e-06,0.0,4.3332175e-06,0.0,0.0,0.0,0.0,0.0,0.0,0.0,2.7062099e-05,0.0,0.0,nan,0.0,0.0,0.0,0.0,1.4478007e-05,inf,0.0,0.0,0.0003710935,0.0,0.0,0.0,0.0,0.0,0.0,0.0,0.0
5276000,5196000,9.590045e-07,0.0,5.3172016e-06,2.3363277e-06,0.0,4.3332175e-06,0.0,0.0,0.0,0.0,0.0,0.0,0.0,2.7062099e-05,0.0,0.0,nan,0.0,0.0,0.0,0.0,1.4478007e-05,inf,0.0,0.0,4.0088884e-07,0.0,0.0,0.0,0.0,0.0,0.0,0.0,0.0
5284000,5204000,9.590045e-07,0.0,5.3172016e-06,2.3363277e-06,0.0,4.3332175e-06,0.0,0.0,0.0,0.0,0.0,0.0,0.0,2.7062099e-05,0.0,0.0,nan,0.0,0.0,0.0,0.0,1.4478007e-05,inf,0.0,0.0,0.0005723178,0.0,0.0,0.0,0.0,0.0,0.0,0.0,0.0
5292000,5212000,9.590045e-07,0.0,5.3172016e-06,2.3363277e-06,0.0,4.3332175e-06,0.0,0.0,0.0,0.0,0.0,0.0,0.0,2.7062099e-05,0.0,0.0,nan,0.0,0.0,0.0,0.0,1.4478007e-05,inf,0.0,0.0,0.00044208992,0.0,0.0,0.0,0.0,0.0,0.0,0.0,0.0
5300000,5220000,9.590045e-07,0.0,5.3172016e-06,2.3363277e-06,0.0,4.3332175e-06,0.0,0.0,0.0,0.0,0.0,0.0,0.0,8.673016e-08,0.0,0.0,nan,0.0,0.0,0.0,0.0,1.4478007e-05,inf,0.0,0.0,0.0003813964,0.0,0.0,0.0,0.0,0.0,0.0,0.0,0.0
5308000,5228000,9.590045e-07,0.0,5.3172016e-06,2.3363277e-06,0.0,4.3332175e-06,0.0,0.0,0.0,0.0,0.0,0.0,0.0,8.673016e-08,0.0,0.0,nan,0.0,0.0,0.0,0.0,0.00034618736,inf,0.0,0.0,0.00043814798,0.0,0.0,0.0,0.0,0.0,0.0,0.0,0.0
5316000,5236000,9.590045e-07,0.0,5.3172016e-06,2.3363277e-06,0.0,4.3332175e-06,0.0,0.0,0.0,0.0,0.0,0.0,0.0,8.673016e-08,0.0,0.0,nan,0.0,0.0,0.0,0.0,0.00034618736,inf,0.0,0.0,9.616359e-06,0.0,0.0,0.0,0.0,0.0,0.0,0.0,0.0
5324000,5244000,9.590045e-07,0.0,5.3172016e-06,2.3363277e-06,0.0,4.3332175e-06,0.0,0.0,0.0,0.0,0.0,0.0,0.0,8.673016e-08,0.0,0.0,nan,0.0,0.0,0.0,0.0,0.00034618736,inf,0.0,0.0,0.00076093315,0.0,0.0,0.0,0.0,0.0,0.0,0.0,0.0
5332000,5252000,9.590045e-07,0.0,5.3172016e-06,2.3363277e-06,0.0,4.3332175e-06,0.0,0.0,0.0,0.0,0.0,0.0,0.0,8.673016e-08,0.0,0.0,nan,0.0,0.0,0.0,0.0,0.00034618736,inf,0.0,0.0,0.00014405431,0.0,0.0,0.0,0.0,0.0,0.0,0.0,0.0
5340000,5260000,9.590045e-07,0.0,5.3172016e-06,2.3363277e-06,0.0,4.3332175e-06,0.0,0.0,0.0,0.0,0.0,0.0,0.0,8.673016e-08,0.0,0.0,nan,0.0,0.0,0.0,0.0,0.00034618736,inf,0.0,0.0,0.00019460052,0.0,0.0,0.0,0.0,0.0,0.0,0.0,0.0
5348000,5268000,9.590045e-07,0.0,5.3172016e-06,2.3363277e-06,0.0,4.3332175e-06,0.0,0.0,0.0,0.0,0.0,0.0,0.0,8.673016e-08,0.0,0.0,nan,0.0,0.0,0.0,0.0,0.00034618736,inf,0.0,0.0,0.00047689263,0.0,0.0,0.0,0.0,0.0,0.0,0.0,0.0
5356000,5276000,9.590045e-07,0.0,5.3172016e-06,2.3363277e-06,0.0,4.3332175e-06,0.0,0.0,0.0,0.0,0.0,0.0,0.0,1.9335273e-05,0.0,0.0,nan,0.0,0.0,0.0,0.0,0.00034618736,inf,0.0,0.0,1.0396814e-05,0.0,0.0,0.0,0.0,0.0,0.0,0.0,0.0
5364000,5284000,9.590045e-07,0.0,5.3172016e-06,2.3363277e-06,0.0,4.3332175e-06,0.0,0.0,0.0,0.0,0.0,0.0,0.0,1.9335273e-05,0.0,0.0,nan,0.0,0.0,0.0,0.0,0.00034618736,inf,0.0,0.0,0.0005124876,0.0,0.0,0.0,0.0,0.0,0.0,0.0,0.0
5372000,5292000,9.590045e-07,0.0,5.3172016e-06,2.3363277e-06,0.0,4.3332175e-06,0.0,0.0,0.0,0.0,0.0,0.0,0.0,1.9335273e-05,0.0,0.0,nan,0.0,0.0,0.0,0.0,0.00034618736,inf,0.0,0.0,0.00083753414,0.0,0.0,0.0,0.0,0.0,0.0,0.0,0.0
5380000,5300000,9.590045e-07,0.0,5.3172016e-06,2.3363277e-06,0.0,4.3332175e-06,0.0,0.0,0.0,0.0,0.0,0.0,0.0,1.9335273e-05,0.0,0.0,nan,0.0,0.0,0.0,0.0,1.0899956e-05,inf,0.0,0.0,0.00068667554,0.0,0.0,0.0,0.0,0.0,0.0,0.0,0.0
5388000,5308000,9.590045e-07,0.0,5.3172016e-06,2.3363277e-06,0.0,4.3332175e-06,0.0,0.0,0.0,0.0,0.0,0.0,0.0,1.9335273e-05,0.0,0.0,nan,0.0,0.0,0.0,0.0,1.0899956e-05,inf,0.0,0.0,0.0021304737,0.0,0.0,0.0,0.0,0.0,0.0,0.0,0.0
5396000,5316000,9.590045e-07,0.0,5.3172016e-06,2.3363277e-06,0.0,4.3332175e-06,0.0,0.0,0.0,0.0,0.0,0.0,0.0,1.9335273e-05,0.0,0.0,nan,0.0,0.0,0.0,0.0,1.0899956e-05,inf,0.0,0.0,0.0041724173,0.0,0.0,0.0,0.0,0.0,0.0,0.0,0.0
5404000,5324000,9.590045e-07,0.0,5.3172016e-06,2.3363277e-06,0.0,4.3332175e-06,0.0,0.0,0.0,0.0,0.0,0.0,0.0,1.9335273e-05,0.0,0.0,nan,0.0,0.0,0.0,0.0,1.0899956e-05,inf,0.0,0.0,0.00066292455,0.0,0.0,0.0,0.0,0.0,0.0,0.0,0.0
5412000,5332000,9.590045e-07,0.0,5.3172016e-06,2.3363277e-06,0.0,4.3332175e-06,0.0,0.0,0.0,0.0,0.0,0.0,0.0,1.9335273e-05,0.0,0.0,nan,0.0,0.0,0.0,0.0,1.0899956e-05,inf,0.0,0.0,9.6262746e-05,0.0,0.0,0.0,0.0,0.0,0.0,0.0,0.0
5420000,5340000,9.590045e-07,0.0,5.3172016e-06,2.3363277e-06,0.0,4.3332175e-06,0.0,0.0,0.0,0.0,0.0,0.0,0.0,1.19546e-05,0.0,0.0,nan,0.0,0.0,0.0,0.0,1.0899956e-05,inf,0.0,0.0,5.913929e-05,0.0,0.0,0.0,0.0,0.0,0.0,0.0,0.0
5428000,5348000,9.590045e-07,0.0,5.3172016e-06,2.3363277e-06,0.0,4.3332175e-06,0.0,0.0,0.0,0.0,0.0,0.0,0.0,1.19546e-05,0.0,0.0,nan,0.0,0.0,0.0,0.0,1.0899956e-05,inf,0.0,0.0,0.00013012665,0.0,0.0,0.0,0.0,0.0,0.0,0.0,0.0
5436000,5356000,9.590045e-07,0.0,5.3172016e-06,2.3363277e-06,0.0,4.3332175e-06,0.0,0.0,0.0,0.0,0.0,0.0,0.0,1.19546e-05,0.0,0.0,nan,0.0,0.0,0.0,0.0,1.0899956e-05,inf,0.0,0.0,0.00021510581,0.0,0.0,0.0,0.0,0.0,0.0,0.0,0.0
5444000,5364000,9.590045e-07,0.0,5.3172016e-06,2.3363277e-06,0.0,4.3332175e-06,0.0,0.0,0.0,0.0,0.0,0.0,0.0,1.19546e-05,0.0,0.0,nan,0.0,0.0,0.0,0.0,1.0899956e-05,inf,0.0,0.0,0.0014680284,0.0,0.0,0.0,0.0,0.0,0.0,0.0,0.0
5452000,5372000,9.590045e-07,0.0,5.3172016e-06,2.3363277e-06,0.0,4.3332175e-06,0.0,0.0,0.0,0.0,0.0,0.0,0.0,1.19546e-05,0.0,0.0,nan,0.0,0.0,0.0,0.0,7.954057e-06,inf,0.0,0.0,0.00026188744,0.0,0.0,0.0,0.0,0.0,0.0,0.0,0.0
5460000,5380000,9.590045e-07,0.0,5.3172016e-06,2.3363277e-06,0.0,4.3332175e-06,0.0,0.0,0.0,0.0,0.0,0.0,0.0,1.19546e-05,0.0,0.0,nan,0.0,0.0,0.0,0.0,7.954057e-06,inf,0.0,0.0,2.0437872e-06,0.0,0.0,0.0,0.0,0.0,0.0,0.0,0.0
5468000,5388000,9.590045e-07,0.0,5.3172016e-06,2.3363277e-06,0.0,4.3332175e-06,0.0,0.0,0.0,0.0,0.0,0.0,0.0,1.19546e-05,0.0,0.0,nan,0.0,0.0,0.0,0.0,7.954057e-06,inf,0.0,0.0,9.877875e-05,0.0,0.0,0.0,0.0,0.0,0.0,0.0,0.0
5476000,5396000,9.590045e-07,0.0,5.3172016e-06,2.3363277e-06,0.0,4.3332175e-06,0.0,0.0,0.0,0.0,0.0,0.0,0.0,8.7284405e-07,0.0,0.0,nan,0.0,0.0,0.0,0.0,7.954057e-06,inf,0.0,0.0,0.0004670857,0.0,0.0,0.0,0.0,0.0,0.0,0.0,0.0
5484000,5404000,9.590045e-07,0.0,5.3172016e-06,2.3363277e-06,0.0,4.3332175e-06,0.0,0.0,0.0,0.0,0.0,0.0,0.0,8.7284405e-07,0.0,0.0,nan,0.0,0.0,0.0,0.0,7.954057e-06,inf,0.0,0.0,0.00092819444,0.0,0.0,0.0,0.0,0.0,0.0,0.0,0.0
5492000,5412000,9.590045e-07,0.0,5.3172016e-06,2.3363277e-06,0.0,4.3332175e-06,0.0,0.0,0.0,0.0,0.0,0.0,0.0,8.7284405e-07,0.0,0.0,nan,0.0,0.0,0.0,0.0,7.954057e-06,inf,0.0,0.0,0.00034871613,0.0,0.0,0.0,0.0,0.0,0.0,0.0,0.0
5500000,5420000,4.365996e-05,0.0,0.00034940266,2.2625823e-06,0.0,2.7324468e-06,0.0,0.0,0.0,0.0,0.0,0.0,0.0,8.7284405e-07,0.0,0.0,nan,0.0,0.0,0.0,0.0,7.954057e-06,inf,0.0,0.0,7.2959956e-05,0.0,0.0,0.0,0.0,0.0,0.0,0.0,0.0
5508000,5428000,4.365996e-05,0.0,0.00034940266,2.2625823e-06,0.0,2.7324468e-06,0.0,0.0,0.0,0.0,0.0,0.0,0.0,8.7284405e-07,0.0,0.0,nan,0.0,0.0,0.0,0.0,7.954057e-06,inf,0.0,0.0,0.0003790476,0.0,0.0,0.0,0.0,0.0,0.0,0.0,0.0
5516000,5436000,4.365996e-05,0.0,0.00034940266,2.2625823e-06,0.0,2.7324468e-06,0.0,0.0,0.0,0.0,0.0,0.0,0.0,8.7284405e-07,0.0,0.0,nan,0.0,0.0,0.0,0.0,7.954057e-06,inf,0.0,0.0,0.00079383404,0.0,0.0,0.0,0.0,0.0,0.0,0.0,0.0
5524000,5444000,4.365996e-05,0.0,0.00034940266,2.2625823e-06,0.0,2.7324468e-06,0.0,0.0,0.0,0.0,0.0,0.0,0.0,8.7284405e-07,0.0,0.0,nan,0.0,0.0,0.0,0.0,0.000101085825,inf,0.0,0.0,0.00019227725,0.0,0.0,0.0,0.0,0.0,0.0,0.0,0.0
5532000,5452000,4.365996e-05,0.0,0.00034940266,2.2625823e-06,0.0,2.7324468e-06,0.0,0.0,0.0,0.0,0.0,0.0,0.0,8.7284405e-07,0.0,0.0,nan,0.0,0.0,0.0,0.0,0.000101085825,inf,0.0,0.0,0.0005345978,0.0,0.0,0.0,0.0,0.0,0.0,0.0,0.0
5540000,5460000,4.365996e-05,0.0,0.00034940266,2.2625823e-06,0.0,2.7324468e-06,0.0,0.0,0.0,0.0,0.0,0.0,0.0,2.6953103e-06,0.0,0.0,nan,0.0,0.0,0.0,0.0,0.000101085825,inf,0.0,0.0,0.00058981153,0.0,0.0,0.0,0.0,0.0,0.0,0.0,0.0
5548000,5468000,4.365996e-05,0.0,0.00034940266,2.2625823e-06,0.0,2.7324468e-06,0.0,0.0,0.0,0.0,0.0,0.0,0.0,2.6953103e-06,0.0,0.0,nan,0.0,0.0,0.0,0.0,0.000101085825,inf,0.0,0.0,0.00032484275,0.0,0.0,0.0,0.0,0.0,0.0,0.0,0.0
