timestamp,timestamp_sample,xyz[0],xyz[1],xyz[2],xyz_derivative[0],xyz_derivative[1],xyz_derivative[2]
3344000,0,6.3905594e-05,7.5069176e-05,7.474745e-09,0.0,0.0,0.0
3348000,0,6.3905616e-05,7.506917e-05,7.462106e-09,0.0,0.0,0.0
3356000,0,6.3905645e-05,7.5069154e-05,7.4368236e-09,0.0,0.0,0.0
3364000,0,6.3905674e-05,7.506915e-05,7.4115425e-09,0.0,0.0,0.0
3376000,0,6.3905725e-05,7.506913e-05,7.373621e-09,0.0,0.0,0.0
3384000,0,6.3905754e-05,7.506912e-05,7.34834e-09,0.0,0.0,0.0
3396000,0,6.39058e-05,7.50691e-05,7.3104185e-09,0.0,0.0,0.0
3404000,0,6.390584e-05,7.5069096e-05,7.2851387e-09,0.0,0.0,0.0
3416000,0,6.390588e-05,7.5069074e-05,7.2472157e-09,0.0,0.0,0.0
3424000,0,6.3905914e-05,7.506907e-05,7.221936e-09,0.0,0.0,0.0
3436000,0,6.390596e-05,7.5069045e-05,7.184013e-09,0.0,0.0,0.0
3444000,0,6.3905994e-05,7.506904e-05,7.158733e-09,0.0,0.0,0.0
3456000,0,6.390604e-05,7.506902e-05,7.12081e-09,0.0,0.0,0.0
3464000,0,6.3906075e-05,7.506901e-05,7.0955304e-09,0.0,0.0,0.0
3476000,0,6.390611e-05,7.5068994e-05,7.0576074e-09,0.0,0.0,0.0
3484000,0,6.3906155e-05,7.506899e-05,7.0323276e-09,0.0,0.0,0.0
3496000,0,6.39062e-05,7.506897e-05,6.9944064e-09,0.0,0.0,0.0
3504000,0,6.390623e-05,7.506896e-05,6.969125e-09,0.0,0.0,0.0
3516000,0,6.390628e-05,7.506894e-05,6.9312036e-09,0.0,0.0,0.0
3524000,0,6.390631e-05,7.506893e-05,6.9059225e-09,0.0,0.0,0.0
3536000,0,6.390636e-05,7.5068914e-05,6.868001e-09,0.0,0.0,0.0
3544000,0,6.390639e-05,7.506891e-05,6.8427197e-09,0.0,0.0,0.0
3556000,0,6.390643e-05,7.5068885e-05,6.804798e-09,0.0,0.0,0.0
3564000,0,6.390647e-05,7.506888e-05,6.779517e-09,0.0,0.0,0.0
3576000,0,6.390651e-05,7.506886e-05,6.7415953e-09,0.0,0.0,0.0
3584000,0,6.390654e-05,7.506885e-05,6.716314e-09,0.0,0.0,0.0
3596000,0,6.390659e-05,7.5068834e-05,6.6783925e-09,0.0,0.0,0.0
3604000,0,6.390662e-05,7.506882e-05,6.6531105e-09,0.0,0.0,0.0
3616000,0,6.390667e-05,7.5068805e-05,6.6151897e-09,0.0,0.0,0.0
3624000,0,6.390669e-05,7.50688e-05,6.5899077e-09,0.0,0.0,0.0
3636000,0,6.3906744e-05,7.5068776e-05,6.551987e-09,0.0,0.0,0.0
3644000,0,6.390677e-05,7.506877e-05,6.526705e-09,0.0,0.0,0.0
3656000,0,6.3906824e-05,7.5068754e-05,6.488784e-09,0.0,0.0,0.0
3664000,0,6.390685e-05,7.506874e-05,6.463502e-09,0.0,0.0,0.0
3676000,0,6.3906904e-05,7.5068725e-05,6.4255814e-09,0.0,0.0,0.0
3684000,0,6.390693e-05,7.506871e-05,6.4002994e-09,0.0,0.0,0.0
3696000,0,6.390698e-05,7.5068696e-05,6.3623777e-09,0.0,0.0,0.0
3704000,0,6.3907006e-05,7.506869e-05,6.337096e-09,0.0,0.0,0.0
3716000,0,6.390706e-05,7.506867e-05,6.299175e-09,0.0,0.0,0.0
3724000,0,6.3907086e-05,7.506866e-05,6.2738934e-09,0.0,0.0,0.0
3736000,0,6.390714e-05,7.5068645e-05,6.235972e-09,0.0,0.0,0.0
3744000,0,6.390716e-05,7.506863e-05,6.2106906e-09,0.0,0.0,0.0
3756000,0,6.390721e-05,7.5068616e-05,6.1727694e-09,0.0,0.0,0.0
3764000,0,6.390724e-05,7.50686e-05,6.147488e-09,0.0,0.0,0.0
3776000,0,6.390729e-05,7.506859e-05,6.1095666e-09,0.0,0.0,0.0
3784000,0,6.390732e-05,7.506858e-05,6.084285e-09,0.0,0.0,0.0
3796000,0,6.390737e-05,7.5068565e-05,6.046364e-09,0.0,0.0,0.0
3804000,0,6.39074e-05,7.506855e-05,6.0210823e-09,0.0,0.0,0.0
3816000,0,6.390744e-05,7.5068536e-05,5.9831606e-09,0.0,0.0,0.0
3824000,0,6.390747e-05,7.506852e-05,5.9578795e-09,0.0,0.0,0.0
3836000,0,6.390752e-05,7.506851e-05,5.919958e-09,0.0,0.0,0.0
3844000,0,6.390755e-05,7.506849e-05,5.8946767e-09,0.0,0.0,0.0
3856000,0,6.39076e-05,7.506848e-05,5.856755e-09,0.0,0.0,0.0
3864000,0,6.390763e-05,7.506847e-05,5.831474e-09,0.0,0.0,0.0
3876000,0,6.3907675e-05,7.5068456e-05,5.7935523e-09,0.0,0.0,0.0
3884000,0,6.390771e-05,7.506844e-05,5.768271e-09,0.0,0.0,0.0
3896000,0,6.3907755e-05,7.506843e-05,5.7303495e-09,0.0,0.0,0.0
3904000,0,6.390779e-05,7.506842e-05,5.7050697e-09,0.0,0.0,0.0
3916000,0,6.3907835e-05,7.50684e-05,5.6671468e-09,0.0,0.0,0.0
3924000,0,6.390787e-05,7.506839e-05,5.641867e-09,0.0,0.0,0.0
3936000,0,6.3907915e-05,7.506837e-05,5.603944e-09,0.0,0.0,0.0
3944000,0,6.390795e-05,7.506836e-05,5.578664e-09,0.0,0.0,0.0
3956000,0,6.390799e-05,7.506835e-05,5.540741e-09,0.0,0.0,0.0
3964000,0,6.390803e-05,7.506833e-05,5.5154614e-09,0.0,0.0,0.0
3976000,0,6.390807e-05,7.506832e-05,5.4775384e-09,0.0,0.0,0.0
3984000,0,6.3908104e-05,7.506831e-05,5.4522586e-09,0.0,0.0,0.0
3996000,0,6.390815e-05,7.506829e-05,5.4143356e-09,0.0,0.0,0.0
4004000,0,6.3908185e-05,7.506828e-05,5.389056e-09,0.0,0.0,0.0
4016000,0,6.3908235e-05,7.506827e-05,5.351134e-09,0.0,0.0,0.0
4024000,0,6.3908265e-05,7.506825e-05,5.3258526e-09,0.0,0.0,0.0
4036000,0,6.390831e-05,7.506824e-05,5.287931e-09,0.0,0.0,0.0
4044000,0,6.3908345e-05,7.506822e-05,5.26265e-09,0.0,0.0,0.0
4056000,0,6.390839e-05,7.506821e-05,5.224728e-09,0.0,0.0,0.0
4064000,0,6.390842e-05,7.50682e-05,5.199447e-09,0.0,0.0,0.0
4076000,0,6.390847e-05,7.506818e-05,5.1615254e-09,0.0,0.0,0.0
4084000,0,6.39085e-05,7.506817e-05,5.1362443e-09,0.0,0.0,0.0
4096000,0,6.390855e-05,7.506816e-05,5.0983227e-09,0.0,0.0,0.0
4104000,0,6.390857e-05,7.506814e-05,5.0730407e-09,0.0,0.0,0.0
4116000,0,6.390862e-05,7.506813e-05,5.03512e-09,0.0,0.0,0.0
4124000,0,6.390865e-05,7.5068114e-05,5.009838e-09,0.0,0.0,0.0
4136000,0,6.39087e-05,7.50681e-05,4.971917e-09,0.0,0.0,0.0
4144000,0,6.390873e-05,7.506809e-05,4.946635e-09,0.0,0.0,0.0
4156000,0,6.390878e-05,7.506807e-05,4.908714e-09,0.0,0.0,0.0
4164000,0,6.390881e-05,7.506806e-05,4.8834323e-09,0.0,0.0,0.0
4176000,0,6.390886e-05,7.506805e-05,4.845511e-09,0.0,0.0,0.0
4184000,0,6.390888e-05,7.5068034e-05,4.8202295e-09,0.0,0.0,0.0
4196000,0,6.3908934e-05,7.506802e-05,4.782308e-09,0.0,0.0,0.0
4204000,0,6.390896e-05,7.5068005e-05,4.757026e-09,0.0,0.0,0.0
4216000,0,6.390901e-05,7.506799e-05,4.7191047e-09,0.0,0.0,0.0
4224000,0,6.3909036e-05,7.506798e-05,4.693823e-09,0.0,0.0,0.0
4236000,0,6.390909e-05,7.506796e-05,4.655902e-09,0.0,0.0,0.0
4244000,0,6.3909116e-05,7.5067954e-05,4.6306203e-09,0.0,0.0,0.0
4256000,0,6.390917e-05,7.506794e-05,4.592699e-09,0.0,0.0,0.0
4264000,0,6.3909196e-05,7.5067925e-05,4.5674176e-09,0.0,0.0,0.0
4276000,0,6.390925e-05,7.506791e-05,4.5294963e-09,0.0,0.0,0.0
4284000,0,6.3909276e-05,7.5067896e-05,4.5042143e-09,0.0,0.0,0.0
4296000,0,6.390932e-05,7.506788e-05,4.4662936e-09,0.0,0.0,0.0
4304000,0,6.390935e-05,7.5067874e-05,4.4410116e-09,0.0,0.0,0.0
4316000,0,6.39094e-05,7.506785e-05,4.40309e-09,0.0,0.0,0.0
4324000,0,6.390943e-05,7.5067845e-05,4.377809e-09,0.0,0.0,0.0
4336000,0,6.390948e-05,7.506783e-05,4.339887e-09,0.0,0.0,0.0
4344000,0,6.390951e-05,7.5067815e-05,4.314606e-09,0.0,0.0,0.0
4356000,0,6.390955e-05,7.50678e-05,4.2766843e-09,0.0,0.0,0.0
4364000,0,6.390959e-05,7.506779e-05,4.2514032e-09,0.0,0.0,0.0
4376000,0,6.390963e-05,7.506777e-05,4.213481e-09,0.0,0.0,0.0
4384000,0,6.390966e-05,7.5067765e-05,4.1882e-09,0.0,0.0,0.0
4396000,0,6.390971e-05,7.506774e-05,4.1502783e-09,0.0,0.0,0.0
4404000,0,6.390975e-05,7.5067735e-05,4.1249986e-09,0.0,0.0,0.0
4416000,0,6.3909785e-05,7.506772e-05,4.0870756e-09,0.0,0.0,0.0
4424000,0,6.390983e-05,7.5067706e-05,4.061796e-09,0.0,0.0,0.0
4436000,0,6.3909865e-05,7.506769e-05,4.023873e-09,0.0,0.0,0.0
4444000,0,6.39099e-05,7.5067685e-05,3.998593e-09,0.0,0.0,0.0
4456000,0,6.3909945e-05,7.506766e-05,3.96067e-09,0.0,0.0,0.0
4464000,0,6.390998e-05,7.5067655e-05,3.93539e-09,0.0,0.0,0.0
4476000,0,6.3910025e-05,7.506763e-05,3.897467e-09,0.0,0.0,0.0
4484000,0,6.391006e-05,7.5067626e-05,3.872187e-09,0.0,0.0,0.0
4496000,0,6.39101e-05,7.506761e-05,3.834264e-09,0.0,0.0,0.0
4504000,0,6.391014e-05,7.50676e-05,3.8089842e-09,0.0,0.0,0.0
4516000,0,6.3910185e-05,7.506758e-05,3.7710626e-09,0.0,0.0,0.0
4524000,0,6.3910215e-05,7.5067575e-05,3.745781e-09,0.0,0.0,0.0
4536000,0,6.3910265e-05,7.506755e-05,3.7078596e-09,0.0,0.0,0.0
4544000,0,6.3910295e-05,7.5067546e-05,3.6825782e-09,0.0,0.0,0.0
4556000,0,6.3910345e-05,7.506753e-05,3.6446566e-09,0.0,0.0,0.0
4564000,0,6.3910375e-05,7.506752e-05,3.6193755e-09,0.0,0.0,0.0
4576000,0,6.391042e-05,7.50675e-05,3.5814538e-09,0.0,0.0,0.0
4584000,0,6.3910455e-05,7.506749e-05,3.5561725e-09,0.0,0.0,0.0
4596000,0,6.39105e-05,7.506747e-05,3.5182508e-09,0.0,0.0,0.0
4604000,0,6.391053e-05,7.5067466e-05,3.4929688e-09,0.0,0.0,0.0
4616000,0,6.391058e-05,7.5067444e-05,3.4550478e-09,0.0,0.0,0.0
4624000,0,6.39106e-05,7.506744e-05,3.429766e-09,0.0,0.0,0.0
4636000,0,6.391065e-05,7.506742e-05,3.3918448e-09,0.0,0.0,0.0
4644000,0,6.391068e-05,7.506741e-05,3.366563e-09,0.0,0.0,0.0
4656000,0,6.391073e-05,7.506739e-05,3.328642e-09,0.0,0.0,0.0
4664000,0,6.391076e-05,7.506738e-05,3.30336e-09,0.0,0.0,0.0
4676000,0,6.391081e-05,7.5067364e-05,3.265439e-09,0.0,0.0,0.0
4684000,0,6.391084e-05,7.506736e-05,3.2401573e-09,0.0,0.0,0.0
4696000,0,6.391089e-05,7.5067335e-05,3.202236e-09,0.0,0.0,0.0
4704000,0,6.391091e-05,7.506733e-05,3.1769543e-09,0.0,0.0,0.0
4716000,0,6.3910964e-05,7.506731e-05,3.1390326e-09,0.0,0.0,0.0
4724000,0,6.391099e-05,7.50673e-05,3.1137508e-09,0.0,0.0,0.0
4736000,0,6.391104e-05,7.5067284e-05,3.0758296e-09,0.0,0.0,0.0
4744000,0,6.3911066e-05,7.506727e-05,3.0505478e-09,0.0,0.0,0.0
4756000,0,6.391112e-05,7.5067255e-05,3.0126266e-09,0.0,0.0,0.0
4764000,0,6.3911146e-05,7.506725e-05,2.9873448e-09,0.0,0.0,0.0
4776000,0,6.39112e-05,7.5067226e-05,2.9494238e-09,0.0,0.0,0.0
4784000,0,6.3911226e-05,7.506722e-05,2.924142e-09,0.0,0.0,0.0
4796000,0,6.391128e-05,7.5067204e-05,2.8862208e-09,0.0,0.0,0.0
4804000,0,6.3911306e-05,7.506719e-05,2.860939e-09,0.0,0.0,0.0
4816000,0,6.391135e-05,7.5067175e-05,2.8230174e-09,0.0,0.0,0.0
4824000,0,6.391138e-05,7.506716e-05,2.797736e-09,0.0,0.0,0.0
4836000,0,6.391143e-05,7.5067146e-05,2.7598144e-09,0.0,0.0,0.0
4844000,0,6.391146e-05,7.506714e-05,2.734533e-09,0.0,0.0,0.0
4856000,0,6.39115e-05,7.506712e-05,2.6966114e-09,0.0,0.0,0.0
4864000,0,6.391154e-05,7.506711e-05,2.6713303e-09,0.0,0.0,0.0
4876000,0,6.391158e-05,7.5067095e-05,2.6334084e-09,0.0,0.0,0.0
4884000,0,6.391161e-05,7.506708e-05,2.6081273e-09,0.0,0.0,0.0
4896000,0,6.391166e-05,7.5067066e-05,2.5702054e-09,0.0,0.0,0.0
4904000,0,6.39117e-05,7.506706e-05,2.5449256e-09,0.0,0.0,0.0
4916000,0,6.391174e-05,7.506704e-05,2.5070026e-09,0.0,0.0,0.0
4924000,0,6.391178e-05,7.506703e-05,2.4817226e-09,0.0,0.0,0.0
4936000,0,6.3911815e-05,7.506701e-05,2.4437996e-09,0.0,0.0,0.0
4944000,0,6.391186e-05,7.5067e-05,2.4185196e-09,0.0,0.0,0.0
4956000,0,6.3911895e-05,7.5066986e-05,2.3805966e-09,0.0,0.0,0.0
4964000,0,6.391193e-05,7.506697e-05,2.3553166e-09,0.0,0.0,0.0
4976000,0,6.3911975e-05,7.506696e-05,2.3173936e-09,0.0,0.0,0.0
4984000,0,6.391201e-05,7.506694e-05,2.2921136e-09,0.0,0.0,0.0
4996000,0,6.391205e-05,7.506693e-05,2.2541906e-09,0.0,0.0,0.0
5004000,0,6.391209e-05,7.506692e-05,2.2289108e-09,0.0,0.0,0.0
5016000,0,6.3912135e-05,7.50669e-05,2.190989e-09,0.0,0.0,0.0
5024000,0,6.3912164e-05,7.506689e-05,2.1657076e-09,0.0,0.0,0.0
5036000,0,6.3912215e-05,7.506688e-05,2.127786e-09,0.0,0.0,0.0
5044000,0,6.3912245e-05,7.506686e-05,2.1025046e-09,0.0,0.0,0.0
5056000,0,6.3912295e-05,7.506685e-05,2.064583e-09,0.0,0.0,0.0
5064000,0,6.3912325e-05,7.506683e-05,2.0393018e-09,0.0,0.0,0.0
5076000,0,6.391237e-05,7.506682e-05,2.00138e-09,0.0,0.0,0.0
5084000,0,6.3912405e-05,7.506681e-05,1.9760988e-09,0.0,0.0,0.0
5096000,0,6.391245e-05,7.506679e-05,1.938177e-09,0.0,0.0,0.0
5104000,0,6.391248e-05,7.506678e-05,1.9128952e-09,0.0,0.0,0.0
5116000,0,6.391253e-05,7.506677e-05,1.874974e-09,0.0,0.0,0.0
5124000,0,6.391255e-05,7.506675e-05,1.8496922e-09,0.0,0.0,0.0
5136000,0,6.39126e-05,7.506674e-05,1.811771e-09,0.0,0.0,0.0
5144000,0,6.391263e-05,7.5066724e-05,1.7864892e-09,0.0,0.0,0.0
5156000,0,6.391268e-05,7.506671e-05,1.748568e-09,0.0,0.0,0.0
5164000,0,6.391271e-05,7.50667e-05,1.7232862e-09,0.0,0.0,0.0
5176000,0,6.391276e-05,7.506668e-05,1.685365e-09,0.0,0.0,0.0
5184000,0,6.391279e-05,7.506667e-05,1.6600832e-09,0.0,0.0,0.0
5196000,0,6.391284e-05,7.506666e-05,1.622162e-09,0.0,0.0,0.0
5204000,0,6.391286e-05,7.5066644e-05,1.5968802e-09,0.0,0.0,0.0
5216000,0,6.3912914e-05,7.506663e-05,1.5589584e-09,0.0,0.0,0.0
5224000,0,6.391294e-05,7.5066615e-05,1.5336766e-09,0.0,0.0,0.0
5236000,0,6.391299e-05,7.50666e-05,1.4957554e-09,0.0,0.0,0.0
5244000,0,6.3913016e-05,7.5066586e-05,1.4704736e-09,0.0,0.0,0.0
5256000,0,6.391307e-05,7.506657e-05,1.4325523e-09,0.0,0.0,0.0
5264000,0,6.3913096e-05,7.5066564e-05,1.4072706e-09,0.0,0.0,0.0
5276000,0,6.391315e-05,7.506655e-05,1.3693493e-09,0.0,0.0,0.0
5284000,0,6.3913176e-05,7.5066535e-05,1.3440676e-09,0.0,0.0,0.0
5296000,0,6.391323e-05,7.506652e-05,1.3061463e-09,0.0,0.0,0.0
5304000,0,6.391325e-05,7.5066506e-05,1.2808646e-09,0.0,0.0,0.0
5316000,0,6.39133e-05,7.506649e-05,1.2429427e-09,0.0,0.0,0.0
5324000,0,6.391333e-05,7.506648e-05,1.2176616e-09,0.0,0.0,0.0
5336000,0,6.391338e-05,7.506646e-05,1.1797398e-09,0.0,0.0,0.0
5344000,0,6.391341e-05,7.5066455e-05,1.1544585e-09,0.0,0.0,0.0
5356000,0,6.391345e-05,7.506643e-05,1.1165368e-09,0.0,0.0,0.0
5364000,0,6.391349e-05,7.5066426e-05,1.0912555e-09,0.0,0.0,0.0
5376000,0,6.391353e-05,7.506641e-05,1.0533338e-09,0.0,0.0,0.0
5384000,0,6.391356e-05,7.50664e-05,1.0280525e-09,0.0,0.0,0.0
5396000,0,6.391361e-05,7.506638e-05,9.901308e-10,0.0,0.0,0.0
5404000,0,6.391364e-05,7.506637e-05,9.648495e-10,0.0,0.0,0.0
5416000,0,6.3913685e-05,7.506635e-05,9.269277e-10,0.0,0.0,0.0
5424000,0,6.391373e-05,7.5066346e-05,9.016477e-10,0.0,0.0,0.0
5436000,0,6.3913765e-05,7.5066324e-05,8.6372465e-10,0.0,0.0,0.0
5444000,0,6.39138e-05,7.506632e-05,8.3844465e-10,0.0,0.0,0.0
5456000,0,6.3913845e-05,7.50663e-05,8.0052165e-10,0.0,0.0,0.0
5464000,0,6.391388e-05,7.506629e-05,7.752416e-10,0.0,0.0,0.0
5476000,0,6.391392e-05,7.506627e-05,7.373186e-10,0.0,0.0,0.0
5484000,0,6.391396e-05,7.5066266e-05,7.120386e-10,0.0,0.0,0.0
5496000,0,6.3914e-05,7.5066244e-05,6.7411554e-10,0.0,0.0,0.0
5504000,0,6.3914034e-05,7.506624e-05,6.4883554e-10,0.0,0.0,0.0
5516000,0,6.3914085e-05,7.506622e-05,6.109137e-10,0.0,0.0,0.0
5524000,0,6.3914114e-05,7.506621e-05,5.8563243e-10,0.0,0.0,0.0
5536000,0,6.3914165e-05,7.506619e-05,5.4771065e-10,0.0,0.0,0.0
5544000,0,6.3914194e-05,7.506618e-05,5.224294e-10,0.0,0.0,0.0
5556000,0,6.391424e-05,7.5066164e-05,4.845076e-10,0.0,0.0,0.0
5564000,0,6.391427e-05,7.506615e-05,4.5922635e-10,0.0,0.0,0.0
5576000,0,6.391432e-05,7.5066135e-05,4.2130457e-10,0.0,0.0,0.0
5584000,0,6.391435e-05,7.506613e-05,3.960233e-10,0.0,0.0,0.0
5596000,0,6.39144e-05,7.5066106e-05,3.5810152e-10,0.0,0.0,0.0
5604000,0,6.391442e-05,7.50661e-05,3.3281963e-10,0.0,0.0,0.0
5616000,0,6.391447e-05,7.5066084e-05,2.948984e-10,0.0,0.0,0.0
5624000,0,6.39145e-05,7.506607e-05,2.6961658e-10,0.0,0.0,0.0
5636000,0,6.391455e-05,7.5066055e-05,2.3169537e-10,0.0,0.0,0.0
5644000,0,6.391458e-05,7.506604e-05,2.0641354e-10,0.0,0.0,0.0
5656000,0,6.391463e-05,7.5066026e-05,1.684923e-10,0.0,0.0,0.0
5664000,0,6.391465e-05,7.506602e-05,1.4321049e-10,0.0,0.0,0.0
5676000,0,6.3914704e-05,7.5066e-05,1.0528925e-10,0.0,0.0,0.0
5684000,0,6.391473e-05,7.506599e-05,8.0007424e-11,0.0,0.0,0.0
5696000,0,6.3914784e-05,7.5065975e-05,4.208619e-11,0.0,0.0,0.0
5704000,0,6.391481e-05,7.506596e-05,1.680436e-11,0.0,0.0,0.0
5716000,0,6.391486e-05,7.5065946e-05,-2.1117481e-11,0.0,0.0,0.0
5724000,0,6.3914886e-05,7.506593e-05,-4.6399214e-11,0.0,0.0,0.0
5736000,0,6.391494e-05,7.506592e-05,-8.4320544e-11,0.0,0.0,0.0
5744000,0,6.3914966e-05,7.50659e-05,-1.0960228e-10,0.0,0.0,0.0
5756000,0,6.391502e-05,7.506589e-05,-1.4752362e-10,0.0,0.0,0.0
5764000,0,6.3915046e-05,7.506588e-05,-1.7280535e-10,0.0,0.0,0.0
5776000,0,6.391509e-05,7.506586e-05,-2.1072669e-10,0.0,0.0,0.0
5784000,0,6.391512e-05,7.506585e-05,-2.360084e-10,0.0,0.0,0.0
5796000,0,6.391517e-05,7.506584e-05,-2.7392977e-10,0.0,0.0,0.0
5804000,0,6.39152e-05,7.506582e-05,-2.992115e-10,0.0,0.0,0.0
5816000,0,6.391524e-05,7.506581e-05,-3.3713335e-10,0.0,0.0,0.0
5824000,0,6.391528e-05,7.506579e-05,-3.6241457e-10,0.0,0.0,0.0
5836000,0,6.391532e-05,7.506578e-05,-4.003364e-10,0.0,0.0,0.0
5844000,0,6.391535e-05,7.506577e-05,-4.2561765e-10,0.0,0.0,0.0
5856000,0,6.39154e-05,7.506575e-05,-4.6353948e-10,0.0,0.0,0.0
5864000,0,6.391543e-05,7.506574e-05,-4.888207e-10,0.0,0.0,0.0
5876000,0,6.3915475e-05,7.506573e-05,-5.267426e-10,0.0,0.0,0.0
5884000,0,6.391551e-05,7.506571e-05,-5.520238e-10,0.0,0.0,0.0
5896000,0,6.3915555e-05,7.50657e-05,-5.8994565e-10,0.0,0.0,0.0
5904000,0,6.3915584e-05,7.506568e-05,-6.1522687e-10,0.0,0.0,0.0
5916000,0,6.3915635e-05,7.506567e-05,-6.5314876e-10,0.0,0.0,0.0
5924000,0,6.391567e-05,7.506566e-05,-6.784288e-10,0.0,0.0,0.0
5936000,0,6.391571e-05,7.506564e-05,-7.163518e-10,0.0,0.0,0.0
5944000,0,6.391575e-05,7.506563e-05,-7.416319e-10,0.0,0.0,0.0
5956000,0,6.391579e-05,7.506561e-05,-7.795549e-10,0.0,0.0,0.0
5964000,0,6.3915824e-05,7.50656e-05,-8.0483503e-10,0.0,0.0,0.0
5976000,0,6.391587e-05,7.506559e-05,-8.4275803e-10,0.0,0.0,0.0
5984000,0,6.3915904e-05,7.5065574e-05,-8.6803814e-10,0.0,0.0,0.0
5996000,0,6.391595e-05,7.506556e-05,-9.059611e-10,0.0,0.0,0.0
6004000,0,6.3915984e-05,7.506555e-05,-9.312412e-10,0.0,0.0,0.0
6016000,0,6.391603e-05,7.506553e-05,-9.691631e-10,0.0,0.0,0.0
6024000,0,6.391606e-05,7.506552e-05,-9.944444e-10,0.0,0.0,0.0
6036000,0,6.391611e-05,7.506551e-05,-1.0323662e-09,0.0,0.0,0.0
6044000,0,6.391614e-05,7.5065494e-05,-1.0576475e-09,0.0,0.0,0.0
6056000,0,6.391619e-05,7.506548e-05,-1.0955693e-09,0.0,0.0,0.0
6064000,0,6.391622e-05,7.5065465e-05,-1.1208505e-09,0.0,0.0,0.0
6076000,0,6.391626e-05,7.506545e-05,-1.1587724e-09,0.0,0.0,0.0
6084000,0,6.391629e-05,7.506544e-05,-1.1840536e-09,0.0,0.0,0.0
6096000,0,6.391634e-05,7.506542e-05,-1.2219755e-09,0.0,0.0,0.0
6104000,0,6.391637e-05,7.5065414e-05,-1.2472574e-09,0.0,0.0,0.0
6116000,0,6.391642e-05,7.506539e-05,-1.2851786e-09,0.0,0.0,0.0
6124000,0,6.391644e-05,7.5065385e-05,-1.3104605e-09,0.0,0.0,0.0
6136000,0,6.3916494e-05,7.506537e-05,-1.3483817e-09,0.0,0.0,0.0
6144000,0,6.391652e-05,7.5065356e-05,-1.3736636e-09,0.0,0.0,0.0
6156000,0,6.3916574e-05,7.506534e-05,-1.4115848e-09,0.0,0.0,0.0
6164000,0,6.39166e-05,7.506533e-05,-1.4368667e-09,0.0,0.0,0.0
6176000,0,6.3916654e-05,7.506531e-05,-1.474788e-09,0.0,0.0,0.0
6184000,0,6.3916676e-05,7.5065305e-05,-1.5000698e-09,0.0,0.0,0.0
6196000,0,6.391673e-05,7.506528e-05,-1.5379911e-09,0.0,0.0,0.0
6204000,0,6.3916756e-05,7.5065276e-05,-1.563273e-09,0.0,0.0,0.0
6216000,0,6.39168e-05,7.5065254e-05,-1.6011948e-09,0.0,0.0,0.0
6224000,0,6.391683e-05,7.506525e-05,-1.6264765e-09,0.0,0.0,0.0
6236000,0,6.391688e-05,7.506523e-05,-1.664398e-09,0.0,0.0,0.0
6244000,0,6.391691e-05,7.506522e-05,-1.6896796e-09,0.0,0.0,0.0
6256000,0,6.391696e-05,7.50652e-05,-1.7276011e-09,0.0,0.0,0.0
6264000,0,6.391699e-05,7.506519e-05,-1.7528828e-09,0.0,0.0,0.0
6276000,0,6.391703e-05,7.5065174e-05,-1.7908042e-09,0.0,0.0,0.0
6284000,0,6.391706e-05,7.506517e-05,-1.816086e-09,0.0,0.0,0.0
6296000,0,6.391711e-05,7.5065145e-05,-1.8540073e-09,0.0,0.0,0.0
6304000,0,6.391714e-05,7.506514e-05,-1.879289e-09,0.0,0.0,0.0
6316000,0,6.3917185e-05,7.506512e-05,-1.9172108e-09,0.0,0.0,0.0
6324000,0,6.391722e-05,7.506511e-05,-1.9424922e-09,0.0,0.0,0.0
6336000,0,6.3917265e-05,7.5065094e-05,-1.980414e-09,0.0,0.0,0.0
6344000,0,6.3917294e-05,7.506508e-05,-2.0056954e-09,0.0,0.0,0.0
6356000,0,6.3917345e-05,7.5065065e-05,-2.0436173e-09,0.0,0.0,0.0
6364000,0,6.3917374e-05,7.506505e-05,-2.0688984e-09,0.0,0.0,0.0
6376000,0,6.391742e-05,7.5065036e-05,-2.1068203e-09,0.0,0.0,0.0
6384000,0,6.3917454e-05,7.506503e-05,-2.1321016e-09,0.0,0.0,0.0
6396000,0,6.39175e-05,7.506501e-05,-2.1700235e-09,0.0,0.0,0.0
6404000,0,6.391753e-05,7.5065e-05,-2.1953048e-09,0.0,0.0,0.0
6416000,0,6.391758e-05,7.5064985e-05,-2.2332265e-09,0.0,0.0,0.0
6424000,0,6.3917614e-05,7.506497e-05,-2.2585067e-09,0.0,0.0,0.0
6436000,0,6.391766e-05,7.5064956e-05,-2.2964297e-09,0.0,0.0,0.0
6444000,0,6.3917694e-05,7.506495e-05,-2.32171e-09,0.0,0.0,0.0
6456000,0,6.391773e-05,7.506493e-05,-2.359633e-09,0.0,0.0,0.0
6464000,0,6.391777e-05,7.506492e-05,-2.3849132e-09,0.0,0.0,0.0
6476000,0,6.391781e-05,7.50649e-05,-2.422836e-09,0.0,0.0,0.0
6484000,0,6.391785e-05,7.506489e-05,-2.4481162e-09,0.0,0.0,0.0
6496000,0,6.391789e-05,7.506487e-05,-2.4860392e-09,0.0,0.0,0.0
6504000,0,6.391793e-05,7.506486e-05,-2.5113194e-09,0.0,0.0,0.0
6516000,0,6.391797e-05,7.506485e-05,-2.5492413e-09,0.0,0.0,0.0
6524000,0,6.3918e-05,7.506483e-05,-2.5745226e-09,0.0,0.0,0.0
6536000,0,6.391805e-05,7.506482e-05,-2.6124445e-09,0.0,0.0,0.0
6544000,0,6.391808e-05,7.506481e-05,-2.6377258e-09,0.0,0.0,0.0
6556000,0,6.391813e-05,7.506479e-05,-2.6756475e-09,0.0,0.0,0.0
6564000,0,6.391816e-05,7.506478e-05,-2.7009288e-09,0.0,0.0,0.0
6576000,0,6.39182e-05,7.506477e-05,-2.7388507e-09,0.0,0.0,0.0
6584000,0,6.391823e-05,7.506475e-05,-2.764132e-09,0.0,0.0,0.0
6596000,0,6.391828e-05,7.506474e-05,-2.802054e-09,0.0,0.0,0.0
6604000,0,6.391831e-05,7.506472e-05,-2.8273357e-09,0.0,0.0,0.0
6616000,0,6.3918356e-05,7.506471e-05,-2.8652571e-09,0.0,0.0,0.0
6624000,0,6.3918385e-05,7.5064694e-05,-2.890539e-09,0.0,0.0,0.0
6636000,0,6.3918436e-05,7.506468e-05,-2.9284604e-09,0.0,0.0,0.0
6644000,0,6.3918465e-05,7.506467e-05,-2.9537421e-09,0.0,0.0,0.0
6656000,0,6.391852e-05,7.506465e-05,-2.9916634e-09,0.0,0.0,0.0
6664000,0,6.3918545e-05,7.506464e-05,-3.0169451e-09,0.0,0.0,0.0
6676000,0,6.391859e-05,7.506463e-05,-3.0548666e-09,0.0,0.0,0.0
6684000,0,6.391862e-05,7.5064614e-05,-3.0801484e-09,0.0,0.0,0.0
6696000,0,6.391867e-05,7.50646e-05,-3.1180698e-09,0.0,0.0,0.0
6704000,0,6.39187e-05,7.5064585e-05,-3.1433516e-09,0.0,0.0,0.0
6716000,0,6.391874e-05,7.506457e-05,-3.1812735e-09,0.0,0.0,0.0
6724000,0,6.391877e-05,7.5064556e-05,-3.2065552e-09,0.0,0.0,0.0
6736000,0,6.391882e-05,7.506454e-05,-3.2444767e-09,0.0,0.0,0.0
6744000,0,6.391885e-05,7.5064534e-05,-3.2697585e-09,0.0,0.0,0.0
6756000,0,6.39189e-05,7.506451e-05,-3.30768e-09,0.0,0.0,0.0
6764000,0,6.3918924e-05,7.5064505e-05,-3.3329615e-09,0.0,0.0,0.0
6776000,0,6.3918975e-05,7.506449e-05,-3.370883e-09,0.0,0.0,0.0
6784000,0,6.3919004e-05,7.5064476e-05,-3.3961647e-09,0.0,0.0,0.0
6796000,0,6.3919055e-05,7.506446e-05,-3.4340861e-09,0.0,0.0,0.0
6804000,0,6.3919084e-05,7.506445e-05,-3.459368e-09,0.0,0.0,0.0
6816000,0,6.391913e-05,7.506443e-05,-3.4972898e-09,0.0,0.0,0.0
6824000,0,6.391916e-05,7.506442e-05,-3.5225711e-09,0.0,0.0,0.0
6836000,0,6.391921e-05,7.50644e-05,-3.560493e-09,0.0,0.0,0.0
6844000,0,6.391924e-05,7.5064396e-05,-3.5857743e-09,0.0,0.0,0.0
6856000,0,6.391929e-05,7.5064374e-05,-3.6236962e-09,0.0,0.0,0.0
6864000,0,6.391932e-05,7.506437e-05,-3.6489773e-09,0.0,0.0,0.0
6876000,0,6.391936e-05,7.506435e-05,-3.6868992e-09,0.0,0.0,0.0
6884000,0,6.391939e-05,7.506434e-05,-3.7121806e-09,0.0,0.0,0.0
6896000,0,6.391944e-05,7.506432e-05,-3.7501025e-09,0.0,0.0,0.0
6904000,0,6.391947e-05,7.506431e-05,-3.775384e-09,0.0,0.0,0.0
6916000,0,6.391952e-05,7.5064294e-05,-3.8133057e-09,0.0,0.0,0.0
6924000,0,6.391956e-05,7.506429e-05,-3.838586e-09,0.0,0.0,0.0
6936000,0,6.391959e-05,7.5064265e-05,-3.876509e-09,0.0,0.0,0.0
6944000,0,6.391963e-05,7.506426e-05,-3.901789e-09,0.0,0.0,0.0
6956000,0,6.391967e-05,7.5064236e-05,-3.939712e-09,0.0,0.0,0.0
6964000,0,6.391971e-05,7.506423e-05,-3.9649923e-09,0.0,0.0,0.0
6976000,0,6.3919746e-05,7.5064214e-05,-4.0029153e-09,0.0,0.0,0.0
6984000,0,6.391979e-05,7.50642e-05,-4.0281956e-09,0.0,0.0,0.0
6996000,0,6.3919826e-05,7.5064185e-05,-4.0661186e-09,0.0,0.0,0.0
7004000,0,6.391986e-05,7.506417e-05,-4.0913988e-09,0.0,0.0,0.0
7016000,0,6.391991e-05,7.5064156e-05,-4.1293204e-09,0.0,0.0,0.0
7024000,0,6.391994e-05,7.506415e-05,-4.154602e-09,0.0,0.0,0.0
7036000,0,6.3919986e-05,7.506413e-05,-4.1925237e-09,0.0,0.0,0.0
7044000,0,6.392002e-05,7.506412e-05,-4.217805e-09,0.0,0.0,0.0
7056000,0,6.3920066e-05,7.5064105e-05,-4.255727e-09,0.0,0.0,0.0
7064000,0,6.3920095e-05,7.506409e-05,-4.2810084e-09,0.0,0.0,0.0
7076000,0,6.3920146e-05,7.5064076e-05,-4.31893e-09,0.0,0.0,0.0
7084000,0,6.3920175e-05,7.506406e-05,-4.3442117e-09,0.0,0.0,0.0
7096000,0,6.392022e-05,7.506405e-05,-4.3821333e-09,0.0,0.0,0.0
7104000,0,6.392025e-05,7.506403e-05,-4.4074153e-09,0.0,0.0,0.0
7116000,0,6.39203e-05,7.506402e-05,-4.4453365e-09,0.0,0.0,0.0
7124000,0,6.392033e-05,7.506401e-05,-4.4706185e-09,0.0,0.0,0.0
7136000,0,6.392038e-05,7.506399e-05,-4.5085398e-09,0.0,0.0,0.0
7144000,0,6.39204e-05,7.506398e-05,-4.5338218e-09,0.0,0.0,0.0
7156000,0,6.392045e-05,7.506397e-05,-4.571743e-09,0.0,0.0,0.0
7164000,0,6.392048e-05,7.506395e-05,-4.597025e-09,0.0,0.0,0.0
7176000,0,6.392053e-05,7.506394e-05,-4.634946e-09,0.0,0.0,0.0
7184000,0,6.392056e-05,7.506392e-05,-4.660228e-09,0.0,0.0,0.0
7196000,0,6.392061e-05,7.506391e-05,-4.6981494e-09,0.0,0.0,0.0
7204000,0,6.3920634e-05,7.5063894e-05,-4.7234314e-09,0.0,0.0,0.0
7216000,0,6.3920685e-05,7.506388e-05,-4.761353e-09,0.0,0.0,0.0
7224000,0,6.3920714e-05,7.506387e-05,-4.786635e-09,0.0,0.0,0.0
7236000,0,6.392076e-05,7.506385e-05,-4.8245563e-09,0.0,0.0,0.0
7244000,0,6.392079e-05,7.506384e-05,-4.8498383e-09,0.0,0.0,0.0
7256000,0,6.392084e-05,7.506383e-05,-4.8877595e-09,0.0,0.0,0.0
7264000,0,6.392087e-05,7.5063814e-05,-4.9130415e-09,0.0,0.0,0.0
7276000,0,6.392092e-05,7.50638e-05,-4.9509628e-09,0.0,0.0,0.0
7284000,0,6.392095e-05,7.5063785e-05,-4.9762447e-09,0.0,0.0,0.0
7296000,0,6.392099e-05,7.506377e-05,-5.014166e-09,0.0,0.0,0.0
7304000,0,6.392102e-05,7.5063756e-05,-5.039448e-09,0.0,0.0,0.0
7316000,0,6.392107e-05,7.506374e-05,-5.0773696e-09,0.0,0.0,0.0
7324000,0,6.39211e-05,7.5063734e-05,-5.102651e-09,0.0,0.0,0.0
7336000,0,6.392114e-05,7.506371e-05,-5.140573e-09,0.0,0.0,0.0
7344000,0,6.392118e-05,7.5063705e-05,-5.1658544e-09,0.0,0.0,0.0
7356000,0,6.392122e-05,7.506368e-05,-5.203776e-09,0.0,0.0,0.0
7364000,0,6.392125e-05,7.5063675e-05,-5.2290576e-09,0.0,0.0,0.0
7376000,0,6.39213e-05,7.506366e-05,-5.2669793e-09,0.0,0.0,0.0
7384000,0,6.392133e-05,7.506365e-05,-5.292261e-09,0.0,0.0,0.0
7396000,0,6.3921376e-05,7.506363e-05,-5.3301825e-09,0.0,0.0,0.0
7404000,0,6.3921405e-05,7.506362e-05,-5.355464e-09,0.0,0.0,0.0
7416000,0,6.3921456e-05,7.50636e-05,-5.3933857e-09,0.0,0.0,0.0
7424000,0,6.392149e-05,7.5063595e-05,-5.4186664e-09,0.0,0.0,0.0
7436000,0,6.392153e-05,7.506357e-05,-5.456589e-09,0.0,0.0,0.0
7444000,0,6.392157e-05,7.5063566e-05,-5.4818696e-09,0.0,0.0,0.0
7456000,0,6.392161e-05,7.5063545e-05,-5.519792e-09,0.0,0.0,0.0
7464000,0,6.3921645e-05,7.506354e-05,-5.545073e-09,0.0,0.0,0.0
7476000,0,6.392169e-05,7.506352e-05,-5.5829954e-09,0.0,0.0,0.0
7484000,0,6.3921725e-05,7.506351e-05,-5.608276e-09,0.0,0.0,0.0
7496000,0,6.392176e-05,7.506349e-05,-5.6461986e-09,0.0,0.0,0.0
7504000,0,6.3921805e-05,7.5063486e-05,-5.6714793e-09,0.0,0.0,0.0
7516000,0,6.392185e-05,7.5063464e-05,-5.709401e-09,0.0,0.0,0.0
7524000,0,6.392188e-05,7.506346e-05,-5.7346825e-09,0.0,0.0,0.0
7536000,0,6.392193e-05,7.5063435e-05,-5.772604e-09,0.0,0.0,0.0
7544000,0,6.392196e-05,7.506343e-05,-5.7978857e-09,0.0,0.0,0.0
7556000,0,6.3922e-05,7.506341e-05,-5.8358074e-09,0.0,0.0,0.0
7564000,0,6.392204e-05,7.50634e-05,-5.861089e-09,0.0,0.0,0.0
7576000,0,6.392208e-05,7.5063384e-05,-5.8990106e-09,0.0,0.0,0.0
7584000,0,6.392211e-05,7.506337e-05,-5.924292e-09,0.0,0.0,0.0
7596000,0,6.392216e-05,7.5063355e-05,-5.962214e-09,0.0,0.0,0.0
7604000,0,6.392218e-05,7.506334e-05,-5.987496e-09,0.0,0.0,0.0
7616000,0,6.3922234e-05,7.5063326e-05,-6.0254175e-09,0.0,0.0,0.0
7624000,0,6.392226e-05,7.506332e-05,-6.050699e-09,0.0,0.0,0.0
7636000,0,6.3922314e-05,7.50633e-05,-6.0886207e-09,0.0,0.0,0.0
7644000,0,6.392234e-05,7.506329e-05,-6.1139023e-09,0.0,0.0,0.0
7656000,0,6.392239e-05,7.5063275e-05,-6.151824e-09,0.0,0.0,0.0
7664000,0,6.3922416e-05,7.506326e-05,-6.1771055e-09,0.0,0.0,0.0
7676000,0,6.392247e-05,7.5063246e-05,-6.215027e-09,0.0,0.0,0.0
7684000,0,6.3922496e-05,7.506323e-05,-6.2403087e-09,0.0,0.0,0.0
7696000,0,6.392255e-05,7.506322e-05,-6.2782304e-09,0.0,0.0,0.0
7704000,0,6.392257e-05,7.50632e-05,-6.303512e-09,0.0,0.0,0.0
7716000,0,6.392262e-05,7.506319e-05,-6.341434e-09,0.0,0.0,0.0
7724000,0,6.392265e-05,7.506317e-05,-6.3667156e-09,0.0,0.0,0.0
7736000,0,6.392269e-05,7.506316e-05,-6.4046373e-09,0.0,0.0,0.0
7744000,0,6.392272e-05,7.506315e-05,-6.429919e-09,0.0,0.0,0.0
7756000,0,6.392277e-05,7.506313e-05,-6.4678405e-09,0.0,0.0,0.0
7764000,0,6.39228e-05,7.506312e-05,-6.493122e-09,0.0,0.0,0.0
7776000,0,6.392285e-05,7.506311e-05,-6.5310437e-09,0.0,0.0,0.0
7784000,0,6.392288e-05,7.506309e-05,-6.5563253e-09,0.0,0.0,0.0
7796000,0,6.3922926e-05,7.506308e-05,-6.594247e-09,0.0,0.0,0.0
7804000,0,6.3922955e-05,7.5063064e-05,-6.6195285e-09,0.0,0.0,0.0
7816000,0,6.3923006e-05,7.506305e-05,-6.6574506e-09,0.0,0.0,0.0
7824000,0,6.3923035e-05,7.5063035e-05,-6.682732e-09,0.0,0.0,0.0
7836000,0,6.392308e-05,7.506302e-05,-6.720654e-09,0.0,0.0,0.0
7844000,0,6.3923115e-05,7.506301e-05,-6.7459354e-09,0.0,0.0,0.0
7856000,0,6.392316e-05,7.506299e-05,-6.783857e-09,0.0,0.0,0.0
7864000,0,6.392319e-05,7.5062984e-05,-6.8091386e-09,0.0,0.0,0.0
7876000,0,6.392324e-05,7.506297e-05,-6.8470603e-09,0.0,0.0,0.0
7884000,0,6.392327e-05,7.5062955e-05,-6.872342e-09,0.0,0.0,0.0
7896000,0,6.392331e-05,7.506294e-05,-6.9102635e-09,0.0,0.0,0.0
7904000,0,6.392334e-05,7.5062926e-05,-6.935545e-09,0.0,0.0,0.0
7916000,0,6.392339e-05,7.506291e-05,-6.9734667e-09,0.0,0.0,0.0
7924000,0,6.392343e-05,7.5062904e-05,-6.9987474e-09,0.0,0.0,0.0
7936000,0,6.3923464e-05,7.506288e-05,-7.0366704e-09,0.0,0.0,0.0
7944000,0,6.392351e-05,7.5062875e-05,-7.0619506e-09,0.0,0.0,0.0
7956000,0,6.3923544e-05,7.506285e-05,-7.0998736e-09,0.0,0.0,0.0
7964000,0,6.392358e-05,7.5062846e-05,-7.125154e-09,0.0,0.0,0.0
7976000,0,6.3923624e-05,7.5062824e-05,-7.163077e-09,0.0,0.0,0.0
7984000,0,6.392366e-05,7.506282e-05,-7.188357e-09,0.0,0.0,0.0
7996000,0,6.39237e-05,7.50628e-05,-7.22628e-09,0.0,0.0,0.0
8004000,0,6.392374e-05,7.506279e-05,-7.2515602e-09,0.0,0.0,0.0
8016000,0,6.3923784e-05,7.506277e-05,-7.2894824e-09,0.0,0.0,0.0
8024000,0,6.392381e-05,7.5062766e-05,-7.3147635e-09,0.0,0.0,0.0
8036000,0,6.3923864e-05,7.5062744e-05,-7.3526856e-09,0.0,0.0,0.0
8044000,0,6.392389e-05,7.506274e-05,-7.377967e-09,0.0,0.0,0.0
8056000,0,6.392394e-05,7.5062715e-05,-7.415889e-09,0.0,0.0,0.0
8064000,0,6.3923966e-05,7.506271e-05,-7.4411703e-09,0.0,0.0,0.0
8076000,0,6.392402e-05,7.506269e-05,-7.479092e-09,0.0,0.0,0.0
8084000,0,6.3924046e-05,7.506268e-05,-7.504373e-09,0.0,0.0,0.0
8096000,0,6.392409e-05,7.5062664e-05,-7.542296e-09,0.0,0.0,0.0
8104000,0,6.392412e-05,7.506265e-05,-7.567577e-09,0.0,0.0,0.0
8116000,0,6.392417e-05,7.5062635e-05,-7.6054985e-09,0.0,0.0,0.0
8124000,0,6.39242e-05,7.506262e-05,-7.6307805e-09,0.0,0.0,0.0
8136000,0,6.392425e-05,7.5062606e-05,-7.668702e-09,0.0,0.0,0.0
8144000,0,6.392427e-05,7.50626e-05,-7.693984e-09,0.0,0.0,0.0
8156000,0,6.392432e-05,7.506258e-05,-7.731905e-09,0.0,0.0,0.0
8164000,0,6.392435e-05,7.506257e-05,-7.757187e-09,0.0,0.0,0.0
8176000,0,6.39244e-05,7.5062555e-05,-7.795109e-09,0.0,0.0,0.0
8184000,0,6.392443e-05,7.506254e-05,-7.820391e-09,0.0,0.0,0.0
8196000,0,6.392448e-05,7.5062526e-05,-7.858312e-09,0.0,0.0,0.0
8204000,0,6.3924505e-05,7.506251e-05,-7.883593e-09,0.0,0.0,0.0
8216000,0,6.3924555e-05,7.50625e-05,-7.921516e-09,0.0,0.0,0.0
8224000,0,6.392458e-05,7.506248e-05,-7.946797e-09,0.0,0.0,0.0
8236000,0,6.392463e-05,7.506247e-05,-7.984719e-09,0.0,0.0,0.0
8244000,0,6.392466e-05,7.506245e-05,-8.010001e-09,0.0,0.0,0.0
8256000,0,6.392471e-05,7.506244e-05,-8.047922e-09,0.0,0.0,0.0
8264000,0,6.392474e-05,7.506243e-05,-8.073203e-09,0.0,0.0,0.0
8276000,0,6.392478e-05,7.506241e-05,-8.111125e-09,0.0,0.0,0.0
8284000,0,6.392481e-05,7.50624e-05,-8.136407e-09,0.0,0.0,0.0
8296000,0,6.392486e-05,7.506239e-05,-8.174329e-09,0.0,0.0,0.0
8304000,0,6.392489e-05,7.506237e-05,-8.19961e-09,0.0,0.0,0.0
8316000,0,6.3924934e-05,7.506236e-05,-8.237532e-09,0.0,0.0,0.0
8324000,0,6.392497e-05,7.5062344e-05,-8.2628135e-09,0.0,0.0,0.0
8336000,0,6.3925014e-05,7.506233e-05,-8.300735e-09,0.0,0.0,0.0
8344000,0,6.392504e-05,7.5062315e-05,-8.326017e-09,0.0,0.0,0.0
8356000,0,6.3925094e-05,7.50623e-05,-8.363939e-09,0.0,0.0,0.0
8364000,0,6.392512e-05,7.5062286e-05,-8.38922e-09,0.0,0.0,0.0
8376000,0,6.392517e-05,7.506227e-05,-8.427142e-09,0.0,0.0,0.0
8384000,0,6.3925196e-05,7.5062264e-05,-8.452424e-09,0.0,0.0,0.0
8396000,0,6.392525e-05,7.506224e-05,-8.490345e-09,0.0,0.0,0.0
8404000,0,6.3925276e-05,7.5062235e-05,-8.515626e-09,0.0,0.0,0.0
8416000,0,6.392532e-05,7.506222e-05,-8.553549e-09,0.0,0.0,0.0
8424000,0,6.392536e-05,7.5062206e-05,-8.578829e-09,0.0,0.0,0.0
8436000,0,6.39254e-05,7.506219e-05,-8.616752e-09,0.0,0.0,0.0
8444000,0,6.3925436e-05,7.506218e-05,-8.642033e-09,0.0,0.0,0.0
8456000,0,6.392548e-05,7.506216e-05,-8.679955e-09,0.0,0.0,0.0
8464000,0,6.3925516e-05,7.5062155e-05,-8.705236e-09,0.0,0.0,0.0
8476000,0,6.392555e-05,7.506213e-05,-8.743158e-09,0.0,0.0,0.0
8484000,0,6.3925596e-05,7.5062126e-05,-8.768439e-09,0.0,0.0,0.0
8496000,0,6.392563e-05,7.5062104e-05,-8.806362e-09,0.0,0.0,0.0
8504000,0,6.392567e-05,7.50621e-05,-8.831642e-09,0.0,0.0,0.0
8516000,0,6.392571e-05,7.506208e-05,-8.869565e-09,0.0,0.0,0.0
8524000,0,6.392575e-05,7.506207e-05,-8.894846e-09,0.0,0.0,0.0
8536000,0,6.392579e-05,7.506205e-05,-8.932767e-09,0.0,0.0,0.0
8544000,0,6.392582e-05,7.506204e-05,-8.9580485e-09,0.0,0.0,0.0
8556000,0,6.392587e-05,7.5062024e-05,-8.995971e-09,0.0,0.0,0.0
8564000,0,6.39259e-05,7.506201e-05,-9.021252e-09,0.0,0.0,0.0
8576000,0,6.3925945e-05,7.5061995e-05,-9.059174e-09,0.0,0.0,0.0
8584000,0,6.3925974e-05,7.506199e-05,-9.084456e-09,0.0,0.0,0.0
8596000,0,6.3926025e-05,7.5061966e-05,-9.1223775e-09,0.0,0.0,0.0
8604000,0,6.3926054e-05,7.506196e-05,-9.1476595e-09,0.0,0.0,0.0
8616000,0,6.39261e-05,7.506194e-05,-9.185581e-09,0.0,0.0,0.0
8624000,0,6.392613e-05,7.506193e-05,-9.210862e-09,0.0,0.0,0.0
8636000,0,6.392618e-05,7.5061915e-05,-9.248784e-09,0.0,0.0,0.0
8644000,0,6.392621e-05,7.50619e-05,-9.274066e-09,0.0,0.0,0.0
8656000,0,6.392626e-05,7.5061886e-05,-9.311988e-09,0.0,0.0,0.0
8664000,0,6.392628e-05,7.506187e-05,-9.337269e-09,0.0,0.0,0.0
8676000,0,6.392633e-05,7.506186e-05,-9.37519e-09,0.0,0.0,0.0
8684000,0,6.392636e-05,7.506184e-05,-9.400472e-09,0.0,0.0,0.0
8696000,0,6.392641e-05,7.506183e-05,-9.438394e-09,0.0,0.0,0.0
8704000,0,6.392644e-05,7.506182e-05,-9.463676e-09,0.0,0.0,0.0
8716000,0,6.392648e-05,7.50618e-05,-9.501598e-09,0.0,0.0,0.0
8724000,0,6.392651e-05,7.506179e-05,-9.52688e-09,0.0,0.0,0.0
8736000,0,6.392656e-05,7.506177e-05,-9.5648005e-09,0.0,0.0,0.0
8744000,0,6.3926585e-05,7.506176e-05,-9.5900825e-09,0.0,0.0,0.0
8756000,0,6.3926636e-05,7.506175e-05,-9.628004e-09,0.0,0.0,0.0
8764000,0,6.3926665e-05,7.506173e-05,-9.653286e-09,0.0,0.0,0.0
8776000,0,6.392672e-05,7.506172e-05,-9.691208e-09,0.0,0.0,0.0
8784000,0,6.3926745e-05,7.5061704e-05,-9.716489e-09,0.0,0.0,0.0
8796000,0,6.392679e-05,7.506169e-05,-9.754411e-09,0.0,0.0,0.0
8804000,0,6.392682e-05,7.5061675e-05,-9.779693e-09,0.0,0.0,0.0
8816000,0,6.392687e-05,7.506166e-05,-9.817614e-09,0.0,0.0,0.0
8824000,0,6.39269e-05,7.5061645e-05,-9.842895e-09,0.0,0.0,0.0
8836000,0,6.392694e-05,7.506163e-05,-9.880818e-09,0.0,0.0,0.0
8844000,0,6.392697e-05,7.5061624e-05,-9.906099e-09,0.0,0.0,0.0
8856000,0,6.392702e-05,7.50616e-05,-9.944021e-09,0.0,0.0,0.0
8864000,0,6.392705e-05,7.5061595e-05,-9.969303e-09,0.0,0.0,0.0
8876000,0,6.3927095e-05,7.506158e-05,-1.0007224e-08,0.0,0.0,0.0
8884000,0,6.392713e-05,7.5061565e-05,-1.00325055e-08,0.0,0.0,0.0
8896000,0,6.3927175e-05,7.506155e-05,-1.0070428e-08,0.0,0.0,0.0
8904000,0,6.3927204e-05,7.5061536e-05,-1.0095709e-08,0.0,0.0,0.0
8916000,0,6.3927255e-05,7.506152e-05,-1.0133631e-08,0.0,0.0,0.0
8924000,0,6.392729e-05,7.5061515e-05,-1.0158912e-08,0.0,0.0,0.0
8936000,0,6.392733e-05,7.506149e-05,-1.01968345e-08,0.0,0.0,0.0
8944000,0,6.3927364e-05,7.5061485e-05,-1.0222115e-08,0.0,0.0,0.0
8956000,0,6.392741e-05,7.506146e-05,-1.0260037e-08,0.0,0.0,0.0
8964000,0,6.3927444e-05,7.5061456e-05,-1.0285318e-08,0.0,0.0,0.0
8976000,0,6.392748e-05,7.5061434e-05,-1.0323241e-08,0.0,0.0,0.0
8984000,0,6.3927524e-05,7.506143e-05,-1.0348521e-08,0.0,0.0,0.0
8996000,0,6.392756e-05,7.506141e-05,-1.0386444e-08,0.0,0.0,0.0
9004000,0,6.39276e-05,7.50614e-05,-1.0411725e-08,0.0,0.0,0.0
9016000,0,6.392765e-05,7.506138e-05,-1.04496465e-08,0.0,0.0,0.0
9024000,0,6.392768e-05,7.506137e-05,-1.0474928e-08,0.0,0.0,0.0
9036000,0,6.392772e-05,7.5061354e-05,-1.051285e-08,0.0,0.0,0.0
9044000,0,6.392775e-05,7.506135e-05,-1.0538131e-08,0.0,0.0,0.0
9056000,0,6.39278e-05,7.5061325e-05,-1.0576053e-08,0.0,0.0,0.0
9064000,0,6.392783e-05,7.506132e-05,-1.0601335e-08,0.0,0.0,0.0
9076000,0,6.392787e-05,7.5061296e-05,-1.0639257e-08,0.0,0.0,0.0
9084000,0,6.392791e-05,7.506129e-05,-1.0664538e-08,0.0,0.0,0.0
9096000,0,6.392795e-05,7.5061274e-05,-1.070246e-08,0.0,0.0,0.0
9104000,0,6.392798e-05,7.506126e-05,-1.0727741e-08,0.0,0.0,0.0
9116000,0,6.392803e-05,7.5061245e-05,-1.0765663e-08,0.0,0.0,0.0
9124000,0,6.3928055e-05,7.506123e-05,-1.0790945e-08,0.0,0.0,0.0
9136000,0,6.3928106e-05,7.5061216e-05,-1.0828867e-08,0.0,0.0,0.0
9144000,0,6.3928135e-05,7.50612e-05,-1.0854148e-08,0.0,0.0,0.0
9156000,0,6.3928186e-05,7.506119e-05,-1.08920695e-08,0.0,0.0,0.0
9164000,0,6.392821e-05,7.506117e-05,-1.09173515e-08,0.0,0.0,0.0
9176000,0,6.392826e-05,7.506116e-05,-1.0955273e-08,0.0,0.0,0.0
9184000,0,6.392829e-05,7.506115e-05,-1.0980555e-08,0.0,0.0,0.0
9196000,0,6.392834e-05,7.506113e-05,-1.1018477e-08,0.0,0.0,0.0
9204000,0,6.392837e-05,7.506112e-05,-1.1043758e-08,0.0,0.0,0.0
9216000,0,6.392841e-05,7.50611e-05,-1.10816805e-08,0.0,0.0,0.0
9224000,0,6.392844e-05,7.506109e-05,-1.1106962e-08,0.0,0.0,0.0
9236000,0,6.392849e-05,7.506108e-05,-1.1144883e-08,0.0,0.0,0.0
9244000,0,6.392851e-05,7.506106e-05,-1.1170165e-08,0.0,0.0,0.0
9256000,0,6.3928564e-05,7.506105e-05,-1.1208087e-08,0.0,0.0,0.0
9264000,0,6.392859e-05,7.5061034e-05,-1.1233368e-08,0.0,0.0,0.0
9276000,0,6.3928645e-05,7.506102e-05,-1.127129e-08,0.0,0.0,0.0
9284000,0,6.392867e-05,7.5061005e-05,-1.1296572e-08,0.0,0.0,0.0
9296000,0,6.392872e-05,7.506099e-05,-1.1334493e-08,0.0,0.0,0.0
9304000,0,6.392875e-05,7.5060976e-05,-1.1359775e-08,0.0,0.0,0.0
9316000,0,6.39288e-05,7.506096e-05,-1.1397697e-08,0.0,0.0,0.0
9324000,0,6.392883e-05,7.5060954e-05,-1.1422978e-08,0.0,0.0,0.0
9336000,0,6.392887e-05,7.506093e-05,-1.1460901e-08,0.0,0.0,0.0
9344000,0,6.39289e-05,7.5060925e-05,-1.1486182e-08,0.0,0.0,0.0
9356000,0,6.392895e-05,7.50609e-05,-1.15241034e-08,0.0,0.0,0.0
9364000,0,6.392898e-05,7.5060896e-05,-1.1549385e-08,0.0,0.0,0.0
9376000,0,6.392902e-05,7.506088e-05,-1.1587307e-08,0.0,0.0,0.0
9384000,0,6.392906e-05,7.506087e-05,-1.1612588e-08,0.0,0.0,0.0
9396000,0,6.39291e-05,7.506085e-05,-1.165051e-08,0.0,0.0,0.0
9404000,0,6.392913e-05,7.506084e-05,-1.1675792e-08,0.0,0.0,0.0
9416000,0,6.392918e-05,7.506082e-05,-1.17137136e-08,0.0,0.0,0.0
9424000,0,6.392922e-05,7.5060816e-05,-1.1738994e-08,0.0,0.0,0.0
9436000,0,6.3929256e-05,7.5060794e-05,-1.1776917e-08,0.0,0.0,0.0
9444000,0,6.392929e-05,7.506079e-05,-1.1802197e-08,0.0,0.0,0.0
9456000,0,6.3929336e-05,7.5060765e-05,-1.184012e-08,0.0,0.0,0.0
9464000,0,6.392937e-05,7.506076e-05,-1.1865401e-08,0.0,0.0,0.0
9476000,0,6.392941e-05,7.5060736e-05,-1.1903324e-08,0.0,0.0,0.0
9484000,0,6.392945e-05,7.506073e-05,-1.1928604e-08,0.0,0.0,0.0
9496000,0,6.392949e-05,7.5060714e-05,-1.1966526e-08,0.0,0.0,0.0
9504000,0,6.3929525e-05,7.50607e-05,-1.19918075e-08,0.0,0.0,0.0
9516000,0,6.392957e-05,7.5060685e-05,-1.2029729e-08,0.0,0.0,0.0
9524000,0,6.3929605e-05,7.506067e-05,-1.2055011e-08,0.0,0.0,0.0
9536000,0,6.392965e-05,7.5060656e-05,-1.2092933e-08,0.0,0.0,0.0
9544000,0,6.392968e-05,7.506065e-05,-1.2118214e-08,0.0,0.0,0.0
9556000,0,6.392973e-05,7.506063e-05,-1.2156136e-08,0.0,0.0,0.0
9564000,0,6.392976e-05,7.506062e-05,-1.2181418e-08,0.0,0.0,0.0
9576000,0,6.39298e-05,7.50606e-05,-1.2219339e-08,0.0,0.0,0.0
9584000,0,6.392983e-05,7.506059e-05,-1.224462e-08,0.0,0.0,0.0
9596000,0,6.392988e-05,7.5060576e-05,-1.2282543e-08,0.0,0.0,0.0
9604000,0,6.39299e-05,7.506056e-05,-1.2307824e-08,0.0,0.0,0.0
9616000,0,6.3929954e-05,7.506055e-05,-1.2345746e-08,0.0,0.0,0.0
9624000,0,6.392998e-05,7.506053e-05,-1.2371028e-08,0.0,0.0,0.0
9636000,0,6.3930034e-05,7.506052e-05,-1.2408949e-08,0.0,0.0,0.0
9644000,0,6.393006e-05,7.50605e-05,-1.2434231e-08,0.0,0.0,0.0
9656000,0,6.393011e-05,7.506049e-05,-1.2472152e-08,0.0,0.0,0.0
9664000,0,6.3930136e-05,7.5060474e-05,-1.2497434e-08,0.0,0.0,0.0
9676000,0,6.393019e-05,7.506046e-05,-1.2535356e-08,0.0,0.0,0.0
9684000,0,6.3930216e-05,7.506045e-05,-1.2560638e-08,0.0,0.0,0.0
9696000,0,6.393027e-05,7.506043e-05,-1.25985595e-08,0.0,0.0,0.0
9704000,0,6.393029e-05,7.506042e-05,-1.2623841e-08,0.0,0.0,0.0
9716000,0,6.393034e-05,7.50604e-05,-1.2661763e-08,0.0,0.0,0.0
9724000,0,6.393036e-05,7.5060394e-05,-1.2687044e-08,0.0,0.0,0.0
9736000,0,6.393041e-05,7.506038e-05,-1.2724966e-08,0.0,0.0,0.0
9744000,0,6.393044e-05,7.5060365e-05,-1.2750248e-08,0.0,0.0,0.0
9756000,0,6.393049e-05,7.506035e-05,-1.278817e-08,0.0,0.0,0.0
9764000,0,6.393052e-05,7.5060336e-05,-1.2813451e-08,0.0,0.0,0.0
9776000,0,6.3930565e-05,7.506032e-05,-1.2851372e-08,0.0,0.0,0.0
9784000,0,6.3930594e-05,7.506031e-05,-1.2876654e-08,0.0,0.0,0.0
9796000,0,6.3930645e-05,7.506029e-05,-1.2914576e-08,0.0,0.0,0.0
9804000,0,6.3930675e-05,7.506028e-05,-1.2939858e-08,0.0,0.0,0.0
9816000,0,6.393072e-05,7.506026e-05,-1.297778e-08,0.0,0.0,0.0
9824000,0,6.393075e-05,7.5060256e-05,-1.3003061e-08,0.0,0.0,0.0
9836000,0,6.39308e-05,7.5060234e-05,-1.3040983e-08,0.0,0.0,0.0
9844000,0,6.393083e-05,7.506023e-05,-1.30662645e-08,0.0,0.0,0.0
9856000,0,6.393087e-05,7.5060205e-05,-1.3104186e-08,0.0,0.0,0.0
9864000,0,6.393091e-05,7.50602e-05,-1.3129467e-08,0.0,0.0,0.0
9876000,0,6.393095e-05,7.506018e-05,-1.316739e-08,0.0,0.0,0.0
9884000,0,6.393098e-05,7.506017e-05,-1.3192671e-08,0.0,0.0,0.0
9896000,0,6.3931024e-05,7.5060154e-05,-1.3230593e-08,0.0,0.0,0.0
9904000,0,6.393106e-05,7.506014e-05,-1.3255875e-08,0.0,0.0,0.0
9916000,0,6.3931104e-05,7.5060125e-05,-1.3293796e-08,0.0,0.0,0.0
9924000,0,6.393114e-05,7.506011e-05,-1.3319077e-08,0.0,0.0,0.0
9936000,0,6.3931184e-05,7.5060096e-05,-1.3357e-08,0.0,0.0,0.0
9944000,0,6.393122e-05,7.506009e-05,-1.338228e-08,0.0,0.0,0.0
9956000,0,6.393126e-05,7.506007e-05,-1.3420203e-08,0.0,0.0,0.0
9964000,0,6.393129e-05,7.506006e-05,-1.3445484e-08,0.0,0.0,0.0
9976000,0,6.393134e-05,7.506004e-05,-1.3483406e-08,0.0,0.0,0.0
9984000,0,6.393137e-05,7.506003e-05,-1.3508687e-08,0.0,0.0,0.0
9996000,0,6.393141e-05,7.506001e-05,-1.3546609e-08,0.0,0.0,0.0
10004000,0,6.393145e-05,7.506e-05,-1.357189e-08,0.0,0.0,0.0
10016000,0,6.39315e-05,7.505999e-05,-1.3609812e-08,0.0,0.0,0.0
10024000,0,6.3931526e-05,7.505997e-05,-1.3635094e-08,0.0,0.0,0.0
10036000,0,6.393157e-05,7.505996e-05,-1.3673016e-08,0.0,0.0,0.0
10044000,0,6.3931606e-05,7.505994e-05,-1.3698297e-08,0.0,0.0,0.0
10056000,0,6.393165e-05,7.505993e-05,-1.3736219e-08,0.0,0.0,0.0
10064000,0,6.393168e-05,7.5059914e-05,-1.37615e-08,0.0,0.0,0.0
10076000,0,6.393173e-05,7.50599e-05,-1.3799422e-08,0.0,0.0,0.0
10084000,0,6.393176e-05,7.505989e-05,-1.3824703e-08,0.0,0.0,0.0
10096000,0,6.39318e-05,7.505987e-05,-1.3862626e-08,0.0,0.0,0.0
10104000,0,6.393183e-05,7.505986e-05,-1.3887907e-08,0.0,0.0,0.0
10116000,0,6.393188e-05,7.505984e-05,-1.39258285e-08,0.0,0.0,0.0
10124000,0,6.3931904e-05,7.5059834e-05,-1.39511105e-08,0.0,0.0,0.0
10136000,0,6.3931955e-05,7.505982e-05,-1.3989032e-08,0.0,0.0,0.0
10144000,0,6.3931984e-05,7.5059805e-05,-1.4014314e-08,0.0,0.0,0.0
10156000,0,6.3932035e-05,7.505979e-05,-1.4052236e-08,0.0,0.0,0.0
10164000,0,6.393206e-05,7.5059776e-05,-1.4077517e-08,0.0,0.0,0.0
10176000,0,6.393211e-05,7.505976e-05,-1.4115439e-08,0.0,0.0,0.0
10184000,0,6.393214e-05,7.505975e-05,-1.4140721e-08,0.0,0.0,0.0
10196000,0,6.393219e-05,7.505973e-05,-1.4178642e-08,0.0,0.0,0.0
10204000,0,6.393222e-05,7.505972e-05,-1.4203923e-08,0.0,0.0,0.0
10216000,0,6.393226e-05,7.50597e-05,-1.4241846e-08,0.0,0.0,0.0
10224000,0,6.393229e-05,7.505969e-05,-1.4267127e-08,0.0,0.0,0.0
10236000,0,6.393234e-05,7.5059674e-05,-1.4305049e-08,0.0,0.0,0.0
10244000,0,6.393236e-05,7.505967e-05,-1.4330331e-08,0.0,0.0,0.0
10256000,0,6.393241e-05,7.5059645e-05,-1.4368252e-08,0.0,0.0,0.0
10264000,0,6.393244e-05,7.505964e-05,-1.4393534e-08,0.0,0.0,0.0
10276000,0,6.393249e-05,7.505962e-05,-1.4431456e-08,0.0,0.0,0.0
10284000,0,6.3932515e-05,7.505961e-05,-1.4456737e-08,0.0,0.0,0.0
10296000,0,6.3932566e-05,7.5059594e-05,-1.4494659e-08,0.0,0.0,0.0
10304000,0,6.3932595e-05,7.505958e-05,-1.4519941e-08,0.0,0.0,0.0
10316000,0,6.393264e-05,7.5059565e-05,-1.45578625e-08,0.0,0.0,0.0
10324000,0,6.3932675e-05,7.505955e-05,-1.4583144e-08,0.0,0.0,0.0
10336000,0,6.393272e-05,7.5059535e-05,-1.4621066e-08,0.0,0.0,0.0
10344000,0,6.393275e-05,7.505952e-05,-1.4646347e-08,0.0,0.0,0.0
10356000,0,6.393279e-05,7.5059506e-05,-1.4684269e-08,0.0,0.0,0.0
10364000,0,6.393283e-05,7.505949e-05,-1.4709551e-08,0.0,0.0,0.0
10376000,0,6.393287e-05,7.505948e-05,-1.4747473e-08,0.0,0.0,0.0
10384000,0,6.39329e-05,7.505947e-05,-1.4772754e-08,0.0,0.0,0.0
10396000,0,6.393295e-05,7.505945e-05,-1.4810676e-08,0.0,0.0,0.0
10404000,0,6.393298e-05,7.505944e-05,-1.4835957e-08,0.0,0.0,0.0
10416000,0,6.3933025e-05,7.505942e-05,-1.4873879e-08,0.0,0.0,0.0
10424000,0,6.393306e-05,7.505941e-05,-1.489916e-08,0.0,0.0,0.0
10436000,0,6.3933105e-05,7.50594e-05,-1.4937083e-08,0.0,0.0,0.0
10444000,0,6.393314e-05,7.505938e-05,-1.4962364e-08,0.0,0.0,0.0
10456000,0,6.393318e-05,7.505937e-05,-1.5000285e-08,0.0,0.0,0.0
10464000,0,6.393322e-05,7.505935e-05,-1.5025567e-08,0.0,0.0,0.0
10476000,0,6.393326e-05,7.505934e-05,-1.5063488e-08,0.0,0.0,0.0
10484000,0,6.3933294e-05,7.5059324e-05,-1.508877e-08,0.0,0.0,0.0
10496000,0,6.393333e-05,7.505931e-05,-1.5126693e-08,0.0,0.0,0.0
10504000,0,6.3933374e-05,7.50593e-05,-1.5151974e-08,0.0,0.0,0.0
10516000,0,6.393342e-05,7.505928e-05,-1.5189896e-08,0.0,0.0,0.0
10524000,0,6.393345e-05,7.505927e-05,-1.5215177e-08,0.0,0.0,0.0
10536000,0,6.39335e-05,7.505925e-05,-1.5253098e-08,0.0,0.0,0.0
10544000,0,6.393353e-05,7.5059244e-05,-1.527838e-08,0.0,0.0,0.0
10556000,0,6.393357e-05,7.505923e-05,-1.5316301e-08,0.0,0.0,0.0
10564000,0,6.39336e-05,7.5059215e-05,-1.5341582e-08,0.0,0.0,0.0
10576000,0,6.393365e-05,7.50592e-05,-1.5379506e-08,0.0,0.0,0.0
10584000,0,6.393368e-05,7.5059186e-05,-1.5404787e-08,0.0,0.0,0.0
10596000,0,6.393372e-05,7.505917e-05,-1.5442708e-08,0.0,0.0,0.0
10604000,0,6.393375e-05,7.505916e-05,-1.546799e-08,0.0,0.0,0.0
10616000,0,6.39338e-05,7.505914e-05,-1.5505911e-08,0.0,0.0,0.0
10624000,0,6.3933825e-05,7.505913e-05,-1.5531194e-08,0.0,0.0,0.0
10636000,0,6.3933876e-05,7.505911e-05,-1.5569116e-08,0.0,0.0,0.0
10644000,0,6.3933905e-05,7.50591e-05,-1.5594397e-08,0.0,0.0,0.0
10656000,0,6.3933956e-05,7.5059084e-05,-1.5632319e-08,0.0,0.0,0.0
10664000,0,6.393398e-05,7.505908e-05,-1.56576e-08,0.0,0.0,0.0
10676000,0,6.393403e-05,7.5059055e-05,-1.5695521e-08,0.0,0.0,0.0
10684000,0,6.393406e-05,7.505905e-05,-1.5720802e-08,0.0,0.0,0.0
10696000,0,6.393411e-05,7.505903e-05,-1.5758724e-08,0.0,0.0,0.0
10704000,0,6.393414e-05,7.505902e-05,-1.5784007e-08,0.0,0.0,0.0
10716000,0,6.393418e-05,7.5059004e-05,-1.5821929e-08,0.0,0.0,0.0
10724000,0,6.393421e-05,7.505899e-05,-1.584721e-08,0.0,0.0,0.0
10736000,0,6.3934254e-05,7.5058975e-05,-1.5885131e-08,0.0,0.0,0.0
10744000,0,6.393428e-05,7.505896e-05,-1.5910413e-08,0.0,0.0,0.0
10756000,0,6.3934334e-05,7.5058946e-05,-1.5948334e-08,0.0,0.0,0.0
10764000,0,6.393436e-05,7.505893e-05,-1.5973617e-08,0.0,0.0,0.0
10776000,0,6.3934414e-05,7.505892e-05,-1.6011539e-08,0.0,0.0,0.0
10784000,0,6.3934436e-05,7.50589e-05,-1.603682e-08,0.0,0.0,0.0
10796000,0,6.393449e-05,7.505889e-05,-1.6074742e-08,0.0,0.0,0.0
10804000,0,6.3934516e-05,7.505887e-05,-1.6100023e-08,0.0,0.0,0.0
10816000,0,6.393456e-05,7.505886e-05,-1.6137946e-08,0.0,0.0,0.0
10824000,0,6.393459e-05,7.505885e-05,-1.6163227e-08,0.0,0.0,0.0
10836000,0,6.393464e-05,7.505883e-05,-1.6201149e-08,0.0,0.0,0.0
10844000,0,6.393467e-05,7.505882e-05,-1.622643e-08,0.0,0.0,0.0
10856000,0,6.393471e-05,7.50588e-05,-1.6264352e-08,0.0,0.0,0.0
10864000,0,6.393475e-05,7.505879e-05,-1.6289633e-08,0.0,0.0,0.0
10876000,0,6.393479e-05,7.505877e-05,-1.6327554e-08,0.0,0.0,0.0
10884000,0,6.393482e-05,7.5058764e-05,-1.6352837e-08,0.0,0.0,0.0
10896000,0,6.3934865e-05,7.505875e-05,-1.6390759e-08,0.0,0.0,0.0
10904000,0,6.39349e-05,7.5058735e-05,-1.641604e-08,0.0,0.0,0.0
10916000,0,6.3934946e-05,7.505872e-05,-1.6453962e-08,0.0,0.0,0.0
10924000,0,6.393498e-05,7.5058706e-05,-1.6479243e-08,0.0,0.0,0.0
10936000,0,6.393502e-05,7.505869e-05,-1.6517165e-08,0.0,0.0,0.0
10944000,0,6.393506e-05,7.5058684e-05,-1.6542446e-08,0.0,0.0,0.0
10956000,0,6.39351e-05,7.505866e-05,-1.6580369e-08,0.0,0.0,0.0
10964000,0,6.3935135e-05,7.5058655e-05,-1.6605648e-08,0.0,0.0,0.0
10976000,0,6.393518e-05,7.505863e-05,-1.6643572e-08,0.0,0.0,0.0
10984000,0,6.3935215e-05,7.5058626e-05,-1.6668853e-08,0.0,0.0,0.0
10996000,0,6.393525e-05,7.5058604e-05,-1.6706775e-08,0.0,0.0,0.0
11004000,0,6.393529e-05,7.50586e-05,-1.6732056e-08,0.0,0.0,0.0
11016000,0,6.393534e-05,7.505858e-05,-1.6769977e-08,0.0,0.0,0.0
11024000,0,6.393537e-05,7.505857e-05,-1.6795259e-08,0.0,0.0,0.0
11036000,0,6.393541e-05,7.505855e-05,-1.683318e-08,0.0,0.0,0.0
11044000,0,6.393544e-05,7.505854e-05,-1.6858463e-08,0.0,0.0,0.0
11056000,0,6.393549e-05,7.5058524e-05,-1.6896385e-08,0.0,0.0,0.0
11064000,0,6.393552e-05,7.505851e-05,-1.6921666e-08,0.0,0.0,0.0
11076000,0,6.3935564e-05,7.5058495e-05,-1.6959588e-08,0.0,0.0,0.0
11084000,0,6.393559e-05,7.505848e-05,-1.6984869e-08,0.0,0.0,0.0
11096000,0,6.3935644e-05,7.5058466e-05,-1.702279e-08,0.0,0.0,0.0
11104000,0,6.3935666e-05,7.505845e-05,-1.7048073e-08,0.0,0.0,0.0
11116000,0,6.393572e-05,7.505844e-05,-1.7085995e-08,0.0,0.0,0.0
11124000,0,6.3935746e-05,7.505843e-05,-1.7111276e-08,0.0,0.0,0.0
11136000,0,6.39358e-05,7.505841e-05,-1.7149198e-08,0.0,0.0,0.0
11144000,0,6.3935826e-05,7.50584e-05,-1.7174479e-08,0.0,0.0,0.0
11156000,0,6.393587e-05,7.505838e-05,-1.72124e-08,0.0,0.0,0.0
11164000,0,6.39359e-05,7.505837e-05,-1.7237682e-08,0.0,0.0,0.0
11176000,0,6.393595e-05,7.505836e-05,-1.7275605e-08,0.0,0.0,0.0
11184000,0,6.393598e-05,7.505834e-05,-1.7300886e-08,0.0,0.0,0.0
11196000,0,6.393602e-05,7.505833e-05,-1.7338808e-08,0.0,0.0,0.0
11204000,0,6.393605e-05,7.505831e-05,-1.7364089e-08,0.0,0.0,0.0
11216000,0,6.3936095e-05,7.50583e-05,-1.740201e-08,0.0,0.0,0.0
11224000,0,6.3936124e-05,7.5058284e-05,-1.7427292e-08,0.0,0.0,0.0
11236000,0,6.3936175e-05,7.505827e-05,-1.7465213e-08,0.0,0.0,0.0
11244000,0,6.3936204e-05,7.5058255e-05,-1.7490496e-08,0.0,0.0,0.0
11256000,0,6.3936255e-05,7.505824e-05,-1.7528418e-08,0.0,0.0,0.0
11264000,0,6.393628e-05,7.5058226e-05,-1.7553699e-08,0.0,0.0,0.0
11276000,0,6.393633e-05,7.505821e-05,-1.759162e-08,0.0,0.0,0.0
11284000,0,6.393636e-05,7.50582e-05,-1.7616902e-08,0.0,0.0,0.0
11296000,0,6.393641e-05,7.505818e-05,-1.7654823e-08,0.0,0.0,0.0
11304000,0,6.393643e-05,7.5058175e-05,-1.7680106e-08,0.0,0.0,0.0
11316000,0,6.393648e-05,7.505815e-05,-1.7718028e-08,0.0,0.0,0.0
11324000,0,6.393651e-05,7.5058146e-05,-1.7743309e-08,0.0,0.0,0.0
11336000,0,6.393655e-05,7.5058124e-05,-1.778123e-08,0.0,0.0,0.0
11344000,0,6.393658e-05,7.505812e-05,-1.7806512e-08,0.0,0.0,0.0
11356000,0,6.393663e-05,7.5058095e-05,-1.7844433e-08,0.0,0.0,0.0
11364000,0,6.393666e-05,7.505809e-05,-1.7869715e-08,0.0,0.0,0.0
11376000,0,6.3936706e-05,7.505807e-05,-1.7907638e-08,0.0,0.0,0.0
11384000,0,6.393674e-05,7.505806e-05,-1.793292e-08,0.0,0.0,0.0
11396000,0,6.3936786e-05,7.5058044e-05,-1.797084e-08,0.0,0.0,0.0
11404000,0,6.393682e-05,7.505803e-05,-1.7996122e-08,0.0,0.0,0.0
11416000,0,6.393686e-05,7.5058015e-05,-1.8034044e-08,0.0,0.0,0.0
11424000,0,6.39369e-05,7.505801e-05,-1.8059325e-08,0.0,0.0,0.0
11436000,0,6.393694e-05,7.5057986e-05,-1.8097246e-08,0.0,0.0,0.0
11444000,0,6.3936975e-05,7.505798e-05,-1.8122527e-08,0.0,0.0,0.0
11456000,0,6.393701e-05,7.505796e-05,-1.8160451e-08,0.0,0.0,0.0
11464000,0,6.3937056e-05,7.505795e-05,-1.8185732e-08,0.0,0.0,0.0
11476000,0,6.393709e-05,7.505793e-05,-1.8223654e-08,0.0,0.0,0.0
11484000,0,6.393713e-05,7.505792e-05,-1.8248935e-08,0.0,0.0,0.0
11496000,0,6.3937165e-05,7.50579e-05,-1.8286856e-08,0.0,0.0,0.0
11504000,0,6.393721e-05,7.505789e-05,-1.8312138e-08,0.0,0.0,0.0
11516000,0,6.393725e-05,7.505788e-05,-1.835006e-08,0.0,0.0,0.0
11524000,0,6.393728e-05,7.505786e-05,-1.837534e-08,0.0,0.0,0.0
11536000,0,6.393733e-05,7.505785e-05,-1.8413264e-08,0.0,0.0,0.0
11544000,0,6.393736e-05,7.505783e-05,-1.8438545e-08,0.0,0.0,0.0
11556000,0,6.3937405e-05,7.505782e-05,-1.8476467e-08,0.0,0.0,0.0
11564000,0,6.3937434e-05,7.5057804e-05,-1.8501748e-08,0.0,0.0,0.0
11576000,0,6.3937485e-05,7.505779e-05,-1.853967e-08,0.0,0.0,0.0
11584000,0,6.3937514e-05,7.5057775e-05,-1.856495e-08,0.0,0.0,0.0
11596000,0,6.393756e-05,7.505776e-05,-1.8602872e-08,0.0,0.0,0.0
11604000,0,6.393759e-05,7.5057746e-05,-1.8628155e-08,0.0,0.0,0.0
11616000,0,6.393764e-05,7.505773e-05,-1.8666077e-08,0.0,0.0,0.0
11624000,0,6.393766e-05,7.5057724e-05,-1.8691358e-08,0.0,0.0,0.0
11636000,0,6.393771e-05,7.50577e-05,-1.872928e-08,0.0,0.0,0.0
11644000,0,6.393774e-05,7.5057695e-05,-1.875456e-08,0.0,0.0,0.0
11656000,0,6.393779e-05,7.505767e-05,-1.8792482e-08,0.0,0.0,0.0
11664000,0,6.393781e-05,7.5057666e-05,-1.8817765e-08,0.0,0.0,0.0
11676000,0,6.393786e-05,7.505765e-05,-1.8855687e-08,0.0,0.0,0.0
11684000,0,6.393789e-05,7.505764e-05,-1.8880968e-08,0.0,0.0,0.0
11696000,0,6.393794e-05,7.505762e-05,-1.891889e-08,0.0,0.0,0.0
11704000,0,6.3937965e-05,7.505761e-05,-1.894417e-08,0.0,0.0,0.0
11716000,0,6.3938016e-05,7.505759e-05,-1.8982092e-08,0.0,0.0,0.0
11724000,0,6.393804e-05,7.505758e-05,-1.9007373e-08,0.0,0.0,0.0
11736000,0,6.393809e-05,7.5057564e-05,-1.9045297e-08,0.0,0.0,0.0
11744000,0,6.393812e-05,7.505755e-05,-1.9070578e-08,0.0,0.0,0.0
11756000,0,6.393817e-05,7.5057535e-05,-1.91085e-08,0.0,0.0,0.0
11764000,0,6.393819e-05,7.505752e-05,-1.913378e-08,0.0,0.0,0.0
11776000,0,6.393824e-05,7.5057505e-05,-1.9171702e-08,0.0,0.0,0.0
11784000,0,6.393827e-05,7.505749e-05,-1.9196984e-08,0.0,0.0,0.0
11796000,0,6.393832e-05,7.5057476e-05,-1.9234905e-08,0.0,0.0,0.0
11804000,0,6.393835e-05,7.505746e-05,-1.9260188e-08,0.0,0.0,0.0
11816000,0,6.3938394e-05,7.505745e-05,-1.929811e-08,0.0,0.0,0.0
11824000,0,6.393842e-05,7.505744e-05,-1.932339e-08,0.0,0.0,0.0
11836000,0,6.393847e-05,7.505742e-05,-1.9361313e-08,0.0,0.0,0.0
11844000,0,6.39385e-05,7.505741e-05,-1.9386594e-08,0.0,0.0,0.0
11856000,0,6.393855e-05,7.505739e-05,-1.9424515e-08,0.0,0.0,0.0
11864000,0,6.3938576e-05,7.505738e-05,-1.9449796e-08,0.0,0.0,0.0
11876000,0,6.393862e-05,7.505736e-05,-1.948772e-08,0.0,0.0,0.0
11884000,0,6.3938656e-05,7.505735e-05,-1.9513001e-08,0.0,0.0,0.0
11896000,0,6.39387e-05,7.505734e-05,-1.9550923e-08,0.0,0.0,0.0
11904000,0,6.3938736e-05,7.505732e-05,-1.9576204e-08,0.0,0.0,0.0
11916000,0,6.393877e-05,7.505731e-05,-1.9614125e-08,0.0,0.0,0.0
11924000,0,6.3938816e-05,7.5057294e-05,-1.9639407e-08,0.0,0.0,0.0
11936000,0,6.393885e-05,7.505728e-05,-1.9677328e-08,0.0,0.0,0.0
11944000,0,6.393889e-05,7.5057265e-05,-1.970261e-08,0.0,0.0,0.0
11956000,0,6.3938925e-05,7.505725e-05,-1.9740533e-08,0.0,0.0,0.0
11964000,0,6.393897e-05,7.505724e-05,-1.9765814e-08,0.0,0.0,0.0
11976000,0,6.3939005e-05,7.505722e-05,-1.9803736e-08,0.0,0.0,0.0
11984000,0,6.393904e-05,7.5057214e-05,-1.9829017e-08,0.0,0.0,0.0
11996000,0,6.393908e-05,7.505719e-05,-1.9866938e-08,0.0,0.0,0.0
12004000,0,6.393912e-05,7.5057185e-05,-1.989222e-08,0.0,0.0,0.0
12016000,0,6.3939166e-05,7.505716e-05,-1.9930141e-08,0.0,0.0,0.0
12024000,0,6.3939195e-05,7.5057156e-05,-1.9955422e-08,0.0,0.0,0.0
12036000,0,6.3939246e-05,7.505714e-05,-1.9993346e-08,0.0,0.0,0.0
12044000,0,6.3939275e-05,7.505713e-05,-2.0018627e-08,0.0,0.0,0.0
12056000,0,6.393932e-05,7.505711e-05,-2.0056548e-08,0.0,0.0,0.0
12064000,0,6.393935e-05,7.50571e-05,-2.008183e-08,0.0,0.0,0.0
12076000,0,6.39394e-05,7.505708e-05,-2.0119751e-08,0.0,0.0,0.0
12084000,0,6.393943e-05,7.505707e-05,-2.0145032e-08,0.0,0.0,0.0
12096000,0,6.393947e-05,7.5057054e-05,-2.0182954e-08,0.0,0.0,0.0
12104000,0,6.39395e-05,7.505704e-05,-2.0208235e-08,0.0,0.0,0.0
12116000,0,6.3939544e-05,7.5057025e-05,-2.0246159e-08,0.0,0.0,0.0
12124000,0,6.393957e-05,7.505701e-05,-2.027144e-08,0.0,0.0,0.0
12136000,0,6.3939624e-05,7.5056996e-05,-2.0309361e-08,0.0,0.0,0.0
12144000,0,6.393965e-05,7.505698e-05,-2.0334642e-08,0.0,0.0,0.0
12156000,0,6.39397e-05,7.505697e-05,-2.0372564e-08,0.0,0.0,0.0
12164000,0,6.3939726e-05,7.505695e-05,-2.0397845e-08,0.0,0.0,0.0
12176000,0,6.393978e-05,7.505694e-05,-2.0435767e-08,0.0,0.0,0.0
12184000,0,6.3939806e-05,7.505693e-05,-2.046105e-08,0.0,0.0,0.0
12196000,0,6.393985e-05,7.505691e-05,-2.0498971e-08,0.0,0.0,0.0
12204000,0,6.393988e-05,7.50569e-05,-2.0524253e-08,0.0,0.0,0.0
12216000,0,6.393992e-05,7.505688e-05,-2.0562174e-08,0.0,0.0,0.0
12224000,0,6.393995e-05,7.505687e-05,-2.0587455e-08,0.0,0.0,0.0
12236000,0,6.394e-05,7.505685e-05,-2.0625377e-08,0.0,0.0,0.0
12244000,0,6.394003e-05,7.505684e-05,-2.0650658e-08,0.0,0.0,0.0
12256000,0,6.3940075e-05,7.505683e-05,-2.068858e-08,0.0,0.0,0.0
12264000,0,6.3940104e-05,7.5056814e-05,-2.0713863e-08,0.0,0.0,0.0
12276000,0,6.3940155e-05,7.50568e-05,-2.0751784e-08,0.0,0.0,0.0
12284000,0,6.3940184e-05,7.5056785e-05,-2.0777065e-08,0.0,0.0,0.0
12296000,0,6.394023e-05,7.505677e-05,-2.0814987e-08,0.0,0.0,0.0
12304000,0,6.394026e-05,7.5056756e-05,-2.0840268e-08,0.0,0.0,0.0
12316000,0,6.394031e-05,7.505674e-05,-2.087819e-08,0.0,0.0,0.0
12324000,0,6.394034e-05,7.505673e-05,-2.0903471e-08,0.0,0.0,0.0
12336000,0,6.394038e-05,7.505671e-05,-2.0941394e-08,0.0,0.0,0.0
12344000,0,6.394041e-05,7.50567e-05,-2.0966676e-08,0.0,0.0,0.0
12356000,0,6.394046e-05,7.505668e-05,-2.1004597e-08,0.0,0.0,0.0
12364000,0,6.394049e-05,7.505667e-05,-2.1029878e-08,0.0,0.0,0.0
12376000,0,6.394053e-05,7.5056654e-05,-2.10678e-08,0.0,0.0,0.0
12384000,0,6.394056e-05,7.505665e-05,-2.1093081e-08,0.0,0.0,0.0
12396000,0,6.394061e-05,7.5056625e-05,-2.1131003e-08,0.0,0.0,0.0
12404000,0,6.394065e-05,7.505662e-05,-2.1156284e-08,0.0,0.0,0.0
12416000,0,6.3940686e-05,7.5056596e-05,-2.1194207e-08,0.0,0.0,0.0
12424000,0,6.394072e-05,7.505659e-05,-2.1219488e-08,0.0,0.0,0.0
12436000,0,6.3940766e-05,7.505657e-05,-2.125741e-08,0.0,0.0,0.0
12444000,0,6.39408e-05,7.505656e-05,-2.1282691e-08,0.0,0.0,0.0
12456000,0,6.394084e-05,7.505654e-05,-2.1320613e-08,0.0,0.0,0.0
12464000,0,6.3940875e-05,7.505653e-05,-2.1345894e-08,0.0,0.0,0.0
12476000,0,6.394092e-05,7.5056516e-05,-2.1383816e-08,0.0,0.0,0.0
12484000,0,6.3940955e-05,7.50565e-05,-2.1409097e-08,0.0,0.0,0.0
12496000,0,6.3941e-05,7.505649e-05,-2.1447018e-08,0.0,0.0,0.0
12504000,0,6.394103e-05,7.505647e-05,-2.1472301e-08,0.0,0.0,0.0
12516000,0,6.394108e-05,7.505646e-05,-2.1510223e-08,0.0,0.0,0.0
12524000,0,6.394111e-05,7.505644e-05,-2.1535504e-08,0.0,0.0,0.0
12536000,0,6.394115e-05,7.505643e-05,-2.1573426e-08,0.0,0.0,0.0
12544000,0,6.394118e-05,7.505642e-05,-2.1598707e-08,0.0,0.0,0.0
12556000,0,6.394123e-05,7.50564e-05,-2.1636628e-08,0.0,0.0,0.0
12564000,0,6.394126e-05,7.505639e-05,-2.166191e-08,0.0,0.0,0.0
12576000,0,6.3941305e-05,7.505637e-05,-2.1699831e-08,0.0,0.0,0.0
12584000,0,6.3941334e-05,7.505636e-05,-2.1725114e-08,0.0,0.0,0.0
12596000,0,6.3941385e-05,7.505634e-05,-2.1763036e-08,0.0,0.0,0.0
12604000,0,6.394141e-05,7.5056334e-05,-2.1788317e-08,0.0,0.0,0.0
12616000,0,6.394146e-05,7.505631e-05,-2.1826239e-08,0.0,0.0,0.0
12624000,0,6.394149e-05,7.5056305e-05,-2.185152e-08,0.0,0.0,0.0
12636000,0,6.394154e-05,7.505629e-05,-2.1889441e-08,0.0,0.0,0.0
12644000,0,6.394156e-05,7.5056276e-05,-2.1914722e-08,0.0,0.0,0.0
12656000,0,6.394161e-05,7.505626e-05,-2.1952644e-08,0.0,0.0,0.0
12664000,0,6.394164e-05,7.505625e-05,-2.1977927e-08,0.0,0.0,0.0
12676000,0,6.394168e-05,7.505623e-05,-2.2015849e-08,0.0,0.0,0.0
12684000,0,6.394171e-05,7.505622e-05,-2.204113e-08,0.0,0.0,0.0
12696000,0,6.3941756e-05,7.50562e-05,-2.2079051e-08,0.0,0.0,0.0
12704000,0,6.3941785e-05,7.505619e-05,-2.2104333e-08,0.0,0.0,0.0
12716000,0,6.3941836e-05,7.5056174e-05,-2.2142254e-08,0.0,0.0,0.0
12724000,0,6.3941865e-05,7.505616e-05,-2.2167535e-08,0.0,0.0,0.0
12736000,0,6.394191e-05,7.5056145e-05,-2.2205457e-08,0.0,0.0,0.0
12744000,0,6.394194e-05,7.505613e-05,-2.223074e-08,0.0,0.0,0.0
12756000,0,6.394199e-05,7.5056116e-05,-2.2268662e-08,0.0,0.0,0.0
12764000,0,6.394202e-05,7.50561e-05,-2.2293943e-08,0.0,0.0,0.0
12776000,0,6.394206e-05,7.505609e-05,-2.2331864e-08,0.0,0.0,0.0
12784000,0,6.394209e-05,7.505607e-05,-2.2357145e-08,0.0,0.0,0.0
12796000,0,6.394214e-05,7.505606e-05,-2.2395067e-08,0.0,0.0,0.0
12804000,0,6.394217e-05,7.505605e-05,-2.2420348e-08,0.0,0.0,0.0
12816000,0,6.3942214e-05,7.505603e-05,-2.245827e-08,0.0,0.0,0.0
