timestamp,timestamp_sample,device_id,magnetometer_ga[0],magnetometer_ga[1],magnetometer_ga[2],calibration_count
3220000,3216000,197388,0.008824453,-0.2176095,0.42623472,0
3348000,3287272,197388,0.008019219,-0.21460307,0.4276759,0
3360000,3360000,197388,0.0074648946,-0.21746828,0.4347926,0
3492000,3430909,197388,0.010922943,-0.21729359,0.4283756,0
3504000,3504000,197388,0.012662404,-0.2208443,0.42743695,0
3636000,3574909,197388,0.008857775,-0.21389131,0.4285528,0
3648000,3648000,197388,0.010165687,-0.21654108,0.42757124,0
3776000,3718181,197388,0.010099129,-0.21675973,0.4295082,0
3792000,3792000,197388,0.003462465,-0.21183299,0.42760217,0
3924000,3862909,197388,0.010888887,-0.21749772,0.42997167,0
3936000,3936000,197388,0.012772626,-0.22128722,0.4299018,0
4068000,4007272,197388,0.012779201,-0.21504419,0.42934626,0
4080000,4080000,197388,0.010802907,-0.21566938,0.42910835,0
4212000,4150181,197388,0.009917139,-0.21602196,0.42941433,0
4224000,4224000,197388,0.007231662,-0.21685575,0.4296651,0
4356000,4294909,197388,0.01118599,-0.21742834,0.4281639,0
4368000,4368000,197388,0.018399607,-0.21139956,0.42977944,0
4500000,4438909,197388,0.00973691,-0.21555956,0.42898187,0
4512000,4512000,197388,0.01061486,-0.21265829,0.42644173,0
4640000,4582181,197388,0.009640167,-0.21807992,0.4270415,0
4656000,4656000,197388,0.010743514,-0.21750513,0.4274533,0
4784000,4726181,197388,0.012038991,-0.21487781,0.4310608,0
4800000,4800000,197388,0.013821151,-0.21307668,0.42583653,0
4928000,4870181,197388,0.008520918,-0.21651496,0.42977428,0
4944000,4944000,197388,0.007850355,-0.21883255,0.42611477,0
5072000,5014181,197388,0.009197014,-0.21676338,0.42842573,0
5088000,5088000,197388,0.013612775,-0.21911617,0.43367678,0
5216000,5158181,197388,0.009675379,-0.21636236,0.42817143,0
5232000,5232000,197388,0.013444212,-0.21714449,0.4281817,0
5360000,5303272,197388,0.011125308,-0.21612038,0.42952776,0
5376000,5376000,197388,0.010049947,-0.20963867,0.42640236,0
5504000,5446909,197388,0.012309374,-0.21679318,0.42920828,0
5520000,5520000,197388,0.01029931,-0.21670233,0.4211833,0
5652000,5591272,197388,0.009434827,-0.21453933,0.43112713,0
5664000,5664000,197388,0.006175791,-0.21254571,0.4267381,0
5792000,5734909,197388,0.008672748,-0.21669295,0.42954624,0
5808000,5808000,197388,0.00851287,-0.20892636,0.4257072,0
5940000,5878545,197388,0.0099408915,-0.21611075,0.4287219,0
5952000,5952000,197388,0.007867536,-0.21527176,0.4297004,0
6080000,6022181,197388,0.010784844,-0.2148926,0.427702,0
6096000,6096000,197388,0.015238209,-0.21555068,0.4291808,0
6224000,6166181,197388,0.008638483,-0.2149682,0.42956123,0
6240000,6240000,197388,0.010463324,-0.20905414,0.4204287,0
6372000,6311272,197388,0.010075313,-0.21476933,0.42900014,0
6384000,6384000,197388,0.007076331,-0.21745571,0.4294035,0
6516000,6455272,197388,0.010347001,-0.21679534,0.42812213,0
6528000,6528000,197388,0.018154688,-0.21675277,0.43222177,0
6656000,6598909,197388,0.009543749,-0.2157419,0.429736,0
6672000,6672000,197388,0.015293713,-0.21380447,0.4274136,0
6804000,6743272,197388,0.009219237,-0.21713464,0.42963064,0
6816000,6816000,197388,0.007392026,-0.22382455,0.4315075,0
6948000,6888000,197388,0.009494049,-0.21726124,0.42996347,0
6956000,6956000,197388,0.007348439,-0.21226484,0.42550355,0
7080000,7023600,197388,0.01135339,-0.21471755,0.42893782,0
7092000,7092000,197388,0.012644212,-0.21966943,0.4289547,0
7224000,7162909,197388,0.011281978,-0.21452193,0.4296207,0
7236000,7236000,197388,0.001400695,-0.21519457,0.43025696,0
7368000,7307272,197388,0.008936202,-0.21507533,0.4305164,0
7380000,7380000,197388,0.010909791,-0.21254556,0.4311165,0
7512000,7450181,197388,0.010628713,-0.21330579,0.43300036,0
7520000,7520000,197388,0.008384908,-0.22066295,0.4376733,0
7644000,7589200,197388,0.00887722,-0.21546955,0.42906705,0
7656000,7656000,197388,0.012706193,-0.22196808,0.4292716,0
7784000,7726545,197388,0.012752166,-0.21577395,0.42867917,0
7800000,7800000,197388,0.012540931,-0.21601605,0.42573655,0
7932000,7870181,197388,0.009125622,-0.21477087,0.4277676,0
7944000,7944000,197388,0.007913508,-0.21455874,0.42960358,0
8076000,8014909,197388,0.01091119,-0.21757144,0.4293399,0
8088000,8088000,197388,0.010298254,-0.2207238,0.43358472,0
8220000,8158545,197388,0.010728283,-0.21665515,0.4277801,0
8232000,8232000,197388,0.010868839,-0.22049132,0.43353283,0
8360000,8303272,197388,0.0066550598,-0.21566853,0.42925835,0
8376000,8376000,197388,0.0142179495,-0.21481772,0.43137395,0
8508000,8447272,197388,0.009422071,-0.21593364,0.42770466,0
8520000,8520000,197388,0.011721137,-0.21458584,0.4344056,0
8652000,8590909,197388,0.009171946,-0.21480854,0.42973706,0
8664000,8664000,197388,0.013246536,-0.21665843,0.4287039,0
8796000,8734909,197388,0.008551456,-0.21732724,0.42760056,0
8808000,8808000,197388,0.011612541,-0.22159393,0.43399385,0
8940000,8879272,197388,0.010187958,-0.21483725,0.42824304,0
8952000,8952000,197388,0.009698083,-0.21800247,0.42811513,0
9084000,9024000,197388,0.008320717,-0.21486366,0.4275691,0
9096000,9096000,197388,0.006721952,-0.21389194,0.42773998,0
9228000,9166909,197388,0.009123143,-0.21697348,0.42955023,0
9240000,9240000,197388,0.012076965,-0.21748926,0.43318325,0
9368000,9311272,197388,0.009616937,-0.2157369,0.42929095,0
9384000,9384000,197388,0.009882825,-0.21970929,0.42788473,0
9512000,9453818,197388,0.008310146,-0.21650375,0.4296604,0
9528000,9528000,197388,0.017221972,-0.21432026,0.43140075,0
9660000,9599636,197388,0.0072504217,-0.21659648,0.43086743,0
9672000,9672000,197388,0.0024552415,-0.21637517,0.42805517,0
9800000,9742909,197388,0.010186306,-0.2153829,0.42767844,0
9816000,9816000,197388,0.014399681,-0.21430264,0.42608076,0
9948000,9887272,197388,0.008567432,-0.21576384,0.42689255,0
9960000,9960000,197388,0.0139725655,-0.21294738,0.4286481,0
10088000,10030909,197388,0.009170877,-0.21859393,0.4307898,0
10104000,10104000,197388,0.0069226515,-0.21389633,0.42702276,0
10232000,10174545,197388,0.009803575,-0.21572125,0.42899126,0
10248000,10248000,197388,0.010689744,-0.21604267,0.4258592,0
10380000,10318181,197388,0.009633791,-0.21528813,0.4297733,0
10392000,10392000,197388,0.011111036,-0.22134462,0.43934295,0
10524000,10463636,197388,0.010994737,-0.21399757,0.4289616,0
10536000,10536000,197388,0.0069550234,-0.21552995,0.42856655,0
10664000,10606545,197388,0.00923403,-0.21640186,0.4289275,0
10680000,10680000,197388,0.008294021,-0.2093563,0.42568246,0
10808000,10749454,197388,0.008924467,-0.21539706,0.4313108,0
10824000,10824000,197388,0.014215811,-0.2119526,0.4265217,0
10956000,10895272,197388,0.008561607,-0.21529162,0.42794567,0
10968000,10968000,197388,0.00792688,-0.21776776,0.4320095,0
11096000,11038545,197388,0.009046537,-0.21635327,0.4294171,0
11112000,11112000,197388,0.006031785,-0.20963287,0.42558298,0
11244000,11182181,197388,0.009433994,-0.21713571,0.4317294,0
11256000,11256000,197388,0.012335279,-0.21458977,0.42900816,0
11384000,11326909,197388,0.008932024,-0.21722558,0.42986134,0
11400000,11400000,197388,0.011361385,-0.21231918,0.4315282,0
11532000,11470909,197388,0.010475494,-0.2160039,0.42945525,0
11544000,11544000,197388,0.0036344815,-0.21531874,0.43019143,0
11676000,11614545,197388,0.008963344,-0.21579184,0.42916283,0
11688000,11688000,197388,0.014233502,-0.2174245,0.42657566,0
11820000,11759272,197388,0.007473845,-0.21521287,0.42940903,0
11832000,11832000,197388,0.014352168,-0.2186129,0.42900628,0
11964000,11902909,197388,0.009521894,-0.21451259,0.42944154,0
11976000,11976000,197388,0.007698201,-0.21115062,0.42961368,0
12104000,12046545,197388,0.009994189,-0.2152944,0.4272869,0
12120000,12120000,197388,0.0047616363,-0.20755473,0.4311612,0
12252000,12190545,197388,0.008402842,-0.2155394,0.4285234,0
12264000,12264000,197388,0.009083634,-0.21734974,0.42223367,0
12396000,12335272,197388,0.010474645,-0.21794608,0.42930883,0
12408000,12408000,197388,0.0037972124,-0.22030762,0.42872402,0
12540000,12479272,197388,0.009739732,-0.21834199,0.42894208,0
12552000,12552000,197388,0.012176097,-0.21413982,0.42755336,0
12684000,12622909,197388,0.010735055,-0.21555851,0.42782515,0
12696000,12696000,197388,0.013932921,-0.21851276,0.4245472,0
12828000,12766545,197388,0.0096336,-0.21626306,0.4287498,0
12840000,12840000,197388,0.012623851,-0.21337263,0.4262542,0
12972000,12912000,197388,0.008602196,-0.216248,0.42769876,0
12984000,12984000,197388,0.005921521,-0.21340752,0.42840385,0
13112000,13054545,197388,0.008033385,-0.21460673,0.4305449,0
13128000,13128000,197388,0.012069772,-0.22282352,0.42681795,0
13260000,13200000,197388,0.010813228,-0.2156862,0.42698002,0
13272000,13272000,197388,0.011553577,-0.216384,0.4315438,0
13400000,13343636,197388,0.007920369,-0.21685681,0.4291888,0
13416000,13416000,197388,0.012132491,-0.21428783,0.43350455,0
13544000,13486545,197388,0.010340862,-0.21758828,0.4320044,0
13560000,13560000,197388,0.0035152219,-0.21214664,0.43179622,0
13688000,13629818,197388,0.009249259,-0.2172296,0.42972323,0
13704000,13704000,197388,0.0047227545,-0.21355297,0.43050018,0
13832000,13774545,197388,0.00884269,-0.21724175,0.4293694,0
13848000,13848000,197388,0.0131364465,-0.20814624,0.43353578,0
13980000,13918545,197388,0.009417385,-0.21607666,0.428676,0
13992000,13992000,197388,0.016069464,-0.21492943,0.43688127,0
14120000,14063272,197388,0.01077348,-0.21756408,0.4285203,0
14136000,14136000,197388,0.013306974,-0.21341766,0.435527,0
14264000,14206545,197388,0.010215085,-0.2156248,0.43008295,0
14280000,14280000,197388,0.01622869,-0.21813923,0.42561245,0
14408000,14350909,197388,0.009323441,-0.21472219,0.42703712,0
14424000,14424000,197388,0.0074708043,-0.21414997,0.42268112,0
14556000,14494909,197388,0.009851842,-0.21635494,0.43044513,0
14568000,14568000,197388,0.008326907,-0.20816068,0.4296465,0
14700000,14640000,197388,0.009562495,-0.21513495,0.42960307,0
14712000,14712000,197388,0.008210758,-0.21375525,0.42775387,0
14844000,14782545,197388,0.009370923,-0.21719684,0.42936987,0
14856000,14856000,197388,0.01724076,-0.2130648,0.42148829,0
14988000,14926909,197388,0.01118364,-0.21533817,0.43107182,0
15000000,15000000,197388,0.008351532,-0.2102829,0.43180272,0
15132000,15070909,197388,0.008004163,-0.21557043,0.43059587,0
15144000,15144000,197388,0.011924749,-0.21058154,0.4315926,0
15276000,15214909,197388,0.009907836,-0.21565774,0.43002757,0
15288000,15288000,197388,0.007165218,-0.2220081,0.4302525,0
15420000,15358181,197388,0.011062234,-0.21407568,0.43077362,0
15432000,15432000,197388,0.008473943,-0.21500169,0.42907095,0
15560000,15502545,197388,0.011883273,-0.2154528,0.43068436,0
15576000,15576000,197388,0.0063186823,-0.21506572,0.42955992,0
15708000,15647636,197388,0.011168278,-0.21537855,0.43002933,0
15720000,15720000,197388,0.012387605,-0.2169265,0.42989486,0
15852000,15792000,197388,0.010137038,-0.21613906,0.42963645,0
15864000,15864000,197388,0.0048073484,-0.22039737,0.43074957,0
15996000,15936000,197388,0.0097283395,-0.21634272,0.43030223,0
16008000,16008000,197388,0.015902769,-0.21358928,0.42471725,0
16140000,16078545,197388,0.010609917,-0.21632338,0.42943332,0
16152000,16152000,197388,0.01595335,-0.21846828,0.43566778,0
16280000,16222545,197388,0.010566476,-0.21536204,0.43036515,0
16296000,16296000,197388,0.015912356,-0.21495666,0.4368432,0
16424000,16366181,197388,0.010155196,-0.21508193,0.43034902,0
16440000,16440000,197388,0.011514748,-0.21261139,0.42988282,0
16572000,16510545,197388,0.009273777,-0.21887702,0.42839915,0
16584000,16584000,197388,0.008715953,-0.21539073,0.42819697,0
16712000,16654545,197388,0.008886693,-0.21769588,0.42773327,0
16728000,16728000,197388,0.006865666,-0.21382797,0.4290318,0
16860000,16799272,197388,0.010212311,-0.21661165,0.4300988,0
16872000,16872000,197388,0.0062095844,-0.21081755,0.4329054,0
17004000,16942545,197388,0.010786184,-0.21537517,0.429331,0
17016000,17016000,197388,0.0067601088,-0.21407932,0.431636,0
17148000,17087636,197388,0.008984863,-0.21391696,0.4284722,0
17160000,17160000,197388,0.012721292,-0.21950664,0.42850047,0
17292000,17230545,197388,0.009722852,-0.21486628,0.43069553,0
17304000,17304000,197388,0.013424727,-0.20936404,0.42677927,0
17432000,17373818,197388,0.008357178,-0.21699427,0.43043804,0
17448000,17448000,197388,0.010939984,-0.21192135,0.43147054,0
17576000,17518545,197388,0.009603648,-0.21599987,0.42941844,0
17592000,17592000,197388,0.011166386,-0.21511488,0.43126017,0
17724000,17662545,197388,0.009389922,-0.21658185,0.43026492,0
17736000,17736000,197388,0.009874553,-0.2212902,0.43400818,0
17864000,17806909,197388,0.008882669,-0.21560867,0.42849606,0
17880000,17880000,197388,0.014838815,-0.21733287,0.42967752,0
18012000,17950545,197388,0.00844074,-0.21550918,0.4303944,0
18024000,18024000,197388,0.010894665,-0.20264538,0.43452486,0
18156000,18094545,197388,0.0018656334,-0.20317025,0.43705362,0
18168000,18168000,197388,-0.0037048417,-0.19645737,0.44091263,0
18300000,18238545,197388,-0.013167582,-0.19092329,0.44067234,0
18312000,18312000,197388,-0.015549763,-0.18608698,0.43873838,0
18444000,18382909,197388,-0.014432567,-0.19455194,0.44184434,0
18456000,18456000,197388,-0.00564589,-0.20166592,0.43172592,0
18584000,18526909,197388,-0.0033383598,-0.20681827,0.43407416,0
18600000,18600000,197388,0.010924065,-0.21098624,0.42809373,0
18732000,18670909,197388,0.0068028667,-0.21413895,0.43023008,0
18744000,18744000,197388,0.011313634,-0.21135496,0.43138784,0
18876000,18814909,197388,0.009597341,-0.21623166,0.42780995,0
18888000,18888000,197388,0.008132408,-0.2231576,0.43043888,0
19020000,18959272,197388,0.0116157755,-0.21949323,0.4266006,0
19032000,19032000,197388,0.01448761,-0.22060592,0.42992318,0
19160000,19102545,197388,0.014264445,-0.22301057,0.4263667,0
19176000,19176000,197388,0.016251605,-0.22776191,0.42338857,0
19308000,19247636,197388,0.016301721,-0.22450265,0.42465925,0
19320000,19320000,197388,0.017949888,-0.22451109,0.4220784,0
19452000,19391636,197388,0.016270105,-0.22333887,0.4239193,0
19464000,19464000,197388,0.018151151,-0.2227212,0.42212808,0
19596000,19535272,197388,0.014784979,-0.22347978,0.42478064,0
19608000,19608000,197388,0.015024314,-0.21772806,0.42963976,0
19736000,19678545,197388,0.01632464,-0.22489598,0.42435262,0
19752000,19752000,197388,0.018568195,-0.22149959,0.4316948,0
19884000,19822909,197388,0.014759558,-0.22386268,0.4252954,0
19896000,19896000,197388,0.018571457,-0.22288758,0.4180033,0
20028000,19966909,197388,0.013301464,-0.2230659,0.4251351,0
20040000,20040000,197388,0.0132960165,-0.22021632,0.43056569,0
20168000,20111636,197388,0.012737815,-0.22265314,0.42589235,0
20184000,20184000,197388,0.01783144,-0.22367771,0.42636773,0
20316000,20254181,197388,0.013955569,-0.22183478,0.42766693,0
20328000,20328000,197388,0.01335404,-0.22095245,0.43311664,0
20460000,20398909,197388,0.013621631,-0.22031993,0.42559808,0
20468000,20468000,197388,0.011157357,-0.21987082,0.4253417,0
20592000,20537600,197388,0.010110515,-0.21776004,0.42759416,0
20616000,20608000,197388,0.012251391,-0.22109422,0.42901003,0
20736000,20680400,197388,0.010173089,-0.21999314,0.42703992,0
20748000,20748000,197388,0.011760774,-0.21606027,0.43321696,0
20880000,20818909,197388,0.012250637,-0.21789669,0.42726362,0
20892000,20892000,197388,0.003111315,-0.21453683,0.42806226,0
21024000,20963272,197388,0.011917186,-0.2162966,0.42786956,0
21032000,21032000,197388,0.011674088,-0.21107842,0.42799407,0
21156000,21100800,197388,0.010839505,-0.2147541,0.42970285,0
21168000,21168000,197388,0.006609704,-0.21653728,0.42744863,0
21300000,21238545,197388,0.009115951,-0.2153059,0.42874935,0
21312000,21312000,197388,0.009701812,-0.22066924,0.43267858,0
21444000,21382909,197388,0.009191567,-0.21764511,0.42708105,0
21456000,21456000,197388,0.016037494,-0.21136367,0.4236158,0
21588000,21527272,197388,0.008538833,-0.21709704,0.4287587,0
21600000,21600000,197388,0.01022,-0.21836658,0.4279503,0
21728000,21671272,197388,0.007917991,-0.21688037,0.42979583,0
21744000,21744000,197388,0.007827781,-0.22034669,0.4255837,0
21872000,21814545,197388,0.008026358,-0.21535482,0.4281354,0
21888000,21888000,197388,0.0012981711,-0.21429992,0.4279909,0
22016000,21959636,197388,0.007923119,-0.21595013,0.42984185,0
22032000,22032000,197388,0.006537952,-0.21335226,0.42906272,0
22164000,22103636,197388,0.009771346,-0.21523127,0.42817944,0
22176000,22176000,197388,0.011938344,-0.21823496,0.42707002,0
22304000,22246181,197388,0.00752667,-0.21400034,0.43046135,0
22320000,22320000,197388,0.011068043,-0.2124889,0.4342343,0
22448000,22390181,197388,0.010234381,-0.21479778,0.42963225,0
22464000,22464000,197388,0.0117485225,-0.21264558,0.42922533,0
22592000,22534909,197388,0.00858532,-0.2150493,0.4288087,0
22608000,22608000,197388,0.009675094,-0.22011393,0.4323702,0
22736000,22678545,197388,0.008737996,-0.21349972,0.42952108,0
22752000,22752000,197388,0.0023137524,-0.22005525,0.4267263,0
22880000,22822545,197388,0.0062828846,-0.21366309,0.42963123,0
22896000,22896000,197388,0.0093535045,-0.21185853,0.43324485,0
23028000,22968000,197388,0.0049140416,-0.21519586,0.43086153,0
23040000,23040000,197388,0.0082458425,-0.21457806,0.4282529,0
23172000,23111272,197388,0.0039520753,-0.21474211,0.42883107,0
23184000,23184000,197388,0.0007011587,-0.21691261,0.4301925,0
23312000,23254545,197388,0.005903007,-0.21553887,0.42827594,0
23328000,23328000,197388,0.0019769873,-0.21440361,0.4327572,0
23460000,23399636,197388,0.005573011,-0.2140648,0.43067312,0
23472000,23472000,197388,0.0044534965,-0.21386385,0.42766842,0
23604000,23543272,197388,0.0050904457,-0.21609052,0.43124223,0
23616000,23616000,197388,0.0014128003,-0.21288869,0.4219318,0
23748000,23686545,197388,0.0067693978,-0.21615021,0.43012962,0
23760000,23760000,197388,0.01020151,-0.22316672,0.43735403,0
23888000,23829818,197388,0.008600065,-0.21838734,0.4280619,0
23904000,23904000,197388,0.005953728,-0.21752377,0.4276017,0
24032000,23974181,197388,0.008851433,-0.21580094,0.42800272,0
24048000,24048000,197388,0.0023325135,-0.21809496,0.43605992,0
24176000,24118181,197388,0.008450332,-0.21734528,0.42644113,0
24192000,24192000,197388,0.016713612,-0.22095662,0.4322658,0
24320000,24262181,197388,0.009219775,-0.21595205,0.42698687,0
24336000,24336000,197388,0.012362421,-0.21684094,0.4340973,0
24468000,24408000,197388,0.01090821,-0.21659486,0.42800337,0
24480000,24480000,197388,0.012727609,-0.2106091,0.43031695,0
24612000,24552000,197388,0.011045639,-0.21607096,0.42988786,0
24624000,24624000,197388,0.015714705,-0.221969,0.4326378,0
24752000,24694909,197388,0.011407586,-0.21603158,0.42817587,0
24768000,24768000,197388,0.012218434,-0.21554299,0.43411845,0
24900000,24838909,197388,0.012313281,-0.21533297,0.42925355,0
24912000,24912000,197388,0.008806487,-0.21500126,0.43157852,0
25044000,24983272,197388,0.010726716,-0.21553577,0.42969167,0
25056000,25056000,197388,0.014243179,-0.21645114,0.42439523,0
25184000,25126545,197388,0.010828868,-0.21388659,0.4296704,0
25200000,25200000,197388,0.0071843164,-0.21606855,0.4248273,0
25328000,25270909,197388,0.011692279,-0.2157245,0.43048948,0
25344000,25344000,197388,0.008343838,-0.2116911,0.42651576,0
25476000,25415272,197388,0.008940076,-0.21572192,0.43090385,0
25488000,25488000,197388,0.008975501,-0.21541297,0.4252584,0
25620000,25558909,197388,0.008966075,-0.21483238,0.42726898,0
25632000,25632000,197388,0.010876859,-0.21355231,0.42959866,0
25760000,25702545,197388,0.00980631,-0.21493591,0.43019852,0
25776000,25776000,197388,0.0052092834,-0.21729828,0.4244681,0
25908000,25846909,197388,0.007898827,-0.21634963,0.43046236,0
25920000,25920000,197388,0.006862263,-0.21479258,0.42484155,0
26052000,25991272,197388,0.0075667016,-0.2172736,0.42947128,0
26064000,26064000,197388,0.010405566,-0.21261586,0.42308545,0
26192000,26134909,197388,0.009273432,-0.21481755,0.42870596,0
26208000,26208000,197388,0.003376487,-0.2185273,0.43212622,0
26340000,26278909,197388,0.00808628,-0.21520084,0.42732725,0
26352000,26352000,197388,0.010027496,-0.20711155,0.42729077,0
26480000,26422181,197388,0.008644854,-0.21472394,0.42660025,0
26496000,26496000,197388,0.014593273,-0.22174847,0.42681974,0
26628000,26567272,197388,0.0091232,-0.21590775,0.42900378,0
26640000,26640000,197388,0.013328041,-0.21274708,0.42864046,0
26768000,26710181,197388,0.009213291,-0.21434984,0.42885938,0
26784000,26784000,197388,0.010989457,-0.21489696,0.42317995,0
26916000,26855272,197388,0.008114849,-0.21457495,0.42865357,0
26928000,26928000,197388,0.009308408,-0.21701209,0.43206576,0
27060000,26999636,197388,0.008182347,-0.21579592,0.4269038,0
27072000,27072000,197388,0.009660407,-0.21879472,0.4239451,0
27200000,27142909,197388,0.009400675,-0.21590488,0.43136868,0
27216000,27216000,197388,0.009841482,-0.213883,0.42207086,0
27344000,27286909,197388,0.008872554,-0.21621148,0.42744806,0
27360000,27360000,197388,0.008408599,-0.21259399,0.4289588,0
27492000,27430909,197388,0.008947507,-0.21571821,0.42612827,0
27504000,27504000,197388,0.0042974534,-0.21593277,0.42784464,0
27636000,27576000,197388,0.009085864,-0.2199183,0.42801443,0
27644000,27644000,197388,0.011154348,-0.21799791,0.4283104,0
27768000,27713600,197388,0.010250553,-0.21682365,0.42969304,0
27792000,27786000,197388,0.006365991,-0.2182,0.42883393,0
27912000,27856800,197388,0.011737337,-0.21593432,0.42904097,0
27936000,27928000,197388,0.009229993,-0.21327113,0.43065524,0
28040000,27995555,197388,0.010060492,-0.21824585,0.43197748,0
28080000,28068000,197388,0.008953563,-0.21268056,0.4302237,0
28188000,28138666,197388,0.012890157,-0.21815297,0.42837498,0
28212000,28206000,197388,0.014177181,-0.21573633,0.42727995,0
28332000,28278000,197388,0.010620758,-0.21517618,0.43025,0
28352000,28348000,197388,0.01125727,-0.21713349,0.4270267,0
28464000,28415111,197388,0.008555003,-0.21619233,0.4292069,0
28488000,28482000,197388,0.010598739,-0.21605578,0.42866033,0
28608000,28552000,197388,0.011980349,-0.21595614,0.42975733,0
28620000,28620000,197388,0.012979568,-0.21817662,0.42901826,0
28752000,28690181,197388,0.009727261,-0.2181504,0.42859104,0
28764000,28764000,197388,0.0077404943,-0.21697822,0.43162495,0
28896000,28835272,197388,0.011083173,-0.21589085,0.42834553,0
28908000,28908000,197388,0.009827542,-0.22598267,0.42881402,0
29040000,28978909,197388,0.00975702,-0.21558812,0.42893752,0
29048000,29048000,197388,0.014018811,-0.21935126,0.4296913,0
29172000,29118000,197388,0.008933383,-0.21630836,0.429938,0
29196000,29190000,197388,0.012472561,-0.21744177,0.42637336,0
29312000,29261600,197388,0.010735277,-0.21706283,0.43067977,0
29336000,29332000,197388,0.011085025,-0.21517694,0.43089372,0
29448000,29398666,197388,0.010612641,-0.21614328,0.43057692,0
29480000,29469333,197388,0.0062588006,-0.21459708,0.4349602,0
29576000,29536500,197388,0.01086006,-0.21471167,0.4311187,0
29628000,29609000,197388,0.010259251,-0.215911,0.42742744,0
29712000,29676000,197388,0.00740225,-0.21462372,0.4289028,0
29772000,29746400,197388,0.011473504,-0.21657787,0.42914835,0
29840000,29813333,197388,0.00918632,-0.21609168,0.43086356,0
29916000,29885333,197388,0.008306804,-0.21439432,0.43012223,0
29988000,29956666,197388,0.009763135,-0.21611053,0.4316978,0
30060000,30029333,197388,0.008329567,-0.21574971,0.43038017,0
30120000,30096000,197388,0.007606599,-0.21638334,0.42964873,0
30204000,30168000,197388,0.012608107,-0.21423143,0.4273173,0
30264000,30239200,197388,0.0068261637,-0.21571139,0.42799088,0
30336000,30306000,197388,0.009429331,-0.21611035,0.43017775,0
30408000,30378000,197388,0.011989795,-0.21827671,0.42836937,0
30480000,30450000,197388,0.009606361,-0.21508132,0.43051335,0
30552000,30522000,197388,0.008470877,-0.21366392,0.42656255,0
30624000,30594000,197388,0.007466509,-0.21528387,0.43003806,0
30696000,30666000,197388,0.010368,-0.21531579,0.43028456,0
30768000,30738000,197388,0.010236761,-0.21369426,0.4314828,0
30840000,30810000,197388,0.00865384,-0.21420455,0.43232593,0
30912000,30880000,197388,0.010254982,-0.2162885,0.42964742,0
30972000,30948000,197388,0.012200396,-0.21627246,0.4332504,0
31056000,31018857,197388,0.008733752,-0.21349774,0.4277551,0
31116000,31090400,197388,0.008583664,-0.2178415,0.4273757,0
31188000,31158000,197388,0.008737309,-0.21276632,0.4277826,0
31260000,31230000,197388,0.008921705,-0.21544307,0.42685837,0
31332000,31302000,197388,0.010673612,-0.21492317,0.4294474,0
31404000,31374000,197388,0.0064723245,-0.21455209,0.43118805,0
31476000,31446000,197388,0.00961437,-0.21607552,0.42908567,0
31548000,31518000,197388,0.011148377,-0.21439895,0.42864907,0
31620000,31590000,197388,0.009226478,-0.2146425,0.43225512,0
31692000,31662000,197388,0.010464385,-0.21475434,0.42934453,0
31760000,31732000,197388,0.010381815,-0.21358013,0.4289056,0
31824000,31799200,197388,0.00879991,-0.21767472,0.42692646,0
31908000,31870857,197388,0.008315859,-0.2155612,0.42918628,0
31968000,31943200,197388,0.009172532,-0.21616338,0.43215987,0
32048000,32014857,197388,0.009297889,-0.21640654,0.42950803,0
32112000,32086400,197388,0.008048467,-0.2179013,0.4294519,0
32192000,32157714,197388,0.009567968,-0.21636465,0.42799848,0
32240000,32225000,197388,0.008529049,-0.2167952,0.4281411,0
32336000,32296500,197388,0.009349176,-0.21621254,0.42722407,0
32376000,32364000,197388,0.010415203,-0.21684363,0.4275844,0
32484000,32436000,197388,0.009427666,-0.2166765,0.42928877,0
32520000,32508000,197388,0.006532382,-0.22018832,0.42908132,0
32624000,32579555,197388,0.0060792672,-0.21492578,0.42836607,0
32664000,32650666,197388,0.009994477,-0.21685487,0.43051314,0
32768000,32721777,197388,0.0088026365,-0.21438219,0.42919773,0
32808000,32794666,197388,0.004910478,-0.2173833,0.4277422,0
32912000,32866666,197388,0.006348776,-0.21630792,0.43051997,0
32952000,32938666,197388,0.0067936135,-0.21893369,0.43089384,0
33060000,33010666,197388,0.006866022,-0.21525772,0.43062612,0
33096000,33082666,197388,0.0057462244,-0.2175412,0.4276244,0
33204000,33155111,197388,0.008814091,-0.21697803,0.42819977,0
33240000,33226666,197388,0.005513803,-0.2178007,0.43084872,0
33344000,33298222,197388,0.00811978,-0.21512982,0.43189684,0
33372000,33366000,197388,0.004815018,-0.21159546,0.43034875,0
33492000,33437200,197388,0.008924677,-0.21530436,0.42906576,0
33504000,33504000,197388,0.0069679343,-0.21764787,0.42957613,0
33636000,33575636,197388,0.009745737,-0.21550892,0.42877436,0
33648000,33648000,197388,0.009970153,-0.21538325,0.43424544,0
33776000,33718909,197388,0.0075504105,-0.21523595,0.42964673,0
33792000,33792000,197388,0.007726881,-0.21951795,0.4258751,0
33924000,33864000,197388,0.0077707246,-0.21705632,0.42999858,0
33936000,33936000,197388,0.015359093,-0.21123956,0.42848882,0
34064000,34007636,197388,0.008378917,-0.21264653,0.4307832,0
34080000,34080000,197388,0.010230635,-0.22181103,0.4284084,0
34208000,34149818,197388,0.010321864,-0.21421698,0.4294868,0
34224000,34224000,197388,0.021394448,-0.22102287,0.43003944,0
34356000,34294909,197388,0.010838721,-0.21498422,0.4287634,0
34368000,34368000,197388,0.008181516,-0.22220963,0.43121198,0
34500000,34438909,197388,0.010599707,-0.21701892,0.43045634,0
34512000,34512000,197388,0.009637926,-0.22021607,0.42908967,0
34640000,34582181,197388,0.0090181045,-0.21704647,0.42871183,0
34656000,34656000,197388,0.01393339,-0.21922061,0.4353535,0
34788000,34728000,197388,0.009793183,-0.21590953,0.42814478,0
34800000,34800000,197388,0.0039744973,-0.2128198,0.42546874,0
34932000,34872000,197388,0.009246092,-0.21548785,0.4291638,0
34944000,34944000,197388,0.01664196,-0.21088508,0.42841786,0
35072000,35014545,197388,0.011792722,-0.21638314,0.42903897,0
35088000,35088000,197388,0.008020729,-0.21481484,0.43418294,0
35220000,35160000,197388,0.012729414,-0.21516144,0.42890498,0
35232000,35232000,197388,0.013209888,-0.21850099,0.4304653,0
35360000,35303272,197388,0.013667413,-0.2155972,0.42751026,0
35376000,35376000,197388,0.010635166,-0.2132861,0.43496916,0
35504000,35446181,197388,0.010734509,-0.21586397,0.42742983,0
35520000,35520000,197388,0.0075056986,-0.2161549,0.42780375,0
35652000,35591272,197388,0.010032569,-0.21423587,0.42992395,0
35664000,35664000,197388,0.012805408,-0.21920383,0.4322661,0
35792000,35733818,197388,0.0105508845,-0.21729931,0.42734322,0
35808000,35808000,197388,0.013087866,-0.22113796,0.42802197,0
35936000,35878545,197388,0.008805124,-0.21574402,0.4290326,0
35952000,35952000,197388,0.012332088,-0.21747658,0.42997468,0
36080000,36022181,197388,0.008761745,-0.21578631,0.4286366,0
36096000,36096000,197388,0.00781708,-0.21177284,0.42982873,0
36228000,36166545,197388,0.010220578,-0.2154331,0.43120077,0
36240000,36240000,197388,0.0032887352,-0.22081785,0.42699772,0
36368000,36310909,197388,0.00885277,-0.21533446,0.4289398,0
36384000,36384000,197388,0.009897156,-0.21753697,0.43477193,0
36516000,36454909,197388,0.008065307,-0.21725754,0.430018,0
36528000,36528000,197388,-0.0036888376,-0.21643253,0.42488268,0
36656000,36598909,197388,0.007872775,-0.21500523,0.4294583,0
36672000,36672000,197388,0.0044894814,-0.2182452,0.42592198,0
36800000,36741818,197388,0.009169947,-0.21637301,0.42700556,0
36816000,36816000,197388,0.00810097,-0.21519175,0.4292062,0
36948000,36887272,197388,0.008439986,-0.21444106,0.4280631,0
36960000,36960000,197388,0.009689891,-0.21287523,0.43006065,0
37092000,37032000,197388,0.007033018,-0.21613859,0.42866266,0
37104000,37104000,197388,0.0076998067,-0.21350396,0.4250229,0
37236000,37176000,197388,0.008194404,-0.21684335,0.42864072,0
37248000,37248000,197388,0.008373531,-0.21593243,0.43453625,0
37380000,37319272,197388,0.0097408695,-0.21626708,0.4265637,0
37392000,37392000,197388,0.009304568,-0.21281505,0.429573,0
37520000,37463272,197388,0.008860995,-0.21367468,0.4295795,0
37536000,37536000,197388,0.011476919,-0.22330602,0.42666993,0
37664000,37606545,197388,0.0109102875,-0.21835625,0.42839774,0
37680000,37680000,197388,0.0017141164,-0.21894652,0.4266609,0
37808000,37751272,197388,0.007838541,-0.2180042,0.4284576,0
37824000,37824000,197388,0.014362818,-0.21370825,0.43249416,0
37956000,37895272,197388,0.0099514695,-0.2182589,0.42956722,0
37968000,37968000,197388,0.008994724,-0.21454918,0.4291998,0
38100000,38040000,197388,0.009415872,-0.21491253,0.4295054,0
38112000,38112000,197388,0.008658775,-0.21719676,0.42843625,0
38240000,38183636,197388,0.009971412,-0.21540387,0.4297446,0
38256000,38256000,197388,0.009605277,-0.21657541,0.42892975,0
38384000,38325818,197388,0.009412488,-0.21667628,0.42781407,0
38400000,38400000,197388,0.006864258,-0.21609238,0.4338201,0
38528000,38470909,197388,0.01093473,-0.21791957,0.4283856,0
38544000,38544000,197388,0.0118349595,-0.21255708,0.42734128,0
38672000,38614909,197388,0.008829381,-0.21725582,0.42973146,0
38688000,38688000,197388,0.004899304,-0.21869779,0.42853582,0
38816000,38758545,197388,0.009780589,-0.21735403,0.42792973,0
38832000,38832000,197388,0.013038629,-0.22426142,0.4296232,0
38960000,38901818,197388,0.007889711,-0.21716511,0.4287569,0
38976000,38976000,197388,0.0069866604,-0.21504919,0.42868012,0
39104000,39046545,197388,0.008869139,-0.21676728,0.42824858,0
39120000,39120000,197388,0.010002693,-0.21908765,0.426937,0
39252000,39191272,197388,0.009014232,-0.21567123,0.42827776,0
39264000,39264000,197388,0.008175572,-0.21647772,0.4335882,0
39396000,39334545,197388,0.010045118,-0.21544069,0.42722756,0
39408000,39408000,197388,0.01597651,-0.22004454,0.4242902,0
39540000,39479272,197388,0.011651375,-0.21640743,0.42930478,0
39552000,39552000,197388,0.0060830517,-0.20737241,0.4303997,0
39684000,39623272,197388,0.0111570405,-0.2160404,0.42834976,0
39696000,39696000,197388,0.013071726,-0.21836838,0.4324098,0
39824000,39766909,197388,0.010061013,-0.21763472,0.42648143,0
39840000,39840000,197388,0.0063052936,-0.22089265,0.42878044,0
39968000,39910909,197388,0.008623856,-0.2165939,0.42976546,0
39984000,39984000,197388,0.0073682545,-0.21829918,0.43091762,0
40112000,40054181,197388,0.010376686,-0.21781886,0.42922062,0
40128000,40128000,197388,0.003491156,-0.22165036,0.42549247,0
40256000,40198181,197388,0.009660844,-0.21946996,0.427521,0
40272000,40272000,197388,0.009326888,-0.21632329,0.43065155,0
40400000,40343272,197388,0.009805807,-0.21670529,0.42994532,0
40416000,40416000,197388,0.009812982,-0.21747114,0.43045065,0
40544000,40486545,197388,0.007196691,-0.216766,0.4287777,0
40560000,40560000,197388,0.01425553,-0.21395406,0.4298333,0
40692000,40630545,197388,0.010169986,-0.21616215,0.42832083,0
40704000,40704000,197388,0.0121284835,-0.20860884,0.42889446,0
40832000,40773818,197388,0.008460479,-0.22003019,0.4278756,0
40848000,40848000,197388,0.0151323695,-0.21561599,0.4289445,0
40976000,40919636,197388,0.008678389,-0.21809809,0.42814398,0
40992000,40992000,197388,0.013752225,-0.21758921,0.4251907,0
41124000,41062909,197388,0.009880793,-0.21724041,0.42927006,0
41136000,41136000,197388,0.015672883,-0.21831843,0.42750248,0
41264000,41206545,197388,0.010393932,-0.21691875,0.42886654,0
41280000,41280000,197388,0.00983463,-0.21424164,0.42816693,0
41408000,41350545,197388,0.006752857,-0.21750797,0.4297276,0
41420000,41420000,197388,0.0070401644,-0.22379234,0.4281724,0
41544000,41488000,197388,0.008189051,-0.21643257,0.429641,0
41568000,41560000,197388,0.006539194,-0.21699873,0.42838264,0
41676000,41627111,197388,0.009174409,-0.2164906,0.43095085,0
41700000,41694000,197388,0.0057628313,-0.21463841,0.4320004,0
41816000,41764800,197388,0.008588181,-0.21883622,0.4309391,0
41832000,41832000,197388,0.008498979,-0.21758029,0.43143222,0
41960000,41901818,197388,0.010273124,-0.21411507,0.43087476,0
41976000,41976000,197388,0.014395525,-0.21809754,0.42824194,0
42104000,42046909,197388,0.009061005,-0.216259,0.42808533,0
42120000,42120000,197388,0.0074043595,-0.2229649,0.44016883,0
42248000,42190181,197388,0.010573598,-0.2181503,0.43070057,0
42264000,42264000,197388,0.013197155,-0.21425408,0.42243662,0
42392000,42334545,197388,0.008082201,-0.21552925,0.4289085,0
42408000,42408000,197388,0.008619273,-0.21592224,0.43197012,0
42540000,42478545,197388,0.01074063,-0.21655934,0.4301646,0
42552000,42552000,197388,0.006890631,-0.21827038,0.42614758,0
42680000,42622909,197388,0.011064011,-0.21561283,0.43075264,0
42696000,42696000,197388,0.012618924,-0.21337742,0.43391526,0
42824000,42766181,197388,0.010101091,-0.21788907,0.42935738,0
42840000,42840000,197388,0.008912975,-0.21321633,0.42779443,0
42972000,42911272,197388,0.01126284,-0.21707802,0.42836273,0
42984000,42984000,197388,0.010928987,-0.21437874,0.42701027,0
43112000,43055272,197388,0.009075948,-0.2151573,0.42677188,0
43128000,43128000,197388,0.01498277,-0.21541113,0.42440808,0
43256000,43198545,197388,0.008530218,-0.21556124,0.4288118,0
43272000,43272000,197388,0.014107537,-0.21132421,0.4256004,0
43400000,43342181,197388,0.007830729,-0.21348667,0.4307509,0
43416000,43416000,197388,0.013634721,-0.2126135,0.42640057,0
43548000,43487272,197388,0.008842686,-0.21645133,0.4283554,0
43560000,43560000,197388,0.0044401856,-0.21969986,0.4300412,0
43692000,43630909,197388,0.00957565,-0.21421717,0.42900693,0
43704000,43704000,197388,0.012943888,-0.2164345,0.42589653,0
43836000,43775272,197388,0.009360337,-0.21232957,0.43018347,0
43848000,43848000,197388,0.007683762,-0.22012226,0.43203583,0
43976000,43918909,197388,0.008885325,-0.21511501,0.42999014,0
43992000,43992000,197388,0.015486436,-0.22273415,0.4232753,0
44124000,44062545,197388,0.0065448917,-0.2151566,0.42800817,0
44136000,44136000,197388,0.010560378,-0.21815942,0.4195473,0
44264000,44205818,197388,0.008924337,-0.21798778,0.43073404,0
44280000,44280000,197388,0.007495062,-0.21845576,0.43374988,0
44408000,44350545,197388,0.010280035,-0.21525182,0.43062454,0
44424000,44424000,197388,0.007783809,-0.21066622,0.42766488,0
44552000,44494545,197388,0.010019086,-0.21593456,0.43021092,0
44568000,44568000,197388,0.010188024,-0.21710035,0.42681757,0
44700000,44640000,197388,0.008414151,-0.21614866,0.43204382,0
44712000,44712000,197388,0.014958171,-0.21995676,0.42352173,0
44844000,44782545,197388,0.007865322,-0.21406841,0.43083677,0
44856000,44856000,197388,0.01001441,-0.21295747,0.42806414,0
44988000,44927636,197388,0.010132645,-0.21739133,0.42969498,0
45000000,45000000,197388,0.019227372,-0.21456045,0.42331082,0
45132000,45070181,197388,0.0087797465,-0.21663833,0.4291332,0
45144000,45144000,197388,0.0066811955,-0.21444052,0.42658442,0
45272000,45214545,197388,0.0073217745,-0.21573542,0.42719924,0
45288000,45288000,197388,0.00972286,-0.21820249,0.4310372,0
45416000,45358181,197388,0.008216706,-0.21463478,0.42829657,0
45432000,45432000,197388,0.009729879,-0.21346094,0.42714635,0
45564000,45504000,197388,0.009155964,-0.21728785,0.4293282,0
45576000,45576000,197388,0.012572071,-0.210952,0.43133512,0
45708000,45647636,197388,0.0085343495,-0.2163909,0.4296148,0
45720000,45720000,197388,0.009937718,-0.22221698,0.4330198,0
45848000,45790545,197388,0.0107073365,-0.21674153,0.43042687,0
45864000,45864000,197388,0.0015077958,-0.21606934,0.42377087,0
45996000,45934545,197388,0.0101513965,-0.21679772,0.42959818,0
46008000,46008000,197388,0.008911769,-0.21724401,0.43435895,0
46140000,46078909,197388,0.010289374,-0.21516387,0.4290565,0
46152000,46152000,197388,0.010148924,-0.21284002,0.4305088,0
46280000,46222181,197388,0.010499759,-0.21607345,0.4302876,0
46296000,46296000,197388,0.007982976,-0.2140677,0.42360696,0
46428000,46366909,197388,0.00906976,-0.21577281,0.4303328,0
46440000,46440000,197388,0.010226139,-0.21750428,0.42740974,0
46568000,46510909,197388,0.010072668,-0.21481065,0.43024164,0
46584000,46584000,197388,0.0022293336,-0.21283475,0.42765513,0
46712000,46654181,197388,0.010151061,-0.21477726,0.43108815,0
46728000,46728000,197388,0.008299343,-0.21681622,0.4207659,0
46860000,46798545,197388,0.0067942156,-0.21554206,0.42863262,0
46872000,46872000,197388,0.010731495,-0.20994678,0.42719412,0
47004000,46942545,197388,0.008516416,-0.21526015,0.42931947,0
47016000,47016000,197388,0.010406682,-0.21924172,0.4327815,0
47144000,47086545,197388,0.008140517,-0.21503957,0.4290665,0
47160000,47160000,197388,0.009844616,-0.21508649,0.4312739,0
47292000,47230545,197388,0.009084835,-0.21692495,0.4316072,0
47304000,47304000,197388,0.008252177,-0.21907285,0.42683363,0
47432000,47374545,197388,0.009525681,-0.215609,0.42984405,0
47444000,47444000,197388,0.010892778,-0.21245621,0.42946947,0
47568000,47512800,197388,0.008995149,-0.21599758,0.4305504,0
47580000,47580000,197388,0.007759727,-0.21675573,0.43103677,0
47712000,47651636,197388,0.009247616,-0.21743597,0.43089244,0
47724000,47724000,197388,0.011088961,-0.2171532,0.42664284,0
47856000,47795272,197388,0.007666683,-0.21718915,0.43029642,0
47864000,47864000,197388,0.0065059946,-0.21904144,0.42746904,0
47984000,47932400,197388,0.008492081,-0.21506786,0.43178877,0
48000000,48000000,197388,0.005477494,-0.2124318,0.42774314,0
48128000,48071272,197388,0.009948555,-0.21550798,0.4304984,0
48144000,48144000,197388,0.018228209,-0.21584095,0.4400085,0
48276000,48216000,197388,0.008472495,-0.21820001,0.42808864,0
48288000,48288000,197388,0.0044468082,-0.21314302,0.42809284,0
48416000,48358909,197388,0.009267514,-0.21583228,0.4277888,0
48432000,48432000,197388,0.013715678,-0.21310627,0.43064788,0
48560000,48502181,197388,0.008044139,-0.2162959,0.4302753,0
48576000,48576000,197388,0.01275875,-0.21101826,0.42073938,0
48708000,48647636,197388,0.011185445,-0.21579997,0.43051356,0
48720000,48720000,197388,0.01256753,-0.21570948,0.43048987,0
48848000,48790909,197388,0.008424297,-0.2154392,0.42954767,0
48864000,48864000,197388,0.014412669,-0.21315427,0.42536485,0
48996000,48935272,197388,0.009624754,-0.21609834,0.42701167,0
49008000,49008000,197388,0.010223801,-0.20467342,0.43481418,0
49140000,49078909,197388,0.010575113,-0.2163998,0.43095446,0
49152000,49152000,197388,0.006296147,-0.2181121,0.42829078,0
49280000,49222545,197388,0.009896835,-0.2158286,0.43060216,0
49296000,49296000,197388,0.009892365,-0.22109635,0.42820528,0
