timestamp,timestamp_sample,ref_timestamp,ref_lat,ref_lon,x,y,z,delta_xy[0],delta_xy[1],delta_z,vx,vy,vz,z_deriv,delta_vxy[0],delta_vxy[1],delta_vz,ax,ay,az,heading,delta_heading,ref_alt,dist_bottom,eph,epv,evh,evv,vxy_max,vz_max,hagl_min,hagl_max,xy_valid,z_valid,v_xy_valid,v_z_valid,xy_reset_counter,z_reset_counter,vxy_reset_counter,vz_reset_counter,heading_reset_counter,heading_good_for_control,xy_global,z_global,dist_bottom_valid,dist_bottom_sensor_bitfield,dead_reckoning
3780000,3780000,0,nan,nan,0.0011264299,0.00023643581,-0.0066595003,-4.5966356e-08,1.891097e-08,0.0,0.003931637,0.0025602633,-0.022376435,-0.01768028,-7.6610595e-06,3.1518284e-06,0.0017121732,-0.0011444207,0.013873547,-0.015177763,1.6254702,-0.0011434555,nan,0.106666915,0.012944687,5.7735023,0.10270958,0.025007926,inf,inf,inf,inf,0,0,0,0,1,1,1,1,1,0,0,0,0,0,1
4284000,4284000,0,nan,nan,0.00043029798,0.002330236,-0.039915625,-4.5966356e-08,1.891097e-08,0.0,-0.0002217899,0.008776102,-0.01711202,-0.03935787,-7.6610595e-06,3.1518284e-06,0.0017121732,-0.022753403,0.054007027,-0.032489184,1.62562,-0.0011434555,nan,0.1,0.027206734,1.6517828,0.1634337,0.062269665,inf,inf,inf,inf,0,1,0,1,1,1,1,1,1,0,0,0,0,0,1
4780000,4780000,4296000,47.3977508,8.5456073,0.00032340866,0.0021346074,-0.043606322,-4.5966356e-08,1.891097e-08,0.0,0.003586292,0.0037998217,-0.018674849,-0.028576516,-7.6610595e-06,3.1518284e-06,0.0017121732,0.03021532,0.017176686,-0.023101455,1.6230568,-0.0011434555,488.0535,0.11317253,0.01366399,0.9533709,0.0821907,0.08809884,inf,inf,inf,inf,0,1,0,1,1,1,1,1,1,0,1,1,0,0,1
5284000,5284000,4296000,47.3977508,8.5456073,0.0009166804,-0.00025791622,-0.039892484,-4.5966356e-08,1.891097e-08,0.0,0.0016155072,-0.0007069674,-0.016451795,-0.012708914,-7.6610595e-06,3.1518284e-06,0.0017121732,-0.027509622,0.014547927,0.014216638,1.6210729,-0.0011434555,488.0535,0.1091454,0.01777858,0.7564501,0.07543908,0.09151291,inf,inf,inf,inf,0,1,0,1,1,1,1,1,1,0,1,1,0,0,1
5780000,5780000,4296000,47.3977508,8.5456073,-0.0013677828,-0.0008931741,-0.03740186,-4.5966356e-08,1.891097e-08,0.0,-0.0042307046,-0.0013746358,-0.013525298,-0.0039008781,-7.6610595e-06,3.1518284e-06,0.0017121732,-0.0027180065,0.025993474,-0.00012665986,1.618897,-0.0011434555,488.0535,0.10739334,0.021099979,0.6369061,0.0721105,0.09530435,inf,inf,inf,inf,0,1,0,1,1,1,1,1,1,0,1,1,0,0,1
6284000,6284000,4296000,47.3977508,8.5456073,-0.0011265373,-0.0007608199,-0.03588513,-4.5966356e-08,1.891097e-08,0.0,-0.0009641186,-0.0016955929,-0.010817941,0.00043930675,-7.6610595e-06,3.1518284e-06,0.0017121732,0.017821541,-0.0103090275,-0.03048498,1.620276,-0.0011434555,488.0535,0.10332273,0.013673994,0.5686591,0.048967198,0.086741045,inf,inf,inf,inf,0,1,0,1,1,1,1,1,1,0,1,1,0,0,1
6780000,6780000,4296000,47.3977508,8.5456073,-0.0005895924,-0.002119898,-0.033462226,-4.5966356e-08,1.891097e-08,0.0,-0.0024936653,-0.005815655,-0.0072072363,0.0042528138,-7.6610595e-06,3.1518284e-06,0.0017121732,-0.0059218723,0.023399988,0.004984438,1.6181105,-0.0011434555,488.0535,0.10189064,0.016478252,0.5202253,0.052122444,0.08643112,inf,inf,inf,inf,0,1,0,1,1,1,1,1,1,0,1,1,0,0,1
7284000,7284000,4296000,47.3977508,8.5456073,-0.0023520682,-0.0017912479,-0.030267287,-4.5966356e-08,1.891097e-08,0.0,-0.008705492,-0.002322483,-0.002033308,0.008612079,-7.6610595e-06,3.1518284e-06,0.0017121732,-0.031641625,0.020227743,-0.00897888,1.6183501,-0.0011434555,488.0535,0.10146968,0.011839313,0.4793911,0.040656555,0.08580261,inf,inf,inf,inf,0,1,0,1,1,1,1,1,1,0,1,1,0,0,1
7780000,7780000,4296000,47.3977508,8.5456073,-0.0029877117,-0.00010511503,-0.026302684,-4.5966356e-08,1.891097e-08,0.0,-0.0055915643,0.00044245264,0.0010141375,0.010350067,-7.6610595e-06,3.1518284e-06,0.0017121732,0.010344811,-0.017907774,0.023575498,1.6208051,-0.0011434555,488.0535,0.1,0.014154378,0.45022783,0.04414335,0.078432925,inf,inf,inf,inf,0,1,0,1,1,1,1,1,1,0,1,1,0,0,1
8284000,8284000,4296000,47.3977508,8.5456073,-0.0010869444,-0.00013405508,-0.026730403,-4.5966356e-08,1.891097e-08,0.0,-0.0021761574,-0.0025724578,-0.0016681189,0.003530069,-7.6610595e-06,3.1518284e-06,0.0017121732,-0.0299355,-0.028405933,-0.022674909,1.6195914,-0.0011434555,488.0535,0.1,0.017224237,0.42496333,0.048367478,0.07848529,inf,inf,inf,inf,0,1,0,1,1,1,1,1,1,0,1,1,0,0,1
8780000,8780000,4296000,47.3977508,8.5456073,-0.0015800982,0.007490998,-0.041827235,0.00013347103,0.0078912,-0.01748497,-0.020396117,0.00034433533,0.051981684,0.053593703,-0.019126194,0.00087165437,0.05095613,0.015416138,-0.0037046701,0.029188579,1.6189309,-0.0011434555,488.0535,0.100813046,1.4146211,0.9621316,0.42447376,0.45008174,inf,inf,inf,inf,1,1,1,1,2,2,2,2,1,0,1,1,0,0,0
9284000,9284000,4296000,47.3977508,8.5456073,-0.0076563875,0.00849325,-0.028317947,0.00013347103,0.0078912,-0.01748497,-0.017811151,0.0033511077,0.034716837,0.022643093,-0.019126194,0.00087165437,0.05095613,0.0012660747,-0.025358588,-0.0349516,1.6195292,-0.0011434555,488.0535,0.1,1.008416,0.6153202,0.30135784,0.31717435,inf,inf,inf,inf,1,1,1,1,2,2,2,2,1,0,1,1,0,0,0
9780000,9780000,4296000,47.3977508,8.5456073,-0.0056403005,0.0048871376,-0.03363403,0.00013347103,0.0078912,-0.01748497,-0.012627451,0.00057258894,0.018292602,0.0006134902,-0.019126194,0.00087165437,0.05095613,-0.017580342,-0.001380642,0.026394611,1.6194304,-0.0011434555,488.0535,0.1,0.8349986,0.4994807,0.2501807,0.25725567,inf,inf,inf,inf,1,1,1,1,2,2,2,2,1,0,1,1,0,0,0
10284000,10284000,4296000,47.3977508,8.5456073,-0.010082407,0.0057663326,-0.037076693,0.00013347103,0.0078912,-0.01748497,-0.013389506,0.0011450183,0.009169222,-0.006686521,-0.019126194,0.00087165437,0.05095613,0.01311778,-0.00815594,-0.015234574,1.6194915,-0.0011434555,488.0535,0.1,0.73889554,0.45083892,0.22577696,0.22127467,inf,inf,inf,inf,1,1,1,1,2,2,2,2,1,0,1,1,0,0,0
10780000,10780000,4296000,47.3977508,8.5456073,-0.004370954,0.011020144,-0.037223622,0.00013347103,0.0078912,-0.01748497,-0.0054944037,0.0050234324,0.009107365,-0.0016611118,-0.019126194,0.00087165437,0.05095613,0.033868387,0.014491437,0.037115064,1.6197734,-0.0011434555,488.0535,0.10210447,0.60759544,0.38500407,0.19265445,0.17744225,inf,inf,inf,inf,1,1,1,1,2,2,2,2,1,0,1,1,0,0,0
11284000,11284000,4296000,47.3977508,8.5456073,-0.0007643757,0.009357649,-0.031106375,0.00013347103,0.0078912,-0.01748497,-0.00060724193,0.001353184,0.017090661,0.009972056,-0.019126194,0.00087165437,0.05095613,0.016546313,-0.025370156,0.033660788,1.6205118,-0.0011434555,488.0535,0.1,0.5797241,0.37397665,0.19653918,0.16334258,inf,inf,inf,inf,1,1,1,1,2,2,2,2,1,0,1,1,0,0,0
11780000,11780000,4296000,47.3977508,8.5456073,0.004081143,0.0057489723,-0.023173338,0.00013347103,0.0078912,-0.01748497,0.00503693,-0.0026600407,0.02520774,0.018540053,-0.019126194,0.00087165437,0.05095613,-0.01133776,0.0013289826,0.014614313,1.6209117,-0.0011434555,488.0535,0.1,0.56235707,0.369895,0.20628482,0.15280464,inf,inf,inf,inf,1,1,1,1,2,2,2,2,1,0,1,1,0,0,0
12284000,12284000,4296000,47.3977508,8.5456073,0.0042673503,0.0043838336,-0.019208591,0.00013347103,0.0078912,-0.01748497,0.005861491,-0.004480344,0.025584953,0.014460498,-0.019126194,0.00087165437,0.05095613,0.014556237,-0.0077738944,0.003987923,1.6206,-0.0011434555,488.0535,0.1,0.5546443,0.36756876,0.22029562,0.14472575,inf,inf,inf,inf,1,1,1,1,2,2,2,2,1,0,1,1,0,0,0
12780000,12780000,4296000,47.3977508,8.5456073,0.0024780603,0.005528802,-0.021085514,0.00013347103,0.0078912,-0.01748497,-0.00030753107,-0.0015347336,0.025579413,0.007122864,-0.019126194,0.00087165437,0.05095613,-0.019601922,-0.012495831,0.00030174849,1.6213076,-0.0011434555,488.0535,0.1,0.5034935,0.34008282,0.20461346,0.12985943,inf,inf,inf,inf,1,1,1,1,2,2,2,2,1,0,1,1,0,0,0
13284000,13284000,4296000,47.3977508,8.5456073,-0.00014728375,0.008596292,-0.023368249,0.00013347103,0.0078912,-0.01748497,-0.002298797,0.0010263193,0.026075063,0.0038631973,-0.019126194,0.00087165437,0.05095613,0.006330723,0.00039827134,-0.008736736,1.6207324,-0.0011434555,488.0535,0.1,0.5061512,0.34312525,0.21630272,0.12699227,inf,inf,inf,inf,1,1,1,1,2,2,2,2,1,0,1,1,0,0,0
13780000,13780000,4296000,47.3977508,8.5456073,-0.0075073964,0.0099435495,-0.022400528,0.00013347103,0.0078912,-0.01748497,-0.008810908,0.0048511312,0.025058715,0.0024000714,-0.019126194,0.00087165437,0.05095613,-0.01698415,-0.0017887359,0.006035901,1.6206582,-0.0011434555,488.0535,0.1,0.51213515,0.34453085,0.22604215,0.12507908,inf,inf,inf,inf,1,1,1,1,2,2,2,2,1,0,1,1,0,0,0
14284000,14284000,4296000,47.3977508,8.5456073,-0.014734115,0.010970266,-0.022444587,0.00013347103,0.0078912,-0.01748497,-0.010556484,0.0045044203,0.025225103,0.0024973205,-0.019126194,0.00087165437,0.05095613,0.020726336,0.0038345894,0.025564803,1.6198899,-0.0011434555,488.0535,0.1,0.5224207,0.3489122,0.23487873,0.12472703,inf,inf,inf,inf,1,1,1,1,2,2,2,2,1,0,1,1,0,0,0
14780000,14780000,4296000,47.3977508,8.5456073,-0.008892141,0.009285217,-0.020013086,0.00013347103,0.0078912,-0.01748497,-0.005631634,0.0058192248,0.02380841,0.0027442607,-0.019126194,0.00087165437,0.05095613,-0.020104691,-0.013123979,0.018002464,1.6189755,-0.0011434555,488.0535,0.1,0.48087993,0.32684442,0.20800363,0.11744609,inf,inf,inf,inf,1,1,1,1,2,2,2,2,1,0,1,1,0,0,0
15284000,15284000,4296000,47.3977508,8.5456073,0.00046112423,0.006186915,-0.02041733,0.00013347103,0.0078912,-0.01748497,4.197583e-05,0.0029761235,0.024232063,0.0016512459,-0.019126194,0.00087165437,0.05095613,0.010010102,-0.008495699,-0.04181731,1.6181877,-0.0011434555,488.0535,0.1,0.49164045,0.33211136,0.21363848,0.11876691,inf,inf,inf,inf,1,1,1,1,2,2,2,2,1,0,1,1,0,0,0
15780000,15780000,4296000,47.3977508,8.5456073,0.0031484887,0.0033562016,-0.020962272,0.00013347103,0.0078912,-0.01748497,0.0021275384,0.001576733,0.02605994,0.002419638,-0.019126194,0.00087165437,0.05095613,-0.002836692,0.020339487,0.016941687,1.6182089,-0.0011434555,488.0535,0.101701126,0.50294274,0.33721703,0.21787958,0.12031849,inf,inf,inf,inf,1,1,1,1,2,2,2,2,1,0,1,1,0,0,0
16284000,16284000,4296000,47.3977508,8.5456073,0.002835522,0.001982887,-0.019405372,0.00013347103,0.0078912,-0.01748497,0.003671301,0.0024483646,0.027323,0.0044245142,-0.019126194,0.00087165437,0.05095613,0.005662223,0.0022822204,0.019892117,1.6171263,-0.0011434555,488.0535,0.10014422,0.5164783,0.34188035,0.22207697,0.12201368,inf,inf,inf,inf,1,1,1,1,2,2,2,2,1,0,1,1,0,0,0
16780000,16780000,4296000,47.3977508,8.5456073,0.0031651387,0.0044613625,-0.018739806,0.00013347103,0.0078912,-0.01748497,0.006887561,0.0026191408,0.031264205,0.0069004404,-0.019126194,0.00087165437,0.05095613,0.026563253,-0.0071680113,0.028603708,1.6155734,-0.0011434555,488.0535,0.10048702,0.47625896,0.3238551,0.19618815,0.11667618,inf,inf,inf,inf,1,1,1,1,2,2,2,2,1,0,1,1,0,0,0
17284000,17284000,4296000,47.3977508,8.5456073,0.0034509285,0.0024612376,-0.014680042,0.00013347103,0.0078912,-0.01748497,0.00983014,0.001435606,0.03379856,0.009846595,-0.019126194,0.00087165437,0.05095613,0.023550905,-0.0019142025,0.024705192,1.6162925,-0.0011434555,488.0535,0.1,0.48842567,0.32910582,0.19990362,0.11861202,inf,inf,inf,inf,1,1,1,1,2,2,2,2,1,0,1,1,0,0,0
17780000,17780000,4296000,47.3977508,8.5456073,-0.002174944,0.008118253,-0.013098288,0.00013347103,0.0078912,-0.01748497,0.0052871853,0.0023182193,0.031549305,0.005036028,-0.019126194,0.00087165437,0.05095613,0.0056184214,-0.023835221,0.025574116,1.6152623,-0.0011434555,488.0535,0.10283594,0.5002878,0.33549377,0.20298864,0.12061205,inf,inf,inf,inf,1,1,1,1,2,2,2,2,1,0,1,1,0,0,0
18284000,18284000,4296000,47.3977508,8.5456073,-0.018040404,0.0070598214,-0.04051873,0.00013347103,0.0078912,-0.01748497,-0.083300605,-0.05994804,-0.14073038,-0.16426003,-0.019126194,0.00087165437,0.05095613,-0.5506095,-0.59989333,-0.62654907,1.6220089,-0.0011434555,488.0535,0.13025638,0.5138222,0.3429061,0.20723362,0.12276487,inf,inf,inf,inf,1,1,1,1,2,2,2,2,1,0,1,1,0,0,0
18780000,18780000,4296000,47.3977508,8.5456073,-0.08924963,-0.071469754,-0.21811107,0.00013347103,0.0078912,-0.01748497,-0.16711807,-0.16601619,-0.55728495,-0.57478714,-0.019126194,0.00087165437,0.05095613,0.119294286,0.12001128,-0.4639411,1.6200733,-0.0011434555,488.0535,0.30784872,0.47488156,0.32381132,0.18736432,0.11686045,inf,inf,inf,inf,1,1,1,1,2,2,2,2,1,0,1,1,0,0,0
19284000,19284000,4296000,47.3977508,8.5456073,-0.16022876,-0.14566459,-0.5175491,0.00013347103,0.0078912,-0.01748497,-0.08121958,-0.08722854,-0.5987014,-0.6178605,-0.019126194,0.00087165437,0.05095613,0.21814102,0.227397,-0.11350866,1.6183707,-0.0011434555,488.0535,0.60728675,0.4870386,0.33107653,0.19065689,0.118910216,inf,inf,inf,inf,1,1,1,1,2,2,2,2,1,0,1,1,0,0,0
19780000,19780000,4296000,47.3977508,8.5456073,-0.19209044,-0.17272091,-0.84262896,0.00013347103,0.0078912,-0.01748497,0.016918749,0.012026385,-0.644193,-0.66709346,-0.019126194,0.00087165437,0.05095613,0.19773345,0.20084453,-0.029314307,1.6169634,-0.0011434555,488.0535,0.9323666,0.498652,0.33627594,0.19360453,0.1204055,inf,inf,inf,inf,1,1,1,1,2,2,2,2,1,0,1,1,0,0,0
20284000,20284000,4296000,47.3977508,8.5456073,-0.18017454,-0.16087383,-1.1873726,0.00013347103,0.0078912,-0.01748497,0.08481823,0.07615549,-0.6387894,-0.6669462,-0.019126194,0.00087165437,0.05095613,0.0881477,0.095548496,0.08236337,1.6161164,-0.0011434555,488.0535,1.2771102,0.5116672,0.34377775,0.19681153,0.122304305,inf,inf,inf,inf,1,1,1,1,2,2,2,2,1,0,1,1,0,0,0
20780000,20780000,4296000,47.3977508,8.5456073,-0.1488133,-0.13152882,-1.5200142,0.00013347103,0.0078912,-0.01748497,0.10874925,0.09479846,-0.5943744,-0.63088053,-0.019126194,0.00087165437,0.05095613,-0.00023300525,0.024591891,0.12185517,1.615637,-0.0011434555,488.0535,1.6097518,0.47402194,0.3257111,0.17734389,0.116382755,inf,inf,inf,inf,1,1,1,1,2,2,2,2,1,0,1,1,0,0,0
21284000,21284000,4296000,47.3977508,8.5456073,-0.11328556,-0.09292173,-1.8221538,0.00013347103,0.0078912,-0.01748497,0.09902876,0.090353005,-0.50767374,-0.54568243,-0.019126194,0.00087165437,0.05095613,-0.032603085,-0.03485562,0.45526117,1.6148967,-0.005081957,488.0535,1.9118915,0.48541337,0.33146992,0.210212,0.11801276,inf,inf,inf,inf,1,1,1,1,2,2,2,2,2,0,1,1,0,0,0
21780000,21780000,4296000,47.3977508,8.5456073,-0.083270155,-0.056536976,-1.9945662,0.00013347103,0.0078912,-0.01748497,0.07755795,0.06929774,-0.118579626,-0.16249205,-0.019126194,0.00087165437,0.05095613,-0.028095279,-0.009217692,0.18294993,1.614292,-0.005081957,488.0535,2.0843039,0.4960775,0.338091,0.29686964,0.119740024,inf,inf,inf,inf,1,1,1,1,2,2,2,2,2,0,1,1,0,0,0
22284000,22284000,4296000,47.3977508,8.5456073,-0.048944697,-0.032412868,-2.0872583,0.00013347103,0.0078912,-0.01748497,0.06544022,0.04294535,-0.16432923,-0.2053758,-0.019126194,0.00087165437,0.05095613,-0.06224014,-0.050179556,0.054761764,1.6163827,-0.005081957,488.0535,2.176996,0.5126713,0.34384695,0.35796335,0.12132843,inf,inf,inf,inf,1,1,1,1,2,2,2,2,2,1,1,1,0,0,0
22780000,22780000,4296000,47.3977508,8.5456073,-0.02228119,0.0003826043,-2.1883264,0.00013347103,0.0078912,-0.01748497,0.042513646,0.038945712,-0.135055,-0.17992954,-0.019126194,0.00087165437,0.05095613,-0.08475538,-0.020739723,0.08136406,1.6141325,-0.005081957,488.0535,2.278064,0.47273156,0.32563716,0.2840545,0.115544,inf,inf,inf,inf,1,1,1,1,2,2,2,2,2,1,1,1,0,0,0
23284000,23284000,4296000,47.3977508,8.5456073,-0.010925275,0.024365637,-2.2714694,0.00013347103,0.0078912,-0.01748497,0.018630985,0.012942404,-0.098818295,-0.144141,-0.019126194,0.00087165437,0.05095613,-0.023211278,-0.082875505,0.08240248,1.615163,-0.005081957,488.0535,2.361207,0.48628923,0.33264896,0.287087,0.11752834,inf,inf,inf,inf,1,1,1,1,2,2,2,2,2,1,1,1,0,0,0
23780000,23780000,4296000,47.3977508,8.5456073,-0.010415807,0.017500991,-2.3300583,0.00013347103,0.0078912,-0.01748497,0.003257962,-0.006554458,-0.07382713,-0.11324236,-0.019126194,0.00087165437,0.05095613,-0.020776147,0.0076608118,0.018481163,1.6163578,-0.005081957,488.0535,2.419796,0.50057614,0.33752444,0.28337133,0.11904122,inf,inf,inf,inf,1,1,1,1,2,2,2,2,2,1,1,1,0,0,0
24284000,24284000,4296000,47.3977508,8.5456073,-0.010434729,0.009344985,-2.372859,0.00013347103,0.0078912,-0.01748497,0.0032402917,-0.008311914,-0.05811379,-0.08883421,-0.019126194,0.00087165437,0.05095613,-0.014372722,-0.014635136,0.015252269,1.615523,-0.005081957,488.0535,2.4625967,0.5169859,0.3448252,0.27817246,0.12108181,inf,inf,inf,inf,1,1,1,1,2,2,2,2,2,1,1,1,0,0,0
24780000,24780000,4296000,47.3977508,8.5456073,-0.0009940754,-0.012624192,-2.417835,0.00013347103,0.0078912,-0.01748497,0.0055304584,-0.006641972,-0.040139876,-0.07514305,-0.019126194,0.00087165437,0.05095613,-0.019558005,0.077889614,0.051050443,1.6139275,-0.005081957,488.0535,2.5075727,0.4747206,0.3250771,0.22680531,0.11516608,inf,inf,inf,inf,1,1,1,1,2,2,2,2,2,1,1,1,0,0,0
25284000,25284000,4296000,47.3977508,8.5456073,0.010083306,-0.011026966,-2.4560316,0.00013347103,0.0078912,-0.01748497,4.2667703e-05,0.007902052,-0.018550958,-0.05870428,-0.019126194,0.00087165437,0.05095613,-0.025415443,0.0428311,0.051025297,1.614498,-0.005081957,488.0535,2.5457692,0.48808253,0.33205423,0.22460677,0.11724344,inf,inf,inf,inf,1,1,1,1,2,2,2,2,2,1,1,1,0,0,0
25780000,25780000,4296000,47.3977508,8.5456073,0.013412811,0.0016603109,-2.487235,0.00013347103,0.0078912,-0.01748497,-0.009447439,0.012434507,0.0012448236,-0.04407957,-0.019126194,0.00087165437,0.05095613,-0.039287228,-0.028097898,0.030751338,1.6149614,-0.005081957,488.0535,2.5769727,0.50085,0.33692992,0.22160585,0.11883436,inf,inf,inf,inf,1,1,1,1,2,2,2,2,2,1,1,1,0,0,0
26284000,26284000,4296000,47.3977508,8.5456073,0.01341423,0.010600336,-2.510499,0.00013347103,0.0078912,-0.01748497,-0.016028816,0.005158545,0.020735668,-0.027856357,-0.019126194,0.00087165437,0.05095613,-0.007829847,-0.03869274,0.020222737,1.6150262,-0.005081957,488.0535,2.6002367,0.5149112,0.34424418,0.21916981,0.12093522,inf,inf,inf,inf,1,1,1,1,2,2,2,2,2,1,1,1,0,0,0
26780000,26780000,4296000,47.3977508,8.5456073,0.01800744,0.007275157,-2.5248635,0.00013347103,0.0078912,-0.01748497,-0.016316228,-0.0020561689,0.02627968,-0.023225289,-0.019126194,0.00087165437,0.05095613,-0.014199889,0.05522327,0.03063958,1.6144358,-0.005081957,488.0535,2.6146011,0.47523782,0.32600746,0.18987358,0.115343586,inf,inf,inf,inf,1,1,1,1,2,2,2,2,2,1,1,1,0,0,0
27284000,27284000,4296000,47.3977508,8.5456073,0.020548897,0.004385126,-2.5398314,0.00013347103,0.0078912,-0.01748497,-0.020017495,-0.0014389415,0.032531172,-0.020725815,-0.019126194,0.00087165437,0.05095613,-0.0075394777,0.010464602,0.051179897,1.6147398,-0.005081957,488.0535,2.629569,0.48731834,0.3315902,0.18973865,0.1171753,inf,inf,inf,inf,1,1,1,1,2,2,2,2,2,1,1,1,0,0,0
27780000,27780000,4296000,47.3977508,8.5456073,0.021838486,0.00022404164,-2.5447288,0.00013347103,0.0078912,-0.01748497,-0.02358206,-0.0030640622,0.042328287,-0.00793737,-0.019126194,0.00087165437,0.05095613,0.0027786735,0.010640462,0.0013578682,1.615264,-0.005081957,488.0535,2.6344664,0.49859884,0.3380107,0.18962811,0.11906909,inf,inf,inf,inf,1,1,1,1,2,2,2,2,2,1,1,1,0,0,0
28284000,28284000,4296000,47.3977508,8.5456073,0.023542976,-0.002174295,-2.5469062,0.00013347103,0.0078912,-0.01748497,-0.025341526,0.0013594899,0.041570928,-0.00521262,-0.019126194,0.00087165437,0.05095613,-0.009089868,0.027101748,0.018486751,1.6148726,-0.005081957,488.0535,2.636644,0.5109942,0.34367314,0.19048122,0.120833695,inf,inf,inf,inf,1,1,1,1,2,2,2,2,2,1,1,1,0,0,0
28780000,28780000,4296000,47.3977508,8.5456073,0.0264943,0.00023171451,-2.5612776,0.00013347103,0.0078912,-0.01748497,-0.026262458,0.00038309937,0.04544635,-0.0100601055,-0.019126194,0.00087165437,0.05095613,-0.026525142,0.015078446,0.022652557,1.6144891,-0.005081957,488.0535,2.6510153,0.47391683,0.32549435,0.1714132,0.11524785,inf,inf,inf,inf,1,1,1,1,2,2,2,2,2,1,1,1,0,0,0
29284000,29284000,4296000,47.3977508,8.5456073,0.029423656,0.0038682017,-2.5731714,0.00013347103,0.0078912,-0.01748497,-0.02538147,0.00012653097,0.05105118,-0.011523474,-0.019126194,0.00087165437,0.05095613,0.05274134,-0.021408543,0.075510696,1.6145386,-0.005081957,488.0535,2.662909,0.48491082,0.33249676,0.17401668,0.11733913,inf,inf,inf,inf,1,1,1,1,2,2,2,2,2,1,1,1,0,0,0
29780000,29780000,4296000,47.3977508,8.5456073,0.030806866,0.007565201,-2.5780356,0.00013347103,0.0078912,-0.01748497,-0.024493523,-0.003017471,0.062248845,-0.000992829,-0.019126194,0.00087165437,0.05095613,0.0016517005,-0.0030495864,0.035776753,1.6148028,-0.005081957,488.0535,2.6677732,0.49525148,0.3373881,0.17688873,0.11893066,inf,inf,inf,inf,1,1,1,1,2,2,2,2,2,1,1,1,0,0,0
30284000,30284000,4296000,47.3977508,8.5456073,0.02941085,0.007342561,-2.5707707,0.00013347103,0.0078912,-0.01748497,-0.02465361,-0.007755081,0.05816868,0.0031721988,-0.019126194,0.00087165437,0.05095613,0.008845599,0.020098027,-0.03279559,1.6150138,-0.005081957,488.0535,2.6605084,0.50683475,0.34465876,0.18084896,0.12100629,inf,inf,inf,inf,1,1,1,1,2,2,2,2,2,1,1,1,0,0,0
30780000,30780000,4296000,47.3977508,8.5456073,0.03130555,0.019190598,-2.5793757,0.00013347103,0.0078912,-0.01748497,-0.022100411,-0.008729042,0.058394857,-0.0034380318,-0.019126194,0.00087165437,0.05095613,-0.010478513,-0.018674428,0.015635042,1.6148202,-0.005081957,488.0535,2.6691134,0.47170582,0.326305,0.16665916,0.11537252,inf,inf,inf,inf,1,1,1,1,2,2,2,2,2,1,1,1,0,0,0
31284000,31284000,4296000,47.3977508,8.5456073,0.025231859,0.025558319,-2.5925038,0.00013347103,0.0078912,-0.01748497,-0.025129844,-0.01501753,0.062806085,-0.00944197,-0.019126194,0.00087165437,0.05095613,-0.033478353,-0.03021852,0.08570123,1.6146601,-0.005081957,488.0535,2.6822414,0.4822826,0.33185637,0.17156763,0.11718605,inf,inf,inf,inf,1,1,1,1,2,2,2,2,2,1,1,1,0,0,0
31780000,31780000,4296000,47.3977508,8.5456073,0.01214881,0.032663446,-2.5955405,0.00013347103,0.0078912,-0.01748497,-0.020073965,-0.018973758,0.07603944,0.0034018331,-0.019126194,0.00087165437,0.05095613,0.0050964006,-0.0319692,0.05737133,1.6147832,-0.005081957,488.0535,2.6852782,0.49248335,0.33825016,0.17647025,0.11906547,inf,inf,inf,inf,1,1,1,1,2,2,2,2,2,1,1,1,0,0,0
32284000,32284000,4296000,47.3977508,8.5456073,-0.002548625,0.04340808,-2.5925753,0.00013347103,0.0078912,-0.01748497,-0.01188467,-0.02603754,0.07632323,0.006887273,-0.019126194,0.00087165437,0.05095613,0.0683071,-0.031093163,0.0067353244,1.6148725,-0.005081957,488.0535,2.682313,0.5041687,0.34382117,0.18217462,0.12079714,inf,inf,inf,inf,1,1,1,1,2,2,2,2,2,1,1,1,0,0,0
32780000,32780000,4296000,47.3977508,8.5456073,-0.011608485,0.05490228,-2.5956998,0.00013347103,0.0078912,-0.01748497,0.0016740246,-0.032209463,0.07177815,-0.0008622387,-0.019126194,0.00087165437,0.05095613,0.04547802,-0.044951387,0.022815539,1.615067,-0.005081957,488.0535,2.6854374,0.47003737,0.32554364,0.1689439,0.115188904,inf,inf,inf,inf,1,1,1,1,2,2,2,2,2,1,1,1,0,0,0
33284000,33284000,4296000,47.3977508,8.5456073,-0.013667906,0.060046464,-2.5959034,0.00013347103,0.0078912,-0.01748497,0.011201515,-0.04255132,0.07191448,-0.00032443483,-0.019126194,0.00087165437,0.05095613,-0.014946722,-0.019264203,-0.0014891847,1.6152352,-0.005081957,488.0535,2.685641,0.48084137,0.33247864,0.17462285,0.11726457,inf,inf,inf,inf,1,1,1,1,2,2,2,2,2,1,1,1,0,0,0
33780000,33780000,4296000,47.3977508,8.5456073,-0.01998016,0.05638366,-2.5942287,0.00013347103,0.0078912,-0.01748497,0.012451888,-0.046875507,0.07288883,0.0027940897,-0.019126194,0.00087165437,0.05095613,0.01957244,-0.08881268,0.011834315,1.6151674,-0.005081957,488.0535,2.6839664,0.491427,0.33732304,0.18000546,0.11885028,inf,inf,inf,inf,1,1,1,1,2,2,2,2,2,1,1,1,0,0,0
34284000,34284000,4296000,47.3977508,8.5456073,-0.024297316,0.04683258,-2.6012146,0.00013347103,0.0078912,-0.01748497,0.019773265,-0.050066985,0.08035367,0.005118464,-0.019126194,0.00087165437,0.05095613,0.030917622,-0.0031141096,0.026328487,1.6147147,-0.005081957,488.0535,2.6909523,0.5036084,0.3445378,0.1857471,0.12091773,inf,inf,inf,inf,1,1,1,1,2,2,2,2,2,1,1,1,0,0,0
34780000,34780000,4296000,47.3977508,8.5456073,-0.02936622,0.0479167,-2.5940058,0.00013347103,0.0078912,-0.01748497,0.0194451,-0.04606112,0.19127409,0.11585953,-0.019126194,0.00087165437,0.05095613,0.0040011653,-0.027504355,1.1674165,1.6142637,-0.005081957,488.0535,2.6837435,0.46957663,0.3247975,0.17131461,0.115039825,inf,inf,inf,inf,1,1,1,1,2,2,2,2,2,1,1,1,0,0,0
35284000,35284000,4296000,47.3977508,8.5456073,-0.035711292,0.047148842,-2.3276243,0.00013347103,0.0078912,-0.01748497,0.0050183944,-0.03715062,0.8628557,0.7910489,-0.019126194,0.00087165437,0.05095613,-0.01797755,0.032535404,0.011432915,1.6144025,-0.005081957,488.0535,2.417362,0.48067695,0.33178025,0.17391504,0.11713542,inf,inf,inf,inf,1,1,1,1,2,2,2,2,2,1,1,1,0,0,0
35780000,35780000,4296000,47.3977508,8.5456073,-0.04072428,0.05660223,-1.9714041,0.00013347103,0.0078912,-0.01748497,0.011442793,-0.023857092,0.7073228,0.6465658,-0.019126194,0.00087165437,0.05095613,0.012091302,-0.02979535,0.016291624,1.6146486,-0.005081957,488.0535,2.0611417,0.49143544,0.33822262,0.17987248,0.11903596,inf,inf,inf,inf,1,1,1,1,2,2,2,2,2,1,1,1,0,0,0
36284000,36284000,4296000,47.3977508,8.5456073,-0.0431817,0.07279287,-1.6376109,0.00013347103,0.0078912,-0.01748497,0.016150828,-0.025638347,0.7292585,0.6720847,-0.019126194,0.00087165437,0.05095613,0.018473933,-0.039787468,0.07649138,1.614226,-0.005081957,488.0535,1.7273486,0.5038079,0.34392765,0.18549411,0.12081367,inf,inf,inf,inf,1,1,1,1,2,2,2,2,2,1,1,1,0,0,0
36780000,36780000,4296000,47.3977508,8.5456073,-0.048803076,0.09402697,-1.2996438,0.00013347103,0.0078912,-0.01748497,0.014751571,-0.03341312,0.7430062,0.6871499,-0.019126194,0.00087165437,0.05095613,-0.01581892,-0.042189173,0.0015608965,1.6151214,-0.005081957,488.0535,1.3893814,0.46965468,0.32577264,0.17105001,0.115242995,inf,inf,inf,inf,1,1,1,1,2,2,2,2,2,1,1,1,0,0,0
37284000,37284000,4296000,47.3977508,8.5456073,-0.05645136,0.096708626,-0.9437744,0.00013347103,0.0078912,-0.01748497,0.016989768,-0.042986903,0.74072266,0.69178224,-0.019126194,0.00087165437,0.05095613,0.011435214,-0.0519241,0.00912696,1.6146017,-0.005081957,488.0535,1.0335121,0.48094663,0.3314273,0.17622443,0.117089264,inf,inf,inf,inf,1,1,1,1,2,2,2,2,2,1,1,1,0,0,0
37780000,37780000,4296000,47.3977508,8.5456073,-0.057384666,0.093437836,-0.5918443,0.00013347103,0.0078912,-0.01748497,0.023355182,-0.045850705,0.73926616,0.697245,-0.019126194,0.00087165437,0.05095613,0.0043199104,-0.022325983,-0.023432074,1.6143887,-0.005081957,488.0535,0.681582,0.49195382,0.33790684,0.18093833,0.11899031,inf,inf,inf,inf,1,1,1,1,2,2,2,2,2,1,1,1,0,0,0
38284000,38284000,4296000,47.3977508,8.5456073,-0.05393954,0.094486624,-0.23658684,0.00013347103,0.0078912,-0.01748497,0.025237827,-0.04382621,0.737543,0.6993878,-0.019126194,0.00087165437,0.05095613,0.015760189,-0.027628396,-0.003404915,1.6143458,-0.005081957,488.0535,0.3263245,0.5044845,0.3435544,0.18597351,0.12073653,inf,inf,inf,inf,1,1,1,1,2,2,2,2,2,1,1,1,0,0,0
38780000,38780000,4296000,47.3977508,8.5456073,-0.058287036,0.09943649,0.16242792,0.00013347103,0.0078912,-0.01748497,0.015035159,-0.031653013,0.8929693,0.85420394,-0.019126194,0.00087165437,0.05095613,0.13228688,0.00329873,-3.2963715,1.6142704,-0.005081957,488.0535,0.1,0.46998706,0.3253973,0.16894701,0.11424158,inf,inf,inf,inf,1,1,1,1,2,2,2,2,2,1,1,1,0,0,0
39284000,39284000,4296000,47.3977508,8.5456073,-0.054651573,0.10004873,0.35842028,0.00013347103,0.0078912,-0.01748497,0.028437909,-0.044928964,0.6834159,0.5290579,-0.019126194,0.00087165437,0.05095613,-0.008326984,-0.031672243,0.8435565,1.614086,-0.005081957,488.0535,0.1,0.48135555,0.33010358,0.2085928,0.10756327,inf,inf,inf,inf,1,1,1,1,2,2,2,2,2,1,1,1,0,0,0
39780000,39780000,4296000,47.3977508,8.5456073,-0.054145467,0.095111564,0.44778273,0.00013347103,0.0078912,-0.01748497,0.017468924,-0.04597087,0.97417855,0.6293705,-0.019126194,0.00087165437,0.05095613,-0.009516428,-0.010984047,0.8075423,1.6140186,-0.005081957,488.0535,0.1,0.4935747,0.33413023,0.26467627,0.10367945,inf,inf,inf,inf,1,1,1,1,2,2,2,2,2,1,1,1,0,0,0
40284000,40284000,4296000,47.3977508,8.5456073,-0.050309733,0.08644984,0.64101785,0.00013347103,0.0078912,-0.01748497,0.018723477,-0.048465785,1.2184865,0.7486461,-0.019126194,0.00087165437,0.05095613,-0.015215031,-0.02615743,0.46178603,1.6146637,-0.005081957,488.0535,0.1,0.51031506,0.33780742,0.3072203,0.10241991,inf,inf,inf,inf,1,1,1,1,2,2,2,2,2,1,1,1,0,0,0
40780000,40780000,4296000,47.3977508,8.5456073,-0.051498957,0.0857724,0.86044186,0.00013347103,0.0078912,-0.01748497,0.013491666,-0.036837455,1.3406206,0.7430215,-0.019126194,0.00087165437,0.05095613,0.03299383,-0.006261121,0.30845773,1.6142122,-0.005081957,488.0535,0.1,0.47140452,0.31769508,0.26046073,0.09800534,inf,inf,inf,inf,1,1,1,1,2,2,2,2,2,1,1,1,0,0,0
41284000,41284000,4296000,47.3977508,8.5456073,-0.039843664,0.086165234,1.1620408,0.00013347103,0.0078912,-0.01748497,0.01739476,-0.034761455,1.4168159,0.75721806,-0.019126194,0.00087165437,0.05095613,-0.015198136,-0.022994237,0.521617,1.6137757,-0.005081957,488.0535,0.1,0.4853004,0.32118934,0.26740167,0.1007983,inf,inf,inf,inf,1,1,1,1,2,2,2,2,2,1,1,1,0,0,0
41780000,41780000,4296000,47.3977508,8.5456073,-0.027281718,0.093588434,1.3636416,0.00013347103,0.0078912,-0.01748497,-0.009431645,0.0248924,0.76540977,0.09482037,-0.019126194,0.00087165437,0.05095613,0.0009119248,0.05728489,0.0006714835,1.6146067,-0.005081957,488.0535,0.1,0.4997056,0.32324222,0.26376805,0.10180957,inf,inf,inf,inf,1,1,1,1,2,2,2,2,2,1,1,1,0,0,0
42284000,42284000,4296000,47.3977508,8.5456073,-0.02654298,0.104115635,1.3942497,0.00013347103,0.0078912,-0.01748497,-0.011563575,0.0489162,0.6796399,0.03576856,-0.019126194,0.00087165437,0.05095613,0.014553122,0.095505886,0.018540768,1.6154939,-0.005081957,488.0535,0.1,0.51525986,0.3258003,0.25667402,0.09797594,inf,inf,inf,inf,1,1,1,1,2,2,2,2,2,1,1,1,0,0,0
42780000,42780000,4296000,47.3977508,8.5456073,-0.02737246,0.09859278,1.3511344,0.00013347103,0.0078912,-0.01748497,-0.012047983,0.053674456,0.58809185,-0.06825438,-0.019126194,0.00087165437,0.05095613,-0.020130463,0.071990445,0.020015983,1.6164486,-0.005081957,488.0535,0.1434623,0.4745629,0.30974704,0.23115046,0.09225656,inf,inf,inf,inf,1,1,1,1,2,2,2,2,2,1,1,1,0,0,0
43284000,43284000,4296000,47.3977508,8.5456073,-0.030509248,0.094292834,1.3140358,0.00013347103,0.0078912,-0.01748497,-0.010974111,0.052523505,0.5137447,-0.12151368,-0.019126194,0.00087165437,0.05095613,0.013267839,0.021084297,0.020503996,1.6166838,-0.005081957,488.0535,0.18056095,0.48736152,0.3133721,0.25210395,0.09328166,inf,inf,inf,inf,1,1,1,1,2,2,2,2,2,1,1,1,0,0,0
43780000,43780000,4296000,47.3977508,8.5456073,-0.03206172,0.08823578,1.2829581,0.00013347103,0.0078912,-0.01748497,-0.009751102,0.046748873,0.44934738,-0.14364,-0.019126194,0.00087165437,0.05095613,-0.018826786,0.007112903,-0.008787959,1.6172793,-0.005081957,488.0535,0.21163857,0.5002176,0.31538993,0.2675708,0.09579004,inf,inf,inf,inf,1,1,1,1,2,2,2,2,2,1,1,1,0,0,0
44284000,44284000,4296000,47.3977508,8.5456073,-0.030304331,0.07962856,1.2548413,0.00013347103,0.0078912,-0.01748497,-0.008378763,0.03238042,0.3922559,-0.14328282,-0.019126194,0.00087165437,0.05095613,-0.010164207,0.025284592,0.011648982,1.6176125,-0.005081957,488.0535,0.23975539,0.51554203,0.31967872,0.27770722,0.09991825,inf,inf,inf,inf,1,1,1,1,2,2,2,2,2,1,1,1,0,0,0
44780000,44780000,4296000,47.3977508,8.5456073,-0.027524747,0.07266735,1.172919,0.00013347103,0.0078912,-0.01748497,-0.003272604,0.020150533,0.3233168,-0.20012432,-0.019126194,0.00087165437,0.05095613,-0.012490344,0.021643862,-0.010707415,1.6182729,-0.005081957,488.0535,0.32167768,0.47488424,0.3045837,0.23386088,0.099986784,inf,inf,inf,inf,1,1,1,1,2,2,2,2,2,1,1,1,0,0,0
45284000,45284000,4296000,47.3977508,8.5456073,-0.023275223,0.071275756,1.0938106,0.00013347103,0.0078912,-0.01748497,0.0015488031,0.013706616,0.25941685,-0.23266132,-0.019126194,0.00087165437,0.05095613,-0.015020501,0.004289526,0.034051944,1.6182534,-0.005081957,488.0535,0.40078616,0.48762977,0.3103198,0.23693544,0.10512981,inf,inf,inf,inf,1,1,1,1,2,2,2,2,2,1,1,1,0,0,0
45780000,45780000,4296000,47.3977508,8.5456073,-0.026367528,0.0718912,1.0252266,0.00013347103,0.0078912,-0.01748497,0.0009347238,0.0073234523,0.20227267,-0.24053226,-0.019126194,0.00087165437,0.05095613,-0.007313603,-0.009043389,-0.0402322,1.6187483,-0.005081957,488.0535,0.46937013,0.50025386,0.3165956,0.23749903,0.11012292,inf,inf,inf,inf,1,1,1,1,2,2,2,2,2,1,1,1,0,0,0
46284000,46284000,4296000,47.3977508,8.5456073,-0.030291198,0.07101582,0.9553569,0.00013347103,0.0078912,-0.01748497,0.002779693,0.0015634741,0.14906037,-0.2376463,-0.019126194,0.00087165437,0.05095613,0.0039197765,-0.02547467,-0.0033248214,1.6192933,-0.005081957,488.0535,0.5392398,0.51460636,0.32319272,0.23758654,0.11488323,inf,inf,inf,inf,1,1,1,1,2,2,2,2,2,1,1,1,0,0,0
46780000,46780000,4296000,47.3977508,8.5456073,-0.030475968,0.06761862,0.8487315,0.00013347103,0.0078912,-0.01748497,0.009194883,-0.0041879253,0.09374804,-0.27128145,-0.019126194,0.00087165437,0.05095613,0.0067591895,0.013582844,-0.018030403,1.6197468,-0.005081957,488.0535,0.10368073,0.47493586,0.31060064,0.20418718,0.11297968,inf,inf,inf,inf,1,1,1,1,2,2,2,2,2,0,1,1,0,0,0
47284000,47284000,4296000,47.3977508,8.5456073,-0.029449359,0.07388508,0.74857783,0.00013347103,0.0078912,-0.01748497,0.011963563,-0.0061318674,0.038529452,-0.28732803,-0.019126194,0.00087165437,0.05095613,0.0030298687,-0.009623603,-0.02991501,1.6203068,-0.005081957,488.0535,0.14743364,0.4871899,0.31915775,0.20502481,0.116844304,inf,inf,inf,inf,1,1,1,1,2,2,2,2,2,0,1,1,0,0,0
47780000,47780000,4296000,47.3977508,8.5456073,-0.026894588,0.07509823,0.6623303,0.00013347103,0.0078912,-0.01748497,0.011506669,-0.012000719,-7.090316e-05,-0.27629676,-0.019126194,0.00087165437,0.05095613,-0.015132113,-0.012560805,-0.003029592,1.6204286,-0.005081957,488.0535,0.16489112,0.4989015,0.32619327,0.205297,0.11981964,inf,inf,inf,inf,1,1,1,1,2,2,2,2,2,0,1,1,0,0,0
48284000,48284000,4296000,47.3977508,8.5456073,-0.025615165,0.072367355,0.57687426,0.00013347103,0.0078912,-0.01748497,0.011820734,-0.018839877,-0.033704787,-0.26106948,-0.019126194,0.00087165437,0.05095613,0.018679813,-0.022756357,-0.0411896,1.6209089,-0.005081957,488.0535,0.17561221,0.51195955,0.33555347,0.20611939,0.12281205,inf,inf,inf,inf,1,1,1,1,2,2,2,2,2,0,1,1,0,0,0
48780000,48780000,4296000,47.3977508,8.5456073,-0.015553189,0.06786245,0.48858124,0.00013347103,0.0078912,-0.01748497,0.01652103,-0.02749424,-0.061030537,-0.25162506,-0.019126194,0.00087165437,0.05095613,0.008669375,-0.03846435,-0.011613592,1.6208073,-0.005081957,488.0535,0.14281136,0.47418028,0.32047573,0.18293886,0.1176926,inf,inf,inf,inf,1,1,1,1,2,2,2,2,2,0,1,1,0,0,0
49284000,49284000,4296000,47.3977508,8.5456073,-0.012214691,0.05835146,0.4140486,0.00013347103,0.0078912,-0.01748497,0.012410988,-0.034147043,-0.07969194,-0.23023984,-0.019126194,0.00087165437,0.05095613,0.011108219,-0.01752001,-0.02734456,1.6207107,-0.005081957,488.0535,0.1571024,0.48564312,0.3277135,0.1850167,0.11968572,inf,inf,inf,inf,1,1,1,1,2,2,2,2,2,0,1,1,0,0,0
