timestamp,timestamp_sample,q[0],q[1],q[2],q[3],delta_q_reset[0],delta_q_reset[1],delta_q_reset[2],delta_q_reset[3],quat_reset_counter
3568000,3568000,0.68658775,0.0007634515,-0.015598359,0.72687924,1.0,0.0,0.0,0.0,0
3572000,3572000,0.6865885,0.0007807109,-0.01558581,0.7268787,1.0,0.0,0.0,0.0,0
3576000,3576000,0.68659014,0.0007957798,-0.015572698,0.72687745,1.0,0.0,0.0,0.0,0
3580000,3580000,0.6865895,0.00081051915,-0.01556299,0.72687835,1.0,0.0,0.0,0.0,0
3584000,3584000,0.6870175,0.000816451,-0.015552755,0.726474,0.9999999,0.0,-8.731149e-10,-0.00057172775,1
3592000,3592000,0.6870502,0.0008412205,-0.015523698,0.72644365,0.9999999,0.0,-8.731149e-10,-0.00057172775,1
3596000,3596000,0.6870663,0.00085761264,-0.015510056,0.7264286,0.9999999,0.0,-8.731149e-10,-0.00057172775,1
3600000,3600000,0.6870794,0.00087277597,-0.01549316,0.7264166,0.9999999,0.0,-8.731149e-10,-0.00057172775,1
3604000,3604000,0.68709105,0.00088336813,-0.015475639,0.726406,0.9999999,0.0,-8.731149e-10,-0.00057172775,1
3608000,3608000,0.6871026,0.00089532405,-0.015464576,0.72639525,0.9999999,0.0,-8.731149e-10,-0.00057172775,1
3612000,3612000,0.68711334,0.0009110488,-0.015454162,0.7263853,0.9999999,0.0,-8.731149e-10,-0.00057172775,1
3616000,3616000,0.6871273,0.0009278854,-0.015438897,0.7263725,0.9999999,0.0,-8.731149e-10,-0.00057172775,1
3624000,3624000,0.68716395,0.00096031115,-0.015409214,0.7263383,0.9999999,0.0,-8.731149e-10,-0.00057172775,1
3628000,3628000,0.68718106,0.0009755474,-0.015386526,0.7263226,0.9999999,0.0,-8.731149e-10,-0.00057172775,1
3632000,3632000,0.687197,0.0009908656,-0.015366155,0.72630787,0.9999999,0.0,-8.731149e-10,-0.00057172775,1
3636000,3636000,0.68721294,0.001004458,-0.015351483,0.7262931,0.9999999,0.0,-8.731149e-10,-0.00057172775,1
3640000,3640000,0.6872262,0.001017301,-0.015337637,0.72628087,0.9999999,0.0,-8.731149e-10,-0.00057172775,1
3644000,3644000,0.68723714,0.0010289343,-0.015322696,0.72627085,0.9999999,0.0,-8.731149e-10,-0.00057172775,1
3652000,3652000,0.6872645,0.001050091,-0.015289541,0.72624564,0.9999999,0.0,-8.731149e-10,-0.00057172775,1
3660000,3660000,0.6872844,0.0010807476,-0.015263317,0.7262272,0.9999999,0.0,-8.731149e-10,-0.00057172775,1
3664000,3664000,0.6872964,0.001094103,-0.015250276,0.7262162,0.9999999,0.0,-8.731149e-10,-0.00057172775,1
3672000,3672000,0.6873167,0.0011193795,-0.015233288,0.72619736,0.9999999,0.0,-8.731149e-10,-0.00057172775,1
3676000,3676000,0.6873277,0.0011400052,-0.015228719,0.72618693,0.9999999,0.0,-8.731149e-10,-0.00057172775,1
3680000,3680000,0.6873395,0.0011613132,-0.015224891,0.7261758,0.9999999,0.0,-8.731149e-10,-0.00057172775,1
3684000,3684000,0.68735176,0.0011799424,-0.015219253,0.7261643,0.9999999,0.0,-8.731149e-10,-0.00057172775,1
3688000,3688000,0.6873629,0.0011958127,-0.015214066,0.72615385,0.9999999,0.0,-8.731149e-10,-0.00057172775,1
3692000,3692000,0.68737334,0.001207923,-0.015209736,0.7261441,0.9999999,0.0,-8.731149e-10,-0.00057172775,1
3700000,3700000,0.6873907,0.0012239704,-0.015202424,0.7261277,0.9999999,0.0,-8.731149e-10,-0.00057172775,1
3708000,3708000,0.68740666,0.0012430284,-0.015190868,0.72611284,0.9999999,0.0,-8.731149e-10,-0.00057172775,1
3712000,3712000,0.6874163,0.0012544094,-0.015186906,0.7261037,0.9999999,0.0,-8.731149e-10,-0.00057172775,1
3716000,3716000,0.6874244,0.0012713739,-0.015181664,0.72609615,0.9999999,0.0,-8.731149e-10,-0.00057172775,1
3720000,3720000,0.68743217,0.0012874985,-0.015177937,0.7260889,0.9999999,0.0,-8.731149e-10,-0.00057172775,1
3724000,3724000,0.6874399,0.0012995336,-0.015176206,0.72608155,0.9999999,0.0,-8.731149e-10,-0.00057172775,1
3728000,3728000,0.6874472,0.0013143679,-0.015173631,0.7260747,0.9999999,0.0,-8.731149e-10,-0.00057172775,1
3732000,3732000,0.6874536,0.0013306917,-0.015171017,0.7260686,0.9999999,0.0,-8.731149e-10,-0.00057172775,1
3736000,3736000,0.6874597,0.0013429776,-0.0151755605,0.7260628,0.9999999,0.0,-8.731149e-10,-0.00057172775,1
3740000,3740000,0.6874665,0.0013571928,-0.01518118,0.72605616,0.9999999,0.0,-8.731149e-10,-0.00057172775,1
3748000,3748000,0.68747526,0.001382852,-0.015183186,0.7260478,0.9999999,0.0,-8.731149e-10,-0.00057172775,1
3752000,3752000,0.68747896,0.0013978615,-0.015183558,0.7260442,0.9999999,0.0,-8.731149e-10,-0.00057172775,1
3756000,3756000,0.68748426,0.0014150593,-0.015180103,0.72603923,0.9999999,0.0,-8.731149e-10,-0.00057172775,1
3760000,3760000,0.68748945,0.0014319769,-0.015181301,0.72603434,0.9999999,0.0,-8.731149e-10,-0.00057172775,1
3764000,3764000,0.6874945,0.0014478576,-0.015185918,0.72602934,0.9999999,0.0,-8.731149e-10,-0.00057172775,1
3768000,3768000,0.6875015,0.0014620103,-0.015189202,0.72602266,0.9999999,0.0,-8.731149e-10,-0.00057172775,1
3772000,3772000,0.6875105,0.0014738834,-0.015190285,0.72601414,0.9999999,0.0,-8.731149e-10,-0.00057172775,1
3776000,3776000,0.6875163,0.001484929,-0.015190269,0.7260086,0.9999999,0.0,-8.731149e-10,-0.00057172775,1
3780000,3780000,0.68751854,0.0014982017,-0.015191707,0.7260064,0.9999999,0.0,-8.731149e-10,-0.00057172775,1
3784000,3784000,0.68752044,0.0015096498,-0.015193899,0.7260046,0.9999999,0.0,-8.731149e-10,-0.00057172775,1
3788000,3788000,0.687525,0.0015189161,-0.015196898,0.72600013,0.9999999,0.0,-8.731149e-10,-0.00057172775,1
3792000,3792000,0.6875303,0.0015287262,-0.015202792,0.725995,0.9999999,0.0,-8.731149e-10,-0.00057172775,1
3796000,3796000,0.6875352,0.0015377548,-0.015207955,0.72599024,0.9999999,0.0,-8.731149e-10,-0.00057172775,1
3800000,3800000,0.68753856,0.0015453957,-0.015215634,0.7259869,0.9999999,0.0,-8.731149e-10,-0.00057172775,1
3804000,3804000,0.6875396,0.0015560198,-0.015223988,0.7259857,0.9999999,0.0,-8.731149e-10,-0.00057172775,1
3808000,3808000,0.68753946,0.0015685987,-0.0152313225,0.72598565,0.9999999,0.0,-8.731149e-10,-0.00057172775,1
3812000,3812000,0.68754005,0.0015808479,-0.015239792,0.7259848,0.9999999,0.0,-8.731149e-10,-0.00057172775,1
3820000,3820000,0.6875428,0.0015961534,-0.015253048,0.72598195,0.9999999,0.0,-8.731149e-10,-0.00057172775,1
3828000,3828000,0.6875451,0.001601703,-0.015256919,0.7259796,0.9999999,0.0,-8.731149e-10,-0.00057172775,1
3836000,3836000,0.68754995,0.0016152909,-0.015264378,0.7259749,0.9999999,0.0,-8.731149e-10,-0.00057172775,1
3844000,3844000,0.6875542,0.001627513,-0.015276723,0.72597057,0.9999999,0.0,-8.731149e-10,-0.00057172775,1
3852000,3852000,0.6875607,0.0016358197,-0.015293551,0.72596407,0.9999999,0.0,-8.731149e-10,-0.00057172775,1
3856000,3856000,0.6875645,0.0016420329,-0.015299572,0.7259603,0.9999999,0.0,-8.731149e-10,-0.00057172775,1
3860000,3860000,0.6875671,0.0016475094,-0.015307121,0.72595763,0.9999999,0.0,-8.731149e-10,-0.00057172775,1
3864000,3864000,0.6875692,0.0016520171,-0.015311949,0.72595555,0.9999999,0.0,-8.731149e-10,-0.00057172775,1
3868000,3868000,0.68756896,0.001655723,-0.015316802,0.72595567,0.9999999,0.0,-8.731149e-10,-0.00057172775,1
3872000,3872000,0.68754524,0.0016591465,-0.015327056,0.72597796,0.9999999,0.0,-8.731149e-10,-0.00057172775,1
3876000,3876000,0.68752533,0.0016618987,-0.015337318,0.7259965,0.9999999,0.0,-8.731149e-10,-0.00057172775,1
3880000,3880000,0.6875053,0.0016690327,-0.01534615,0.7260153,0.9999999,0.0,-8.731149e-10,-0.00057172775,1
3884000,3884000,0.68748283,0.0016806963,-0.015357122,0.7260363,0.9999999,0.0,-8.731149e-10,-0.00057172775,1
3892000,3892000,0.6874315,0.0016930307,-0.015387614,0.72608423,0.9999999,0.0,-8.731149e-10,-0.00057172775,1
3896000,3896000,0.6874097,0.0016969717,-0.015396836,0.72610474,0.9999999,0.0,-8.731149e-10,-0.00057172775,1
3900000,3900000,0.68738973,0.0017057958,-0.015404037,0.72612345,0.9999999,0.0,-8.731149e-10,-0.00057172775,1
3904000,3904000,0.68737036,0.0017195244,-0.015413099,0.72614163,0.9999999,0.0,-8.731149e-10,-0.00057172775,1
3908000,3908000,0.6873525,0.001731151,-0.015426736,0.7261582,0.9999999,0.0,-8.731149e-10,-0.00057172775,1
3916000,3916000,0.6873114,0.0017291432,-0.0154473595,0.7261965,0.9999999,0.0,-8.731149e-10,-0.00057172775,1
3920000,3920000,0.6872893,0.0017324317,-0.015451978,0.72621745,0.9999999,0.0,-8.731149e-10,-0.00057172775,1
3924000,3924000,0.68726474,0.0017424258,-0.0154556595,0.7262406,0.9999999,0.0,-8.731149e-10,-0.00057172775,1
3932000,3932000,0.6872168,0.0017594289,-0.015478655,0.72628534,0.9999999,0.0,-8.731149e-10,-0.00057172775,1
3936000,3936000,0.68719405,0.0017631932,-0.015489001,0.7263067,0.9999999,0.0,-8.731149e-10,-0.00057172775,1
3940000,3940000,0.68717164,0.0017702808,-0.015496616,0.7263277,0.9999999,0.0,-8.731149e-10,-0.00057172775,1
3944000,3944000,0.6871505,0.0017762997,-0.015499715,0.7263477,0.9999999,0.0,-8.731149e-10,-0.00057172775,1
3952000,3952000,0.687102,0.0017780529,-0.015507305,0.7263933,0.9999999,0.0,-8.731149e-10,-0.00057172775,1
3956000,3956000,0.6870813,0.0017806619,-0.015510089,0.72641283,0.9999999,0.0,-8.731149e-10,-0.00057172775,1
3960000,3960000,0.68706316,0.0017851612,-0.015513156,0.7264299,0.9999999,0.0,-8.731149e-10,-0.00057172775,1
3964000,3964000,0.6870446,0.0017931139,-0.015518768,0.72644734,0.9999999,0.0,-8.731149e-10,-0.00057172775,1
3972000,3972000,0.68700767,0.0018160994,-0.015530824,0.726482,0.9999999,0.0,-8.731149e-10,-0.00057172775,1
3976000,3976000,0.68698746,0.0018221271,-0.015532507,0.72650105,0.9999999,0.0,-8.731149e-10,-0.00057172775,1
3980000,3980000,0.68696547,0.0018212746,-0.015532125,0.72652185,0.9999999,0.0,-8.731149e-10,-0.00057172775,1
3988000,3988000,0.6869314,0.001822126,-0.015538655,0.726554,0.9999999,0.0,-8.731149e-10,-0.00057172775,1
3992000,3992000,0.6869162,0.0018243507,-0.015539524,0.7265683,0.9999999,0.0,-8.731149e-10,-0.00057172775,1
3996000,3996000,0.68690103,0.0018268991,-0.015538501,0.72658265,0.9999999,0.0,-8.731149e-10,-0.00057172775,1
4000000,4000000,0.68688935,0.0018279575,-0.015537427,0.7265937,0.9999999,0.0,-8.731149e-10,-0.00057172775,1
4004000,4004000,0.6868784,0.0018328389,-0.015537751,0.72660404,0.9999999,0.0,-8.731149e-10,-0.00057172775,1
4008000,4008000,0.6868654,0.0018410408,-0.015539025,0.7266162,0.9999999,0.0,-8.731149e-10,-0.00057172775,1
4012000,4012000,0.68685097,0.001847296,-0.015539228,0.72662985,0.9999999,0.0,-8.731149e-10,-0.00057172775,1
4016000,4016000,0.6868456,0.0018526083,-0.015540151,0.7266349,0.9999999,0.0,-8.731149e-10,-0.00057172775,1
4020000,4020000,0.6868401,0.0018606507,-0.015544387,0.7266399,0.9999999,0.0,-8.731149e-10,-0.00057172775,1
4024000,4024000,0.6868378,0.0018701887,-0.015547728,0.7266421,0.9999999,0.0,-8.731149e-10,-0.00057172775,1
4028000,4028000,0.68683434,0.0018791877,-0.01554619,0.7266454,0.9999999,0.0,-8.731149e-10,-0.00057172775,1
4032000,4032000,0.68683183,0.0018893435,-0.015543656,0.72664773,0.9999999,0.0,-8.731149e-10,-0.00057172775,1
4036000,4036000,0.68683094,0.0018961978,-0.015543099,0.72664857,0.9999999,0.0,-8.731149e-10,-0.00057172775,1
4040000,4040000,0.6868296,0.0018958531,-0.01554028,0.7266498,0.9999999,0.0,-8.731149e-10,-0.00057172775,1
4044000,4044000,0.6868303,0.0018929042,-0.015537155,0.7266493,0.9999999,0.0,-8.731149e-10,-0.00057172775,1
4052000,4052000,0.68683976,0.0018981929,-0.015544483,0.72664016,0.9999999,0.0,-8.731149e-10,-0.00057172775,1
4056000,4056000,0.68684244,0.0019028165,-0.015551664,0.7266374,0.9999999,0.0,-8.731149e-10,-0.00057172775,1
4060000,4060000,0.6868405,0.0019099439,-0.015557652,0.72663915,0.9999999,0.0,-8.731149e-10,-0.00057172775,1
4064000,4064000,0.6868382,0.0019167064,-0.015560503,0.72664124,0.9999999,0.0,-8.731149e-10,-0.00057172775,1
4068000,4068000,0.6868403,0.00191829,-0.015563491,0.7266392,0.9999999,0.0,-8.731149e-10,-0.00057172775,1
4072000,4072000,0.6868455,0.0019192828,-0.015565981,0.72663426,0.9999999,0.0,-8.731149e-10,-0.00057172775,1
4076000,4076000,0.6868495,0.0019239939,-0.015567616,0.72663045,0.9999999,0.0,-8.731149e-10,-0.00057172775,1
4080000,4080000,0.6868538,0.0019295638,-0.015568721,0.72662634,0.9999999,0.0,-8.731149e-10,-0.00057172775,1
4084000,4084000,0.6868601,0.0019351749,-0.01556982,0.7266203,0.9999999,0.0,-8.731149e-10,-0.00057172775,1
4088000,4088000,0.6868756,0.001939029,-0.015575404,0.72660553,0.9999999,0.0,-8.731149e-10,-0.00057172775,1
4092000,4092000,0.68688875,0.001940617,-0.015582565,0.7265929,0.9999999,0.0,-8.731149e-10,-0.00057172775,1
4096000,4096000,0.68690187,0.0019437905,-0.015588435,0.72658044,0.9999999,0.0,-8.731149e-10,-0.00057172775,1
4100000,4100000,0.68691605,0.0019484732,-0.015593505,0.7265669,0.9999999,0.0,-8.731149e-10,-0.00057172775,1
4104000,4104000,0.68693,0.001954393,-0.015597672,0.7265536,0.9999999,0.0,-8.731149e-10,-0.00057172775,1
4108000,4108000,0.6869428,0.001959127,-0.015600744,0.72654134,0.9999999,0.0,-8.731149e-10,-0.00057172775,1
4112000,4112000,0.68695617,0.0019595018,-0.015604205,0.7265287,0.9999999,0.0,-8.731149e-10,-0.00057172775,1
4116000,4116000,0.68696916,0.0019568775,-0.0156085035,0.72651637,0.9999999,0.0,-8.731149e-10,-0.00057172775,1
4120000,4120000,0.68697983,0.0019569746,-0.015612611,0.7265062,0.9999999,0.0,-8.731149e-10,-0.00057172775,1
4124000,4124000,0.6869916,0.0019597209,-0.015616263,0.7264949,0.9999999,0.0,-8.731149e-10,-0.00057172775,1
4132000,4132000,0.68702245,0.0019702394,-0.015626173,0.7264655,0.9999999,0.0,-8.731149e-10,-0.00057172775,1
4136000,4136000,0.68703717,0.0019815334,-0.015627054,0.7264515,0.9999999,0.0,-8.731149e-10,-0.00057172775,1
4140000,4140000,0.68705285,0.0019848235,-0.015624015,0.7264368,0.9999999,0.0,-8.731149e-10,-0.00057172775,1
4144000,4144000,0.68706995,0.0019843,-0.015626961,0.7264206,0.9999999,0.0,-8.731149e-10,-0.00057172775,1
4148000,4148000,0.68708646,0.0019892482,-0.01563729,0.7264047,0.9999999,0.0,-8.731149e-10,-0.00057172775,1
4152000,4152000,0.6871007,0.0019867558,-0.015634859,0.7263913,0.9999999,0.0,-8.731149e-10,-0.00057172775,1
4156000,4156000,0.6871153,0.001984209,-0.01563017,0.72637755,0.9999999,0.0,-8.731149e-10,-0.00057172775,1
4160000,4160000,0.68713355,0.001986253,-0.015626209,0.7263604,0.9999999,0.0,-8.731149e-10,-0.00057172775,1
4164000,4164000,0.68715143,0.001987902,-0.015621885,0.7263436,0.9999999,0.0,-8.731149e-10,-0.00057172775,1
4168000,4168000,0.68717104,0.0019847483,-0.015618158,0.7263251,0.9999999,0.0,-8.731149e-10,-0.00057172775,1
4172000,4172000,0.68719226,0.0019752388,-0.015614979,0.72630507,0.9999999,0.0,-8.731149e-10,-0.00057172775,1
4176000,4176000,0.68721014,0.0019627404,-0.015613472,0.7262882,0.9999999,0.0,-8.731149e-10,-0.00057172775,1
4180000,4180000,0.68722767,0.0019513525,-0.015611559,0.7262717,0.9999999,0.0,-8.731149e-10,-0.00057172775,1
4184000,4184000,0.68724453,0.0019389578,-0.015606056,0.72625595,0.9999999,0.0,-8.731149e-10,-0.00057172775,1
4188000,4188000,0.6872598,0.0019280562,-0.015601266,0.7262416,0.9999999,0.0,-8.731149e-10,-0.00057172775,1
4192000,4192000,0.6872749,0.0019148394,-0.015594307,0.7262276,0.9999999,0.0,-8.731149e-10,-0.00057172775,1
4196000,4196000,0.68728876,0.0019034069,-0.015584663,0.7262147,0.9999999,0.0,-8.731149e-10,-0.00057172775,1
4200000,4200000,0.6872991,0.0019006155,-0.01557668,0.72620505,0.9999999,0.0,-8.731149e-10,-0.00057172775,1
4204000,4204000,0.68731016,0.0018990635,-0.015572054,0.7261947,0.9999999,0.0,-8.731149e-10,-0.00057172775,1
4208000,4208000,0.6873233,0.0018912042,-0.015569479,0.7261823,0.9999999,0.0,-8.731149e-10,-0.00057172775,1
4212000,4212000,0.68733925,0.0018792106,-0.015565131,0.7261674,0.9999999,0.0,-8.731149e-10,-0.00057172775,1
4216000,4216000,0.6873557,0.0018675205,-0.01555812,0.726152,0.9999999,0.0,-8.731149e-10,-0.00057172775,1
4220000,4220000,0.6873682,0.0018575987,-0.015549938,0.7261403,0.9999999,0.0,-8.731149e-10,-0.00057172775,1
4224000,4224000,0.6873758,0.0018501166,-0.015539037,0.7261334,0.9999999,0.0,-8.731149e-10,-0.00057172775,1
4228000,4228000,0.68738335,0.0018460329,-0.015528418,0.7261265,0.9999999,0.0,-8.731149e-10,-0.00057172775,1
4232000,4232000,0.6873901,0.0018408645,-0.015519672,0.72612023,0.9999999,0.0,-8.731149e-10,-0.00057172775,1
4236000,4236000,0.68739766,0.0018323355,-0.015511396,0.7261133,0.9999999,0.0,-8.731149e-10,-0.00057172775,1
4244000,4244000,0.6874124,0.0018278557,-0.0155011425,0.72609967,0.9999999,0.0,-8.731149e-10,-0.00057172775,1
4248000,4248000,0.6874179,0.0018303244,-0.0154977,0.7260945,0.9999999,0.0,-8.731149e-10,-0.00057172775,1
4252000,4252000,0.68742424,0.0018276009,-0.015496658,0.72608846,0.9999999,0.0,-8.731149e-10,-0.00057172775,1
4256000,4256000,0.68743193,0.0018161845,-0.015494079,0.72608125,0.9999999,0.0,-8.731149e-10,-0.00057172775,1
4260000,4260000,0.68744045,0.0018042332,-0.015485109,0.72607344,0.9999999,0.0,-8.731149e-10,-0.00057172775,1
4264000,4264000,0.6874477,0.0017997758,-0.015476042,0.7260667,0.9999999,0.0,-8.731149e-10,-0.00057172775,1
4268000,4268000,0.6874527,0.0017983215,-0.015468404,0.7260622,0.9999999,0.0,-8.731149e-10,-0.00057172775,1
4276000,4276000,0.68745863,0.0017867987,-0.015450404,0.726057,0.9999999,0.0,-8.731149e-10,-0.00057172775,1
4280000,4280000,0.68746185,0.0017811158,-0.015447074,0.726054,0.9999999,0.0,-8.731149e-10,-0.00057172775,1
4284000,4284000,0.6874638,0.0017785841,-0.015449687,0.7260521,0.9999999,0.0,-8.731149e-10,-0.00057172775,1
4288000,4288000,0.68746555,0.0017735952,-0.015455213,0.7260503,0.9999999,0.0,-8.731149e-10,-0.00057172775,1
4292000,4292000,0.6874709,0.0017661958,-0.015452512,0.7260453,0.9999999,0.0,-8.731149e-10,-0.00057172775,1
4296000,4296000,0.68747723,0.0017610423,-0.015444682,0.7260395,0.9999999,0.0,-8.731149e-10,-0.00057172775,1
4300000,4300000,0.68747926,0.0017584848,-0.015438673,0.72603774,0.9999999,0.0,-8.731149e-10,-0.00057172775,1
4304000,4304000,0.6874698,0.0017576932,-0.015434315,0.72604686,0.9999999,0.0,-8.731149e-10,-0.00057172775,1
4308000,4308000,0.68746185,0.0017547377,-0.015432274,0.72605443,0.9999999,0.0,-8.731149e-10,-0.00057172775,1
4312000,4312000,0.68745375,0.001749308,-0.015432394,0.7260621,0.9999999,0.0,-8.731149e-10,-0.00057172775,1
4320000,4320000,0.687439,0.0017485402,-0.015424659,0.72607625,0.9999999,0.0,-8.731149e-10,-0.00057172775,1
4328000,4328000,0.68742406,0.001752575,-0.015420204,0.7260905,0.9999999,0.0,-8.731149e-10,-0.00057172775,1
4332000,4332000,0.6874162,0.0017536844,-0.015417907,0.726098,0.9999999,0.0,-8.731149e-10,-0.00057172775,1
4336000,4336000,0.68741065,0.0017545306,-0.015415399,0.7261033,0.9999999,0.0,-8.731149e-10,-0.00057172775,1
4340000,4340000,0.6874066,0.0017557755,-0.015412499,0.7261071,0.9999999,0.0,-8.731149e-10,-0.00057172775,1
4344000,4344000,0.6874007,0.0017570975,-0.015412001,0.7261127,0.9999999,0.0,-8.731149e-10,-0.00057172775,1
4348000,4348000,0.68739295,0.0017527214,-0.015411286,0.72612005,0.9999999,0.0,-8.731149e-10,-0.00057172775,1
4352000,4352000,0.6873856,0.0017487368,-0.015409542,0.726127,0.9999999,0.0,-8.731149e-10,-0.00057172775,1
4356000,4356000,0.68737864,0.0017496852,-0.015408794,0.72613364,0.9999999,0.0,-8.731149e-10,-0.00057172775,1
4360000,4360000,0.6873696,0.0017399554,-0.015401353,0.7261424,0.9999999,0.0,-8.731149e-10,-0.00057172775,1
4364000,4364000,0.6873605,0.0017303082,-0.015396924,0.7261511,0.9999999,0.0,-8.731149e-10,-0.00057172775,1
4372000,4372000,0.68734384,0.0017154159,-0.015376917,0.72616744,0.9999999,0.0,-8.731149e-10,-0.00057172775,1
4376000,4376000,0.68733907,0.0017105223,-0.0153654395,0.72617215,0.9999999,0.0,-8.731149e-10,-0.00057172775,1
4380000,4380000,0.6873324,0.0017056293,-0.0153554715,0.7261787,0.9999999,0.0,-8.731149e-10,-0.00057172775,1
4384000,4384000,0.6873244,0.0017008706,-0.015343512,0.7261866,0.9999999,0.0,-8.731149e-10,-0.00057172775,1
4388000,4388000,0.6873214,0.0016976616,-0.015329239,0.7261897,0.9999999,0.0,-8.731149e-10,-0.00057172775,1
4396000,4396000,0.6873193,0.0016779237,-0.0153045375,0.7261923,0.9999999,0.0,-8.731149e-10,-0.00057172775,1
4400000,4400000,0.6873158,0.001667271,-0.015294859,0.7261958,0.9999999,0.0,-8.731149e-10,-0.00057172775,1
4404000,4404000,0.6873123,0.0016581449,-0.015285892,0.7261993,0.9999999,0.0,-8.731149e-10,-0.00057172775,1
4412000,4412000,0.6873024,0.0016456794,-0.015267011,0.72620904,0.9999999,0.0,-8.731149e-10,-0.00057172775,1
4416000,4416000,0.68729776,0.0016355113,-0.015254995,0.72621375,0.9999999,0.0,-8.731149e-10,-0.00057172775,1
4420000,4420000,0.6872924,0.0016234345,-0.015242657,0.7262192,0.9999999,0.0,-8.731149e-10,-0.00057172775,1
4424000,4424000,0.6872881,0.0016140534,-0.015229224,0.7262235,0.9999999,0.0,-8.731149e-10,-0.00057172775,1
4428000,4428000,0.6872858,0.0016080698,-0.015214563,0.7262261,0.9999999,0.0,-8.731149e-10,-0.00057172775,1
4432000,4432000,0.6872842,0.0016014783,-0.015203021,0.7262278,0.9999999,0.0,-8.731149e-10,-0.00057172775,1
4436000,4436000,0.6872806,0.0015968011,-0.015194065,0.7262314,0.9999999,0.0,-8.731149e-10,-0.00057172775,1
4440000,4440000,0.68727595,0.0015924494,-0.01518328,0.72623605,0.9999999,0.0,-8.731149e-10,-0.00057172775,1
4444000,4444000,0.6872729,0.0015828391,-0.0151718855,0.72623914,0.9999999,0.0,-8.731149e-10,-0.00057172775,1
4448000,4448000,0.6872994,0.0015719378,-0.015163372,0.72621435,0.9999999,0.0,-8.731149e-10,-0.00057172775,1
4452000,4452000,0.6873269,0.0015615305,-0.015158233,0.72618836,0.9999999,0.0,-8.731149e-10,-0.00057172775,1
4460000,4460000,0.68737924,0.0015471994,-0.015141869,0.72613925,0.9999999,0.0,-8.731149e-10,-0.00057172775,1
4468000,4468000,0.68742925,0.001529135,-0.01511778,0.7260924,0.9999999,0.0,-8.731149e-10,-0.00057172775,1
4472000,4472000,0.68745613,0.0015182722,-0.015108071,0.7260672,0.9999999,0.0,-8.731149e-10,-0.00057172775,1
4476000,4476000,0.68748266,0.0015040032,-0.015098079,0.7260423,0.9999999,0.0,-8.731149e-10,-0.00057172775,1
4480000,4480000,0.6875095,0.0014886273,-0.015094414,0.726017,0.9999999,0.0,-8.731149e-10,-0.00057172775,1
4484000,4484000,0.68753666,0.0014756002,-0.015093699,0.7259913,0.9999999,0.0,-8.731149e-10,-0.00057172775,1
4492000,4492000,0.687594,0.0014520818,-0.015084426,0.7259373,0.9999999,0.0,-8.731149e-10,-0.00057172775,1
4500000,4500000,0.6876495,0.0014285904,-0.015076032,0.7258849,0.9999999,0.0,-8.731149e-10,-0.00057172775,1
4504000,4504000,0.68767554,0.0014198289,-0.015071435,0.7258603,0.9999999,0.0,-8.731149e-10,-0.00057172775,1
4508000,4508000,0.68770003,0.0014125208,-0.015066048,0.72583723,0.9999999,0.0,-8.731149e-10,-0.00057172775,1
4516000,4516000,0.6877471,0.0014033477,-0.015062014,0.72579277,0.9999999,0.0,-8.731149e-10,-0.00057172775,1
4524000,4524000,0.68779343,0.001396653,-0.015060265,0.72574896,0.9999999,0.0,-8.731149e-10,-0.00057172775,1
4532000,4532000,0.68784213,0.001396275,-0.015052776,0.725703,0.9999999,0.0,-8.731149e-10,-0.00057172775,1
4536000,4536000,0.68786263,0.001392407,-0.0150470715,0.72568357,0.9999999,0.0,-8.731149e-10,-0.00057172775,1
4540000,4540000,0.68788445,0.0013837399,-0.015044134,0.72566307,0.9999999,0.0,-8.731149e-10,-0.00057172775,1
4544000,4544000,0.68790925,0.0013776544,-0.01504355,0.7256396,0.9999999,0.0,-8.731149e-10,-0.00057172775,1
4548000,4548000,0.687934,0.0013746609,-0.015045898,0.7256161,0.9999999,0.0,-8.731149e-10,-0.00057172775,1
4556000,4556000,0.68797576,0.0013627936,-0.015049527,0.72557634,0.9999999,0.0,-8.731149e-10,-0.00057172775,1
4564000,4564000,0.6880212,0.0013542045,-0.0150355715,0.72553355,0.9999999,0.0,-8.731149e-10,-0.00057172775,1
4572000,4572000,0.68806404,0.0013345217,-0.0150135225,0.7254935,0.9999999,0.0,-8.731149e-10,-0.00057172775,1
4576000,4576000,0.688083,0.0013247018,-0.015004367,0.72547567,0.9999999,0.0,-8.731149e-10,-0.00057172775,1
4580000,4580000,0.68810165,0.0013115555,-0.014997937,0.72545815,0.9999999,0.0,-8.731149e-10,-0.00057172775,1
4584000,4584000,0.68811715,0.0012990676,-0.014990692,0.7254436,0.9999999,0.0,-8.731149e-10,-0.00057172775,1
4588000,4588000,0.68813103,0.0012899259,-0.014982984,0.7254306,0.9999999,0.0,-8.731149e-10,-0.00057172775,1
4596000,4596000,0.6881652,0.0012694941,-0.014961049,0.7253987,0.9999999,0.0,-8.731149e-10,-0.00057172775,1
4600000,4600000,0.68818045,0.0012604472,-0.014949078,0.72538453,0.9999999,0.0,-8.731149e-10,-0.00057172775,1
4604000,4604000,0.6881972,0.0012503918,-0.014940521,0.7253688,0.9999999,0.0,-8.731149e-10,-0.00057172775,1
4612000,4612000,0.6882312,0.0012268674,-0.014915665,0.725337,0.9999999,0.0,-8.731149e-10,-0.00057172775,1
4616000,4616000,0.6882449,0.0012202316,-0.014905188,0.7253243,0.9999999,0.0,-8.731149e-10,-0.00057172775,1
4620000,4620000,0.68825775,0.0012136787,-0.01489848,0.7253123,0.9999999,0.0,-8.731149e-10,-0.00057172775,1
4624000,4624000,0.6882687,0.0012043548,-0.014894273,0.725302,0.9999999,0.0,-8.731149e-10,-0.00057172775,1
4632000,4632000,0.6882876,0.0011900264,-0.014887774,0.7252842,0.9999999,0.0,-8.731149e-10,-0.00057172775,1
4636000,4636000,0.6882971,0.0011845885,-0.014882102,0.72527534,0.9999999,0.0,-8.731149e-10,-0.00057172775,1
4640000,4640000,0.6883029,0.0011762255,-0.0148766255,0.7252699,0.9999999,0.0,-8.731149e-10,-0.00057172775,1
4644000,4644000,0.68830806,0.0011669559,-0.014865901,0.7252653,0.9999999,0.0,-8.731149e-10,-0.00057172775,1
4648000,4648000,0.68831456,0.001157425,-0.014853386,0.72525936,0.9999999,0.0,-8.731149e-10,-0.00057172775,1
4652000,4652000,0.68832296,0.0011473579,-0.014847666,0.7252515,0.9999999,0.0,-8.731149e-10,-0.00057172775,1
4656000,4656000,0.68832934,0.0011397002,-0.014844231,0.7252456,0.9999999,0.0,-8.731149e-10,-0.00057172775,1
4660000,4660000,0.6883329,0.0011349594,-0.014839214,0.7252423,0.9999999,0.0,-8.731149e-10,-0.00057172775,1
4668000,4668000,0.68834174,0.00112547,-0.014829694,0.72523415,0.9999999,0.0,-8.731149e-10,-0.00057172775,1
4676000,4676000,0.6883522,0.00110786,-0.014818223,0.72522444,0.9999999,0.0,-8.731149e-10,-0.00057172775,1
4684000,4684000,0.68835104,0.0010969689,-0.014807411,0.7252258,0.9999999,0.0,-8.731149e-10,-0.00057172775,1
4688000,4688000,0.688354,0.001096117,-0.014805909,0.72522295,0.9999999,0.0,-8.731149e-10,-0.00057172775,1
4696000,4696000,0.68836355,0.0010792362,-0.014793569,0.72521424,0.9999999,0.0,-8.731149e-10,-0.00057172775,1
4700000,4700000,0.68836564,0.0010711733,-0.014788175,0.7252124,0.9999999,0.0,-8.731149e-10,-0.00057172775,1
4704000,4704000,0.68836904,0.0010662471,-0.014784256,0.7252093,0.9999999,0.0,-8.731149e-10,-0.00057172775,1
4708000,4708000,0.68837273,0.0010624678,-0.014780684,0.72520584,0.9999999,0.0,-8.731149e-10,-0.00057172775,1
4712000,4712000,0.68837434,0.0010587128,-0.014777911,0.72520435,0.9999999,0.0,-8.731149e-10,-0.00057172775,1
4716000,4716000,0.6883741,0.0010515403,-0.014775605,0.72520465,0.9999999,0.0,-8.731149e-10,-0.00057172775,1
4720000,4720000,0.6883702,0.0010443127,-0.014772586,0.72520834,0.9999999,0.0,-8.731149e-10,-0.00057172775,1
4724000,4724000,0.688366,0.0010411498,-0.0147668235,0.7252125,0.9999999,0.0,-8.731149e-10,-0.00057172775,1
4728000,4728000,0.6883624,0.0010399624,-0.014762924,0.72521603,0.9999999,0.0,-8.731149e-10,-0.00057172775,1
4732000,4732000,0.6883587,0.001042618,-0.014761936,0.7252195,0.9999999,0.0,-8.731149e-10,-0.00057172775,1
4736000,4736000,0.6883602,0.0010479831,-0.014762023,0.72521806,0.9999999,0.0,-8.731149e-10,-0.00057172775,1
4740000,4740000,0.6883664,0.0010489642,-0.014763727,0.7252122,0.9999999,0.0,-8.731149e-10,-0.00057172775,1
4748000,4748000,0.68837804,0.00104936,-0.014765673,0.72520113,0.9999999,0.0,-8.731149e-10,-0.00057172775,1
4752000,4752000,0.68837935,0.0010460373,-0.014766345,0.7251998,0.9999999,0.0,-8.731149e-10,-0.00057172775,1
4756000,4756000,0.68837684,0.0010411694,-0.014768569,0.7252022,0.9999999,0.0,-8.731149e-10,-0.00057172775,1
4760000,4760000,0.6883776,0.0010347675,-0.014769279,0.7252014,0.9999999,0.0,-8.731149e-10,-0.00057172775,1
4764000,4764000,0.6883815,0.0010291619,-0.014769213,0.72519773,0.9999999,0.0,-8.731149e-10,-0.00057172775,1
4768000,4768000,0.68838286,0.001025725,-0.014770539,0.7251965,0.9999999,0.0,-8.731149e-10,-0.00057172775,1
4772000,4772000,0.6883827,0.0010191861,-0.0147696845,0.72519666,0.9999999,0.0,-8.731149e-10,-0.00057172775,1
4776000,4776000,0.68838567,0.0010115824,-0.014761212,0.725194,0.9999999,0.0,-8.731149e-10,-0.00057172775,1
4780000,4780000,0.68839437,0.0010097339,-0.014752207,0.7251859,0.9999999,0.0,-8.731149e-10,-0.00057172775,1
4784000,4784000,0.6884049,0.0010100347,-0.014742245,0.7251761,0.9999999,0.0,-8.731149e-10,-0.00057172775,1
4788000,4788000,0.68841046,0.0010072414,-0.01473312,0.725171,0.9999999,0.0,-8.731149e-10,-0.00057172775,1
4796000,4796000,0.6884124,0.0010035292,-0.014718257,0.7251694,0.9999999,0.0,-8.731149e-10,-0.00057172775,1
4800000,4800000,0.68841326,0.0009980601,-0.014708848,0.7251689,0.9999999,0.0,-8.731149e-10,-0.00057172775,1
4804000,4804000,0.6884149,0.0009925676,-0.014697932,0.7251676,0.9999999,0.0,-8.731149e-10,-0.00057172775,1
4812000,4812000,0.6884308,0.0009836571,-0.014685744,0.7251528,0.9999999,0.0,-8.731149e-10,-0.00057172775,1
4816000,4816000,0.68843615,0.0009814717,-0.014682557,0.72514766,0.9999999,0.0,-8.731149e-10,-0.00057172775,1
4820000,4820000,0.6884419,0.0009845257,-0.01467773,0.7251423,0.9999999,0.0,-8.731149e-10,-0.00057172775,1
4824000,4824000,0.68844724,0.0009853543,-0.014668561,0.7251374,0.9999999,0.0,-8.731149e-10,-0.00057172775,1
4828000,4828000,0.6884504,0.000980807,-0.014657273,0.7251347,0.9999999,0.0,-8.731149e-10,-0.00057172775,1
4832000,4832000,0.6884542,0.0009768988,-0.014650214,0.7251312,0.9999999,0.0,-8.731149e-10,-0.00057172775,1
4836000,4836000,0.6884595,0.000976053,-0.0146438265,0.7251263,0.9999999,0.0,-8.731149e-10,-0.00057172775,1
4840000,4840000,0.68846524,0.000973328,-0.014632674,0.72512114,0.9999999,0.0,-8.731149e-10,-0.00057172775,1
4844000,4844000,0.68847215,0.0009686953,-0.014619687,0.7251148,0.9999999,0.0,-8.731149e-10,-0.00057172775,1
4848000,4848000,0.68847984,0.0009649368,-0.014606743,0.7251078,0.9999999,0.0,-8.731149e-10,-0.00057172775,1
4852000,4852000,0.68848556,0.00095998077,-0.014592702,0.7251026,0.9999999,0.0,-8.731149e-10,-0.00057172775,1
4856000,4856000,0.68848974,0.0009562623,-0.014580564,0.7250989,0.9999999,0.0,-8.731149e-10,-0.00057172775,1
4860000,4860000,0.6884992,0.00095655356,-0.014573593,0.72509,0.9999999,0.0,-8.731149e-10,-0.00057172775,1
4864000,4864000,0.6885141,0.00095748605,-0.014569575,0.725076,0.9999999,0.0,-8.731149e-10,-0.00057172775,1
4868000,4868000,0.68852586,0.00095984276,-0.01456477,0.72506493,0.9999999,0.0,-8.731149e-10,-0.00057172775,1
4872000,4872000,0.6885337,0.00096518896,-0.014559465,0.7250576,0.9999999,0.0,-8.731149e-10,-0.00057172775,1
4876000,4876000,0.68854314,0.00096900185,-0.014551937,0.7250487,0.9999999,0.0,-8.731149e-10,-0.00057172775,1
4880000,4880000,0.6885663,0.00096705003,-0.014545205,0.72502685,0.9999999,0.0,-8.731149e-10,-0.00057172775,1
4884000,4884000,0.688588,0.00096130255,-0.014538572,0.7250064,0.9999999,0.0,-8.731149e-10,-0.00057172775,1
4888000,4888000,0.68860894,0.0009607263,-0.014526839,0.72498673,0.9999999,0.0,-8.731149e-10,-0.00057172775,1
4896000,4896000,0.6886509,0.00097010005,-0.014501934,0.72494745,0.9999999,0.0,-8.731149e-10,-0.00057172775,1
4900000,4900000,0.68867,0.0009785441,-0.014490308,0.7249296,0.9999999,0.0,-8.731149e-10,-0.00057172775,1
4904000,4904000,0.6886895,0.0009874934,-0.014483142,0.72491115,0.9999999,0.0,-8.731149e-10,-0.00057172775,1
4908000,4908000,0.68871087,0.000993566,-0.014479814,0.7248908,0.9999999,0.0,-8.731149e-10,-0.00057172775,1
4916000,4916000,0.6887609,0.0010099775,-0.014472566,0.7248435,0.9999999,0.0,-8.731149e-10,-0.00057172775,1
4920000,4920000,0.688783,0.0010110846,-0.014466615,0.7248225,0.9999999,0.0,-8.731149e-10,-0.00057172775,1
4924000,4924000,0.68880135,0.0010075206,-0.014457776,0.72480524,0.9999999,0.0,-8.731149e-10,-0.00057172775,1
4932000,4932000,0.688841,0.0010028663,-0.014447442,0.72476786,0.9999999,0.0,-8.731149e-10,-0.00057172775,1
4936000,4936000,0.6888595,0.0010038415,-0.014440619,0.72475034,0.9999999,0.0,-8.731149e-10,-0.00057172775,1
4940000,4940000,0.688877,0.0010038879,-0.014427792,0.724734,0.9999999,0.0,-8.731149e-10,-0.00057172775,1
4948000,4948000,0.6889152,0.0010070978,-0.014405686,0.7246981,0.9999999,0.0,-8.731149e-10,-0.00057172775,1
4956000,4956000,0.6889428,0.0010104626,-0.014397391,0.7246721,0.9999999,0.0,-8.731149e-10,-0.00057172775,1
4964000,4964000,0.688964,0.0010140535,-0.014390776,0.72465205,0.9999999,0.0,-8.731149e-10,-0.00057172775,1
4968000,4968000,0.68897897,0.0010158431,-0.014384332,0.72463787,0.9999999,0.0,-8.731149e-10,-0.00057172775,1
4972000,4972000,0.6889921,0.0010197965,-0.014375579,0.72462565,0.9999999,0.0,-8.731149e-10,-0.00057172775,1
4980000,4980000,0.68901104,0.0010239875,-0.014366945,0.72460777,0.9999999,0.0,-8.731149e-10,-0.00057172775,1
4988000,4988000,0.6890289,0.0010302283,-0.014358568,0.72459096,0.9999999,0.0,-8.731149e-10,-0.00057172775,1
4996000,4996000,0.6890436,0.0010383137,-0.014350141,0.7245772,0.9999999,0.0,-8.731149e-10,-0.00057172775,1
5000000,5000000,0.6890494,0.0010450323,-0.0143405665,0.7245717,0.9999999,0.0,-8.731149e-10,-0.00057172775,1
5004000,5004000,0.6890565,0.0010510588,-0.014332516,0.7245651,0.9999999,0.0,-8.731149e-10,-0.00057172775,1
5008000,5008000,0.68906474,0.0010583396,-0.014327978,0.72455746,0.9999999,0.0,-8.731149e-10,-0.00057172775,1
5016000,5016000,0.68907875,0.001079967,-0.014309038,0.7245444,0.9999999,0.0,-8.731149e-10,-0.00057172775,1
5020000,5020000,0.689085,0.0010865951,-0.014301991,0.72453856,0.9999999,0.0,-8.731149e-10,-0.00057172775,1
5024000,5024000,0.6890827,0.001094853,-0.014294296,0.72454095,0.9999999,0.0,-8.731149e-10,-0.00057172775,1
5028000,5028000,0.6890807,0.0011057445,-0.014286157,0.724543,0.9999999,0.0,-8.731149e-10,-0.00057172775,1
5032000,5032000,0.6890811,0.0011126107,-0.014280105,0.72454274,0.9999999,0.0,-8.731149e-10,-0.00057172775,1
5036000,5036000,0.68908226,0.0011131205,-0.014275342,0.7245417,0.9999999,0.0,-8.731149e-10,-0.00057172775,1
5040000,5040000,0.68908024,0.0011101641,-0.014269629,0.72454375,0.9999999,0.0,-8.731149e-10,-0.00057172775,1
5048000,5048000,0.6890773,0.0011072234,-0.0142551875,0.7245468,0.9999999,0.0,-8.731149e-10,-0.00057172775,1
5052000,5052000,0.68907744,0.001113709,-0.01424818,0.7245468,0.9999999,0.0,-8.731149e-10,-0.00057172775,1
5056000,5056000,0.689076,0.0011201592,-0.014240487,0.72454834,0.9999999,0.0,-8.731149e-10,-0.00057172775,1
5060000,5060000,0.6890707,0.0011245847,-0.014230208,0.7245535,0.9999999,0.0,-8.731149e-10,-0.00057172775,1
5068000,5068000,0.6890538,0.0011433036,-0.01421629,0.7245699,0.9999999,0.0,-8.731149e-10,-0.00057172775,1
5072000,5072000,0.689045,0.0011467617,-0.014209373,0.7245784,0.9999999,0.0,-8.731149e-10,-0.00057172775,1
5076000,5076000,0.68903697,0.0011503107,-0.014205467,0.72458607,0.9999999,0.0,-8.731149e-10,-0.00057172775,1
5084000,5084000,0.68902916,0.0011601048,-0.0141980965,0.7245937,0.9999999,0.0,-8.731149e-10,-0.00057172775,1
5092000,5092000,0.6890158,0.0011624008,-0.014186144,0.7246066,0.9999999,0.0,-8.731149e-10,-0.00057172775,1
5096000,5096000,0.6890052,0.0011662631,-0.014176586,0.7246168,0.9999999,0.0,-8.731149e-10,-0.00057172775,1
5104000,5104000,0.68899345,0.0011716062,-0.014156251,0.72462845,0.9999999,0.0,-8.731149e-10,-0.00057172775,1
5108000,5108000,0.68899256,0.0011774348,-0.014153273,0.72462934,0.9999999,0.0,-8.731149e-10,-0.00057172775,1
5112000,5112000,0.688988,0.0011837168,-0.014152778,0.7246337,0.9999999,0.0,-8.731149e-10,-0.00057172775,1
5116000,5116000,0.68897724,0.0011867713,-0.014148603,0.7246439,0.9999999,0.0,-8.731149e-10,-0.00057172775,1
5120000,5120000,0.6889649,0.0011871338,-0.0141402045,0.7246558,0.9999999,0.0,-8.731149e-10,-0.00057172775,1
5124000,5124000,0.6889561,0.001188608,-0.014128383,0.7246644,0.9999999,0.0,-8.731149e-10,-0.00057172775,1
5132000,5132000,0.68894535,0.0012021811,-0.014110553,0.72467494,0.9999999,0.0,-8.731149e-10,-0.00057172775,1
5136000,5136000,0.68893975,0.0012058648,-0.014102499,0.7246804,0.9999999,0.0,-8.731149e-10,-0.00057172775,1
5140000,5140000,0.6889307,0.0012049634,-0.014094565,0.7246892,0.9999999,0.0,-8.731149e-10,-0.00057172775,1
5144000,5144000,0.68892115,0.0012038407,-0.014089864,0.72469836,0.9999999,0.0,-8.731149e-10,-0.00057172775,1
5148000,5148000,0.6889135,0.0012034703,-0.014083635,0.7247057,0.9999999,0.0,-8.731149e-10,-0.00057172775,1
5152000,5152000,0.68890744,0.0012039213,-0.014075712,0.7247117,0.9999999,0.0,-8.731149e-10,-0.00057172775,1
5160000,5160000,0.688897,0.0012096004,-0.0140648335,0.7247218,0.9999999,0.0,-8.731149e-10,-0.00057172775,1
5168000,5168000,0.68889874,0.0012072568,-0.0140635455,0.7247202,0.9999999,0.0,-8.731149e-10,-0.00057172775,1
5172000,5172000,0.6889059,0.0012089949,-0.014060075,0.72471344,0.9999999,0.0,-8.731149e-10,-0.00057172775,1
5176000,5176000,0.6889123,0.0012160058,-0.0140525,0.7247075,0.9999999,0.0,-8.731149e-10,-0.00057172775,1
5180000,5180000,0.68891793,0.0012204522,-0.014048383,0.72470224,0.9999999,0.0,-8.731149e-10,-0.00057172775,1
5188000,5188000,0.68892986,0.0012268134,-0.014048814,0.72469085,0.9999999,0.0,-8.731149e-10,-0.00057172775,1
5192000,5192000,0.6889359,0.001236814,-0.014044878,0.7246852,0.9999999,0.0,-8.731149e-10,-0.00057172775,1
5196000,5196000,0.68894225,0.0012431334,-0.014044048,0.7246791,0.9999999,0.0,-8.731149e-10,-0.00057172775,1
5204000,5204000,0.68895906,0.0012459612,-0.014040254,0.7246632,0.9999999,0.0,-8.731149e-10,-0.00057172775,1
5208000,5208000,0.6889671,0.001248329,-0.014031859,0.72465575,0.9999999,0.0,-8.731149e-10,-0.00057172775,1
5212000,5212000,0.6889751,0.0012518737,-0.0140253175,0.7246483,0.9999999,0.0,-8.731149e-10,-0.00057172775,1
5216000,5216000,0.6889813,0.0012544752,-0.0140196625,0.72464246,0.9999999,0.0,-8.731149e-10,-0.00057172775,1
5220000,5220000,0.6889883,0.0012556048,-0.014014797,0.72463584,0.9999999,0.0,-8.731149e-10,-0.00057172775,1
5228000,5228000,0.6890069,0.0012551722,-0.014012286,0.7246182,0.9999999,0.0,-8.731149e-10,-0.00057172775,1
5236000,5236000,0.68902224,0.0012601173,-0.014013205,0.7246037,0.9999999,0.0,-8.731149e-10,-0.00057172775,1
5240000,5240000,0.6890304,0.0012622982,-0.014003952,0.72459614,0.9999999,0.0,-8.731149e-10,-0.00057172775,1
5244000,5244000,0.68903965,0.0012652354,-0.013993924,0.72458744,0.9999999,0.0,-8.731149e-10,-0.00057172775,1
5248000,5248000,0.6890505,0.0012683324,-0.01399375,0.7245771,0.9999999,0.0,-8.731149e-10,-0.00057172775,1
5256000,5256000,0.68907136,0.0012732304,-0.013990855,0.72455734,0.9999999,0.0,-8.731149e-10,-0.00057172775,1
5260000,5260000,0.6890806,0.0012769272,-0.0139892185,0.7245486,0.9999999,0.0,-8.731149e-10,-0.00057172775,1
5268000,5268000,0.68909353,0.0012773316,-0.01398773,0.72453636,0.9999999,0.0,-8.731149e-10,-0.00057172775,1
5276000,5276000,0.68910575,0.0012869514,-0.013983449,0.72452474,0.9999999,0.0,-8.731149e-10,-0.00057172775,1
5280000,5280000,0.6891092,0.0012947273,-0.013982644,0.72452146,0.9999999,0.0,-8.731149e-10,-0.00057172775,1
5284000,5284000,0.68911266,0.0013028891,-0.013982207,0.7245182,0.9999999,0.0,-8.731149e-10,-0.00057172775,1
5288000,5288000,0.68911785,0.0013093733,-0.01398189,0.72451323,0.9999999,0.0,-8.731149e-10,-0.00057172775,1
5296000,5296000,0.6891362,0.0013129149,-0.01398269,0.72449577,0.9999999,0.0,-8.731149e-10,-0.00057172775,1
5300000,5300000,0.6891455,0.0013165799,-0.013979876,0.724487,0.9999999,0.0,-8.731149e-10,-0.00057172775,1
5304000,5304000,0.68915296,0.0013207948,-0.013977871,0.72447985,0.9999999,0.0,-8.731149e-10,-0.00057172775,1
5308000,5308000,0.6891624,0.0013224212,-0.0139763085,0.7244709,0.9999999,0.0,-8.731149e-10,-0.00057172775,1
5316000,5316000,0.689198,0.0013301334,-0.01397316,0.7244372,0.9999999,0.0,-8.731149e-10,-0.00057172775,1
5320000,5320000,0.6892145,0.0013367948,-0.013971204,0.72442144,0.9999999,0.0,-8.731149e-10,-0.00057172775,1
5324000,5324000,0.6892323,0.001341568,-0.013968165,0.72440463,0.9999999,0.0,-8.731149e-10,-0.00057172775,1
5328000,5328000,0.68924946,0.0013453885,-0.013964458,0.72438836,0.9999999,0.0,-8.731149e-10,-0.00057172775,1
5336000,5336000,0.68928105,0.0013419933,-0.013961524,0.7243584,0.9999999,0.0,-8.731149e-10,-0.00057172775,1
5340000,5340000,0.6892891,0.0013448516,-0.013963185,0.72435063,0.9999999,0.0,-8.731149e-10,-0.00057172775,1
5344000,5344000,0.68929774,0.0013491221,-0.013967126,0.72434235,0.9999999,0.0,-8.731149e-10,-0.00057172775,1
5348000,5348000,0.68930954,0.0013470055,-0.013969337,0.7243311,0.9999999,0.0,-8.731149e-10,-0.00057172775,1
5352000,5352000,0.689322,0.001341563,-0.013964901,0.72431934,0.9999999,0.0,-8.731149e-10,-0.00057172775,1
5356000,5356000,0.6893336,0.0013402188,-0.013959235,0.7243084,0.9999999,0.0,-8.731149e-10,-0.00057172775,1
5360000,5360000,0.68934304,0.0013436389,-0.013956139,0.7242994,0.9999999,0.0,-8.731149e-10,-0.00057172775,1
5364000,5364000,0.6893548,0.0013519885,-0.013952544,0.7242883,0.9999999,0.0,-8.731149e-10,-0.00057172775,1
5368000,5368000,0.689369,0.0013609774,-0.013948222,0.72427475,0.9999999,0.0,-8.731149e-10,-0.00057172775,1
5372000,5372000,0.6893833,0.0013665874,-0.0139443595,0.7242612,0.9999999,0.0,-8.731149e-10,-0.00057172775,1
5376000,5376000,0.68940055,0.0013729101,-0.013942027,0.72424495,0.9999999,0.0,-8.731149e-10,-0.00057172775,1
5380000,5380000,0.6894216,0.0013797114,-0.013940806,0.7242249,0.9999999,0.0,-8.731149e-10,-0.00057172775,1
5384000,5384000,0.68944544,0.0013818556,-0.013939731,0.7242022,0.9999999,0.0,-8.731149e-10,-0.00057172775,1
5388000,5388000,0.68946666,0.0013797787,-0.0139376335,0.72418207,0.9999999,0.0,-8.731149e-10,-0.00057172775,1
5392000,5392000,0.6894839,0.0013775103,-0.013935582,0.72416574,0.9999999,0.0,-8.731149e-10,-0.00057172775,1
5400000,5400000,0.689516,0.0013782599,-0.013932415,0.72413516,0.9999999,0.0,-8.731149e-10,-0.00057172775,1
5404000,5404000,0.6895307,0.0013807926,-0.013927171,0.72412133,0.9999999,0.0,-8.731149e-10,-0.00057172775,1
5412000,5412000,0.68956566,0.0013883879,-0.013914022,0.72408825,0.9999999,0.0,-8.731149e-10,-0.00057172775,1
5420000,5420000,0.6896006,0.0013921385,-0.013903268,0.7240552,0.9999999,0.0,-8.731149e-10,-0.00057172775,1
5424000,5424000,0.68961185,0.0013952317,-0.013901089,0.7240445,0.9999999,0.0,-8.731149e-10,-0.00057172775,1
5428000,5428000,0.68962157,0.0013989933,-0.013896638,0.7240353,0.9999999,0.0,-8.731149e-10,-0.00057172775,1
5432000,5432000,0.6896319,0.0014009273,-0.013888625,0.7240256,0.9999999,0.0,-8.731149e-10,-0.00057172775,1
5436000,5436000,0.6896431,0.0013987074,-0.013879585,0.7240151,0.9999999,0.0,-8.731149e-10,-0.00057172775,1
5440000,5440000,0.6896513,0.001396829,-0.013873191,0.72400737,0.9999999,0.0,-8.731149e-10,-0.00057172775,1
5444000,5444000,0.6896564,0.0013976826,-0.013873138,0.72400254,0.9999999,0.0,-8.731149e-10,-0.00057172775,1
5448000,5448000,0.6896616,0.0014009275,-0.013879822,0.7239975,0.9999999,0.0,-8.731149e-10,-0.00057172775,1
5452000,5452000,0.68966985,0.0014057556,-0.013887212,0.7239894,0.9999999,0.0,-8.731149e-10,-0.00057172775,1
5456000,5456000,0.6896769,0.0014071185,-0.013891309,0.7239827,0.9999999,0.0,-8.731149e-10,-0.00057172775,1
5460000,5460000,0.689684,0.0014061129,-0.013890943,0.72397596,0.9999999,0.0,-8.731149e-10,-0.00057172775,1
5464000,5464000,0.6896913,0.001407624,-0.013886378,0.7239691,0.9999999,0.0,-8.731149e-10,-0.00057172775,1
5468000,5468000,0.6896993,0.001409572,-0.013883684,0.7239614,0.9999999,0.0,-8.731149e-10,-0.00057172775,1
5476000,5476000,0.6897169,0.001414536,-0.013875644,0.7239448,0.9999999,0.0,-8.731149e-10,-0.00057172775,1
5484000,5484000,0.68973815,0.001424021,-0.013865232,0.7239247,0.9999999,0.0,-8.731149e-10,-0.00057172775,1
5488000,5488000,0.68974704,0.0014286931,-0.013867421,0.7239163,0.9999999,0.0,-8.731149e-10,-0.00057172775,1
5496000,5496000,0.68976086,0.0014282612,-0.013861156,0.72390324,0.9999999,0.0,-8.731149e-10,-0.00057172775,1
5504000,5504000,0.68976575,0.0014318965,-0.013860539,0.72389853,0.9999999,0.0,-8.731149e-10,-0.00057172775,1
5512000,5512000,0.68977094,0.0014341054,-0.013849115,0.7238938,0.9999999,0.0,-8.731149e-10,-0.00057172775,1
5516000,5516000,0.68977785,0.0014362584,-0.013844709,0.7238873,0.9999999,0.0,-8.731149e-10,-0.00057172775,1
5520000,5520000,0.6897843,0.0014369466,-0.013842631,0.7238812,0.9999999,0.0,-8.731149e-10,-0.00057172775,1
5524000,5524000,0.6897892,0.0014357499,-0.0138417315,0.72387654,0.9999999,0.0,-8.731149e-10,-0.00057172775,1
5528000,5528000,0.6897987,0.0014358432,-0.013837052,0.72386754,0.9999999,0.0,-8.731149e-10,-0.00057172775,1
5532000,5532000,0.68980867,0.0014381483,-0.013830058,0.72385824,0.9999999,0.0,-8.731149e-10,-0.00057172775,1
5536000,5536000,0.68981814,0.0014398001,-0.013827632,0.7238493,0.9999999,0.0,-8.731149e-10,-0.00057172775,1
5544000,5544000,0.68983716,0.0014409345,-0.013826628,0.7238311,0.9999999,0.0,-8.731149e-10,-0.00057172775,1
5552000,5552000,0.6898492,0.0014351335,-0.013825107,0.72381973,0.9999999,0.0,-8.731149e-10,-0.00057172775,1
5556000,5556000,0.6898543,0.00143148,-0.013825134,0.72381485,0.9999999,0.0,-8.731149e-10,-0.00057172775,1
5560000,5560000,0.6898614,0.001431648,-0.01382585,0.72380805,0.9999999,0.0,-8.731149e-10,-0.00057172775,1
5564000,5564000,0.6898697,0.0014329947,-0.013827665,0.7238002,0.9999999,0.0,-8.731149e-10,-0.00057172775,1
5568000,5568000,0.68987733,0.0014328595,-0.013831051,0.72379273,0.9999999,0.0,-8.731149e-10,-0.00057172775,1
5572000,5572000,0.68988615,0.0014319574,-0.013832948,0.7237843,0.9999999,0.0,-8.731149e-10,-0.00057172775,1
5576000,5576000,0.68989563,0.0014294889,-0.013831896,0.7237753,0.9999999,0.0,-8.731149e-10,-0.00057172775,1
5580000,5580000,0.6899058,0.001430047,-0.013830769,0.7237656,0.9999999,0.0,-8.731149e-10,-0.00057172775,1
5584000,5584000,0.6899159,0.0014309533,-0.013828529,0.723756,0.9999999,0.0,-8.731149e-10,-0.00057172775,1
5588000,5588000,0.68992406,0.0014276905,-0.013826768,0.72374827,0.9999999,0.0,-8.731149e-10,-0.00057172775,1
5592000,5592000,0.68993175,0.0014244565,-0.013826537,0.72374094,0.9999999,0.0,-8.731149e-10,-0.00057172775,1
5596000,5596000,0.6899406,0.0014238169,-0.013823604,0.7237326,0.9999999,0.0,-8.731149e-10,-0.00057172775,1
5604000,5604000,0.689957,0.0014190697,-0.013812218,0.7237172,0.9999999,0.0,-8.731149e-10,-0.00057172775,1
5608000,5608000,0.6899624,0.0014126644,-0.013810242,0.7237121,0.9999999,0.0,-8.731149e-10,-0.00057172775,1
5612000,5612000,0.6899651,0.0014051951,-0.013813195,0.7237095,0.9999999,0.0,-8.731149e-10,-0.00057172775,1
5620000,5620000,0.6899779,0.0013988632,-0.01381027,0.7236974,0.9999999,0.0,-8.731149e-10,-0.00057172775,1
5624000,5624000,0.68998456,0.0013965733,-0.013805608,0.7236911,0.9999999,0.0,-8.731149e-10,-0.00057172775,1
5628000,5628000,0.68999046,0.0013932559,-0.01380587,0.7236855,0.9999999,0.0,-8.731149e-10,-0.00057172775,1
5632000,5632000,0.68999636,0.0013922054,-0.013806102,0.72367984,0.9999999,0.0,-8.731149e-10,-0.00057172775,1
5636000,5636000,0.6900023,0.001391836,-0.013803304,0.7236742,0.9999999,0.0,-8.731149e-10,-0.00057172775,1
5640000,5640000,0.6900061,0.0013897353,-0.013800021,0.72367066,0.9999999,0.0,-8.731149e-10,-0.00057172775,1
5644000,5644000,0.69000834,0.0013883761,-0.013797479,0.72366863,0.9999999,0.0,-8.731149e-10,-0.00057172775,1
5648000,5648000,0.6900114,0.0013893162,-0.013795653,0.7236657,0.9999999,0.0,-8.731149e-10,-0.00057172775,1
5652000,5652000,0.6900164,0.0013914314,-0.013794174,0.723661,0.9999999,0.0,-8.731149e-10,-0.00057172775,1
5656000,5656000,0.6900223,0.0013905575,-0.013792785,0.7236554,0.9999999,0.0,-8.731149e-10,-0.00057172775,1
5660000,5660000,0.69002825,0.0013851835,-0.013792256,0.72364974,0.9999999,0.0,-8.731149e-10,-0.00057172775,1
5668000,5668000,0.690039,0.0013716349,-0.013784901,0.7236397,0.9999999,0.0,-8.731149e-10,-0.00057172775,1
5676000,5676000,0.6900384,0.0013626281,-0.013788421,0.7236402,0.9999999,0.0,-8.731149e-10,-0.00057172775,1
5680000,5680000,0.6900368,0.0013626788,-0.013792351,0.72364163,0.9999999,0.0,-8.731149e-10,-0.00057172775,1
5688000,5688000,0.6900376,0.0013613731,-0.013801007,0.7236406,0.9999999,0.0,-8.731149e-10,-0.00057172775,1
5692000,5692000,0.6900378,0.0013573102,-0.01380467,0.7236404,0.9999999,0.0,-8.731149e-10,-0.00057172775,1
5696000,5696000,0.69003594,0.0013536036,-0.013804839,0.7236422,0.9999999,0.0,-8.731149e-10,-0.00057172775,1
5700000,5700000,0.69003403,0.0013529266,-0.013805688,0.723644,0.9999999,0.0,-8.731149e-10,-0.00057172775,1
5704000,5704000,0.69003385,0.0013535039,-0.013806027,0.7236442,0.9999999,0.0,-8.731149e-10,-0.00057172775,1
5708000,5708000,0.6900364,0.0013544644,-0.01380447,0.72364175,0.9999999,0.0,-8.731149e-10,-0.00057172775,1
5712000,5712000,0.69004226,0.0013556416,-0.013805061,0.72363615,0.9999999,0.0,-8.731149e-10,-0.00057172775,1
5716000,5716000,0.6900473,0.0013534963,-0.013809122,0.72363126,0.9999999,0.0,-8.731149e-10,-0.00057172775,1
5720000,5720000,0.69004923,0.0013461001,-0.013812455,0.72362936,0.9999999,0.0,-8.731149e-10,-0.00057172775,1
5728000,5728000,0.6900514,0.0013354803,-0.013817029,0.7236273,0.9999999,0.0,-8.731149e-10,-0.00057172775,1
5732000,5732000,0.69005126,0.0013329126,-0.013814485,0.7236275,0.9999999,0.0,-8.731149e-10,-0.00057172775,1
5736000,5736000,0.6900494,0.0013301248,-0.013815221,0.72362924,0.9999999,0.0,-8.731149e-10,-0.00057172775,1
5740000,5740000,0.69004875,0.0013240154,-0.0138179185,0.72362983,0.9999999,0.0,-8.731149e-10,-0.00057172775,1
5744000,5744000,0.69003516,0.0013205672,-0.013819715,0.7236427,0.9999999,0.0,-8.731149e-10,-0.00057172775,1
5748000,5748000,0.6900208,0.0013223572,-0.013820635,0.72365636,0.9999999,0.0,-8.731149e-10,-0.00057172775,1
5756000,5756000,0.68999076,0.0013199776,-0.013817107,0.72368515,0.9999999,0.0,-8.731149e-10,-0.00057172775,1
5760000,5760000,0.6899775,0.0013152924,-0.0138209555,0.7236977,0.9999999,0.0,-8.731149e-10,-0.00057172775,1
5764000,5764000,0.6899635,0.0013098035,-0.0138233155,0.72371095,0.9999999,0.0,-8.731149e-10,-0.00057172775,1
5768000,5768000,0.689947,0.001303558,-0.013823318,0.7237267,0.9999999,0.0,-8.731149e-10,-0.00057172775,1
5772000,5772000,0.6899297,0.0012984005,-0.013822166,0.7237432,0.9999999,0.0,-8.731149e-10,-0.00057172775,1
5776000,5776000,0.6899137,0.0012941019,-0.013820116,0.7237585,0.9999999,0.0,-8.731149e-10,-0.00057172775,1
5780000,5780000,0.6899004,0.0012895237,-0.013819956,0.7237713,0.9999999,0.0,-8.731149e-10,-0.00057172775,1
5788000,5788000,0.68987286,0.001279255,-0.0138130225,0.7237976,0.9999999,0.0,-8.731149e-10,-0.00057172775,1
5792000,5792000,0.6898583,0.0012739381,-0.013806625,0.7238116,0.9999999,0.0,-8.731149e-10,-0.00057172775,1
5796000,5796000,0.68984216,0.0012694353,-0.013803977,0.7238271,0.9999999,0.0,-8.731149e-10,-0.00057172775,1
5800000,5800000,0.68982804,0.0012661767,-0.013800813,0.7238406,0.9999999,0.0,-8.731149e-10,-0.00057172775,1
5804000,5804000,0.689817,0.0012641334,-0.013798745,0.72385114,0.9999999,0.0,-8.731149e-10,-0.00057172775,1
5812000,5812000,0.6897936,0.0012626952,-0.013804898,0.72387344,0.9999999,0.0,-8.731149e-10,-0.00057172775,1
5816000,5816000,0.68977344,0.0012579823,-0.0138147995,0.72389245,0.9999999,0.0,-8.731149e-10,-0.00057172775,1
5824000,5824000,0.6897337,0.0012562512,-0.013822655,0.7239301,0.9999999,0.0,-8.731149e-10,-0.00057172775,1
5828000,5828000,0.6897153,0.0012574,-0.013821786,0.7239477,0.9999999,0.0,-8.731149e-10,-0.00057172775,1
5836000,5836000,0.68967944,0.0012523483,-0.013824589,0.72398174,0.9999999,0.0,-8.731149e-10,-0.00057172775,1
5840000,5840000,0.68966436,0.001249897,-0.013825918,0.72399616,0.9999999,0.0,-8.731149e-10,-0.00057172775,1
5844000,5844000,0.6896496,0.0012490319,-0.013830218,0.72401017,0.9999999,0.0,-8.731149e-10,-0.00057172775,1
5848000,5848000,0.68963414,0.0012461587,-0.013831964,0.72402483,0.9999999,0.0,-8.731149e-10,-0.00057172775,1
5852000,5852000,0.6896161,0.001240149,-0.013830775,0.72404206,0.9999999,0.0,-8.731149e-10,-0.00057172775,1
5856000,5856000,0.68959576,0.0012352644,-0.013830635,0.72406137,0.9999999,0.0,-8.731149e-10,-0.00057172775,1
5864000,5864000,0.68956095,0.0012320408,-0.013831268,0.7240946,0.9999999,0.0,-8.731149e-10,-0.00057172775,1
5868000,5868000,0.6895476,0.0012300143,-0.013834388,0.72410727,0.9999999,0.0,-8.731149e-10,-0.00057172775,1
5872000,5872000,0.6895343,0.0012268513,-0.013837113,0.72411984,0.9999999,0.0,-8.731149e-10,-0.00057172775,1
5876000,5876000,0.6895195,0.0012240261,-0.013839455,0.7241339,0.9999999,0.0,-8.731149e-10,-0.00057172775,1
5880000,5880000,0.6895032,0.0012241992,-0.013842439,0.7241494,0.9999999,0.0,-8.731149e-10,-0.00057172775,1
5884000,5884000,0.68948454,0.0012262196,-0.013845758,0.7241671,0.9999999,0.0,-8.731149e-10,-0.00057172775,1
5888000,5888000,0.68946457,0.0012254184,-0.013849873,0.724186,0.9999999,0.0,-8.731149e-10,-0.00057172775,1
5892000,5892000,0.68944854,0.0012205774,-0.013855213,0.72420114,0.9999999,0.0,-8.731149e-10,-0.00057172775,1
5900000,5900000,0.68941617,0.0012115287,-0.013862052,0.7242318,0.9999999,0.0,-8.731149e-10,-0.00057172775,1
5904000,5904000,0.68940294,0.0012047436,-0.013859356,0.7242445,0.9999999,0.0,-8.731149e-10,-0.00057172775,1
5908000,5908000,0.68939006,0.0011949542,-0.013856732,0.72425675,0.9999999,0.0,-8.731149e-10,-0.00057172775,1
5912000,5912000,0.68937546,0.0011895028,-0.013859519,0.72427064,0.9999999,0.0,-8.731149e-10,-0.00057172775,1
5916000,5916000,0.6893593,0.001186685,-0.013863373,0.72428596,0.9999999,0.0,-8.731149e-10,-0.00057172775,1
5924000,5924000,0.689334,0.00119324,-0.013863725,0.7243101,0.9999999,0.0,-8.731149e-10,-0.00057172775,1
5928000,5928000,0.68932235,0.0012035242,-0.013868494,0.72432107,0.9999999,0.0,-8.731149e-10,-0.00057172775,1
5932000,5932000,0.68931156,0.0012092682,-0.013871868,0.72433126,0.9999999,0.0,-8.731149e-10,-0.00057172775,1
5940000,5940000,0.6892927,0.0012170149,-0.013870159,0.7243492,0.9999999,0.0,-8.731149e-10,-0.00057172775,1
5948000,5948000,0.68927103,0.001225674,-0.013869681,0.72436976,0.9999999,0.0,-8.731149e-10,-0.00057172775,1
5956000,5956000,0.6892545,0.0012317275,-0.013874289,0.72438544,0.9999999,0.0,-8.731149e-10,-0.00057172775,1
5964000,5964000,0.6892409,0.0012372632,-0.0138771515,0.7243984,0.9999999,0.0,-8.731149e-10,-0.00057172775,1
5972000,5972000,0.6892169,0.0012377411,-0.013874261,0.7244212,0.9999999,0.0,-8.731149e-10,-0.00057172775,1
5976000,5976000,0.6892082,0.0012401504,-0.013870942,0.72442955,0.9999999,0.0,-8.731149e-10,-0.00057172775,1
5984000,5984000,0.68919295,0.0012396381,-0.0138722295,0.7244441,0.9999999,0.0,-8.731149e-10,-0.00057172775,1
5988000,5988000,0.6891845,0.0012341953,-0.013867857,0.72445214,0.9999999,0.0,-8.731149e-10,-0.00057172775,1
5996000,5996000,0.6891732,0.0012262112,-0.013859194,0.72446305,0.9999999,0.0,-8.731149e-10,-0.00057172775,1
6004000,6004000,0.6891686,0.0012248667,-0.013849015,0.7244677,0.9999999,0.0,-8.731149e-10,-0.00057172775,1
6008000,6008000,0.6891622,0.0012269308,-0.013848285,0.7244738,0.9999999,0.0,-8.731149e-10,-0.00057172775,1
6012000,6012000,0.6891539,0.0012225109,-0.013845836,0.7244817,0.9999999,0.0,-8.731149e-10,-0.00057172775,1
6016000,6016000,0.6891491,0.0012185662,-0.013842149,0.72448635,0.9999999,0.0,-8.731149e-10,-0.00057172775,1
6024000,6024000,0.68913996,0.0012179826,-0.013842489,0.724495,0.9999999,0.0,-8.731149e-10,-0.00057172775,1
6028000,6028000,0.68913656,0.0012166337,-0.013838345,0.7244983,0.9999999,0.0,-8.731149e-10,-0.00057172775,1
6036000,6036000,0.68911964,0.0012191514,-0.013838853,0.7245145,0.9999999,0.0,-8.731149e-10,-0.00057172775,1
6040000,6040000,0.6891102,0.0012144692,-0.013841447,0.7245234,0.9999999,0.0,-8.731149e-10,-0.00057172775,1
6044000,6044000,0.68910044,0.001207116,-0.01384298,0.7245327,0.9999999,0.0,-8.731149e-10,-0.00057172775,1
6052000,6052000,0.6890811,0.0011982637,-0.013850668,0.7245509,0.9999999,0.0,-8.731149e-10,-0.00057172775,1
6056000,6056000,0.68907005,0.0011925302,-0.0138550345,0.7245613,0.9999999,0.0,-8.731149e-10,-0.00057172775,1
6060000,6060000,0.68906057,0.0011872876,-0.0138627775,0.7245702,0.9999999,0.0,-8.731149e-10,-0.00057172775,1
6064000,6064000,0.68905115,0.0011831404,-0.013867806,0.7245791,0.9999999,0.0,-8.731149e-10,-0.00057172775,1
6068000,6068000,0.6890398,0.0011815064,-0.013869382,0.7245899,0.9999999,0.0,-8.731149e-10,-0.00057172775,1
6072000,6072000,0.68902963,0.0011821425,-0.013869348,0.7245995,0.9999999,0.0,-8.731149e-10,-0.00057172775,1
6076000,6076000,0.6890203,0.0011808638,-0.013867479,0.7246084,0.9999999,0.0,-8.731149e-10,-0.00057172775,1
6084000,6084000,0.68900317,0.0011742682,-0.0138648935,0.72462475,0.9999999,0.0,-8.731149e-10,-0.00057172775,1
6092000,6092000,0.6889902,0.0011737567,-0.013859823,0.7246372,0.9999999,0.0,-8.731149e-10,-0.00057172775,1
6100000,6100000,0.68897575,0.0011745234,-0.013860315,0.724651,0.9999999,0.0,-8.731149e-10,-0.00057172775,1
6104000,6104000,0.68897057,0.001179102,-0.013864567,0.72465575,0.9999999,0.0,-8.731149e-10,-0.00057172775,1
6108000,6108000,0.68896395,0.0011854101,-0.013863883,0.7246621,0.9999999,0.0,-8.731149e-10,-0.00057172775,1
6112000,6112000,0.68896025,0.0011869221,-0.013862103,0.7246656,0.9999999,0.0,-8.731149e-10,-0.00057172775,1
6116000,6116000,0.6889598,0.0011810588,-0.013864275,0.72466606,0.9999999,0.0,-8.731149e-10,-0.00057172775,1
6120000,6120000,0.6889575,0.0011766648,-0.013864074,0.7246682,0.9999999,0.0,-8.731149e-10,-0.00057172775,1
6124000,6124000,0.6889521,0.0011797603,-0.013864443,0.7246734,0.9999999,0.0,-8.731149e-10,-0.00057172775,1
6132000,6132000,0.6889434,0.0011862874,-0.013872553,0.72468144,0.9999999,0.0,-8.731149e-10,-0.00057172775,1
6136000,6136000,0.6889395,0.00118233,-0.0138718225,0.7246852,0.9999999,0.0,-8.731149e-10,-0.00057172775,1
6140000,6140000,0.68893415,0.0011781907,-0.013865071,0.72469044,0.9999999,0.0,-8.731149e-10,-0.00057172775,1
6144000,6144000,0.68892765,0.0011770915,-0.013858178,0.72469676,0.9999999,0.0,-8.731149e-10,-0.00057172775,1
6152000,6152000,0.68891925,0.001181206,-0.013850191,0.72470486,0.9999999,0.0,-8.731149e-10,-0.00057172775,1
6156000,6156000,0.6889171,0.0011791926,-0.013846642,0.724707,0.9999999,0.0,-8.731149e-10,-0.00057172775,1
6160000,6160000,0.68891764,0.0011766006,-0.013846055,0.7247065,0.9999999,0.0,-8.731149e-10,-0.00057172775,1
6164000,6164000,0.6889182,0.0011755718,-0.01384769,0.724706,0.9999999,0.0,-8.731149e-10,-0.00057172775,1
6168000,6168000,0.68891835,0.0011768014,-0.013847702,0.7247058,0.9999999,0.0,-8.731149e-10,-0.00057172775,1
6172000,6172000,0.6889196,0.0011780721,-0.013848464,0.7247045,0.9999999,0.0,-8.731149e-10,-0.00057172775,1
6176000,6176000,0.6889384,0.0011757391,-0.0138511015,0.7246866,0.9999999,0.0,-8.731149e-10,-0.00057172775,1
6180000,6180000,0.6889572,0.0011711281,-0.013853042,0.72466874,0.9999999,0.0,-8.731149e-10,-0.00057172775,1
6184000,6184000,0.68897754,0.0011711441,-0.013856315,0.7246493,0.9999999,0.0,-8.731149e-10,-0.00057172775,1
6188000,6188000,0.6889978,0.0011742288,-0.013861771,0.72462994,0.9999999,0.0,-8.731149e-10,-0.00057172775,1
6192000,6192000,0.6890173,0.0011764753,-0.013862673,0.7246114,0.9999999,0.0,-8.731149e-10,-0.00057172775,1
6196000,6196000,0.68903565,0.0011788768,-0.013855659,0.72459406,0.9999999,0.0,-8.731149e-10,-0.00057172775,1
6200000,6200000,0.68905395,0.0011790404,-0.013847899,0.7245768,0.9999999,0.0,-8.731149e-10,-0.00057172775,1
6204000,6204000,0.689073,0.0011774404,-0.013844326,0.7245587,0.9999999,0.0,-8.731149e-10,-0.00057172775,1
6212000,6212000,0.68911034,0.0011805559,-0.013845967,0.7245232,0.9999999,0.0,-8.731149e-10,-0.00057172775,1
6216000,6216000,0.6891275,0.001178375,-0.013847593,0.7245068,0.9999999,0.0,-8.731149e-10,-0.00057172775,1
6220000,6220000,0.6891448,0.0011715067,-0.013842556,0.72449046,0.9999999,0.0,-8.731149e-10,-0.00057172775,1
6224000,6224000,0.68916386,0.0011695343,-0.013834718,0.7244726,0.9999999,0.0,-8.731149e-10,-0.00057172775,1
6228000,6228000,0.689182,0.0011748223,-0.013831596,0.72445536,0.9999999,0.0,-8.731149e-10,-0.00057172775,1
6232000,6232000,0.6891983,0.0011759176,-0.013834921,0.72443974,0.9999999,0.0,-8.731149e-10,-0.00057172775,1
6236000,6236000,0.6892166,0.0011695389,-0.013839183,0.7244222,0.9999999,0.0,-8.731149e-10,-0.00057172775,1
6240000,6240000,0.6892371,0.0011616279,-0.013839684,0.7244028,0.9999999,0.0,-8.731149e-10,-0.00057172775,1
6244000,6244000,0.6892584,0.0011536379,-0.013836417,0.7243826,0.9999999,0.0,-8.731149e-10,-0.00057172775,1
6248000,6248000,0.6892756,0.0011480269,-0.013831566,0.7243663,0.9999999,0.0,-8.731149e-10,-0.00057172775,1
6252000,6252000,0.68929315,0.0011481171,-0.013828456,0.7243497,0.9999999,0.0,-8.731149e-10,-0.00057172775,1
6256000,6256000,0.68930954,0.0011516451,-0.013827118,0.72433406,0.9999999,0.0,-8.731149e-10,-0.00057172775,1
6260000,6260000,0.6893228,0.0011551703,-0.013828044,0.72432137,0.9999999,0.0,-8.731149e-10,-0.00057172775,1
