timestamp,timestamp_sample,time_last_fuse,device_id,observation,observation_variance,innovation,innovation_variance,test_ratio,estimator_instance,fusion_enabled,innovation_rejected,fused
3340000,3257923,0,0,-0.0014953613,12.25,3.0745286e-06,112.42326,3.3632637e-15,0,0,0,0
3404000,3318907,0,0,-0.0368042,12.25,0.038030624,112.25,5.153954e-07,0,0,0,0
3460000,3379031,0,0,0.029724121,12.25,-0.029129816,112.25,3.0237726e-07,0,0,0,0
3524000,3439060,0,0,-0.03778076,12.25,0.03715014,112.25,4.918069e-07,0,0,0,0
3580000,3499158,0,0,-0.03253174,12.25,0.033453934,62.249985,7.191428e-07,0,0,0,0
3644000,3559183,0,0,0.13128662,12.25,-0.13045645,62.249985,1.0935832e-05,0,0,0,0
3700000,3619283,0,0,-0.012939453,12.25,0.013571668,62.249985,1.1835517e-07,0,0,0,0
3764000,3679305,0,0,-0.007873535,12.25,0.007980382,45.58333,5.588578e-08,0,0,0,0
3820000,3738384,0,0,-0.024383545,12.25,0.024101624,45.58333,5.097375e-07,0,0,0,0
3884000,3799402,0,0,0.14230347,12.25,-0.14310999,45.58333,1.7971895e-05,0,0,0,0
3940000,3859470,0,0,0.03451538,12.25,-0.035837434,45.58337,1.127009e-06,0,0,0,0
4004000,3919486,3924000,0,-0.1532898,12.25,0.15173084,37.250053,2.472184e-05,0,0,0,0
4060000,3979540,3980000,0,-0.07733154,12.25,0.07518103,37.250107,6.0694456e-06,0,1,0,1
4116000,4035553,4036000,0,-0.072631836,12.25,0.019332565,20.47152,7.302791e-07,0,1,0,1
4172000,4087592,4092000,0,-0.039794922,12.25,-0.022022087,17.169731,1.1298309e-06,0,1,0,1
4228000,4147616,4148000,0,-0.030395508,12.25,-0.025760692,15.7600975,1.6842872e-06,0,1,0,1
4292000,4207649,4212000,0,-0.030395508,12.25,-0.020943455,14.978397,1.1713624e-06,0,1,0,1
4348000,4265670,4268000,0,0.091674805,12.25,-0.14008304,14.481487,5.4202334e-05,0,1,0,1
4396000,4315689,4316000,0,-0.053863525,12.25,0.026616318,14.137697,2.004367e-06,0,1,0,1
4460000,4375716,4380000,0,-0.110198975,12.25,0.07841705,13.8857765,1.771376e-05,0,1,0,1
4516000,4435735,4436000,0,-0.053863525,12.25,0.011921048,13.69322,4.151292e-07,0,1,0,1
4580000,4494422,4500000,0,-0.020996094,12.25,-0.02332313,13.54131,1.6068414e-06,0,1,0,1
4636000,4555770,4556000,0,0.021240234,12.25,-0.063598305,13.418298,1.2057399e-05,0,1,0,1
4700000,4615790,4620000,0,0.025939941,12.25,-0.06382412,13.316827,1.22357005e-05,0,1,0,1
4756000,4675802,4676000,0,0.016571045,12.25,-0.05030891,13.23162,7.651328e-06,0,1,0,1
4820000,4734486,4740000,0,-0.072631836,12.25,0.042567957,13.158968,5.508125e-06,0,1,0,1
4876000,4795830,4796000,0,-0.053863525,12.25,0.01997643,13.096473,1.2188252e-06,0,1,0,1
4940000,4855846,4860000,0,0.030639648,12.25,-0.06684624,13.042148,1.3704551e-05,0,1,0,1
4996000,4915854,4916000,0,-0.07733154,12.25,0.044268113,12.994421,6.03233e-06,0,1,0,1
5060000,4975868,4980000,0,-0.020996094,12.25,-0.014276914,12.951939,6.294974e-07,0,1,0,1
5116000,5035874,5036000,0,-0.01159668,12.25,-0.023744375,12.914303,1.7462664e-06,0,1,0,1
5180000,5095887,5100000,0,-0.035095215,12.25,-6.8694353e-06,12.880654,1.4654269e-13,0,1,0,1
5236000,5155892,5156000,0,0.058807373,12.25,-0.09323939,12.84983,2.7062099e-05,0,1,0,1
5300000,5215902,5220000,0,-0.0256958,12.25,-0.005272772,12.822357,8.673016e-08,0,1,0,1
5356000,5275908,5276000,0,-0.110198975,12.25,0.078651085,12.797321,1.9335273e-05,0,1,0,1
5420000,5335916,5340000,0,0.025939941,12.25,-0.061788913,12.774563,1.19546e-05,0,1,0,1
5476000,5395920,5396000,0,-0.04916382,12.25,0.016681854,12.752989,8.7284405e-07,0,1,0,1
5540000,5455927,5460000,0,-0.06326294,12.25,0.029292278,12.733786,2.6953103e-06,0,1,0,1
5596000,5515932,5516000,0,-0.04916382,12.25,0.013326764,12.716015,5.5867395e-07,0,1,0,1
5660000,5575938,5580000,0,0.0024719238,12.25,-0.037903827,12.698923,4.5254233e-06,0,1,0,1
5716000,5635942,5636000,0,0.12924194,12.25,-0.16403526,12.683639,8.4857566e-05,0,1,0,1
5780000,5695947,5700000,0,-0.030395508,12.25,0.00040023588,12.669542,5.0574445e-10,0,1,0,1
5836000,5753950,5756000,0,-0.124298096,12.25,0.09355598,12.656343,2.7662716e-05,0,1,0,1
5884000,5803953,5804000,0,-0.035095215,12.25,0.002565764,12.643015,2.0827768e-08,0,1,0,1
5948000,5863957,5868000,0,-0.035095215,12.25,0.0017288327,12.631533,9.464766e-09,0,1,0,1
6004000,5923959,5924000,0,0.007171631,12.25,-0.04128352,12.620706,5.4016923e-06,0,1,0,1
6068000,5983963,5988000,0,-0.06326294,12.25,0.03136779,12.609682,3.1212148e-06,0,1,0,1
6124000,6043965,6044000,0,-0.020996094,12.25,-0.012427155,12.60008,4.9026414e-07,0,1,0,1
6188000,6103968,6108000,0,-0.0069274902,12.25,-0.026896976,12.591162,2.2982701e-06,0,1,0,1
6244000,6163970,6164000,0,-0.039794922,12.25,0.0059943683,12.582679,1.1422831e-07,0,1,0,1
6308000,6223973,6228000,0,-0.0069274902,12.25,-0.025877468,12.573668,2.130304e-06,0,1,0,1
6364000,6283974,6284000,0,0.011871338,12.25,-0.044567704,12.56605,6.322688e-06,0,1,0,1
6428000,6343977,6348000,0,0.035339355,12.25,-0.06759312,12.558974,1.45516005e-05,0,1,0,1
6484000,6403978,6404000,0,-0.11959839,12.25,0.09008261,12.5510235,2.5862038e-05,0,1,0,1
6548000,6463980,6468000,0,0.021240234,12.25,-0.053496026,12.544622,9.125264e-06,0,1,0,1
6604000,6523981,6524000,0,-0.15246582,12.25,0.120978355,12.538467,4.6690755e-05,0,1,0,1
6668000,6583983,6588000,0,0.0024719238,12.25,-0.037296098,12.532761,4.439561e-06,0,1,0,1
6724000,6643984,6644000,0,0.054107666,12.25,-0.08717307,12.525957,2.4266868e-05,0,1,0,1
6788000,6703985,6708000,0,-0.08673096,12.25,0.055097204,12.520747,9.698149e-06,0,1,0,1
6844000,6763986,6764000,0,-0.035095215,12.25,0.0018012449,12.515701,1.0369321e-08,0,1,0,1
6908000,6823987,6828000,0,-0.0022277832,12.25,-0.030319333,12.509736,2.9393489e-06,0,1,0,1
6964000,6883988,6884000,0,-0.016296387,12.25,-0.015950784,12.5051,8.1383604e-07,0,1,0,1
7028000,6942655,6948000,0,0.011871338,12.25,-0.044123113,12.500813,6.229512e-06,0,1,0,1
7084000,6999990,7004000,0,-0.01159668,12.25,-0.02006422,12.496628,1.2885808e-06,0,1,0,1
7148000,7061324,7068000,0,-0.016296387,12.25,-0.014340838,12.491379,6.5856506e-07,0,1,0,1
7204000,7119991,7124000,0,-0.0069274902,12.25,-0.023673404,12.487509,1.7951701e-06,0,1,0,1
7252000,7171992,7172000,0,0.058807373,12.25,-0.08915425,12.483703,2.5468344e-05,0,1,0,1
7316000,7231993,7236000,0,0.007171631,12.25,-0.035455205,12.478959,4.0294117e-06,0,1,0,1
7372000,7291993,7292000,0,-0.06326294,12.25,0.03545275,12.4755335,4.0299597e-06,0,1,0,1
7436000,7351994,7356000,0,0.021240234,12.25,-0.049895253,12.472389,7.984152e-06,0,1,0,1
7492000,7411994,7412000,0,-0.030395508,12.25,0.0024437811,12.469284,1.9157685e-08,0,1,0,1
7556000,7471995,7476000,0,-0.016296387,12.25,-0.011354618,12.465011,4.137256e-07,0,1,0,1
7612000,7531995,7532000,0,-0.053863525,12.25,0.026311373,12.462109,2.2220586e-06,0,1,0,1
7676000,7591996,7596000,0,-0.058563232,12.25,0.030457849,12.459468,2.9782348e-06,0,1,0,1
7732000,7651996,7652000,0,0.04473877,12.25,-0.07327834,12.455416,1.7244594e-05,0,1,0,1
7796000,7711996,7716000,0,-0.10083008,12.25,0.07344333,12.452939,1.7325781e-05,0,1,0,1
7852000,7771996,7772000,0,-0.0256958,12.25,-0.0029691923,12.450468,2.8323766e-08,0,1,0,1
7916000,7831997,7836000,0,-0.04916382,12.25,0.020478938,12.448243,1.347618e-06,0,1,0,1
7972000,7891997,7892000,0,0.04473877,12.25,-0.07363617,12.444508,1.7428683e-05,0,1,0,1
8036000,7951997,7956000,0,-0.035095215,12.25,0.007257862,12.442411,1.693452e-07,0,1,0,1
8092000,8011998,8012000,0,-0.01159668,12.25,-0.016440837,12.4403,8.691144e-07,0,1,0,1
8156000,8071998,8076000,0,-0.07733154,12.25,0.049685426,12.436941,7.939707e-06,0,1,0,1
8212000,8131998,8132000,0,-0.091430664,12.25,0.06296086,12.434945,1.2751388e-05,0,1,0,1
8276000,8191998,8196000,0,-0.0022277832,12.25,-0.027308406,12.433168,2.3992243e-06,0,1,0,1
8332000,8251998,8252000,0,-0.04446411,12.25,0.015176021,12.43136,7.410665e-07,0,1,0,1
8396000,8311998,8316000,0,-0.15246582,12.25,0.123316675,12.428228,4.8943428e-05,0,1,0,1
8452000,8371999,8372000,0,-0.0069274902,12.25,-0.024140503,12.426511,1.875873e-06,0,1,0,1
8516000,8430665,8436000,0,-0.053863525,12.25,0.022990081,12.425006,1.7015487e-06,0,1,0,1
8572000,8491999,8492000,0,-0.053863525,12.25,0.02295503,12.421946,1.6967822e-06,0,1,0,1
8636000,8550665,8556000,0,-0.06326294,12.25,0.03195386,12.42051,3.288268e-06,0,1,0,1
8692000,8611999,8612000,0,-0.04916382,12.25,0.017363165,12.419033,9.71024e-07,0,1,0,1
8756000,8671999,8676000,0,0.013153076,12.250947,-0.059885845,13.251583,1.0825316e-05,0,1,0,1
8812000,8731999,8732000,0,-0.09951782,12.251893,0.060103174,13.178781,1.0964267e-05,0,1,0,1
8876000,8791999,8796000,0,0.031951904,12.2529745,-0.07239197,13.118102,1.5979744e-05,0,1,0,1
8932000,8851999,8852000,0,-0.052612305,12.253921,0.019790675,13.066111,1.1990434e-06,0,1,0,1
8996000,8912000,8916000,0,-0.047912598,12.255001,0.017097872,13.02263,8.9793605e-07,0,1,0,1
9052000,8972000,8972000,0,-0.14181519,12.255946,0.11281639,12.984523,3.920834e-05,0,1,0,1
9116000,9032000,9036000,0,-0.057250977,12.257026,0.010765836,12.663341,3.661063e-07,0,1,0,1
9172000,9092000,9092000,0,-0.09008789,12.257968,0.04439838,12.653905,6.23117e-06,0,1,0,1
9236000,9152000,9156000,0,-0.1088562,12.259045,0.063095525,12.646297,1.2591971e-05,0,1,0,1
9292000,9212000,9212000,0,0.013244629,12.259985,-0.05979306,12.639187,1.1314683e-05,0,1,0,1
9356000,9272000,9276000,0,-0.024383545,12.261059,-0.019074377,12.633866,1.1519256e-06,0,1,0,1
9412000,9332000,9332000,0,-0.010314941,12.261995,-0.031459615,12.628698,3.134788e-06,0,1,0,1
9476000,9392000,9396000,0,-0.02444458,12.263066,-0.015101079,12.625317,7.2249304e-07,0,1,0,1
9532000,9452000,9452000,0,-0.0056762695,12.263999,-0.037443597,12.522357,4.4784633e-06,0,1,0,1
9596000,9512000,9516000,0,-0.080841064,12.265065,0.0393799,12.521905,4.9538035e-06,0,1,0,1
9652000,9572000,9572000,0,-0.010345459,12.265993,-0.03113291,12.521272,3.0963567e-06,0,1,0,1
9716000,9632000,9636000,0,0.003692627,12.267055,-0.04359666,12.521784,6.071559e-06,0,1,0,1
9772000,9692000,9692000,0,0.02243042,12.267978,-0.060606215,12.521956,1.1733353e-05,0,1,0,1
9836000,9752000,9756000,0,0.003540039,12.269033,-0.0394937,12.523327,4.9819105e-06,0,1,0,1
9892000,9812000,9812000,0,-0.11859131,12.269951,0.084340245,12.524208,2.271849e-05,0,1,0,1
9956000,9872000,9876000,0,-0.02923584,12.271001,-0.013350528,12.468922,5.717786e-07,0,1,0,1
10012000,9932000,9932000,0,0.11627197,12.271913,-0.15832238,12.470306,8.040212e-05,0,1,0,1
10076000,9992000,9996000,0,-0.057739258,12.272955,0.018601798,12.472632,1.1097156e-06,0,1,0,1
10132000,10052000,10052000,0,-0.1187439,12.27386,0.079690546,12.474489,2.0363423e-05,0,1,0,1
10196000,10112000,10116000,0,0.003479004,12.274896,-0.0433571,12.477339,6.0264074e-06,0,1,0,1
10252000,10172000,10172000,0,-0.020080566,12.275792,-0.018633075,12.479617,1.1128275e-06,0,1,0,1
10316000,10232000,10236000,0,-0.1421814,12.27682,0.10305517,12.442182,3.4143108e-05,0,1,0,1
10372000,10292000,10292000,0,0.05053711,12.277709,-0.09064477,12.444385,2.6410222e-05,0,1,0,1
10436000,10352000,10356000,0,-0.052978516,12.278729,0.01453596,12.447428,6.789969e-07,0,1,0,1
10492000,10412000,10412000,0,-0.04824829,12.27961,0.009999428,12.449952,3.2124962e-07,0,1,0,1
10556000,10472000,10476000,0,-0.043518066,12.280621,0.0055633746,12.45336,9.9414585e-08,0,1,0,1
10612000,10532000,10532000,0,-0.0763855,12.281491,0.038778428,12.456171,4.828985e-06,0,1,0,1
10676000,10590666,10596000,0,-0.052825928,12.282494,0.015232123,12.4599085,7.4484524e-07,0,1,0,1
10732000,10652000,10652000,0,0.022338867,12.283356,-0.05866783,12.4302845,1.1075899e-05,0,1,0,1
10796000,10712000,10716000,0,-0.0012817383,12.284348,-0.033654768,12.43362,3.643809e-06,0,1,0,1
10852000,10772000,10772000,0,-0.010772705,12.285199,-0.0231031,12.4364195,1.7167423e-06,0,1,0,1
10916000,10832000,10836000,0,-0.015533447,12.2861805,-0.017244611,12.440027,9.561928e-07,0,1,0,1
10972000,10892000,10892000,0,-0.1376648,12.287023,0.10587266,12.443039,3.6033063e-05,0,1,0,1
11036000,10952000,10956000,0,-0.109191895,12.287993,0.07700236,12.446895,1.9054918e-05,0,1,0,1
11092000,11012000,11012000,0,0.022521973,12.288824,-0.054844014,12.450093,9.663754e-06,0,1,0,1
11156000,11072000,11076000,0,-0.03869629,12.289784,0.005610924,12.425932,1.01344426e-07,0,1,0,1
11212000,11132000,11132000,0,-0.14196777,12.290604,0.109720476,12.428823,3.874408e-05,0,1,0,1
11276000,11192000,11196000,0,-0.010131836,12.291553,-0.022265155,12.432469,1.5949755e-06,0,1,0,1
11332000,11252000,11252000,0,0.0602417,12.29236,-0.09139402,12.435525,2.686776e-05,0,1,0,1
11396000,11310666,11316000,0,-0.033966064,12.293298,0.0050799437,12.439365,8.2981174e-08,0,1,0,1
11452000,11372000,11372000,0,-0.07620239,12.294093,0.048361417,12.442565,7.5187927e-06,0,1,0,1
11516000,11432000,11436000,0,0.046051025,12.295018,-0.07728838,12.421763,1.9235575e-05,0,1,0,1
11572000,11490000,11492000,0,0.0082092285,12.295802,-0.03748653,12.424654,4.524037e-06,0,1,0,1
11620000,11540000,11540000,0,-0.062347412,12.296444,0.03453251,12.42696,3.8384096e-06,0,1,0,1
11684000,11600000,11604000,0,-0.015289307,12.297352,-0.011388987,12.430624,4.1738545e-07,0,1,0,1
11740000,11660000,11660000,0,-0.029388428,12.298119,0.0042208172,12.433692,5.7312985e-08,0,1,0,1
11804000,11720000,11724000,0,-0.06692505,12.299014,0.043350674,12.43751,6.043914e-06,0,1,0,1
11860000,11780000,11780000,0,-0.019805908,12.299767,-0.002776904,12.440688,2.479347e-08,0,1,0,1
11924000,11840000,11844000,0,-0.113708496,12.30065,0.08472971,12.421977,2.3117489e-05,0,1,0,1
11980000,11900000,11900000,0,-0.024169922,12.30139,-0.0043216553,12.424859,6.0126894e-08,0,1,0,1
12044000,11960000,11964000,0,-0.010101318,12.3022585,-0.016814278,12.428425,9.0991404e-07,0,1,0,1
12100000,12020000,12020000,0,0.008605957,12.302985,-0.034030087,12.431412,3.7261962e-06,0,1,0,1
12164000,12080000,12084000,0,-0.057281494,12.303841,0.033778556,12.435108,3.670224e-06,0,1,0,1
12220000,12140000,12140000,0,-0.1651001,12.304554,0.14266658,12.438188,6.5455686e-05,0,1,0,1
12284000,12200000,12204000,0,0.028045654,12.305396,-0.050402828,12.442002,8.167319e-06,0,1,0,1
12340000,12260000,12260000,0,-0.13650513,12.306096,0.10942296,12.423975,3.8549286e-05,0,1,0,1
12404000,12318666,12324000,0,-0.023345947,12.306925,-0.0032835584,12.427426,3.47031e-08,0,1,0,1
12460000,12380000,12380000,0,-0.15948486,12.3076105,0.13422216,12.430314,5.797308e-05,0,1,0,1
12524000,12440000,12444000,0,0.005432129,12.308425,-0.030481208,12.433879,2.9889434e-06,0,1,0,1
12580000,12500000,12500000,0,-0.07922363,12.309096,0.055859067,12.436848,1.0035454e-05,0,1,0,1
12644000,12560000,12564000,0,-0.097717285,12.309897,0.07542442,12.440519,1.8291337e-05,0,1,0,1
12700000,12620000,12620000,0,-0.036315918,12.310555,0.006003661,12.438314,1.1591265e-07,0,1,0,1
12764000,12680000,12684000,0,-0.116119385,12.311342,0.084971964,12.42717,2.3240156e-05,0,1,0,1
12820000,12740000,12740000,0,0.011077881,12.311986,-0.04178195,12.429952,5.6178224e-06,0,1,0,1
12884000,12800000,12804000,0,-0.040771484,12.312758,0.011930363,12.433385,4.5790767e-07,0,1,0,1
12940000,12860000,12860000,0,-0.13461304,12.313388,0.10697627,12.436242,3.6808295e-05,0,1,0,1
13004000,12920000,12924000,0,-0.0025939941,12.314147,-0.024548715,12.439774,1.9377826e-06,0,1,0,1
13060000,12980000,12980000,0,-0.12478638,12.314762,0.09928296,12.442698,3.1688003e-05,0,1,0,1
13124000,13040000,13044000,0,-0.06323242,12.315507,0.033352867,12.42737,3.580528e-06,0,1,0,1
13180000,13100000,13100000,0,-0.09591675,12.316108,0.06704992,12.430046,1.4467177e-05,0,1,0,1
13244000,13160000,13164000,0,0.031219482,12.316838,-0.059162457,12.433352,1.1260668e-05,0,1,0,1
13300000,13220000,13220000,0,0.030914307,12.317425,-0.056896307,12.4361,1.0412235e-05,0,1,0,1
13364000,13280000,13284000,0,0.0024414062,12.318141,-0.026198419,12.4395,2.2070249e-06,0,1,0,1
13420000,13340000,13340000,0,-0.03527832,12.318714,0.013275474,12.442313,5.66577e-07,0,1,0,1
13484000,13400000,13404000,0,-0.054016113,12.319416,0.033610776,12.445801,3.6307324e-06,0,1,0,1
13540000,13458000,13460000,0,-0.030334473,12.319976,0.0009373948,12.430419,2.8276086e-09,0,1,0,1
13588000,13508000,13508000,0,-0.07260132,12.320393,0.044328496,12.432452,6.322214e-06,0,1,0,1
13652000,13568000,13572000,0,-0.13809204,12.321075,0.110955514,12.435675,3.959938e-05,0,1,0,1
13708000,13628000,13628000,0,-0.024749756,12.321616,-0.0020592976,12.438347,1.3637525e-08,0,1,0,1
13772000,13688000,13692000,0,-0.08578491,12.322285,0.06055265,12.441659,1.1788214e-05,0,1,0,1
13828000,13748000,13748000,0,-0.057250977,12.322811,0.032846875,12.444395,3.467962e-06,0,1,0,1
13892000,13808000,13812000,0,-0.05706787,12.323467,0.03396436,12.447794,3.70693e-06,0,1,0,1
13948000,13866000,13868000,0,-0.023986816,12.32398,-0.0062329024,12.432955,1.2498741e-07,0,1,0,1
13996000,13916000,13916000,0,-0.07098389,12.324351,0.041890923,12.43493,5.644903e-06,0,1,0,1
14060000,13976000,13980000,0,-0.11767578,12.324987,0.08968198,12.438078,2.5865278e-05,0,1,0,1
14116000,14036000,14036000,0,0.051879883,12.325482,-0.07938563,12.440684,2.0262802e-05,0,1,0,1
14180000,14096000,14100000,0,0.0044555664,12.326106,-0.029631898,12.443923,2.8224197e-06,0,1,0,1
14236000,14156000,14156000,0,-0.06616211,12.326587,0.042714033,12.446592,5.863416e-06,0,1,0,1
14300000,14216000,14220000,0,0.11721802,12.327197,-0.14451317,12.445564,6.712129e-05,0,1,0,1
14356000,14276000,14276000,0,0.050598145,12.327664,-0.07863839,12.435491,1.9891442e-05,0,1,0,1
14420000,14336000,14340000,0,0.064208984,12.328261,-0.0900364,12.438544,2.606914e-05,0,1,0,1
14476000,14396000,14396000,0,-0.02557373,12.328715,0.0019384101,12.441069,1.2080743e-08,0,1,0,1
14540000,14456000,14460000,0,0.04953003,12.329299,-0.071588665,12.444213,1.6473317e-05,0,1,0,1
14596000,14516000,14516000,0,-0.110565186,12.32974,0.09059744,12.446804,2.6377524e-05,0,1,0,1
14660000,14576000,14580000,0,-0.048950195,12.330311,0.029782467,12.450038,2.8497755e-06,0,1,0,1
14716000,14636000,14636000,0,-0.053466797,12.330739,0.028463306,12.4360895,2.6058344e-06,0,1,0,1
14780000,14696000,14700000,0,-0.07675171,12.331296,0.053037226,12.439056,9.045533e-06,0,1,0,1
14836000,14756000,14756000,0,-0.04824829,12.331711,0.025377855,12.441507,2.070603e-06,0,1,0,1
14900000,14816000,14820000,0,-0.07626343,12.332256,0.0546773,12.44457,9.609355e-06,0,1,0,1
14956000,14876000,14876000,0,-0.019561768,12.332659,-0.001165932,12.44709,4.3685633e-09,0,1,0,1
15020000,14936000,14940000,0,-0.047729492,12.333192,0.02854624,12.450245,2.618062e-06,0,1,0,1
15076000,14996000,14996000,0,-0.019378662,12.333582,0.0012838319,12.452832,5.2942957e-09,0,1,0,1
15140000,15056000,15060000,0,-0.08508301,12.334103,0.05902414,12.439583,1.1202463e-05,0,1,0,1
15196000,15116000,15116000,0,-0.070617676,12.33448,0.04527779,12.441969,6.5908484e-06,0,1,0,1
15260000,15176000,15180000,0,-0.060913086,12.334989,0.036649574,12.444958,4.3172226e-06,0,1,0,1
15316000,15236000,15236000,0,-0.009033203,12.335355,-0.0,12.447416,6.516855e-07,0,1,0,1
15380000,15296000,15300000,0,-0.041992188,12.335851,0.020254472,12.4505005,1.3179989e-06,0,1,0,1
15436000,15356000,15356000,0,-0.032440186,12.3362055,0.011888199,12.453031,4.5395942e-07,0,1,0,1
15500000,15416000,15420000,0,-0.12625122,12.33669,0.10369016,12.452023,3.4537843e-05,0,1,0,1
15556000,15476000,15476000,0,-0.116119385,12.337033,0.08986671,12.442425,2.596287e-05,0,1,0,1
15620000,15536000,15540000,0,-0.08731079,12.337505,0.061789542,12.445348,1.22710835e-05,0,1,0,1
15676000,15596000,15596000,0,-0.025848389,12.337836,0.0011262819,12.447751,4.076273e-09,0,1,0,1
15740000,15656000,15660000,0,-0.002380371,12.338299,-0.0,12.450774,1.3873647e-06,0,1,0,1
15796000,15716000,15716000,0,0.08666992,12.338618,-0.0,12.453251,3.773713e-05,0,1,0,1
15860000,15776000,15780000,0,-0.045562744,12.339069,0.02553542,12.456371,2.0938928e-06,0,1,0,1
15916000,15836000,15836000,0,-0.1204834,12.339379,0.09437855,12.442854,2.8634304e-05,0,1,0,1
15980000,15896000,15900000,0,-0.044708252,12.339819,0.019347861,12.445719,1.2031117e-06,0,1,0,1
16036000,15956000,15956000,0,-0.01638794,12.3401165,-0.0,12.4480715,1.961095e-07,0,1,0,1
16100000,16016000,16020000,0,-0.124420166,12.340546,0.1017833,12.451038,3.328185e-05,0,1,0,1
16156000,16076000,16076000,0,-0.10021973,12.340834,0.078118205,12.45347,1.9600813e-05,0,1,0,1
16220000,16134666,16140000,0,-0.024505615,12.341253,0.0033985395,12.456539,3.708918e-08,0,1,0,1
16276000,16196000,16196000,0,-0.01977539,12.341531,0.00016401708,12.459046,8.636809e-11,0,1,0,1
16340000,16256000,16260000,0,0.027160645,12.34194,-0.0,12.446052,9.039977e-06,0,1,0,1
16396000,16314000,16316000,0,-0.062438965,12.342207,0.037974104,12.4483595,4.633647e-06,0,1,0,1
16444000,16364000,16364000,0,-0.052764893,12.342336,0.029205611,12.450138,2.7404283e-06,0,1,0,1
16508000,16424000,16428000,0,-0.080718994,12.342732,0.05857644,12.453095,1.1021192e-05,0,1,0,1
16564000,16484000,16484000,0,-0.03805542,12.342988,0.016935503,12.455516,9.210739e-07,0,1,0,1
16628000,16544000,16548000,0,-0.07080078,12.343375,0.051373668,12.458577,8.473693e-06,0,1,0,1
16684000,16604000,16604000,0,-0.046936035,12.343622,0.028709592,12.461077,2.6458088e-06,0,1,0,1
16748000,16664000,16668000,0,-0.12652588,12.344,0.1020672,12.448089,3.3475706e-05,0,1,0,1
16804000,16724000,16724000,0,-0.045959473,12.344236,0.022261454,12.450388,1.5921506e-06,0,1,0,1
16868000,16784000,16788000,0,-0.13027954,12.344605,0.10829196,12.453301,3.7667596e-05,0,1,0,1
16924000,16844000,16844000,0,-0.01675415,12.344832,-0.0,12.455683,6.4908406e-08,0,1,0,1
16988000,16904000,16908000,0,0.04425049,12.345192,-0.0,12.458702,1.2944446e-05,0,1,0,1
17044000,16964000,16964000,0,-0.026672363,12.345411,0.009250591,12.461165,2.7468835e-07,0,1,0,1
17108000,17024000,17028000,0,0.025024414,12.345762,-0.0,12.448311,6.9861712e-06,0,1,0,1
17164000,17084000,17084000,0,0.0058898926,12.345972,-0.0,12.450571,2.1243627e-06,0,1,0,1
17228000,17144000,17148000,0,-0.060028076,12.346314,0.04229927,12.45344,5.746937e-06,0,1,0,1
17284000,17204000,17204000,0,-0.092559814,12.346516,0.07632792,12.455785,1.8709223e-05,0,1,0,1
17348000,17264000,17268000,0,-0.06851196,12.346849,0.05376407,12.458762,9.280458e-06,0,1,0,1
17404000,17322000,17324000,0,-0.016418457,12.347043,0.0031147934,12.461191,3.1142893e-08,0,1,0,1
17452000,17372000,17372000,0,-0.01638794,12.347098,0.0047442457,12.46304,7.223877e-08,0,1,0,1
17516000,17432000,17436000,0,-0.11026001,12.347424,0.0880921,12.450137,2.4932157e-05,0,1,0,1
17572000,17492000,17492000,0,-0.08609009,12.347608,0.06491198,12.4523945,1.3534953e-05,0,1,0,1
17636000,17550666,17556000,0,0.008331299,12.347924,-0.0,12.455265,2.5276e-06,0,1,0,1
17692000,17612000,17612000,0,0.05505371,12.348101,-0.0,12.457608,1.7124448e-05,0,1,0,1
17756000,17672000,17676000,0,-0.03942871,12.34841,0.023419889,12.460588,1.7607233e-06,0,1,0,1
17812000,17732000,17732000,0,0.017089844,12.348578,-0.0,12.463016,3.2009689e-06,0,1,0,1
17876000,17792000,17796000,0,0.0027770996,12.348881,-0.0,12.466105,7.4662694e-07,0,1,0,1
17932000,17852000,17852000,0,0.040222168,12.349043,-0.0,12.452428,1.0312769e-05,0,1,0,1
17996000,17910666,17916000,0,0.0021972656,12.349337,-0.0,12.455256,9.510185e-07,0,1,0,1
18052000,17972000,17972000,0,-0.068359375,12.34949,0.053761877,12.457563,9.280593e-06,0,1,0,1
18116000,18032000,18036000,0,-0.06793213,12.349777,0.05193924,12.460504,8.659954e-06,0,1,0,1
18172000,18092000,18092000,0,-0.100372314,12.349925,0.08168442,12.462898,2.1415064e-05,0,1,0,1
18236000,18152000,18156000,0,0.022338867,12.350205,-0.0,12.465948,6.780766e-06,0,1,0,1
18292000,18212000,18212000,0,-0.034362793,12.350347,0.0058066696,12.468426,1.08168955e-07,0,1,0,1
18356000,18272000,18276000,0,-0.09063721,12.35062,0.052369278,12.455152,8.807733e-06,0,1,0,1
18412000,18330000,18332000,0,-0.029174805,12.350754,-0.0,12.457423,1.0510014e-06,0,1,0,1
18460000,18380000,18380000,0,-0.08566284,12.35075,0.029230148,12.459152,2.7430485e-06,0,1,0,1
18524000,18440000,18444000,0,-0.06665039,12.351017,-0.0,12.462095,8.804741e-08,0,1,0,1
18580000,18500000,18500000,0,-0.033813477,12.351145,-0.0,12.464489,9.4721845e-06,0,1,0,1
18644000,18560000,18564000,0,-0.099975586,12.351405,-0.0,12.467542,3.3917993e-07,0,1,0,1
18700000,18620000,18620000,0,-0.1611023,12.351527,0.030771464,12.465541,3.0384017e-06,0,1,0,1
18764000,18680000,18684000,0,-0.25006104,12.351782,0.08652626,12.456661,2.4041092e-05,0,1,0,1
18820000,18740000,18740000,0,-0.30099487,12.351896,0.108159035,12.458932,3.7558202e-05,0,1,0,1
18884000,18800000,18804000,0,-0.29541016,12.352144,0.06638834,12.461833,1.4146912e-05,0,1,0,1
18940000,18860000,18860000,0,-0.42633057,12.352254,0.1646015,12.464191,8.694877e-05,0,1,0,1
19004000,18920000,18924000,0,-0.3216858,12.352496,0.021469444,12.467205,1.4788785e-06,0,1,0,1
19060000,18980000,18980000,0,-0.37783813,12.3526,0.04556799,12.469648,6.6607863e-06,0,1,0,1
19124000,19040000,19044000,0,-0.344635,12.352838,-0.0,12.456373,3.7316415e-06,0,1,0,1
19180000,19100000,19100000,0,-0.47164917,12.352935,0.06117928,12.458607,1.2017088e-05,0,1,0,1
19244000,19160000,19164000,0,-0.4946289,12.353167,0.046841383,12.461466,7.0428796e-06,0,1,0,1
19300000,19220000,19220000,0,-0.48483276,12.353258,0.0038808882,12.463787,4.8336172e-08,0,1,0,1
19364000,19280000,19284000,0,-0.5458374,12.353484,0.026813388,12.466758,2.3067994e-06,0,1,0,1
19420000,19340000,19340000,0,-0.5737915,12.353572,0.02076745,12.469166,1.3835311e-06,0,1,0,1
19484000,19400000,19404000,0,-0.5783081,12.353793,-0.0,12.472248,6.293985e-07,0,1,0,1
19540000,19460000,19460000,0,-0.7427368,12.353876,0.106983244,12.458181,3.6748268e-05,0,1,0,1
19604000,19520000,19524000,0,-0.77005005,12.354092,0.093218386,12.460996,2.7893973e-05,0,1,0,1
19660000,19580000,19580000,0,-0.7692566,12.354168,0.05612874,12.46328,1.0111095e-05,0,1,0,1
19724000,19640000,19644000,0,-0.89086914,12.354379,0.13639206,12.466207,5.9690316e-05,0,1,0,1
19780000,19700000,19700000,0,-0.87564087,12.354451,0.084005654,12.468577,2.263915e-05,0,1,0,1
19844000,19760000,19764000,0,-0.85147095,12.354658,0.017893255,12.471616,1.0268711e-06,0,1,0,1
19900000,19820000,19820000,0,-0.86538696,12.354726,-0.0,12.469472,4.966496e-07,0,1,0,1
19964000,19880000,19884000,0,-0.9875488,12.354928,0.06308037,12.460429,1.2773662e-05,0,1,0,1
20020000,19940000,19940000,0,-1.0574646,12.354991,0.09591931,12.462675,2.9529823e-05,0,1,0,1
20084000,20000000,20004000,0,-1.0707703,12.355188,0.06660473,12.465557,1.42350345e-05,0,1,0,1
20140000,20060000,20060000,0,-0.95751953,12.355247,-0.0,12.467889,2.2513703e-05,0,1,0,1
20204000,20120000,20124000,0,-1.1366272,12.35544,0.053774,12.470882,9.274862e-06,0,1,0,1
20260000,20180000,20180000,0,-1.1221008,12.355495,0.0025650263,12.4733,2.109902e-08,0,1,0,1
20324000,20240000,20244000,0,-1.1596375,12.355684,-0.0,12.459775,8.2656965e-07,0,1,0,1
20380000,20300000,20300000,0,-1.0752258,12.355734,-0.0,12.46198,5.9857033e-05,0,1,0,1
20444000,20360000,20364000,0,-1.3205261,12.355919,0.06771159,12.464815,1.4712964e-05,0,1,0,1
20500000,20420000,20420000,0,-1.3716125,12.355965,0.08258951,12.467109,2.188487e-05,0,1,0,1
20564000,20480000,20484000,0,-1.4366455,12.356146,0.10653281,12.470056,3.6404777e-05,0,1,0,1
20620000,20540000,20540000,0,-1.3981628,12.356189,0.032092452,12.472434,3.3030456e-06,0,1,0,1
20684000,20598666,20604000,0,-1.4823914,12.356366,0.07648158,12.47549,1.8754958e-05,0,1,0,1
20740000,20656000,20660000,0,-1.5052185,12.356406,0.049226403,12.461206,7.778504e-06,0,1,0,1
20788000,20708000,20708000,0,-1.5000916,12.356309,0.0144120455,12.462837,6.6664455e-07,0,1,0,1
20852000,20768000,20772000,0,-1.5140686,12.356483,-0.0,12.465669,3.4096166e-07,0,1,0,1
20908000,20828000,20828000,0,-1.603363,12.35652,0.045655847,12.4679575,6.6874027e-06,0,1,0,1
20972000,20888000,20892000,0,-1.6264343,12.356691,0.030783534,12.4709015,3.0394788e-06,0,1,0,1
21028000,20948000,20948000,0,-1.5745239,12.356726,-0.0,12.473276,9.227461e-06,0,1,0,1
21092000,21008000,21012000,0,-1.6360168,12.356894,-0.0,12.476329,2.5694715e-06,0,1,0,1
21148000,21068000,21068000,0,-1.8287659,12.356924,0.12310636,12.462008,4.864441e-05,0,1,0,1
21212000,21126666,21132000,0,-1.6915283,12.357088,-0.0,12.464793,8.116463e-06,0,1,0,1
21268000,21186000,21188000,0,-1.898529,12.357115,0.1265626,12.467044,5.1393392e-05,0,1,0,1
21316000,21236000,21236000,0,-1.8598938,12.357006,0.061430216,12.468731,1.2106032e-05,0,1,0,1
21380000,21296000,21300000,0,-1.9016113,12.357169,0.06973255,12.471671,1.5595755e-05,0,1,0,1
21436000,21356000,21356000,0,-1.7460632,12.357194,-0.0,12.47404,4.136055e-05,0,1,0,1
21500000,21416000,21420000,0,-1.9771118,12.357355,0.07464957,12.472459,1.7871565e-05,0,1,0,1
21556000,21476000,21476000,0,-1.999939,12.357377,0.06781113,12.462737,1.4758714e-05,0,1,0,1
21620000,21536000,21540000,0,-2.041626,12.357533,0.08882213,12.46552,2.5315816e-05,0,1,0,1
21676000,21596000,21596000,0,-1.9563293,12.357553,-0.0,12.467767,3.8111799e-07,0,1,0,1
21740000,21656000,21660000,0,-1.9376526,12.357706,-0.0,12.470661,5.5813675e-06,0,1,0,1
21796000,21716000,21716000,0,-1.9849548,12.357722,-0.0,12.472993,2.7094664e-08,0,1,0,1
21860000,21776000,21780000,0,-2.0835876,12.357874,0.0875721,12.475997,2.4587605e-05,0,1,0,1
21916000,21836000,21836000,0,-2.078125,12.357887,0.06379843,12.461792,1.30646995e-05,0,1,0,1
21980000,21896000,21900000,0,-1.9977722,12.358035,-0.0,12.464528,1.9533747e-06,0,1,0,1
22036000,21956000,21956000,0,-2.105957,12.358045,0.07642317,12.466736,1.873947e-05,0,1,0,1
22100000,22016000,22020000,0,-2.0583496,12.35819,0.019212961,12.469583,1.1841227e-06,0,1,0,1
22156000,22076000,22076000,0,-2.1145325,12.358197,0.066702604,12.471876,1.4269665e-05,0,1,0,1
22220000,22136000,22140000,0,-2.14682,12.35834,0.08810544,12.474834,2.489033e-05,0,1,0,1
22276000,22196000,22196000,0,-2.0239868,12.358346,-0.0,12.47721,6.4166143e-06,0,1,0,1
22340000,22256000,22260000,0,-2.080719,12.358487,-0.0,12.463482,7.0269414e-07,0,1,0,1
22396000,22316000,22316000,0,-2.1184082,12.358489,0.013435841,12.465651,5.792616e-07,0,1,0,1
22460000,22374666,22380000,0,-2.184021,12.358626,0.06828427,12.468451,1.49585285e-05,0,1,0,1
22516000,22436000,22436000,0,-2.19281,12.358626,0.067378044,12.470706,1.4561489e-05,0,1,0,1
22580000,22494666,22500000,0,-2.234497,12.358762,0.09841275,12.473618,3.105777e-05,0,1,0,1
22636000,22556000,22556000,0,-2.1585388,12.35876,0.013034821,12.475957,5.4474873e-07,0,1,0,1
22700000,22614666,22620000,0,-2.200653,12.358893,0.034390926,12.474337,3.7925406e-06,0,1,0,1
22756000,22676000,22676000,0,-2.2473145,12.358889,0.0666163,12.4645195,1.4241163e-05,0,1,0,1
22820000,22736000,22740000,0,-2.242035,12.359019,0.051602125,12.467274,8.54326e-06,0,1,0,1
22876000,22796000,22796000,0,-2.2415771,12.359013,0.042912483,12.469492,5.907157e-06,0,1,0,1
22940000,22856000,22860000,0,-2.325714,12.359141,0.11808562,12.472358,4.4720382e-05,0,1,0,1
22996000,22916000,22916000,0,-2.268341,12.359133,0.05248332,12.47466,8.832302e-06,0,1,0,1
23060000,22974666,22980000,0,-2.2772827,12.35926,0.053153753,12.477634,9.057234e-06,0,1,0,1
23116000,23036000,23036000,0,-2.2908936,12.359249,0.048609972,12.463354,7.583606e-06,0,1,0,1
23180000,23096000,23100000,0,-2.2857666,12.359373,0.035723925,12.466063,4.094954e-06,0,1,0,1
23236000,23156000,23156000,0,-2.3511963,12.35936,0.094604015,12.468243,2.8712691e-05,0,1,0,1
23300000,23216000,23220000,0,-2.3503723,12.359482,0.08612442,12.471063,2.3790804e-05,0,1,0,1
23356000,23274000,23276000,0,-2.227539,12.3594675,-0.0,12.473329,5.9777417e-06,0,1,0,1
23420000,23334666,23340000,0,-2.3030396,12.359589,0.026154518,12.476259,2.1931535e-06,0,1,0,1
23476000,23396000,23396000,0,-2.2605286,12.359572,-0.0,12.478607,1.5140653e-06,0,1,0,1
23540000,23456000,23460000,0,-2.3546143,12.359692,0.057180405,12.464825,1.0492241e-05,0,1,0,1
23596000,23516000,23516000,0,-2.3635254,12.359673,0.06069064,12.466968,1.1817962e-05,0,1,0,1
23660000,23574666,23580000,0,-2.3301392,12.359789,0.021324873,12.469742,1.4587318e-06,0,1,0,1
23716000,23634000,23636000,0,-2.2829895,12.359769,-0.0,12.471972,3.0099357e-06,0,1,0,1
23764000,23684000,23684000,0,-2.3442993,12.359614,0.026873827,12.47363,2.315934e-06,0,1,0,1
23828000,23741333,23748000,0,-2.3440552,12.359733,0.021566153,12.476559,1.4911129e-06,0,1,0,1
23884000,23802000,23804000,0,-2.3110046,12.359714,-0.0,12.478907,7.925371e-07,0,1,0,1
23932000,23852000,23852000,0,-2.40036,12.35956,0.063087225,12.464003,1.2772777e-05,0,1,0,1
23996000,23912000,23916000,0,-2.3200073,12.359679,-0.0,12.466713,1.5825373e-06,0,1,0,1
24052000,23972000,23972000,0,-2.3389587,12.35966,-0.0,12.468892,1.5795099e-07,0,1,0,1
24116000,24032000,24036000,0,-2.3202515,12.359777,-0.0,12.471714,2.8663744e-06,0,1,0,1
24172000,24092000,24092000,0,-2.3768616,12.359757,0.02317524,12.473979,1.7222787e-06,0,1,0,1
24236000,24150666,24156000,0,-2.3390808,12.359874,-0.0,12.476911,1.1271908e-06,0,1,0,1
24292000,24212000,24212000,0,-2.362732,12.359852,0.0016188622,12.479259,8.400225e-09,0,1,0,1
24356000,24272000,24276000,0,-2.536438,12.359967,0.15741658,12.465483,7.9515514e-05,0,1,0,1
24412000,24332000,24332000,0,-2.4223633,12.359943,0.038663864,12.4676285,4.7960825e-06,0,1,0,1
24476000,24392000,24396000,0,-2.4313965,12.360055,0.04365945,12.4704075,6.1141463e-06,0,1,0,1
24532000,24452000,24452000,0,-2.4732666,12.36003,0.082023144,12.47264,2.1576172e-05,0,1,0,1
24596000,24512000,24516000,0,-2.411499,12.360141,0.016183615,12.47553,8.3975397e-07,0,1,0,1
24652000,24572000,24572000,0,-2.378479,12.360115,-0.0,12.477846,1.241571e-06,0,1,0,1
24716000,24632000,24636000,0,-2.4866333,12.360225,0.07083106,12.46423,1.61006e-05,0,1,0,1
24772000,24692000,24692000,0,-2.429657,12.360197,0.010689735,12.466342,3.666527e-07,0,1,0,1
24836000,24752000,24756000,0,-2.4577332,12.360304,0.03588295,12.469078,4.130493e-06,0,1,0,1
24892000,24812000,24812000,0,-2.5466309,12.360275,0.12214756,12.471278,4.785404e-05,0,1,0,1
24956000,24872000,24876000,0,-2.5220947,12.360381,0.094115734,12.474126,2.8403663e-05,0,1,0,1
25012000,24932000,24932000,0,-2.4039001,12.360351,-0.0,12.47641,2.3049533e-06,0,1,0,1
25076000,24992000,24996000,0,-2.4792786,12.360456,0.04665351,12.479367,6.976475e-06,0,1,0,1
25132000,25052000,25052000,0,-2.3708496,12.360425,-0.0,12.465039,2.0667487e-05,0,1,0,1
25196000,25112000,25116000,0,-2.3668518,12.360529,-0.0,12.467735,2.381099e-05,0,1,0,1
25252000,25172000,25172000,0,-2.569519,12.360496,0.11502051,12.4699,4.243729e-05,0,1,0,1
25316000,25232000,25236000,0,-2.5356445,12.360598,0.07860589,12.472708,1.9815701e-05,0,1,0,1
25372000,25292000,25292000,0,-2.5490112,12.360563,0.09012532,12.474959,2.6044409e-05,0,1,0,1
25436000,25352000,25356000,0,-2.4261475,12.360665,-0.0,12.477878,3.8530084e-06,0,1,0,1
25492000,25412000,25412000,0,-2.388916,12.36063,-0.0,12.480212,1.6922982e-05,0,1,0,1
25556000,25472000,25476000,0,-2.5585632,12.360731,0.07634878,12.466381,1.870354e-05,0,1,0,1
25612000,25530000,25532000,0,-2.5344238,12.360694,0.050683975,12.4685135,8.241128e-06,0,1,0,1
25660000,25580000,25580000,0,-2.5527344,12.360522,0.06790185,12.470097,1.4789497e-05,0,1,0,1
25724000,25638666,25644000,0,-2.4816895,12.360624,-0.0,12.472909,6.178457e-08,0,1,0,1
25780000,25698000,25700000,0,-2.561554,12.360589,0.07518005,12.475163,1.8122537e-05,0,1,0,1
25828000,25748000,25748000,0,-2.6078186,12.36042,0.120678425,12.476833,4.668903e-05,0,1,0,1
25892000,25808000,25812000,0,-2.5316467,12.360524,0.04345417,12.479798,6.052229e-06,0,1,0,1
25948000,25868000,25868000,0,-2.6157532,12.360492,0.10714531,12.465477,3.6838115e-05,0,1,0,1
26012000,25928000,25932000,0,-2.567871,12.360595,0.058389425,12.468183,1.0937681e-05,0,1,0,1
26068000,25988000,25988000,0,-2.4640503,12.360559,-0.0,12.470355,6.7225133e-06,0,1,0,1
26132000,26048000,26052000,0,-2.5630493,12.3606615,0.053591967,12.473174,9.210483e-06,0,1,0,1
26188000,26108000,26108000,0,-2.482727,12.360626,-0.0,12.475433,2.2741651e-06,0,1,0,1
26252000,26168000,26172000,0,-2.4595032,12.360726,-0.0,12.47836,7.666377e-06,0,1,0,1
26308000,26228000,26228000,0,-2.5444336,12.36069,0.022537231,12.464198,1.6300345e-06,0,1,0,1
26372000,26288000,26292000,0,-2.5019836,12.360789,-0.0,12.466865,1.1640398e-06,0,1,0,1
26428000,26348000,26348000,0,-2.633606,12.36075,0.113595486,12.469005,4.1395233e-05,0,1,0,1
26492000,26408000,26412000,0,-2.5762634,12.360848,0.056512356,12.471784,1.024279e-05,0,1,0,1
26548000,26468000,26468000,0,-2.5617065,12.360809,0.04267931,12.474012,5.8410187e-06,0,1,0,1
26612000,26526666,26532000,0,-2.6223755,12.360907,0.104537964,12.476902,3.5034933e-05,0,1,0,1
26668000,26588000,26588000,0,-2.5979614,12.3608675,0.080637455,12.479216,2.0842333e-05,0,1,0,1
26732000,26648000,26652000,0,-2.5972595,12.360964,0.06437898,12.465532,1.3299561e-05,0,1,0,1
26788000,26708000,26708000,0,-2.685913,12.360923,0.15376401,12.467643,7.585514e-05,0,1,0,1
26852000,26768000,26772000,0,-2.5483704,12.361017,0.01641202,12.470382,8.6398114e-07,0,1,0,1
26908000,26828000,26828000,0,-2.5951538,12.360975,0.06443143,12.472579,1.3313715e-05,0,1,0,1
26972000,26888000,26892000,0,-2.5899048,12.36107,0.060275078,12.4754305,1.1648768e-05,0,1,0,1
27028000,26948000,26948000,0,-2.579956,12.361027,0.051391363,12.477714,8.466526e-06,0,1,0,1
27092000,27008000,27012000,0,-2.593567,12.361121,0.06651974,12.480675,1.4181526e-05,0,1,0,1
27148000,27068000,27068000,0,-2.5836182,12.361078,0.036171913,12.466272,4.198231e-06,0,1,0,1
27212000,27128000,27132000,0,-2.5598145,12.36117,0.013686657,12.468971,6.009304e-07,0,1,0,1
27268000,27188000,27188000,0,-2.6019287,12.361125,0.057193518,12.471138,1.0491741e-05,0,1,0,1
27332000,27248000,27252000,0,-2.5920105,12.361217,0.04862237,12.47395,7.5810303e-06,0,1,0,1
27388000,27308000,27308000,0,-2.5164795,12.361171,-0.0,12.476203,2.100519e-06,0,1,0,1
27452000,27366666,27372000,0,-2.5354614,12.361262,-0.004393816,12.479126,6.1881316e-08,0,1,0,1
27508000,27428000,27428000,0,-2.662262,12.361217,0.109838486,12.464896,3.87151e-05,0,1,0,1
27572000,27488000,27492000,0,-2.4687805,12.361306,-0.08233261,12.467556,2.1748156e-05,0,1,0,1
27628000,27548000,27548000,0,-2.5540466,12.3612585,0.0056807995,12.469691,1.0351975e-07,0,1,0,1
27692000,27608000,27612000,0,-2.610321,12.361347,0.064324856,12.472464,1.3269831e-05,0,1,0,1
27748000,27668000,27668000,0,-2.6191406,12.3612995,0.074809074,12.474687,1.7944812e-05,0,1,0,1
27812000,27728000,27732000,0,-2.6231384,12.361388,0.080816746,12.477571,2.093788e-05,0,1,0,1
27868000,27786000,27788000,0,-2.613037,12.3613405,0.07239628,12.479878,1.6798951e-05,0,1,0,1
27916000,27836000,27836000,0,-2.6734314,12.361158,0.11733985,12.465015,4.4183307e-05,0,1,0,1
27980000,27896000,27900000,0,-2.526825,12.361249,-0.027844429,12.467682,2.4874303e-06,0,1,0,1
28036000,27956000,27956000,0,-2.6256714,12.361202,0.07330394,12.469822,1.7236709e-05,0,1,0,1
28100000,28016000,28020000,0,-2.568695,12.361292,0.01800704,12.472601,1.0398904e-06,0,1,0,1
28156000,28076000,28076000,0,-2.4793396,12.361245,-0.0694108,12.474829,1.5448257e-05,0,1,0,1
28220000,28136000,28140000,0,-2.5315857,12.361335,-0.013963461,12.47772,6.250445e-07,0,1,0,1
28276000,28196000,28196000,0,-2.6256104,12.361288,0.08253527,12.480032,2.1833504e-05,0,1,0,1
28340000,28256000,28260000,0,-2.5873108,12.361377,0.02243948,12.466293,1.6156534e-06,0,1,0,1
28396000,28316000,28316000,0,-2.6716309,12.361328,0.10852218,12.468403,3.7782105e-05,0,1,0,1
28460000,28376000,28380000,0,-2.5861206,12.361416,0.024306774,12.471144,1.8949963e-06,0,1,0,1
28516000,28436000,28436000,0,-2.7361755,12.361367,0.1761713,12.473342,9.952851e-05,0,1,0,1
28580000,28494666,28500000,0,-2.6125183,12.361454,0.053367615,12.476194,9.131318e-06,0,1,0,1
28636000,28556000,28556000,0,-2.644867,12.361405,0.087491274,12.478478,2.4537358e-05,0,1,0,1
28700000,28616000,28620000,0,-2.6018372,12.361492,0.03691387,12.4768305,4.3685254e-06,0,1,0,1
28756000,28676000,28676000,0,-2.6062012,12.361443,0.032539606,12.466982,3.3972167e-06,0,1,0,1
28820000,28736000,28740000,0,-2.5448608,12.361527,-0.026457548,12.469684,2.2454517e-06,0,1,0,1
28876000,28796000,28796000,0,-2.7094116,12.361477,0.1407001,12.471851,6.349183e-05,0,1,0,1
28940000,28856000,28860000,0,-2.651825,12.361562,0.08472133,12.474666,2.3015296e-05,0,1,0,1
28996000,28916000,28916000,0,-2.538391,12.36151,-0.026804209,12.476919,2.303343e-06,0,1,0,1
29060000,28976000,28980000,0,-2.6888733,12.361595,0.12718058,12.479844,5.1843275e-05,0,1,0,1
29116000,29036000,29036000,0,-2.5328064,12.361544,-0.055205345,12.46556,9.779361e-06,0,1,0,1
29180000,29096000,29100000,0,-2.7070007,12.361628,0.1222527,12.468224,4.7948204e-05,0,1,0,1
29236000,29156000,29156000,0,-2.6777344,12.361574,0.09437466,12.470359,2.8568787e-05,0,1,0,1
29300000,29216000,29220000,0,-2.6017761,12.361657,0.020397425,12.473135,1.3342434e-06,0,1,0,1
29356000,29276000,29276000,0,-2.7236633,12.361605,0.14470339,12.475359,6.713737e-05,0,1,0,1
29420000,29336000,29340000,0,-2.5627441,12.361688,-0.014292717,12.478247,6.5484124e-07,0,1,0,1
29476000,29396000,29396000,0,-2.6004333,12.361634,0.026603699,12.480554,2.2683505e-06,0,1,0,1
29540000,29456000,29460000,0,-2.58609,12.361717,-0.005792856,12.466766,1.07669244e-07,0,1,0,1
29596000,29516000,29516000,0,-2.6331177,12.361663,0.04431057,12.468871,6.298651e-06,0,1,0,1
29660000,29576000,29580000,0,-2.6045532,12.361744,0.018864632,12.471608,1.1413904e-06,0,1,0,1
29716000,29634000,29636000,0,-2.4541016,12.36169,-0.12860823,12.473802,5.303941e-05,0,1,0,1
29764000,29684000,29684000,0,-2.7276,12.361501,0.14887643,12.475423,7.106514e-05,0,1,0,1
29828000,29744000,29748000,0,-2.6229553,12.361586,0.0467875,12.478316,7.0171973e-06,0,1,0,1
29884000,29804000,29804000,0,-2.5802612,12.361534,0.0072078705,12.48063,1.665089e-07,0,1,0,1
29948000,29864000,29868000,0,-2.6929016,12.361619,0.10848403,12.46685,3.776025e-05,0,1,0,1
30004000,29924000,29924000,0,-2.6167908,12.361566,0.034846306,12.468961,3.8953203e-06,0,1,0,1
30068000,29984000,29988000,0,-2.6164856,12.3616495,0.038120747,12.471706,4.6607615e-06,0,1,0,1
30124000,30044000,30044000,0,-2.6067505,12.361596,0.03142786,12.473906,3.1672853e-06,0,1,0,1
30188000,30104000,30108000,0,-2.644043,12.361679,0.07238865,12.476761,1.6799608e-05,0,1,0,1
30244000,30164000,30164000,0,-2.6997375,12.361627,0.13087726,12.479047,5.4904376e-05,0,1,0,1
30308000,30224000,30228000,0,-2.6563416,12.36171,0.06445408,12.465431,1.3330717e-05,0,1,0,1
30364000,30284000,30284000,0,-2.5806274,12.361654,-0.00887537,12.46751,2.5272792e-07,0,1,0,1
30428000,30344000,30348000,0,-2.6511536,12.361736,0.065012455,12.470216,1.35574855e-05,0,1,0,1
30484000,30404000,30404000,0,-2.6364746,12.361681,0.052625656,12.472385,8.881892e-06,0,1,0,1
30548000,30464000,30468000,0,-2.6031494,12.361763,0.022221088,12.4752035,1.5832262e-06,0,1,0,1
30604000,30524000,30524000,0,-2.6733704,12.361708,0.095359564,12.477459,2.9151599e-05,0,1,0,1
30668000,30584000,30588000,0,-2.6772156,12.36179,0.10209036,12.480388,3.340422e-05,0,1,0,1
30724000,30644000,30644000,0,-2.5589294,12.361734,-0.034970522,12.466063,3.9240535e-06,0,1,0,1
30788000,30704000,30708000,0,-2.6531372,12.3618145,0.063118935,12.468729,1.2780773e-05,0,1,0,1
30844000,30764000,30764000,0,-2.7135925,12.361758,0.12618804,12.470868,5.107398e-05,0,1,0,1
30908000,30824000,30828000,0,-2.7359314,12.361838,0.15102386,12.473648,7.314046e-05,0,1,0,1
30964000,30884000,30884000,0,-2.6312866,12.361782,0.048251152,12.475874,7.464563e-06,0,1,0,1
31028000,30944000,30948000,0,-2.6731262,12.361862,0.09351921,12.4787655,2.803432e-05,0,1,0,1
31084000,31004000,31004000,0,-2.6723022,12.361806,0.09532356,12.481075,2.912115e-05,0,1,0,1
31148000,31064000,31068000,0,-2.6949158,12.361886,0.08392048,12.467249,2.2595674e-05,0,1,0,1
31204000,31124000,31124000,0,-2.5204468,12.361828,-0.08843613,12.469357,2.508854e-05,0,1,0,1
31268000,31184000,31188000,0,-2.6480103,12.361907,0.043198347,12.472098,5.98487e-06,0,1,0,1
31324000,31244000,31244000,0,-2.5490112,12.361849,-0.05313444,12.474294,9.053078e-06,0,1,0,1
31388000,31304000,31308000,0,-2.7373047,12.361928,0.13944793,12.477147,6.234029e-05,0,1,0,1
31444000,31364000,31364000,0,-2.5435486,12.36187,-0.051944494,12.479428,8.648571e-06,0,1,0,1
31508000,31424000,31428000,0,-2.5862732,12.361949,-0.027879477,12.4657755,2.4940775e-06,0,1,0,1
31564000,31484000,31484000,0,-2.6663208,12.36189,0.05603385,12.467852,1.0073242e-05,0,1,0,1
31628000,31544000,31548000,0,-2.6611328,12.361967,0.054665565,12.470554,9.5852165e-06,0,1,0,1
31684000,31604000,31604000,0,-2.6794434,12.361908,0.07634306,12.472719,1.8691233e-05,0,1,0,1
31748000,31664000,31668000,0,-2.5848694,12.361986,-0.014348745,12.475535,6.601287e-07,0,1,0,1
31804000,31724000,31724000,0,-2.617859,12.361927,0.022919416,12.477787,1.6839513e-06,0,1,0,1
31868000,31784000,31788000,0,-2.565979,12.362004,-0.024259806,12.480712,1.8862328e-06,0,1,0,1
31924000,31844000,31844000,0,-2.617859,12.361946,0.004221201,12.466358,5.7173192e-08,0,1,0,1
31988000,31904000,31908000,0,-2.7398987,12.362022,0.13067865,12.469021,5.478188e-05,0,1,0,1
32044000,31964000,31964000,0,-2.5838013,12.361962,-0.022684813,12.471156,1.650531e-06,0,1,0,1
32108000,32024000,32028000,0,-2.630951,12.362039,0.02909851,12.473933,2.7151768e-06,0,1,0,1
32164000,32084000,32084000,0,-2.682312,12.361979,0.084219456,12.476155,2.2740714e-05,0,1,0,1
32228000,32144000,32148000,0,-2.737915,12.362055,0.14382076,12.479043,6.6301276e-05,0,1,0,1
32284000,32204000,32204000,0,-2.684967,12.361996,0.09383154,12.48135,2.8216042e-05,0,1,0,1
32348000,32264000,32268000,0,-2.6888123,12.362072,0.07747388,12.4675,1.9257113e-05,0,1,0,1
32404000,32324000,32324000,0,-2.6036072,12.362011,-0.0044322014,12.4696045,6.301534e-08,0,1,0,1
32468000,32384000,32388000,0,-2.6271057,12.362086,0.02365756,12.4723425,1.794948e-06,0,1,0,1
32524000,32444000,32444000,0,-2.6409912,12.362025,0.04136467,12.474535,5.4864922e-06,0,1,0,1
32588000,32504000,32508000,0,-2.6593933,12.362102,0.06413126,12.4773855,1.3184872e-05,0,1,0,1
32644000,32564000,32564000,0,-2.6541138,12.3620405,0.06254053,12.479663,1.2536615e-05,0,1,0,1
32708000,32624000,32628000,0,-2.6488647,12.362116,0.034743786,12.465992,3.873356e-06,0,1,0,1
32764000,32684000,32684000,0,-2.611023,12.362054,0.0004813671,12.468065,7.433849e-10,0,1,0,1
32828000,32742666,32748000,0,-2.6391907,12.362128,0.033046246,12.470764,3.5027663e-06,0,1,0,1
32884000,32804000,32804000,0,-2.7139893,12.362067,0.11141753,12.472927,3.9810595e-05,0,1,0,1
32948000,32864000,32868000,0,-2.6660461,12.362142,0.067002535,12.4757395,1.4393823e-05,0,1,0,1
33004000,32924000,32924000,0,-2.726471,12.36208,0.130934,12.477987,5.4956658e-05,0,1,0,1
33068000,32984000,32988000,0,-2.7018127,12.362155,0.1099484,12.48091,3.8742844e-05,0,1,0,1
33124000,33044000,33044000,0,-2.6585693,12.362093,0.049553633,12.466541,7.878889e-06,0,1,0,1
33188000,33104000,33108000,0,-2.7097473,12.362167,0.10485625,12.469202,3.527037e-05,0,1,0,1
33244000,33164000,33164000,0,-2.6947327,12.362104,0.092897415,12.471334,2.7679253e-05,0,1,0,1
33308000,33224000,33228000,0,-2.7267761,12.362178,0.12868333,12.474108,5.310007e-05,0,1,0,1
33364000,33284000,33284000,0,-2.6176147,12.362116,0.02242136,12.476327,1.6117481e-06,0,1,0,1
33428000,33344000,33348000,0,-2.570465,12.36219,-0.020192862,12.479213,1.3069788e-06,0,1,0,1
33484000,33404000,33404000,0,-2.683319,12.362127,0.0971055,12.481515,3.021902e-05,0,1,0,1
33548000,33464000,33468000,0,-2.6401672,12.362202,0.03140664,12.467656,3.1645952e-06,0,1,0,1
33604000,33522000,33524000,0,-2.5976562,12.362139,-0.007594347,12.469758,1.8500474e-07,0,1,0,1
33652000,33572000,33572000,0,-2.6305847,12.361941,0.028612614,12.471312,2.6258078e-06,0,1,0,1
33716000,33632000,33636000,0,-2.6303406,12.362019,0.032390118,12.474093,3.3641556e-06,0,1,0,1
33772000,33692000,33692000,0,-2.5737,12.3619585,-0.02069354,12.476318,1.3729134e-06,0,1,0,1
33836000,33752000,33756000,0,-2.6677551,12.362036,0.07816124,12.479211,1.9581941e-05,0,1,0,1
33892000,33812000,33812000,0,-2.6107178,12.361976,0.02459097,12.48152,1.9379556e-06,0,1,0,1
33956000,33872000,33876000,0,-2.7278748,12.362053,0.10723996,12.467675,3.6896723e-05,0,1,0,1
34012000,33932000,33932000,0,-2.6001587,12.361993,-0.017954588,12.469785,1.0340747e-06,0,1,0,1
34076000,33992000,33996000,0,-2.6848145,12.362068,0.07074022,12.472527,1.6048645e-05,0,1,0,1
34132000,34052000,34052000,0,-2.5621033,12.362008,-0.049090385,12.474724,7.727195e-06,0,1,0,1
34196000,34112000,34116000,0,-2.553131,12.362083,-0.0532732,12.477578,9.098028e-06,0,1,0,1
34252000,34172000,34172000,0,-2.6944885,12.362023,0.092711926,12.47986,2.754999e-05,0,1,0,1
34316000,34232000,34236000,0,-2.5668945,12.362099,-0.056016922,12.466186,1.0068503e-05,0,1,0,1
34372000,34292000,34292000,0,-2.661316,12.362038,0.04297042,12.468265,5.923702e-06,0,1,0,1
34436000,34352000,34356000,0,-2.689087,12.362112,0.07518029,12.470969,1.8128747e-05,0,1,0,1
34492000,34412000,34412000,0,-2.5616455,12.362051,-0.048644066,12.473137,7.588292e-06,0,1,0,1
34556000,34470666,34476000,0,-2.623108,12.362125,0.018286705,12.475954,1.072154e-06,0,1,0,1
34612000,34530000,34532000,0,-2.6417236,12.362064,0.041331768,12.478208,5.4761554e-06,0,1,0,1
34660000,34580000,34580000,0,-2.6507568,12.361869,0.05403781,12.479867,9.359346e-06,0,1,0,1
34724000,34640000,34644000,0,-2.570465,12.361948,-0.04543352,12.466206,6.6233615e-06,0,1,0,1
34780000,34700000,34700000,0,-2.631897,12.361889,0.021837234,12.46829,1.5298483e-06,0,1,0,1
34844000,34760000,34764000,0,-2.5988464,12.361967,-0.0024273396,12.4710045,1.8898165e-08,0,1,0,1
34900000,34820000,34820000,0,-2.5472107,12.361908,-0.042524815,12.473178,5.7991956e-06,0,1,0,1
34964000,34880000,34884000,0,-2.6414795,12.361985,0.07083726,12.476004,1.608822e-05,0,1,0,1
35020000,34940000,34940000,0,-2.5516357,12.361926,0.0025291443,12.478263,2.0504684e-08,0,1,0,1
35084000,35000000,35004000,0,-2.4999695,12.362004,-0.0,12.481199,8.343349e-07,0,1,0,1
35140000,35060000,35060000,0,-2.476654,12.361945,-0.0,12.466822,2.8188597e-06,0,1,0,1
35204000,35120000,35124000,0,-2.495697,12.362021,0.036837816,12.469498,4.3531013e-06,0,1,0,1
35260000,35180000,35180000,0,-2.349823,12.361962,-0.0,12.4716425,1.3102917e-05,0,1,0,1
35324000,35240000,35244000,0,-2.3832703,12.362039,0.023899078,12.474431,1.8314773e-06,0,1,0,1
35380000,35300000,35300000,0,-2.3220215,12.361979,0.010753393,12.476663,3.7072562e-07,0,1,0,1
35444000,35360000,35364000,0,-2.2937622,12.362055,0.037255287,12.479562,4.4487347e-06,0,1,0,1
35500000,35420000,35420000,0,-2.284027,12.361996,0.07579708,12.477277,1.8418114e-05,0,1,0,1
35564000,35480000,35484000,0,-2.2410889,12.362072,0.0675056,12.4679985,1.4619847e-05,0,1,0,1
35620000,35536000,35540000,0,-2.09964,12.362011,-0.0,12.470113,3.3577032e-06,0,1,0,1
35668000,35588000,35588000,0,-2.085846,12.361815,-0.0,12.471677,3.9267968e-07,0,1,0,1
35732000,35648000,35652000,0,-2.029602,12.361895,-0.0,12.474473,1.4593526e-06,0,1,0,1
35788000,35708000,35708000,0,-1.992218,12.361837,-0.0,12.476712,1.1349904e-06,0,1,0,1
35852000,35768000,35772000,0,-1.931366,12.361917,-0.0,12.479619,3.7375119e-06,0,1,0,1
35908000,35828000,35828000,0,-1.9786377,12.361859,0.026661158,12.465419,2.2809256e-06,0,1,0,1
35972000,35888000,35892000,0,-1.9642944,12.3619375,0.05714667,12.468065,1.0477141e-05,0,1,0,1
36028000,35948000,35948000,0,-1.8276367,12.361878,-0.0,12.470186,5.259409e-06,0,1,0,1
36092000,36008000,36012000,0,-1.7716675,12.361957,-0.0,12.472946,8.392726e-06,0,1,0,1
36148000,36066000,36068000,0,-1.8660278,12.361897,0.08306515,12.475155,2.2123395e-05,0,1,0,1
36196000,36116000,36116000,0,-1.6868591,12.361706,-0.0,12.476788,1.2509119e-05,0,1,0,1
36260000,36176000,36180000,0,-1.6921082,12.361787,-0.0,12.479702,3.8842947e-07,0,1,0,1
36316000,36236000,36236000,0,-1.6781311,12.361732,-0.0,12.465499,9.559099e-08,0,1,0,1
36380000,36294666,36300000,0,-1.5561218,12.361812,-0.0,12.468153,2.1100639e-05,0,1,0,1
36436000,36356000,36356000,0,-1.4535522,12.361755,-0.0,12.470283,6.5491084e-05,0,1,0,1
36500000,36416000,36420000,0,-1.5205688,12.3618355,-0.0,12.47305,2.7087874e-06,0,1,0,1
36556000,36476000,36476000,0,-1.5067444,12.361779,-0.0,12.475267,9.6077875e-09,0,1,0,1
36620000,36536000,36540000,0,-1.497406,12.361859,0.03623724,12.478147,4.2093993e-06,0,1,0,1
36676000,36594000,36596000,0,-1.3843689,12.361803,-0.0,12.480449,4.0529753e-06,0,1,0,1
36724000,36644000,36644000,0,-1.3987732,12.361612,0.0009907484,12.465598,3.1497323e-09,0,1,0,1
36788000,36704000,36708000,0,-1.3330383,12.361695,-0.0,12.468262,9.5001815e-07,0,1,0,1
36844000,36764000,36764000,0,-1.3097229,12.361641,0.001156807,12.470398,4.2924126e-09,0,1,0,1
36908000,36824000,36828000,0,-1.1923523,12.361723,-0.0,12.473174,1.5068836e-05,0,1,0,1
36964000,36884000,36884000,0,-1.2539978,12.361669,0.034920216,12.475398,3.909844e-06,0,1,0,1
37028000,36944000,36948000,0,-1.183258,12.361751,0.01174593,12.478287,4.4226223e-07,0,1,0,1
37084000,37004000,37004000,0,-1.0845642,12.361696,-0.0,12.480595,6.517428e-06,0,1,0,1
37148000,37064000,37068000,0,-1.0708923,12.361778,-0.0,12.466861,2.3371958e-06,0,1,0,1
37204000,37124000,37124000,0,-0.9725342,12.361722,-0.0,12.4689665,2.2471477e-05,0,1,0,1
37268000,37184000,37188000,0,-0.89349365,12.361803,-0.0,12.471706,4.2565993e-05,0,1,0,1
37324000,37244000,37244000,0,-0.88513184,12.361747,-0.0,12.473902,2.155443e-05,0,1,0,1
37388000,37304000,37308000,0,-0.9328003,12.361828,0.013224542,12.476753,5.60686e-07,0,1,0,1
37444000,37364000,37364000,0,-0.8153076,12.361772,-0.0,12.479033,1.2627718e-05,0,1,0,1
37508000,37424000,37428000,0,-0.84872437,12.361852,0.005311787,12.465453,9.053849e-08,0,1,0,1
37564000,37484000,37484000,0,-0.7218933,12.361794,-0.0,12.46753,2.0584212e-05,0,1,0,1
37628000,37544000,37548000,0,-0.74142456,12.361874,-0.0,12.470231,5.5489227e-07,0,1,0,1
37684000,37604000,37604000,0,-0.4927063,12.361816,-0.0,12.472397,0.00015573166,0,1,0,1
37748000,37664000,37668000,0,-0.6871948,12.361896,0.021610439,12.475212,1.4974048e-06,0,1,0,1
37804000,37724000,37724000,0,-0.555542,12.361838,-0.0,12.477464,1.5121053e-05,0,1,0,1
37868000,37784000,37788000,0,-0.57962036,12.3619175,0.0029021502,12.480389,2.6994275e-08,0,1,0,1
37924000,37844000,37844000,0,-0.49508667,12.36186,-0.0,12.466092,1.022545e-05,0,1,0,1
37988000,37904000,37908000,0,-0.49090576,12.361938,-0.0,12.468756,5.8281245e-07,0,1,0,1
38044000,37964000,37964000,0,-0.39242554,12.361879,-0.0,12.470891,1.6063399e-05,0,1,0,1
38108000,38024000,38028000,0,-0.33673096,12.361958,-0.0,12.473668,2.0237778e-05,0,1,0,1
38164000,38084000,38084000,0,-0.375,12.361899,3.3676624e-05,12.475891,3.6361812e-12,0,1,0,1
38228000,38144000,38148000,0,-0.33743286,12.361977,0.009688586,12.478779,3.0089066e-07,0,1,0,1
38284000,38204000,38204000,0,-0.28570557,12.361918,-0.0,12.481086,1.6054563e-09,0,1,0,1
38348000,38262666,38268000,0,-0.19650269,12.361997,-0.0,12.467282,1.103711e-05,0,1,0,1
38404000,38324000,38324000,0,-0.23925781,12.361937,0.025258437,12.469387,2.0465757e-06,0,1,0,1
38468000,38384000,38388000,0,-0.17800903,12.362014,0.0108035505,12.472126,3.7432818e-07,0,1,0,1
38524000,38442000,38444000,0,-0.0887146,12.361954,-0.0,12.4743185,4.490404e-06,0,1,0,1
38572000,38492000,38492000,0,-0.08905029,12.36176,-0.0,12.475939,9.825588e-09,0,1,0,1
38636000,38552000,38556000,0,0.028289795,12.361841,-0.0,12.478834,1.6549808e-05,0,1,0,1
38692000,38612000,38612000,0,0.19665527,12.361785,-0.0,12.481147,0.00012665422,0,1,0,1
38756000,38672000,38676000,0,0.10568237,12.361865,-0.0,12.467346,9.772118e-06,0,1,0,1
38812000,38732000,38732000,0,0.09112549,12.361808,0.02613604,12.46944,2.1912533e-06,0,1,0,1
38876000,38792000,38796000,0,-0.06826782,12.361887,0.2463382,12.472139,0.0001946178,0,1,0,1
38932000,38848000,38852000,0,-0.07546997,12.36183,0.29511315,12.474273,0.00027926845,0,1,0,1
38980000,38900000,38900000,0,-0.03994751,12.361638,0.29059663,12.475821,0.0002707522,0,1,0,1
39044000,38960000,38964000,0,-0.060821533,12.361721,0.3511934,12.478588,0.000395355,0,1,0,1
39100000,39020000,39020000,0,0.017456055,12.361667,0.12401773,12.476582,4.930965e-05,0,1,0,1
39164000,39080000,39084000,0,-0.13638306,12.36175,0.27769196,12.467225,0.00024740974,0,1,0,1
39220000,39140000,39140000,0,-0.2090149,12.361694,0.3795522,12.46918,0.00046213102,0,1,0,1
39284000,39200000,39204000,0,-0.24319458,12.361775,0.44728875,12.471713,0.00064166717,0,1,0,1
39340000,39260000,39260000,0,-0.19692993,12.36172,0.4310123,12.473696,0.0005957227,0,1,0,1
39404000,39320000,39324000,0,-0.22595215,12.3618,0.49787658,12.476266,0.0007947285,0,1,0,1
39460000,39380000,39380000,0,-0.3623352,12.361745,0.6689825,12.478269,0.0014346144,0,1,0,1
39524000,39440000,39444000,0,-0.30471802,12.361826,0.423434,12.465273,0.0005753467,0,1,0,1
39580000,39500000,39500000,0,-0.3807373,12.36177,0.5354304,12.467086,0.00091981614,0,1,0,1
39644000,39560000,39564000,0,-0.37594604,12.361849,0.5734466,12.469447,0.0010548695,0,1,0,1
39700000,39618000,39620000,0,-0.46939087,12.361792,0.70548373,12.471284,0.0015963305,0,1,0,1
39748000,39668000,39668000,0,-0.44430542,12.361601,0.7136415,12.472584,0.0016332917,0,1,0,1
39812000,39728000,39732000,0,-0.3815918,12.361684,0.7006576,12.474997,0.0015740962,0,1,0,1
39868000,39788000,39788000,0,-0.25793457,12.36163,0.62281704,12.476864,0.0012435851,0,1,0,1
39932000,39848000,39852000,0,-0.45422363,12.361713,0.64368784,12.46432,0.0013296643,0,1,0,1
39988000,39908000,39908000,0,-0.45315552,12.361658,0.68997735,12.466022,0.0015275723,0,1,0,1
40052000,39968000,39972000,0,-0.42349243,12.36174,0.71666324,12.468256,0.0016477243,0,1,0,1
40108000,40026000,40028000,0,-0.3701172,12.361685,0.7134769,12.469984,0.0016328787,0,1,0,1
40172000,40086666,40092000,0,-0.3590393,12.361766,0.7635788,12.472256,0.0018699184,0,1,0,1
40228000,40148000,40148000,0,-0.5165405,12.3617115,0.9760871,12.474009,0.00305514,0,1,0,1
40292000,40208000,40212000,0,-0.42797852,12.361793,0.95231295,12.476316,0.0029075888,0,1,0,1
40348000,40268000,40268000,0,-0.25512695,12.361737,0.6042959,12.463625,0.0011719657,0,1,0,1
40412000,40328000,40332000,0,-0.28726196,12.361816,0.7045625,12.465741,0.0015928721,0,1,0,1
40468000,40388000,40388000,0,-0.23867798,12.36176,0.71530986,12.467377,0.0016416226,0,1,0,1
40532000,40448000,40452000,0,-0.27920532,12.36184,0.82634,12.46954,0.0021904188,0,1,0,1
40588000,40508000,40508000,0,-0.2013855,12.361783,0.81073034,12.471206,0.002108164,0,1,0,1
40652000,40568000,40572000,0,-0.17532349,12.361863,0.859551,12.4734125,0.0023692888,0,1,0,1
40708000,40628000,40628000,0,-0.2333374,12.361806,0.7511072,12.461263,0.0018109308,0,1,0,1
40772000,40688000,40692000,0,-0.21252441,12.361884,0.8054422,12.463293,0.002082073,0,1,0,1
40828000,40748000,40748000,0,-0.07382202,12.361827,0.7320378,12.464862,0.0017196478,0,1,0,1
40892000,40806666,40812000,0,-0.10482788,12.361905,0.83990425,12.466947,0.0022633902,0,1,0,1
40948000,40868000,40868000,0,-0.2709961,12.361847,1.0729215,12.468554,0.0036930046,0,1,0,1
41012000,40928000,40932000,0,-0.07357788,12.361925,0.9528808,12.470692,0.0029123703,0,1,0,1
41068000,40986000,40988000,0,-0.036865234,12.361867,0.98533446,12.472339,0.003113719,0,1,0,1
41116000,41036000,41036000,0,0.047088623,12.361674,0.73345524,12.460046,0.001726981,0,1,0,1
41180000,41096000,41100000,0,0.03488159,12.361755,0.82606,12.462046,0.0021902507,0,1,0,1
41236000,41156000,41156000,0,0.056396484,12.3617,0.8736528,12.463593,0.0024495963,0,1,0,1
41300000,41216000,41220000,0,0.09240723,12.36178,0.91759217,12.465655,0.0027017444,0,1,0,1
41356000,41276000,41276000,0,0.26965332,12.361724,0.8101183,12.467251,0.00210565,0,1,0,1
41420000,41336000,41340000,0,0.08911133,12.361805,1.0740877,12.469378,0.003700792,0,1,0,1
41476000,41392000,41396000,0,0.19265747,12.361749,1.0416317,12.471024,0.0034800563,0,1,0,1
41524000,41442000,41444000,0,0.366333,12.361558,0.7055472,12.459026,0.0015981888,0,1,0,1
41588000,41501333,41508000,0,0.30221558,12.361641,0.8529419,12.461026,0.0023353128,0,1,0,1
41636000,41552000,41556000,0,0.20187378,12.361452,1.008673,12.462099,0.003265649,0,1,0,1
41692000,41612000,41612000,0,0.37521362,12.361402,0.8698851,12.4636755,0.0024284972,0,1,0,1
41756000,41672000,41676000,0,0.5003662,12.361487,0.7867664,12.465766,0.0019862442,0,1,0,1
41812000,41732000,41732000,0,0.37597656,12.361437,0.9475483,12.467381,0.0028806299,0,1,0,1
41876000,41792000,41796000,0,0.40792847,12.361523,0.9565667,12.46952,0.002935221,0,1,0,1
41932000,41852000,41852000,0,0.28970337,12.361471,0.8943559,12.458283,0.0025681625,0,1,0,1
41996000,41912000,41916000,0,0.37750244,12.361555,0.8443724,12.460256,0.0022887643,0,1,0,1
42052000,41972000,41972000,0,0.40386963,12.361504,0.8504418,12.461778,0.002321503,0,1,0,1
42116000,42032000,42036000,0,0.45370483,12.361588,0.8384296,12.463798,0.002256019,0,1,0,1
