timestamp,timestamp_sample,xyz[0],xyz[1],xyz[2],xyz_derivative[0],xyz_derivative[1],xyz_derivative[2]
3344000,3344000,-0.002882462,-0.0042213947,-0.00012419978,0.053001337,0.09595364,-0.039305117
3348000,3348000,-0.0016170263,-0.0033093458,-0.00069190015,0.16621056,0.15272152,-0.08341825
3356000,3356000,-0.003089103,-0.0043380666,0.00034848892,-0.09798271,-0.038834136,0.07272982
3364000,3364000,-0.0025413737,-0.005804782,0.00040300583,0.038324457,-0.13013588,0.0011424175
3376000,3376000,0.0009656857,-0.0029575943,-0.0024709639,0.21932638,0.14410202,-0.16582793
3384000,3384000,-0.0036034442,-0.0066235852,0.00014775712,-0.314349,-0.29612127,0.18875602
3396000,3396000,0.0012231588,-0.0052044624,9.481395e-05,0.3173545,0.12935524,-0.015915887
3404000,3404000,0.0015612689,-0.00855317,2.6773818e-05,0.09923808,-0.2733468,-0.011595712
3416000,3416000,-0.0013313056,-0.002814936,-0.000108188186,-0.080316395,0.44675398,-0.07302087
3424000,3424000,0.0010941613,-0.0062075816,0.00092516915,0.16347942,-0.17158064,0.073793724
3436000,3436000,-0.0027311204,-0.0030397256,0.0011060303,-0.20817752,0.22535437,0.017414777
3444000,3444000,-7.3974676e-05,-0.005553066,-0.00077731616,0.14425465,-0.15795873,-0.12199899
3456000,3456000,-0.0010266264,-0.0045532985,-0.0011351997,-0.008188508,0.11533423,-0.14124037
3464000,3464000,0.00042536337,-0.0041875136,0.0001364016,0.11581798,0.010023339,0.09126294
3476000,3476000,-0.002975041,-0.006779325,-0.0004146092,-0.19198343,-0.043092445,0.03463895
3484000,3484000,8.670421e-05,-0.005067403,0.00028253734,0.18556441,0.14223266,0.044119477
3496000,3496000,4.7864305e-05,-0.0056855096,-0.0009337237,-0.024406873,-0.14905986,-0.045481175
3504000,3504000,-0.00039229097,-0.005492009,-0.0002897893,-0.03750656,0.0373424,0.03679578
3516000,3516000,-0.0019023155,-0.0052228346,-0.00119286,-0.10645589,-0.13240238,0.016754499
3524000,3524000,-0.001930043,-0.0072719194,0.00021203271,-0.034149513,-0.17960829,0.10744371
3536000,3536000,-0.0010084744,-0.0018596273,0.0011582498,0.023961667,0.29021192,0.043807376
3544000,3544000,-0.0008362765,-0.0035265693,-0.00050191383,0.022824492,-0.04483588,-0.10688998
3556000,3556000,-0.0016890777,-0.006574493,0.0016768284,-0.09994584,-0.29065895,0.095762804
3564000,3564000,-0.0035589766,-0.008739529,0.0001237427,-0.20983478,-0.24700043,-0.10244495
3576000,3576000,-0.0016060584,-0.0058644814,-0.0010650995,0.099459246,0.15269312,-0.086634226
3584000,3584000,-0.00269078,-0.006258936,0.00095350866,-0.049206037,0.015365959,0.1520487
3596000,3596000,-0.0014068545,-0.004941515,-0.0012570743,0.09585756,0.015371578,-0.111413464
3604000,3604000,-0.0008847108,-0.0032721534,0.0017117808,0.04634338,0.17336918,0.22035101
3612000,3612000,-0.0027621167,-0.0056416644,0.002854648,-0.11544703,-0.16873854,0.16020432
3620000,3620000,-0.00063484034,-0.0058833663,-0.0008830768,0.1260185,-0.07066874,-0.296148
3636000,3636000,-0.00017767571,-0.003325987,-0.00065446476,-0.08252982,0.025549239,0.07207371
3644000,3644000,-0.002282171,-0.0038581728,0.0022029288,-0.18343915,-0.015486536,0.2728538
3656000,3656000,-0.00059189636,-0.0034088162,0.0011653507,0.09831822,-0.057489343,-0.010924456
3664000,3664000,-0.00024382459,-0.004640113,-2.7663897e-05,0.05059287,-0.087480254,-0.111281924
3672000,3672000,-0.0020137406,-0.005375693,0.00044981335,-0.12475991,-0.13552824,0.010558126
3680000,3680000,-0.00031206393,-0.009532116,-0.0008934445,0.10874504,-0.37077397,-0.12365024
3696000,3696000,-0.0032524525,-0.0045359605,-0.00077753764,-0.25000355,0.28615627,0.047081713
3704000,3704000,-0.0022207506,-0.0042897775,0.00053024443,0.038442038,0.10522586,0.12499096
3716000,3716000,0.00047812035,-0.0058106226,-0.0014342543,0.23206705,-0.15349098,-0.073849894
3724000,3724000,0.00015484294,-0.0063562267,-0.0011646359,0.0041696504,-0.07053997,-0.0027372253
3736000,3736000,-0.00076675275,-0.00729537,6.138561e-05,-0.14004835,-0.10546428,0.06850755
3744000,3744000,-0.0012275609,-0.0077205785,-0.00013477834,-0.040181674,-0.033362933,0.018523207
3756000,3756000,0.0024388074,-0.006357139,0.0002120208,0.2866401,0.053597167,-0.029265227
3764000,3764000,0.0013429337,-0.00806794,-0.0007345781,-0.032982826,-0.13280654,-0.08024296
3776000,3776000,0.0005845695,-0.005340215,-0.0025927266,-0.017722573,0.19622359,-0.08429866
3784000,3784000,0.0009548881,-0.0057463357,0.0006681577,0.012817452,0.030978385,0.22993004
3796000,3796000,-0.0010105283,-0.0059248805,-0.0018920718,-0.1132822,-0.013113221,-0.11823615
3804000,3804000,-0.0015390688,-0.0068097096,0.00016422995,-0.063730076,-0.09610392,0.15499283
3816000,3816000,-0.0005155513,-0.0073834155,0.0006949877,0.008589178,-0.011028837,-0.0008041488
3824000,3824000,-0.0010560921,-0.0030907483,0.00046915078,-0.03373014,0.36540774,-0.009167448
3836000,3836000,0.00021909099,-0.0039218753,-0.0008253379,0.0925202,-0.098326534,-0.09328656
3844000,3844000,-0.0008216293,-0.004763023,-0.00082984957,-0.08730696,-0.07452442,-0.022945378
3856000,3856000,-0.0010062241,-0.0044980627,-0.002235455,0.06369896,-0.0009475844,-0.10802408
3864000,3864000,-0.0005173817,-0.0039081685,-0.0013930453,0.06506583,0.06772256,0.039720222
3876000,3876000,-0.0028548217,-0.004394195,-0.00068826636,-0.17931013,-0.05533056,-0.040400267
3884000,3884000,-0.00066918554,-0.006937161,-0.0012310767,0.13624726,-0.25629175,-0.021743268
3896000,3896000,-0.002937072,-0.005492257,0.00056049746,-0.07548238,0.16609687,0.0030410616
3904000,3904000,0.0010066174,-0.0065598097,-0.0026841192,0.30513486,-0.08338922,-0.25786728
3916000,3916000,-0.0039026928,-0.0030546114,-0.0017403099,-0.29992735,0.40401587,0.068348326
3924000,3924000,0.00083499664,-0.003218073,0.00053299207,0.3342109,0.059546556,0.22125757
3936000,3936000,-0.002123161,-0.0059607127,-4.181979e-05,-0.19830784,-0.047527425,-0.04135281
3944000,3944000,-0.00017470488,-0.004764856,6.510719e-05,0.08446854,0.035549477,0.025320973
3956000,3956000,-0.001473425,-0.0035023703,0.0016568789,-0.035509847,0.069528885,-0.0027317393
3964000,3964000,-0.0002495913,-0.0057985783,-0.0005892238,0.08884894,-0.19499318,-0.16773438
3976000,3976000,0.0009645119,-0.006760572,0.0015697165,0.07054563,0.006670338,0.15575142
3984000,3984000,-0.0015219063,-0.0027627298,0.0027395522,-0.19221398,0.294358,0.10461178
3996000,3996000,-7.493963e-05,-0.0036755125,0.00021113819,0.11725109,0.033743773,-0.10061097
4004000,4004000,0.0005085247,-0.0038464018,-0.0014350328,0.08970946,-0.034598712,-0.17166139
4016000,4016000,0.000980438,-0.005457807,0.0019249144,0.012853831,-0.052715365,0.19865923
4024000,4024000,0.00080783234,-0.007375143,0.0014545341,0.00565405,-0.17606366,-0.0016359494
4036000,4036000,0.0026578512,-0.005306153,0.0008696567,0.05583366,0.10275702,-0.055591475
4044000,4044000,-0.00037059927,-0.0011003037,0.0006434566,-0.23240802,0.3819975,-0.05393416
4056000,4056000,-0.0016650362,-0.00651436,-0.0013385628,-0.111192524,-0.31778648,-0.029699376
4064000,4064000,0.00012960844,-0.006819193,0.0034132057,0.1258916,-0.09334693,0.37608477
4076000,4076000,-0.00034316262,-0.003943847,-0.00042772532,0.03697749,0.1052271,-0.17160942
4084000,4084000,0.0009904157,-0.00464939,-0.0006607608,0.114004165,-0.020903992,-0.090858795
4096000,4096000,-0.0020550108,-0.0052613122,0.00014508291,-0.14417735,-0.025549956,0.09061505
4104000,4104000,-0.0002895457,-0.0054264273,3.513047e-05,0.10833387,-0.021789752,0.0188386
4116000,4116000,-0.0021207482,-0.0025590733,0.0007416064,-0.17313868,0.21492095,0.042657692
4120000,4120000,-0.0022736788,-0.002540351,0.001732759,-0.115146786,0.12454518,0.13083689
4132000,4132000,1.616648e-05,-0.005286428,-0.0010814448,0.14538656,-0.1877774,-0.19567534
4144000,4144000,0.00034744607,-0.0019697696,-0.0019361054,-0.11579387,0.25128356,-0.11509087
4156000,4156000,-0.00092239125,-0.0045968015,-0.00073246664,-0.016730174,-0.13159905,0.0826801
4164000,4164000,0.0012006762,-0.0056081368,-0.0018009732,0.15809824,-0.11905868,-0.05781012
4176000,4176000,-0.0041385307,-0.0014202327,-0.0032373352,-0.37325627,0.27421248,-0.049323447
4184000,4184000,-0.003978591,-0.00093571213,-0.0020803171,-0.07463708,0.089418344,0.07709594
4196000,4196000,-0.0018395375,-0.00036029378,-0.00076471095,0.13998003,0.10002423,0.09662236
4204000,4204000,0.00070884876,-0.00454878,0.0010226911,0.22937432,-0.33222577,0.16253622
4216000,4216000,-0.0030495785,-0.001355378,-0.0035106714,-0.14745496,0.21525447,-0.2873888
4224000,4224000,-0.00029379595,-0.0008957442,0.00030379128,0.20303637,0.095098,0.26852557
4236000,4236000,7.327227e-05,-0.0022842307,0.0012976709,-0.035652258,-0.02678395,0.037529387
4244000,4244000,0.00024216372,-0.004867113,0.00032545175,0.035807345,-0.25575355,-0.056447867
4256000,4256000,-0.0024824874,-0.0036667148,-0.0001850879,-0.29359257,0.19495079,-0.09198228
4264000,4264000,-0.0004528449,-0.00035952614,-0.0013036997,0.12611006,0.2696602,-0.10880733
4276000,4276000,0.00082845,-0.001121832,0.0014960994,0.005443774,0.093907066,0.13841738
4284000,4284000,-0.0020371433,-0.004126938,0.001349712,-0.23714504,-0.2696479,0.041824527
4296000,4296000,-0.0008621587,-0.0012461096,-0.0015911756,0.17632857,0.27242565,-0.24621007
4304000,4304000,0.0011761268,-0.0019871374,0.0012542224,0.204041,-1.8517825e-05,0.17947115
4316000,4316000,-0.0012182944,-0.00218406,0.00074559206,-0.06686458,0.023609262,-0.030549748
4324000,4324000,0.0015602198,-0.003385692,-0.00046039943,0.18914837,-0.103780836,-0.106996134
4332000,4332000,0.0010067411,-0.0032637399,2.19215e-05,0.011166181,-0.0140073225,0.0029400566
4340000,4340000,0.00093661615,-0.0024554203,-0.0023833348,0.004788953,0.058117773,-0.20938788
4356000,4356000,-0.00039183284,-4.4401735e-05,-0.0006689469,-0.00078618526,0.014949693,0.027068527
4364000,4364000,-0.0016781888,-0.0033424948,0.0003197231,-0.12545072,-0.27000344,0.08869282
4376000,4376000,0.0017649755,-0.002403527,-5.570169e-05,0.23519042,0.020278977,0.007749493
4384000,4384000,0.0021435842,-0.0026783263,0.0018810106,0.11042644,-0.0038052222,0.16909158
4396000,4396000,0.00078709406,-0.0010361276,-0.002452709,-0.16138776,0.103515826,-0.18588844
4404000,4404000,-0.0005421124,-0.002002392,-0.0006714572,-0.14260554,-0.06025196,0.0822736
4416000,4416000,0.0009453909,-0.0019276468,0.0008518734,0.04326027,0.08447769,0.09324757
4424000,4424000,0.0008790952,-0.00018583564,0.00096180954,0.030303488,0.14843434,0.029498452
4436000,4436000,0.0017712662,-0.0031778193,-0.00023441293,0.0024602711,-0.20488892,-0.019210164
4444000,4444000,0.0011911762,-0.0022480325,0.0009410607,-0.067826584,0.051728748,0.066912316
4456000,4456000,-0.0016572643,-0.0028090319,-0.0033474448,-0.16322811,-0.09017795,-0.14764848
4464000,4464000,0.0022017073,-0.00071422616,-0.0013529321,0.26092422,0.1740527,0.12510294
4476000,4476000,-0.00091118173,0.0011282484,-0.0020568385,-0.17485823,0.16643178,-0.039319158
4484000,4484000,-0.0041937386,-0.0006657252,-0.0022196565,-0.31498092,-0.12490145,-0.027943807
4496000,4496000,-0.002311558,0.0005890108,-0.0030757335,0.05128251,0.11711565,-0.045647528
4504000,4504000,-0.0016708872,-0.00046164077,-0.0013116348,0.08332789,-0.048011906,0.13848549
4516000,4516000,-0.00053918065,-0.002626122,0.0010158843,0.07022476,-0.17772771,0.14696673
4524000,4524000,-0.00085009733,-0.0030996548,1.514412e-05,-0.028854355,-0.0888137,-0.037460078
4536000,4536000,0.0016146303,-0.0011045597,0.0003901897,0.14301534,0.17668727,0.08445643
4544000,4544000,-0.0016745795,-5.065417e-05,-0.0011340044,-0.21707429,0.109752566,-0.14887601
4556000,4556000,-0.0025996112,-0.0014523813,-0.00094571605,-0.0842482,0.033417,0.053472787
4560000,4560000,-0.00072951574,0.00044587534,-0.0013691152,0.15294142,0.22305241,-0.015015015
4576000,4576000,0.0004422277,-2.2151507e-06,-0.0019065423,-0.023174886,-0.116620764,0.058408972
4584000,4584000,-0.0017899033,0.00036117714,-0.000523807,-0.17264934,-0.00021320464,0.14609766
4596000,4596000,0.0007869727,0.001327743,-0.0005797658,0.1508483,0.12794942,-0.04819666
4604000,4604000,0.00039609574,0.00070790155,-0.0012055453,-0.017499417,-0.036718234,-0.068933025
4616000,4616000,0.001163059,0.0009819353,-0.0015871788,0.09857896,-0.060904194,0.028411282
4624000,4624000,-0.0008162147,-0.0014168466,-1.2303353e-05,-0.16139814,-0.19915923,0.13793507
4636000,4636000,-0.00037833222,-0.0023488868,0.00060867076,0.0785725,-0.08022508,0.033985246
4644000,4644000,0.000162385,0.0002954998,0.00246235,0.087031916,0.21855654,0.16921636
4656000,4656000,-0.0013002043,-0.00059509184,0.00028198457,-0.13900061,-0.12710342,-0.10363573
4664000,4664000,4.9670693e-05,-0.002373389,0.0017688791,0.07379634,-0.17623232,0.07010159
4676000,4676000,-0.0010522839,0.00049280375,-0.0007034431,-0.06585112,0.17620675,-0.117561266
4684000,4684000,-3.4054392e-05,-0.00069924444,0.0028895156,0.07484302,-0.087877944,0.27161446
4696000,4696000,-0.0007786014,0.0009818873,-0.0014644968,-0.06358757,0.25144815,-0.20507312
4704000,4704000,-0.0007377637,0.00059153885,-0.000792274,-0.005096283,0.011916616,-0.031019956
4716000,4716000,-0.0011314461,-0.0004795161,0.0002535506,-0.0748121,-0.007634046,0.12170771
4724000,4724000,-0.0002336402,0.00043200096,0.0033036696,0.091762684,0.057782907,0.2794671
4736000,4736000,0.001635256,-0.0039779963,0.0011008005,0.12318319,-0.31895503,-0.15352668
4744000,4744000,-0.00045210047,-0.0034245746,-0.003452537,-0.13411283,-0.046922248,-0.4018458
4756000,4756000,-0.00209212,-0.0007463647,0.0012254593,-0.16884077,0.15296982,0.346012
4764000,4764000,-0.0023965326,0.00051296875,-0.0006694506,-0.063742,0.14661542,-0.09290637
4772000,4772000,-0.0018907599,0.0005821679,-0.0001932485,0.013893975,0.08015975,0.038411714
4784000,4784000,0.0009511181,0.0005390649,-0.0062737,0.24136953,-0.053374335,-0.4700449
4796000,4796000,-0.00014776521,0.00021743355,-0.00029071118,-0.036712646,-0.039345726,0.34227496
4804000,4804000,-0.00042646524,0.0025442326,-0.00019751943,-0.023007955,0.18268082,0.096628875
4816000,4816000,-0.0022622268,-3.5333447e-05,-0.00017341692,-0.15059748,-0.19444206,0.10587481
4824000,4824000,0.000759116,-0.00067893276,0.00057029526,0.20814526,-0.066499054,0.09098652
4836000,4836000,-0.00062020996,0.0012118858,0.0011296059,-0.06164623,-0.008970857,-0.0054621473
4844000,4844000,0.0006233294,0.0031898175,-0.00029791647,0.08136807,0.18367632,-0.1238388
4856000,4856000,0.0008831803,0.003970825,0.00073261943,0.0136479605,0.045374632,0.10967107
4864000,4864000,-0.0002936517,-0.00034594256,-0.0042916536,-0.101091444,-0.34402537,-0.4332558
4876000,4876000,0.0016340978,-0.00126311,-0.0021866304,0.13458042,-0.06628997,0.10759819
4884000,4884000,-0.0009308214,0.002107927,-0.0029278363,-0.18807581,0.26460847,-0.013130345
4896000,4896000,0.004291176,0.0011624615,-0.0021285429,0.3134024,-0.07340306,0.05123826
4904000,4904000,0.0046710833,-0.0016062316,-0.001355253,0.10126533,-0.26374388,0.06734981
4912000,4912000,0.0018250765,-0.0031244317,-0.0041206037,-0.18209033,-0.20914716,-0.23358124
4924000,4924000,0.0007678255,0.0019644932,-0.0025263424,-0.1459091,0.40582803,0.21188577
4936000,4936000,0.00052130315,0.0010779435,-0.0018513339,0.023902744,-0.045433663,0.05824078
4940000,4940000,0.0024409965,0.0022467177,-0.0012234645,0.21993178,0.09970176,0.100680254
4956000,4956000,0.0009830315,6.0859136e-05,-0.0026142336,-0.16121925,-0.16341534,-0.008281055
4964000,4964000,0.0007139937,-0.00025953073,-0.00079963537,-0.06292021,-0.07975347,0.0970002
4972000,4972000,0.002957773,0.00097330473,-0.0034398886,0.18342718,0.07354067,-0.15608525
4984000,4984000,-0.00020958332,0.00045502605,-0.0011587355,-0.2918271,-0.0064992374,0.11952087
4992000,4992000,-0.0016168639,-0.00024201255,-0.0012891612,-0.19217561,-0.05796452,0.03447961
5000000,5000000,0.0010946344,0.0004077875,-0.00071951863,0.19416232,0.047850788,0.060410373
5016000,5016000,0.0033847527,-0.000598453,-0.0023379792,0.18839233,-0.02181523,-0.039246716
5024000,5024000,0.0018262484,0.00013767695,-0.0017574837,-0.056805145,0.04460953,0.03606893
5036000,5036000,-0.0005356512,0.00096849166,-0.0043254206,-0.27098963,0.13142411,-0.20497058
5044000,5044000,-0.0027445634,0.004053395,-0.002991296,-0.24488011,0.29295146,0.048212223
5056000,5056000,0.0013931511,0.00067602005,-0.0041551846,0.23433474,-0.18593316,-0.05586149
5064000,5064000,0.0023274133,0.00076907873,-0.00015258451,0.15542294,-0.08457726,0.33148116
5072000,5072000,0.0011021635,0.000409469,0.0010763773,-0.07628332,-0.008892436,0.19008133
5084000,5084000,-0.00042032253,0.0002041487,-0.0029345993,-0.06595433,-0.0070696464,-0.2729263
5096000,5096000,0.0011587002,0.002449191,-0.0006159028,0.16298947,0.120462224,0.117873386
5104000,5104000,0.002005923,0.0030091798,-0.0040499596,0.10627981,0.0686671,-0.29669335
5112000,5112000,8.4481435e-05,-0.0010845363,-0.006345836,-0.12759566,-0.32084072,-0.21808755
5120000,5120000,0.00037692697,0.0017833472,6.669422e-05,0.0014144331,0.1770906,0.45949513
5136000,5136000,0.0028829402,0.001088622,-0.0040831002,0.029770315,-0.09611638,-0.14601415
5144000,5144000,-6.104342e-05,0.002734056,-0.00095024426,-0.2377134,0.08398196,0.21241193
5156000,5156000,0.0013384124,0.0021387942,-0.0033522593,0.07450543,-0.054781813,-0.1587539
5164000,5164000,0.00042849628,0.00069932407,-0.002967549,-0.082800835,-0.12770234,-0.012378903
5176000,5176000,0.0022124667,0.0004866612,-0.0037200083,0.28816354,-0.053573966,-0.012533893
5184000,5184000,0.00091444206,-0.00052071735,-0.0025539617,-0.07397771,-0.10845076,0.090701744
5196000,5196000,0.0009340534,-0.0012970171,-0.0023719901,-0.024480455,-0.044520516,0.026156604
5204000,5204000,-0.0009788506,0.00120772,-0.0033080406,-0.1268742,0.21875504,-0.053172138
5216000,5216000,0.001331952,0.002111309,-0.0017704333,0.07291707,0.03867423,0.122760415
5224000,5224000,-0.00050127483,0.0018483277,-0.002472021,-0.15761946,-0.006675542,-0.046190258
5236000,5236000,-0.0011797932,-0.0002906518,-0.0015778239,-0.008366913,-0.11999735,0.068167
5240000,5240000,0.0010727064,0.0016743378,-0.0021930444,0.23729962,0.14275771,-0.027251909
5256000,5256000,-0.00033275387,0.0002816622,-0.0042686844,-0.082970776,-0.06370472,-0.061745502
5260000,5260000,4.6470086e-05,0.00019531511,-0.0036909922,-0.006550085,-0.04559953,0.026879966
5272000,5272000,-0.00048523163,0.0004994273,-0.0013761465,0.010938607,-0.01294749,0.11018283
5284000,5284000,0.001797453,-0.0021511232,0.0004235804,0.113278955,-0.17997587,0.14961997
5296000,5296000,-0.0008137992,-9.74671e-05,-0.0038932348,-0.16710919,0.14676462,-0.31398937
5304000,5304000,0.00085897814,0.00010124035,-0.0035675894,0.085008435,0.046410352,-0.044772275
5316000,5316000,0.0009853347,-0.000588377,-0.0030301753,0.06306132,-0.08392703,0.07026017
5324000,5324000,0.0020468822,-0.00091503374,-0.0028323438,0.09619148,-0.029220916,0.019336995
5332000,5332000,0.000813221,0.0010190597,-0.0032483246,-0.09877263,0.16355377,-0.028839549
5340000,5340000,-0.00096598617,-7.92332e-05,0.0013081452,-0.14450368,-0.08553912,0.41998202
5352000,5352000,-0.0012899104,0.0018343132,0.00044098264,-0.04298275,0.29232597,-0.079941474
5360000,5360000,0.0014858532,0.0015516807,0.00095985155,0.21898252,0.008484065,0.04649761
5372000,5372000,0.0037206023,-0.0013858024,-0.0016829988,0.11249974,-0.09955073,-0.18955652
5380000,5380000,0.0024470992,-0.0016237716,-0.0054841293,-0.066071615,-0.062908225,-0.4013719
5396000,5396000,-0.0004737121,0.0011726134,-0.002633649,-0.11085412,0.07528986,0.2583573
5404000,5404000,0.0015154803,0.00047843903,-0.0014180725,0.14453582,-0.01950433,0.17852128
5412000,5412000,0.0032472932,0.0007307632,-0.0038510717,0.1806348,0.014019184,-0.16488566
5424000,5424000,0.0014092642,-3.592111e-05,-0.0018531629,-0.09932127,-0.10158292,0.23676422
5436000,5436000,0.0026271036,0.0028440352,-0.00057341566,0.037981883,0.24976033,0.06984512
5440000,5440000,0.0018560725,0.0032233284,-0.00014415453,-0.061205894,0.18315774,0.08595237
5456000,5456000,-0.0015690095,-0.003637107,-0.00021863938,-0.12231949,-0.19064967,-0.14322744
5464000,5464000,0.0008520414,0.00059362035,-0.0011448662,0.19197842,0.27891278,-0.12008581
5476000,5476000,0.0024127415,0.0004472416,-0.0027931358,0.16851899,0.060479414,-0.15388937
5484000,5484000,0.003147866,-0.00032295147,-0.004414177,0.062054463,-0.09197755,-0.16459298
5496000,5496000,0.0004962374,0.0006832918,-0.0022100965,-0.11980254,0.17351864,0.14536513
5504000,5504000,0.00060248387,-0.000501405,0.00049663684,-0.011229571,-0.059374444,0.2683356
5516000,5516000,0.0024121224,0.0010509025,-0.0021658135,0.08538162,0.060820483,-0.22315463
5524000,5524000,0.00025850267,0.00042223092,-0.003002732,-0.16177696,-0.02529688,-0.10732355
5536000,5536000,0.0021426026,0.0006278362,-0.0021118757,0.06575152,-0.03520248,0.015143004
5544000,5544000,0.0003141032,-0.00025044428,-0.0023324494,-0.123499334,-0.059876643,-0.008218781
5556000,5556000,-0.0012907953,0.0011835792,0.0005528827,-0.12107165,0.06221253,0.17733961
5564000,5564000,-0.0003384581,-0.0009257402,-0.0014740428,0.03926285,-0.1619445,-0.12124622
5576000,5576000,-0.000804484,0.0002798126,-0.002858638,0.002206793,0.11915921,-0.11940025
5584000,5584000,0.00086646935,0.00038699433,-0.0036244516,0.14091614,0.042287212,-0.09641445
5596000,5596000,-2.367387e-05,0.0011807019,-0.0023239,0.015858222,0.035571497,0.034010425
5604000,5604000,0.0012631764,0.0027111813,-0.0030353535,0.09927117,0.15127072,-0.04453313
5616000,5616000,-0.0013654254,0.0013937275,-0.00028599915,-0.13689584,-0.1052473,0.12816826
5624000,5624000,0.0023727543,0.0021069127,-0.002656836,0.2512794,0.03343335,-0.13825622
5632000,5632000,0.001055977,0.0007173475,-0.0022628016,-0.02066684,-0.11650498,-0.012534594
5640000,5640000,0.0020095953,0.0013821474,-0.0015829436,0.079164594,0.03295103,0.08302679
5652000,5652000,0.002710021,3.5245437e-05,-0.0013631757,0.069216676,-0.11779941,-0.04662977
5660000,5660000,0.0007471371,0.0014307234,-0.0030427359,-0.16632889,0.10014512,-0.14228402
5676000,5676000,-0.0006734781,0.0010515386,-0.0018991822,-0.13333933,-0.22362265,0.07327383
5684000,5684000,0.00025452452,-0.0015501208,-0.0018567087,0.046861522,-0.25719613,0.0059658205
5696000,5696000,-0.000493134,0.0008502002,-0.0020307235,0.0041864514,0.16105711,0.05446142
5700000,5700000,0.00047840655,0.00070269825,-0.0013956631,0.10679558,0.07597206,0.099298336
5716000,5716000,0.00023915828,-0.0005072602,-0.0067843273,-0.13627571,-0.050615437,-0.29254398
5720000,5720000,-0.0017863043,0.0006705695,-0.0055260677,-0.29536587,0.09772064,-0.031566843
5736000,5736000,0.0005532745,0.0012496524,-0.002216176,0.1316958,-0.0026116287,0.16483228
5740000,5740000,-0.000860358,0.0012007086,-0.002263425,-0.07683525,-0.006748824,0.08889831
5756000,5756000,0.0011036821,0.0010720482,-0.0028710254,0.07264203,0.07173292,0.021136502
5760000,5760000,-0.0009541953,0.000999324,-0.0034807664,-0.17973885,0.03308171,-0.053476594
5772000,5772000,-0.0011877447,0.0024100877,-0.0013590059,0.018692888,0.10915659,0.17510915
5780000,5780000,-0.00047375693,0.0021829288,-0.002734678,0.044647794,0.00554995,-0.090611055
5792000,5792000,0.0008542832,0.0041968655,-0.002940315,0.12898842,0.16738206,0.018630061
5804000,5804000,0.00035411387,0.0018695239,-0.0039764666,0.0041438756,-0.1332345,-0.161047
5816000,5816000,-0.002838099,-0.0016362844,-0.002169374,-0.25357014,-0.24166045,0.097418495
5824000,5824000,1.2038858e-05,-0.0009950772,-0.0013189244,0.20729627,-0.009044991,0.059844922
5836000,5836000,0.00066438294,0.0007535084,-0.0021877,-0.024168007,0.116023675,-0.03088115
5844000,5844000,-0.0001589678,-0.00026465766,-0.0034983726,-0.07478644,-0.07382198,-0.11788207
5856000,5856000,4.981167e-05,0.0021709464,0.0005481943,0.0013703043,0.1571985,0.31473583
5864000,5864000,0.00094062753,0.0006437688,-0.00013129553,0.066804744,-0.08345877,-0.0054186746
5876000,5876000,-0.00040819112,0.00014570635,-0.001986595,-0.059440427,-0.016663106,-0.032211676
5880000,5880000,0.00013893761,-0.00049560703,-0.00043929368,0.02490956,-0.07842031,0.1479193
5896000,5896000,-0.0020843064,0.00012726802,-0.0024744892,-0.19431305,0.10301233,-0.22363406
5904000,5904000,-0.00037758786,0.002466962,-0.0029966435,0.0881425,0.25795537,-0.12797791
5916000,5916000,-0.0012283457,0.0006737821,-0.0012672192,-0.03700754,-0.20231606,0.15678994
5924000,5924000,0.0023742046,-0.0017638966,-0.0022372676,0.3061344,-0.29280457,-0.04861845
5936000,5936000,0.0021016512,-0.0022378163,-0.0034507941,-0.0108520165,0.07534735,-0.0935401
5944000,5944000,0.0032150513,-0.0010002702,-0.0023983277,0.08523548,0.10920452,0.078142144
5956000,5956000,0.0010981192,-0.0018810118,-0.0028913177,-0.11120192,-0.03505317,-0.06961277
5964000,5964000,0.0010129397,-0.0013663932,-0.0036867624,-0.07075002,0.052434076,-0.050471906
5976000,5976000,0.0024479248,0.0005638553,-0.00017868797,0.13505799,0.100650035,0.11656939
5984000,5984000,0.00044104469,3.924826e-05,-0.0015905368,-0.14025773,0.011854096,-0.0583712
5996000,5996000,0.000652135,0.0032194653,-0.0020167986,0.016253218,0.14060679,-0.08638125
6004000,6004000,0.002151281,0.0018110061,-0.0038121492,0.13497965,-0.10491201,-0.16151208
6012000,6012000,0.0006128192,0.0010173917,0.00016852561,-0.1103203,-0.04065923,0.29018113
6024000,6024000,0.000483845,0.00033254642,-0.00089458766,-0.0048019104,-0.115664914,-0.016627772
6036000,6036000,0.0013578837,-0.00050425716,-0.0025827922,-0.01943259,-0.15075378,-0.11761078
6044000,6044000,-0.0019385508,0.0013339454,-0.0014426769,-0.27126232,0.12808436,0.060282018
6056000,6056000,-0.0024123325,0.00042128982,0.00063685846,-0.07519795,-0.031803843,0.13547894
6064000,6064000,-0.002948745,-0.00045612548,0.00022075459,-0.044366866,-0.07088892,0.009517628
6072000,6072000,0.0004825655,-0.00017202785,0.0011278978,0.27891552,-0.003619612,0.06830639
6084000,6084000,0.0003302527,0.0017149565,8.3704304e-05,0.0025713257,0.11143345,-0.06130478
6096000,6096000,0.0013821964,0.0007909634,-0.0007884266,0.04287338,-0.0387058,-0.033388074
6104000,6104000,0.0006965978,-0.0023705703,-9.075389e-06,-0.035710603,-0.29337987,0.05783761
6116000,6116000,-0.00020730344,0.00066280225,-0.0016774706,-0.21628046,0.22594851,-0.20031749
6124000,6124000,0.00018649478,0.00020392379,-0.00024981418,0.017324165,-0.023237767,0.096168414
6136000,6136000,-0.0003375376,-0.00019203732,0.0007672429,-0.083231494,0.15278111,0.05348419
6144000,6144000,0.0020498198,0.0034267015,0.002359168,0.18541072,0.30454302,0.16177985
6156000,6156000,0.0017903789,0.0011888137,0.0005333274,-0.053150013,-0.019829275,-0.12422381
6164000,6164000,-0.0005359717,0.00037985342,-0.0015293465,-0.19991672,-0.09506834,-0.19829652
6176000,6176000,-0.0004666564,-0.00057961186,-0.0019538763,-0.09049111,-0.047713295,-0.08955435
6184000,6184000,-0.0013581638,-0.00042370288,-0.0027566855,-0.076970346,-0.038726423,-0.10277879
6196000,6196000,0.0025474243,-8.872291e-05,-0.0018286632,0.31754148,0.15457475,0.082740106
6204000,6204000,0.0023323325,0.0022279546,-0.0013476267,0.0357686,0.20807165,0.051088545
6216000,6216000,-0.00067895884,-0.0009100139,-0.00048301823,-0.19366364,-0.11190232,0.10308958
6224000,6224000,0.0011018901,0.0034334077,-0.00059385947,0.12909557,0.29654512,0.0023072748
6236000,6236000,-0.001594686,-0.00074147526,-0.0001326038,-0.32515177,-0.12370697,0.023643134
6244000,6244000,-0.002107992,0.0031684283,-0.0022451098,-0.104154564,0.29053515,-0.16813803
6256000,6256000,0.0021149865,-6.1276834e-05,-0.0032206592,0.24528363,-0.2692451,-0.051659387
6260000,6260000,0.0018870333,-0.0016542594,-0.0022306065,0.11876717,-0.3277616,0.14259654
6276000,6276000,0.00065440615,0.0023811834,-0.0003283834,0.061384924,0.26811066,0.08531888
6280000,6280000,0.0015035536,0.0020287705,-0.001667054,0.12625296,0.11498541,-0.09522024
6292000,6292000,0.0028169528,-0.00075847283,-0.006370024,0.050342835,-0.088193156,-0.161114
6300000,6300000,0.0016428543,-0.002477015,-0.0023943908,-0.07886809,-0.1799283,0.27474558
6316000,6316000,0.001206005,-0.00091673015,0.0022062326,0.018250424,0.12635571,0.18128255
6324000,6324000,0.0010983566,0.0011757845,-0.0020334572,-0.0049575064,0.18188713,-0.30644238
6336000,6336000,0.0035113588,0.0011255261,-0.0013288469,0.13318877,0.0065549184,0.10695489
6344000,6344000,0.0009195642,0.0012361584,-0.00038673403,-0.155799,0.027302338,0.10692203
6356000,6356000,0.0021518539,-0.0028333203,0.00016498554,0.0040170997,-0.3646616,0.08636984
6364000,6364000,0.00022946135,-0.0049896003,-0.0010839262,-0.17081472,-0.24629818,-0.076147065
6376000,6376000,0.003739673,0.0002023736,0.0019612007,0.23527719,0.26807505,0.052942652
6384000,6384000,0.0012200896,0.001991395,-0.0023992169,-0.15027864,0.23539218,-0.32170057
6396000,6396000,0.0008092401,-8.812966e-05,-0.00091158587,-0.022335116,-0.09458606,0.077498175
6400000,6400000,0.0007056999,-0.00044169324,7.7461125e-05,-0.023861121,-0.09192295,0.15047425
6412000,6412000,0.00023343065,-0.0013210708,0.00022197736,0.0723132,-0.048715647,0.029620249
6424000,6424000,-0.00074240007,-0.0029188977,-0.0019327967,-0.14529799,-0.07284944,-0.12994927
6436000,6436000,0.0021464173,0.00063150143,-0.0012736995,0.19285211,0.1411021,0.055593383
6444000,6444000,0.0008509059,0.0006768489,-0.0007120531,-0.07434696,0.08828583,0.06266775
6456000,6456000,0.00076513237,0.0025490103,-0.0010395934,0.026470933,0.08087294,-0.059476044
6464000,6464000,0.0020479388,-0.0010490641,6.464822e-05,0.111691706,-0.2766396,0.12211405
6476000,6476000,0.00020088186,0.0024021212,-0.0003792958,-0.103218324,0.25243124,-0.11230572
6484000,6484000,0.001861529,0.0013934607,-0.0030091144,0.106710225,-0.05104019,-0.25754076
6496000,6496000,0.00060464605,-0.0031624543,-0.0023540326,-0.02969883,-0.28885752,0.057395373
6504000,6504000,0.00064205006,-0.0027497844,-0.0011962038,-0.012190717,-0.066636205,0.08688257
6516000,6516000,0.00089167396,0.002593102,-0.0017663405,-0.013765285,0.38161808,0.041543256
6524000,6524000,0.0017969693,-2.9146671e-05,-0.0020140295,0.078968436,-0.110984966,-0.028046915
6536000,6536000,0.0011472995,0.0013210918,-0.0028682104,-0.0591861,0.04862972,-0.012883744
6544000,6544000,2.3535686e-06,0.00054305466,-0.0031364728,-0.11047284,-0.0544589,-0.023752563
6556000,6556000,0.000423957,0.0029103882,0.0010351262,-0.01312531,0.13484824,0.3266859
6564000,6564000,-0.00032591878,0.001835445,0.0023421606,-0.040636934,-0.026898958,0.161782
6576000,6576000,0.00024548848,6.217742e-05,-0.0038448048,-0.034644358,-0.15929918,-0.3619563
6584000,6584000,0.00094978715,0.00038304226,-0.0029667965,0.05830527,-0.05053866,-0.03254869
6596000,6596000,4.9108872e-05,1.3082754e-05,-0.0029109716,-0.030017251,-0.003826036,0.039002568
6604000,6604000,0.0016044466,0.0007001995,-0.0023547497,0.12185298,0.04808136,0.04798342
6616000,6616000,0.0028783176,-0.00068154326,-0.0020344341,0.05398888,0.0023407931,0.032439798
6624000,6624000,0.0008207026,0.0012635062,-0.0024283368,-0.15689328,0.15844193,-0.025924245
6636000,6636000,0.0010369153,0.0010909694,-0.0014947114,-0.03408711,0.021995211,0.06129207
6644000,6644000,-0.00037394324,0.0018632826,-0.000573937,-0.10816716,0.05925991,0.10855071
6656000,6656000,0.004962594,0.0015211357,0.001629601,0.31191918,0.051009554,0.1597769
6664000,6664000,0.003909466,-0.00015025306,-0.0026234663,-0.011965908,-0.15195592,-0.3353146
6676000,6676000,0.0010636492,0.0024665047,0.00061541586,-0.1523923,0.16531795,0.36354026
6684000,6684000,0.0022561052,-0.0008853837,-0.0013287265,0.047899045,-0.17490701,-0.0966872
6696000,6696000,-0.0010612033,0.0018994475,-0.0018818636,-0.22168027,0.002619908,-0.03803333
6704000,6704000,0.0012490973,0.0007355837,-0.005013127,0.13227025,-0.05664537,-0.24773335
6716000,6716000,0.0034506596,-0.0016340334,0.00021825009,0.26065674,-0.19760874,0.31209677
6724000,6724000,0.0021081707,-0.002146475,0.0016636245,-0.075217955,-0.09371381,0.235894
6736000,6736000,0.00022819662,0.00025980547,-0.0013199314,-0.08497591,0.13336603,-0.24929968
6744000,6744000,0.00043775619,0.0007391069,-0.0036135996,0.0013384484,0.104276046,-0.2319392
6756000,6756000,0.0040821256,-0.00093507115,-0.002101118,0.2290039,-0.050311018,0.005493994
6764000,6764000,0.0033089304,0.00069915317,-0.0028044344,0.0071297884,0.11568029,-0.035117406
6776000,6776000,1.8078834e-05,0.001420598,-1.400942e-05,-0.1651816,-0.060561452,0.14440367
6784000,6784000,9.8988065e-05,-0.0016765683,-0.0012846799,-0.0639234,-0.22860792,-0.074086286
6796000,6796000,0.0009764482,-0.00047692144,-0.0035887316,0.0835574,-0.08234056,-0.17860946
6804000,6804000,0.0005678248,-0.0013579307,-0.0023305959,-0.019015498,-0.052841157,0.082959965
6816000,6816000,0.0016302975,7.169321e-05,-0.0033965025,0.140118,0.027470196,-0.1109567
6824000,6824000,0.0042250697,0.0014382154,-0.002244849,0.23841,0.15428035,0.03985633
6832000,6832000,0.0025804285,0.0029482485,-0.0015499701,-0.0931371,0.13569795,0.11040999
6840000,6840000,0.001421867,-3.6437996e-06,-0.0013404738,-0.07368468,-0.19902283,0.0015264044
6852000,6852000,0.00041055318,0.0009117406,-0.0046421643,-0.20073284,0.108119786,-0.15110971
6860000,6860000,-0.0012504543,0.0020221723,-0.0019111718,-0.158463,0.10501347,0.21225713
6876000,6876000,0.0010722986,0.0013609431,-0.0013044429,-0.04758259,0.030061629,-0.121310964
6884000,6884000,0.0009736298,0.00045269914,-0.0014100459,-0.010876168,-0.058933273,-0.021185933
6896000,6896000,0.002031951,6.2421896e-05,-0.0020805863,0.10466811,-0.06860926,-0.10691002
6904000,6904000,0.0009425974,-0.0009825821,-0.0050855093,-0.07096856,-0.07906516,-0.2967836
6916000,6916000,0.0011117454,0.0012579476,-0.004171432,0.05838784,0.035952948,0.08831073
6920000,6920000,0.0006200394,-0.00053092185,-0.0029013378,-0.019553538,-0.17174691,0.18684217
6932000,6932000,0.0011138261,7.658405e-05,-0.0024875787,0.067926444,-0.047869947,-0.03447535
6944000,6944000,0.0023181883,0.0017156571,-0.0034373635,0.034417138,0.17062528,0.06244829
6956000,6956000,0.00055612245,0.0005839034,-0.0017299509,-0.12160103,-0.06202286,0.11018169
6964000,6964000,0.00017688307,0.0023030057,-0.0003069879,-0.047371775,0.11554055,0.13326293
6976000,6976000,0.004139185,0.0007887194,-0.0010919108,0.28817138,-0.039403494,0.006952561
6984000,6984000,0.0015237166,-0.0021963026,0.00030410127,-0.16525067,-0.29080117,0.094449095
6996000,6996000,-0.0018780157,0.001478889,-0.0019454232,-0.22285011,0.30913883,-0.048465688
7004000,7004000,-0.0027217262,-0.0002143872,-0.00044023443,-0.118044786,-0.09129076,0.0828357
7016000,7016000,0.0023033903,-0.004298644,-0.0032767025,0.32279974,-0.25455758,-0.13694678
7024000,7024000,0.00088817405,-0.0025745071,-0.0022773612,-0.023513384,0.12065411,0.023868086
7036000,7036000,0.00096665556,0.0006093872,-0.0026307746,-0.014032224,0.12171291,0.06856978
7044000,7044000,-8.2440674e-05,9.363983e-05,-0.0003023874,-0.0866805,-0.029306673,0.19075692
7056000,7056000,0.0001044916,-9.395694e-05,-0.0043839263,-0.02474446,0.0072004925,-0.21821204
7064000,7064000,0.000774334,-0.00077554863,-0.0028306006,0.042703457,-0.06610247,0.084474735
7076000,7076000,0.00071168307,0.004262563,-0.001946011,0.050853997,0.35296533,-0.0008024437
7084000,7084000,0.00032440398,0.00080561265,-0.004133594,-0.0404822,-0.22458939,-0.20413801
7096000,7096000,0.0010889699,-1.4660414e-05,-0.0021878497,0.09099072,-0.049049903,0.26025712
7104000,7104000,0.0011636345,0.0011862931,-0.002000095,0.06056888,0.09172596,0.06740084
7116000,7116000,0.0027628974,-0.0020155893,-0.0020515183,0.039148457,-0.2185842,0.06574268
7124000,7124000,0.0016122616,-0.0006987024,-0.0010933706,-0.07059573,0.06788333,0.09241907
7136000,7136000,0.00048126408,0.0027550482,-0.00403042,-0.14311577,0.19640991,-0.19776143
7144000,7144000,-0.0013490769,-0.00020338269,-0.0038333994,-0.17136097,-0.19589424,-0.050012913
7156000,7156000,-0.0019117151,0.00037187245,-0.0019184755,-0.058031924,0.06936577,0.065750286
7164000,7164000,0.0004290702,0.0010964451,-0.0033568696,0.14513297,0.043060496,-0.090725034
7176000,7176000,-0.0016326071,0.0003205766,-0.0041518714,-0.064132795,0.008124981,-0.025015347
7184000,7184000,-0.002402332,-0.00048280554,-0.002501314,-0.07341733,-0.076437354,0.12042643
7196000,7196000,0.001860219,0.0024345063,-0.004573386,0.2541896,0.27712157,-0.10548473
7204000,7204000,0.0019604198,0.0008188789,-0.004778442,0.08373814,-0.08365321,-0.035134077
7216000,7216000,0.0002518387,0.0031928408,-0.00490057,-0.14377026,0.20302105,-0.06748638
7224000,7224000,0.0013401529,0.004597083,-0.0037966282,0.07822633,0.15972903,0.08349864
7236000,7236000,0.0026169166,-0.0010064947,-0.0038487976,0.033312954,-0.29862988,-0.07977914
7244000,7244000,0.0013145094,-0.0011458653,-0.0050789826,-0.09382778,-0.097393885,-0.10602665
7256000,7256000,0.00019428821,-0.0020986507,-0.0026684874,-0.11948124,-0.1584877,0.18723343
7264000,7264000,0.00010554516,-0.0004305886,-0.0007463852,-0.031640485,0.1256204,0.20448823
7276000,7276000,-0.002195508,0.0029759337,-0.00040747202,-0.13047253,0.23612449,0.08469387
7284000,7284000,0.00057141855,0.0051723155,6.306125e-05,0.19203295,0.26305285,0.0139529975
7296000,7296000,0.0014921882,-0.0008549392,-0.005406172,0.06569521,-0.41440055,-0.33727473
7304000,7304000,0.0015004623,0.00035534753,-0.004208365,0.022988223,0.017614365,0.030320838
7316000,7316000,-0.0016865307,-0.00028629787,-0.0014579565,-0.19926623,-0.10457903,0.15630747
7324000,7324000,-0.0017945957,0.0007689232,-0.0009683953,-0.043432243,0.05088178,-0.050697844
7336000,7336000,0.0020573162,-0.0004990101,-0.0036070338,0.22416627,-0.02583001,-0.12325932
7344000,7344000,0.00473788,0.00059764134,-0.0015388012,0.31126463,0.06791854,0.119632125
7356000,7356000,0.0029413477,0.00020504091,-0.00044464006,-0.11626786,0.04287829,0.09811021
7364000,7364000,0.0022565504,-0.0025036288,-0.0010158637,-0.07132758,-0.20212951,-0.015594978
7376000,7376000,0.002424497,9.785313e-05,-0.0008402739,-0.071021795,0.10211824,0.016594397
7384000,7384000,0.00078685896,0.0013173153,-0.0020330625,-0.14734171,0.1543118,-0.10355382
7396000,7396000,0.0027971128,0.0024763986,0.00046488683,0.087813064,0.0028115113,0.15306377
7404000,7404000,0.00109723,0.0019250284,0.00067031226,-0.11302833,-0.009575883,0.09178498
7416000,7416000,0.0025984105,0.001777628,-0.00026129186,0.1496629,-0.10269783,-0.12211499
7424000,7424000,0.0017784614,0.0010008346,-0.00063928525,-0.061644673,-0.09921804,-0.06573799
7436000,7436000,0.00029231678,-0.003261338,-0.00011860073,-0.012171306,-0.26581496,0.0070848754
7444000,7444000,-0.00043715013,-0.0015932014,2.2535969e-05,-0.12504372,0.06924103,0.0012558207
7456000,7456000,-0.0007815391,0.0015279986,-0.002674959,0.10567589,0.25355467,-0.1507338
7464000,7464000,0.0010803455,-0.0016610147,0.00010645675,0.15224135,-0.21580264,0.19686528
7476000,7476000,-0.0029554537,-0.0019940054,6.680371e-05,-0.29597646,-0.07556351,-0.009019942
7484000,7484000,-0.0003402552,-0.0021324097,-0.0018652005,0.16975074,-0.03203947,-0.16607282
7496000,7496000,0.0006546846,0.0014061364,-6.670528e-05,0.117915876,0.20836999,0.13443518
7504000,7504000,0.00072951964,-0.00087874755,-0.00030532753,0.008407772,-0.12674694,0.025906937
7512000,7512000,-0.0020768703,-0.0020566657,-0.00044607781,-0.21606693,-0.14411464,-0.028013827
7520000,7520000,0.0005901415,-0.003300896,-0.001683109,0.16256629,-0.11583966,-0.08224915
7532000,7532000,0.00030896533,0.0009088465,-0.00118921,0.023638066,0.27308697,-0.10606559
7540000,7540000,0.0018985011,0.0011191899,-0.002616593,0.14601937,0.04253553,-0.106547676
7556000,7556000,9.9822995e-05,-0.0031516952,-0.0026536973,0.019566566,-0.098062195,-0.13943541
7560000,7560000,0.0027771709,-0.0022589704,-0.003124291,0.2988826,0.04003034,-0.13006988
7576000,7576000,0.0017193168,0.00095240073,0.00014436757,-0.06459518,0.23036566,0.18614645
7580000,7580000,-0.0002094208,0.0010362859,-0.00046208772,-0.24410379,0.14035355,0.04095384
7596000,7596000,-0.0023077517,-0.001449489,-0.0008833544,0.07158797,-0.0014543098,0.06712468
7604000,7604000,-0.0014760194,0.0014698058,-0.001864667,0.07718982,0.24822068,-0.0772372
7612000,7612000,-0.0014364368,0.0012079012,-0.0025385313,0.057761688,0.03639517,-0.073016256
7620000,7620000,0.00027181976,0.0024929312,-0.0043011685,0.14628407,0.14434648,-0.17198983
7632000,7632000,0.00031679636,0.0021216087,-0.0030152642,0.042214397,-0.0006184149,0.07818787
7644000,7644000,0.0018528432,-0.00052716164,-0.002695022,0.10166028,-0.19481201,-0.02471644
7656000,7656000,0.001797851,-0.00023779413,-0.0018864595,-0.010291411,-0.024186056,0.09859468
7660000,7660000,0.0015135049,0.0010436177,0.00039934175,-0.03642533,0.12392054,0.3018606
7676000,7676000,0.0018984713,-0.00086018955,-0.0041767517,0.22510913,-0.0676163,-0.3549617
7684000,7684000,0.0014360847,0.0010409714,-0.005807414,0.004700005,0.121177666,-0.22495194
7696000,7696000,0.0009344972,0.00064898375,-0.0020664488,0.00067419745,-0.036218822,0.31729096
7704000,7704000,0.00074104493,-0.00014531985,3.2845943e-05,-0.0299459,-0.09706443,0.23435284
7716000,7716000,-0.0013999403,-0.0009073415,-0.0031290154,-0.16105556,0.06328738,-0.13921292
7724000,7724000,-0.0020571747,0.0012540035,-0.00022005703,-0.10292602,0.18632147,0.18107617
7736000,7736000,0.0016729604,0.0009895274,-0.0019806118,0.3438891,0.07673267,-0.045967843
7744000,7744000,0.00076388096,0.0022618207,-0.0016697776,-0.018206969,0.13373215,0.022450307
7756000,7756000,0.0030578622,0.0029784676,0.00034360524,0.1795546,0.041522782,0.14723152
7764000,7764000,-0.001603103,0.0006783372,-0.0007353961,-0.3359,-0.1592308,-0.08275785
7776000,7776000,0.0011983321,0.0014747484,-0.0012511009,0.11134571,0.012836263,0.01283535
7784000,7784000,-0.00084180175,0.0022084725,-9.8935794e-05,-0.12914276,0.062085927,0.08749513
7796000,7796000,-0.0007087181,-0.0022167917,-0.00039719188,0.01036476,-0.33108908,0.023187397
7800000,7800000,1.771329e-05,-0.0027640872,0.0016161997,0.08397683,-0.24758053,0.22959343
7816000,7816000,0.00022781419,-0.000983485,-0.0022480786,-0.043625765,0.15306011,-0.3795605
7824000,7824000,0.0003586209,0.001977513,-0.0017061518,0.017774433,0.29206485,-0.055696953
7836000,7836000,0.0003208432,0.0016179269,-0.0015246024,-0.0105184475,-0.044435948,0.0033602545
7840000,7840000,0.0003269437,0.0002874285,-0.002345424,-0.00534129,-0.16831926,-0.086295605
7852000,7852000,0.0012392402,0.00074253883,0.00083195145,0.046443064,0.058130465,0.18079092
7860000,7860000,0.0016002229,-9.0018846e-05,-0.0013140675,0.026122592,-0.09293315,-0.111287996
7876000,7876000,0.00071451755,-0.0007551345,-0.00045423533,0.12377896,0.03017901,-0.015593615
7880000,7880000,0.0018906968,-0.0011371765,-0.0013905212,0.19697095,-0.023850994,-0.10951044
7892000,7892000,0.0025677467,0.0013977527,-0.0013470337,0.15531659,0.22498317,0.071697615
7904000,7904000,0.0034346739,0.0011942922,-0.0020095592,0.12109067,-0.117122255,-0.06810901
7912000,7912000,0.0029598481,0.0012674797,-0.003039776,-0.04843811,0.03752823,-0.07801393
7920000,7920000,-0.0007043658,0.0026591334,0.0013714943,-0.30364305,0.06118668,0.35134026
7932000,7932000,0.001786833,0.0023652406,-0.00095186685,0.1453429,0.12986358,-0.15740427
7940000,7940000,0.0028915869,-0.00079594133,-0.0017814385,0.11837074,-0.27778143,-0.12030234
7952000,7952000,-5.6806253e-05,0.00062478846,-0.0029195414,-0.108323574,0.1605816,-0.10982536
7960000,7960000,0.003141839,-0.001350665,0.00068071886,0.22254193,-0.15234938,0.3155228
7972000,7972000,-0.00027158658,0.0014322023,-0.0013344581,-0.22234109,0.23533937,-0.13716927
7980000,7980000,-0.0011942668,0.0010839552,4.8316666e-05,-0.11430831,0.01972051,0.050978787
7992000,7992000,-8.288934e-05,0.00037193391,-0.0049811597,0.03720642,-0.008690554,-0.35410082
8000000,8000000,0.0016927477,0.0011681058,-0.0014481865,0.15198365,0.037687756,0.20944914
8012000,8012000,0.0013825514,-0.0020774733,-0.0053050616,0.018495012,-0.13140075,-0.27115175
8024000,8024000,0.0014081942,-0.0009393366,-0.0023146607,0.011517936,0.0022540968,0.20810595
8032000,8032000,0.00051376445,-0.00066671846,-0.0015777454,-0.07245159,0.041527044,0.1242038
8040000,8040000,0.001794422,0.00072039757,-0.002241936,0.07334446,0.107742935,-0.018646674
8052000,8052000,0.0010702893,-0.00030207774,0.00022293435,0.051387906,-0.045591462,0.13830324
8060000,8060000,0.00040578423,0.0005310783,-0.0010081085,-0.06906216,0.07541042,-0.033414375
8072000,8072000,-0.0018034521,-0.0007317541,-5.614065e-05,-0.13935873,-0.09620258,0.028368616
8084000,8084000,0.00061805313,0.0014829258,-0.0013285228,0.15225267,0.03842578,-0.06833114
8092000,8092000,-8.351961e-05,-0.00039572082,-0.001184012,-0.030267406,-0.10542391,0.003976742
8100000,8100000,8.16409e-05,0.0002360437,-8.1215985e-05,0.045170546,-0.00212896,0.07777575
8112000,8112000,-0.0001678525,0.00056233164,-0.0029210588,-0.025226522,0.06381605,-0.13821201
8120000,8120000,0.00029107078,0.0008934927,-0.0011037441,0.04265902,0.068449095,0.10127361
8132000,8132000,0.00041530863,0.0030092727,-0.0019364364,-0.011524012,0.060073026,-0.07769432
8140000,8140000,0.0007204501,-0.0012630769,-0.0029174257,0.017835967,-0.3470417,-0.058509555
8152000,8152000,0.0024870904,0.00087370584,-0.0016677722,0.18331078,0.11936072,-0.0042210277
8164000,8164000,-0.0006672492,0.0017638537,-5.1476352e-05,-0.23902602,0.09139563,0.09544968
8176000,8176000,0.00039275875,0.00073307287,-0.002635166,0.099366285,-0.19082841,-0.121394455
8184000,8184000,0.00044144224,-0.0004885341,-0.0021762797,0.023562718,-0.113100864,-0.010455615
8196000,8196000,0.00077021413,0.0011192882,-0.002169792,0.023057343,0.083863534,-0.04610056
8204000,8204000,0.0014910179,0.000491797,-0.0023232088,0.073558494,-0.048295356,0.0037193066
8216000,8216000,0.00082806405,0.0028937943,-0.0020278362,-0.032217257,0.1771715,0.0059638754
8224000,8224000,0.00028001185,0.0021062251,-0.00036737561,-0.07033417,-0.041873742,0.13830706
8236000,8236000,-0.0007212856,0.0012517734,-0.0011016721,-0.0070615485,-0.021937238,-0.07283055
8244000,8244000,-0.000638067,-0.001141869,-0.0028007221,-0.039718863,-0.19883195,-0.11806843
8256000,8256000,0.0037278626,-0.0011926009,-0.002183129,0.4285714,-0.049617425,-0.06536456
8264000,8264000,0.002148236,-0.0015541068,-0.001084435,-0.03381343,-0.07415242,0.06766641
8276000,8276000,0.0019684106,0.00092359586,-0.0027512573,0.07529813,0.27053624,-0.07553189
8284000,8284000,-8.157734e-05,0.0009734337,0.0010918237,-0.18166144,0.067689545,0.29967
8292000,8292000,-0.00074401195,0.0015419209,8.925138e-05,-0.0869256,0.08373786,-0.004580675
8304000,8304000,9.237707e-05,0.0032762631,-0.0006764406,0.008468632,0.059121944,-0.05337947
8316000,8316000,0.0016953452,0.0009716656,-0.0018937154,0.08132874,-0.018006062,-0.08036589
8324000,8324000,-0.0009231181,0.0015592594,0.0017861506,-0.19072935,0.0034025372,0.28945008
8336000,8336000,0.00033405534,0.0016657596,-0.0008995095,0.048869684,0.04026841,-0.17064719
8344000,8344000,-0.0019975374,0.00087559875,-0.004293918,-0.18901151,-0.04798699,-0.3300104
8356000,8356000,0.0002456467,-0.00046351925,-0.0037042052,0.14195994,-0.16276343,-0.013591302
8364000,8364000,0.0023551015,0.0010489132,-0.0024548746,0.22946459,0.12410782,0.097896695
8376000,8376000,-0.0006087179,-0.0007377635,-0.0015000213,-0.23159087,-0.2289972,0.117175475
8384000,8384000,-0.0011765098,-0.0013222075,0.00039597694,-0.121035054,-0.10598363,0.18374619
8396000,8396000,-0.00017570134,-0.00040892838,0.00026265637,0.124000266,0.04119271,0.05832843
8404000,8404000,0.00064130884,0.0008519986,-0.0004486248,0.052020743,0.12521653,-0.049253445
8416000,8416000,0.001529978,0.0031359775,0.00016333867,0.21021095,0.16209374,0.027579814
8424000,8424000,0.00412228,0.0021308158,-0.0004057004,0.22955824,-0.043555215,-0.049779914
8436000,8436000,0.0022335427,0.001243209,-0.0011517034,0.00082231313,-0.0026335707,-0.051995113
8444000,8444000,0.004280117,0.0029437358,-0.002459153,0.15489408,0.12577859,-0.115484565
8456000,8456000,0.0004281699,0.0006871042,-0.003583888,-0.21377063,-0.12999216,-0.17121252
8464000,8464000,0.0016024503,-0.00014787307,-0.0036658444,0.038438115,-0.10852702,-0.030886086
8476000,8476000,0.0006792867,-0.0003860453,-0.00020099827,-0.13022824,-0.11304699,0.19446774
8484000,8484000,0.00162279,-0.00034181448,-0.0018901741,0.067946345,0.0058578863,-0.08816154
8496000,8496000,0.002514523,-0.00031183288,-0.0023817716,0.012830205,-0.070475526,-0.06551017
8504000,8504000,0.0006749289,-0.00058927434,-0.0030665384,-0.1517492,-0.03832891,-0.0679173
8512000,8512000,0.00024348078,-0.00053208694,-0.0019773287,-0.0772406,-0.003852498,0.06985042
8524000,8524000,-0.00069876097,-0.0009042234,-0.0020899442,-0.14018513,0.04423485,0.049361028
8536000,8536000,-0.00035168952,0.0015693342,0.0005091666,0.07519245,0.06316181,0.21313173
8540000,8540000,0.0009572959,0.0013350039,0.0006829251,0.18354258,0.010827691,0.14018638
8552000,8552000,0.002435807,0.00028474722,0.0005859992,0.09568592,-0.07426987,-0.0054309606
8560000,8560000,0.00045318046,0.0017396281,-0.00088406337,-0.1485066,0.12070486,-0.13353983
8572000,8572000,0.0005128367,0.0015196116,-0.0011197092,0.036175348,0.0067765065,0.0050535128
8580000,8580000,0.0010408761,0.00040699774,-0.0010408027,0.04870426,-0.08679418,0.008611918
8592000,8592000,-0.0006211662,-0.0006400491,-0.0018952352,-0.0144599825,-0.084072776,-0.15072992
8600000,8600000,0.0023391487,0.0024848545,-0.0029433467,0.2248563,0.2403439,-0.08649103
8612000,8612000,0.0005447625,0.0012290408,0.0010027951,-0.05977616,-0.061688893,0.20561653
8620000,8620000,0.0002735238,0.0015404825,0.00085110264,-0.057263456,0.0002110747,0.054561935
8632000,8632000,-0.0004362733,-0.00069235964,-0.0015509597,0.033586077,-0.07364769,-0.16446306
8640000,8640000,0.00211955,0.00088014593,-0.0004970465,0.2067942,0.1112643,0.040399298
8652000,8652000,0.0022002214,0.0020831395,-0.00047701228,0.036959544,0.05626797,-0.016038636
8660000,8660000,0.0014028031,1.5017111e-05,-0.0011698864,-0.037787773,-0.16213629,-0.053772353
8672000,8672000,0.001120607,0.0004890193,-0.0011193897,-0.010088317,-0.0460102,-0.0043920595
8680000,8680000,0.0016968998,-0.00027499069,-0.002043061,0.032522976,-0.049245186,-0.09713964
8692000,8692000,0.0011596129,0.00058367243,0.00074315816,0.019407168,-0.0004921592,0.20877464
8700000,8700000,0.0021176408,-0.0011461643,-0.0008247626,0.06595079,-0.13948655,-0.07398128
8712000,8712000,0.0020036842,0.0013444447,-0.00039576134,0.06767015,0.13242216,0.060307283
8720000,8720000,0.00036673702,-0.0008566319,0.0002087371,-0.12696892,-0.16624421,0.049873255
8732000,8732000,0.0012031716,-0.0013087341,0.0013045968,0.035338435,0.0017915595,0.19405532
8744000,8744000,-0.0028346227,-0.002194108,-0.0016288817,-0.2323156,-0.04418332,-0.18014932
8756000,8756000,0.0011881965,-0.0011977484,-0.0015438638,0.22608815,0.09988168,-0.008002004
8764000,8764000,0.002311227,-0.0020052455,-0.0018593307,0.15967676,-0.06389255,-0.04717787
8776000,8776000,-0.0011401149,0.00074292487,-0.0013173203,-0.2133522,0.2921036,0.08171417
8784000,8784000,0.0014064361,0.00027599698,0.0011402282,0.15433602,0.019340586,0.2292274
8796000,8796000,-0.0006123071,0.0014981148,-0.003066516,-0.17521952,0.07792147,-0.30442905
8804000,8804000,-0.00037351367,8.1613194e-05,-0.0030822041,0.0031885803,-0.0532297,-0.08167566
8816000,8816000,-0.0012179092,0.0020987652,-0.00072046113,-0.12370483,0.058782775,0.16763762
8820000,8820000,-0.00070996326,0.00053775264,0.00062610593,-0.01594045,-0.13424379,0.24028724
8832000,8832000,0.00011976168,0.00063125975,0.0007330894,-0.008765079,0.0070250393,-0.008533709
8840000,8840000,5.5738492e-05,-0.0018816632,-0.00070366793,-0.026328716,-0.1905077,-0.08585975
8852000,8852000,-0.000496787,0.00094555365,-0.001986235,-0.021517793,0.1789808,-0.20001195
8864000,8864000,0.0010223199,0.0002766843,-0.0012179218,0.081465,-0.059349123,0.11120258
8876000,8876000,0.00013319822,0.0014600973,-0.0030594594,-0.072562456,0.024340274,-0.11531365
8884000,8884000,-0.00054715876,0.0006014067,0.00082015456,-0.082065836,-0.058238525,0.27916846
8896000,8896000,-0.0018063458,0.0016059964,-0.0027520126,-0.13236158,0.08503097,-0.13012947
8904000,8904000,0.00023218256,0.0022343234,-0.0007095263,0.15572967,0.055713482,0.116490215
8916000,8916000,0.002522868,-0.0048592887,-0.0010023997,0.17091507,-0.43677035,0.039298132
8924000,8924000,-0.0003071063,-0.00026740413,-0.0024322495,-0.21355289,0.28726202,-0.13914311
8932000,8932000,-0.0013214657,0.0025493386,-0.0032145428,-0.1444896,0.2916003,-0.07228278
8944000,8944000,0.0016885713,0.000249865,-0.00080960937,0.22217128,-0.103700384,0.10654433
8956000,8956000,0.0019753615,0.0008067731,-0.001598443,0.04416478,0.1100086,-0.047982097
8964000,8964000,-0.00016155385,0.0044719228,-0.0009636018,-0.16344365,0.3303415,0.06397603
8976000,8976000,-0.0012430404,-0.0017312211,-0.0014284824,-0.05478692,-0.48153406,-0.07569825
8984000,8984000,0.0013985786,-0.0024083615,-0.0018440901,0.20301062,-0.17320895,-0.056352176
8996000,8996000,0.0044204937,-6.435299e-05,0.00019113172,0.31166598,0.046576787,0.16592383
9004000,9004000,0.0033604992,-0.00014242204,-0.00017834734,-0.07946245,0.029488413,0.01244174
9016000,9016000,-0.0011846246,0.00013521872,-0.0016422906,-0.14608164,-0.026405683,-0.1249875
9024000,9024000,-0.0026233231,-0.001248836,-0.0017070946,-0.16777605,-0.10595032,-0.039610546
9036000,9036000,0.00063175685,0.00043498306,-0.0015035232,0.16668344,0.019771464,0.039287053
9044000,9044000,-0.00017016008,-0.00030359672,-0.0012196208,-0.01828815,-0.035375975,0.05367461
9056000,9056000,-0.00044033874,0.0013830494,-0.00010082265,-0.035877746,0.061847083,0.037919313
9064000,9064000,0.0020208147,0.0013007522,0.0005572245,0.21269456,0.018995902,0.07549201
9072000,9072000,0.0020034397,-0.00093172165,0.00014200085,0.056641743,-0.20257749,-0.012055097
9084000,9084000,0.001720065,-0.000112044625,0.0001980738,-0.07435462,0.11929168,0.029237848
9096000,9096000,-0.00033168832,0.00070923474,-0.0021715872,-0.15688506,-0.02582078,-0.18925826
9104000,9104000,-0.002318486,0.002803199,-0.0019536174,-0.21502599,0.19833179,-0.053849325
9116000,9116000,-0.0009910796,0.0017563412,-0.0014431246,-0.0009399578,-0.124608845,-0.017922075
9124000,9124000,-0.0022581234,0.0018853084,-0.0011186404,-0.05870666,-0.006686636,0.027856402
9136000,9136000,0.0009684685,-0.0013839882,-0.0004359152,0.20371649,-0.226893,0.024450261
9144000,9144000,0.0011983919,0.0009202324,-0.0020885211,0.072475955,0.1377797,-0.117669255
9156000,9156000,-7.185328e-05,0.0027201881,-0.0007563608,-0.12232253,0.07291934,0.10099414
9164000,9164000,-0.0015374738,-0.00081339525,-0.0008698104,-0.15327592,-0.27171773,0.022112278
9176000,9176000,0.0020103294,-0.0001747855,-0.0011199821,0.2612512,0.015846422,-0.029511496
9184000,9184000,-0.00048551196,0.002305027,-0.00028994697,-0.15171225,0.23901902,0.062656246
9196000,9196000,-0.00018230511,0.0009346907,6.1003375e-06,0.021835474,-0.113816276,0.00306016
9204000,9204000,0.0004645111,0.0010521077,-0.000797309,0.064852275,-0.002716116,-0.03490889
9216000,9216000,-0.0006000375,0.0014377479,-0.00027989235,-0.088088974,-0.0032308483,-0.1045524
9224000,9224000,0.0006813449,0.003532492,-0.004761067,0.11297815,0.15341346,-0.39232695
9232000,9232000,0.00040678133,-0.0013243542,-0.0025763977,-0.028959043,-0.39311498,0.08946697
9240000,9240000,-0.0024455418,-0.002254996,0.0009964708,-0.23827156,-0.15015306,0.31883842
9252000,9252000,-0.00039481546,-0.0018321816,-0.0036836306,0.13934623,-0.008997861,-0.29727504
9260000,9260000,-0.0008398687,-0.001800735,-0.00046409783,-0.015879072,-0.031761356,0.20247634
9272000,9272000,0.0007395321,-0.0036053848,-0.0035748023,0.10802498,-0.0148823885,-0.25494292
9280000,9280000,0.0011252508,-0.0012281737,-0.00089441775,0.067208245,0.15986045,0.16974248
9296000,9296000,0.00034344936,0.000643407,-0.0004562653,-0.068266094,0.05671548,0.10386913
9300000,9300000,-8.4068975e-05,0.0005089245,-0.00017458785,-0.08486483,0.0178828,0.08949012
9316000,9316000,-0.00025404745,-4.8419926e-05,-0.0032580742,-0.017458929,-0.08078169,-0.21191993
9320000,9320000,-0.00058905256,0.0017101779,-0.00490838,-0.045955945,0.14293544,-0.29817593
9336000,9336000,0.0019653083,-0.0030418145,0.0010409801,0.05094523,-0.31100637,0.45632672
9344000,9344000,-0.00015036331,0.00094727287,0.0020788827,-0.16095637,0.24185719,0.21673045
9356000,9356000,0.0025369332,0.0014035092,0.0018092112,0.17826375,0.03504482,-0.05945617
9360000,9360000,0.0018302861,0.00023475429,3.655639e-05,0.025692344,-0.10562269,-0.22440007
9372000,9372000,0.00093238463,-0.0033920477,-0.0016739828,-0.066631205,-0.23343815,-0.15139624
9380000,9380000,0.0018011478,-0.002269961,-0.0006778183,0.06400589,0.05312085,0.07294008
9396000,9396000,0.0012140574,0.0013069087,-0.00021860917,-0.15394714,0.03270702,-0.06102076
9400000,9400000,0.0002276086,-0.0006681052,-0.0006221201,-0.19378097,-0.19360194,-0.07815403
9412000,9412000,0.0007265895,-0.0005111713,0.0031753443,0.000215929,0.12283538,0.27970892
9420000,9420000,-0.0013051197,0.002996089,0.0016009428,-0.18857707,0.30562466,-0.08027689
9432000,9432000,0.00067537534,0.0003052312,-0.0027956483,0.14325751,-0.14939062,-0.26077792
9440000,9440000,-0.00037291215,-0.0009215479,-0.0013875734,-0.048761014,-0.16889817,0.023578534
9452000,9452000,-0.00024061475,-0.0013273004,-0.0006529419,-0.024383068,0.0034826153,0.12438087
9460000,9460000,4.8423302e-05,-0.0021339478,-0.0008535004,0.017028682,-0.08027876,0.011553286
9476000,9476000,-0.0033453805,-0.0018730354,0.0005125421,-0.2530756,-0.07092866,-0.01830122
9484000,9484000,0.0014927515,-0.0029128925,-0.00090443634,0.34921706,-0.08097567,-0.096475065
9492000,9492000,0.00069370336,0.0028571072,0.00067715545,-0.004898384,0.47617215,0.08260628
9500000,9500000,-0.0005491945,0.0023126737,0.0008474685,-0.07319561,0.05459039,0.054988783
9516000,9516000,0.00090795,0.0027784342,0.0027152938,-0.024020799,0.1452066,0.12672769
9520000,9520000,0.0008765594,0.0039755865,0.0019876477,-0.017068468,0.21144141,-0.0059466846
9532000,9532000,0.0005514495,0.0019821678,-0.0004683573,-0.049836643,-0.18032831,-0.111899205
9540000,9540000,0.00041192834,0.0020665794,0.0009546445,-0.028836988,-0.035556454,0.085989244
9552000,9552000,-0.00016544771,0.0007244949,-0.0009135669,-0.024400193,-0.10812804,-0.14031076
9564000,9564000,0.0010151803,-0.0019101626,-0.0008726423,0.0095240325,-0.13366227,0.05594941
9576000,9576000,-0.0001857375,0.00056423154,-0.0021420128,-0.012380522,0.165472,-0.10691575
9584000,9584000,0.002409668,0.0011019739,-0.0016081891,0.2037313,0.0764949,0.03498316
9596000,9596000,0.0009475441,0.0020808228,-0.0016110069,-0.013624858,0.11799036,-0.041729916
9604000,9604000,0.0018014956,4.4502784e-05,-0.00078060577,0.026768122,-0.14167929,0.07834917
9616000,9616000,0.00027583714,-0.0011438779,-0.0015966331,0.05112288,-0.11562057,-0.074258536
9624000,9624000,0.00022704346,0.00040465547,-0.0017554142,-0.024117216,0.12449546,-0.04560833
9636000,9636000,0.0004982754,0.0027816251,-0.001215651,0.07225918,0.118453145,0.06131566
9644000,9644000,0.00278093,0.001365439,-0.00045992376,0.23442155,-0.06036134,0.07182272
9656000,9656000,0.0012278054,-0.0013673189,-0.0020137436,-0.12861577,-0.31075993,-0.024738362
9664000,9664000,0.0010745098,-0.0019458826,-0.0013662484,-0.050070077,-0.08675059,0.039636455
9676000,9676000,0.0021401918,0.00074313907,-0.00078335014,0.06885953,0.078446895,0.017121414
9684000,9684000,-0.00018123246,-0.0017165667,-0.0010673462,-0.1913942,-0.18129858,0.010658127
9696000,9696000,0.0013120712,-0.0006200671,1.95037e-05,0.12482394,0.04348579,0.06703554
9704000,9704000,0.0028391243,-0.0003566607,0.0028592849,0.13646838,0.020353703,0.25395188
9716000,9716000,0.00089292467,-0.00024398696,-0.0015945982,-0.06806502,0.09232125,-0.30428207
9724000,9724000,0.00083919836,0.003526799,-0.0021312356,-0.034456305,0.34848034,-0.14571032
9736000,9736000,-0.0025037066,0.0026463107,-0.0011859699,-0.19550964,-0.084979154,0.1302443
9744000,9744000,-0.0014801238,0.0013431734,0.00085434515,-0.0049209325,-0.11670551,0.18528509
9756000,9756000,0.00090148684,-0.00025678426,-0.00052286807,0.2603384,-0.1412871,0.035262782
9764000,9764000,-0.0016105537,-9.273086e-05,0.0020692619,-0.15089066,-0.015451193,0.20247579
9776000,9776000,-0.0021299887,0.004088212,-0.0015201452,-0.083003744,0.18553348,-0.24628057
9784000,9784000,-0.002017289,0.0018701644,-0.0044859843,-0.01848736,-0.13247299,-0.3089202
9796000,9796000,0.00064285053,0.0010840483,-0.0017919659,0.20926952,-0.020965485,0.09078181
9804000,9804000,5.2328687e-06,0.0020447401,-0.0008504385,0.021832086,0.075372696,0.11164036
9816000,9816000,0.001178569,0.0006164354,-0.00094468496,0.0854958,-0.11217965,-0.00038223536
