timestamp,timestamp_sample,time_last_fuse,device_id,observation[0],observation[1],observation_variance[0],observation_variance[1],innovation[0],innovation[1],innovation_variance[0],innovation_variance[1],test_ratio[0],test_ratio[1],estimator_instance,fusion_enabled,innovation_rejected,fused
3244000,3244000,3244000,0,0.0,0.0,0.25,0.25,7.3979614e-09,-2.4661424e-09,0.500009,0.500009,1.2161966e-17,1.3514997e-18,3,0,0,0
3532000,3452000,3452000,0,0.0,0.0,1e-04,1e-04,0.00036616973,-0.0003447715,100.00032,100.00032,1.489776e-10,1.3207446e-10,3,1,0,1
3740000,3660000,3660000,0,0.0,0.0,1e-04,1e-04,-2.760813e-05,-3.0252524e-05,0.00021776196,0.00021776515,3.8891034e-07,4.669736e-07,3,1,0,1
3948000,3868000,3868000,0,0.0,0.0,1e-04,1e-04,0.0002746086,-4.242298e-06,0.0006055491,0.0006056394,1.3836824e-05,3.3017613e-09,3,1,0,1
4156000,4076000,4076000,0,0.0,0.0,1e-04,1e-04,0.0006938914,-5.573121e-05,0.000925024,0.00092506944,5.7834568e-05,3.730612e-07,3,1,0,1
4364000,4284000,4284000,0,0.0,0.0,1e-04,1e-04,0.00060226326,-5.269454e-05,0.0006730222,0.0006730312,5.988263e-05,4.584094e-07,3,1,0,1
4572000,4492000,4492000,0,0.0,0.0,1e-04,1e-04,0.0007567919,-7.802157e-05,0.0005501534,0.0005501563,0.00011567159,1.2294214e-06,3,1,0,1
4780000,4700000,4700000,0,0.0,0.0,1e-04,1e-04,0.0007857133,-0.00040309146,0.0004945917,0.00049459003,0.00013868799,3.6502224e-05,3,1,0,1
4988000,4908000,4908000,0,0.0,0.0,1e-04,1e-04,0.00054833316,-0.00084902777,0.00045629384,0.00045628825,7.321531e-05,0.00017553431,3,1,0,1
5196000,5116000,5116000,0,0.0,0.0,1e-04,1e-04,0.00034332232,-0.00070797664,0.00042145172,0.0004214485,3.1075186e-05,0.00013214504,3,1,0,1
5404000,5324000,5324000,0,0.0,0.0,1e-04,1e-04,0.00045802776,-0.00048626808,0.00039025035,0.00039024802,5.973073e-05,6.732375e-05,3,1,0,1
5612000,5532000,5532000,0,0.0,0.0,1e-04,1e-04,0.00031414474,0.00021094314,0.00036415842,0.00036415746,3.0111109e-05,1.3576852e-05,3,1,0,1
5820000,5740000,5740000,0,0.0,0.0,1e-04,1e-04,0.0003260377,0.0004364713,0.00034334706,0.0003433463,3.440011e-05,6.165049e-05,3,1,0,1
6028000,5948000,5948000,0,0.0,0.0,1e-04,1e-04,0.00027299844,0.00022917696,0.00032698826,0.00032698852,2.5324778e-05,1.784707e-05,3,1,0,1
6236000,6156000,6156000,0,0.0,0.0,1e-04,1e-04,0.00028335777,5.090989e-05,0.00031413554,0.0003141374,2.8399498e-05,9.1673155e-07,3,1,0,1
6444000,6364000,6364000,0,0.0,0.0,1e-04,1e-04,6.598367e-05,-7.1513685e-05,0.0003039052,0.00030390837,1.5918141e-06,1.8697915e-06,3,1,0,1
6652000,6572000,6572000,0,0.0,0.0,1e-04,1e-04,-0.00058309064,4.630717e-06,0.0002956465,0.00029565085,0.00012777824,8.058882e-09,3,1,0,1
6860000,6780000,6780000,0,0.0,0.0,1e-04,1e-04,-0.0007624975,0.00014850449,0.00028888832,0.00028889178,0.00022361675,8.482062e-06,3,1,0,1
7068000,6988000,6988000,0,0.0,0.0,1e-04,1e-04,-0.0006284769,0.0005881323,0.00028325463,0.0002832557,0.00015493843,0.00013568408,3,1,0,1
7276000,7196000,7196000,0,0.0,0.0,1e-04,1e-04,-0.00034107477,0.0012348861,0.00027852025,0.00027851868,4.6408757e-05,0.00060835487,3,1,0,1
7484000,7404000,7404000,0,0.0,0.0,1e-04,1e-04,-1.6408248e-05,0.00165723,0.00027448594,0.00027448309,1.0898377e-07,0.0011117508,3,1,0,1
7692000,7612000,7612000,0,0.0,0.0,1e-04,1e-04,0.00029424517,0.0015533493,0.000271003,0.0002710009,3.5497855e-05,0.0009892931,3,1,0,1
7900000,7820000,7820000,0,0.0,0.0,1e-04,1e-04,0.0003257305,0.0011134793,0.0002679774,0.00026797585,4.3992255e-05,0.0005140745,3,1,0,1
8108000,8028000,8028000,0,0.0,0.0,1e-04,1e-04,0.00015554785,0.00080799503,0.00026533945,0.00026533747,1.0131733e-05,0.00027338602,3,1,0,1
8316000,8236000,8236000,0,0.0,0.0,1e-04,1e-04,-0.00013081673,0.0004032534,0.0002630113,0.00026300916,7.2295234e-06,6.869777e-05,3,1,0,1
8524000,8444000,8444000,0,0.0,0.0,1e-04,1e-04,-0.00037361454,0.00035751055,0.00026094366,0.00026094267,5.9437196e-05,5.4423956e-05,3,1,0,1
8732000,8652000,8652000,0,0.0,0.0,1e-04,1e-04,-0.00027253223,0.00021370278,0.00025906367,0.0002590637,3.1855667e-05,1.958715e-05,3,1,0,1
8940000,8860000,8860000,0,0.0,0.0,1e-04,1e-04,-6.695045e-07,0.0003732561,0.00025737315,0.0002573746,1.9350904e-10,6.0145845e-05,3,1,0,1
9148000,9068000,9068000,0,0.0,0.0,1e-04,1e-04,0.00044901035,0.00064961915,0.00025585256,0.00025585538,8.7554894e-05,0.00018326544,3,1,0,1
9356000,9276000,9276000,0,0.0,0.0,1e-04,1e-04,0.0008477262,0.00080664037,0.0002544752,0.00025447865,0.00031377852,0.0002840966,3,1,0,1
9564000,9484000,9484000,0,0.0,0.0,1e-04,1e-04,0.0009411151,0.00084370864,0.00025323438,0.000253237,0.00038861568,0.00031233116,3,1,0,1
9772000,9692000,9692000,0,0.0,0.0,1e-04,1e-04,0.0010037025,0.00078009826,0.0002520956,0.00025209686,0.00044401974,0.00026821846,3,1,0,1
9980000,9900000,9900000,0,0.0,0.0,1e-04,1e-04,0.0011172076,0.00081113394,0.00025104723,0.00025104755,0.0005524205,0.00029119683,3,1,0,1
10188000,10108000,10108000,0,0.0,0.0,1e-04,1e-04,0.0008283623,0.0005735203,0.00025008654,0.0002500853,0.00030486516,0.00014613928,3,1,0,1
10396000,10316000,10316000,0,0.0,0.0,1e-04,1e-04,0.00036498473,0.00030710374,0.0002492,0.00024919753,5.9396225e-05,4.205174e-05,3,1,0,1
10604000,10524000,10524000,0,0.0,0.0,1e-04,1e-04,-3.0682466e-05,-0.00016402557,0.0002484011,0.00024839837,4.2109926e-07,1.2034605e-05,3,1,0,1
10812000,10732000,10732000,0,0.0,0.0,1e-04,1e-04,-0.00032438734,-0.00040881304,0.00024765247,0.00024765098,4.721094e-05,7.4983705e-05,3,1,0,1
11020000,10940000,10940000,0,0.0,0.0,1e-04,1e-04,-0.000131369,-0.0007166213,0.00024695438,0.0002469543,7.764734e-06,0.00023105762,3,1,0,1
11228000,11148000,11148000,0,0.0,0.0,1e-04,1e-04,-0.0002175356,-0.0009141948,0.00024630188,0.0002463032,2.1347672e-05,0.00037702045,3,1,0,1
11436000,11356000,11356000,0,0.0,0.0,1e-04,1e-04,-0.00043529985,-0.0009941845,0.00024569844,0.0002457012,8.569039e-05,0.00044697596,3,1,0,1
11644000,11564000,11564000,0,0.0,0.0,1e-04,1e-04,-0.0006302669,-0.0011442496,0.0002451396,0.00024514343,0.00018004993,0.00059344264,3,1,0,1
11852000,11772000,11772000,0,0.0,0.0,1e-04,1e-04,-0.00072148605,-0.0012220563,0.00024461743,0.0002446219,0.00023644273,0.0006783356,3,1,0,1
12060000,11980000,11980000,0,0.0,0.0,1e-04,1e-04,-0.0009859254,-0.00094027596,0.00024414467,0.00024415008,0.00044238297,0.00040235673,3,1,0,1
12268000,12188000,12188000,0,0.0,0.0,1e-04,1e-04,-0.0010970217,-0.00043052813,0.00024371469,0.00024372057,0.0005486637,8.4502266e-05,3,1,0,1
12476000,12396000,12396000,0,0.0,0.0,1e-04,1e-04,-0.0010128912,-0.00033490476,0.00024330837,0.00024331344,0.0004685177,5.121935e-05,3,1,0,1
12684000,12604000,12604000,0,0.0,0.0,1e-04,1e-04,-0.0007236562,-0.00018520711,0.00024291969,0.00024292353,0.00023952969,1.5689287e-05,3,1,0,1
12892000,12812000,12812000,0,0.0,0.0,1e-04,1e-04,-0.00019570724,0.00058835984,0.00024254702,0.00024254888,1.7545886e-05,0.00015857848,3,1,0,1
13100000,13020000,13020000,0,0.0,0.0,1e-04,1e-04,4.577912e-05,0.0011899151,0.00024219617,0.00024219454,9.614465e-07,0.0006495687,3,1,0,1
13308000,13228000,13228000,0,0.0,0.0,1e-04,1e-04,8.017266e-05,0.0012467074,0.00024186989,0.00024186508,2.9527607e-06,0.00071402494,3,1,0,1
13516000,13436000,13436000,0,0.0,0.0,1e-04,1e-04,0.0002993448,0.0012033286,0.00024156051,0.0002415537,4.121687e-05,0.00066605833,3,1,0,1
13724000,13644000,13644000,0,0.0,0.0,1e-04,1e-04,0.0006126925,0.0011434667,0.00024127404,0.0002412665,0.00017287493,0.0006021539,3,1,0,1
13932000,13852000,13852000,0,0.0,0.0,1e-04,1e-04,0.0009009157,0.00082110974,0.00024100477,0.00024099727,0.00037419685,0.0003108478,3,1,0,1
14140000,14060000,14060000,0,0.0,0.0,1e-04,1e-04,0.0006387413,0.0003782982,0.00024074991,0.00024074168,0.00018829611,6.6050285e-05,3,1,0,1
14348000,14268000,14268000,0,0.0,0.0,1e-04,1e-04,0.00050500705,-8.343075e-05,0.00024049878,0.00024049004,0.00011782556,3.215975e-06,3,1,0,1
14556000,14476000,14476000,0,0.0,0.0,1e-04,1e-04,0.0005493769,-0.00038055526,0.00024026723,0.00024025823,0.00013957373,6.6975306e-05,3,1,0,1
14764000,14684000,14684000,0,0.0,0.0,1e-04,1e-04,0.0005897701,-0.00042510426,0.00024004947,0.00024004056,0.00016099864,8.364958e-05,3,1,0,1
14972000,14892000,14892000,0,0.0,0.0,1e-04,1e-04,0.0008129079,-0.0003802509,0.00023984961,0.00023984074,0.00030612666,6.698461e-05,3,1,0,1
15180000,15100000,15100000,0,0.0,0.0,1e-04,1e-04,0.00071539136,-8.608536e-05,0.00023965712,0.00023964743,0.00023727637,3.4359223e-06,3,1,0,1
15388000,15308000,15308000,0,0.0,0.0,100.0,100.0,0.00049403514,8.4512816e-05,100.000145,100.000145,2.711893e-10,7.936007e-12,3,1,0,1
15596000,15516000,15516000,0,0.0,0.0,100.0,100.0,0.0009171088,0.00012929564,100.00048,100.00048,9.345383e-10,1.8574758e-11,3,1,0,1
15804000,15724000,15724000,0,0.0,0.0,100.0,100.0,0.0016431087,0.00019022649,100.00183,100.00183,2.9997296e-09,4.0206064e-11,3,1,0,1
16012000,15932000,15932000,0,0.0,0.0,100.0,100.0,0.0020569272,4.8239923e-05,100.00561,100.00561,4.7007913e-09,2.5855106e-12,3,1,0,1
16220000,16140000,16140000,0,0.0,0.0,100.0,100.0,0.0026550426,-0.00040745336,100.013916,100.013916,7.831411e-09,1.8443905e-10,3,1,0,1
16428000,16348000,16348000,0,0.0,0.0,100.0,100.0,0.003412131,-0.00094026077,100.02951,100.02952,1.2932448e-08,9.820327e-10,3,1,0,1
16636000,16556000,16556000,0,0.0,0.0,100.0,100.0,0.0042465534,-0.0019407204,100.055824,100.05583,2.0025727e-08,4.1825485e-09,3,1,0,1
16844000,16764000,16764000,0,0.0,0.0,100.0,100.0,0.004951809,-0.0031747436,100.096924,100.09694,2.7218523e-08,1.118804e-08,3,1,0,1
17052000,16972000,16972000,0,0.0,0.0,100.0,100.0,0.005595814,-0.004785717,100.15752,100.15753,3.4737653e-08,2.5407848e-08,3,1,0,1
17260000,17180000,17180000,0,0.0,0.0,100.0,100.0,0.0062533696,-0.0066489414,100.24285,100.24288,4.3344325e-08,4.9001457e-08,3,1,0,1
17468000,17388000,17388000,0,0.0,0.0,100.0,100.0,0.006887006,-0.009013375,100.358696,100.35875,5.251259e-08,8.9945026e-08,3,1,0,1
17676000,17596000,17596000,0,0.0,0.0,100.0,100.0,0.007048412,-0.011254979,100.51108,100.51117,5.4919443e-08,1.4003369e-07,3,1,0,1
17884000,17804000,17804000,0,0.0,0.0,100.0,100.0,0.0073212516,-0.013824634,100.70631,100.706436,5.913866e-08,2.108665e-07,3,1,0,1
18092000,18012000,18012000,0,0.0,0.0,100.0,100.0,0.006986034,-0.015340686,100.95041,100.95063,5.371688e-08,2.590228e-07,3,1,0,1
18300000,18220000,18220000,0,0.0,0.0,100.0,100.0,0.0051443707,-0.0127496775,101.249565,101.24994,2.9042154e-08,1.7838614e-07,3,1,0,1
18508000,18428000,18428000,0,0.0,0.0,100.0,100.0,-0.012086753,0.0070577245,101.60949,101.61001,1.597506e-07,5.4469126e-08,3,1,0,1
18716000,18636000,18636000,0,0.0,0.0,100.0,100.0,-0.046808667,0.04235513,102.03364,102.034485,2.3859793e-06,1.9535412e-06,3,1,0,1
18924000,18844000,18844000,0,0.0,0.0,100.0,100.0,-0.08074896,0.07701342,102.52469,102.52577,7.066477e-06,6.427724e-06,3,1,0,1
19132000,19052000,19052000,0,0.0,0.0,100.0,100.0,-0.10979269,0.10572508,103.07749,103.07912,1.2993928e-05,1.2048774e-05,3,1,0,1
19340000,19260000,19260000,0,0.0,0.0,100.0,100.0,-0.12912323,0.12332714,103.68797,103.68993,1.7866432e-05,1.6298147e-05,3,1,0,1
19548000,19468000,19468000,0,0.0,0.0,100.0,100.0,-0.13919023,0.13078123,104.34556,104.348236,2.0630085e-05,1.8212235e-05,3,1,0,1
19756000,19676000,19676000,0,0.0,0.0,100.0,100.0,-0.13711411,0.12543206,105.04113,105.04419,1.9886686e-05,1.6641887e-05,3,1,0,1
19964000,19884000,19884000,0,0.0,0.0,100.0,100.0,-0.12749524,0.11133575,105.756256,105.760185,1.7078095e-05,1.30228045e-05,3,1,0,1
20172000,20092000,20092000,0,0.0,0.0,100.0,100.0,-0.10807723,0.08685446,106.47872,106.48299,1.2188859e-05,7.871573e-06,3,1,0,1
20380000,20300000,20300000,0,0.0,0.0,100.0,100.0,-0.08589441,0.058773592,107.18628,107.19141,7.648005e-06,3.5806509e-06,3,1,0,1
20588000,20508000,20508000,0,0.0,0.0,100.0,100.0,-0.058107432,0.025010353,107.86825,107.87357,3.4779814e-06,6.44291e-07,3,1,0,1
20796000,20716000,20716000,0,0.0,0.0,100.0,100.0,-0.03185043,-0.0074816355,108.50368,108.50972,1.038828e-06,5.73168e-08,3,1,0,1
21004000,20924000,20924000,0,0.0,0.0,100.0,100.0,-0.002288045,-0.042655043,109.08769,109.09372,5.3322537e-09,1.8530985e-06,3,1,0,1
21212000,21132000,21132000,0,0.0,0.0,100.0,100.0,0.021483647,-0.07127913,109.6045,109.61098,4.6789145e-07,5.150249e-06,3,1,0,1
21420000,21340000,21340000,0,0.0,0.0,100.0,100.0,0.046191085,-0.099929444,110.05646,110.06272,2.1540623e-06,1.0081013e-05,3,1,0,1
21628000,21548000,21548000,0,0.0,0.0,100.0,100.0,0.06255169,-0.11996889,110.43229,110.438736,3.9367656e-06,1.4480161e-05,3,1,0,1
21836000,21756000,21756000,0,0.0,0.0,100.0,100.0,0.08113966,-0.1419367,110.73926,110.74532,6.605752e-06,2.0212568e-05,3,1,0,1
22044000,21964000,21964000,0,0.0,0.0,100.0,100.0,0.09066025,-0.15541151,110.97734,110.98336,8.229188e-06,2.418054e-05,3,1,0,1
22252000,22172000,22172000,0,0.0,0.0,100.0,100.0,0.10164836,-0.17049699,111.15968,111.16523,1.0327874e-05,2.905507e-05,3,1,0,1
22460000,22380000,22380000,0,0.0,0.0,100.0,100.0,0.106641814,-0.17913811,111.285194,111.29054,1.1354687e-05,3.2038726e-05,3,1,0,1
22668000,22588000,22588000,0,0.0,0.0,100.0,100.0,0.1128053,-0.18753769,111.36478,111.36963,1.2696051e-05,3.5088746e-05,3,1,0,1
22876000,22796000,22796000,0,0.0,0.0,100.0,100.0,0.11276249,-0.1893338,111.39951,111.4041,1.268246e-05,3.575301e-05,3,1,0,1
23084000,23004000,23004000,0,0.0,0.0,100.0,100.0,0.113521025,-0.19182746,111.39965,111.40377,1.2853644e-05,3.6701105e-05,3,1,0,1
23292000,23212000,23212000,0,0.0,0.0,100.0,100.0,0.10745891,-0.18907055,111.36706,111.370865,1.1520879e-05,3.56643e-05,3,1,0,1
23500000,23420000,23420000,0,0.0,0.0,100.0,100.0,0.0989347,-0.18536487,111.30856,111.31205,9.770712e-06,3.429811e-05,3,1,0,1
23708000,23628000,23628000,0,0.0,0.0,100.0,100.0,0.09237564,-0.18387112,111.23004,111.23313,8.524135e-06,3.37715e-05,3,1,0,1
23916000,23836000,23836000,0,0.0,0.0,100.0,100.0,0.083247565,-0.17965157,111.13302,111.1358,6.928791e-06,3.226752e-05,3,1,0,1
24124000,24044000,24044000,0,0.0,0.0,100.0,100.0,0.07762273,-0.1785593,111.023056,111.02551,6.0300663e-06,3.1908006e-05,3,1,0,1
24332000,24252000,24252000,0,0.0,0.0,100.0,100.0,0.07008193,-0.17571388,110.901596,110.90377,4.920755e-06,3.0933094e-05,3,1,0,1
24540000,24460000,24460000,0,0.0,0.0,100.0,100.0,0.06523763,-0.17555675,110.77246,110.77436,4.2689594e-06,3.0913863e-05,3,1,0,1
24748000,24668000,24668000,0,0.0,0.0,100.0,100.0,0.06002456,-0.17433237,110.63673,110.63839,3.6183965e-06,3.0521627e-05,3,1,0,1
24956000,24876000,24876000,0,0.0,0.0,100.0,100.0,0.059147168,-0.17500816,110.49713,110.49858,3.5178264e-06,3.0797637e-05,3,1,0,1
25164000,25084000,25084000,0,0.0,0.0,100.0,100.0,0.05887412,-0.17406586,110.35447,110.355736,3.4899274e-06,3.0506317e-05,3,1,0,1
25372000,25292000,25292000,0,0.0,0.0,100.0,100.0,0.061241537,-0.173946,110.21068,110.21178,3.781168e-06,3.0504109e-05,3,1,0,1
25580000,25500000,25500000,0,0.0,0.0,100.0,100.0,0.06275219,-0.17177156,110.06631,110.06727,3.975217e-06,2.9785288e-05,3,1,0,1
25788000,25708000,25708000,0,0.0,0.0,100.0,100.0,0.06578698,-0.17059949,109.92269,109.92353,4.3747177e-06,2.941862e-05,3,1,0,1
25996000,25916000,25916000,0,0.0,0.0,100.0,100.0,0.06677978,-0.16749942,109.780174,109.780914,4.5136044e-06,2.8396009e-05,3,1,0,1
26204000,26124000,26124000,0,0.0,0.0,100.0,100.0,0.06850643,-0.16568024,109.63969,109.64033,4.756115e-06,2.7818174e-05,3,1,0,1
26412000,26332000,26332000,0,0.0,0.0,100.0,100.0,0.06831061,-0.16255915,109.50146,109.50202,4.734934e-06,2.681379e-05,3,1,0,1
26620000,26540000,26540000,0,0.0,0.0,100.0,100.0,0.06842097,-0.1606984,109.36613,109.36662,4.756123e-06,2.6235888e-05,3,1,0,1
26828000,26748000,26748000,0,0.0,0.0,100.0,100.0,0.067007735,-0.15787505,109.233864,109.23428,4.5672004e-06,2.5352776e-05,3,1,0,1
27036000,26956000,26956000,0,0.0,0.0,100.0,100.0,0.06679884,-0.15571807,109.10506,109.10542,4.5441275e-06,2.4693873e-05,3,1,0,1
27244000,27164000,27164000,0,0.0,0.0,100.0,100.0,0.06583512,-0.15247838,108.97978,108.9801,4.4190283e-06,2.3704284e-05,3,1,0,1
27452000,27372000,27372000,0,0.0,0.0,100.0,100.0,0.06624893,-0.14999771,108.8583,108.858574,4.4797494e-06,2.2964876e-05,3,1,0,1
27660000,27580000,27580000,0,0.0,0.0,100.0,100.0,0.06621402,-0.14646874,108.74065,108.740875,4.4798703e-06,2.192071e-05,3,1,0,1
27868000,27788000,27788000,0,0.0,0.0,100.0,100.0,0.06694586,-0.14345184,108.62699,108.62719,4.584238e-06,2.1048987e-05,3,1,0,1
28076000,27996000,27996000,0,0.0,0.0,100.0,100.0,0.06748741,-0.13996042,108.517395,108.517555,4.663411e-06,2.0057092e-05,3,1,0,1
28284000,28204000,28204000,0,0.0,0.0,100.0,100.0,0.069134876,-0.13704051,108.41194,108.41207,4.8986317e-06,1.9247653e-05,3,1,0,1
28492000,28412000,28412000,0,0.0,0.0,100.0,100.0,0.0708112,-0.13347977,108.310616,108.31072,5.1438747e-06,1.8277507e-05,3,1,0,1
28700000,28620000,28620000,0,0.0,0.0,100.0,100.0,0.07232944,-0.13003872,108.21348,108.21356,5.3716326e-06,1.7362856e-05,3,1,0,1
28908000,28828000,28828000,0,0.0,0.0,100.0,100.0,0.07424392,-0.12668432,108.12053,108.12059,5.664624e-06,1.6492817e-05,3,1,0,1
29116000,29036000,29036000,0,0.0,0.0,100.0,100.0,0.07554735,-0.12308923,108.03177,108.03182,5.8700866e-06,1.5582815e-05,3,1,0,1
29324000,29244000,29244000,0,0.0,0.0,100.0,100.0,0.077317,-0.11949794,107.947235,107.94727,6.1531277e-06,1.4698285e-05,3,1,0,1
29532000,29452000,29452000,0,0.0,0.0,100.0,100.0,0.07847308,-0.11593566,107.866905,107.86693,6.343234e-06,1.3845328e-05,3,1,0,1
29740000,29660000,29660000,0,0.0,0.0,100.0,100.0,0.079692066,-0.11224728,107.79078,107.790794,6.5464533e-06,1.2987558e-05,3,1,0,1
29948000,29868000,29868000,0,0.0,0.0,100.0,100.0,0.08018569,-0.10849823,107.718864,107.718864,6.632228e-06,1.2142582e-05,3,1,0,1
30156000,30076000,30076000,0,0.0,0.0,100.0,100.0,0.080136895,-0.10457135,107.651184,107.65117,6.6283233e-06,1.1286626e-05,3,1,0,1
30364000,30284000,30284000,0,0.0,0.0,100.0,100.0,0.079800434,-0.100710444,107.587715,107.5877,6.576659e-06,1.0474755e-05,3,1,0,1
30572000,30492000,30492000,0,0.0,0.0,100.0,100.0,0.079626866,-0.09710753,107.528465,107.528435,6.5516892e-06,9.744061e-06,3,1,0,1
30780000,30700000,30700000,0,0.0,0.0,100.0,100.0,0.07883976,-0.093741305,107.473366,107.47333,6.4260958e-06,9.084872e-06,3,1,0,1
30988000,30908000,30908000,0,0.0,0.0,100.0,100.0,0.07728419,-0.09008765,107.422424,107.42238,6.177942e-06,8.39447e-06,3,1,0,1
31196000,31116000,31116000,0,0.0,0.0,100.0,100.0,0.07516604,-0.08623376,107.3756,107.37554,5.8464902e-06,7.694966e-06,3,1,0,1
31404000,31324000,31324000,0,0.0,0.0,100.0,100.0,0.0721687,-0.08219162,107.33287,107.33281,5.39166e-06,6.9932657e-06,3,1,0,1
31612000,31532000,31532000,0,0.0,0.0,100.0,100.0,0.06821365,-0.078953356,107.294174,107.2941,4.8186334e-06,6.4553956e-06,3,1,0,1
31820000,31740000,31740000,0,0.0,0.0,100.0,100.0,0.06359356,-0.076267146,107.2595,107.259415,4.1893627e-06,6.025555e-06,3,1,0,1
32028000,31948000,31948000,0,0.0,0.0,100.0,100.0,0.058519308,-0.07477285,107.22881,107.22873,3.5484964e-06,5.793409e-06,3,1,0,1
32236000,32156000,32156000,0,0.0,0.0,100.0,100.0,0.052243628,-0.07419142,107.202095,107.20201,2.8289212e-06,5.7050825e-06,3,1,0,1
32444000,32364000,32364000,0,0.0,0.0,100.0,100.0,0.04482022,-0.07497997,107.179276,107.17918,2.0825462e-06,5.828242e-06,3,1,0,1
32652000,32572000,32572000,0,0.0,0.0,100.0,100.0,0.0360179,-0.07739132,107.16031,107.16021,1.3451178e-06,6.2102404e-06,3,1,0,1
32860000,32780000,32780000,0,0.0,0.0,100.0,100.0,0.026307296,-0.08130721,107.14513,107.14502,7.1769097e-07,6.855571e-06,3,1,0,1
33068000,32988000,32988000,0,0.0,0.0,100.0,100.0,0.015315886,-0.08591978,107.13365,107.133545,2.4328526e-07,7.656289e-06,3,1,0,1
33276000,33196000,33196000,0,0.0,0.0,100.0,100.0,0.0032560595,-0.091708675,107.1258,107.12569,1.0996338e-08,8.723378e-06,3,1,0,1
33484000,33404000,33404000,0,0.0,0.0,100.0,100.0,-0.010520726,-0.097663045,107.1215,107.12138,1.1480804e-07,9.893315e-06,3,1,0,1
33692000,33612000,33612000,0,0.0,0.0,100.0,100.0,-0.024438044,-0.10422698,107.12064,107.12053,6.194656e-07,1.1267954e-05,3,1,0,1
33900000,33820000,33820000,0,0.0,0.0,100.0,100.0,-0.038595587,-0.11084727,107.12311,107.12301,1.5450753e-06,1.2744557e-05,3,1,0,1
34108000,34028000,34028000,0,0.0,0.0,100.0,100.0,-0.053535473,-0.11800562,107.12879,107.12869,2.9725868e-06,1.4442989e-05,3,1,0,1
34316000,34236000,34236000,0,0.0,0.0,100.0,100.0,-0.06801332,-0.1260321,107.13751,107.13742,4.7973767e-06,1.6473225e-05,3,1,0,1
34524000,34444000,34444000,0,0.0,0.0,100.0,100.0,-0.082944445,-0.13456634,107.14914,107.14906,7.134169e-06,1.8777682e-05,3,1,0,1
34732000,34652000,34652000,0,0.0,0.0,100.0,100.0,-0.09692768,-0.14359553,107.16354,107.16348,9.741057e-06,2.1379254e-05,3,1,0,1
34940000,34860000,34860000,0,0.0,0.0,100.0,100.0,-0.1117202,-0.15227225,107.1801,107.180046,1.2939179e-05,2.4037268e-05,3,1,0,1
35148000,35068000,35068000,0,0.0,0.0,100.0,100.0,-0.12575114,-0.15901951,107.19732,107.19729,1.6390697e-05,2.6210453e-05,3,1,0,1
35356000,35276000,35276000,0,0.0,0.0,100.0,100.0,-0.13973829,-0.16448683,107.21517,107.21515,2.0236348e-05,2.8039069e-05,3,1,0,1
35564000,35484000,35484000,0,0.0,0.0,100.0,100.0,-0.15115881,-0.17018467,107.235306,107.2353,2.3674816e-05,3.0009629e-05,3,1,0,1
35772000,35692000,35692000,0,0.0,0.0,100.0,100.0,-0.16213474,-0.17669678,107.258286,107.25829,2.7231952e-05,3.2343265e-05,3,1,0,1
35980000,35900000,35900000,0,0.0,0.0,100.0,100.0,-0.17280982,-0.183603,107.28339,107.28341,3.0928713e-05,3.4912784e-05,3,1,0,1
36188000,36108000,36108000,0,0.0,0.0,100.0,100.0,-0.18441683,-0.19074939,107.310265,107.3103,3.521416e-05,3.7674057e-05,3,1,0,1
36396000,36316000,36316000,0,0.0,0.0,100.0,100.0,-0.19640222,-0.19813585,107.338646,107.33871,3.9929528e-05,4.063753e-05,3,1,0,1
36604000,36524000,36524000,0,0.0,0.0,100.0,100.0,-0.21051782,-0.20526841,107.36838,107.36845,4.586262e-05,4.3603875e-05,3,1,0,1
36812000,36732000,36732000,0,0.0,0.0,100.0,100.0,-0.22545989,-0.21208988,107.399254,107.39935,5.2588985e-05,4.6536716e-05,3,1,0,1
37020000,36940000,36940000,0,0.0,0.0,100.0,100.0,-0.2426853,-0.21892454,107.43112,107.431244,6.0913608e-05,4.956964e-05,3,1,0,1
37228000,37148000,37148000,0,0.0,0.0,100.0,100.0,-0.2605182,-0.22571406,107.4638,107.46395,7.017322e-05,5.2675892e-05,3,1,0,1
37436000,37356000,37356000,0,0.0,0.0,100.0,100.0,-0.27942538,-0.23300898,107.49711,107.49729,8.070351e-05,5.61184e-05,3,1,0,1
37644000,37564000,37564000,0,0.0,0.0,100.0,100.0,-0.29791653,-0.24036661,107.53083,107.53106,9.1709364e-05,5.9699654e-05,3,1,0,1
37852000,37772000,37772000,0,0.0,0.0,100.0,100.0,-0.31692702,-0.24826506,107.56479,107.56505,0.00010375424,6.366746e-05,3,1,0,1
38060000,37980000,37980000,0,0.0,0.0,100.0,100.0,-0.33512908,-0.25625265,107.59879,107.59909,0.00011597766,6.780872e-05,3,1,0,1
38268000,38188000,38188000,0,0.0,0.0,100.0,100.0,-0.35343271,-0.2640667,107.632675,107.63301,0.00012895164,7.198455e-05,3,1,0,1
38476000,38396000,38396000,0,0.0,0.0,100.0,100.0,-0.37088442,-0.27129483,107.666214,107.666595,0.0001419565,7.5955555e-05,3,1,0,1
38684000,38604000,38604000,0,0.0,0.0,100.0,100.0,-0.3888293,-0.27851278,107.69929,107.69971,0.00015597774,8.002639e-05,3,1,0,1
38892000,38812000,38812000,0,0.0,0.0,100.0,100.0,-0.40405068,-0.28288028,107.729866,107.73033,0.00016838098,8.253246e-05,3,1,0,1
39100000,39020000,39020000,0,0.0,0.0,100.0,100.0,-0.41735154,-0.28924817,107.762,107.76252,0.00017959568,8.6264285e-05,3,1,0,1
39308000,39228000,39228000,0,0.0,0.0,100.0,100.0,-0.4340561,-0.29646784,107.79345,107.79399,0.0001942034,9.0597896e-05,3,1,0,1
39516000,39436000,39436000,0,0.0,0.0,100.0,100.0,-0.4477353,-0.3017617,107.82302,107.823616,0.0002065802,9.38365e-05,3,1,0,1
39724000,39644000,39644000,0,0.0,0.0,100.0,100.0,-0.46525759,-0.3073173,107.85048,107.85112,0.00022300897,9.729865e-05,3,1,0,1
39932000,39852000,39852000,0,0.0,0.0,100.0,100.0,-0.47753966,-0.31024212,107.87561,107.87631,0.00023488382,9.913634e-05,3,1,0,1
40140000,40060000,40060000,0,0.0,0.0,100.0,100.0,-0.49515277,-0.31483674,107.898636,107.89939,0.00025247593,0.00010207263,3,1,0,1
40348000,40268000,40268000,0,0.0,0.0,100.0,100.0,-0.50657374,-0.31700778,107.91949,107.92031,0.00026420617,0.000103465165,3,1,0,1
40556000,40476000,40476000,0,0.0,0.0,100.0,100.0,-0.5247153,-0.3213178,107.93846,107.93935,0.00028341886,0.00010627895,3,1,0,1
40764000,40684000,40684000,0,0.0,0.0,100.0,100.0,-0.53544575,-0.3229753,107.955475,107.95643,0.00029508272,0.000107361266,3,1,0,1
40972000,40892000,40892000,0,0.0,0.0,100.0,100.0,-0.5533676,-0.32735112,107.97091,107.97193,0.0003151216,0.0001102743,3,1,0,1
41180000,41100000,41100000,0,0.0,0.0,100.0,100.0,-0.563831,-0.32854652,107.98464,107.98575,0.00032710965,0.00011106694,3,1,0,1
41388000,41308000,41308000,0,0.0,0.0,100.0,100.0,-0.5837649,-0.33280167,107.99702,107.99819,0.0003506079,0.00011394939,3,1,0,1
41596000,41516000,41516000,0,0.0,0.0,100.0,100.0,-0.59396863,-0.33204296,108.00781,108.009094,0.0003629354,0.00011341898,3,1,0,1
41804000,41724000,41724000,0,0.0,0.0,100.0,100.0,-0.6060604,-0.32986766,108.02095,108.022285,0.00037781682,0.0001119241,3,1,0,1
42012000,41932000,41932000,0,0.0,0.0,100.0,100.0,-0.604729,-0.32269526,108.03342,108.03481,0.00037611523,0.0001070974,3,1,0,1
42220000,42140000,42140000,0,0.0,0.0,100.0,100.0,-0.61196417,-0.3190596,108.04446,108.04589,0.0003851297,0.00010468703,3,1,0,1
42428000,42348000,42348000,0,0.0,0.0,100.0,100.0,-0.60639524,-0.31140783,108.05404,108.05551,0.00037811862,9.97171e-05,3,1,0,1
42636000,42556000,42556000,0,0.0,0.0,100.0,100.0,-0.60969365,-0.30720064,108.06225,108.06371,0.0003822142,9.703353e-05,3,1,0,1
42844000,42764000,42764000,0,0.0,0.0,100.0,100.0,-0.60093445,-0.29910803,108.06903,108.07052,0.0003712876,9.198275e-05,3,1,0,1
43052000,42972000,42972000,0,0.0,0.0,100.0,100.0,-0.60142124,-0.2942466,108.07448,108.07594,0.0003718706,8.901258e-05,3,1,0,1
43260000,43180000,43180000,0,0.0,0.0,100.0,100.0,-0.59019715,-0.28580478,108.07856,108.080025,0.00035810645,8.3975196e-05,3,1,0,1
43468000,43388000,43388000,0,0.0,0.0,100.0,100.0,-0.58765346,-0.2806057,108.08136,108.08279,0.0003550171,8.0945734e-05,3,1,0,1
43676000,43596000,43596000,0,0.0,0.0,100.0,100.0,-0.57476723,-0.27258363,108.082886,108.08429,0.0003396132,7.638261e-05,3,1,0,1
43884000,43804000,43804000,0,0.0,0.0,100.0,100.0,-0.5700902,-0.26746064,108.08322,108.084564,0.00033410758,7.35383e-05,3,1,0,1
44092000,44012000,44012000,0,0.0,0.0,100.0,100.0,-0.5551322,-0.25910893,108.08237,108.08367,0.00031680753,6.9017966e-05,3,1,0,1
44300000,44220000,44220000,0,0.0,0.0,100.0,100.0,-0.540092,-0.2504306,108.0804,108.08165,0.00029987897,6.447337e-05,3,1,0,1
44508000,44428000,44428000,0,0.0,0.0,100.0,100.0,-0.53337467,-0.24430044,108.07738,108.07857,0.0002924741,6.135732e-05,3,1,0,1
44716000,44636000,44636000,0,0.0,0.0,100.0,100.0,-0.5178344,-0.23574497,108.07333,108.07447,0.00027568985,5.713724e-05,3,1,0,1
44924000,44844000,44844000,0,0.0,0.0,100.0,100.0,-0.51037747,-0.22973494,108.06837,108.06943,0.00026781933,5.4263615e-05,3,1,0,1
45132000,45052000,45052000,0,0.0,0.0,100.0,100.0,-0.49526125,-0.22162315,108.062485,108.063484,0.00025220358,5.050202e-05,3,1,0,1
45340000,45260000,45260000,0,0.0,0.0,100.0,100.0,-0.48717865,-0.21565762,108.05578,108.0567,0.00024405404,4.7822843e-05,3,1,0,1
45548000,45468000,45468000,0,0.0,0.0,100.0,100.0,-0.47183445,-0.2078762,108.04826,108.049126,0.00022893857,4.443711e-05,3,1,0,1
45756000,45676000,45676000,0,0.0,0.0,100.0,100.0,-0.46321043,-0.2019846,108.04003,108.040825,0.00022066297,4.1957162e-05,3,1,0,1
45964000,45884000,45884000,0,0.0,0.0,100.0,100.0,-0.44870162,-0.19478744,108.03111,108.03185,0.00020707322,3.9023624e-05,3,1,0,1
46172000,46092000,46092000,0,0.0,0.0,100.0,100.0,-0.44016695,-0.18955517,108.02159,108.022255,0.00019928828,3.69586e-05,3,1,0,1
46380000,46300000,46300000,0,0.0,0.0,100.0,100.0,-0.4261359,-0.18356897,108.01149,108.0121,0.00018680298,3.4664397e-05,3,1,0,1
46588000,46508000,46508000,0,0.0,0.0,1e-04,1e-04,-0.016602049,-0.01557219,2.7874148,2.7875397,1.0987003e-05,9.665756e-06,3,1,0,1
46796000,46716000,46716000,0,0.0,0.0,1e-04,1e-04,-0.0012053411,-0.00075998105,0.0009770874,0.000977094,0.0001652129,6.5679014e-05,3,1,0,1
47004000,46924000,46924000,0,0.0,0.0,1e-04,1e-04,-0.00030206208,-0.00062752585,0.0005862521,0.0005862739,1.7292807e-05,7.4631156e-05,3,1,0,1
47212000,47132000,47132000,0,0.0,0.0,1e-04,1e-04,-0.00023560743,-0.00029590967,0.00051256013,0.0005125984,1.20334635e-05,1.8980103e-05,3,1,0,1
47420000,47340000,47340000,0,0.0,0.0,1e-04,1e-04,-0.00031276848,0.0001564761,0.00048611278,0.00048614465,2.2359724e-05,5.596133e-06,3,1,0,1
47628000,47548000,47548000,0,0.0,0.0,1e-04,1e-04,3.806558e-05,0.00042792308,0.00043166967,0.00043168696,3.7296738e-07,4.7132446e-05,3,1,0,1
47836000,47756000,47756000,0,0.0,0.0,1e-04,1e-04,-0.00018185732,0.00062634784,0.0003755161,0.00037552402,9.785669e-06,0.00011607828,3,1,0,1
48044000,47964000,47964000,0,0.0,0.0,1e-04,1e-04,-0.0004594154,0.00072804466,0.00033211053,0.00033211432,7.0613205e-05,0.00017733152,3,1,0,1
48252000,48172000,48172000,0,0.0,0.0,1e-04,1e-04,-0.0007919737,0.0005354038,0.0003013738,0.00030137633,0.00023124563,0.00010568448,3,1,0,1
48460000,48380000,48380000,0,0.0,0.0,1e-04,1e-04,-0.00079684757,0.00039414404,0.00028017638,0.00028017792,0.00025181205,6.160749e-05,3,1,0,1
48668000,48588000,48588000,0,0.0,0.0,1e-04,1e-04,-0.000835328,0.00030671243,0.0002657172,0.00026571806,0.0002917776,3.9336817e-05,3,1,0,1
48876000,48796000,48796000,0,0.0,0.0,1e-04,1e-04,-0.0011238926,0.00026622726,0.00025593222,0.00025593268,0.0005483807,3.0770658e-05,3,1,0,1
49084000,49004000,49004000,0,0.0,0.0,1e-04,1e-04,-0.0013501133,0.00046123783,0.00024935053,0.00024935094,0.0008122461,9.4797375e-05,3,1,0,1
49292000,49212000,49212000,0,0.0,0.0,1e-04,1e-04,-0.001128347,0.0010219575,0.00024493423,0.00024493423,0.00057755504,0.0004737767,3,1,0,1
