timestamp,timestamp_sample,control_mode_flags,output_tracking_error[0],output_tracking_error[1],output_tracking_error[2],filter_fault_flags,pos_horiz_accuracy,pos_vert_accuracy,mag_test_ratio,vel_test_ratio,pos_test_ratio,hgt_test_ratio,tas_test_ratio,hagl_test_ratio,beta_test_ratio,time_slip,accel_device_id,gyro_device_id,baro_device_id,mag_device_id,gps_check_fail_flags,innovation_check_flags,solution_status_flags,reset_count_vel_ne,reset_count_vel_d,reset_count_pos_ne,reset_count_pod_d,reset_count_quat,pre_flt_fail_innov_heading,pre_flt_fail_innov_vel_horiz,pre_flt_fail_innov_vel_vert,pre_flt_fail_innov_height,pre_flt_fail_mag_field_disturbed,health_flags,timeout_flags
3340000,3260000,13488881664,0.00024170727,0.0132056475,0.0007275614,0,14.166938,10.007018,nan,nan,nan,nan,0.0,0.0,0.0,0.0,1310988,1310988,6620172,0,0,0,128,1,1,1,1,0,0,0,0,0,0,0,0
3348000,3268000,13488881664,0.00021945575,0.003450037,0.0012817659,0,14.1421385,10.0,nan,nan,nan,nan,0.0,0.0,0.0,0.0,1310988,1310988,6620172,0,0,0,128,1,1,1,1,0,0,0,0,0,0,0,0
3540000,3460000,13488881664,1.7013597e-05,0.0017944707,0.0015876761,0,0.014318878,7.0710673,nan,nan,nan,nan,0.0,0.0,0.0,0.0,1310988,1310988,6620172,0,0,0,128,1,1,1,1,0,0,0,0,0,0,0,0
3740000,3660000,13488881665,0.0010905348,0.0186482,0.005574596,0,0.010399869,5.773502,nan,nan,nan,nan,0.0,0.0,0.0,0.0,1310988,1310988,6620172,0,0,0,128,1,1,1,1,0,0,0,0,0,0,0,0
3940000,3860000,13488881665,0.00016033997,0.007166287,0.0043820287,0,0.030260077,5.7735043,nan,nan,nan,nan,0.0,0.0,0.0,0.0,1310988,1310988,6620172,0,0,0,128,1,1,1,1,0,0,0,0,0,0,0,0
4140000,4060000,4898947585,0.00027354594,0.0025279964,0.04103826,0,0.037529048,2.2180407,nan,nan,nan,0.0008594564,0.0,0.0,0.0,0.0,1310988,1310988,6620172,0,0,0,164,1,1,1,1,0,0,0,0,0,0,0,0
4340000,4260000,4898947585,0.0003674217,0.002740349,0.007240615,0,0.030610962,1.4938078,nan,nan,nan,0.0010689766,0.0,0.0,0.0,0.0,1310988,1310988,6620172,0,0,0,164,1,1,1,1,0,0,0,0,0,0,0,0
4540000,4460000,4898947585,0.00021094536,0.0023443557,0.00234217,0,0.026500303,1.1362894,nan,nan,nan,0.0006675589,0.0,0.0,0.0,0.0,1310988,1310988,6620172,0,0,0,164,1,1,1,1,0,0,0,0,0,0,0,0
4740000,4660000,4898947585,0.0002668555,0.0020683806,0.009472577,0,0.024219528,0.99070436,nan,nan,nan,0.0034694516,0.0,0.0,0.0,0.0,1310988,1310988,6620172,0,0,0,164,1,1,1,1,0,0,0,0,0,0,0,0
4940000,4860000,4898947585,0.0002941613,0.0017842291,0.008309344,0,0.022529587,0.8625403,nan,nan,nan,0.0036690237,0.0,0.0,0.0,0.0,1310988,1310988,6620172,0,0,0,164,1,1,1,1,0,0,0,0,0,0,0,0
5140000,5060000,4898947585,0.00029868554,0.001861176,0.0050202985,0,0.021020679,0.7938765,nan,nan,nan,0.0012902272,0.0,0.0,0.0,0.0,1310988,1310988,6620172,0,0,0,164,1,1,1,1,0,0,0,0,0,0,0,0
5340000,5260000,4898947585,0.00019891933,0.0016911182,0.006297665,0,0.019665593,0.73964804,nan,nan,nan,0.00026583887,0.0,0.0,0.0,0.0,1310988,1310988,6620172,0,0,0,164,1,1,1,1,0,0,0,0,0,0,0,0
5540000,5460000,4898947585,0.00015179106,0.0011001104,0.0020560727,0,0.018491007,0.6821421,nan,nan,nan,0.0016679101,0.0,0.0,0.0,0.0,1310988,1310988,6620172,0,0,0,164,1,1,1,1,0,0,0,0,0,0,0,0
5740000,5660000,4898947585,0.0001058546,0.00090985344,0.0075474274,0,0.017497424,0.64729065,nan,nan,nan,0.009189577,0.0,0.0,0.0,0.0,1310988,1310988,6620172,0,0,0,164,1,1,1,1,0,0,0,0,0,0,0,0
5940000,5860000,4898947585,0.00012826045,0.0017058813,0.0021927434,0,0.01665963,0.6175325,nan,nan,nan,0.00016322217,0.0,0.0,0.0,0.0,1310988,1310988,6620172,0,0,0,164,1,1,1,1,0,0,0,0,0,0,0,0
6140000,6060000,4898947585,7.649897e-05,0.0017835429,0.0021686396,0,0.015948795,0.5834932,nan,nan,nan,0.0006848092,0.0,0.0,0.0,0.0,1310988,1310988,6620172,0,0,0,164,1,1,1,1,0,0,0,0,0,0,0,0
6340000,6260000,4898947585,5.6397406e-05,0.0015444789,0.0025933662,0,0.015337133,0.56183314,nan,nan,nan,0.0014467387,0.0,0.0,0.0,0.0,1310988,1310988,6620172,0,0,0,164,1,1,1,1,0,0,0,0,0,0,0,0
6540000,6460000,4898947585,7.1353256e-06,0.0015773986,0.0016973874,0,0.014802545,0.5426235,nan,nan,nan,0.0050965706,0.0,0.0,0.0,0.0,1310988,1310988,6620172,0,0,0,164,1,1,1,1,0,0,0,0,0,0,0,0
6740000,6660000,4898947585,0.000116514144,0.0024620958,0.00251326,0,0.014328254,0.51963365,nan,nan,nan,0.004918005,0.0,0.0,0.0,0.0,1310988,1310988,6620172,0,0,0,164,1,1,1,1,0,0,0,0,0,0,0,0
6940000,6860000,4898947585,0.00014744945,0.0031055324,0.0018689586,0,0.013902431,0.5046823,nan,nan,nan,0.0017072819,0.0,0.0,0.0,0.0,1310988,1310988,6620172,0,0,0,164,1,1,1,1,0,0,0,0,0,0,0,0
7140000,7060000,4898947585,0.00015527371,0.0033696545,0.0021615005,0,0.013515029,0.4911286,nan,nan,nan,0.0011348637,0.0,0.0,0.0,0.0,1310988,1310988,6620172,0,0,0,164,1,1,1,1,0,0,0,0,0,0,0,0
7340000,7260000,4898947585,0.00021809552,0.0037136534,0.0028373515,0,0.013159535,0.4743731,nan,nan,nan,0.0020026232,0.0,0.0,0.0,0.0,1310988,1310988,6620172,0,0,0,164,1,1,1,1,0,0,0,0,0,0,0,0
7540000,7460000,4898947585,0.0002626718,0.004175101,0.0021690286,0,0.012830651,0.4633939,nan,nan,nan,0.00013520781,0.0,0.0,0.0,0.0,1310988,1310988,6620172,0,0,0,164,1,1,1,1,0,0,0,0,0,0,0,0
7740000,7660000,4898947585,0.00024093932,0.0042329594,0.002208132,0,0.012523901,0.4495461,nan,nan,nan,0.0041499794,0.0,0.0,0.0,0.0,1310988,1310988,6620172,0,0,0,164,1,1,1,1,0,0,0,0,0,0,0,0
7940000,7860000,4898947585,0.000178722,0.0036498387,0.0028531982,0,0.012236631,0.44046444,nan,nan,nan,0.0011544299,0.0,0.0,0.0,0.0,1310988,1310988,6620172,0,0,0,164,1,1,1,1,0,0,0,0,0,0,0,0
8140000,8060000,4898947585,0.00012011449,0.0028723506,0.0018334084,0,0.011966193,0.43205678,nan,nan,nan,0.0009381853,0.0,0.0,0.0,0.0,1310988,1310988,6620172,0,0,0,164,1,1,1,1,0,0,0,0,0,0,0,0
8340000,8260000,4898947585,7.2357245e-05,0.0019911071,0.0019601798,0,0.011710475,0.42117083,nan,nan,nan,0.0008521704,0.0,0.0,0.0,0.0,1310988,1310988,6620172,0,0,0,164,1,1,1,1,0,0,0,0,0,0,0,0
8540000,8460000,4898947585,7.734978e-05,0.0021857591,0.0028965708,0,0.011517725,0.415794,nan,nan,nan,0.0012960815,0.0,0.0,0.0,0.0,1310988,1310988,6620172,0,0,0,164,1,1,1,1,0,0,0,0,0,0,0,0
8740000,8660000,4898949633,6.293557e-05,0.0020198883,0.0025680594,0,0.011282608,1.0000048,nan,nan,nan,0.002075249,0.0,0.0,0.0,0.0,1310988,1310988,6620172,0,0,0,164,1,1,1,2,0,0,0,0,0,0,0,0
8940000,8860000,4898949633,6.0158032e-05,0.0017375678,0.0016237469,0,0.011058573,0.8683961,nan,nan,nan,0.0018298213,0.0,0.0,0.0,0.0,1310988,1310988,6620172,0,0,0,164,1,1,1,2,0,0,0,0,0,0,0,0
9140000,9060000,4898949633,3.80166e-05,0.0016257928,0.005053574,0,0.017344741,0.6238529,nan,nan,nan,0.00037424246,0.0,0.0,0.0,0.0,1310988,1310988,6620172,0,0,0,164,1,1,1,2,0,0,0,0,0,0,0,0
9340000,9260000,4898949633,4.7340476e-05,0.0014763365,0.0029936193,0,0.016966127,0.5965789,nan,nan,nan,0.002100879,0.0,0.0,0.0,0.0,1310988,1310988,6620172,0,0,0,164,1,1,1,2,0,0,0,0,0,0,0,0
9540000,9460000,4898949633,5.9354254e-05,0.0013852266,0.0011611454,0,0.016604062,0.49218968,nan,nan,nan,0.0014181329,0.0,0.0,0.0,0.0,1310988,1310988,6620172,0,0,0,164,1,1,1,2,0,0,0,0,0,0,0,0
9740000,9660000,4898949633,5.6506025e-05,0.0014261323,0.0012300167,0,0.016255958,0.4790582,nan,nan,nan,0.0016531936,0.0,0.0,0.0,0.0,1310988,1310988,6620172,0,0,0,164,1,1,1,2,0,0,0,0,0,0,0,0
9940000,9860000,4898949633,6.1392006e-05,0.0015039562,0.0014285721,0,0.015920615,0.4233299,nan,nan,nan,0.0027834289,0.0,0.0,0.0,0.0,1310988,1310988,6620172,0,0,0,164,1,1,1,2,0,0,0,0,0,0,0,0
10140000,10060000,4898949633,7.071363e-05,0.0016153463,0.00090317155,0,0.0155971665,0.41266406,nan,nan,nan,0.0028688628,0.0,0.0,0.0,0.0,1310988,1310988,6620172,0,0,0,164,1,1,1,2,0,0,0,0,0,0,0,0
10340000,10260000,4898949633,5.787182e-05,0.0015735547,0.0011367804,0,0.015284547,0.3759987,nan,nan,nan,0.0032811954,0.0,0.0,0.0,0.0,1310988,1310988,6620172,0,0,0,164,1,1,1,2,0,0,0,0,0,0,0,0
10540000,10460000,4898949633,4.8932146e-05,0.0014457869,0.0010375389,0,0.014982834,0.3711928,nan,nan,nan,0.00061800703,0.0,0.0,0.0,0.0,1310988,1310988,6620172,0,0,0,164,1,1,1,2,0,0,0,0,0,0,0,0
10740000,10660000,4898949633,4.673087e-05,0.0016802627,0.0013659464,0,0.014690224,0.3427631,nan,nan,nan,0.0019036151,0.0,0.0,0.0,0.0,1310988,1310988,6620172,0,0,0,164,1,1,1,2,0,0,0,0,0,0,0,0
10940000,10860000,4898949633,5.906973e-05,0.0020619922,0.0013593363,0,0.014406266,0.33975413,nan,nan,nan,0.00077774946,0.0,0.0,0.0,0.0,1310988,1310988,6620172,0,0,0,164,1,1,1,2,0,0,0,0,0,0,0,0
11140000,11060000,4898949633,6.0974497e-05,0.0024724673,0.0026808656,0,0.014130286,0.31942153,nan,nan,nan,0.0021122047,0.0,0.0,0.0,0.0,1310988,1310988,6620172,0,0,0,164,1,1,1,2,0,0,0,0,0,0,0,0
11340000,11260000,4898949633,7.046524e-05,0.0027777962,0.0024102852,0,0.013862212,0.31629285,nan,nan,nan,0.0031613025,0.0,0.0,0.0,0.0,1310988,1310988,6620172,0,0,0,164,1,1,1,2,0,0,0,0,0,0,0,0
11540000,11460000,4898949633,8.249628e-05,0.00309262,0.0038708656,0,0.013601709,0.30021605,nan,nan,nan,0.0044004885,0.0,0.0,0.0,0.0,1310988,1310988,6620172,0,0,0,164,1,1,1,2,0,0,0,0,0,0,0,0
11740000,11660000,4898949633,9.185329e-05,0.0033985737,0.0034485268,0,0.013348136,0.29816544,nan,nan,nan,0.0021924907,0.0,0.0,0.0,0.0,1310988,1310988,6620172,0,0,0,164,1,1,1,2,0,0,0,0,0,0,0,0
11940000,11860000,4898949633,0.00010192257,0.0036777637,0.0052052517,0,0.013101605,0.28506762,nan,nan,nan,0.0038516293,0.0,0.0,0.0,0.0,1310988,1310988,6620172,0,0,0,164,1,1,1,2,0,0,0,0,0,0,0,0
12140000,12060000,4898949633,0.00010492971,0.0034259502,0.00366308,0,0.012862014,0.28474146,nan,nan,nan,0.0030627516,0.0,0.0,0.0,0.0,1310988,1310988,6620172,0,0,0,164,1,1,1,2,0,0,0,0,0,0,0,0
12340000,12260000,4898949633,9.400487e-05,0.0031885959,0.0045370106,0,0.012628556,0.27287507,nan,nan,nan,0.0036440517,0.0,0.0,0.0,0.0,1310988,1310988,6620172,0,0,0,164,1,1,1,2,0,0,0,0,0,0,0,0
12540000,12460000,4898949633,8.912381e-05,0.0028989352,0.0036790203,0,0.012400948,0.2730359,nan,nan,nan,0.0020907258,0.0,0.0,0.0,0.0,1310988,1310988,6620172,0,0,0,164,1,1,1,2,0,0,0,0,0,0,0,0
12740000,12660000,4898949633,6.403546e-05,0.0025698382,0.00390945,0,0.012178959,0.26365215,nan,nan,nan,0.0011314607,0.0,0.0,0.0,0.0,1310988,1310988,6620172,0,0,0,164,1,1,1,2,0,0,0,0,0,0,0,0
12940000,12860000,4898949633,6.538073e-05,0.0022752793,0.0035714852,0,0.011962576,0.2634497,nan,nan,nan,0.0038682376,0.0,0.0,0.0,0.0,1310988,1310988,6620172,0,0,0,164,1,1,1,2,0,0,0,0,0,0,0,0
13140000,13060000,4898949633,0.000102753445,0.0027131133,0.0038724043,0,0.011751796,0.25533882,nan,nan,nan,0.0020057985,0.0,0.0,0.0,0.0,1310988,1310988,6620172,0,0,0,164,1,1,1,2,0,0,0,0,0,0,0,0
13340000,13260000,4898949633,9.959658e-05,0.0030528693,0.002880145,0,0.011546537,0.2561866,nan,nan,nan,0.0031947691,0.0,0.0,0.0,0.0,1310988,1310988,6620172,0,0,0,164,1,1,1,2,0,0,0,0,0,0,0,0
13540000,13460000,4898949633,9.97183e-05,0.0032285785,0.0034591637,0,0.011346667,0.2483945,nan,nan,nan,0.00188263,0.0,0.0,0.0,0.0,1310988,1310988,6620172,0,0,0,164,1,1,1,2,0,0,0,0,0,0,0,0
13740000,13660000,4898949633,0.000105282714,0.0027272326,0.002061751,0,0.011191205,0.2517112,nan,nan,nan,0.0020569768,0.0,0.0,0.0,0.0,1310988,1310988,6620172,0,0,0,164,1,1,1,2,0,0,0,0,0,0,0,0
13940000,13860000,4898949633,0.00010195272,0.0026807624,0.0022523343,0,0.010999598,0.24531507,nan,nan,nan,0.002257766,0.0,0.0,0.0,0.0,1310988,1310988,6620172,0,0,0,164,1,1,1,2,0,0,0,0,0,0,0,0
14140000,14060000,4898949633,7.1527254e-05,0.0020794377,0.0016232529,0,0.0108131785,0.24618588,nan,nan,nan,0.0042202105,0.0,0.0,0.0,0.0,1310988,1310988,6620172,0,0,0,164,1,1,1,2,0,0,0,0,0,0,0,0
14340000,14260000,4898949633,2.3154096e-05,0.0008727108,0.0009534735,0,0.016485931,0.2404367,nan,nan,nan,0.0062820697,0.0,0.0,0.0,0.0,1310988,1310988,6620172,0,0,0,164,1,1,1,2,0,0,0,0,0,0,0,0
14540000,14460000,4898949633,2.0392918e-05,0.0007350815,0.0016105267,0,0.016199796,0.24149306,nan,nan,nan,0.0043152543,0.0,0.0,0.0,0.0,1310988,1310988,6620172,0,0,0,164,1,1,1,2,0,0,0,0,0,0,0,0
14740000,14660000,4898949633,2.5808797e-05,0.0008345429,0.0007127478,0,0.015918901,0.2362692,nan,nan,nan,0.0019596699,0.0,0.0,0.0,0.0,1310988,1310988,6620172,0,0,0,164,1,1,1,2,0,0,0,0,0,0,0,0
14940000,14860000,4898949633,2.8857361e-05,0.0009751442,0.00085752195,0,0.015643314,0.23802298,nan,nan,nan,0.0026058126,0.0,0.0,0.0,0.0,1310988,1310988,6620172,0,0,0,164,1,1,1,2,0,0,0,0,0,0,0,0
15140000,15060000,4898949633,3.066009e-05,0.0010559744,0.0008636978,0,0.015372484,0.23268521,nan,nan,nan,0.0028730487,0.0,0.0,0.0,0.0,1310988,1310988,6620172,0,0,0,164,1,1,1,2,0,0,0,0,0,0,0,0
15340000,15260000,4832889473,3.0451733e-05,0.0008758899,0.0008775359,0,0.015133212,0.23454185,nan,nan,nan,0.0022430827,0.0,0.0,0.0,0.0,1310988,1310988,6620172,0,0,0,164,1,1,1,2,0,0,0,0,0,0,0,0
15540000,15460000,4832889473,1.1400651e-05,0.00079336634,0.00045118478,0,0.02584378,0.23306102,nan,nan,nan,0.0048711803,0.0,0.0,0.0,0.0,1310988,1310988,6620172,0,0,0,164,1,1,1,2,0,0,0,0,0,0,0,0
15740000,15660000,4832889473,1.1412158e-05,0.0010510308,0.0012767,0,0.04967436,0.23833434,nan,nan,nan,0.0031587395,0.0,0.0,0.0,0.0,1310988,1310988,6620172,0,0,0,164,1,1,1,2,0,0,0,0,0,0,0,0
15940000,15860000,4832889473,1.13697915e-05,0.0010512539,0.0012270276,0,0.0884047,0.23807982,nan,nan,nan,0.00330821,0.0,0.0,0.0,0.0,1310988,1310988,6620172,0,0,0,164,1,1,1,2,0,0,0,0,0,0,0,0
16140000,16060000,4832889473,1.1385934e-05,0.001065373,0.0015252602,0,0.14158681,0.2456296,nan,nan,nan,0.0034690932,0.0,0.0,0.0,0.0,1310988,1310988,6620172,0,0,0,164,1,1,1,2,0,0,0,0,0,0,0,0
16340000,16260000,4832889473,1.0947722e-05,0.0009017039,0.0010138372,0,0.2088931,0.24587564,nan,nan,nan,0.0031901256,0.0,0.0,0.0,0.0,1310988,1310988,6620172,0,0,0,164,1,1,1,2,0,0,0,0,0,0,0,0
16540000,16460000,4832889473,1.1164859e-05,0.00089298043,0.0012695191,0,0.2901723,0.25526154,nan,nan,nan,0.0031283365,0.0,0.0,0.0,0.0,1310988,1310988,6620172,0,0,0,164,1,1,1,2,0,0,0,0,0,0,0,0
16740000,16660000,4832889473,1.0570835e-05,0.0006856783,0.00066469307,0,0.3852975,0.25695434,nan,nan,nan,0.002074078,0.0,0.0,0.0,0.0,1310988,1310988,6620172,0,0,0,164,1,1,1,2,0,0,0,0,0,0,0,0
16940000,16860000,4832889473,1.0648811e-05,0.00062892324,0.0006406679,0,0.49416277,0.26745725,nan,nan,nan,0.0015684338,0.0,0.0,0.0,0.0,1310988,1310988,6620172,0,0,0,164,1,1,1,2,0,0,0,0,0,0,0,0
17140000,17060000,4832889473,1.05089575e-05,0.00039250928,0.00022914613,0,0.6165913,0.26954207,nan,nan,nan,0.0035718551,0.0,0.0,0.0,0.0,1310988,1310988,6620172,0,0,0,164,1,1,1,2,0,0,0,0,0,0,0,0
17340000,17260000,4832889473,1.0363433e-05,0.0004821791,0.00044739424,0,0.7523736,0.28247565,nan,nan,nan,0.004508709,0.0,0.0,0.0,0.0,1310988,1310988,6620172,0,0,0,164,1,1,1,2,0,0,0,0,0,0,0,0
17540000,17460000,4832889473,1.57508e-05,0.0004556887,0.002038437,0,0.90109175,0.2835011,nan,nan,nan,0.0062380773,0.0,0.0,0.0,0.0,1310988,1310988,6620172,0,0,0,164,1,1,1,2,0,0,0,0,0,0,0,0
17740000,17660000,4832889473,1.0031423e-05,0.00031166224,0.0002815539,0,1.0623146,0.29783902,nan,nan,nan,0.005313815,0.0,0.0,0.0,0.0,1310988,1310988,6620172,0,0,0,164,1,1,1,2,0,0,0,0,0,0,0,0
17940000,17860000,4832889473,1.8431892e-05,0.00067679223,0.0023897458,0,1.2351829,0.29795787,nan,nan,nan,0.0054214722,0.0,0.0,0.0,0.0,1310988,1310988,6620172,0,0,0,164,1,1,1,2,0,0,0,0,0,0,0,0
18140000,18060000,4832889473,1.0822559e-05,4.600178e-05,0.0009016045,0,1.4191061,0.31333572,nan,nan,nan,0.005756135,0.0,0.0,0.0,0.0,1310988,1310988,6620172,0,0,0,164,1,1,1,2,0,0,0,0,0,0,0,0
18340000,18260000,4832889473,2.2403203e-05,0.000854915,0.0031116824,0,1.6128838,0.3132199,nan,nan,nan,0.0041329255,0.0,0.0,0.0,0.0,1310988,1310988,6620172,0,0,0,164,1,1,1,2,0,0,0,0,0,0,0,0
18540000,18460000,4832889473,1.1113084e-05,0.0003827721,0.00064393197,0,1.8154674,0.32799947,nan,nan,nan,0.0038375133,0.0,0.0,0.0,0.0,1310988,1310988,6620172,0,0,0,164,1,1,1,2,0,0,0,0,0,0,0,0
18740000,18660000,4832889473,1.4627707e-05,0.00072812004,0.0020602322,0,2.0248723,0.32615107,nan,nan,nan,0.0038556526,0.0,0.0,0.0,0.0,1310988,1310988,6620172,0,0,0,164,1,1,1,2,0,0,0,0,0,0,0,0
18940000,18860000,4832889473,3.481763e-05,0.0009026449,0.0031883025,0,2.2391152,0.34108597,nan,nan,nan,0.00759665,0.0,0.0,0.0,0.0,1310988,1310988,6620172,0,0,0,164,1,1,1,2,0,0,0,0,0,0,0,0
19140000,19060000,4832889473,5.1462757e-05,0.0021266274,0.005620044,0,2.4541314,0.33735612,nan,nan,nan,0.004570016,0.0,0.0,0.0,0.0,1310988,1310988,6620172,0,0,0,164,1,1,1,2,0,0,0,0,0,0,0,0
19340000,19260000,4832889473,9.083407e-05,0.0038573593,0.008170542,0,2.6674752,0.35401765,nan,nan,nan,0.0037703998,0.0,0.0,0.0,0.0,1310988,1310988,6620172,0,0,0,164,1,1,1,2,0,0,0,0,0,0,0,0
19540000,19460000,4832889473,1.3254634e-05,0.0015924562,0.0053697783,0,2.9374347,0.346632,nan,nan,nan,0.007679074,0.0,0.0,0.0,0.0,1310988,1310988,6620172,0,0,0,164,1,1,1,2,0,0,0,0,0,0,0,0
19740000,19660000,4832889473,1.7076745e-05,0.0016741494,0.0045454307,0,3.1529918,0.36319512,nan,nan,nan,0.00846026,0.0,0.0,0.0,0.0,1310988,1310988,6620172,0,0,0,164,1,1,1,2,0,0,0,0,0,0,0,0
19940000,19860000,4832889473,1.1351355e-05,0.0019683996,0.0062080235,0,3.3588338,0.35569316,nan,nan,nan,0.0048325616,0.0,0.0,0.0,0.0,1310988,1310988,6620172,0,0,0,164,1,1,1,2,0,0,0,0,0,0,0,0
20140000,20060000,4832889473,2.6356935e-05,0.00194397,0.005081893,0,3.5531712,0.37016478,nan,nan,nan,0.0069377995,0.0,0.0,0.0,0.0,1310988,1310988,6620172,0,0,0,164,1,1,1,2,0,0,0,0,0,0,0,0
20340000,20260000,4832889473,1.0276212e-05,0.0020188738,0.006995582,0,3.7324812,0.36109507,nan,nan,nan,0.0066038207,0.0,0.0,0.0,0.0,1310988,1310988,6620172,0,0,0,164,1,1,1,2,0,0,0,0,0,0,0,0
20540000,20460000,4832889473,1.9576819e-05,0.001055366,0.0033567792,0,3.896127,0.37727994,nan,nan,nan,0.008890897,0.0,0.0,0.0,0.0,1310988,1310988,6620172,0,0,0,164,1,1,1,2,0,0,0,0,0,0,0,0
20740000,20660000,4832889473,1.9965666e-05,0.002499477,0.008409624,0,4.041395,0.3647515,nan,nan,nan,0.007288072,0.0,0.0,0.0,0.0,1310988,1310988,6620172,0,0,0,164,1,1,1,2,0,0,0,0,0,0,0,0
20940000,20860000,4832889473,9.275169e-06,0.001206734,0.0036532844,0,4.1691866,0.3805681,nan,nan,nan,0.007165147,0.0,0.0,0.0,0.0,1310988,1310988,6620172,0,0,0,164,1,1,1,2,0,0,0,0,0,0,0,0
21140000,21060000,4832889473,3.9333056e-05,0.0038468668,0.011979901,0,4.2779117,0.36905584,nan,nan,nan,0.0077989334,0.0,0.0,0.0,0.0,1310988,1310988,6620172,0,0,0,164,1,1,1,2,0,0,0,0,0,0,0,0
21340000,21260000,4832889473,3.1037445e-05,0.0036921091,0.011385923,0,4.3694706,0.38244462,nan,nan,nan,0.009269257,0.0,0.0,0.0,0.0,1310988,1310988,6620172,0,0,0,164,1,1,1,2,0,0,0,0,0,0,0,0
21540000,21460000,4832889473,6.926122e-05,0.0064870967,0.020976214,0,4.4432173,0.37025133,nan,nan,nan,0.011105914,0.0,0.0,0.0,0.0,1310988,1310988,6620172,0,0,0,164,1,1,1,2,0,0,0,0,0,0,0,0
21740000,21660000,4832889473,5.0176222e-05,0.005407417,0.017755376,0,4.501175,0.38324612,nan,nan,nan,0.009085104,0.0,0.0,0.0,0.0,1310988,1310988,6620172,0,0,0,164,1,1,1,2,0,0,0,0,0,0,0,0
21940000,21860000,4832889473,8.557756e-05,0.0075445957,0.025737632,0,4.5440073,0.37057865,nan,nan,nan,0.0103569385,0.0,0.0,0.0,0.0,1310988,1310988,6620172,0,0,0,164,1,1,1,2,0,0,0,0,0,0,0,0
22140000,22060000,4832889473,6.8750145e-05,0.006331084,0.022171935,0,4.574944,0.38551855,nan,nan,nan,0.0090778535,0.0,0.0,0.0,0.0,1310988,1310988,6620172,0,0,0,164,1,1,1,2,0,0,0,0,0,0,0,0
22340000,22260000,4832889473,9.377136e-05,0.0076845684,0.02774341,0,4.5943704,0.3702587,nan,nan,nan,0.007866391,0.0,0.0,0.0,0.0,1310988,1310988,6620172,0,0,0,164,1,1,1,2,0,0,0,0,0,0,0,0
22540000,22460000,4832889473,8.220617e-05,0.006642676,0.02480069,0,4.6046505,0.3849058,nan,nan,nan,0.010181153,0.0,0.0,0.0,0.0,1310988,1310988,6620172,0,0,0,164,1,1,1,2,0,0,0,0,0,0,0,0
22740000,22660000,4832889473,9.6354685e-05,0.00756845,0.02905008,0,4.606125,0.3715973,nan,nan,nan,0.009604219,0.0,0.0,0.0,0.0,1310988,1310988,6620172,0,0,0,164,1,1,1,2,0,0,0,0,0,0,0,0
22940000,22860000,4832889473,8.116637e-05,0.006491576,0.02585935,0,4.6008167,0.38391554,nan,nan,nan,0.011798276,0.0,0.0,0.0,0.0,1310988,1310988,6620172,0,0,0,164,1,1,1,2,0,0,0,0,0,0,0,0
23140000,23060000,4832889473,9.1014925e-05,0.007300883,0.029552342,0,4.589181,0.37061355,nan,nan,nan,0.011068108,0.0,0.0,0.0,0.0,1310988,1310988,6620172,0,0,0,164,1,1,1,2,0,0,0,0,0,0,0,0
23340000,23260000,4832889473,7.271845e-05,0.0056543457,0.023994436,0,4.5728197,0.3850363,nan,nan,nan,0.01211938,0.0,0.0,0.0,0.0,1310988,1310988,6620172,0,0,0,164,1,1,1,2,0,0,0,0,0,0,0,0
23540000,23460000,4832889473,7.716141e-05,0.006051656,0.025846083,0,4.5520525,0.36950114,nan,nan,nan,0.011180132,0.0,0.0,0.0,0.0,1310988,1310988,6620172,0,0,0,164,1,1,1,2,0,0,0,0,0,0,0,0
23740000,23660000,4832889473,6.1969375e-05,0.004396291,0.020022454,0,4.5281568,0.3837736,nan,nan,nan,0.009570962,0.0,0.0,0.0,0.0,1310988,1310988,6620172,0,0,0,164,1,1,1,2,0,0,0,0,0,0,0,0
23940000,23860000,4832889473,6.6228866e-05,0.0047858004,0.021792486,0,4.50136,0.36843634,nan,nan,nan,0.01143101,0.0,0.0,0.0,0.0,1310988,1310988,6620172,0,0,0,164,1,1,1,2,0,0,0,0,0,0,0,0
24140000,24060000,4832889473,5.37256e-05,0.003373968,0.016761681,0,4.4725966,0.38267756,nan,nan,nan,0.009984584,0.0,0.0,0.0,0.0,1310988,1310988,6620172,0,0,0,164,1,1,1,2,0,0,0,0,0,0,0,0
24340000,24260000,4832889473,5.7774258e-05,0.0038043426,0.018587941,0,4.4420476,0.3695417,nan,nan,nan,0.010445029,0.0,0.0,0.0,0.0,1310988,1310988,6620172,0,0,0,164,1,1,1,2,0,0,0,0,0,0,0,0
24540000,24460000,4832889473,4.9796265e-05,0.0027864608,0.015280239,0,4.410358,0.38166514,nan,nan,nan,0.012696525,0.0,0.0,0.0,0.0,1310988,1310988,6620172,0,0,0,164,1,1,1,2,0,0,0,0,0,0,0,0
24740000,24660000,4832889473,1.3839806e-05,0.0025451758,0.008873579,0,4.6046257,0.3686725,nan,nan,nan,0.012395539,0.0,0.0,0.0,0.0,1310988,1310988,6620172,0,0,0,164,1,1,1,2,0,0,0,0,0,0,0,0
24940000,24860000,4832889473,1.0486452e-05,0.001671542,0.0051251305,0,4.5667944,0.38300294,nan,nan,nan,0.013848425,0.0,0.0,0.0,0.0,1310988,1310988,6620172,0,0,0,164,1,1,1,2,0,0,0,0,0,0,0,0
25140000,25060000,4832889473,1.3687857e-05,0.0025735386,0.008748929,0,4.5284696,0.36787155,nan,nan,nan,0.011738351,0.0,0.0,0.0,0.0,1310988,1310988,6620172,0,0,0,164,1,1,1,2,0,0,0,0,0,0,0,0
25340000,25260000,4832889473,1.1421831e-05,0.001820725,0.0056467243,0,4.4900603,0.38215798,nan,nan,nan,0.01233905,0.0,0.0,0.0,0.0,1310988,1310988,6620172,0,0,0,164,1,1,1,2,0,0,0,0,0,0,0,0
25540000,25460000,4832889473,1.4641572e-05,0.002850599,0.009702335,0,4.451636,0.3691879,nan,nan,nan,0.012996607,0.0,0.0,0.0,0.0,1310988,1310988,6620172,0,0,0,164,1,1,1,2,0,0,0,0,0,0,0,0
25740000,25660000,4832889473,1.2574048e-05,0.0017857903,0.00543437,0,4.4134703,0.38144356,nan,nan,nan,0.0116116395,0.0,0.0,0.0,0.0,1310988,1310988,6620172,0,0,0,164,1,1,1,2,0,0,0,0,0,0,0,0
25940000,25860000,4832889473,1.5664902e-05,0.0032507994,0.011183406,0,4.3756156,0.36865628,nan,nan,nan,0.013248637,0.0,0.0,0.0,0.0,1310988,1310988,6620172,0,0,0,164,1,1,1,2,0,0,0,0,0,0,0,0
26140000,26060000,4832889473,1.368339e-05,0.0016997738,0.0050349482,0,4.3382597,0.3809649,nan,nan,nan,0.013663455,0.0,0.0,0.0,0.0,1310988,1310988,6620172,0,0,0,164,1,1,1,2,0,0,0,0,0,0,0,0
26340000,26260000,4832889473,1.5678615e-05,0.0027379855,0.009175979,0,4.301437,0.36826897,nan,nan,nan,0.0123313675,0.0,0.0,0.0,0.0,1310988,1310988,6620172,0,0,0,164,1,1,1,2,0,0,0,0,0,0,0,0
26540000,26460000,4832889473,1.4536948e-05,0.0016617837,0.0048810104,0,4.2652802,0.3828054,nan,nan,nan,0.013321386,0.0,0.0,0.0,0.0,1310988,1310988,6620172,0,0,0,164,1,1,1,2,0,0,0,0,0,0,0,0
26740000,26660000,4832889473,1.6428381e-05,0.0034677042,0.011861979,0,4.2298098,0.36791137,nan,nan,nan,0.014510247,0.0,0.0,0.0,0.0,1310988,1310988,6620172,0,0,0,164,1,1,1,2,0,0,0,0,0,0,0,0
26940000,26860000,4832889473,1.52137e-05,0.0015375603,0.0044317446,0,4.195119,0.38243517,nan,nan,nan,0.014528537,0.0,0.0,0.0,0.0,1310988,1310988,6620172,0,0,0,164,1,1,1,2,0,0,0,0,0,0,0,0
27140000,27060000,4832889473,1.648492e-05,0.0034171757,0.011743107,0,4.161214,0.36961237,nan,nan,nan,0.0151135195,0.0,0.0,0.0,0.0,1310988,1310988,6620172,0,0,0,164,1,1,1,2,0,0,0,0,0,0,0,0
27340000,27260000,4832889473,1.5718026e-05,0.0014246564,0.0039889994,0,4.1281514,0.38207304,nan,nan,nan,0.014739891,0.0,0.0,0.0,0.0,1310988,1310988,6620172,0,0,0,164,1,1,1,2,0,0,0,0,0,0,0,0
27540000,27460000,4831840897,1.6651637e-05,0.0031487255,0.010668034,0,4.0959373,0.36930013,nan,nan,nan,0.016268263,0.0,0.0,0.0,0.0,1310988,1310988,6620172,0,0,0,164,1,1,1,2,0,0,0,0,0,0,0,0
27740000,27660000,4831840897,1.6227934e-05,0.0013779955,0.0038920972,0,4.064608,0.383992,nan,nan,nan,0.015025876,0.0,0.0,0.0,0.0,1310988,1310988,6620172,0,0,0,164,1,1,1,2,0,0,0,0,0,0,0,0
27940000,27860000,4831840897,1.6207414e-05,0.0034503574,0.011749797,0,4.03417,0.3689908,nan,nan,nan,0.016664442,0.0,0.0,0.0,0.0,1310988,1310988,6620172,0,0,0,164,1,1,1,2,0,0,0,0,0,0,0,0
28140000,28060000,4831840897,1.5325284e-05,0.001169813,0.0029847096,0,4.0046525,0.3836891,nan,nan,nan,0.013891973,0.0,0.0,0.0,0.0,1310988,1310988,6620172,0,0,0,164,1,1,1,2,0,0,0,0,0,0,0,0
28340000,28260000,4831840897,1.5310354e-05,0.003833721,0.013163428,0,3.9760523,0.36872703,nan,nan,nan,0.01702259,0.0,0.0,0.0,0.0,1310988,1310988,6620172,0,0,0,164,1,1,1,2,0,0,0,0,0,0,0,0
28540000,28460000,4831840897,1.4909273e-05,0.0011205846,0.0030137787,0,3.9483838,0.38338587,nan,nan,nan,0.021408977,0.0,0.0,0.0,0.0,1310988,1310988,6620172,0,0,0,164,1,1,1,2,0,0,0,0,0,0,0,0
28740000,28660000,4831840897,1.4877456e-05,0.004118449,0.014417311,0,3.9216447,0.37047964,nan,nan,nan,0.017332941,0.0,0.0,0.0,0.0,1310988,1310988,6620172,0,0,0,164,1,1,1,2,0,0,0,0,0,0,0,0
28940000,28860000,4831840897,1.47260225e-05,0.0009495932,0.0027467336,0,3.8958414,0.3830217,nan,nan,nan,0.018423958,0.0,0.0,0.0,0.0,1310988,1310988,6620172,0,0,0,164,1,1,1,2,0,0,0,0,0,0,0,0
29140000,29060000,4831840897,1.4692013e-05,0.004303291,0.0151759,0,3.8709743,0.3701397,nan,nan,nan,0.01721326,0.0,0.0,0.0,0.0,1310988,1310988,6620172,0,0,0,164,1,1,1,2,0,0,0,0,0,0,0,0
29340000,29260000,4831840897,1.4764858e-05,0.0007089211,0.0023777557,0,3.8470516,0.3849092,nan,nan,nan,0.018461365,0.0,0.0,0.0,0.0,1310988,1310988,6620172,0,0,0,164,1,1,1,2,0,0,0,0,0,0,0,0
29540000,29460000,4831840897,1.4756909e-05,0.0048142113,0.017149314,0,3.824067,0.36974,nan,nan,nan,0.019123927,0.0,0.0,0.0,0.0,1310988,1310988,6620172,0,0,0,164,1,1,1,2,0,0,0,0,0,0,0,0
29740000,29660000,4831840897,1.4982532e-05,0.0006459066,0.002771969,0,3.8020236,0.38444626,nan,nan,nan,0.020729836,0.0,0.0,0.0,0.0,1310988,1310988,6620172,0,0,0,164,1,1,1,2,0,0,0,0,0,0,0,0
29940000,29860000,4831840897,1.0474603e-05,0.0047231074,0.017705942,0,3.9241319,0.37140715,nan,nan,nan,0.019459438,0.0,0.0,0.0,0.0,1310988,1310988,6620172,0,0,0,164,1,1,1,2,0,0,0,0,0,0,0,0
30140000,30060000,4831840897,1.023494e-05,0.0017623776,0.00861563,0,3.9019852,0.38402203,nan,nan,nan,0.01990358,0.0,0.0,0.0,0.0,1310988,1310988,6620172,0,0,0,164,1,1,1,2,0,0,0,0,0,0,0,0
30340000,30260000,4831840897,1.0324946e-05,0.005279094,0.019472245,0,3.880906,0.37099713,nan,nan,nan,0.021795241,0.0,0.0,0.0,0.0,1310988,1310988,6620172,0,0,0,164,1,1,1,2,0,0,0,0,0,0,0,0
30540000,30460000,4831840897,1.0141924e-05,0.001607194,0.007918153,0,3.8608913,0.38583186,nan,nan,nan,0.021521004,0.0,0.0,0.0,0.0,1310988,1310988,6620172,0,0,0,164,1,1,1,2,0,0,0,0,0,0,0,0
30740000,30660000,4831840897,1.0253117e-05,0.0048868074,0.01803352,0,3.8419244,0.37052822,nan,nan,nan,0.01904925,0.0,0.0,0.0,0.0,1310988,1310988,6620172,0,0,0,164,1,1,1,2,0,0,0,0,0,0,0,0
30940000,30860000,4831840897,1.0148518e-05,0.0014696335,0.007318855,0,3.8240016,0.38527834,nan,nan,nan,0.02411987,0.0,0.0,0.0,0.0,1310988,1310988,6620172,0,0,0,164,1,1,1,2,0,0,0,0,0,0,0,0
31140000,31060000,4831840897,1.0265145e-05,0.00558129,0.02035416,0,3.807113,0.3720732,nan,nan,nan,0.024589863,0.0,0.0,0.0,0.0,1310988,1310988,6620172,0,0,0,164,1,1,1,2,0,0,0,0,0,0,0,0
31340000,31260000,4831840897,1.0218492e-05,0.0013032485,0.0066191303,0,3.7912502,0.38467026,nan,nan,nan,0.021186104,0.0,0.0,0.0,0.0,1310988,1310988,6620172,0,0,0,164,1,1,1,2,0,0,0,0,0,0,0,0
31540000,31460000,4831840897,1.0322174e-05,0.0049340497,0.018030921,0,3.7763925,0.37150723,nan,nan,nan,0.02159888,0.0,0.0,0.0,0.0,1310988,1310988,6620172,0,0,0,164,1,1,1,2,0,0,0,0,0,0,0,0
31740000,31660000,4831840897,1.0267734e-05,0.0011735028,0.0060882517,0,3.7625334,0.38632718,nan,nan,nan,0.024624068,0.0,0.0,0.0,0.0,1310988,1310988,6620172,0,0,0,164,1,1,1,2,0,0,0,0,0,0,0,0
31940000,31860000,4831840897,1.0234108e-05,0.005029049,0.018224912,0,3.7496614,0.37090313,nan,nan,nan,0.023267472,0.0,0.0,0.0,0.0,1310988,1310988,6620172,0,0,0,164,1,1,1,2,0,0,0,0,0,0,0,0
32140000,32060000,4831840897,1.0166501e-05,0.0011026706,0.0056197303,0,3.7377677,0.3856331,nan,nan,nan,0.024056999,0.0,0.0,0.0,0.0,1310988,1310988,6620172,0,0,0,164,1,1,1,2,0,0,0,0,0,0,0,0
32340000,32260000,4831840897,9.943369e-06,0.005647733,0.0203382,0,3.72683,0.37233877,nan,nan,nan,0.0264493,0.0,0.0,0.0,0.0,1310988,1310988,6620172,0,0,0,164,1,1,1,2,0,0,0,0,0,0,0,0
32540000,32460000,4831840897,9.804938e-06,0.0009031014,0.004847713,0,3.7168334,0.38490885,nan,nan,nan,0.024822038,0.0,0.0,0.0,0.0,1310988,1310988,6620172,0,0,0,164,1,1,1,2,0,0,0,0,0,0,0,0
32740000,32660000,4831840897,9.445663e-06,0.0053591174,0.01929114,0,3.7077549,0.37167868,nan,nan,nan,0.0247243,0.0,0.0,0.0,0.0,1310988,1310988,6620172,0,0,0,164,1,1,1,2,0,0,0,0,0,0,0,0
32940000,32860000,4831840897,9.332518e-06,0.00088991335,0.004611191,0,3.699576,0.38647577,nan,nan,nan,0.026981363,0.0,0.0,0.0,0.0,1310988,1310988,6620172,0,0,0,164,1,1,1,2,0,0,0,0,0,0,0,0
33140000,33060000,4831840897,9.193219e-06,0.005282963,0.019034969,0,3.6922648,0.37100112,nan,nan,nan,0.024076816,0.0,0.0,0.0,0.0,1310988,1310988,6620172,0,0,0,164,1,1,1,2,0,0,0,0,0,0,0,0
33340000,33260000,4831840897,9.238652e-06,0.0008235598,0.0049149645,0,3.6858008,0.38570967,nan,nan,nan,0.026393771,0.0,0.0,0.0,0.0,1310988,1310988,6620172,0,0,0,164,1,1,1,2,0,0,0,0,0,0,0,0
33540000,33460000,4831840897,1.0016481e-05,0.0047678356,0.017475065,0,3.6801517,0.37238252,nan,nan,nan,0.025934136,0.0,0.0,0.0,0.0,1310988,1310988,6620172,0,0,0,164,1,1,1,2,0,0,0,0,0,0,0,0
33740000,33660000,4831840897,1.04984965e-05,0.0014786717,0.0075633214,0,3.6752906,0.38496342,nan,nan,nan,0.024039125,0.0,0.0,0.0,0.0,1310988,1310988,6620172,0,0,0,164,1,1,1,2,0,0,0,0,0,0,0,0
33940000,33860000,4831840897,1.25724555e-05,0.004300466,0.016382255,0,3.671176,0.37175316,nan,nan,nan,0.023618484,0.0,0.0,0.0,0.0,1310988,1310988,6620172,0,0,0,164,1,1,1,2,0,0,0,0,0,0,0,0
34140000,34060000,4831840897,1.3523254e-05,0.0019396316,0.010292283,0,3.6677763,0.38427132,nan,nan,nan,0.021858761,0.0,0.0,0.0,0.0,1310988,1310988,6620172,0,0,0,164,1,1,1,2,0,0,0,0,0,0,0,0
34340000,34260000,4831840897,1.6971993e-05,0.004985283,0.01957051,0,3.6650424,0.37112424,nan,nan,nan,0.024295878,0.0,0.0,0.0,0.0,1310988,1310988,6620172,0,0,0,164,1,1,1,2,0,0,0,0,0,0,0,0
34540000,34460000,4831840897,1.8245784e-05,0.002411515,0.013294279,0,3.6629386,0.38587475,nan,nan,nan,0.023982428,0.0,0.0,0.0,0.0,1310988,1310988,6620172,0,0,0,164,1,1,1,2,0,0,0,0,0,0,0,0
34740000,34660000,4831840897,2.2740978e-05,0.0052142446,0.02166279,0,3.6614249,0.37050816,nan,nan,nan,0.02340951,0.0,0.0,0.0,0.0,1310988,1310988,6620172,0,0,0,164,1,1,1,2,0,0,0,0,0,0,0,0
34940000,34860000,4831840897,2.429535e-05,0.003082092,0.017102063,0,3.6603477,0.38522705,nan,nan,nan,0.023398085,0.0,0.0,0.0,0.0,1310988,1310988,6620172,0,0,0,164,1,1,1,2,0,0,0,0,0,0,0,0
35140000,35060000,4832889473,9.826987e-06,0.004593849,0.016981982,0,3.7887871,0.3699352,nan,nan,nan,0.024121,0.0,0.0,0.0,0.0,1310988,1310988,6620172,0,0,0,164,1,1,1,2,0,0,0,0,0,0,0,0
35340000,35260000,4832889473,9.9265235e-06,0.001742226,0.008302485,0,3.7881973,0.38457415,nan,nan,nan,0.02577732,0.0,0.0,0.0,0.0,1310988,1310988,6620172,0,0,0,164,1,1,1,2,0,0,0,0,0,0,0,0
35540000,35460000,4832889473,1.1135585e-05,0.00483925,0.017818127,0,3.788101,0.37141395,nan,nan,nan,0.027165726,0.0,0.0,0.0,0.0,1310988,1310988,6620172,0,0,0,164,1,1,1,2,0,0,0,0,0,0,0,0
35740000,35660000,4832889473,1.1225507e-05,0.0018985685,0.008742006,0,3.7886565,0.3839296,nan,nan,nan,0.024011236,0.0,0.0,0.0,0.0,1310988,1310988,6620172,0,0,0,164,1,1,1,2,0,0,0,0,0,0,0,0
35940000,35860000,4832889473,1.3561952e-05,0.004228726,0.015868286,0,3.789692,0.37087053,nan,nan,nan,0.024750821,0.0,0.0,0.0,0.0,1310988,1310988,6620172,0,0,0,164,1,1,1,2,0,0,0,0,0,0,0,0
36140000,36060000,4832889473,1.4078839e-05,0.0022462883,0.009961283,0,3.791106,0.3856365,nan,nan,nan,0.023547284,0.0,0.0,0.0,0.0,1310988,1310988,6620172,0,0,0,164,1,1,1,2,0,0,0,0,0,0,0,0
36340000,36260000,4832889473,1.7814029e-05,0.0041456358,0.01568413,0,3.7928286,0.37036178,nan,nan,nan,0.023527471,0.0,0.0,0.0,0.0,1310988,1310988,6620172,0,0,0,164,1,1,1,2,0,0,0,0,0,0,0,0
36540000,36460000,4832889473,1.8806595e-05,0.0024836885,0.010985281,0,3.7948134,0.38510028,nan,nan,nan,0.022998469,0.0,0.0,0.0,0.0,1310988,1310988,6620172,0,0,0,164,1,1,1,2,0,0,0,0,0,0,0,0
36740000,36660000,4832889473,2.367062e-05,0.003596604,0.014227013,0,3.7970114,0.36988023,nan,nan,nan,0.021792594,0.0,0.0,0.0,0.0,1310988,1310988,6620172,0,0,0,164,1,1,1,2,0,0,0,0,0,0,0,0
36940000,36860000,4832889473,2.5492747e-05,0.0028271317,0.012622555,0,3.7993834,0.38459167,nan,nan,nan,0.022377413,0.0,0.0,0.0,0.0,1310988,1310988,6620172,0,0,0,164,1,1,1,2,0,0,0,0,0,0,0,0
37140000,37060000,4832889473,3.14953e-05,0.0032798802,0.014030398,0,3.8018818,0.37149414,nan,nan,nan,0.020258555,0.0,0.0,0.0,0.0,1310988,1310988,6620172,0,0,0,164,1,1,1,2,0,0,0,0,0,0,0,0
37340000,37260000,4832889473,3.428216e-05,0.003294201,0.014972886,0,3.8044693,0.38407326,nan,nan,nan,0.021500206,0.0,0.0,0.0,0.0,1310988,1310988,6620172,0,0,0,164,1,1,1,2,0,0,0,0,0,0,0,0
37540000,37460000,4832889473,4.145329e-05,0.0033221978,0.015347556,0,3.807095,0.37100902,nan,nan,nan,0.019077757,0.0,0.0,0.0,0.0,1310988,1310988,6620172,0,0,0,164,1,1,1,2,0,0,0,0,0,0,0,0
37740000,37660000,4832889473,4.5203335e-05,0.0037619106,0.017604116,0,3.809716,0.38581085,nan,nan,nan,0.02437575,0.0,0.0,0.0,0.0,1310988,1310988,6620172,0,0,0,164,1,1,1,2,0,0,0,0,0,0,0,0
37940000,37860000,4832889473,5.3455467e-05,0.0037144802,0.018020587,0,3.8122883,0.37048528,nan,nan,nan,0.01907878,0.0,0.0,0.0,0.0,1310988,1310988,6620172,0,0,0,164,1,1,1,2,0,0,0,0,0,0,0,0
38140000,38060000,4832889473,5.815191e-05,0.004283146,0.020624543,0,3.8147788,0.38520655,nan,nan,nan,0.019615397,0.0,0.0,0.0,0.0,1310988,1310988,6620172,0,0,0,164,1,1,1,2,0,0,0,0,0,0,0,0
38340000,38260000,4832889473,6.419214e-05,0.0044259517,0.02168939,0,3.8171403,0.37199298,nan,nan,nan,0.018158287,0.0,0.0,0.0,0.0,1310988,1310988,6620172,0,0,0,164,1,1,1,2,0,0,0,0,0,0,0,0
38540000,38460000,4832889473,6.6123604e-05,0.0048092045,0.023854189,0,3.8193443,0.38456804,nan,nan,nan,0.018360663,0.0,0.0,0.0,0.0,1310988,1310988,6620172,0,0,0,164,1,1,1,2,0,0,0,0,0,0,0,0
38740000,38660000,4832889473,7.233352e-05,0.0050521577,0.025517337,0,3.8213084,0.37145248,nan,nan,nan,0.021917881,0.0,0.0,0.0,0.0,1310988,1310988,6620172,0,0,0,164,1,1,1,2,0,0,0,0,0,0,0,0
38940000,38860000,4832889473,7.491336e-05,0.005228,0.02689346,0,3.822711,0.38373166,nan,nan,nan,0.025283217,0.0,0.0,0.0,0.0,1310988,1310988,6620172,0,0,0,164,1,1,1,2,0,0,0,0,0,0,0,0
39140000,39060000,4832889473,8.731875e-05,0.018114323,0.071522735,0,3.824407,0.37008646,nan,nan,nan,0.064349994,0.0,0.0,0.0,0.0,1310988,1310988,6620172,0,0,0,164,1,1,1,2,0,0,0,0,0,0,0,0
39340000,39260000,4832889473,8.587133e-05,0.0107774185,0.048471905,0,3.8258204,0.38136682,nan,nan,nan,0.07186721,0.0,0.0,0.0,0.0,1310988,1310988,6620172,0,0,0,164,1,1,1,2,0,0,0,0,0,0,0,0
39540000,39460000,4832889473,0.000104472165,0.03455564,0.14065756,0,3.826742,0.36730146,nan,nan,nan,0.111638464,0.0,0.0,0.0,0.0,1310988,1310988,6620172,0,0,0,164,1,1,1,2,0,0,0,0,0,0,0,0
39740000,39660000,4832889473,9.720789e-05,0.016758557,0.07609456,0,3.827161,0.3798892,nan,nan,nan,0.119720034,0.0,0.0,0.0,0.0,1310988,1310988,6620172,0,0,0,164,1,1,1,2,0,0,0,0,0,0,0,0
39940000,39860000,4832889473,0.00012125056,0.044996522,0.1913782,0,3.8270314,0.36361176,nan,nan,nan,0.14893281,0.0,0.0,0.0,0.0,1310988,1310988,6620172,0,0,0,164,1,1,1,2,0,0,0,0,0,0,0,0
40140000,40060000,4832889473,0.00010941711,0.020236488,0.09532693,0,3.8264208,0.3754585,nan,nan,nan,0.15102333,0.0,0.0,0.0,0.0,1310988,1310988,6620172,0,0,0,164,1,1,1,2,0,0,0,0,0,0,0,0
40340000,40260000,4832889473,4.6142584e-05,0.047052816,0.206677,0,3.9739113,0.36138532,nan,nan,nan,0.18042184,0.0,0.0,0.0,0.0,1310988,1310988,6620172,0,0,0,164,1,1,1,2,0,0,0,0,0,0,0,0
40540000,40460000,4832889473,2.95104e-05,0.019114004,0.0918897,0,3.9726722,0.3707598,nan,nan,nan,0.17799255,0.0,0.0,0.0,0.0,1310988,1310988,6620172,0,0,0,164,1,1,1,2,0,0,0,0,0,0,0,0
40740000,40660000,4832889473,5.996776e-05,0.0482497,0.21715176,0,3.9709463,0.3571642,nan,nan,nan,0.19486314,0.0,0.0,0.0,0.0,1310988,1310988,6620172,0,0,0,164,1,1,1,2,0,0,0,0,0,0,0,0
40940000,40860000,4832889473,3.8284958e-05,0.015306045,0.07748865,0,3.9688218,0.36824846,nan,nan,nan,0.19764651,0.0,0.0,0.0,0.0,1310988,1310988,6620172,0,0,0,164,1,1,1,2,0,0,0,0,0,0,0,0
41140000,41060000,4832889473,7.576969e-05,0.048592832,0.22061111,0,3.966286,0.35326254,nan,nan,nan,0.20710823,0.0,0.0,0.0,0.0,1310988,1310988,6620172,0,0,0,164,1,1,1,2,0,0,0,0,0,0,0,0
41340000,41260000,4832889473,5.0396076e-05,0.0137968175,0.070873365,0,3.9634106,0.36423424,nan,nan,nan,0.21265745,0.0,0.0,0.0,0.0,1310988,1310988,6620172,0,0,0,164,1,1,1,2,0,0,0,0,0,0,0,0
41540000,41460000,4832889473,9.258555e-05,0.047674105,0.21472096,0,3.9601657,0.3500044,nan,nan,nan,0.21611784,0.0,0.0,0.0,0.0,1310988,1310988,6620172,0,0,0,164,1,1,1,2,0,0,0,0,0,0,0,0
41740000,41660000,4832889473,6.3486186e-05,0.011441566,0.058739386,0,3.9571643,0.36104888,nan,nan,nan,0.22107428,0.0,0.0,0.0,0.0,1310988,1310988,6620172,0,0,0,164,1,1,1,2,0,0,0,0,0,0,0,0
41940000,41860000,4832889473,0.00010575785,0.044846635,0.20233953,0,3.9542906,0.34738266,nan,nan,nan,0.22711468,0.0,0.0,0.0,0.0,1310988,1310988,6620172,0,0,0,164,1,1,1,2,0,0,0,0,0,0,0,0
42140000,42060000,4832889473,7.460352e-05,0.008435935,0.044963304,0,3.9510798,0.3581697,nan,nan,nan,0.22599635,0.0,0.0,0.0,0.0,1310988,1310988,6620172,0,0,0,164,1,1,1,2,0,0,0,0,0,0,0,0
42340000,42260000,4832889473,0.00011623512,0.040788062,0.1873666,0,3.9475305,0.344771,nan,nan,nan,0.22367622,0.0,0.0,0.0,0.0,1310988,1310988,6620172,0,0,0,164,1,1,1,2,0,0,0,0,0,0,0,0
42540000,42460000,4832889473,8.475989e-05,0.005354703,0.03155312,0,3.943659,0.35525241,nan,nan,nan,0.22907156,0.0,0.0,0.0,0.0,1310988,1310988,6620172,0,0,0,164,1,1,1,2,0,0,0,0,0,0,0,0
42740000,42660000,4832889473,0.0001234033,0.034586303,0.16288996,0,3.9394684,0.34375072,nan,nan,nan,0.23236781,0.0,0.0,0.0,0.0,1310988,1310988,6620172,0,0,0,164,1,1,1,2,0,0,0,0,0,0,0,0
42940000,42860000,4832889473,9.425581e-05,0.0032558495,0.021696946,0,3.9349744,0.35228714,nan,nan,nan,0.22925234,0.0,0.0,0.0,0.0,1310988,1310988,6620172,0,0,0,164,1,1,1,2,0,0,0,0,0,0,0,0
43140000,43060000,4832889473,0.0001312051,0.03144663,0.15071696,0,3.9301813,0.34105843,nan,nan,nan,0.22540888,0.0,0.0,0.0,0.0,1310988,1310988,6620172,0,0,0,164,1,1,1,2,0,0,0,0,0,0,0,0
43340000,43260000,4832889473,0.00010099723,0.0036437325,0.012718825,0,3.925105,0.3511928,nan,nan,nan,0.22929698,0.0,0.0,0.0,0.0,1310988,1310988,6620172,0,0,0,164,1,1,1,2,0,0,0,0,0,0,0,0
43540000,43460000,4832889473,0.00013236603,0.028627483,0.13778697,0,3.9197521,0.338597,nan,nan,nan,0.2241596,0.0,0.0,0.0,0.0,1310988,1310988,6620172,0,0,0,164,1,1,1,2,0,0,0,0,0,0,0,0
43740000,43660000,4832889473,9.93621e-05,0.0050537623,0.018108306,0,3.914142,0.34867302,nan,nan,nan,0.22778971,0.0,0.0,0.0,0.0,1310988,1310988,6620172,0,0,0,164,1,1,1,2,0,0,0,0,0,0,0,0
43940000,43860000,4832889473,0.0001264805,0.024280751,0.11520294,0,3.9082818,0.33807653,nan,nan,nan,0.22033924,0.0,0.0,0.0,0.0,1310988,1310988,6620172,0,0,0,164,1,1,1,2,0,0,0,0,0,0,0,0
44140000,44060000,4832889473,9.742617e-05,0.0063582193,0.025655262,0,3.9021914,0.34667626,nan,nan,nan,0.2206425,0.0,0.0,0.0,0.0,1310988,1310988,6620172,0,0,0,164,1,1,1,2,0,0,0,0,0,0,0,0
44340000,44260000,4832889473,0.00012267946,0.023770384,0.107856475,0,3.8958771,0.336553,nan,nan,nan,0.21595383,0.0,0.0,0.0,0.0,1310988,1310988,6620172,0,0,0,164,1,1,1,2,0,0,0,0,0,0,0,0
44540000,44460000,4832889473,9.461918e-05,0.008458182,0.037742052,0,3.889359,0.34707767,nan,nan,nan,0.21616647,0.0,0.0,0.0,0.0,1310988,1310988,6620172,0,0,0,164,1,1,1,2,0,0,0,0,0,0,0,0
44740000,44660000,4832889473,0.00011820468,0.023116957,0.098224476,0,3.882646,0.33576116,nan,nan,nan,0.20719182,0.0,0.0,0.0,0.0,1310988,1310988,6620172,0,0,0,164,1,1,1,2,0,0,0,0,0,0,0,0
44940000,44860000,4832889473,9.335199e-05,0.00839849,0.040967334,0,3.8757591,0.34668422,nan,nan,nan,0.21682559,0.0,0.0,0.0,0.0,1310988,1310988,6620172,0,0,0,164,1,1,1,2,0,0,0,0,0,0,0,0
45140000,45060000,4832889473,0.00011393839,0.022936977,0.08974737,0,3.8687053,0.33581564,nan,nan,nan,0.19675857,0.0,0.0,0.0,0.0,1310988,1310988,6620172,0,0,0,164,1,1,1,2,0,0,0,0,0,0,0,0
45340000,45260000,4832889473,9.201505e-05,0.008912083,0.04677429,0,3.8615022,0.34722146,nan,nan,nan,0.2028892,0.0,0.0,0.0,0.0,1310988,1310988,6620172,0,0,0,164,1,1,1,2,0,0,0,0,0,0,0,0
45540000,45460000,4832889473,3.847488e-05,0.022540689,0.08093491,0,4.0062604,0.33826473,nan,nan,nan,0.19873653,0.0,0.0,0.0,0.0,1310988,1310988,6620172,0,0,0,164,1,1,1,2,0,0,0,0,0,0,0,0
45740000,45660000,4832889473,2.2832439e-05,0.0093739275,0.051834445,0,3.998343,0.34864876,nan,nan,nan,0.1999557,0.0,0.0,0.0,0.0,1310988,1310988,6620172,0,0,0,164,1,1,1,2,0,0,0,0,0,0,0,0
45940000,45860000,4832889473,3.9763218e-05,0.023017459,0.075625494,0,3.9902952,0.33996072,nan,nan,nan,0.18308367,0.0,0.0,0.0,0.0,1310988,1310988,6620172,0,0,0,164,1,1,1,2,0,0,0,0,0,0,0,0
46140000,46060000,4832889473,2.5630929e-05,0.011213993,0.061189335,0,3.9821327,0.3526553,nan,nan,nan,0.1784333,0.0,0.0,0.0,0.0,1310988,1310988,6620172,0,0,0,164,1,1,1,2,0,0,0,0,0,0,0,0
46340000,46260000,4832889473,4.1245006e-05,0.022868186,0.06880855,0,3.9738662,0.34232208,nan,nan,nan,0.17466834,0.0,0.0,0.0,0.0,1310988,1310988,6620172,0,0,0,164,1,1,1,2,0,0,0,0,0,0,0,0
46540000,46460000,4898949633,0.0013233543,0.11363946,0.34934986,0,2.3552685,0.3262918,nan,nan,nan,0.17110915,0.0,0.0,0.0,0.0,1310988,1310988,6620172,0,0,0,164,1,1,1,2,0,0,0,0,0,0,0,0
46740000,46660000,4898949633,0.00018917171,0.088305555,0.21429095,0,0.031767674,0.3025557,nan,nan,nan,0.1414788,0.0,0.0,0.0,0.0,1310988,1310988,6620172,0,0,0,164,1,1,1,2,0,0,0,0,0,0,0,0
46940000,46860000,4898949633,3.5428784e-05,0.039019525,0.042136874,0,0.024305942,0.29741123,nan,nan,nan,0.13804817,0.0,0.0,0.0,0.0,1310988,1310988,6620172,0,0,0,164,1,1,1,2,0,0,0,0,0,0,0,0
47140000,47060000,4898949633,4.1976138e-05,0.021974739,0.053080287,0,0.021628618,0.28290594,nan,nan,nan,0.12004164,0.0,0.0,0.0,0.0,1310988,1310988,6620172,0,0,0,164,1,1,1,2,0,0,0,0,0,0,0,0
47340000,47260000,4898949633,4.9015383e-05,0.014610435,0.09382414,0,0.020541957,0.28200248,nan,nan,nan,0.117798336,0.0,0.0,0.0,0.0,1310988,1310988,6620172,0,0,0,164,1,1,1,2,0,0,0,0,0,0,0,0
47540000,47460000,4898949633,3.441103e-05,0.02039284,0.0913696,0,0.019093385,0.27026784,nan,nan,nan,0.11246062,0.0,0.0,0.0,0.0,1310988,1310988,6620172,0,0,0,164,1,1,1,2,0,0,0,0,0,0,0,0
47740000,47660000,4898949633,1.7698048e-05,0.03271114,0.1389959,0,0.017538747,0.2705645,nan,nan,nan,0.111431,0.0,0.0,0.0,0.0,1310988,1310988,6620172,0,0,0,164,1,1,1,2,0,0,0,0,0,0,0,0
47940000,47860000,4898949633,5.166247e-06,0.033943225,0.11572977,0,0.016418876,0.26597023,nan,nan,nan,0.10607087,0.0,0.0,0.0,0.0,1310988,1310988,6620172,0,0,0,164,1,1,1,2,0,0,0,0,0,0,0,0
48140000,48060000,4898949633,4.694326e-06,0.039966438,0.15013911,0,0.015263404,0.26576623,nan,nan,nan,0.10665978,0.0,0.0,0.0,0.0,1310988,1310988,6620172,0,0,0,164,1,1,1,2,0,0,0,0,0,0,0,0
48340000,48260000,4898949633,6.958939e-06,0.034330413,0.11271329,0,0.014370528,0.257484,nan,nan,nan,0.100376695,0.0,0.0,0.0,0.0,1310988,1310988,6620172,0,0,0,164,1,1,1,2,0,0,0,0,0,0,0,0
48540000,48460000,4898949633,7.976084e-06,0.037759468,0.13860992,0,0.013678487,0.25848746,nan,nan,nan,0.102757424,0.0,0.0,0.0,0.0,1310988,1310988,6620172,0,0,0,164,1,1,1,2,0,0,0,0,0,0,0,0
48740000,48660000,4898949633,8.546043e-06,0.032263678,0.10320576,0,0.013136062,0.25059995,nan,nan,nan,0.09517037,0.0,0.0,0.0,0.0,1310988,1310988,6620172,0,0,0,164,1,1,1,2,0,0,0,0,0,0,0,0
48940000,48860000,4898949633,1.39187e-05,0.034312226,0.12344309,0,0.0127027165,0.25186843,nan,nan,nan,0.095375754,0.0,0.0,0.0,0.0,1310988,1310988,6620172,0,0,0,164,1,1,1,2,0,0,0,0,0,0,0,0
49140000,49060000,4898949633,2.2320823e-05,0.028726844,0.088733464,0,0.01234716,0.24543956,nan,nan,nan,0.09044775,0.0,0.0,0.0,0.0,1310988,1310988,6620172,0,0,0,164,1,1,1,2,0,0,0,0,0,0,0,0
49340000,49260000,4898949633,3.5651785e-05,0.030794296,0.10940016,0,0.012045972,0.24628869,nan,nan,nan,0.09132117,0.0,0.0,0.0,0.0,1310988,1310988,6620172,0,0,0,164,1,1,1,2,0,0,0,0,0,0,0,0
