timestamp,roll_body,pitch_body,yaw_body,yaw_sp_move_rate,q_d[0],q_d[1],q_d[2],q_d[3],thrust_body[0],thrust_body[1],thrust_body[2],reset_integral,fw_control_yaw_wheel
3340000,-0.0,-0.0,-0.00013002001,0.0,1.0,-0.0,0.0,-6.5010005e-05,0.0,0.0,-0.001,0,0
3348000,-0.0,-0.0,-0.000139372,0.0,1.0,-0.0,0.0,-6.9686e-05,0.0,0.0,-0.001,0,0
3388000,0.0,-0.0,1.6279553,0.0,0.686612,0.0,0.0,0.7270241,0.0,0.0,-0.001,0,0
3436000,0.0,-0.0,1.6279988,0.0,0.6865962,0.0,0.0,0.727039,0.0,0.0,-0.001,0,0
3492000,0.0,-0.0,1.6280032,0.0,0.6865946,0.0,0.0,0.7270405,0.0,0.0,-0.001,0,0
3540000,0.0,-0.0,1.628012,0.0,0.68659145,0.0,0.0,0.7270435,0.0,0.0,-0.001,0,0
3588000,0.0,-0.0,1.6268101,0.0,0.6870282,0.0,0.0,0.7266308,0.0,0.0,-0.001,0,0
3636000,0.0,-0.0,1.6263136,0.0,0.6872086,0.0,0.0,0.72646016,0.0,0.0,-0.001,0,0
3692000,0.0,-0.0,1.6258712,0.0,0.6873692,0.0,0.0,0.72630817,0.0,0.0,-0.001,0,0
3740000,0.0,-0.0,1.625614,0.0,0.6874626,0.0,0.0,0.7262198,0.0,0.0,-0.001,0,0
3788000,0.0,-0.0,1.6254523,0.0,0.6875214,0.0,0.0,0.7261642,0.0,0.0,-0.001,0,0
3836000,0.0,-0.0,1.6253833,0.0,0.68754643,0.0,0.0,0.7261405,0.0,0.0,-0.001,0,0
3892000,0.0,-0.0,1.6257093,0.0,0.68742806,0.0,0.0,0.7262525,0.0,0.0,-0.001,0,0
3940000,0.0,-0.0,1.6264249,0.0,0.6871681,0.0,0.0,0.7264985,0.0,0.0,-0.001,0,0
3996000,0.0,-0.0,1.6271698,0.0,0.6868975,0.0,0.0,0.72675437,0.0,0.0,-0.001,0,0
4036000,0.0,-0.0,1.6273623,0.0,0.6868276,0.0,0.0,0.72682035,0.0,0.0,-0.001,0,0
4092000,0.0,-0.0,1.6272029,0.0,0.6868855,0.0,0.0,0.72676575,0.0,0.0,-0.001,0,0
4140000,0.0,-0.0,1.6267511,0.0,0.6870496,0.0,0.0,0.7266105,0.0,0.0,-0.001,0,0
4196000,0.0,-0.0,1.6261019,0.0,0.6872855,0.0,0.0,0.7263875,0.0,0.0,-0.001,0,0
4236000,0.0,-0.0,1.625802,0.0,0.6873944,0.0,0.0,0.7262843,0.0,0.0,-0.001,0,0
4292000,0.0,-0.0,1.6256005,0.0,0.6874676,0.0,0.0,0.72621506,0.0,0.0,-0.001,0,0
4340000,0.0,-0.0,1.6257777,0.0,0.6874032,0.0,0.0,0.72627604,0.0,0.0,-0.001,0,0
4388000,0.0,-0.0,1.6260124,0.0,0.68731797,0.0,0.0,0.7263566,0.0,0.0,-0.001,0,0
4436000,0.0,-0.0,1.6261251,0.0,0.687277,0.0,0.0,0.7263954,0.0,0.0,-0.001,0,0
4492000,0.0,-0.0,1.6252624,0.0,0.6875903,0.0,0.0,0.7260989,0.0,0.0,-0.001,0,0
4540000,0.0,-0.0,1.6244621,0.0,0.68788075,0.0,0.0,0.7258238,0.0,0.0,-0.001,0,0
4588000,0.0,-0.0,1.6237825,0.0,0.6881274,0.0,0.0,0.7255899,0.0,0.0,-0.001,0,0
4644000,0.0,-0.0,1.6232947,0.0,0.68830436,0.0,0.0,0.725422,0.0,0.0,-0.001,0,0
4692000,0.0,-0.0,1.6231508,0.0,0.6883565,0.0,0.0,0.7253726,0.0,0.0,-0.001,0,0
4740000,0.0,-0.0,1.6231339,0.0,0.68836266,0.0,0.0,0.7253667,0.0,0.0,-0.001,0,0
4796000,0.0,-0.0,1.6230069,0.0,0.68840873,0.0,0.0,0.725323,0.0,0.0,-0.001,0,0
4836000,0.0,-0.0,1.6228771,0.0,0.68845576,0.0,0.0,0.7252784,0.0,0.0,-0.001,0,0
4892000,0.0,-0.0,1.6224049,0.0,0.688627,0.0,0.0,0.7251158,0.0,0.0,-0.001,0,0
4940000,0.0,-0.0,1.621725,0.0,0.68887347,0.0,0.0,0.7248816,0.0,0.0,-0.001,0,0
4988000,0.0,-0.0,1.6213055,0.0,0.6890255,0.0,0.0,0.7247371,0.0,0.0,-0.001,0,0
5036000,0.0,-0.0,1.6211579,0.0,0.689079,0.0,0.0,0.72468626,0.0,0.0,-0.001,0,0
5092000,0.0,-0.0,1.621341,0.0,0.68901265,0.0,0.0,0.7247493,0.0,0.0,-0.001,0,0
5140000,0.0,-0.0,1.6215756,0.0,0.6889276,0.0,0.0,0.72483027,0.0,0.0,-0.001,0,0
5196000,0.0,-0.0,1.6215435,0.0,0.6889392,0.0,0.0,0.7248191,0.0,0.0,-0.001,0,0
5236000,0.0,-0.0,1.6213228,0.0,0.68901926,0.0,0.0,0.7247431,0.0,0.0,-0.001,0,0
5292000,0.0,-0.0,1.6210368,0.0,0.6891229,0.0,0.0,0.7246445,0.0,0.0,-0.001,0,0
5340000,0.0,-0.0,1.6205856,0.0,0.68928635,0.0,0.0,0.724489,0.0,0.0,-0.001,0,0
5388000,0.0,-0.0,1.6200951,0.0,0.689464,0.0,0.0,0.72432,0.0,0.0,-0.001,0,0
5436000,0.0,-0.0,1.6196076,0.0,0.6896405,0.0,0.0,0.7241519,0.0,0.0,-0.001,0,0
5492000,0.0,-0.0,1.6192979,0.0,0.68975264,0.0,0.0,0.7240451,0.0,0.0,-0.001,0,0
5540000,0.0,-0.0,1.6190965,0.0,0.68982553,0.0,0.0,0.72397566,0.0,0.0,-0.001,0,0
5588000,0.0,-0.0,1.618831,0.0,0.6899216,0.0,0.0,0.72388417,0.0,0.0,-0.001,0,0
5636000,0.0,-0.0,1.6186148,0.0,0.68999994,0.0,0.0,0.7238094,0.0,0.0,-0.001,0,0
5692000,0.0,-0.0,1.6185169,0.0,0.69003534,0.0,0.0,0.7237757,0.0,0.0,-0.001,0,0
5740000,0.0,-0.0,1.6184869,0.0,0.6900462,0.0,0.0,0.7237653,0.0,0.0,-0.001,0,0
5788000,0.0,-0.0,1.618973,0.0,0.68987024,0.0,0.0,0.7239331,0.0,0.0,-0.001,0,0
5836000,0.0,-0.0,1.6195076,0.0,0.68967676,0.0,0.0,0.7241174,0.0,0.0,-0.001,0,0
5892000,0.0,-0.0,1.6201456,0.0,0.68944573,0.0,0.0,0.72433734,0.0,0.0,-0.001,0,0
5940000,0.0,-0.0,1.6205759,0.0,0.68928987,0.0,0.0,0.72448564,0.0,0.0,-0.001,0,0
5996000,0.0,-0.0,1.6209058,0.0,0.68917036,0.0,0.0,0.7245993,0.0,0.0,-0.001,0,0
6036000,0.0,-0.0,1.6210537,0.0,0.6891167,0.0,0.0,0.72465044,0.0,0.0,-0.001,0,0
6092000,0.0,-0.0,1.6214112,0.0,0.6889872,0.0,0.0,0.7247735,0.0,0.0,-0.001,0,0
6140000,0.0,-0.0,1.6215659,0.0,0.6889311,0.0,0.0,0.7248268,0.0,0.0,-0.001,0,0
6196000,0.0,-0.0,1.6212857,0.0,0.6890327,0.0,0.0,0.7247303,0.0,0.0,-0.001,0,0
6236000,0.0,-0.0,1.6207861,0.0,0.6892137,0.0,0.0,0.7245582,0.0,0.0,-0.001,0,0
6292000,0.0,-0.0,1.6201808,0.0,0.6894329,0.0,0.0,0.72434956,0.0,0.0,-0.001,0,0
6340000,0.0,-0.0,1.6199278,0.0,0.6895246,0.0,0.0,0.7242623,0.0,0.0,-0.001,0,0
6396000,0.0,-0.0,1.6197926,0.0,0.6895735,0.0,0.0,0.7242157,0.0,0.0,-0.001,0,0
6436000,0.0,-0.0,1.6197517,0.0,0.68958837,0.0,0.0,0.72420156,0.0,0.0,-0.001,0,0
6492000,0.0,-0.0,1.6199459,0.0,0.68951803,0.0,0.0,0.72426856,0.0,0.0,-0.001,0,0
6540000,0.0,-0.0,1.6202074,0.0,0.6894233,0.0,0.0,0.7243587,0.0,0.0,-0.001,0,0
6588000,0.0,-0.0,1.6204511,0.0,0.68933505,0.0,0.0,0.7244427,0.0,0.0,-0.001,0,0
6636000,0.0,-0.0,1.6200336,0.0,0.68948627,0.0,0.0,0.7242988,0.0,0.0,-0.001,0,0
6692000,0.0,-0.0,1.6192628,0.0,0.68976533,0.0,0.0,0.724033,0.0,0.0,-0.001,0,0
6740000,0.0,-0.0,1.6187252,0.0,0.68995994,0.0,0.0,0.72384757,0.0,0.0,-0.001,0,0
6788000,0.0,-0.0,1.6179842,0.0,0.6902281,0.0,0.0,0.72359186,0.0,0.0,-0.001,0,0
6836000,0.0,-0.0,1.617344,0.0,0.69045967,0.0,0.0,0.7233709,0.0,0.0,-0.001,0,0
6892000,0.0,-0.0,1.6169859,0.0,0.6905892,0.0,0.0,0.72324735,0.0,0.0,-0.001,0,0
6940000,0.0,-0.0,1.6171144,0.0,0.6905427,0.0,0.0,0.72329164,0.0,0.0,-0.001,0,0
6988000,0.0,-0.0,1.6175064,0.0,0.69040096,0.0,0.0,0.72342694,0.0,0.0,-0.001,0,0
7036000,0.0,-0.0,1.6178639,0.0,0.6902716,0.0,0.0,0.7235504,0.0,0.0,-0.001,0,0
7092000,0.0,-0.0,1.6184579,0.0,0.6900567,0.0,0.0,0.7237553,0.0,0.0,-0.001,0,0
7140000,0.0,-0.0,1.6187918,0.0,0.68993586,0.0,0.0,0.7238705,0.0,0.0,-0.001,0,0
7196000,0.0,-0.0,1.6188096,0.0,0.6899294,0.0,0.0,0.72387666,0.0,0.0,-0.001,0,0
7236000,0.0,-0.0,1.6186,0.0,0.69000524,0.0,0.0,0.7238044,0.0,0.0,-0.001,0,0
7292000,0.0,-0.0,1.6182915,0.0,0.6901169,0.0,0.0,0.72369796,0.0,0.0,-0.001,0,0
7340000,0.0,-0.0,1.6183938,0.0,0.6900799,0.0,0.0,0.7237332,0.0,0.0,-0.001,0,0
7396000,0.0,-0.0,1.6191615,0.0,0.68980205,0.0,0.0,0.7239981,0.0,0.0,-0.001,0,0
7436000,0.0,-0.0,1.6198264,0.0,0.68956125,0.0,0.0,0.7242274,0.0,0.0,-0.001,0,0
7492000,0.0,-0.0,1.6204377,0.0,0.6893399,0.0,0.0,0.72443813,0.0,0.0,-0.001,0,0
7540000,0.0,-0.0,1.6206784,0.0,0.6892527,0.0,0.0,0.7245211,0.0,0.0,-0.001,0,0
7596000,0.0,-0.0,1.6206895,0.0,0.6892487,0.0,0.0,0.7245249,0.0,0.0,-0.001,0,0
7636000,0.0,-0.0,1.6207054,0.0,0.68924296,0.0,0.0,0.7245303,0.0,0.0,-0.001,0,0
7692000,0.0,-0.0,1.6207511,0.0,0.6892264,0.0,0.0,0.7245461,0.0,0.0,-0.001,0,0
7740000,0.0,-0.0,1.6208565,0.0,0.6891882,0.0,0.0,0.7245825,0.0,0.0,-0.001,0,0
7796000,0.0,-0.0,1.6207769,0.0,0.68921703,0.0,0.0,0.72455496,0.0,0.0,-0.001,0,0
7836000,0.0,-0.0,1.620559,0.0,0.689296,0.0,0.0,0.7244799,0.0,0.0,-0.001,0,0
7892000,0.0,-0.0,1.6201208,0.0,0.6894547,0.0,0.0,0.72432894,0.0,0.0,-0.001,0,0
7940000,0.0,-0.0,1.619673,0.0,0.68961686,0.0,0.0,0.7241744,0.0,0.0,-0.001,0,0
7988000,0.0,-0.0,1.619405,0.0,0.68971384,0.0,0.0,0.7240821,0.0,0.0,-0.001,0,0
8036000,0.0,-0.0,1.6192541,0.0,0.6897685,0.0,0.0,0.72402996,0.0,0.0,-0.001,0,0
8092000,0.0,-0.0,1.6194576,0.0,0.6896948,0.0,0.0,0.7241001,0.0,0.0,-0.001,0,0
8140000,0.0,-0.0,1.6195585,0.0,0.68965834,0.0,0.0,0.7241349,0.0,0.0,-0.001,0,0
8188000,0.0,-0.0,1.619626,0.0,0.68963385,0.0,0.0,0.7241583,0.0,0.0,-0.001,0,0
8236000,0.0,-0.0,1.6196424,0.0,0.68962795,0.0,0.0,0.72416383,0.0,0.0,-0.001,0,0
8292000,0.0,-0.0,1.6195893,0.0,0.68964714,0.0,0.0,0.7241456,0.0,0.0,-0.001,0,0
8340000,0.0,-0.0,1.6195313,0.0,0.6896682,0.0,0.0,0.7241255,0.0,0.0,-0.001,0,0
8388000,0.0,-0.0,1.619428,0.0,0.6897055,0.0,0.0,0.72409004,0.0,0.0,-0.001,0,0
8436000,0.0,-0.0,1.6196556,0.0,0.6896231,0.0,0.0,0.72416854,0.0,0.0,-0.001,0,0
8492000,0.0,-0.0,1.6195868,0.0,0.68964803,0.0,0.0,0.72414476,0.0,0.0,-0.001,0,0
8540000,0.0,-0.0,1.6194257,0.0,0.6897064,0.0,0.0,0.7240892,0.0,0.0,-0.001,0,0
8588000,0.0,-0.0,1.6193494,0.0,0.68973404,0.0,0.0,0.72406286,0.0,0.0,-0.001,0,0
8636000,0.0,-0.0,1.6192104,0.0,0.68978435,0.0,0.0,0.72401494,0.0,0.0,-0.001,0,0
8692000,0.0,-0.0,1.6191002,0.0,0.6898242,0.0,0.0,0.7239769,0.0,0.0,-0.001,0,0
8740000,0.0,-0.0,1.619111,0.0,0.6898203,0.0,0.0,0.7239806,0.0,0.0,-0.001,0,0
8788000,0.0,-0.0,1.6189129,0.0,0.689892,0.0,0.0,0.72391236,0.0,0.0,-0.001,0,0
8836000,0.0,-0.0,1.6187742,0.0,0.68994224,0.0,0.0,0.7238645,0.0,0.0,-0.001,0,0
8892000,0.0,-0.0,1.6186979,0.0,0.68996984,0.0,0.0,0.7238381,0.0,0.0,-0.001,0,0
8940000,0.0,-0.0,1.6186012,0.0,0.6900048,0.0,0.0,0.7238048,0.0,0.0,-0.001,0,0
8988000,0.0,-0.0,1.6185354,0.0,0.69002867,0.0,0.0,0.72378206,0.0,0.0,-0.001,0,0
9036000,0.0,-0.0,1.6185027,0.0,0.69004047,0.0,0.0,0.7237708,0.0,0.0,-0.001,0,0
9092000,0.0,-0.0,1.6185633,0.0,0.69001853,0.0,0.0,0.7237917,0.0,0.0,-0.001,0,0
9140000,0.0,-0.0,1.6186755,0.0,0.68997794,0.0,0.0,0.72383046,0.0,0.0,-0.001,0,0
9188000,0.0,-0.0,1.6188939,0.0,0.6898989,0.0,0.0,0.72390574,0.0,0.0,-0.001,0,0
9236000,0.0,-0.0,1.61922,0.0,0.68978083,0.0,0.0,0.7240183,0.0,0.0,-0.001,0,0
9292000,0.0,-0.0,1.6195707,0.0,0.6896539,0.0,0.0,0.7241392,0.0,0.0,-0.001,0,0
9340000,0.0,-0.0,1.6196958,0.0,0.6896086,0.0,0.0,0.72418237,0.0,0.0,-0.001,0,0
9388000,0.0,-0.0,1.6197531,0.0,0.68958783,0.0,0.0,0.7242021,0.0,0.0,-0.001,0,0
9436000,0.0,-0.0,1.6197628,0.0,0.6895844,0.0,0.0,0.7242053,0.0,0.0,-0.001,0,0
9492000,0.0,-0.0,1.6197472,0.0,0.68959,0.0,0.0,0.7242001,0.0,0.0,-0.001,0,0
9540000,0.0,-0.0,1.6198243,0.0,0.6895621,0.0,0.0,0.7242266,0.0,0.0,-0.001,0,0
9588000,0.0,-0.0,1.6199031,0.0,0.68953353,0.0,0.0,0.72425383,0.0,0.0,-0.001,0,0
9636000,0.0,-0.0,1.619679,0.0,0.6896147,0.0,0.0,0.7241765,0.0,0.0,-0.001,0,0
9692000,0.0,-0.0,1.6192836,0.0,0.6897578,0.0,0.0,0.72404015,0.0,0.0,-0.001,0,0
9740000,0.0,-0.0,1.6191553,0.0,0.6898043,0.0,0.0,0.7239959,0.0,0.0,-0.001,0,0
9796000,0.0,-0.0,1.6195498,0.0,0.68966144,0.0,0.0,0.72413194,0.0,0.0,-0.001,0,0
9836000,0.0,-0.0,1.6199555,0.0,0.6895145,0.0,0.0,0.7242719,0.0,0.0,-0.001,0,0
9892000,0.0,-0.0,1.6203064,0.0,0.68938744,0.0,0.0,0.72439283,0.0,0.0,-0.001,0,0
9940000,0.0,-0.0,1.620257,0.0,0.6894054,0.0,0.0,0.7243758,0.0,0.0,-0.001,0,0
9988000,0.0,-0.0,1.620148,0.0,0.68944484,0.0,0.0,0.7243382,0.0,0.0,-0.001,0,0
10044000,0.0,-0.0,1.6199789,0.0,0.68950605,0.0,0.0,0.72427994,0.0,0.0,-0.001,0,0
10092000,0.0,-0.0,1.6196754,0.0,0.68961596,0.0,0.0,0.7241753,0.0,0.0,-0.001,0,0
10140000,0.0,-0.0,1.6194172,0.0,0.6897094,0.0,0.0,0.72408634,0.0,0.0,-0.001,0,0
10196000,0.0,-0.0,1.6192861,0.0,0.68975693,0.0,0.0,0.724041,0.0,0.0,-0.001,0,0
10236000,0.0,-0.0,1.6193267,0.0,0.6897422,0.0,0.0,0.72405505,0.0,0.0,-0.001,0,0
10292000,0.0,-0.0,1.6195194,0.0,0.68967247,0.0,0.0,0.7241215,0.0,0.0,-0.001,0,0
10340000,0.0,-0.0,1.6196343,0.0,0.68963087,0.0,0.0,0.7241611,0.0,0.0,-0.001,0,0
10388000,0.0,-0.0,1.6196461,0.0,0.6896266,0.0,0.0,0.72416514,0.0,0.0,-0.001,0,0
10436000,0.0,-0.0,1.6195955,0.0,0.6896449,0.0,0.0,0.72414774,0.0,0.0,-0.001,0,0
10492000,0.0,-0.0,1.6195966,0.0,0.6896445,0.0,0.0,0.7241481,0.0,0.0,-0.001,0,0
10540000,0.0,-0.0,1.6195458,0.0,0.6896629,0.0,0.0,0.7241306,0.0,0.0,-0.001,0,0
10588000,0.0,-0.0,1.6194642,0.0,0.6896925,0.0,0.0,0.7241024,0.0,0.0,-0.001,0,0
10636000,0.0,-0.0,1.6194264,0.0,0.68970615,0.0,0.0,0.7240894,0.0,0.0,-0.001,0,0
10692000,0.0,-0.0,1.6195122,0.0,0.68967503,0.0,0.0,0.724119,0.0,0.0,-0.001,0,0
10740000,0.0,-0.0,1.6196545,0.0,0.68962353,0.0,0.0,0.7241682,0.0,0.0,-0.001,0,0
10788000,0.0,-0.0,1.6198039,0.0,0.6895694,0.0,0.0,0.7242196,0.0,0.0,-0.001,0,0
10836000,0.0,-0.0,1.619914,0.0,0.68952954,0.0,0.0,0.72425765,0.0,0.0,-0.001,0,0
10892000,0.0,-0.0,1.6201603,0.0,0.68944037,0.0,0.0,0.72434247,0.0,0.0,-0.001,0,0
10940000,0.0,-0.0,1.6200954,0.0,0.6894639,0.0,0.0,0.7243201,0.0,0.0,-0.001,0,0
10988000,0.0,-0.0,1.6199101,0.0,0.68953097,0.0,0.0,0.7242563,0.0,0.0,-0.001,0,0
11036000,0.0,-0.0,1.6198082,0.0,0.68956786,0.0,0.0,0.72422117,0.0,0.0,-0.001,0,0
11092000,0.0,-0.0,1.6197749,0.0,0.68957996,0.0,0.0,0.72420955,0.0,0.0,-0.001,0,0
11140000,0.0,-0.0,1.6198859,0.0,0.68953973,0.0,0.0,0.72424793,0.0,0.0,-0.001,0,0
11196000,0.0,-0.0,1.6200873,0.0,0.68946683,0.0,0.0,0.72431725,0.0,0.0,-0.001,0,0
11244000,0.0,-0.0,1.6203151,0.0,0.6893843,0.0,0.0,0.7243959,0.0,0.0,-0.001,0,0
11292000,0.0,-0.0,1.6205261,0.0,0.68930787,0.0,0.0,0.7244685,0.0,0.0,-0.001,0,0
11340000,0.0,-0.0,1.6206061,0.0,0.6892789,0.0,0.0,0.7244961,0.0,0.0,-0.001,0,0
11388000,0.0,-0.0,1.6206123,0.0,0.6892767,0.0,0.0,0.72449815,0.0,0.0,-0.001,0,0
11436000,0.0,-0.0,1.6205952,0.0,0.68928283,0.0,0.0,0.7244924,0.0,0.0,-0.001,0,0
11492000,0.0,-0.0,1.6205032,0.0,0.68931615,0.0,0.0,0.72446066,0.0,0.0,-0.001,0,0
11540000,0.0,-0.0,1.6204239,0.0,0.6893449,0.0,0.0,0.72443336,0.0,0.0,-0.001,0,0
11596000,0.0,-0.0,1.6202759,0.0,0.6893985,0.0,0.0,0.7243823,0.0,0.0,-0.001,0,0
11636000,0.0,-0.0,1.6202743,0.0,0.68939906,0.0,0.0,0.7243818,0.0,0.0,-0.001,0,0
11692000,0.0,-0.0,1.6205443,0.0,0.6893013,0.0,0.0,0.7244748,0.0,0.0,-0.001,0,0
11740000,0.0,-0.0,1.6208271,0.0,0.68919885,0.0,0.0,0.72457224,0.0,0.0,-0.001,0,0
11788000,0.0,-0.0,1.6208875,0.0,0.6891769,0.0,0.0,0.72459316,0.0,0.0,-0.001,0,0
11836000,0.0,-0.0,1.6207926,0.0,0.6892113,0.0,0.0,0.7245604,0.0,0.0,-0.001,0,0
11892000,0.0,-0.0,1.6206882,0.0,0.68924916,0.0,0.0,0.7245245,0.0,0.0,-0.001,0,0
11940000,0.0,-0.0,1.6205579,0.0,0.68929636,0.0,0.0,0.72447944,0.0,0.0,-0.001,0,0
11988000,0.0,-0.0,1.6202798,0.0,0.6893971,0.0,0.0,0.72438365,0.0,0.0,-0.001,0,0
12036000,0.0,-0.0,1.6200833,0.0,0.68946826,0.0,0.0,0.72431594,0.0,0.0,-0.001,0,0
12092000,0.0,-0.0,1.6199859,0.0,0.68950355,0.0,0.0,0.72428226,0.0,0.0,-0.001,0,0
12140000,0.0,-0.0,1.6200206,0.0,0.689491,0.0,0.0,0.72429425,0.0,0.0,-0.001,0,0
12196000,0.0,-0.0,1.6201556,0.0,0.6894421,0.0,0.0,0.7243408,0.0,0.0,-0.001,0,0
12236000,0.0,-0.0,1.6203538,0.0,0.6893703,0.0,0.0,0.7244092,0.0,0.0,-0.001,0,0
12292000,0.0,-0.0,1.6206316,0.0,0.6892697,0.0,0.0,0.7245049,0.0,0.0,-0.001,0,0
12340000,0.0,-0.0,1.620827,0.0,0.6891989,0.0,0.0,0.72457224,0.0,0.0,-0.001,0,0
12388000,0.0,-0.0,1.6210116,0.0,0.68913203,0.0,0.0,0.7246358,0.0,0.0,-0.001,0,0
12436000,0.0,-0.0,1.6210678,0.0,0.68911165,0.0,0.0,0.7246552,0.0,0.0,-0.001,0,0
12492000,0.0,-0.0,1.6211853,0.0,0.6890691,0.0,0.0,0.7246957,0.0,0.0,-0.001,0,0
12540000,0.0,-0.0,1.6213281,0.0,0.6890173,0.0,0.0,0.7247449,0.0,0.0,-0.001,0,0
12588000,0.0,-0.0,1.6215578,0.0,0.6889341,0.0,0.0,0.7248241,0.0,0.0,-0.001,0,0
12636000,0.0,-0.0,1.621741,0.0,0.6888677,0.0,0.0,0.72488713,0.0,0.0,-0.001,0,0
12692000,0.0,-0.0,1.6216775,0.0,0.6888907,0.0,0.0,0.7248653,0.0,0.0,-0.001,0,0
12740000,0.0,-0.0,1.6214646,0.0,0.6889678,0.0,0.0,0.7247919,0.0,0.0,-0.001,0,0
12788000,0.0,-0.0,1.621258,0.0,0.6890427,0.0,0.0,0.7247208,0.0,0.0,-0.001,0,0
12844000,0.0,-0.0,1.6209081,0.0,0.68916947,0.0,0.0,0.7246002,0.0,0.0,-0.001,0,0
12892000,0.0,-0.0,1.6206814,0.0,0.6892516,0.0,0.0,0.7245221,0.0,0.0,-0.001,0,0
12940000,0.0,-0.0,1.620465,0.0,0.68933,0.0,0.0,0.72444755,0.0,0.0,-0.001,0,0
12988000,0.0,-0.0,1.6202942,0.0,0.68939185,0.0,0.0,0.72438866,0.0,0.0,-0.001,0,0
13036000,0.0,-0.0,1.6201891,0.0,0.68942994,0.0,0.0,0.72435236,0.0,0.0,-0.001,0,0
13092000,0.0,-0.0,1.6202048,0.0,0.6894243,0.0,0.0,0.7243577,0.0,0.0,-0.001,0,0
13140000,0.0,-0.0,1.6203744,0.0,0.6893628,0.0,0.0,0.7244163,0.0,0.0,-0.001,0,0
13188000,0.0,-0.0,1.6206121,0.0,0.6892767,0.0,0.0,0.72449815,0.0,0.0,-0.001,0,0
13236000,0.0,-0.0,1.6207279,0.0,0.6892348,0.0,0.0,0.724538,0.0,0.0,-0.001,0,0
13292000,0.0,-0.0,1.6207324,0.0,0.6892332,0.0,0.0,0.7245397,0.0,0.0,-0.001,0,0
13340000,0.0,-0.0,1.6206533,0.0,0.6892618,0.0,0.0,0.7245124,0.0,0.0,-0.001,0,0
13388000,0.0,-0.0,1.6205133,0.0,0.6893125,0.0,0.0,0.7244642,0.0,0.0,-0.001,0,0
13436000,0.0,-0.0,1.6202989,0.0,0.6893902,0.0,0.0,0.7243902,0.0,0.0,-0.001,0,0
13492000,0.0,-0.0,1.6203039,0.0,0.6893884,0.0,0.0,0.72439194,0.0,0.0,-0.001,0,0
13540000,0.0,-0.0,1.6201725,0.0,0.68943596,0.0,0.0,0.72434664,0.0,0.0,-0.001,0,0
13596000,0.0,-0.0,1.6200824,0.0,0.6894686,0.0,0.0,0.7243156,0.0,0.0,-0.001,0,0
13636000,0.0,-0.0,1.6200511,0.0,0.68947995,0.0,0.0,0.7243048,0.0,0.0,-0.001,0,0
13692000,0.0,-0.0,1.6203207,0.0,0.6893823,0.0,0.0,0.7243977,0.0,0.0,-0.001,0,0
13740000,0.0,-0.0,1.6205525,0.0,0.68929833,0.0,0.0,0.7244776,0.0,0.0,-0.001,0,0
13788000,0.0,-0.0,1.6207011,0.0,0.6892445,0.0,0.0,0.72452885,0.0,0.0,-0.001,0,0
13836000,0.0,-0.0,1.6210461,0.0,0.6891195,0.0,0.0,0.7246477,0.0,0.0,-0.001,0,0
13892000,0.0,-0.0,1.6212744,0.0,0.6890368,0.0,0.0,0.7247264,0.0,0.0,-0.001,0,0
13940000,0.0,-0.0,1.6213522,0.0,0.6890086,0.0,0.0,0.72475326,0.0,0.0,-0.001,0,0
13988000,0.0,-0.0,1.6212554,0.0,0.68904364,0.0,0.0,0.7247199,0.0,0.0,-0.001,0,0
14044000,0.0,-0.0,1.621145,0.0,0.68908364,0.0,0.0,0.72468185,0.0,0.0,-0.001,0,0
14092000,0.0,-0.0,1.6209909,0.0,0.6891395,0.0,0.0,0.72462875,0.0,0.0,-0.001,0,0
14140000,0.0,-0.0,1.6207287,0.0,0.6892345,0.0,0.0,0.72453845,0.0,0.0,-0.001,0,0
14188000,0.0,-0.0,1.6204443,0.0,0.68933755,0.0,0.0,0.7244403,0.0,0.0,-0.001,0,0
14236000,0.0,-0.0,1.6201437,0.0,0.6894464,0.0,0.0,0.72433674,0.0,0.0,-0.001,0,0
14292000,0.0,-0.0,1.619835,0.0,0.68955815,0.0,0.0,0.7242304,0.0,0.0,-0.001,0,0
14340000,0.0,-0.0,1.619628,0.0,0.68963313,0.0,0.0,0.7241589,0.0,0.0,-0.001,0,0
14396000,-0.00144205,0.00094906613,1.6192731,0.0,0.6897611,-0.0008409145,-0.00019473363,0.7240366,0.0,0.0,-0.009065702,0,0
14436000,-0.0013295213,0.0011011848,1.6189954,0.0,0.6898616,-0.0008571893,-0.00010141446,0.72394085,0.0,0.0,-0.014182201,0,0
14492000,-0.00121372,0.0006589635,1.6187447,0.0,0.68995255,-0.00065720145,-0.00021195128,0.72385436,0.0,0.0,-0.021919569,0,0
14540000,-0.0012541054,0.0009007811,1.6186697,0.0,0.6899796,-0.00075865915,-0.00014311807,0.7238284,0.0,0.0,-0.029039478,0,0
14588000,-0.001267011,0.0011725688,1.6186478,0.0,0.6899874,-0.00086147594,-5.401529e-05,0.7238209,0.0,0.0,-0.036570486,0,0
14636000,-0.0011693321,0.0013160948,1.6187266,0.0,0.6899589,-0.000879722,3.081668e-05,0.72384804,0.0,0.0,-0.044604667,0,0
14692000,-0.0009709134,0.0014274317,1.6188323,0.0,0.68992066,-0.0008515744,0.00014099314,0.7238846,0.0,0.0,-0.054297082,0,0
14740000,-0.00016107659,0.0011337358,1.618904,0.0,0.6898951,-0.0004659238,0.00033277704,0.72390914,0.0,0.0,-0.06293206,0,0
14788000,-0.0004235603,0.0006454791,1.6189896,0.0,0.68986416,-0.00037974317,6.93306e-05,0.72393876,0.0,0.0,-0.072235726,0,0
14836000,-0.00014356064,0.00031400577,1.6190469,0.0,0.6898435,-0.00016318075,5.634145e-05,0.72395855,0.0,0.0,-0.08199603,0,0
14892000,0.00025327792,0.0002346478,1.6191256,0.0,0.68981504,2.416635e-06,0.00017261658,0.7239857,0.0,0.0,-0.09373453,0,0
14940000,0.00015642907,0.00030779743,1.6191367,0.0,0.689811,-5.7467805e-05,0.00016278753,0.7239895,0.0,0.0,-0.104302384,0,0
14988000,0.00034432716,2.5457972e-05,1.6188521,0.0,0.68991405,0.00010956367,0.00013340962,0.7238914,0.0,0.0,-0.11542911,0,0
15036000,0.0,-0.0,1.6185378,0.0,0.6900278,0.0,0.0,0.7237829,0.0,0.0,-0.12701738,0,0
15092000,0.0,-0.0,1.6182326,0.0,0.6901382,0.0,0.0,0.72367764,0.0,0.0,-0.14108583,0,0
15140000,0.0011449223,2.1335112e-05,1.6181513,0.0,0.69016755,0.00038737457,0.0004216236,0.72364944,0.0,0.0,-0.15355946,0,0
15188000,0.0015782281,-0.00011221286,1.6181911,0.0,0.690153,0.0005852117,0.0005323307,0.7236631,0.0,0.0,-0.16636091,0,0
15236000,0.0019704816,-0.00041269918,1.6182044,0.0,0.69014794,0.00082929083,0.00057057507,0.7236677,0.0,0.0,-0.17959176,0,0
15292000,0.0023780272,-0.00043156088,1.6181496,0.0,0.69016755,0.0009767683,0.0007115035,0.72364867,0.0,0.0,-0.19552799,0,0
15340000,0.0027621232,-8.730653e-06,1.6180865,0.0,0.69019043,0.0009563549,0.0009963602,0.72362643,0.0,0.0,-0.2098121,0,0
15388000,0.0026064995,-3.31051e-05,1.6180927,0.0,0.6901882,0.00091146614,0.0009316449,0.72362876,0.0,0.0,-0.22443812,0,0
15436000,0.002804201,-6.538465e-05,1.6181127,0.0,0.6901809,0.0009913611,0.0009920467,0.7236355,0.0,0.0,-0.23951925,0,0
15492000,0.0029049537,0.00015846273,1.6181518,0.0,0.69016683,0.0009451162,0.0011057669,0.7236489,0.0,0.0,-0.25777063,0,0
15540000,0.0024411187,-3.751887e-05,1.6181802,0.0,0.69015664,0.000855953,0.0008703222,0.723659,0.0,0.0,-0.27372092,0,0
15588000,0.002235154,0.00010430228,1.6182001,0.0,0.6901496,0.0007335555,0.0008447447,0.72366583,0.0,0.0,-0.2900385,0,0
15636000,0.0025997118,-0.0005242631,1.6181563,0.0,0.6901649,0.0010868076,0.00075972796,0.723651,0.0,0.0,-0.3069849,0,0
15692000,0.002455999,-0.0013102219,1.618134,0.0,0.6901726,0.0013215992,0.00043649352,0.7236435,0.0,0.0,-0.32374966,0,0
15740000,0.0023122092,-0.0015499373,1.618175,0.0,0.6901577,0.0013587072,0.0003017722,0.72365767,0.0,0.0,-0.3277245,0,0
15788000,0.0021825724,-0.001094006,1.6182102,0.0,0.6901454,0.0011489963,0.00041221885,0.72366977,0.0,0.0,-0.3342252,0,0
15844000,0.0021975471,-0.0014846362,1.618145,0.0,0.69016874,0.0012955163,0.00028279895,0.7236473,0.0,0.0,-0.34011912,0,0
15892000,0.002428806,-0.0007336265,1.6179912,0.0,0.69022465,0.0011036355,0.0006255511,0.72359407,0.0,0.0,-0.34433517,0,0
15940000,0.0027762728,-0.0010553704,1.6178852,0.0,0.6902626,0.0013399903,0.00064015464,0.7235574,0.0,0.0,-0.3485552,0,0
15988000,0.0026233033,-0.000993025,1.6179626,0.0,0.6902348,0.0012646172,0.0006063798,0.7235842,0.0,0.0,-0.35569987,0,0
16036000,0.0022484213,-0.0014887505,1.6180964,0.0,0.69018626,0.001314568,0.00029975458,0.72363055,0.0,0.0,-0.3604901,0,0
16092000,0.0022762876,-0.0012702172,1.6180692,0.0,0.6901963,0.0012451212,0.0003852346,0.72362113,0.0,0.0,-0.36705342,0,0
16140000,0.0023241355,-0.0012774001,1.6179211,0.0,0.6902498,0.0012642618,0.00039997406,0.72357005,0.0,0.0,-0.37204343,0,0
16188000,0.0023711384,-0.0009027788,1.6176999,0.0,0.69033,0.001145012,0.0005461436,0.7234936,0.0,0.0,-0.37977195,0,0
16236000,0.0022915946,-0.0010889912,1.6174277,0.0,0.6904284,0.0011849796,0.00045293375,0.7233997,0.0,0.0,-0.3851082,0,0
16292000,0.002481837,-0.0010546363,1.6170588,0.0,0.6905617,0.0012383262,0.0005333757,0.7232723,0.0,0.0,-0.39198226,0,0
16340000,0.0024235346,-0.00075085665,1.6166992,0.0,0.69069195,0.0011084488,0.00061698165,0.723148,0.0,0.0,-0.39723146,0,0
16388000,0.0025215063,-0.00044555805,1.616447,0.0,0.69078326,0.0010319907,0.00075770926,0.72306085,0.0,0.0,-0.40568137,0,0
16436000,0.0026390692,-0.00081530167,1.616162,0.0,0.690886,0.0012063651,0.00067233335,0.7229624,0.0,0.0,-0.4114948,0,0
16492000,0.002839413,-0.00063371885,1.6158686,0.0,0.69099206,0.0012100524,0.00080730306,0.72286093,0.0,0.0,-0.41890356,0,0
16540000,0.002777416,-0.00039214577,1.6157097,0.0,0.6910497,0.0011013898,0.0008682706,0.7228059,0.0,0.0,-0.42505515,0,0
16596000,0.0025174436,-0.00031588387,1.6155431,0.0,0.6911101,0.0009840683,0.0008005841,0.72274846,0.0,0.0,-0.4345792,0,0
16636000,0.0026764248,-0.00032942873,1.6155257,0.0,0.6911163,0.0010439071,0.00085334625,0.72274244,0.0,0.0,-0.44067094,0,0
16692000,0.002680427,-0.00029509788,1.6154846,0.0,0.6911312,0.0010329018,0.0008666348,0.7227281,0.0,0.0,-0.4484999,0,0
16740000,0.0027123871,-0.0006257528,1.6155269,0.0,0.6911156,0.0011634165,0.0007639455,0.7227428,0.0,0.0,-0.45483598,0,0
16796000,0.0027206922,-0.0009073484,1.6155568,0.0,0.69110465,0.001268037,0.000669658,0.72275335,0.0,0.0,-0.46501786,0,0
16844000,0.0028609117,-0.0007979221,1.6156478,0.0,0.69107175,0.0012769117,0.00075820077,0.72278476,0.0,0.0,-0.47262016,0,0
16892000,0.0028414682,-0.0012094687,1.6157712,0.0,0.69102687,0.0014188852,0.0006090573,0.72282743,0.0,0.0,-0.47961006,0,0
16940000,0.0027566508,-0.0008634425,1.6158264,0.0,0.69100726,0.001264502,0.00069799484,0.7228464,0.0,0.0,-0.48665965,0,0
16988000,0.0027615137,-0.0007742681,1.615981,0.0,0.6909514,0.001233896,0.00073065795,0.72289973,0.0,0.0,-0.49712348,0,0
17036000,0.003059557,-0.0011695995,1.6160991,0.0,0.6909082,0.0014797137,0.00070189545,0.72294074,0.0,0.0,-0.5044951,0,0
17092000,0.0035148493,-0.0013086479,1.6161103,0.0,0.6909037,0.0016872534,0.0008184447,0.72294444,0.0,0.0,-0.51311153,0,0
17140000,0.0034139294,-0.0008618969,1.6161982,0.0,0.6908724,0.0014908615,0.0009363619,0.7229747,0.0,0.0,-0.5206051,0,0
17188000,0.002894327,-0.0013692637,1.6163243,0.0,0.6908268,0.0014947422,0.00057336316,0.7230185,0.0,0.0,-0.5316257,0,0
17236000,0.0034266561,-0.0010642598,1.616376,0.0,0.69080794,0.0015683317,0.00087119825,0.72303617,0.0,0.0,-0.53941697,0,0
17292000,0.0035312313,-0.0011133275,1.616294,0.0,0.69083744,0.001622228,0.0008919892,0.7230078,0.0,0.0,-0.54843694,0,0
17340000,0.0035641717,-0.0015985918,1.6161867,0.0,0.69087577,0.0018090699,0.00073618046,0.72297084,0.0,0.0,-0.5565018,0,0
17388000,0.0035207274,-0.001505738,1.6160831,0.0,0.6909134,0.0017605365,0.0007524602,0.722935,0.0,0.0,-0.56825113,0,0
17436000,0.0033603662,-0.0018997712,1.6159124,0.0,0.69097483,0.0018476162,0.0005582154,0.72287625,0.0,0.0,-0.60216546,0,0
17492000,0.0033613886,-0.0014736826,1.6157644,0.0,0.6910287,0.0016940176,0.0007056682,0.72282505,0.0,0.0,-0.6115838,0,0
17540000,0.00254343,-0.0008959567,1.6156334,0.0,0.69107705,0.0012026437,0.0006095821,0.7227798,0.0,0.0,-0.6198101,0,0
17588000,0.0022961185,-0.00057504995,1.6155797,0.0,0.6910968,0.0010012325,0.00063106517,0.7227613,0.0,0.0,-0.63201225,0,0
17636000,0.0018893951,-0.00069520116,1.6154814,0.0,0.6911325,0.000904132,0.0004425206,0.7227274,0.0,0.0,-0.6404241,0,0
17692000,0.0017459954,-0.00022570524,1.6153699,0.0,0.69117296,0.0006849499,0.000552905,0.72268885,0.0,0.0,-0.65014833,0,0
17740000,0.0013735745,0.00014367433,1.6153011,0.0,0.69119805,0.00042279187,0.0005459709,0.7226651,0.0,0.0,-0.6590542,0,0
17796000,0.001034392,5.4006472e-05,1.6152521,0.0,0.6912158,0.00033798025,0.00039241585,0.72264826,0.0,0.0,-0.67296773,0,0
17836000,0.0010726509,0.0002037475,1.6152401,0.0,0.69122016,0.00029710055,0.0004579896,0.72264403,0.0,0.0,-0.6812269,0,0
17892000,0.00026199638,0.0007262261,1.6152655,0.0,0.69121104,-0.00017185732,0.00034565394,0.72265285,0.0,0.0,-0.6895922,0,0
17940000,-0.0009784198,0.00059497677,1.615273,0.0,0.6912082,-0.0005531275,-0.00014790377,0.72265553,0.0,0.0,-0.6962966,0,0
17988000,-0.0020228382,0.00044683553,1.6152104,0.0,0.6912305,-0.00086057326,-0.0005764524,0.72263366,0.0,0.0,-0.7064437,0,0
18036000,-0.003279561,0.00030420537,1.6153989,0.0,0.69116175,-0.0012432792,-0.0010799395,0.7226983,0.0,0.0,-0.7117233,0,0
18092000,-0.0050710463,0.00018371838,1.6164683,0.0,0.69077396,-0.0018178975,-0.0017699009,0.7230663,0.0,0.0,-0.71683353,0,0
18140000,-0.006690035,-0.00025746739,1.618145,0.0,0.69016635,-0.0022154688,-0.0025094561,0.723643,0.0,0.0,-0.722073,0,0
18188000,-0.01395274,-0.005588289,1.6199683,0.0,0.68950456,-0.0027865374,-0.0069792983,0.7242423,0.0,0.0,-0.73273444,0,0
18236000,-0.022153247,-0.013164141,1.6212763,0.0,0.6890318,-0.0028619952,-0.012562163,0.72461665,0.0,0.0,-0.7375689,0,0
18292000,-0.030526338,-0.022241533,1.6220919,0.0,0.68874073,-0.0024497656,-0.018723076,0.7247618,0.0,0.0,-0.7411998,0,0
18340000,-0.035866447,-0.029272787,1.6222819,0.0,0.68867743,-0.0017377423,-0.023078507,0.72469836,0.0,0.0,-0.74366957,0,0
18388000,-0.040556684,-0.034683872,1.6221366,0.0,0.68873405,-0.001393038,-0.02663981,0.7245231,0.0,0.0,-0.7503574,0,0
18436000,-0.043818723,-0.03886137,1.6218549,0.0,0.6888397,-0.0010061422,-0.029258719,0.7243223,0.0,0.0,-0.7510743,0,0
18492000,-0.046132762,-0.04159256,1.6214614,0.0,0.6889844,-0.00081931887,-0.031036355,0.72411084,0.0,0.0,-0.7503834,0,0
18540000,-0.047292393,-0.042795423,1.6212301,0.0,0.68906915,-0.0007865885,-0.03187005,0.723994,0.0,0.0,-0.74973136,0,0
18596000,-0.048080552,-0.043064117,1.6209635,0.0,0.68916565,-0.0009650777,-0.032247704,0.72388524,0.0,0.0,-0.7537924,0,0
18636000,-0.048054483,-0.042900257,1.620791,0.0,0.6892279,-0.0010182367,-0.032181777,0.7238289,0.0,0.0,-0.7542899,0,0
18692000,-0.048667774,-0.043055877,1.6205664,0.0,0.689309,-0.0011768532,-0.032457173,0.723739,0.0,0.0,-0.74408203,0,0
18740000,-0.049355224,-0.043343954,1.6203011,0.0,0.68940496,-0.0013137849,-0.032804944,0.7236317,0.0,0.0,-0.7341059,0,0
18788000,-0.04955596,-0.044377908,1.6200258,0.0,0.68950593,-0.0010130744,-0.03323343,0.7235164,0.0,0.0,-0.72554207,0,0
18836000,-0.05088238,-0.045042913,1.6197283,0.0,0.6896137,-0.0012345896,-0.03394207,0.72338057,0.0,0.0,-0.7170912,0,0
18892000,-0.051082633,-0.045809094,1.6194286,0.0,0.689723,-0.0010313503,-0.03427821,0.7232608,0.0,0.0,-0.70526296,0,0
18940000,-0.05137334,-0.046884134,1.6191926,0.0,0.6898096,-0.0007465017,-0.034753527,0.72315586,0.0,0.0,-0.70991266,0,0
18988000,-0.05108759,-0.047667425,1.619019,0.0,0.68987334,-0.00036742966,-0.034919992,0.72308725,0.0,0.0,-0.72099346,0,0
19036000,-0.05118872,-0.047681656,1.6189414,0.0,0.6899014,-0.00039851587,-0.034961443,0.72305846,0.0,0.0,-0.7240556,0,0
19092000,-0.050334614,-0.04717595,1.6189718,0.0,0.68989,-0.0002864098,-0.034478437,0.72309256,0.0,0.0,-0.7227998,0,0
19140000,-0.050622057,-0.046914455,1.6188706,0.0,0.6899263,-0.0004819596,-0.034492243,0.7230572,0.0,0.0,-0.72229815,0,0
19188000,-0.05045538,-0.04645806,1.6187836,0.0,0.6899573,-0.00059114024,-0.034274716,0.7230379,0.0,0.0,-0.7267992,0,0
19236000,-0.049800884,-0.045860026,1.6185385,0.0,0.6900455,-0.00058593875,-0.03383197,0.7229746,0.0,0.0,-0.7258042,0,0
19292000,-0.049378205,-0.045404963,1.6183385,0.0,0.69011736,-0.00060813926,-0.033522293,0.7229204,0.0,0.0,-0.7219168,0,0
19340000,-0.048594896,-0.044753216,1.6180773,0.0,0.6902113,-0.0005779948,-0.033014446,0.72285414,0.0,0.0,-0.7210044,0,0
19396000,-0.04726984,-0.04324617,1.6178526,0.0,0.6902913,-0.0006695623,-0.03201593,0.72282255,0.0,0.0,-0.7246207,0,0
19436000,-0.046354637,-0.042541858,1.6177462,0.0,0.69032925,-0.0006101503,-0.031442296,0.7228115,0.0,0.0,-0.7243294,0,0
19492000,-0.045099705,-0.041682355,1.6175592,0.0,0.69039637,-0.00049078284,-0.030692328,0.7227797,0.0,0.0,-0.72047704,0,0
19540000,-0.04560966,-0.041096084,1.61745,0.0,0.69043505,-0.0008805583,-0.030674392,0.7227433,0.0,0.0,-0.71922815,0,0
19588000,-0.044846464,-0.04077597,1.6172869,0.0,0.69049394,-0.0007353426,-0.030288126,0.7227034,0.0,0.0,-0.72321695,0,0
19636000,-0.04386086,-0.039712083,1.6171546,0.0,0.69054097,-0.00078179385,-0.029564962,0.7226884,0.0,0.0,-0.7220851,0,0
19692000,-0.04319274,-0.038909573,1.6170934,0.0,0.6905625,-0.00084222376,-0.029046677,0.7226887,0.0,0.0,-0.7184441,0,0
19740000,-0.04222636,-0.03833129,1.6170409,0.0,0.6905812,-0.00071842986,-0.028497957,0.72269285,0.0,0.0,-0.7177483,0,0
19788000,-0.041082337,-0.036825497,1.6169568,0.0,0.69061047,-0.0008690998,-0.027565012,0.7227009,0.0,0.0,-0.7219944,0,0
19836000,-0.03980408,-0.03596234,1.6168945,0.0,0.69063264,-0.0007406739,-0.026805254,0.7227084,0.0,0.0,-0.7210765,0,0
19892000,-0.03834391,-0.03440112,1.6167324,0.0,0.6906902,-0.00080308056,-0.025738815,0.7226922,0.0,0.0,-0.7174648,0,0
19940000,-0.037793018,-0.03431352,1.6166507,0.0,0.69071984,-0.000645547,-0.025509493,0.72267205,0.0,0.0,-0.7159477,0,0
19988000,-0.036993213,-0.033836182,1.6164936,0.0,0.69077647,-0.000543881,-0.0250557,0.72263396,0.0,0.0,-0.71965593,0,0
20036000,-0.03592562,-0.032513645,1.6163622,0.0,0.6908231,-0.0006548794,-0.024213417,0.7226179,0.0,0.0,-0.71832925,0,0
20092000,-0.03493943,-0.031631723,1.6162058,0.0,0.69087917,-0.00063490507,-0.023552595,0.7225863,0.0,0.0,-0.7149931,0,0
20140000,-0.033680566,-0.030949524,1.6161629,0.0,0.6908945,-0.00044713815,-0.022862233,0.72259384,0.0,0.0,-0.71417916,0,0
20188000,-0.032635618,-0.03007755,1.6161438,0.0,0.690901,-0.0004015735,-0.022183627,0.7226088,0.0,0.0,-0.7184357,0,0
20236000,-0.03155222,-0.028828088,1.6161591,0.0,0.6908948,-0.00047880036,-0.021360774,0.7226396,0.0,0.0,-0.7175363,0,0
20292000,-0.030403202,-0.027900452,1.6160854,0.0,0.690921,-0.00041795216,-0.020625288,0.7226358,0.0,0.0,-0.7143593,0,0
20340000,-0.029690977,-0.028040845,1.6159847,0.0,0.69095755,-0.000122188,-0.02041642,0.72260696,0.0,0.0,-0.7129423,0,0
20388000,-0.029315617,-0.027331492,1.615839,0.0,0.6910099,-0.00025036113,-0.020035818,0.7225675,0.0,0.0,-0.71646667,0,0
20436000,-0.028521398,-0.026971592,1.6157482,0.0,0.6910426,-0.00010692299,-0.019624578,0.72254765,0.0,0.0,-0.71544504,0,0
20492000,-0.027863933,-0.02599848,1.6156133,0.0,0.6910908,-0.00023272863,-0.019050935,0.72251683,0.0,0.0,-0.7119608,0,0
20540000,-0.026719265,-0.025286581,1.6155239,0.0,0.6911229,-9.528457e-05,-0.018391501,0.7225032,0.0,0.0,-0.7111218,0,0
20588000,-0.025776174,-0.024733722,1.6155413,0.0,0.69111633,3.098114e-05,-0.017859826,0.72252285,0.0,0.0,-0.7151498,0,0
20636000,-0.02501052,-0.023979822,1.615556,0.0,0.69111073,2.3246992e-05,-0.017322788,0.72254133,0.0,0.0,-0.7143555,0,0
20692000,-0.023913616,-0.023449305,1.615608,0.0,0.6910917,0.00021100821,-0.016743233,0.7225731,0.0,0.0,-0.7114683,0,0
20740000,-0.023588443,-0.023071257,1.6156132,0.0,0.6910897,0.00018679487,-0.016495153,0.7225807,0.0,0.0,-0.71011484,0,0
20788000,-0.02351012,-0.022611648,1.6156318,0.0,0.69108284,4.791424e-05,-0.016308086,0.7225915,0.0,0.0,-0.713088,0,0
20836000,-0.022952553,-0.022132555,1.6156207,0.0,0.69108665,6.735071e-05,-0.01594114,0.7225961,0.0,0.0,-0.711885,0,0
20892000,-0.022524344,-0.021725535,1.6156183,0.0,0.69108737,6.8204354e-05,-0.015645817,0.7226019,0.0,0.0,-0.7087822,0,0
20940000,-0.021902217,-0.02075362,1.6105617,0.0,0.6929118,-0.00010619907,-0.015085067,0.7208645,0.0,0.0,-0.708335,0,0
20988000,-0.021075493,-0.020536931,1.6109962,0.0,0.69275516,0.00010530152,-0.0147120105,0.7210228,0.0,0.0,-0.7119828,0,0
21044000,-0.020471718,-0.019780893,1.6125997,0.0,0.6921766,5.3228592e-05,-0.014232483,0.7215879,0.0,0.0,-0.70910597,0,0
21092000,-0.019813417,-0.019222667,1.6137913,0.0,0.6917464,8.78403e-05,-0.013801765,0.7220085,0.0,0.0,-0.7084298,0,0
21140000,-0.020101298,-0.019317443,1.614436,0.0,0.69151366,2.6982907e-05,-0.013938458,0.7222289,0.0,0.0,-0.7075298,0,0
21196000,-0.020110564,-0.018750105,1.6147025,0.0,0.6914172,-0.00017930275,-0.013745706,0.7223249,0.0,0.0,-0.70496184,0,0
21244000,-0.020266073,-0.018488621,1.614629,0.0,0.6914436,-0.00032802063,-0.013711479,0.7223002,0.0,0.0,-0.6943435,0,0
21292000,-0.020269701,-0.018192045,1.6149489,0.0,0.691328,-0.00043422755,-0.013610344,0.72241265,0.0,0.0,-0.68615,0,0
21340000,-0.020108834,-0.018065354,1.6153057,0.0,0.69119906,-0.0004219805,-0.01350853,0.72253805,0.0,0.0,-0.67883515,0,0
21396000,-0.019869328,-0.01778028,1.6156356,0.0,0.69107974,-0.0004400153,-0.013323572,0.72265553,0.0,0.0,-0.6667444,0,0
21436000,-0.019563563,-0.017649435,1.6157959,0.0,0.6910218,-0.00038059364,-0.013167919,0.7227139,0.0,0.0,-0.6595933,0,0
21492000,-0.019060554,-0.017162854,1.6160045,0.0,0.69094634,-0.00038131862,-0.012818102,0.7227923,0.0,0.0,-0.6607036,0,0
21540000,-0.019590607,-0.01713567,1.6159089,0.0,0.69098073,-0.00057488465,-0.013000242,0.72275597,0.0,0.0,-0.669933,0,0
21596000,-0.01964979,-0.017120078,1.6152862,0.0,0.6912057,-0.0006050192,-0.013016057,0.7225406,0.0,0.0,-0.68033594,0,0
21644000,-0.019451626,-0.016909804,1.6148165,0.0,0.69137526,-0.0006155348,-0.012871662,0.72238094,0.0,0.0,-0.68883777,0,0
21692000,-0.019183278,-0.016513638,1.6144688,0.0,0.69150066,-0.0006680815,-0.012637696,0.72226495,0.0,0.0,-0.6956467,0,0
21740000,-0.019071471,-0.016262159,1.6142912,0.0,0.69156474,-0.00072136667,-0.012510319,0.7222057,0.0,0.0,-0.7017671,0,0
21788000,-0.018814443,-0.015780905,1.6142879,0.0,0.6915657,-0.00080631877,-0.012251122,0.7222092,0.0,0.0,-0.70937854,0,0
21844000,-0.018459996,-0.015787737,1.6144543,0.0,0.6915058,-0.0006802807,-0.012125549,0.7222688,0.0,0.0,-0.7154835,0,0
21892000,-0.017842203,-0.015867217,1.6146059,0.0,0.6914512,-0.00043706558,-0.01192995,0.72232455,0.0,0.0,-0.7185425,0,0
21940000,-0.017423624,-0.016300172,1.6147147,-0.00012222513,0.69141215,-0.00013531552,-0.011928443,0.72236204,0.0,0.0,-0.7192237,0,0
21996000,-0.016905118,-0.01646859,1.6147147,-6.0146373e-05,0.69141215,0.000104773964,-0.011799384,0.7223641,0.0,0.0,-0.71847343,0,0
22036000,-0.0166421,-0.016897416,1.6147147,-4.972418e-05,0.69141227,0.00035060494,-0.011852611,0.7223632,0.0,0.0,-0.7160075,0,0
22092000,-0.015897673,-0.016894463,1.6147147,-5.7094378e-05,0.69141203,0.00060689216,-0.011582718,0.7223676,0.0,0.0,-0.7126828,0,0
22140000,-0.015673002,-0.017001715,1.6147147,-4.720104e-05,0.691412,0.00072330417,-0.011538642,0.72236824,0.0,0.0,-0.71062285,0,0
22196000,-0.015104417,-0.016553188,1.6147147,-2.3227392e-05,0.6914118,0.0007578461,-0.011178241,0.722374,0.0,0.0,-0.7100691,0,0
22236000,-0.0152619975,-0.016378922,1.6147147,-1.920254e-05,0.69141185,0.0006404195,-0.01117492,0.7223742,0.0,0.0,-0.70964867,0,0
22292000,-0.014954143,-0.016845504,1.6147147,-2.204877e-05,0.6914117,0.00091538986,-0.011225005,0.72237325,0.0,0.0,-0.70908934,0,0
22340000,-0.0148428595,-0.015747387,1.6147147,-1.822815e-05,0.6914118,0.0005571889,-0.010805233,0.72238,0.0,0.0,-0.707613,0,0
22396000,-0.014390564,-0.014632419,1.6147147,-8.9699815e-06,0.6914117,0.00031078933,-0.010256463,0.72238815,0.0,0.0,-0.7072451,0,0
22444000,-0.014447454,-0.014178201,1.6147147,-1.0299526e-05,0.6914116,0.00012704446,-0.010120003,0.72239023,0.0,0.0,-0.7069727,0,0
22492000,-0.01443402,-0.013674176,1.6147147,-8.5148195e-06,0.6914115,-5.038036e-05,-0.009940923,0.7223928,0.0,0.0,-0.70681757,0,0
22540000,-0.014025996,-0.013318161,1.6147147,-7.039368e-06,0.69141144,-3.7928137e-05,-0.009670483,0.7223965,0.0,0.0,-0.7066159,0,0
22588000,-0.014142299,-0.01330259,1.6147147,-3.4640377e-06,0.69141144,-8.375939e-05,-0.009707108,0.7223961,0.0,0.0,-0.70756644,0,0
22636000,-0.013693146,-0.013175901,1.6147147,-2.8637878e-06,0.69141144,2.575238e-05,-0.009501082,0.7223987,0.0,0.0,-0.707785,0,0
22692000,-0.013596631,-0.013167265,1.6147147,-3.2882626e-06,0.69141144,5.5997974e-05,-0.009463235,0.7223993,0.0,0.0,-0.70783496,0,0
22740000,-0.013803585,-0.011298106,1.6147147,-2.7184708e-06,0.6914107,-0.0006907447,-0.008891867,0.7224069,0.0,0.0,-0.70674604,0,0
22788000,-0.014421973,-0.010103717,1.6147147,-1.3377459e-06,0.6914096,-0.0013359737,-0.008702355,0.72240937,0.0,0.0,-0.7067404,0,0
22836000,-0.014352251,-0.009162021,1.6147147,-1.1059408e-06,0.69140875,-0.0016520391,-0.008351647,0.7224136,0.0,0.0,-0.70621973,0,0
22892000,-0.014610375,-0.008579344,1.6147147,-1.2698649e-06,0.69140786,-0.001951754,-0.008243463,0.72241503,0.0,0.0,-0.70602995,0,0
22940000,-0.014593449,-0.008538565,1.6147147,-1.0498222e-06,0.69140786,-0.0019606326,-0.008223253,0.7224152,0.0,0.0,-0.7061383,0,0
22988000,-0.01457243,-0.008908537,1.6147147,-5.1661226e-07,0.6914083,-0.001819722,-0.008343553,0.7224138,0.0,0.0,-0.70721924,0,0
23036000,-0.014627506,-0.008647153,1.6147147,-4.2709345e-07,0.6914079,-0.0019331814,-0.008273091,0.7224147,0.0,0.0,-0.7074173,0,0
23092000,-0.01439053,-0.008321711,1.6147147,-4.903979e-07,0.6914078,-0.001968817,-0.008074994,0.7224169,0.0,0.0,-0.70699227,0,0
23140000,-0.015156148,-0.009882118,1.6147147,-4.0542156e-07,0.6914088,-0.0016698294,-0.008890941,0.72240716,0.0,0.0,-0.7062081,0,0
23188000,-0.01537137,-0.010902537,1.6147147,-1.995059e-07,0.69140965,-0.001375627,-0.009321413,0.7224015,0.0,0.0,-0.7070016,0,0
23236000,-0.015994318,-0.011597293,1.6147147,-1.6493543e-07,0.6914098,-0.001340017,-0.009786581,0.72239524,0.0,0.0,-0.70687807,0,0
23292000,-0.016178481,-0.0123409135,1.6147147,-1.8938242e-07,0.6914103,-0.0011350649,-0.010110148,0.72239065,0.0,0.0,-0.7066009,0,0
23340000,-0.016349703,-0.01259568,1.6147147,-1.5656614e-07,0.6914104,-0.0011022281,-0.010260058,0.7223885,0.0,0.0,-0.7067382,0,0
23388000,-0.016468147,-0.012924569,1.6147147,-7.7045414e-08,0.6914106,-0.0010243697,-0.010416525,0.7223862,0.0,0.0,-0.7079051,0,0
23436000,-0.016677415,-0.012932977,1.6147147,-6.369495e-08,0.69141054,-0.0010936778,-0.010495016,0.72238505,0.0,0.0,-0.7079464,0,0
23492000,-0.016611602,-0.0131086735,1.6147147,-7.31359e-08,0.69141066,-0.0010074592,-0.010531979,0.7223846,0.0,0.0,-0.70755893,0,0
23540000,-0.017315092,-0.013449039,1.6147147,-6.046288e-08,0.69141054,-0.0011277088,-0.010903726,0.7223789,0.0,0.0,-0.70696586,0,0
23596000,-0.017543698,-0.01432131,1.6147147,-2.9753481e-08,0.6914111,-0.00089164893,-0.011287805,0.72237283,0.0,0.0,-0.70739144,0,0
23644000,-0.01750764,-0.014685501,1.6147147,-3.416359e-08,0.6914114,-0.00074762694,-0.011400666,0.7223709,0.0,0.0,-0.7066724,0,0
23692000,-0.018150171,-0.014430943,1.6147147,-2.8243708e-08,0.6914109,-0.0010617075,-0.011544749,0.7223687,0.0,0.0,-0.70691234,0,0
23740000,-0.01826142,-0.014838414,1.6147147,-2.3349624e-08,0.69141114,-0.00095297623,-0.011725776,0.7223657,0.0,0.0,-0.7070553,0,0
23788000,-0.018391939,-0.014837912,1.6147147,-1.1490234e-08,0.6914111,-0.0009982785,-0.011772744,0.7223649,0.0,0.0,-0.7083501,0,0
23836000,-0.018209452,-0.0149580445,1.6147147,-9.499201e-09,0.69141126,-0.0008917969,-0.011748357,0.7223654,0.0,0.0,-0.7083443,0,0
23892000,-0.018148167,-0.015040272,1.6147147,-1.0907187e-08,0.6914113,-0.0008409069,-0.011754645,0.7223652,0.0,0.0,-0.7077599,0,0
23940000,-0.018649258,-0.015386503,1.6147147,-9.017184e-09,0.6914114,-0.0008890684,-0.012055305,0.7223602,0.0,0.0,-0.70733863,0,0
23988000,-0.018357141,-0.015707323,1.6147147,-4.437311e-09,0.6914117,-0.0006721917,-0.012060693,0.72236,0.0,0.0,-0.70836,0,0
24036000,-0.01832234,-0.015872343,1.6147147,-3.6684116e-09,0.6914118,-0.00060055073,-0.012105162,0.7223592,0.0,0.0,-0.7082243,0,0
24092000,-0.018412085,-0.01606406,1.6147147,-4.2121493e-09,0.69141185,-0.00056232186,-0.012203845,0.7223575,0.0,0.0,-0.70691687,0,0
24140000,-0.018161764,-0.016055845,1.6147147,-3.482266e-09,0.6914119,-0.00047875204,-0.012110593,0.7223591,0.0,0.0,-0.7067733,0,0
24188000,-0.018245047,-0.016183695,1.6147147,-1.7136057e-09,0.691412,-0.00046136108,-0.012184866,0.7223578,0.0,0.0,-0.7087483,0,0
24236000,-0.01820195,-0.016371122,1.6147147,-1.4166713e-09,0.6914121,-0.0003787577,-0.012234082,0.72235686,0.0,0.0,-0.70874614,0,0
24292000,-0.01840526,-0.016633332,1.6147147,-1.6266525e-09,0.69141215,-0.00035432537,-0.012398147,0.722354,0.0,0.0,-0.7074608,0,0
24340000,-0.01787435,-0.018097684,1.6147147,-1.3447854e-09,0.69141257,0.00035818157,-0.0127125485,0.7223482,0.0,0.0,-0.7067217,0,0
24388000,-0.0174397,-0.019053238,1.6147147,-6.6176215e-10,0.6914124,0.0008536178,-0.012885849,0.7223449,0.0,0.0,-0.7078552,0,0
24436000,-0.017561577,-0.019675829,1.6147147,-5.470917e-10,0.6914123,0.0010363823,-0.013145061,0.72234005,0.0,0.0,-0.7074219,0,0
24492000,-0.017004935,-0.020414503,1.6147147,-6.281825e-10,0.69141173,0.0014956492,-0.013199341,0.7223388,0.0,0.0,-0.70584625,0,0
24540000,-0.016973974,-0.020539185,1.6147147,-5.1933075e-10,0.6914116,0.0015513905,-0.013231253,0.72233826,0.0,0.0,-0.7059918,0,0
24588000,-0.016980017,-0.020438153,1.6147147,-2.5556005e-10,0.6914117,0.0015128059,-0.0131985145,0.7223389,0.0,0.0,-0.70791715,0,0
24644000,-0.016616173,-0.020637045,1.6147147,-2.9343955e-10,0.6914113,0.0017104347,-0.013135849,0.7223399,0.0,0.0,-0.7068246,0,0
24692000,-0.016836487,-0.020443125,1.6147147,-2.425922e-10,0.6914116,0.0015642212,-0.013148394,0.7223398,0.0,0.0,-0.7071855,0,0
24740000,-0.0165058,-0.019870728,1.6147147,-2.0055572e-10,0.6914116,0.0014717748,-0.012831113,0.7223456,0.0,0.0,-0.706151,0,0
24788000,-0.016543277,-0.019463366,1.6147147,-9.8692464e-11,0.6914118,0.0013116668,-0.012703845,0.72234803,0.0,0.0,-0.70704174,0,0
24836000,-0.016027115,-0.019670524,1.6147147,-8.1590984e-11,0.6914113,0.0015649385,-0.012589024,0.72234994,0.0,0.0,-0.706934,0,0
24892000,-0.015757175,-0.019188661,1.6147147,-9.3684525e-11,0.6914114,0.0014841965,-0.012324973,0.7223546,0.0,0.0,-0.70605725,0,0
24940000,-0.015506852,-0.019178208,1.6147147,-7.7450824e-11,0.6914112,0.0015669581,-0.012230949,0.7223562,0.0,0.0,-0.7061805,0,0
24996000,-0.015491693,-0.019295786,1.6147147,-3.8113165e-11,0.69141114,0.0016146703,-0.012266114,0.7223556,0.0,0.0,-0.7074277,0,0
25036000,-0.01557711,-0.019055605,1.6147147,-3.15089e-11,0.6914113,0.0014983814,-0.012213946,0.72235656,0.0,0.0,-0.7077296,0,0
25092000,-0.015763292,-0.018797519,1.6147147,-3.6179195e-11,0.69141155,0.0013407891,-0.012191982,0.722357,0.0,0.0,-0.7070974,0,0
25140000,-0.015544638,-0.01833323,1.6147147,-2.991005e-11,0.6914116,0.0012486639,-0.011952527,0.7223611,0.0,0.0,-0.7064213,0,0
25188000,-0.015683273,-0.017871156,1.6147147,-1.4718586e-11,0.6914118,0.0010338225,-0.01184288,0.72236305,0.0,0.0,-0.70670426,0,0
25236000,-0.0154871065,-0.017978525,1.6147147,-1.2168142e-11,0.6914117,0.0011404229,-0.01180914,0.7223636,0.0,0.0,-0.7064902,0,0
25292000,-0.015615142,-0.017750273,1.6147147,-1.3971723e-11,0.6914118,0.0010137087,-0.011776489,0.72236425,0.0,0.0,-0.7058252,0,0
25340000,-0.01555213,-0.01741279,1.6147147,-1.1550696e-11,0.69141185,0.0009135833,-0.011637077,0.7223665,0.0,0.0,-0.7060081,0,0
25396000,-0.015722174,-0.017434683,1.6147147,-5.68404e-12,0.6914119,0.00086270587,-0.011706063,0.72236544,0.0,0.0,-0.7068343,0,0
25436000,-0.015679382,-0.01713556,1.6147147,-4.6991066e-12,0.6914119,0.00076944724,-0.011587213,0.7223674,0.0,0.0,-0.70711905,0,0
25492000,-0.015970543,-0.01730764,1.6147147,-5.395616e-12,0.69141203,0.0007309523,-0.011751856,0.72236466,0.0,0.0,-0.70699674,0,0
25540000,-0.016037337,-0.016358763,1.6147147,-4.460661e-12,0.6914121,0.00036509725,-0.011447992,0.7223698,0.0,0.0,-0.70596844,0,0
25588000,-0.015942827,-0.015709411,1.6147147,-2.195069e-12,0.691412,0.00016320492,-0.011189403,0.7223741,0.0,0.0,-0.7056338,0,0
25636000,-0.01580093,-0.015517654,1.6147147,-1.8147064e-12,0.6914119,0.00014299071,-0.011071869,0.72237587,0.0,0.0,-0.705507,0,0
25692000,-0.015954854,-0.015643936,1.6147147,-2.083685e-12,0.691412,0.00013539505,-0.011171115,0.7223743,0.0,0.0,-0.7057169,0,0
25740000,-0.016644852,-0.015298451,1.6147147,-1.7226231e-12,0.69141185,-0.00022794046,-0.011300912,0.7223725,0.0,0.0,-0.70596296,0,0
25788000,-0.01645716,-0.015228574,1.6147147,-8.476942e-13,0.69141185,-0.00018829595,-0.011208966,0.72237396,0.0,0.0,-0.70621806,0,0
25844000,-0.01672328,-0.015015453,1.6147147,-9.733407e-13,0.69141173,-0.0003572809,-0.011231419,0.72237355,0.0,0.0,-0.7066446,0,0
25892000,-0.016784202,-0.015003056,1.6147147,-8.0467973e-13,0.69141173,-0.00038281977,-0.011249138,0.7223733,0.0,0.0,-0.70731914,0,0
25940000,-0.016639715,-0.015131665,1.6147147,-6.652445e-13,0.6914118,-0.00028641318,-0.011241407,0.7223734,0.0,0.0,-0.7062962,0,0
25988000,-0.01669251,-0.015017934,1.6147147,-3.2736352e-13,0.69141173,-0.0003457473,-0.011221162,0.7223737,0.0,0.0,-0.705542,0,0
26036000,-0.01694224,-0.015115076,1.6147147,-2.7063781e-13,0.6914118,-0.00039699,-0.011344939,0.72237176,0.0,0.0,-0.7052138,0,0
26092000,-0.017213212,-0.015049359,1.6147147,-3.1075218e-13,0.6914116,-0.00051440566,-0.011420095,0.7223706,0.0,0.0,-0.70562845,0,0
26140000,-0.017316526,-0.015456158,1.6147147,-2.569049e-13,0.69141185,-0.00040317333,-0.011598024,0.72236764,0.0,0.0,-0.70601344,0,0
26188000,-0.016948054,-0.014728932,1.6147147,-1.264216e-13,0.69141155,-0.0005384861,-0.011213565,0.7223739,0.0,0.0,-0.7066045,0,0
26236000,-0.017427923,-0.014682896,1.6147147,-1.0451522e-13,0.6914114,-0.0007210088,-0.011370975,0.7223714,0.0,0.0,-0.7070942,0,0
26292000,-0.017432207,-0.015038914,1.6147147,-1.2000661e-13,0.6914116,-0.00059388665,-0.011495582,0.7223694,0.0,0.0,-0.70754015,0,0
26340000,-0.016674105,-0.0151882535,1.6147147,-9.921181e-14,0.6914118,-0.0002778605,-0.011273388,0.72237295,0.0,0.0,-0.7069078,0,0
26388000,-0.016387805,-0.015676497,1.6147147,-4.8821637e-14,0.69141203,-2.516844e-06,-0.011338746,0.7223717,0.0,0.0,-0.70658726,0,0
26436000,-0.016156545,-0.015767975,1.6147147,-4.0361798e-14,0.69141203,0.00011047578,-0.011286838,0.7223725,0.0,0.0,-0.70666623,0,0
26492000,-0.016261505,-0.01612855,1.6147147,-4.634429e-14,0.6914121,0.00020444152,-0.011449384,0.72236985,0.0,0.0,-0.70701855,0,0
26540000,-0.016261252,-0.016659718,1.6147147,-3.8313733e-14,0.69141215,0.00039640252,-0.011632895,0.72236675,0.0,0.0,-0.70734274,0,0
26588000,-0.016613752,-0.016479123,1.6147147,-1.8853996e-14,0.69141215,0.00020930615,-0.011697789,0.72236586,0.0,0.0,-0.70765615,0,0
26636000,-0.01680441,-0.016849617,1.6147147,-1.5586966e-14,0.69141227,0.0002772272,-0.011894712,0.72236246,0.0,0.0,-0.70793056,0,0
26692000,-0.01711162,-0.016370868,1.6147147,-1.7897291e-14,0.69141215,-1.9154143e-06,-0.011840191,0.72236353,0.0,0.0,-0.7081789,0,0
26740000,-0.01693152,-0.01657506,1.6147147,-1.4796041e-14,0.6914122,0.0001341066,-0.011845724,0.7223633,0.0,0.0,-0.70750093,0,0
26788000,-0.016727349,-0.016440134,1.6147147,-7.281057e-15,0.69141215,0.00015595001,-0.011725341,0.7223654,0.0,0.0,-0.7069146,0,0
26844000,-0.016788585,-0.01707615,1.6147147,-8.360266e-15,0.69141227,0.00036452737,-0.0119672995,0.7223612,0.0,0.0,-0.70648855,0,0
26892000,-0.016771333,-0.016991653,1.6147147,-6.9115953e-15,0.69141227,0.0003399705,-0.011931861,0.72236186,0.0,0.0,-0.7066692,0,0
26940000,-0.017237637,-0.017023178,1.6147147,-5.7139513e-15,0.6914123,0.00019015331,-0.0121111795,0.72235876,0.0,0.0,-0.7070843,0,0
26988000,-0.017033076,-0.017186278,1.6147147,-2.8118065e-15,0.6914123,0.00031978922,-0.012093672,0.722359,0.0,0.0,-0.7073879,0,0
27044000,-0.017655697,-0.017365243,1.6147147,-3.2285768e-15,0.6914124,0.00016919216,-0.012380409,0.7223542,0.0,0.0,-0.70774543,0,0
27092000,-0.017703183,-0.017223625,1.6147147,-2.6691274e-15,0.6914124,0.00010161929,-0.012348609,0.7223548,0.0,0.0,-0.7081116,0,0
27140000,-0.017331712,-0.01725527,1.6147147,-2.2066197e-15,0.6914124,0.00024147074,-0.012225379,0.7223568,0.0,0.0,-0.7069942,0,0
27196000,-0.016670415,-0.017212322,1.6147147,-1.0858666e-15,0.69141227,0.00045457002,-0.011971688,0.722361,0.0,0.0,-0.70635206,0,0
27244000,-0.016891094,-0.01698529,1.6147147,-1.2468153e-15,0.69141227,0.00029626954,-0.011972918,0.72236115,0.0,0.0,-0.7060469,0,0
27292000,-0.01699584,-0.016677963,1.6147147,-1.0307667e-15,0.69141227,0.00014904197,-0.011904521,0.72236234,0.0,0.0,-0.7060547,0,0
27340000,-0.017576024,-0.017152954,1.6147147,-8.52155e-16,0.6914124,0.00012005009,-0.012278253,0.72235596,0.0,0.0,-0.7064776,0,0
27388000,-0.017496016,-0.01738609,1.6147147,-4.193412e-16,0.6914124,0.00023192534,-0.012329943,0.722355,0.0,0.0,-0.70701945,0,0
27436000,-0.017881976,-0.017626118,1.6147147,-3.4667756e-16,0.6914125,0.00018520106,-0.012552306,0.7223512,0.0,0.0,-0.707511,0,0
27492000,-0.018104106,-0.017305117,1.6147147,-3.9806263e-16,0.69141245,-7.545813e-06,-0.01252158,0.72235173,0.0,0.0,-0.70812714,0,0
27540000,-0.017269729,-0.017355131,1.6147147,-3.2908617e-16,0.6914124,0.00029897087,-0.01223751,0.72235656,0.0,0.0,-0.7076272,0,0
27588000,-0.017377868,-0.01778797,1.6147147,-1.6194165e-16,0.69141245,0.0004179413,-0.012426179,0.7223533,0.0,0.0,-0.7073432,0,0
27636000,-0.017345397,-0.01806222,1.6147147,-1.3388032e-16,0.69141245,0.0005282332,-0.012509247,0.72235185,0.0,0.0,-0.7075898,0,0
27692000,-0.017257439,-0.01812655,1.6147147,-1.5372428e-16,0.6914124,0.00058187824,-0.012499714,0.7223519,0.0,0.0,-0.7080059,0,0
27740000,-0.017596535,-0.018119566,1.6147147,-1.2708686e-16,0.6914125,0.00046212846,-0.012619773,0.7223499,0.0,0.0,-0.7084737,0,0
27788000,-0.017552564,-0.018361304,1.6147147,-6.253881e-17,0.6914125,0.0005646529,-0.012687447,0.7223486,0.0,0.0,-0.7087439,0,0
27836000,-0.017645394,-0.018531296,1.6147147,-5.1702057e-17,0.6914125,0.0005939674,-0.012779733,0.7223469,0.0,0.0,-0.70907485,0,0
27892000,-0.018003093,-0.018431475,1.6147147,-5.9365416e-17,0.6914126,0.0004342505,-0.012874423,0.7223452,0.0,0.0,-0.7092486,0,0
27940000,-0.01751947,-0.018210465,1.6147147,-4.907855e-17,0.6914125,0.00052160665,-0.012623358,0.7223497,0.0,0.0,-0.70817614,0,0
27988000,-0.017088627,-0.018197538,1.6147147,-2.415131e-17,0.6914123,0.0006658824,-0.012463279,0.72235256,0.0,0.0,-0.70731384,0,0
28036000,-0.017014354,-0.018481145,1.6147147,-1.996636e-17,0.6914123,0.0007940043,-0.012534481,0.7223512,0.0,0.0,-0.7070584,0,0
28092000,-0.017040914,-0.018365996,1.6147147,-2.2925805e-17,0.6914123,0.000743227,-0.012504273,0.7223518,0.0,0.0,-0.70737064,0,0
28140000,-0.017096652,-0.01818672,1.6147147,-1.8953211e-17,0.6914124,0.00065919996,-0.012462438,0.7223525,0.0,0.0,-0.7076671,0,0
28188000,-0.017431796,-0.017902415,1.6147147,-9.32678e-18,0.69141245,0.00044063802,-0.0124852145,0.7223523,0.0,0.0,-0.7080967,0,0
28236000,-0.017658561,-0.018006224,1.6147147,-7.710631e-18,0.6914125,0.00039974353,-0.012602999,0.7223501,0.0,0.0,-0.7086962,0,0
28292000,-0.017585762,-0.017844982,1.6147147,-8.853513e-18,0.6914125,0.00036666627,-0.012520972,0.7223516,0.0,0.0,-0.70903796,0,0
28340000,-0.017118718,-0.017954692,1.6147147,-7.319372e-18,0.6914124,0.00056775514,-0.012390207,0.7223539,0.0,0.0,-0.7077163,0,0
28388000,-0.016812714,-0.017895095,1.6147147,-3.6018265e-18,0.69141227,0.00065201457,-0.012259087,0.72235614,0.0,0.0,-0.706889,0,0
28444000,-0.01659581,-0.018257143,1.6147147,-4.1356946e-18,0.69141215,0.00085778226,-0.012305887,0.72235525,0.0,0.0,-0.7064647,0,0
28492000,-0.016597923,-0.018287849,1.6147147,-3.4190592e-18,0.69141215,0.0008681447,-0.0123172635,0.722355,0.0,0.0,-0.7063339,0,0
28540000,-0.016993804,-0.018344712,1.6147147,-2.8266031e-18,0.6914123,0.00075182616,-0.012479901,0.7223522,0.0,0.0,-0.7065498,0,0
28588000,-0.017150918,-0.018168397,1.6147147,-1.3909572e-18,0.6914124,0.0006338207,-0.012475706,0.7223523,0.0,0.0,-0.70683235,0,0
28636000,-0.01744554,-0.018153671,1.6147147,-1.1499316e-18,0.69141245,0.00052664976,-0.012577026,0.7223506,0.0,0.0,-0.7075851,0,0
28692000,-0.017618828,-0.01782572,1.6147147,-1.3203762e-18,0.6914125,0.00034827588,-0.012526257,0.72235155,0.0,0.0,-0.70813996,0,0
28740000,-0.017476697,-0.018113809,1.6147147,-1.0915808e-18,0.69141245,0.0005014787,-0.0125745,0.72235066,0.0,0.0,-0.70724547,0,0
28788000,-0.016976167,-0.018165173,1.6147147,-5.371614e-19,0.6914123,0.0006930686,-0.012411474,0.7223534,0.0,0.0,-0.7066249,0,0
28844000,-0.016783668,-0.018215986,1.6147147,-6.167803e-19,0.69141227,0.00077797123,-0.012359511,0.72235423,0.0,0.0,-0.7066547,0,0
28892000,-0.016984371,-0.018350197,1.6147147,-5.099043e-19,0.6914123,0.0007570673,-0.01247839,0.72235227,0.0,0.0,-0.70695627,0,0
28940000,-0.016698787,-0.017791586,1.6147147,-4.215479e-19,0.69141227,0.0006540101,-0.012182159,0.72235745,0.0,0.0,-0.70741737,0,0
28988000,-0.017267155,-0.017925423,1.6147147,-2.0744158e-19,0.6914124,0.0005058685,-0.012433702,0.7223531,0.0,0.0,-0.7078795,0,0
29036000,-0.017304888,-0.017761907,1.6147147,-1.7149602e-19,0.6914124,0.000433757,-0.012390813,0.7223539,0.0,0.0,-0.70853347,0,0
29092000,-0.0176273,-0.017824043,1.6147147,-1.9691542e-19,0.69141245,0.00034474075,-0.012528737,0.72235155,0.0,0.0,-0.7089291,0,0
29140000,-0.017116468,-0.017376415,1.6147147,-1.6279384e-19,0.6914124,0.00035964246,-0.012189513,0.72235745,0.0,0.0,-0.7070243,0,0
29196000,-0.01668622,-0.017431138,1.6147147,-8.011003e-20,0.69141227,0.00052814913,-0.0120530315,0.72235966,0.0,0.0,-0.70566607,0,0
29244000,-0.016527835,-0.017890623,1.6147147,-9.198406e-20,0.69141215,0.0007488839,-0.01215465,0.7223579,0.0,0.0,-0.7052441,0,0
29292000,-0.015961807,-0.01793468,1.6147147,-7.604503e-20,0.6914119,0.00096047693,-0.01196544,0.7223611,0.0,0.0,-0.7054076,0,0
29340000,-0.015852463,-0.017975105,1.6147147,-6.2867904e-20,0.69141185,0.0010128815,-0.01193992,0.72236145,0.0,0.0,-0.70589256,0,0
29396000,-0.015874414,-0.01743009,1.6147147,-3.093698e-20,0.691412,0.00080841617,-0.011759462,0.7223646,0.0,0.0,-0.70660955,0,0
29444000,-0.016301082,-0.017593028,1.6147147,-3.552251e-20,0.6914121,0.0007197735,-0.011969887,0.7223611,0.0,0.0,-0.7075407,0,0
29492000,-0.016896624,-0.017832618,1.6147147,-2.9367154e-20,0.6914123,0.00060043845,-0.012267796,0.722356,0.0,0.0,-0.707964,0,0
29540000,-0.016612414,-0.017627079,1.6147147,-2.42784e-20,0.69141227,0.0006244438,-0.012094101,0.7223589,0.0,0.0,-0.7069343,0,0
29596000,-0.01611879,-0.017321767,1.6147147,-1.1947278e-20,0.6914121,0.0006848051,-0.01181028,0.7223637,0.0,0.0,-0.7061437,0,0
29644000,-0.01591807,-0.017746525,1.6147147,-1.3718122e-20,0.691412,0.0009076305,-0.011884606,0.72236246,0.0,0.0,-0.706201,0,0
29692000,-0.01591472,-0.017762963,1.6147147,-1.13410396e-20,0.6914119,0.00091472716,-0.011889078,0.72236234,0.0,0.0,-0.7064891,0,0
29740000,-0.015706407,-0.018083094,1.6147147,-9.375859e-21,0.6914118,0.0011023821,-0.011924493,0.7223617,0.0,0.0,-0.70700014,0,0
29788000,-0.015941514,-0.017906168,1.6147147,-4.6138127e-21,0.6914119,0.0009571943,-0.011948255,0.7223614,0.0,0.0,-0.70757616,0,0
29836000,-0.016326413,-0.018054826,1.6147147,-3.8143293e-21,0.6914121,0.0008778309,-0.012138655,0.72235805,0.0,0.0,-0.70813316,0,0
29892000,-0.016528439,-0.018621568,1.6147147,-4.379695e-21,0.69141203,0.0010127135,-0.01240752,0.7223534,0.0,0.0,-0.7086016,0,0
29940000,-0.01636348,-0.018290486,1.6147147,-3.6207796e-21,0.6914121,0.0009501452,-0.012233499,0.7223564,0.0,0.0,-0.70812273,0,0
29988000,-0.016415486,-0.018829167,1.6147147,-1.7817674e-21,0.6914119,0.0011267536,-0.012438482,0.72235286,0.0,0.0,-0.70765954,0,0
30036000,-0.016010977,-0.018545263,1.6147147,-1.473022e-21,0.6914118,0.0011640391,-0.012194249,0.72235703,0.0,0.0,-0.70754945,0,0
30092000,-0.016125597,-0.018743856,1.6147147,-1.6913555e-21,0.6914118,0.0011961533,-0.012304291,0.7223551,0.0,0.0,-0.7079786,0,0
30140000,-0.016000517,-0.01853179,1.6147147,-1.3982767e-21,0.6914118,0.0011627891,-0.012185813,0.7223572,0.0,0.0,-0.7080496,0,0
30196000,-0.01587806,-0.018485852,1.6147147,-6.8808497e-22,0.69141173,0.0011885294,-0.012125706,0.7223582,0.0,0.0,-0.7084836,0,0
30236000,-0.015927438,-0.01863946,1.6147147,-5.6885333e-22,0.6914117,0.0012269476,-0.012196635,0.72235703,0.0,0.0,-0.70875144,0,0
30292000,-0.016044786,-0.018730499,1.6147147,-6.531696e-22,0.69141173,0.0012192643,-0.012270487,0.7223557,0.0,0.0,-0.70900536,0,0
30340000,-0.015617653,-0.017881917,1.6147147,-5.399881e-22,0.6914118,0.0010603939,-0.0118229,0.72236335,0.0,0.0,-0.70745593,0,0
30396000,-0.015587188,-0.017184807,1.6147147,-2.657254e-22,0.6914119,0.0008191086,-0.011570936,0.7223677,0.0,0.0,-0.7063993,0,0
30436000,-0.015288981,-0.017157814,1.6147147,-2.196804e-22,0.6914118,0.0009124499,-0.011453897,0.72236955,0.0,0.0,-0.70621794,0,0
30492000,-0.015310192,-0.017229086,1.6147147,-2.5224177e-22,0.6914118,0.00093086256,-0.011486193,0.7223691,0.0,0.0,-0.706292,0,0
30540000,-0.015134544,-0.01707913,1.6147147,-2.085332e-22,0.69141173,0.00093741674,-0.011370919,0.7223709,0.0,0.0,-0.7067865,0,0
30596000,-0.015261594,-0.017182173,1.6147147,-1.0261815e-22,0.6914118,0.0009307174,-0.011452425,0.72236955,0.0,0.0,-0.7074735,0,0
30644000,-0.015487899,-0.017446043,1.6147147,-1.1782837e-22,0.6914118,0.0009477999,-0.011625372,0.72236675,0.0,0.0,-0.7080353,0,0
30692000,-0.015647398,-0.017430147,1.6147147,-9.7411006e-23,0.6914119,0.0008869166,-0.011677487,0.72236586,0.0,0.0,-0.70864457,0,0
30740000,-0.015368069,-0.017076539,1.6147147,-8.0531585e-23,0.69141185,0.0008557501,-0.011454369,0.72236955,0.0,0.0,-0.7075027,0,0
30796000,-0.014906502,-0.017080724,1.6147147,-3.9629182e-23,0.6914116,0.0010168272,-0.011289105,0.7223722,0.0,0.0,-0.7065682,0,0
30844000,-0.01524562,-0.016693251,1.6147147,-4.550308e-23,0.69141185,0.0007596271,-0.011277656,0.7223725,0.0,0.0,-0.7063879,0,0
30892000,-0.015559899,-0.016806435,1.6147147,-3.7618287e-23,0.6914119,0.00069186353,-0.011430291,0.7223701,0.0,0.0,-0.7065452,0,0
30940000,-0.015555841,-0.016674887,1.6147147,-3.1099775e-23,0.6914119,0.00064574706,-0.011383356,0.72237086,0.0,0.0,-0.7070947,0,0
30996000,-0.015535019,-0.017044147,1.6147147,-1.5304044e-23,0.6914119,0.00078633375,-0.011503473,0.7223688,0.0,0.0,-0.70749223,0,0
31036000,-0.015607257,-0.017149206,1.6147147,-1.2652152e-23,0.6914119,0.0007993106,-0.011565879,0.72236776,0.0,0.0,-0.70782584,0,0
31092000,-0.015893685,-0.017494492,1.6147147,-1.4527472e-23,0.691412,0.00082501915,-0.011788682,0.722364,0.0,0.0,-0.70840055,0,0
31140000,-0.016253036,-0.016717732,1.6147147,-1.2010145e-23,0.69141215,0.0004201997,-0.01164998,0.72236645,0.0,0.0,-0.7062189,0,0
31188000,-0.016564302,-0.016966669,1.6147147,-5.9101325e-24,0.6914122,0.00040251712,-0.01184845,0.7223632,0.0,0.0,-0.7047722,0,0
