timestamp,timestamp_sample,gps_hvel[0],gps_hvel[1],gps_vvel,gps_hpos[0],gps_hpos[1],gps_vpos,ev_hvel[0],ev_hvel[1],ev_vvel,ev_hpos[0],ev_hpos[1],ev_vpos,rng_vpos,baro_vpos,aux_hvel[0],aux_hvel[1],aux_vvel,flow[0],flow[1],terr_flow[0],terr_flow[1],heading,mag_field[0],mag_field[1],mag_field[2],gravity[0],gravity[1],gravity[2],drag[0],drag[1],airspeed,beta,hagl,hagl_rate
3644000,3564000,4.2760817e-06,0.0,0.00031540662,2.386792e-11,0.0,94.354546,0.0,0.0,0.0,0.0,0.0,0.0,0.0,1.0937942e-05,0.0,0.0,nan,0.0,0.0,0.0,0.0,0.0,0.0,0.0,0.0,0.00057368836,0.0,0.0,0.0,0.0,0.0,0.0,0.0,0.0
4148000,4068000,1.6380784e-06,0.0,2.8818973e-05,9.578651e-10,0.0,277.57462,0.0,0.0,0.0,0.0,0.0,0.0,0.0,7.386654e-07,0.0,0.0,nan,0.0,0.0,0.0,0.0,0.0,0.0,0.0,0.0,0.00030550643,0.0,0.0,0.0,0.0,0.0,0.0,0.0,0.0
4644000,4564000,3.831432e-06,0.0,0.0001337963,5.713086e-09,0.0,1.7798214e-10,0.0,0.0,0.0,0.0,0.0,0.0,0.0,1.1886283e-05,0.0,0.0,nan,0.0,0.0,0.0,0.0,0.0,0.0,0.0,0.0,0.0006116473,0.0,0.0,0.0,0.0,0.0,0.0,0.0,0.0
5148000,5068000,3.2895089e-06,0.0,3.339587e-06,2.5485522e-06,0.0,4.549103e-06,0.0,0.0,0.0,0.0,0.0,0.0,0.0,1.6646861e-06,0.0,0.0,nan,0.0,0.0,0.0,0.0,0.0,0.0,0.0,0.0,0.00028222616,0.0,0.0,0.0,0.0,0.0,0.0,0.0,0.0
5644000,5564000,5.5434655e-05,0.0,0.00034153817,2.2832946e-06,0.0,2.8608865e-06,0.0,0.0,0.0,0.0,0.0,0.0,0.0,5.992419e-07,0.0,0.0,nan,0.0,0.0,0.0,0.0,0.0,0.0,0.0,0.0,0.00038912258,0.0,0.0,0.0,0.0,0.0,0.0,0.0,0.0
6140000,6060000,3.8626025e-05,0.0,1.2746165e-05,2.1565054e-06,0.0,8.220397e-06,0.0,0.0,0.0,0.0,0.0,0.0,0.0,4.689636e-07,0.0,0.0,nan,0.0,0.0,0.0,0.0,0.0,0.0,0.0,0.0,0.00065125537,0.0,0.0,0.0,0.0,0.0,0.0,0.0,0.0
6644000,6564000,1.2595392e-07,0.0,2.044473e-05,2.2725822e-06,0.0,4.2205406e-06,0.0,0.0,0.0,0.0,0.0,0.0,0.0,4.6795303e-05,0.0,0.0,nan,0.0,0.0,0.0,0.0,0.0,0.0,0.0,0.0,0.0005438255,0.0,0.0,0.0,0.0,0.0,0.0,0.0,0.0
7140000,7060000,8.44625e-05,0.0,3.928313e-06,2.0823395e-06,0.0,2.1798684e-05,0.0,0.0,0.0,0.0,0.0,0.0,0.0,1.2879156e-06,0.0,0.0,nan,0.0,0.0,0.0,0.0,0.0,0.0,0.0,0.0,0.00026679962,0.0,0.0,0.0,0.0,0.0,0.0,0.0,0.0
7644000,7564000,3.381237e-05,0.0,0.00055488705,1.8761672e-06,0.0,1.6278742e-05,0.0,0.0,0.0,0.0,0.0,0.0,0.0,2.2207498e-06,0.0,0.0,nan,0.0,0.0,0.0,0.0,0.0,0.0,0.0,0.0,0.00073910196,0.0,0.0,0.0,0.0,0.0,0.0,0.0,0.0
8140000,8060000,3.804777e-05,0.0,9.208305e-05,1.6449708e-06,0.0,1.27524745e-05,0.0,0.0,0.0,0.0,0.0,0.0,0.0,8.801917e-07,0.0,0.0,nan,0.0,0.0,0.0,0.0,0.0,0.0,0.0,0.0,0.00088911137,0.0,0.0,0.0,0.0,0.0,0.0,0.0,0.0
8644000,8564000,0.0002061229,0.0,2.369647e-06,2.0408283e-06,0.0,1.3552343e-05,0.0,0.0,0.0,0.0,0.0,0.0,0.0,3.2724727e-06,0.0,0.0,nan,0.0,0.0,0.0,0.0,0.0,0.0,0.0,0.0,8.68495e-05,0.0,0.0,0.0,0.0,0.0,0.0,0.0,0.0
9148000,9068000,3.2287292e-06,0.0,1.452962e-05,1.968418e-06,0.0,1.6229592e-07,0.0,0.0,0.0,0.0,0.0,0.0,0.0,1.1945681e-07,0.0,0.0,nan,0.0,0.0,0.0,0.0,0.0,0.0,0.0,0.0,0.0007519221,0.0,0.0,0.0,0.0,0.0,0.0,0.0,0.0
9644000,9564000,0.0002254744,0.0,9.2868945e-08,1.8958276e-06,0.0,1.3778501e-07,0.0,0.0,0.0,0.0,0.0,0.0,0.0,3.3702013e-06,0.0,0.0,nan,0.0,0.0,0.0,0.0,0.0,0.0,0.0,0.0,7.921583e-05,0.0,0.0,0.0,0.0,0.0,0.0,0.0,0.0
10148000,10068000,0.00024686457,0.0,0.00019123658,1.9127663e-06,0.0,1.9641711e-06,0.0,0.0,0.0,0.0,0.0,0.0,0.0,1.8802946e-05,0.0,0.0,nan,0.0,0.0,0.0,0.0,0.0,0.0,0.0,0.0,0.0007599433,0.0,0.0,0.0,0.0,0.0,0.0,0.0,0.0
10644000,10564000,0.00017420844,0.0,3.3919598e-06,8.68853e-06,0.0,7.068808e-07,0.0,0.0,0.0,0.0,0.0,0.0,0.0,4.040752e-06,0.0,0.0,nan,0.0,0.0,0.0,0.0,0.0,0.0,0.0,0.0,6.0832805e-05,0.0,0.0,0.0,0.0,0.0,0.0,0.0,0.0
11148000,11068000,0.00012833958,0.0,8.27539e-07,2.5660954e-06,0.0,4.0243557e-07,0.0,0.0,0.0,0.0,0.0,0.0,0.0,1.2888324e-05,0.0,0.0,nan,0.0,0.0,0.0,0.0,0.0,0.0,0.0,0.0,0.00026194716,0.0,0.0,0.0,0.0,0.0,0.0,0.0,0.0
11644000,11564000,6.565026e-05,0.0,1.6773745e-05,2.6278292e-06,0.0,1.5079539e-05,0.0,0.0,0.0,0.0,0.0,0.0,0.0,1.8896362e-06,0.0,0.0,nan,0.0,0.0,0.0,0.0,0.0,0.0,0.0,0.0,0.00020769383,0.0,0.0,0.0,0.0,0.0,0.0,0.0,0.0
12148000,12068000,4.4353815e-06,0.0,3.6132064e-05,4.577481e-06,0.0,1.192718e-05,0.0,0.0,0.0,0.0,0.0,0.0,0.0,7.1392005e-06,0.0,0.0,nan,0.0,0.0,0.0,0.0,0.0,0.0,0.0,0.0,7.261204e-05,0.0,0.0,0.0,0.0,0.0,0.0,0.0,0.0
12644000,12564000,2.9477558e-06,0.0,2.805407e-05,2.3772961e-06,0.0,2.8292347e-06,0.0,0.0,0.0,0.0,0.0,0.0,0.0,1.1940772e-05,0.0,0.0,nan,0.0,0.0,0.0,0.0,0.0,0.0,0.0,0.0,0.00058508787,0.0,0.0,0.0,0.0,0.0,0.0,0.0,0.0
13140000,13060000,4.045777e-05,0.0,2.5968993e-06,1.6060376e-06,0.0,6.428249e-06,0.0,0.0,0.0,0.0,0.0,0.0,0.0,2.1791598e-06,0.0,0.0,nan,0.0,0.0,0.0,0.0,0.0,0.0,0.0,0.0,0.0006455139,0.0,0.0,0.0,0.0,0.0,0.0,0.0,0.0
13644000,13564000,0.00043970958,0.0,0.00021328907,1.6311851e-06,0.0,1.1742538e-05,0.0,0.0,0.0,0.0,0.0,0.0,0.0,3.9473657e-06,0.0,0.0,nan,0.0,0.0,0.0,0.0,0.0,0.0,0.0,0.0,0.0005830834,0.0,0.0,0.0,0.0,0.0,0.0,0.0,0.0
14148000,14068000,7.574762e-05,0.0,8.3736166e-05,8.161413e-06,0.0,1.1290262e-05,0.0,0.0,0.0,0.0,0.0,0.0,0.0,2.5809677e-05,0.0,0.0,nan,0.0,0.0,0.0,0.0,0.0,0.0,0.0,0.0,0.00120198,0.0,0.0,0.0,0.0,0.0,0.0,0.0,0.0
14644000,14564000,3.175718e-05,0.0,8.093952e-05,7.2608644e-09,0.0,1.4595998e-05,0.0,0.0,0.0,0.0,0.0,0.0,0.0,1.8060602e-05,0.0,0.0,nan,0.0,0.0,0.0,0.0,0.0,0.0,0.0,0.0,0.0004407272,0.0,0.0,0.0,0.0,0.0,0.0,0.0,0.0
15148000,15068000,0.00014374407,0.0,0.00013874994,2.3682417e-06,0.0,8.697226e-06,0.0,0.0,0.0,0.0,0.0,0.0,0.0,7.82316e-06,0.0,0.0,nan,0.0,0.0,0.0,0.0,0.0,0.0,0.0,0.0,0.00011523686,0.0,0.0,0.0,0.0,0.0,0.0,0.0,0.0
15644000,15564000,6.2160485e-05,0.0,1.3692477e-05,2.2175118e-06,0.0,2.0407124e-05,0.0,0.0,0.0,0.0,0.0,0.0,0.0,8.797183e-06,0.0,0.0,nan,0.0,0.0,0.0,0.0,0.0,0.0,0.0,0.0,0.0035532974,0.0,0.0,0.0,0.0,0.0,0.0,0.0,0.0
16140000,16060000,9.066821e-07,0.0,8.804312e-05,1.3122748e-07,0.0,2.5992824e-06,0.0,0.0,0.0,0.0,0.0,0.0,0.0,2.836582e-05,0.0,0.0,nan,0.0,0.0,0.0,0.0,0.0,0.0,0.0,0.0,0.00061866135,0.0,0.0,0.0,0.0,0.0,0.0,0.0,0.0
16644000,16564000,3.9789284e-05,0.0,0.000108533684,3.380047e-07,0.0,1.018898e-05,0.0,0.0,0.0,0.0,0.0,0.0,0.0,6.754623e-06,0.0,0.0,nan,0.0,0.0,0.0,0.0,0.0,0.0,0.0,0.0,0.00055083324,0.0,0.0,0.0,0.0,0.0,0.0,0.0,0.0
17148000,17068000,1.0670788e-05,0.0,3.467745e-05,5.5028618e-06,0.0,2.1444994e-05,0.0,0.0,0.0,0.0,0.0,0.0,0.0,6.3143466e-06,0.0,0.0,nan,0.0,0.0,0.0,0.0,0.0,0.0,0.0,0.0,0.00047152492,0.0,0.0,0.0,0.0,0.0,0.0,0.0,0.0
17644000,17564000,0.00010944412,0.0,0.0006030405,8.300246e-06,0.0,4.8417736e-05,0.0,0.0,0.0,0.0,0.0,0.0,0.0,1.2101132e-06,0.0,0.0,nan,0.0,0.0,0.0,0.0,0.0,0.0,0.0,0.0,0.00019996888,0.0,0.0,0.0,0.0,0.0,0.0,0.0,0.0
18140000,18060000,1.2929711e-05,0.0,8.094948e-06,1.071571e-05,0.0,6.610321e-05,0.0,0.0,0.0,0.0,0.0,0.0,0.0,1.1437124e-05,0.0,0.0,nan,0.0,0.0,0.0,0.0,0.0,0.0,0.0,0.0,0.0055386866,0.0,0.0,0.0,0.0,0.0,0.0,0.0,0.0
18644000,18564000,0.00029274818,0.0,6.250836e-05,3.161526e-06,0.0,5.71786e-05,0.0,0.0,0.0,0.0,0.0,0.0,0.0,2.0153907e-07,0.0,0.0,nan,0.0,0.0,0.0,0.0,0.0,0.0,0.0,0.0,0.008621875,0.0,0.0,0.0,0.0,0.0,0.0,0.0,0.0
19148000,19068000,0.0036136352,0.0,0.00016042737,0.0004589618,0.0,5.3383195e-05,0.0,0.0,0.0,0.0,0.0,0.0,0.0,3.3622794e-06,0.0,0.0,nan,0.0,0.0,0.0,0.0,0.0,0.0,0.0,0.0,0.03901889,0.0,0.0,0.0,0.0,0.0,0.0,0.0,0.0
19644000,19564000,0.00050204934,0.0,3.9922314e-05,0.000633341,0.0,8.520321e-05,0.0,0.0,0.0,0.0,0.0,0.0,0.0,2.8240574e-05,0.0,0.0,nan,0.0,0.0,0.0,0.0,0.0,0.0,0.0,0.0,0.058398258,0.0,0.0,0.0,0.0,0.0,0.0,0.0,0.0
20140000,20060000,8.315345e-05,0.0,0.00038754882,0.0005361177,0.0,8.6257176e-05,0.0,0.0,0.0,0.0,0.0,0.0,0.0,2.1050892e-05,0.0,0.0,nan,0.0,0.0,0.0,0.0,0.0,0.0,0.0,0.0,0.027084447,0.0,0.0,0.0,0.0,0.0,0.0,0.0,0.0
20644000,20564000,0.00096727966,0.0,0.00048255577,0.00027783235,0.0,0.00016205285,0.0,0.0,0.0,0.0,0.0,0.0,0.0,4.552818e-06,0.0,0.0,nan,0.0,0.0,0.0,0.0,0.0,0.0,0.0,0.0,0.0056053624,0.0,0.0,0.0,0.0,0.0,0.0,0.0,0.0
21140000,21060000,0.002284312,0.0,7.820266e-05,0.00011216608,0.0,0.00021251569,0.0,0.0,0.0,0.0,0.0,0.0,0.0,1.040296e-06,0.0,0.0,nan,0.0,0.0,0.0,0.0,0.0,0.0,0.0,0.0,0.0014042521,0.0,0.0,0.0,0.0,0.0,0.0,0.0,0.0
21644000,21564000,0.002256371,0.0,0.0018221528,0.00010078359,0.0,0.00027993927,0.0,0.0,0.0,0.0,0.0,0.0,0.0,3.567195e-05,0.0,0.0,nan,0.0,0.0,0.0,0.0,0.0,0.0,0.0,0.0,0.0031030343,0.0,0.0,0.0,0.0,0.0,0.0,0.0,0.0
22140000,22060000,0.0016787329,0.0,0.00015188279,8.999607e-05,0.0,0.00026467867,0.0,0.0,0.0,0.0,0.0,0.0,0.0,3.559859e-06,0.0,0.0,nan,0.0,0.0,0.0,0.0,0.0,0.0,0.0,0.0,0.0014988875,0.0,0.0,0.0,0.0,0.0,0.0,0.0,0.0
22644000,22564000,0.001979908,0.0,0.0008507357,8.126052e-05,0.0,0.0002418289,0.0,0.0,0.0,0.0,0.0,0.0,0.0,2.9079317e-06,0.0,0.0,nan,0.0,0.0,0.0,0.0,0.0,0.0,0.0,0.0,0.001313975,0.0,0.0,0.0,0.0,0.0,0.0,0.0,0.0
23140000,23060000,0.0006436265,0.0,0.00020086767,0.00013633113,0.0,0.00033509673,0.0,0.0,0.0,0.0,0.0,0.0,0.0,1.4673251e-05,0.0,0.0,nan,0.0,0.0,0.0,0.0,0.0,0.0,0.0,0.0,0.0031918513,0.0,0.0,0.0,0.0,0.0,0.0,0.0,0.0
23644000,23564000,0.00033591938,0.0,6.710891e-05,0.00013452771,0.0,0.00033346046,0.0,0.0,0.0,0.0,0.0,0.0,0.0,1.8420804e-05,0.0,0.0,nan,0.0,0.0,0.0,0.0,0.0,0.0,0.0,0.0,0.00020688502,0.0,0.0,0.0,0.0,0.0,0.0,0.0,0.0
24148000,24068000,0.0003117107,0.0,2.684702e-06,0.00011795244,0.0,0.00035318133,0.0,0.0,0.0,0.0,0.0,0.0,0.0,1.3830895e-06,0.0,0.0,nan,0.0,0.0,0.0,0.0,0.0,0.0,0.0,0.0,0.00067453686,0.0,0.0,0.0,0.0,0.0,0.0,0.0,0.0
24644000,24564000,8.106364e-05,0.0,0.00024666908,0.00010475802,0.0,0.00041071535,0.0,0.0,0.0,0.0,0.0,0.0,0.0,1.94778e-06,0.0,0.0,nan,0.0,0.0,0.0,0.0,0.0,0.0,0.0,0.0,0.00051130936,0.0,0.0,0.0,0.0,0.0,0.0,0.0,0.0
25140000,25060000,0.0006620344,0.0,0.0006207299,9.569698e-05,0.0,0.0003829166,0.0,0.0,0.0,0.0,0.0,0.0,0.0,1.5275944e-05,0.0,0.0,nan,0.0,0.0,0.0,0.0,0.0,0.0,0.0,0.0,0.0015285211,0.0,0.0,0.0,0.0,0.0,0.0,0.0,0.0
25644000,25564000,0.00089096144,0.0,0.0010439059,9.52252e-05,0.0,0.0005090073,0.0,0.0,0.0,0.0,0.0,0.0,0.0,1.4183551e-05,0.0,0.0,nan,0.0,0.0,0.0,0.0,0.0,0.0,0.0,0.0,0.0004690093,0.0,0.0,0.0,0.0,0.0,0.0,0.0,0.0
26148000,26068000,0.0006607258,0.0,0.0012436608,9.219787e-05,0.0,0.0005346376,0.0,0.0,0.0,0.0,0.0,0.0,0.0,1.7679315e-05,0.0,0.0,nan,0.0,0.0,0.0,0.0,0.0,0.0,0.0,0.0,0.0012103729,0.0,0.0,0.0,0.0,0.0,0.0,0.0,0.0
26644000,26564000,0.00033745158,0.0,0.00051100296,8.825129e-05,0.0,0.0004939401,0.0,0.0,0.0,0.0,0.0,0.0,0.0,5.1215426e-05,0.0,0.0,nan,0.0,0.0,0.0,0.0,0.0,0.0,0.0,0.0,0.0004701258,0.0,0.0,0.0,0.0,0.0,0.0,0.0,0.0
27140000,27060000,0.00027807528,0.0,0.0016683557,8.041462e-05,0.0,0.0006345095,0.0,0.0,0.0,0.0,0.0,0.0,0.0,2.5377069e-05,0.0,0.0,nan,0.0,0.0,0.0,0.0,0.0,0.0,0.0,0.0,0.00045615452,0.0,0.0,0.0,0.0,0.0,0.0,0.0,0.0
27644000,27564000,0.00013445386,0.0,0.00056960684,7.567684e-05,0.0,0.0006192539,0.0,0.0,0.0,0.0,0.0,0.0,0.0,3.3029096e-06,0.0,0.0,nan,0.0,0.0,0.0,0.0,0.0,0.0,0.0,0.0,0.0011006462,0.0,0.0,0.0,0.0,0.0,0.0,0.0,0.0
28140000,28060000,0.00018687906,0.0,0.00092556217,6.2016305e-05,0.0,0.00063481246,0.0,0.0,0.0,0.0,0.0,0.0,0.0,6.7001315e-06,0.0,0.0,nan,0.0,0.0,0.0,0.0,0.0,0.0,0.0,0.0,0.00014849959,0.0,0.0,0.0,0.0,0.0,0.0,0.0,0.0
28644000,28564000,0.00024981325,0.0,0.0018845438,5.695453e-05,0.0,0.00096260634,0.0,0.0,0.0,0.0,0.0,0.0,0.0,4.6350327e-05,0.0,0.0,nan,0.0,0.0,0.0,0.0,0.0,0.0,0.0,0.0,0.00041827172,0.0,0.0,0.0,0.0,0.0,0.0,0.0,0.0
29148000,29068000,0.00018088767,0.0,0.0033533887,6.715721e-05,0.0,0.0011207827,0.0,0.0,0.0,0.0,0.0,0.0,0.0,8.995152e-07,0.0,0.0,nan,0.0,0.0,0.0,0.0,0.0,0.0,0.0,0.0,0.00024593534,0.0,0.0,0.0,0.0,0.0,0.0,0.0,0.0
29644000,29564000,0.00015731856,0.0,0.0013059954,6.860926e-05,0.0,0.0013281181,0.0,0.0,0.0,0.0,0.0,0.0,0.0,2.1905775e-05,0.0,0.0,nan,0.0,0.0,0.0,0.0,0.0,0.0,0.0,0.0,0.00026713233,0.0,0.0,0.0,0.0,0.0,0.0,0.0,0.0
30148000,30068000,0.00010982447,0.0,0.0003172208,6.989164e-05,0.0,0.0013072353,0.0,0.0,0.0,0.0,0.0,0.0,0.0,1.3333087e-05,0.0,0.0,nan,0.0,0.0,0.0,0.0,0.0,0.0,0.0,0.0,9.5317606e-05,0.0,0.0,0.0,0.0,0.0,0.0,0.0,0.0
30644000,30564000,0.00026363353,0.0,0.0020319652,7.073648e-05,0.0,0.0014517781,0.0,0.0,0.0,0.0,0.0,0.0,0.0,5.5262535e-05,0.0,0.0,nan,0.0,0.0,0.0,0.0,0.0,0.0,0.0,0.0,0.00026562792,0.0,0.0,0.0,0.0,0.0,0.0,0.0,0.0
31140000,31060000,0.00023905055,0.0,0.0057346565,8.3189174e-05,0.0,0.0017517726,0.0,0.0,0.0,0.0,0.0,0.0,0.0,5.3663556e-05,0.0,0.0,nan,0.0,0.0,0.0,0.0,0.0,0.0,0.0,0.0,0.0001956015,0.0,0.0,0.0,0.0,0.0,0.0,0.0,0.0
31644000,31564000,0.00013809622,0.0,0.0015496413,9.433072e-05,0.0,0.0018115698,0.0,0.0,0.0,0.0,0.0,0.0,0.0,2.9359939e-05,0.0,0.0,nan,0.0,0.0,0.0,0.0,0.0,0.0,0.0,0.0,0.00038147412,0.0,0.0,0.0,0.0,0.0,0.0,0.0,0.0
32148000,32068000,0.00023638835,0.0,0.0026157072,9.8765915e-05,0.0,0.0019329563,0.0,0.0,0.0,0.0,0.0,0.0,0.0,1.7210881e-05,0.0,0.0,nan,0.0,0.0,0.0,0.0,0.0,0.0,0.0,0.0,0.006725683,0.0,0.0,0.0,0.0,0.0,0.0,0.0,0.0
32644000,32564000,0.00022269662,0.0,0.0014999554,0.000108502,0.0,0.0020224391,0.0,0.0,0.0,0.0,0.0,0.0,0.0,3.5633446e-05,0.0,0.0,nan,0.0,0.0,0.0,0.0,0.0,0.0,0.0,0.0,0.001837179,0.0,0.0,0.0,0.0,0.0,0.0,0.0,0.0
33140000,33060000,0.00029919468,0.0,0.00088749384,0.0001534261,0.0,0.001895178,0.0,0.0,0.0,0.0,0.0,0.0,0.0,2.1344309e-05,0.0,0.0,nan,0.0,0.0,0.0,0.0,0.0,0.0,0.0,0.0,0.0024831083,0.0,0.0,0.0,0.0,0.0,0.0,0.0,0.0
33644000,33564000,0.00026736662,0.0,0.002073478,0.00017330197,0.0,0.0019579679,0.0,0.0,0.0,0.0,0.0,0.0,0.0,2.117813e-06,0.0,0.0,nan,0.0,0.0,0.0,0.0,0.0,0.0,0.0,0.0,0.00078357797,0.0,0.0,0.0,0.0,0.0,0.0,0.0,0.0
34140000,34060000,0.000518863,0.0,0.0077803107,0.00018436408,0.0,0.0019084021,0.0,0.0,0.0,0.0,0.0,0.0,0.0,1.0407247e-09,0.0,0.0,nan,0.0,0.0,0.0,0.0,0.0,0.0,0.0,0.0,0.0032687224,0.0,0.0,0.0,0.0,0.0,0.0,0.0,0.0
34644000,34564000,0.00065521826,0.0,0.002100957,0.00021253404,0.0,0.0022929837,0.0,0.0,0.0,0.0,0.0,0.0,0.0,2.6575442e-05,0.0,0.0,nan,0.0,0.0,0.0,0.0,0.0,0.0,0.0,0.0,0.0005734867,0.0,0.0,0.0,0.0,0.0,0.0,0.0,0.0
35140000,35060000,0.0011209575,0.0,0.0025199312,0.00026304182,0.0,0.0022586773,0.0,0.0,0.0,0.0,0.0,0.0,0.0,5.133085e-07,0.0,0.0,nan,0.0,0.0,0.0,0.0,0.0,0.0,0.0,0.0,0.0014597657,0.0,0.0,0.0,0.0,0.0,0.0,0.0,0.0
35644000,35564000,0.0009808522,0.0,0.00011468198,0.00030386576,0.0,0.0022356515,0.0,0.0,0.0,0.0,0.0,0.0,0.0,1.8514631e-09,0.0,0.0,nan,0.0,0.0,0.0,0.0,0.0,0.0,0.0,0.0,0.00085668935,0.0,0.0,0.0,0.0,0.0,0.0,0.0,0.0
36140000,36060000,0.0015996296,0.0,0.0024254252,0.0003718983,0.0,0.002136377,0.0,0.0,0.0,0.0,0.0,0.0,0.0,7.631947e-07,0.0,0.0,nan,0.0,0.0,0.0,0.0,0.0,0.0,0.0,0.0,0.0042290543,0.0,0.0,0.0,0.0,0.0,0.0,0.0,0.0
36644000,36564000,0.0020138547,0.0,0.0012412765,0.00044954955,0.0,0.0020920068,0.0,0.0,0.0,0.0,0.0,0.0,0.0,1.691648e-05,0.0,0.0,nan,0.0,0.0,0.0,0.0,0.0,0.0,0.0,0.0,0.003474515,0.0,0.0,0.0,0.0,0.0,0.0,0.0,0.0
37148000,37068000,0.0021757127,0.0,0.00063734833,0.00054449314,0.0,0.0015692859,0.0,0.0,0.0,0.0,0.0,0.0,0.0,2.6744098e-07,0.0,0.0,nan,0.0,0.0,0.0,0.0,0.0,0.0,0.0,0.0,0.0057068276,0.0,0.0,0.0,0.0,0.0,0.0,0.0,0.0
37644000,37564000,0.0032454857,0.0,0.00032173746,0.0006346612,0.0,0.0013823148,0.0,0.0,0.0,0.0,0.0,0.0,0.0,5.8104836e-09,0.0,0.0,nan,0.0,0.0,0.0,0.0,0.0,0.0,0.0,0.0,0.003258265,0.0,0.0,0.0,0.0,0.0,0.0,0.0,0.0
38148000,38068000,0.0036226106,0.0,0.00083410885,0.0006514135,0.0,0.0012655932,0.0,0.0,0.0,0.0,0.0,0.0,0.0,1.336352e-05,0.0,0.0,nan,0.0,0.0,0.0,0.0,0.0,0.0,0.0,0.0,0.00013040939,0.0,0.0,0.0,0.0,0.0,0.0,0.0,0.0
38644000,38564000,0.0035332032,0.0,0.000766994,0.000696179,0.0,0.0012481095,0.0,0.0,0.0,0.0,0.0,0.0,0.0,1.0340609e-05,0.0,0.0,nan,0.0,0.0,0.0,0.0,0.0,0.0,0.0,0.0,0.0032545265,0.0,0.0,0.0,0.0,0.0,0.0,0.0,0.0
39148000,39068000,0.0048181214,0.0,0.31995404,0.0007685471,0.0,0.012327768,0.0,0.0,0.0,0.0,0.0,0.0,0.0,0.00031221122,0.0,0.0,nan,0.0,0.0,0.0,0.0,0.0,0.0,0.0,0.0,0.008238124,0.0,0.0,0.0,0.0,0.0,0.0,0.0,0.0
39644000,39564000,0.004779716,0.0,0.32710326,0.00077978533,0.0,0.03441509,0.0,0.0,0.0,0.0,0.0,0.0,0.0,0.0021553962,0.0,0.0,nan,0.0,0.0,0.0,0.0,0.0,0.0,0.0,0.0,0.016825821,0.0,0.0,0.0,0.0,0.0,0.0,0.0,0.0
40140000,40060000,0.0061718817,0.0,0.30907014,0.0007773614,0.0,0.059527233,0.0,0.0,0.0,0.0,0.0,0.0,0.0,0.0033714992,0.0,0.0,nan,0.0,0.0,0.0,0.0,0.0,0.0,0.0,0.0,0.008028467,0.0,0.0,0.0,0.0,0.0,0.0,0.0,0.0
40644000,40564000,0.005943809,0.0,0.2845951,0.00085512595,0.0,0.08358973,0.0,0.0,0.0,0.0,0.0,0.0,0.0,0.0043595633,0.0,0.0,nan,0.0,0.0,0.0,0.0,0.0,0.0,0.0,0.0,0.01212745,0.0,0.0,0.0,0.0,0.0,0.0,0.0,0.0
41140000,41060000,0.009483187,0.0,0.23453544,0.0011125082,0.0,0.123389415,0.0,0.0,0.0,0.0,0.0,0.0,0.0,0.0039624698,0.0,0.0,nan,0.0,0.0,0.0,0.0,0.0,0.0,0.0,0.0,0.010106765,0.0,0.0,0.0,0.0,0.0,0.0,0.0,0.0
41644000,41564000,0.010392728,0.0,0.20925924,0.0013397338,0.0,0.13746904,0.0,0.0,0.0,0.0,0.0,0.0,0.0,0.0062499093,0.0,0.0,nan,0.0,0.0,0.0,0.0,0.0,0.0,0.0,0.0,0.0013371612,0.0,0.0,0.0,0.0,0.0,0.0,0.0,0.0
42140000,42060000,0.0059423926,0.0,0.18300767,0.0014022965,0.0,0.1461326,0.0,0.0,0.0,0.0,0.0,0.0,0.0,0.0048608445,0.0,0.0,nan,0.0,0.0,0.0,0.0,0.0,0.0,0.0,0.0,0.00012590481,0.0,0.0,0.0,0.0,0.0,0.0,0.0,0.0
42644000,42564000,0.0052491203,0.0,0.16155857,0.0014621819,0.0,0.15125002,0.0,0.0,0.0,0.0,0.0,0.0,0.0,0.0055236146,0.0,0.0,nan,0.0,0.0,0.0,0.0,0.0,0.0,0.0,0.0,0.00010932311,0.0,0.0,0.0,0.0,0.0,0.0,0.0,0.0
43140000,43060000,0.004029323,0.0,0.12449743,0.0013764229,0.0,0.15740621,0.0,0.0,0.0,0.0,0.0,0.0,0.0,0.002923917,0.0,0.0,nan,0.0,0.0,0.0,0.0,0.0,0.0,0.0,0.0,0.00016849265,0.0,0.0,0.0,0.0,0.0,0.0,0.0,0.0
43644000,43564000,0.0031266385,0.0,0.10887642,0.0013011978,0.0,0.15465614,0.0,0.0,0.0,0.0,0.0,0.0,0.0,0.002821461,0.0,0.0,nan,0.0,0.0,0.0,0.0,0.0,0.0,0.0,0.0,0.0010919227,0.0,0.0,0.0,0.0,0.0,0.0,0.0,0.0
44148000,44068000,0.0032057515,0.0,0.097457305,0.0011576599,0.0,0.15104564,0.0,0.0,0.0,0.0,0.0,0.0,0.0,0.0027708767,0.0,0.0,nan,0.0,0.0,0.0,0.0,0.0,0.0,0.0,0.0,5.2715197e-05,0.0,0.0,0.0,0.0,0.0,0.0,0.0,0.0
44644000,44564000,0.0025872546,0.0,0.082819216,0.0011703377,0.0,0.14810185,0.0,0.0,0.0,0.0,0.0,0.0,0.0,0.0021509966,0.0,0.0,nan,0.0,0.0,0.0,0.0,0.0,0.0,0.0,0.0,0.0025248297,0.0,0.0,0.0,0.0,0.0,0.0,0.0,0.0
45148000,45068000,0.0019355505,0.0,0.061049704,0.00096222083,0.0,0.13526101,0.0,0.0,0.0,0.0,0.0,0.0,0.0,0.0006624788,0.0,0.0,nan,0.0,0.0,0.0,0.0,0.0,0.0,0.0,0.0,0.0002106153,0.0,0.0,0.0,0.0,0.0,0.0,0.0,0.0
45644000,45564000,0.0013865702,0.0,0.041762244,0.00086483883,0.0,0.12793581,0.0,0.0,0.0,0.0,0.0,0.0,0.0,0.0006394052,0.0,0.0,nan,0.0,0.0,0.0,0.0,0.0,0.0,0.0,0.0,0.00041714395,0.0,0.0,0.0,0.0,0.0,0.0,0.0,0.0
46140000,46060000,0.0012239738,0.0,0.038928837,0.000814664,0.0,0.11905355,0.0,0.0,0.0,0.0,0.0,0.0,0.0,0.00013983632,0.0,0.0,nan,0.0,0.0,0.0,0.0,0.0,0.0,0.0,0.0,0.0012277111,0.0,0.0,0.0,0.0,0.0,0.0,0.0,0.0
46644000,46564000,0.0012357149,0.0,0.028559094,0.00068874273,0.0,0.109583475,0.0,0.0,0.0,0.0,0.0,0.0,0.0,9.942531e-05,0.0,0.0,nan,0.0,0.0,0.0,0.0,0.0,0.0,0.0,0.0,5.7076413e-06,0.0,0.0,0.0,0.0,0.0,0.0,0.0,0.0
47140000,47060000,5.3111922e-05,0.0,0.0012984023,0.00022805684,0.0,0.05294608,0.0,0.0,0.0,0.0,0.0,0.0,0.0,9.96627e-05,0.0,0.0,nan,0.0,0.0,0.0,0.0,0.0,0.0,0.0,0.0,0.00027024982,0.0,0.0,0.0,0.0,0.0,0.0,0.0,0.0
47644000,47564000,3.703127e-05,0.0,0.00052692735,0.00022565502,0.0,0.0440482,0.0,0.0,0.0,0.0,0.0,0.0,0.0,0.00015776356,0.0,0.0,nan,0.0,0.0,0.0,0.0,0.0,0.0,0.0,0.0,8.980592e-05,0.0,0.0,0.0,0.0,0.0,0.0,0.0,0.0
48148000,48068000,4.1711683e-06,0.0,0.0006454169,0.00022458007,0.0,0.03811247,0.0,0.0,0.0,0.0,0.0,0.0,0.0,0.0003274437,0.0,0.0,nan,0.0,0.0,0.0,0.0,0.0,0.0,0.0,0.0,0.0002949547,0.0,0.0,0.0,0.0,0.0,0.0,0.0,0.0
48644000,48564000,0.00047236177,0.0,0.00010952727,0.00022526433,0.0,0.03374823,0.0,0.0,0.0,0.0,0.0,0.0,0.0,5.741388e-05,0.0,0.0,nan,0.0,0.0,0.0,0.0,0.0,0.0,0.0,0.0,0.00043157925,0.0,0.0,0.0,0.0,0.0,0.0,0.0,0.0
49140000,49060000,7.547493e-05,0.0,6.2585685e-05,0.0002251578,0.0,0.026701553,0.0,0.0,0.0,0.0,0.0,0.0,0.0,0.00030587945,0.0,0.0,nan,0.0,0.0,0.0,0.0,0.0,0.0,0.0,0.0,0.00042675599,0.0,0.0,0.0,0.0,0.0,0.0,0.0,0.0
