timestamp,timestamp_sample,time_last_fuse,device_id,observation[0],observation[1],observation[2],observation_variance[0],observation_variance[1],observation_variance[2],innovation[0],innovation[1],innovation[2],innovation_variance[0],innovation_variance[1],innovation_variance[2],test_ratio[0],test_ratio[1],test_ratio[2],estimator_instance,fusion_enabled,innovation_rejected,fused
3500000,3385276,0,0,0.0,0.0,0.02,0.09,0.09,0.20250002,0.0035165441,-0.0030811913,-0.040122684,0.115676776,0.11568013,0.20415929,4.2760817e-06,3.2827556e-06,0.00031540662,3,1,0,0
3900000,3781562,0,0,0.0,0.0,-0.02,0.09,0.09,0.20250002,0.0020455243,0.0001684656,0.012112986,0.10217263,0.10217514,0.20364979,1.6380784e-06,1.11105924e-08,2.8818973e-05,3,1,0,0
4300000,4181735,0,0,0.0,0.0,-0.04,0.09,0.09,0.20250002,0.0030482411,-0.0002228001,0.026270814,0.097005755,0.097005896,0.20633025,3.831432e-06,2.0468812e-08,0.0001337963,3,1,0,0
4700000,4581840,0,0,0.02,0.01,-0.04,0.09,0.09,0.20250002,-0.01687269,-0.012285851,0.024690017,0.09403686,0.09403681,0.20905477,0.000121096185,6.420555e-05,0.00011663871,3,1,0,0
5100000,4981903,0,0,0.0,0.0,-0.01,0.09,0.09,0.20250002,0.001112209,-0.0027616275,-0.00419282,0.092738345,0.0927383,0.21056181,5.33548e-07,3.2895089e-06,3.339587e-06,3,1,0,0
5500000,5381942,0,0,-0.01,0.01,0.03,0.09,0.09,0.20250002,0.01128411,-0.008477662,-0.042433627,0.09187836,0.09187834,0.21088274,5.5434655e-05,3.128953e-05,0.00034153817,3,1,0,0
5900000,5781965,0,0,0.0,0.01,-0.02,0.09,0.09,0.20250002,0.0008137427,-0.009394975,0.008191537,0.09140527,0.09140528,0.21057716,2.8977635e-07,3.8626025e-05,1.2746165e-05,3,1,0,0
6300000,6181979,0,0,0.0,0.0,0.0,0.09,0.09,0.20250002,0.00053569826,-0.00034448202,-0.01036156,0.091135755,0.09113579,0.210053,1.2595392e-07,5.208398e-08,2.044473e-05,3,1,0,0
6700000,6581987,0,0,-0.01,-0.01,-0.01,0.09,0.09,0.20250002,0.0073356032,0.010291556,0.0022520144,0.09096563,0.09096566,0.20949464,2.3662156e-05,4.657411e-05,9.683434e-07,3,1,0,0
7100000,6981993,0,0,-0.01,-0.01,-0.01,0.09,0.09,0.20250002,0.008906871,0.013850311,0.0045302454,0.09084796,0.09084794,0.20897646,3.4929722e-05,8.44625e-05,3.928313e-06,3,1,0,0
7500000,7381996,0,0,0.01,0.0,0.049999997,0.09,0.09,0.20250002,-0.008759762,0.004663283,-0.053921647,0.09077559,0.090775564,0.20959537,3.381237e-05,9.582405e-06,0.00055488705,3,1,0,0
7900000,7781998,0,0,0.01,0.0,0.02,0.09,0.09,0.20250002,-0.009317519,0.0027410493,-0.021939535,0.09127071,0.09127068,0.2090909,3.804777e-05,3.2927778e-06,9.208305e-05,3,1,0,0
8300000,8181999,0,0,0.02,0.0,0.0,0.09,0.09,0.20250002,-0.021673724,0.0012692405,-0.0035161227,0.09115927,0.09115925,0.20869131,0.0002061229,7.068823e-07,2.369647e-06,3,1,0,0
8700000,8581999,0,0,-0.02,0.0,0.049999997,0.09,0.09,0.20250002,0.019503966,0.0010203643,-0.05196117,0.09106841,0.09106842,0.20838366,0.00016708525,4.573016e-07,0.00051826774,3,1,0,0
9100000,8982000,0,0,0.0,0.0,-0.01,0.09,0.09,0.20250002,0.0025180639,0.0027101282,0.008695887,0.09099297,0.09099302,0.2081774,2.787312e-06,3.2287292e-06,1.452962e-05,3,1,0,0
9500000,9382000,0,0,0.0,-0.02,0.0,0.09,0.09,0.20250002,0.00311869,0.022639627,-0.00069494545,0.09092874,0.090928756,0.2080132,4.2786155e-06,0.0002254744,9.2868945e-08,3,1,0,0
9900000,9782000,0,0,-0.02,0.01,-0.03,0.09,0.09,0.20250002,0.023681851,-0.007180002,0.031525448,0.09087251,0.09087251,0.20787944,0.00024686457,2.26922e-05,0.00019123658,3,1,0,0
10300000,10182000,0,0,0.02,0.01,0.0,0.09,0.09,0.20250002,-0.019888483,-0.009744884,0.0041974485,0.09082264,0.09082261,0.20776865,0.00017420844,4.1823405e-05,3.3919598e-06,3,1,0,0
10700000,10582000,0,0,0.0,0.0,0.02,0.09,0.09,0.20250002,-0.001602455,-0.0014824187,-0.015188951,0.09077798,0.09077798,0.2076725,1.1314912e-06,9.683253e-07,4.4436165e-05,3,1,0,0
11100000,10982000,0,0,0.01,-0.02,0.01,0.09,0.09,0.20250002,-0.010454127,0.017062493,-0.0020723585,0.09073696,0.09073698,0.20758756,4.8178277e-05,0.00012833958,8.27539e-07,3,1,0,0
11500000,11382000,0,0,0.01,0.0,0.02,0.09,0.09,0.20250002,-0.012200849,-0.0034296378,-0.009328406,0.09069924,0.09069927,0.20751278,6.565026e-05,5.1874354e-06,1.6773745e-05,3,1,0,0
11900000,11782000,0,0,0.0,0.0,0.0,0.09,0.09,0.20250002,-0.0031706858,-0.0022932212,0.013688788,0.09066412,0.09066416,0.20744225,4.4353815e-06,2.3201508e-06,3.6132064e-05,3,1,0,0
12300000,12182000,0,0,0.0,0.0,0.0,0.09,0.09,0.20250002,-0.002584373,-0.0005219663,0.0120600015,0.09063145,0.09063148,0.20737618,2.9477558e-06,1.2024468e-07,2.805407e-05,3,1,0,0
12700000,12582000,0,0,-0.01,0.01,-0.03,0.09,0.09,0.20250002,0.010174595,-0.008313736,0.043635294,0.090609714,0.09060972,0.20798075,4.5700348e-05,3.051249e-05,0.00036619522,3,1,0,0
13100000,12982000,0,0,0.01,0.0,0.01,0.09,0.09,0.20250002,-0.009591019,0.0051162667,0.0036739986,0.09094682,0.09094676,0.20791356,4.045777e-05,1.1512751e-05,2.5968993e-06,3,1,0,0
13500000,13382000,0,0,-0.03,0.0,-0.02,0.09,0.09,0.20250002,0.03161218,0.003883076,0.033291142,0.090908185,0.09090809,0.2078494,0.00043970958,6.6345156e-06,0.00021328907,3,1,0,0
13900000,13782000,0,0,-0.01,0.0,-0.01,0.09,0.09,0.20250002,0.01311804,0.0015697294,0.020856285,0.09087175,0.09087166,0.20778818,7.574762e-05,1.0846287e-06,8.3736166e-05,3,1,0,0
14300000,14182000,0,0,0.01,0.0,-0.01,0.09,0.09,0.20250002,-0.008492232,-0.001660371,0.020502353,0.09083679,0.09083669,0.20773362,3.175718e-05,1.2139728e-06,8.093952e-05,3,1,0,0
14700000,14582000,0,0,0.01,-0.01,0.0,0.09,0.09,0.20250002,-0.00766557,0.008824371,0.009374671,0.090803474,0.090803385,0.2076767,2.5884896e-05,3.4302473e-05,1.6927166e-05,3,1,0,0
15100000,14982000,0,0,0.02,0.0,-0.02,0.09,0.09,0.20250002,-0.018060923,0.00038457022,0.02683628,0.09077159,0.09077149,0.20762126,0.00014374407,6.5172124e-08,0.00013874994,3,1,0,0
15500000,15382000,0,0,-0.01,-0.01,0.0,0.09,0.09,0.20250002,0.012113187,0.010332403,0.008443184,0.094419666,0.09441994,0.20825262,6.2160485e-05,4.522712e-05,1.3692477e-05,3,1,0,0
15900000,15782000,0,0,0.0,0.0,-0.01,0.09,0.09,0.20250002,0.0016207541,-0.0004358799,0.021484183,0.11588821,0.115891196,0.20970187,9.066821e-07,6.557574e-08,8.804312e-05,3,1,0,0
16300000,16182000,0,0,0.0,0.01,-0.01,0.09,0.09,0.20250002,0.0034642653,-0.012476124,0.023944663,0.15647009,0.15647799,0.21130651,3.0679687e-06,3.9789284e-05,0.000108533684,3,1,0,0
16700000,16582000,0,0,0.0,-0.01,-0.01,0.09,0.09,0.20250002,0.003718928,0.00404871,0.029176345,0.21609095,0.2161055,0.2130115,2.5601119e-06,3.0340836e-06,0.00015985222,3,1,0,0
17100000,16982000,0,0,0.0,0.0,0.01,0.09,0.09,0.20250002,0.0036533123,-0.008863739,0.013645461,0.29448348,0.29450822,0.21477771,1.812895e-06,1.0670788e-05,3.467745e-05,3,1,0,0
17500000,17382000,0,0,-0.02,0.02,-0.03,0.09,0.09,0.20250002,0.022416312,-0.032695398,0.05712606,0.39065608,0.3906977,0.2164622,5.1450992e-05,0.00010944412,0.0006030405,3,1,0,0
17900000,17782000,0,0,-0.01,0.0,0.02,0.09,0.09,0.20250002,0.011151881,-0.012743674,0.0066420473,0.5023395,0.50241256,0.2179967,9.902821e-06,1.2929711e-05,8.094948e-06,3,1,0,0
18300000,18182000,0,0,-0.03,-0.03,-0.089999996,0.09,0.09,0.20250002,0.0051452797,0.06825722,-0.018510535,0.63643,0.63659465,0.21926022,1.6639003e-06,0.00029274818,6.250836e-05,3,1,0,0
18700000,18582000,0,0,-0.17999999,-0.19,-0.41,0.09,0.09,0.20250002,0.005419031,0.36616355,-0.024420857,0.7827723,0.7830566,0.22022814,1.5006098e-06,0.00684884,0.00010832009,3,1,0,0
19100000,18982000,0,0,-0.16,-0.16,-0.59999996,0.09,0.09,0.20250002,0.026869208,0.2882257,0.029770792,0.91917515,0.9195622,0.22098474,3.1417487e-05,0.0036136352,0.00016042737,3,1,0,0
19500000,19382000,0,0,-0.089999996,-0.08,-0.64,0.09,0.09,0.20250002,0.042930007,0.11407375,0.01486814,1.036297,1.0367762,0.22149175,7.113735e-05,0.00050204934,3.9922314e-05,3,1,0,0
19900000,19782000,0,0,0.0,-0.01,-0.7,0.09,0.09,0.20250002,0.034384713,-0.048341125,0.046366453,1.1235762,1.1241214,0.22189184,4.2090902e-05,8.315345e-05,0.00038754882,3,1,0,0
20300000,20182000,0,0,0.049999997,0.04,-0.7,0.09,0.09,0.20250002,0.045073465,-0.16836491,0.05174029,1.1716385,1.1722254,0.22190657,6.935986e-05,0.00096727966,0.00048255577,3,1,0,0
20700000,20582000,0,0,0.08,0.07,-0.68,0.09,0.09,0.20250002,0.04604861,-0.23590618,0.06407601,1.1782446,1.1788362,0.22172995,7.198758e-05,0.0018883616,0.000740673,3,1,0,0
21100000,20982000,0,0,0.07,0.08,-0.58,0.09,0.09,0.20250002,0.06648203,-0.25611407,0.020807564,1.1480474,1.1486069,0.22145268,0.00015399573,0.002284312,7.820266e-05,3,1,0,0
21500000,21382000,0,0,0.07,0.08,-0.51,0.09,0.09,0.20250002,0.058868922,-0.24778104,0.10040599,1.0879031,1.0883926,0.22130665,0.00012742127,0.002256371,0.0018221528,3,1,0,0
21900000,21782000,0,0,0.08,0.049999997,-0.14,0.09,0.09,0.20250002,0.031771846,-0.20569767,0.02896873,1.007778,1.0081778,0.22100918,4.006637e-05,0.0016787329,0.00015188279,3,1,0,0
22300000,22182000,0,0,0.07,0.07,-0.22999999,0.09,0.09,0.20250002,0.024616838,-0.2147044,0.06852037,0.9310008,0.9313154,0.22075203,2.603601e-05,0.001979908,0.0008507357,3,1,0,0
22700000,22582000,0,0,0.04,0.08,-0.22,0.09,0.09,0.20250002,0.039468035,-0.20256674,0.08154777,0.8513433,0.8515879,0.22070199,7.318908e-05,0.0019273777,0.001205252,3,1,0,0
23100000,22982000,0,0,0.02,0.01,-0.14,0.09,0.09,0.20250002,0.03260297,-0.11169228,0.03327959,0.7751274,0.7753047,0.2205494,5.4853102e-05,0.0006436265,0.00020086767,3,1,0,0
23500000,23382000,0,0,0.0,-0.01,-0.099999994,0.09,0.09,0.20250002,0.023948114,-0.08060395,0.019231938,0.7734839,0.77363765,0.22045802,2.9658648e-05,0.00033591938,6.710891e-05,3,1,0,0
23900000,23782000,0,0,0.0,-0.01,-0.06,0.09,0.09,0.20250002,0.01573871,-0.07400142,-0.003846269,0.7026286,0.7027298,0.22041607,1.4101732e-05,0.0003117107,2.684702e-06,3,1,0,0
24300000,24182000,0,0,0.01,-0.049999997,-0.089999996,0.09,0.09,0.20250002,0.0035683988,-0.036014743,0.03686899,0.63996077,0.64002144,0.22042851,7.958906e-07,8.106364e-05,0.00024666908,3,1,0,0
24700000,24582000,0,0,0.02,-0.01,-0.08,0.09,0.09,0.20250002,-0.0014556069,-0.07845638,0.04145328,0.58513737,0.5851716,0.22061628,1.4484061e-07,0.00042075888,0.00031155895,3,1,0,0
25100000,24982000,0,0,0.01,0.01,-0.08,0.09,0.09,0.20250002,0.025501175,-0.094336264,0.05851917,0.537675,0.537696,0.22067526,4.8379403e-05,0.0006620344,0.0006207299,3,1,0,0
25500000,25382000,0,0,0.0,0.03,-0.08,0.09,0.09,0.20250002,0.043274768,-0.10520927,0.0759008,0.4969329,0.4969459,0.22074524,0.00015074112,0.00089096144,0.0010439059,3,1,0,0
25900000,25782000,0,0,0.0,0.02,-0.07,0.09,0.09,0.20250002,0.041218482,-0.087375775,0.08286072,0.46218467,0.46219027,0.22082868,0.0001470376,0.0006607258,0.0012436608,3,1,0,0
26300000,26182000,0,0,0.0,0.0,-0.02,0.09,0.09,0.20250002,0.03423443,-0.060420506,0.053142566,0.432731,0.43273026,0.22106583,0.00010833485,0.00033745158,0.00051100296,3,1,0,0
26700000,26582000,0,0,0.0,0.0,-0.02,0.09,0.09,0.20250002,0.02708871,-0.05862795,0.060935117,0.40805078,0.40804455,0.22114493,7.1932045e-05,0.00033694718,0.0006716118,3,1,0,0
27100000,26982000,0,0,0.0,0.0,-0.049999997,0.09,0.09,0.20250002,0.02649579,-0.05190198,0.09605403,0.38750258,0.38749442,0.22120887,7.2466806e-05,0.00027807528,0.0016683557,3,1,0,0
27500000,27382000,0,0,0.0,-0.01,0.0,0.09,0.09,0.20250002,0.028622242,-0.03529249,0.05615087,0.37056231,0.37055385,0.22141026,8.8431305e-05,0.00013445386,0.00056960684,3,1,0,0
27900000,27782000,0,0,0.0,0.0,-0.01,0.09,0.09,0.20250002,0.029955864,-0.04083182,0.071582034,0.35686788,0.35685912,0.22144328,0.00010058107,0.00018687906,0.00092556217,3,1,0,0
28300000,28182000,0,0,0.0,0.01,-0.04,0.09,0.09,0.20250002,0.035650823,-0.046489283,0.10214791,0.34606665,0.34605908,0.22146887,0.00014690594,0.00024981325,0.0018845438,3,1,0,0
28700000,28582000,0,0,0.0,0.01,-0.02,0.09,0.09,0.20250002,0.03613138,-0.044095963,0.086226836,0.3543542,0.35434625,0.22163142,0.00014736401,0.00021949763,0.0013418795,3,1,0,0
29100000,28982000,0,0,0.01,0.01,-0.06,0.09,0.09,0.20250002,0.025807744,-0.039620876,0.13630752,0.34714326,0.3471356,0.22162345,7.674522e-05,0.00018088767,0.0033533887,3,1,0,0
29500000,29382000,0,0,0.0,0.01,0.0,0.09,0.09,0.20250002,0.034602452,-0.036685936,0.085060336,0.34220698,0.3421994,0.22160141,0.00013995386,0.00015731856,0.0013059954,3,1,0,0
29900000,29782000,0,0,0.0,0.0,0.049999997,0.09,0.09,0.20250002,0.030522939,-0.021332083,0.041918732,0.33932322,0.3393145,0.22157186,0.00010982447,5.3644366e-05,0.0003172208,3,1,0,0
30300000,30182000,0,0,0.0,0.03,-0.02,0.09,0.09,0.20250002,0.026716758,-0.04722243,0.10612218,0.33835143,0.3383421,0.2216951,8.438387e-05,0.00026363353,0.0020319652,3,1,0,0
30700000,30582000,0,0,0.0,0.01,0.01,0.09,0.09,0.20250002,0.022625323,-0.026378,0.077144414,0.3389754,0.33896583,0.22165185,6.040618e-05,8.210844e-05,0.0010739835,3,1,0,0
31100000,30982000,0,0,-0.03,0.01,-0.089999996,0.09,0.09,0.20250002,0.04514778,-0.020968424,0.17824218,0.34106964,0.34105825,0.22160192,0.00023905055,5.1565945e-05,0.0057346565,3,1,0,0
31500000,31382000,0,0,-0.03,0.02,0.01,0.09,0.09,0.20250002,0.03448107,-0.030517586,0.09267745,0.34438142,0.34436917,0.22170578,0.00013809622,0.000108177286,0.0015496413,3,1,0,0
31900000,31782000,0,0,-0.04,0.03,-0.01,0.09,0.09,0.20250002,0.03576786,-0.045406457,0.12039175,0.34888557,0.34887445,0.22164826,0.00014667731,0.00023638835,0.0026157072,3,1,0,0
32300000,32182000,0,0,-0.03,0.02,0.02,0.09,0.09,0.20250002,0.011177417,-0.044420466,0.09115568,0.35442454,0.3544154,0.22158945,1.41e-05,0.00022269662,0.0014999554,3,1,0,0
32700000,32582000,0,0,-0.01,0.02,0.0,0.09,0.09,0.20250002,-0.024058467,-0.06081925,0.110384755,0.36082175,0.3608158,0.22168887,6.416573e-05,0.00041006863,0.0021985397,3,1,0,0
33100000,32982000,0,0,0.0,0.0,0.04,0.09,0.09,0.20250002,-0.05125637,-0.052457266,0.07012408,0.36789194,0.36788952,0.22163025,0.00028565078,0.00029919468,0.00088749384,3,1,0,0
33500000,33382000,0,0,-0.03,-0.01,0.0,0.09,0.09,0.20250002,-0.04015827,-0.050100163,0.107171156,0.3755146,0.3755183,0.22157279,0.0001717842,0.00026736662,0.002073478,3,1,0,0
33900000,33782000,0,0,-0.01,-0.02,-0.099999994,0.09,0.09,0.20250002,-0.07173069,-0.047510337,0.20757663,0.39665902,0.39666718,0.2215236,0.000518863,0.00022761975,0.0077803107,3,1,0,0
34300000,34182000,0,0,-0.01,0.0,0.01,0.09,0.09,0.20250002,-0.08146206,-0.07886342,0.10789409,0.40512103,0.40513262,0.22163491,0.00065521826,0.00061406445,0.002100957,3,1,0,0
34700000,34582000,0,0,0.0,-0.01,0.02,0.09,0.09,0.20250002,-0.09867844,-0.07812287,0.106619745,0.41369182,0.41370565,0.22158939,0.0009415158,0.0005900991,0.0020520422,3,1,0,0
35100000,34982000,0,0,0.0,0.0,0.53999996,0.09,0.09,0.20250002,-0.10813915,-0.079244494,0.118140936,0.41728878,0.41731307,0.2215502,0.0011209575,0.0006019164,0.0025199312,3,1,0,0
35500000,35382000,0,0,-0.01,0.02,0.83,0.09,0.09,0.20250002,-0.09254185,-0.10195136,0.025209665,0.42385808,0.42387953,0.22166595,0.0008081945,0.0009808522,0.00011468198,3,1,0,0
35900000,35782000,0,0,0.0,0.04,0.63,0.09,0.09,0.20250002,-0.108266,-0.13160232,0.11592513,0.4330571,0.43307954,0.22162938,0.0010826773,0.0015996296,0.0024254252,3,1,0,0
36300000,36178000,0,0,0.0,0.049999997,0.68,0.09,0.09,0.20250002,-0.121194705,-0.1489421,0.08292502,0.44059357,0.44062263,0.22159636,0.001333488,0.0020138547,0.0012412765,3,1,0,0
36700000,36582000,0,0,-0.01,0.01,0.74,0.09,0.09,0.20250002,-0.13348581,-0.11093621,0.038223267,0.4475829,0.4476308,0.22156556,0.0015924167,0.0010997315,0.0002637627,3,1,0,0
37100000,36982000,0,0,-0.01,0.0,0.71999997,0.09,0.09,0.20250002,-0.15715213,-0.10539002,0.059413314,0.45404512,0.4541161,0.22153924,0.0021757127,0.000978345,0.00063734833,3,1,0,0
37500000,37382000,0,0,0.01,-0.01,0.72999996,0.09,0.09,0.20250002,-0.19315702,-0.10288715,0.042224824,0.45983416,0.4599203,0.22166345,0.0032454857,0.00092066097,0.00032173746,3,1,0,0
37900000,37782000,0,0,0.01,0.01,0.7,0.09,0.09,0.20250002,-0.20515977,-0.13124597,0.06798154,0.46475357,0.4648498,0.22162527,0.0036226106,0.0014822425,0.00083410885,3,1,0,0
38300000,38182000,0,0,0.0,0.0,0.7,0.09,0.09,0.20250002,-0.20348422,-0.12376005,0.065182924,0.46876252,0.46886837,0.22158262,0.0035332032,0.0013066824,0.000766994,3,1,0,0
38700000,38582000,0,0,0.01,0.0,0.72999996,0.09,0.09,0.20250002,-0.2250541,-0.12780565,0.033564568,0.47183874,0.47195876,0.22154081,0.0042937845,0.0013843823,0.00020340816,3,1,0,0
39100000,38982000,0,0,0.02,-0.01,-0.65999997,0.09,0.09,0.20250002,-0.24418685,-0.12693137,1.3255368,0.49502462,0.49514845,0.21966253,0.0048181214,0.001301555,0.31995404,3,1,0,0
39500000,39382000,0,0,0.0,0.0,-0.5,0.09,0.09,0.20250002,-0.24308552,-0.1360619,1.3348815,0.49451116,0.49466997,0.21790169,0.004779716,0.0014969853,0.32710326,3,1,0,0
39900000,39782000,0,0,0.02,-0.02,-0.19,0.09,0.09,0.20250002,-0.27549544,-0.11272307,1.293848,0.49189365,0.49208033,0.21665537,0.0061718817,0.0010328793,0.30907014,3,1,0,0
40300000,40182000,0,0,0.0,-0.01,0.089999996,0.09,0.09,0.20250002,-0.26952884,-0.1256464,1.239347,0.48888373,0.48909763,0.21588297,0.005943809,0.0012911137,0.2845951,3,1,0,0
40700000,40582000,0,0,0.02,0.0,0.29999998,0.09,0.09,0.20250002,-0.30120265,-0.13781151,1.2044774,0.48572525,0.48596352,0.21561478,0.0074711405,0.0015632459,0.26914033,3,1,0,0
41100000,40982000,0,0,0.04,-0.01,0.48,0.09,0.09,0.20250002,-0.33827147,-0.13057381,1.1243395,0.48265454,0.4829336,0.21559882,0.009483187,0.0014121626,0.23453544,3,1,0,0
41500000,41382000,0,0,0.04,-0.01,0.59999996,0.09,0.09,0.20250002,-0.35293746,-0.12529165,1.0627079,0.4794308,0.47975832,0.2158754,0.010392728,0.0013088253,0.20925924,3,1,0,0
41900000,41782000,0,0,0.0,0.0,0.0,0.09,0.09,0.20250002,-0.26782486,-0.103868686,0.99256235,0.48283684,0.48307613,0.21533087,0.0059423926,0.00089333364,0.18300767,3,1,0,0
42300000,42182000,0,0,0.0,-0.01,0.0,0.09,0.09,0.20250002,-0.25086156,-0.08689164,0.93065405,0.47955865,0.4797609,0.21444036,0.0052491203,0.0006294934,0.16155857,3,1,0,0
42700000,42582000,0,0,-0.01,0.0,0.0,0.09,0.09,0.20250002,-0.22455902,-0.0902353,0.872538,0.47583422,0.47600242,0.21393597,0.0042390185,0.0006842326,0.14234586,3,1,0,0
43100000,42982000,0,0,0.0,0.0,0.0,0.09,0.09,0.20250002,-0.2179821,-0.08291863,0.8155099,0.47170404,0.47184122,0.21367715,0.004029323,0.0005828655,0.12449743,3,1,0,0
43500000,43382000,0,0,-0.01,-0.01,0.0,0.09,0.09,0.20250002,-0.19110824,-0.06781768,0.76270425,0.4672412,0.46734747,0.21371672,0.0031266385,0.0003936461,0.10887642,3,1,0,0
43900000,43782000,0,0,0.01,-0.01,-0.01,0.09,0.09,0.20250002,-0.19253518,-0.06219723,0.72210944,0.46254107,0.46261734,0.21401867,0.0032057515,0.00033448773,0.097457305,3,1,0,0
44300000,44182000,0,0,0.0,0.0,0.0,0.09,0.09,0.20250002,-0.17593983,-0.06634967,0.6665877,0.47857407,0.47863895,0.21460679,0.0025872546,0.00036789977,0.082819216,3,1,0,0
44700000,44582000,0,0,0.01,0.0,0.0,0.09,0.09,0.20250002,-0.17224811,-0.060324866,0.6162964,0.47332507,0.47337127,0.21531321,0.0025073178,0.00030750403,0.07056163,3,1,0,0
45100000,44978000,0,0,0.0,0.01,-0.01,0.09,0.09,0.20250002,-0.1504861,-0.064757876,0.5743763,0.4680026,0.46803412,0.21615706,0.0019355505,0.00035839973,0.061049704,3,1,0,0
45500000,45382000,0,0,-0.01,0.0,0.04,0.09,0.09,0.20250002,-0.12663653,-0.049398776,0.4761609,0.46263257,0.4626501,0.2171619,0.0013865702,0.00021097923,0.041762244,3,1,0,0
45900000,45782000,0,0,-0.01,0.0,0.0,0.09,0.09,0.20250002,-0.11829408,-0.04565874,0.4607501,0.4573134,0.45732293,0.21813203,0.0012239738,0.00018234123,0.038928837,3,1,0,0
46300000,46182000,0,0,0.0,-0.01,0.01,0.09,0.09,0.20250002,-0.118174545,-0.035391606,0.3955051,0.45205325,0.4520557,0.21908857,0.0012357149,0.00011083287,0.028559094,3,1,0,0
46700000,46582000,0,0,0.0,0.02,-0.01,0.09,0.09,0.20250002,-0.010487477,-0.026425002,0.25879928,0.12330356,0.12330438,0.21508236,3.568013e-05,0.0002265226,0.012456078,3,1,0,0
47100000,46982000,0,0,0.0,0.01,0.04,0.09,0.09,0.20250002,-0.00083738455,-0.011251405,0.082793586,0.09534057,0.095341384,0.21117577,2.9419283e-07,5.3111922e-05,0.0012984023,3,1,0,0
47500000,47382000,0,0,0.01,0.0,0.01,0.09,0.09,0.20250002,-0.009278346,0.0019305062,0.05253598,0.0929892,0.092989385,0.20951878,3.703127e-05,1.603131e-06,0.00052692735,3,1,0,0
47900000,47782000,0,0,0.0,0.0,-0.03,0.09,0.09,0.20250002,-0.0024641221,0.0030879234,0.058027916,0.09143979,0.091439806,0.20868613,2.6561295e-06,4.1711683e-06,0.0006454169,3,1,0,0
48300000,48182000,0,0,0.03,0.0,0.03,0.09,0.09,0.20250002,-0.032763775,0.0006138228,-0.023877745,0.09090194,0.090901956,0.20822093,0.00047236177,1.657955e-07,0.00010952727,3,1,0,0
48700000,48582000,0,0,0.01,-0.03,0.04,0.09,0.09,0.20250002,-0.01356476,0.03041701,-0.04868348,0.09070248,0.09070248,0.20795406,8.114561e-05,0.00040801286,0.0004558855,3,1,0,0
49100000,48982000,0,0,0.01,0.0,0.0,0.09,0.09,0.20250002,-0.013075916,0.003580112,-0.01803124,0.0906153,0.0906153,0.2077955,7.547493e-05,5.6578533e-06,6.2585685e-05,3,1,0,0
