timestamp,timestamp_sample,xyz[0],xyz[1],xyz[2]
3344000,3344000,0.00027336532,0.00034534832,2.4839957e-05
3348000,3348000,-0.00025607774,3.823734e-05,0.00013838003
3364000,3364000,0.0002662327,0.0012611249,-8.060117e-05
3384000,3384000,0.0014835636,0.0018819016,-2.9551424e-05
3404000,3404000,-0.00053190463,0.002103016,-5.3547637e-06
3424000,3424000,-0.00065456243,0.0014458792,-0.00018503383
3444000,3444000,-0.00042166776,0.001306836,0.00015546323
3464000,3464000,-0.00041125843,0.00059805706,-2.728032e-05
3484000,3484000,-0.00056969887,0.00033341252,-5.650747e-05
3504000,3504000,0.00017136334,0.0007117742,5.7957863e-05
3524000,3524000,0.000391955,0.0016296129,-4.2406544e-05
3544000,3544000,5.6968005e-05,0.00066349306,0.00010038277
3564000,3564000,0.0011633509,0.0020519306,-2.4748542e-05
3584000,3584000,0.021528877,0.022879722,-5.3348787e-05
3604000,3604000,0.02073508,0.021958051,-0.0001697888
3620000,3620000,0.020345645,0.023096833,0.00033157552
3644000,3644000,0.021254864,0.02262126,-0.00028821244
3664000,3664000,0.020055043,0.02294633,0.0001670852
3680000,3680000,0.019761097,0.024568759,0.00034040824
3704000,3704000,0.020106569,0.022439841,5.032986e-05
3724000,3724000,0.019731829,0.023335477,0.0003740352
3744000,3744000,0.01998241,0.023532521,0.00017615802
3764000,3764000,0.019474352,0.023989718,0.00028385135
3784000,3784000,0.019320235,0.023258604,7.9771735e-06
3804000,3804000,0.019893885,0.023898851,0.00010183667
3824000,3824000,0.019716207,0.022078633,4.060216e-05
3844000,3844000,0.019828748,0.023710309,0.00029990156
3864000,3864000,0.019345988,0.023240145,0.00041963367
3884000,3884000,0.019183222,0.024747973,0.00034693527
3904000,3904000,0.018461248,0.024299461,0.0006049162
3924000,3924000,0.01843539,0.023468474,-7.3805218e-06
3944000,3944000,0.01935203,0.023883004,5.1649604e-05
3964000,3964000,0.019357434,0.024769723,0.00022440594
3984000,3984000,0.02037279,0.022920504,-0.00047806572
4004000,4004000,0.019223854,0.024084123,0.00040391512
4024000,4024000,0.019398794,0.025092145,-0.00017257969
4044000,4044000,0.020237232,0.022520745,4.0720684e-06
4060000,4060000,0.019615531,0.02548454,-0.00013408545
4084000,4084000,0.018988281,0.024348274,0.0002741781
4104000,4104000,0.01920535,0.024528911,0.00017088185
4124000,4124000,0.019620085,0.024221059,-0.00020844057
4144000,4144000,0.019772284,0.02328721,0.00057046965
4164000,4164000,0.018821018,0.024951253,0.00052466773
4184000,4184000,0.020319283,0.023558225,0.00060665526
4204000,4204000,0.0187201,0.025248688,-5.2915933e-05
4224000,4224000,0.018967299,0.023323642,0.00011881862
4244000,4244000,0.019365264,0.024870964,8.077414e-05
4264000,4264000,0.019199193,0.022559114,0.000419789
4284000,4284000,0.020502882,0.024659127,-0.00013150465
4304000,4304000,0.01871529,0.023486378,-0.00010489654
4324000,4324000,0.018696928,0.023973651,0.00021424556
4340000,4340000,0.01931764,0.02334152,0.00059466035
4364000,4364000,0.02010719,0.024420597,5.4632863e-05
4384000,4384000,0.018808482,0.02341128,-0.00026213075
4404000,4404000,0.019936644,0.023343118,0.00025971155
4424000,4424000,0.019190216,0.022311954,-7.7956756e-05
4444000,4444000,0.019395825,0.02278743,-6.638025e-05
4464000,4464000,0.0182575,0.022072926,0.00047961992
4484000,4484000,0.020951523,0.022819692,0.00061266014
4504000,4504000,0.0194287,0.02245219,0.00047519896
4524000,4524000,0.019652197,0.022913419,0.00015944152
4544000,4544000,0.020338127,0.021817403,0.0004188113
4560000,4560000,0.019119265,0.021383075,0.00046516588
4584000,4584000,0.020246973,0.021927265,0.00028876096
4604000,4604000,0.019450435,0.02184924,0.00038981074
4624000,4624000,0.020052996,0.022523148,0.0001676013
4644000,4644000,0.019178683,0.020932263,-0.0003592894
4664000,4664000,0.019236935,0.02240913,-0.00021508774
4684000,4684000,0.019253543,0.02180694,-0.0004544023
4704000,4704000,0.019604148,0.02124213,0.0002892989
4724000,4724000,0.019251723,0.021069765,-0.0005442426
4744000,4744000,0.019943599,0.021956831,0.000824606
4764000,4764000,0.02005801,0.020765373,0.0002633991
4784000,4784000,0.018642263,0.02131139,0.0013949302
4804000,4804000,0.019595714,0.020228352,0.00016200336
4824000,4824000,0.018697873,0.0213991,2.4128356e-05
4844000,4844000,0.019049149,0.01999261,0.00018850814
4864000,4864000,0.019672168,0.022003852,0.0009984374
4884000,4884000,0.019972634,0.019788273,0.0007399433
4904000,4904000,0.018168483,0.021875547,0.00044962615
4924000,4924000,0.019414848,0.019348571,0.0006567239
4940000,4940000,0.018037096,0.02018151,0.0003902236
4964000,4964000,0.019065438,0.021047134,0.00028985328
4984000,4984000,0.019834436,0.020702312,0.00037686058
5000000,5000000,0.018136865,0.02054491,0.00028192424
5024000,5024000,0.0186459,0.020599766,0.00048551182
5044000,5044000,0.019818315,0.019257221,0.0007091596
5064000,5064000,0.017781753,0.020849654,0.00013357334
5084000,5084000,0.01877787,0.020709042,0.00069306383
5104000,5104000,0.01782884,0.020027505,0.00089310465
5120000,5120000,0.018340053,0.019888435,7.503101e-05
5144000,5144000,0.019023666,0.019977069,0.00027866903
5164000,5164000,0.01843831,0.020882996,0.000695398
5184000,5184000,0.018300729,0.021001829,0.0006398841
5204000,5204000,0.018704869,0.01979166,0.00078585994
5224000,5224000,0.018667333,0.02034746,0.00062499795
5240000,5240000,0.017237226,0.019930318,0.00057220674
5260000,5260000,0.018072058,0.020707015,0.0008638689
5284000,5284000,0.017408276,0.021482462,3.0106306e-05
5304000,5304000,0.017599734,0.020493347,0.00085345766
5324000,5324000,0.017346572,0.020891335,0.00070123485
5340000,5340000,0.018497996,0.02093092,-0.00013120216
5360000,5360000,0.017037533,0.02039983,-4.568859e-05
5380000,5380000,0.01767827,0.021115089,0.0012320926
5404000,5404000,0.017162103,0.020667035,0.00041612756
5424000,5424000,0.017847596,0.020972716,0.0005328526
5440000,5440000,0.017622592,0.0196082,0.00016993894
5464000,5464000,0.017018465,0.019742196,0.00035856568
5484000,5484000,0.017010719,0.020978764,0.0010076714
5504000,5504000,0.017590461,0.020915642,2.2003847e-05
5524000,5524000,0.018056136,0.020661604,0.0007177053
5544000,5544000,0.01790535,0.020853225,0.00060317526
5564000,5564000,0.01752381,0.021245556,0.0004125516
5584000,5584000,0.017046086,0.020441266,0.00086232665
5604000,5604000,0.017103072,0.019739473,0.0007265661
5624000,5624000,0.016499955,0.020140057,0.00065778865
5640000,5640000,0.017069694,0.020231536,0.00044150813
5660000,5660000,0.017981779,0.020007245,0.0007239537
5684000,5684000,0.01745251,0.021486897,0.00047531608
5700000,5700000,0.01726898,0.020153446,0.00038285664
5720000,5720000,0.018821184,0.020098789,0.0012286309
5740000,5740000,0.018078594,0.020303074,0.00055557454
5760000,5760000,0.018406995,0.020205846,0.0007563182
5780000,5780000,0.01770317,0.020076402,0.0006289635
5804000,5804000,0.017713262,0.020472255,0.00088015845
5824000,5824000,0.017200785,0.020540625,0.00030659293
5844000,5844000,0.018088937,0.020620907,0.0007832879
5864000,5864000,0.017529959,0.0204944,7.148711e-05
5880000,5880000,0.017803002,0.02064758,0.00015169532
5904000,5904000,0.017742349,0.019204287,0.0006569903
5924000,5924000,0.016712548,0.02145509,0.0005347386
5944000,5944000,0.01721987,0.020186076,0.0005582722
5964000,5964000,0.018000206,0.02044489,0.0008367373
5984000,5984000,0.018284388,0.020356756,0.00040080288
6004000,6004000,0.01720122,0.02038935,0.0008666545
6024000,6024000,0.017861316,0.020622442,0.0002717935
6044000,6044000,0.019030495,0.019732498,0.00038141134
6064000,6064000,0.018569266,0.020587068,3.17854e-05
6084000,6084000,0.017956525,0.019703934,7.7219906e-05
6104000,6104000,0.018012613,0.021518191,8.718085e-05
6124000,6124000,0.017933104,0.020329097,0.00015410407
6144000,6144000,0.017149283,0.018865325,-0.00037845696
6164000,6164000,0.018668966,0.020492876,0.0004140994
6184000,6184000,0.018439991,0.020446649,0.0007168115
6204000,6204000,0.017527381,0.019315377,0.00040520934
6224000,6224000,0.01743218,0.018853407,0.00027923952
6244000,6244000,0.018619897,0.01889579,0.00058787694
6260000,6260000,0.017345477,0.02144493,0.0005785509
6280000,6280000,0.017381102,0.019557504,0.0004736009
6304000,6304000,0.018121475,0.020851849,0.00030988082
6324000,6324000,0.017772174,0.019522054,0.0005257696
6344000,6344000,0.018212147,0.019955274,0.00020293379
6364000,6364000,0.018328201,0.02174017,0.00033127386
6384000,6384000,0.018082196,0.019262303,0.00059908844
6400000,6400000,0.017769266,0.02059702,9.857915e-05
6424000,6424000,0.018349946,0.020951977,0.0004994624
6444000,6444000,0.017879337,0.019933373,0.00024997318
6464000,6464000,0.01712885,0.021256005,9.797076e-05
6484000,6484000,0.017151933,0.02019646,0.00069519953
6504000,6504000,0.01767481,0.020905014,0.00031601154
6524000,6524000,0.017208483,0.020632558,0.00049468054
6544000,6544000,0.01802045,0.020366557,0.0007132445
6564000,6564000,0.017859548,0.020059131,-0.0003851525
6584000,6584000,0.017360479,0.020328382,0.0006873201
6604000,6604000,0.017060133,0.019987864,0.00057066855
6624000,6624000,0.017967435,0.019580545,0.0006542293
6644000,6644000,0.017986434,0.019763771,0.00025197348
6664000,6664000,0.016991926,0.02069316,0.00068808155
6684000,6684000,0.017023237,0.020887023,0.00039759077
6704000,6704000,0.01691455,0.020282906,0.0011751928
6724000,6724000,0.017364072,0.02086277,-0.00020788894
6744000,6744000,0.01738018,0.019867957,0.00087801385
6764000,6764000,0.016878104,0.01986252,0.0007075024
6784000,6784000,0.017554559,0.021250129,0.0004274172
6804000,6804000,0.01734117,0.020699512,0.0006064762
6824000,6824000,0.01599154,0.01966744,0.0006169476
6840000,6840000,0.017301321,0.020919843,0.0003928473
6860000,6860000,0.017950734,0.01970144,0.00051875284
6884000,6884000,0.017152017,0.020440418,0.00039649778
6904000,6904000,0.017314853,0.02074342,0.0011117302
6920000,6920000,0.01720239,0.020960059,0.0006733104
6944000,6944000,0.01676166,0.019623432,0.00077976455
6964000,6964000,0.017316261,0.019694448,0.00014617923
6984000,6984000,0.017423274,0.021593407,-7.414492e-06
7004000,7004000,0.017949013,0.020720806,0.00016832243
7024000,7024000,0.017117672,0.020517804,0.00052615145
7044000,7044000,0.01743946,0.020568302,0.00013115667
7064000,7064000,0.016916815,0.020822337,0.0006241989
7084000,7084000,0.017239206,0.021043107,0.00090841297
7104000,7104000,0.016819898,0.020059373,0.0004575971
7124000,7124000,0.017115742,0.0204496,0.0003047909
7144000,7144000,0.017865438,0.02115842,0.00085304695
7164000,7164000,0.01668405,0.020260584,0.00077000767
7184000,7184000,0.017808273,0.02087068,0.0006138335
7204000,7204000,0.016681213,0.02069359,0.001072597
7224000,7224000,0.016780276,0.019361764,0.0008900029
7244000,7244000,0.017260736,0.020994449,0.0011362098
7264000,7264000,0.017248727,0.020249901,0.00027528126
7284000,7284000,0.016549582,0.018961068,9.578476e-05
7304000,7304000,0.01692247,0.02040751,0.0009851175
7324000,7324000,0.017663606,0.020243863,0.00026994917
7344000,7344000,0.015622744,0.020231415,0.00036241772
7364000,7364000,0.017102407,0.02152863,0.00027835806
7384000,7384000,0.017528925,0.019903904,0.00045125638
7404000,7404000,0.017363502,0.020266177,-6.872384e-05
7424000,7424000,0.017088644,0.020634135,0.0001599005
7444000,7444000,0.017617106,0.020557532,6.558787e-05
7464000,7464000,0.016589187,0.021426775,3.0362036e-05
7484000,7484000,0.016791265,0.02098607,0.0004588231
7504000,7504000,0.017151501,0.021093335,0.00015043671
7520000,7520000,0.01675138,0.021466663,0.0004317508
7540000,7540000,0.016627723,0.020321237,0.0006234544
7560000,7560000,0.016056832,0.020889215,0.00073258765
7580000,7580000,0.01813939,0.020100236,0.00019530708
7600000,7600000,0.017324356,0.020255152,0.00030552808
7620000,7620000,0.017025659,0.019859945,0.00097155134
7644000,7644000,0.016924249,0.021304846,0.0006453987
7660000,7660000,0.017373016,0.020106757,1.367518e-05
7684000,7684000,0.01726224,0.020115238,0.0012690454
7704000,7704000,0.017485343,0.020928752,7.963105e-05
7724000,7724000,0.018176604,0.019883312,0.00014072591
7744000,7744000,0.017534012,0.019868854,0.0004492786
7764000,7764000,0.01885491,0.02093562,0.0002536404
7784000,7784000,0.018154161,0.020008337,0.00013285717
7800000,7800000,0.017422028,0.021683818,-0.00020833411
7824000,7824000,0.017590139,0.01938183,0.00048509214
7840000,7840000,0.017672492,0.020981574,0.0006099425
7860000,7860000,0.017380068,0.020800242,0.00038673155
7880000,7880000,0.016835488,0.020770619,0.00041362137
7904000,7904000,0.016805181,0.020670887,0.0005557872
7920000,7920000,0.018683193,0.01988576,-0.00012559719
7940000,7940000,0.016880535,0.021389753,0.00048179124
7960000,7960000,0.016532382,0.021105804,1.1257246e-06
7980000,7980000,0.018206317,0.020217573,0.00010223843
8000000,8000000,0.01699288,0.020133955,0.00042415308
8024000,8024000,0.01744673,0.020577861,0.000591857
8040000,8040000,0.017193608,0.020014457,0.0005515271
8060000,8060000,0.017829083,0.020140463,0.00030275885
8084000,8084000,0.01716719,0.020086203,0.000364088
8100000,8100000,0.01757439,0.020393206,0.00011362527
8120000,8120000,0.017562399,0.020080552,0.00031687922
8140000,8140000,0.017574267,0.021606825,0.0006914649
8164000,8164000,0.018539723,0.019830687,0.00011034763
8184000,8184000,0.017603308,0.020756498,0.0005381455
8204000,8204000,0.017293634,0.020398034,0.0005732057
8224000,8224000,0.01789569,0.020097774,0.00017678189
8244000,8244000,0.01795869,0.021041831,0.00067304756
8264000,8264000,0.017504023,0.020746926,0.00032820465
8284000,8284000,0.018261185,0.01995138,-0.00011405661
8304000,8304000,0.017675405,0.019587144,0.00024260032
8324000,8324000,0.018416151,0.01998766,-0.00025225442
8344000,8344000,0.018587656,0.020225575,0.000979197
8364000,8364000,0.01669171,0.019682975,0.00060446217
8384000,8384000,0.01826487,0.020722672,3.1871907e-05
8404000,8404000,0.017485881,0.019716123,0.00018460365
8424000,8424000,0.016414057,0.019988395,0.00016383558
8444000,8444000,0.016565956,0.019330522,0.0005909651
8464000,8464000,0.017285801,0.020476444,0.00085975725
8484000,8484000,0.017169816,0.020167632,0.00048818422
8504000,8504000,0.017927114,0.020336999,0.00073789334
8524000,8524000,0.01808998,0.020161353,0.00053306157
8540000,8540000,0.016891625,0.019909786,-3.1275536e-05
8560000,8560000,0.017934121,0.019503258,0.00028646138
8580000,8580000,0.017249549,0.020313896,0.00032198158
8600000,8600000,0.01652321,0.019013248,0.0007024904
8620000,8620000,0.01767367,0.019851763,-5.898634e-05
8640000,8640000,0.016602837,0.019626731,0.00020847388
8660000,8660000,0.017412702,0.020556685,0.00035180376
8680000,8680000,0.017133523,0.02025853,0.0005177602
8700000,8700000,0.016944854,0.020662922,0.00027143027
8720000,8720000,0.01776771,0.020696634,6.0307655e-05
8744000,8744000,0.01856899,0.020567652,0.0004289997
8764000,8764000,0.016617993,0.020631546,0.00048485267
8784000,8784000,0.016761107,0.020054618,-0.00011030264
8804000,8804000,0.01747783,0.020293264,0.0007333494
8820000,8820000,0.01759019,0.020440726,-2.1914417e-05
8840000,8840000,0.017500155,0.020980898,0.0002442907
8864000,8864000,0.01703093,0.020251896,0.00035782263
8884000,8884000,0.017747639,0.020177748,-6.4228894e-05
8904000,8904000,0.016937325,0.019562416,0.00025197119
8924000,8924000,0.018094145,0.019285113,0.0005930111
8944000,8944000,0.016498905,0.020351248,0.0002710699
8964000,8964000,0.017903397,0.018397825,0.00029953188
8984000,8984000,0.016581938,0.020928651,0.0004786336
9004000,9004000,0.017067097,0.019989586,0.00013830866
9024000,9024000,0.018251982,0.020561537,0.00045123455
9044000,9044000,0.017444057,0.020207075,0.00034814884
9064000,9064000,0.016422331,0.019782102,-1.4730404e-05
9084000,9084000,0.017281901,0.019706085,6.0103812e-05
9104000,9104000,0.018310346,0.019007666,0.00049561576
9124000,9124000,0.017872347,0.01970083,0.00031243172
9144000,9144000,0.016948923,0.019412015,0.000515587
9164000,9164000,0.01803567,0.02086975,0.00026992554
9184000,9184000,0.01786791,0.018873954,0.00012432937
9204000,9204000,0.017085504,0.019753521,0.00024657996
9224000,9224000,0.016911695,0.018871443,0.001031738
9240000,9240000,0.018432898,0.020658411,-0.00012861498
9260000,9260000,0.01754818,0.020263309,0.00017843569
9280000,9280000,0.017001132,0.019661069,0.00025924254
9300000,9300000,0.017622476,0.019826416,0.0001223695
9320000,9320000,0.017588917,0.019245205,0.0010894055
9344000,9344000,0.017838715,0.019077554,-0.00033082798
9364000,9364000,0.01710465,0.020843513,0.00026198823
9380000,9380000,0.016818758,0.020154232,0.00023937112
9400000,9400000,0.017791852,0.02063598,0.00022664599
9420000,9420000,0.018007869,0.018581389,-0.00022539333
9440000,9440000,0.017451027,0.020586453,0.0003824904
9460000,9460000,0.017189369,0.020527776,0.0002748413
9484000,9484000,0.01598977,0.020701319,0.00028544574
9500000,9500000,0.017563833,0.019473301,-7.1777846e-05
9520000,9520000,0.017161392,0.018701898,-0.00029931302
9540000,9540000,0.017254805,0.019673321,-0.00010664794
9564000,9564000,0.017039455,0.020563558,0.0002709926
9584000,9584000,0.01624383,0.019478854,0.00042035506
9604000,9604000,0.016836198,0.020265738,0.0002535032
9624000,9624000,0.01722443,0.019422065,0.00048568202
9644000,9644000,0.01606225,0.019790323,0.00020814229
9664000,9664000,0.017130751,0.020368911,0.00041010193
9684000,9684000,0.017714279,0.02061417,0.0003252041
9704000,9704000,0.01625977,0.019818757,-0.00046454478
9724000,9724000,0.017048169,0.018252352,0.0005335593
9744000,9744000,0.017330073,0.019915545,-6.6560904e-05
9764000,9764000,0.01780423,0.019819364,-0.0003405029
9784000,9784000,0.01750423,0.019819837,0.00096720847
9804000,9804000,0.017091649,0.019146726,0.00024927844
9824000,9824000,0.017854732,0.018937409,0.00013727837
9844000,9844000,0.01717464,0.019537032,0.00092692155
9864000,9864000,0.016171869,0.020690816,0.00041892845
9884000,9884000,0.017400203,0.020174332,0.00025751648
9904000,9904000,0.017466748,0.019685874,9.852336e-05
9924000,9924000,0.016464444,0.020319212,0.00040628455
9944000,9944000,0.01744111,0.020486958,-0.0003619912
9964000,9964000,0.016073272,0.019693946,0.00026311047
9984000,9984000,0.01663418,0.018728836,0.00033168125
10004000,10004000,0.0170836,0.017875796,0.00012969645
10024000,10024000,0.016624277,0.02064497,0.0007929088
10044000,10044000,0.018085347,0.019429969,-0.00067004183
10064000,10064000,0.016604718,0.021350604,0.00043144418
10084000,10084000,0.017172951,0.020360962,0.00026667674
10104000,10104000,0.016415987,0.019786779,0.00025162555
10124000,10124000,0.017207189,0.020761589,0.0004548275
10144000,10144000,0.015769176,0.01978927,0.00025027702
10164000,10164000,0.017190615,0.019058663,0.00048727068
10184000,10184000,0.016847106,0.019652082,0.00037729993
10204000,10204000,0.017329017,0.020303972,0.00050261954
10224000,10224000,0.016897136,0.019510042,0.0005722706
10244000,10244000,0.01632376,0.020538922,0.0004304462
10264000,10264000,0.017127078,0.019941427,0.00011383365
10284000,10284000,0.017281463,0.019989869,0.00019460393
10304000,10304000,0.016991893,0.01907785,0.00033128003
10324000,10324000,0.016833162,0.020365637,0.00038296994
10340000,10340000,0.017475791,0.019333476,6.454997e-05
10360000,10360000,0.01697071,0.018561546,0.00048249238
10384000,10384000,0.016969576,0.018655097,0.00018819049
10404000,10404000,0.017158478,0.018738117,0.0008450082
10424000,10424000,0.016842531,0.019900016,0.000455534
10444000,10444000,0.017457042,0.020692555,0.00018102069
10464000,10464000,0.017008565,0.020207213,9.726564e-05
10484000,10484000,0.017174983,0.019385835,0.00012758466
10504000,10504000,0.016263353,0.018837404,0.00030799114
10524000,10524000,0.017302725,0.020092327,-4.9861965e-06
10544000,10544000,0.016836068,0.018766582,4.934352e-05
10560000,10560000,0.015964057,0.020437974,0.000288304
10584000,10584000,0.016479408,0.019849347,0.0002637312
10604000,10604000,0.017175166,0.020157307,0.00019797182
10620000,10620000,0.016733833,0.020671446,0.0003719992
10640000,10640000,0.018105172,0.018970823,5.5805816e-05
10660000,10660000,0.01690976,0.019895718,0.00033039082
10684000,10684000,0.016473468,0.019531969,0.00048636418
10700000,10700000,0.016702672,0.019900778,-0.00020487001
10724000,10724000,0.017356202,0.020221133,0.00045274626
10744000,10744000,0.017400803,0.019508181,0.0011635963
10760000,10760000,0.016692366,0.019396817,-0.00026569437
10784000,10784000,0.017377611,0.019452406,7.5573735e-05
10800000,10800000,0.016092056,0.018305963,0.00046782318
10824000,10824000,0.016686728,0.01939485,0.00032213324
10844000,10844000,0.016045975,0.020413475,8.641451e-05
10864000,10864000,0.016325254,0.019364735,-0.00031123855
10880000,10880000,0.016937807,0.019308109,0.00015881225
10904000,10904000,0.016427202,0.01900013,0.0003923099
10924000,10924000,0.01683131,0.020308638,0.00027943004
10940000,10940000,0.016381921,0.020038199,-0.00012204903
10960000,10960000,0.016870255,0.018915525,6.274063e-05
10984000,10984000,0.01696266,0.019488323,0.0003870551
11004000,11004000,0.017017484,0.019597039,-0.00014772336
11024000,11024000,0.017135756,0.019185593,-0.00018741992
11040000,11040000,0.016795613,0.019898415,0.0006459251
11064000,11064000,0.016344126,0.02020777,0.00064899836
11084000,11084000,0.01605554,0.020142496,0.00031799552
11104000,11104000,0.015935348,0.019503906,-0.000110327055
11124000,11124000,0.016802466,0.01871562,0.0003846888
11144000,11144000,0.01629707,0.0199072,0.00030320472
11164000,11164000,0.017192282,0.019623244,0.00019882774
11184000,11184000,0.017153485,0.019223027,-0.00028376002
11204000,11204000,0.017169042,0.019707551,0.00012148754
11224000,11224000,0.015617242,0.019075738,0.0003737192
11244000,11244000,0.017550832,0.01972799,7.734002e-05
11264000,11264000,0.017154265,0.019795144,0.00024259689
11284000,11284000,0.017104782,0.018412307,0.00019862666
11304000,11304000,0.01691112,0.020615963,0.0005025088
11324000,11324000,0.016881166,0.019148752,0.00070082955
11344000,11344000,0.016937548,0.019077014,0.00034606343
11364000,11364000,0.018030489,0.018104553,2.8838846e-05
11384000,11384000,0.016867215,0.019867243,6.761809e-05
11400000,11400000,0.016950874,0.018467173,-0.00029160242
11424000,11424000,0.016699865,0.019612942,0.00041020336
11444000,11444000,0.016717937,0.01908498,0.00021587806
11464000,11464000,0.01653586,0.017967965,0.00057685404
11480000,11480000,0.016316788,0.019299911,2.8416527e-05
11504000,11504000,0.017352447,0.019253386,0.0004673728
11524000,11524000,0.016288353,0.020427631,-0.00016622942
11540000,11540000,0.01653898,0.019481862,0.00016120997
11564000,11564000,0.017837856,0.019459834,0.00024785538
11584000,11584000,0.017333096,0.019314723,0.00025048037
11600000,11600000,0.016461577,0.019700004,-7.978687e-06
11624000,11624000,0.01747656,0.020153143,0.00040288744
11644000,11644000,0.016901225,0.019486185,0.0004332022
11664000,11664000,0.0159617,0.018822655,-0.00015181191
11684000,11684000,0.016782744,0.019037088,3.176915e-05
11704000,11704000,0.017227506,0.019514326,0.00013330017
11724000,11724000,0.016528733,0.018936926,5.6261547e-06
11744000,11744000,0.016031729,0.01870986,0.00030990376
11764000,11764000,0.016315527,0.019511657,0.00022163455
11784000,11784000,0.01808052,0.018680504,0.000665581
11804000,11804000,0.017029619,0.019531138,-0.00024592024
11824000,11824000,0.016239544,0.01856512,0.00029660543
11840000,11840000,0.017130118,0.019087275,0.00017778251
11864000,11864000,0.015848229,0.019390117,0.00038380583
11884000,11884000,0.016116684,0.018414158,0.00042937626
11904000,11904000,0.016944481,0.018481646,-9.674749e-05
11924000,11924000,0.017158756,0.01896964,-9.694984e-05
11944000,11944000,0.017014751,0.019526156,2.392414e-05
11964000,11964000,0.01678507,0.018033894,0.00049040065
11980000,11980000,0.016874216,0.018541673,0.00051790563
12000000,12000000,0.016867843,0.018324126,0.0003096206
12020000,12020000,0.017019838,0.018778829,0.00014104234
12040000,12040000,0.016254589,0.018284334,0.00010572149
12060000,12060000,0.016778667,0.018644422,0.0006693211
12080000,12080000,0.016765378,0.018977294,7.776691e-05
12100000,12100000,0.01675823,0.018002119,8.094369e-05
12120000,12120000,0.016184162,0.019537542,0.00013408407
12144000,12144000,0.016156161,0.019591277,-0.0005344683
12160000,12160000,0.016533459,0.017905815,2.0025525e-05
12184000,12184000,0.016567662,0.018614916,-0.00025218332
12204000,12204000,0.016353786,0.01917497,-4.0317398e-05
12224000,12224000,0.01667718,0.019346282,-9.9835255e-05
12244000,12244000,0.016560981,0.019360393,5.0154424e-05
12264000,12264000,0.016845774,0.019569738,0.0005603935
12280000,12280000,0.017004374,0.018134834,0.00019623889
12300000,12300000,0.017029235,0.019356431,0.00022068158
12324000,12324000,0.0157984,0.019392101,0.0004436397
12344000,12344000,0.016789619,0.018525332,-1.0482217e-05
12360000,12360000,0.01695854,0.019352986,0.00029663474
12380000,12380000,0.016038556,0.019043582,7.952216e-05
12404000,12404000,0.016617026,0.01842724,0.0004238674
12424000,12424000,0.01557471,0.018094677,-1.379149e-05
12444000,12444000,0.017235551,0.021029348,0.00027661168
12464000,12464000,0.015932733,0.018439015,-0.00013682828
12484000,12484000,0.01601254,0.020064352,-0.00038886085
12504000,12504000,0.01686064,0.01889381,0.00015825056
12520000,12520000,0.017038235,0.018347386,0.0010221356
12544000,12544000,0.016780704,0.02061436,0.00029170548
12564000,12564000,0.016060185,0.019817458,-0.00039019642
12584000,12584000,0.016866025,0.020039482,0.00014894409
12604000,12604000,0.016596375,0.018705927,-0.00021584654
12624000,12624000,0.016378446,0.018956393,-0.0004922521
12644000,12644000,0.016788678,0.019348754,0.00048610504
12664000,12664000,0.01722058,0.018448206,-0.00025046468
12684000,12684000,0.016727012,0.019952644,0.00031875234
12704000,12704000,0.015816152,0.019473795,0.00056542666
12720000,12720000,0.016396115,0.01734283,0.00057166815
12740000,12740000,0.016543517,0.019093748,0.0007446681
12760000,12760000,0.017009227,0.018843252,-0.000337261
12780000,12780000,0.01611711,0.019670906,0.0004001293
12804000,12804000,0.01572445,0.02089135,0.00010592333
12824000,12824000,0.015832009,0.018140355,0.00035238027
12844000,12844000,0.017920863,0.018432172,-0.00017419216
12864000,12864000,0.016488317,0.01990602,0.00072099624
12884000,12884000,0.016824223,0.017895037,-9.8773395e-05
12904000,12904000,0.015021893,0.020228213,-0.00053069525
12924000,12924000,0.016165294,0.017831959,0.00045538624
12944000,12944000,0.015954997,0.019372113,0.00028684386
12964000,12964000,0.016739197,0.020713767,-0.00025235428
12984000,12984000,0.016958078,0.018168168,-0.0002849211
13004000,13004000,0.01596789,0.019525709,0.0006126834
13024000,13024000,0.016025877,0.017431537,-3.4837158e-05
13044000,13044000,0.016417358,0.018107373,0.00057028607
13064000,13064000,0.016635174,0.01939083,0.00011363556
13084000,13084000,0.016531022,0.018339988,0.0005278084
13104000,13104000,0.01645398,0.018832697,0.00020407837
13124000,13124000,0.017507447,0.019122172,-0.00010093024
13144000,13144000,0.0156378,0.018489731,0.0003141552
13164000,13164000,0.016793687,0.018772433,9.4157374e-05
13184000,13184000,0.016016508,0.020087795,0.00022162548
13204000,13204000,0.015139649,0.017816648,0.0004903207
13224000,13224000,0.016555963,0.018439239,-0.00019426928
13244000,13244000,0.01631565,0.019781165,1.709559e-06
13264000,13264000,0.016586406,0.017837869,0.000101294754
13284000,13284000,0.015803752,0.01941435,6.4731015e-05
13304000,13304000,0.01701265,0.019347942,6.6473185e-05
13324000,13324000,0.01661922,0.018885285,0.00036107664
13340000,13340000,0.017154496,0.018547492,-8.802511e-05
13364000,13364000,0.016808726,0.01958928,0.00038308726
13384000,13384000,0.016009044,0.019405115,-0.0002949268
13404000,13404000,0.015883852,0.018552992,0.00046738656
13424000,13424000,0.017242238,0.018436834,0.0004987563
13440000,13440000,0.01770113,0.018943379,-2.9772393e-05
13464000,13464000,0.0161885,0.01869836,9.720293e-05
13484000,13484000,0.016822824,0.017237294,-0.00092749967
13500000,13500000,0.015629286,0.01938343,0.00062004616
13520000,13520000,0.017532473,0.019312521,0.00055923604
13544000,13544000,0.016887145,0.018118458,1.5402038e-05
13564000,13564000,0.01565506,0.017897895,-0.00018894734
13580000,13580000,0.01716968,0.019500365,0.0002695251
13604000,13604000,0.016329939,0.018170828,-0.00021097812
13624000,13624000,0.016944291,0.018842591,-0.00014670978
13640000,13640000,0.015897082,0.019244712,0.00020581069
13664000,13664000,0.015491357,0.019359931,-0.0001458633
13684000,13684000,0.015897874,0.017763779,-5.730486e-05
13700000,13700000,0.01657883,0.018594198,0.000282602
13720000,13720000,0.015687246,0.01851112,0.00026073738
13740000,13740000,0.016998524,0.01997157,0.00020977175
13760000,13760000,0.015894052,0.018866487,0.0007407483
13780000,13780000,0.015997969,0.019155188,0.00026293757
13800000,13800000,0.015713302,0.019953527,-0.00031223154
13824000,13824000,0.015009479,0.018712975,-0.0002660014
13840000,13840000,0.01622838,0.018224169,-0.00012550308
13860000,13860000,0.016179748,0.018978154,0.00031995293
13884000,13884000,0.016310794,0.018194245,0.00043240268
13900000,13900000,0.01675139,0.018882882,0.0005377819
13924000,13924000,0.015864093,0.019861119,0.00023585696
13944000,13944000,0.01582581,0.018588753,0.0003718773
13964000,13964000,0.016146041,0.019216623,0.00011988294
13984000,13984000,0.01661125,0.018599221,0.00045475946
14004000,14004000,0.015448804,0.018688899,-9.856313e-05
14024000,14024000,0.015522109,0.019384136,0.0002525631
14044000,14044000,0.015693113,0.019857233,-0.00014225043
14064000,14064000,0.016682051,0.018894253,0.00021304158
14084000,14084000,0.015356083,0.018681439,-0.00049138395
14100000,14100000,0.016028758,0.01839793,0.000103929095
14124000,14124000,0.016471453,0.018600013,-5.4448377e-05
14144000,14144000,0.0172102,0.01911277,0.00012562961
14164000,14164000,0.014729271,0.018189978,-0.00024964116
14184000,14184000,0.016992383,0.01992718,0.00019892033
14200000,14200000,0.016214877,0.018346727,0.00012266575
14224000,14224000,0.016178228,0.01900236,0.00075206824
14240000,14240000,0.01714715,0.01859815,0.00020438146
14264000,14264000,0.016035983,0.019207396,-7.00943e-05
14284000,14284000,0.015965605,0.019196913,0.00024605286
14304000,14304000,0.0155289,0.017273894,0.000118920674
14320000,14320000,0.016587336,0.018402014,0.00018105417
14340000,14340000,0.017027786,0.018447489,0.0004605136
14364000,14364000,0.016382156,0.018453397,-0.0003195411
14384000,14384000,0.015600814,0.017998515,0.00034182885
14404000,14404000,0.01447742,0.019144244,0.0005799104
14424000,14424000,0.01553974,0.01893637,0.00015313666
14440000,14440000,0.014574178,0.019765258,0.0001805882
14464000,14464000,0.014663829,0.019439068,-0.000124745
14484000,14484000,0.015373332,0.018966842,0.0004497069
14504000,14504000,0.0153986905,0.019020287,0.0002087322
14524000,14524000,0.014902845,0.019175049,0.00022935924
14544000,14544000,0.015063352,0.019161204,0.00043907017
14564000,14564000,0.014520783,0.017914668,0.00024789266
14584000,14584000,0.016197423,0.020252194,0.00034126855
14604000,14604000,0.014303288,0.020080773,-0.00028831995
14624000,14624000,0.015576762,0.019280374,7.777845e-05
14644000,14644000,0.015908573,0.017925467,-1.069745e-05
14664000,14664000,0.01515388,0.01989296,0.00027935943
14684000,14684000,0.01556588,0.01927303,-2.0264544e-05
14704000,14704000,0.015077897,0.019606506,0.00013120634
14724000,14724000,0.01661553,0.019395137,0.00013187251
14740000,14740000,0.016239665,0.020111617,-0.000120984856
14760000,14760000,0.015677907,0.020210844,-0.00027945556
14780000,14780000,0.016051216,0.019157166,0.0003129027
14804000,14804000,0.015782844,0.019452855,7.2408635e-05
14824000,14824000,0.014342759,0.018421624,0.00060113653
14844000,14844000,0.016462922,0.018824762,-0.0004816551
14860000,14860000,0.01639886,0.0172153,-0.00017411099
14880000,14880000,0.01586116,0.019546077,0.00026981873
14904000,14904000,0.016843636,0.018258747,-0.00012924708
14924000,14924000,0.016313944,0.017906094,7.964981e-05
14944000,14944000,0.01690663,0.018683987,0.0003553075
14960000,14960000,0.01647058,0.018602038,0.00019504514
14984000,14984000,0.016450236,0.018797765,7.541533e-05
15004000,15004000,0.01638041,0.018068729,0.0003604928
15024000,15024000,0.015897201,0.018515429,0.0002811872
15040000,15040000,0.016822243,0.017458646,-0.00019992546
15060000,15060000,0.016115148,0.017001413,-0.00015572652
15080000,15080000,0.017101275,0.018725745,0.00027127875
15100000,15100000,0.016535135,0.01766787,0.0005255404
15124000,15124000,0.017732544,0.01782516,0.00018845992
15144000,15144000,0.017968584,0.017427774,0.00028271927
15160000,15160000,0.01697308,0.019647447,-2.7383446e-06
15180000,15180000,0.01877513,0.017662479,-0.00045262172
15200000,15200000,0.01851215,0.018877318,0.00060543965
15220000,15220000,0.018438322,0.01886272,0.00018643079
15240000,15240000,0.020262564,0.01948983,7.920102e-05
15260000,15260000,0.019494785,0.018909516,-0.00041222025
15280000,15280000,0.020939587,0.019803602,0.00027670036
15304000,15304000,0.022287458,0.020874541,-6.282565e-05
15324000,15324000,0.022536077,0.02169313,0.00015652397
15340000,15340000,0.02192275,0.020926602,0.00034022564
15360000,15360000,0.023648825,0.02227854,0.00043243764
15380000,15380000,0.023920184,0.022707935,-0.00024507748
15400000,15400000,0.024960075,0.02244657,0.000656739
15424000,15424000,0.02362512,0.023643281,0.00052787934
15444000,15444000,0.02545742,0.02472806,0.00026811464
15464000,15464000,0.026480203,0.024923865,-4.620137e-05
15484000,15484000,0.026198883,0.025618535,1.7393377e-05
15504000,15504000,0.027302837,0.025387788,0.00028802693
15524000,15524000,0.027071876,0.026073199,-0.0003584586
15544000,15544000,0.028223256,0.025716899,0.00031564405
15564000,15564000,0.028213877,0.026411556,0.00026929402
15584000,15584000,0.029059608,0.0273433,-0.00032144005
15604000,15604000,0.029285574,0.028326405,-0.00020682026
15624000,15624000,0.029820498,0.027818372,0.00037296192
15644000,15644000,0.030227948,0.028175002,0.00024845992
15664000,15664000,0.030764716,0.02826571,3.5661673e-05
15684000,15684000,0.03054669,0.027215743,0.00013352891
15704000,15704000,0.03079182,0.029391319,8.504282e-05
15724000,15724000,0.03271477,0.027019147,-0.00021272236
15744000,15744000,0.032518476,0.029996196,0.0005876413
15764000,15764000,0.03339433,0.02920608,-0.00013466846
15784000,15784000,0.032349523,0.029737022,5.7718367e-05
15804000,15804000,0.034274504,0.03057419,-0.0005029623
15824000,15824000,0.034915846,0.031509053,0.0004860769
15844000,15844000,0.03441763,0.03208235,1.8174816e-05
15864000,15864000,0.03412269,0.03233491,0.00050526584
15884000,15884000,0.03607574,0.032399666,0.00045922803
15904000,15904000,0.036583904,0.03346571,0.00023224136
15924000,15924000,0.03685383,0.033077296,-0.00024920015
15944000,15944000,0.03761574,0.03321162,0.00043952046
15964000,15964000,0.038454168,0.03403228,1.6458725e-06
15984000,15984000,0.038150184,0.03488772,-7.086173e-05
16004000,16004000,0.03949799,0.034286,-1.7393078e-05
16024000,16024000,0.039066773,0.036181193,-0.00010152647
16044000,16044000,0.039269317,0.035574723,0.00044547618
16064000,16064000,0.039656725,0.035359357,0.00025121
16084000,16084000,0.041610353,0.03688017,0.00089050364
16100000,16100000,0.040294033,0.037154272,0.00035925632
16120000,16120000,0.041328754,0.037077013,-0.00013440175
16144000,16144000,0.04218578,0.03668799,0.00026216623
16164000,16164000,0.043507647,0.039110485,0.00041293664
16180000,16180000,0.043411884,0.03780595,0.00036746648
16204000,16204000,0.043195155,0.039900105,0.00043313252
16224000,16224000,0.04389914,0.038691264,0.00060732133
16244000,16244000,0.045167767,0.040096037,0.0003385346
16260000,16260000,0.045981467,0.03956725,-0.00021424853
16284000,16284000,0.044649906,0.041463953,0.00036539874
16300000,16300000,0.04672436,0.040238183,0.0007158964
16324000,16324000,0.046511803,0.042949457,0.0003036874
16344000,16344000,0.047584012,0.04186618,0.0003225486
16360000,16360000,0.048797052,0.04274983,0.00034782232
16380000,16380000,0.047231708,0.043320645,1.3844721e-05
16400000,16400000,0.04910992,0.044058938,0.00011359088
16420000,16420000,0.0487281,0.04280842,0.0004676431
16440000,16440000,0.04992749,0.045353647,0.00027134793
16460000,16460000,0.049717046,0.04457077,0.00030701468
16484000,16484000,0.050293043,0.045523547,0.00074329897
16504000,16504000,0.052181084,0.045430373,1.4767276e-05
16520000,16520000,0.05274085,0.046211533,-8.919488e-05
16540000,16540000,0.052584235,0.045545377,0.0003803278
16564000,16564000,0.053585563,0.046358153,0.00024910603
16584000,16584000,0.05271703,0.047679085,0.00013172349
16604000,16604000,0.053608194,0.04867292,6.4152846e-05
16624000,16624000,0.05443488,0.048001904,-0.00015025752
16644000,16644000,0.055258054,0.048237108,0.0004886933
16660000,16660000,0.054583356,0.05033533,0.0003754642
16684000,16684000,0.054992765,0.049169652,0.00038043014
16704000,16704000,0.05585656,0.05072951,0.00012279875
16724000,16724000,0.057481505,0.050598487,0.0001433231
16744000,16744000,0.05728544,0.051164716,0.00025276048
16764000,16764000,0.058280658,0.051156916,0.0003014644
16784000,16784000,0.05915884,0.051248472,0.00073002675
16804000,16804000,0.0590047,0.05163305,0.00018361151
16824000,16824000,0.05970009,0.05443362,0.00032244925
16844000,16844000,0.060514912,0.05303849,0.0001241535
16860000,16860000,0.060981777,0.053182784,0.00017921526
16880000,16880000,0.061460957,0.05432364,0.00039181855
16900000,16900000,0.061679825,0.05403086,0.00042660348
16924000,16924000,0.061692372,0.05359998,0.00037531275
16940000,16940000,0.06372564,0.055371277,0.00014006188
16960000,16960000,0.06243794,0.055327203,0.00010385391
16980000,16980000,0.06565195,0.056569293,-5.7014724e-05
17000000,17000000,0.06409875,0.055570662,0.00031816584
17020000,17020000,0.06502697,0.055597845,-0.00021679643
17040000,17040000,0.06586923,0.056811877,0.00033213315
17060000,17060000,0.06545399,0.05662868,0.0001256711
17080000,17080000,0.06710693,0.057613485,0.00019021714
17100000,17100000,0.06706628,0.05906012,0.00030578615
17120000,17120000,0.067996815,0.05876015,0.0001492196
17140000,17140000,0.06903744,0.058011077,0.00028027076
17160000,17160000,0.06806926,0.058818713,9.968459e-05
17184000,17184000,0.06888194,0.058938146,-0.00020727457
17200000,17200000,0.06991279,0.059879065,0.00027395587
17220000,17220000,0.06922993,0.060366392,0.00039625468
17244000,17244000,0.07063596,0.059774794,0.00022279234
17264000,17264000,0.071058944,0.061870016,0.00090558047
17284000,17284000,0.07321432,0.061434317,-0.00016560637
17304000,17304000,0.071534,0.061524697,0.00057616615
17324000,17324000,0.073353596,0.06429374,6.0464496e-05
17344000,17344000,0.074189536,0.06127611,0.0010036355
17364000,17364000,0.0743626,0.06270177,0.00018540915
17380000,17380000,0.07485187,0.0628559,-1.8518636e-05
17400000,17400000,0.07474253,0.06344196,0.0004883418
17420000,17420000,0.07599711,0.06568997,0.000220107
17444000,17444000,0.075849764,0.063635625,0.00051367725
17464000,17464000,0.076708384,0.06573799,7.971943e-05
17484000,17484000,0.07686818,0.06615806,0.00014153736
17504000,17504000,0.078234635,0.06671825,0.0006370422
17524000,17524000,0.07654725,0.06570444,0.00038195116
17544000,17544000,0.07838559,0.06783514,0.00037977763
17564000,17564000,0.07822582,0.06820298,0.00040194415
17584000,17584000,0.07896443,0.0680605,0.00022066031
17604000,17604000,0.07765524,0.06754737,0.00083940115
17620000,17620000,0.08040771,0.070135735,0.00041629962
17644000,17644000,0.079303436,0.070341505,0.00061152526
17664000,17664000,0.08056342,0.06990676,0.0005248918
17684000,17684000,0.080771126,0.070532404,0.00032052083
17704000,17704000,0.08053524,0.07050796,0.000419812
17724000,17724000,0.08106289,0.07198578,0.00066160504
17740000,17740000,0.08151874,0.07315113,0.0004616456
17760000,17760000,0.08152482,0.07308132,0.0007259828
17780000,17780000,0.081654236,0.07356715,0.00044419867
17804000,17804000,0.08276143,0.074328415,0.00046010502
17820000,17820000,0.08302414,0.07289014,0.000239187
17844000,17844000,0.0823831,0.07502421,-2.3908797e-08
17864000,17864000,0.07893558,0.07502933,0.0008301605
17884000,17884000,0.07653294,0.07588513,0.00016383658
17904000,17904000,0.07206732,0.076882154,0.000103286366
17924000,17924000,0.06608466,0.076702766,0.00029383338
17944000,17944000,0.06057194,0.07712044,0.0005090438
17964000,17964000,0.055178232,0.074144736,9.794277e-05
17984000,17984000,0.05237958,0.06986827,-1.4494013e-05
18004000,18004000,0.046077885,0.06450927,-0.0012516419
18024000,18024000,0.040421404,0.059294853,-0.0005176546
18040000,18040000,0.03779862,0.055801045,-0.002587613
18060000,18060000,0.029843472,0.04832532,-0.002816146
18080000,18080000,0.024376977,0.04064068,-0.0047380095
18104000,18104000,0.014497694,0.031604033,-0.005933323
18124000,18124000,0.009016413,0.020331534,-0.0074459715
18144000,18144000,0.0012074219,0.012686214,-0.0074518584
18164000,18164000,-0.007067419,-0.00096957944,-0.0069298865
18184000,18184000,-0.015707592,-0.011503128,-0.0058381283
18204000,18204000,-0.021027077,-0.0197026,-0.003775891
18224000,18224000,-0.021031577,-0.020662628,-0.0033692478
18244000,18244000,-0.019449627,-0.02325379,-0.0022941176
18264000,18264000,-0.019049646,-0.021589004,-0.0015249837
18284000,18284000,-0.01562485,-0.02032627,-0.0012394489
18304000,18304000,-0.014034601,-0.018891387,-0.0011119295
18324000,18324000,-0.0121664805,-0.015026047,-0.0006686412
18344000,18344000,-0.0076743634,-0.013284894,-0.00024127186
18364000,18364000,-0.005706764,-0.009038631,-0.0004869481
18380000,18380000,-0.0033988364,-0.005510486,-0.00036949269
18400000,18400000,-0.0014636046,-0.0011337679,-0.00037358727
18420000,18420000,3.861409e-05,0.0031791362,-0.00049448304
18440000,18440000,0.0005498341,0.0048236474,-0.0010351088
18460000,18460000,0.00130405,0.0069388864,-0.00018088926
18480000,18480000,0.0054488773,0.008119773,-0.00023967683
18500000,18500000,0.0033121635,0.011058496,-0.0003647662
18520000,18520000,0.005496902,0.012739483,-0.00054687925
18540000,18540000,0.004666453,0.014040658,-0.00088803755
18560000,18560000,0.0043308353,0.013139814,-0.00067074347
18580000,18580000,0.002956485,0.014063815,-0.00035064647
18600000,18600000,0.004714042,0.013379081,-0.00064307614
18620000,18620000,0.0046727927,0.012572868,-0.0006906933
18640000,18640000,0.0044785524,0.01272058,-0.0005033221
18660000,18660000,0.0023952005,0.010550478,-0.00024956051
18680000,18680000,0.0025289948,0.010683508,-0.0004037495
18700000,18700000,0.0023024108,0.008347599,-5.1122333e-05
18720000,18720000,0.0018449954,0.009194469,-0.0006798159
18740000,18740000,0.0023091093,0.0069064945,-0.00068783906
18760000,18760000,0.00025961304,0.005834823,-0.00022340774
18780000,18780000,0.0017534647,0.0057260687,-0.0006778955
18804000,18804000,-0.0010743709,0.004919237,4.8933463e-05
18820000,18820000,0.002401896,0.0054092165,-0.00043580102
18840000,18840000,3.1681353e-05,0.0039684772,-0.00039325742
18864000,18864000,-0.00011337554,0.0051225335,-0.0003491728
18884000,18884000,-0.0009820311,0.0032877591,0.0004202354
18904000,18904000,0.0008203526,0.003607837,0.000132905
18924000,18924000,0.000579454,0.0031625084,0.000379905
18944000,18944000,0.0005728989,0.0036446964,-0.0004292942
18964000,18964000,0.0025176557,0.0038225583,-0.00039412073
18984000,18984000,0.0006201226,0.004000041,0.00037061775
19004000,19004000,0.0006866206,0.004415959,-0.0003911266
19020000,19020000,0.0017070833,0.005563608,6.680348e-05
19044000,19044000,0.0014502292,0.005914375,-0.00045091796
19064000,19064000,0.0010864431,0.00651127,-0.0001918443
19084000,19084000,0.0014481333,0.006266023,-0.00061402476
19104000,19104000,0.0014262603,0.0056800065,0.0002938515
19124000,19124000,0.0008033863,0.0077844653,0.00035837098
19144000,19144000,0.00020519749,0.005931656,-0.00021758606
19164000,19164000,-0.0005300851,0.005774006,6.893568e-05
19180000,19180000,4.0799336e-05,0.005310183,-0.0007144384
19204000,19204000,0.00035074726,0.0056793266,0.0002001398
19220000,19220000,0.00089362223,0.005735032,0.00066259596
19244000,19244000,0.0013832736,0.0053151445,-9.2840564e-05
19260000,19260000,0.0009086014,0.006095743,0.00041431305
19280000,19280000,0.0007006811,0.0055136355,-0.00044643012
19300000,19300000,-0.00070933055,0.004482885,0.00023902507
19320000,19320000,0.0013547855,0.0057345075,0.00077772175
19340000,19340000,0.002051182,0.0060488842,0.00022619791
19364000,19364000,0.0021312851,0.005490655,-0.00026857277
19384000,19384000,0.00041010673,0.005668976,0.0003378617
19404000,19404000,0.0011039895,0.0058350456,-3.7374237e-05
19424000,19424000,0.0004062507,0.0061993157,-0.00038710586
19440000,19440000,0.0005098476,0.0048170593,-8.3887135e-06
19464000,19464000,0.002187972,0.004693822,-0.00031188634
19484000,19484000,0.0011343017,0.0057532503,-0.00035024865
19504000,19504000,0.0013090177,0.004159412,-0.00044133503
19524000,19524000,0.00024543467,0.0042393864,0.00014886158
19544000,19544000,-0.0013701436,0.0047885156,-6.656708e-05
19564000,19564000,-0.0013217314,0.004835479,5.941189e-05
19584000,19584000,-2.2603606e-05,0.003960611,2.7180678e-05
19604000,19604000,0.00021121293,0.00389012,-0.00031931215
19624000,19624000,0.0009614183,0.0041504083,6.6389824e-05
19644000,19644000,0.00029129488,0.0047690333,-0.00014874418
19664000,19664000,-0.0010189284,0.004616858,0.000466033
19684000,19684000,0.00025612267,0.0038329125,-0.00091732125
19704000,19704000,0.00079887535,0.0043107104,-0.00051158015
19724000,19724000,-0.00024114095,0.0036196946,0.00058334495
19744000,19744000,0.001063771,0.0051270835,0.00016406126
19764000,19764000,0.00044148043,0.0049812472,0.0001677474
19784000,19784000,-0.00017783308,0.0048299856,-0.00021946314
19804000,19804000,0.0021592034,0.004824282,0.00020909085
19820000,19820000,-0.00025540008,0.00425776,-0.00041184828
19840000,19840000,0.0012595874,0.004789364,7.8952595e-05
19860000,19860000,0.00094303605,0.005503096,0.00021277953
19880000,19880000,0.00045515937,0.00537655,0.00028238847
19900000,19900000,-0.00031587016,0.0058356263,-6.23605e-05
19920000,19920000,-0.001811235,0.0046103476,0.00023867738
19940000,19940000,2.7534727e-05,0.0045805033,-0.0005107346
19960000,19960000,0.0009495031,0.0033987626,0.00046463814
19980000,19980000,-0.0011407881,0.004010731,1.1114433e-05
20000000,20000000,-0.00082220987,0.005285583,-0.00037453417
20024000,20024000,0.0012566161,0.004003579,0.00014971082
20040000,20040000,-0.00014529368,0.004852204,9.9081546e-05
20060000,20060000,-0.00050906395,0.003406094,-5.0016824e-06
20080000,20080000,-0.00019703149,0.0028363673,0.00021824442
20100000,20100000,-0.0005590572,0.0048141275,-0.0006356879
20120000,20120000,-0.00068395876,0.0032411267,0.00010054848
20140000,20140000,3.3342465e-05,0.004060078,0.000109096625
20160000,20160000,0.0006791273,0.0047732545,0.0002811114
20180000,20180000,0.000328582,0.004871502,-9.9603436e-05
20200000,20200000,0.0001197956,0.0042268885,0.000101553844
20220000,20220000,0.00018811526,0.0028972141,-0.00042370614
20240000,20240000,0.0006371718,0.0052465843,0.00011339832
20260000,20260000,-0.00026828432,0.0056305937,1.4969555e-07
20280000,20280000,9.961301e-05,0.0038170218,0.00011131063
20304000,20304000,0.00021961602,0.004442189,-0.00012693516
20324000,20324000,-0.0010368999,0.005418165,0.00017487814
20344000,20344000,-2.8176051e-05,0.0036613378,-0.00018794641
20364000,20364000,-0.00048436964,0.0036307669,0.0002255385
20384000,20384000,8.675331e-05,0.0021164664,0.00026628902
20404000,20404000,-0.0005428765,0.004534005,-0.0005106141
20424000,20424000,-0.0009369177,0.004202817,0.0003115024
20444000,20444000,-0.0011675106,0.003747059,-0.00013001179
20464000,20464000,-0.0014358269,0.003170322,0.00016467212
20484000,20484000,0.0016854495,0.0039506825,0.00033247238
20504000,20504000,0.00091070903,0.0045985295,3.7390884e-05
20524000,20524000,-0.00082612445,0.00424899,-0.0002007033
20544000,20544000,0.000848948,0.003782048,0.00010194632
20564000,20564000,0.0002588149,0.0052563446,-0.00049210055
20584000,20584000,0.000436926,0.0050725653,-0.0005011573
20604000,20604000,0.00016586187,0.003591605,-4.0460145e-05
20624000,20624000,0.0006761922,0.0037011828,-0.00024787406
20644000,20644000,0.0005816859,0.004837524,0.00034638384
20664000,20664000,-0.00037517725,0.0048548356,-0.00013981285
20684000,20684000,-0.0008621287,0.004759431,8.131526e-05
20704000,20704000,-0.001014888,0.0047066663,0.0004017211
20720000,20720000,-0.00022932536,0.004178724,-0.0001692419
20744000,20744000,-0.00058193953,0.003746494,-7.819336e-05
20764000,20764000,-0.0010864175,0.0036293732,-0.000273683
20780000,20780000,0.000218776,0.003291153,0.0003172695
20804000,20804000,-0.0005809437,0.003212202,0.00024016664
20824000,20824000,-0.00049753685,0.003394735,0.00025500928
20844000,20844000,-0.00032998002,0.0038612632,-5.805454e-05
20864000,20864000,-0.0011986807,0.0039811525,0.00030445642
20884000,20884000,-0.0010610626,0.0054569403,0.00012797753
20900000,20900000,0.00062209595,0.0018381431,1.0821168e-05
20924000,20924000,0.000832847,0.004148249,-2.6935588e-05
20940000,20940000,-0.00084363564,0.0040465742,0.000679063
20964000,20964000,0.0009887002,0.0038989729,0.0001343425
20984000,20984000,-0.0008476181,0.0045582745,-0.00027766626
21004000,21004000,0.00014063675,0.003742073,-0.00046688516
21024000,21024000,-0.0009137728,0.0038756258,1.9660001e-05
21044000,21044000,0.0011418415,0.0032728477,0.00037165388
21064000,21064000,-0.0004936416,0.0051322263,-0.00025242433
21084000,21084000,-0.0010217347,0.0049757184,-0.0003864783
21104000,21104000,-0.00022476604,0.004439771,0.00045193895
21120000,21120000,-0.0005179265,0.004902309,-0.00014155892
21144000,21144000,-0.00045880413,0.004307151,-0.00053096114
21164000,21164000,-0.0013451326,0.0026722916,-0.00044980756
21184000,21184000,-0.00065255526,0.0039771767,0.00049570197
21204000,21204000,-0.0007770721,0.0032375257,0.00044606527
21224000,21224000,-0.0012279355,0.0041542025,-0.00015690818
21244000,21244000,-0.0013204393,0.0033356089,0.00010353441
21264000,21264000,-0.00036284584,0.0039811768,0.00013391061
21284000,21284000,-0.0006562775,0.0037643134,-6.8029796e-05
21304000,21304000,0.00036859565,0.0039832396,7.395373e-05
21324000,21324000,-0.00041350268,0.003577046,-0.00037606485
21344000,21344000,0.0007595576,0.0034773536,0.000147443
21364000,21364000,-0.00054423476,0.0036178601,-0.00019153875
21384000,21384000,0.00015817069,0.0032519149,0.00031247854
21404000,21404000,0.0007768242,0.004087883,-0.00010467782
21424000,21424000,0.0003182333,0.0028250334,-0.00016418369
21444000,21444000,-0.00033135086,0.003974243,0.00016988584
21464000,21464000,-0.00091970665,0.00436241,-9.239693e-05
21484000,21484000,0.00021012983,0.0046416987,-0.00016932658
21504000,21504000,0.0008715944,0.0032068458,0.00028082042
21524000,21524000,-0.0008914571,0.002832658,0.00044620538
21544000,21544000,-0.00060265104,0.0027427343,0.00017418903
21564000,21564000,-0.00038709835,0.0035106852,0.00056313124
21584000,21584000,-0.00025111306,0.004903586,-0.00034756065
21604000,21604000,-0.0013603906,0.00268687,-7.1880044e-05
21620000,21620000,-8.475158e-05,0.0025678042,-0.00011165286
21644000,21644000,7.617971e-05,0.0036663983,0.00045313186
21664000,21664000,-0.00020469166,0.00489295,-2.125853e-05
21684000,21684000,0.00064770284,0.00359288,0.000493918
21704000,21704000,0.00011495864,0.004598793,7.1880546e-05
21724000,21724000,-0.0007149072,0.0036772764,0.00023578177
21744000,21744000,0.0004951161,0.0035693021,2.6168898e-05
21764000,21764000,-0.00022915797,0.0045852754,-0.00013560275
21780000,21780000,7.5178265e-05,0.0041623465,0.00010137999
21804000,21804000,-0.0003572563,0.0035081634,0.0004997811
21824000,21824000,-0.000405704,0.0054621985,-0.00026185365
21844000,21844000,0.0003625705,0.0043617636,-0.00013743789
21864000,21864000,-0.00023635653,0.004494957,0.00030147374
21884000,21884000,-0.0002654724,0.004124071,0.00042599865
21900000,21900000,0.0001493265,0.004151532,-0.00033541443
21924000,21924000,-0.00045867235,0.0033883185,-0.0005289722
21940000,21940000,0.0017584471,0.0035192007,0.0001254613
21964000,21964000,-0.00063872954,0.0038463261,-0.00057711726
21984000,21984000,-0.0003029766,0.002843266,-0.0008940012
22004000,22004000,-6.596021e-05,0.0037011749,-0.0002552537
22024000,22024000,-0.00015851596,0.0030526356,-0.0007803048
22044000,22044000,0.00013351954,0.0039633545,-0.0004855932
22064000,22064000,-0.0011478851,0.0050735367,-0.00044803967
22080000,22080000,-1.2144919e-05,0.003179217,-0.00048964826
22100000,22100000,-0.00043751177,0.005177231,-0.0007370506
22120000,22120000,0.00017714917,0.004164506,-0.00086337334
22140000,22140000,-0.0003249607,0.003373215,-0.0008214143
22160000,22160000,-0.0001986178,0.0036185223,-0.00024934573
22180000,22180000,-1.5843707e-06,0.0053719915,-0.0007304862
22200000,22200000,0.00047315858,0.005143396,-0.00020984307
22224000,22224000,-7.46568e-05,0.005131187,-0.00069819175
22244000,22244000,-0.0013090472,0.005134704,-0.00015930083
22264000,22264000,-0.0008105109,0.0038074644,-0.00022744203
22284000,22284000,6.4509455e-05,0.0033756224,0.00028937793
22304000,22304000,6.240248e-05,0.0046421946,0.0006243011
22324000,22324000,-0.00036172444,0.0048282617,0.00073441735
22344000,22344000,0.0002694286,0.004983548,0.00010371872
22360000,22360000,0.00018145477,0.0055900826,-0.00011703105
22384000,22384000,-0.00012476995,0.005414684,4.109226e-05
22404000,22404000,-0.00026311196,0.0068260357,0.00038776448
22424000,22424000,-6.7932415e-05,0.0055984007,0.00016496121
22444000,22444000,-0.00070025376,0.004766851,0.00016582847
22464000,22464000,0.0005854722,0.004747389,-0.00021273372
22484000,22484000,-0.00040204206,0.0046242047,0.00017341414
22504000,22504000,-0.0005992652,0.0026744534,0.0005414197
22524000,22524000,-0.00059898524,0.004167006,0.00061067514
22544000,22544000,0.00022269425,0.0027809378,0.0009943397
22564000,22564000,-0.00033778022,0.003833211,0.00071053364
22584000,22584000,-8.043355e-05,0.0022029446,0.00040780508
22600000,22600000,-0.0011062502,0.0029816774,8.9212735e-05
22620000,22620000,-0.0009229666,0.0040691094,0.00049946434
22640000,22640000,-0.00068978267,0.0042075156,0.0005705814
22660000,22660000,0.00095740944,0.0025210124,0.00040979395
22684000,22684000,0.00027658392,0.003245797,0.00040508778
22704000,22704000,0.00017411695,0.0040466217,-0.00012975033
22724000,22724000,-0.0005040204,0.0057431757,0.00019124578
22744000,22744000,-0.00067179464,0.0059839217,-0.0005041044
22764000,22764000,-0.0012830659,0.0061306804,0.00085912796
22784000,22784000,0.00017269194,0.005415371,0.00032320022
22804000,22804000,-0.0013440575,0.005355111,0.0006000013
22824000,22824000,-0.00058352586,0.0044465573,0.0003905456
22844000,22844000,-0.0002766514,0.00631762,2.297047e-05
22864000,22864000,-0.001187366,0.0033223708,0.00053625
22884000,22884000,0.000662893,0.002977709,0.00020168988
22904000,22904000,0.00011373448,0.005055464,7.754394e-05
22924000,22924000,-0.00048209523,0.0027901528,-7.27321e-05
22944000,22944000,0.0016459475,0.0032605815,-0.00025409396
22964000,22964000,-0.00030556833,0.0033699535,4.8767113e-05
22984000,22984000,-0.00073558197,0.0036863019,-0.0006140453
23004000,23004000,-0.00010467232,0.0028981175,-0.00027978208
23024000,23024000,-0.00052655383,0.0019521845,-0.0002856228
23044000,23044000,0.0008330815,0.0041323826,-0.00068861584
23064000,23064000,0.00061160844,0.003412116,-0.00083077804
23084000,23084000,2.7645961e-05,0.0025307569,-0.00028711982
23104000,23104000,0.00012621495,0.004278525,-0.00023303492
23124000,23124000,-0.00021944585,0.0029606377,0.00030178958
23144000,23144000,-0.00086245197,0.001818432,-0.00014204934
23160000,23160000,-0.0009624231,0.0028192769,-0.0004209161
23180000,23180000,0.00055170467,0.0019696713,-0.00026777296
23200000,23200000,5.2183503e-05,0.0014214278,-4.757776e-05
23224000,23224000,0.00033820287,0.0021855107,-0.00021147708
23240000,23240000,-0.0004854784,0.004608406,-0.00033535456
23264000,23264000,0.0001943082,0.0045947884,-0.00013918473
23280000,23280000,0.00034639757,0.004016862,-0.0011457506
23300000,23300000,-0.0016051312,0.0040576244,0.00015135444
23320000,23320000,0.0011195402,0.0033363148,-0.00030156723
23344000,23344000,0.0003572843,0.004716771,-0.00020985861
23364000,23364000,0.00048355095,0.0057176426,-0.0001117802
23384000,23384000,0.00019807229,0.004297657,1.527683e-05
23400000,23400000,-0.00069950166,0.004768614,-6.3721294e-05
23420000,23420000,0.0015985809,0.0048091277,-0.0004132504
23440000,23440000,-0.0013648856,0.0051444154,-0.00060238224
23460000,23460000,-6.5503235e-05,0.006089495,0.0001049524
23480000,23480000,0.0001741997,0.0060802377,-0.00016913988
23500000,23500000,4.495232e-05,0.0058926907,-0.00061348575
23524000,23524000,-0.0006179213,0.0041481275,-0.00034213634
23544000,23544000,-0.00041065246,0.005513887,0.00010397343
23564000,23564000,0.00042119343,0.0041293977,-1.8161645e-05
23584000,23584000,0.00047810405,0.0046643172,-0.00030409783
23604000,23604000,-2.6247697e-05,0.0053766696,-0.00053328247
23624000,23624000,-0.000671329,0.0042986204,-0.00034250508
23644000,23644000,-0.00035978432,0.0049838093,-0.00039505784
23664000,23664000,0.0004460841,0.0040621054,-6.96379e-05
23684000,23684000,0.00013228343,0.004363245,-0.00045640487
23704000,23704000,4.6892954e-05,0.0057774903,1.4683974e-05
23724000,23724000,0.00033996717,0.005663451,-3.943834e-05
23744000,23744000,-5.9234564e-05,0.0037752243,-0.0003070216
23764000,23764000,0.00054955954,0.0021079117,-0.00056521955
23784000,23784000,2.9724848e-05,0.0051602568,0.00051655277
23804000,23804000,0.0009919482,0.0046270546,-0.000380771
23824000,23824000,0.000100285775,0.006209261,4.722026e-05
23844000,23844000,-0.00024992833,0.005496051,1.4241741e-05
23864000,23864000,-0.0015358011,0.0043113036,-0.00022430584
23884000,23884000,-0.0005753221,0.003165306,-0.00046891955
23904000,23904000,0.0014510644,0.004833636,-0.000111437235
23924000,23924000,0.0011053393,0.0041874433,2.7605973e-05
23944000,23944000,0.00010005671,0.0038480246,-0.0004003088
23964000,23964000,-0.00065270835,0.0048265327,4.440736e-05
23984000,23984000,-0.0005851023,0.0031178081,9.0532005e-05
24004000,24004000,0.00033969176,0.0044538206,-5.9909114e-05
24024000,24024000,-0.00011451774,0.0037227452,0.00045742994
24044000,24044000,-0.00051165686,0.0034815427,0.0005682512
24064000,24064000,-0.0003861226,0.0039448105,-0.00035796038
24084000,24084000,-0.0011661492,0.0042209774,0.00027720153
24104000,24104000,-0.0009265534,0.005080778,2.398259e-05
24124000,24124000,0.00017052256,0.0047101136,-0.0005394168
24144000,24144000,-0.00016574479,0.005724375,0.00093839655
24164000,24164000,0.0005127123,0.0050594597,0.00015412435
24184000,24184000,0.00076940126,0.004377057,-0.00036306976
24204000,24204000,-0.00016288202,0.0035682241,-0.00017848102
24224000,24224000,-0.0013524732,0.0041606333,-3.6459674e-05
24244000,24244000,0.0016493642,0.005172711,-0.00015928238
24264000,24264000,0.00042278907,0.004570166,-8.8410954e-05
24284000,24284000,-0.0011012013,0.0047290884,-7.1784125e-06
24304000,24304000,-0.000212991,0.0035933228,2.1653097e-05
24324000,24324000,-0.00044922257,0.0035391608,6.3033374e-05
24344000,24344000,-0.00029316312,0.0032438105,0.0008917081
24364000,24364000,-0.00039682427,0.0030486786,6.4739084e-05
24384000,24384000,0.0017035713,0.0036056773,0.00016489356
24404000,24404000,0.00028775213,0.0034366262,0.00048245277
24424000,24424000,0.00023563954,0.0035810343,0.00038380368
24444000,24444000,0.0011818553,0.003153552,0.0004464055
24464000,24464000,-0.0005780147,0.0041389824,0.00047311786
24484000,24484000,0.00058134773,0.0043397304,3.320095e-05
24504000,24504000,-0.0005219065,0.0049155573,0.00024465987
24524000,24524000,-0.00048023302,0.0051173726,0.0009979176
24544000,24544000,-0.00034279603,0.0055930577,6.726339e-05
24564000,24564000,-0.00036456896,0.0050808727,0.00022818382
24584000,24584000,0.000625529,0.0058053797,0.00015978586
24604000,24604000,-0.0008901919,0.005453804,0.00023376461
24624000,24624000,0.00030594808,0.0055925255,0.00045990976
24644000,24644000,-0.00081682444,0.0057788226,0.00032113763
24664000,24664000,0.0010460581,0.004925334,0.00033618684
24684000,24684000,0.0014050051,0.006204615,0.00013515547
24704000,24704000,-0.00055541494,0.005017859,-0.00027119953
24724000,24724000,2.6610564e-05,0.0048463694,0.00048088114
24744000,24744000,0.00013166014,0.0071554487,0.00036585543
24764000,24764000,-0.00078930584,0.0050122817,0.00046961385
24784000,24784000,-0.00010706413,0.0043683746,0.00018284516
24804000,24804000,0.00042656547,0.005756679,-8.0159134e-07
