timestamp,timestamp_sample,yaw_composite,yaw_variance,yaw[0],yaw[1],yaw[2],yaw[3],yaw[4],innov_vn[0],innov_vn[1],innov_vn[2],innov_vn[3],innov_vn[4],innov_ve[0],innov_ve[1],innov_ve[2],innov_ve[3],innov_ve[4],weight[0],weight[1],weight[2],weight[3],weight[4],yaw_composite_valid
15500000,15420000,2.6779451,3.5801747,-2.5132742,-1.2566371,0.0,1.2566371,2.5132742,0.0,0.0,0.0,0.0,0.0,0.0,0.0,0.0,0.0,0.0,0.2,0.2,0.2,0.2,0.2,0
15508000,15428000,2.782822,3.625721,-2.5132866,-1.2566494,-1.2276756e-05,1.2566248,2.513262,0.0,0.0,0.0,0.0,0.0,0.0,0.0,0.0,0.0,0.0,0.2,0.2,0.2,0.2,0.2,0
16500000,16420000,1.3223577,3.4890895,-2.517474,-1.2527682,0.006842038,1.2572613,2.5070772,-0.1162652,0.0068639945,0.11392729,0.057354674,-0.084694535,-0.062701285,-0.13561492,-0.04105536,0.08980345,0.076748036,0.19720764,0.19692719,0.20088324,0.20363885,0.201343,0
17500000,17420000,2.092825,3.5452058,-2.5245228,-1.2580268,0.011056644,1.2655501,2.508452,-0.14033408,0.03149059,0.18534511,0.110174045,-0.09061772,-0.085817575,-0.19286568,-0.06278679,0.12332362,0.11026351,0.1992708,0.19278666,0.19618008,0.2048973,0.20686509,0
18500000,18420000,-2.9497871,3.5060072,-2.5115016,-1.2613031,0.0066768266,1.2766082,2.530209,-0.08733377,0.078234635,0.16511586,0.0526462,-0.101529,-0.0602127,-0.0989041,0.04777903,0.17416106,0.10762463,0.2090139,0.19881013,0.19044901,0.19510823,0.20661867,0
19500000,19420000,2.8414893,2.6841643,-2.581321,-1.325189,0.034068055,1.3520315,2.5439105,-0.2279267,-0.047717594,0.20001048,0.12990363,-0.12256118,-0.044439293,-0.23448159,-0.102616444,0.16388054,0.1770531,0.23913506,0.1600045,0.13925602,0.19478813,0.26681638,0
20500000,20420000,1.8029584,1.9833498,-2.6629112,-1.2665131,0.14687778,1.3459154,2.431489,-0.42904407,-0.21313761,0.16136867,0.11518137,-0.2149613,-0.08259609,-0.40426812,-0.25744244,0.110656835,0.19415492,0.13251382,0.08038608,0.15461838,0.33085212,0.3016296,0
21500000,21420000,1.6189358,1.207604,-2.7173574,-1.2336136,0.2155402,1.3473362,2.3663392,-0.19734403,-0.06062284,0.10472346,0.04884614,-0.09934005,-0.05407039,-0.2066583,-0.09043397,0.06498325,0.08809404,0.07075324,0.03739153,0.14507581,0.44273347,0.30404592,0
22500000,22420000,1.5914289,1.1746055,-2.7183044,-1.229744,0.21644515,1.3425285,2.360607,-0.08581649,-0.009315759,0.05176641,0.011620395,-0.055809475,-0.03983394,-0.09409045,-0.02564412,0.037016056,0.033087656,0.06643668,0.03606362,0.14825742,0.45172462,0.2975176,0
23500000,23420000,1.6133283,1.164251,-2.7215672,-1.2329669,0.21880434,1.3472608,2.3630304,0.04854258,0.06498233,0.04042404,0.020241879,0.023499824,0.032699257,0.059776418,0.07833847,0.06341724,0.04111287,0.06732755,0.034996174,0.14322582,0.45056337,0.303887,0
24500000,24420000,1.618676,1.1733276,-2.7238102,-1.2374271,0.21521042,1.3457689,2.3623853,-0.0061310027,0.019899225,0.027895836,0.010340009,-0.006549428,0.05467456,0.049183045,0.07396902,0.085642345,0.076859,0.068577275,0.035357762,0.1422584,0.44799712,0.3058095,0
25500000,25420000,1.6240822,1.1579835,-2.724439,-1.2357931,0.21923248,1.3488001,2.3631518,-0.022718288,0.03536325,0.057338044,0.019500582,-0.020229863,-0.054475226,-0.07107812,-0.016018264,0.013225472,-0.0042485837,0.06782467,0.03442836,0.14052977,0.4498274,0.3073898,0
26500000,26420000,1.62694,1.1555752,-2.72472,-1.2359717,0.21986778,1.3495785,2.3635707,-0.003295205,0.024253398,0.021115648,-0.00085060357,-0.013283338,-0.0057843598,0.0001634584,0.027636457,0.031277277,0.015387092,0.06786228,0.034238357,0.13984674,0.44981962,0.308233,0
27500000,27420000,1.629708,1.1556089,-2.7245057,-1.235927,0.22048853,1.3505216,2.3642662,0.005041564,0.017976677,0.002745117,-0.011658303,-0.0110282395,-0.0015123673,0.01535294,0.029617505,0.020979002,0.0057717115,0.06804864,0.03419848,0.13940272,0.44946238,0.3088878,0
28500000,28420000,1.6287477,1.1549786,-2.724553,-1.2357694,0.22049768,1.3503326,2.3640425,0.004131412,0.016999051,0.001218097,-0.013292952,-0.012368658,-0.025978994,-0.008565497,0.0056898203,-0.0033780392,-0.018857978,0.0679329,0.034180883,0.13954021,0.44969857,0.30864742,0
29500000,29420000,1.6285162,1.1561579,-2.7233498,-1.2346871,0.22117296,1.3509816,2.3649406,0.020990316,0.013965289,-0.011900448,-0.014221786,0.0014815525,-0.012410717,0.01335923,0.008980988,-0.012001177,-0.022947565,0.0679317,0.03427652,0.13985357,0.44966874,0.30826953,0
30500000,30420000,1.6271391,1.1585578,-2.7221696,-1.2337878,0.22132266,1.3511277,2.3655758,0.030465296,0.010192816,-0.025402775,-0.020496072,0.006462298,-0.030910725,0.0035095084,-0.012986509,-0.04416623,-0.053784635,0.067956395,0.034465697,0.14042677,0.44955444,0.30759668,0
31500000,31420000,1.6159605,1.1528105,-2.7216518,-1.2313126,0.22163965,1.3493133,2.36385,0.064542145,0.02024134,-0.02226021,-0.0011902172,0.04115253,-0.0041366983,0.035031177,-0.0044123596,-0.046031475,-0.04733147,0.06672106,0.03439909,0.14232212,0.45202726,0.30453056,0
32500000,32420000,1.6077002,1.1558955,-2.7200544,-1.2296352,0.22092247,1.3478401,2.3634465,0.053981427,-0.012362817,-0.04389713,-0.0029444154,0.045495268,0.022170514,0.04789379,-0.014186008,-0.052470732,-0.036436558,0.06633984,0.034798544,0.14429484,0.45261487,0.3019519,0
33500000,33420000,1.609487,1.1318192,-2.7233949,-1.229023,0.22427483,1.3490127,2.3613567,0.072689384,-0.020179285,-0.04770325,0.014675234,0.07453422,0.06414792,0.08326484,-0.0054332837,-0.046406694,-0.014554283,0.064906724,0.033467647,0.14239419,0.45602283,0.30320862,0
34500000,34420000,1.6123754,1.1188304,-2.7259712,-1.2296484,0.22573777,1.3496392,2.3599634,0.0427868,-0.03857109,-0.061183058,-0.006411057,0.045233577,0.03402646,0.049508367,-0.02820973,-0.062913276,-0.034544032,0.06432456,0.03271445,0.1408701,0.4574934,0.30459747,0
35500000,35420000,1.6172938,1.1216004,-2.726087,-1.2309664,0.22521086,1.3502456,2.3608084,0.04141411,-0.004709337,-0.036266074,-0.010647148,0.02732111,-0.01197348,0.016050786,-0.026313877,-0.059975084,-0.054350905,0.06498196,0.032827027,0.1400984,0.45611137,0.30598116,0
36500000,36420000,1.6222266,1.14458,-2.723099,-1.2327979,0.22200443,1.3502373,2.3639276,0.041033484,-0.025181925,-0.05536151,-0.014028412,0.0335293,-0.010998052,0.013535872,-0.04871268,-0.085794374,-0.06906988,0.06702132,0.034083072,0.14076303,0.45155436,0.30657822,0
37500000,37420000,1.6227031,1.1093154,-2.7288322,-1.2326812,0.22589582,1.3508128,2.3598175,0.053352542,-0.04536681,-0.092522085,-0.03164883,0.040215984,0.058391824,0.097298466,0.0047374074,-0.052131735,-0.028553827,0.06478755,0.03214888,0.1381268,0.45673397,0.30820277,0
38500000,38420000,1.6261239,1.1056958,-2.7298384,-1.2336476,0.2260243,1.3512254,2.3597047,0.06331531,-0.022799665,-0.0637882,-0.010484234,0.05196195,0.037323542,0.07125035,-0.009716289,-0.059059754,-0.038325477,0.06491512,0.03193987,0.1371903,0.4565316,0.30942306,0
39500000,39420000,1.6302623,1.0958431,-2.7312884,-1.2340245,0.22743213,1.3523374,2.359455,0.074713945,-0.013550029,-0.06053379,-0.0072708908,0.05890596,0.026935399,0.06694795,-0.01571915,-0.06988905,-0.051403522,0.06464934,0.03139265,0.13576455,0.45723224,0.31096125,0
40500000,40420000,1.6318146,1.0833559,-2.732387,-1.233223,0.22963673,1.3535124,2.359033,0.0823617,-0.014167756,-0.06551057,-0.0072555034,0.06499901,0.033444345,0.077291675,-0.013182394,-0.0723096,-0.052126713,0.06392956,0.030742528,0.1347408,0.45890704,0.31168002,0
41500000,41420000,1.6591126,1.080412,-2.7347157,-1.2382215,0.23079664,1.3584,2.3624144,0.06330278,-0.046379536,-0.10734656,-0.041517112,0.041688077,0.03608089,0.08854548,-0.014333952,-0.08336423,-0.06153594,0.06611537,0.030219246,0.12925042,0.4543074,0.32010758,0
42500000,42420000,1.6513996,1.0713885,-2.7353573,-1.2364998,0.23177616,1.3574216,2.360527,0.050558668,0.037321664,-0.010821036,-0.014398994,0.014655515,-0.012180241,0.035771962,0.026930166,-0.011912821,-0.03168147,0.06485752,0.029875157,0.13012728,0.45705372,0.31808636,0
43500000,43420000,1.6466585,1.0660299,-2.735332,-1.2350472,0.23264928,1.3570567,2.3597202,0.036082692,0.023387164,-0.006856596,-0.005811548,0.014598185,-0.001282529,0.028503181,0.018619884,-0.0066910144,-0.016938962,0.06406908,0.029676609,0.13074821,0.45878685,0.31671932,0
44500000,44420000,1.6474999,1.0670073,-2.734794,-1.2347358,0.23294127,1.3575137,2.3602989,0.0260044,0.011654625,-0.01890448,-0.016690463,0.0046857977,-0.014070762,0.015895367,0.0043996447,-0.021494202,-0.031078678,0.06417714,0.029726572,0.13074271,0.45854563,0.31680787,0
45500000,45420000,1.6454823,1.0688967,-2.7339962,-1.2340803,0.23284389,1.3573155,2.3605182,0.04037843,0.014993738,-0.0138796475,-0.0028673904,0.02324232,0.0009177212,0.028190019,0.0056835576,-0.02131295,-0.024437498,0.064140365,0.02988596,0.13136737,0.45860547,0.3160008,0
46476000,46396000,1.6450032,1.0660524,-2.7341022,-1.2336376,0.2334212,1.3575181,2.360386,0.026317593,-0.010359772,-0.035044838,-0.014344459,0.015450983,0.019108985,0.041129388,0.007139405,-0.019134678,-0.014312195,0.06388874,0.029747453,0.13130297,0.45916966,0.31589124,0
