timestamp,x,y,z,vx,vy,vz,acceleration[0],acceleration[1],acceleration[2],thrust[0],thrust[1],thrust[2],yaw,yawspeed
3340000,nan,nan,nan,nan,nan,nan,0.0,0.0,100.0,-0.0,-0.0,-0.001,-0.00013002001,0.0
3348000,nan,nan,nan,nan,nan,nan,0.0,0.0,100.0,-0.0,-0.0,-0.001,-0.000139372,0.0
3436000,nan,nan,nan,nan,nan,nan,0.0,0.0,100.0,-0.0,-0.0,-0.001,1.6279988,0.0
3540000,nan,nan,nan,nan,nan,nan,0.0,0.0,100.0,-0.0,-0.0,-0.001,1.628012,0.0
3636000,nan,nan,nan,nan,nan,nan,0.0,0.0,100.0,-0.0,-0.0,-0.001,1.6263136,0.0
3740000,nan,nan,nan,nan,nan,nan,0.0,0.0,100.0,-0.0,-0.0,-0.001,1.625614,0.0
3836000,nan,nan,nan,nan,nan,nan,0.0,0.0,100.0,-0.0,-0.0,-0.001,1.6253833,0.0
3940000,nan,nan,nan,nan,nan,nan,0.0,0.0,100.0,-0.0,-0.0,-0.001,1.6264249,0.0
4036000,nan,nan,nan,nan,nan,nan,0.0,0.0,100.0,-0.0,-0.0,-0.001,1.6273623,0.0
4140000,nan,nan,nan,nan,nan,nan,0.0,0.0,100.0,-0.0,-0.0,-0.001,1.6267511,0.0
4236000,nan,nan,nan,nan,nan,nan,0.0,0.0,100.0,-0.0,-0.0,-0.001,1.625802,0.0
4340000,nan,nan,nan,nan,nan,nan,0.0,0.0,100.0,-0.0,-0.0,-0.001,1.6257777,0.0
4436000,nan,nan,nan,nan,nan,nan,0.0,0.0,100.0,-0.0,-0.0,-0.001,1.6261251,0.0
4540000,nan,nan,nan,nan,nan,nan,0.0,0.0,100.0,-0.0,-0.0,-0.001,1.6244621,0.0
4644000,nan,nan,nan,nan,nan,nan,0.0,0.0,100.0,-0.0,-0.0,-0.001,1.6232947,0.0
4740000,nan,nan,nan,nan,nan,nan,0.0,0.0,100.0,-0.0,-0.0,-0.001,1.6231339,0.0
4836000,nan,nan,nan,nan,nan,nan,0.0,0.0,100.0,-0.0,-0.0,-0.001,1.6228771,0.0
4940000,nan,nan,nan,nan,nan,nan,0.0,0.0,100.0,-0.0,-0.0,-0.001,1.621725,0.0
5036000,nan,nan,nan,nan,nan,nan,0.0,0.0,100.0,-0.0,-0.0,-0.001,1.6211579,0.0
5140000,nan,nan,nan,nan,nan,nan,0.0,0.0,100.0,-0.0,-0.0,-0.001,1.6215756,0.0
5236000,nan,nan,nan,nan,nan,nan,0.0,0.0,100.0,-0.0,-0.0,-0.001,1.6213228,0.0
5340000,nan,nan,nan,nan,nan,nan,0.0,0.0,100.0,-0.0,-0.0,-0.001,1.6205856,0.0
5436000,nan,nan,nan,nan,nan,nan,0.0,0.0,100.0,-0.0,-0.0,-0.001,1.6196076,0.0
5540000,nan,nan,nan,nan,nan,nan,0.0,0.0,100.0,-0.0,-0.0,-0.001,1.6190965,0.0
5636000,nan,nan,nan,nan,nan,nan,0.0,0.0,100.0,-0.0,-0.0,-0.001,1.6186148,0.0
5740000,nan,nan,nan,nan,nan,nan,0.0,0.0,100.0,-0.0,-0.0,-0.001,1.6184869,0.0
5836000,nan,nan,nan,nan,nan,nan,0.0,0.0,100.0,-0.0,-0.0,-0.001,1.6195076,0.0
5940000,nan,nan,nan,nan,nan,nan,0.0,0.0,100.0,-0.0,-0.0,-0.001,1.6205759,0.0
6036000,nan,nan,nan,nan,nan,nan,0.0,0.0,100.0,-0.0,-0.0,-0.001,1.6210537,0.0
6140000,nan,nan,nan,nan,nan,nan,0.0,0.0,100.0,-0.0,-0.0,-0.001,1.6215659,0.0
6236000,nan,nan,nan,nan,nan,nan,0.0,0.0,100.0,-0.0,-0.0,-0.001,1.6207861,0.0
6340000,nan,nan,nan,nan,nan,nan,0.0,0.0,100.0,-0.0,-0.0,-0.001,1.6199278,0.0
6436000,nan,nan,nan,nan,nan,nan,0.0,0.0,100.0,-0.0,-0.0,-0.001,1.6197517,0.0
6540000,nan,nan,nan,nan,nan,nan,0.0,0.0,100.0,-0.0,-0.0,-0.001,1.6202074,0.0
6636000,nan,nan,nan,nan,nan,nan,0.0,0.0,100.0,-0.0,-0.0,-0.001,1.6200336,0.0
6740000,nan,nan,nan,nan,nan,nan,0.0,0.0,100.0,-0.0,-0.0,-0.001,1.6187252,0.0
6836000,nan,nan,nan,nan,nan,nan,0.0,0.0,100.0,-0.0,-0.0,-0.001,1.617344,0.0
6940000,nan,nan,nan,nan,nan,nan,0.0,0.0,100.0,-0.0,-0.0,-0.001,1.6171144,0.0
7036000,nan,nan,nan,nan,nan,nan,0.0,0.0,100.0,-0.0,-0.0,-0.001,1.6178639,0.0
7140000,nan,nan,nan,nan,nan,nan,0.0,0.0,100.0,-0.0,-0.0,-0.001,1.6187918,0.0
7236000,nan,nan,nan,nan,nan,nan,0.0,0.0,100.0,-0.0,-0.0,-0.001,1.6186,0.0
7340000,nan,nan,nan,nan,nan,nan,0.0,0.0,100.0,-0.0,-0.0,-0.001,1.6183938,0.0
7436000,nan,nan,nan,nan,nan,nan,0.0,0.0,100.0,-0.0,-0.0,-0.001,1.6198264,0.0
7540000,nan,nan,nan,nan,nan,nan,0.0,0.0,100.0,-0.0,-0.0,-0.001,1.6206784,0.0
7636000,nan,nan,nan,nan,nan,nan,0.0,0.0,100.0,-0.0,-0.0,-0.001,1.6207054,0.0
7740000,nan,nan,nan,nan,nan,nan,0.0,0.0,100.0,-0.0,-0.0,-0.001,1.6208565,0.0
7836000,nan,nan,nan,nan,nan,nan,0.0,0.0,100.0,-0.0,-0.0,-0.001,1.620559,0.0
7940000,nan,nan,nan,nan,nan,nan,0.0,0.0,100.0,-0.0,-0.0,-0.001,1.619673,0.0
8036000,nan,nan,nan,nan,nan,nan,0.0,0.0,100.0,-0.0,-0.0,-0.001,1.6192541,0.0
8140000,nan,nan,nan,nan,nan,nan,0.0,0.0,100.0,-0.0,-0.0,-0.001,1.6195585,0.0
8236000,nan,nan,nan,nan,nan,nan,0.0,0.0,100.0,-0.0,-0.0,-0.001,1.6196424,0.0
8340000,nan,nan,nan,nan,nan,nan,0.0,0.0,100.0,-0.0,-0.0,-0.001,1.6195313,0.0
8436000,nan,nan,nan,nan,nan,nan,0.0,0.0,100.0,-0.0,-0.0,-0.001,1.6196556,0.0
8540000,nan,nan,nan,nan,nan,nan,0.0,0.0,100.0,-0.0,-0.0,-0.001,1.6194257,0.0
8636000,nan,nan,nan,nan,nan,nan,0.0,0.0,100.0,-0.0,-0.0,-0.001,1.6192104,0.0
8740000,nan,nan,nan,nan,nan,nan,0.0,0.0,100.0,-0.0,-0.0,-0.001,1.619111,0.0
8836000,nan,nan,nan,nan,nan,nan,0.0,0.0,100.0,-0.0,-0.0,-0.001,1.6187742,0.0
8940000,nan,nan,nan,nan,nan,nan,0.0,0.0,100.0,-0.0,-0.0,-0.001,1.6186012,0.0
9036000,nan,nan,nan,nan,nan,nan,0.0,0.0,100.0,-0.0,-0.0,-0.001,1.6185027,0.0
9140000,nan,nan,nan,nan,nan,nan,0.0,0.0,100.0,-0.0,-0.0,-0.001,1.6186755,0.0
9236000,nan,nan,nan,nan,nan,nan,0.0,0.0,100.0,-0.0,-0.0,-0.001,1.61922,0.0
9340000,nan,nan,nan,nan,nan,nan,0.0,0.0,100.0,-0.0,-0.0,-0.001,1.6196958,0.0
9436000,nan,nan,nan,nan,nan,nan,0.0,0.0,100.0,-0.0,-0.0,-0.001,1.6197628,0.0
9540000,nan,nan,nan,nan,nan,nan,0.0,0.0,100.0,-0.0,-0.0,-0.001,1.6198243,0.0
9636000,nan,nan,nan,nan,nan,nan,0.0,0.0,100.0,-0.0,-0.0,-0.001,1.619679,0.0
9740000,nan,nan,nan,nan,nan,nan,0.0,0.0,100.0,-0.0,-0.0,-0.001,1.6191553,0.0
9836000,nan,nan,nan,nan,nan,nan,0.0,0.0,100.0,-0.0,-0.0,-0.001,1.6199555,0.0
9940000,nan,nan,nan,nan,nan,nan,0.0,0.0,100.0,-0.0,-0.0,-0.001,1.620257,0.0
10044000,nan,nan,nan,nan,nan,nan,0.0,0.0,100.0,-0.0,-0.0,-0.001,1.6199789,0.0
10140000,nan,nan,nan,nan,nan,nan,0.0,0.0,100.0,-0.0,-0.0,-0.001,1.6194172,0.0
10236000,nan,nan,nan,nan,nan,nan,0.0,0.0,100.0,-0.0,-0.0,-0.001,1.6193267,0.0
10340000,nan,nan,nan,nan,nan,nan,0.0,0.0,100.0,-0.0,-0.0,-0.001,1.6196343,0.0
10436000,nan,nan,nan,nan,nan,nan,0.0,0.0,100.0,-0.0,-0.0,-0.001,1.6195955,0.0
10540000,nan,nan,nan,nan,nan,nan,0.0,0.0,100.0,-0.0,-0.0,-0.001,1.6195458,0.0
10636000,nan,nan,nan,nan,nan,nan,0.0,0.0,100.0,-0.0,-0.0,-0.001,1.6194264,0.0
10740000,nan,nan,nan,nan,nan,nan,0.0,0.0,100.0,-0.0,-0.0,-0.001,1.6196545,0.0
10836000,nan,nan,nan,nan,nan,nan,0.0,0.0,100.0,-0.0,-0.0,-0.001,1.619914,0.0
10940000,nan,nan,nan,nan,nan,nan,0.0,0.0,100.0,-0.0,-0.0,-0.001,1.6200954,0.0
11036000,nan,nan,nan,nan,nan,nan,0.0,0.0,100.0,-0.0,-0.0,-0.001,1.6198082,0.0
11140000,nan,nan,nan,nan,nan,nan,0.0,0.0,100.0,-0.0,-0.0,-0.001,1.6198859,0.0
11244000,nan,nan,nan,nan,nan,nan,0.0,0.0,100.0,-0.0,-0.0,-0.001,1.6203151,0.0
11340000,nan,nan,nan,nan,nan,nan,0.0,0.0,100.0,-0.0,-0.0,-0.001,1.6206061,0.0
11436000,nan,nan,nan,nan,nan,nan,0.0,0.0,100.0,-0.0,-0.0,-0.001,1.6205952,0.0
11540000,nan,nan,nan,nan,nan,nan,0.0,0.0,100.0,-0.0,-0.0,-0.001,1.6204239,0.0
11636000,nan,nan,nan,nan,nan,nan,0.0,0.0,100.0,-0.0,-0.0,-0.001,1.6202743,0.0
11740000,nan,nan,nan,nan,nan,nan,0.0,0.0,100.0,-0.0,-0.0,-0.001,1.6208271,0.0
11836000,nan,nan,nan,nan,nan,nan,0.0,0.0,100.0,-0.0,-0.0,-0.001,1.6207926,0.0
11940000,nan,nan,nan,nan,nan,nan,0.0,0.0,100.0,-0.0,-0.0,-0.001,1.6205579,0.0
12036000,nan,nan,nan,nan,nan,nan,0.0,0.0,100.0,-0.0,-0.0,-0.001,1.6200833,0.0
12140000,nan,nan,nan,nan,nan,nan,0.0,0.0,100.0,-0.0,-0.0,-0.001,1.6200206,0.0
12236000,nan,nan,nan,nan,nan,nan,0.0,0.0,100.0,-0.0,-0.0,-0.001,1.6203538,0.0
12340000,nan,nan,nan,nan,nan,nan,0.0,0.0,100.0,-0.0,-0.0,-0.001,1.620827,0.0
12436000,nan,nan,nan,nan,nan,nan,0.0,0.0,100.0,-0.0,-0.0,-0.001,1.6210678,0.0
12540000,nan,nan,nan,nan,nan,nan,0.0,0.0,100.0,-0.0,-0.0,-0.001,1.6213281,0.0
12636000,nan,nan,nan,nan,nan,nan,0.0,0.0,100.0,-0.0,-0.0,-0.001,1.621741,0.0
12740000,nan,nan,nan,nan,nan,nan,0.0,0.0,100.0,-0.0,-0.0,-0.001,1.6214646,0.0
12844000,nan,nan,nan,nan,nan,nan,0.0,0.0,100.0,-0.0,-0.0,-0.001,1.6209081,0.0
12940000,nan,nan,nan,nan,nan,nan,0.0,0.0,100.0,-0.0,-0.0,-0.001,1.620465,0.0
13036000,nan,nan,nan,nan,nan,nan,0.0,0.0,100.0,-0.0,-0.0,-0.001,1.6201891,0.0
13140000,nan,nan,nan,nan,nan,nan,0.0,0.0,100.0,-0.0,-0.0,-0.001,1.6203744,0.0
13236000,nan,nan,nan,nan,nan,nan,0.0,0.0,100.0,-0.0,-0.0,-0.001,1.6207279,0.0
13340000,nan,nan,nan,nan,nan,nan,0.0,0.0,100.0,-0.0,-0.0,-0.001,1.6206533,0.0
13436000,nan,nan,nan,nan,nan,nan,0.0,0.0,100.0,-0.0,-0.0,-0.001,1.6202989,0.0
13540000,nan,nan,nan,nan,nan,nan,0.0,0.0,100.0,-0.0,-0.0,-0.001,1.6201725,0.0
13636000,nan,nan,nan,nan,nan,nan,0.0,0.0,100.0,-0.0,-0.0,-0.001,1.6200511,0.0
13740000,nan,nan,nan,nan,nan,nan,0.0,0.0,100.0,-0.0,-0.0,-0.001,1.6205525,0.0
13836000,nan,nan,nan,nan,nan,nan,0.0,0.0,100.0,-0.0,-0.0,-0.001,1.6210461,0.0
13940000,nan,nan,nan,nan,nan,nan,0.0,0.0,100.0,-0.0,-0.0,-0.001,1.6213522,0.0
14044000,nan,nan,nan,nan,nan,nan,0.0,0.0,100.0,-0.0,-0.0,-0.001,1.621145,0.0
14140000,nan,nan,nan,nan,nan,nan,0.0,0.0,100.0,-0.0,-0.0,-0.001,1.6207287,0.0
14236000,nan,nan,nan,nan,nan,nan,0.0,0.0,100.0,-0.0,-0.0,-0.001,1.6201437,0.0
14340000,nan,nan,nan,nan,nan,nan,0.0,0.0,100.0,-0.0,-0.0,-0.001,1.619628,0.0
14436000,-0.013215969,0.010558093,-0.006190634,-0.0005150854,0.00011393072,2.349898,0.01347176,-0.010104535,9.528491,1.9586078e-05,-1.46905995e-05,-0.01418218,1.6189954,0.0
14540000,-0.013202365,0.010556393,-0.011426337,-0.0012557947,0.00022418177,2.1609073,0.012451504,-0.008069253,9.237091,3.7628633e-05,-2.4385401e-05,-0.029039443,1.6186697,0.0
14636000,-0.013169446,0.0105522005,-0.005655271,-0.001528127,0.00011761555,1.986454,0.012113633,-0.0123843495,8.931807,5.4910375e-05,-5.6137524e-05,-0.0446046,1.6187266,0.0
14740000,-0.013122277,0.010546161,-0.01060542,-0.0026032794,0.00064030645,1.7974629,0.002222638,-0.011604592,8.572346,1.35562295e-05,-7.077828e-05,-0.062932014,1.618904,0.0
14836000,-0.013052997,0.010537267,-0.0076882737,-0.004178902,0.0016901486,1.6230098,0.0019334968,-0.0037406317,8.198438,1.2999539e-05,-2.5149502e-05,-0.08199602,1.6190469,0.0
14940000,-0.0129722655,0.010526887,-0.012361086,-0.005340624,0.002502542,1.4340187,-0.0015821713,-0.0035252734,7.7609363,-1.474555e-05,-3.2854914e-05,-0.10430238,1.6191367,0.0
15036000,-0.0128666265,0.010513292,-0.008950894,-0.0059152246,0.0029647136,1.2595656,-9.8490855e-05,0.00018758967,7.31542,-0.0,-0.0,-0.12701738,1.6185378,0.0
15140000,-0.012752332,0.010498572,-0.0129095325,-0.0075189476,0.0034102006,1.0705748,-0.011034569,-0.00072920066,6.794844,-0.00017546143,-1.1595072e-05,-0.15355936,1.6181513,0.0
15236000,-0.012610332,0.010480275,-0.012515235,-0.009847651,0.0037515855,0.89612246,-0.019719739,0.0031631063,6.2842703,-0.0003569968,5.726338e-05,-0.17959139,1.6182044,0.0
15340000,-0.0124624735,0.010461218,-0.016179096,-0.011816933,0.003951108,0.70713246,-0.02707869,-0.00119574,5.691558,-0.00057896477,-2.5565909e-05,-0.2098113,1.6180865,0.0
15436000,-0.012284114,0.010438222,-0.014711793,-0.01311817,0.0039034258,0.5326803,-0.027603636,-0.000662724,5.108906,-0.00067164825,-1.612532e-05,-0.23951831,1.6181127,0.0
15540000,-0.012102693,0.010414826,-0.01717619,-0.01332685,0.0044231317,0.3436904,-0.024218755,-0.0007756416,4.438096,-0.00066792103,-2.1391159e-05,-0.2737201,1.6181802,0.0
15636000,-0.011887973,0.010387128,-0.018286245,-0.012520187,0.0053016655,0.16923809,-0.02556933,0.0039071376,3.7856846,-0.00080479577,0.00012297732,-0.30698383,1.6181563,0.0
15740000,-0.0116729885,0.010359392,-0.020205118,-0.011855547,0.0060731806,0.06426239,-0.023547495,0.014216181,3.3789165,-0.00078097347,0.0004714922,-0.3277232,1.618175,0.0
15844000,-0.011381603,0.010321791,-0.020171296,-0.011122381,0.0066708713,0.0033669127,-0.02209147,0.013447437,3.1358151,-0.00077048934,0.00046900936,-0.34011793,1.618145,0.0
15940000,-0.011173362,0.010294916,-0.020668996,-0.010627859,0.007073151,-0.037058014,-0.027488986,0.008993132,2.9703622,-0.0009839259,0.00032189526,-0.34855366,1.6178852,0.0
16036000,-0.010885921,0.010257816,-0.022983873,-0.0101181995,0.007311614,-0.09072254,-0.022982413,0.013700078,2.7362745,-0.0008350018,0.0004977541,-0.36048883,1.6180964,0.0
16140000,-0.010603811,0.010221399,-0.022920255,-0.009674193,0.007459858,-0.13895667,-0.023369944,0.011445854,2.5096767,-0.00088610617,0.00043398654,-0.37204212,1.6179211,0.0
16236000,-0.010280009,0.010179597,-0.024482753,-0.009219366,0.007410369,-0.1932219,-0.023105055,0.009686743,2.2534313,-0.00090110087,0.0003777845,-0.38510698,1.6174277,0.0
16340000,-0.009964337,0.01013884,-0.023487186,-0.008707782,0.0068655894,-0.24028829,-0.023933547,0.006227037,2.0156555,-0.0009753755,0.00025377347,-0.39723018,1.6166992,0.0
16436000,-0.0096041765,0.010092338,-0.027232097,-0.008156501,0.0059231496,-0.29553056,-0.026090587,0.0067807576,1.73591,-0.0011000591,0.00028589755,-0.4114932,1.616162,0.0
16540000,-0.00925494,0.010047242,-0.025462965,-0.007843783,0.0050354227,-0.34219423,-0.027636558,0.002643161,1.4699486,-0.0011868468,0.00011351006,-0.42505348,1.6157097,0.0
16636000,-0.008858418,0.009996037,-0.028176116,-0.0075592417,0.0042612017,-0.39805007,-0.026468843,0.002061835,1.1636705,-0.0011847327,9.228675e-05,-0.44066933,1.6155257,0.0
16740000,-0.008475618,0.009946601,-0.025243908,-0.0070567075,0.004313359,-0.44354415,-0.027076587,0.004983185,0.88585067,-0.0012451824,0.00022916382,-0.4548342,1.6155269,0.0
16844000,-0.0079744635,0.009881877,-0.026714237,-0.0062630363,0.005103019,-0.50463283,-0.028211642,0.0065205363,0.53705,-0.0013676713,0.00031610887,-0.47261807,1.6156478,0.0
16940000,-0.0076263747,0.00983692,-0.027024679,-0.005926558,0.00563516,-0.5454133,-0.027375126,0.007238752,0.261688,-0.0013591044,0.00035938542,-0.48665762,1.6158264,0.0
17036000,-0.0071607884,0.009776788,-0.031162417,-0.0056821336,0.0059354776,-0.6028758,-0.030498937,0.010101328,-0.0881114,-0.0015686672,0.0005195467,-0.5044924,1.6160991,0.0
17140000,-0.0067307134,0.009721247,-0.026126714,-0.0053357556,0.0061516883,-0.64690083,-0.033936143,0.0069461493,-0.40407085,-0.0017958392,0.00036757762,-0.52060187,1.6161982,0.0
17236000,-0.0062674507,0.009661422,-0.03174632,-0.0047550667,0.0062304083,-0.70521927,-0.033892993,0.008855185,-0.7730286,-0.0018726303,0.00048926007,-0.5394135,1.616376,0.0
17340000,-0.005843758,0.009606712,-0.025828777,-0.004584394,0.006247198,-0.7487434,-0.035459887,0.014008264,-1.1081028,-0.0020217868,0.0007986975,-0.5564975,1.6161867,0.0
17436000,-0.0053907665,0.009548221,-0.030961027,-0.0046104235,0.00625478,-0.8077154,-0.033906765,0.017199224,-2.003714,-0.0020730277,0.0010515443,-0.602161,1.6159124,0.0
17540000,-0.0049798195,0.0094951615,-0.024752803,-0.0031112358,0.0050702123,-0.84973687,-0.025444236,0.007699742,-2.3498273,-0.0015997482,0.0004841037,-0.61980784,1.6156334,0.0
17636000,-0.0045443666,0.009438942,-0.034229316,-0.00048006512,0.0030349605,-0.9098648,-0.018970676,0.0060327095,-2.7541537,-0.0012286936,0.0003907268,-0.64042276,1.6154814,0.0
17740000,-0.004153245,0.0093884505,-0.02828893,0.0015822377,0.001264671,-0.95172423,-0.013497361,-0.0020223227,-3.1195655,-0.00090015057,-0.00013487042,-0.65905356,1.6153011,0.0
17836000,-0.003743442,0.009335551,-0.03623482,0.0030284496,-6.405573e-05,-1.0124267,-0.010575066,-0.0025001334,-3.5544503,-0.00072383025,-0.00017112632,-0.6812265,1.6152401,0.0
17940000,-0.0033801135,0.009288656,-0.029102553,0.0048793927,-0.0009756384,-1.0529177,0.010171044,-0.0055812807,-3.8500152,0.0006990162,-0.0003835797,-0.69629616,1.615273,0.0
18036000,-0.003005529,0.009240312,-0.041833863,0.0072345077,-0.0013741895,-1.1142229,0.032242768,-0.0015453012,-4.1525183,0.002341468,-0.00011221968,-0.7117195,1.6153989,0.0
18140000,-0.0026797003,0.0091982605,-0.04028946,0.010065422,-0.0015928032,-1.1532078,0.06550186,0.0056348355,-4.3552666,0.0048164446,0.0004143374,-0.7220568,1.618145,0.0
18244000,-0.0023031908,0.009149675,-0.05386702,0.014889484,-0.0002124761,-1.2152116,0.22138736,0.1542376,-4.653974,0.016643591,0.0115953665,-0.7372866,1.6214406,0.0
18340000,-0.0020738733,0.009120088,-0.06685092,0.022138957,0.0061748195,-1.252397,0.33678985,0.30488828,-4.763539,0.025512306,0.023095716,-0.7428729,1.6222819,0.0
18436000,-0.0018055055,0.009085466,-0.10078825,0.032434717,0.017944362,-1.3152447,0.4102962,0.40275833,-4.899144,0.031369876,0.030793555,-0.74978685,1.6218549,0.0
18540000,-0.0015917518,0.009057895,-0.12059247,0.04707938,0.03453307,-1.3490478,0.44279152,0.44282216,-4.868168,0.033783127,0.033785466,-0.74820745,1.6212301,0.0
18644000,-0.0013782542,0.009030354,-0.16928089,0.06311639,0.052564457,-1.4131029,0.4521174,0.44446844,-4.946091,0.034677263,0.03409059,-0.75218046,1.6207755,0.0
18740000,-0.0012747119,0.009016994,-0.20886187,0.07831154,0.06940007,-1.431217,0.46321875,0.4487989,-4.5605493,0.034600742,0.03352363,-0.7325233,1.6203011,0.0
18836000,-0.0011859043,0.009005521,-0.2775661,0.09312128,0.0856774,-1.4455024,0.47770926,0.46594647,-4.2254257,0.03485062,0.03399248,-0.71543676,1.6197283,0.0
18940000,-0.00111839,0.008996816,-0.32265422,0.10835861,0.10180664,-1.3997378,0.48194563,0.48399267,-4.083431,0.0348044,0.034952227,-0.708197,1.6191926,0.0
19036000,-0.0010475637,0.008987707,-0.3919754,0.12098407,0.11545123,-1.3859637,0.47989947,0.4916203,-4.359749,0.035345644,0.03620891,-0.72228533,1.6189414,0.0
19140000,-0.0009857223,0.008979757,-0.43776366,0.13469562,0.12968796,-1.3501794,0.47470796,0.48378628,-4.326285,0.03488063,0.035547685,-0.72057915,1.6188706,0.0
19236000,-0.00092279754,0.008971671,-0.5109485,0.14688633,0.14172147,-1.3424065,0.46726656,0.4728911,-4.3961687,0.034503598,0.034918923,-0.7241422,1.6185385,0.0
19340000,-0.000868265,0.008964664,-0.5610432,0.1571989,0.15203203,-1.3070272,0.4561131,0.46124214,-4.30379,0.033461455,0.033837736,-0.71943223,1.6180773,0.0
19436000,-0.00081282813,0.0089575425,-0.635251,0.1641387,0.15902941,-1.2976775,0.43522996,0.4383564,-4.37174,0.032082807,0.032313272,-0.7228967,1.6177462,0.0
19540000,-0.00076441356,0.008951324,-0.68810004,0.17148595,0.16525261,-1.2610242,0.42868036,0.42370185,-4.2732205,0.031380057,0.031015623,-0.7178736,1.61745,0.0
19644000,-0.0007060548,0.008943823,-0.7684097,0.17835346,0.17009814,-1.2426941,0.41285378,0.40700927,-4.2775745,0.030231047,0.029803088,-0.7180956,1.617143,0.0
19740000,-0.0006691157,0.008939073,-0.82182413,0.18171681,0.17221642,-1.2118503,0.39682174,0.39485282,-4.2478814,0.028996106,0.028852237,-0.7165817,1.6170409,0.0
19836000,-0.00062359666,0.008933221,-0.8994332,0.18260014,0.1723449,-1.1988053,0.37413257,0.37045908,-4.315701,0.027469952,0.027200235,-0.7200395,1.6168945,0.0
19940000,-0.0005840393,0.008928135,-0.9564539,0.18275715,0.1720358,-1.1596079,0.3551916,0.35328025,-4.2171593,0.025897881,0.025758518,-0.7150153,1.6166507,0.0
20036000,-0.0005438626,0.008922969,-1.0372177,0.18216601,0.17136014,-1.1446975,0.33775443,0.33469564,-4.265625,0.02471112,0.024487332,-0.7174863,1.6163622,0.0
20140000,-0.00050919235,0.008918512,-1.0953572,0.17896812,0.16837908,-1.1044699,0.31646746,0.31828743,-4.1861115,0.023022981,0.023155384,-0.7134323,1.6161629,0.0
20236000,-0.00047420073,0.0089140115,-1.1727248,0.17409155,0.16397032,-1.0877813,0.29651105,0.29653645,-4.2537546,0.021675402,0.021677257,-0.71688116,1.6161591,0.0
20340000,-0.00044426564,0.008910161,-1.2301818,0.16917199,0.15930666,-1.046779,0.2786476,0.28794122,-4.1648436,0.02024068,0.020915758,-0.7123479,1.6159847,0.0
20436000,-0.00041368598,0.008906227,-1.3092109,0.1648544,0.15518,-1.0285994,0.267704,0.27687293,-4.2147803,0.019515445,0.020183854,-0.714894,1.6157482,0.0
20540000,-0.00038613044,0.008902683,-1.3661665,0.15835217,0.14921165,-0.9869375,0.2508191,0.25950253,-4.13136,0.018175747,0.018804999,-0.7106407,1.6155239,0.0
20636000,-0.00035753986,0.008899008,-1.4404311,0.15098897,0.14260143,-0.96705,0.23461048,0.24594006,-4.1958113,0.01708048,0.017905315,-0.71392685,1.615556,0.0
20740000,-0.000332488,0.0088957865,-1.49579,0.1437264,0.13575743,-0.9249627,0.22106327,0.23643938,-4.113465,0.0159984,0.017111173,-0.70972836,1.6156132,0.0
20836000,-0.0003069056,0.0088925,-1.5706342,0.13763891,0.12974979,-0.90360206,0.21523789,0.22696345,-4.148668,0.015615967,0.01646668,-0.7115232,1.6156207,0.0
20940000,-0.00028474888,0.008889653,-1.6242292,0.12986663,0.12233095,-0.86112154,0.20659372,0.21192133,-4.079813,0.014916368,0.015301029,-0.7080126,1.6105617,0.0
21044000,-0.00025903806,0.008886348,-1.6954539,0.12123955,0.114224926,-0.8317777,0.19254383,0.20223378,-4.0956235,0.013916888,0.014617269,-0.7088187,1.6125997,0.0
21140000,-0.00024314583,0.008884305,-1.7420561,0.11514778,0.10704985,-0.7964144,0.18873802,0.1978867,-4.0649514,0.013611664,0.014271462,-0.7072548,1.614436,0.0
21244000,-0.00022125515,0.008881491,-1.8298969,0.10991048,0.09963221,-0.7742617,0.19065547,0.18985797,-3.8065941,0.013494766,0.013438318,-0.69408226,1.614629,0.0
21340000,-0.00020797404,0.008879784,-1.8829049,0.1041569,0.092528135,-0.716644,0.1891944,0.18579535,-3.5026844,0.013090632,0.012855447,-0.6785872,1.6153057,0.0
21436000,-0.00019229905,0.00887777,-1.9441286,0.09783209,0.0853999,-0.62320334,0.1839322,0.18156315,-3.1256602,0.012366555,0.012207273,-0.65936434,1.6157959,0.0
21540000,-0.00017945169,0.008876118,-1.990234,0.09178363,0.07796921,-0.5085011,0.1844128,0.17657104,-3.3284972,0.012592622,0.012057147,-0.6697061,1.6159089,0.0
21644000,-0.00016563229,0.008874342,-2.0345256,0.08659175,0.07097166,-0.4044397,0.18331619,0.17407323,-3.6992447,0.012872724,0.012223671,-0.688609,1.6148165,0.0
21740000,-0.00015724867,0.008873263,-2.057794,0.08135172,0.0646934,-0.35182258,0.17995262,0.16746521,-3.9529958,0.012874156,0.011980782,-0.70154667,1.6142912,0.0
21844000,-0.00014484352,0.008871669,-2.086538,0.075340286,0.05806921,-0.31205627,0.17414756,0.16259664,-4.2222023,0.012701595,0.011859121,-0.7152724,1.6144543,0.0
21940000,-0.00013691853,0.008870649,-2.1033323,0.06932468,0.052903432,-0.295869,0.16370931,0.16719879,-4.295686,0.012004156,0.012260026,-0.719019,1.6147147,-0.00012222513
22036000,-0.00012722271,0.008869403,-2.1238995,0.062954344,0.048731174,-0.2862057,0.1558289,0.17275287,-0.22143582,0.011372743,0.012607894,-0.7158061,1.6147147,-4.972418e-05
22140000,-0.00011879564,0.00886832,-2.1420405,0.055986863,0.044591907,-0.27477705,0.14627296,0.17334375,-0.14616013,0.010596045,0.01255706,-0.7104329,1.6147147,-4.720104e-05
22236000,-0.000109952365,0.008867184,-2.1608453,0.049600963,0.04097185,-0.26544547,0.14250255,0.16705292,-0.13268256,0.010309561,0.012085694,-0.70947087,1.6147147,-1.920254e-05
22340000,-0.00010214486,0.008866181,-2.177449,0.043094758,0.0357668,-0.25162262,0.1386613,0.16067895,-0.10433351,0.010003332,0.011591735,-0.70744735,1.6147147,-1.822815e-05
22444000,-9.287214e-05,0.0088649895,-2.1972363,0.03706569,0.029270813,-0.23843962,0.13544524,0.14511758,-0.09565513,0.0097637335,0.010460976,-0.7068279,1.6147147,-1.0299526e-05
22540000,-8.699608e-05,0.008864234,-2.2098525,0.031814214,0.023635723,-0.22566642,0.13171968,0.13654643,-0.09083395,0.009487988,0.009835667,-0.7064837,1.6147147,-7.039368e-06
22636000,-7.969693e-05,0.008863297,-2.2255864,0.026873942,0.01842513,-0.21603751,0.128523,0.13501379,-0.107274175,0.009272767,0.009741069,-0.7076572,1.6147147,-2.8637878e-06
22740000,-7.3179915e-05,0.008862459,-2.2394617,0.0224916,0.01141348,-0.20293598,0.1303943,0.116643146,-0.092933625,0.009395382,0.008404562,-0.7066336,1.6147147,-2.7184708e-06
22836000,-6.644261e-05,0.008861593,-2.2538161,0.019421127,0.0035477637,-0.19045836,0.13670392,0.09595975,-0.08570211,0.009841677,0.0069083963,-0.7061174,1.6147147,-1.1059408e-06
22940000,-6.0536076e-05,0.008860834,-2.266451,0.016423065,-0.0041087903,-0.17840669,0.1393151,0.08994079,-0.084580876,0.010030006,0.0064752973,-0.7060374,1.6147147,-1.0498222e-06
23036000,-5.4488046e-05,0.008860055,-2.2794785,0.013884186,-0.010144953,-0.16976574,0.13958837,0.09101036,-0.1024815,0.010068866,0.0065648104,-0.70731515,1.6147147,-4.2709345e-07
23140000,-4.9136404e-05,0.008859367,-2.2909114,0.011924523,-0.013838591,-0.1589865,0.14422196,0.103325434,-0.085352436,0.010386303,0.0074410946,-0.7060925,1.6147147,-4.0542156e-07
23236000,-4.3609274e-05,0.008858655,-2.3026896,0.010871085,-0.014614403,-0.14949305,0.15171987,0.12050556,-0.09442641,0.01093478,0.008685098,-0.70674014,1.6147147,-1.6493543e-07
23340000,-3.8770275e-05,0.008858032,-2.3130333,0.0098676,-0.014705415,-0.14027892,0.15478534,0.13044992,-0.09229022,0.011152538,0.00939913,-0.7065877,1.6147147,-1.5656614e-07
23436000,-3.381203e-05,0.008857392,-2.3236945,0.009030531,-0.014339075,-0.1339958,0.15787606,0.13391614,-0.10911677,0.01139287,0.009663841,-0.70778877,1.6147147,-6.369495e-08
23540000,-2.942661e-05,0.008856828,-2.3330607,0.008857378,-0.01296735,-0.12604606,0.16389847,0.13924237,-0.09520851,0.011811398,0.010034547,-0.706796,1.6147147,-6.046288e-08
23644000,-2.4232888e-05,0.008856161,-2.3441591,0.009391402,-0.01077747,-0.11861542,0.16521797,0.15140787,-0.090892404,0.011904059,0.010909033,-0.7064879,1.6147147,-3.416359e-08
23740000,-2.0957683e-05,0.008855739,-2.3511999,0.009773418,-0.008932054,-0.11189434,0.17254941,0.15323943,-0.09609975,0.012438134,0.011046184,-0.7068596,1.6147147,-2.3349624e-08
23836000,-1.68749e-05,0.008855211,-2.3599427,0.010073029,-0.007307654,-0.10725839,0.1720136,0.15441148,-0.1141444,0.01242032,0.011149351,-0.70814764,1.6147147,-9.499201e-09
23940000,-1.3281769e-05,0.008854749,-2.3676212,0.010272751,-0.0055332333,-0.101326734,0.17614296,0.15880138,-0.09991473,0.012700126,0.011449777,-0.7071319,1.6147147,-9.017184e-09
24036000,-9.592784e-06,0.0088542765,-2.3755333,0.010394691,-0.0038302254,-0.095930226,0.17270865,0.16340141,-0.11230357,0.012469656,0.011797668,-0.7080162,1.6147147,-3.6684116e-09
24140000,-6.336375e-06,0.008853857,-2.382481,0.010336066,-0.002269686,-0.090822585,0.1710657,0.16513953,-0.09198132,0.012325049,0.011898078,-0.7065656,1.6147147,-3.482266e-09
24236000,-2.99851e-06,0.00885343,-2.3896387,0.010108526,-0.0010330232,-0.08734191,0.17132594,0.16824773,-0.119554296,0.0123780975,0.012155701,-0.70853376,1.6147147,-1.4166713e-09
24340000,-5.4900912e-08,0.008853052,-2.3959246,0.009089591,0.002770231,-0.0813397,0.16736558,0.18501572,-0.090965554,0.012057922,0.013329533,-0.70649314,1.6147147,-1.3447854e-09
24436000,2.972744e-06,0.008852663,-2.4023962,0.0075110216,0.008335819,-0.07440424,0.163635,0.20035923,-0.100531176,0.0117998505,0.0144480625,-0.7071759,1.6147147,-5.470917e-10
24540000,5.6329573e-06,0.008852323,-2.4080696,0.00593388,0.013415568,-0.06819615,0.15749297,0.20855069,-0.08043155,0.011334857,0.01500951,-0.7057412,1.6147147,-5.1933075e-10
24644000,8.777875e-06,0.008851917,-2.4147723,0.0044831247,0.017461563,-0.06402678,0.15394795,0.2093608,-0.092133746,0.011092564,0.01508528,-0.7065765,1.6147147,-2.9343955e-10
24740000,1.0768242e-05,0.008851663,-2.419014,0.002207383,0.019823376,-0.057820026,0.15321109,0.2018255,-0.08287265,0.011027891,0.01452708,-0.70591545,1.6147147,-2.0055572e-10
24836000,1.3263504e-05,0.008851343,-2.4243326,-0.0005681809,0.021013519,-0.05124998,0.14859743,0.19964749,-0.093954764,0.010708298,0.014387092,-0.70670646,1.6147147,-8.1590984e-11
24940000,1.545288e-05,0.008851059,-2.4290006,-0.0030175766,0.021650359,-0.045722824,0.14371833,0.19461139,-0.08357729,0.010345139,0.014008524,-0.70596576,1.6147147,-7.7450824e-11
25036000,1.770677e-05,0.008850767,-2.4338064,-0.0048389486,0.021801801,-0.0422082,0.14444464,0.19342004,-0.105284944,0.010421311,0.01395476,-0.70751524,1.6147147,-3.15089e-11
25140000,1.968434e-05,0.00885051,-2.4380243,-0.0069103506,0.021045906,-0.03644574,0.14442487,0.18631268,-0.087100804,0.01040153,0.013418305,-0.7062172,1.6147147,-2.991005e-11
25236000,2.1720092e-05,0.0088502485,-2.442365,-0.008810327,0.019603921,-0.030389544,0.14403443,0.18283932,-0.088138774,0.010372941,0.013167558,-0.7062913,1.6147147,-1.2168142e-11
25340000,2.3506294e-05,0.008850019,-2.4461746,-0.010220888,0.018036887,-0.025452849,0.14491034,0.1773182,-0.081475064,0.010429251,0.012761656,-0.7058157,1.6147147,-1.1550696e-11
25436000,2.5345013e-05,0.008849781,-2.4500968,-0.011015656,0.016568605,-0.022618536,0.1462585,0.17463472,-0.097062275,0.010544154,0.012589871,-0.7069283,1.6147147,-4.6991066e-12
25540000,2.6958356e-05,0.008849572,-2.4535377,-0.011817393,0.014002376,-0.017180685,0.15012147,0.16720185,-0.08101975,0.010803498,0.01203269,-0.7057832,1.6147147,-4.460661e-12
25636000,2.8619072e-05,0.008849358,-2.4570801,-0.012490365,0.010826474,-0.010813955,0.14816038,0.15885243,-0.0747265,0.010655877,0.011424862,-0.70533395,1.6147147,-1.8147064e-12
25740000,3.007627e-05,0.00884917,-2.4601896,-0.0127436435,0.007862012,-0.0062606446,0.15651868,0.15706061,-0.08101146,0.0112646865,0.011303689,-0.7057826,1.6147147,-1.7226231e-12
25844000,3.1800224e-05,0.008848948,-2.4638681,-0.012510352,0.005335745,-0.0040922165,0.15739796,0.1543108,-0.09058715,0.011339703,0.011117289,-0.70646614,1.6147147,-9.733407e-13
25940000,3.289239e-05,0.008848809,-2.4661982,-0.012830688,0.003274295,0.0007123947,0.15652536,0.15540968,-0.085704155,0.011271552,0.011191212,-0.7061176,1.6147147,-6.652445e-13
26036000,3.4247143e-05,0.008848635,-2.4690888,-0.013460821,0.0014819833,0.006598711,0.15952742,0.1554068,-0.070496924,0.011467903,0.011171686,-0.70503205,1.6147147,-2.7063781e-13
26140000,3.5435867e-05,0.008848484,-2.471625,-0.013472446,-5.05058e-05,0.010267496,0.16302535,0.15888666,-0.08158173,0.011734297,0.011436399,-0.7058233,1.6147147,-2.569049e-13
26236000,3.6659465e-05,0.008848325,-2.4742358,-0.013045114,-0.0011785652,0.011278629,0.16444595,0.15135546,-0.09681445,0.011854941,0.010911246,-0.7069106,1.6147147,-1.0451522e-13
26340000,3.773309e-05,0.008848187,-2.4765272,-0.013560966,-0.0013782455,0.013501167,0.15685341,0.15599415,-0.09425641,0.01130384,0.0112419175,-0.70672804,1.6147147,-9.921181e-14
26436000,3.8838225e-05,0.008848044,-2.478885,-0.0148755405,-0.00075798953,0.01620269,0.15154307,0.16146345,-0.09086846,0.010916652,0.011631282,-0.70648617,1.6147147,-4.0361798e-14
26540000,3.98079e-05,0.008847918,-2.4809537,-0.015615932,-0.00014224151,0.017414808,0.15218103,0.17024079,-0.100183845,0.0109734,0.012275644,-0.7071511,1.6147147,-3.8313733e-14
26636000,4.080603e-05,0.00884779,-2.4830837,-0.015729679,0.00043944077,0.017060518,0.15742257,0.1723348,-0.10829641,0.011360716,0.012436886,-0.7077302,1.6147147,-1.5586966e-14
26740000,4.168186e-05,0.008847678,-2.4849527,-0.01648104,0.0011804819,0.018993378,0.15878299,0.16969569,-0.10230247,0.011452181,0.012239255,-0.70730233,1.6147147,-1.4796041e-14
26844000,4.2717966e-05,0.008847544,-2.487163,-0.017668394,0.0019344209,0.022318125,0.15718013,0.1745587,-0.088064134,0.011319384,0.012570908,-0.706286,1.6147147,-8.360266e-15
26940000,4.3374373e-05,0.008847459,-2.4885633,-0.01794811,0.002528864,0.02375412,0.16157012,0.1741959,-0.09634067,0.011647743,0.012557948,-0.7068768,1.6147147,-5.7139513e-15
27044000,4.431019e-05,0.00884734,-2.4905605,-0.017555846,0.0030932464,0.02336359,0.16555202,0.17776117,-0.10546935,0.011943561,0.012824378,-0.7075284,1.6147147,-3.2285768e-15
27140000,4.490305e-05,0.008847264,-2.491825,-0.018074602,0.0036259848,0.026083708,0.16241382,0.17653352,-0.09502361,0.011705493,0.012723129,-0.70678276,1.6147147,-2.2066197e-15
27244000,4.574826e-05,0.008847155,-2.4936287,-0.019269524,0.0041210745,0.03035283,0.15822066,0.1737089,-0.08187679,0.01138742,0.012502136,-0.70584434,1.6147147,-1.2468153e-15
27340000,4.6283716e-05,0.008847085,-2.4947712,-0.019508002,0.004361577,0.03216362,0.16486502,0.17564964,-0.08776334,0.011872523,0.012649163,-0.70626456,1.6147147,-8.52155e-16
27436000,4.694792e-05,0.008846999,-2.4961889,-0.018993555,0.004579872,0.0318861,0.16764604,0.18040206,-0.10210171,0.01209142,0.013011443,-0.707288,1.6147147,-3.4667756e-16
27540000,4.753075e-05,0.008846925,-2.4974325,-0.019391662,0.005466593,0.03279209,0.16176988,0.17749238,-0.10388168,0.011669059,0.012803182,-0.7074151,1.6147147,-3.2908617e-16
27636000,4.8130645e-05,0.008846848,-2.4987125,-0.020563785,0.0067259255,0.034256935,0.16219345,0.18443713,-0.10322239,0.011699966,0.013304533,-0.707368,1.6147147,-1.3388032e-16
27740000,4.8657068e-05,0.00884678,-2.4998357,-0.020830128,0.007832425,0.033777475,0.16465092,0.18513039,-0.11554686,0.011890527,0.013369483,-0.7082477,1.6147147,-1.2708686e-16
27836000,4.919892e-05,0.0088467095,-2.5009913,-0.020324977,0.00865186,0.03215933,0.16494593,0.18917784,-0.123882115,0.011922408,0.013673908,-0.7088427,1.6147147,-5.1702057e-17
27940000,4.9674385e-05,0.008846647,-2.5020058,-0.021015035,0.009409848,0.032937527,0.16384944,0.18597999,-0.11137763,0.0118281925,0.013425782,-0.7079501,1.6147147,-4.907855e-17
28036000,5.0163788e-05,0.008846586,-2.50305,-0.022560554,0.009950048,0.03520584,0.15876207,0.18839087,-0.09576058,0.01144437,0.013580165,-0.7068354,1.6147147,-1.996636e-17
28140000,5.0593233e-05,0.008846532,-2.5039666,-0.023123927,0.010344224,0.035653353,0.15971044,0.18555965,-0.104324594,0.011521541,0.013386307,-0.7074467,1.6147147,-1.8953211e-17
28236000,5.1035262e-05,0.008846476,-2.5049095,-0.02276008,0.010466745,0.03410101,0.16528662,0.18402311,-0.11867221,0.011941696,0.013295377,-0.7084708,1.6147147,-7.710631e-18
28340000,5.142315e-05,0.0088464245,-2.5057364,-0.023294283,0.010204113,0.03573394,0.16002718,0.18329655,-0.10505131,0.01154515,0.013223916,-0.70749855,1.6147147,-7.319372e-18
28444000,5.1882045e-05,0.008846369,-2.506715,-0.024592517,0.00969636,0.039882183,0.15475653,0.18601628,-0.08755567,0.011146342,0.013397826,-0.7062497,1.6147147,-4.1356946e-18
28540000,5.2172778e-05,0.008846331,-2.507335,-0.024830742,0.009353907,0.041621447,0.15864289,0.18707323,-0.08866513,0.011425864,0.01347349,-0.7063289,1.6147147,-2.8266031e-18
28636000,5.2533414e-05,0.008846284,-2.5081043,-0.02426758,0.009100214,0.04165411,0.16313773,0.18537861,-0.1031223,0.011767831,0.013372162,-0.70736086,1.6147147,-1.1499316e-18
28740000,5.2849886e-05,0.008846243,-2.5087798,-0.024572108,0.008500405,0.043770075,0.16347183,0.18501459,-0.098367386,0.011785429,0.013338546,-0.7070215,1.6147147,-1.0915808e-18
28844000,5.3224278e-05,0.008846195,-2.509579,-0.025623634,0.007764572,0.04711914,0.15663716,0.18571986,-0.0901931,0.011283222,0.013378168,-0.706438,1.6147147,-6.167803e-19
28940000,5.3461463e-05,0.008846164,-2.5100849,-0.025634686,0.0072905924,0.047875166,0.15599594,0.18153459,-0.10096362,0.011248594,0.013090143,-0.7072068,1.6147147,-4.215479e-19
29036000,5.37557e-05,0.008846127,-2.5107129,-0.024935871,0.0068791755,0.04675126,0.16194211,0.18149604,-0.11649782,0.011696238,0.013108516,-0.7083156,1.6147147,-1.7149602e-19
29140000,5.4013897e-05,0.008846095,-2.5112638,-0.025677362,0.006093292,0.049280882,0.16026281,0.17763972,-0.09546075,0.011550217,0.01280258,-0.706814,1.6147147,-1.6279384e-19
29244000,5.4319375e-05,0.008846058,-2.5119157,-0.027540548,0.00503724,0.0546484,0.15426557,0.18241712,-0.0705374,0.011090543,0.013114429,-0.705035,1.6147147,-9.198406e-20
29340000,5.4512897e-05,0.008846033,-2.5123286,-0.028172934,0.004387129,0.05674863,0.14761086,0.18295555,-0.0797118,0.010621897,0.013165257,-0.70568985,1.6147147,-6.2867904e-20
29444000,5.4788783e-05,0.008845999,-2.5129173,-0.02802165,0.003900603,0.056380272,0.15216286,0.179394,-0.10279077,0.0109756375,0.012939842,-0.7073372,1.6147147,-3.552251e-20
29540000,5.4963584e-05,0.008845977,-2.5132906,-0.028561635,0.0031104072,0.05792427,0.15520106,0.17986344,-0.09424105,0.011185027,0.012962392,-0.7067269,1.6147147,-2.42784e-20
29644000,5.5212804e-05,0.008845943,-2.5138226,-0.029495688,0.0020046576,0.06067562,0.14836198,0.18075608,-0.084062204,0.010679906,0.013011809,-0.7060004,1.6147147,-1.3718122e-20
29740000,5.5370685e-05,0.008845922,-2.51416,-0.029439779,0.0013722206,0.060406208,0.14612547,0.18394138,-0.09522778,0.010532062,0.013257662,-0.70679736,1.6147147,-9.375859e-21
29836000,5.556653e-05,0.008845896,-2.5145786,-0.02870798,0.0010778469,0.05819726,0.15222529,0.18394472,-0.1110027,0.010988393,0.013278062,-0.70792335,1.6147147,-3.8143293e-21
29940000,5.5738383e-05,0.008845875,-2.5149455,-0.028820438,0.0008535458,0.057231188,0.15247883,0.18625948,-0.11080837,0.0110071255,0.013445679,-0.7079095,1.6147147,-3.6207796e-21
30036000,5.5915283e-05,0.008845853,-2.5153236,-0.029558647,0.000728578,0.057573795,0.14892337,0.18861529,-0.102788664,0.010741159,0.0136039555,-0.7073371,1.6147147,-1.473022e-21
30140000,5.6070534e-05,0.008845835,-2.5156548,-0.029349264,0.0009103181,0.055895567,0.14882891,0.18848167,-0.109797865,0.010741771,0.013603722,-0.7078374,1.6147147,-1.3982767e-21
30236000,5.6230332e-05,0.008845815,-2.5159955,-0.02849629,0.0012219028,0.053052425,0.14806071,0.1894981,-0.11961935,0.010697329,0.013691165,-0.7085384,1.6147147,-5.6885333e-22
30340000,5.6370565e-05,0.008845798,-2.5162952,-0.028659534,-0.00043808518,0.05414939,0.14535594,0.1819494,-0.10166103,0.010482377,0.013121324,-0.70725656,1.6147147,-5.399881e-22
30436000,5.65149e-05,0.008845781,-2.5166032,-0.029594151,-0.0035112505,0.057646513,0.14242682,0.17468941,-0.084497795,0.010254612,0.012577493,-0.70603144,1.6147147,-2.196804e-22
30540000,5.6641555e-05,0.008845765,-2.5168734,-0.029660253,-0.005808154,0.05855918,0.14096327,0.17387193,-0.09249777,0.010156274,0.012527313,-0.7066025,1.6147147,-2.085332e-22
30644000,5.679142e-05,0.008845746,-2.5171933,-0.028987203,-0.00721441,0.05702877,0.14425395,0.17760094,-0.10987141,0.010412735,0.012819831,-0.70784265,1.6147147,-1.1782837e-22
30740000,5.6886383e-05,0.008845733,-2.5173962,-0.029250793,-0.00892255,0.05814171,0.14323714,0.17392756,-0.10249448,0.010331688,0.012545385,-0.70731604,1.6147147,-8.0531585e-23
30844000,5.702178e-05,0.008845713,-2.5176857,-0.030031223,-0.010958214,0.060673,0.14221336,0.17013334,-0.08696274,0.010240888,0.0122514265,-0.7062074,1.6147147,-4.550308e-23
30940000,5.7107558e-05,0.0088457,-2.5178683,-0.029803528,-0.012021107,0.06096196,0.14524786,0.17007068,-0.096817896,0.010470825,0.012260286,-0.70691085,1.6147147,-3.1099775e-23
31036000,5.7213972e-05,0.008845683,-2.5180953,-0.028911415,-0.012443326,0.059467554,0.14557445,0.1747718,-0.106970906,0.0105032725,0.012609876,-0.7076356,1.6147147,-1.2652152e-23
31140000,5.7307352e-05,0.00884567,-2.5182948,-0.027198736,-0.013679537,0.0631783,0.15209031,0.17082225,-0.08443491,0.010948368,0.012296805,-0.706027,1.6147147,-1.2010145e-23
31236000,5.740346e-05,0.008845659,-2.5185,-0.025059132,-0.015401716,0.07014203,0.1575908,0.17344585,-0.056480676,0.011314486,0.012452825,-0.7040316,1.6147147,-4.8860222e-24
31340000,5.748781e-05,0.008845651,-2.5186796,-0.022550674,-0.016138172,0.07304931,0.1573716,0.17948991,-0.070341974,0.011313583,0.0129036885,-0.705021,1.6147147,-4.638092e-24
31436000,5.7574623e-05,0.00884564,-2.518865,-0.02020283,-0.015999211,0.07251978,0.15765809,0.18041503,-0.086603545,0.011351841,0.012990406,-0.70618176,1.6147147,-1.8868896e-24
31540000,5.7650825e-05,0.008845633,-2.5190282,-0.01755536,-0.017648509,0.07362318,0.16437869,0.17597227,-0.08561231,0.011833835,0.012668473,-0.706111,1.6147147,-1.7911436e-24
31644000,5.774098e-05,0.0088456245,-2.5192204,-0.014853124,-0.0206952,0.076140165,0.16636516,0.16867617,-0.07928465,0.011971424,0.012137722,-0.70565933,1.6147147,-1.0120572e-24
31740000,5.7798086e-05,0.008845619,-2.519342,-0.012447326,-0.022270922,0.07562184,0.16833791,0.16598804,-0.089642726,0.012127142,0.011957856,-0.7063987,1.6147147,-6.917059e-25
31844000,5.7879515e-05,0.008845611,-2.5195153,-0.009991959,-0.022853255,0.07245183,0.16977179,0.16882439,-0.10939123,0.012253573,0.012185194,-0.7078084,1.6147147,-3.9083736e-25
31940000,5.7931116e-05,0.008845605,-2.5196257,-0.00713038,-0.025576336,0.072930574,0.17189035,0.16333368,-0.09632556,0.012388695,0.011771988,-0.70687574,1.6147147,-2.6712376e-25
32036000,5.799512e-05,0.0088455975,-2.519762,-0.00393608,-0.02958567,0.0757823,0.17686965,0.15684722,-0.07915764,0.012726315,0.011285641,-0.70565027,1.6147147,-1.0867249e-25
32140000,5.805038e-05,0.008845591,-2.51988,-0.00095013186,-0.032051787,0.07550907,0.18045034,0.15846765,-0.09006521,0.012998259,0.011414795,-0.7064288,1.6147147,-1.03158145e-25
32236000,5.810443e-05,0.0088455845,-2.5200014,0.0014425159,-0.032866597,0.07305503,0.18031493,0.16550764,-0.10717583,0.013010355,0.011941956,-0.7076502,1.6147147,-4.1967265e-26
32340000,5.8149e-05,0.00884558,-2.520108,0.0040543857,-0.03521879,0.0734756,0.17563191,0.15580706,-0.09779658,0.012662875,0.011233524,-0.7069807,1.6147147,-3.9837725e-26
32436000,5.819716e-05,0.008845575,-2.5202177,0.006335949,-0.038496707,0.075809,0.17452882,0.1499003,-0.08283651,0.012565804,0.01079259,-0.7059129,1.6147147,-1.6206965e-26
32540000,5.8241538e-05,0.0088455705,-2.5203133,0.008115524,-0.04016289,0.075109005,0.1742918,0.1547321,-0.09323739,0.0125604365,0.011150854,-0.70665526,1.6147147,-1.538458e-26
32636000,5.828853e-05,0.008845566,-2.5204124,0.009238433,-0.040306784,0.07230091,0.16988479,0.15518017,-0.10683512,0.012259813,0.011198647,-0.70762587,1.6147147,-6.2588243e-27
32740000,5.8329806e-05,0.008845561,-2.5204997,0.010500566,-0.042229135,0.0727489,0.17628166,0.15346372,-0.09403843,0.012702555,0.011058333,-0.7067125,1.6147147,-5.9412343e-27
32836000,5.8372265e-05,0.0088455565,-2.520589,0.011736377,-0.045299627,0.07544947,0.17329925,0.14581425,-0.07878617,0.012468882,0.010491337,-0.70562375,1.6147147,-2.41704e-27
32940000,5.8409525e-05,0.008845552,-2.5206676,0.012476414,-0.04672433,0.07523394,0.16777135,0.14710946,-0.09139499,0.012088287,0.010599553,-0.7065238,1.6147147,-2.2943925e-27
33044000,5.845365e-05,0.008845546,-2.5207598,0.012653194,-0.046444222,0.072705984,0.16460052,0.15865915,-0.1048873,0.0118760085,0.011447334,-0.70748687,1.6147147,-1.2964101e-27
33140000,5.8481644e-05,0.008845543,-2.5208192,0.012854278,-0.04727095,0.0729146,0.16300718,0.15750135,-0.09409586,0.011746159,0.0113494145,-0.70671654,1.6147147,-8.860512e-28
33244000,5.852158e-05,0.008845537,-2.520904,0.013079638,-0.04865807,0.07441187,0.16177516,0.16261005,-0.085254125,0.011647429,0.011707539,-0.70608544,1.6147147,-5.006491e-28
33340000,5.8546902e-05,0.008845533,-2.5209568,0.012915302,-0.048216015,0.073571205,0.16116337,0.16299528,-0.09232135,0.011613304,0.01174531,-0.7065899,1.6147147,-3.421763e-28
33436000,5.8578382e-05,0.008845529,-2.521023,0.012404702,-0.046542168,0.07079625,0.15466727,0.16791914,-0.10567798,0.011158779,0.012114861,-0.7075433,1.6147147,-1.3920571e-28
33540000,5.8606078e-05,0.008845524,-2.5210812,0.013745649,-0.046114758,0.07100868,0.161855,0.16501719,-0.09385169,0.011663332,0.0118912,-0.70669913,1.6147147,-1.3214201e-28
33636000,5.8634592e-05,0.008845519,-2.5211415,0.016512766,-0.04678485,0.07367492,0.17410655,0.16517408,-0.07236666,0.012519948,0.011877617,-0.7051655,1.6147147,-5.3758615e-29
33740000,5.8659643e-05,0.008845515,-2.5211947,0.018523123,-0.04587962,0.073376656,0.17326513,0.17033644,-0.08548391,0.012475405,0.012264534,-0.70610183,1.6147147,-5.103075e-29
33836000,5.8685477e-05,0.00884551,-2.521249,0.019528532,-0.043841813,0.07060909,0.1705325,0.17877176,-0.10705484,0.012304554,0.012899048,-0.7076416,1.6147147,-2.0760562e-29
33940000,5.87082e-05,0.008845506,-2.5212967,0.021007374,-0.042576946,0.07308054,0.1746191,0.17699136,-0.08004033,0.012566591,0.012737312,-0.7057133,1.6147147,-1.9707113e-29
34036000,5.8708483e-05,0.008845506,-2.521346,0.022677487,-0.04215366,0.079562426,0.17290103,0.17866187,-0.04423681,0.01239703,0.012810084,-0.7031576,1.6147147,-8.017338e-30
34140000,5.8708483e-05,0.008845506,-2.5213902,0.023459334,-0.04035158,0.082129,0.17134394,0.18435527,-0.05728689,0.012301232,0.013235349,-0.7040891,1.6147147,-7.610516e-30
34236000,5.8708483e-05,0.008845506,-2.521436,0.023408374,-0.037708964,0.08084035,0.16633853,0.19091472,-0.080075815,0.011970323,0.013738913,-0.70571584,1.6147147,-3.096145e-30
34340000,5.8708483e-05,0.008845506,-2.5214765,0.024348583,-0.037175186,0.08150411,0.1718457,0.18654002,-0.080982305,0.012369533,0.013427237,-0.7057805,1.6147147,-2.9390377e-30
34436000,5.8708483e-05,0.008845506,-2.5215178,0.026012644,-0.038530316,0.08367634,0.17250608,0.17671381,-0.06930605,0.012400438,0.012702908,-0.70494705,1.6147147,-1.1956727e-30
34540000,5.8708483e-05,0.008845506,-2.5215542,0.026682874,-0.03838014,0.08262539,0.17108527,0.17807564,-0.085248314,0.012318663,0.012821991,-0.706085,1.6147147,-1.1350009e-30
34644000,-3.865304e-05,0.008982892,-2.521008,0.024319353,-0.033726186,0.097617015,0.14541347,0.22538969,0.32472262,0.010036675,0.015556765,-0.67681944,1.614185,-0.0022450192
34740000,-0.0002774658,0.00932578,-2.5179923,0.02304972,-0.030634101,0.14042868,0.14782198,0.23001488,0.5821115,0.009925151,0.015443796,-0.6584488,1.614185,-0.0015343926
34836000,-0.00080235425,0.010082353,-2.5070305,0.021696832,-0.027134206,0.23532985,0.15764731,0.2353213,0.9074395,0.01021111,0.015242198,-0.63522685,1.614185,-0.0006242286
34940000,-0.0015020155,0.011092586,-2.4862626,0.019935876,-0.022165485,0.35158873,0.16525061,0.24426565,1.0225544,0.010566188,0.015618438,-0.6270099,1.614185,-0.0005925535
35044000,-0.0026670436,0.012776387,-2.4410176,0.016962297,-0.014493819,0.5282892,0.16880782,0.26230645,0.68812263,0.011202851,0.017407844,-0.6508817,1.614185,-0.00033481285
35140000,-0.0036230194,0.014158802,-2.3995872,0.015624146,-0.010701908,0.60159224,0.16449918,0.25831676,0.076886594,0.011650071,0.018294368,-0.69451183,1.614185,-0.00022883296
35236000,-0.0050802203,0.01626676,-2.3360493,0.013419752,-0.0070004426,0.6803833,0.15367338,0.25347826,-0.27714485,0.011279919,0.018605787,-0.71978265,1.614185,-9.3094866e-05
35340000,-0.0065616956,0.018412657,-2.2712724,0.012944551,-0.005474977,0.70395744,0.18701664,0.20040584,-0.5811725,0.014140217,0.015152567,-0.74148417,1.614185,-8.837097e-05
35436000,-0.0080519505,0.020566287,-2.1986227,0.013452507,-0.0054165553,0.7081737,0.17276531,0.20951413,-0.6199445,0.013112693,0.015901888,-0.7442407,1.614185,-3.595148e-05
35540000,-0.009316157,0.022393202,-2.1314228,0.014364506,-0.007220678,0.7009236,0.17009734,0.20049787,-0.40898204,0.012645751,0.014905856,-0.7291244,1.614185,-3.4127203e-05
35636000,-0.0105949985,0.024241263,-2.0586228,0.015736613,-0.010687109,0.70987266,0.16978253,0.19413306,-0.2753626,0.0124582695,0.0142450575,-0.7196374,1.614185,-1.3883785e-05
35740000,-0.011697905,0.025835076,-1.9914225,0.016301181,-0.012668379,0.7072243,0.17207271,0.19573145,-0.262591,0.01261117,0.014345113,-0.71874374,1.614185,-1.3179282e-05
35836000,-0.012813553,0.027447306,-1.9186226,0.016176412,-0.013002371,0.7142629,0.1689198,0.19701432,-0.23764926,0.012350246,0.014404321,-0.7169634,1.614185,-5.3616554e-06
35940000,-0.013775731,0.028837748,-1.8514227,0.016837535,-0.01637526,0.7137465,0.17091578,0.18061094,-0.24218643,0.012500316,0.013209392,-0.7172873,1.614185,-5.08959e-06
36036000,-0.0147490045,0.030244233,-1.7786225,0.01794933,-0.021643862,0.7265242,0.17163585,0.17381555,-0.19781753,0.012499186,0.01265792,-0.7141202,1.614185,-2.0705702e-06
36140000,-0.015588405,0.03145725,-1.7114226,0.018259631,-0.025068501,0.72532004,0.1681854,0.16932936,-0.23116818,0.012289192,0.012372779,-0.7165008,1.614185,-1.9655038e-06
36236000,-0.016437478,0.03268424,-1.6386225,0.017803248,-0.026438745,0.73254603,0.16560933,0.17977841,-0.22747228,0.012096496,0.01313144,-0.716237,1.614185,-7.996152e-07
36340000,-0.017169764,0.033742473,-1.5714223,0.018317346,-0.030706419,0.7303249,0.17570214,0.16896078,-0.25257486,0.012864025,0.012370456,-0.71802884,1.614185,-7.5904046e-07
36436000,-0.017910482,0.034812886,-1.4986224,0.01953819,-0.0366897,0.7402225,0.17564608,0.15506266,-0.22309875,0.01282242,0.011319799,-0.7159248,1.614185,-3.0879627e-07
36540000,-0.018549321,0.03573608,-1.4314226,0.020037297,-0.040514436,0.736201,0.17594843,0.15364563,-0.25852314,0.012891018,0.011256984,-0.7184534,1.614185,-2.9312707e-07
36636000,-0.019195514,0.03666989,-1.3586227,0.019856315,-0.041911535,0.7411199,0.1722502,0.1588448,-0.25091946,0.0126100425,0.011628665,-0.71791065,1.614185,-1.1925128e-07
36740000,-0.019752843,0.03747529,-1.2914227,0.02095047,-0.04416568,0.73565835,0.1768765,0.15711421,-0.2786395,0.012984261,0.011533538,-0.7198893,1.614185,-1.13200144e-07
36836000,-0.020316577,0.03828995,-1.2186228,0.022928124,-0.04668019,0.74202794,0.18322176,0.15727714,-0.25508338,0.01341918,0.011518994,-0.7182079,1.614185,-4.6052598e-08
36940000,-0.020802787,0.038992576,-1.151423,0.024025355,-0.047175415,0.7352058,0.18315311,0.16395617,-0.28939188,0.01346015,0.012049342,-0.7206568,1.614185,-4.371576e-08
37044000,-0.021367308,0.039808366,-1.0674229,0.024208857,-0.045852892,0.7437733,0.18006217,0.17216453,-0.25673002,0.013190655,0.012612103,-0.71832544,1.614185,-2.4700896e-08
37140000,-0.021718776,0.040316276,-1.0114229,0.025689902,-0.04608528,0.73226374,0.18268043,0.1662884,-0.29262283,0.013428373,0.012223437,-0.7208874,1.614185,-1.6882202e-08
37236000,-0.022147834,0.040936317,-0.938623,0.027883098,-0.04720471,0.73887753,0.18667585,0.16589782,-0.26013002,0.013678817,0.012156292,-0.7185681,1.614185,-6.8680945e-09
37340000,-0.022517912,0.041471127,-0.87142295,0.029009713,-0.046587713,0.73258317,0.18883221,0.17352448,-0.2834558,0.013867496,0.012743323,-0.7202331,1.614185,-6.5195884e-09
37436000,-0.022892248,0.042012077,-0.798623,0.02913103,-0.044651415,0.736304,0.1840157,0.1732422,-0.27024725,0.0134960795,0.01270593,-0.71929026,1.614185,-2.6523284e-09
37540000,-0.02321512,0.042478655,-0.73142296,0.02951299,-0.044233102,0.7300512,0.18678895,0.17627323,-0.2931924,0.013731988,0.012958913,-0.7209281,1.614185,-2.517742e-09
37636000,-0.0235417,0.0429506,-0.65862286,0.02994115,-0.045036335,0.735997,0.18143457,0.17397048,-0.2696273,0.013307352,0.012759894,-0.71924603,1.614185,-1.0242792e-09
37740000,-0.023823386,0.04335767,-0.59142286,0.02943224,-0.04414292,0.72918165,0.17607452,0.17627889,-0.29520538,0.012946445,0.012961471,-0.7210718,1.614185,-9.723045e-10
37836000,-0.024108313,0.043769408,-0.51862293,0.028236222,-0.042055048,0.7326844,0.17469275,0.18603005,-0.2825791,0.012828087,0.013660612,-0.7201705,1.614185,-3.9555728e-10
37940000,-0.024354078,0.044124573,-0.4514229,0.02774787,-0.042513262,0.7270136,0.17315109,0.17431518,-0.29330403,0.012730252,0.012815839,-0.72093606,1.614185,-3.7548556e-10
38044000,-0.024639431,0.044536944,-0.36742297,0.027901536,-0.045153484,0.7399179,0.17683306,0.1693945,-0.23478484,0.012923274,0.012379651,-0.71675897,1.614185,-2.1216216e-10
38140000,-0.0248171,0.04479369,-0.31142294,0.027325502,-0.04571342,0.72855794,0.1752254,0.16646634,-0.28776583,0.012874615,0.012231046,-0.72054076,1.614185,-1.4500547e-10
38236000,-0.025033984,0.04510712,-0.23862292,0.026165705,-0.044841588,0.73265004,0.17257766,0.17219566,-0.2775795,0.012667477,0.012639438,-0.71981364,1.614185,-5.899178e-11
38340000,-0.02522107,0.045377463,-0.17142291,0.026353974,-0.04551894,0.7273982,0.17451419,0.16579007,-0.29031456,0.012825926,0.012184747,-0.7207227,1.614185,-5.599837e-11
38436000,-0.0254103,0.045650933,-0.0986229,0.027592178,-0.04740996,0.7347985,0.17590529,0.16201979,-0.2569342,0.012884429,0.011867367,-0.71834,1.614185,-2.2781511e-11
38540000,-0.02557353,0.04588682,-0.031422906,0.02778804,-0.04747188,0.72929853,0.17429133,0.16631737,-0.28756496,0.012804174,0.012218374,-0.7205264,1.614185,-2.1625514e-11
38636000,-0.025738645,0.046125438,0.041377097,0.02710904,-0.04609596,0.7335515,0.1673206,0.1741143,-0.27609035,0.012279567,0.012778155,-0.71970737,1.614185,-8.79779e-12
38740000,-0.025881074,0.046331257,0.108577095,0.028635174,-0.047088344,0.6829775,0.19560629,0.1363256,-1.7933712,0.016515398,0.011510221,-0.82793695,1.614185,-8.351366e-12
38836000,-0.026025143,0.046539452,0.1813771,0.029739762,-0.04960062,0.6752881,0.16720659,0.13363756,-0.7085943,0.012794673,0.0102259675,-0.7504095,1.614185,-3.3975405e-12
38940000,-0.026149414,0.04671904,0.2485771,0.02922336,-0.050457586,0.6738197,0.16537678,0.14734046,-0.32989922,0.012197708,0.010867401,-0.7233591,1.614185,-3.2251396e-12
39036000,-0.026275113,0.04690069,0.3213771,0.02780839,-0.04959581,0.68795335,0.16849431,0.15908286,-0.2205447,0.012294689,0.011607953,-0.71556395,1.614185,-1.312066e-12
39140000,-0.026383547,0.04705739,0.38857704,0.026786517,-0.049165502,0.73128057,0.16786224,0.16485389,-0.0045287907,0.011984464,0.011769683,-0.700164,1.614185,-1.2454881e-12
39236000,-0.026493235,0.0472159,0.46137702,0.02623877,-0.049235195,0.8084383,0.16700913,0.1634335,0.2588076,0.011604461,0.011356013,-0.6813883,1.614185,-5.0669516e-13
39340000,-0.02658785,0.04735263,0.528577,0.024975024,-0.04768326,0.8577598,0.17215711,0.16841313,0.22343272,0.01200688,0.01174576,-0.68394846,1.614185,-4.80984e-13
39444000,-0.026697705,0.047511376,0.6125769,0.023243377,-0.044779245,0.90339947,0.1619828,0.18631773,0.16458523,0.011367062,0.013074753,-0.68818766,1.614185,-2.7177238e-13
39540000,-0.026766097,0.04761022,0.66857696,0.023192942,-0.044091735,0.95186305,0.16985488,0.17938942,0.24415421,0.0118207075,0.012484243,-0.68253887,1.614185,-1.8574698e-13
39636000,-0.026849609,0.047730897,0.74137694,0.024383059,-0.04490887,1.0319754,0.18412273,0.17063014,0.42389816,0.012574549,0.011653082,-0.6697362,1.614185,-7.556643e-14
39740000,-0.026921647,0.047834996,0.808577,0.025027547,-0.04438304,1.0764493,0.18764655,0.1685334,0.31509614,0.012963704,0.011643257,-0.67750835,1.614185,-7.1731974e-14
39844000,-0.027005307,0.047955897,0.892577,0.02510116,-0.042596262,1.1124367,0.18667327,0.17759286,0.20892578,0.01304017,0.012405854,-0.68508685,1.614185,-4.053101e-14
39940000,-0.027057394,0.048031177,0.948577,0.02490597,-0.041678846,1.1485915,0.18095894,0.17679034,0.2530843,0.012583751,0.012293871,-0.6819348,1.614185,-2.7701537e-14
40036000,-0.027120989,0.048123065,1.0213772,0.024415843,-0.041306417,1.215062,0.18353237,0.17625995,0.4071422,0.012556431,0.012058886,-0.67093813,1.614185,-1.1269665e-14
40140000,-0.027175842,0.04820234,1.0885772,0.023433235,-0.039630447,1.2434248,0.17881489,0.18261759,0.28121626,0.012397727,0.012661378,-0.67992675,1.614185,-1.069781e-14
40236000,-0.027231328,0.04828253,1.1613773,0.022139536,-0.037085325,1.2566233,0.17876546,0.18808362,0.13185208,0.012587557,0.013243684,-0.69058836,1.614185,-4.3521315e-15
40340000,-0.027279193,0.04835171,1.2285775,0.021914857,-0.035840806,1.283179,0.1838629,0.18335529,0.15969795,0.012910287,0.012874645,-0.6886007,1.614185,-4.1312927e-15
40436000,-0.027327606,0.048421666,1.3013773,0.022809569,-0.03624309,1.3348249,0.18954343,0.17337416,0.29020858,0.013129585,0.012009547,-0.6792849,1.614185,-1.6807114e-15
40540000,-0.027369386,0.048482046,1.3685775,0.023280649,-0.03561808,1.3469038,0.1941958,0.17549154,0.13202934,0.01367437,0.012357302,-0.6905757,1.614185,-1.5954272e-15
40636000,-0.02741164,0.0485431,1.4413773,0.023317665,-0.034052726,1.3458979,0.18972623,0.18299104,-0.02323157,0.013574351,0.013092468,-0.70165825,1.614185,-6.4905895e-16
40740000,-0.027448094,0.04859578,1.5085775,0.02280117,-0.033980936,1.3582237,0.1871155,0.17121068,0.005097598,0.013348125,0.012213534,-0.6996361,1.614185,-6.1612393e-16
40844000,-0.02749042,0.048656937,1.5925775,0.021836452,-0.035603873,1.4055936,0.18316042,0.16646595,0.17226775,0.0128433565,0.011672727,-0.6877035,1.614185,-3.48131e-16
40940000,-0.027516777,0.048695035,1.6485775,0.020652607,-0.03584444,1.3997588,0.1842789,0.16985515,0.01397698,0.01313634,0.0121081425,-0.6990023,1.614185,-2.3793542e-16
41044000,-0.027553717,0.048748408,1.7325774,0.019205518,-0.034784473,1.3950646,0.17860976,0.17773078,-0.11390744,0.012898158,0.012834683,-0.7081307,1.614185,-1.3444161e-16
41140000,-0.027576718,0.04878165,1.7885774,0.016596977,-0.03465199,1.3961647,0.1680908,0.1688057,-0.07626044,0.012091765,0.012143192,-0.70544344,1.614185,-9.188616e-17
41236000,-0.02760481,0.048822243,1.8613774,0.01303082,-0.035218127,1.4292061,0.16142169,0.16575398,0.06476635,0.011445709,0.011752891,-0.69537693,1.614185,-3.7381543e-17
41340000,-0.027629022,0.04885723,1.9285772,0.00953172,-0.03462811,1.424428,0.16205026,0.16985723,-0.06867036,0.011647994,0.012209149,-0.7049017,1.614185,-3.5484695e-17
41436000,-0.02765353,0.048892643,2.0013769,0.0067030536,-0.03313964,1.4103353,0.15686958,0.17232998,-0.19894524,0.0114258705,0.012551955,-0.71420074,1.614185,-1.4436045e-17
41540000,-0.027674671,0.048923194,2.068577,0.0029751293,-0.032341894,1.4095709,0.15176927,0.16858698,-0.14736812,0.01099429,0.012212579,-0.71051913,1.614185,-1.3703519e-17
41644000,-0.027699212,0.04895865,2.152577,0.0009444934,-0.03688806,1.504225,0.19570781,0.046503477,2.9310682,0.009792882,0.0023269542,-0.49073792,1.614185,-7.742956e-18
41740000,-0.027714493,0.048980728,2.2085767,-0.00024117524,-0.040621992,1.5528944,0.1846608,0.03914213,3.341596,0.008689176,0.0018418252,-0.4613881,1.614185,-5.292041e-18
41836000,-0.027733156,0.049007703,2.2813766,-0.0009844508,-0.044174813,1.6026683,0.18096817,0.017952299,3.7481856,0.007979286,0.0007915565,-0.43232122,1.614185,-2.1529321e-18
41940000,-0.027749259,0.049030975,2.348577,-0.0015069884,-0.04634081,1.6708012,0.1743395,0.0066846767,4.2878284,0.0069995495,0.0002683828,-0.39376047,1.614185,-2.0436864e-18
42036000,-0.027765548,0.049054515,2.421377,-0.0018062307,-0.047065023,1.7625334,0.17441523,-0.0031056474,4.9407067,0.00617425,-0.00010993905,-0.3471331,1.614185,-8.314218e-19
42140000,-0.027779605,0.049074825,2.488577,-0.001817142,-0.048628643,1.8000001,0.17125444,-0.019870088,5.3877163,0.005504314,-0.00063864735,-0.31519845,1.614185,-7.892332e-19
42236000,-0.02779382,0.04909537,2.561377,-0.0015499764,-0.050764352,1.8000001,0.17134848,-0.03483459,5.6454344,0.005184305,-0.0010539524,-0.29677635,1.614185,-3.2107946e-19
42340000,-0.02780608,0.049113095,2.6285768,-0.0015666396,-0.050635595,1.8000001,0.16348056,-0.036760744,5.9538746,0.0045794984,-0.0010297601,-0.27473927,1.614185,-3.04787e-19
42436000,-0.02781849,0.049131025,2.701377,-0.0018874949,-0.048560657,1.8000001,0.15607774,-0.03400033,6.2649302,0.0040188367,-0.00087547244,-0.25252524,1.614185,-1.2399484e-19
42540000,-0.027829189,0.049146492,2.768577,-0.0019247875,-0.04791956,1.8000001,0.15428676,-0.03814365,6.5759954,0.0036228108,-0.00089565193,-0.23031467,1.614185,-1.1770299e-19
42636000,-0.027840022,0.049162142,2.8413773,-0.0016913239,-0.048561484,1.8000001,0.1542714,-0.048421822,6.841796,0.0033246402,-0.001043519,-0.21133983,1.614185,-4.7884468e-20
42740000,-0.027849367,0.049175642,2.9085772,-0.0009450088,-0.047815967,1.8000001,0.14795417,-0.047603227,7.1586685,0.0028469048,-0.00091597193,-0.18872857,1.614185,-4.5454673e-20
42836000,-0.027858818,0.049189307,2.9813771,2.4257955e-05,-0.04588131,1.8000001,0.14756227,-0.04414466,7.470037,0.0025050668,-0.0007494146,-0.16651821,1.614185,-1.849208e-20
42940000,-0.027866961,0.04920108,3.0485778,0.001197865,-0.045454856,1.8000001,0.15046853,-0.045579303,7.786954,0.0022078545,-0.0006687941,-0.14391732,1.614185,-1.755374e-20
43036000,-0.02787521,0.049212992,3.121378,0.0023544743,-0.04637119,1.8000001,0.14443113,-0.05937072,8.062393,0.0018305196,-0.0007524643,-0.124278784,1.614185,-7.141292e-21
43140000,-0.027882326,0.049223278,3.1885777,0.0028218576,-0.045617525,1.8000001,0.13707311,-0.049908776,8.180868,0.0016771831,-0.000610668,-0.11998672,1.614185,-6.778922e-21
43236000,-0.027889531,0.049233694,3.2613773,0.0025105928,-0.043277267,1.8000001,0.12976687,-0.04631249,8.253847,0.0015878973,-0.00056670455,-0.11998815,1.614185,-2.7578319e-21
43340000,-0.027895737,0.049242664,3.3285775,0.0023817096,-0.042492434,1.8000001,0.12898214,-0.048725173,8.306616,0.0015776812,-0.0005959956,-0.11998814,1.614185,-2.6178915e-21
43436000,-0.027902015,0.04925174,3.401378,0.0025236541,-0.04313525,1.8000001,0.11850116,-0.05825295,8.342122,0.0014496003,-0.0007125964,-0.11998913,1.614185,-1.0650226e-21
43540000,-0.027907433,0.049259573,3.468578,0.0027344963,-0.041841023,1.8000001,0.11723095,-0.04739142,8.398373,0.0014346482,-0.00057996647,-0.11999002,1.614185,-1.0109804e-21
43636000,-0.027912913,0.04926748,3.541378,0.0030962715,-0.03875995,1.8000001,0.114273444,-0.03603682,8.466972,0.0013986726,-0.00044107987,-0.119991034,1.614185,-4.1129165e-22
43740000,-0.027917648,0.04927433,3.6085777,0.0036550278,-0.037141643,1.8000001,0.10966492,-0.035000287,8.51968,0.0013413943,-0.00042811487,-0.119991735,1.614185,-3.9042158e-22
43836000,-0.027922425,0.04928124,3.6813774,0.004264472,-0.037015557,1.8000001,0.11028376,-0.03628312,8.553166,0.0013496324,-0.00044402614,-0.119991586,1.614185,-1.5883308e-22
43940000,-0.02792655,0.049287193,3.7485776,0.0040610917,-0.03516015,1.8000001,0.10383245,-0.025268774,8.61105,0.0012711107,-0.00030933885,-0.11999287,1.614185,-1.5077344e-22
44036000,-0.027930722,0.04929323,3.8213775,0.0031127653,-0.031789154,1.8000001,0.101293914,-0.011481775,8.675414,0.0012398291,-0.00014053598,-0.11999351,1.614185,-6.133834e-23
