timestamp,unallocated_torque[0],unallocated_torque[1],unallocated_torque[2],unallocated_thrust[0],unallocated_thrust[1],unallocated_thrust[2],handled_motor_failure_mask,torque_setpoint_achieved,thrust_setpoint_achieved,actuator_saturation[0],actuator_saturation[1],actuator_saturation[2],actuator_saturation[3],actuator_saturation[4],actuator_saturation[5],actuator_saturation[6],actuator_saturation[7],actuator_saturation[8],actuator_saturation[9],actuator_saturation[10],actuator_saturation[11],actuator_saturation[12],actuator_saturation[13],actuator_saturation[14],actuator_saturation[15]
3340000,0.00074641855,0.0010239852,-0.00011424428,0.0,0.0,1.4551915e-11,0,0,1,-2,-2,-2,-2,2,2,2,2,2,2,2,2,2,2,2,2
3348000,-0.00025607774,3.823734e-05,0.00013838003,0.0,0.0,0.0,0,1,1,-2,-2,-2,-2,2,2,2,2,2,2,2,2,2,2,2,2
3540000,7.4804986e-05,0.00019132008,1.6348187e-05,0.0,0.0,7.250437e-12,0,1,1,-2,-2,-2,-2,2,2,2,2,2,2,2,2,2,2,2,2
3740000,0.020604536,0.02258372,0.00020120997,0.0,0.0,1.1641532e-10,0,0,1,0,-2,0,-2,2,2,2,2,2,2,2,2,2,2,2,2
3940000,0.019841963,0.02242332,0.0002010375,0.0,0.0,1.1641532e-10,0,0,1,0,-2,0,-2,2,2,2,2,2,2,2,2,2,2,2,2
4140000,0.018411202,0.02235206,0.00041747367,0.0,0.0,-2.3283064e-10,0,0,1,0,-2,0,-2,2,2,2,2,2,2,2,2,2,2,2,2
4340000,0.019317644,0.021927306,0.000594658,0.0,0.0,1.1641532e-10,0,0,1,0,-2,0,-2,2,2,2,2,2,2,2,2,2,2,2,2
4540000,0.019861361,0.019981023,2.6356807e-05,0.0,0.0,1.1641532e-10,0,0,1,0,-2,0,-2,2,2,2,2,2,2,2,2,2,2,2,2
4740000,0.019537237,0.021049824,0.00047297924,0.0,0.0,1.1641532e-10,0,0,1,0,-2,0,-2,2,2,2,2,2,2,2,2,2,2,2,2
4940000,0.018037094,0.018767297,0.00039022326,0.0,0.0,1.1641532e-10,0,0,1,0,-2,0,-2,2,2,2,2,2,2,2,2,2,2,2,2
5140000,0.018533355,0.018608116,0.0005867453,0.0,0.0,4.656613e-10,0,0,1,0,-2,0,-2,2,2,2,2,2,2,2,2,2,2,2,2
5340000,0.018497996,0.019516708,-0.00013120123,0.0,0.0,-2.3283064e-10,0,0,1,0,-2,0,-2,2,2,2,2,2,2,2,2,2,2,2,2
5540000,0.017677769,0.019655416,0.00058952125,0.0,0.0,1.1641532e-10,0,0,1,0,-2,0,-2,2,2,2,2,2,2,2,2,2,2,2,2
5740000,0.018078595,0.018888863,0.00055557274,0.0,0.0,-2.3283064e-10,0,0,1,0,-2,0,-2,2,2,2,2,2,2,2,2,2,2,2,2
5940000,0.01735461,0.018657297,0.000764219,0.0,0.0,4.656613e-10,0,0,1,0,-2,0,-2,2,2,2,2,2,2,2,2,2,2,2,2
6140000,0.017758928,0.017290823,-0.00016717026,0.0,0.0,1.1641532e-10,0,0,1,0,-2,0,-2,2,2,2,2,2,2,2,2,2,2,2,2
6340000,0.01794167,0.018767957,0.0002554045,0.0,0.0,1.1641532e-10,0,0,1,0,-2,0,-2,2,2,2,2,2,2,2,2,2,2,2,2
6540000,0.01794486,0.018727653,0.0007087143,0.0,0.0,4.656613e-10,0,0,1,0,-2,0,-2,2,2,2,2,2,2,2,2,2,2,2,2
6740000,0.017626258,0.018701315,0.0008058298,0.0,0.0,1.1641532e-10,0,0,1,0,-2,0,-2,2,2,2,2,2,2,2,2,2,2,2,2
6940000,0.016371628,0.018799476,0.001084993,0.0,0.0,1.1641532e-10,0,0,1,0,-2,0,-2,2,2,2,2,2,2,2,2,2,2,2,2
7140000,0.018046765,0.018969595,0.0008719909,0.0,0.0,4.656613e-10,0,0,1,0,-2,0,-2,2,2,2,2,2,2,2,2,2,2,2,2
7340000,0.016075462,0.018805992,0.0005318834,0.0,0.0,1.1641532e-10,0,0,1,0,-2,0,-2,2,2,2,2,2,2,2,2,2,2,2,2
7540000,0.016627725,0.018907022,0.0006234538,0.0,0.0,4.656613e-10,0,0,1,0,-2,0,-2,2,2,2,2,2,2,2,2,2,2,2,2
7740000,0.016424274,0.018637065,0.00052386895,0.0,0.0,1.1641532e-10,0,0,1,0,-2,0,-2,2,2,2,2,2,2,2,2,2,2,2,2
7940000,0.016880535,0.019975537,0.00048179124,0.0,0.0,5.820766e-10,0,0,1,0,-2,0,-2,2,2,2,2,2,2,2,2,2,2,2,2
8140000,0.01757427,0.020192612,0.00069146435,0.0,0.0,1.1641532e-10,0,0,1,0,-2,0,-2,2,2,2,2,2,2,2,2,2,2,2,2
8340000,0.01804736,0.018725496,0.0006810045,0.0,0.0,4.656613e-10,0,0,1,0,-2,0,-2,2,2,2,2,2,2,2,2,2,2,2,2
8540000,0.016891627,0.018495573,-3.127516e-05,0.0,0.0,1.1641532e-10,0,0,1,0,-2,0,-2,2,2,2,2,2,2,2,2,2,2,2,2
8740000,0.018604044,0.019232044,0.00024125702,0.0,0.0,5.820766e-10,0,0,1,0,-2,0,-2,2,2,2,2,2,2,2,2,2,2,2,2
8940000,0.017000424,0.018642947,0.00030774157,0.0,0.0,1.1641532e-10,0,0,1,0,-2,0,-2,2,2,2,2,2,2,2,2,2,2,2,2
9140000,0.016671563,0.018783756,0.00040719897,0.0,0.0,1.1641532e-10,0,0,1,0,-2,0,-2,2,2,2,2,2,2,2,2,2,2,2,2
9340000,0.017462453,0.01864501,-0.00030199785,0.0,0.0,1.0477379e-09,0,0,1,0,-2,0,-2,2,2,2,2,2,2,2,2,2,2,2,2
9540000,0.017254803,0.01825911,-0.00010664609,0.0,0.0,-2.3283064e-10,0,0,1,0,-2,0,-2,2,2,2,2,2,2,2,2,2,2,2,2
9740000,0.017276114,0.018628126,9.9311355e-06,0.0,0.0,5.820766e-10,0,0,1,0,-2,0,-2,2,2,2,2,2,2,2,2,2,2,2,2
9940000,0.017603451,0.018445726,-0.00043130247,0.0,0.0,1.1641532e-10,0,0,1,0,-2,0,-2,2,2,2,2,2,2,2,2,2,2,2,2
10140000,0.015787095,0.017860748,0.00036567388,0.0,0.0,3.4924597e-10,0,0,1,0,-2,0,-2,2,2,2,2,2,2,2,2,2,2,2,2
10340000,0.01747579,0.017919263,6.455053e-05,0.0,0.0,1.1641532e-10,0,0,1,0,-2,0,-2,2,2,2,2,2,2,2,2,2,2,2,2
10540000,0.016892377,0.016894618,0.00022384814,0.0,0.0,5.820766e-10,0,0,1,0,-2,0,-2,2,2,2,2,2,2,2,2,2,2,2,2
10740000,0.017338615,0.018255081,0.0006624025,0.0,0.0,5.820766e-10,0,0,1,0,-2,0,-2,2,2,2,2,2,2,2,2,2,2,2,2
10940000,0.016381921,0.018623985,-0.00012204903,0.0,0.0,-2.3283064e-10,0,0,1,0,-2,0,-2,2,2,2,2,2,2,2,2,2,2,2,2
11140000,0.016560398,0.018788649,8.928454e-05,0.0,0.0,1.1641532e-10,0,0,1,0,-2,0,-2,2,2,2,2,2,2,2,2,2,2,2,2
11340000,0.016859623,0.017231533,0.00039175228,0.0,0.0,-2.3283064e-10,0,0,1,0,-2,0,-2,2,2,2,2,2,2,2,2,2,2,2,2
11540000,0.01653898,0.018067647,0.00016120997,0.0,0.0,5.820766e-10,0,0,1,0,-2,0,-2,2,2,2,2,2,2,2,2,2,2,2,2
11740000,0.01642927,0.017990788,0.00018642274,0.0,0.0,1.1641532e-10,0,0,1,0,-2,0,-2,2,2,2,2,2,2,2,2,2,2,2,2
11940000,0.016889136,0.017935118,-4.447456e-05,0.0,0.0,5.820766e-10,0,0,1,0,-2,0,-2,2,2,2,2,2,2,2,2,2,2,2,2
12140000,0.016588775,0.017955948,-0.00034380506,0.0,0.0,-2.3283064e-10,0,0,1,0,-2,0,-2,2,2,2,2,2,2,2,2,2,2,2,2
12340000,0.016950956,0.016749565,0.0001175591,0.0,0.0,3.4924597e-10,0,0,1,0,-2,0,-2,2,2,2,2,2,2,2,2,2,2,2,2
12540000,0.016484382,0.01918379,0.0002686455,0.0,0.0,1.1641532e-10,0,0,1,0,-2,0,-2,2,2,2,2,2,2,2,2,2,2,2,2
12740000,0.01654352,0.017679535,0.0007446665,0.0,0.0,4.656613e-10,0,0,1,0,-2,0,-2,2,2,2,2,2,2,2,2,2,2,2,2
12940000,0.016200464,0.018298842,0.0006027163,0.0,0.0,4.656613e-10,0,0,1,0,-2,0,-2,2,2,2,2,2,2,2,2,2,2,2,2
13140000,0.016480526,0.018557515,0.00034911165,0.0,0.0,4.656613e-10,0,0,1,0,-2,0,-2,2,2,2,2,2,2,2,2,2,2,2,2
13340000,0.017154494,0.017133277,-8.802455e-05,0.0,0.0,3.4924597e-10,0,0,1,0,-2,0,-2,2,2,2,2,2,2,2,2,2,2,2,2
13540000,0.016463889,0.016583635,-4.337414e-05,0.0,0.0,1.1641532e-10,0,0,1,0,-2,0,-2,2,2,2,2,2,2,2,2,2,2,2,2
13740000,0.016998522,0.018557357,0.0002097723,0.0,0.0,1.1641532e-10,0,0,1,0,-2,0,-2,2,2,2,2,2,2,2,2,2,2,2,2
13940000,0.015768526,0.017512305,0.0005587572,0.0,0.0,1.1641532e-10,0,0,1,0,-2,0,-2,2,2,2,2,2,2,2,2,2,2,2,2
14140000,0.016407553,0.017561011,-0.00013602979,0.0,0.0,1.0477379e-09,0,0,1,0,-2,0,-2,2,2,2,2,2,2,2,2,2,2,2,2
14340000,0.017027788,0.017033279,0.0004605108,0.0,0.0,-2.3283064e-10,0,0,1,0,-2,0,-2,2,2,2,2,2,2,2,2,2,2,2,2
14540000,-2.7939677e-09,0.0,2.0372681e-09,0.0,0.0,0.0,0,1,1,0,0,0,0,2,2,2,2,2,2,2,2,2,2,2,2
14740000,0.0,1.8626451e-09,-8.731149e-11,0.0,0.0,0.0,0,1,1,0,0,0,0,2,2,2,2,2,2,2,2,2,2,2,2
14940000,-5.5879354e-09,1.8626451e-09,-2.5029294e-09,0.0,0.0,0.0,0,1,1,0,0,0,0,2,2,2,2,2,2,2,2,2,2,2,2
15140000,-9.313226e-09,-5.5879354e-09,-6.9121597e-09,0.0,0.0,-1.4901161e-08,0,1,1,0,0,0,0,2,2,2,2,2,2,2,2,2,2,2,2
15340000,1.1175871e-08,7.450581e-09,-6.6356733e-09,0.0,0.0,0.0,0,1,1,0,0,0,0,2,2,2,2,2,2,2,2,2,2,2,2
15540000,2.0489097e-08,-9.313226e-09,6.024493e-09,0.0,0.0,-2.9802322e-08,0,1,1,0,0,0,0,2,2,2,2,2,2,2,2,2,2,2,2
15740000,-1.4901161e-08,2.2351742e-08,-6.4028427e-10,0.0,0.0,0.0,0,1,1,0,0,0,0,2,2,2,2,2,2,2,2,2,2,2,2
15940000,-1.4901161e-08,0.0,2.1915184e-08,0.0,0.0,0.0,0,1,1,0,0,0,0,2,2,2,2,2,2,2,2,2,2,2,2
16140000,1.1175871e-08,1.8626451e-08,1.7636921e-08,0.0,0.0,0.0,0,1,1,0,0,0,0,2,2,2,2,2,2,2,2,2,2,2,2
16340000,-1.4901161e-08,-3.7252903e-09,-1.5599653e-08,0.0,0.0,-2.9802322e-08,0,1,1,0,0,0,0,2,2,2,2,2,2,2,2,2,2,2,2
16540000,1.1175871e-08,0.0,-1.6007107e-08,0.0,0.0,-2.9802322e-08,0,1,1,0,0,0,0,2,2,2,2,2,2,2,2,2,2,2,2
16740000,-1.1175871e-08,0.0,-3.1723175e-09,0.0,0.0,0.0,0,1,1,0,0,0,0,2,2,2,2,2,2,2,2,2,2,2,2
16940000,-2.9802322e-08,-1.1175871e-08,1.7229468e-08,0.0,0.0,-2.9802322e-08,0,1,1,0,0,0,0,2,2,2,2,2,2,2,2,2,2,2,2
17140000,0.0,-1.1175871e-08,-1.3329554e-08,0.0,0.0,-5.9604645e-08,0,1,1,0,0,0,0,2,2,2,2,2,2,2,2,2,2,2,2
17340000,-1.4901161e-08,7.450581e-09,3.783498e-09,0.0,0.0,-5.9604645e-08,0,1,1,0,0,0,0,2,2,2,2,2,2,2,2,2,2,2,2
17540000,-2.2351742e-08,0.0,2.2118911e-09,0.0,0.0,-5.9604645e-08,0,1,1,0,0,0,0,2,2,2,2,2,2,2,2,2,2,2,2
17740000,-2.9802322e-08,5.2154064e-08,3.3294782e-08,0.0,0.0,-5.9604645e-08,0,1,1,0,0,0,0,2,2,2,2,2,2,2,2,2,2,2,2
17940000,-2.6077032e-08,-7.450581e-09,2.0954758e-09,0.0,0.0,0.0,0,1,1,0,0,0,0,2,2,2,2,2,2,2,2,2,2,2,2
18140000,-1.2572855e-08,1.3038516e-08,3.213063e-08,0.0,0.0,-5.9604645e-08,0,1,1,0,0,0,0,2,2,2,2,2,2,2,2,2,2,2,2
18340000,2.3283064e-08,6.519258e-09,1.15833245e-08,0.0,0.0,0.0,0,1,1,0,0,0,0,2,2,2,2,2,2,2,2,2,2,2,2
18540000,6.193295e-08,-3.0733645e-08,7.1013346e-09,0.0,0.0,-5.9604645e-08,0,1,1,0,0,0,0,2,2,2,2,2,2,2,2,2,2,2,2
18740000,-5.424954e-08,1.816079e-08,8.20728e-09,0.0,0.0,-5.9604645e-08,0,1,1,0,0,0,0,2,2,2,2,2,2,2,2,2,2,2,2
18940000,-6.146729e-08,8.381903e-09,7.392373e-09,0.0,0.0,-5.9604645e-08,0,1,1,0,0,0,0,2,2,2,2,2,2,2,2,2,2,2,2
19140000,-6.121991e-08,2.3283064e-09,2.1827873e-09,0.0,0.0,0.0,0,1,1,0,0,0,0,2,2,2,2,2,2,2,2,2,2,2,2
19340000,3.5390258e-08,3.7252903e-09,-1.1088559e-08,0.0,0.0,-1.1920929e-07,0,1,1,0,0,0,0,2,2,2,2,2,2,2,2,2,2,2,2
19540000,5.820766e-10,1.6298145e-08,4.489266e-08,0.0,0.0,-5.9604645e-08,0,1,1,0,0,0,0,2,2,2,2,2,2,2,2,2,2,2,2
19740000,-4.877802e-08,-1.2572855e-08,2.2162567e-08,0.0,0.0,-5.9604645e-08,0,1,1,0,0,0,0,2,2,2,2,2,2,2,2,2,2,2,2
19940000,-4.9578375e-08,-1.071021e-08,3.0966476e-08,0.0,0.0,-5.9604645e-08,0,1,1,0,0,0,0,2,2,2,2,2,2,2,2,2,2,2,2
20140000,4.442336e-08,-1.4901161e-08,1.1401426e-08,0.0,0.0,0.0,0,1,1,0,0,0,0,2,2,2,2,2,2,2,2,2,2,2,2
20340000,-6.449409e-08,1.0011718e-08,2.5743248e-08,0.0,0.0,-5.9604645e-08,0,1,1,0,0,0,0,2,2,2,2,2,2,2,2,2,2,2,2
20540000,2.7757778e-08,1.5832484e-08,1.0084477e-08,0.0,0.0,0.0,0,1,1,0,0,0,0,2,2,2,2,2,2,2,2,2,2,2,2
20740000,-6.5541826e-08,-3.4458935e-08,-8.172719e-09,0.0,0.0,-5.9604645e-08,0,1,1,0,0,0,0,2,2,2,2,2,2,2,2,2,2,2,2
20940000,-1.3853423e-08,2.7474016e-08,-5.47152e-09,0.0,0.0,0.0,0,1,1,0,0,0,0,2,2,2,2,2,2,2,2,2,2,2,2
21140000,-5.1106326e-08,1.816079e-08,6.8102963e-09,0.0,0.0,0.0,0,1,1,0,0,0,0,2,2,2,2,2,2,2,2,2,2,2,2
21340000,-5.104812e-08,-2.3748726e-08,-3.4204277e-08,0.0,0.0,-5.9604645e-08,0,1,1,0,0,0,0,2,2,2,2,2,2,2,2,2,2,2,2
21540000,1.792796e-08,-2.3283064e-10,-2.750312e-08,0.0,0.0,0.0,0,1,1,0,0,0,0,2,2,2,2,2,2,2,2,2,2,2,2
21740000,-7.014023e-08,0.0,-1.9586878e-08,0.0,0.0,0.0,0,1,1,0,0,0,0,2,2,2,2,2,2,2,2,2,2,2,2
21940000,2.7939677e-08,-1.3038516e-08,-2.5669578e-08,0.0,0.0,0.0,0,1,1,0,0,0,0,2,2,2,2,2,2,2,2,2,2,2,2
22140000,-6.938353e-08,-9.546056e-09,-2.561137e-09,0.0,0.0,0.0,0,1,1,0,0,0,0,2,2,2,2,2,2,2,2,2,2,2,2
22340000,-2.7997885e-08,3.7252903e-08,-1.0884833e-08,0.0,0.0,0.0,0,1,1,0,0,0,0,2,2,2,2,2,2,2,2,2,2,2,2
22540000,3.2014214e-08,-3.282912e-08,2.339948e-08,0.0,0.0,0.0,0,1,1,0,0,0,0,2,2,2,2,2,2,2,2,2,2,2,2
22740000,9.19681e-09,1.9557774e-08,1.0768417e-08,0.0,0.0,0.0,0,1,1,0,0,0,0,2,2,2,2,2,2,2,2,2,2,2,2
22940000,2.8056093e-08,1.4901161e-08,1.36788e-09,0.0,0.0,0.0,0,1,1,0,0,0,0,2,2,2,2,2,2,2,2,2,2,2,2
23140000,6.4610504e-09,-7.450581e-09,-2.0576408e-08,0.0,0.0,0.0,0,1,1,0,0,0,0,2,2,2,2,2,2,2,2,2,2,2,2
23340000,4.186586e-08,-5.122274e-09,-4.0614395e-08,0.0,0.0,0.0,0,1,1,0,0,0,0,2,2,2,2,2,2,2,2,2,2,2,2
23540000,1.4726538e-08,-1.1641532e-08,1.7091224e-08,0.0,0.0,0.0,0,1,1,0,0,0,0,2,2,2,2,2,2,2,2,2,2,2,2
23740000,-1.1874363e-08,6.7520887e-09,-5.311449e-09,0.0,0.0,-1.1920929e-07,0,1,1,0,0,0,0,2,2,2,2,2,2,2,2,2,2,2,2
23940000,-8.789357e-09,-2.3515895e-08,4.962203e-09,0.0,0.0,-5.9604645e-08,0,1,1,0,0,0,0,2,2,2,2,2,2,2,2,2,2,2,2
24140000,-2.059096e-08,-9.778887e-09,3.8999133e-08,0.0,0.0,-1.1920929e-07,0,1,1,0,0,0,0,2,2,2,2,2,2,2,2,2,2,2,2
24340000,-1.6232661e-08,-6.519258e-09,1.7229468e-08,0.0,0.0,0.0,0,1,1,0,0,0,0,2,2,2,2,2,2,2,2,2,2,2,2
24540000,-9.895302e-09,-1.071021e-08,1.8750143e-08,0.0,0.0,0.0,0,1,1,0,0,0,0,2,2,2,2,2,2,2,2,2,2,2,2
24740000,6.9849193e-10,-1.44355e-08,1.3315002e-08,0.0,0.0,-5.9604645e-08,0,1,1,0,0,0,0,2,2,2,2,2,2,2,2,2,2,2,2
24940000,-3.9173756e-08,-1.44355e-08,-1.1335942e-08,0.0,0.0,0.0,0,1,1,0,0,0,0,2,2,2,2,2,2,2,2,2,2,2,2
25140000,1.2980308e-08,-1.5366822e-08,-2.226443e-09,0.0,0.0,-5.9604645e-08,0,1,1,0,0,0,0,2,2,2,2,2,2,2,2,2,2,2,2
25340000,-5.296897e-09,-1.8626451e-09,-2.561137e-09,0.0,0.0,0.0,0,1,1,0,0,0,0,2,2,2,2,2,2,2,2,2,2,2,2
25540000,-3.7194695e-08,-5.820766e-09,1.6734703e-09,0.0,0.0,-5.9604645e-08,0,1,1,0,0,0,0,2,2,2,2,2,2,2,2,2,2,2,2
25740000,-2.2817403e-08,-4.656613e-09,-1.3344106e-08,0.0,0.0,-5.9604645e-08,0,1,1,0,0,0,0,2,2,2,2,2,2,2,2,2,2,2,2
25940000,-1.8335413e-08,1.3969839e-09,1.3329554e-08,0.0,0.0,-5.9604645e-08,0,1,1,0,0,0,0,2,2,2,2,2,2,2,2,2,2,2,2
26140000,-3.4924597e-09,2.9802322e-08,-1.7775164e-08,0.0,0.0,-5.9604645e-08,0,1,1,0,0,0,0,2,2,2,2,2,2,2,2,2,2,2,2
26340000,3.3003744e-08,-2.910383e-08,-6.170012e-09,0.0,0.0,0.0,0,1,1,0,0,0,0,2,2,2,2,2,2,2,2,2,2,2,2
26540000,-2.142042e-08,2.0256266e-08,1.778244e-08,0.0,0.0,-1.1920929e-07,0,1,1,0,0,0,0,2,2,2,2,2,2,2,2,2,2,2,2
26740000,-5.151378e-08,-2.7939677e-09,2.8812792e-09,0.0,0.0,0.0,0,1,1,0,0,0,0,2,2,2,2,2,2,2,2,2,2,2,2
26940000,4.2375177e-08,1.5832484e-08,3.5272933e-08,0.0,0.0,0.0,0,1,1,0,0,0,0,2,2,2,2,2,2,2,2,2,2,2,2
27140000,4.5401976e-09,-3.7252903e-08,-1.8044375e-08,0.0,0.0,-5.9604645e-08,0,1,1,0,0,0,0,2,2,2,2,2,2,2,2,2,2,2,2
27340000,1.2223609e-08,5.122274e-09,2.2078893e-08,0.0,0.0,5.9604645e-08,0,1,1,0,0,0,0,2,2,2,2,2,2,2,2,2,2,2,2
27540000,4.6449713e-08,-2.0023435e-08,-1.2296368e-09,0.0,0.0,-1.1920929e-07,0,1,1,0,0,0,0,2,2,2,2,2,2,2,2,2,2,2,2
27740000,1.0652002e-08,1.5832484e-08,-2.462184e-08,0.0,0.0,-5.9604645e-08,0,1,1,0,0,0,0,2,2,2,2,2,2,2,2,2,2,2,2
27940000,4.598405e-09,-4.1909516e-09,-5.6024874e-10,0.0,0.0,0.0,0,1,1,0,0,0,0,2,2,2,2,2,2,2,2,2,2,2,2
28140000,-5.7916623e-08,-9.778887e-09,1.071021e-08,0.0,0.0,-5.9604645e-08,0,1,1,0,0,0,0,2,2,2,2,2,2,2,2,2,2,2,2
28340000,4.4645276e-08,-2.0954758e-09,4.0978193e-08,0.0,0.0,-5.9604645e-08,0,1,1,0,0,0,0,2,2,2,2,2,2,2,2,2,2,2,2
28540000,2.5014742e-08,5.355105e-09,1.22781785e-08,0.0,0.0,0.0,0,1,1,0,0,0,0,2,2,2,2,2,2,2,2,2,2,2,2
28740000,1.6443664e-09,1.3504177e-08,-2.4025212e-08,0.0,0.0,-5.9604645e-08,0,1,1,0,0,0,0,2,2,2,2,2,2,2,2,2,2,2,2
28940000,-3.9353836e-08,-2.0489097e-08,2.1245796e-09,0.0,0.0,-5.9604645e-08,0,1,1,0,0,0,0,2,2,2,2,2,2,2,2,2,2,2,2
29140000,2.5087502e-08,-1.7229468e-08,4.7439244e-09,0.0,0.0,-5.9604645e-08,0,1,1,0,0,0,0,2,2,2,2,2,2,2,2,2,2,2,2
29340000,-1.2805685e-08,-1.3504177e-08,-1.8408173e-09,0.0,0.0,0.0,0,1,1,0,0,0,0,2,2,2,2,2,2,2,2,2,2,2,2
29540000,-6.414484e-08,-1.4901161e-08,-1.8568244e-08,0.0,0.0,0.0,0,1,1,0,0,0,0,2,2,2,2,2,2,2,2,2,2,2,2
29740000,2.81143e-08,2.7939677e-09,3.9784936e-08,0.0,0.0,0.0,0,1,1,0,0,0,0,2,2,2,2,2,2,2,2,2,2,2,2
29940000,3.7038262e-08,1.0244548e-08,-2.3443135e-08,0.0,0.0,0.0,0,1,1,0,0,0,0,2,2,2,2,2,2,2,2,2,2,2,2
30140000,2.8594513e-08,-2.5844201e-08,-1.4202669e-08,0.0,0.0,-5.9604645e-08,0,1,1,0,0,0,0,2,2,2,2,2,2,2,2,2,2,2,2
30340000,2.9704097e-08,-3.958121e-08,-2.1478627e-08,0.0,0.0,-5.9604645e-08,0,1,1,0,0,0,0,2,2,2,2,2,2,2,2,2,2,2,2
30540000,-4.5110937e-09,-7.916242e-09,-1.207809e-08,0.0,0.0,0.0,0,1,1,0,0,0,0,2,2,2,2,2,2,2,2,2,2,2,2
30740000,2.8343493e-08,1.5366822e-08,2.8579962e-08,0.0,0.0,0.0,0,1,1,0,0,0,0,2,2,2,2,2,2,2,2,2,2,2,2
30940000,3.731111e-08,-3.4924597e-08,1.9063009e-08,0.0,0.0,0.0,0,1,1,0,0,0,0,2,2,2,2,2,2,2,2,2,2,2,2
31140000,3.0267984e-09,-8.381903e-09,2.0780135e-08,0.0,0.0,-5.9604645e-08,0,1,1,0,0,0,0,2,2,2,2,2,2,2,2,2,2,2,2
31340000,-3.434252e-09,4.656613e-10,2.3283064e-09,0.0,0.0,-5.9604645e-08,0,1,1,0,0,0,0,2,2,2,2,2,2,2,2,2,2,2,2
31540000,-1.1641532e-10,1.816079e-08,-1.03900675e-08,0.0,0.0,-5.9604645e-08,0,1,1,0,0,0,0,2,2,2,2,2,2,2,2,2,2,2,2
31740000,-3.929017e-10,2.3050234e-08,-4.8894435e-09,0.0,0.0,-5.9604645e-08,0,1,1,0,0,0,0,2,2,2,2,2,2,2,2,2,2,2,2
31940000,5.8236765e-08,-2.2817403e-08,-1.7038474e-08,0.0,0.0,0.0,0,1,1,0,0,0,0,2,2,2,2,2,2,2,2,2,2,2,2
32140000,1.21071935e-08,2.863817e-08,-2.9729563e-08,0.0,0.0,-5.9604645e-08,0,1,1,0,0,0,0,2,2,2,2,2,2,2,2,2,2,2,2
32340000,-4.202593e-08,-1.3969839e-09,7.668859e-09,0.0,0.0,0.0,0,1,1,0,0,0,0,2,2,2,2,2,2,2,2,2,2,2,2
32540000,-3.434252e-09,1.1641532e-08,1.2019882e-08,0.0,0.0,0.0,0,1,1,0,0,0,0,2,2,2,2,2,2,2,2,2,2,2,2
32740000,-4.48199e-09,-1.071021e-08,2.6600901e-08,0.0,0.0,-1.1920929e-07,0,1,1,0,0,0,0,2,2,2,2,2,2,2,2,2,2,2,2
32940000,-2.325396e-08,-4.656613e-09,3.6292477e-08,0.0,0.0,-5.9604645e-08,0,1,1,0,0,0,0,2,2,2,2,2,2,2,2,2,2,2,2
33140000,9.429641e-09,4.8428774e-08,2.028537e-08,0.0,0.0,-5.9604645e-08,0,1,1,0,0,0,0,2,2,2,2,2,2,2,2,2,2,2,2
33340000,2.3675966e-08,2.3283064e-09,4.1909516e-09,0.0,0.0,5.9604645e-08,0,1,1,0,0,0,0,2,2,2,2,2,2,2,2,2,2,2,2
33540000,-2.5494955e-08,-2.6077032e-08,-3.015157e-08,0.0,0.0,-5.9604645e-08,0,1,1,0,0,0,0,2,2,2,2,2,2,2,2,2,2,2,2
33740000,1.1175871e-08,-7.450581e-09,-1.3700628e-08,0.0,0.0,0.0,0,1,1,0,0,0,0,2,2,2,2,2,2,2,2,2,2,2,2
33940000,-3.5506673e-08,-5.401671e-08,-1.8102583e-08,0.0,0.0,-5.9604645e-08,0,1,1,0,0,0,0,2,2,2,2,2,2,2,2,2,2,2,2
34140000,-3.4167897e-08,6.7520887e-09,5.1913958e-09,0.0,0.0,0.0,0,1,1,0,0,0,0,2,2,2,2,2,2,2,2,2,2,2,2
34340000,-3.9319275e-08,-2.3283064e-09,-2.4214387e-08,0.0,0.0,-5.9604645e-08,0,1,1,0,0,0,0,2,2,2,2,2,2,2,2,2,2,2,2
34540000,-2.849265e-08,-9.546056e-09,1.8633727e-08,0.0,0.0,-5.9604645e-08,0,1,1,0,0,0,0,2,2,2,2,2,2,2,2,2,2,2,2
34740000,5.6345016e-08,-1.8626451e-08,-1.3184035e-08,0.0,0.0,-5.9604645e-08,0,1,1,0,0,0,0,2,2,2,2,2,2,2,2,2,2,2,2
34940000,-2.2293534e-08,2.2118911e-08,-4.1909516e-09,0.0,0.0,-5.9604645e-08,0,1,1,0,0,0,0,2,2,2,2,2,2,2,2,2,2,2,2
35140000,-2.2584572e-08,-2.0954758e-08,7.887138e-09,0.0,0.0,-5.9604645e-08,0,1,1,0,0,0,0,2,2,2,2,2,2,2,2,2,2,2,2
35340000,1.3253157e-07,-2.0489097e-08,8.89122e-09,0.0,0.0,0.0,0,1,1,0,0,0,0,2,2,2,2,2,2,2,2,2,2,2,2
35540000,-6.8248482e-09,1.6763806e-08,-1.754961e-08,0.0,0.0,-5.9604645e-08,0,1,1,0,0,0,0,2,2,2,2,2,2,2,2,2,2,2,2
35740000,-3.2305252e-08,-3.4458935e-08,6.2282197e-09,0.0,0.0,0.0,0,1,1,0,0,0,0,2,2,2,2,2,2,2,2,2,2,2,2
35940000,-2.0489097e-08,-9.313226e-10,3.8096914e-08,0.0,0.0,0.0,0,1,1,0,0,0,0,2,2,2,2,2,2,2,2,2,2,2,2
36140000,3.9100996e-08,-3.1664968e-08,2.165325e-08,0.0,0.0,-5.9604645e-08,0,1,1,0,0,0,0,2,2,2,2,2,2,2,2,2,2,2,2
36340000,1.4901161e-08,-3.259629e-08,-9.225914e-09,0.0,0.0,-5.9604645e-08,0,1,1,0,0,0,0,2,2,2,2,2,2,2,2,2,2,2,2
36540000,-6.3548214e-08,-1.0244548e-08,-1.8408173e-08,0.0,0.0,-5.9604645e-08,0,1,1,0,0,0,0,2,2,2,2,2,2,2,2,2,2,2,2
36740000,-2.3865141e-08,-1.816079e-08,-1.6298145e-08,0.0,0.0,0.0,0,1,1,0,0,0,0,2,2,2,2,2,2,2,2,2,2,2,2
36940000,2.9802322e-08,-1.3504177e-08,-9.924406e-09,0.0,0.0,-5.9604645e-08,0,1,1,0,0,0,0,2,2,2,2,2,2,2,2,2,2,2,2
37140000,2.1682354e-08,-6.0535967e-09,8.763891e-09,0.0,0.0,-5.9604645e-08,0,1,1,0,0,0,0,2,2,2,2,2,2,2,2,2,2,2,2
37340000,-8.7340595e-08,8.8475645e-09,3.410969e-08,0.0,0.0,0.0,0,1,1,0,0,0,0,2,2,2,2,2,2,2,2,2,2,2,2
37540000,6.2878826e-08,3.4924597e-08,-5.6170393e-09,0.0,0.0,-5.9604645e-08,0,1,1,0,0,0,0,2,2,2,2,2,2,2,2,2,2,2,2
37740000,-1.4108082e-08,-2.514571e-08,1.2631062e-08,0.0,0.0,-5.9604645e-08,0,1,1,0,0,0,0,2,2,2,2,2,2,2,2,2,2,2,2
37940000,6.519258e-08,-2.9336661e-08,-1.0440999e-09,0.0,0.0,0.0,0,1,1,0,0,0,0,2,2,2,2,2,2,2,2,2,2,2,2
38140000,-3.684545e-08,7.916242e-09,-2.8172508e-08,0.0,0.0,-5.9604645e-08,0,1,1,0,0,0,0,2,2,2,2,2,2,2,2,2,2,2,2
38340000,-9.19681e-09,-5.5879354e-09,1.3562385e-08,0.0,0.0,-5.9604645e-08,0,1,1,0,0,0,0,2,2,2,2,2,2,2,2,2,2,2,2
38540000,-2.2002496e-08,1.9557774e-08,-3.776222e-08,0.0,0.0,0.0,0,1,1,0,0,0,0,2,2,2,2,2,2,2,2,2,2,2,2
38740000,-1.8626451e-08,4.8195943e-08,-2.8652721e-08,0.0,0.0,0.0,0,1,1,0,0,0,0,2,2,2,2,2,2,2,2,2,2,2,2
38940000,-4.901085e-08,-2.561137e-08,-2.1937012e-08,0.0,0.0,0.0,0,1,1,0,0,0,0,2,2,2,2,2,2,2,2,2,2,2,2
39140000,4.4965418e-08,-4.004687e-08,2.0081643e-09,0.0,0.0,-5.9604645e-08,0,1,1,0,0,0,0,2,2,2,2,2,2,2,2,2,2,2,2
39340000,-5.4918928e-08,5.5879354e-09,2.0372681e-08,0.0,0.0,0.0,0,1,1,0,0,0,0,2,2,2,2,2,2,2,2,2,2,2,2
39540000,-6.6065695e-08,1.21071935e-08,2.1056621e-08,0.0,0.0,0.0,0,1,1,0,0,0,0,2,2,2,2,2,2,2,2,2,2,2,2
39740000,1.8728315e-08,-1.44355e-08,7.82893e-09,0.0,0.0,-5.9604645e-08,0,1,1,0,0,0,0,2,2,2,2,2,2,2,2,2,2,2,2
39940000,3.4458935e-08,-9.778887e-09,-1.4888428e-08,0.0,0.0,-5.9604645e-08,0,1,1,0,0,0,0,2,2,2,2,2,2,2,2,2,2,2,2
40140000,-5.7800207e-08,2.7474016e-08,2.561137e-09,0.0,0.0,-5.9604645e-08,0,1,1,0,0,0,0,2,2,2,2,2,2,2,2,2,2,2,2
40340000,-7.8231096e-08,5.122274e-09,-1.2849341e-08,0.0,0.0,-5.9604645e-08,0,1,1,0,0,0,0,2,2,2,2,2,2,2,2,2,2,2,2
40540000,2.7866918e-08,-2.2817403e-08,-7.6361175e-09,0.0,0.0,0.0,0,1,1,0,0,0,0,2,2,2,2,2,2,2,2,2,2,2,2
40740000,9.546056e-09,-1.8626451e-09,2.1522283e-08,0.0,0.0,0.0,0,1,1,0,0,0,0,2,2,2,2,2,2,2,2,2,2,2,2
40940000,4.562753e-08,-9.546056e-09,-2.473007e-08,0.0,0.0,0.0,0,1,1,0,0,0,0,2,2,2,2,2,2,2,2,2,2,2,2
41140000,4.292815e-08,6.0535967e-09,-5.4133125e-09,0.0,0.0,-5.9604645e-08,0,1,1,0,0,0,0,2,2,2,2,2,2,2,2,2,2,2,2
41340000,6.7520887e-09,-2.0489097e-08,2.066372e-08,0.0,0.0,-5.9604645e-08,0,1,1,0,0,0,0,2,2,2,2,2,2,2,2,2,2,2,2
41540000,4.0745363e-10,3.1664968e-08,2.4039764e-08,0.0,0.0,0.0,0,1,1,0,0,0,0,2,2,2,2,2,2,2,2,2,2,2,2
41740000,-6.2864274e-09,-1.8626451e-09,-1.1059456e-09,0.0,0.0,2.9802322e-08,0,1,1,0,0,0,0,2,2,2,2,2,2,2,2,2,2,2,2
41940000,-5.1921234e-08,-3.7252903e-09,-1.0855729e-08,0.0,0.0,-2.9802322e-08,0,1,1,0,0,0,0,2,2,2,2,2,2,2,2,2,2,2,2
42140000,-2.2584572e-08,-1.1175871e-08,-4.7148205e-09,0.0,0.0,0.0,0,1,1,0,0,0,0,2,2,2,2,2,2,2,2,2,2,2,2
42340000,-2.0954758e-09,-1.1175871e-08,-6.170012e-09,0.0,0.0,0.0,0,1,1,0,0,0,0,2,2,2,2,2,2,2,2,2,2,2,2
42540000,3.5361154e-09,-7.450581e-09,4.976755e-09,0.0,0.0,0.0,0,1,1,0,0,0,0,2,2,2,2,2,2,2,2,2,2,2,2
42740000,5.005859e-09,0.0,-1.7462298e-09,0.0,0.0,0.0,0,1,1,0,0,0,0,2,2,2,2,2,2,2,2,2,2,2,2
42940000,-5.820766e-09,0.0,4.656613e-10,0.0,0.0,0.0,0,1,1,0,0,0,0,2,2,2,2,2,2,2,2,2,2,2,2
43140000,-2.7939677e-09,0.0,1.1641532e-09,0.0,0.0,-7.450581e-09,0,1,1,0,0,0,0,2,2,2,2,2,2,2,2,2,2,2,2
43340000,0.0,-7.450581e-09,4.307367e-09,0.0,0.0,-7.450581e-09,0,1,1,0,0,0,0,2,2,2,2,2,2,2,2,2,2,2,2
43540000,4.656613e-09,-7.450581e-09,-2.2118911e-09,0.0,0.0,0.0,0,1,1,0,0,0,0,2,2,2,2,2,2,2,2,2,2,2,2
43740000,9.313226e-10,-7.450581e-09,-3.0267984e-09,0.0,0.0,-7.450581e-09,0,1,1,0,0,0,0,2,2,2,2,2,2,2,2,2,2,2,2
43940000,-1.0244548e-08,0.0,2.3283064e-09,0.0,0.0,-7.450581e-09,0,1,1,0,0,0,0,2,2,2,2,2,2,2,2,2,2,2,2
44140000,-1.3969839e-08,-1.4901161e-08,-1.6298145e-09,0.0,0.0,0.0,0,1,1,0,0,0,0,2,2,2,2,2,2,2,2,2,2,2,2
44340000,-7.450581e-09,-7.450581e-09,9.313226e-10,0.0,0.0,-7.450581e-09,0,1,1,0,0,0,0,2,2,2,2,2,2,2,2,2,2,2,2
44540000,-9.313226e-09,0.0,-8.381903e-09,0.0,0.0,-7.450581e-09,0,1,1,0,0,0,0,2,2,2,2,2,2,2,2,2,2,2,2
44740000,-3.7252903e-09,0.0,6.519258e-09,0.0,0.0,-7.450581e-09,0,1,1,0,0,0,0,2,2,2,2,2,2,2,2,2,2,2,2
44940000,-1.8626451e-09,0.0,-1.3969839e-09,0.0,0.0,-7.450581e-09,0,1,1,0,0,0,0,2,2,2,2,2,2,2,2,2,2,2,2
45140000,7.450581e-09,1.4901161e-08,-4.656613e-09,0.0,0.0,-7.450581e-09,0,1,1,0,0,0,0,2,2,2,2,2,2,2,2,2,2,2,2
45340000,-2.6077032e-08,1.4901161e-08,6.0535967e-09,0.0,0.0,0.0,0,1,1,0,0,0,0,2,2,2,2,2,2,2,2,2,2,2,2
45540000,0.0020354055,0.0,-9.313226e-10,0.0,0.0,0.0,0,0,1,0,0,0,0,2,2,2,2,2,2,2,2,2,2,2,2
45740000,0.015715703,-1.4901161e-08,3.259629e-09,0.0,0.0,-7.450581e-09,0,0,1,0,0,0,0,2,2,2,2,2,2,2,2,2,2,2,2
45940000,0.024422692,0.0,-1.2572855e-08,0.0,0.0,-7.450581e-09,0,0,1,0,0,0,0,2,2,2,2,2,2,2,2,2,2,2,2
46140000,0.026482012,0.0,9.313226e-10,0.0,0.0,0.0,0,0,1,0,0,0,0,2,2,2,2,2,2,2,2,2,2,2,2
46340000,0.026333574,0.0,-1.8626451e-09,0.0,0.0,-7.450581e-09,0,0,1,0,0,0,0,2,2,2,2,2,2,2,2,2,2,2,2
46540000,0.04265732,0.15750311,-0.00239397,0.0,0.0,9.546056e-09,0,0,1,0,-2,0,-2,2,2,2,2,2,2,2,2,2,2,2,2
46740000,0.041441094,0.15805472,-0.0030771878,0.0,0.0,3.8417056e-09,0,0,1,0,-2,0,-2,2,2,2,2,2,2,2,2,2,2,2,2
46940000,0.041598354,0.15648879,-0.0031036914,0.0,0.0,5.7043508e-09,0,0,1,0,-2,0,-2,2,2,2,2,2,2,2,2,2,2,2,2
47140000,0.042034335,0.1568113,-0.0031653407,0.0,0.0,2.0954758e-09,0,0,1,0,-2,0,-2,2,2,2,2,2,2,2,2,2,2,2,2
47340000,0.04155451,0.15666318,-0.0024762996,0.0,0.0,9.429641e-09,0,0,1,0,-2,0,-2,2,2,2,2,2,2,2,2,2,2,2,2
47540000,0.041438695,0.1574465,-0.0027778854,0.0,0.0,3.958121e-09,0,0,1,0,-2,0,-2,2,2,2,2,2,2,2,2,2,2,2,2
47740000,0.040830627,0.15715374,-0.002708232,0.0,0.0,2.0954758e-09,0,0,1,0,-2,0,-2,2,2,2,2,2,2,2,2,2,2,2,2
47940000,0.04142963,0.15742412,-0.0029094373,0.0,0.0,1.9790605e-09,0,0,1,0,-2,0,-2,2,2,2,2,2,2,2,2,2,2,2,2
48140000,0.041589532,0.1574301,-0.0024833826,0.0,0.0,3.8417056e-09,0,0,1,0,-2,0,-2,2,2,2,2,2,2,2,2,2,2,2,2
48340000,0.04110818,0.15764822,-0.0023456917,0.0,0.0,5.7043508e-09,0,0,1,0,-2,0,-2,2,2,2,2,2,2,2,2,2,2,2,2
48540000,0.015723228,0.018952675,-9.6613294e-05,0.0,0.0,5.820766e-10,0,0,1,0,-2,0,-2,2,2,2,2,2,2,2,2,2,2,2,2
48740000,0.01407788,0.017347764,0.00032112934,0.0,0.0,1.0477379e-09,0,0,1,0,-2,0,-2,2,2,2,2,2,2,2,2,2,2,2,2
48940000,0.016453365,0.017079893,2.6138436e-05,0.0,0.0,1.1641532e-10,0,0,1,0,-2,0,-2,2,2,2,2,2,2,2,2,2,2,2,2
49140000,0.014803838,0.017510727,0.0005926957,0.0,0.0,1.1641532e-10,0,0,1,0,-2,0,-2,2,2,2,2,2,2,2,2,2,2,2,2
49340000,0.014475178,0.017885357,-6.3671454e-05,0.0,0.0,3.4924597e-10,0,0,1,0,-2,0,-2,2,2,2,2,2,2,2,2,2,2,2,2
