timestamp,timestamp_sample,ref_timestamp,ref_lat,ref_lon,x,y,z,delta_xy[0],delta_xy[1],delta_z,vx,vy,vz,z_deriv,delta_vxy[0],delta_vxy[1],delta_vz,ax,ay,az,heading,delta_heading,ref_alt,dist_bottom,eph,epv,evh,evv,vxy_max,vz_max,hagl_min,hagl_max,xy_valid,z_valid,v_xy_valid,v_z_valid,xy_reset_counter,z_reset_counter,vxy_reset_counter,vz_reset_counter,heading_reset_counter,heading_good_for_control,xy_global,z_global,dist_bottom_valid,dist_bottom_sensor_bitfield,dead_reckoning
3764000,3764000,0,nan,nan,0.0016569763,-0.0010736451,-0.007176046,-7.3979614e-09,2.4661424e-09,0.0,0.00621407,-0.0030166456,-0.022619653,-0.017825875,-1.8494902e-06,6.1653554e-07,0.001296714,0.02673031,-0.006008631,-0.023868864,4.2734046e-05,0.0,nan,0.10724338,0.0109909605,5.773502,0.074491136,0.023001958,inf,inf,inf,inf,0,0,0,0,1,1,1,1,0,0,0,0,0,0,1
4268000,4268000,0,nan,nan,0.0022448648,-0.00030149217,-0.03782774,-7.3979614e-09,2.4661424e-09,0.0,0.0075048096,-0.00021625558,-0.014735145,-0.036910392,-1.8494902e-06,6.1653554e-07,0.001296714,0.008310438,0.0003462628,0.020097008,-5.290875e-06,0.0,nan,0.1,0.022220979,1.6517749,0.10783816,0.059499275,inf,inf,inf,inf,0,1,0,1,1,1,1,1,0,0,0,0,0,0,1
4772000,4772000,4296000,47.3977508,8.5456073,0.0022278142,-0.00061979337,-0.042354126,-7.3979614e-09,2.4661424e-09,0.0,0.0058370032,-0.004501835,-0.016169487,-0.027558327,-1.8494902e-06,6.1653554e-07,0.001296714,0.009563634,-0.032089476,-0.04670396,0.00026984845,0.0,488.0539,0.1128075,0.02728336,0.95332456,0.10652435,0.08579819,inf,inf,inf,inf,0,1,0,1,1,1,1,1,0,0,1,1,0,0,1
5268000,5268000,4296000,47.3977508,8.5456073,0.00079011073,-0.0016266899,-0.038837783,-7.3979614e-09,2.4661424e-09,0.0,0.0024058258,-0.004064016,-0.015430137,-0.013495216,-1.8494902e-06,6.1653554e-07,0.001296714,-0.01438611,0.020339064,-0.018006189,-6.380324e-05,0.0,488.0539,0.10898316,0.015499901,0.75631213,0.062786564,0.0896045,inf,inf,inf,inf,0,1,0,1,1,1,1,1,0,0,1,1,0,0,1
5772000,5772000,4296000,47.3977508,8.5456073,-0.000114079914,0.0005630494,-0.036700588,-7.3979614e-09,2.4661424e-09,0.0,0.00034868682,0.0023371917,-0.0132775055,-0.005116383,-1.8494902e-06,6.1653554e-07,0.001296714,0.01415181,0.008149465,0.026219523,3.9325358e-05,0.0,488.0539,0.10738659,0.019224055,0.64757043,0.06437247,0.09420087,inf,inf,inf,inf,0,1,0,1,1,1,1,1,0,0,1,1,0,0,1
6268000,6268000,4296000,47.3977508,8.5456073,-0.00047577108,0.0008397258,-0.035602316,-7.3979614e-09,2.4661424e-09,0.0,-0.0007141791,0.0006026109,-0.011181886,-0.0009960069,-1.8494902e-06,6.1653554e-07,0.001296714,-0.021307219,-0.021767495,-0.014813616,-6.5056824e-06,0.0,488.0539,0.10362698,0.012629115,0.568428,0.045078803,0.08576522,inf,inf,inf,inf,0,1,0,1,1,1,1,1,0,0,1,1,0,0,1
6772000,6772000,4296000,47.3977508,8.5456073,-0.0021078521,0.0006445894,-0.03344292,-7.3979614e-09,2.4661424e-09,0.0,-0.0055633676,0.0024190992,-0.007964327,0.0029373465,-1.8494902e-06,6.1653554e-07,0.001296714,0.009069481,0.027103,0.015298835,7.500092e-05,0.0,488.0539,0.10223128,0.015561563,0.52004826,0.0492369,0.08587044,inf,inf,inf,inf,0,1,0,1,1,1,1,1,0,0,1,1,0,0,1
7268000,7268000,4296000,47.3977508,8.5456073,-0.0019166059,0.0024792668,-0.030566186,-7.3979614e-09,2.4661424e-09,0.0,-0.0023610792,0.008727764,-0.0026587609,0.007814078,-1.8494902e-06,6.1653554e-07,0.001296714,0.01706359,0.049662977,-0.001966953,-0.00016301406,0.0,488.0539,0.101997405,0.018536346,0.47906545,0.052617233,0.08510382,inf,inf,inf,inf,0,1,0,1,1,1,1,1,0,0,1,1,0,0,1
7772000,7772000,4296000,47.3977508,8.5456073,-0.00020993901,0.0031979086,-0.026514998,-7.3979614e-09,2.4661424e-09,0.0,0.00073931355,0.0059508327,-0.00020496469,0.009419458,-1.8494902e-06,6.1653554e-07,0.001296714,-0.026862776,0.00014588294,0.010398216,-0.00040880273,0.0,488.0539,0.1,0.013523674,0.45004603,0.042465813,0.078057766,inf,inf,inf,inf,0,1,0,1,1,1,1,1,0,0,1,1,0,0,1
8268000,8268000,4296000,47.3977508,8.5456073,-0.00022225545,0.0013944561,-0.026842492,-7.3979614e-09,2.4661424e-09,0.0,-0.0025737782,0.0025372,-0.0022792597,0.0035691105,-1.8494902e-06,6.1653554e-07,0.001296714,-0.0024996842,0.010202042,-0.0070100646,-0.00057632424,0.0,488.0539,0.1,0.016167775,0.42778337,0.046255134,0.077951506,inf,inf,inf,inf,0,1,0,1,1,1,1,1,0,0,1,1,0,0,1
8764000,8764000,4296000,47.3977508,8.5456073,-0.0005801446,0.00018796815,-0.046607014,-7.3979614e-09,2.4661424e-09,-0.017134588,-0.00066200824,0.0016380468,-0.00038327117,0.001757436,-1.8494902e-06,6.1653554e-07,0.001296714,0.020229954,0.04122218,0.023240222,-0.0005785641,0.0,488.0539,0.10210979,0.011861891,0.9615364,0.03782331,0.07286429,inf,inf,inf,inf,0,1,0,1,1,2,1,1,0,0,1,1,0,0,1
9268000,9268000,4296000,47.3977508,8.5456073,0.00094220985,0.00063615193,-0.048030403,-7.3979614e-09,2.4661424e-09,-0.017134588,0.004114591,0.0037637453,0.00038669206,1.6216058e-05,-1.8494902e-06,6.1653554e-07,0.001296714,0.03569017,0.009106238,-0.009323469,-0.00060616044,0.0,488.0539,0.1,0.014424973,0.60519695,0.04208943,0.07403456,inf,inf,inf,inf,0,1,0,1,1,2,1,1,0,0,1,1,0,0,1
9764000,9764000,4296000,47.3977508,8.5456073,0.0020100898,0.0009969507,-0.04739605,-7.3979614e-09,2.4661424e-09,-0.017134588,0.00546284,0.003825573,0.0021418957,0.00257722,-1.8494902e-06,6.1653554e-07,0.001296714,0.011380921,0.010577917,0.022646038,-0.00040770386,0.0,488.0539,0.10062043,0.01713879,0.47920486,0.045761656,0.07522343,inf,inf,inf,inf,0,1,0,1,1,2,1,1,0,0,1,1,0,0,1
10268000,10268000,4296000,47.3977508,8.5456073,0.001434167,0.00044248617,-0.041311808,-7.3979614e-09,2.4661424e-09,-0.017134588,0.0009964736,0.00019332099,0.005657224,0.009331098,-1.8494902e-06,6.1653554e-07,0.001296714,0.021815691,-0.0055470443,0.031375322,-0.0005768126,0.0,488.0539,0.1,0.01301918,0.40776324,0.03894074,0.071860984,inf,inf,inf,inf,0,1,0,1,1,2,1,1,0,0,1,1,0,0,1
10764000,10764000,4296000,47.3977508,8.5456073,-0.0004386837,-0.0011520557,-0.038595308,-7.3979614e-09,2.4661424e-09,-0.017134588,-0.001294388,-0.003271778,0.0072734137,0.009550133,-1.8494902e-06,6.1653554e-07,0.001296714,-0.0032802052,-0.03853056,0.025298445,-0.0006491703,0.0,488.0539,0.1,0.015486409,0.34305203,0.04261841,0.07324904,inf,inf,inf,inf,0,1,0,1,1,2,1,1,0,0,1,1,0,0,1
11268000,11268000,4296000,47.3977508,8.5456073,-0.0009560714,-0.0024265307,-0.036200915,-7.3979614e-09,2.4661424e-09,-0.017134588,-0.0025666244,-0.0052393936,0.012598812,0.011971742,-1.8494902e-06,6.1653554e-07,0.001296714,-0.015149489,-0.020176928,0.03371201,-0.0006200363,0.0,488.0539,0.1,0.011836092,0.31779718,0.03632028,0.07028119,inf,inf,inf,inf,0,1,0,1,1,2,1,1,0,0,1,1,0,0,1
11764000,11764000,4296000,47.3977508,8.5456073,-0.0016099672,-0.0028646586,-0.03396648,-7.3979614e-09,2.4661424e-09,-0.017134588,-0.0044826777,-0.0057280175,0.016980706,0.012772797,-1.8494902e-06,6.1653554e-07,0.001296714,-0.024873544,0.021866886,0.002223998,-0.0005422812,0.0,488.0539,0.1,0.014068129,0.29859683,0.0399888,0.07189872,inf,inf,inf,inf,0,1,0,1,1,2,1,1,0,0,1,1,0,0,1
12268000,12268000,4296000,47.3977508,8.5456073,-0.0023013423,-0.0015411071,-0.033619754,-7.3979614e-09,2.4661424e-09,-0.017134588,-0.0050499993,-0.0024311896,0.015260172,0.0072287475,-1.8494902e-06,6.1653554e-07,0.001296714,0.017861107,-0.0018676218,0.013532116,-0.00062150793,0.0,488.0539,0.1,0.010859918,0.28553298,0.03427072,0.07376692,inf,inf,inf,inf,0,1,0,1,1,2,1,1,0,0,1,1,0,0,1
12764000,12764000,4296000,47.3977508,8.5456073,-0.0012513686,0.00013498384,-0.0349476,-7.3979614e-09,2.4661424e-09,-0.017134588,-0.00035164005,0.0036357332,0.015058108,0.003944161,-1.8494902e-06,6.1653554e-07,0.001296714,-0.021271857,0.02765718,0.00034924594,-0.0005663553,0.0,488.0539,0.1,0.012828238,0.26343167,0.037677743,0.070579566,inf,inf,inf,inf,0,1,0,1,1,2,1,1,0,0,1,1,0,0,1
13268000,13268000,4296000,47.3977508,8.5456073,0.0002493651,0.0024515847,-0.036210816,-7.3979614e-09,2.4661424e-09,-0.017134588,0.0012719063,0.00524885,0.014719435,0.0018711895,-1.8494902e-06,6.1653554e-07,0.001296714,0.0055152774,-0.00019604339,0.011363997,-0.00055119576,0.0,488.0539,0.1,0.015480937,0.2570734,0.041602984,0.07249288,inf,inf,inf,inf,0,1,0,1,1,2,1,1,0,0,1,1,0,0,1
13772000,13772000,4296000,47.3977508,8.5456073,0.0015680833,0.0024750587,-0.036861,-7.3979614e-09,2.4661424e-09,-0.017134588,0.004869253,0.003759835,0.012128881,-0.0008189541,-1.8494902e-06,6.1653554e-07,0.001296714,0.031309623,-0.029912625,-0.027040018,-0.0004914791,0.0,488.0539,0.1,0.01193426,0.24966915,0.03590239,0.069832064,inf,inf,inf,inf,0,1,0,1,1,2,1,1,0,0,1,1,0,0,1
14268000,14268000,4296000,47.3977508,8.5456073,0.00156446,0.00056940503,-0.0384672,-7.3979614e-09,2.4661424e-09,-0.017134588,0.002774705,-0.0011736829,0.010788627,-0.0021870616,-1.8494902e-06,6.1653554e-07,0.001296714,-0.0075717396,-0.010089206,-0.0083521,-0.00041201196,0.0,488.0539,0.1,0.014154686,0.24613748,0.039465554,0.07160417,inf,inf,inf,inf,0,1,0,1,1,2,1,1,0,0,1,1,0,0,1
14764000,14764000,4296000,47.3977508,8.5456073,0.0014749672,-0.00097360736,-0.03815004,-7.3979614e-09,2.4661424e-09,-0.017134588,0.0043509817,-0.0025758864,0.0078060105,-0.0031961966,-1.8494902e-06,6.1653554e-07,0.001296714,-0.034644995,0.016499644,0.014178454,-0.0005224019,0.0,488.0539,0.1,0.010801958,0.23699166,0.033746548,0.07306528,inf,inf,inf,inf,0,1,0,1,1,2,1,1,0,0,1,1,0,0,1
15268000,15268000,4296000,47.3977508,8.5456073,0.0012324844,-0.00052622793,-0.03957059,-7.3979614e-09,2.4661424e-09,-0.017134588,0.0015330155,-0.0002386773,0.008008075,-0.002386437,-1.8494902e-06,6.1653554e-07,0.001296714,-0.011882788,0.014626333,-0.0015087425,-0.00039506028,0.0,488.0539,0.1,0.012957088,0.23287678,0.037445173,0.07049374,inf,inf,inf,inf,0,1,0,1,1,2,1,1,0,0,1,1,0,0,1
15764000,15764000,4296000,47.3977508,8.5456073,0.0016056768,-8.087563e-05,-0.038913988,-7.3979614e-09,2.4661424e-09,-0.017134588,0.0016077057,-0.0006021494,0.010162445,0.00123819,-1.8494902e-06,6.1653554e-07,0.001296714,0.005617461,0.015482567,0.020416452,-0.00035489313,0.0,488.0539,0.100605816,0.053543217,0.23928894,0.18137042,0.081611924,inf,inf,inf,inf,0,1,0,1,1,2,1,1,0,0,1,1,0,0,1
16268000,16268000,4296000,47.3977508,8.5456073,0.0028150044,-0.0008396937,-0.034732528,-7.3979614e-09,2.4661424e-09,-0.017134588,0.0033827089,-0.0027503504,0.013315681,0.0067092753,-1.8494902e-06,6.1653554e-07,0.001296714,0.00842713,-0.023232946,0.033073124,-0.00028126617,0.0,488.0539,0.100617684,0.18304114,0.250937,0.35361767,0.09310768,inf,inf,inf,inf,0,1,0,1,1,2,1,1,0,0,1,1,0,0,1
16772000,16772000,4296000,47.3977508,8.5456073,0.0047480846,-0.003341982,-0.028205873,-7.3979614e-09,2.4661424e-09,-0.017134588,0.0029705297,-0.0069645597,0.020261468,0.014672838,-1.8494902e-06,6.1653554e-07,0.001296714,-0.017822485,-0.0074898847,-0.0012954696,-0.00024326536,0.0,488.0539,0.1,0.40182042,0.25832477,0.5270196,0.1029458,inf,inf,inf,inf,0,1,0,1,1,2,1,1,0,0,1,1,0,0,1
17268000,17268000,4296000,47.3977508,8.5456073,0.006423019,-0.0077089537,-0.019491546,-7.3979614e-09,2.4661424e-09,-0.017134588,0.0033780339,-0.011735793,0.02501049,0.019299623,-1.8494902e-06,6.1653554e-07,0.001296714,0.018112972,-0.019861603,0.041320916,-7.8678466e-05,0.0,488.0539,0.1,0.70162696,0.2776366,0.69671446,0.11285823,inf,inf,inf,inf,0,1,0,1,1,2,1,1,0,0,1,1,0,0,1
17764000,17764000,4296000,47.3977508,8.5456073,0.0073255002,-0.013562054,-0.010954048,-7.3979614e-09,2.4661424e-09,-0.017134588,0.0015360877,-0.012807275,0.026069703,0.018817937,-1.8494902e-06,6.1653554e-07,0.001296714,-0.002536777,0.0075196,0.010389834,-0.0001493906,0.0,488.0539,0.1,1.082861,0.2989208,0.86445683,0.121471316,inf,inf,inf,inf,0,1,0,1,1,2,1,1,0,0,1,1,0,0,1
18268000,18268000,4296000,47.3977508,8.5456073,0.0041447077,-0.011125455,-0.033062533,-7.3979614e-09,2.4661424e-09,-0.017134588,-0.050197337,0.06440824,-0.13537826,-0.14415976,-1.8494902e-06,6.1653554e-07,0.001296714,-0.529024,0.5314959,-0.5884226,0.0070440243,0.0,488.0539,0.12327638,1.5480225,0.32342842,1.0340204,0.12903376,inf,inf,inf,inf,0,1,0,1,1,2,1,1,0,0,1,1,0,0,1
18764000,18764000,4296000,47.3977508,8.5456073,-0.06769877,0.06360192,-0.20915748,-7.3979614e-09,2.4661424e-09,-0.017134588,-0.16233763,0.16645372,-0.55603606,-0.5666761,-1.8494902e-06,6.1653554e-07,0.001296714,0.11131273,-0.1336357,-0.58253664,0.0065042265,0.0,488.0539,0.29937133,2.0531838,0.327197,1.1887739,0.12943032,inf,inf,inf,inf,0,1,0,1,1,2,1,1,0,0,1,1,0,0,1
19268000,19268000,4296000,47.3977508,8.5456073,-0.13144055,0.12553723,-0.51188046,-7.3979614e-09,2.4661424e-09,-0.017134588,-0.08431,0.07372266,-0.6044908,-0.6184839,-1.8494902e-06,6.1653554e-07,0.001296714,0.20191939,-0.2212798,-0.1776926,0.0054086233,0.0,488.0539,0.6020943,2.6203449,0.34786227,1.3240091,0.13375972,inf,inf,inf,inf,0,1,0,1,1,2,1,1,0,0,1,1,0,0,1
19772000,19772000,4296000,47.3977508,8.5456073,-0.13714577,0.12343091,-0.84194964,-7.3979614e-09,2.4661424e-09,-0.017134588,0.022521518,-0.04528562,-0.65179825,-0.668498,-1.8494902e-06,6.1653554e-07,0.001296714,0.16708004,-0.19727676,0.0031953675,0.0046051443,0.0,488.0539,0.9321635,3.1208487,0.3667778,1.3984983,0.13704039,inf,inf,inf,inf,0,1,0,1,1,2,1,1,0,0,1,1,0,0,1
20268000,20268000,4296000,47.3977508,8.5456073,-0.09178512,0.064985566,-1.1788132,-7.3979614e-09,2.4661424e-09,-0.017134588,0.09730626,-0.13206245,-0.64533097,-0.66499054,-1.8494902e-06,6.1653554e-07,0.001296714,0.09845067,-0.10913201,0.0330992,0.004184889,0.0,488.0539,1.2690271,3.6274574,0.3804334,1.4617431,0.13850915,inf,inf,inf,inf,0,1,0,1,1,2,1,1,0,0,1,1,0,0,1
20764000,20764000,4296000,47.3977508,8.5456073,-0.023954079,-0.018666135,-1.5051681,-7.3979614e-09,2.4661424e-09,-0.017134588,0.13066755,-0.17407069,-0.59844875,-0.62289864,-1.8494902e-06,6.1653554e-07,0.001296714,0.02655573,-0.025937507,0.11894013,0.0039047007,0.0,488.0539,1.595382,4.077031,0.3673781,1.4923748,0.13313489,inf,inf,inf,inf,0,1,0,1,1,2,1,1,0,0,1,1,0,0,1
21268000,21268000,4296000,47.3977508,8.5456073,0.043987732,-0.09952557,-1.8047768,-7.3979614e-09,2.4661424e-09,-0.017134588,0.13602743,-0.17707095,-0.5139698,-0.5421012,-1.8494902e-06,6.1653554e-07,0.001296714,0.0018590362,0.019122409,0.36040786,0.003653843,0.0,488.0539,1.8949907,4.266363,0.3766791,1.4292628,0.13340956,inf,inf,inf,inf,0,1,0,1,1,2,1,1,0,0,1,1,0,0,1
21772000,21772000,4296000,47.3977508,8.5456073,0.091949984,-0.15702708,-1.9790115,-7.3979614e-09,2.4661424e-09,-0.017134588,0.117794536,-0.16394255,-0.11691986,-0.15043502,-1.8494902e-06,6.1653554e-07,0.001296714,-0.02070928,-0.006151283,0.21043418,0.0036202716,0.0,488.0539,2.0692253,4.5456376,0.38679132,1.3981509,0.13423267,inf,inf,inf,inf,0,1,0,1,1,2,1,1,0,0,1,1,0,0,1
22268000,22268000,4296000,47.3977508,8.5456073,0.1176403,-0.19280024,-2.0682545,-7.3979614e-09,2.4661424e-09,-0.017134588,0.09875774,-0.15062675,-0.16087352,-0.19660164,-1.8494902e-06,6.1653554e-07,0.001296714,-0.037928853,0.00017417186,0.031361353,0.0031743236,0.0,488.0539,2.1584682,4.5019474,0.39486054,1.2909986,0.13492113,inf,inf,inf,inf,0,1,0,1,1,2,1,1,0,0,1,1,0,0,1
22764000,22764000,4296000,47.3977508,8.5456073,0.1253364,-0.20574914,-2.1634207,-7.3979614e-09,2.4661424e-09,-0.017134588,0.07627937,-0.12361813,-0.12891737,-0.16764492,-1.8494902e-06,6.1653554e-07,0.001296714,-0.05339243,0.03286765,0.07515307,0.002105812,0.0,488.0539,2.2536345,4.6357417,0.3720118,1.2448695,0.12905395,inf,inf,inf,inf,0,1,0,1,1,2,1,1,0,0,1,1,0,0,1
23268000,23268000,4296000,47.3977508,8.5456073,0.11638429,-0.20341346,-2.243779,-7.3979614e-09,2.4661424e-09,-0.017134588,0.03595217,-0.09900311,-0.09104687,-0.1340492,-1.8494902e-06,6.1653554e-07,0.001296714,-0.036236733,0.023396073,0.10032113,0.0024586304,0.0,488.0539,2.3339927,4.7398844,0.37968054,1.1966745,0.1306113,inf,inf,inf,inf,0,1,0,1,1,2,1,1,0,0,1,1,0,0,1
23764000,23764000,4296000,47.3977508,8.5456073,0.09236227,-0.19063094,-2.3057857,-7.3979614e-09,2.4661424e-09,-0.017134588,0.016522,-0.08587328,-0.066275075,-0.110134356,-1.8494902e-06,6.1653554e-07,0.001296714,0.0253127,-0.017594777,0.053402033,0.0018940908,0.0,488.0539,2.3959994,4.55395,0.38401723,1.0884335,0.13166481,inf,inf,inf,inf,0,1,0,1,1,2,1,1,0,0,1,1,0,0,1
24268000,24268000,4296000,47.3977508,8.5456073,0.071951084,-0.1815518,-2.355416,-7.3979614e-09,2.4661424e-09,-0.017134588,0.01359173,-0.08746963,-0.052936804,-0.09372767,-1.8494902e-06,6.1653554e-07,0.001296714,-0.006685237,-0.02851826,0.017475335,0.0003965788,0.0,488.0539,2.4456298,4.603529,0.39165828,1.0447702,0.13367076,inf,inf,inf,inf,0,1,0,1,1,2,1,1,0,0,1,1,0,0,1
24764000,24764000,4296000,47.3977508,8.5456073,0.058402218,-0.17754696,-2.4018545,-7.3979614e-09,2.4661424e-09,-0.017134588,0.025396178,-0.08752054,-0.035315428,-0.07872755,-1.8494902e-06,6.1653554e-07,0.001296714,0.061077252,-0.0035599512,0.034590248,0.0003986846,0.0,488.0539,2.4920683,4.400136,0.37111318,0.9548079,0.12965293,inf,inf,inf,inf,0,1,0,1,1,2,1,1,0,0,1,1,0,0,1
25268000,25268000,4296000,47.3977508,8.5456073,0.05783646,-0.17320126,-2.4386468,-7.3979614e-09,2.4661424e-09,-0.017134588,0.04081526,-0.07904052,-0.012134952,-0.057675112,-1.8494902e-06,6.1653554e-07,0.001296714,-0.0044979095,-0.009392708,0.07167365,0.0015780278,0.0,488.0539,2.5288606,4.4250474,0.37682176,0.9202253,0.13150853,inf,inf,inf,inf,0,1,0,1,1,2,1,1,0,0,1,1,0,0,1
25764000,25764000,4296000,47.3977508,8.5456073,0.06370176,-0.168691,-2.464403,-7.3979614e-09,2.4661424e-09,-0.017134588,0.04247012,-0.0688312,0.010721946,-0.03635286,-1.8494902e-06,6.1653554e-07,0.001296714,-0.005309601,-0.039345726,0.06227847,0.0019854894,0.0,488.0539,2.5546167,4.434164,0.3839918,0.88829726,0.13364159,inf,inf,inf,inf,0,1,0,1,1,2,1,1,0,0,1,1,0,0,1
26268000,26268000,4296000,47.3977508,8.5456073,0.066044845,-0.15998195,-2.4804919,-7.3979614e-09,2.4661424e-09,-0.017134588,0.033001717,-0.059977416,0.033438373,-0.015196951,-1.8494902e-06,6.1653554e-07,0.001296714,-0.011073832,-0.018488862,0.026321968,0.0020114793,0.0,488.0539,2.5707057,4.244062,0.39001334,0.824925,0.13547342,inf,inf,inf,inf,0,1,0,1,1,2,1,1,0,0,1,1,0,0,1
26764000,26764000,4296000,47.3977508,8.5456073,0.064923175,-0.15349053,-2.4903188,-7.3979614e-09,2.4661424e-09,-0.017134588,0.026880614,-0.055726424,0.04113178,-0.010575119,-1.8494902e-06,6.1653554e-07,0.001296714,0.010504765,-0.00034600086,0.009245238,0.0019031812,0.0,488.0539,2.5805326,4.2481933,0.3703847,0.803417,0.1316219,inf,inf,inf,inf,0,1,0,1,1,2,1,1,0,0,1,1,0,0,1
27268000,27268000,4296000,47.3977508,8.5456073,0.06337208,-0.14609708,-2.5008078,-7.3979614e-09,2.4661424e-09,-0.017134588,0.028563593,-0.048924293,0.048980646,-0.007828546,-1.8494902e-06,6.1653554e-07,0.001296714,0.03546492,0.0100420285,0.05752034,0.0025516225,0.0,488.0539,2.5910215,4.0766335,0.37666124,0.7569261,0.13342264,inf,inf,inf,inf,0,1,0,1,1,2,1,1,0,0,1,1,0,0,1
27772000,27772000,4296000,47.3977508,8.5456073,0.06393013,-0.1373117,-2.5013397,-7.3979614e-09,2.4661424e-09,-0.017134588,0.02978061,-0.04115996,0.061066084,0.004810917,-1.8494902e-06,6.1653554e-07,0.001296714,0.0075461864,-0.01735985,-0.002090819,0.0028661762,0.0,488.0539,2.5915534,4.0867844,0.385158,0.7456953,0.13559054,inf,inf,inf,inf,0,1,0,1,1,2,1,1,0,0,1,1,0,0,1
28268000,28268000,4296000,47.3977508,8.5456073,0.06737422,-0.13021314,-2.5003886,-7.3979614e-09,2.4661424e-09,-0.017134588,0.03600628,-0.035981834,0.06105297,0.005593051,-1.8494902e-06,6.1653554e-07,0.001296714,0.03392584,-0.022860505,0.002509914,0.0027184554,0.0,488.0539,2.5906024,4.090841,0.39297584,0.73750764,0.13749917,inf,inf,inf,inf,0,1,0,1,1,2,1,1,0,0,1,1,0,0,1
28772000,28772000,4296000,47.3977508,8.5456073,0.07158273,-0.12092363,-2.5078187,-7.3979614e-09,2.4661424e-09,-0.017134588,0.035272975,-0.0298617,0.06798844,0.004244186,-1.8494902e-06,6.1653554e-07,0.001296714,0.0051247478,-0.010100614,0.023813916,0.003057077,0.0,488.0539,2.5980325,3.9421108,0.3717575,0.7103195,0.1329024,inf,inf,inf,inf,0,1,0,1,1,2,1,1,0,0,1,1,0,0,1
29268000,29268000,4296000,47.3977508,8.5456073,0.075694874,-0.11252771,-2.5117753,-7.3979614e-09,2.4661424e-09,-0.017134588,0.034999445,-0.024500519,0.07590842,0.005723562,-1.8494902e-06,6.1653554e-07,0.001296714,0.014209974,-0.004441492,0.07195211,0.0035087084,0.0,488.0539,2.601989,3.9512434,0.37939927,0.7104605,0.1347033,inf,inf,inf,inf,0,1,0,1,1,2,1,1,0,0,1,1,0,0,1
29772000,29772000,4296000,47.3977508,8.5456073,0.07849995,-0.103704184,-2.510531,-7.3979614e-09,2.4661424e-09,-0.017134588,0.030885402,-0.020638278,0.0900002,0.01588474,-1.8494902e-06,6.1653554e-07,0.001296714,-0.025981192,-0.02092411,0.056200657,0.004106429,0.0,488.0539,2.6007447,3.8213298,0.3856038,0.69433236,0.13609736,inf,inf,inf,inf,0,1,0,1,1,2,1,1,0,0,1,1,0,0,1
30268000,30268000,4296000,47.3977508,8.5456073,0.078182235,-0.094302334,-2.5064156,-7.3979614e-09,2.4661424e-09,-0.017134588,0.026282541,-0.016142068,0.08445179,0.0097625125,-1.8494902e-06,6.1653554e-07,0.001296714,-0.015964484,-0.00922392,-0.023024155,0.0042862925,0.0,488.0539,2.5966294,3.8372452,0.39327666,0.70173585,0.137767,inf,inf,inf,inf,0,1,0,1,1,2,1,1,0,0,1,1,0,0,1
30772000,30772000,4296000,47.3977508,8.5456073,0.07714076,-0.08665663,-2.5130913,-7.3979614e-09,2.4661424e-09,-0.017134588,0.019179314,-0.013587457,0.08501253,0.0027939016,-1.8494902e-06,6.1653554e-07,0.001296714,-0.008550908,-0.0023245518,-0.005513429,0.0041374313,0.0,488.0539,2.603305,3.8612494,0.3738876,0.7126226,0.13339694,inf,inf,inf,inf,0,1,0,1,1,2,1,1,0,0,1,1,0,0,1
31268000,31268000,4296000,47.3977508,8.5456073,0.07111392,-0.07701036,-2.5198476,-7.3979614e-09,2.4661424e-09,-0.017134588,0.008758947,-0.008120127,0.091075726,0.0022186937,-1.8494902e-06,6.1653554e-07,0.001296714,-0.051261272,-0.014070144,0.09305402,0.004291212,0.0,488.0539,2.6100614,3.748607,0.37919167,0.7076158,0.13457254,inf,inf,inf,inf,0,1,0,1,1,2,1,1,0,0,1,1,0,0,1
31772000,31772000,4296000,47.3977508,8.5456073,0.060655475,-0.070241354,-2.5152926,-7.3979614e-09,2.4661424e-09,-0.017134588,-0.0028899743,-0.014478193,0.107901156,0.018438634,-1.8494902e-06,6.1653554e-07,0.001296714,-0.04230563,-0.023154002,0.03566313,0.0045040795,0.0,488.0539,2.6055064,3.7815895,0.38748604,0.7235497,0.13637698,inf,inf,inf,inf,0,1,0,1,1,2,1,1,0,0,1,1,0,0,1
32268000,32268000,4296000,47.3977508,8.5456073,0.045467574,-0.069043644,-2.5069249,-7.3979614e-09,2.4661424e-09,-0.017134588,-0.020714954,-0.025842696,0.11032552,0.02206774,-1.8494902e-06,6.1653554e-07,0.001296714,-0.034185894,-0.04504273,0.012212432,0.0047405018,0.0,488.0539,2.5971386,3.6842964,0.39492112,0.72388405,0.13795523,inf,inf,inf,inf,0,1,0,1,1,2,1,1,0,0,1,1,0,0,1
32772000,32772000,4296000,47.3977508,8.5456073,0.022872984,-0.076575786,-2.5095863,-7.3979614e-09,2.4661424e-09,-0.017134588,-0.041110605,-0.04405488,0.10516968,0.008589955,-1.8494902e-06,6.1653554e-07,0.001296714,-0.06642034,-0.05236809,0.025058163,0.0051162886,0.0,488.0539,2.5998,3.726923,0.37293646,0.7436507,0.13300629,inf,inf,inf,inf,0,1,0,1,1,2,1,1,0,0,1,1,0,0,1
33268000,33268000,4296000,47.3977508,8.5456073,-0.0061547733,-0.09109368,-2.5115876,-7.3979614e-09,2.4661424e-09,-0.017134588,-0.06516969,-0.0577393,0.1043156,0.002981625,-1.8494902e-06,6.1653554e-07,0.001296714,-0.045791835,-0.029484682,0.012843869,0.005006207,0.0,488.0539,2.6018014,3.7701817,0.3802216,0.7638301,0.13464533,inf,inf,inf,inf,0,1,0,1,1,2,1,1,0,0,1,1,0,0,1
33764000,33764000,4296000,47.3977508,8.5456073,-0.04089639,-0.107062794,-2.510857,-7.3979614e-09,2.4661424e-09,-0.017134588,-0.08034063,-0.065623276,0.10423235,0.004012497,-1.8494902e-06,6.1653554e-07,0.001296714,-0.008383154,-0.05448755,0.047056932,0.0046127243,0.0,488.0539,2.601071,3.6899579,0.3875732,0.76800793,0.1362758,inf,inf,inf,inf,0,1,0,1,1,2,1,1,0,0,1,1,0,0,1
34268000,34268000,4296000,47.3977508,8.5456073,-0.077967025,-0.12701742,-2.501951,-7.3979614e-09,2.4661424e-09,-0.017134588,-0.09420215,-0.08060446,0.118021086,0.024012653,-1.8494902e-06,6.1653554e-07,0.001296714,-0.024628025,-0.033699278,0.061537135,0.004389991,0.0,488.0539,2.5921648,3.7477107,0.39346826,0.79027045,0.1375511,inf,inf,inf,inf,0,1,0,1,1,2,1,1,0,0,1,1,0,0,1
34772000,34772000,4296000,47.3977508,8.5456073,-0.11378355,-0.14960074,-2.490358,-7.3979614e-09,2.4661424e-09,-0.017134588,-0.10485259,-0.08901533,0.22145015,0.12296826,-1.8494902e-06,6.1653554e-07,0.001296714,-0.017994752,-0.0036880954,1.1097481,0.0046006856,0.0,488.0539,2.580572,3.6815774,0.37385905,0.7949463,0.13319324,inf,inf,inf,inf,0,1,0,1,1,2,1,1,0,0,1,1,0,0,1
35268000,35268000,4296000,47.3977508,8.5456073,-0.14793366,-0.16598499,-2.2338595,-7.3979614e-09,2.4661424e-09,-0.017134588,-0.10847558,-0.08029903,0.90187943,0.8022896,-1.8494902e-06,6.1653554e-07,0.001296714,-0.005359674,-0.050485495,0.07962807,0.004511406,0.0,488.0539,2.3240733,3.741238,0.37911096,0.80797154,0.1344199,inf,inf,inf,inf,0,1,0,1,1,2,1,1,0,0,1,1,0,0,1
35764000,35764000,4296000,47.3977508,8.5456073,-0.17584987,-0.1823558,-1.8814374,-7.3979614e-09,2.4661424e-09,-0.017134588,-0.10917507,-0.09196584,0.74242514,0.6443808,-1.8494902e-06,6.1653554e-07,0.001296714,-0.051149078,-0.023639075,0.02443604,0.0044783344,0.0,488.0539,1.9716513,3.8046975,0.38653266,0.83093697,0.1360949,inf,inf,inf,inf,0,1,0,1,1,2,1,1,0,0,1,1,0,0,1
36268000,36268000,4296000,47.3977508,8.5456073,-0.20235436,-0.1988759,-1.5475945,-7.3979614e-09,2.4661424e-09,-0.017134588,-0.1270839,-0.100676075,0.76276535,0.6709228,-1.8494902e-06,6.1653554e-07,0.001296714,-0.11160282,-0.0067990036,0.0669239,0.0042209793,0.0,488.0539,1.6378084,3.7442634,0.39251888,0.8336373,0.13741146,inf,inf,inf,inf,0,1,0,1,1,2,1,1,0,0,1,1,0,0,1
36764000,36764000,4296000,47.3977508,8.5456073,-0.23741126,-0.21658115,-1.212485,-7.3979614e-09,2.4661424e-09,-0.017134588,-0.15617198,-0.10472772,0.7756814,0.6838117,-1.8494902e-06,6.1653554e-07,0.001296714,-0.08211962,-0.032574765,0.01682434,0.004136191,0.0,488.0539,1.3026989,3.8135574,0.37238792,0.85328674,0.132953,inf,inf,inf,inf,0,1,0,1,1,2,1,1,0,0,1,1,0,0,1
37268000,37268000,4296000,47.3977508,8.5456073,-0.28080907,-0.23325731,-0.86460024,-7.3979614e-09,2.4661424e-09,-0.017134588,-0.18161152,-0.11300634,0.76919097,0.6810072,-1.8494902e-06,6.1653554e-07,0.001296714,-0.036480848,-0.022363862,-0.011728144,0.003379402,0.0,488.0539,0.9548141,3.7544966,0.37860477,0.853058,0.1344063,inf,inf,inf,inf,0,1,0,1,1,2,1,1,0,0,1,1,0,0,1
37764000,37764000,4296000,47.3977508,8.5456073,-0.32601357,-0.25120643,-0.5181822,-7.3979614e-09,2.4661424e-09,-0.017134588,-0.19798067,-0.12357658,0.76440865,0.6840963,-1.8494902e-06,6.1653554e-07,0.001296714,-0.029446322,-0.021916682,0.024435109,0.003141998,0.0,488.0539,0.60839605,3.8267043,0.38610092,0.87068474,0.13609158,inf,inf,inf,inf,0,1,0,1,1,2,1,1,0,0,1,1,0,0,1
38268000,38268000,4296000,47.3977508,8.5456073,-0.37278312,-0.2718803,-0.16463467,-7.3979614e-09,2.4661424e-09,-0.017134588,-0.21141997,-0.1283666,0.76140666,0.6900132,-1.8494902e-06,6.1653554e-07,0.001296714,-0.04979051,-0.033362594,0.026226973,0.0029480313,0.0,488.0539,0.25484854,3.7660465,0.39449224,0.86664873,0.13792735,inf,inf,inf,inf,0,1,0,1,1,2,1,1,0,0,1,1,0,0,1
38764000,38764000,4296000,47.3977508,8.5456073,-0.4116031,-0.2852436,0.22824141,-7.3979614e-09,2.4661424e-09,-0.017134588,-0.21319382,-0.121260755,0.9704087,0.9001567,-1.8494902e-06,6.1653554e-07,0.001296714,-0.045174338,-0.14290667,-3.6926239,0.0029366193,0.0,488.0539,0.1,3.8385143,0.3718787,0.87520725,0.13222656,inf,inf,inf,inf,0,1,0,1,1,2,1,1,0,0,1,1,0,0,1
39268000,39268000,4296000,47.3977508,8.5456073,-0.4509842,-0.30260438,0.50808185,-7.3979614e-09,2.4661424e-09,-0.017134588,-0.24001437,-0.138793,0.72665685,0.6166621,-1.8494902e-06,6.1653554e-07,0.001296714,-0.067107044,0.0135931615,0.815181,0.0029350787,0.0,488.0539,0.1,3.9182773,0.37862584,0.8970668,0.124538094,inf,inf,inf,inf,0,1,0,1,1,2,1,1,0,0,1,1,0,0,1
39764000,39764000,4296000,47.3977508,8.5456073,-0.4884635,-0.31437844,0.7569871,-7.3979614e-09,2.4661424e-09,-0.017134588,-0.2567554,-0.13429107,1.0777749,0.85089386,-1.8494902e-06,6.1653554e-07,0.001296714,-0.064786986,-0.0044727493,0.9048236,0.0032264458,0.0,488.0539,0.1,3.8446004,0.3799576,0.8821899,0.11857998,inf,inf,inf,inf,0,1,0,1,1,2,1,1,0,0,1,1,0,0,1
40268000,40268000,4296000,47.3977508,8.5456073,-0.52521724,-0.32275027,1.0761305,-7.3979614e-09,2.4661424e-09,-0.017134588,-0.2760326,-0.13771412,1.3707495,1.0059433,-1.8494902e-06,6.1653554e-07,0.001296714,-0.06709835,-0.04118896,0.53377634,0.0035736547,0.0,488.0539,0.1,3.9201891,0.38271797,0.889832,0.1157056,inf,inf,inf,inf,0,1,0,1,1,2,1,1,0,0,1,1,0,0,1
40772000,40772000,4296000,47.3977508,8.5456073,-0.56176025,-0.33077434,1.4009278,-7.3979614e-09,2.4661424e-09,-0.017134588,-0.29090458,-0.14175186,1.5350126,0.99959624,-1.8494902e-06,6.1653554e-07,0.001296714,-0.09674361,-0.052816,0.29864812,0.0029942486,0.0,488.0539,0.1,3.8449738,0.35796493,0.87414217,0.11059851,inf,inf,inf,inf,0,1,0,1,1,2,1,1,0,0,1,1,0,0,1
41268000,41268000,4296000,47.3977508,8.5456073,-0.59344333,-0.33505926,1.7543651,-7.3979614e-09,2.4661424e-09,-0.017134588,-0.31299168,-0.14208815,1.631918,0.96865803,-1.8494902e-06,6.1653554e-07,0.001296714,-0.07048552,-0.0018344725,0.5276687,0.0032541726,0.0,488.0539,0.1,3.9100082,0.36012757,0.88136166,0.11250555,inf,inf,inf,inf,0,1,0,1,1,2,1,1,0,0,1,1,0,0,1
41764000,41764000,4296000,47.3977508,8.5456073,-0.6212513,-0.33202296,2.0032623,-7.3979614e-09,2.4661424e-09,-0.017134588,-0.27712804,-0.1079476,1.0060891,0.2692255,-1.8494902e-06,6.1653554e-07,0.001296714,0.0056600543,-0.03033767,0.032635402,0.003683249,0.0,488.0539,0.1,3.9751863,0.36114696,0.89535373,0.11336215,inf,inf,inf,inf,0,1,0,1,1,2,1,1,0,0,1,1,0,0,1
42268000,42268000,4296000,47.3977508,8.5456073,-0.62293476,-0.3159645,2.0641003,-7.3979614e-09,2.4661424e-09,-0.017134588,-0.2559518,-0.0990191,0.93104833,0.17252052,-1.8494902e-06,6.1653554e-07,0.001296714,0.015770636,-0.021238912,0.05896948,0.003667534,0.0,488.0539,0.1,3.8942058,0.3648689,0.87925404,0.10940867,inf,inf,inf,inf,0,1,0,1,1,2,1,1,0,0,1,1,0,0,1
42764000,42764000,4296000,47.3977508,8.5456073,-0.61173224,-0.29856244,2.0413277,-7.3979614e-09,2.4661424e-09,-0.017134588,-0.23527357,-0.09044556,0.8465795,0.039177172,-1.8494902e-06,6.1653554e-07,0.001296714,-0.009766328,-0.011968746,-0.0077923755,0.0039844206,0.0,488.0539,0.103997946,3.957324,0.343928,0.88556457,0.103389785,inf,inf,inf,inf,0,1,0,1,1,2,1,1,0,0,1,1,0,0,1
43268000,43268000,4296000,47.3977508,8.5456073,-0.5952862,-0.28130987,2.0047235,-7.3979614e-09,2.4661424e-09,-0.017134588,-0.21491289,-0.082820125,0.77219194,-0.05243878,-1.8494902e-06,6.1653554e-07,0.001296714,-0.0045171906,-0.02038179,0.054938715,0.004041639,0.0,488.0539,0.14276099,3.872421,0.3474071,0.86783785,0.10368742,inf,inf,inf,inf,0,1,0,1,1,2,1,1,0,0,1,1,0,0,1
43764000,43764000,4296000,47.3977508,8.5456073,-0.5675575,-0.26228905,1.9769428,-7.3979614e-09,2.4661424e-09,-0.017134588,-0.19116378,-0.075696915,0.7082101,-0.09477315,-1.8494902e-06,6.1653554e-07,0.001296714,-0.017467769,0.0012698146,0.0035436822,0.0043487474,0.0,488.0539,0.17054176,3.9317486,0.3505093,0.872801,0.10582807,inf,inf,inf,inf,0,1,0,1,1,2,1,1,0,0,1,1,0,0,1
44268000,44268000,4296000,47.3977508,8.5456073,-0.541327,-0.24515763,1.9578992,-7.3979614e-09,2.4661424e-09,-0.017134588,-0.1737375,-0.06421614,0.6511948,-0.101174556,-1.8494902e-06,6.1653554e-07,0.001296714,-0.028517764,-0.016991979,0.030922702,0.004490571,0.0,488.0539,0.18958533,3.9963384,0.35312024,0.878191,0.109404676,inf,inf,inf,inf,0,1,0,1,1,2,1,1,0,0,1,1,0,0,1
44772000,44772000,4296000,47.3977508,8.5456073,-0.5068056,-0.22478625,1.874095,-7.3979614e-09,2.4661424e-09,-0.017134588,-0.15608618,-0.056701127,0.58144104,-0.17095613,-1.8494902e-06,6.1653554e-07,0.001296714,0.006832822,0.02719277,0.051490027,0.0046771867,0.0,488.0539,0.27338958,3.9057333,0.33823177,0.8591758,0.11123495,inf,inf,inf,inf,0,1,0,1,1,2,1,1,0,0,1,1,0,0,1
45268000,45268000,4296000,47.3977508,8.5456073,-0.47556674,-0.20686814,1.7893815,-7.3979614e-09,2.4661424e-09,-0.017134588,-0.14034493,-0.050520316,0.5146863,-0.21958604,-1.8494902e-06,6.1653554e-07,0.001296714,0.019529454,0.030583017,0.011785886,0.004947113,0.0,488.0539,0.35810304,3.9611337,0.34293723,0.86309147,0.11655115,inf,inf,inf,inf,0,1,0,1,1,2,1,1,0,0,1,1,0,0,1
45772000,45772000,4296000,47.3977508,8.5456073,-0.4456918,-0.19037545,1.7136674,-7.3979614e-09,2.4661424e-09,-0.017134588,-0.12762673,-0.04500316,0.45001897,-0.23997457,-1.8494902e-06,6.1653554e-07,0.001296714,-0.01768024,-0.02702196,0.028918495,0.0050662505,0.0,488.0539,0.43381715,3.8693302,0.3514447,0.84403,0.122577086,inf,inf,inf,inf,0,1,0,1,1,2,1,1,0,0,1,1,0,0,1
46268000,46268000,4296000,47.3977508,8.5456073,-0.41494507,-0.17521298,1.637991,-7.3979614e-09,2.4661424e-09,-0.017134588,-0.11554025,-0.04367795,0.38744444,-0.24526736,-1.8494902e-06,6.1653554e-07,0.001296714,-0.0152547285,0.013479089,0.035284083,0.005213759,0.0,488.0539,0.5094936,3.9220185,0.36086637,0.8476983,0.12836505,inf,inf,inf,inf,0,1,0,1,1,2,1,1,0,0,1,1,0,0,1
46772000,46772000,4296000,47.3977508,8.5456073,-0.09264785,-0.039578717,1.3183454,-7.3979614e-09,2.4661424e-09,-0.017134588,-0.031322215,-0.016442172,0.22546001,-0.54209924,-1.8494902e-06,6.1653554e-07,0.001296714,0.00022120365,0.001945882,0.014958902,0.005323953,0.0,488.0539,0.1,0.03744787,0.3033573,0.19951372,0.09730196,inf,inf,inf,inf,0,1,0,1,1,2,1,1,0,0,1,1,0,0,1
47268000,47268000,4296000,47.3977508,8.5456073,0.05574755,0.02422441,0.9881608,-7.3979614e-09,2.4661424e-09,-0.017134588,0.00919833,0.003944336,0.06818284,-0.68934965,-1.8494902e-06,6.1653554e-07,0.001296714,0.010874253,-0.01798554,-0.030416993,0.005440817,0.0,488.0539,0.15370387,0.015902108,0.287124,0.08651104,0.08655708,inf,inf,inf,inf,0,1,0,1,1,2,1,1,0,0,1,1,0,0,1
47772000,47772000,4296000,47.3977508,8.5456073,0.069877,0.032173995,0.8253353,-7.3979614e-09,2.4661424e-09,-0.017134588,0.012383056,0.011093706,-0.0025538555,-0.5822486,-1.8494902e-06,6.1653554e-07,0.001296714,-0.025851723,0.03467759,-0.027425585,0.005338435,0.0,488.0539,0.22483224,0.019383563,0.27175397,0.06925182,0.07599379,inf,inf,inf,inf,0,1,0,1,1,2,1,1,0,0,1,1,0,0,1
48268000,48268000,4296000,47.3977508,8.5456073,0.05886551,0.028222416,0.7489901,-7.3979614e-09,2.4661424e-09,-0.017134588,0.008656018,0.009123546,-0.033009484,-0.4330127,-1.8494902e-06,6.1653554e-07,0.001296714,0.0019099533,0.010826377,-0.038446855,0.0054985355,0.0,488.0539,0.24609339,0.012022159,0.2645799,0.040557023,0.07492127,inf,inf,inf,inf,0,1,0,1,1,2,1,1,0,0,1,1,0,0,1
48764000,48764000,4296000,47.3977508,8.5456073,0.046545707,0.022189941,0.69218,-7.3979614e-09,2.4661424e-09,-0.017134588,0.0049896888,0.0060685594,-0.048792984,-0.32475358,-1.8494902e-06,6.1653554e-07,0.001296714,-0.017241035,0.028569685,-0.018710269,0.005532988,0.0,488.0539,0.19743991,0.013872743,0.25137872,0.04072924,0.07484114,inf,inf,inf,inf,0,1,0,1,1,2,1,1,0,0,1,1,0,0,1
49268000,49268000,4296000,47.3977508,8.5456073,0.03609516,0.018357906,0.6522898,-7.3979614e-09,2.4661424e-09,-0.017134588,0.0047687944,0.009568259,-0.05369451,-0.24162269,-1.8494902e-06,6.1653554e-07,0.001296714,-0.0014322285,0.014923178,-0.008329748,0.0057604555,0.0,488.0539,0.20296311,0.01618867,0.24474189,0.04251096,0.07149838,inf,inf,inf,inf,0,1,0,1,1,2,1,1,0,0,1,1,0,0,1
