timestamp,timestamp_sample,baro_device_id,baro_alt_meter,baro_temp_celcius,baro_pressure_pa,rho,calibration_count
3324000,3324000,6620172,487.39386,11.832727,95606.125,1.1359589,0
3420000,3384000,6620172,487.32346,11.832727,95606.9,1.1359681,0
3444000,3444000,6620172,487.39386,11.832727,95606.15,1.1359593,0
3540000,3504000,6620172,487.39386,11.832727,95606.164,1.1359593,0
3564000,3564000,6620172,487.21545,11.832727,95608.17,1.1359832,0
3660000,3624000,6620172,487.361,11.832727,95606.48,1.1359631,0
3684000,3684000,6620172,487.3563,11.832727,95606.57,1.1359643,0
3780000,3743000,6620172,487.3751,11.832727,95606.336,1.1359614,0
3804000,3804000,6620172,487.192,11.832727,95608.45,1.1359866,0
3900000,3864000,6620172,487.29526,11.832727,95607.25,1.1359723,0
3924000,3924000,6620172,487.48306,11.832727,95605.12,1.135947,0
4020000,3984000,6620172,487.42203,11.832727,95605.836,1.1359555,0
4040000,4040000,6620172,487.41733,11.832727,95605.875,1.135956,0
4116000,4092000,6620172,487.3845,11.832728,95606.24,1.1359602,0
4164000,4152000,6620172,487.3751,11.832727,95606.33,1.1359613,0
4236000,4212000,6620172,487.3751,11.832728,95606.38,1.1359619,0
4280000,4270000,6620172,487.25302,11.832727,95607.734,1.1359781,0
4332000,4320000,6620172,487.39856,11.832727,95606.08,1.1359584,0
4404000,4380000,6620172,487.4549,11.832728,95605.44,1.1359508,0
4452000,4440000,6620172,487.39856,11.832727,95606.07,1.1359583,0
4520000,4498666,6620172,487.3657,11.832728,95606.46,1.1359628,0
4572000,4560000,6620172,487.32346,11.832727,95606.94,1.1359686,0
4644000,4620000,6620172,487.31876,11.832728,95606.96,1.1359688,0
4692000,4680000,6620172,487.32812,11.832727,95606.89,1.135968,0
4760000,4738666,6620172,487.41733,11.832728,95605.84,1.1359556,0
4812000,4800000,6620172,487.39856,11.832727,95606.06,1.1359582,0
4884000,4860000,6620172,487.31406,11.832728,95607.02,1.1359696,0
4932000,4920000,6620172,487.42203,11.832727,95605.79,1.135955,0
5004000,4980000,6620172,487.3657,11.832728,95606.445,1.1359627,0
5052000,5040000,6620172,487.3563,11.832727,95606.58,1.1359643,0
5124000,5100000,6620172,487.3798,11.832728,95606.305,1.135961,0
5172000,5160000,6620172,487.2859,11.832727,95607.37,1.1359737,0
5244000,5220000,6620172,487.3704,11.832728,95606.41,1.1359622,0
5292000,5280000,6620172,487.4549,11.832727,95605.44,1.1359508,0
5364000,5340000,6620172,487.31876,11.832728,95606.98,1.135969,0
5412000,5400000,6620172,487.39386,11.832727,95606.164,1.1359593,0
5484000,5460000,6620172,487.40796,11.832728,95605.97,1.135957,0
5532000,5520000,6620172,487.39386,11.832727,95606.12,1.1359588,0
5604000,5580000,6620172,487.34222,11.832728,95606.71,1.135966,0
5652000,5640000,6620172,487.21545,11.832727,95608.19,1.1359833,0
5724000,5700000,6620172,487.3751,11.832728,95606.375,1.1359619,0
5768000,5758000,6620172,487.469,11.832727,95605.27,1.1359488,0
5820000,5808000,6620172,487.3798,11.832727,95606.28,1.1359608,0
5892000,5868000,6620172,487.3798,11.832728,95606.27,1.1359607,0
5940000,5928000,6620172,487.33752,11.832727,95606.75,1.1359663,0
6012000,5988000,6620172,487.40796,11.832728,95605.96,1.1359569,0
6060000,6048000,6620172,487.3657,11.832727,95606.42,1.1359625,0
6132000,6108000,6620172,487.35162,11.832728,95606.6,1.1359645,0
6180000,6168000,6620172,487.3845,11.832727,95606.24,1.1359602,0
6252000,6228000,6620172,487.35162,11.832728,95606.625,1.1359649,0
6300000,6288000,6620172,487.33282,11.832727,95606.85,1.1359675,0
6372000,6348000,6620172,487.30936,11.832728,95607.086,1.1359704,0
6420000,6408000,6620172,487.4643,11.832727,95605.34,1.1359496,0
6492000,6468000,6620172,487.32346,11.832728,95606.91,1.1359682,0
6540000,6528000,6620172,487.49716,11.832727,95604.95,1.135945,0
6612000,6588000,6620172,487.34222,11.832728,95606.72,1.135966,0
6660000,6648000,6620172,487.2906,11.832727,95607.35,1.1359735,0
6732000,6708000,6620172,487.43143,11.832728,95605.72,1.1359541,0
6780000,6768000,6620172,487.3798,11.832727,95606.29,1.1359609,0
6852000,6828000,6620172,487.34692,11.832728,95606.664,1.1359653,0
6900000,6888000,6620172,487.361,11.832727,95606.53,1.1359637,0
6968000,6946666,6620172,487.33282,11.832728,95606.85,1.1359675,0
7016000,7004000,6620172,487.3563,11.832727,95606.55,1.1359639,0
7092000,7065333,6620172,487.361,11.832728,95606.5,1.1359634,0
7136000,7124000,6620172,487.35162,11.832727,95606.61,1.1359646,0
7188000,7176000,6620172,487.2859,11.832727,95607.37,1.1359737,0
7260000,7236000,6620172,487.33752,11.832728,95606.76,1.1359664,0
7308000,7296000,6620172,487.40796,11.832727,95605.97,1.135957,0
7380000,7356000,6620172,487.32346,11.832728,95606.9,1.1359681,0
7428000,7416000,6620172,487.3751,11.832727,95606.34,1.1359615,0
7500000,7476000,6620172,487.361,11.832728,95606.48,1.1359631,0
7548000,7536000,6620172,487.39856,11.832727,95606.09,1.1359586,0
7620000,7596000,6620172,487.40326,11.832728,95606.0,1.1359575,0
7668000,7656000,6620172,487.29996,11.832727,95607.2,1.1359717,0
7740000,7716000,6620172,487.44553,11.832728,95605.52,1.1359518,0
7788000,7776000,6620172,487.3704,11.832727,95606.41,1.1359622,0
7860000,7836000,6620172,487.39386,11.832728,95606.15,1.1359593,0
7908000,7896000,6620172,487.29996,11.832727,95607.19,1.1359715,0
7980000,7956000,6620172,487.3798,11.832728,95606.29,1.1359609,0
8028000,8016000,6620172,487.3563,11.832727,95606.58,1.1359643,0
8100000,8076000,6620172,487.42203,11.832728,95605.82,1.1359552,0
8148000,8136000,6620172,487.43613,11.832727,95605.64,1.1359532,0
8220000,8196000,6620172,487.34692,11.832728,95606.69,1.1359656,0
8268000,8256000,6620172,487.38916,11.832727,95606.2,1.1359599,0
8340000,8316000,6620172,487.49716,11.832728,95604.94,1.1359447,0
8388000,8376000,6620172,487.35162,11.832727,95606.61,1.1359646,0
8460000,8434666,6620172,487.39856,11.832728,95606.09,1.1359586,0
8508000,8496000,6620172,487.39856,11.832727,95606.1,1.1359586,0
8576000,8554666,6620172,487.40796,11.832728,95605.97,1.135957,0
8628000,8616000,6620172,487.39386,11.832727,95606.17,1.1359594,0
8700000,8676000,6620172,487.31406,11.832728,95607.06,1.13597,0
8748000,8736000,6620172,487.42673,11.832727,95605.76,1.1359545,0
8820000,8796000,6620172,487.29526,11.832728,95607.25,1.1359723,0
8868000,8856000,6620172,487.3798,11.832727,95606.31,1.135961,0
8940000,8916000,6620172,487.3751,11.832728,95606.375,1.1359619,0
8988000,8976000,6620172,487.469,11.832727,95605.28,1.1359489,0
9060000,9036000,6620172,487.3845,11.832728,95606.23,1.1359601,0
9108000,9096000,6620172,487.41733,11.832727,95605.89,1.135956,0
9180000,9156000,6620172,487.43613,11.832728,95605.65,1.1359533,0
9228000,9216000,6620172,487.31406,11.832727,95607.05,1.1359699,0
9300000,9276000,6620172,487.35162,11.832728,95606.6,1.1359645,0
9348000,9336000,6620172,487.33752,11.832727,95606.77,1.1359667,0
9420000,9396000,6620172,487.35162,11.832728,95606.63,1.135965,0
9468000,9456000,6620172,487.33282,11.832727,95606.84,1.1359675,0
9540000,9516000,6620172,487.40796,11.832728,95605.96,1.1359569,0
9588000,9576000,6620172,487.33752,11.832727,95606.766,1.1359665,0
9660000,9636000,6620172,487.32346,11.832728,95606.9,1.1359681,0
9708000,9696000,6620172,487.30466,11.832727,95607.16,1.1359712,0
9780000,9756000,6620172,487.32346,11.832728,95606.91,1.1359682,0
9828000,9816000,6620172,487.44553,11.832727,95605.53,1.1359519,0
9900000,9876000,6620172,487.3563,11.832728,95606.54,1.1359638,0
9948000,9936000,6620172,487.21075,11.832727,95608.234,1.135984,0
10020000,9996000,6620172,487.3845,11.832728,95606.26,1.1359605,0
10068000,10056000,6620172,487.44553,11.832727,95605.54,1.1359519,0
10140000,10116000,6620172,487.32346,11.832728,95606.914,1.1359683,0
10188000,10176000,6620172,487.34692,11.832727,95606.664,1.1359653,0
10260000,10236000,6620172,487.469,11.832728,95605.25,1.1359485,0
10308000,10296000,6620172,487.2765,11.832727,95607.47,1.1359749,0
10380000,10356000,6620172,487.3798,11.832728,95606.31,1.135961,0
10428000,10416000,6620172,487.3751,11.832727,95606.34,1.1359615,0
10500000,10476000,6620172,487.3704,11.832728,95606.4,1.1359621,0
10548000,10536000,6620172,487.40326,11.832727,95606.055,1.1359581,0
10620000,10594666,6620172,487.3798,11.832728,95606.31,1.135961,0
10668000,10656000,6620172,487.30466,11.832727,95607.14,1.135971,0
10740000,10716000,6620172,487.32812,11.832728,95606.875,1.1359679,0
10788000,10776000,6620172,487.33752,11.832727,95606.78,1.1359667,0
10860000,10836000,6620172,487.34222,11.832728,95606.695,1.1359657,0
10908000,10896000,6620172,487.4643,11.832727,95605.33,1.1359495,0
10980000,10956000,6620172,487.43613,11.832728,95605.65,1.1359533,0
11028000,11016000,6620172,487.30466,11.832727,95607.14,1.135971,0
11100000,11076000,6620172,487.3657,11.832728,95606.46,1.1359628,0
11148000,11136000,6620172,487.469,11.832727,95605.25,1.1359485,0
11220000,11196000,6620172,487.33752,11.832728,95606.79,1.1359668,0
11268000,11256000,6620172,487.2671,11.832727,95607.6,1.1359766,0
11336000,11314666,6620172,487.361,11.832728,95606.51,1.1359634,0
11388000,11376000,6620172,487.40326,11.832727,95606.01,1.1359576,0
11460000,11436000,6620172,487.2812,11.832728,95607.43,1.1359744,0
11504000,11494000,6620172,487.31876,11.832727,95606.96,1.1359688,0
11556000,11544000,6620172,487.38916,11.832727,95606.18,1.1359595,0
11628000,11604000,6620172,487.34222,11.832728,95606.71,1.135966,0
11676000,11664000,6620172,487.3563,11.832727,95606.55,1.1359639,0
11748000,11724000,6620172,487.39386,11.832728,95606.12,1.1359588,0
11796000,11784000,6620172,487.34692,11.832727,95606.664,1.1359653,0
11868000,11844000,6620172,487.44083,11.832728,95605.6,1.1359527,0
11916000,11904000,6620172,487.35162,11.832727,95606.64,1.1359651,0
11988000,11964000,6620172,487.33752,11.832728,95606.77,1.1359667,0
12036000,12024000,6620172,487.31876,11.832727,95607.0,1.1359693,0
12108000,12084000,6620172,487.3845,11.832728,95606.21,1.13596,0
12156000,12144000,6620172,487.49246,11.832727,95605.0,1.1359456,0
12228000,12204000,6620172,487.29996,11.832728,95607.19,1.1359715,0
12276000,12264000,6620172,487.4643,11.832727,95605.34,1.1359496,0
12344000,12322666,6620172,487.35162,11.832728,95606.63,1.135965,0
12396000,12384000,6620172,487.48776,11.832727,95605.04,1.135946,0
12468000,12444000,6620172,487.32346,11.832728,95606.9,1.1359681,0
12516000,12504000,6620172,487.40796,11.832727,95605.95,1.1359569,0
12588000,12564000,6620172,487.42673,11.832728,95605.77,1.1359547,0
12636000,12624000,6620172,487.3657,11.832727,95606.47,1.135963,0
12708000,12684000,6620172,487.44553,11.832728,95605.54,1.1359519,0
12756000,12744000,6620172,487.31876,11.832727,95606.984,1.1359692,0
12828000,12804000,6620172,487.3704,11.832728,95606.414,1.1359624,0
12876000,12864000,6620172,487.4643,11.832727,95605.36,1.1359499,0
12948000,12924000,6620172,487.33282,11.832728,95606.84,1.1359675,0
12996000,12984000,6620172,487.4549,11.832727,95605.43,1.1359507,0
13068000,13044000,6620172,487.39386,11.832728,95606.12,1.1359588,0
13116000,13104000,6620172,487.42673,11.832727,95605.75,1.1359544,0
13188000,13164000,6620172,487.29996,11.832728,95607.19,1.1359715,0
13236000,13224000,6620172,487.29996,11.832727,95607.22,1.1359719,0
13308000,13284000,6620172,487.32812,11.832728,95606.875,1.1359679,0
13356000,13344000,6620172,487.3657,11.832727,95606.45,1.1359627,0
13428000,13404000,6620172,487.3845,11.832728,95606.25,1.1359603,0
13476000,13462000,6620172,487.361,11.832727,95606.49,1.1359633,0
13524000,13512000,6620172,487.40326,11.832727,95606.0,1.1359575,0
13596000,13572000,6620172,487.469,11.832728,95605.25,1.1359485,0
13644000,13632000,6620172,487.3563,11.832727,95606.58,1.1359643,0
13716000,13692000,6620172,487.41733,11.832728,95605.87,1.1359559,0
13764000,13752000,6620172,487.38916,11.832727,95606.195,1.1359597,0
13836000,13812000,6620172,487.38916,11.832728,95606.195,1.1359597,0
13884000,13870000,6620172,487.3563,11.832727,95606.59,1.1359645,0
13932000,13920000,6620172,487.40326,11.832727,95606.0,1.1359575,0
14004000,13980000,6620172,487.4502,11.832728,95605.47,1.1359512,0
14052000,14040000,6620172,487.2812,11.832727,95607.39,1.1359739,0
14124000,14100000,6620172,487.32812,11.832728,95606.875,1.1359679,0
14172000,14160000,6620172,487.39856,11.832727,95606.08,1.1359584,0
14244000,14220000,6620172,487.21545,11.832728,95608.18,1.1359833,0
14292000,14280000,6620172,487.2812,11.832727,95607.43,1.1359744,0
14364000,14340000,6620172,487.2671,11.832728,95607.625,1.1359767,0
14412000,14400000,6620172,487.3563,11.832727,95606.56,1.1359642,0
14484000,14460000,6620172,487.2812,11.832728,95607.4,1.135974,0
14532000,14520000,6620172,487.44083,11.832727,95605.586,1.1359526,0
14604000,14580000,6620172,487.3798,11.832728,95606.27,1.1359607,0
14652000,14640000,6620172,487.3845,11.832727,95606.22,1.1359601,0
14724000,14700000,6620172,487.40796,11.832728,95605.945,1.1359569,0
14772000,14760000,6620172,487.3798,11.832727,95606.27,1.1359607,0
14844000,14820000,6620172,487.40796,11.832728,95605.94,1.1359568,0
14892000,14880000,6620172,487.35162,11.832727,95606.63,1.135965,0
14964000,14940000,6620172,487.3798,11.832728,95606.27,1.1359607,0
15012000,15000000,6620172,487.35162,11.832727,95606.61,1.1359646,0
15084000,15060000,6620172,487.41733,11.832728,95605.9,1.1359562,0
15132000,15120000,6620172,487.40326,11.832727,95606.016,1.1359577,0
15204000,15180000,6620172,487.39386,11.832728,95606.125,1.1359589,0
15252000,15240000,6620172,487.34222,11.832727,95606.72,1.135966,0
15324000,15300000,6620172,487.3751,11.832728,95606.34,1.1359615,0
15372000,15360000,6620172,487.3657,11.832727,95606.47,1.135963,0
15444000,15420000,6620172,487.4596,11.832728,95605.375,1.13595,0
15492000,15480000,6620172,487.4502,11.832727,95605.47,1.1359512,0
15564000,15540000,6620172,487.42203,11.832728,95605.836,1.1359555,0
15612000,15600000,6620172,487.361,11.832727,95606.516,1.1359636,0
15684000,15660000,6620172,487.33752,11.832728,95606.76,1.1359664,0
15732000,15720000,6620172,487.24832,11.832727,95607.83,1.135979,0
15804000,15780000,6620172,487.3798,11.832728,95606.28,1.1359608,0
15852000,15840000,6620172,487.4549,11.832727,95605.44,1.1359508,0
15924000,15900000,6620172,487.3798,11.832728,95606.305,1.135961,0
15972000,15960000,6620172,487.35162,11.832727,95606.625,1.1359649,0
16044000,16020000,6620172,487.4596,11.832728,95605.4,1.1359503,0
16092000,16080000,6620172,487.43613,11.832727,95605.63,1.1359531,0
16164000,16138666,6620172,487.361,11.832728,95606.52,1.1359637,0
16212000,16200000,6620172,487.3563,11.832727,95606.56,1.1359642,0
16284000,16260000,6620172,487.30936,11.832728,95607.1,1.1359705,0
16332000,16318000,6620172,487.39856,11.832727,95606.1,1.1359586,0
16380000,16368000,6620172,487.38916,11.832727,95606.19,1.1359596,0
16452000,16428000,6620172,487.41733,11.832728,95605.9,1.1359562,0
16500000,16488000,6620172,487.3751,11.832727,95606.375,1.1359619,0
16572000,16548000,6620172,487.40796,11.832728,95605.97,1.135957,0
16620000,16608000,6620172,487.3845,11.832727,95606.234,1.1359602,0
16692000,16668000,6620172,487.4643,11.832728,95605.34,1.1359496,0
16740000,16728000,6620172,487.3845,11.832727,95606.22,1.1359601,0
16812000,16788000,6620172,487.469,11.832728,95605.24,1.1359484,0
16860000,16848000,6620172,487.3563,11.832727,95606.555,1.135964,0
16932000,16908000,6620172,487.29526,11.832728,95607.28,1.1359726,0
16980000,16968000,6620172,487.3657,11.832727,95606.47,1.135963,0
17052000,17028000,6620172,487.31406,11.832728,95607.055,1.13597,0
17100000,17088000,6620172,487.33282,11.832727,95606.84,1.1359675,0
17172000,17148000,6620172,487.39856,11.832728,95606.07,1.1359583,0
17220000,17208000,6620172,487.43143,11.832727,95605.73,1.1359543,0
17292000,17268000,6620172,487.40796,11.832728,95605.945,1.1359569,0
17336000,17326000,6620172,487.3563,11.832727,95606.59,1.1359645,0
17388000,17376000,6620172,487.3563,11.832727,95606.57,1.1359643,0
17460000,17436000,6620172,487.4502,11.832728,95605.46,1.135951,0
17508000,17496000,6620172,487.42673,11.832727,95605.75,1.1359544,0
17580000,17554666,6620172,487.33282,11.832728,95606.85,1.1359675,0
17628000,17616000,6620172,487.2859,11.832727,95607.375,1.1359738,0
17700000,17676000,6620172,487.3798,11.832728,95606.27,1.1359607,0
17748000,17736000,6620172,487.32346,11.832727,95606.92,1.1359683,0
17820000,17796000,6620172,487.33752,11.832728,95606.78,1.1359667,0
17868000,17856000,6620172,487.29996,11.832727,95607.22,1.1359719,0
17936000,17914666,6620172,487.33752,11.832718,95606.75,1.1359663,0
17988000,17976000,6620172,487.40796,11.832697,95605.95,1.1359569,0
18060000,18036000,6620172,487.40796,11.832687,95605.98,1.1359571,0
18108000,18096000,6620172,487.44083,11.832651,95605.586,1.1359526,0
18180000,18156000,6620172,487.31876,11.832616,95607.01,1.1359694,0
18228000,18216000,6620172,487.3751,11.83256,95606.33,1.1359613,0
18300000,18276000,6620172,487.43143,11.832504,95605.71,1.135954,0
18348000,18334000,6620172,487.3704,11.8324375,95606.41,1.1359622,0
18396000,18384000,6620172,487.42673,11.832346,95605.77,1.1359547,0
18468000,18444000,6620172,487.40796,11.83224,95605.99,1.1359574,0
18516000,18504000,6620172,487.3751,11.832117,95606.375,1.1359619,0
18588000,18564000,6620172,487.44083,11.831965,95605.57,1.1359524,0
18636000,18624000,6620172,487.50186,11.831781,95604.91,1.1359445,0
18708000,18684000,6620172,487.59106,11.831589,95603.87,1.1359321,0
18756000,18744000,6620172,487.6427,11.831369,95603.27,1.135925,0
18828000,18804000,6620172,487.638,11.831141,95603.305,1.1359254,0
18876000,18864000,6620172,487.76947,11.830881,95601.82,1.1359078,0
18948000,18924000,6620172,487.66617,11.830653,95603.04,1.1359223,0
18996000,18984000,6620172,487.7225,11.830408,95602.375,1.1359143,0
19068000,19044000,6620172,487.68967,11.830165,95602.77,1.1359191,0
19116000,19104000,6620172,487.8164,11.829935,95601.3,1.1359016,0
19188000,19164000,6620172,487.8399,11.829686,95601.02,1.1358984,0
19236000,19224000,6620172,487.8305,11.829447,95601.14,1.1358997,0
19308000,19284000,6620172,487.89154,11.829188,95600.44,1.1358913,0
19356000,19344000,6620172,487.9197,11.828928,95600.125,1.1358876,0
19428000,19404000,6620172,487.9244,11.828679,95600.07,1.135887,0
19476000,19464000,6620172,488.0887,11.828409,95598.21,1.1358649,0
19548000,19524000,6620172,488.1169,11.82816,95597.84,1.1358606,0
19596000,19584000,6620172,488.1169,11.82789,95597.86,1.1358608,0
19668000,19644000,6620172,488.23898,11.827621,95596.46,1.1358441,0
19716000,19704000,6620172,488.22488,11.827356,95596.61,1.1358459,0
19788000,19764000,6620172,488.20142,11.827072,95596.87,1.1358489,0
19836000,19824000,6620172,488.21548,11.826807,95596.7,1.135847,0
19908000,19884000,6620172,488.33755,11.826543,95595.32,1.1358305,0
19956000,19944000,6620172,488.408,11.826258,95594.55,1.1358213,0
20028000,20004000,6620172,488.4221,11.825994,95594.34,1.1358188,0
20076000,20064000,6620172,488.3094,11.825724,95595.61,1.135834,0
20148000,20124000,6620172,488.4878,11.825444,95593.625,1.1358104,0
20196000,20184000,6620172,488.47372,11.825174,95593.78,1.1358123,0
20268000,20244000,6620172,488.5113,11.824905,95593.35,1.1358072,0
20316000,20304000,6620172,488.42676,11.82464,95594.336,1.1358188,0
20388000,20364000,6620172,488.6709,11.824376,95591.46,1.1357846,0
20436000,20424000,6620172,488.72256,11.824106,95590.92,1.1357783,0
20508000,20484000,6620172,488.7883,11.823837,95590.18,1.1357695,0
20556000,20544000,6620172,488.75073,11.823587,95590.58,1.1357743,0
20628000,20602666,6620172,488.83524,11.8233185,95589.6,1.1357626,0
20672000,20660000,6620172,488.8587,11.823069,95589.34,1.1357596,0
20724000,20712000,6620172,488.854,11.822855,95589.41,1.1357603,0
20796000,20772000,6620172,488.8681,11.822606,95589.23,1.135758,0
20844000,20832000,6620172,488.9573,11.822367,95588.19,1.1357458,0
20916000,20892000,6620172,488.98077,11.822108,95587.94,1.1357428,0
20964000,20952000,6620172,488.92914,11.821878,95588.52,1.1357498,0
21036000,21012000,6620172,488.99017,11.82164,95587.85,1.1357417,0
21084000,21072000,6620172,489.18268,11.82139,95585.625,1.1357154,0
21156000,21130666,6620172,489.0465,11.821162,95587.19,1.135734,0
21204000,21190000,6620172,489.25308,11.820932,95584.83,1.1357058,0
21252000,21240000,6620172,489.21555,11.820765,95585.25,1.1357108,0
21324000,21300000,6620172,489.25778,11.820552,95584.76,1.135705,0
21372000,21360000,6620172,489.10284,11.820337,95586.53,1.1357261,0
21444000,21420000,6620172,489.33292,11.820155,95583.9,1.1356949,0
21492000,21480000,6620172,489.35638,11.820002,95583.66,1.135692,0
21564000,21540000,6620172,489.39865,11.8198595,95583.18,1.1356863,0
21612000,21600000,6620172,489.31412,11.819742,95584.11,1.1356972,0
21684000,21660000,6620172,489.29535,11.819667,95584.336,1.1357,0
21732000,21720000,6620172,489.3423,11.81959,95583.83,1.135694,0
21804000,21780000,6620172,489.4409,11.819524,95582.69,1.1356804,0
21852000,21840000,6620172,489.4362,11.819468,95582.75,1.1356812,0
21924000,21900000,6620172,489.35638,11.819402,95583.66,1.135692,0
21972000,21960000,6620172,489.46436,11.819345,95582.39,1.1356769,0
22044000,22020000,6620172,489.41742,11.81927,95582.94,1.1356834,0
22092000,22080000,6620172,489.47375,11.819193,95582.3,1.1356758,0
22164000,22140000,6620172,489.50662,11.819118,95581.914,1.1356713,0
22212000,22200000,6620172,489.38455,11.81904,95583.3,1.1356877,0
22284000,22260000,6620172,489.4409,11.818965,95582.66,1.1356801,0
22332000,22320000,6620172,489.47845,11.818888,95582.25,1.1356752,0
22400000,22378666,6620172,489.5442,11.818782,95581.52,1.1356666,0
22452000,22440000,6620172,489.55356,11.818705,95581.37,1.1356647,0
22524000,22498666,6620172,489.59583,11.818629,95580.914,1.1356595,0
22572000,22560000,6620172,489.52072,11.818552,95581.74,1.1356692,0
22644000,22618666,6620172,489.56296,11.818497,95581.26,1.1356635,0
22692000,22680000,6620172,489.60992,11.81843,95580.72,1.1356571,0
22764000,22740000,6620172,489.60522,11.818355,95580.79,1.1356578,0
22812000,22800000,6620172,489.60522,11.818277,95580.83,1.1356584,0
22884000,22860000,6620172,489.68973,11.818212,95579.81,1.1356463,0
22932000,22920000,6620172,489.6334,11.818155,95580.45,1.1356539,0
23000000,22978666,6620172,489.6428,11.81808,95580.375,1.1356529,0
23052000,23040000,6620172,489.65686,11.818033,95580.2,1.1356509,0
23124000,23100000,6620172,489.65216,11.817958,95580.24,1.1356514,0
23172000,23160000,6620172,489.7179,11.817911,95579.5,1.1356425,0
23244000,23220000,6620172,489.7179,11.817845,95579.5,1.1356425,0
23292000,23278000,6620172,489.59583,11.817789,95580.875,1.1356589,0
23364000,23338666,6620172,489.67096,11.817734,95580.07,1.1356493,0
23412000,23400000,6620172,489.6287,11.817682,95580.51,1.1356546,0
23484000,23460000,6620172,489.7226,11.817632,95579.46,1.1356422,0
23532000,23520000,6620172,489.732,11.817575,95579.375,1.1356411,0
23604000,23578666,6620172,489.69913,11.817531,95579.71,1.135645,0
23648000,23638000,6620172,489.65216,11.817484,95580.25,1.1356515,0
23700000,23688000,6620172,489.7132,11.817438,95579.56,1.1356432,0
23768000,23745333,6620172,489.7132,11.817398,95579.54,1.135643,0
23820000,23806000,6620172,489.68033,11.817347,95579.91,1.1356474,0
23868000,23856000,6620172,489.76953,11.817316,95578.91,1.1356355,0
23940000,23916000,6620172,489.68973,11.8172655,95579.836,1.1356466,0
23988000,23976000,6620172,489.7085,11.8172245,95579.63,1.1356441,0
24060000,24036000,6620172,489.68973,11.817174,95579.81,1.1356463,0
24108000,24096000,6620172,489.74606,11.817133,95579.17,1.1356387,0
24180000,24154666,6620172,489.7085,11.817093,95579.65,1.1356443,0
24228000,24216000,6620172,489.732,11.817041,95579.34,1.1356406,0
24300000,24276000,6620172,489.9057,11.817001,95577.375,1.1356174,0
24348000,24336000,6620172,489.79303,11.816965,95578.67,1.1356328,0
24420000,24396000,6620172,489.8024,11.81693,95578.54,1.1356312,0
24468000,24456000,6620172,489.84467,11.816889,95578.03,1.1356251,0
24540000,24516000,6620172,489.78363,11.816849,95578.73,1.1356333,0
24588000,24576000,6620172,489.75076,11.8168125,95579.125,1.1356381,0
24660000,24636000,6620172,489.85873,11.816777,95577.914,1.1356237,0
24708000,24696000,6620172,489.8024,11.816736,95578.51,1.1356307,0
24780000,24756000,6620172,489.83057,11.816696,95578.21,1.1356273,0
24828000,24816000,6620172,489.91977,11.81666,95577.22,1.1356155,0
24900000,24876000,6620172,489.8963,11.816625,95577.48,1.1356184,0
24948000,24936000,6620172,489.77893,11.816599,95578.77,1.135634,0
25020000,24996000,6620172,489.85406,11.816564,95577.94,1.135624,0
25068000,25056000,6620172,489.74606,11.816523,95579.18,1.1356388,0
25140000,25116000,6620172,489.74136,11.816503,95579.22,1.1356392,0
25188000,25176000,6620172,489.94327,11.816477,95576.92,1.1356119,0
25260000,25236000,6620172,489.9104,11.816442,95577.31,1.1356167,0
25308000,25296000,6620172,489.92447,11.816416,95577.125,1.1356143,0
25380000,25356000,6620172,489.8024,11.816391,95578.52,1.135631,0
25428000,25416000,6620172,489.76486,11.81637,95578.94,1.1356359,0
25500000,25476000,6620172,489.93387,11.81634,95577.04,1.1356133,0
25548000,25534000,6620172,489.9104,11.816309,95577.3,1.1356164,0
25596000,25584000,6620172,489.92917,11.816294,95577.09,1.135614,0
25664000,25642666,6620172,489.85873,11.816269,95577.875,1.1356233,0
25716000,25702000,6620172,489.93857,11.816248,95577.01,1.135613,0
25764000,25752000,6620172,489.9855,11.816233,95576.414,1.1356059,0
25836000,25812000,6620172,489.9104,11.816218,95577.31,1.1356167,0
25884000,25872000,6620172,489.9949,11.816187,95576.305,1.1356046,0
25956000,25932000,6620172,489.94797,11.816188,95576.87,1.1356113,0
26004000,25992000,6620172,489.84467,11.816156,95578.05,1.1356252,0
26076000,26052000,6620172,489.94327,11.816147,95576.9,1.1356117,0
26124000,26112000,6620172,489.86343,11.816126,95577.82,1.1356225,0
26196000,26172000,6620172,489.83997,11.816127,95578.125,1.1356262,0
26244000,26232000,6620172,489.92447,11.816095,95577.125,1.1356143,0
26316000,26292000,6620172,489.88223,11.816096,95577.59,1.13562,0
26364000,26352000,6620172,490.01367,11.81608,95576.11,1.1356022,0
26436000,26412000,6620172,489.95734,11.816066,95576.77,1.1356102,0
26484000,26472000,6620172,489.94327,11.816065,95576.92,1.1356119,0
26556000,26530666,6620172,490.0043,11.816045,95576.21,1.1356035,0
26604000,26592000,6620172,489.9808,11.816034,95576.484,1.1356068,0
26676000,26652000,6620172,489.9808,11.816035,95576.49,1.1356069,0
26724000,26712000,6620172,490.07004,11.816004,95575.47,1.1355946,0
26796000,26772000,6620172,489.93387,11.816005,95577.03,1.1356132,0
26844000,26832000,6620172,489.9808,11.815989,95576.47,1.1356065,0
26916000,26892000,6620172,489.97614,11.815974,95576.54,1.1356074,0
26964000,26952000,6620172,489.96674,11.815973,95576.64,1.1356086,0
27036000,27012000,6620172,489.9808,11.815953,95576.52,1.1356071,0
27084000,27072000,6620172,489.97144,11.815943,95576.59,1.1356081,0
27156000,27132000,6620172,489.94797,11.815944,95576.875,1.1356114,0
27204000,27192000,6620172,489.9902,11.8159275,95576.375,1.1356055,0
27276000,27252000,6620172,489.9808,11.815913,95576.49,1.1356069,0
27324000,27312000,6620172,489.9057,11.815912,95577.375,1.1356174,0
27396000,27370666,6620172,489.92447,11.815892,95577.12,1.1356143,0
27444000,27432000,6620172,490.05124,11.815882,95575.72,1.1355977,0
27516000,27492000,6620172,489.85873,11.815883,95577.87,1.1356232,0
27564000,27552000,6620172,489.94327,11.815882,95576.92,1.1356119,0
27636000,27612000,6620172,489.9996,11.815852,95576.27,1.1356043,0
27684000,27672000,6620172,490.009,11.815851,95576.17,1.135603,0
27756000,27732000,6620172,490.01367,11.815852,95576.1,1.1356021,0
27804000,27790000,6620172,490.0043,11.815836,95576.24,1.1356038,0
27852000,27840000,6620172,490.06534,11.815821,95575.55,1.1355956,0
27924000,27900000,6620172,489.91977,11.815822,95577.22,1.1356155,0
27972000,27960000,6620172,490.01837,11.815805,95576.08,1.135602,0
28044000,28020000,6620172,489.96204,11.815791,95576.71,1.1356094,0
28092000,28080000,6620172,489.87283,11.81579,95577.734,1.1356217,0
28164000,28140000,6620172,489.92447,11.815761,95577.125,1.1356143,0
28212000,28200000,6620172,490.01837,11.81576,95576.06,1.1356018,0
28284000,28260000,6620172,489.9808,11.81574,95576.51,1.135607,0
28332000,28320000,6620172,490.06534,11.815729,95575.53,1.1355954,0
28404000,28380000,6620172,489.9808,11.81572,95576.49,1.1356069,0
28452000,28440000,6620172,490.13107,11.815699,95574.78,1.1355865,0
28524000,28498666,6620172,490.009,11.815689,95576.15,1.1356028,0
28572000,28560000,6620172,490.04184,11.815668,95575.805,1.1355987,0
28644000,28620000,6620172,489.9996,11.815669,95576.29,1.1356045,0
28692000,28680000,6620172,490.0043,11.815653,95576.25,1.1356039,0
28764000,28740000,6620172,489.94327,11.815639,95576.94,1.1356121,0
28812000,28800000,6620172,490.10757,11.815638,95575.04,1.1355896,0
28884000,28860000,6620172,490.05124,11.815608,95575.664,1.135597,0
28932000,28920000,6620172,489.93857,11.815607,95576.984,1.1356126,0
29004000,28980000,6620172,490.0888,11.815598,95575.25,1.1355921,0
29052000,29040000,6620172,489.93387,11.815577,95577.016,1.1356131,0
29124000,29100000,6620172,490.10757,11.8155775,95575.07,1.13559,0
29172000,29160000,6620172,490.0794,11.815546,95575.34,1.1355932,0
29244000,29220000,6620172,490.0043,11.815547,95576.24,1.1356038,0
29292000,29280000,6620172,490.12637,11.815546,95574.83,1.1355871,0
29364000,29340000,6620172,489.96674,11.815516,95576.66,1.1356088,0
29412000,29400000,6620172,490.0043,11.8155155,95576.25,1.1356039,0
29484000,29460000,6620172,489.9902,11.815516,95576.37,1.1356053,0
29532000,29520000,6620172,490.03717,11.815485,95575.86,1.1355994,0
29604000,29580000,6620172,490.009,11.815486,95576.164,1.1356028,0
29648000,29638000,6620172,489.85873,11.815485,95577.9,1.1356235,0
29700000,29688000,6620172,490.13107,11.815485,95574.76,1.1355863,0
29772000,29748000,6620172,490.02777,11.815465,95575.98,1.1356007,0
29820000,29808000,6620172,489.9855,11.8154545,95576.44,1.1356062,0
29892000,29868000,6620172,490.0982,11.815455,95575.16,1.1355909,0
29940000,29928000,6620172,490.02307,11.8154545,95576.0,1.135601,0
30012000,29988000,6620172,490.02307,11.815434,95576.02,1.1356012,0
30060000,30048000,6620172,490.01367,11.815424,95576.14,1.1356027,0
30132000,30108000,6620172,490.05124,11.815425,95575.68,1.1355971,0
30180000,30168000,6620172,490.10757,11.815424,95575.08,1.1355901,0
30252000,30228000,6620172,490.06534,11.815394,95575.52,1.1355953,0
30300000,30288000,6620172,489.9902,11.815393,95576.36,1.1356052,0
30372000,30348000,6620172,490.06064,11.815384,95575.59,1.1355962,0
30420000,30408000,6620172,490.04654,11.815363,95575.734,1.1355978,0
30492000,30468000,6620172,490.01367,11.815364,95576.125,1.1356025,0
30540000,30528000,6620172,490.0841,11.815348,95575.32,1.1355929,0
30612000,30588000,6620172,490.0888,11.815333,95575.24,1.135592,0
30660000,30648000,6620172,489.97144,11.815332,95576.61,1.1356082,0
30732000,30708000,6620172,490.06534,11.815323,95575.54,1.1355954,0
30780000,30768000,6620172,490.12637,11.815302,95574.81,1.1355869,0
30852000,30828000,6620172,490.14984,11.815303,95574.59,1.1355842,0
30900000,30888000,6620172,490.04654,11.815287,95575.734,1.1355978,0
30972000,30948000,6620172,490.0888,11.815272,95575.25,1.1355921,0
31020000,31008000,6620172,490.0888,11.815271,95575.29,1.1355926,0
31092000,31068000,6620172,490.11227,11.815272,95574.99,1.135589,0
31140000,31128000,6620172,489.93857,11.815241,95576.97,1.1356125,0
31212000,31188000,6620172,490.06534,11.815242,95575.52,1.1355953,0
31260000,31248000,6620172,489.96674,11.815241,95576.67,1.1356089,0
31332000,31308000,6620172,490.15454,11.815221,95574.52,1.1355834,0
31380000,31368000,6620172,489.96204,11.81521,95576.74,1.1356097,0
31452000,31428000,6620172,490.0043,11.815211,95576.25,1.1356039,0
31500000,31488000,6620172,490.0841,11.81521,95575.3,1.1355926,0
31572000,31548000,6620172,490.0794,11.815211,95575.34,1.1355932,0
31620000,31608000,6620172,490.0982,11.81521,95575.14,1.1355908,0
31692000,31668000,6620172,490.0043,11.815211,95576.21,1.1356035,0
31740000,31728000,6620172,490.03717,11.81521,95575.82,1.1355988,0
31812000,31788000,6620172,489.9855,11.815211,95576.414,1.1356059,0
31860000,31848000,6620172,490.03717,11.81518,95575.84,1.1355991,0
31932000,31908000,6620172,490.15924,11.815181,95574.445,1.1355824,0
31980000,31968000,6620172,490.0043,11.81518,95576.2,1.1356034,0
32052000,32028000,6620172,490.05124,11.815181,95575.72,1.1355977,0
32100000,32088000,6620172,490.10287,11.81518,95575.09,1.1355902,0
32172000,32148000,6620172,490.15924,11.815181,95574.47,1.1355828,0
32220000,32208000,6620172,490.10757,11.81518,95575.04,1.1355896,0
32292000,32268000,6620172,490.11227,11.815181,95575.01,1.1355891,0
32340000,32328000,6620172,490.02777,11.81518,95575.97,1.1356006,0
32412000,32388000,6620172,490.05124,11.815181,95575.664,1.135597,0
32460000,32448000,6620172,490.06534,11.81518,95575.53,1.1355954,0
32532000,32508000,6620172,490.0841,11.815181,95575.31,1.1355928,0
32580000,32568000,6620172,490.0794,11.81518,95575.36,1.1355934,0
32652000,32628000,6620172,490.0747,11.815181,95575.41,1.1355939,0
32700000,32688000,6620172,490.03717,11.81518,95575.82,1.1355988,0
32768000,32746666,6620172,490.06534,11.815181,95575.54,1.1355954,0
32820000,32808000,6620172,490.14044,11.81518,95574.64,1.1355848,0
32892000,32868000,6620172,490.0935,11.815181,95575.23,1.1355917,0
32940000,32928000,6620172,490.15454,11.815149,95574.516,1.1355833,0
33012000,32988000,6620172,490.13107,11.81515,95574.77,1.1355864,0
33060000,33048000,6620172,490.0888,11.815149,95575.27,1.1355923,0
33132000,33108000,6620172,490.14044,11.81515,95574.625,1.1355847,0
33180000,33168000,6620172,490.12637,11.815149,95574.81,1.1355869,0
33252000,33228000,6620172,490.15924,11.81515,95574.44,1.1355823,0
33300000,33288000,6620172,490.05124,11.815149,95575.664,1.135597,0
33372000,33348000,6620172,490.0043,11.81515,95576.24,1.1356038,0
33420000,33408000,6620172,490.11697,11.815149,95574.93,1.1355883,0
33492000,33468000,6620172,490.0747,11.81515,95575.445,1.1355944,0
33540000,33526000,6620172,490.03247,11.815149,95575.9,1.1355997,0
33588000,33576000,6620172,490.06534,11.815149,95575.53,1.1355954,0
33660000,33636000,6620172,490.06534,11.81515,95575.54,1.1355954,0
33708000,33696000,6620172,490.009,11.815149,95576.19,1.1356032,0
33780000,33756000,6620172,490.10287,11.81515,95575.1,1.1355903,0
33828000,33816000,6620172,490.04654,11.815149,95575.75,1.135598,0
33900000,33876000,6620172,490.1639,11.81515,95574.414,1.1355822,0
33948000,33936000,6620172,490.03717,11.815149,95575.86,1.1355994,0
34020000,33996000,6620172,490.12167,11.81515,95574.875,1.1355876,0
34068000,34056000,6620172,489.9996,11.815149,95576.266,1.1356041,0
34140000,34116000,6620172,489.9902,11.81515,95576.4,1.1356057,0
34188000,34176000,6620172,490.13107,11.815165,95574.78,1.1355865,0
34260000,34236000,6620172,490.0043,11.815181,95576.26,1.135604,0
34308000,34296000,6620172,490.0982,11.81518,95575.16,1.1355909,0
34380000,34356000,6620172,490.12637,11.815181,95574.836,1.1355872,0
34428000,34416000,6620172,489.9996,11.815195,95576.266,1.1356041,0
34500000,34474666,6620172,490.06064,11.815211,95575.59,1.1355962,0
34548000,34534000,6620172,490.0794,11.81521,95575.33,1.1355929,0
34596000,34584000,6620172,490.0888,11.815226,95575.25,1.1355921,0
34668000,34644000,6620172,490.009,11.815242,95576.195,1.1356033,0
34716000,34704000,6620172,490.07004,11.815271,95575.47,1.1355946,0
34788000,34764000,6620172,490.03717,11.815303,95575.836,1.135599,0
34836000,34824000,6620172,489.9855,11.815378,95576.42,1.135606,0
34908000,34884000,6620172,490.0794,11.815465,95575.336,1.135593,0
34956000,34944000,6620172,489.9902,11.815607,95576.36,1.1356052,0
35028000,35004000,6620172,489.93857,11.815801,95576.98,1.1356126,0
35076000,35064000,6620172,489.9151,11.816034,95577.25,1.1356158,0
35148000,35124000,6620172,489.93387,11.816319,95577.04,1.1356133,0
35196000,35184000,6620172,489.78833,11.816614,95578.7,1.1356331,0
35268000,35244000,6620172,489.8212,11.81694,95578.31,1.1356285,0
35316000,35304000,6620172,489.76016,11.817255,95579.02,1.1356369,0
35388000,35364000,6620172,489.732,11.817592,95579.336,1.1356406,0
35436000,35424000,6620172,489.7226,11.817896,95579.46,1.1356422,0
35508000,35484000,6620172,489.68033,11.818181,95579.914,1.1356474,0
35552000,35540000,6620172,489.5395,11.81846,95581.56,1.1356671,0
35604000,35592000,6620172,489.5254,11.818674,95581.68,1.1356685,0
35676000,35652000,6620172,489.46906,11.818944,95582.35,1.1356765,0
35724000,35712000,6620172,489.4315,11.819208,95582.79,1.1356816,0
35796000,35772000,6620172,489.37045,11.819463,95583.52,1.1356903,0
35844000,35832000,6620172,489.41742,11.819727,95582.945,1.1356834,0
35916000,35892000,6620172,489.40332,11.819992,95583.125,1.1356857,0
35964000,35952000,6620172,489.26718,11.820261,95584.67,1.1357039,0
36036000,36012000,6620172,489.21085,11.820521,95585.336,1.1357119,0
36080000,36070000,6620172,489.30475,11.82078,95584.234,1.1356989,0
36132000,36120000,6620172,489.1263,11.821009,95586.28,1.1357231,0
36204000,36180000,6620172,489.131,11.821274,95586.23,1.1357225,0
36252000,36240000,6620172,489.11694,11.821543,95586.375,1.1357243,0
36324000,36298666,6620172,488.99487,11.821823,95587.78,1.1357409,0
36372000,36360000,6620172,488.89157,11.822092,95588.96,1.135755,0
36444000,36420000,6620172,488.9573,11.822372,95588.22,1.1357461,0
36492000,36480000,6620172,488.9432,11.822657,95588.4,1.1357483,0
36564000,36540000,6620172,488.93384,11.822932,95588.47,1.1357491,0
36608000,36598000,6620172,488.82114,11.823206,95589.8,1.1357648,0
36660000,36648000,6620172,488.83524,11.823435,95589.62,1.1357628,0
36732000,36708000,6620172,488.7695,11.823715,95590.34,1.1357714,0
36780000,36768000,6620172,488.74603,11.823999,95590.64,1.135775,0
36852000,36828000,6620172,488.62866,11.824275,95591.96,1.1357906,0
36900000,36888000,6620172,488.6897,11.824564,95591.266,1.1357824,0
36972000,36948000,6620172,488.61926,11.824844,95592.12,1.1357925,0
37020000,37008000,6620172,488.52066,11.825129,95593.2,1.1358054,0
37092000,37068000,6620172,488.5066,11.825414,95593.37,1.1358074,0
37140000,37128000,6620172,488.408,11.825693,95594.5,1.1358207,0
37212000,37188000,6620172,488.3282,11.8259735,95595.445,1.135832,0
37260000,37248000,6620172,488.3188,11.826258,95595.516,1.1358328,0
37332000,37308000,6620172,488.36572,11.826543,95594.99,1.1358266,0
37380000,37368000,6620172,488.24835,11.826822,95596.31,1.1358423,0
37452000,37428000,6620172,488.28122,11.827103,95595.96,1.1358382,0
37500000,37488000,6620172,488.15445,11.827387,95597.39,1.1358551,0
37572000,37548000,6620172,488.17325,11.827662,95597.24,1.1358534,0
37620000,37608000,6620172,487.9244,11.827951,95600.04,1.1358865,0
37692000,37668000,6620172,488.1169,11.828232,95597.85,1.1358607,0
37740000,37728000,6620172,487.98544,11.828516,95599.38,1.1358788,0
37812000,37788000,6620172,488.0089,11.828792,95599.086,1.1358753,0
37860000,37848000,6620172,487.9244,11.829065,95600.06,1.1358869,0
37932000,37908000,6620172,487.9197,11.82935,95600.125,1.1358876,0
37980000,37968000,6620172,487.8211,11.82963,95601.22,1.1359006,0
38052000,38028000,6620172,487.76477,11.8299,95601.9,1.1359087,0
38100000,38088000,6620172,487.80234,11.830179,95601.46,1.1359035,0
38172000,38148000,6620172,487.76477,11.83046,95601.875,1.1359084,0
38220000,38208000,6620172,487.71313,11.830744,95602.484,1.1359158,0
38292000,38266666,6620172,487.62393,11.831009,95603.49,1.1359277,0
38340000,38328000,6620172,487.66617,11.831293,95603.04,1.1359223,0
38412000,38388000,6620172,487.60513,11.831558,95603.73,1.1359304,0
38456000,38446000,6620172,487.51593,11.831842,95604.734,1.1359423,0
38508000,38496000,6620172,487.51593,11.832056,95604.73,1.1359422,0
38580000,38556000,6620172,487.39856,11.832341,95606.086,1.1359586,0
38628000,38616000,6620172,487.22955,11.832605,95608.02,1.1359816,0
38700000,38676000,6620172,487.31876,11.832718,95607.01,1.1359694,0
38748000,38736000,6620172,487.33282,11.832666,95606.84,1.1359675,0
38820000,38796000,6620172,487.49246,11.832515,95605.0,1.1359456,0
38864000,38852000,6620172,487.50186,11.832315,95604.92,1.1359446,0
38916000,38904000,6620172,487.469,11.832132,95605.27,1.1359488,0
38988000,38964000,6620172,487.49246,11.831883,95604.99,1.1359454,0
39036000,39024000,6620172,487.41733,11.831629,95605.89,1.135956,0
39108000,39084000,6620172,487.57227,11.831375,95604.055,1.1359344,0
39156000,39144000,6620172,487.6474,11.831125,95603.23,1.1359245,0
39228000,39204000,6620172,487.68497,11.830867,95602.79,1.1359192,0
39276000,39264000,6620172,487.6427,11.830637,95603.3,1.1359253,0
39348000,39324000,6620172,487.67557,11.830419,95602.875,1.1359203,0
39396000,39384000,6620172,487.8164,11.830225,95601.33,1.1359019,0
39468000,39444000,6620172,487.76477,11.830043,95601.875,1.1359084,0
39516000,39504000,6620172,487.84457,11.829859,95600.97,1.1358978,0
39588000,39564000,6620172,487.84457,11.829707,95600.94,1.1358973,0
39632000,39622000,6620172,487.94318,11.829584,95599.85,1.1358844,0
39684000,39672000,6620172,487.9244,11.829477,95600.05,1.1358867,0
39756000,39732000,6620172,487.86807,11.829381,95600.71,1.1358945,0
39804000,39792000,6620172,487.7507,11.829294,95602.05,1.1359105,0
39876000,39852000,6620172,487.95258,11.829249,95599.71,1.1358827,0
39924000,39912000,6620172,487.95728,11.829203,95599.69,1.1358824,0
39996000,39972000,6620172,487.9338,11.829167,95599.91,1.135885,0
40044000,40030000,6620172,487.88684,11.829142,95600.47,1.1358917,0
40116000,40090666,6620172,487.88214,11.829137,95600.54,1.1358925,0
40164000,40152000,6620172,488.04648,11.829157,95598.64,1.13587,0
40236000,40212000,6620172,487.96664,11.829198,95599.555,1.1358808,0
40284000,40272000,6620172,487.80234,11.829233,95601.43,1.1359031,0
40356000,40332000,6620172,487.8399,11.82931,95601.04,1.1358986,0
40404000,40392000,6620172,487.79764,11.829386,95601.53,1.1359043,0
40476000,40452000,6620172,487.84457,11.829463,95600.94,1.1358973,0
40524000,40512000,6620172,487.77417,11.829554,95601.8,1.1359075,0
40596000,40572000,6620172,487.75537,11.829666,95602.01,1.13591,0
40644000,40632000,6620172,487.8211,11.829798,95601.26,1.1359011,0
40716000,40692000,6620172,487.80704,11.82993,95601.37,1.1359024,0
40764000,40752000,6620172,487.67557,11.830072,95602.875,1.1359203,0
40836000,40810666,6620172,487.71313,11.830226,95602.47,1.1359155,0
40884000,40872000,6620172,487.88684,11.830378,95600.484,1.1358919,0
40956000,40932000,6620172,487.69904,11.830562,95602.625,1.1359174,0
41000000,40990000,6620172,487.67087,11.830744,95602.93,1.1359209,0
41052000,41040000,6620172,487.59576,11.830896,95603.83,1.1359316,0
41124000,41100000,6620172,487.61453,11.83109,95603.6,1.135929,0
41172000,41160000,6620172,487.60043,11.831293,95603.76,1.1359308,0
41244000,41220000,6620172,487.57227,11.831487,95604.1,1.1359348,0
41292000,41280000,6620172,487.40326,11.831705,95606.02,1.1359577,0
41364000,41340000,6620172,487.59106,11.831935,95603.87,1.1359321,0
41408000,41396000,6620172,487.49716,11.832163,95604.95,1.135945,0
41456000,41446000,6620172,487.33282,11.832346,95606.836,1.1359674,0
41532000,41505333,6620172,487.40326,11.832585,95606.02,1.1359577,0
41556000,41556000,6620172,487.51123,11.832727,95604.8,1.135943,0
41652000,41616000,6620172,487.34692,11.832727,95606.664,1.1359653,0
41676000,41676000,6620172,487.22955,11.832727,95608.02,1.1359816,0
41772000,41736000,6620172,487.361,11.832727,95606.49,1.1359633,0
41796000,41796000,6620172,487.33752,11.832727,95606.76,1.1359664,0
41892000,41856000,6620172,487.4643,11.832727,95605.336,1.1359495,0
41916000,41916000,6620172,487.3845,11.832727,95606.234,1.1359602,0
42012000,41976000,6620172,487.3657,11.832727,95606.46,1.1359628,0
42036000,42036000,6620172,487.32346,11.832727,95606.92,1.1359683,0
42132000,42096000,6620172,487.39386,11.832727,95606.125,1.1359589,0
42152000,42152000,6620172,487.3798,11.832727,95606.32,1.1359612,0
42228000,42204000,6620172,487.30936,11.832728,95607.1,1.1359705,0
42276000,42264000,6620172,487.26242,11.832727,95607.64,1.1359769,0
42348000,42324000,6620172,487.31876,11.832728,95607.01,1.1359694,0
42396000,42384000,6620172,487.42203,11.832727,95605.81,1.1359552,0
42468000,42444000,6620172,487.3563,11.832728,95606.56,1.1359642,0
42516000,42504000,6620172,487.3657,11.832727,95606.45,1.1359627,0
42588000,42564000,6620172,487.38916,11.832728,95606.19,1.1359596,0
42636000,42624000,6620172,487.35162,11.832727,95606.66,1.1359652,0
42704000,42682666,6620172,487.41733,11.832728,95605.87,1.1359559,0
42756000,42744000,6620172,487.34222,11.832727,95606.72,1.135966,0
42828000,42804000,6620172,487.33752,11.832728,95606.79,1.1359668,0
42876000,42864000,6620172,487.3751,11.832727,95606.34,1.1359615,0
42948000,42922666,6620172,487.361,11.832728,95606.53,1.1359637,0
42996000,42984000,6620172,487.32346,11.832727,95606.95,1.1359688,0
43068000,43044000,6620172,487.30466,11.832728,95607.164,1.1359713,0
43116000,43102000,6620172,487.30936,11.832727,95607.09,1.1359705,0
43164000,43152000,6620172,487.42203,11.832727,95605.81,1.1359552,0
43236000,43212000,6620172,487.3704,11.832728,95606.4,1.1359621,0
43284000,43272000,6620172,487.42673,11.832727,95605.766,1.1359546,0
43356000,43332000,6620172,487.35162,11.832728,95606.6,1.1359645,0
43404000,43392000,6620172,487.4502,11.832727,95605.45,1.1359509,0
43476000,43452000,6620172,487.39386,11.832728,95606.15,1.1359593,0
43524000,43512000,6620172,487.33752,11.832727,95606.75,1.1359663,0
43596000,43572000,6620172,487.361,11.832728,95606.53,1.1359637,0
43644000,43632000,6620172,487.4502,11.832727,95605.5,1.1359515,0
43716000,43692000,6620172,487.29526,11.832728,95607.24,1.1359723,0
43764000,43752000,6620172,487.3704,11.832727,95606.4,1.1359621,0
43836000,43812000,6620172,487.1967,11.832728,95608.37,1.1359856,0
43884000,43872000,6620172,487.44083,11.832727,95605.61,1.1359527,0
43956000,43932000,6620172,487.3751,11.832728,95606.35,1.1359617,0
44004000,43992000,6620172,487.30936,11.832727,95607.1,1.1359705,0
44076000,44052000,6620172,487.34692,11.832728,95606.68,1.1359655,0
44124000,44112000,6620172,487.39386,11.832727,95606.17,1.1359594,0
44196000,44172000,6620172,487.44553,11.832728,95605.53,1.1359519,0
44244000,44232000,6620172,487.41733,11.832727,95605.85,1.1359557,0
44316000,44292000,6620172,487.3657,11.832728,95606.44,1.1359626,0
44364000,44350000,6620172,487.35162,11.832727,95606.66,1.1359652,0
44436000,44410666,6620172,487.3563,11.832728,95606.59,1.1359645,0
44484000,44472000,6620172,487.40796,11.832727,95605.97,1.135957,0
44556000,44529333,6620172,487.29526,11.832728,95607.26,1.1359724,0
44580000,44580000,6620172,487.35162,11.832727,95606.625,1.1359649,0
44676000,44640000,6620172,487.30936,11.832727,95607.11,1.1359706,0
44700000,44700000,6620172,487.53473,11.832727,95604.5,1.1359396,0
44796000,44760000,6620172,487.32346,11.832727,95606.91,1.1359682,0
44820000,44820000,6620172,487.58636,11.832727,95603.914,1.1359327,0
44916000,44880000,6620172,487.361,11.832727,95606.51,1.1359634,0
44940000,44940000,6620172,487.23422,11.832727,95607.98,1.1359808,0
45036000,44999000,6620172,487.41733,11.832727,95605.85,1.1359557,0
45060000,45060000,6620172,487.20605,11.832727,95608.32,1.135985,0
45156000,45120000,6620172,487.40796,11.832727,95605.97,1.135957,0
45180000,45180000,6620172,487.40326,11.832727,95606.0,1.1359575,0
45276000,45240000,6620172,487.3657,11.832727,95606.47,1.135963,0
45300000,45300000,6620172,487.3704,11.832727,95606.414,1.1359624,0
45396000,45360000,6620172,487.3845,11.832727,95606.25,1.1359603,0
45420000,45420000,6620172,487.34222,11.832727,95606.71,1.135966,0
45516000,45480000,6620172,487.41266,11.832727,95605.91,1.1359563,0
45540000,45540000,6620172,487.2671,11.832727,95607.586,1.1359763,0
45636000,45600000,6620172,487.3845,11.832727,95606.26,1.1359605,0
45660000,45660000,6620172,487.53003,11.832727,95604.555,1.1359403,0
45756000,45720000,6620172,487.35162,11.832727,95606.625,1.1359649,0
45780000,45780000,6620172,487.3845,11.832727,95606.266,1.1359606,0
45876000,45840000,6620172,487.32346,11.832727,95606.9,1.1359681,0
45900000,45900000,6620172,487.3563,11.832727,95606.57,1.1359643,0
45996000,45960000,6620172,487.3798,11.832727,95606.3,1.1359609,0
46020000,46020000,6620172,487.10748,11.832727,95609.38,1.1359977,0
46116000,46080000,6620172,487.31876,11.832727,95606.99,1.1359692,0
46140000,46140000,6620172,487.24362,11.832727,95607.85,1.1359794,0
46236000,46200000,6620172,487.41733,11.832727,95605.89,1.135956,0
46260000,46260000,6620172,487.361,11.832727,95606.516,1.1359636,0
46356000,46320000,6620172,487.41733,11.832727,95605.84,1.1359556,0
46380000,46380000,6620172,487.3704,11.832727,95606.414,1.1359624,0
46476000,46440000,6620172,487.40326,11.832727,95606.016,1.1359577,0
46500000,46500000,6620172,487.51123,11.832727,95604.76,1.1359427,0
46596000,46560000,6620172,487.361,11.832727,95606.516,1.1359636,0
46620000,46620000,6620172,487.29526,11.832727,95607.266,1.1359725,0
46716000,46679000,6620172,487.43143,11.832727,95605.695,1.1359538,0
46740000,46740000,6620172,487.4643,11.832727,95605.336,1.1359495,0
46836000,46799000,6620172,487.41733,11.832727,95605.875,1.135956,0
46860000,46860000,6620172,487.44083,11.832727,95605.59,1.1359526,0
46956000,46920000,6620172,487.34692,11.832727,95606.67,1.1359653,0
46980000,46980000,6620172,487.24362,11.832727,95607.85,1.1359794,0
47076000,47040000,6620172,487.34222,11.832727,95606.7,1.1359658,0
47100000,47100000,6620172,487.33752,11.832727,95606.766,1.1359665,0
47196000,47160000,6620172,487.3845,11.832727,95606.22,1.1359601,0
47220000,47220000,6620172,487.43143,11.832727,95605.72,1.1359541,0
47316000,47280000,6620172,487.3563,11.832727,95606.56,1.1359642,0
47340000,47340000,6620172,487.2906,11.832727,95607.31,1.1359731,0
47436000,47400000,6620172,487.361,11.832727,95606.52,1.1359637,0
47460000,47460000,6620172,487.3563,11.832727,95606.586,1.1359644,0
47556000,47519000,6620172,487.39386,11.832727,95606.125,1.1359589,0
47580000,47580000,6620172,487.3845,11.832727,95606.23,1.1359601,0
47676000,47640000,6620172,487.3751,11.832727,95606.33,1.1359613,0
47700000,47700000,6620172,487.49716,11.832727,95604.945,1.1359448,0
47796000,47759000,6620172,487.33282,11.832727,95606.81,1.1359671,0
47820000,47820000,6620172,487.29996,11.832727,95607.19,1.1359715,0
47916000,47879000,6620172,487.3798,11.832727,95606.28,1.1359608,0
47940000,47940000,6620172,487.31406,11.832727,95607.03,1.1359696,0
48036000,48000000,6620172,487.39386,11.832727,95606.17,1.1359594,0
48060000,48060000,6620172,487.33282,11.832727,95606.85,1.1359675,0
48156000,48119000,6620172,487.32812,11.832727,95606.875,1.1359679,0
48180000,48180000,6620172,487.469,11.832727,95605.26,1.1359487,0
48276000,48240000,6620172,487.40326,11.832727,95606.05,1.135958,0
48300000,48300000,6620172,487.3704,11.832727,95606.41,1.1359622,0
48396000,48360000,6620172,487.29526,11.832727,95607.25,1.1359723,0
48420000,48420000,6620172,487.30466,11.832727,95607.16,1.1359712,0
48512000,48479000,6620172,487.31406,11.832727,95607.02,1.1359696,0
48540000,48540000,6620172,487.5441,11.832727,95604.39,1.1359383,0
48636000,48600000,6620172,487.41733,11.832727,95605.89,1.135956,0
48660000,48660000,6620172,487.3845,11.832727,95606.22,1.1359601,0
48756000,48720000,6620172,487.42203,11.832727,95605.836,1.1359555,0
48776000,48776000,6620172,487.57227,11.832727,95604.11,1.135935,0
48852000,48828000,6620172,487.3657,11.832728,95606.46,1.1359628,0
48900000,48888000,6620172,487.34692,11.832727,95606.69,1.1359656,0
48972000,48946666,6620172,487.39386,11.832728,95606.125,1.1359589,0
49020000,49008000,6620172,487.39386,11.832727,95606.15,1.1359593,0
49092000,49068000,6620172,487.361,11.832728,95606.48,1.1359631,0
49140000,49128000,6620172,487.2906,11.832727,95607.33,1.1359732,0
49212000,49188000,6620172,487.39386,11.832728,95606.164,1.1359593,0
49260000,49248000,6620172,487.39386,11.832727,95606.12,1.1359588,0
49332000,49308000,6620172,487.31876,11.832728,95606.98,1.135969,0
49380000,49368000,6620172,487.33282,11.832727,95606.84,1.1359675,0
