timestamp,timestamp_sample,control_mode_flags,output_tracking_error[0],output_tracking_error[1],output_tracking_error[2],filter_fault_flags,pos_horiz_accuracy,pos_vert_accuracy,mag_test_ratio,vel_test_ratio,pos_test_ratio,hgt_test_ratio,tas_test_ratio,hagl_test_ratio,beta_test_ratio,time_slip,accel_device_id,gyro_device_id,baro_device_id,mag_device_id,gps_check_fail_flags,innovation_check_flags,solution_status_flags,reset_count_vel_ne,reset_count_vel_d,reset_count_pos_ne,reset_count_pod_d,reset_count_quat,pre_flt_fail_innov_heading,pre_flt_fail_innov_vel_horiz,pre_flt_fail_innov_vel_vert,pre_flt_fail_innov_height,pre_flt_fail_mag_field_disturbed,health_flags,timeout_flags
3340000,3260000,13488881664,0.0005642288,0.01719252,0.0014219868,0,14.172738,10.008659,nan,nan,nan,nan,0.0,0.0,0.0,0.0,1310988,1310988,6620172,197388,0,0,128,1,1,1,1,0,0,0,0,0,0,0,0
3348000,3268000,13488881664,0.00051403005,0.0050694537,0.0015638024,0,14.142143,10.0,nan,nan,nan,nan,0.0,0.0,0.0,0.0,1310988,1310988,6620172,197388,0,0,128,1,1,1,1,0,0,0,0,0,0,0,0
3356000,3276000,13488881664,0.0004681744,0.0049733846,0.0015608608,0,14.142143,10.0,nan,nan,nan,nan,0.0,0.0,0.0,0.0,1310988,1310988,6620172,197388,0,0,128,1,1,1,1,0,0,0,0,0,0,0,0
3364000,3284000,13488881664,8.5682695e-05,0.0011943387,4.4502347e-05,0,14.142143,10.0,nan,nan,nan,nan,0.0,0.0,0.0,0.0,1310988,1310988,6620172,197388,0,0,128,1,1,1,1,0,0,0,0,0,0,0,0
3372000,3292000,13488881664,0.00012735536,0.0012329749,7.545941e-05,0,14.142143,10.0,nan,nan,nan,nan,0.0,0.0,0.0,0.0,1310988,1310988,6620172,197388,0,0,128,1,1,1,1,0,0,0,0,0,0,0,0
3380000,3300000,13488881664,0.0001679776,0.0013635897,0.000106919535,0,14.142143,10.0,nan,nan,nan,nan,0.0,0.0,0.0,0.0,1310988,1310988,6620172,197388,0,0,128,1,1,1,1,0,0,0,0,0,0,0,0
3388000,3308000,13488881664,0.00020783627,0.0016474093,0.00013885506,0,14.142143,10.0,nan,nan,nan,nan,0.0,0.0,0.0,0.0,1310988,1310988,6620172,197388,0,0,128,1,1,1,1,0,0,0,0,0,0,0,0
3396000,3316000,13488881664,0.0002471171,0.0021691455,0.00017164099,0,14.142143,10.0,nan,nan,nan,nan,0.0,0.0,0.0,0.0,1310988,1310988,6620172,197388,0,0,128,1,1,1,1,0,0,0,0,0,0,0,0
3404000,3324000,13488881664,0.00028591542,0.002461856,0.00020533227,0,14.142143,10.0,nan,nan,nan,nan,0.0,0.0,0.0,0.0,1310988,1310988,6620172,197388,0,0,128,1,1,1,1,0,0,0,0,0,0,0,0
3412000,3332000,13488881664,0.00032116828,0.002721538,0.00024036177,0,14.142143,10.0,nan,nan,nan,nan,0.0,0.0,0.0,0.0,1310988,1310988,6620172,197388,0,0,128,1,1,1,1,0,0,0,0,0,0,0,0
3420000,3340000,13488881664,0.00035231473,0.0027995897,0.00027717667,0,14.142143,10.0,nan,nan,nan,nan,0.0,0.0,0.0,0.0,1310988,1310988,6620172,197388,0,0,128,1,1,1,1,0,0,0,0,0,0,0,0
3428000,3348000,13488881664,0.00038055822,0.0027882277,0.00031591931,0,14.142142,10.0,nan,nan,nan,nan,0.0,0.0,0.0,0.0,1310988,1310988,6620172,197388,0,0,128,1,1,1,1,0,0,0,0,0,0,0,0
3436000,3356000,13488881664,0.00040625225,0.0032374861,0.00035391067,0,14.142142,10.0,nan,nan,nan,nan,0.0,0.0,0.0,0.0,1310988,1310988,6620172,197388,0,0,128,1,1,1,1,0,0,0,0,0,0,0,0
3444000,3364000,13488881664,0.00035806125,0.003122674,0.00026577708,0,14.142142,10.0,nan,nan,nan,nan,0.0,0.0,0.0,0.0,1310988,1310988,6620172,197388,0,0,128,1,1,1,1,0,0,0,0,0,0,0,0
3452000,3372000,13488881664,0.00035375112,0.0029957718,0.00027711378,0,14.142142,10.0,nan,nan,nan,nan,0.0,0.0,0.0,0.0,1310988,1310988,6620172,197388,0,0,128,1,1,1,1,0,0,0,0,0,0,0,0
3460000,3380000,13488881664,0.0003474181,0.002872351,0.0002891588,0,14.142142,10.0,nan,nan,nan,nan,0.0,0.0,0.0,0.0,1310988,1310988,6620172,197388,0,0,128,1,1,1,1,0,0,0,0,0,0,0,0
3468000,3388000,13488881664,0.00033903358,0.0027522976,0.00030170742,0,14.142142,10.0,nan,nan,nan,nan,0.0,0.0,0.0,0.0,1310988,1310988,6620172,197388,0,0,128,1,1,1,1,0,0,0,0,0,0,0,0
3476000,3396000,13488881664,0.00032865093,0.0026370334,0.000314266,0,14.142142,10.0,nan,nan,nan,nan,0.0,0.0,0.0,0.0,1310988,1310988,6620172,197388,0,0,128,1,1,1,1,0,0,0,0,0,0,0,0
3484000,3404000,13488881664,0.00031628486,0.0025253969,0.00032666317,0,14.142142,10.0,nan,nan,nan,nan,0.0,0.0,0.0,0.0,1310988,1310988,6620172,197388,0,0,128,1,1,1,1,0,0,0,0,0,0,0,0
3492000,3412000,13488881664,0.0003019881,0.0024182503,0.00033887965,0,14.142143,10.0,nan,nan,nan,nan,0.0,0.0,0.0,0.0,1310988,1310988,6620172,197388,0,0,128,1,1,1,1,0,0,0,0,0,0,0,0
3500000,3420000,13488881664,0.00028642372,0.0023158642,0.00035001984,0,14.142144,10.0,nan,nan,nan,nan,0.0,0.0,0.0,0.0,1310988,1310988,6620172,197388,0,0,128,1,1,1,1,0,0,0,0,0,0,0,0
3508000,3428000,13488881664,0.00026927746,0.0022173857,0.00036065606,0,14.142145,10.0,nan,nan,nan,nan,0.0,0.0,0.0,0.0,1310988,1310988,6620172,197388,0,0,128,1,1,1,1,0,0,0,0,0,0,0,0
3516000,3436000,13488881664,0.00025072414,0.0021235612,0.00037041947,0,14.142147,10.0,nan,nan,nan,nan,0.0,0.0,0.0,0.0,1310988,1310988,6620172,197388,0,0,128,1,1,1,1,0,0,0,0,0,0,0,0
3524000,3444000,13488881664,0.00023090394,0.0020339752,0.00053653854,0,0.014084185,7.071068,nan,nan,nan,nan,0.0,0.0,0.0,0.0,1310988,1310988,6620172,197388,0,0,128,1,1,1,1,0,0,0,0,0,0,0,0
3532000,3452000,13488881664,0.00021344553,0.0019484459,0.0005250809,0,0.014295206,7.071068,nan,nan,nan,nan,0.0,0.0,0.0,0.0,1310988,1310988,6620172,197388,0,0,128,1,1,1,1,0,0,0,0,0,0,0,0
3540000,3460000,13488881664,0.00019622425,0.0018673138,0.000514628,0,0.014946785,7.071068,nan,nan,nan,nan,0.0,0.0,0.0,0.0,1310988,1310988,6620172,197388,0,0,128,1,1,1,1,0,0,0,0,0,0,0,0
3548000,3468000,13488881664,0.00017931296,0.0017894666,0.00050485216,0,0.016037988,7.071068,nan,nan,nan,nan,0.0,0.0,0.0,0.0,1310988,1310988,6620172,197388,0,0,128,1,1,1,1,0,0,0,0,0,0,0,0
3556000,3476000,13488881664,0.0020289659,0.027280562,0.0024979387,0,0.01408761,7.071067,nan,nan,nan,nan,0.0,0.0,0.0,0.0,1310988,1310988,6620172,197388,0,0,128,1,1,1,1,0,0,0,0,0,0,0,0
3564000,3484000,13488881665,0.0020211085,0.027200723,0.00263824,0,0.01408819,7.071067,nan,nan,nan,nan,0.0,0.0,0.0,0.0,1310988,1310988,6620172,197388,0,0,128,1,1,1,1,0,0,0,0,0,0,0,0
3572000,3492000,13488881665,0.00201375,0.02712229,0.0027798691,0,0.0140889045,7.071067,nan,nan,nan,nan,0.0,0.0,0.0,0.0,1310988,1310988,6620172,197388,0,0,128,1,1,1,1,0,0,0,0,0,0,0,0
3580000,3500000,13488881683,0.0025707574,0.02704503,0.0029230544,0,0.014089974,7.071067,0.01964177,nan,nan,nan,0.0,0.0,0.0,0.0,1310988,1310988,6620172,197388,0,0,129,1,1,1,1,1,0,0,0,0,0,0,0
3588000,3508000,13488881683,0.0025680414,0.026968746,0.00306768,0,0.0140916845,7.071067,0.01964177,nan,nan,nan,0.0,0.0,0.0,0.0,1310988,1310988,6620172,197388,0,0,129,1,1,1,1,1,0,0,0,0,0,0,0
3596000,3516000,13488881683,0.0025656014,0.026893964,0.003213655,0,0.014094343,7.071067,0.01964177,nan,nan,nan,0.0,0.0,0.0,0.0,1310988,1310988,6620172,197388,0,0,129,1,1,1,1,1,0,0,0,0,0,0,0
3604000,3524000,13488881683,0.0025636528,0.026819985,0.0033611206,0,0.01409848,7.071067,0.01964177,nan,nan,nan,0.0,0.0,0.0,0.0,1310988,1310988,6620172,197388,0,0,129,1,1,1,1,1,0,0,0,0,0,0,0
3612000,3532000,13488881683,0.0025623415,0.026746955,0.0035098314,0,0.01410499,7.071067,0.01964177,nan,nan,nan,0.0,0.0,0.0,0.0,1310988,1310988,6620172,197388,0,0,129,1,1,1,1,1,0,0,0,0,0,0,0
3620000,3540000,13488881683,0.0025614577,0.026675174,0.0036597261,0,0.014115132,7.071067,0.01964177,nan,nan,nan,0.0,0.0,0.0,0.0,1310988,1310988,6620172,197388,0,0,129,1,1,1,1,1,0,0,0,0,0,0,0
3628000,3548000,13488881683,0.0025609308,0.026604692,0.0038110155,0,0.014130517,7.071067,0.01964177,nan,nan,nan,0.0,0.0,0.0,0.0,1310988,1310988,6620172,197388,0,0,129,1,1,1,1,1,0,0,0,0,0,0,0
3636000,3556000,13488881683,0.002560742,0.026535237,0.003963355,0,0.014153108,7.071067,0.01964177,nan,nan,nan,0.0,0.0,0.0,0.0,1310988,1310988,6620172,197388,0,0,129,1,1,1,1,1,0,0,0,0,0,0,0
3644000,3564000,13488881683,0.0024845612,0.025702454,0.004107058,0,0.0141852,7.071067,0.01964177,nan,nan,nan,0.0,0.0,0.0,0.0,1310988,1310988,6620172,197388,0,0,129,1,1,1,1,1,0,0,0,0,0,0,0
3652000,3572000,13488881683,0.0021621576,0.024893304,0.0042389366,0,0.014229411,7.071067,0.005254359,nan,nan,nan,0.0,0.0,0.0,0.0,1310988,1310988,6620172,197388,0,0,129,1,1,1,1,1,0,0,0,0,0,0,0
3660000,3580000,13488881683,0.0020810931,0.024106978,0.0043595834,0,0.014288639,7.071067,0.005254359,nan,nan,nan,0.0,0.0,0.0,0.0,1310988,1310988,6620172,197388,0,0,129,1,1,1,1,1,0,0,0,0,0,0,0
3668000,3588000,13488881683,0.0019525113,0.023343125,0.0044691307,0,0.014366055,7.071067,0.005254359,nan,nan,nan,0.0,0.0,0.0,0.0,1310988,1310988,6620172,197388,0,0,129,1,1,1,1,1,0,0,0,0,0,0,0
3676000,3596000,13488881683,0.0018241287,0.022600643,0.0045681656,0,0.014465057,7.071067,0.005254359,nan,nan,nan,0.0,0.0,0.0,0.0,1310988,1310988,6620172,197388,0,0,129,1,1,1,1,1,0,0,0,0,0,0,0
3684000,3604000,13488881683,0.001695898,0.0218789,0.004656885,0,0.014589233,7.071067,0.005254359,nan,nan,nan,0.0,0.0,0.0,0.0,1310988,1310988,6620172,197388,0,0,129,1,1,1,1,1,0,0,0,0,0,0,0
3692000,3612000,13488881683,0.0015677562,0.021177089,0.004735848,0,0.014742264,7.071067,0.005254359,nan,nan,nan,0.0,0.0,0.0,0.0,1310988,1310988,6620172,197388,0,0,129,1,1,1,1,1,0,0,0,0,0,0,0
3700000,3620000,13488881683,0.0014398319,0.02049463,0.004804826,0,0.014927873,7.071067,0.005254359,nan,nan,nan,0.0,0.0,0.0,0.0,1310988,1310988,6620172,197388,0,0,129,1,1,1,1,1,0,0,0,0,0,0,0
3708000,3628000,13488881683,0.0013120201,0.019830653,0.004864553,0,0.01514976,7.071067,0.005254359,nan,nan,nan,0.0,0.0,0.0,0.0,1310988,1310988,6620172,197388,0,0,129,1,1,1,1,1,0,0,0,0,0,0,0
3716000,3636000,13488881683,0.0011842839,0.019185178,0.004914905,0,0.015411508,7.071067,0.005254359,nan,nan,nan,0.0,0.0,0.0,0.0,1310988,1310988,6620172,197388,0,0,129,1,1,1,1,1,0,0,0,0,0,0,0
3724000,3644000,13488881683,0.0011517804,0.018557182,0.004956841,0,0.015716571,7.071067,0.0022872547,nan,nan,nan,0.0,0.0,0.0,0.0,1310988,1310988,6620172,197388,0,0,129,1,1,1,1,1,0,0,0,0,0,0,0
3732000,3652000,13488881683,0.0010567891,0.017964955,0.00483882,0,0.010615934,5.7735023,0.0022872547,nan,nan,nan,0.0,0.0,0.0,0.0,1310988,1310988,6620172,197388,0,0,129,1,1,1,1,1,0,0,0,0,0,0,0
3740000,3660000,13488881683,0.0009491272,0.017370937,0.004869431,0,0.010894293,5.7735023,0.0022872547,nan,nan,nan,0.0,0.0,0.0,0.0,1310988,1310988,6620172,197388,0,0,129,1,1,1,1,1,0,0,0,0,0,0,0
3748000,3668000,13488881683,0.00084513595,0.016793126,0.004892073,0,0.011235062,5.7735023,0.0022872547,nan,nan,nan,0.0,0.0,0.0,0.0,1310988,1310988,6620172,197388,0,0,129,1,1,1,1,1,0,0,0,0,0,0,0
3756000,3676000,13488881683,0.0007479057,0.01623098,0.0049079503,0,0.01164091,5.7735023,0.0022872547,nan,nan,nan,0.0,0.0,0.0,0.0,1310988,1310988,6620172,197388,0,0,129,1,1,1,1,1,0,0,0,0,0,0,0
3764000,3684000,13488881683,0.0006935362,0.015801087,0.004925834,0,0.011901679,5.7735023,0.0022872547,nan,nan,nan,0.0,0.0,0.0,0.0,1310988,1310988,6620172,197388,0,0,129,1,1,1,1,1,0,0,0,0,0,0,0
3772000,3692000,13488881683,0.00060925126,0.0152682215,0.004928884,0,0.012391552,5.7735023,0.0022872547,nan,nan,nan,0.0,0.0,0.0,0.0,1310988,1310988,6620172,197388,0,0,129,1,1,1,1,1,0,0,0,0,0,0,0
3780000,3700000,13488881683,0.0005313901,0.0147498045,0.0049256464,0,0.012944687,5.7735023,0.0022872547,nan,nan,nan,0.0,0.0,0.0,0.0,1310988,1310988,6620172,197388,0,0,129,1,1,1,1,1,0,0,0,0,0,0,0
3788000,3708000,13488881683,0.00045986281,0.014245415,0.0049165576,0,0.013561035,5.7735023,0.0022872547,nan,nan,nan,0.0,0.0,0.0,0.0,1310988,1310988,6620172,197388,0,0,129,1,1,1,1,1,0,0,0,0,0,0,0
3796000,3716000,13488881683,0.00041739893,0.013754742,0.0049024187,0,0.014240136,5.7735023,0.000532471,nan,nan,nan,0.0,0.0,0.0,0.0,1310988,1310988,6620172,197388,0,0,129,1,1,1,1,1,0,0,0,0,0,0,0
3804000,3724000,13488881683,0.00035930067,0.013277463,0.004882858,0,0.01498118,5.7735023,0.000532471,nan,nan,nan,0.0,0.0,0.0,0.0,1310988,1310988,6620172,197388,0,0,129,1,1,1,1,1,0,0,0,0,0,0,0
3812000,3732000,13488881683,0.0003022262,0.012813217,0.0048586912,0,0.015783114,5.7735023,0.000532471,nan,nan,nan,0.0,0.0,0.0,0.0,1310988,1310988,6620172,197388,0,0,129,1,1,1,1,1,0,0,0,0,0,0,0
3820000,3740000,13488881683,0.00024983307,0.012361532,0.0048297667,0,0.016644735,5.7735023,0.000532471,nan,nan,nan,0.0,0.0,0.0,0.0,1310988,1310988,6620172,197388,0,0,129,1,1,1,1,1,0,0,0,0,0,0,0
3828000,3748000,13488881683,0.000202941,0.011922252,0.0047966675,0,0.017564872,5.7735023,0.000532471,nan,nan,nan,0.0,0.0,0.0,0.0,1310988,1310988,6620172,197388,0,0,129,1,1,1,1,1,0,0,0,0,0,0,0
3836000,3756000,13488881683,0.00016139331,0.011495062,0.004759755,0,0.018542418,5.7735023,0.000532471,nan,nan,nan,0.0,0.0,0.0,0.0,1310988,1310988,6620172,197388,0,0,129,1,1,1,1,1,0,0,0,0,0,0,0
3844000,3764000,13488881683,0.00012466301,0.011079836,0.0047190865,0,0.019576246,5.7735023,0.000532471,nan,nan,nan,0.0,0.0,0.0,0.0,1310988,1310988,6620172,197388,0,0,129,1,1,1,1,1,0,0,0,0,0,0,0
3852000,3772000,13488881683,9.110655e-05,0.010674361,0.0046749176,0,0.020665316,5.7735023,0.000532471,nan,nan,nan,0.0,0.0,0.0,0.0,1310988,1310988,6620172,197388,0,0,129,1,1,1,1,1,0,0,0,0,0,0,0
3860000,3780000,13488881683,6.264661e-05,0.01028021,0.004627518,0,0.021808693,5.7735023,0.000532471,nan,nan,nan,0.0,0.0,0.0,0.0,1310988,1310988,6620172,197388,0,0,129,1,1,1,1,1,0,0,0,0,0,0,0
3868000,3788000,13488881683,0.0024328125,0.009901034,0.004577343,0,0.023005534,5.7735023,0.04070947,nan,nan,nan,0.0,0.0,0.0,0.0,1310988,1310988,6620172,197388,0,0,129,1,1,1,1,1,0,0,0,0,0,0,0
3876000,3796000,13488881683,0.0024500503,0.00952889,0.0045238496,0,0.024255136,5.7735023,0.04070947,nan,nan,nan,0.0,0.0,0.0,0.0,1310988,1310988,6620172,197388,0,0,129,1,1,1,1,1,0,0,0,0,0,0,0
3884000,3804000,13488881683,0.002467371,0.009167343,0.0044679926,0,0.02555694,5.7735023,0.04070947,nan,nan,nan,0.0,0.0,0.0,0.0,1310988,1310988,6620172,197388,0,0,129,1,1,1,1,1,0,0,0,0,0,0,0
3892000,3812000,13488881683,0.0024828748,0.008816196,0.0044098846,0,0.02691049,5.7735023,0.04070947,nan,nan,nan,0.0,0.0,0.0,0.0,1310988,1310988,6620172,197388,0,0,129,1,1,1,1,1,0,0,0,0,0,0,0
3900000,3820000,13488881683,0.0024968826,0.008475142,0.0043491083,0,0.028315283,5.7735023,0.04070947,nan,nan,nan,0.0,0.0,0.0,0.0,1310988,1310988,6620172,197388,0,0,129,1,1,1,1,1,0,0,0,0,0,0,0
3908000,3828000,13488881683,0.002509132,0.008143835,0.0042865104,0,0.029771017,5.7735033,0.04070947,nan,nan,nan,0.0,0.0,0.0,0.0,1310988,1310988,6620172,197388,0,0,129,1,1,1,1,1,0,0,0,0,0,0,0
3916000,3836000,13488881683,0.0025201405,0.007822051,0.004222068,0,0.03127754,5.773504,0.04070947,nan,nan,nan,0.0,0.0,0.0,0.0,1310988,1310988,6620172,197388,0,0,129,1,1,1,1,1,0,0,0,0,0,0,0
3924000,3844000,13488881683,0.0025297783,0.0075095766,0.0041558067,0,0.032834698,5.7735047,0.04070947,nan,nan,nan,0.0,0.0,0.0,0.0,1310988,1310988,6620172,197388,0,0,129,1,1,1,1,1,0,0,0,0,0,0,0
3932000,3852000,13488881683,0.0025380389,0.007206331,0.0040880013,0,0.03444239,5.773505,0.04070947,nan,nan,nan,0.0,0.0,0.0,0.0,1310988,1310988,6620172,197388,0,0,129,1,1,1,1,1,0,0,0,0,0,0,0
3940000,3860000,13488881683,0.0022236907,0.0073339324,0.0043805074,0,0.013167812,5.000002,0.005970191,nan,nan,nan,0.0,0.0,0.0,0.0,1310988,1310988,6620172,197388,0,0,129,1,1,1,1,1,0,0,0,0,0,0,0
3948000,3868000,13488881683,0.0022295583,0.00705172,0.00430103,0,0.0138017405,5.0000024,0.005970191,nan,nan,nan,0.0,0.0,0.0,0.0,1310988,1310988,6620172,197388,0,0,129,1,1,1,1,1,0,0,0,0,0,0,0
3956000,3876000,13488881683,0.0021098396,0.0067784595,0.0042204564,0,0.014475076,5.000003,0.005970191,nan,nan,nan,0.0,0.0,0.0,0.0,1310988,1310988,6620172,197388,0,0,129,1,1,1,1,1,0,0,0,0,0,0,0
3964000,3884000,13488881683,0.0019895434,0.006513807,0.004139282,0,0.015187524,5.0000033,0.005970191,nan,nan,nan,0.0,0.0,0.0,0.0,1310988,1310988,6620172,197388,0,0,129,1,1,1,1,1,0,0,0,0,0,0,0
3972000,3892000,13488881683,0.001890867,0.0066997716,0.004127991,0,0.015266068,5.0000033,0.005970191,nan,nan,nan,0.0,0.0,0.0,0.0,1310988,1310988,6620172,197388,0,0,129,1,1,1,1,1,0,0,0,0,0,0,0
3980000,3900000,13488881683,0.0017721518,0.0064452575,0.0040469733,0,0.015987284,5.000004,0.005970191,nan,nan,nan,0.0,0.0,0.0,0.0,1310988,1310988,6620172,197388,0,0,129,1,1,1,1,1,0,0,0,0,0,0,0
3988000,3908000,13488881683,0.0016537273,0.006199173,0.003965657,0,0.016744928,5.0000043,0.005970191,nan,nan,nan,0.0,0.0,0.0,0.0,1310988,1310988,6620172,197388,0,0,129,1,1,1,1,1,0,0,0,0,0,0,0
3996000,3916000,13488881683,0.0015357729,0.005961188,0.0038841255,0,0.017539069,5.000005,0.005970191,nan,nan,nan,0.0,0.0,0.0,0.0,1310988,1310988,6620172,197388,0,0,129,1,1,1,1,1,0,0,0,0,0,0,0
4004000,3924000,4898947603,0.0014186093,0.0057310374,0.0038026057,0,0.018369876,5.0000057,0.005970191,nan,nan,0.0049721063,0.0,0.0,0.0,0.0,1310988,1310988,6620172,197388,0,0,165,1,1,1,1,1,0,0,0,0,0,0,0
4012000,3932000,4898947603,0.0005641577,0.005506495,0.0037207438,0,0.019237543,5.000006,0.016630307,nan,nan,0.0049721063,0.0,0.0,0.0,0.0,1310988,1310988,6620172,197388,0,0,165,1,1,1,1,1,0,0,0,0,0,0,0
4020000,3940000,4898947603,0.0005181677,0.0052919206,0.0036391558,0,0.020142293,5.000007,0.016630307,nan,nan,0.0049721063,0.0,0.0,0.0,0.0,1310988,1310988,6620172,197388,0,0,165,1,1,1,1,1,0,0,0,0,0,0,0
4028000,3948000,4898947603,0.00048154008,0.005079549,0.0035577773,0,0.021084478,5.0000076,0.016630307,nan,nan,0.0049721063,0.0,0.0,0.0,0.0,1310988,1310988,6620172,197388,0,0,165,1,1,1,1,1,0,0,0,0,0,0,0
4036000,3956000,4898947603,0.00046939272,0.0048736846,0.003476248,0,0.022064451,5.0000086,0.016630307,nan,nan,0.0049721063,0.0,0.0,0.0,0.0,1310988,1310988,6620172,197388,0,0,165,1,1,1,1,1,0,0,0,0,0,0,0
4044000,3964000,4898947603,0.00048140137,0.0046742847,0.003395104,0,0.02308262,5.0000095,0.016630307,nan,nan,0.0049721063,0.0,0.0,0.0,0.0,1310988,1310988,6620172,197388,0,0,165,1,1,1,1,1,0,0,0,0,0,0,0
4052000,3972000,4898947603,0.00051211833,0.004480897,0.0033141791,0,0.024139501,5.00001,0.016630307,nan,nan,0.0049721063,0.0,0.0,0.0,0.0,1310988,1310988,6620172,197388,0,0,165,1,1,1,1,1,0,0,0,0,0,0,0
4060000,3980000,4898947603,0.0005499967,0.0042878576,0.04735321,0,0.025235552,2.8673136,0.016630307,nan,nan,0.0024636246,0.0,0.0,0.0,0.0,1310988,1310988,6620172,197388,0,0,165,1,1,1,1,1,0,0,0,0,0,0,0
4068000,3988000,4898947603,0.00059581,0.004101624,0.045815066,0,0.026371263,2.8673143,0.016630307,nan,nan,0.0024636246,0.0,0.0,0.0,0.0,1310988,1310988,6620172,197388,0,0,165,1,1,1,1,1,0,0,0,0,0,0,0
4076000,3996000,4898947603,0.00064567156,0.003920676,0.044323336,0,0.02754719,2.8673148,0.016630307,nan,nan,0.0024636246,0.0,0.0,0.0,0.0,1310988,1310988,6620172,197388,0,0,165,1,1,1,1,1,0,0,0,0,0,0,0
4084000,4004000,4898947603,0.0014713227,0.0037406576,0.042876586,0,0.028763909,2.8673155,0.015321655,nan,nan,0.0024636246,0.0,0.0,0.0,0.0,1310988,1310988,6620172,197388,0,0,165,1,1,1,1,1,0,0,0,0,0,0,0
4092000,4012000,4898947603,0.0015341359,0.003569995,0.041473646,0,0.030022006,2.8673162,0.015321655,nan,nan,0.0024636246,0.0,0.0,0.0,0.0,1310988,1310988,6620172,197388,0,0,165,1,1,1,1,1,0,0,0,0,0,0,0
4100000,4020000,4898947603,0.0015445203,0.0034043894,0.040113438,0,0.03132203,2.867317,0.015321655,nan,nan,0.0024636246,0.0,0.0,0.0,0.0,1310988,1310988,6620172,197388,0,0,165,1,1,1,1,1,0,0,0,0,0,0,0
4108000,4028000,4898947603,0.0015490117,0.0032438454,0.038794074,0,0.03266463,2.8673182,0.015321655,nan,nan,0.0024636246,0.0,0.0,0.0,0.0,1310988,1310988,6620172,197388,0,0,165,1,1,1,1,1,0,0,0,0,0,0,0
4116000,4036000,4898947603,0.0015485138,0.00308754,0.045277316,0,0.034050554,2.2180383,0.015321655,nan,nan,0.0008545637,0.0,0.0,0.0,0.0,1310988,1310988,6620172,197388,0,0,165,1,1,1,1,1,0,0,0,0,0,0,0
4124000,4044000,4898947603,0.0015427811,0.0029358154,0.043787554,0,0.035480414,2.2180393,0.015321655,nan,nan,0.0008545637,0.0,0.0,0.0,0.0,1310988,1310988,6620172,197388,0,0,165,1,1,1,1,1,0,0,0,0,0,0,0
4132000,4052000,4898947603,0.0015326854,0.0027888992,0.04234239,0,0.03695486,2.2180402,0.015321655,nan,nan,0.0008545637,0.0,0.0,0.0,0.0,1310988,1310988,6620172,197388,0,0,165,1,1,1,1,1,0,0,0,0,0,0,0
4140000,4060000,4898947603,0.0015179989,0.0026466842,0.040940784,0,0.03847468,2.2180412,0.015321655,nan,nan,0.0008545637,0.0,0.0,0.0,0.0,1310988,1310988,6620172,197388,0,0,165,1,1,1,1,1,0,0,0,0,0,0,0
4148000,4068000,4898947603,0.0018221533,0.0050023734,0.039597042,0,0.01333483,2.2180424,0.015321655,nan,nan,0.0008545637,0.0,0.0,0.0,0.0,1310988,1310988,6620172,197388,0,0,165,1,1,1,1,1,0,0,0,0,0,0,0
4156000,4076000,4898947603,0.0019687847,0.0048878277,0.038278945,0,0.013885224,2.2180438,0.0038373081,nan,nan,0.0008545637,0.0,0.0,0.0,0.0,1310988,1310988,6620172,197388,0,0,165,1,1,1,1,1,0,0,0,0,0,0,0
4164000,4084000,4898947603,0.0019435651,0.004778389,0.037000783,0,0.014478642,2.218045,0.0038373081,nan,nan,0.0008545637,0.0,0.0,0.0,0.0,1310988,1310988,6620172,197388,0,0,165,1,1,1,1,1,0,0,0,0,0,0,0
4172000,4092000,4898947603,0.001879753,0.00467393,0.029456254,0,0.015115996,1.873514,0.0038373081,nan,nan,0.0010629351,0.0,0.0,0.0,0.0,1310988,1310988,6620172,197388,0,0,165,1,1,1,1,1,0,0,0,0,0,0,0
4180000,4100000,4898947603,0.0019350736,0.0053012385,0.028354352,0,0.015218152,1.8735148,0.0038373081,nan,nan,0.0010629351,0.0,0.0,0.0,0.0,1310988,1310988,6620172,197388,0,0,165,1,1,1,1,1,0,0,0,0,0,0,0
4188000,4108000,4898947603,0.0018757868,0.0051825955,0.027379965,0,0.015872434,1.8735162,0.0038373081,nan,nan,0.0010629351,0.0,0.0,0.0,0.0,1310988,1310988,6620172,197388,0,0,165,1,1,1,1,1,0,0,0,0,0,0,0
4196000,4116000,4898947603,0.0018182438,0.0050688144,0.0264357,0,0.016569156,1.8735179,0.0038373081,nan,nan,0.0010629351,0.0,0.0,0.0,0.0,1310988,1310988,6620172,197388,0,0,165,1,1,1,1,1,0,0,0,0,0,0,0
4204000,4124000,4898947603,0.0017628304,0.004960521,0.025519941,0,0.017309032,1.8735195,0.0038373081,nan,nan,0.0010629351,0.0,0.0,0.0,0.0,1310988,1310988,6620172,197388,0,0,165,1,1,1,1,1,0,0,0,0,0,0,0
4212000,4132000,4898947603,0.0017097486,0.004857221,0.024632026,0,0.018092746,1.8735214,0.0038373081,nan,nan,0.0010629351,0.0,0.0,0.0,0.0,1310988,1310988,6620172,197388,0,0,165,1,1,1,1,1,0,0,0,0,0,0,0
4220000,4140000,4898947603,0.0016595616,0.004758775,0.023771437,0,0.01892085,1.8735234,0.0038373081,nan,nan,0.0010629351,0.0,0.0,0.0,0.0,1310988,1310988,6620172,197388,0,0,165,1,1,1,1,1,0,0,0,0,0,0,0
4228000,4148000,4898947603,0.0015537367,0.004666683,0.017212722,0,0.019793943,1.6517648,0.0017889439,nan,nan,0.0012978009,0.0,0.0,0.0,0.0,1310988,1310988,6620172,197388,0,0,165,1,1,1,1,1,0,0,0,0,0,0,0
4236000,4156000,4898947603,0.0014694155,0.0045724036,0.016588252,0,0.02071258,1.6517668,0.0017889439,nan,nan,0.0012978009,0.0,0.0,0.0,0.0,1310988,1310988,6620172,197388,0,0,165,1,1,1,1,1,0,0,0,0,0,0,0
4244000,4164000,4898947603,0.0013806666,0.0044788234,0.015983252,0,0.021677276,1.651769,0.0017889439,nan,nan,0.0012978009,0.0,0.0,0.0,0.0,1310988,1310988,6620172,197388,0,0,165,1,1,1,1,1,0,0,0,0,0,0,0
4252000,4172000,4898947603,0.001294084,0.0043857167,0.015396933,0,0.0226884,1.6517714,0.0017889439,nan,nan,0.0012978009,0.0,0.0,0.0,0.0,1310988,1310988,6620172,197388,0,0,165,1,1,1,1,1,0,0,0,0,0,0,0
4260000,4180000,4898947603,0.0012111046,0.0042934413,0.01482892,0,0.023746444,1.6517739,0.0017889439,nan,nan,0.0012978009,0.0,0.0,0.0,0.0,1310988,1310988,6620172,197388,0,0,165,1,1,1,1,1,0,0,0,0,0,0,0
4268000,4188000,4898947603,0.0011204572,0.0042003924,0.01427877,0,0.024851914,1.6517767,0.0017889439,nan,nan,0.0012978009,0.0,0.0,0.0,0.0,1310988,1310988,6620172,197388,0,0,165,1,1,1,1,1,0,0,0,0,0,0,0
4276000,4196000,4898947603,0.0010328426,0.004107401,0.013746054,0,0.026005158,1.6517797,0.0017889439,nan,nan,0.0012978009,0.0,0.0,0.0,0.0,1310988,1310988,6620172,197388,0,0,165,1,1,1,1,1,0,0,0,0,0,0,0
4284000,4204000,4898947603,0.00094809657,0.004014989,0.013230198,0,0.027206734,1.6517828,0.0017889439,nan,nan,0.0012978009,0.0,0.0,0.0,0.0,1310988,1310988,6620172,197388,0,0,165,1,1,1,1,1,0,0,0,0,0,0,0
4292000,4212000,4898947603,0.0008661649,0.003922496,0.008945316,0,0.028457033,1.4937887,0.0017889439,nan,nan,0.001082295,0.0,0.0,0.0,0.0,1310988,1310988,6620172,197388,0,0,165,1,1,1,1,1,0,0,0,0,0,0,0
4300000,4220000,4898947603,0.000971644,0.003836481,0.008585419,0,0.029756567,1.493792,0.018309096,nan,nan,0.001082295,0.0,0.0,0.0,0.0,1310988,1310988,6620172,197388,0,0,165,1,1,1,1,1,0,0,0,0,0,0,0
4308000,4228000,4898947603,0.0009697155,0.0037434634,0.008237185,0,0.031105755,1.4937954,0.018309096,nan,nan,0.001082295,0.0,0.0,0.0,0.0,1310988,1310988,6620172,197388,0,0,165,1,1,1,1,1,0,0,0,0,0,0,0
4316000,4236000,4898947603,0.0009684662,0.003650276,0.007900576,0,0.032504994,1.4937991,0.018309096,nan,nan,0.001082295,0.0,0.0,0.0,0.0,1310988,1310988,6620172,197388,0,0,165,1,1,1,1,1,0,0,0,0,0,0,0
4324000,4244000,4898947603,0.0009717911,0.0035574764,0.0075750574,0,0.03395468,1.493803,0.018309096,nan,nan,0.001082295,0.0,0.0,0.0,0.0,1310988,1310988,6620172,197388,0,0,165,1,1,1,1,1,0,0,0,0,0,0,0
4332000,4252000,4898947603,0.0009784213,0.003465179,0.0072603114,0,0.035455324,1.4938072,0.018309096,nan,nan,0.001082295,0.0,0.0,0.0,0.0,1310988,1310988,6620172,197388,0,0,165,1,1,1,1,1,0,0,0,0,0,0,0
4340000,4260000,4898947603,0.0009874223,0.0033726161,0.00695609,0,0.037007425,1.4938116,0.018309096,nan,nan,0.001082295,0.0,0.0,0.0,0.0,1310988,1310988,6620172,197388,0,0,165,1,1,1,1,1,0,0,0,0,0,0,0
4348000,4268000,4898947603,0.0009978783,0.003280804,0.015099452,0,0.038611576,1.373911,0.018309096,nan,nan,0.007362223,0.0,0.0,0.0,0.0,1310988,1310988,6620172,197388,0,0,165,1,1,1,1,1,0,0,0,0,0,0,0
4356000,4276000,4898947603,0.0016934199,0.0062053334,0.014758119,0,0.013343174,1.3739157,0.018309096,nan,nan,0.007362223,0.0,0.0,0.0,0.0,1310988,1310988,6620172,197388,0,0,165,1,1,1,1,1,0,0,0,0,0,0,0
4364000,4284000,4898947603,0.001681184,0.0060974993,0.0143661685,0,0.013924475,1.3739204,0.018309096,nan,nan,0.007362223,0.0,0.0,0.0,0.0,1310988,1310988,6620172,197388,0,0,165,1,1,1,1,1,0,0,0,0,0,0,0
4372000,4292000,4898947603,0.0014489957,0.0059890416,0.013984854,0,0.014553231,1.3739256,0.008947159,nan,nan,0.007362223,0.0,0.0,0.0,0.0,1310988,1310988,6620172,197388,0,0,165,1,1,1,1,1,0,0,0,0,0,0,0
4380000,4300000,4898947603,0.0014307315,0.005883241,0.0136132,0,0.0152293835,1.3739309,0.008947159,nan,nan,0.007362223,0.0,0.0,0.0,0.0,1310988,1310988,6620172,197388,0,0,165,1,1,1,1,1,0,0,0,0,0,0,0
4388000,4308000,4898947603,0.0015307477,0.006242515,0.013597979,0,0.015277305,1.3739295,0.008947159,nan,nan,0.007362223,0.0,0.0,0.0,0.0,1310988,1310988,6620172,197388,0,0,165,1,1,1,1,1,0,0,0,0,0,0,0
4396000,4316000,4898947603,0.0014998976,0.0061128093,0.009743568,0,0.015963234,1.2789243,0.008947159,nan,nan,0.0014157566,0.0,0.0,0.0,0.0,1310988,1310988,6620172,197388,0,0,165,1,1,1,1,1,0,0,0,0,0,0,0
4404000,4324000,4898947603,0.0014716866,0.005987413,0.009518922,0,0.016692473,1.2789296,0.008947159,nan,nan,0.0014157566,0.0,0.0,0.0,0.0,1310988,1310988,6620172,197388,0,0,165,1,1,1,1,1,0,0,0,0,0,0,0
4412000,4332000,4898947603,0.0014462329,0.0058652256,0.009300191,0,0.017465025,1.2789351,0.008947159,nan,nan,0.0014157566,0.0,0.0,0.0,0.0,1310988,1310988,6620172,197388,0,0,165,1,1,1,1,1,0,0,0,0,0,0,0
4420000,4340000,4898947603,0.001423815,0.0057465867,0.009086883,0,0.018280746,1.2789409,0.008947159,nan,nan,0.0014157566,0.0,0.0,0.0,0.0,1310988,1310988,6620172,197388,0,0,165,1,1,1,1,1,0,0,0,0,0,0,0
4428000,4348000,4898947603,0.0014046744,0.005631679,0.008879117,0,0.019139515,1.2789471,0.008947159,nan,nan,0.0014157566,0.0,0.0,0.0,0.0,1310988,1310988,6620172,197388,0,0,165,1,1,1,1,1,0,0,0,0,0,0,0
4436000,4356000,4898947603,0.0013889265,0.0055204416,0.008676778,0,0.020041218,1.2789536,0.008947159,nan,nan,0.0014157566,0.0,0.0,0.0,0.0,1310988,1310988,6620172,197388,0,0,165,1,1,1,1,1,0,0,0,0,0,0,0
4444000,4364000,4898947603,0.0027858699,0.005406945,0.008479101,0,0.020985717,1.2789603,0.05274188,nan,nan,0.0014157566,0.0,0.0,0.0,0.0,1310988,1310988,6620172,197388,0,0,165,1,1,1,1,1,0,0,0,0,0,0,0
4452000,4372000,4898947603,0.0028077888,0.0053011244,0.008286637,0,0.021972872,1.2789674,0.05274188,nan,nan,0.0014157566,0.0,0.0,0.0,0.0,1310988,1310988,6620172,197388,0,0,165,1,1,1,1,1,0,0,0,0,0,0,0
4460000,4380000,4898947603,0.0028116715,0.005193689,0.0022512162,0,0.023002658,1.201282,0.05274188,nan,nan,0.004208772,0.0,0.0,0.0,0.0,1310988,1310988,6620172,197388,0,0,165,1,1,1,1,1,0,0,0,0,0,0,0
4468000,4388000,4898947603,0.002818979,0.0050862445,0.0021794136,0,0.024075016,1.2012893,0.05274188,nan,nan,0.004208772,0.0,0.0,0.0,0.0,1310988,1310988,6620172,197388,0,0,165,1,1,1,1,1,0,0,0,0,0,0,0
4476000,4396000,4898947603,0.0028237572,0.004977697,0.0021126736,0,0.025189864,1.2012969,0.05274188,nan,nan,0.004208772,0.0,0.0,0.0,0.0,1310988,1310988,6620172,197388,0,0,165,1,1,1,1,1,0,0,0,0,0,0,0
4484000,4404000,4898947603,0.0028292623,0.004868014,0.0020508936,0,0.026347205,1.201305,0.05274188,nan,nan,0.004208772,0.0,0.0,0.0,0.0,1310988,1310988,6620172,197388,0,0,165,1,1,1,1,1,0,0,0,0,0,0,0
4492000,4412000,4898947603,0.0028355075,0.004757757,0.001993542,0,0.027547078,1.2013135,0.05274188,nan,nan,0.004208772,0.0,0.0,0.0,0.0,1310988,1310988,6620172,197388,0,0,165,1,1,1,1,1,0,0,0,0,0,0,0
4500000,4420000,4898947603,0.0028420547,0.004646763,0.0019403312,0,0.0287896,1.2013223,0.05274188,nan,nan,0.004208772,0.0,0.0,0.0,0.0,1310988,1310988,6620172,197388,0,0,165,1,1,1,1,1,0,0,0,0,0,0,0
4508000,4428000,4898947603,0.0028485046,0.0045343568,0.0018910473,0,0.030074796,1.2013315,0.05274188,nan,nan,0.004208772,0.0,0.0,0.0,0.0,1310988,1310988,6620172,197388,0,0,165,1,1,1,1,1,0,0,0,0,0,0,0
4516000,4436000,4898947603,0.0026617874,0.004422942,0.002575363,0,0.031402647,1.13627,0.003913956,nan,nan,0.0006443052,0.0,0.0,0.0,0.0,1310988,1310988,6620172,197388,0,0,165,1,1,1,1,1,0,0,0,0,0,0,0
4524000,4444000,4898947603,0.0026657265,0.004310025,0.002474973,0,0.0327733,1.1362795,0.003913956,nan,nan,0.0006443052,0.0,0.0,0.0,0.0,1310988,1310988,6620172,197388,0,0,165,1,1,1,1,1,0,0,0,0,0,0,0
4532000,4452000,4898947603,0.0025300188,0.004196967,0.0023794165,0,0.034186907,1.1362895,0.003913956,nan,nan,0.0006443052,0.0,0.0,0.0,0.0,1310988,1310988,6620172,197388,0,0,165,1,1,1,1,1,0,0,0,0,0,0,0
4540000,4460000,4898947603,0.0023928026,0.0040838746,0.0022886223,0,0.035643607,1.1362997,0.003913956,nan,nan,0.0006443052,0.0,0.0,0.0,0.0,1310988,1310988,6620172,197388,0,0,165,1,1,1,1,1,0,0,0,0,0,0,0
4548000,4468000,4898947603,0.0022547483,0.0039706845,0.0022024405,0,0.037143655,1.1363106,0.003913956,nan,nan,0.0006443052,0.0,0.0,0.0,0.0,1310988,1310988,6620172,197388,0,0,165,1,1,1,1,1,0,0,0,0,0,0,0
4556000,4476000,4898947603,0.0021161933,0.003858406,0.0021204238,0,0.038687233,1.1363218,0.003913956,nan,nan,0.0006443052,0.0,0.0,0.0,0.0,1310988,1310988,6620172,197388,0,0,165,1,1,1,1,1,0,0,0,0,0,0,0
4564000,4484000,4898947603,0.0022435808,0.0060598934,0.0024470105,0,0.01334341,1.1363335,0.003913956,nan,nan,0.0006443052,0.0,0.0,0.0,0.0,1310988,1310988,6620172,197388,0,0,165,1,1,1,1,1,0,0,0,0,0,0,0
4572000,4492000,4898947603,0.002106742,0.005924928,0.0023849015,0,0.013894503,1.1363456,0.003913956,nan,nan,0.0006443052,0.0,0.0,0.0,0.0,1310988,1310988,6620172,197388,0,0,165,1,1,1,1,1,0,0,0,0,0,0,0
4580000,4500000,4898947603,0.0019709398,0.0057913335,0.0023877602,0,0.014481301,1.080819,0.003913956,nan,nan,0.0012676124,0.0,0.0,0.0,0.0,1310988,1310988,6620172,197388,0,0,165,1,1,1,1,1,0,0,0,0,0,0,0
4588000,4508000,4898947603,0.0020016658,0.005659922,0.0023824442,0,0.015103481,1.0808315,0.0037508642,nan,nan,0.0012676124,0.0,0.0,0.0,0.0,1310988,1310988,6620172,197388,0,0,165,1,1,1,1,1,0,0,0,0,0,0,0
4596000,4516000,4898947603,0.0019049834,0.0059365714,0.002788802,0,0.0151843205,1.0808158,0.0037508642,nan,nan,0.0012676124,0.0,0.0,0.0,0.0,1310988,1310988,6620172,197388,0,0,165,1,1,1,1,1,0,0,0,0,0,0,0
4604000,4524000,4898947603,0.001783319,0.0057684393,0.0027865868,0,0.015816653,1.0808274,0.0037508642,nan,nan,0.0012676124,0.0,0.0,0.0,0.0,1310988,1310988,6620172,197388,0,0,165,1,1,1,1,1,0,0,0,0,0,0,0
4612000,4532000,4898947603,0.0016638661,0.0056044864,0.0027838724,0,0.01648142,1.0808394,0.0037508642,nan,nan,0.0012676124,0.0,0.0,0.0,0.0,1310988,1310988,6620172,197388,0,0,165,1,1,1,1,1,0,0,0,0,0,0,0
4620000,4540000,4898947603,0.0015533331,0.0054445495,0.002780111,0,0.017178442,1.0808519,0.0037508642,nan,nan,0.0012676124,0.0,0.0,0.0,0.0,1310988,1310988,6620172,197388,0,0,165,1,1,1,1,1,0,0,0,0,0,0,0
4628000,4548000,4898947603,0.0014520414,0.005288563,0.0027758754,0,0.017907497,1.0808648,0.0037508642,nan,nan,0.0012676124,0.0,0.0,0.0,0.0,1310988,1310988,6620172,197388,0,0,165,1,1,1,1,1,0,0,0,0,0,0,0
4636000,4556000,4898947603,0.0013600719,0.0051390314,0.0077378256,0,0.018668296,1.0327522,0.0037508642,nan,nan,0.0034723766,0.0,0.0,0.0,0.0,1310988,1310988,6620172,197388,0,0,165,1,1,1,1,1,0,0,0,0,0,0,0
4644000,4564000,4898947603,0.0012775032,0.004991897,0.0075713866,0,0.019460637,1.0327654,0.0037508642,nan,nan,0.0034723766,0.0,0.0,0.0,0.0,1310988,1310988,6620172,197388,0,0,165,1,1,1,1,1,0,0,0,0,0,0,0
4652000,4572000,4898947603,0.0011713404,0.004852693,0.007409049,0,0.020284403,1.0327792,0.0037508642,nan,nan,0.0034723766,0.0,0.0,0.0,0.0,1310988,1310988,6620172,197388,0,0,165,1,1,1,1,1,0,0,0,0,0,0,0
4660000,4580000,4898947603,0.0009916784,0.004714679,0.007250266,0,0.021139354,1.0327935,0.0024921373,nan,nan,0.0034723766,0.0,0.0,0.0,0.0,1310988,1310988,6620172,197388,0,0,165,1,1,1,1,1,0,0,0,0,0,0,0
4668000,4588000,4898947603,0.0009028267,0.004577922,0.0070952065,0,0.022025337,1.0328083,0.0024921373,nan,nan,0.0034723766,0.0,0.0,0.0,0.0,1310988,1310988,6620172,197388,0,0,165,1,1,1,1,1,0,0,0,0,0,0,0
4676000,4596000,4898947603,0.0008158255,0.004442373,0.0069440836,0,0.02294227,1.0328237,0.0024921373,nan,nan,0.0034723766,0.0,0.0,0.0,0.0,1310988,1310988,6620172,197388,0,0,165,1,1,1,1,1,0,0,0,0,0,0,0
4684000,4604000,4898947603,0.0007329417,0.004306554,0.0067955004,0,0.02389,1.0328397,0.0024921373,nan,nan,0.0034723766,0.0,0.0,0.0,0.0,1310988,1310988,6620172,197388,0,0,165,1,1,1,1,1,0,0,0,0,0,0,0
4692000,4612000,4898947603,0.00065721426,0.004172405,0.006649773,0,0.024868444,1.032856,0.0024921373,nan,nan,0.0034723766,0.0,0.0,0.0,0.0,1310988,1310988,6620172,197388,0,0,165,1,1,1,1,1,0,0,0,0,0,0,0
4700000,4620000,4898947603,0.00058840483,0.004041755,0.011507006,0,0.025877582,0.9906371,0.0024921373,nan,nan,0.0034979566,0.0,0.0,0.0,0.0,1310988,1310988,6620172,197388,0,0,165,1,1,1,1,1,0,0,0,0,0,0,0
4708000,4628000,4898947603,0.0005262946,0.003911804,0.011203692,0,0.026917377,0.99065393,0.0024921373,nan,nan,0.0034979566,0.0,0.0,0.0,0.0,1310988,1310988,6620172,197388,0,0,165,1,1,1,1,1,0,0,0,0,0,0,0
4716000,4636000,4898947603,0.0004705224,0.0037839748,0.010907817,0,0.027987843,0.99067134,0.0024921373,nan,nan,0.0034979566,0.0,0.0,0.0,0.0,1310988,1310988,6620172,197388,0,0,165,1,1,1,1,1,0,0,0,0,0,0,0
4724000,4644000,4898947603,0.00042085885,0.0036579042,0.010619243,0,0.029088914,0.99068934,0.0024921373,nan,nan,0.0034979566,0.0,0.0,0.0,0.0,1310988,1310988,6620172,197388,0,0,165,1,1,1,1,1,0,0,0,0,0,0,0
4732000,4652000,4898947603,0.00041997238,0.0035339468,0.0103376405,0,0.030220646,0.99070793,0.0042018755,nan,nan,0.0034979566,0.0,0.0,0.0,0.0,1310988,1310988,6620172,197388,0,0,165,1,1,1,1,1,0,0,0,0,0,0,0
4740000,4660000,4898947603,0.0003647676,0.0034127135,0.010062949,0,0.03138301,0.9907271,0.0042018755,nan,nan,0.0034979566,0.0,0.0,0.0,0.0,1310988,1310988,6620172,197388,0,0,165,1,1,1,1,1,0,0,0,0,0,0,0
4748000,4668000,4898947603,0.00031724022,0.0032939739,0.009794766,0,0.032576095,0.9907469,0.0042018755,nan,nan,0.0034979566,0.0,0.0,0.0,0.0,1310988,1310988,6620172,197388,0,0,165,1,1,1,1,1,0,0,0,0,0,0,0
4756000,4676000,4898947603,0.00027395177,0.0031773155,0.01322626,0,0.033799913,0.953308,0.0042018755,nan,nan,0.0027661035,0.0,0.0,0.0,0.0,1310988,1310988,6620172,197388,0,0,165,1,1,1,1,1,0,0,0,0,0,0,0
4764000,4684000,4898947603,0.00023460627,0.0030641719,0.01285203,0,0.03505471,0.9533283,0.0042018755,nan,nan,0.0027661035,0.0,0.0,0.0,0.0,1310988,1310988,6620172,197388,0,0,165,1,1,1,1,1,0,0,0,0,0,0,0
4772000,4692000,4898947603,0.00058327225,0.004057252,0.012520424,0,0.013179348,0.95334923,0.0042018755,nan,nan,0.0027661035,0.0,0.0,0.0,0.0,1310988,1310988,6620172,197388,0,0,165,1,1,1,1,1,0,0,0,0,0,0,0
4780000,4700000,4898947603,0.0005596269,0.003932295,0.012165674,0,0.01366399,0.9533709,0.0042018755,nan,nan,0.0027661035,0.0,0.0,0.0,0.0,1310988,1310988,6620172,197388,0,0,165,1,1,1,1,1,0,0,0,0,0,0,0
4788000,4708000,4898947603,0.0005388549,0.0038110109,0.01182001,0,0.014173853,0.9533932,0.0042018755,nan,nan,0.0027661035,0.0,0.0,0.0,0.0,1310988,1310988,6620172,197388,0,0,165,1,1,1,1,1,0,0,0,0,0,0,0
4796000,4716000,4898947603,0.0005207318,0.0036933962,0.011483251,0,0.014708667,0.9534162,0.0042018755,nan,nan,0.0027661035,0.0,0.0,0.0,0.0,1310988,1310988,6620172,197388,0,0,165,1,1,1,1,1,0,0,0,0,0,0,0
4804000,4724000,4898947603,0.0008698903,0.0043536522,0.012198444,0,0.014845715,0.95335704,0.012133836,nan,nan,0.0027661035,0.0,0.0,0.0,0.0,1310988,1310988,6620172,197388,0,0,165,1,1,1,1,1,0,0,0,0,0,0,0
4812000,4732000,4898947603,0.00086416473,0.0041688965,0.01186972,0,0.0153933,0.9533773,0.012133836,nan,nan,0.0027661035,0.0,0.0,0.0,0.0,1310988,1310988,6620172,197388,0,0,165,1,1,1,1,1,0,0,0,0,0,0,0
4820000,4740000,4898947603,0.0008524652,0.00398525,0.008649212,0,0.015964266,0.9198807,0.012133836,nan,nan,0.0023469394,0.0,0.0,0.0,0.0,1310988,1310988,6620172,197388,0,0,165,1,1,1,1,1,0,0,0,0,0,0,0
4828000,4748000,4898947603,0.0008434088,0.0038109142,0.008431331,0,0.01655845,0.9199015,0.012133836,nan,nan,0.0023469394,0.0,0.0,0.0,0.0,1310988,1310988,6620172,197388,0,0,165,1,1,1,1,1,0,0,0,0,0,0,0
4836000,4756000,4898947603,0.0008366596,0.00364154,0.0082188165,0,0.01717563,0.9199229,0.012133836,nan,nan,0.0023469394,0.0,0.0,0.0,0.0,1310988,1310988,6620172,197388,0,0,165,1,1,1,1,1,0,0,0,0,0,0,0
4844000,4764000,4898947603,0.0008316865,0.00347716,0.008011575,0,0.017815612,0.9199449,0.012133836,nan,nan,0.0023469394,0.0,0.0,0.0,0.0,1310988,1310988,6620172,197388,0,0,165,1,1,1,1,1,0,0,0,0,0,0,0
4852000,4772000,4898947603,0.00082839717,0.0033181966,0.0078093857,0,0.01847828,0.9199676,0.012133836,nan,nan,0.0023469394,0.0,0.0,0.0,0.0,1310988,1310988,6620172,197388,0,0,165,1,1,1,1,1,0,0,0,0,0,0,0
4860000,4780000,4898947603,0.0008113717,0.0031659235,0.007612361,0,0.019163564,0.91999096,0.012133836,nan,nan,0.0023469394,0.0,0.0,0.0,0.0,1310988,1310988,6620172,197388,0,0,165,1,1,1,1,1,0,0,0,0,0,0,0
4868000,4788000,4898947603,0.00079598546,0.0030173387,0.007420533,0,0.019871319,0.920015,0.012133836,nan,nan,0.0023469394,0.0,0.0,0.0,0.0,1310988,1310988,6620172,197388,0,0,165,1,1,1,1,1,0,0,0,0,0,0,0
4876000,4796000,4898947603,0.0019013127,0.0028737085,0.005972515,0,0.02060142,0.88981026,0.022760317,nan,nan,0.0011040042,0.0,0.0,0.0,0.0,1310988,1310988,6620172,197388,0,0,165,1,1,1,1,1,0,0,0,0,0,0,0
4884000,4804000,4898947603,0.0019009376,0.0027329002,0.0058305943,0,0.021353757,0.8898348,0.022760317,nan,nan,0.0011040042,0.0,0.0,0.0,0.0,1310988,1310988,6620172,197388,0,0,165,1,1,1,1,1,0,0,0,0,0,0,0
4892000,4812000,4898947603,0.0018668872,0.0025897918,0.00569083,0,0.022128267,0.88986015,0.022760317,nan,nan,0.0011040042,0.0,0.0,0.0,0.0,1310988,1310988,6620172,197388,0,0,165,1,1,1,1,1,0,0,0,0,0,0,0
4900000,4820000,4898947603,0.0018329332,0.0024512229,0.0055535585,0,0.02292485,0.8898861,0.022760317,nan,nan,0.0011040042,0.0,0.0,0.0,0.0,1310988,1310988,6620172,197388,0,0,165,1,1,1,1,1,0,0,0,0,0,0,0
4908000,4828000,4898947603,0.001799708,0.0023169282,0.005418679,0,0.02374346,0.8899128,0.022760317,nan,nan,0.0011040042,0.0,0.0,0.0,0.0,1310988,1310988,6620172,197388,0,0,165,1,1,1,1,1,0,0,0,0,0,0,0
4916000,4836000,4898947603,0.0017670771,0.0021877768,0.0052861,0,0.024584074,0.8899402,0.022760317,nan,nan,0.0011040042,0.0,0.0,0.0,0.0,1310988,1310988,6620172,197388,0,0,165,1,1,1,1,1,0,0,0,0,0,0,0
4924000,4844000,4898947603,0.0017348547,0.002062703,0.0051557226,0,0.025446652,0.88996834,0.022760317,nan,nan,0.0011040042,0.0,0.0,0.0,0.0,1310988,1310988,6620172,197388,0,0,165,1,1,1,1,1,0,0,0,0,0,0,0
4932000,4852000,4898947603,0.0017030924,0.0019423056,0.0050280215,0,0.026331238,0.8899973,0.022760317,nan,nan,0.0011040042,0.0,0.0,0.0,0.0,1310988,1310988,6620172,197388,0,0,165,1,1,1,1,1,0,0,0,0,0,0,0
4940000,4860000,4898947603,0.001671784,0.0018308775,0.008898282,0,0.02723779,0.8625746,0.022760317,nan,nan,0.0037019658,0.0,0.0,0.0,0.0,1310988,1310988,6620172,197388,0,0,165,1,1,1,1,1,0,0,0,0,0,0,0
4948000,4868000,4898947603,0.0010604521,0.001718888,0.008646634,0,0.02816628,0.86260414,0.01105158,nan,nan,0.0037019658,0.0,0.0,0.0,0.0,1310988,1310988,6620172,197388,0,0,165,1,1,1,1,1,0,0,0,0,0,0,0
4956000,4876000,4898947603,0.0010264264,0.0016147636,0.008401291,0,0.029116713,0.8626345,0.01105158,nan,nan,0.0037019658,0.0,0.0,0.0,0.0,1310988,1310988,6620172,197388,0,0,165,1,1,1,1,1,0,0,0,0,0,0,0
4964000,4884000,4898947603,0.00092886743,0.0015164926,0.008161748,0,0.030089155,0.86266565,0.01105158,nan,nan,0.0037019658,0.0,0.0,0.0,0.0,1310988,1310988,6620172,197388,0,0,165,1,1,1,1,1,0,0,0,0,0,0,0
4972000,4892000,4898947603,0.0008312957,0.0014247511,0.007927632,0,0.031083606,0.8626976,0.01105158,nan,nan,0.0037019658,0.0,0.0,0.0,0.0,1310988,1310988,6620172,197388,0,0,165,1,1,1,1,1,0,0,0,0,0,0,0
4980000,4900000,4898947603,0.0009453531,0.002667772,0.0077179433,0,0.012941821,0.86273044,0.01105158,nan,nan,0.0037019658,0.0,0.0,0.0,0.0,1310988,1310988,6620172,197388,0,0,165,1,1,1,1,1,0,0,0,0,0,0,0
4988000,4908000,4898947603,0.0008678285,0.002589213,0.007495446,0,0.013365494,0.8627641,0.01105158,nan,nan,0.0037019658,0.0,0.0,0.0,0.0,1310988,1310988,6620172,197388,0,0,165,1,1,1,1,1,0,0,0,0,0,0,0
4996000,4916000,4898947603,0.0007956142,0.0025168206,0.0047852863,0,0.01380781,0.8377202,0.01105158,nan,nan,0.0024560802,0.0,0.0,0.0,0.0,1310988,1310988,6620172,197388,0,0,165,1,1,1,1,1,0,0,0,0,0,0,0
5004000,4924000,4898947603,0.0007294661,0.0024486692,0.0046535283,0,0.0142686395,0.83775455,0.01105158,nan,nan,0.0024560802,0.0,0.0,0.0,0.0,1310988,1310988,6620172,197388,0,0,165,1,1,1,1,1,0,0,0,0,0,0,0
5012000,4932000,4898947603,0.00069651456,0.0036971637,0.0057840194,0,0.014439135,0.8376299,0.01105158,nan,nan,0.0024560802,0.0,0.0,0.0,0.0,1310988,1310988,6620172,197388,0,0,165,1,1,1,1,1,0,0,0,0,0,0,0
5020000,4940000,4898947603,0.0007538296,0.0035262431,0.0056426954,0,0.01491328,0.8376594,0.01407912,nan,nan,0.0024560802,0.0,0.0,0.0,0.0,1310988,1310988,6620172,197388,0,0,165,1,1,1,1,1,0,0,0,0,0,0,0
5028000,4948000,4898947603,0.0008083555,0.0033628074,0.0055046557,0,0.015404951,0.8376896,0.01407912,nan,nan,0.0024560802,0.0,0.0,0.0,0.0,1310988,1310988,6620172,197388,0,0,165,1,1,1,1,1,0,0,0,0,0,0,0
5036000,4956000,4898947603,0.0008444441,0.0032056468,0.005369733,0,0.015914045,0.8377205,0.01407912,nan,nan,0.0024560802,0.0,0.0,0.0,0.0,1310988,1310988,6620172,197388,0,0,165,1,1,1,1,1,0,0,0,0,0,0,0
5044000,4964000,4898947603,0.00088200235,0.0030548216,0.005237802,0,0.016440444,0.8377522,0.01407912,nan,nan,0.0024560802,0.0,0.0,0.0,0.0,1310988,1310988,6620172,197388,0,0,165,1,1,1,1,1,0,0,0,0,0,0,0
5052000,4972000,4898947603,0.00091804727,0.002909797,0.0051092664,0,0.016984092,0.8377847,0.01407912,nan,nan,0.0024560802,0.0,0.0,0.0,0.0,1310988,1310988,6620172,197388,0,0,165,1,1,1,1,1,0,0,0,0,0,0,0
5060000,4980000,4898947603,0.0009519053,0.002773875,0.0057471846,0,0.017544882,0.81479865,0.01407912,nan,nan,0.0007934087,0.0,0.0,0.0,0.0,1310988,1310988,6620172,197388,0,0,165,1,1,1,1,1,0,0,0,0,0,0,0
5068000,4988000,4898947603,0.0009677861,0.002643931,0.005599954,0,0.01812271,0.81483173,0.01407912,nan,nan,0.0007934087,0.0,0.0,0.0,0.0,1310988,1310988,6620172,197388,0,0,165,1,1,1,1,1,0,0,0,0,0,0,0
5076000,4996000,4898947603,0.000982165,0.002518726,0.005456241,0,0.01871749,0.81486565,0.01407912,nan,nan,0.0007934087,0.0,0.0,0.0,0.0,1310988,1310988,6620172,197388,0,0,165,1,1,1,1,1,0,0,0,0,0,0,0
5084000,5004000,4898947603,0.0009945267,0.0023978925,0.0053161033,0,0.019329151,0.8149004,0.01407912,nan,nan,0.0007934087,0.0,0.0,0.0,0.0,1310988,1310988,6620172,197388,0,0,165,1,1,1,1,1,0,0,0,0,0,0,0
5092000,5012000,4898947603,0.0012818724,0.0022812905,0.005179134,0,0.019957617,0.8149359,0.0055892165,nan,nan,0.0007934087,0.0,0.0,0.0,0.0,1310988,1310988,6620172,197388,0,0,165,1,1,1,1,1,0,0,0,0,0,0,0
5100000,5020000,4898947603,0.0012937989,0.0021614535,0.005044805,0,0.020602826,0.8149723,0.0055892165,nan,nan,0.0007934087,0.0,0.0,0.0,0.0,1310988,1310988,6620172,197388,0,0,165,1,1,1,1,1,0,0,0,0,0,0,0
5108000,5028000,4898947603,0.0012635622,0.0020471313,0.0049129752,0,0.021264764,0.81500953,0.0055892165,nan,nan,0.0007934087,0.0,0.0,0.0,0.0,1310988,1310988,6620172,197388,0,0,165,1,1,1,1,1,0,0,0,0,0,0,0
5116000,5036000,4898947603,0.0012297628,0.0019427042,0.005994514,0,0.02194335,0.79380816,0.0055892165,nan,nan,0.0013214637,0.0,0.0,0.0,0.0,1310988,1310988,6620172,197388,0,0,165,1,1,1,1,1,0,0,0,0,0,0,0
5124000,5044000,4898947603,0.001193428,0.0018404556,0.0058285887,0,0.022638537,0.7938461,0.0055892165,nan,nan,0.0013214637,0.0,0.0,0.0,0.0,1310988,1310988,6620172,197388,0,0,165,1,1,1,1,1,0,0,0,0,0,0,0
5132000,5052000,4898947603,0.0011549902,0.0017441178,0.0056659007,0,0.023350287,0.79388493,0.0055892165,nan,nan,0.0013214637,0.0,0.0,0.0,0.0,1310988,1310988,6620172,197388,0,0,165,1,1,1,1,1,0,0,0,0,0,0,0
5140000,5060000,4898947603,0.0011143661,0.0016539678,0.0055067227,0,0.024078585,0.7939246,0.0055892165,nan,nan,0.0013214637,0.0,0.0,0.0,0.0,1310988,1310988,6620172,197388,0,0,165,1,1,1,1,1,0,0,0,0,0,0,0
5148000,5068000,4898947603,0.0010718899,0.0015702148,0.0053508575,0,0.024823451,0.7939653,0.0055892165,nan,nan,0.0013214637,0.0,0.0,0.0,0.0,1310988,1310988,6620172,197388,0,0,165,1,1,1,1,1,0,0,0,0,0,0,0
5156000,5076000,4898947603,0.0010283398,0.0014937109,0.005198272,0,0.025584867,0.7940069,0.0055892165,nan,nan,0.0013214637,0.0,0.0,0.0,0.0,1310988,1310988,6620172,197388,0,0,165,1,1,1,1,1,0,0,0,0,0,0,0
5164000,5084000,4898947603,0.00023306694,0.0014266843,0.005048995,0,0.026362829,0.7940494,0.020068556,nan,nan,0.0013214637,0.0,0.0,0.0,0.0,1310988,1310988,6620172,197388,0,0,165,1,1,1,1,1,0,0,0,0,0,0,0
5172000,5092000,4898947603,0.0002438631,0.001365024,0.004902926,0,0.027157364,0.79409283,0.020068556,nan,nan,0.0013214637,0.0,0.0,0.0,0.0,1310988,1310988,6620172,197388,0,0,165,1,1,1,1,1,0,0,0,0,0,0,0
5180000,5100000,4898947603,0.00028008444,0.0013109328,0.0047601894,0,0.027968468,0.7744522,0.020068556,nan,nan,3.8280893e-07,0.0,0.0,0.0,0.0,1310988,1310988,6620172,197388,0,0,165,1,1,1,1,1,0,0,0,0,0,0,0
5188000,5108000,4898947603,0.00048659142,0.0024161537,0.00465515,0,0.0126939155,0.7744965,0.020068556,nan,nan,3.8280893e-07,0.0,0.0,0.0,0.0,1310988,1310988,6620172,197388,0,0,165,1,1,1,1,1,0,0,0,0,0,0,0
5196000,5116000,4898947603,0.0005163129,0.0023615223,0.0045192796,0,0.0130697675,0.7745417,0.020068556,nan,nan,3.8280893e-07,0.0,0.0,0.0,0.0,1310988,1310988,6620172,197388,0,0,165,1,1,1,1,1,0,0,0,0,0,0,0
5204000,5124000,4898947603,0.00055215723,0.0023118623,0.0043863924,0,0.01346023,0.7745879,0.020068556,nan,nan,3.8280893e-07,0.0,0.0,0.0,0.0,1310988,1310988,6620172,197388,0,0,165,1,1,1,1,1,0,0,0,0,0,0,0
5212000,5132000,4898947603,0.00059275515,0.0022665574,0.00425639,0,0.013865223,0.77463514,0.020068556,nan,nan,3.8280893e-07,0.0,0.0,0.0,0.0,1310988,1310988,6620172,197388,0,0,165,1,1,1,1,1,0,0,0,0,0,0,0
5220000,5140000,4898947603,0.00063785695,0.003591335,0.0056254216,0,0.014050507,0.7744063,0.020068556,nan,nan,3.8280893e-07,0.0,0.0,0.0,0.0,1310988,1310988,6620172,197388,0,0,165,1,1,1,1,1,0,0,0,0,0,0,0
5228000,5148000,4898947603,0.0006829872,0.0034281933,0.0054778694,0,0.0144683,0.77444607,0.020068556,nan,nan,3.8280893e-07,0.0,0.0,0.0,0.0,1310988,1310988,6620172,197388,0,0,165,1,1,1,1,1,0,0,0,0,0,0,0
5236000,5156000,4898947603,0.0005460835,0.0032927508,0.009664767,0,0.014900042,0.7561941,0.0038049975,nan,nan,0.0052021244,0.0,0.0,0.0,0.0,1310988,1310988,6620172,197388,0,0,165,1,1,1,1,1,0,0,0,0,0,0,0
5244000,5164000,4898947603,0.00058674125,0.0031412228,0.009384037,0,0.015345611,0.7562346,0.0038049975,nan,nan,0.0052021244,0.0,0.0,0.0,0.0,1310988,1310988,6620172,197388,0,0,165,1,1,1,1,1,0,0,0,0,0,0,0
5252000,5172000,4898947603,0.00057609315,0.002996196,0.009111273,0,0.015804965,0.75627595,0.0038049975,nan,nan,0.0052021244,0.0,0.0,0.0,0.0,1310988,1310988,6620172,197388,0,0,165,1,1,1,1,1,0,0,0,0,0,0,0
5260000,5180000,4898947603,0.00056392216,0.002857049,0.008845658,0,0.01627804,0.75631815,0.0038049975,nan,nan,0.0052021244,0.0,0.0,0.0,0.0,1310988,1310988,6620172,197388,0,0,165,1,1,1,1,1,0,0,0,0,0,0,0
5268000,5188000,4898947603,0.000549603,0.002724555,0.008586874,0,0.016764719,0.7563612,0.0038049975,nan,nan,0.0052021244,0.0,0.0,0.0,0.0,1310988,1310988,6620172,197388,0,0,165,1,1,1,1,1,0,0,0,0,0,0,0
5276000,5196000,4898947603,0.00052605924,0.0025995066,0.008334689,0,0.017264908,0.75640523,0.0038049975,nan,nan,0.0052021244,0.0,0.0,0.0,0.0,1310988,1310988,6620172,197388,0,0,165,1,1,1,1,1,0,0,0,0,0,0,0
5284000,5204000,4898947603,0.0005001478,0.0024805418,0.008089533,0,0.01777858,0.7564501,0.0038049975,nan,nan,0.0052021244,0.0,0.0,0.0,0.0,1310988,1310988,6620172,197388,0,0,165,1,1,1,1,1,0,0,0,0,0,0,0
5292000,5212000,4898947603,0.0004720814,0.0023671652,0.007850434,0,0.018305667,0.7564959,0.0038049975,nan,nan,0.0052021244,0.0,0.0,0.0,0.0,1310988,1310988,6620172,197388,0,0,165,1,1,1,1,1,0,0,0,0,0,0,0
5300000,5220000,4898947603,0.00044155138,0.0022608563,0.007852583,0,0.018846126,0.7394648,0.0038049975,nan,nan,0.00029449986,0.0,0.0,0.0,0.0,1310988,1310988,6620172,197388,0,0,165,1,1,1,1,1,0,0,0,0,0,0,0
5308000,5228000,4898947603,0.0013997912,0.002151708,0.0076178038,0,0.019399934,0.7395115,0.018606111,nan,nan,0.00029449986,0.0,0.0,0.0,0.0,1310988,1310988,6620172,197388,0,0,165,1,1,1,1,1,0,0,0,0,0,0,0
5316000,5236000,4898947603,0.0013707313,0.0020494414,0.007388411,0,0.019967036,0.739559,0.018606111,nan,nan,0.00029449986,0.0,0.0,0.0,0.0,1310988,1310988,6620172,197388,0,0,165,1,1,1,1,1,0,0,0,0,0,0,0
5324000,5244000,4898947603,0.0013500684,0.0019545138,0.007164403,0,0.020547414,0.7396075,0.018606111,nan,nan,0.00029449986,0.0,0.0,0.0,0.0,1310988,1310988,6620172,197388,0,0,165,1,1,1,1,1,0,0,0,0,0,0,0
5332000,5252000,4898947603,0.001326951,0.0018669693,0.006945419,0,0.021141037,0.73965704,0.018606111,nan,nan,0.00029449986,0.0,0.0,0.0,0.0,1310988,1310988,6620172,197388,0,0,165,1,1,1,1,1,0,0,0,0,0,0,0
5340000,5260000,4898947603,0.0013044532,0.0017870854,0.0067315646,0,0.021747887,0.7397076,0.018606111,nan,nan,0.00029449986,0.0,0.0,0.0,0.0,1310988,1310988,6620172,197388,0,0,165,1,1,1,1,1,0,0,0,0,0,0,0
5348000,5268000,4898947603,0.0012824468,0.001715277,0.0065227575,0,0.022367928,0.7397591,0.018606111,nan,nan,0.00029449986,0.0,0.0,0.0,0.0,1310988,1310988,6620172,197388,0,0,165,1,1,1,1,1,0,0,0,0,0,0,0
5356000,5276000,4898947603,0.0012612831,0.0016420245,0.002992671,0,0.023001151,0.7238184,0.018606111,nan,nan,0.0043971892,0.0,0.0,0.0,0.0,1310988,1310988,6620172,197388,0,0,165,1,1,1,1,1,0,0,0,0,0,0,0
5364000,5284000,4898947603,0.0012407474,0.001587181,0.0029022717,0,0.023647517,0.7238708,0.018606111,nan,nan,0.0043971892,0.0,0.0,0.0,0.0,1310988,1310988,6620172,197388,0,0,165,1,1,1,1,1,0,0,0,0,0,0,0
5372000,5292000,4898947603,0.0012216542,0.0015408713,0.0028134452,0,0.024307018,0.7239243,0.018606111,nan,nan,0.0043971892,0.0,0.0,0.0,0.0,1310988,1310988,6620172,197388,0,0,165,1,1,1,1,1,0,0,0,0,0,0,0
5380000,5300000,4898947603,0.0013854261,0.0015029735,0.0027260277,0,0.024979629,0.72397876,0.003301508,nan,nan,0.0043971892,0.0,0.0,0.0,0.0,1310988,1310988,6620172,197388,0,0,165,1,1,1,1,1,0,0,0,0,0,0,0
5388000,5308000,4898947603,0.0013697534,0.0014731006,0.002640454,0,0.025665363,0.7240343,0.003301508,nan,nan,0.0043971892,0.0,0.0,0.0,0.0,1310988,1310988,6620172,197388,0,0,165,1,1,1,1,1,0,0,0,0,0,0,0
5396000,5316000,4898947603,0.0013050494,0.0015788061,0.0025721404,0,0.0124623785,0.7240909,0.003301508,nan,nan,0.0043971892,0.0,0.0,0.0,0.0,1310988,1310988,6620172,197388,0,0,165,1,1,1,1,1,0,0,0,0,0,0,0
5404000,5324000,4898947603,0.0012370256,0.001551222,0.0024892315,0,0.012801908,0.7241486,0.003301508,nan,nan,0.0043971892,0.0,0.0,0.0,0.0,1310988,1310988,6620172,197388,0,0,165,1,1,1,1,1,0,0,0,0,0,0,0
5412000,5332000,4898947603,0.0011700039,0.0015309269,0.0024083024,0,0.013153484,0.7242074,0.003301508,nan,nan,0.0043971892,0.0,0.0,0.0,0.0,1310988,1310988,6620172,197388,0,0,165,1,1,1,1,1,0,0,0,0,0,0,0
5420000,5340000,4898947603,0.0011042171,0.0015120874,0.0048109964,0,0.01351706,0.7092411,0.003301508,nan,nan,0.0034575425,0.0,0.0,0.0,0.0,1310988,1310988,6620172,197388,0,0,165,1,1,1,1,1,0,0,0,0,0,0,0
5428000,5348000,4898947603,0.0010383786,0.002877763,0.006177557,0,0.013707199,0.70891005,0.003301508,nan,nan,0.0034575425,0.0,0.0,0.0,0.0,1310988,1310988,6620172,197388,0,0,165,1,1,1,1,1,0,0,0,0,0,0,0
5436000,5356000,4898947603,0.00097488274,0.002723413,0.005994082,0,0.014082758,0.7089589,0.003301508,nan,nan,0.0034575425,0.0,0.0,0.0,0.0,1310988,1310988,6620172,197388,0,0,165,1,1,1,1,1,0,0,0,0,0,0,0
5444000,5364000,4898947603,0.0009121886,0.0025753845,0.0058150743,0,0.014469894,0.70900875,0.003301508,nan,nan,0.0034575425,0.0,0.0,0.0,0.0,1310988,1310988,6620172,197388,0,0,165,1,1,1,1,1,0,0,0,0,0,0,0
5452000,5372000,4898947603,0.00069542933,0.0024334933,0.005640613,0,0.014868555,0.7090595,0.0028202937,nan,nan,0.0034575425,0.0,0.0,0.0,0.0,1310988,1310988,6620172,197388,0,0,165,1,1,1,1,1,0,0,0,0,0,0,0
5460000,5380000,4898947603,0.00063421944,0.0022983437,0.0054705874,0,0.0152786905,0.70911115,0.0028202937,nan,nan,0.0034575425,0.0,0.0,0.0,0.0,1310988,1310988,6620172,197388,0,0,165,1,1,1,1,1,0,0,0,0,0,0,0
5468000,5388000,4898947603,0.00056422595,0.0021701253,0.0053047235,0,0.015700221,0.7091638,0.0028202937,nan,nan,0.0034575425,0.0,0.0,0.0,0.0,1310988,1310988,6620172,197388,0,0,165,1,1,1,1,1,0,0,0,0,0,0,0
5476000,5396000,4898947603,0.0004951554,0.0020440123,0.004491519,0,0.016133096,0.6950906,0.0028202937,nan,nan,0.00093426125,0.0,0.0,0.0,0.0,1310988,1310988,6620172,197388,0,0,165,1,1,1,1,1,0,0,0,0,0,0,0
5484000,5404000,4898947603,0.00042918682,0.0019298816,0.0043553156,0,0.01657727,0.6951441,0.0028202937,nan,nan,0.00093426125,0.0,0.0,0.0,0.0,1310988,1310988,6620172,197388,0,0,165,1,1,1,1,1,0,0,0,0,0,0,0
5492000,5412000,4898947603,0.0003666644,0.0018227943,0.0042223744,0,0.017032674,0.6951986,0.0028202937,nan,nan,0.00093426125,0.0,0.0,0.0,0.0,1310988,1310988,6620172,197388,0,0,165,1,1,1,1,1,0,0,0,0,0,0,0
5500000,5420000,4898947603,0.00030754565,0.0017231053,0.0040929196,0,0.01749927,0.6952541,0.0028202937,nan,nan,0.00093426125,0.0,0.0,0.0,0.0,1310988,1310988,6620172,197388,0,0,165,1,1,1,1,1,0,0,0,0,0,0,0
5508000,5428000,4898947603,0.00025174225,0.0016308643,0.003966585,0,0.017977001,0.6953106,0.0028202937,nan,nan,0.00093426125,0.0,0.0,0.0,0.0,1310988,1310988,6620172,197388,0,0,165,1,1,1,1,1,0,0,0,0,0,0,0
5516000,5436000,4898947603,0.00019938046,0.0015399761,0.0038426742,0,0.018465836,0.6953681,0.0028202937,nan,nan,0.00093426125,0.0,0.0,0.0,0.0,1310988,1310988,6620172,197388,0,0,165,1,1,1,1,1,0,0,0,0,0,0,0
5524000,5444000,4898947603,0.0007034374,0.0014598665,0.0037213212,0,0.018965738,0.69542664,0.010054145,nan,nan,0.00093426125,0.0,0.0,0.0,0.0,1310988,1310988,6620172,197388,0,0,165,1,1,1,1,1,0,0,0,0,0,0,0
5532000,5452000,4898947603,0.00065894274,0.0013877827,0.0036024547,0,0.0194767,0.69548625,0.010054145,nan,nan,0.00093426125,0.0,0.0,0.0,0.0,1310988,1310988,6620172,197388,0,0,165,1,1,1,1,1,0,0,0,0,0,0,0
5540000,5460000,4898947603,0.0006260567,0.0013213449,0.0024027303,0,0.01999867,0.6822062,0.010054145,nan,nan,0.00164174,0.0,0.0,0.0,0.0,1310988,1310988,6620172,197388,0,0,165,1,1,1,1,1,0,0,0,0,0,0,0
5548000,5468000,4898947603,0.000596325,0.001271791,0.0023251104,0,0.020531617,0.6822667,0.010054145,nan,nan,0.00164174,0.0,0.0,0.0,0.0,1310988,1310988,6620172,197388,0,0,165,1,1,1,1,1,0,0,0,0,0,0,0
5556000,5476000,4898947603,0.0005698674,0.001232948,0.0022488919,0,0.021075545,0.6823283,0.010054145,nan,nan,0.00164174,0.0,0.0,0.0,0.0,1310988,1310988,6620172,197388,0,0,165,1,1,1,1,1,0,0,0,0,0,0,0
5564000,5484000,4898947603,0.000547161,0.0012049304,0.0021740443,0,0.021630432,0.682391,0.010054145,nan,nan,0.00164174,0.0,0.0,0.0,0.0,1310988,1310988,6620172,197388,0,0,165,1,1,1,1,1,0,0,0,0,0,0,0
5572000,5492000,4898947603,0.00052761537,0.0011871863,0.0021007587,0,0.022196267,0.68245476,0.010054145,nan,nan,0.00164174,0.0,0.0,0.0,0.0,1310988,1310988,6620172,197388,0,0,165,1,1,1,1,1,0,0,0,0,0,0,0
5580000,5500000,4898947603,0.0005111096,0.0011797161,0.002028757,0,0.022773046,0.6825196,0.010054145,nan,nan,0.00164174,0.0,0.0,0.0,0.0,1310988,1310988,6620172,197388,0,0,165,1,1,1,1,1,0,0,0,0,0,0,0
5588000,5508000,4898947603,0.000497524,0.0011813152,0.0019584938,0,0.02336078,0.6825856,0.010054145,nan,nan,0.00164174,0.0,0.0,0.0,0.0,1310988,1310988,6620172,197388,0,0,165,1,1,1,1,1,0,0,0,0,0,0,0
5596000,5516000,4898947603,0.0003899121,0.001192052,0.0014438273,0,0.023959445,0.6700271,0.0017509741,nan,nan,0.0007474449,0.0,0.0,0.0,0.0,1310988,1310988,6620172,197388,0,0,165,1,1,1,1,1,0,0,0,0,0,0,0
5604000,5524000,4898947603,0.0004392791,0.0018096649,0.0014210914,0,0.012256686,0.67009413,0.0017509741,nan,nan,0.0007474449,0.0,0.0,0.0,0.0,1310988,1310988,6620172,197388,0,0,165,1,1,1,1,1,0,0,0,0,0,0,0
5612000,5532000,4898947603,0.0004097448,0.0018264154,0.0013771952,0,0.012568752,0.67016226,0.0017509741,nan,nan,0.0007474449,0.0,0.0,0.0,0.0,1310988,1310988,6620172,197388,0,0,165,1,1,1,1,1,0,0,0,0,0,0,0
5620000,5540000,4898947603,0.00038301872,0.0018461809,0.0013350132,0,0.012891204,0.67023164,0.0017509741,nan,nan,0.0007474449,0.0,0.0,0.0,0.0,1310988,1310988,6620172,197388,0,0,165,1,1,1,1,1,0,0,0,0,0,0,0
5628000,5548000,4898947603,0.00035864345,0.0018689146,0.00129418,0,0.013223983,0.67030215,0.0017509741,nan,nan,0.0007474449,0.0,0.0,0.0,0.0,1310988,1310988,6620172,197388,0,0,165,1,1,1,1,1,0,0,0,0,0,0,0
5636000,5556000,4898947603,0.00035013133,0.0029485666,0.0028659725,0,0.013414237,0.66983825,0.0017509741,nan,nan,0.0007474449,0.0,0.0,0.0,0.0,1310988,1310988,6620172,197388,0,0,165,1,1,1,1,1,0,0,0,0,0,0,0
5644000,5564000,4898947603,0.0003312692,0.0028255158,0.0027846287,0,0.013758228,0.66989684,0.0017509741,nan,nan,0.0007474449,0.0,0.0,0.0,0.0,1310988,1310988,6620172,197388,0,0,165,1,1,1,1,1,0,0,0,0,0,0,0
5652000,5572000,4898947603,0.00031472606,0.0027098735,0.0027050665,0,0.014112217,0.6699564,0.0017509741,nan,nan,0.0007474449,0.0,0.0,0.0,0.0,1310988,1310988,6620172,197388,0,0,165,1,1,1,1,1,0,0,0,0,0,0,0
5660000,5580000,4898947603,0.00030033308,0.0026125193,0.003926148,0,0.014476166,0.6580674,0.0017509741,nan,nan,0.0021273042,0.0,0.0,0.0,0.0,1310988,1310988,6620172,197388,0,0,165,1,1,1,1,1,0,0,0,0,0,0,0
5668000,5588000,4898947603,0.0004040916,0.0025108722,0.0038058022,0,0.014850019,0.65812784,0.008138566,nan,nan,0.0021273042,0.0,0.0,0.0,0.0,1310988,1310988,6620172,197388,0,0,165,1,1,1,1,1,0,0,0,0,0,0,0
5676000,5596000,4898947603,0.00042654565,0.002417291,0.0036885864,0,0.015233724,0.6581893,0.008138566,nan,nan,0.0021273042,0.0,0.0,0.0,0.0,1310988,1310988,6620172,197388,0,0,165,1,1,1,1,1,0,0,0,0,0,0,0
5684000,5604000,4898947603,0.00044454235,0.002331479,0.0035745918,0,0.015627235,0.6582518,0.008138566,nan,nan,0.0021273042,0.0,0.0,0.0,0.0,1310988,1310988,6620172,197388,0,0,165,1,1,1,1,1,0,0,0,0,0,0,0
5692000,5612000,4898947603,0.000456116,0.0022538449,0.0034635034,0,0.0160305,0.6583153,0.008138566,nan,nan,0.0021273042,0.0,0.0,0.0,0.0,1310988,1310988,6620172,197388,0,0,165,1,1,1,1,1,0,0,0,0,0,0,0
5700000,5620000,4898947603,0.00046677416,0.0021832248,0.0033554344,0,0.016443482,0.65837985,0.008138566,nan,nan,0.0021273042,0.0,0.0,0.0,0.0,1310988,1310988,6620172,197388,0,0,165,1,1,1,1,1,0,0,0,0,0,0,0
5708000,5628000,4898947603,0.00047681722,0.0021194273,0.0032503032,0,0.01686613,0.6584455,0.008138566,nan,nan,0.0021273042,0.0,0.0,0.0,0.0,1310988,1310988,6620172,197388,0,0,165,1,1,1,1,1,0,0,0,0,0,0,0
5716000,5636000,4898947603,0.00048606307,0.0020938655,0.008681642,0,0.01729841,0.6471574,0.008138566,nan,nan,0.009211817,0.0,0.0,0.0,0.0,1310988,1310988,6620172,197388,0,0,165,1,1,1,1,1,0,0,0,0,0,0,0
5724000,5644000,4898947603,0.00049394224,0.00203486,0.008398185,0,0.017740283,0.6472239,0.008138566,nan,nan,0.009211817,0.0,0.0,0.0,0.0,1310988,1310988,6620172,197388,0,0,165,1,1,1,1,1,0,0,0,0,0,0,0
5732000,5652000,4898947603,0.0005011173,0.0019832402,0.008121667,0,0.018191727,0.6472916,0.008138566,nan,nan,0.009211817,0.0,0.0,0.0,0.0,1310988,1310988,6620172,197388,0,0,165,1,1,1,1,1,0,0,0,0,0,0,0
