timestamp,timestamp_sample,q[0],q[1],q[2],q[3],delta_q_reset[0],delta_q_reset[1],delta_q_reset[2],delta_q_reset[3],quat_reset_counter
3344000,0,0.70711,7.022235e-05,7.0647366e-05,0.70711,0.0,0.0,0.0,0.0,0
3348000,0,0.70711,7.032993e-05,7.075495e-05,0.70711,0.0,0.0,0.0,0.0,0
3356000,0,0.70711,7.054509e-05,7.0970105e-05,0.70711,0.0,0.0,0.0,0.0,0
3364000,0,0.70711,7.0760245e-05,7.118526e-05,0.70711,0.0,0.0,0.0,0.0,0
3376000,0,0.70711,7.1082985e-05,7.1508e-05,0.70711,0.0,0.0,0.0,0.0,0
3384000,0,0.70711,7.129814e-05,7.172316e-05,0.70711,0.0,0.0,0.0,0.0,0
3396000,0,0.70711,7.1620874e-05,7.204589e-05,0.70711,0.0,0.0,0.0,0.0,0
3404000,0,0.70711,7.183604e-05,7.226106e-05,0.70711,0.0,0.0,0.0,0.0,0
3416000,0,0.70711,7.215877e-05,7.258379e-05,0.70711,0.0,0.0,0.0,0.0,0
3424000,0,0.70711,7.237393e-05,7.279895e-05,0.70711,0.0,0.0,0.0,0.0,0
3436000,0,0.70711,7.269667e-05,7.3121686e-05,0.70711,0.0,0.0,0.0,0.0,0
3444000,0,0.70711,7.2911826e-05,7.333684e-05,0.70711,0.0,0.0,0.0,0.0,0
3456000,0,0.70711,7.3234565e-05,7.365958e-05,0.70711,0.0,0.0,0.0,0.0,0
3464000,0,0.70711,7.344972e-05,7.387474e-05,0.70711,0.0,0.0,0.0,0.0,0
3476000,0,0.70711,7.377246e-05,7.419748e-05,0.70711,0.0,0.0,0.0,0.0,0
3484000,0,0.70711,7.398763e-05,7.441264e-05,0.70711,0.0,0.0,0.0,0.0,0
3496000,0,0.70711,7.431036e-05,7.473538e-05,0.70711,0.0,0.0,0.0,0.0,0
3504000,0,0.70711,7.4525524e-05,7.4950534e-05,0.70711,0.0,0.0,0.0,0.0,0
3516000,0,0.70711,7.4848256e-05,7.5273274e-05,0.70711,0.0,0.0,0.0,0.0,0
3524000,0,0.70711,7.506342e-05,7.548844e-05,0.70711,0.0,0.0,0.0,0.0,0
3536000,0,0.70711,7.538616e-05,7.581117e-05,0.70711,0.0,0.0,0.0,0.0,0
3544000,0,0.70711,7.560132e-05,7.6026336e-05,0.70711,0.0,0.0,0.0,0.0,0
3556000,0,0.70711,7.592406e-05,7.6349075e-05,0.70711,0.0,0.0,0.0,0.0,0
3564000,0,0.70711,7.6139215e-05,7.656423e-05,0.70711,0.0,0.0,0.0,0.0,0
3576000,0,0.70711,7.6461954e-05,7.688697e-05,0.70711,0.0,0.0,0.0,0.0,0
3584000,0,0.70711,7.667711e-05,7.710213e-05,0.70711,0.0,0.0,0.0,0.0,0
3596000,0,0.70711,7.699985e-05,7.742487e-05,0.70711,0.0,0.0,0.0,0.0,0
3604000,0,0.70711,7.7215016e-05,7.764003e-05,0.70711,0.0,0.0,0.0,0.0,0
3616000,0,0.70711,7.753775e-05,7.7962766e-05,0.70711,0.0,0.0,0.0,0.0,0
3624000,0,0.70711,7.775291e-05,7.817792e-05,0.70711,0.0,0.0,0.0,0.0,0
3636000,0,0.70711,7.807565e-05,7.850066e-05,0.70711,0.0,0.0,0.0,0.0,0
3644000,0,0.70711,7.829081e-05,7.871583e-05,0.70711,0.0,0.0,0.0,0.0,0
3656000,0,0.70711,7.861355e-05,7.903857e-05,0.70711,0.0,0.0,0.0,0.0,0
3664000,0,0.70711,7.882871e-05,7.9253725e-05,0.70711,0.0,0.0,0.0,0.0,0
3676000,0,0.70711,7.9151454e-05,7.9576464e-05,0.70711,0.0,0.0,0.0,0.0,0
3684000,0,0.70711,7.936661e-05,7.979162e-05,0.70711,0.0,0.0,0.0,0.0,0
3696000,0,0.70711,7.968935e-05,8.011437e-05,0.70711,0.0,0.0,0.0,0.0,0
3704000,0,0.70711,7.990451e-05,8.0329526e-05,0.70711,0.0,0.0,0.0,0.0,0
3716000,0,0.70711,8.022725e-05,8.0652266e-05,0.70711,0.0,0.0,0.0,0.0,0
3724000,0,0.70711,8.044241e-05,8.086742e-05,0.70711,0.0,0.0,0.0,0.0,0
3736000,0,0.70711,8.076515e-05,8.119016e-05,0.70711,0.0,0.0,0.0,0.0,0
3744000,0,0.70711,8.098031e-05,8.140533e-05,0.70711,0.0,0.0,0.0,0.0,0
3756000,0,0.70711,8.130305e-05,8.172807e-05,0.70711,0.0,0.0,0.0,0.0,0
3764000,0,0.70711,8.1518214e-05,8.1943224e-05,0.70711,0.0,0.0,0.0,0.0,0
3776000,0,0.70711,8.184095e-05,8.2265964e-05,0.70711,0.0,0.0,0.0,0.0,0
3784000,0,0.70711,8.205611e-05,8.248113e-05,0.70711,0.0,0.0,0.0,0.0,0
3796000,0,0.70711,8.237886e-05,8.280387e-05,0.70711,0.0,0.0,0.0,0.0,0
3804000,0,0.70711,8.2594015e-05,8.3019026e-05,0.70711,0.0,0.0,0.0,0.0,0
3816000,0,0.70711,8.2916755e-05,8.334177e-05,0.70711,0.0,0.0,0.0,0.0,0
3824000,0,0.70711,8.313192e-05,8.355693e-05,0.70711,0.0,0.0,0.0,0.0,0
3836000,0,0.70711,8.345466e-05,8.387967e-05,0.70711,0.0,0.0,0.0,0.0,0
3844000,0,0.70711,8.366982e-05,8.4094834e-05,0.70711,0.0,0.0,0.0,0.0,0
3856000,0,0.70711,8.399256e-05,8.4417574e-05,0.70711,0.0,0.0,0.0,0.0,0
3864000,0,0.70711,8.420772e-05,8.463273e-05,0.70711,0.0,0.0,0.0,0.0,0
3876000,0,0.70711,8.453046e-05,8.495548e-05,0.70711,0.0,0.0,0.0,0.0,0
3884000,0,0.70711,8.4745625e-05,8.5170635e-05,0.70711,0.0,0.0,0.0,0.0,0
3896000,0,0.70711,8.5068365e-05,8.5493375e-05,0.70711,0.0,0.0,0.0,0.0,0
3904000,0,0.70711,8.528353e-05,8.570854e-05,0.70711,0.0,0.0,0.0,0.0,0
3916000,0,0.70711,8.560627e-05,8.603128e-05,0.70711,0.0,0.0,0.0,0.0,0
3924000,0,0.70711,8.5821426e-05,8.6246444e-05,0.70711,0.0,0.0,0.0,0.0,0
3936000,0,0.70711,8.614417e-05,8.656918e-05,0.70711,0.0,0.0,0.0,0.0,0
3944000,0,0.70711,8.635933e-05,8.678434e-05,0.70711,0.0,0.0,0.0,0.0,0
3956000,0,0.70711,8.668207e-05,8.710709e-05,0.70711,0.0,0.0,0.0,0.0,0
3964000,0,0.70711,8.6897235e-05,8.7322245e-05,0.70711,0.0,0.0,0.0,0.0,0
3976000,0,0.70711,8.7219974e-05,8.764499e-05,0.70711,0.0,0.0,0.0,0.0,0
3984000,0,0.70711,8.743514e-05,8.786015e-05,0.70711,0.0,0.0,0.0,0.0,0
3996000,0,0.70711,8.775788e-05,8.818289e-05,0.70711,0.0,0.0,0.0,0.0,0
4004000,0,0.70711,8.797304e-05,8.8398054e-05,0.70711,0.0,0.0,0.0,0.0,0
4016000,0,0.70711,8.829578e-05,8.872079e-05,0.70711,0.0,0.0,0.0,0.0,0
4024000,0,0.70711,8.851095e-05,8.893596e-05,0.70711,0.0,0.0,0.0,0.0,0
4036000,0,0.70711,8.883369e-05,8.92587e-05,0.70711,0.0,0.0,0.0,0.0,0
4044000,0,0.70711,8.904885e-05,8.947386e-05,0.70711,0.0,0.0,0.0,0.0,0
4056000,0,0.70711,8.937159e-05,8.97966e-05,0.70711,0.0,0.0,0.0,0.0,0
4064000,0,0.70711,8.9586756e-05,9.001177e-05,0.70711,0.0,0.0,0.0,0.0,0
4076000,0,0.70711,8.9909496e-05,9.0334506e-05,0.70711,0.0,0.0,0.0,0.0,0
4084000,0,0.70711,9.012466e-05,9.054967e-05,0.70711,0.0,0.0,0.0,0.0,0
4096000,0,0.70711,9.044741e-05,9.087242e-05,0.70711,0.0,0.0,0.0,0.0,0
4104000,0,0.70711,9.0662565e-05,9.1087575e-05,0.70711,0.0,0.0,0.0,0.0,0
4116000,0,0.70711,9.098531e-05,9.141032e-05,0.70711,0.0,0.0,0.0,0.0,0
4124000,0,0.70711,9.120047e-05,9.162548e-05,0.70711,0.0,0.0,0.0,0.0,0
4136000,0,0.70711,9.1523216e-05,9.1948226e-05,0.70711,0.0,0.0,0.0,0.0,0
4144000,0,0.70711,9.173838e-05,9.2163384e-05,0.70711,0.0,0.0,0.0,0.0,0
4156000,0,0.70711,9.206112e-05,9.248613e-05,0.70711,0.0,0.0,0.0,0.0,0
4164000,0,0.70711,9.2276285e-05,9.2701295e-05,0.70711,0.0,0.0,0.0,0.0,0
4176000,0,0.70711,9.2599024e-05,9.3024035e-05,0.70711,0.0,0.0,0.0,0.0,0
4184000,0,0.70711,9.281419e-05,9.32392e-05,0.70711,0.0,0.0,0.0,0.0,0
4196000,0,0.70711,9.3136936e-05,9.356194e-05,0.70711,0.0,0.0,0.0,0.0,0
4204000,0,0.70711,9.335209e-05,9.3777104e-05,0.70711,0.0,0.0,0.0,0.0,0
4216000,0,0.70711,9.367484e-05,9.409985e-05,0.70711,0.0,0.0,0.0,0.0,0
4224000,0,0.70711,9.3890005e-05,9.431501e-05,0.70711,0.0,0.0,0.0,0.0,0
4236000,0,0.70711,9.4212744e-05,9.4637755e-05,0.70711,0.0,0.0,0.0,0.0,0
4244000,0,0.70711,9.442791e-05,9.485292e-05,0.70711,0.0,0.0,0.0,0.0,0
4256000,0,0.70711,9.4750656e-05,9.517566e-05,0.70711,0.0,0.0,0.0,0.0,0
4264000,0,0.70711,9.496582e-05,9.5390824e-05,0.70711,0.0,0.0,0.0,0.0,0
4276000,0,0.70711,9.528856e-05,9.571357e-05,0.70711,0.0,0.0,0.0,0.0,0
4284000,0,0.70711,9.5503725e-05,9.5928735e-05,0.70711,0.0,0.0,0.0,0.0,0
4296000,0,0.70711,9.582647e-05,9.6251475e-05,0.70711,0.0,0.0,0.0,0.0,0
4304000,0,0.70711,9.604163e-05,9.646664e-05,0.70711,0.0,0.0,0.0,0.0,0
4316000,0,0.70711,9.6364376e-05,9.678939e-05,0.70711,0.0,0.0,0.0,0.0,0
4324000,0,0.70711,9.657954e-05,9.700455e-05,0.70711,0.0,0.0,0.0,0.0,0
4336000,0,0.70711,9.690229e-05,9.732729e-05,0.70711,0.0,0.0,0.0,0.0,0
4344000,0,0.70711,9.7117445e-05,9.7542455e-05,0.70711,0.0,0.0,0.0,0.0,0
4356000,0,0.70711,9.744019e-05,9.78652e-05,0.70711,0.0,0.0,0.0,0.0,0
4364000,0,0.70711,9.765536e-05,9.808037e-05,0.70711,0.0,0.0,0.0,0.0,0
4376000,0,0.70711,9.79781e-05,9.840311e-05,0.70711,0.0,0.0,0.0,0.0,0
4384000,0,0.70711,9.819327e-05,9.861827e-05,0.70711,0.0,0.0,0.0,0.0,0
4396000,0,0.70711,9.851601e-05,9.894102e-05,0.70711,0.0,0.0,0.0,0.0,0
4404000,0,0.70711,9.873117e-05,9.915618e-05,0.70711,0.0,0.0,0.0,0.0,0
4416000,0,0.70711,9.905392e-05,9.947893e-05,0.70711,0.0,0.0,0.0,0.0,0
4424000,0,0.70711,9.9269084e-05,9.969409e-05,0.70711,0.0,0.0,0.0,0.0,0
4436000,0,0.70711,9.959183e-05,0.000100016834,0.70711,0.0,0.0,0.0,0.0,0
4444000,0,0.70711,9.9806995e-05,0.000100232,0.70711,0.0,0.0,0.0,0.0,0
4456000,0,0.70711,0.00010012974,0.000100554746,0.70711,0.0,0.0,0.0,0.0,0
4464000,0,0.70711,0.0001003449,0.00010076991,0.70711,0.0,0.0,0.0,0.0,0
4476000,0,0.70711,0.00010066765,0.00010109266,0.70711,0.0,0.0,0.0,0.0,0
4484000,0,0.70711,0.00010088281,0.00010130782,0.70711,0.0,0.0,0.0,0.0,0
4496000,0,0.70711,0.00010120556,0.00010163057,0.70711,0.0,0.0,0.0,0.0,0
4504000,0,0.70711,0.00010142072,0.000101845726,0.70711,0.0,0.0,0.0,0.0,0
4516000,0,0.70711,0.00010174347,0.00010216847,0.70711,0.0,0.0,0.0,0.0,0
4524000,0,0.70711,0.000101958634,0.00010238364,0.70711,0.0,0.0,0.0,0.0,0
4536000,0,0.70711,0.00010228138,0.000102706384,0.70711,0.0,0.0,0.0,0.0,0
4544000,0,0.70711,0.000102496546,0.00010292155,0.70711,0.0,0.0,0.0,0.0,0
4556000,0,0.70711,0.00010281929,0.000103244296,0.70711,0.0,0.0,0.0,0.0,0
4564000,0,0.70711,0.00010303446,0.00010345946,0.70711,0.0,0.0,0.0,0.0,0
4576000,0,0.70711,0.000103357204,0.00010378221,0.70711,0.0,0.0,0.0,0.0,0
4584000,0,0.70711,0.00010357237,0.00010399737,0.70711,0.0,0.0,0.0,0.0,0
4596000,0,0.70711,0.000103895116,0.00010432012,0.70711,0.0,0.0,0.0,0.0,0
4604000,0,0.70711,0.00010411028,0.000104535284,0.70711,0.0,0.0,0.0,0.0,0
4616000,0,0.70711,0.00010443303,0.00010485803,0.70711,0.0,0.0,0.0,0.0,0
4624000,0,0.70711,0.00010464819,0.000105073195,0.70711,0.0,0.0,0.0,0.0,0
4636000,0,0.70711,0.00010497094,0.00010539594,0.70711,0.0,0.0,0.0,0.0,0
4644000,0,0.70711,0.0001051861,0.00010561111,0.70711,0.0,0.0,0.0,0.0,0
4656000,0,0.70711,0.00010550885,0.000105933854,0.70711,0.0,0.0,0.0,0.0,0
4664000,0,0.70711,0.000105724015,0.00010614902,0.70711,0.0,0.0,0.0,0.0,0
4676000,0,0.70711,0.00010604676,0.000106471765,0.70711,0.0,0.0,0.0,0.0,0
4684000,0,0.70711,0.00010626193,0.00010668693,0.70711,0.0,0.0,0.0,0.0,0
4696000,0,0.70711,0.00010658467,0.00010700968,0.70711,0.0,0.0,0.0,0.0,0
4704000,0,0.70711,0.00010679984,0.00010722484,0.70711,0.0,0.0,0.0,0.0,0
4716000,0,0.70711,0.000107122585,0.00010754759,0.70711,0.0,0.0,0.0,0.0,0
4724000,0,0.70711,0.00010733776,0.00010776276,0.70711,0.0,0.0,0.0,0.0,0
4736000,0,0.70711,0.000107660504,0.00010808551,0.70711,0.0,0.0,0.0,0.0,0
4744000,0,0.70711,0.00010787567,0.00010830067,0.70711,0.0,0.0,0.0,0.0,0
4756000,0,0.70711,0.000108198416,0.00010862342,0.70711,0.0,0.0,0.0,0.0,0
4764000,0,0.70711,0.00010841358,0.00010883858,0.70711,0.0,0.0,0.0,0.0,0
4776000,0,0.70711,0.00010873633,0.00010916133,0.70711,0.0,0.0,0.0,0.0,0
4784000,0,0.70711,0.00010895149,0.000109376495,0.70711,0.0,0.0,0.0,0.0,0
4796000,0,0.70711,0.000109274246,0.00010969924,0.70711,0.0,0.0,0.0,0.0,0
4804000,0,0.70711,0.00010948941,0.000109914414,0.70711,0.0,0.0,0.0,0.0,0
4816000,0,0.70711,0.00010981216,0.00011023716,0.70711,0.0,0.0,0.0,0.0,0
4824000,0,0.70711,0.00011002732,0.000110452325,0.70711,0.0,0.0,0.0,0.0,0
4836000,0,0.70711,0.00011035007,0.00011077507,0.70711,0.0,0.0,0.0,0.0,0
4844000,0,0.70711,0.00011056524,0.00011099024,0.70711,0.0,0.0,0.0,0.0,0
4856000,0,0.70711,0.00011088799,0.00011131299,0.70711,0.0,0.0,0.0,0.0,0
4864000,0,0.70711,0.00011110315,0.000111528156,0.70711,0.0,0.0,0.0,0.0,0
4876000,0,0.70711,0.0001114259,0.0001118509,0.70711,0.0,0.0,0.0,0.0,0
4884000,0,0.70711,0.000111641064,0.00011206607,0.70711,0.0,0.0,0.0,0.0,0
4896000,0,0.70711,0.00011196382,0.000112388814,0.70711,0.0,0.0,0.0,0.0,0
4904000,0,0.70711,0.00011217898,0.000112603986,0.70711,0.0,0.0,0.0,0.0,0
4916000,0,0.70711,0.00011250173,0.00011292673,0.70711,0.0,0.0,0.0,0.0,0
4924000,0,0.70711,0.0001127169,0.0001131419,0.70711,0.0,0.0,0.0,0.0,0
4936000,0,0.70711,0.00011303965,0.00011346465,0.70711,0.0,0.0,0.0,0.0,0
4944000,0,0.70711,0.00011325481,0.00011367982,0.70711,0.0,0.0,0.0,0.0,0
4956000,0,0.70711,0.00011357757,0.00011400256,0.70711,0.0,0.0,0.0,0.0,0
4964000,0,0.70711,0.00011379273,0.00011421773,0.70711,0.0,0.0,0.0,0.0,0
4976000,0,0.70711,0.00011411548,0.00011454048,0.70711,0.0,0.0,0.0,0.0,0
4984000,0,0.70711,0.00011433064,0.00011475565,0.70711,0.0,0.0,0.0,0.0,0
4996000,0,0.70711,0.0001146534,0.000115078394,0.70711,0.0,0.0,0.0,0.0,0
5004000,0,0.70711,0.00011486856,0.000115293566,0.70711,0.0,0.0,0.0,0.0,0
5016000,0,0.70711,0.00011519132,0.00011561631,0.70711,0.0,0.0,0.0,0.0,0
5024000,0,0.70711,0.00011540648,0.00011583148,0.70711,0.0,0.0,0.0,0.0,0
5036000,0,0.70711,0.00011572923,0.00011615423,0.70711,0.0,0.0,0.0,0.0,0
5044000,0,0.70711,0.0001159444,0.000116369396,0.70711,0.0,0.0,0.0,0.0,0
5056000,0,0.70711,0.00011626715,0.00011669215,0.70711,0.0,0.0,0.0,0.0,0
5064000,0,0.70711,0.00011648231,0.000116907315,0.70711,0.0,0.0,0.0,0.0,0
5076000,0,0.70711,0.000116805066,0.00011723006,0.70711,0.0,0.0,0.0,0.0,0
5084000,0,0.70711,0.00011702023,0.00011744523,0.70711,0.0,0.0,0.0,0.0,0
5096000,0,0.70711,0.000117342985,0.00011776798,0.70711,0.0,0.0,0.0,0.0,0
5104000,0,0.70711,0.00011755815,0.00011798315,0.70711,0.0,0.0,0.0,0.0,0
5116000,0,0.70711,0.0001178809,0.0001183059,0.70711,0.0,0.0,0.0,0.0,0
5124000,0,0.70711,0.00011809607,0.000118521064,0.70711,0.0,0.0,0.0,0.0,0
5136000,0,0.70711,0.00011841882,0.00011884382,0.70711,0.0,0.0,0.0,0.0,0
5144000,0,0.70711,0.00011863399,0.00011905898,0.70711,0.0,0.0,0.0,0.0,0
5156000,0,0.70711,0.00011895674,0.00011938174,0.70711,0.0,0.0,0.0,0.0,0
5164000,0,0.70711,0.000119171906,0.0001195969,0.70711,0.0,0.0,0.0,0.0,0
5176000,0,0.70711,0.00011949466,0.000119919656,0.70711,0.0,0.0,0.0,0.0,0
5184000,0,0.70711,0.000119709825,0.00012013482,0.70711,0.0,0.0,0.0,0.0,0
5196000,0,0.70711,0.00012003258,0.000120457575,0.70711,0.0,0.0,0.0,0.0,0
5204000,0,0.70711,0.00012024774,0.00012067274,0.70711,0.0,0.0,0.0,0.0,0
5216000,0,0.70711,0.0001205705,0.00012099549,0.70711,0.0,0.0,0.0,0.0,0
5224000,0,0.70711,0.00012078566,0.00012121066,0.70711,0.0,0.0,0.0,0.0,0
5236000,0,0.70711,0.000121108416,0.00012153341,0.70711,0.0,0.0,0.0,0.0,0
5244000,0,0.70711,0.00012132358,0.00012174858,0.70711,0.0,0.0,0.0,0.0,0
5256000,0,0.70711,0.000121646335,0.00012207133,0.70711,0.0,0.0,0.0,0.0,0
5264000,0,0.70711,0.0001218615,0.0001222865,0.70711,0.0,0.0,0.0,0.0,0
5276000,0,0.70711,0.00012218425,0.00012260926,0.70711,0.0,0.0,0.0,0.0,0
5284000,0,0.70711,0.00012239942,0.00012282442,0.70711,0.0,0.0,0.0,0.0,0
5296000,0,0.70711,0.00012272218,0.00012314717,0.70711,0.0,0.0,0.0,0.0,0
5304000,0,0.70711,0.00012293734,0.00012336233,0.70711,0.0,0.0,0.0,0.0,0
5316000,0,0.70711,0.00012326009,0.0001236851,0.70711,0.0,0.0,0.0,0.0,0
5324000,0,0.70711,0.00012347527,0.00012390026,0.70711,0.0,0.0,0.0,0.0,0
5336000,0,0.70711,0.00012379802,0.000124223,0.70711,0.0,0.0,0.0,0.0,0
5344000,0,0.70711,0.00012401318,0.00012443819,0.70711,0.0,0.0,0.0,0.0,0
5356000,0,0.70711,0.00012433594,0.00012476093,0.70711,0.0,0.0,0.0,0.0,0
5364000,0,0.70711,0.00012455111,0.0001249761,0.70711,0.0,0.0,0.0,0.0,0
5376000,0,0.70711,0.00012487386,0.00012529886,0.70711,0.0,0.0,0.0,0.0,0
5384000,0,0.70711,0.00012508903,0.00012551402,0.70711,0.0,0.0,0.0,0.0,0
5396000,0,0.70711,0.00012541178,0.00012583677,0.70711,0.0,0.0,0.0,0.0,0
5404000,0,0.70711,0.00012562695,0.00012605195,0.70711,0.0,0.0,0.0,0.0,0
5416000,0,0.70711,0.00012594971,0.0001263747,0.70711,0.0,0.0,0.0,0.0,0
5424000,0,0.70711,0.00012616487,0.00012658986,0.70711,0.0,0.0,0.0,0.0,0
5436000,0,0.70711,0.00012648762,0.00012691262,0.70711,0.0,0.0,0.0,0.0,0
5444000,0,0.70711,0.0001267028,0.00012712779,0.70711,0.0,0.0,0.0,0.0,0
5456000,0,0.70711,0.00012702555,0.00012745055,0.70711,0.0,0.0,0.0,0.0,0
5464000,0,0.70711,0.00012724071,0.00012766571,0.70711,0.0,0.0,0.0,0.0,0
5476000,0,0.70711,0.00012756347,0.00012798846,0.70711,0.0,0.0,0.0,0.0,0
5484000,0,0.70711,0.00012777864,0.00012820364,0.70711,0.0,0.0,0.0,0.0,0
5496000,0,0.70711,0.0001281014,0.00012852639,0.70711,0.0,0.0,0.0,0.0,0
5504000,0,0.70711,0.00012831656,0.00012874155,0.70711,0.0,0.0,0.0,0.0,0
5516000,0,0.70711,0.00012863931,0.00012906431,0.70711,0.0,0.0,0.0,0.0,0
5524000,0,0.70711,0.00012885449,0.00012927948,0.70711,0.0,0.0,0.0,0.0,0
5536000,0,0.70711,0.00012917724,0.00012960224,0.70711,0.0,0.0,0.0,0.0,0
5544000,0,0.70711,0.00012939241,0.0001298174,0.70711,0.0,0.0,0.0,0.0,0
5556000,0,0.70711,0.00012971516,0.00013014015,0.70711,0.0,0.0,0.0,0.0,0
5564000,0,0.70711,0.00012993033,0.00013035533,0.70711,0.0,0.0,0.0,0.0,0
5576000,0,0.70711,0.00013025309,0.00013067808,0.70711,0.0,0.0,0.0,0.0,0
5584000,0,0.70711,0.00013046825,0.00013089326,0.70711,0.0,0.0,0.0,0.0,0
5596000,0,0.70711,0.00013079101,0.000131216,0.70711,0.0,0.0,0.0,0.0,0
5604000,0,0.70711,0.00013100618,0.00013143117,0.70711,0.0,0.0,0.0,0.0,0
5616000,0,0.70711,0.00013132894,0.00013175393,0.70711,0.0,0.0,0.0,0.0,0
5624000,0,0.70711,0.0001315441,0.0001319691,0.70711,0.0,0.0,0.0,0.0,0
5636000,0,0.70711,0.00013186687,0.00013229185,0.70711,0.0,0.0,0.0,0.0,0
5644000,0,0.70711,0.00013208203,0.00013250702,0.70711,0.0,0.0,0.0,0.0,0
5656000,0,0.70711,0.00013240478,0.00013282978,0.70711,0.0,0.0,0.0,0.0,0
5664000,0,0.70711,0.00013261996,0.00013304494,0.70711,0.0,0.0,0.0,0.0,0
5676000,0,0.70711,0.0001329427,0.0001333677,0.70711,0.0,0.0,0.0,0.0,0
5684000,0,0.70711,0.00013315788,0.00013358287,0.70711,0.0,0.0,0.0,0.0,0
5696000,0,0.70711,0.00013348063,0.00013390563,0.70711,0.0,0.0,0.0,0.0,0
5704000,0,0.70711,0.00013369581,0.0001341208,0.70711,0.0,0.0,0.0,0.0,0
5716000,0,0.70711,0.00013401856,0.00013444356,0.70711,0.0,0.0,0.0,0.0,0
5724000,0,0.70711,0.00013423373,0.00013465872,0.70711,0.0,0.0,0.0,0.0,0
5736000,0,0.70711,0.00013455648,0.00013498148,0.70711,0.0,0.0,0.0,0.0,0
5744000,0,0.70711,0.00013477166,0.00013519665,0.70711,0.0,0.0,0.0,0.0,0
5756000,0,0.70711,0.00013509441,0.00013551941,0.70711,0.0,0.0,0.0,0.0,0
5764000,0,0.70711,0.00013530959,0.00013573458,0.70711,0.0,0.0,0.0,0.0,0
5776000,0,0.70711,0.00013563233,0.00013605734,0.70711,0.0,0.0,0.0,0.0,0
5784000,0,0.70711,0.00013584751,0.0001362725,0.70711,0.0,0.0,0.0,0.0,0
5796000,0,0.70711,0.00013617026,0.00013659526,0.70711,0.0,0.0,0.0,0.0,0
5804000,0,0.70711,0.00013638544,0.00013681043,0.70711,0.0,0.0,0.0,0.0,0
5816000,0,0.70711,0.00013670819,0.00013713319,0.70711,0.0,0.0,0.0,0.0,0
5824000,0,0.70711,0.00013692337,0.00013734835,0.70711,0.0,0.0,0.0,0.0,0
5836000,0,0.70711,0.00013724613,0.00013767112,0.70711,0.0,0.0,0.0,0.0,0
5844000,0,0.70711,0.00013746129,0.00013788628,0.70711,0.0,0.0,0.0,0.0,0
5856000,0,0.70711,0.00013778405,0.00013820904,0.70711,0.0,0.0,0.0,0.0,0
5864000,0,0.70711,0.00013799922,0.0001384242,0.70711,0.0,0.0,0.0,0.0,0
5876000,0,0.70711,0.00013832198,0.00013874697,0.70711,0.0,0.0,0.0,0.0,0
5884000,0,0.70711,0.00013853714,0.00013896213,0.70711,0.0,0.0,0.0,0.0,0
5896000,0,0.70711,0.0001388599,0.0001392849,0.70711,0.0,0.0,0.0,0.0,0
5904000,0,0.70711,0.00013907507,0.00013950006,0.70711,0.0,0.0,0.0,0.0,0
5916000,0,0.70711,0.00013939783,0.00013982282,0.70711,0.0,0.0,0.0,0.0,0
5924000,0,0.70711,0.000139613,0.000140038,0.70711,0.0,0.0,0.0,0.0,0
5936000,0,0.70711,0.00013993576,0.00014036075,0.70711,0.0,0.0,0.0,0.0,0
5944000,0,0.70711,0.00014015094,0.00014057592,0.70711,0.0,0.0,0.0,0.0,0
5956000,0,0.70711,0.00014047368,0.00014089867,0.70711,0.0,0.0,0.0,0.0,0
5964000,0,0.7071099,0.00014068886,0.00014111385,0.70711,0.0,0.0,0.0,0.0,0
5976000,0,0.7071099,0.00014101161,0.00014143661,0.70711,0.0,0.0,0.0,0.0,0
5984000,0,0.7071099,0.00014122679,0.00014165178,0.70711,0.0,0.0,0.0,0.0,0
5996000,0,0.7071099,0.00014154955,0.00014197454,0.70711,0.0,0.0,0.0,0.0,0
6004000,0,0.7071099,0.00014176471,0.0001421897,0.70711,0.0,0.0,0.0,0.0,0
6016000,0,0.7071099,0.00014208748,0.00014251246,0.70711,0.0,0.0,0.0,0.0,0
6024000,0,0.7071099,0.00014230264,0.00014272763,0.70711,0.0,0.0,0.0,0.0,0
6036000,0,0.7071099,0.0001426254,0.00014305039,0.70711,0.0,0.0,0.0,0.0,0
6044000,0,0.7071099,0.00014284058,0.00014326557,0.70711,0.0,0.0,0.0,0.0,0
6056000,0,0.7071099,0.00014316333,0.00014358832,0.70711,0.0,0.0,0.0,0.0,0
6064000,0,0.7071099,0.00014337851,0.0001438035,0.70711,0.0,0.0,0.0,0.0,0
6076000,0,0.7071099,0.00014370127,0.00014412626,0.70711,0.0,0.0,0.0,0.0,0
6084000,0,0.7071099,0.00014391643,0.00014434142,0.70711,0.0,0.0,0.0,0.0,0
6096000,0,0.7071099,0.0001442392,0.00014466418,0.70711,0.0,0.0,0.0,0.0,0
6104000,0,0.7071099,0.00014445437,0.00014487936,0.70711,0.0,0.0,0.0,0.0,0
6116000,0,0.7071099,0.00014477712,0.00014520211,0.70711,0.0,0.0,0.0,0.0,0
6124000,0,0.7071099,0.0001449923,0.00014541729,0.70711,0.0,0.0,0.0,0.0,0
6136000,0,0.7071099,0.00014531506,0.00014574005,0.70711,0.0,0.0,0.0,0.0,0
6144000,0,0.7071099,0.00014553023,0.00014595521,0.70711,0.0,0.0,0.0,0.0,0
6156000,0,0.7071099,0.00014585299,0.00014627798,0.70711,0.0,0.0,0.0,0.0,0
6164000,0,0.7071099,0.00014606817,0.00014649316,0.70711,0.0,0.0,0.0,0.0,0
6176000,0,0.7071099,0.00014639091,0.0001468159,0.70711,0.0,0.0,0.0,0.0,0
6184000,0,0.7071099,0.0001466061,0.00014703108,0.70711,0.0,0.0,0.0,0.0,0
6196000,0,0.7071099,0.00014692885,0.00014735384,0.70711,0.0,0.0,0.0,0.0,0
6204000,0,0.7071099,0.00014714402,0.00014756901,0.70711,0.0,0.0,0.0,0.0,0
6216000,0,0.7071099,0.00014746678,0.00014789177,0.70711,0.0,0.0,0.0,0.0,0
6224000,0,0.7071099,0.00014768196,0.00014810695,0.70711,0.0,0.0,0.0,0.0,0
6236000,0,0.7071099,0.00014800472,0.0001484297,0.70711,0.0,0.0,0.0,0.0,0
6244000,0,0.7071099,0.00014821989,0.00014864487,0.70711,0.0,0.0,0.0,0.0,0
6256000,0,0.7071099,0.00014854265,0.00014896764,0.70711,0.0,0.0,0.0,0.0,0
6264000,0,0.7071099,0.00014875783,0.0001491828,0.70711,0.0,0.0,0.0,0.0,0
6276000,0,0.7071099,0.00014908057,0.00014950556,0.70711,0.0,0.0,0.0,0.0,0
6284000,0,0.7071099,0.00014929575,0.00014972074,0.70711,0.0,0.0,0.0,0.0,0
6296000,0,0.7071099,0.00014961851,0.0001500435,0.70711,0.0,0.0,0.0,0.0,0
6304000,0,0.7071099,0.0001498337,0.00015025867,0.70711,0.0,0.0,0.0,0.0,0
6316000,0,0.7071099,0.00015015644,0.00015058143,0.70711,0.0,0.0,0.0,0.0,0
6324000,0,0.7071099,0.00015037162,0.00015079661,0.70711,0.0,0.0,0.0,0.0,0
6336000,0,0.7071099,0.00015069438,0.00015111937,0.70711,0.0,0.0,0.0,0.0,0
6344000,0,0.7071099,0.00015090956,0.00015133453,0.70711,0.0,0.0,0.0,0.0,0
6356000,0,0.7071099,0.0001512323,0.0001516573,0.70711,0.0,0.0,0.0,0.0,0
6364000,0,0.7071099,0.00015144749,0.00015187247,0.70711,0.0,0.0,0.0,0.0,0
6376000,0,0.7071099,0.00015177025,0.00015219524,0.70711,0.0,0.0,0.0,0.0,0
6384000,0,0.7071099,0.00015198543,0.0001524104,0.70711,0.0,0.0,0.0,0.0,0
6396000,0,0.7071099,0.00015230819,0.00015273316,0.70711,0.0,0.0,0.0,0.0,0
6404000,0,0.7071099,0.00015252335,0.00015294834,0.70711,0.0,0.0,0.0,0.0,0
6416000,0,0.7071099,0.00015284611,0.0001532711,0.70711,0.0,0.0,0.0,0.0,0
6424000,0,0.7071099,0.0001530613,0.00015348628,0.70711,0.0,0.0,0.0,0.0,0
6436000,0,0.7071099,0.00015338406,0.00015380904,0.70711,0.0,0.0,0.0,0.0,0
6444000,0,0.7071099,0.00015359922,0.00015402421,0.70711,0.0,0.0,0.0,0.0,0
6456000,0,0.7071099,0.00015392198,0.00015434697,0.70711,0.0,0.0,0.0,0.0,0
6464000,0,0.7071099,0.00015413716,0.00015456215,0.70711,0.0,0.0,0.0,0.0,0
6476000,0,0.7071099,0.00015445992,0.00015488491,0.70711,0.0,0.0,0.0,0.0,0
6484000,0,0.7071099,0.0001546751,0.00015510008,0.70711,0.0,0.0,0.0,0.0,0
6496000,0,0.7071099,0.00015499786,0.00015542284,0.70711,0.0,0.0,0.0,0.0,0
6504000,0,0.7071099,0.00015521303,0.00015563802,0.70711,0.0,0.0,0.0,0.0,0
6516000,0,0.7071099,0.00015553579,0.00015596078,0.70711,0.0,0.0,0.0,0.0,0
6524000,0,0.7071099,0.00015575097,0.00015617596,0.70711,0.0,0.0,0.0,0.0,0
6536000,0,0.7071099,0.00015607373,0.00015649872,0.70711,0.0,0.0,0.0,0.0,0
6544000,0,0.7071099,0.00015628891,0.00015671388,0.70711,0.0,0.0,0.0,0.0,0
6556000,0,0.7071099,0.00015661167,0.00015703664,0.70711,0.0,0.0,0.0,0.0,0
6564000,0,0.7071099,0.00015682683,0.00015725182,0.70711,0.0,0.0,0.0,0.0,0
6576000,0,0.7071099,0.0001571496,0.00015757458,0.70711,0.0,0.0,0.0,0.0,0
6584000,0,0.7071099,0.00015736478,0.00015778976,0.70711,0.0,0.0,0.0,0.0,0
6596000,0,0.7071099,0.00015768754,0.00015811253,0.70711,0.0,0.0,0.0,0.0,0
6604000,0,0.7071099,0.00015790272,0.00015832769,0.70711,0.0,0.0,0.0,0.0,0
6616000,0,0.7071099,0.00015822548,0.00015865045,0.70711,0.0,0.0,0.0,0.0,0
6624000,0,0.7071099,0.00015844066,0.00015886563,0.70711,0.0,0.0,0.0,0.0,0
6636000,0,0.7071099,0.00015876342,0.00015918839,0.70711,0.0,0.0,0.0,0.0,0
6644000,0,0.7071099,0.00015897858,0.00015940357,0.70711,0.0,0.0,0.0,0.0,0
6656000,0,0.7071099,0.00015930134,0.00015972633,0.70711,0.0,0.0,0.0,0.0,0
6664000,0,0.7071099,0.00015951652,0.00015994151,0.70711,0.0,0.0,0.0,0.0,0
6676000,0,0.7071099,0.00015983928,0.00016026427,0.70711,0.0,0.0,0.0,0.0,0
6684000,0,0.7071099,0.00016005446,0.00016047945,0.70711,0.0,0.0,0.0,0.0,0
6696000,0,0.7071099,0.00016037723,0.00016080221,0.70711,0.0,0.0,0.0,0.0,0
6704000,0,0.7071099,0.0001605924,0.00016101738,0.70711,0.0,0.0,0.0,0.0,0
6716000,0,0.7071099,0.00016091517,0.00016134014,0.70711,0.0,0.0,0.0,0.0,0
6724000,0,0.7071099,0.00016113035,0.00016155532,0.70711,0.0,0.0,0.0,0.0,0
6736000,0,0.7071099,0.0001614531,0.00016187808,0.70711,0.0,0.0,0.0,0.0,0
6744000,0,0.7071099,0.00016166827,0.00016209326,0.70711,0.0,0.0,0.0,0.0,0
6756000,0,0.7071099,0.00016199105,0.00016241602,0.70711,0.0,0.0,0.0,0.0,0
6764000,0,0.7071099,0.00016220621,0.0001626312,0.70711,0.0,0.0,0.0,0.0,0
6776000,0,0.7071099,0.00016252897,0.00016295396,0.70711,0.0,0.0,0.0,0.0,0
6784000,0,0.7071099,0.00016274415,0.00016316914,0.70711,0.0,0.0,0.0,0.0,0
6796000,0,0.7071099,0.00016306691,0.0001634919,0.70711,0.0,0.0,0.0,0.0,0
6804000,0,0.7071099,0.0001632821,0.00016370708,0.70711,0.0,0.0,0.0,0.0,0
6816000,0,0.7071099,0.00016360485,0.00016402984,0.70711,0.0,0.0,0.0,0.0,0
6824000,0,0.7071099,0.00016382003,0.00016424502,0.70711,0.0,0.0,0.0,0.0,0
6836000,0,0.7071099,0.0001641428,0.00016456778,0.70711,0.0,0.0,0.0,0.0,0
6844000,0,0.7071099,0.00016435797,0.00016478295,0.70711,0.0,0.0,0.0,0.0,0
6856000,0,0.7071099,0.00016468074,0.00016510572,0.70711,0.0,0.0,0.0,0.0,0
6864000,0,0.7071099,0.00016489592,0.00016532089,0.70711,0.0,0.0,0.0,0.0,0
6876000,0,0.7071099,0.00016521868,0.00016564367,0.70711,0.0,0.0,0.0,0.0,0
6884000,0,0.7071099,0.00016543386,0.00016585883,0.70711,0.0,0.0,0.0,0.0,0
6896000,0,0.7071099,0.00016575662,0.0001661816,0.70711,0.0,0.0,0.0,0.0,0
6904000,0,0.7071099,0.0001659718,0.00016639677,0.70711,0.0,0.0,0.0,0.0,0
6916000,0,0.7071099,0.00016629456,0.00016671955,0.70711,0.0,0.0,0.0,0.0,0
6924000,0,0.7071099,0.00016650974,0.00016693471,0.70711,0.0,0.0,0.0,0.0,0
6936000,0,0.7071099,0.0001668325,0.00016725749,0.70711,0.0,0.0,0.0,0.0,0
6944000,0,0.7071099,0.00016704768,0.00016747265,0.70711,0.0,0.0,0.0,0.0,0
6956000,0,0.7071099,0.00016737044,0.00016779543,0.70711,0.0,0.0,0.0,0.0,0
6964000,0,0.7071099,0.00016758562,0.00016801059,0.70711,0.0,0.0,0.0,0.0,0
6976000,0,0.7071099,0.00016790838,0.00016833337,0.70711,0.0,0.0,0.0,0.0,0
6984000,0,0.7071099,0.00016812356,0.00016854855,0.70711,0.0,0.0,0.0,0.0,0
6996000,0,0.7071099,0.00016844632,0.00016887131,0.70711,0.0,0.0,0.0,0.0,0
7004000,0,0.7071099,0.0001686615,0.00016908649,0.70711,0.0,0.0,0.0,0.0,0
7016000,0,0.7071099,0.00016898426,0.00016940925,0.70711,0.0,0.0,0.0,0.0,0
7024000,0,0.7071099,0.00016919944,0.00016962443,0.70711,0.0,0.0,0.0,0.0,0
7036000,0,0.7071099,0.00016952222,0.00016994719,0.70711,0.0,0.0,0.0,0.0,0
7044000,0,0.7071099,0.00016973738,0.00017016237,0.70711,0.0,0.0,0.0,0.0,0
7056000,0,0.7071099,0.00017006016,0.00017048513,0.70711,0.0,0.0,0.0,0.0,0
7064000,0,0.7071099,0.00017027534,0.00017070031,0.70711,0.0,0.0,0.0,0.0,0
7076000,0,0.7071099,0.0001705981,0.00017102307,0.70711,0.0,0.0,0.0,0.0,0
7084000,0,0.7071099,0.00017081328,0.00017123825,0.70711,0.0,0.0,0.0,0.0,0
7096000,0,0.7071099,0.00017113604,0.00017156101,0.70711,0.0,0.0,0.0,0.0,0
7104000,0,0.7071099,0.00017135122,0.00017177619,0.70711,0.0,0.0,0.0,0.0,0
7116000,0,0.7071099,0.00017167398,0.00017209895,0.70711,0.0,0.0,0.0,0.0,0
7124000,0,0.7071099,0.00017188916,0.00017231413,0.70711,0.0,0.0,0.0,0.0,0
7136000,0,0.7071099,0.00017221192,0.00017263691,0.70711,0.0,0.0,0.0,0.0,0
7144000,0,0.7071099,0.0001724271,0.00017285209,0.70711,0.0,0.0,0.0,0.0,0
7156000,0,0.7071099,0.00017274987,0.00017317485,0.70711,0.0,0.0,0.0,0.0,0
7164000,0,0.7071099,0.00017296504,0.00017339003,0.70711,0.0,0.0,0.0,0.0,0
7176000,0,0.7071099,0.00017328782,0.00017371279,0.70711,0.0,0.0,0.0,0.0,0
7184000,0,0.7071099,0.000173503,0.00017392797,0.70711,0.0,0.0,0.0,0.0,0
7196000,0,0.7071099,0.00017382576,0.00017425073,0.70711,0.0,0.0,0.0,0.0,0
7204000,0,0.7071099,0.00017404094,0.00017446591,0.70711,0.0,0.0,0.0,0.0,0
7216000,0,0.7071099,0.0001743637,0.00017478869,0.70711,0.0,0.0,0.0,0.0,0
7224000,0,0.7071099,0.00017457888,0.00017500385,0.70711,0.0,0.0,0.0,0.0,0
7236000,0,0.7071099,0.00017490165,0.00017532663,0.70711,0.0,0.0,0.0,0.0,0
7244000,0,0.7071099,0.00017511683,0.0001755418,0.70711,0.0,0.0,0.0,0.0,0
7256000,0,0.7071099,0.00017543959,0.00017586457,0.70711,0.0,0.0,0.0,0.0,0
7264000,0,0.7071099,0.00017565477,0.00017607975,0.70711,0.0,0.0,0.0,0.0,0
7276000,0,0.7071099,0.00017597753,0.00017640251,0.70711,0.0,0.0,0.0,0.0,0
7284000,0,0.7071099,0.00017619271,0.00017661769,0.70711,0.0,0.0,0.0,0.0,0
7296000,0,0.7071099,0.00017651549,0.00017694046,0.70711,0.0,0.0,0.0,0.0,0
7304000,0,0.7071099,0.00017673067,0.00017715564,0.70711,0.0,0.0,0.0,0.0,0
7316000,0,0.7071099,0.00017705343,0.0001774784,0.70711,0.0,0.0,0.0,0.0,0
7324000,0,0.7071099,0.00017726861,0.00017769358,0.70711,0.0,0.0,0.0,0.0,0
7336000,0,0.7071099,0.00017759137,0.00017801634,0.70711,0.0,0.0,0.0,0.0,0
7344000,0,0.7071099,0.00017780655,0.00017823152,0.70711,0.0,0.0,0.0,0.0,0
7356000,0,0.7071099,0.00017812932,0.0001785543,0.70711,0.0,0.0,0.0,0.0,0
7364000,0,0.7071099,0.0001783445,0.00017876948,0.70711,0.0,0.0,0.0,0.0,0
7376000,0,0.7071099,0.00017866727,0.00017909224,0.70711,0.0,0.0,0.0,0.0,0
7384000,0,0.7071099,0.00017888244,0.00017930742,0.70711,0.0,0.0,0.0,0.0,0
7396000,0,0.7071099,0.00017920522,0.0001796302,0.70711,0.0,0.0,0.0,0.0,0
7404000,0,0.7071099,0.00017942039,0.00017984537,0.70711,0.0,0.0,0.0,0.0,0
7416000,0,0.7071099,0.00017974316,0.00018016814,0.70711,0.0,0.0,0.0,0.0,0
7424000,0,0.7071099,0.00017995834,0.00018038331,0.70711,0.0,0.0,0.0,0.0,0
7436000,0,0.7071099,0.0001802811,0.00018070609,0.70711,0.0,0.0,0.0,0.0,0
7444000,0,0.7071099,0.00018049628,0.00018092126,0.70711,0.0,0.0,0.0,0.0,0
7456000,0,0.7071099,0.00018081906,0.00018124403,0.70711,0.0,0.0,0.0,0.0,0
7464000,0,0.7071099,0.00018103424,0.00018145921,0.70711,0.0,0.0,0.0,0.0,0
7476000,0,0.7071099,0.000181357,0.00018178197,0.70711,0.0,0.0,0.0,0.0,0
7484000,0,0.7071099,0.00018157218,0.00018199715,0.70711,0.0,0.0,0.0,0.0,0
7496000,0,0.7071099,0.00018189495,0.00018231993,0.70711,0.0,0.0,0.0,0.0,0
7504000,0,0.7071099,0.00018211013,0.0001825351,0.70711,0.0,0.0,0.0,0.0,0
7516000,0,0.7071099,0.0001824329,0.00018285787,0.70711,0.0,0.0,0.0,0.0,0
7524000,0,0.7071099,0.00018264807,0.00018307305,0.70711,0.0,0.0,0.0,0.0,0
7536000,0,0.7071099,0.00018297085,0.00018339582,0.70711,0.0,0.0,0.0,0.0,0
7544000,0,0.7071099,0.00018318603,0.000183611,0.70711,0.0,0.0,0.0,0.0,0
7556000,0,0.7071099,0.0001835088,0.00018393378,0.70711,0.0,0.0,0.0,0.0,0
7564000,0,0.7071099,0.00018372398,0.00018414896,0.70711,0.0,0.0,0.0,0.0,0
7576000,0,0.7071099,0.00018404674,0.00018447172,0.70711,0.0,0.0,0.0,0.0,0
7584000,0,0.7071099,0.00018426192,0.0001846869,0.70711,0.0,0.0,0.0,0.0,0
7596000,0,0.7071099,0.0001845847,0.00018500967,0.70711,0.0,0.0,0.0,0.0,0
7604000,0,0.7071099,0.00018479988,0.00018522485,0.70711,0.0,0.0,0.0,0.0,0
7616000,0,0.7071099,0.00018512264,0.00018554761,0.70711,0.0,0.0,0.0,0.0,0
7624000,0,0.7071099,0.00018533782,0.0001857628,0.70711,0.0,0.0,0.0,0.0,0
7636000,0,0.7071099,0.0001856606,0.00018608557,0.70711,0.0,0.0,0.0,0.0,0
7644000,0,0.7071099,0.00018587578,0.00018630075,0.70711,0.0,0.0,0.0,0.0,0
7656000,0,0.7071099,0.00018619855,0.00018662353,0.70711,0.0,0.0,0.0,0.0,0
7664000,0,0.7071099,0.00018641373,0.0001868387,0.70711,0.0,0.0,0.0,0.0,0
7676000,0,0.7071099,0.00018673649,0.00018716147,0.70711,0.0,0.0,0.0,0.0,0
7684000,0,0.7071099,0.00018695167,0.00018737665,0.70711,0.0,0.0,0.0,0.0,0
7696000,0,0.7071099,0.00018727445,0.00018769942,0.70711,0.0,0.0,0.0,0.0,0
7704000,0,0.7071099,0.00018748963,0.0001879146,0.70711,0.0,0.0,0.0,0.0,0
7716000,0,0.7071099,0.0001878124,0.00018823738,0.70711,0.0,0.0,0.0,0.0,0
7724000,0,0.7071099,0.00018802758,0.00018845256,0.70711,0.0,0.0,0.0,0.0,0
7736000,0,0.7071099,0.00018835034,0.00018877532,0.70711,0.0,0.0,0.0,0.0,0
7744000,0,0.7071099,0.00018856552,0.0001889905,0.70711,0.0,0.0,0.0,0.0,0
7756000,0,0.7071099,0.0001888883,0.00018931327,0.70711,0.0,0.0,0.0,0.0,0
7764000,0,0.7071099,0.00018910348,0.00018952845,0.70711,0.0,0.0,0.0,0.0,0
7776000,0,0.7071099,0.00018942625,0.00018985123,0.70711,0.0,0.0,0.0,0.0,0
7784000,0,0.7071099,0.00018964143,0.0001900664,0.70711,0.0,0.0,0.0,0.0,0
7796000,0,0.7071099,0.00018996421,0.00019038917,0.70711,0.0,0.0,0.0,0.0,0
7804000,0,0.7071099,0.00019017939,0.00019060436,0.70711,0.0,0.0,0.0,0.0,0
7816000,0,0.7071099,0.00019050215,0.00019092712,0.70711,0.0,0.0,0.0,0.0,0
7824000,0,0.7071099,0.00019071733,0.0001911423,0.70711,0.0,0.0,0.0,0.0,0
7836000,0,0.7071099,0.0001910401,0.00019146508,0.70711,0.0,0.0,0.0,0.0,0
7844000,0,0.7071099,0.00019125528,0.00019168026,0.70711,0.0,0.0,0.0,0.0,0
7856000,0,0.7071099,0.00019157806,0.00019200303,0.70711,0.0,0.0,0.0,0.0,0
7864000,0,0.7071099,0.00019179324,0.00019221821,0.70711,0.0,0.0,0.0,0.0,0
7876000,0,0.7071099,0.00019211601,0.00019254099,0.70711,0.0,0.0,0.0,0.0,0
7884000,0,0.7071099,0.0001923312,0.00019275617,0.70711,0.0,0.0,0.0,0.0,0
7896000,0,0.7071099,0.00019265397,0.00019307893,0.70711,0.0,0.0,0.0,0.0,0
7904000,0,0.7071099,0.00019286915,0.00019329412,0.70711,0.0,0.0,0.0,0.0,0
7916000,0,0.7071099,0.00019319193,0.00019361688,0.70711,0.0,0.0,0.0,0.0,0
7924000,0,0.7071099,0.0001934071,0.00019383206,0.70711,0.0,0.0,0.0,0.0,0
7936000,0,0.7071099,0.00019372987,0.00019415484,0.70711,0.0,0.0,0.0,0.0,0
7944000,0,0.7071099,0.00019394506,0.00019437002,0.70711,0.0,0.0,0.0,0.0,0
7956000,0,0.7071099,0.00019426782,0.0001946928,0.70711,0.0,0.0,0.0,0.0,0
7964000,0,0.7071099,0.00019448301,0.00019490797,0.70711,0.0,0.0,0.0,0.0,0
7976000,0,0.7071099,0.00019480578,0.00019523075,0.70711,0.0,0.0,0.0,0.0,0
7984000,0,0.7071099,0.00019502096,0.00019544593,0.70711,0.0,0.0,0.0,0.0,0
7996000,0,0.7071099,0.00019534373,0.0001957687,0.70711,0.0,0.0,0.0,0.0,0
8004000,0,0.7071099,0.00019555891,0.00019598388,0.70711,0.0,0.0,0.0,0.0,0
8016000,0,0.7071099,0.00019588169,0.00019630666,0.70711,0.0,0.0,0.0,0.0,0
8024000,0,0.7071099,0.00019609687,0.00019652184,0.70711,0.0,0.0,0.0,0.0,0
8036000,0,0.7071099,0.00019641964,0.00019684462,0.70711,0.0,0.0,0.0,0.0,0
8044000,0,0.7071099,0.00019663482,0.0001970598,0.70711,0.0,0.0,0.0,0.0,0
8056000,0,0.7071099,0.0001969576,0.00019738257,0.70711,0.0,0.0,0.0,0.0,0
8064000,0,0.7071099,0.00019717278,0.00019759775,0.70711,0.0,0.0,0.0,0.0,0
8076000,0,0.7071099,0.00019749555,0.00019792053,0.70711,0.0,0.0,0.0,0.0,0
8084000,0,0.7071099,0.00019771073,0.0001981357,0.70711,0.0,0.0,0.0,0.0,0
8096000,0,0.7071099,0.00019803351,0.00019845848,0.70711,0.0,0.0,0.0,0.0,0
8104000,0,0.7071099,0.00019824869,0.00019867366,0.70711,0.0,0.0,0.0,0.0,0
8116000,0,0.7071099,0.00019857146,0.00019899644,0.70711,0.0,0.0,0.0,0.0,0
8124000,0,0.7071099,0.00019878664,0.00019921162,0.70711,0.0,0.0,0.0,0.0,0
8136000,0,0.7071099,0.00019910942,0.00019953439,0.70711,0.0,0.0,0.0,0.0,0
8144000,0,0.7071099,0.0001993246,0.00019974957,0.70711,0.0,0.0,0.0,0.0,0
8156000,0,0.7071099,0.00019964737,0.00020007235,0.70711,0.0,0.0,0.0,0.0,0
8164000,0,0.7071099,0.00019986257,0.00020028753,0.70711,0.0,0.0,0.0,0.0,0
8176000,0,0.7071099,0.00020018533,0.0002006103,0.70711,0.0,0.0,0.0,0.0,0
8184000,0,0.7071099,0.00020040052,0.00020082548,0.70711,0.0,0.0,0.0,0.0,0
8196000,0,0.7071099,0.0002007233,0.00020114826,0.70711,0.0,0.0,0.0,0.0,0
8204000,0,0.7071099,0.00020093848,0.00020136344,0.70711,0.0,0.0,0.0,0.0,0
8216000,0,0.7071099,0.00020126125,0.00020168621,0.70711,0.0,0.0,0.0,0.0,0
8224000,0,0.7071099,0.00020147643,0.0002019014,0.70711,0.0,0.0,0.0,0.0,0
8236000,0,0.7071099,0.00020179921,0.00020222417,0.70711,0.0,0.0,0.0,0.0,0
8244000,0,0.7071099,0.00020201439,0.00020243936,0.70711,0.0,0.0,0.0,0.0,0
8256000,0,0.7071099,0.00020233716,0.00020276214,0.70711,0.0,0.0,0.0,0.0,0
8264000,0,0.7071099,0.00020255234,0.00020297732,0.70711,0.0,0.0,0.0,0.0,0
8276000,0,0.7071099,0.00020287512,0.0002033001,0.70711,0.0,0.0,0.0,0.0,0
8284000,0,0.7071099,0.0002030903,0.00020351527,0.70711,0.0,0.0,0.0,0.0,0
8296000,0,0.7071099,0.00020341307,0.00020383805,0.70711,0.0,0.0,0.0,0.0,0
8304000,0,0.7071099,0.00020362827,0.00020405323,0.70711,0.0,0.0,0.0,0.0,0
8316000,0,0.7071099,0.00020395104,0.000204376,0.70711,0.0,0.0,0.0,0.0,0
8324000,0,0.7071099,0.00020416622,0.00020459118,0.70711,0.0,0.0,0.0,0.0,0
8336000,0,0.7071099,0.000204489,0.00020491396,0.70711,0.0,0.0,0.0,0.0,0
8344000,0,0.7071099,0.00020470418,0.00020512915,0.70711,0.0,0.0,0.0,0.0,0
8356000,0,0.7071099,0.00020502695,0.00020545193,0.70711,0.0,0.0,0.0,0.0,0
8364000,0,0.7071099,0.00020524213,0.00020566711,0.70711,0.0,0.0,0.0,0.0,0
8376000,0,0.7071099,0.00020556491,0.00020598988,0.70711,0.0,0.0,0.0,0.0,0
8384000,0,0.7071099,0.0002057801,0.00020620506,0.70711,0.0,0.0,0.0,0.0,0
8396000,0,0.7071099,0.00020610288,0.00020652784,0.70711,0.0,0.0,0.0,0.0,0
8404000,0,0.7071099,0.00020631806,0.00020674302,0.70711,0.0,0.0,0.0,0.0,0
8416000,0,0.7071099,0.00020664083,0.0002070658,0.70711,0.0,0.0,0.0,0.0,0
8424000,0,0.7071099,0.00020685601,0.00020728099,0.70711,0.0,0.0,0.0,0.0,0
8436000,0,0.7071099,0.00020717879,0.00020760376,0.70711,0.0,0.0,0.0,0.0,0
8444000,0,0.7071099,0.00020739398,0.00020781894,0.70711,0.0,0.0,0.0,0.0,0
8456000,0,0.7071099,0.00020771676,0.00020814172,0.70711,0.0,0.0,0.0,0.0,0
8464000,0,0.7071099,0.00020793194,0.0002083569,0.70711,0.0,0.0,0.0,0.0,0
8476000,0,0.7071099,0.00020825471,0.00020867967,0.70711,0.0,0.0,0.0,0.0,0
8484000,0,0.7071099,0.0002084699,0.00020889487,0.70711,0.0,0.0,0.0,0.0,0
8496000,0,0.7071099,0.00020879267,0.00020921764,0.70711,0.0,0.0,0.0,0.0,0
8504000,0,0.7071099,0.00020900786,0.00020943282,0.70711,0.0,0.0,0.0,0.0,0
8516000,0,0.7071099,0.00020933064,0.0002097556,0.70711,0.0,0.0,0.0,0.0,0
8524000,0,0.7071099,0.00020954582,0.00020997078,0.70711,0.0,0.0,0.0,0.0,0
8536000,0,0.7071099,0.0002098686,0.00021029355,0.70711,0.0,0.0,0.0,0.0,0
8544000,0,0.7071099,0.00021008377,0.00021050875,0.70711,0.0,0.0,0.0,0.0,0
8556000,0,0.7071099,0.00021040655,0.00021083152,0.70711,0.0,0.0,0.0,0.0,0
8564000,0,0.7071099,0.00021062174,0.0002110467,0.70711,0.0,0.0,0.0,0.0,0
8576000,0,0.7071099,0.00021094452,0.00021136948,0.70711,0.0,0.0,0.0,0.0,0
8584000,0,0.7071099,0.0002111597,0.00021158467,0.70711,0.0,0.0,0.0,0.0,0
8596000,0,0.7071099,0.00021148247,0.00021190745,0.70711,0.0,0.0,0.0,0.0,0
8604000,0,0.7071099,0.00021169767,0.00021212263,0.70711,0.0,0.0,0.0,0.0,0
8616000,0,0.7071099,0.00021202044,0.0002124454,0.70711,0.0,0.0,0.0,0.0,0
8624000,0,0.7071099,0.00021223562,0.0002126606,0.70711,0.0,0.0,0.0,0.0,0
8636000,0,0.7071099,0.0002125584,0.00021298337,0.70711,0.0,0.0,0.0,0.0,0
8644000,0,0.7071099,0.0002127736,0.00021319855,0.70711,0.0,0.0,0.0,0.0,0
8656000,0,0.7071099,0.00021309637,0.00021352133,0.70711,0.0,0.0,0.0,0.0,0
8664000,0,0.7071099,0.00021331155,0.00021373652,0.70711,0.0,0.0,0.0,0.0,0
8676000,0,0.7071099,0.00021363432,0.0002140593,0.70711,0.0,0.0,0.0,0.0,0
8684000,0,0.7071099,0.00021384952,0.00021427448,0.70711,0.0,0.0,0.0,0.0,0
8696000,0,0.7071099,0.0002141723,0.00021459725,0.70711,0.0,0.0,0.0,0.0,0
8704000,0,0.7071099,0.00021438747,0.00021481245,0.70711,0.0,0.0,0.0,0.0,0
8716000,0,0.7071099,0.00021471025,0.00021513522,0.70711,0.0,0.0,0.0,0.0,0
8724000,0,0.7071099,0.00021492544,0.0002153504,0.70711,0.0,0.0,0.0,0.0,0
8736000,0,0.7071099,0.00021524822,0.00021567318,0.70711,0.0,0.0,0.0,0.0,0
8744000,0,0.7071099,0.0002154634,0.00021588837,0.70711,0.0,0.0,0.0,0.0,0
8756000,0,0.7071099,0.00021578619,0.00021621115,0.70711,0.0,0.0,0.0,0.0,0
8764000,0,0.7071099,0.00021600137,0.00021642633,0.70711,0.0,0.0,0.0,0.0,0
8776000,0,0.7071099,0.00021632414,0.0002167491,0.70711,0.0,0.0,0.0,0.0,0
8784000,0,0.7071099,0.00021653934,0.0002169643,0.70711,0.0,0.0,0.0,0.0,0
8796000,0,0.7071099,0.00021686211,0.00021728707,0.70711,0.0,0.0,0.0,0.0,0
8804000,0,0.7071099,0.0002170773,0.00021750227,0.70711,0.0,0.0,0.0,0.0,0
8816000,0,0.7071099,0.00021740007,0.00021782504,0.70711,0.0,0.0,0.0,0.0,0
8824000,0,0.7071099,0.00021761526,0.00021804022,0.70711,0.0,0.0,0.0,0.0,0
8836000,0,0.7071099,0.00021793804,0.000218363,0.70711,0.0,0.0,0.0,0.0,0
8844000,0,0.7071099,0.00021815323,0.00021857819,0.70711,0.0,0.0,0.0,0.0,0
8856000,0,0.7071099,0.00021847601,0.00021890097,0.70711,0.0,0.0,0.0,0.0,0
8864000,0,0.7071099,0.00021869119,0.00021911615,0.70711,0.0,0.0,0.0,0.0,0
8876000,0,0.7071099,0.00021901398,0.00021943894,0.70711,0.0,0.0,0.0,0.0,0
8884000,0,0.7071099,0.00021922916,0.00021965412,0.70711,0.0,0.0,0.0,0.0,0
8896000,0,0.7071099,0.00021955193,0.0002199769,0.70711,0.0,0.0,0.0,0.0,0
8904000,0,0.7071099,0.00021976713,0.00022019209,0.70711,0.0,0.0,0.0,0.0,0
8916000,0,0.7071099,0.0002200899,0.00022051486,0.70711,0.0,0.0,0.0,0.0,0
8924000,0,0.7071099,0.00022030508,0.00022073006,0.70711,0.0,0.0,0.0,0.0,0
8936000,0,0.7071099,0.00022062787,0.00022105283,0.70711,0.0,0.0,0.0,0.0,0
8944000,0,0.7071099,0.00022084305,0.00022126801,0.70711,0.0,0.0,0.0,0.0,0
8956000,0,0.7071099,0.00022116583,0.0002215908,0.70711,0.0,0.0,0.0,0.0,0
8964000,0,0.7071099,0.00022138102,0.00022180598,0.70711,0.0,0.0,0.0,0.0,0
8976000,0,0.7071099,0.0002217038,0.00022212876,0.70711,0.0,0.0,0.0,0.0,0
8984000,0,0.7071099,0.00022191899,0.00022234395,0.70711,0.0,0.0,0.0,0.0,0
8996000,0,0.7071099,0.00022224177,0.00022266673,0.70711,0.0,0.0,0.0,0.0,0
9004000,0,0.7071099,0.00022245696,0.00022288192,0.70711,0.0,0.0,0.0,0.0,0
9016000,0,0.7071099,0.00022277974,0.0002232047,0.70711,0.0,0.0,0.0,0.0,0
9024000,0,0.7071099,0.00022299492,0.00022341988,0.70711,0.0,0.0,0.0,0.0,0
9036000,0,0.7071099,0.00022331771,0.00022374267,0.70711,0.0,0.0,0.0,0.0,0
9044000,0,0.7071099,0.00022353289,0.00022395785,0.70711,0.0,0.0,0.0,0.0,0
9056000,0,0.7071099,0.00022385568,0.00022428064,0.70711,0.0,0.0,0.0,0.0,0
9064000,0,0.7071099,0.00022407086,0.00022449582,0.70711,0.0,0.0,0.0,0.0,0
9076000,0,0.7071099,0.00022439363,0.00022481859,0.70711,0.0,0.0,0.0,0.0,0
9084000,0,0.7071099,0.00022460883,0.00022503379,0.70711,0.0,0.0,0.0,0.0,0
9096000,0,0.7071099,0.0002249316,0.00022535656,0.70711,0.0,0.0,0.0,0.0,0
9104000,0,0.7071099,0.0002251468,0.00022557176,0.70711,0.0,0.0,0.0,0.0,0
9116000,0,0.7071099,0.00022546957,0.00022589453,0.70711,0.0,0.0,0.0,0.0,0
9124000,0,0.7071099,0.00022568477,0.00022610973,0.70711,0.0,0.0,0.0,0.0,0
9136000,0,0.7071099,0.00022600754,0.0002264325,0.70711,0.0,0.0,0.0,0.0,0
9144000,0,0.7071099,0.00022622274,0.0002266477,0.70711,0.0,0.0,0.0,0.0,0
9156000,0,0.7071099,0.00022654551,0.00022697047,0.70711,0.0,0.0,0.0,0.0,0
9164000,0,0.7071099,0.0002267607,0.00022718566,0.70711,0.0,0.0,0.0,0.0,0
9176000,0,0.7071099,0.00022708348,0.00022750844,0.70711,0.0,0.0,0.0,0.0,0
9184000,0,0.7071099,0.00022729867,0.00022772363,0.70711,0.0,0.0,0.0,0.0,0
9196000,0,0.7071099,0.00022762145,0.00022804641,0.70711,0.0,0.0,0.0,0.0,0
9204000,0,0.7071099,0.00022783664,0.0002282616,0.70711,0.0,0.0,0.0,0.0,0
9216000,0,0.7071099,0.00022815942,0.00022858438,0.70711,0.0,0.0,0.0,0.0,0
9224000,0,0.7071099,0.00022837461,0.00022879957,0.70711,0.0,0.0,0.0,0.0,0
9236000,0,0.7071099,0.00022869739,0.00022912235,0.70711,0.0,0.0,0.0,0.0,0
9244000,0,0.7071099,0.00022891258,0.00022933754,0.70711,0.0,0.0,0.0,0.0,0
9256000,0,0.7071099,0.00022923536,0.00022966032,0.70711,0.0,0.0,0.0,0.0,0
9264000,0,0.7071099,0.00022945055,0.00022987551,0.70711,0.0,0.0,0.0,0.0,0
9276000,0,0.7071099,0.00022977333,0.00023019829,0.70711,0.0,0.0,0.0,0.0,0
9284000,0,0.7071099,0.00022998852,0.00023041348,0.70711,0.0,0.0,0.0,0.0,0
9296000,0,0.7071099,0.0002303113,0.00023073626,0.70711,0.0,0.0,0.0,0.0,0
9304000,0,0.7071099,0.0002305265,0.00023095145,0.70711,0.0,0.0,0.0,0.0,0
9316000,0,0.7071099,0.00023084927,0.00023127423,0.70711,0.0,0.0,0.0,0.0,0
9324000,0,0.7071099,0.00023106446,0.00023148942,0.70711,0.0,0.0,0.0,0.0,0
9336000,0,0.7071099,0.00023138724,0.0002318122,0.70711,0.0,0.0,0.0,0.0,0
9344000,0,0.7071099,0.00023160243,0.00023202739,0.70711,0.0,0.0,0.0,0.0,0
9356000,0,0.7071099,0.00023192521,0.00023235017,0.70711,0.0,0.0,0.0,0.0,0
9364000,0,0.7071099,0.0002321404,0.00023256536,0.70711,0.0,0.0,0.0,0.0,0
9376000,0,0.7071099,0.00023246318,0.00023288814,0.70711,0.0,0.0,0.0,0.0,0
9384000,0,0.7071099,0.00023267837,0.00023310333,0.70711,0.0,0.0,0.0,0.0,0
9396000,0,0.7071099,0.00023300116,0.00023342611,0.70711,0.0,0.0,0.0,0.0,0
9404000,0,0.7071099,0.00023321634,0.0002336413,0.70711,0.0,0.0,0.0,0.0,0
9416000,0,0.7071099,0.00023353913,0.00023396409,0.70711,0.0,0.0,0.0,0.0,0
9424000,0,0.7071099,0.00023375431,0.00023417927,0.70711,0.0,0.0,0.0,0.0,0
9436000,0,0.7071099,0.0002340771,0.00023450206,0.70711,0.0,0.0,0.0,0.0,0
9444000,0,0.7071099,0.0002342923,0.00023471724,0.70711,0.0,0.0,0.0,0.0,0
9456000,0,0.7071099,0.00023461507,0.00023504003,0.70711,0.0,0.0,0.0,0.0,0
9464000,0,0.7071099,0.00023483027,0.00023525523,0.70711,0.0,0.0,0.0,0.0,0
9476000,0,0.7071099,0.00023515304,0.000235578,0.70711,0.0,0.0,0.0,0.0,0
9484000,0,0.7071099,0.00023536824,0.0002357932,0.70711,0.0,0.0,0.0,0.0,0
9496000,0,0.7071099,0.00023569103,0.00023611597,0.70711,0.0,0.0,0.0,0.0,0
9504000,0,0.7071099,0.0002359062,0.00023633117,0.70711,0.0,0.0,0.0,0.0,0
9516000,0,0.7071099,0.000236229,0.00023665396,0.70711,0.0,0.0,0.0,0.0,0
9524000,0,0.7071099,0.00023644419,0.00023686913,0.70711,0.0,0.0,0.0,0.0,0
9536000,0,0.7071099,0.00023676697,0.00023719193,0.70711,0.0,0.0,0.0,0.0,0
9544000,0,0.7071099,0.00023698216,0.00023740712,0.70711,0.0,0.0,0.0,0.0,0
9556000,0,0.7071099,0.00023730494,0.0002377299,0.70711,0.0,0.0,0.0,0.0,0
9564000,0,0.7071099,0.00023752013,0.00023794509,0.70711,0.0,0.0,0.0,0.0,0
9576000,0,0.7071099,0.00023784292,0.00023826786,0.70711,0.0,0.0,0.0,0.0,0
9584000,0,0.7071099,0.0002380581,0.00023848306,0.70711,0.0,0.0,0.0,0.0,0
9596000,0,0.7071099,0.00023838089,0.00023880585,0.70711,0.0,0.0,0.0,0.0,0
9604000,0,0.7071099,0.00023859608,0.00023902103,0.70711,0.0,0.0,0.0,0.0,0
9616000,0,0.7071099,0.00023891886,0.00023934382,0.70711,0.0,0.0,0.0,0.0,0
9624000,0,0.7071099,0.00023913405,0.00023955901,0.70711,0.0,0.0,0.0,0.0,0
9636000,0,0.7071099,0.00023945684,0.00023988179,0.70711,0.0,0.0,0.0,0.0,0
9644000,0,0.7071099,0.00023967202,0.00024009698,0.70711,0.0,0.0,0.0,0.0,0
9656000,0,0.7071099,0.00023999481,0.00024041977,0.70711,0.0,0.0,0.0,0.0,0
9664000,0,0.7071099,0.00024021,0.00024063495,0.70711,0.0,0.0,0.0,0.0,0
9676000,0,0.7071099,0.00024053278,0.00024095774,0.70711,0.0,0.0,0.0,0.0,0
9684000,0,0.7071099,0.00024074798,0.00024117294,0.70711,0.0,0.0,0.0,0.0,0
9696000,0,0.7071099,0.00024107077,0.00024149571,0.70711,0.0,0.0,0.0,0.0,0
9704000,0,0.7071099,0.00024128596,0.0002417109,0.70711,0.0,0.0,0.0,0.0,0
9716000,0,0.7071099,0.00024160874,0.0002420337,0.70711,0.0,0.0,0.0,0.0,0
9724000,0,0.7071099,0.00024182393,0.00024224889,0.70711,0.0,0.0,0.0,0.0,0
9736000,0,0.7071099,0.00024214672,0.00024257167,0.70711,0.0,0.0,0.0,0.0,0
9744000,0,0.7071099,0.0002423619,0.00024278686,0.70711,0.0,0.0,0.0,0.0,0
9756000,0,0.7071099,0.00024268469,0.00024310965,0.70711,0.0,0.0,0.0,0.0,0
9764000,0,0.7071099,0.00024289989,0.00024332483,0.70711,0.0,0.0,0.0,0.0,0
9776000,0,0.7071099,0.00024322268,0.00024364762,0.70711,0.0,0.0,0.0,0.0,0
9784000,0,0.7071099,0.00024343785,0.00024386281,0.70711,0.0,0.0,0.0,0.0,0
9796000,0,0.7071099,0.00024376065,0.0002441856,0.70711,0.0,0.0,0.0,0.0,0
9804000,0,0.7071099,0.00024397584,0.00024440078,0.70711,0.0,0.0,0.0,0.0,0
9816000,0,0.7071099,0.00024429863,0.00024472357,0.70711,0.0,0.0,0.0,0.0,0
9824000,0,0.7071099,0.00024451382,0.00024493877,0.70711,0.0,0.0,0.0,0.0,0
9836000,0,0.7071099,0.0002448366,0.00024526156,0.70711,0.0,0.0,0.0,0.0,0
9844000,0,0.7071099,0.00024505178,0.00024547675,0.70711,0.0,0.0,0.0,0.0,0
9856000,0,0.7071099,0.00024537457,0.00024579954,0.70711,0.0,0.0,0.0,0.0,0
9864000,0,0.7071099,0.00024558976,0.0002460147,0.70711,0.0,0.0,0.0,0.0,0
9876000,0,0.7071099,0.00024591255,0.0002463375,0.70711,0.0,0.0,0.0,0.0,0
9884000,0,0.7071099,0.00024612775,0.0002465527,0.70711,0.0,0.0,0.0,0.0,0
9896000,0,0.7071099,0.00024645054,0.00024687548,0.70711,0.0,0.0,0.0,0.0,0
9904000,0,0.7071099,0.00024666573,0.00024709068,0.70711,0.0,0.0,0.0,0.0,0
9916000,0,0.7071099,0.00024698852,0.00024741347,0.70711,0.0,0.0,0.0,0.0,0
9924000,0,0.7071099,0.00024720372,0.00024762866,0.70711,0.0,0.0,0.0,0.0,0
9936000,0,0.7071099,0.00024752648,0.00024795145,0.70711,0.0,0.0,0.0,0.0,0
9944000,0,0.7071099,0.00024774167,0.00024816665,0.70711,0.0,0.0,0.0,0.0,0
9956000,0,0.7071099,0.00024806446,0.0002484894,0.70711,0.0,0.0,0.0,0.0,0
9964000,0,0.7071099,0.00024827966,0.0002487046,0.70711,0.0,0.0,0.0,0.0,0
9976000,0,0.7071099,0.00024860245,0.0002490274,0.70711,0.0,0.0,0.0,0.0,0
9984000,0,0.7071099,0.00024881764,0.00024924258,0.70711,0.0,0.0,0.0,0.0,0
9996000,0,0.7071099,0.00024914043,0.00024956538,0.70711,0.0,0.0,0.0,0.0,0
10004000,0,0.7071099,0.00024935562,0.00024978057,0.70711,0.0,0.0,0.0,0.0,0
10016000,0,0.7071099,0.0002496784,0.00025010336,0.70711,0.0,0.0,0.0,0.0,0
10024000,0,0.7071099,0.0002498936,0.00025031855,0.70711,0.0,0.0,0.0,0.0,0
10036000,0,0.7071099,0.0002502164,0.00025064134,0.70711,0.0,0.0,0.0,0.0,0
10044000,0,0.7071099,0.00025043156,0.00025085654,0.70711,0.0,0.0,0.0,0.0,0
10056000,0,0.7071099,0.00025075435,0.00025117933,0.70711,0.0,0.0,0.0,0.0,0
10064000,0,0.7071099,0.00025096955,0.00025139452,0.70711,0.0,0.0,0.0,0.0,0
10076000,0,0.7071099,0.00025129234,0.00025171728,0.70711,0.0,0.0,0.0,0.0,0
10084000,0,0.7071099,0.00025150753,0.00025193248,0.70711,0.0,0.0,0.0,0.0,0
10096000,0,0.7071099,0.00025183032,0.00025225527,0.70711,0.0,0.0,0.0,0.0,0
10104000,0,0.7071099,0.00025204552,0.00025247046,0.70711,0.0,0.0,0.0,0.0,0
10116000,0,0.7071099,0.0002523683,0.00025279325,0.70711,0.0,0.0,0.0,0.0,0
10124000,0,0.7071099,0.0002525835,0.00025300845,0.70711,0.0,0.0,0.0,0.0,0
10136000,0,0.7071099,0.0002529063,0.00025333124,0.70711,0.0,0.0,0.0,0.0,0
10144000,0,0.7071099,0.00025312149,0.00025354643,0.70711,0.0,0.0,0.0,0.0,0
10156000,0,0.7071099,0.00025344428,0.00025386922,0.70711,0.0,0.0,0.0,0.0,0
10164000,0,0.7071099,0.00025365947,0.0002540844,0.70711,0.0,0.0,0.0,0.0,0
10176000,0,0.7071099,0.00025398226,0.0002544072,0.70711,0.0,0.0,0.0,0.0,0
10184000,0,0.7071099,0.00025419745,0.0002546224,0.70711,0.0,0.0,0.0,0.0,0
10196000,0,0.7071099,0.00025452024,0.0002549452,0.70711,0.0,0.0,0.0,0.0,0
10204000,0,0.7071099,0.00025473544,0.00025516038,0.70711,0.0,0.0,0.0,0.0,0
10216000,0,0.7071099,0.00025505823,0.00025548317,0.70711,0.0,0.0,0.0,0.0,0
10224000,0,0.7071099,0.0002552734,0.00025569837,0.70711,0.0,0.0,0.0,0.0,0
10236000,0,0.7071099,0.00025559618,0.00025602116,0.70711,0.0,0.0,0.0,0.0,0
10244000,0,0.7071099,0.00025581138,0.00025623635,0.70711,0.0,0.0,0.0,0.0,0
10256000,0,0.7071099,0.00025613417,0.00025655914,0.70711,0.0,0.0,0.0,0.0,0
10264000,0,0.7071099,0.00025634936,0.00025677434,0.70711,0.0,0.0,0.0,0.0,0
10276000,0,0.7071099,0.00025667215,0.0002570971,0.70711,0.0,0.0,0.0,0.0,0
10284000,0,0.7071099,0.00025688735,0.0002573123,0.70711,0.0,0.0,0.0,0.0,0
10296000,0,0.7071099,0.00025721014,0.00025763508,0.70711,0.0,0.0,0.0,0.0,0
10304000,0,0.7071099,0.00025742533,0.00025785028,0.70711,0.0,0.0,0.0,0.0,0
10316000,0,0.7071099,0.00025774812,0.00025817307,0.70711,0.0,0.0,0.0,0.0,0
10324000,0,0.7071099,0.00025796331,0.00025838826,0.70711,0.0,0.0,0.0,0.0,0
10336000,0,0.7071099,0.0002582861,0.00025871105,0.70711,0.0,0.0,0.0,0.0,0
10344000,0,0.7071099,0.0002585013,0.00025892624,0.70711,0.0,0.0,0.0,0.0,0
10356000,0,0.7071099,0.0002588241,0.00025924903,0.70711,0.0,0.0,0.0,0.0,0
10364000,0,0.7071099,0.00025903928,0.00025946423,0.70711,0.0,0.0,0.0,0.0,0
10376000,0,0.7071099,0.00025936207,0.00025978702,0.70711,0.0,0.0,0.0,0.0,0
10384000,0,0.7071099,0.00025957727,0.0002600022,0.70711,0.0,0.0,0.0,0.0,0
10396000,0,0.7071099,0.00025990006,0.000260325,0.70711,0.0,0.0,0.0,0.0,0
10404000,0,0.7071099,0.00026011525,0.0002605402,0.70711,0.0,0.0,0.0,0.0,0
10416000,0,0.7071099,0.00026043804,0.000260863,0.70711,0.0,0.0,0.0,0.0,0
10424000,0,0.7071099,0.00026065324,0.00026107818,0.70711,0.0,0.0,0.0,0.0,0
10436000,0,0.7071099,0.00026097603,0.00026140097,0.70711,0.0,0.0,0.0,0.0,0
10444000,0,0.7071099,0.00026119122,0.00026161617,0.70711,0.0,0.0,0.0,0.0,0
10456000,0,0.7071099,0.000261514,0.00026193896,0.70711,0.0,0.0,0.0,0.0,0
10464000,0,0.7071099,0.0002617292,0.00026215415,0.70711,0.0,0.0,0.0,0.0,0
10476000,0,0.7071099,0.000262052,0.00026247694,0.70711,0.0,0.0,0.0,0.0,0
10484000,0,0.7071099,0.0002622672,0.00026269213,0.70711,0.0,0.0,0.0,0.0,0
10496000,0,0.7071099,0.00026258998,0.00026301492,0.70711,0.0,0.0,0.0,0.0,0
10504000,0,0.7071099,0.00026280517,0.00026323012,0.70711,0.0,0.0,0.0,0.0,0
10516000,0,0.7071099,0.00026312796,0.0002635529,0.70711,0.0,0.0,0.0,0.0,0
10524000,0,0.7071099,0.00026334316,0.0002637681,0.70711,0.0,0.0,0.0,0.0,0
10536000,0,0.7071099,0.00026366595,0.0002640909,0.70711,0.0,0.0,0.0,0.0,0
10544000,0,0.7071099,0.00026388114,0.00026430612,0.70711,0.0,0.0,0.0,0.0,0
10556000,0,0.7071099,0.00026420393,0.0002646289,0.70711,0.0,0.0,0.0,0.0,0
10564000,0,0.7071099,0.00026441913,0.0002648441,0.70711,0.0,0.0,0.0,0.0,0
10576000,0,0.7071099,0.00026474195,0.0002651669,0.70711,0.0,0.0,0.0,0.0,0
10584000,0,0.7071099,0.00026495714,0.00026538208,0.70711,0.0,0.0,0.0,0.0,0
10596000,0,0.7071099,0.00026527993,0.00026570488,0.70711,0.0,0.0,0.0,0.0,0
10604000,0,0.7071099,0.00026549512,0.00026592007,0.70711,0.0,0.0,0.0,0.0,0
10616000,0,0.7071099,0.00026581791,0.00026624286,0.70711,0.0,0.0,0.0,0.0,0
10624000,0,0.7071099,0.0002660331,0.00026645805,0.70711,0.0,0.0,0.0,0.0,0
10636000,0,0.7071099,0.0002663559,0.00026678084,0.70711,0.0,0.0,0.0,0.0,0
10644000,0,0.7071099,0.0002665711,0.00026699604,0.70711,0.0,0.0,0.0,0.0,0
10656000,0,0.7071099,0.00026689388,0.00026731883,0.70711,0.0,0.0,0.0,0.0,0
10664000,0,0.7071099,0.00026710908,0.00026753402,0.70711,0.0,0.0,0.0,0.0,0
10676000,0,0.7071099,0.00026743187,0.0002678568,0.70711,0.0,0.0,0.0,0.0,0
10684000,0,0.7071099,0.00026764706,0.000268072,0.70711,0.0,0.0,0.0,0.0,0
10696000,0,0.7071099,0.00026796985,0.0002683948,0.70711,0.0,0.0,0.0,0.0,0
10704000,0,0.7071099,0.00026818505,0.00026861,0.70711,0.0,0.0,0.0,0.0,0
10716000,0,0.7071099,0.00026850784,0.00026893278,0.70711,0.0,0.0,0.0,0.0,0
10724000,0,0.7071099,0.00026872303,0.00026914797,0.70711,0.0,0.0,0.0,0.0,0
10736000,0,0.7071099,0.00026904582,0.00026947077,0.70711,0.0,0.0,0.0,0.0,0
10744000,0,0.7071099,0.000269261,0.000269686,0.70711,0.0,0.0,0.0,0.0,0
10756000,0,0.7071099,0.00026958383,0.00027000878,0.70711,0.0,0.0,0.0,0.0,0
10764000,0,0.7071099,0.00026979903,0.00027022397,0.70711,0.0,0.0,0.0,0.0,0
10776000,0,0.7071099,0.00027012182,0.00027054676,0.70711,0.0,0.0,0.0,0.0,0
10784000,0,0.7071099,0.000270337,0.00027076196,0.70711,0.0,0.0,0.0,0.0,0
10796000,0,0.7071099,0.0002706598,0.00027108475,0.70711,0.0,0.0,0.0,0.0,0
10804000,0,0.7071099,0.000270875,0.00027129994,0.70711,0.0,0.0,0.0,0.0,0
10816000,0,0.7071099,0.0002711978,0.00027162273,0.70711,0.0,0.0,0.0,0.0,0
10824000,0,0.7071099,0.00027141298,0.00027183793,0.70711,0.0,0.0,0.0,0.0,0
10836000,0,0.7071099,0.00027173577,0.00027216072,0.70711,0.0,0.0,0.0,0.0,0
10844000,0,0.7071099,0.00027195096,0.0002723759,0.70711,0.0,0.0,0.0,0.0,0
10856000,0,0.7071099,0.00027227376,0.0002726987,0.70711,0.0,0.0,0.0,0.0,0
10864000,0,0.7071099,0.00027248898,0.00027291392,0.70711,0.0,0.0,0.0,0.0,0
10876000,0,0.7071099,0.00027281177,0.0002732367,0.70711,0.0,0.0,0.0,0.0,0
10884000,0,0.7071099,0.00027302696,0.0002734519,0.70711,0.0,0.0,0.0,0.0,0
10896000,0,0.7071099,0.00027334975,0.0002737747,0.70711,0.0,0.0,0.0,0.0,0
10904000,0,0.7071099,0.00027356495,0.0002739899,0.70711,0.0,0.0,0.0,0.0,0
10916000,0,0.7071099,0.00027388774,0.00027431268,0.70711,0.0,0.0,0.0,0.0,0
10924000,0,0.7071099,0.00027410293,0.00027452788,0.70711,0.0,0.0,0.0,0.0,0
10936000,0,0.7071099,0.00027442572,0.00027485067,0.70711,0.0,0.0,0.0,0.0,0
10944000,0,0.7071099,0.00027464092,0.00027506586,0.70711,0.0,0.0,0.0,0.0,0
10956000,0,0.7071099,0.00027496374,0.00027538868,0.70711,0.0,0.0,0.0,0.0,0
10964000,0,0.7071099,0.00027517893,0.00027560387,0.70711,0.0,0.0,0.0,0.0,0
10976000,0,0.7071099,0.00027550172,0.00027592666,0.70711,0.0,0.0,0.0,0.0,0
10984000,0,0.7071099,0.0002757169,0.00027614186,0.70711,0.0,0.0,0.0,0.0,0
10996000,0,0.7071099,0.0002760397,0.00027646465,0.70711,0.0,0.0,0.0,0.0,0
11004000,0,0.7071099,0.0002762549,0.00027667984,0.70711,0.0,0.0,0.0,0.0,0
11016000,0,0.7071099,0.0002765777,0.00027700263,0.70711,0.0,0.0,0.0,0.0,0
11024000,0,0.7071099,0.00027679288,0.00027721783,0.70711,0.0,0.0,0.0,0.0,0
11036000,0,0.7071099,0.0002771157,0.00027754065,0.70711,0.0,0.0,0.0,0.0,0
11044000,0,0.7071099,0.0002773309,0.00027775584,0.70711,0.0,0.0,0.0,0.0,0
11056000,0,0.7071099,0.0002776537,0.00027807863,0.70711,0.0,0.0,0.0,0.0,0
11064000,0,0.7071099,0.00027786888,0.00027829382,0.70711,0.0,0.0,0.0,0.0,0
11076000,0,0.7071099,0.00027819167,0.00027861662,0.70711,0.0,0.0,0.0,0.0,0
11084000,0,0.7071099,0.00027840686,0.0002788318,0.70711,0.0,0.0,0.0,0.0,0
11096000,0,0.7071099,0.00027872965,0.0002791546,0.70711,0.0,0.0,0.0,0.0,0
11104000,0,0.7071099,0.00027894488,0.0002793698,0.70711,0.0,0.0,0.0,0.0,0
11116000,0,0.7071099,0.00027926767,0.0002796926,0.70711,0.0,0.0,0.0,0.0,0
11124000,0,0.7071099,0.00027948286,0.0002799078,0.70711,0.0,0.0,0.0,0.0,0
11136000,0,0.7071099,0.00027980565,0.0002802306,0.70711,0.0,0.0,0.0,0.0,0
11144000,0,0.7071099,0.00028002085,0.0002804458,0.70711,0.0,0.0,0.0,0.0,0
11156000,0,0.7071099,0.00028034364,0.00028076858,0.70711,0.0,0.0,0.0,0.0,0
11164000,0,0.7071099,0.00028055886,0.00028098378,0.70711,0.0,0.0,0.0,0.0,0
11176000,0,0.7071099,0.00028088165,0.0002813066,0.70711,0.0,0.0,0.0,0.0,0
11184000,0,0.7071099,0.00028109684,0.0002815218,0.70711,0.0,0.0,0.0,0.0,0
11196000,0,0.70710987,0.00028141963,0.00028184458,0.70711,0.0,0.0,0.0,0.0,0
11204000,0,0.70710987,0.00028163483,0.00028205977,0.70711,0.0,0.0,0.0,0.0,0
11216000,0,0.70710987,0.00028195762,0.00028238256,0.70711,0.0,0.0,0.0,0.0,0
11224000,0,0.70710987,0.00028217284,0.00028259776,0.70711,0.0,0.0,0.0,0.0,0
11236000,0,0.70710987,0.00028249563,0.00028292058,0.70711,0.0,0.0,0.0,0.0,0
11244000,0,0.70710987,0.00028271083,0.00028313577,0.70711,0.0,0.0,0.0,0.0,0
11256000,0,0.70710987,0.00028303362,0.00028345856,0.70711,0.0,0.0,0.0,0.0,0
11264000,0,0.70710987,0.0002832488,0.00028367375,0.70711,0.0,0.0,0.0,0.0,0
11276000,0,0.70710987,0.0002835716,0.00028399655,0.70711,0.0,0.0,0.0,0.0,0
11284000,0,0.70710987,0.00028378682,0.00028421174,0.70711,0.0,0.0,0.0,0.0,0
11296000,0,0.70710987,0.0002841096,0.00028453456,0.70711,0.0,0.0,0.0,0.0,0
11304000,0,0.70710987,0.0002843248,0.00028474975,0.70711,0.0,0.0,0.0,0.0,0
11316000,0,0.70710987,0.0002846476,0.00028507254,0.70711,0.0,0.0,0.0,0.0,0
11324000,0,0.70710987,0.0002848628,0.00028528774,0.70711,0.0,0.0,0.0,0.0,0
11336000,0,0.70710987,0.0002851856,0.00028561053,0.70711,0.0,0.0,0.0,0.0,0
11344000,0,0.70710987,0.0002854008,0.00028582575,0.70711,0.0,0.0,0.0,0.0,0
11356000,0,0.70710987,0.0002857236,0.00028614854,0.70711,0.0,0.0,0.0,0.0,0
11364000,0,0.70710987,0.0002859388,0.00028636373,0.70711,0.0,0.0,0.0,0.0,0
11376000,0,0.70710987,0.00028626158,0.00028668653,0.70711,0.0,0.0,0.0,0.0,0
11384000,0,0.70710987,0.0002864768,0.00028690172,0.70711,0.0,0.0,0.0,0.0,0
11396000,0,0.70710987,0.0002867996,0.00028722454,0.70711,0.0,0.0,0.0,0.0,0
11404000,0,0.70710987,0.0002870148,0.00028743973,0.70711,0.0,0.0,0.0,0.0,0
11416000,0,0.70710987,0.00028733758,0.00028776252,0.70711,0.0,0.0,0.0,0.0,0
11424000,0,0.70710987,0.00028755277,0.00028797772,0.70711,0.0,0.0,0.0,0.0,0
11436000,0,0.70710987,0.0002878756,0.00028830054,0.70711,0.0,0.0,0.0,0.0,0
11444000,0,0.70710987,0.00028809079,0.00028851573,0.70711,0.0,0.0,0.0,0.0,0
11456000,0,0.70710987,0.00028841358,0.00028883852,0.70711,0.0,0.0,0.0,0.0,0
11464000,0,0.70710987,0.00028862877,0.0002890537,0.70711,0.0,0.0,0.0,0.0,0
11476000,0,0.70710987,0.0002889516,0.0002893765,0.70711,0.0,0.0,0.0,0.0,0
11484000,0,0.70710987,0.00028916678,0.00028959173,0.70711,0.0,0.0,0.0,0.0,0
11496000,0,0.70710987,0.00028948957,0.00028991452,0.70711,0.0,0.0,0.0,0.0,0
11504000,0,0.70710987,0.00028970477,0.0002901297,0.70711,0.0,0.0,0.0,0.0,0
