timestamp,data_rate,rate_multiplier,tx_rate_avg,tx_error_rate_avg,tx_message_count,tx_buffer_overruns,rx_rate_avg,rx_message_count,rx_message_lost_count,rx_buffer_overruns,rx_parse_errors,rx_packet_drop_count,rx_message_lost_rate,type,mode,flow_control,forwarding,mavlink_v2,ftp,streams,heartbeat_type_antenna_tracker,heartbeat_type_gcs,heartbeat_type_onboard_controller,heartbeat_type_gimbal,heartbeat_type_adsb,heartbeat_type_camera,heartbeat_type_parachute,heartbeat_type_open_drone_id,heartbeat_component_telemetry_radio,heartbeat_component_log,heartbeat_component_osd,heartbeat_component_obstacle_avoidance,heartbeat_component_vio,heartbeat_component_pairing_manager,heartbeat_component_udp_bridge,heartbeat_component_uart_bridge,avoidance_system_healthy,open_drone_id_system_healthy,parachute_system_healthy
3340000,4000000.0,1.0,0.0,0.0,2,0,0.0,0,0,0,0,0,0.0,0,2,0,1,1,1,60,0,0,0,0,0,0,0,0,0,0,0,0,0,0,0,0,0,0,0
4600000,4000000.0,1.0,21854.582,0.0,444,0,0.0,0,0,0,0,0,0.0,0,2,0,1,1,1,60,0,0,0,0,0,0,0,0,0,0,0,0,0,0,0,0,0,0,0
5860000,4000000.0,1.0,23607.57,0.0,933,0,0.0,0,0,0,0,0,0.0,0,2,0,1,1,1,60,0,0,0,0,0,0,0,0,0,0,0,0,0,0,0,0,0,0,0
7120000,4000000.0,1.0,23307.77,0.0,1407,0,0.0,0,0,0,0,0,0.0,0,2,0,1,1,1,60,0,0,0,0,0,0,0,0,0,0,0,0,0,0,0,0,0,0,0
8120000,4000000.0,1.0,23470.121,0.0,1790,0,0.0,0,0,0,0,0,0.0,0,2,0,1,1,1,60,0,0,0,0,0,0,0,0,0,0,0,0,0,0,0,0,0,0,0
8376000,4000000.0,1.0,23361.555,0.0,1902,0,0.0,0,0,0,0,0,0.0,0,2,0,1,1,1,60,0,0,0,0,0,0,0,0,0,0,0,0,0,0,0,0,0,0,0
9632000,4000000.0,1.0,24989.045,0.0,2442,0,0.0,0,0,0,0,0,0.0,0,2,0,1,1,1,60,0,0,0,0,0,0,0,0,0,0,0,0,0,0,0,0,0,0,0
10892000,4000000.0,1.0,25405.379,0.0,2982,0,0.0,0,0,0,0,0,0.0,0,2,0,1,1,1,60,0,0,0,0,0,0,0,0,0,0,0,0,0,0,0,0,0,0,0
12148000,4000000.0,1.0,25930.28,0.0,3530,0,0.0,0,0,0,0,0,0.0,0,2,0,1,1,1,60,0,0,0,0,0,0,0,0,0,0,0,0,0,0,0,0,0,0,0
13148000,4000000.0,1.0,25441.236,0.0,3963,0,0.0,0,0,0,0,0,0.0,0,2,0,1,1,1,60,0,0,0,0,0,0,0,0,0,0,0,0,0,0,0,0,0,0,0
13400000,4000000.0,1.0,25529.88,0.0,4079,0,0.0,0,0,0,0,0,0.0,0,2,0,1,1,1,60,0,0,0,0,0,0,0,0,0,0,0,0,0,0,0,0,0,0,0
14664000,4000000.0,1.0,26164.344,0.0,4637,0,0.0,0,0,0,0,0,0.0,0,2,0,1,1,1,60,0,0,0,0,0,0,0,0,0,0,0,0,0,0,0,0,0,0,0
15920000,4000000.0,1.0,26328.686,0.0,5190,0,0.0,0,0,0,0,0,0.0,0,2,0,1,1,1,60,0,0,0,0,0,0,0,0,0,0,0,0,0,0,0,0,0,0,0
17176000,4000000.0,1.0,26200.2,0.0,5749,0,0.0,0,0,0,0,0,0.0,0,2,0,1,1,1,60,0,0,0,0,0,0,0,0,0,0,0,0,0,0,0,0,0,0,0
18176000,4000000.0,1.0,26401.395,0.0,6193,0,0.0,0,0,0,0,0,0.0,0,2,0,1,1,1,60,0,0,0,0,0,0,0,0,0,0,0,0,0,0,0,0,0,0,0
18436000,4000000.0,1.0,26243.03,0.0,6320,0,0.0,0,0,0,0,0,0.0,0,2,0,1,1,1,60,0,0,0,0,0,0,0,0,0,0,0,0,0,0,0,0,0,0,0
19692000,4000000.0,1.0,26549.8,0.0,6870,0,0.0,0,0,0,0,0,0.0,0,2,0,1,1,1,60,0,0,0,0,0,0,0,0,0,0,0,0,0,0,0,0,0,0,0
20944000,4000000.0,1.0,26199.203,0.0,7427,0,0.0,0,0,0,0,0,0.0,0,2,0,1,1,1,60,0,0,0,0,0,0,0,0,0,0,0,0,0,0,0,0,0,0,0
22196000,4000000.0,1.0,26307.77,0.0,7978,0,0.0,0,0,0,0,0,0.0,0,2,0,1,1,1,60,0,0,0,0,0,0,0,0,0,0,0,0,0,0,0,0,0,0,0
23196000,4000000.0,1.0,26234.064,0.0,8420,0,0.0,0,0,0,0,0,0.0,0,2,0,1,1,1,60,0,0,0,0,0,0,0,0,0,0,0,0,0,0,0,0,0,0,0
23456000,4000000.0,1.0,26335.658,0.0,8544,0,0.0,0,0,0,0,0,0.0,0,2,0,1,1,1,60,0,0,0,0,0,0,0,0,0,0,0,0,0,0,0,0,0,0,0
24712000,4000000.0,1.0,26174.303,0.0,9097,0,0.0,0,0,0,0,0,0.0,0,2,0,1,1,1,60,0,0,0,0,0,0,0,0,0,0,0,0,0,0,0,0,0,0,0
25964000,4000000.0,1.0,26292.83,0.0,9656,0,0.0,0,0,0,0,0,0.0,0,2,0,1,1,1,60,0,0,0,0,0,0,0,0,0,0,0,0,0,0,0,0,0,0,0
27220000,4000000.0,1.0,26201.195,0.0,10202,0,0.0,0,0,0,0,0,0.0,0,2,0,1,1,1,60,0,0,0,0,0,0,0,0,0,0,0,0,0,0,0,0,0,0,0
28220000,4000000.0,1.0,27055.777,0.0,10647,0,0.0,0,0,0,0,0,0.0,0,2,0,1,1,1,60,0,0,0,0,0,0,0,0,0,0,0,0,0,0,0,0,0,0,0
28472000,4000000.0,1.0,26229.084,0.0,10770,0,0.0,0,0,0,0,0,0.0,0,2,0,1,1,1,60,0,0,0,0,0,0,0,0,0,0,0,0,0,0,0,0,0,0,0
29728000,4000000.0,1.0,26266.934,0.0,11333,0,0.0,0,0,0,0,0,0.0,0,2,0,1,1,1,60,0,0,0,0,0,0,0,0,0,0,0,0,0,0,0,0,0,0,0
30980000,4000000.0,1.0,26203.188,0.0,11878,0,0.0,0,0,0,0,0,0.0,0,2,0,1,1,1,60,0,0,0,0,0,0,0,0,0,0,0,0,0,0,0,0,0,0,0
32236000,4000000.0,1.0,26306.773,0.0,12438,0,0.0,0,0,0,0,0,0.0,0,2,0,1,1,1,60,0,0,0,0,0,0,0,0,0,0,0,0,0,0,0,0,0,0,0
33236000,4000000.0,1.0,26234.064,0.0,12880,0,0.0,0,0,0,0,0,0.0,0,2,0,1,1,1,60,0,0,0,0,0,0,0,0,0,0,0,0,0,0,0,0,0,0,0
33496000,4000000.0,1.0,26351.594,0.0,12999,0,0.0,0,0,0,0,0,0.0,0,2,0,1,1,1,60,0,0,0,0,0,0,0,0,0,0,0,0,0,0,0,0,0,0,0
34752000,4000000.0,1.0,26161.355,0.0,13560,0,0.0,0,0,0,0,0,0.0,0,2,0,1,1,1,60,0,0,0,0,0,0,0,0,0,0,0,0,0,0,0,0,0,0,0
36008000,4000000.0,1.0,26332.67,0.0,14110,0,0.0,0,0,0,0,0,0.0,0,2,0,1,1,1,60,0,0,0,0,0,0,0,0,0,0,0,0,0,0,0,0,0,0,0
37268000,4000000.0,1.0,26482.072,0.0,14668,0,0.0,0,0,0,0,0,0.0,0,2,0,1,1,1,60,0,0,0,0,0,0,0,0,0,0,0,0,0,0,0,0,0,0,0
38268000,4000000.0,1.0,26339.643,0.0,15113,0,0.0,0,0,0,0,0,0.0,0,2,0,1,1,1,60,0,0,0,0,0,0,0,0,0,0,0,0,0,0,0,0,0,0,0
38524000,4000000.0,1.0,26247.014,0.0,15225,0,0.0,0,0,0,0,0,0.0,0,2,0,1,1,1,60,0,0,0,0,0,0,0,0,0,0,0,0,0,0,0,0,0,0,0
39784000,4000000.0,1.0,26265.938,0.0,15790,0,0.0,0,0,0,0,0,0.0,0,2,0,1,1,1,60,0,0,0,0,0,0,0,0,0,0,0,0,0,0,0,0,0,0,0
41040000,4000000.0,1.0,26202.191,0.0,16347,0,0.0,0,0,0,0,0,0.0,0,2,0,1,1,1,60,0,0,0,0,0,0,0,0,0,0,0,0,0,0,0,0,0,0,0
42296000,4000000.0,1.0,26307.77,0.0,16899,0,0.0,0,0,0,0,0,0.0,0,2,0,1,1,1,60,0,0,0,0,0,0,0,0,0,0,0,0,0,0,0,0,0,0,0
43296000,4000000.0,1.0,26299.8,0.0,17341,0,0.0,0,0,0,0,0,0.0,0,2,0,1,1,1,60,0,0,0,0,0,0,0,0,0,0,0,0,0,0,0,0,0,0,0
43548000,4000000.0,1.0,26337.65,0.0,17466,0,0.0,0,0,0,0,0,0.0,0,2,0,1,1,1,60,0,0,0,0,0,0,0,0,0,0,0,0,0,0,0,0,0,0,0
44808000,4000000.0,1.0,26445.22,0.0,18017,0,0.0,0,0,0,0,0,0.0,0,2,0,1,1,1,60,0,0,0,0,0,0,0,0,0,0,0,0,0,0,0,0,0,0,0
46064000,4000000.0,1.0,26371.516,0.0,18577,0,0.0,0,0,0,0,0,0.0,0,2,0,1,1,1,60,0,0,0,0,0,0,0,0,0,0,0,0,0,0,0,0,0,0,0
47320000,4000000.0,1.0,26156.375,0.0,19123,0,0.0,0,0,0,0,0,0.0,0,2,0,1,1,1,60,0,0,0,0,0,0,0,0,0,0,0,0,0,0,0,0,0,0,0
48320000,4000000.0,1.0,26361.555,0.0,19568,0,0.0,0,0,0,0,0,0.0,0,2,0,1,1,1,60,0,0,0,0,0,0,0,0,0,0,0,0,0,0,0,0,0,0,0
48580000,4000000.0,1.0,26114.543,0.0,19694,0,0.0,0,0,0,0,0,0.0,0,2,0,1,1,1,60,0,0,0,0,0,0,0,0,0,0,0,0,0,0,0,0,0,0,0
