timestamp,timestamp_sample,time_last_fuse,device_id,observation[0],observation[1],observation_variance[0],observation_variance[1],innovation[0],innovation[1],innovation_variance[0],innovation_variance[1],test_ratio[0],test_ratio[1],estimator_instance,fusion_enabled,innovation_rejected,fused
3108000,3108000,3108000,0,0.0,0.0,0.25,0.25,3.6619138e-08,-1.2283679e-08,0.500009,0.500009,2.9798603e-16,3.3530233e-17,3,0,0,0
3396000,3316000,3316000,0,0.0,0.0,1e-04,1e-04,-0.00014432905,-0.00034134384,100.000175,100.000175,2.3145376e-11,1.2946157e-10,3,1,0,1
3604000,3524000,3524000,0,0.0,0.0,1e-04,1e-04,9.973305e-05,2.5122119e-05,0.00021538977,0.00021538658,5.1311017e-06,3.2557526e-07,3,1,0,1
3812000,3732000,3732000,0,0.0,0.0,1e-04,1e-04,0.0005444201,2.1307895e-05,0.00059039984,0.00059031777,5.5780132e-05,8.5458e-08,3,1,0,1
4020000,3940000,3940000,0,0.0,0.0,1e-04,1e-04,0.0007020363,-6.718501e-05,0.0009318866,0.0009318695,5.87643e-05,5.382043e-07,3,1,0,1
4228000,4148000,4148000,0,0.0,0.0,1e-04,1e-04,0.0005103834,-0.000109632405,0.00068110775,0.0006811136,4.24947e-05,1.960721e-06,3,1,0,1
4436000,4356000,4356000,0,0.0,0.0,1e-04,1e-04,0.0005800224,-7.77036e-05,0.00055829005,0.00055829925,6.695563e-05,1.2016354e-06,3,1,0,1
4644000,4564000,4564000,0,0.0,0.0,1e-04,1e-04,0.00061846385,-0.00033073477,0.00050196843,0.0005019752,8.466613e-05,2.4212237e-05,3,1,0,1
4852000,4772000,4772000,0,0.0,0.0,1e-04,1e-04,0.0004545854,-0.00077523495,0.00046184243,0.000461844,4.9715814e-05,0.00014458687,3,1,0,1
5060000,4980000,4980000,0,0.0,0.0,1e-04,1e-04,0.00020597507,-0.00072509644,0.00042523342,0.00042523484,1.1085605e-05,0.00013737894,3,1,0,1
5268000,5188000,5188000,0,0.0,0.0,1e-04,1e-04,0.00036472204,-0.0005118186,0.0003928901,0.00039289249,3.7619277e-05,7.408255e-05,3,1,0,1
5476000,5396000,5396000,0,0.0,0.0,1e-04,1e-04,0.0002934122,0.000121299796,0.00036615657,0.00036616018,2.612444e-05,4.4648464e-06,3,1,0,1
5684000,5604000,5604000,0,0.0,0.0,1e-04,1e-04,0.00024695837,0.00047827853,0.0003449872,0.00034499003,1.9642735e-05,7.367374e-05,3,1,0,1
5892000,5812000,5812000,0,0.0,0.0,1e-04,1e-04,0.00023161502,0.0003389813,0.0003283955,0.00032839726,1.8150715e-05,3.8878494e-05,3,1,0,1
6100000,6020000,6020000,0,0.0,0.0,1e-04,1e-04,0.00025141446,0.00010141592,0.00031536995,0.0003153709,2.2269869e-05,3.6236656e-06,3,1,0,1
6308000,6228000,6228000,0,0.0,0.0,1e-04,1e-04,0.000116767456,-2.8163702e-05,0.00030499732,0.00030499755,4.9671253e-06,2.8896193e-07,3,1,0,1
6516000,6436000,6436000,0,0.0,0.0,1e-04,1e-04,-0.00052982196,4.2852767e-05,0.00029660758,0.00029660837,0.00010515626,6.8791036e-07,3,1,0,1
6724000,6644000,6644000,0,0.0,0.0,1e-04,1e-04,-0.00079266477,0.0001466874,0.0002897161,0.0002897169,0.00024097056,8.25219e-06,3,1,0,1
6932000,6852000,6852000,0,0.0,0.0,1e-04,1e-04,-0.000726771,0.00052744366,0.00028398106,0.00028398115,0.00020666327,0.00010884791,3,1,0,1
7140000,7060000,7060000,0,0.0,0.0,1e-04,1e-04,-0.00046532505,0.0011502303,0.00027914258,0.00027914124,8.6187494e-05,0.000526627,3,1,0,1
7348000,7268000,7268000,0,0.0,0.0,1e-04,1e-04,-0.00012279184,0.001653861,0.00027502037,0.0002750185,6.091603e-06,0.0011050795,3,1,0,1
7556000,7476000,7476000,0,0.0,0.0,1e-04,1e-04,0.00020456959,0.0016683112,0.00027146828,0.0002714683,1.7128548e-05,0.0011391803,3,1,0,1
7764000,7684000,7684000,0,0.0,0.0,1e-04,1e-04,0.00028060496,0.0012318486,0.00026837827,0.00026838022,3.259874e-05,0.00062823435,3,1,0,1
7972000,7892000,7892000,0,0.0,0.0,1e-04,1e-04,0.00012015994,0.00088974007,0.00026568494,0.0002656873,6.038234e-06,0.0003310648,3,1,0,1
8180000,8100000,8100000,0,0.0,0.0,1e-04,1e-04,-0.00010405996,0.00047664793,0.00026331097,0.00026331257,4.569365e-06,9.5869684e-05,3,1,0,1
8388000,8308000,8308000,0,0.0,0.0,1e-04,1e-04,-0.00042092009,0.00041728167,0.0002612098,0.00026121121,7.536459e-05,7.406692e-05,3,1,0,1
8596000,8516000,8516000,0,0.0,0.0,1e-04,1e-04,-0.000357724,0.00023818747,0.00025930104,0.00025930227,5.4833927e-05,2.4310226e-05,3,1,0,1
8804000,8724000,8724000,0,0.0,0.0,1e-04,1e-04,-0.0001094979,0.000374606,0.00025758217,0.00025758374,5.1719376e-06,6.053248e-05,3,1,0,1
9012000,8932000,8932000,0,0.0,0.0,1e-04,1e-04,0.00030556714,0.0006280298,0.00025603507,0.0002560369,4.052018e-05,0.0001711652,3,1,0,1
9220000,9140000,9140000,0,0.0,0.0,1e-04,1e-04,0.00073254027,0.0007885438,0.0002546347,0.00025463614,0.0002341547,0.00027132453,3,1,0,1
9428000,9348000,9348000,0,0.0,0.0,1e-04,1e-04,0.000898763,0.0008721269,0.00025337527,0.00025337515,0.00035422863,0.00033354375,3,1,0,1
9636000,9556000,9556000,0,0.0,0.0,1e-04,1e-04,0.00092310697,0.0008462369,0.0002522216,0.00025221915,0.00037538703,0.00031547382,3,1,0,1
9844000,9764000,9764000,0,0.0,0.0,1e-04,1e-04,0.001040456,0.0008474986,0.0002511599,0.00025115482,0.0004789108,0.00031775614,3,1,0,1
10052000,9972000,9972000,0,0.0,0.0,1e-04,1e-04,0.00087755895,0.00063603197,0.00025018465,0.00025017594,0.00034201835,0.00017966762,3,1,0,1
10260000,10180000,10180000,0,0.0,0.0,1e-04,1e-04,0.00041139012,0.00040605917,0.00024928604,0.0002492739,7.543402e-05,7.349526e-05,3,1,0,1
10468000,10388000,10388000,0,0.0,0.0,1e-04,1e-04,-1.7081844e-05,-6.1356994e-05,0.0002484749,0.0002484605,1.3048015e-07,1.6835586e-06,3,1,0,1
10676000,10596000,10596000,0,0.0,0.0,1e-04,1e-04,-0.00034495615,-0.00036937988,0.0002477196,0.00024770424,5.33734e-05,6.120269e-05,3,1,0,1
10884000,10804000,10804000,0,0.0,0.0,1e-04,1e-04,-0.00022584951,-0.0006278721,0.00024701495,0.000246999,2.2944181e-05,0.00017733917,3,1,0,1
11092000,11012000,11012000,0,0.0,0.0,1e-04,1e-04,-0.00019534344,-0.0008501131,0.00024635455,0.00024633753,1.7210541e-05,0.000325972,3,1,0,1
11300000,11220000,11220000,0,0.0,0.0,1e-04,1e-04,-0.0004471565,-0.0009611569,0.0002457422,0.0002457238,9.0405905e-05,0.00041773307,3,1,0,1
11508000,11428000,11428000,0,0.0,0.0,1e-04,1e-04,-0.00065611093,-0.0010929789,0.00024517693,0.0002451569,0.00019508884,0.0005414232,3,1,0,1
11716000,11636000,11636000,0,0.0,0.0,1e-04,1e-04,-0.0007264479,-0.001211819,0.00024464662,0.00024462616,0.00023967748,0.0006670066,3,1,0,1
11924000,11844000,11844000,0,0.0,0.0,1e-04,1e-04,-0.0009729054,-0.0009944348,0.00024416388,0.00024414549,0.0004307421,0.0004500507,3,1,0,1
12132000,12052000,12052000,0,0.0,0.0,1e-04,1e-04,-0.0011371875,-0.00048969296,0.00024372732,0.00024371236,0.00058954564,0.00010932705,3,1,0,1
12340000,12260000,12260000,0,0.0,0.0,1e-04,1e-04,-0.0010727197,-0.00031846607,0.00024331713,0.00024330488,0.00052548136,4.6316214e-05,3,1,0,1
12548000,12468000,12468000,0,0.0,0.0,1e-04,1e-04,-0.0008365478,-0.00025925058,0.00024292641,0.00024291594,0.00032008425,3.0742627e-05,3,1,0,1
12756000,12676000,12676000,0,0.0,0.0,1e-04,1e-04,-0.00032603138,0.00044148517,0.00024255007,0.0002425412,4.8693935e-05,8.92903e-05,3,1,0,1
12964000,12884000,12884000,0,0.0,0.0,1e-04,1e-04,-1.1342009e-05,0.0011419656,0.00024219486,0.00024218636,5.9016376e-08,0.000598293,3,1,0,1
13172000,13092000,13092000,0,0.0,0.0,1e-04,1e-04,2.2115997e-05,0.0012948026,0.00024186456,0.00024185513,2.2469753e-07,0.00077021035,3,1,0,1
13380000,13300000,13300000,0,0.0,0.0,1e-04,1e-04,0.00023054195,0.0012119573,0.0002415512,0.00024153976,2.4448274e-05,0.00067568384,3,1,0,1
13588000,13508000,13508000,0,0.0,0.0,1e-04,1e-04,0.0005083394,0.0011693209,0.00024125984,0.00024124555,0.00011900905,0.00062974624,3,1,0,1
13796000,13716000,13716000,0,0.0,0.0,1e-04,1e-04,0.00084881426,0.00090257777,0.00024098853,0.00024097168,0.00033218993,0.0003756304,3,1,0,1
14004000,13924000,13924000,0,0.0,0.0,1e-04,1e-04,0.0006648478,0.0004844604,0.00024073277,0.00024071298,0.00020401718,0.00010833645,3,1,0,1
14212000,14132000,14132000,0,0.0,0.0,1e-04,1e-04,0.0004776811,1.3713815e-05,0.00024048032,0.00024045797,0.00010542754,8.690303e-08,3,1,0,1
14420000,14340000,14340000,0,0.0,0.0,1e-04,1e-04,0.00050983264,-0.00033494053,0.00024024615,0.00024022182,0.000120214354,5.1889616e-05,3,1,0,1
14628000,14548000,14548000,0,0.0,0.0,1e-04,1e-04,0.0005290808,-0.00043528157,0.00024002694,0.00024000209,0.00012958105,8.771685e-05,3,1,0,1
14836000,14756000,14756000,0,0.0,0.0,1e-04,1e-04,0.0007803139,-0.00038630457,0.0002398236,0.00023980008,0.0002821008,6.9146125e-05,3,1,0,1
15044000,14964000,14964000,0,0.0,0.0,1e-04,1e-04,0.00071768626,-0.00014413969,0.00023962991,0.00023960878,0.00023882826,9.634339e-06,3,1,0,1
15252000,15172000,15172000,0,0.0,0.0,1e-04,1e-04,0.0005101212,0.000117178446,0.00023943282,0.0002394148,0.00012075928,6.372384e-06,3,1,0,1
15460000,15380000,15380000,0,0.0,0.0,1e-04,1e-04,0.00043277632,7.462433e-05,0.00023924536,0.00023923043,8.698431e-05,2.5864374e-06,3,1,0,1
15668000,15588000,15588000,0,0.0,0.0,1e-04,1e-04,0.00066460314,0.000114055765,0.00023906777,0.00023905581,0.00020528691,6.0463417e-06,3,1,0,1
15876000,15796000,15796000,0,0.0,0.0,1e-04,1e-04,0.00020751024,-0.00010792047,0.00023889923,0.00023888864,2.0027273e-05,5.4171346e-06,3,1,0,1
16084000,16004000,16004000,0,0.0,0.0,1e-04,1e-04,0.00012301205,-0.00047585246,0.00023874833,0.00023873834,7.042267e-06,0.00010538528,3,1,0,1
16292000,16212000,16212000,0,0.0,0.0,1e-04,1e-04,0.00012566386,-0.00059581845,0.0002385987,0.00023858863,7.353773e-06,0.0001653239,3,1,0,1
16500000,16420000,16420000,0,0.0,0.0,1e-04,1e-04,0.00016372828,-0.0008600214,0.0002384579,0.0002384469,1.2490885e-05,0.00034465478,3,1,0,1
16708000,16628000,16628000,0,0.0,0.0,1e-04,1e-04,-8.755924e-06,-0.0010627271,0.00023831509,0.00023830272,3.5744552e-08,0.0005265893,3,1,0,1
16916000,16836000,16836000,0,0.0,0.0,1e-04,1e-04,-0.00023358082,-0.0011487356,0.00023818357,0.00023816986,2.545189e-05,0.0006156174,3,1,0,1
17124000,17044000,17044000,0,0.0,0.0,1e-04,1e-04,-0.00024026124,-0.0011497543,0.00023806252,0.00023804774,2.6942253e-05,0.00061702606,3,1,0,1
17332000,17252000,17252000,0,0.0,0.0,1e-04,1e-04,-0.00023493251,-0.0012113914,0.00023795373,0.0002379384,2.577218e-05,0.0006852703,3,1,0,1
17540000,17460000,17460000,0,0.0,0.0,1e-04,1e-04,-0.00038886798,-0.0010726573,0.00023785236,0.0002378372,7.06406e-05,0.00053752627,3,1,0,1
17748000,17668000,17668000,0,0.0,0.0,1e-04,1e-04,-0.00051569974,-0.00068153045,0.00023776479,0.0002377501,0.00012428072,0.00021707376,3,1,0,1
17956000,17876000,17876000,0,0.0,0.0,1e-04,1e-04,-0.0005409902,-0.0003007026,0.00023767719,0.00023766264,0.00013681974,4.2273772e-05,3,1,0,1
18164000,18084000,18084000,0,0.0,0.0,1e-04,1e-04,-0.00019246191,-0.00032817997,0.00023757835,0.00023756336,1.7323682e-05,5.0373503e-05,3,1,0,1
18372000,18292000,18292000,0,0.0,0.0,1e-04,1e-04,0.0005290537,-0.0008092474,0.00023747425,0.00023745789,0.00013096054,0.00030643155,3,1,0,1
18580000,18500000,18500000,0,0.0,0.0,1e-04,1e-04,0.00094053504,-0.0011509383,0.00023738132,0.00023736255,0.00041405775,0.0006200824,3,1,0,1
18788000,18708000,18708000,0,0.0,0.0,1e-04,1e-04,0.0010411511,-0.0014806635,0.00023729278,0.00023727157,0.00050757534,0.001026655,3,1,0,1
18996000,18916000,18916000,0,0.0,0.0,1e-04,1e-04,0.00078564597,-0.0017858405,0.00023721316,0.00023719107,0.00028911623,0.0014939789,3,1,0,1
19204000,19124000,19124000,0,0.0,0.0,1e-04,1e-04,8.229307e-05,-0.0017918688,0.00023713903,0.0002371186,3.1730797e-06,0.0015045418,3,1,0,1
19412000,19332000,19332000,0,0.0,0.0,1e-04,1e-04,-0.00013590818,-0.0015434383,0.0002370702,0.00023705373,8.657085e-06,0.0011165785,3,1,0,1
19620000,19540000,19540000,0,0.0,0.0,1e-04,1e-04,5.6209665e-05,-0.0014400512,0.00023700888,0.0002369963,1.481204e-06,0.0009722363,3,1,0,1
19828000,19748000,19748000,0,0.0,0.0,1e-04,1e-04,0.00015621164,-0.0011242514,0.00023694593,0.00023693725,1.1442871e-05,0.0005927219,3,1,0,1
20036000,19956000,19956000,0,0.0,0.0,1e-04,1e-04,0.00025222998,-0.00081602775,0.00023688257,0.00023687733,2.9841305e-05,0.00031235168,3,1,0,1
20244000,20164000,20164000,0,0.0,0.0,1e-04,1e-04,0.00040321596,-0.00067512,0.0002368206,0.00023681784,7.628048e-05,0.0002138479,3,1,0,1
20452000,20372000,20372000,0,0.0,0.0,1e-04,1e-04,0.0001568161,-0.0004119137,0.00023675806,0.00023675672,1.1540748e-05,7.962834e-05,3,1,0,1
20660000,20580000,20580000,0,0.0,0.0,1e-04,1e-04,-0.0003671346,-0.00012334409,0.0002366982,0.0002366975,6.3272244e-05,7.141681e-06,3,1,0,1
20868000,20788000,20788000,0,0.0,0.0,1e-04,1e-04,-0.0011341369,8.235139e-05,0.00023663646,0.00023663635,0.0006039581,3.184329e-06,3,1,0,1
21076000,20996000,20996000,0,0.0,0.0,1e-04,1e-04,-0.0015853518,0.0005775306,0.0002365764,0.00023657657,0.0011804221,0.00015665192,3,1,0,1
21284000,21204000,21204000,0,0.0,0.0,1e-04,1e-04,-0.0020368646,0.00087333703,0.00023652331,0.00023652377,0.0019489821,0.00035829967,3,1,0,1
21492000,21412000,21412000,0,0.0,0.0,1e-04,1e-04,-0.002260551,0.0011387571,0.00023647724,0.00023647721,0.0024010255,0.00060929894,3,1,0,1
21700000,21620000,21620000,0,0.0,0.0,1e-04,1e-04,-0.0021845782,0.0009341532,0.0002364346,0.00023643364,0.002242754,0.00041009494,3,1,0,1
21908000,21828000,21828000,0,0.0,0.0,1e-04,1e-04,-0.0019936515,0.00063205446,0.00023639464,0.0002363931,0.0018681786,0.00018777237,3,1,0,1
22116000,22036000,22036000,0,0.0,0.0,1e-04,1e-04,-0.002130525,0.00051296357,0.00023635224,0.00023635104,0.0021338852,0.00012370094,3,1,0,1
22324000,22244000,22244000,0,0.0,0.0,1e-04,1e-04,-0.002227918,0.00028859673,0.00023630634,0.0002363059,0.0023338909,3.9162078e-05,3,1,0,1
22532000,22452000,22452000,0,0.0,0.0,1e-04,1e-04,-0.002360808,0.00022561596,0.00023625878,0.00023625884,0.0026211438,2.393917e-05,3,1,0,1
22740000,22660000,22660000,0,0.0,0.0,1e-04,1e-04,-0.002072898,0.000111046415,0.00023621324,0.00023621265,0.002021199,5.8004725e-06,3,1,0,1
22948000,22868000,22868000,0,0.0,0.0,1e-04,1e-04,-0.0013910237,-0.00017588737,0.00023616833,0.00023616684,0.00091034273,1.4554854e-05,3,1,0,1
23156000,23076000,23076000,0,0.0,0.0,100.0,100.0,-0.0007607927,-0.00041554653,100.00014,100.00014,6.431164e-10,1.918652e-10,3,1,0,1
23364000,23284000,23284000,0,0.0,0.0,100.0,100.0,-0.00085039757,-0.00076916,100.000435,100.000435,8.035254e-10,6.5733835e-10,3,1,0,1
23572000,23492000,23492000,0,0.0,0.0,100.0,100.0,-0.0010013148,-0.0009324318,100.00165,100.00165,1.1140165e-09,9.660163e-10,3,1,0,1
23780000,23700000,23700000,0,0.0,0.0,100.0,100.0,-0.0011144817,-0.0010588864,100.005135,100.005135,1.3800064e-09,1.2457587e-09,3,1,0,1
23988000,23908000,23908000,0,0.0,0.0,100.0,100.0,-0.0010357568,-0.0010753484,100.012924,100.01293,1.1918372e-09,1.2846939e-09,3,1,0,1
24196000,24116000,24116000,0,0.0,0.0,100.0,100.0,-0.0011396665,-0.0011928309,100.02771,100.02772,1.4427556e-09,1.5805013e-09,3,1,0,1
24404000,24324000,24324000,0,0.0,0.0,100.0,100.0,-0.0017787166,-0.0014676411,100.05284,100.05286,3.513513e-09,2.3920361e-09,3,1,0,1
24612000,24532000,24532000,0,0.0,0.0,100.0,100.0,-0.0029539196,-0.0019987056,100.092316,100.09235,9.686215e-09,4.434598e-09,3,1,0,1
24820000,24740000,24740000,0,0.0,0.0,100.0,100.0,-0.004476468,-0.0027544852,100.150764,100.15081,2.2231777e-08,8.417516e-09,3,1,0,1
25028000,24948000,24948000,0,0.0,0.0,100.0,100.0,-0.006518017,-0.0034291982,100.233345,100.23342,4.7095156e-08,1.3035573e-08,3,1,0,1
25236000,25156000,25156000,0,0.0,0.0,100.0,100.0,-0.008850697,-0.004182043,100.345764,100.34587,8.67388e-08,1.9365778e-08,3,1,0,1
25444000,25364000,25364000,0,0.0,0.0,100.0,100.0,-0.012068219,-0.004377519,100.49398,100.49414,1.6102888e-07,2.1187162e-08,3,1,0,1
25652000,25572000,25572000,0,0.0,0.0,100.0,100.0,-0.015470414,-0.004595604,100.68425,100.68448,2.641191e-07,2.3306665e-08,3,1,0,1
25860000,25780000,25780000,0,0.0,0.0,100.0,100.0,-0.020344274,-0.0031481248,100.92254,100.92287,4.5567344e-07,1.0911182e-08,3,1,0,1
26068000,25988000,25988000,0,0.0,0.0,100.0,100.0,-0.026124695,0.0020140158,101.21531,101.215744,7.492276e-07,4.45282e-09,3,1,0,1
26276000,26196000,26196000,0,0.0,0.0,100.0,100.0,-0.045643527,0.024206763,101.56769,101.56833,2.279084e-06,6.4102153e-07,3,1,0,1
26484000,26404000,26404000,0,0.0,0.0,100.0,100.0,-0.07621087,0.057199538,101.98458,101.98546,6.3278594e-06,3.5645464e-06,3,1,0,1
26692000,26612000,26612000,0,0.0,0.0,100.0,100.0,-0.10777882,0.09111617,102.46708,102.46831,1.2596212e-05,9.0024105e-06,3,1,0,1
26900000,26820000,26820000,0,0.0,0.0,100.0,100.0,-0.13324466,0.11865803,103.01311,103.01464,1.9149818e-05,1.5186329e-05,3,1,0,1
27108000,27028000,27028000,0,0.0,0.0,100.0,100.0,-0.15515935,0.14056757,103.61532,103.61728,2.581603e-05,2.1188273e-05,3,1,0,1
27316000,27236000,27236000,0,0.0,0.0,100.0,100.0,-0.1678075,0.15092044,104.26741,104.26967,3.000763e-05,2.4271443e-05,3,1,0,1
27524000,27444000,27444000,0,0.0,0.0,100.0,100.0,-0.17550512,0.15397832,104.95607,104.95875,3.26084e-05,2.5099092e-05,3,1,0,1
27732000,27652000,27652000,0,0.0,0.0,100.0,100.0,-0.17480063,0.14656697,105.66891,105.67179,3.2128934e-05,2.2587628e-05,3,1,0,1
27940000,27860000,27860000,0,0.0,0.0,100.0,100.0,-0.1725149,0.13565275,106.38717,106.390366,3.1082895e-05,1.9218187e-05,3,1,0,1
28148000,28068000,28068000,0,0.0,0.0,100.0,100.0,-0.1625781,0.11633195,107.09675,107.1,2.7422391e-05,1.4039966e-05,3,1,0,1
28356000,28276000,28276000,0,0.0,0.0,100.0,100.0,-0.1552867,0.09968199,107.77789,107.78127,2.4859724e-05,1.0243481e-05,3,1,0,1
28564000,28484000,28484000,0,0.0,0.0,100.0,100.0,-0.14262703,0.078044206,108.419395,108.42269,2.084751e-05,6.2419263e-06,3,1,0,1
28772000,28692000,28692000,0,0.0,0.0,100.0,100.0,-0.13359429,0.061391775,109.00531,109.00854,1.8192217e-05,3.841646e-06,3,1,0,1
28980000,28900000,28900000,0,0.0,0.0,100.0,100.0,-0.11937137,0.041410677,109.53071,109.53374,1.4455129e-05,1.7395392e-06,3,1,0,1
29188000,29108000,29108000,0,0.0,0.0,100.0,100.0,-0.11076436,0.029918995,109.98573,109.98857,1.2394278e-05,9.0428205e-07,3,1,0,1
29396000,29316000,29316000,0,0.0,0.0,100.0,100.0,-0.09738819,0.01615031,110.36952,110.37212,9.548188e-06,2.6257894e-07,3,1,0,1
29604000,29524000,29524000,0,0.0,0.0,100.0,100.0,-0.091694154,0.012510999,110.67997,110.68236,8.440569e-06,1.5713144e-07,3,1,0,1
29812000,29732000,29732000,0,0.0,0.0,100.0,100.0,-0.086519666,0.011380988,110.92601,110.9282,7.498144e-06,1.2974047e-07,3,1,0,1
30020000,29940000,29940000,0,0.0,0.0,100.0,100.0,-0.07797582,0.0073961886,111.11429,111.11628,6.0800544e-06,5.470106e-08,3,1,0,1
30228000,30148000,30148000,0,0.0,0.0,100.0,100.0,-0.0777619,0.011707667,111.24627,111.24812,6.039567e-06,1.3690065e-07,3,1,0,1
30436000,30356000,30356000,0,0.0,0.0,100.0,100.0,-0.07266566,0.01136315,111.33048,111.33216,5.2698933e-06,1.288648e-07,3,1,0,1
30644000,30564000,30564000,0,0.0,0.0,100.0,100.0,-0.075779356,0.018661037,111.37018,111.37175,5.7291527e-06,3.4741936e-07,3,1,0,1
30852000,30772000,30772000,0,0.0,0.0,100.0,100.0,-0.0762418,0.022341806,111.373665,111.37509,5.7991083e-06,4.979732e-07,3,1,0,1
31060000,30980000,30980000,0,0.0,0.0,100.0,100.0,-0.08370816,0.032450713,111.34445,111.3458,6.9923713e-06,1.0508292e-06,3,1,0,1
31268000,31188000,31188000,0,0.0,0.0,100.0,100.0,-0.08592069,0.036761507,111.28946,111.290695,7.370535e-06,1.3492277e-06,3,1,0,1
31476000,31396000,31396000,0,0.0,0.0,100.0,100.0,-0.093253866,0.044649206,111.21175,111.21289,8.688414e-06,1.9917272e-06,3,1,0,1
31684000,31604000,31604000,0,0.0,0.0,100.0,100.0,-0.09613471,0.047278907,111.11664,111.117676,9.241422e-06,2.235163e-06,3,1,0,1
31892000,31812000,31812000,0,0.0,0.0,100.0,100.0,-0.10188669,0.052021682,111.00682,111.00778,1.03906505e-05,2.7087744e-06,3,1,0,1
32100000,32020000,32020000,0,0.0,0.0,100.0,100.0,-0.103510365,0.051911633,110.88621,110.88708,1.0736127e-05,2.7002623e-06,3,1,0,1
32308000,32228000,32228000,0,0.0,0.0,100.0,100.0,-0.10848561,0.05398179,110.756714,110.7575,1.1806786e-05,2.9233372e-06,3,1,0,1
32516000,32436000,32436000,0,0.0,0.0,100.0,100.0,-0.11006896,0.050895166,110.62113,110.62183,1.2168839e-05,2.601775e-06,3,1,0,1
32724000,32644000,32644000,0,0.0,0.0,100.0,100.0,-0.114961565,0.050293524,110.48083,110.48145,1.3291558e-05,2.5438544e-06,3,1,0,1
32932000,32852000,32852000,0,0.0,0.0,100.0,100.0,-0.11699408,0.047316678,110.33777,110.338326,1.378355e-05,2.2545487e-06,3,1,0,1
33140000,33060000,33060000,0,0.0,0.0,100.0,100.0,-0.121436045,0.04663175,110.19293,110.19342,1.4869589e-05,2.1926296e-06,3,1,0,1
33348000,33268000,33268000,0,0.0,0.0,100.0,100.0,-0.12320309,0.043062635,110.04771,110.04814,1.5325679e-05,1.8723023e-06,3,1,0,1
33556000,33476000,33476000,0,0.0,0.0,100.0,100.0,-0.1263348,0.041014235,109.90276,109.90314,1.6135964e-05,1.7006566e-06,3,1,0,1
33764000,33684000,33684000,0,0.0,0.0,100.0,100.0,-0.12680103,0.03647166,109.75903,109.75935,1.6276565e-05,1.3465641e-06,3,1,0,1
33972000,33892000,33892000,0,0.0,0.0,100.0,100.0,-0.12871693,0.03230739,109.61692,109.61719,1.6793887e-05,1.0579924e-06,3,1,0,1
34180000,34100000,34100000,0,0.0,0.0,100.0,100.0,-0.1289841,0.025032347,109.477036,109.477264,1.6885222e-05,6.359701e-07,3,1,0,1
34388000,34308000,34308000,0,0.0,0.0,100.0,100.0,-0.13060322,0.017901778,109.33964,109.33981,1.7333556e-05,3.256653e-07,3,1,0,1
34596000,34516000,34516000,0,0.0,0.0,100.0,100.0,-0.13056748,0.008349496,109.20516,109.2053,1.7345401e-05,7.093071e-08,3,1,0,1
34804000,34724000,34724000,0,0.0,0.0,100.0,100.0,-0.13191794,-0.00029206497,109.07382,109.07391,1.7727385e-05,8.689515e-11,3,1,0,1
35012000,34932000,34932000,0,0.0,0.0,100.0,100.0,-0.13342178,-0.009257855,108.945854,108.94591,1.8155166e-05,8.7411244e-08,3,1,0,1
35220000,35140000,35140000,0,0.0,0.0,100.0,100.0,-0.1343511,-0.020016281,108.82144,108.82146,1.8430008e-05,4.090814e-07,3,1,0,1
35428000,35348000,35348000,0,0.0,0.0,100.0,100.0,-0.13692506,-0.030564154,108.70067,108.70065,1.916422e-05,9.548828e-07,3,1,0,1
35636000,35556000,35556000,0,0.0,0.0,100.0,100.0,-0.13918172,-0.042375278,108.58368,108.58364,1.982245e-05,1.8374614e-06,3,1,0,1
35844000,35764000,35764000,0,0.0,0.0,100.0,100.0,-0.14262988,-0.053668115,108.4705,108.47042,2.0838519e-05,2.9503863e-06,3,1,0,1
36052000,35972000,35972000,0,0.0,0.0,100.0,100.0,-0.14607556,-0.06607059,108.36117,108.361084,2.187958e-05,4.476107e-06,3,1,0,1
36260000,36180000,36180000,0,0.0,0.0,100.0,100.0,-0.15091503,-0.07792682,108.255684,108.25557,2.3376084e-05,6.2327713e-06,3,1,0,1
36468000,36388000,36388000,0,0.0,0.0,100.0,100.0,-0.15703036,-0.08959812,108.15406,108.15393,2.5332725e-05,8.2473225e-06,3,1,0,1
36676000,36596000,36596000,0,0.0,0.0,100.0,100.0,-0.16465308,-0.09983465,108.05632,108.05617,2.7877064e-05,1.0248741e-05,3,1,0,1
36884000,36804000,36804000,0,0.0,0.0,100.0,100.0,-0.172999,-0.11038075,107.96248,107.96231,3.0801497e-05,1.2539263e-05,3,1,0,1
37092000,37012000,37012000,0,0.0,0.0,100.0,100.0,-0.18228026,-0.12027017,107.87252,107.872345,3.422362e-05,1.4899209e-05,3,1,0,1
37300000,37220000,37220000,0,0.0,0.0,100.0,100.0,-0.19166851,-0.13079865,107.78647,107.78628,3.786995e-05,1.7636019e-05,3,1,0,1
37508000,37428000,37428000,0,0.0,0.0,100.0,100.0,-0.20140705,-0.1409816,107.70428,107.70407,4.1847918e-05,2.0504549e-05,3,1,0,1
37716000,37636000,37636000,0,0.0,0.0,100.0,100.0,-0.21152969,-0.15156528,107.625946,107.625725,4.619374e-05,2.3715967e-05,3,1,0,1
37924000,37844000,37844000,0,0.0,0.0,100.0,100.0,-0.22221647,-0.16171187,107.55144,107.55121,5.1014515e-05,2.701631e-05,3,1,0,1
38132000,38052000,38052000,0,0.0,0.0,100.0,100.0,-0.23345043,-0.17134176,107.48076,107.48052,5.6339904e-05,3.0349684e-05,3,1,0,1
38340000,38260000,38260000,0,0.0,0.0,100.0,100.0,-0.24557863,-0.17979252,107.413864,107.41362,6.238473e-05,3.3438082e-05,3,1,0,1
38548000,38468000,38468000,0,0.0,0.0,100.0,100.0,-0.25911444,-0.18787019,107.35075,107.350494,6.949213e-05,3.653164e-05,3,1,0,1
38756000,38676000,38676000,0,0.0,0.0,100.0,100.0,-0.27397263,-0.19596039,107.291374,107.29111,7.773329e-05,3.976769e-05,3,1,0,1
38964000,38884000,38884000,0,0.0,0.0,100.0,100.0,-0.2899494,-0.20457435,107.235725,107.23546,8.710887e-05,4.336321e-05,3,1,0,1
39172000,39092000,39092000,0,0.0,0.0,100.0,100.0,-0.30631882,-0.21333468,107.18379,107.18352,9.726929e-05,4.7179397e-05,3,1,0,1
39380000,39300000,39300000,0,0.0,0.0,100.0,100.0,-0.3231258,-0.22244045,107.13555,107.13527,0.00010828472,5.1315972e-05,3,1,0,1
39588000,39508000,39508000,0,0.0,0.0,100.0,100.0,-0.3401292,-0.2310577,107.090965,107.090675,0.000120030745,5.5391956e-05,3,1,0,1
39796000,39716000,39716000,0,0.0,0.0,100.0,100.0,-0.3574518,-0.23896952,107.05,107.049706,0.000132619,5.9273018e-05,3,1,0,1
40004000,39924000,39924000,0,0.0,0.0,100.0,100.0,-0.37431088,-0.24643238,107.01261,107.012314,0.00014547468,6.305496e-05,3,1,0,1
40212000,40132000,40132000,0,0.0,0.0,100.0,100.0,-0.39126092,-0.25359473,106.97878,106.97848,0.00015899842,6.679462e-05,3,1,0,1
40420000,40340000,40340000,0,0.0,0.0,100.0,100.0,-0.40883225,-0.26050815,106.94847,106.948166,0.00017364936,7.050611e-05,3,1,0,1
40628000,40548000,40548000,0,0.0,0.0,100.0,100.0,-0.42572817,-0.26722464,106.92165,106.92135,0.0001883461,7.420721e-05,3,1,0,1
40836000,40756000,40756000,0,0.0,0.0,100.0,100.0,-0.44288516,-0.27369627,106.898285,106.89797,0.00020387735,7.7862045e-05,3,1,0,1
41044000,40964000,40964000,0,0.0,0.0,100.0,100.0,-0.45959595,-0.27987784,106.878296,106.87798,0.00021959393,8.143409e-05,3,1,0,1
41252000,41172000,41172000,0,0.0,0.0,100.0,100.0,-0.47631827,-0.28610253,106.86163,106.86131,0.0002359012,8.5109954e-05,3,1,0,1
41460000,41380000,41380000,0,0.0,0.0,100.0,100.0,-0.4917714,-0.29184556,106.84823,106.84791,0.00025148768,8.857225e-05,3,1,0,1
41668000,41588000,41588000,0,0.0,0.0,100.0,100.0,-0.5072933,-0.2974186,106.83804,106.83772,0.00026763926,9.199604e-05,3,1,0,1
41876000,41796000,41796000,0,0.0,0.0,100.0,100.0,-0.521975,-0.3026471,106.830986,106.830666,0.00028337375,9.526528e-05,3,1,0,1
42084000,42004000,42004000,0,0.0,0.0,100.0,100.0,-0.5368593,-0.30788618,106.826996,106.82667,0.00029977635,9.859575e-05,3,1,0,1
42292000,42212000,42212000,0,0.0,0.0,100.0,100.0,-0.5506718,-0.3130082,106.82595,106.82563,0.00031540342,0.000101904516,3,1,0,1
42500000,42420000,42420000,0,0.0,0.0,100.0,100.0,-0.5648728,-0.31815043,106.8278,106.82747,0.000331875,0.00010527848,3,1,0,1
42708000,42628000,42628000,0,0.0,0.0,100.0,100.0,-0.5784529,-0.32317388,106.8324,106.83207,0.00034800902,0.00010862464,3,1,0,1
42916000,42836000,42836000,0,0.0,0.0,100.0,100.0,-0.59213376,-0.32811132,106.839676,106.83934,0.00036464023,0.000111961504,3,1,0,1
43124000,43044000,43044000,0,0.0,0.0,100.0,100.0,-0.60471857,-0.33305869,106.84947,106.849144,0.0003802697,0.000115352756,3,1,0,1
43332000,43252000,43252000,0,0.0,0.0,100.0,100.0,-0.61762583,-0.3383522,106.86172,106.86139,0.00039663064,0.00011903501,3,1,0,1
43540000,43460000,43460000,0,0.0,0.0,100.0,100.0,-0.6292567,-0.34361154,106.876274,106.875946,0.0004116536,0.00012274759,3,1,0,1
43748000,43668000,43668000,0,0.0,0.0,100.0,100.0,-0.64102805,-0.34841254,106.893036,106.8927,0.000427132,0.00012618188,3,1,0,1
43956000,43876000,43876000,0,0.0,0.0,100.0,100.0,-0.6515581,-0.35270128,106.91184,106.911514,0.00044120252,0.00012928469,3,1,0,1
44164000,44084000,44084000,0,0.0,0.0,100.0,100.0,-0.66195476,-0.35597682,106.93257,106.932236,0.00045530678,0.00013167164,3,1,0,1
44372000,44292000,44292000,0,0.0,0.0,100.0,100.0,-0.6707309,-0.3583661,106.95504,106.95471,0.00046736142,0.00013341708,3,1,0,1
44580000,44500000,44500000,0,0.0,0.0,100.0,100.0,-0.67882746,-0.35963657,106.97912,106.97878,0.00047860507,0.0001343345,3,1,0,1
44788000,44708000,44708000,0,0.0,0.0,100.0,100.0,-0.68500465,-0.3595967,107.00433,107.004,0.00048724026,0.00013427305,3,1,0,1
44996000,44916000,44916000,0,0.0,0.0,100.0,100.0,-0.69132006,-0.3575792,107.02936,107.02902,0.0004961499,0.00013273957,3,1,0,1
45204000,45124000,45124000,0,0.0,0.0,100.0,100.0,-0.6959999,-0.35363528,107.05368,107.05335,0.00050277566,0.0001297981,3,1,0,1
45412000,45332000,45332000,0,0.0,0.0,100.0,100.0,-0.698358,-0.3490041,107.07879,107.07845,0.0005060696,0.00012639108,3,1,0,1
45620000,45540000,45540000,0,0.0,0.0,100.0,100.0,-0.70017153,-0.34365857,107.10551,107.10516,0.00050857454,0.00012251842,3,1,0,1
45828000,45748000,45748000,0,0.0,0.0,100.0,100.0,-0.7010278,-0.33765396,107.133286,107.13294,0.000509687,0.00011824374,3,1,0,1
46036000,45956000,45956000,0,0.0,0.0,100.0,100.0,-0.7023495,-0.33092245,107.16177,107.16143,0.0005114747,0.0001135459,3,1,0,1
46244000,46164000,46164000,0,0.0,0.0,100.0,100.0,-0.7025194,-0.3241691,107.190765,107.19042,0.00051158376,0.00010892931,3,1,0,1
46452000,46372000,46372000,0,0.0,0.0,100.0,100.0,-0.70335644,-0.3167912,107.22013,107.21979,0.00051266316,0.00010399891,3,1,0,1
46660000,46580000,46580000,0,0.0,0.0,100.0,100.0,-0.70312774,-0.30938163,107.24974,107.2494,0.00051218836,9.9163466e-05,3,1,0,1
46868000,46788000,46788000,0,0.0,0.0,100.0,100.0,-0.70340455,-0.30133903,107.279495,107.27914,0.00051244954,9.4048744e-05,3,1,0,1
47076000,46996000,46996000,0,0.0,0.0,100.0,100.0,-0.70255476,-0.2927804,107.30919,107.30883,0.00051107066,8.87577e-05,3,1,0,1
47284000,47204000,47204000,0,0.0,0.0,100.0,100.0,-0.7019869,-0.2831931,107.338715,107.33835,0.00051010447,8.301718e-05,3,1,0,1
47492000,47412000,47412000,0,0.0,0.0,100.0,100.0,-0.69966793,-0.2733805,107.367935,107.36757,0.00050660194,7.734272e-05,3,1,0,1
47700000,47620000,47620000,0,0.0,0.0,100.0,100.0,-0.6978483,-0.26265657,107.3968,107.39643,0.00050383486,7.137468e-05,3,1,0,1
47908000,47828000,47828000,0,0.0,0.0,100.0,100.0,-0.69521815,-0.2518925,107.42513,107.42477,0.0004999123,6.562716e-05,3,1,0,1
48116000,48036000,48036000,0,0.0,0.0,100.0,100.0,-0.6929697,-0.2408425,107.452866,107.45249,0.00049655564,5.998011e-05,3,1,0,1
48324000,48244000,48244000,0,0.0,0.0,100.0,100.0,-0.68973017,-0.23032194,107.47984,107.47946,0.0004918004,5.4840653e-05,3,1,0,1
48532000,48452000,48452000,0,0.0,0.0,100.0,100.0,-0.6869862,-0.21980835,107.50603,107.50564,0.00048777633,4.99361e-05,3,1,0,1
48740000,48660000,48660000,0,0.0,0.0,100.0,100.0,-0.68371737,-0.21015884,107.53131,107.53092,0.00048303188,4.5637244e-05,3,1,0,1
48948000,48868000,48868000,0,0.0,0.0,100.0,100.0,-0.68179643,-0.20246847,107.55411,107.55372,0.00048021966,4.2349362e-05,3,1,0,1
49156000,49076000,49076000,0,0.0,0.0,100.0,100.0,-0.6764087,-0.1963883,107.57772,107.57733,0.00047255628,3.983529e-05,3,1,0,1
49364000,49284000,49284000,0,0.0,0.0,100.0,100.0,-0.67183834,-0.18920061,107.60031,107.599915,0.000466094,3.6964993e-05,3,1,0,1
49572000,49492000,49492000,0,0.0,0.0,100.0,100.0,-0.666073,-0.182675,107.62094,107.62055,0.00045804103,3.445248e-05,3,1,0,1
49780000,49700000,49700000,0,0.0,0.0,100.0,100.0,-0.66231155,-0.17438762,107.63961,107.63921,0.0004528038,3.1391948e-05,3,1,0,1
49988000,49908000,49908000,0,0.0,0.0,100.0,100.0,-0.655947,-0.16689694,107.656296,107.6559,0.00044407425,2.874858e-05,3,1,0,1
50196000,50116000,50116000,0,0.0,0.0,100.0,100.0,-0.65190005,-0.15781634,107.67114,107.67074,0.0004385511,2.5701811e-05,3,1,0,1
50404000,50324000,50324000,0,0.0,0.0,100.0,100.0,-0.6446805,-0.150398,107.68423,107.68382,0.00042883918,2.3339479e-05,3,1,0,1
50612000,50532000,50532000,0,0.0,0.0,100.0,100.0,-0.63736546,-0.14293313,107.69564,107.69524,0.00041911812,2.1077874e-05,3,1,0,1
50820000,50740000,50740000,0,0.0,0.0,100.0,100.0,-0.634421,-0.13389714,107.705574,107.70517,0.00041521632,1.8495391e-05,3,1,0,1
51028000,50948000,50948000,0,0.0,0.0,100.0,100.0,-0.62721026,-0.12679183,107.7141,107.71371,0.00040579925,1.658323e-05,3,1,0,1
51236000,51156000,51156000,0,0.0,0.0,100.0,100.0,-0.62417424,-0.11753216,107.72148,107.721085,0.00040185265,1.4248534e-05,3,1,0,1
51444000,51364000,51364000,0,0.0,0.0,100.0,100.0,-0.61630946,-0.109581016,107.72768,107.72728,0.00039176704,1.2385183e-05,3,1,0,1
51652000,51572000,51572000,0,0.0,0.0,100.0,100.0,-0.6089045,-0.0959684,107.735725,107.73532,0.00038238082,9.49852e-06,3,1,0,1
51860000,51780000,51780000,0,0.0,0.0,100.0,100.0,-0.5950068,-0.083605364,107.74356,107.74315,0.0003650985,7.208354e-06,3,1,0,1
52068000,51988000,51988000,0,0.0,0.0,100.0,100.0,-0.5853574,-0.06969058,107.75039,107.74996,0.00035333034,5.0082785e-06,3,1,0,1
52276000,52196000,52196000,0,0.0,0.0,100.0,100.0,-0.5704198,-0.058108784,107.7562,107.75577,0.00033550916,3.4817738e-06,3,1,0,1
52484000,52404000,52404000,0,0.0,0.0,100.0,100.0,-0.5596663,-0.044995304,107.76105,107.7606,0.0003229639,2.087526e-06,3,1,0,1
52692000,52612000,52612000,0,0.0,0.0,100.0,100.0,-0.5435917,-0.03455472,107.76494,107.76448,0.0003046671,1.2311093e-06,3,1,0,1
52900000,52820000,52820000,0,0.0,0.0,100.0,100.0,-0.5320647,-0.022251176,107.7679,107.767426,0.00029187504,5.104767e-07,3,1,0,1
53108000,53028000,53028000,0,0.0,0.0,100.0,100.0,-0.51508564,-0.012463056,107.76996,107.76948,0.0002735386,1.6014404e-07,3,1,0,1
53316000,53236000,53236000,0,0.0,0.0,100.0,100.0,-0.5024112,-0.00030684954,107.77117,107.770676,0.00026023967,9.70751e-11,3,1,0,1
53524000,53444000,53444000,0,0.0,0.0,100.0,100.0,-0.48474157,0.00923541,107.77155,107.77104,0.00024225563,8.7936215e-08,3,1,0,1
53732000,53652000,53652000,0,0.0,0.0,100.0,100.0,-0.47160816,0.021005236,107.77115,107.77063,0.00022930716,4.5489605e-07,3,1,0,1
53940000,53860000,53860000,0,0.0,0.0,100.0,100.0,-0.45397937,0.030064726,107.76999,107.76946,0.00021248676,9.31915e-07,3,1,0,1
54148000,54068000,54068000,0,0.0,0.0,100.0,100.0,-0.44051754,0.041661836,107.76812,107.767586,0.00020007536,1.7895595e-06,3,1,0,1
54356000,54276000,54276000,0,0.0,0.0,100.0,100.0,-0.42290166,0.05032005,107.76559,107.76504,0.00018439798,2.6107289e-06,3,1,0,1
54564000,54484000,54484000,0,0.0,0.0,100.0,100.0,-0.4098193,0.061840273,107.76242,107.76186,0.00017317092,3.9430765e-06,3,1,0,1
54772000,54692000,54692000,0,0.0,0.0,100.0,100.0,-0.39253733,0.07059754,107.75866,107.758095,0.00015887927,5.1390953e-06,3,1,0,1
54980000,54900000,54900000,0,0.0,0.0,100.0,100.0,-0.379354,0.082212,107.754364,107.75379,0.0001483925,6.9693997e-06,3,1,0,1
55188000,55108000,55108000,0,0.0,0.0,100.0,100.0,-0.3622697,0.09098654,107.74956,107.74898,0.00013533373,8.536869e-06,3,1,0,1
55396000,55316000,55316000,0,0.0,0.0,100.0,100.0,-0.3491667,0.10285767,107.744286,107.743706,0.00012572709,1.0910357e-05,3,1,0,1
55604000,55524000,55524000,0,0.0,0.0,100.0,100.0,-0.3329042,0.11146514,107.73859,107.738,0.000114294344,1.2813469e-05,3,1,0,1
55812000,55732000,55732000,0,0.0,0.0,100.0,100.0,-0.3168719,0.119555354,107.7325,107.7319,0.00010355671,1.4741823e-05,3,1,0,1
56020000,55940000,55940000,0,0.0,0.0,100.0,100.0,-0.3043313,0.13078038,107.72605,107.72545,9.5527845e-05,1.7641047e-05,3,1,0,1
56228000,56148000,56148000,0,0.0,0.0,100.0,100.0,-0.28932062,0.13840997,107.71929,107.71868,8.634214e-05,1.976065e-05,3,1,0,1
56436000,56356000,56356000,0,0.0,0.0,100.0,100.0,-0.27803946,0.14923903,107.71225,107.71164,7.9745325e-05,2.297522e-05,3,1,0,1
56644000,56564000,56564000,0,0.0,0.0,1e-04,1e-04,-0.10569526,-0.21597707,2.7977533,2.7977958,0.00044366904,0.0018524938,3,1,0,1
56852000,56772000,56772000,0,0.0,0.0,1e-04,1e-04,2.7238733e-05,0.0026791473,0.00094962446,0.00094962324,8.681193e-08,0.0008398454,3,1,0,1
57060000,56980000,56980000,0,0.0,0.0,1e-04,1e-04,-0.00014750194,0.00091964245,0.0005734643,0.0005735136,4.215475e-06,0.00016385202,3,1,0,1
57268000,57188000,57188000,0,0.0,0.0,1e-04,1e-04,-0.00032234352,0.0002409198,0.00050527265,0.0005053602,2.2849124e-05,1.2761492e-05,3,1,0,1
57476000,57396000,57396000,0,0.0,0.0,1e-04,1e-04,-0.00012676562,-1.9663816e-05,0.0004821638,0.0004822361,3.7031036e-06,8.90909e-08,3,1,0,1
57684000,57604000,57604000,0,0.0,0.0,1e-04,1e-04,-2.9374145e-05,-9.675129e-05,0.0004295217,0.00042956014,2.2320445e-07,2.4212911e-06,3,1,0,1
57892000,57812000,57812000,0,0.0,0.0,1e-04,1e-04,5.107304e-05,8.242236e-05,0.00037425113,0.00037427025,7.744222e-07,2.0167975e-06,3,1,0,1
58100000,58020000,58020000,0,0.0,0.0,1e-04,1e-04,1.6650429e-05,0.00019659678,0.0003312794,0.0003312894,9.298522e-08,1.2962918e-05,3,1,0,1
58308000,58228000,58228000,0,0.0,0.0,1e-04,1e-04,0.00011127243,0.00026571404,0.00030076865,0.00030077435,4.5740408e-06,2.6082289e-05,3,1,0,1
58516000,58436000,58436000,0,0.0,0.0,1e-04,1e-04,5.9126134e-05,0.00022417321,0.0002796983,0.00027970158,1.3887583e-06,1.9963192e-05,3,1,0,1
58724000,58644000,58644000,0,0.0,0.0,1e-04,1e-04,8.646201e-05,0.00022831815,0.0002653139,0.00026531576,3.1307482e-06,2.1831085e-05,3,1,0,1
58932000,58852000,58852000,0,0.0,0.0,1e-04,1e-04,-0.00029985042,0.00032471912,0.0002555759,0.00025557686,3.908831e-05,4.584075e-05,3,1,0,1
59140000,59060000,59060000,0,0.0,0.0,1e-04,1e-04,-0.00068078964,0.0004445291,0.00024902663,0.0002490272,0.00020679383,8.8168024e-05,3,1,0,1
59348000,59268000,59268000,0,0.0,0.0,1e-04,1e-04,-0.00086057576,0.00019817303,0.0002446294,0.0002446296,0.0003363776,1.7837649e-05,3,1,0,1
