timestamp,timestamp_sample,gps_hvel[0],gps_hvel[1],gps_vvel,gps_hpos[0],gps_hpos[1],gps_vpos,ev_hvel[0],ev_hvel[1],ev_vvel,ev_hpos[0],ev_hpos[1],ev_vpos,rng_vpos,baro_vpos,aux_hvel[0],aux_hvel[1],aux_vvel,flow[0],flow[1],terr_flow[0],terr_flow[1],heading,mag_field[0],mag_field[1],mag_field[2],gravity[0],gravity[1],gravity[2],drag[0],drag[1],airspeed,beta,hagl,hagl_rate
3212000,3132000,0.0,0.0,0.0,0.0,0.0,0.0,0.0,0.0,0.0,0.0,0.0,0.0,0.0,0.0,0.0,0.0,nan,0.0,0.0,0.0,0.0,0.0,0.0,0.0,0.0,1.980164,1.9799654,1.0008407,0.0,0.0,0.0,0.0,0.0,0.0
3220000,3140000,0.0,0.0,0.0,0.0,0.0,0.0,0.0,0.0,0.0,0.0,0.0,0.0,0.0,112.451,0.0,0.0,nan,0.0,0.0,0.0,0.0,0.0,0.0,0.0,0.0,1.9829525,1.9827027,1.0008454,0.0,0.0,0.0,0.0,0.0,0.0
3228000,3148000,0.0,0.0,0.0,0.0,0.0,0.0,0.0,0.0,0.0,0.0,0.0,0.0,0.0,112.451,0.0,0.0,nan,0.0,0.0,0.0,0.0,0.0,0.0,0.0,0.0,1.9853134,1.9845093,1.0246032,0.0,0.0,0.0,0.0,0.0,0.0
3236000,3156000,0.0,0.0,0.0,0.0,0.0,0.0,0.0,0.0,0.0,0.0,0.0,0.0,0.0,112.451,0.0,0.0,nan,0.0,0.0,0.0,0.0,0.0,0.0,0.0,0.0,1.9866781,1.9856746,1.0205462,0.0,0.0,0.0,0.0,0.0,0.0
3244000,3164000,0.0,0.0,0.0,0.0,0.0,0.0,0.0,0.0,0.0,0.0,0.0,0.0,0.0,112.451,0.0,0.0,nan,0.0,0.0,0.0,0.0,0.0,0.0,0.0,0.0,1.988492,1.9873466,1.0177025,0.0,0.0,0.0,0.0,0.0,0.0
3252000,3172000,0.0,0.0,0.0,0.0,0.0,0.0,0.0,0.0,0.0,0.0,0.0,0.0,0.0,112.451,0.0,0.0,nan,0.0,0.0,0.0,0.0,0.0,0.0,0.0,0.0,1.9906561,1.9894056,1.0156106,0.0,0.0,0.0,0.0,0.0,0.0
3260000,3180000,0.0,0.0,0.0,0.0,0.0,0.0,0.0,0.0,0.0,0.0,0.0,0.0,0.0,112.451,0.0,0.0,nan,0.0,0.0,0.0,0.0,0.0,0.0,0.0,0.0,1.9931203,1.9917834,1.0140239,0.0,0.0,0.0,0.0,0.0,0.0
3268000,3188000,0.0,0.0,0.0,0.0,0.0,0.0,0.0,0.0,0.0,0.0,0.0,0.0,0.0,112.451,0.0,0.0,nan,0.0,0.0,0.0,0.0,0.0,0.0,0.0,0.0,1.9958521,1.9944447,1.0127991,0.0,0.0,0.0,0.0,0.0,0.0
3276000,3196000,0.0,0.0,0.0,0.0,0.0,0.0,0.0,0.0,0.0,0.0,0.0,0.0,0.0,112.451,0.0,0.0,nan,0.0,0.0,0.0,0.0,0.0,0.0,0.0,0.0,1.9988325,1.9973669,1.0118455,0.0,0.0,0.0,0.0,0.0,0.0
3284000,3204000,0.0,0.0,0.0,0.0,0.0,0.0,0.0,0.0,0.0,0.0,0.0,0.0,0.0,112.25,0.0,0.0,nan,0.0,0.0,0.0,0.0,0.0,0.0,0.0,0.0,2.002048,2.0005333,1.0111011,0.0,0.0,0.0,0.0,0.0,0.0
3292000,3212000,0.0,0.0,0.0,0.0,0.0,0.0,0.0,0.0,0.0,0.0,0.0,0.0,0.0,112.25,0.0,0.0,nan,0.0,0.0,0.0,0.0,0.0,0.0,0.0,0.0,2.0054898,2.0039332,1.0105232,0.0,0.0,0.0,0.0,0.0,0.0
3300000,3220000,0.0,0.0,0.0,0.0,0.0,0.0,0.0,0.0,0.0,0.0,0.0,0.0,0.0,112.25,0.0,0.0,nan,0.0,0.0,0.0,0.0,0.0,0.0,0.0,0.0,2.0091503,2.0075588,1.0100795,0.0,0.0,0.0,0.0,0.0,0.0
3308000,3228000,0.0,0.0,0.0,0.0,0.0,0.0,0.0,0.0,0.0,0.0,0.0,0.0,0.0,112.25,0.0,0.0,nan,0.0,0.0,0.0,0.0,0.0,0.0,0.0,0.0,2.0130239,2.011402,1.0097461,0.0,0.0,0.0,0.0,0.0,0.0
3316000,3236000,0.0,0.0,0.0,0.0,0.0,0.0,0.0,0.0,0.0,0.0,0.0,0.0,0.0,112.25,0.0,0.0,nan,0.0,0.0,0.0,0.0,0.0,0.0,0.0,0.0,2.0171058,2.0154586,1.0094991,0.0,0.0,0.0,0.0,0.0,0.0
3324000,3244000,0.0,0.0,0.0,0.0,0.0,0.0,0.0,0.0,0.0,0.0,0.0,0.0,0.0,112.25,0.0,0.0,nan,0.0,0.0,0.0,0.0,0.0,0.0,0.0,0.0,2.0213919,2.019724,1.0093232,0.0,0.0,0.0,0.0,0.0,0.0
3332000,3252000,0.0,0.0,0.0,0.0,0.0,0.0,0.0,0.0,0.0,0.0,0.0,0.0,0.0,112.25,0.0,0.0,nan,0.0,0.0,0.0,0.0,0.0,0.0,0.0,0.0,2.0258796,2.0241952,1.0092007,0.0,0.0,0.0,0.0,0.0,0.0
3340000,3260000,0.0,0.0,0.0,0.0,0.0,0.0,0.0,0.0,0.0,0.0,0.0,0.0,0.0,112.25,0.0,0.0,nan,0.0,0.0,0.0,0.0,0.0,0.0,0.0,0.0,2.030566,2.0288687,1.009122,0.0,0.0,0.0,0.0,0.0,0.0
3348000,3268000,0.0,0.0,0.0,0.0,0.0,0.0,0.0,0.0,0.0,0.0,0.0,0.0,0.0,112.25,0.0,0.0,nan,0.0,0.0,0.0,0.0,0.0,0.0,0.0,0.0,2.0354483,2.0337427,1.0090753,0.0,0.0,0.0,0.0,0.0,0.0
3356000,3276000,0.0,0.0,0.0,0.0,0.0,0.0,0.0,0.0,0.0,0.0,0.0,0.0,0.0,112.25,0.0,0.0,nan,0.0,0.0,0.0,0.0,0.0,0.0,0.0,0.0,2.040526,2.0388155,1.0090495,0.0,0.0,0.0,0.0,0.0,0.0
3364000,3284000,0.0,0.0,0.0,0.0,0.0,0.0,0.0,0.0,0.0,0.0,0.0,0.0,0.0,112.25,0.0,0.0,nan,0.0,0.0,0.0,0.0,0.0,0.0,0.0,0.0,2.0457966,2.0440838,1.009041,0.0,0.0,0.0,0.0,0.0,0.0
3372000,3292000,0.0,0.0,0.0,0.0,0.0,0.0,0.0,0.0,0.0,0.0,0.0,0.0,0.0,112.25,0.0,0.0,nan,0.0,0.0,0.0,0.0,0.0,0.0,0.0,0.0,2.0512586,2.0495455,1.0090448,0.0,0.0,0.0,0.0,0.0,0.0
3380000,3300000,0.0,0.0,0.0,0.0,0.0,0.0,0.0,0.0,0.0,0.0,0.0,0.0,0.0,112.25,0.0,0.0,nan,0.0,0.0,0.0,0.0,0.0,0.0,0.0,0.0,2.0569131,2.055204,1.0090505,0.0,0.0,0.0,0.0,0.0,0.0
3388000,3308000,0.0,0.0,0.0,0.0,0.0,0.0,0.0,0.0,0.0,0.0,0.0,0.0,0.0,112.25,0.0,0.0,nan,0.0,0.0,0.0,0.0,0.0,0.0,0.0,0.0,2.0627573,2.0610547,1.0090593,0.0,0.0,0.0,0.0,0.0,0.0
3396000,3316000,0.0,0.0,0.0,0.0,0.0,0.0,0.0,0.0,0.0,0.0,0.0,0.0,0.0,112.25,0.0,0.0,nan,0.0,0.0,0.0,0.0,0.0,0.0,0.0,0.0,2.068793,2.067096,1.0090688,0.0,0.0,0.0,0.0,0.0,0.0
3404000,3324000,0.12649024,0.1265302,0.20489371,1.0001023,1.0001023,51.0,0.0,0.0,0.0,0.0,0.0,0.0,0.0,62.25,0.0,0.0,nan,0.0,0.0,0.0,0.0,0.0,0.0,0.0,0.0,2.075018,2.073329,1.009074,0.0,0.0,0.0,0.0,0.0,0.0
3412000,3332000,0.12649024,0.1265302,0.20489371,1.0001023,1.0001023,51.0,0.0,0.0,0.0,0.0,0.0,0.0,0.0,62.25,0.0,0.0,nan,0.0,0.0,0.0,0.0,0.0,0.0,0.0,0.0,2.081434,2.0797548,1.0090766,0.0,0.0,0.0,0.0,0.0,0.0
3420000,3340000,0.12649024,0.1265302,0.20489371,1.0001023,1.0001023,51.0,0.0,0.0,0.0,0.0,0.0,0.0,0.0,62.25,0.0,0.0,nan,0.0,0.0,0.0,0.0,0.0,0.0,0.0,0.0,2.0880418,2.0863707,1.0090755,0.0,0.0,0.0,0.0,0.0,0.0
3428000,3348000,0.12649024,0.1265302,0.20489371,1.0001023,1.0001023,51.0,0.0,0.0,0.0,0.0,0.0,0.0,0.0,62.25,0.0,0.0,nan,0.0,0.0,0.0,0.0,0.0,0.0,0.0,0.0,2.0948384,2.0931797,1.0090687,0.0,0.0,0.0,0.0,0.0,0.0
3436000,3356000,0.12649024,0.1265302,0.20489371,1.0001023,1.0001023,51.0,0.0,0.0,0.0,0.0,0.0,0.0,0.0,62.25,0.0,0.0,nan,0.0,0.0,0.0,0.0,0.100108534,0.0,0.0,0.0,1.0831752,1.0831393,1.0072005,0.0,0.0,0.0,0.0,0.0,0.0
3444000,3364000,0.12649024,0.1265302,0.20489371,1.0001023,1.0001023,51.0,0.0,0.0,0.0,0.0,0.0,0.0,0.0,62.25,0.0,0.0,nan,0.0,0.0,0.0,0.0,0.100108534,0.0,0.0,0.0,1.0832678,1.0832319,1.0072006,0.0,0.0,0.0,0.0,0.0,0.0
3452000,3372000,0.12649024,0.1265302,0.20489371,1.0001023,1.0001023,51.0,0.0,0.0,0.0,0.0,0.0,0.0,0.0,62.25,0.0,0.0,nan,0.0,0.0,0.0,0.0,0.100108534,0.0,0.0,0.0,1.0835416,1.083506,1.0072008,0.0,0.0,0.0,0.0,0.0,0.0
3460000,3380000,0.12649024,0.1265302,0.20489371,1.0001023,1.0001023,51.0,0.0,0.0,0.0,0.0,0.0,0.0,0.0,62.249985,0.0,0.0,nan,0.0,0.0,0.0,0.0,0.100108534,0.0,0.0,0.0,1.0839969,1.0839612,1.0072016,0.0,0.0,0.0,0.0,0.0,0.0
3468000,3388000,0.12649024,0.1265302,0.20489371,1.0001023,1.0001023,51.0,0.0,0.0,0.0,0.0,0.0,0.0,0.0,62.249985,0.0,0.0,nan,0.0,0.0,0.0,0.0,0.100108534,0.0,0.0,0.0,1.0846336,1.0845978,1.0072021,0.0,0.0,0.0,0.0,0.0,0.0
3476000,3396000,0.12649024,0.1265302,0.20489371,1.0001023,1.0001023,51.0,0.0,0.0,0.0,0.0,0.0,0.0,0.0,62.249985,0.0,0.0,nan,0.0,0.0,0.0,0.0,0.100108534,0.0,0.0,0.0,1.0854517,1.0854157,1.007203,0.0,0.0,0.0,0.0,0.0,0.0
3484000,3404000,0.12649024,0.1265302,0.20489371,1.0001023,1.0001023,51.0,0.0,0.0,0.0,0.0,0.0,0.0,0.0,62.249985,0.0,0.0,nan,0.0,0.0,0.0,0.0,0.100108534,0.0,0.0,0.0,1.0864508,1.0864153,1.0072039,0.0,0.0,0.0,0.0,0.0,0.0
3492000,3412000,0.12649024,0.1265302,0.20489371,1.0001023,1.0001023,51.0,0.0,0.0,0.0,0.0,0.0,0.0,0.0,62.249985,0.0,0.0,nan,0.0,0.0,0.0,0.0,0.100108534,0.0,0.0,0.0,1.0876317,1.0875958,1.0072051,0.0,0.0,0.0,0.0,0.0,0.0
3500000,3420000,0.12649024,0.1265302,0.20489371,1.0001023,1.0001023,51.0,0.0,0.0,0.0,0.0,0.0,0.0,0.0,62.249985,0.0,0.0,nan,0.0,0.0,0.0,0.0,0.100108534,0.0,0.0,0.0,1.0889935,1.0889577,1.0072064,0.0,0.0,0.0,0.0,0.0,0.0
3508000,3428000,0.12649024,0.1265302,0.20489371,1.0001023,1.0001023,51.0,0.0,0.0,0.0,0.0,0.0,0.0,0.0,62.249985,0.0,0.0,nan,0.0,0.0,0.0,0.0,0.09911295,0.0,0.0,0.0,1.0905366,1.0905006,1.0072087,0.0,0.0,0.0,0.0,0.0,0.0
3516000,3436000,0.12649024,0.1265302,0.20489371,1.0001023,1.0001023,51.0,0.0,0.0,0.0,0.0,0.0,0.0,0.0,62.249985,0.0,0.0,nan,0.0,0.0,0.0,0.0,0.09911295,0.0,0.0,0.0,1.0922614,1.0922251,1.0072104,0.0,0.0,0.0,0.0,0.0,0.0
3524000,3444000,0.12649024,0.1265302,0.20489371,1.0001023,1.0001023,51.0,0.0,0.0,0.0,0.0,0.0,0.0,0.0,62.249985,0.0,0.0,nan,0.0,0.0,0.0,0.0,0.09911295,0.0,0.0,0.0,1.0941677,1.0941311,1.0072122,0.0,0.0,0.0,0.0,0.0,0.0
3532000,3452000,0.12649024,0.1265302,0.20489371,1.0001023,1.0001023,51.0,0.0,0.0,0.0,0.0,0.0,0.0,0.0,62.249985,0.0,0.0,nan,0.0,0.0,0.0,0.0,0.09911295,0.0,0.0,0.0,1.0962552,1.0962182,1.007214,0.0,0.0,0.0,0.0,0.0,0.0
3540000,3460000,0.12649024,0.1265302,0.20489371,1.0001023,1.0001023,51.0,0.0,0.0,0.0,0.0,0.0,0.0,0.0,62.249985,0.0,0.0,nan,0.0,0.0,0.0,0.0,0.09911295,0.0,0.0,0.0,1.0985239,1.0984867,1.0072162,0.0,0.0,0.0,0.0,0.0,0.0
3548000,3468000,0.12649024,0.1265302,0.20489371,1.0001023,1.0001023,51.0,0.0,0.0,0.0,0.0,0.0,0.0,0.0,62.249985,0.0,0.0,nan,0.0,0.0,0.0,0.0,0.09911295,0.0,0.0,0.0,1.1009737,1.1009364,1.0072187,0.0,0.0,0.0,0.0,0.0,0.0
3556000,3476000,0.12649024,0.1265302,0.20489371,1.0001023,1.0001023,51.0,0.0,0.0,0.0,0.0,0.0,0.0,0.0,62.249985,0.0,0.0,nan,0.0,0.0,0.0,0.0,0.09911295,0.0,0.0,0.0,1.1036052,1.1035676,1.0072213,0.0,0.0,0.0,0.0,0.0,0.0
3564000,3484000,0.12649024,0.1265302,0.20489371,1.0001023,1.0001023,51.0,0.0,0.0,0.0,0.0,0.0,0.0,0.0,62.249985,0.0,0.0,nan,0.0,0.0,0.0,0.0,0.09911295,0.0,0.0,0.0,1.1064181,1.10638,1.0072242,0.0,0.0,0.0,0.0,0.0,0.0
3572000,3492000,0.12649024,0.1265302,0.20489371,1.0001023,1.0001023,51.0,0.0,0.0,0.0,0.0,0.0,0.0,0.0,62.249985,0.0,0.0,nan,0.0,0.0,0.0,0.0,0.09911295,0.0,0.0,0.0,1.1094122,1.1093737,1.0072272,0.0,0.0,0.0,0.0,0.0,0.0
3580000,3500000,0.12649024,0.1265302,0.20489371,1.0001023,1.0001023,51.0,0.0,0.0,0.0,0.0,0.0,0.0,0.0,62.249985,0.0,0.0,nan,0.0,0.0,0.0,0.0,0.09834547,0.0,0.0,0.0,1.1125873,1.1125485,1.0072293,0.0,0.0,0.0,0.0,0.0,0.0
3588000,3508000,0.12649024,0.1265302,0.20489371,1.0001023,1.0001023,51.0,0.0,0.0,0.0,0.0,0.0,0.0,0.0,62.249985,0.0,0.0,nan,0.0,0.0,0.0,0.0,0.09834547,0.0,0.0,0.0,1.1159441,1.1159048,1.0072324,0.0,0.0,0.0,0.0,0.0,0.0
3596000,3516000,0.12649024,0.1265302,0.20489371,1.0001023,1.0001023,51.0,0.0,0.0,0.0,0.0,0.0,0.0,0.0,62.249985,0.0,0.0,nan,0.0,0.0,0.0,0.0,0.09834547,0.0,0.0,0.0,1.1194823,1.1194426,1.0072359,0.0,0.0,0.0,0.0,0.0,0.0
3604000,3524000,0.12649024,0.1265302,0.20489371,1.0001023,1.0001023,51.0,0.0,0.0,0.0,0.0,0.0,0.0,0.0,62.249985,0.0,0.0,nan,0.0,0.0,0.0,0.0,0.09834547,0.0,0.0,0.0,1.1232018,1.1231616,1.0072395,0.0,0.0,0.0,0.0,0.0,0.0
3612000,3532000,0.12649024,0.1265302,0.20489371,1.0001023,1.0001023,51.0,0.0,0.0,0.0,0.0,0.0,0.0,0.0,62.249985,0.0,0.0,nan,0.0,0.0,0.0,0.0,0.09834547,0.0,0.0,0.0,1.1177211,1.1176838,1.0072299,0.0,0.0,0.0,0.0,0.0,0.0
3620000,3540000,0.12649024,0.1265302,0.20489371,1.0001023,1.0001023,51.0,0.0,0.0,0.0,0.0,0.0,0.0,0.0,62.249985,0.0,0.0,nan,0.0,0.0,0.0,0.0,0.09834547,0.0,0.0,0.0,1.1216991,1.1216612,1.0072336,0.0,0.0,0.0,0.0,0.0,0.0
3628000,3548000,0.12649024,0.1265302,0.20489371,1.0001023,1.0001023,51.0,0.0,0.0,0.0,0.0,0.0,0.0,0.0,62.249985,0.0,0.0,nan,0.0,0.0,0.0,0.0,0.09834547,0.0,0.0,0.0,1.1258578,1.1258196,1.0072377,0.0,0.0,0.0,0.0,0.0,0.0
3636000,3556000,0.12649024,0.1265302,0.20489371,1.0001023,1.0001023,51.0,0.0,0.0,0.0,0.0,0.0,0.0,0.0,62.249985,0.0,0.0,nan,0.0,0.0,0.0,0.0,0.09834547,0.0,0.0,0.0,1.1301975,1.1301584,1.0072417,0.0,0.0,0.0,0.0,0.0,0.0
3644000,3564000,0.12649024,0.1265302,0.20489371,1.0001023,1.0001023,51.0,0.0,0.0,0.0,0.0,0.0,0.0,0.0,45.58333,0.0,0.0,nan,0.0,0.0,0.0,0.0,0.09834547,0.0,0.0,0.0,1.1269542,1.1269171,1.0072359,0.0,0.0,0.0,0.0,0.0,0.0
3652000,3572000,0.12649024,0.1265302,0.20489371,1.0001023,1.0001023,51.0,0.0,0.0,0.0,0.0,0.0,0.0,0.0,45.58333,0.0,0.0,nan,0.0,0.0,0.0,0.0,0.097749405,0.0,0.0,0.0,1.1314996,1.1314625,1.007241,0.0,0.0,0.0,0.0,0.0,0.0
3660000,3580000,0.12649024,0.1265302,0.20489371,1.0001023,1.0001023,51.0,0.0,0.0,0.0,0.0,0.0,0.0,0.0,45.58333,0.0,0.0,nan,0.0,0.0,0.0,0.0,0.097749405,0.0,0.0,0.0,1.1362249,1.1361871,1.0072455,0.0,0.0,0.0,0.0,0.0,0.0
3668000,3588000,0.12649024,0.1265302,0.20489371,1.0001023,1.0001023,51.0,0.0,0.0,0.0,0.0,0.0,0.0,0.0,45.58333,0.0,0.0,nan,0.0,0.0,0.0,0.0,0.097749405,0.0,0.0,0.0,1.1411291,1.1410911,1.0072503,0.0,0.0,0.0,0.0,0.0,0.0
3676000,3596000,0.12649024,0.1265302,0.20489371,1.0001023,1.0001023,51.0,0.0,0.0,0.0,0.0,0.0,0.0,0.0,45.58333,0.0,0.0,nan,0.0,0.0,0.0,0.0,0.097749405,0.0,0.0,0.0,1.1462128,1.1461743,1.0072553,0.0,0.0,0.0,0.0,0.0,0.0
3684000,3604000,0.12649024,0.1265302,0.20489371,1.0001023,1.0001023,51.0,0.0,0.0,0.0,0.0,0.0,0.0,0.0,45.58333,0.0,0.0,nan,0.0,0.0,0.0,0.0,0.097749405,0.0,0.0,0.0,1.1514757,1.1514364,1.0072603,0.0,0.0,0.0,0.0,0.0,0.0
3692000,3612000,0.12649024,0.1265302,0.20489371,1.0001023,1.0001023,51.0,0.0,0.0,0.0,0.0,0.0,0.0,0.0,45.58333,0.0,0.0,nan,0.0,0.0,0.0,0.0,0.097749405,0.0,0.0,0.0,1.1569178,1.1568779,1.0072657,0.0,0.0,0.0,0.0,0.0,0.0
3700000,3620000,0.12649024,0.1265302,0.20489371,1.0001023,1.0001023,51.0,0.0,0.0,0.0,0.0,0.0,0.0,0.0,45.58333,0.0,0.0,nan,0.0,0.0,0.0,0.0,0.097749405,0.0,0.0,0.0,1.1625392,1.1624987,1.0072709,0.0,0.0,0.0,0.0,0.0,0.0
3708000,3628000,0.12649024,0.1265302,0.20489371,1.0001023,1.0001023,51.0,0.0,0.0,0.0,0.0,0.0,0.0,0.0,45.58333,0.0,0.0,nan,0.0,0.0,0.0,0.0,0.097749405,0.0,0.0,0.0,1.1683396,1.1682987,1.0072767,0.0,0.0,0.0,0.0,0.0,0.0
3716000,3636000,0.12649024,0.1265302,0.20489371,1.0001023,1.0001023,51.0,0.0,0.0,0.0,0.0,0.0,0.0,0.0,45.58333,0.0,0.0,nan,0.0,0.0,0.0,0.0,0.097749405,0.0,0.0,0.0,1.1743193,1.1742779,1.0072824,0.0,0.0,0.0,0.0,0.0,0.0
3724000,3644000,0.12649024,0.1265302,0.20489371,1.0001023,1.0001023,51.0,0.0,0.0,0.0,0.0,0.0,0.0,0.0,45.58333,0.0,0.0,nan,0.0,0.0,0.0,0.0,0.09728616,0.0,0.0,0.0,1.180477,1.1804357,1.0072885,0.0,0.0,0.0,0.0,0.0,0.0
3732000,3652000,0.12649024,0.1265302,0.20489371,1.0001023,1.0001023,51.0,0.0,0.0,0.0,0.0,0.0,0.0,0.0,45.58333,0.0,0.0,nan,0.0,0.0,0.0,0.0,0.09728616,0.0,0.0,0.0,1.186815,1.1867732,1.0072948,0.0,0.0,0.0,0.0,0.0,0.0
3740000,3660000,0.12649024,0.1265302,0.20489371,1.0001023,1.0001023,51.0,0.0,0.0,0.0,0.0,0.0,0.0,0.0,45.58333,0.0,0.0,nan,0.0,0.0,0.0,0.0,0.09728616,0.0,0.0,0.0,1.1933324,1.1932902,1.007301,0.0,0.0,0.0,0.0,0.0,0.0
3748000,3668000,0.12649024,0.1265302,0.20489371,1.0001023,1.0001023,51.0,0.0,0.0,0.0,0.0,0.0,0.0,0.0,45.58333,0.0,0.0,nan,0.0,0.0,0.0,0.0,0.09728616,0.0,0.0,0.0,1.2000287,1.1999863,1.0073076,0.0,0.0,0.0,0.0,0.0,0.0
3756000,3676000,0.12649024,0.1265302,0.20489371,1.0001023,1.0001023,51.0,0.0,0.0,0.0,0.0,0.0,0.0,0.0,45.58333,0.0,0.0,nan,0.0,0.0,0.0,0.0,0.09728616,0.0,0.0,0.0,1.2069042,1.2068615,1.0073143,0.0,0.0,0.0,0.0,0.0,0.0
3764000,3684000,0.12649024,0.1265302,0.20489371,1.0001023,1.0001023,51.0,0.0,0.0,0.0,0.0,0.0,0.0,0.0,45.58333,0.0,0.0,nan,0.0,0.0,0.0,0.0,0.09728616,0.0,0.0,0.0,1.2139592,1.213916,1.0073212,0.0,0.0,0.0,0.0,0.0,0.0
3772000,3692000,0.12649024,0.1265302,0.20489371,1.0001023,1.0001023,51.0,0.0,0.0,0.0,0.0,0.0,0.0,0.0,45.58333,0.0,0.0,nan,0.0,0.0,0.0,0.0,0.09728616,0.0,0.0,0.0,1.2211933,1.2211496,1.0073283,0.0,0.0,0.0,0.0,0.0,0.0
3780000,3700000,0.12649024,0.1265302,0.20489371,1.0001023,1.0001023,51.0,0.0,0.0,0.0,0.0,0.0,0.0,0.0,45.58333,0.0,0.0,nan,0.0,0.0,0.0,0.0,0.09728616,0.0,0.0,0.0,1.2286065,1.2285622,1.0073357,0.0,0.0,0.0,0.0,0.0,0.0
3788000,3708000,0.12649024,0.1265302,0.20489371,1.0001023,1.0001023,51.0,0.0,0.0,0.0,0.0,0.0,0.0,0.0,45.58333,0.0,0.0,nan,0.0,0.0,0.0,0.0,0.09728616,0.0,0.0,0.0,1.2361989,1.2361541,1.0073436,0.0,0.0,0.0,0.0,0.0,0.0
3796000,3716000,0.12649024,0.1265302,0.20489371,1.0001023,1.0001023,51.0,0.0,0.0,0.0,0.0,0.0,0.0,0.0,45.58333,0.0,0.0,nan,0.0,0.0,0.0,0.0,0.09692807,0.0,0.0,0.0,1.2439686,1.2439244,1.0073514,0.0,0.0,0.0,0.0,0.0,0.0
3804000,3724000,0.109491885,0.10949381,0.2039057,1.0006312,1.0006313,34.333363,0.0,0.0,0.0,0.0,0.0,0.0,0.0,45.58333,0.0,0.0,nan,0.0,0.0,0.0,0.0,0.09692807,0.0,0.0,0.0,1.2519195,1.2518747,1.0073595,0.0,0.0,0.0,0.0,0.0,0.0
3812000,3732000,0.109491885,0.10949381,0.2039057,1.0006312,1.0006313,34.333363,0.0,0.0,0.0,0.0,0.0,0.0,0.0,45.58333,0.0,0.0,nan,0.0,0.0,0.0,0.0,0.09692807,0.0,0.0,0.0,1.2600498,1.260004,1.0073674,0.0,0.0,0.0,0.0,0.0,0.0
3820000,3740000,0.109491885,0.10949381,0.2039057,1.0006312,1.0006313,34.333363,0.0,0.0,0.0,0.0,0.0,0.0,0.0,37.250023,0.0,0.0,nan,0.0,0.0,0.0,0.0,0.09692807,0.0,0.0,0.0,1.1800358,1.1800023,1.0072676,0.0,0.0,0.0,0.0,0.0,0.0
3828000,3748000,0.109491885,0.10949381,0.2039057,1.0006312,1.0006313,34.333363,0.0,0.0,0.0,0.0,0.0,0.0,0.0,37.250023,0.0,0.0,nan,0.0,0.0,0.0,0.0,0.09692807,0.0,0.0,0.0,1.1867608,1.1867268,1.007274,0.0,0.0,0.0,0.0,0.0,0.0
3836000,3756000,0.109491885,0.10949381,0.2039057,1.0006312,1.0006313,34.333363,0.0,0.0,0.0,0.0,0.0,0.0,0.0,37.250023,0.0,0.0,nan,0.0,0.0,0.0,0.0,0.09692807,0.0,0.0,0.0,1.1936475,1.1936128,1.0072806,0.0,0.0,0.0,0.0,0.0,0.0
3844000,3764000,0.109491885,0.10949381,0.2039057,1.0006312,1.0006313,34.333363,0.0,0.0,0.0,0.0,0.0,0.0,0.0,37.250023,0.0,0.0,nan,0.0,0.0,0.0,0.0,0.09692807,0.0,0.0,0.0,1.2006961,1.2006607,1.0072873,0.0,0.0,0.0,0.0,0.0,0.0
3852000,3772000,0.109491885,0.10949381,0.2039057,1.0006312,1.0006313,34.333363,0.0,0.0,0.0,0.0,0.0,0.0,0.0,37.250023,0.0,0.0,nan,0.0,0.0,0.0,0.0,0.09692807,0.0,0.0,0.0,1.1962107,1.196178,1.0072818,0.0,0.0,0.0,0.0,0.0,0.0
3860000,3780000,0.109491885,0.10949381,0.2039057,1.0006312,1.0006313,34.333363,0.0,0.0,0.0,0.0,0.0,0.0,0.0,37.250023,0.0,0.0,nan,0.0,0.0,0.0,0.0,0.09692807,0.0,0.0,0.0,1.2031869,1.2031534,1.0072887,0.0,0.0,0.0,0.0,0.0,0.0
3868000,3788000,0.109491885,0.10949381,0.2039057,1.0006312,1.0006313,34.333363,0.0,0.0,0.0,0.0,0.0,0.0,0.0,37.250023,0.0,0.0,nan,0.0,0.0,0.0,0.0,0.096654445,0.0,0.0,0.0,1.2103165,1.2102835,1.0072978,0.0,0.0,0.0,0.0,0.0,0.0
3876000,3796000,0.109491885,0.10949381,0.2039057,1.0006312,1.0006313,34.333363,0.0,0.0,0.0,0.0,0.0,0.0,0.0,37.250023,0.0,0.0,nan,0.0,0.0,0.0,0.0,0.096654445,0.0,0.0,0.0,1.2176027,1.2175694,1.0073051,0.0,0.0,0.0,0.0,0.0,0.0
3884000,3804000,0.109491885,0.10949381,0.2039057,1.0006312,1.0006313,34.333363,0.0,0.0,0.0,0.0,0.0,0.0,0.0,37.25006,0.0,0.0,nan,0.0,0.0,0.0,0.0,0.096654445,0.0,0.0,0.0,1.2250445,1.2250105,1.0073123,0.0,0.0,0.0,0.0,0.0,0.0
3892000,3812000,0.109491885,0.10949381,0.2039057,1.0006312,1.0006313,34.333363,0.0,0.0,0.0,0.0,0.0,0.0,0.0,37.25006,0.0,0.0,nan,0.0,0.0,0.0,0.0,0.096654445,0.0,0.0,0.0,1.232641,1.2326069,1.0073199,0.0,0.0,0.0,0.0,0.0,0.0
3900000,3820000,0.109491885,0.10949381,0.2039057,1.0006312,1.0006313,34.333363,0.0,0.0,0.0,0.0,0.0,0.0,0.0,37.25006,0.0,0.0,nan,0.0,0.0,0.0,0.0,0.096654445,0.0,0.0,0.0,1.2403932,1.2403582,1.0073276,0.0,0.0,0.0,0.0,0.0,0.0
3908000,3828000,0.109491885,0.10949381,0.2039057,1.0006312,1.0006313,34.333363,0.0,0.0,0.0,0.0,0.0,0.0,0.0,37.25006,0.0,0.0,nan,0.0,0.0,0.0,0.0,0.096654445,0.0,0.0,0.0,1.2483004,1.2482649,1.007335,0.0,0.0,0.0,0.0,0.0,0.0
3916000,3836000,0.109491885,0.10949381,0.2039057,1.0006312,1.0006313,34.333363,0.0,0.0,0.0,0.0,0.0,0.0,0.0,37.25006,0.0,0.0,nan,0.0,0.0,0.0,0.0,0.096654445,0.0,0.0,0.0,1.2563627,1.2563267,1.007343,0.0,0.0,0.0,0.0,0.0,0.0
3924000,3844000,0.109491885,0.10949381,0.2039057,1.0006312,1.0006313,34.333363,0.0,0.0,0.0,0.0,0.0,0.0,0.0,37.25006,0.0,0.0,nan,0.0,0.0,0.0,0.0,0.096654445,0.0,0.0,0.0,1.26458,1.2645438,1.0073512,0.0,0.0,0.0,0.0,0.0,0.0
3932000,3852000,0.109491885,0.10949381,0.2039057,1.0006312,1.0006313,34.333363,0.0,0.0,0.0,0.0,0.0,0.0,0.0,37.25006,0.0,0.0,nan,0.0,0.0,0.0,0.0,0.096654445,0.0,0.0,0.0,1.2729528,1.2729158,1.0073594,0.0,0.0,0.0,0.0,0.0,0.0
3940000,3860000,0.109491885,0.10949381,0.2039057,1.0006312,1.0006313,34.333363,0.0,0.0,0.0,0.0,0.0,0.0,0.0,37.250114,0.0,0.0,nan,0.0,0.0,0.0,0.0,0.09645035,0.0,0.0,0.0,1.281478,1.2814419,1.0073693,0.0,0.0,0.0,0.0,0.0,0.0
3948000,3868000,0.109491885,0.10949381,0.2039057,1.0006312,1.0006313,34.333363,0.0,0.0,0.0,0.0,0.0,0.0,0.0,37.250114,0.0,0.0,nan,0.0,0.0,0.0,0.0,0.09645035,0.0,0.0,0.0,1.2901609,1.2901244,1.007378,0.0,0.0,0.0,0.0,0.0,0.0
3956000,3876000,0.109491885,0.10949381,0.2039057,1.0006312,1.0006313,34.333363,0.0,0.0,0.0,0.0,0.0,0.0,0.0,37.250114,0.0,0.0,nan,0.0,0.0,0.0,0.0,0.09645035,0.0,0.0,0.0,1.2989986,1.2989621,1.0073869,0.0,0.0,0.0,0.0,0.0,0.0
3964000,3884000,0.109491885,0.10949381,0.2039057,1.0006312,1.0006313,34.333363,0.0,0.0,0.0,0.0,0.0,0.0,0.0,37.250114,0.0,0.0,nan,0.0,0.0,0.0,0.0,0.09645035,0.0,0.0,0.0,1.307992,1.3079549,1.007396,0.0,0.0,0.0,0.0,0.0,0.0
3972000,3892000,0.109491885,0.10949381,0.2039057,1.0006312,1.0006313,34.333363,0.0,0.0,0.0,0.0,0.0,0.0,0.0,37.250114,0.0,0.0,nan,0.0,0.0,0.0,0.0,0.09645035,0.0,0.0,0.0,1.3171405,1.3171028,1.0074052,0.0,0.0,0.0,0.0,0.0,0.0
3980000,3900000,0.109491885,0.10949381,0.2039057,1.0006312,1.0006313,34.333363,0.0,0.0,0.0,0.0,0.0,0.0,0.0,37.250114,0.0,0.0,nan,0.0,0.0,0.0,0.0,0.09645035,0.0,0.0,0.0,1.326444,1.326406,1.0074145,0.0,0.0,0.0,0.0,0.0,0.0
3988000,3908000,0.109491885,0.10949381,0.2039057,1.0006312,1.0006313,34.333363,0.0,0.0,0.0,0.0,0.0,0.0,0.0,37.250114,0.0,0.0,nan,0.0,0.0,0.0,0.0,0.09645035,0.0,0.0,0.0,1.3359029,1.3358644,1.0074238,0.0,0.0,0.0,0.0,0.0,0.0
3996000,3916000,0.109491885,0.10949381,0.2039057,1.0006312,1.0006313,34.333363,0.0,0.0,0.0,0.0,0.0,0.0,0.0,37.250114,0.0,0.0,nan,0.0,0.0,0.0,0.0,0.09645035,0.0,0.0,0.0,1.3455167,1.3454779,1.0074334,0.0,0.0,0.0,0.0,0.0,0.0
4004000,3924000,0.109491885,0.10949381,0.2039057,1.0006312,1.0006313,34.333363,0.0,0.0,0.0,0.0,0.0,0.0,0.0,20.471527,0.0,0.0,nan,0.0,0.0,0.0,0.0,0.09645035,0.0,0.0,0.0,1.3552855,1.3552468,1.0074434,0.0,0.0,0.0,0.0,0.0,0.0
4012000,3932000,0.109491885,0.10949381,0.2039057,1.0006312,1.0006313,34.333363,0.0,0.0,0.0,0.0,0.0,0.0,0.0,20.471527,0.0,0.0,nan,0.0,0.0,0.0,0.0,0.096303225,0.0,0.0,0.0,1.3652052,1.3651689,1.0074549,0.0,0.0,0.0,0.0,0.0,0.0
4020000,3940000,0.109491885,0.10949381,0.2039057,1.0006312,1.0006313,34.333363,0.0,0.0,0.0,0.0,0.0,0.0,0.0,20.471527,0.0,0.0,nan,0.0,0.0,0.0,0.0,0.096303225,0.0,0.0,0.0,1.3752842,1.3752483,1.0074648,0.0,0.0,0.0,0.0,0.0,0.0
4028000,3948000,0.109491885,0.10949381,0.2039057,1.0006312,1.0006313,34.333363,0.0,0.0,0.0,0.0,0.0,0.0,0.0,20.471527,0.0,0.0,nan,0.0,0.0,0.0,0.0,0.096303225,0.0,0.0,0.0,1.2493867,1.2493681,1.0073305,0.0,0.0,0.0,0.0,0.0,0.0
4036000,3956000,0.109491885,0.10949381,0.2039057,1.0006312,1.0006313,34.333363,0.0,0.0,0.0,0.0,0.0,0.0,0.0,20.471527,0.0,0.0,nan,0.0,0.0,0.0,0.0,0.096303225,0.0,0.0,0.0,1.2563864,1.2563677,1.0073372,0.0,0.0,0.0,0.0,0.0,0.0
4044000,3964000,0.109491885,0.10949381,0.2039057,1.0006312,1.0006313,34.333363,0.0,0.0,0.0,0.0,0.0,0.0,0.0,20.471527,0.0,0.0,nan,0.0,0.0,0.0,0.0,0.096303225,0.0,0.0,0.0,1.2634993,1.2634808,1.0073442,0.0,0.0,0.0,0.0,0.0,0.0
4052000,3972000,0.109491885,0.10949381,0.2039057,1.0006312,1.0006313,34.333363,0.0,0.0,0.0,0.0,0.0,0.0,0.0,20.471527,0.0,0.0,nan,0.0,0.0,0.0,0.0,0.096303225,0.0,0.0,0.0,1.270726,1.2707072,1.0073512,0.0,0.0,0.0,0.0,0.0,0.0
4060000,3980000,0.109491885,0.10949381,0.2039057,1.0006312,1.0006313,34.333363,0.0,0.0,0.0,0.0,0.0,0.0,0.0,17.169733,0.0,0.0,nan,0.0,0.0,0.0,0.0,0.096303225,0.0,0.0,0.0,1.2515153,1.2515005,1.0073326,0.0,0.0,0.0,0.0,0.0,0.0
4068000,3988000,0.109491885,0.10949381,0.2039057,1.0006312,1.0006313,34.333363,0.0,0.0,0.0,0.0,0.0,0.0,0.0,17.169733,0.0,0.0,nan,0.0,0.0,0.0,0.0,0.096303225,0.0,0.0,0.0,1.2581915,1.2581768,1.0073386,0.0,0.0,0.0,0.0,0.0,0.0
4076000,3996000,0.109491885,0.10949381,0.2039057,1.0006312,1.0006313,34.333363,0.0,0.0,0.0,0.0,0.0,0.0,0.0,17.169733,0.0,0.0,nan,0.0,0.0,0.0,0.0,0.096303225,0.0,0.0,0.0,1.26497,1.2649552,1.0073453,0.0,0.0,0.0,0.0,0.0,0.0
4084000,4004000,0.109491885,0.10949381,0.2039057,1.0006312,1.0006313,34.333363,0.0,0.0,0.0,0.0,0.0,0.0,0.0,17.169733,0.0,0.0,nan,0.0,0.0,0.0,0.0,0.09620238,0.0,0.0,0.0,1.2718482,1.271835,1.0073532,0.0,0.0,0.0,0.0,0.0,0.0
4092000,4012000,0.109491885,0.10949381,0.2039057,1.0006312,1.0006313,34.333363,0.0,0.0,0.0,0.0,0.0,0.0,0.0,17.169733,0.0,0.0,nan,0.0,0.0,0.0,0.0,0.09620238,0.0,0.0,0.0,1.2788311,1.278818,1.0073599,0.0,0.0,0.0,0.0,0.0,0.0
4100000,4020000,0.109491885,0.10949381,0.2039057,1.0006312,1.0006313,34.333363,0.0,0.0,0.0,0.0,0.0,0.0,0.0,17.169733,0.0,0.0,nan,0.0,0.0,0.0,0.0,0.09620238,0.0,0.0,0.0,1.2859164,1.2859032,1.0073664,0.0,0.0,0.0,0.0,0.0,0.0
4108000,4028000,0.109491885,0.10949381,0.2039057,1.0006312,1.0006313,34.333363,0.0,0.0,0.0,0.0,0.0,0.0,0.0,17.169733,0.0,0.0,nan,0.0,0.0,0.0,0.0,0.09620238,0.0,0.0,0.0,1.2931042,1.2930907,1.0073732,0.0,0.0,0.0,0.0,0.0,0.0
4116000,4036000,0.109491885,0.10949381,0.2039057,1.0006312,1.0006313,34.333363,0.0,0.0,0.0,0.0,0.0,0.0,0.0,17.169733,0.0,0.0,nan,0.0,0.0,0.0,0.0,0.09620238,0.0,0.0,0.0,1.3003938,1.3003805,1.0073804,0.0,0.0,0.0,0.0,0.0,0.0
4124000,4044000,0.109491885,0.10949381,0.2039057,1.0006312,1.0006313,34.333363,0.0,0.0,0.0,0.0,0.0,0.0,0.0,15.760113,0.0,0.0,nan,0.0,0.0,0.0,0.0,0.09620238,0.0,0.0,0.0,1.307786,1.307773,1.007387,0.0,0.0,0.0,0.0,0.0,0.0
4132000,4052000,0.109491885,0.10949381,0.2039057,1.0006312,1.0006313,34.333363,0.0,0.0,0.0,0.0,0.0,0.0,0.0,15.760113,0.0,0.0,nan,0.0,0.0,0.0,0.0,0.09620238,0.0,0.0,0.0,1.3152804,1.3152671,1.0073943,0.0,0.0,0.0,0.0,0.0,0.0
4140000,4060000,0.109491885,0.10949381,0.2039057,1.0006312,1.0006313,34.333363,0.0,0.0,0.0,0.0,0.0,0.0,0.0,15.760113,0.0,0.0,nan,0.0,0.0,0.0,0.0,0.09620238,0.0,0.0,0.0,1.3228767,1.3228636,1.0074017,0.0,0.0,0.0,0.0,0.0,0.0
4148000,4068000,0.109491885,0.10949381,0.2039057,1.0006312,1.0006313,34.333363,0.0,0.0,0.0,0.0,0.0,0.0,0.0,15.760113,0.0,0.0,nan,0.0,0.0,0.0,0.0,0.09620238,0.0,0.0,0.0,1.3305752,1.3305627,1.0074092,0.0,0.0,0.0,0.0,0.0,0.0
4156000,4076000,0.109491885,0.10949381,0.2039057,1.0006312,1.0006313,34.333363,0.0,0.0,0.0,0.0,0.0,0.0,0.0,15.760113,0.0,0.0,nan,0.0,0.0,0.0,0.0,0.09614091,0.0,0.0,0.0,1.3383727,1.3383622,1.0074162,0.0,0.0,0.0,0.0,0.0,0.0
4164000,4084000,0.109491885,0.10949381,0.2039057,1.0006312,1.0006313,34.333363,0.0,0.0,0.0,0.0,0.0,0.0,0.0,15.760113,0.0,0.0,nan,0.0,0.0,0.0,0.0,0.09614091,0.0,0.0,0.0,1.3462762,1.3462651,1.0074242,0.0,0.0,0.0,0.0,0.0,0.0
4172000,4092000,0.109491885,0.10949381,0.2039057,1.0006312,1.0006313,34.333363,0.0,0.0,0.0,0.0,0.0,0.0,0.0,15.760113,0.0,0.0,nan,0.0,0.0,0.0,0.0,0.09614091,0.0,0.0,0.0,1.3542819,1.3542702,1.0074322,0.0,0.0,0.0,0.0,0.0,0.0
4180000,4100000,0.109491885,0.10949381,0.2039057,1.0006312,1.0006313,34.333363,0.0,0.0,0.0,0.0,0.0,0.0,0.0,14.978402,0.0,0.0,nan,0.0,0.0,0.0,0.0,0.09614091,0.0,0.0,0.0,1.36239,1.3623781,1.0074399,0.0,0.0,0.0,0.0,0.0,0.0
4188000,4108000,0.109491885,0.10949381,0.2039057,1.0006312,1.0006313,34.333363,0.0,0.0,0.0,0.0,0.0,0.0,0.0,14.978402,0.0,0.0,nan,0.0,0.0,0.0,0.0,0.09614091,0.0,0.0,0.0,1.3705997,1.3705883,1.007448,0.0,0.0,0.0,0.0,0.0,0.0
4196000,4116000,0.109491885,0.10949381,0.2039057,1.0006312,1.0006313,34.333363,0.0,0.0,0.0,0.0,0.0,0.0,0.0,14.978402,0.0,0.0,nan,0.0,0.0,0.0,0.0,0.09614091,0.0,0.0,0.0,1.378912,1.3789004,1.0074564,0.0,0.0,0.0,0.0,0.0,0.0
4204000,4124000,0.10971196,0.109714866,0.2068504,1.0006427,1.0006428,3.2314403,0.0,0.0,0.0,0.0,0.0,0.0,0.0,14.978402,0.0,0.0,nan,0.0,0.0,0.0,0.0,0.09614091,0.0,0.0,0.0,1.3873268,1.3873148,1.0074645,0.0,0.0,0.0,0.0,0.0,0.0
4212000,4132000,0.10971196,0.109714866,0.2068504,1.0006427,1.0006428,3.2314403,0.0,0.0,0.0,0.0,0.0,0.0,0.0,14.978402,0.0,0.0,nan,0.0,0.0,0.0,0.0,0.09614091,0.0,0.0,0.0,1.3958437,1.3958317,1.0074728,0.0,0.0,0.0,0.0,0.0,0.0
4220000,4140000,0.10971196,0.109714866,0.2068504,1.0006427,1.0006428,3.2314403,0.0,0.0,0.0,0.0,0.0,0.0,0.0,14.978402,0.0,0.0,nan,0.0,0.0,0.0,0.0,0.09614091,0.0,0.0,0.0,1.4044628,1.404451,1.0074809,0.0,0.0,0.0,0.0,0.0,0.0
4228000,4148000,0.10971196,0.109714866,0.2068504,1.0006427,1.0006428,3.2314403,0.0,0.0,0.0,0.0,0.0,0.0,0.0,14.978402,0.0,0.0,nan,0.0,0.0,0.0,0.0,0.09611116,0.0,0.0,0.0,1.4131789,1.4131703,1.0074892,0.0,0.0,0.0,0.0,0.0,0.0
4236000,4156000,0.10971196,0.109714866,0.2068504,1.0006427,1.0006428,3.2314403,0.0,0.0,0.0,0.0,0.0,0.0,0.0,14.978402,0.0,0.0,nan,0.0,0.0,0.0,0.0,0.09611116,0.0,0.0,0.0,1.2016362,1.2016331,1.0072854,0.0,0.0,0.0,0.0,0.0,0.0
4244000,4164000,0.10971196,0.109714866,0.2068504,1.0006427,1.0006428,3.2314403,0.0,0.0,0.0,0.0,0.0,0.0,0.0,14.481508,0.0,0.0,nan,0.0,0.0,0.0,0.0,0.09611116,0.0,0.0,0.0,1.2057219,1.2057186,1.007289,0.0,0.0,0.0,0.0,0.0,0.0
4252000,4172000,0.10971196,0.109714866,0.2068504,1.0006427,1.0006428,3.2314403,0.0,0.0,0.0,0.0,0.0,0.0,0.0,14.481508,0.0,0.0,nan,0.0,0.0,0.0,0.0,0.09611116,0.0,0.0,0.0,1.2098571,1.2098541,1.0072926,0.0,0.0,0.0,0.0,0.0,0.0
4260000,4180000,0.10971196,0.109714866,0.2068504,1.0006427,1.0006428,3.2314403,0.0,0.0,0.0,0.0,0.0,0.0,0.0,14.481508,0.0,0.0,nan,0.0,0.0,0.0,0.0,0.09611116,0.0,0.0,0.0,1.2140421,1.2140392,1.0072962,0.0,0.0,0.0,0.0,0.0,0.0
4268000,4188000,0.10971196,0.109714866,0.2068504,1.0006427,1.0006428,3.2314403,0.0,0.0,0.0,0.0,0.0,0.0,0.0,14.481508,0.0,0.0,nan,0.0,0.0,0.0,0.0,0.09611116,0.0,0.0,0.0,1.1947794,1.1947764,1.0072792,0.0,0.0,0.0,0.0,0.0,0.0
4276000,4196000,0.10971196,0.109714866,0.2068504,1.0006427,1.0006428,3.2314403,0.0,0.0,0.0,0.0,0.0,0.0,0.0,14.481508,0.0,0.0,nan,0.0,0.0,0.0,0.0,0.09611116,0.0,0.0,0.0,1.1985273,1.1985245,1.0072827,0.0,0.0,0.0,0.0,0.0,0.0
4284000,4204000,0.10971196,0.109714866,0.2068504,1.0006427,1.0006428,3.2314403,0.0,0.0,0.0,0.0,0.0,0.0,0.0,14.481508,0.0,0.0,nan,0.0,0.0,0.0,0.0,0.09611116,0.0,0.0,0.0,1.2023193,1.2023164,1.007286,0.0,0.0,0.0,0.0,0.0,0.0
4292000,4212000,0.10971196,0.109714866,0.2068504,1.0006427,1.0006428,3.2314403,0.0,0.0,0.0,0.0,0.0,0.0,0.0,14.481508,0.0,0.0,nan,0.0,0.0,0.0,0.0,0.09611116,0.0,0.0,0.0,1.2061546,1.206152,1.0072896,0.0,0.0,0.0,0.0,0.0,0.0
4300000,4220000,0.10971196,0.109714866,0.2068504,1.0006427,1.0006428,3.2314403,0.0,0.0,0.0,0.0,0.0,0.0,0.0,14.137734,0.0,0.0,nan,0.0,0.0,0.0,0.0,0.09610594,0.0,0.0,0.0,1.2100322,1.2100306,1.007294,0.0,0.0,0.0,0.0,0.0,0.0
4308000,4228000,0.10971196,0.109714866,0.2068504,1.0006427,1.0006428,3.2314403,0.0,0.0,0.0,0.0,0.0,0.0,0.0,14.137734,0.0,0.0,nan,0.0,0.0,0.0,0.0,0.09610594,0.0,0.0,0.0,1.2139547,1.2139535,1.0072975,0.0,0.0,0.0,0.0,0.0,0.0
4316000,4236000,0.10971196,0.109714866,0.2068504,1.0006427,1.0006428,3.2314403,0.0,0.0,0.0,0.0,0.0,0.0,0.0,14.137734,0.0,0.0,nan,0.0,0.0,0.0,0.0,0.09610594,0.0,0.0,0.0,1.2179209,1.2179198,1.0073011,0.0,0.0,0.0,0.0,0.0,0.0
4324000,4244000,0.10971196,0.109714866,0.2068504,1.0006427,1.0006428,3.2314403,0.0,0.0,0.0,0.0,0.0,0.0,0.0,14.137734,0.0,0.0,nan,0.0,0.0,0.0,0.0,0.09610594,0.0,0.0,0.0,1.2219307,1.2219299,1.0073045,0.0,0.0,0.0,0.0,0.0,0.0
4332000,4252000,0.10971196,0.109714866,0.2068504,1.0006427,1.0006428,3.2314403,0.0,0.0,0.0,0.0,0.0,0.0,0.0,14.137734,0.0,0.0,nan,0.0,0.0,0.0,0.0,0.09610594,0.0,0.0,0.0,1.2259842,1.2259835,1.0073081,0.0,0.0,0.0,0.0,0.0,0.0
4340000,4260000,0.10971196,0.109714866,0.2068504,1.0006427,1.0006428,3.2314403,0.0,0.0,0.0,0.0,0.0,0.0,0.0,14.137734,0.0,0.0,nan,0.0,0.0,0.0,0.0,0.09610594,0.0,0.0,0.0,1.2300814,1.230081,1.0073117,0.0,0.0,0.0,0.0,0.0,0.0
4348000,4268000,0.10971196,0.109714866,0.2068504,1.0006427,1.0006428,3.2314403,0.0,0.0,0.0,0.0,0.0,0.0,0.0,14.137734,0.0,0.0,nan,0.0,0.0,0.0,0.0,0.09610594,0.0,0.0,0.0,1.2342222,1.2342217,1.0073159,0.0,0.0,0.0,0.0,0.0,0.0
4356000,4276000,0.10971196,0.109714866,0.2068504,1.0006427,1.0006428,3.2314403,0.0,0.0,0.0,0.0,0.0,0.0,0.0,14.137734,0.0,0.0,nan,0.0,0.0,0.0,0.0,0.09610594,0.0,0.0,0.0,1.2384064,1.2384063,1.0073196,0.0,0.0,0.0,0.0,0.0,0.0
4364000,4284000,0.10971196,0.109714866,0.2068504,1.0006427,1.0006428,3.2314403,0.0,0.0,0.0,0.0,0.0,0.0,0.0,13.88582,0.0,0.0,nan,0.0,0.0,0.0,0.0,0.09610594,0.0,0.0,0.0,1.2426343,1.2426345,1.0073236,0.0,0.0,0.0,0.0,0.0,0.0
4372000,4292000,0.10971196,0.109714866,0.2068504,1.0006427,1.0006428,3.2314403,0.0,0.0,0.0,0.0,0.0,0.0,0.0,13.88582,0.0,0.0,nan,0.0,0.0,0.0,0.0,0.096121915,0.0,0.0,0.0,1.246904,1.246906,1.0073274,0.0,0.0,0.0,0.0,0.0,0.0
4380000,4300000,0.10971196,0.109714866,0.2068504,1.0006427,1.0006428,3.2314403,0.0,0.0,0.0,0.0,0.0,0.0,0.0,13.88582,0.0,0.0,nan,0.0,0.0,0.0,0.0,0.096121915,0.0,0.0,0.0,1.2512192,1.2512215,1.0073311,0.0,0.0,0.0,0.0,0.0,0.0
4388000,4308000,0.10971196,0.109714866,0.2068504,1.0006427,1.0006428,3.2314403,0.0,0.0,0.0,0.0,0.0,0.0,0.0,13.88582,0.0,0.0,nan,0.0,0.0,0.0,0.0,0.096121915,0.0,0.0,0.0,1.255578,1.2555807,1.0073354,0.0,0.0,0.0,0.0,0.0,0.0
4396000,4316000,0.10971196,0.109714866,0.2068504,1.0006427,1.0006428,3.2314403,0.0,0.0,0.0,0.0,0.0,0.0,0.0,13.88582,0.0,0.0,nan,0.0,0.0,0.0,0.0,0.096121915,0.0,0.0,0.0,1.2599803,1.2599835,1.0073395,0.0,0.0,0.0,0.0,0.0,0.0
4404000,4324000,0.10971196,0.109714866,0.2068504,1.0006427,1.0006428,3.2314403,0.0,0.0,0.0,0.0,0.0,0.0,0.0,13.88582,0.0,0.0,nan,0.0,0.0,0.0,0.0,0.096121915,0.0,0.0,0.0,1.2644265,1.2644299,1.0073435,0.0,0.0,0.0,0.0,0.0,0.0
4412000,4332000,0.10971196,0.109714866,0.2068504,1.0006427,1.0006428,3.2314403,0.0,0.0,0.0,0.0,0.0,0.0,0.0,13.88582,0.0,0.0,nan,0.0,0.0,0.0,0.0,0.096121915,0.0,0.0,0.0,1.2689162,1.2689201,1.0073473,0.0,0.0,0.0,0.0,0.0,0.0
4420000,4340000,0.10971196,0.109714866,0.2068504,1.0006427,1.0006428,3.2314403,0.0,0.0,0.0,0.0,0.0,0.0,0.0,13.69327,0.0,0.0,nan,0.0,0.0,0.0,0.0,0.096121915,0.0,0.0,0.0,1.2734494,1.2734537,1.0073515,0.0,0.0,0.0,0.0,0.0,0.0
4428000,4348000,0.10971196,0.109714866,0.2068504,1.0006427,1.0006428,3.2314403,0.0,0.0,0.0,0.0,0.0,0.0,0.0,13.69327,0.0,0.0,nan,0.0,0.0,0.0,0.0,0.096121915,0.0,0.0,0.0,1.2780263,1.2780312,1.0073556,0.0,0.0,0.0,0.0,0.0,0.0
4436000,4356000,0.10971196,0.109714866,0.2068504,1.0006427,1.0006428,3.2314403,0.0,0.0,0.0,0.0,0.0,0.0,0.0,13.69327,0.0,0.0,nan,0.0,0.0,0.0,0.0,0.096121915,0.0,0.0,0.0,1.2826468,1.282652,1.00736,0.0,0.0,0.0,0.0,0.0,0.0
4444000,4364000,0.10971196,0.109714866,0.2068504,1.0006427,1.0006428,3.2314403,0.0,0.0,0.0,0.0,0.0,0.0,0.0,13.69327,0.0,0.0,nan,0.0,0.0,0.0,0.0,0.09615292,0.0,0.0,0.0,1.1243308,1.1243241,1.0072176,0.0,0.0,0.0,0.0,0.0,0.0
4452000,4372000,0.10971196,0.109714866,0.2068504,1.0006427,1.0006428,3.2314403,0.0,0.0,0.0,0.0,0.0,0.0,0.0,13.69327,0.0,0.0,nan,0.0,0.0,0.0,0.0,0.09615292,0.0,0.0,0.0,1.1260871,1.1260805,1.0072191,0.0,0.0,0.0,0.0,0.0,0.0
4460000,4380000,0.10971196,0.109714866,0.2068504,1.0006427,1.0006428,3.2314403,0.0,0.0,0.0,0.0,0.0,0.0,0.0,13.69327,0.0,0.0,nan,0.0,0.0,0.0,0.0,0.09615292,0.0,0.0,0.0,1.1278607,1.127854,1.0072204,0.0,0.0,0.0,0.0,0.0,0.0
4468000,4388000,0.10971196,0.109714866,0.2068504,1.0006427,1.0006428,3.2314403,0.0,0.0,0.0,0.0,0.0,0.0,0.0,13.69327,0.0,0.0,nan,0.0,0.0,0.0,0.0,0.09615292,0.0,0.0,0.0,1.1296511,1.1296444,1.0072222,0.0,0.0,0.0,0.0,0.0,0.0
4476000,4396000,0.10971196,0.109714866,0.2068504,1.0006427,1.0006428,3.2314403,0.0,0.0,0.0,0.0,0.0,0.0,0.0,13.69327,0.0,0.0,nan,0.0,0.0,0.0,0.0,0.09615292,0.0,0.0,0.0,1.1216758,1.1216687,1.0072153,0.0,0.0,0.0,0.0,0.0,0.0
4484000,4404000,0.10971196,0.109714866,0.2068504,1.0006427,1.0006428,3.2314403,0.0,0.0,0.0,0.0,0.0,0.0,0.0,13.541294,0.0,0.0,nan,0.0,0.0,0.0,0.0,0.09615292,0.0,0.0,0.0,1.1233203,1.1233132,1.0072168,0.0,0.0,0.0,0.0,0.0,0.0
4492000,4412000,0.10971196,0.109714866,0.2068504,1.0006427,1.0006428,3.2314403,0.0,0.0,0.0,0.0,0.0,0.0,0.0,13.541294,0.0,0.0,nan,0.0,0.0,0.0,0.0,0.09615292,0.0,0.0,0.0,1.1249803,1.124973,1.0072182,0.0,0.0,0.0,0.0,0.0,0.0
4500000,4420000,0.10971196,0.109714866,0.2068504,1.0006427,1.0006428,3.2314403,0.0,0.0,0.0,0.0,0.0,0.0,0.0,13.541294,0.0,0.0,nan,0.0,0.0,0.0,0.0,0.09615292,0.0,0.0,0.0,1.1266558,1.1266487,1.0072197,0.0,0.0,0.0,0.0,0.0,0.0
4508000,4428000,0.10971196,0.109714866,0.2068504,1.0006427,1.0006428,3.2314403,0.0,0.0,0.0,0.0,0.0,0.0,0.0,13.541294,0.0,0.0,nan,0.0,0.0,0.0,0.0,0.09615292,0.0,0.0,0.0,1.1283467,1.1283396,1.0072213,0.0,0.0,0.0,0.0,0.0,0.0
4516000,4436000,0.10971196,0.109714866,0.2068504,1.0006427,1.0006428,3.2314403,0.0,0.0,0.0,0.0,0.0,0.0,0.0,13.541294,0.0,0.0,nan,0.0,0.0,0.0,0.0,0.09619582,0.0,0.0,0.0,1.1300526,1.1300461,1.0072224,0.0,0.0,0.0,0.0,0.0,0.0
4524000,4444000,0.10971196,0.109714866,0.2068504,1.0006427,1.0006428,3.2314403,0.0,0.0,0.0,0.0,0.0,0.0,0.0,13.541294,0.0,0.0,nan,0.0,0.0,0.0,0.0,0.09619582,0.0,0.0,0.0,1.1317745,1.1317681,1.0072237,0.0,0.0,0.0,0.0,0.0,0.0
4532000,4452000,0.10971196,0.109714866,0.2068504,1.0006427,1.0006428,3.2314403,0.0,0.0,0.0,0.0,0.0,0.0,0.0,13.541294,0.0,0.0,nan,0.0,0.0,0.0,0.0,0.09619582,0.0,0.0,0.0,1.133512,1.1335055,1.0072254,0.0,0.0,0.0,0.0,0.0,0.0
4540000,4460000,0.10971196,0.109714866,0.2068504,1.0006427,1.0006428,3.2314403,0.0,0.0,0.0,0.0,0.0,0.0,0.0,13.418354,0.0,0.0,nan,0.0,0.0,0.0,0.0,0.09619582,0.0,0.0,0.0,1.135265,1.1352583,1.0072271,0.0,0.0,0.0,0.0,0.0,0.0
4548000,4468000,0.10971196,0.109714866,0.2068504,1.0006427,1.0006428,3.2314403,0.0,0.0,0.0,0.0,0.0,0.0,0.0,13.418354,0.0,0.0,nan,0.0,0.0,0.0,0.0,0.09619582,0.0,0.0,0.0,1.1370335,1.1370269,1.0072283,0.0,0.0,0.0,0.0,0.0,0.0
4556000,4476000,0.10971196,0.109714866,0.2068504,1.0006427,1.0006428,3.2314403,0.0,0.0,0.0,0.0,0.0,0.0,0.0,13.418354,0.0,0.0,nan,0.0,0.0,0.0,0.0,0.09619582,0.0,0.0,0.0,1.1388174,1.1388109,1.0072297,0.0,0.0,0.0,0.0,0.0,0.0
4564000,4484000,0.10971196,0.109714866,0.2068504,1.0006427,1.0006428,3.2314403,0.0,0.0,0.0,0.0,0.0,0.0,0.0,13.418354,0.0,0.0,nan,0.0,0.0,0.0,0.0,0.09619582,0.0,0.0,0.0,1.140617,1.1406102,1.0072314,0.0,0.0,0.0,0.0,0.0,0.0
4572000,4492000,0.10971196,0.109714866,0.2068504,1.0006427,1.0006428,3.2314403,0.0,0.0,0.0,0.0,0.0,0.0,0.0,13.418354,0.0,0.0,nan,0.0,0.0,0.0,0.0,0.09619582,0.0,0.0,0.0,1.1424319,1.1424253,1.0072329,0.0,0.0,0.0,0.0,0.0,0.0
4580000,4500000,0.10971196,0.109714866,0.2068504,1.0006427,1.0006428,3.2314403,0.0,0.0,0.0,0.0,0.0,0.0,0.0,13.418354,0.0,0.0,nan,0.0,0.0,0.0,0.0,0.09619582,0.0,0.0,0.0,1.1442623,1.1442559,1.0072345,0.0,0.0,0.0,0.0,0.0,0.0
4588000,4508000,0.10971196,0.109714866,0.2068504,1.0006427,1.0006428,3.2314403,0.0,0.0,0.0,0.0,0.0,0.0,0.0,13.418354,0.0,0.0,nan,0.0,0.0,0.0,0.0,0.09624657,0.0,0.0,0.0,1.1461077,1.1461016,1.0072358,0.0,0.0,0.0,0.0,0.0,0.0
4596000,4516000,0.10971196,0.109714866,0.2068504,1.0006427,1.0006428,3.2314403,0.0,0.0,0.0,0.0,0.0,0.0,0.0,13.418354,0.0,0.0,nan,0.0,0.0,0.0,0.0,0.09624657,0.0,0.0,0.0,1.1479692,1.1479632,1.0072371,0.0,0.0,0.0,0.0,0.0,0.0
4604000,4524000,0.10077078,0.100771494,0.20969307,1.0004479,1.0004479,1.9814175,0.0,0.0,0.0,0.0,0.0,0.0,0.0,13.316893,0.0,0.0,nan,0.0,0.0,0.0,0.0,0.09624657,0.0,0.0,0.0,1.1498461,1.1498401,1.0072385,0.0,0.0,0.0,0.0,0.0,0.0
4612000,4532000,0.10077078,0.100771494,0.20969307,1.0004479,1.0004479,1.9814175,0.0,0.0,0.0,0.0,0.0,0.0,0.0,13.316893,0.0,0.0,nan,0.0,0.0,0.0,0.0,0.09624657,0.0,0.0,0.0,1.1517385,1.1517326,1.0072405,0.0,0.0,0.0,0.0,0.0,0.0
4620000,4540000,0.10077078,0.100771494,0.20969307,1.0004479,1.0004479,1.9814175,0.0,0.0,0.0,0.0,0.0,0.0,0.0,13.316893,0.0,0.0,nan,0.0,0.0,0.0,0.0,0.09624657,0.0,0.0,0.0,1.1536462,1.1536405,1.0072423,0.0,0.0,0.0,0.0,0.0,0.0
4628000,4548000,0.10077078,0.100771494,0.20969307,1.0004479,1.0004479,1.9814175,0.0,0.0,0.0,0.0,0.0,0.0,0.0,13.316893,0.0,0.0,nan,0.0,0.0,0.0,0.0,0.09624657,0.0,0.0,0.0,1.1555697,1.1555638,1.0072439,0.0,0.0,0.0,0.0,0.0,0.0
4636000,4556000,0.10077078,0.100771494,0.20969307,1.0004479,1.0004479,1.9814175,0.0,0.0,0.0,0.0,0.0,0.0,0.0,13.316893,0.0,0.0,nan,0.0,0.0,0.0,0.0,0.09624657,0.0,0.0,0.0,1.1575086,1.1575029,1.0072455,0.0,0.0,0.0,0.0,0.0,0.0
4644000,4564000,0.10077078,0.100771494,0.20969307,1.0004479,1.0004479,1.9814175,0.0,0.0,0.0,0.0,0.0,0.0,0.0,13.316893,0.0,0.0,nan,0.0,0.0,0.0,0.0,0.09624657,0.0,0.0,0.0,1.1594629,1.1594573,1.0072473,0.0,0.0,0.0,0.0,0.0,0.0
4652000,4572000,0.10077078,0.100771494,0.20969307,1.0004479,1.0004479,1.9814175,0.0,0.0,0.0,0.0,0.0,0.0,0.0,13.316893,0.0,0.0,nan,0.0,0.0,0.0,0.0,0.09624657,0.0,0.0,0.0,1.0824145,1.0824041,1.00718,0.0,0.0,0.0,0.0,0.0,0.0
4660000,4580000,0.10077078,0.100771494,0.20969307,1.0004479,1.0004479,1.9814175,0.0,0.0,0.0,0.0,0.0,0.0,0.0,13.231694,0.0,0.0,nan,0.0,0.0,0.0,0.0,0.096301734,0.0,0.0,0.0,1.0831975,1.0831871,1.007181,0.0,0.0,0.0,0.0,0.0,0.0
4668000,4588000,0.10077078,0.100771494,0.20969307,1.0004479,1.0004479,1.9814175,0.0,0.0,0.0,0.0,0.0,0.0,0.0,13.231694,0.0,0.0,nan,0.0,0.0,0.0,0.0,0.096301734,0.0,0.0,0.0,1.083987,1.0839767,1.0071818,0.0,0.0,0.0,0.0,0.0,0.0
4676000,4596000,0.10077078,0.100771494,0.20969307,1.0004479,1.0004479,1.9814175,0.0,0.0,0.0,0.0,0.0,0.0,0.0,13.231694,0.0,0.0,nan,0.0,0.0,0.0,0.0,0.096301734,0.0,0.0,0.0,1.0847828,1.0847727,1.0071825,0.0,0.0,0.0,0.0,0.0,0.0
4684000,4604000,0.10077078,0.100771494,0.20969307,1.0004479,1.0004479,1.9814175,0.0,0.0,0.0,0.0,0.0,0.0,0.0,13.231694,0.0,0.0,nan,0.0,0.0,0.0,0.0,0.096301734,0.0,0.0,0.0,1.0819283,1.0819182,1.0071799,0.0,0.0,0.0,0.0,0.0,0.0
4692000,4612000,0.10077078,0.100771494,0.20969307,1.0004479,1.0004479,1.9814175,0.0,0.0,0.0,0.0,0.0,0.0,0.0,13.231694,0.0,0.0,nan,0.0,0.0,0.0,0.0,0.096301734,0.0,0.0,0.0,1.0826806,1.0826706,1.0071806,0.0,0.0,0.0,0.0,0.0,0.0
4700000,4620000,0.10077078,0.100771494,0.20969307,1.0004479,1.0004479,1.9814175,0.0,0.0,0.0,0.0,0.0,0.0,0.0,13.231694,0.0,0.0,nan,0.0,0.0,0.0,0.0,0.096301734,0.0,0.0,0.0,1.083439,1.0834289,1.0071813,0.0,0.0,0.0,0.0,0.0,0.0
4708000,4628000,0.10077078,0.100771494,0.20969307,1.0004479,1.0004479,1.9814175,0.0,0.0,0.0,0.0,0.0,0.0,0.0,13.231694,0.0,0.0,nan,0.0,0.0,0.0,0.0,0.096301734,0.0,0.0,0.0,1.0842032,1.0841932,1.0071818,0.0,0.0,0.0,0.0,0.0,0.0
4716000,4636000,0.10077078,0.100771494,0.20969307,1.0004479,1.0004479,1.9814175,0.0,0.0,0.0,0.0,0.0,0.0,0.0,13.231694,0.0,0.0,nan,0.0,0.0,0.0,0.0,0.096301734,0.0,0.0,0.0,1.0849736,1.0849636,1.0071825,0.0,0.0,0.0,0.0,0.0,0.0
4724000,4644000,0.10077078,0.100771494,0.20969307,1.0004479,1.0004479,1.9814175,0.0,0.0,0.0,0.0,0.0,0.0,0.0,13.1590395,0.0,0.0,nan,0.0,0.0,0.0,0.0,0.096301734,0.0,0.0,0.0,1.0857497,1.0857399,1.0071832,0.0,0.0,0.0,0.0,0.0,0.0
4732000,4652000,0.10077078,0.100771494,0.20969307,1.0004479,1.0004479,1.9814175,0.0,0.0,0.0,0.0,0.0,0.0,0.0,13.1590395,0.0,0.0,nan,0.0,0.0,0.0,0.0,0.09635896,0.0,0.0,0.0,1.0865316,1.0865221,1.0071888,0.0,0.0,0.0,0.0,0.0,0.0
4740000,4660000,0.10077078,0.100771494,0.20969307,1.0004479,1.0004479,1.9814175,0.0,0.0,0.0,0.0,0.0,0.0,0.0,13.1590395,0.0,0.0,nan,0.0,0.0,0.0,0.0,0.09635896,0.0,0.0,0.0,1.0873199,1.0873103,1.0071896,0.0,0.0,0.0,0.0,0.0,0.0
4748000,4668000,0.10077078,0.100771494,0.20969307,1.0004479,1.0004479,1.9814175,0.0,0.0,0.0,0.0,0.0,0.0,0.0,13.1590395,0.0,0.0,nan,0.0,0.0,0.0,0.0,0.09635896,0.0,0.0,0.0,1.0881143,1.0881046,1.0071903,0.0,0.0,0.0,0.0,0.0,0.0
4756000,4676000,0.10077078,0.100771494,0.20969307,1.0004479,1.0004479,1.9814175,0.0,0.0,0.0,0.0,0.0,0.0,0.0,13.1590395,0.0,0.0,nan,0.0,0.0,0.0,0.0,0.09635896,0.0,0.0,0.0,1.0889144,1.0889047,1.007191,0.0,0.0,0.0,0.0,0.0,0.0
4764000,4684000,0.10077078,0.100771494,0.20969307,1.0004479,1.0004479,1.9814175,0.0,0.0,0.0,0.0,0.0,0.0,0.0,13.1590395,0.0,0.0,nan,0.0,0.0,0.0,0.0,0.09635896,0.0,0.0,0.0,1.0897206,1.089711,1.0071915,0.0,0.0,0.0,0.0,0.0,0.0
4772000,4692000,0.10077078,0.100771494,0.20969307,1.0004479,1.0004479,1.9814175,0.0,0.0,0.0,0.0,0.0,0.0,0.0,13.1590395,0.0,0.0,nan,0.0,0.0,0.0,0.0,0.09635896,0.0,0.0,0.0,1.0905329,1.0905234,1.0071924,0.0,0.0,0.0,0.0,0.0,0.0
4780000,4700000,0.10077078,0.100771494,0.20969307,1.0004479,1.0004479,1.9814175,0.0,0.0,0.0,0.0,0.0,0.0,0.0,13.096553,0.0,0.0,nan,0.0,0.0,0.0,0.0,0.09635896,0.0,0.0,0.0,1.091351,1.0913415,1.007193,0.0,0.0,0.0,0.0,0.0,0.0
4788000,4708000,0.10077078,0.100771494,0.20969307,1.0004479,1.0004479,1.9814175,0.0,0.0,0.0,0.0,0.0,0.0,0.0,13.096553,0.0,0.0,nan,0.0,0.0,0.0,0.0,0.09635896,0.0,0.0,0.0,1.0921754,1.0921657,1.0071936,0.0,0.0,0.0,0.0,0.0,0.0
4796000,4716000,0.10077078,0.100771494,0.20969307,1.0004479,1.0004479,1.9814175,0.0,0.0,0.0,0.0,0.0,0.0,0.0,13.096553,0.0,0.0,nan,0.0,0.0,0.0,0.0,0.09635896,0.0,0.0,0.0,1.0930055,1.0929959,1.0071943,0.0,0.0,0.0,0.0,0.0,0.0
4804000,4724000,0.10077078,0.100771494,0.20969307,1.0004479,1.0004479,1.9814175,0.0,0.0,0.0,0.0,0.0,0.0,0.0,13.096553,0.0,0.0,nan,0.0,0.0,0.0,0.0,0.096415706,0.0,0.0,0.0,1.0938414,1.093832,1.0071945,0.0,0.0,0.0,0.0,0.0,0.0
4812000,4732000,0.10077078,0.100771494,0.20969307,1.0004479,1.0004479,1.9814175,0.0,0.0,0.0,0.0,0.0,0.0,0.0,13.096553,0.0,0.0,nan,0.0,0.0,0.0,0.0,0.096415706,0.0,0.0,0.0,1.0946835,1.0946741,1.0071951,0.0,0.0,0.0,0.0,0.0,0.0
4820000,4740000,0.10077078,0.100771494,0.20969307,1.0004479,1.0004479,1.9814175,0.0,0.0,0.0,0.0,0.0,0.0,0.0,13.096553,0.0,0.0,nan,0.0,0.0,0.0,0.0,0.096415706,0.0,0.0,0.0,1.0955317,1.0955223,1.0071958,0.0,0.0,0.0,0.0,0.0,0.0
4828000,4748000,0.10077078,0.100771494,0.20969307,1.0004479,1.0004479,1.9814175,0.0,0.0,0.0,0.0,0.0,0.0,0.0,13.096553,0.0,0.0,nan,0.0,0.0,0.0,0.0,0.096415706,0.0,0.0,0.0,1.096386,1.0963765,1.0071963,0.0,0.0,0.0,0.0,0.0,0.0
4836000,4756000,0.10077078,0.100771494,0.20969307,1.0004479,1.0004479,1.9814175,0.0,0.0,0.0,0.0,0.0,0.0,0.0,13.096553,0.0,0.0,nan,0.0,0.0,0.0,0.0,0.096415706,0.0,0.0,0.0,1.0972462,1.0972366,1.007197,0.0,0.0,0.0,0.0,0.0,0.0
4844000,4764000,0.10077078,0.100771494,0.20969307,1.0004479,1.0004479,1.9814175,0.0,0.0,0.0,0.0,0.0,0.0,0.0,13.04224,0.0,0.0,nan,0.0,0.0,0.0,0.0,0.096415706,0.0,0.0,0.0,1.0981123,1.0981027,1.0071977,0.0,0.0,0.0,0.0,0.0,0.0
4852000,4772000,0.10077078,0.100771494,0.20969307,1.0004479,1.0004479,1.9814175,0.0,0.0,0.0,0.0,0.0,0.0,0.0,13.04224,0.0,0.0,nan,0.0,0.0,0.0,0.0,0.096415706,0.0,0.0,0.0,1.0989845,1.0989748,1.0071985,0.0,0.0,0.0,0.0,0.0,0.0
4860000,4780000,0.10077078,0.100771494,0.20969307,1.0004479,1.0004479,1.9814175,0.0,0.0,0.0,0.0,0.0,0.0,0.0,13.04224,0.0,0.0,nan,0.0,0.0,0.0,0.0,0.096415706,0.0,0.0,0.0,1.0627089,1.0626993,1.0071675,0.0,0.0,0.0,0.0,0.0,0.0
4868000,4788000,0.10077078,0.100771494,0.20969307,1.0004479,1.0004479,1.9814175,0.0,0.0,0.0,0.0,0.0,0.0,0.0,13.04224,0.0,0.0,nan,0.0,0.0,0.0,0.0,0.096415706,0.0,0.0,0.0,1.0631064,1.0630969,1.0071678,0.0,0.0,0.0,0.0,0.0,0.0
4876000,4796000,0.10077078,0.100771494,0.20969307,1.0004479,1.0004479,1.9814175,0.0,0.0,0.0,0.0,0.0,0.0,0.0,13.04224,0.0,0.0,nan,0.0,0.0,0.0,0.0,0.09647003,0.0,0.0,0.0,1.0635068,1.0634973,1.0071628,0.0,0.0,0.0,0.0,0.0,0.0
4884000,4804000,0.10077078,0.100771494,0.20969307,1.0004479,1.0004479,1.9814175,0.0,0.0,0.0,0.0,0.0,0.0,0.0,13.04224,0.0,0.0,nan,0.0,0.0,0.0,0.0,0.09647003,0.0,0.0,0.0,1.0639102,1.0639008,1.007163,0.0,0.0,0.0,0.0,0.0,0.0
4892000,4812000,0.10077078,0.100771494,0.20969307,1.0004479,1.0004479,1.9814175,0.0,0.0,0.0,0.0,0.0,0.0,0.0,13.04224,0.0,0.0,nan,0.0,0.0,0.0,0.0,0.09647003,0.0,0.0,0.0,1.0627935,1.0627844,1.0071621,0.0,0.0,0.0,0.0,0.0,0.0
4900000,4820000,0.10077078,0.100771494,0.20969307,1.0004479,1.0004479,1.9814175,0.0,0.0,0.0,0.0,0.0,0.0,0.0,12.994227,0.0,0.0,nan,0.0,0.0,0.0,0.0,0.09647003,0.0,0.0,0.0,1.0631821,1.0631733,1.0071623,0.0,0.0,0.0,0.0,0.0,0.0
4908000,4828000,0.10077078,0.100771494,0.20969307,1.0004479,1.0004479,1.9814175,0.0,0.0,0.0,0.0,0.0,0.0,0.0,12.994227,0.0,0.0,nan,0.0,0.0,0.0,0.0,0.09647003,0.0,0.0,0.0,1.0635736,1.0635647,1.0071625,0.0,0.0,0.0,0.0,0.0,0.0
4916000,4836000,0.10077078,0.100771494,0.20969307,1.0004479,1.0004479,1.9814175,0.0,0.0,0.0,0.0,0.0,0.0,0.0,12.994227,0.0,0.0,nan,0.0,0.0,0.0,0.0,0.09647003,0.0,0.0,0.0,1.0639677,1.0639589,1.0071627,0.0,0.0,0.0,0.0,0.0,0.0
4924000,4844000,0.10077078,0.100771494,0.20969307,1.0004479,1.0004479,1.9814175,0.0,0.0,0.0,0.0,0.0,0.0,0.0,12.994227,0.0,0.0,nan,0.0,0.0,0.0,0.0,0.09647003,0.0,0.0,0.0,1.0643646,1.0643557,1.0071629,0.0,0.0,0.0,0.0,0.0,0.0
4932000,4852000,0.10077078,0.100771494,0.20969307,1.0004479,1.0004479,1.9814175,0.0,0.0,0.0,0.0,0.0,0.0,0.0,12.994227,0.0,0.0,nan,0.0,0.0,0.0,0.0,0.09647003,0.0,0.0,0.0,1.064764,1.0647552,1.0071632,0.0,0.0,0.0,0.0,0.0,0.0
4940000,4860000,0.10077078,0.100771494,0.20969307,1.0004479,1.0004479,1.9814175,0.0,0.0,0.0,0.0,0.0,0.0,0.0,12.994227,0.0,0.0,nan,0.0,0.0,0.0,0.0,0.09647003,0.0,0.0,0.0,1.0651662,1.0651575,1.0071634,0.0,0.0,0.0,0.0,0.0,0.0
4948000,4868000,0.10077078,0.100771494,0.20969307,1.0004479,1.0004479,1.9814175,0.0,0.0,0.0,0.0,0.0,0.0,0.0,12.994227,0.0,0.0,nan,0.0,0.0,0.0,0.0,0.09652052,0.0,0.0,0.0,1.065571,1.0655622,1.0071632,0.0,0.0,0.0,0.0,0.0,0.0
4956000,4876000,0.10077078,0.100771494,0.20969307,1.0004479,1.0004479,1.9814175,0.0,0.0,0.0,0.0,0.0,0.0,0.0,12.994227,0.0,0.0,nan,0.0,0.0,0.0,0.0,0.09652052,0.0,0.0,0.0,1.0659785,1.06597,1.0071634,0.0,0.0,0.0,0.0,0.0,0.0
4964000,4884000,0.10077078,0.100771494,0.20969307,1.0004479,1.0004479,1.9814175,0.0,0.0,0.0,0.0,0.0,0.0,0.0,12.952034,0.0,0.0,nan,0.0,0.0,0.0,0.0,0.09652052,0.0,0.0,0.0,1.0663887,1.0663805,1.0071636,0.0,0.0,0.0,0.0,0.0,0.0
4972000,4892000,0.10077078,0.100771494,0.20969307,1.0004479,1.0004479,1.9814175,0.0,0.0,0.0,0.0,0.0,0.0,0.0,12.952034,0.0,0.0,nan,0.0,0.0,0.0,0.0,0.09652052,0.0,0.0,0.0,1.0668017,1.0667932,1.007164,0.0,0.0,0.0,0.0,0.0,0.0
4980000,4900000,0.10077078,0.100771494,0.20969307,1.0004479,1.0004479,1.9814175,0.0,0.0,0.0,0.0,0.0,0.0,0.0,12.952034,0.0,0.0,nan,0.0,0.0,0.0,0.0,0.09652052,0.0,0.0,0.0,1.0672172,1.0672089,1.0071644,0.0,0.0,0.0,0.0,0.0,0.0
4988000,4908000,0.10077078,0.100771494,0.20969307,1.0004479,1.0004479,1.9814175,0.0,0.0,0.0,0.0,0.0,0.0,0.0,12.952034,0.0,0.0,nan,0.0,0.0,0.0,0.0,0.09652052,0.0,0.0,0.0,1.0676357,1.0676273,1.0071646,0.0,0.0,0.0,0.0,0.0,0.0
4996000,4916000,0.10077078,0.100771494,0.20969307,1.0004479,1.0004479,1.9814175,0.0,0.0,0.0,0.0,0.0,0.0,0.0,12.952034,0.0,0.0,nan,0.0,0.0,0.0,0.0,0.09652052,0.0,0.0,0.0,1.0680566,1.0680485,1.007165,0.0,0.0,0.0,0.0,0.0,0.0
5004000,4924000,0.09465287,0.094653234,0.21113947,1.0002682,1.0002682,1.6642797,0.0,0.0,0.0,0.0,0.0,0.0,0.0,12.952034,0.0,0.0,nan,0.0,0.0,0.0,0.0,0.09652052,0.0,0.0,0.0,1.0684803,1.0684721,1.0071651,0.0,0.0,0.0,0.0,0.0,0.0
5012000,4932000,0.09465287,0.094653234,0.21113947,1.0002682,1.0002682,1.6642797,0.0,0.0,0.0,0.0,0.0,0.0,0.0,12.952034,0.0,0.0,nan,0.0,0.0,0.0,0.0,0.09652052,0.0,0.0,0.0,1.0689067,1.0688987,1.0071654,0.0,0.0,0.0,0.0,0.0,0.0
5020000,4940000,0.09465287,0.094653234,0.21113947,1.0002682,1.0002682,1.6642797,0.0,0.0,0.0,0.0,0.0,0.0,0.0,12.914409,0.0,0.0,nan,0.0,0.0,0.0,0.0,0.096565746,0.0,0.0,0.0,1.0693356,1.0693277,1.0071659,0.0,0.0,0.0,0.0,0.0,0.0
5028000,4948000,0.09465287,0.094653234,0.21113947,1.0002682,1.0002682,1.6642797,0.0,0.0,0.0,0.0,0.0,0.0,0.0,12.914409,0.0,0.0,nan,0.0,0.0,0.0,0.0,0.096565746,0.0,0.0,0.0,1.0697674,1.0697595,1.0071661,0.0,0.0,0.0,0.0,0.0,0.0
5036000,4956000,0.09465287,0.094653234,0.21113947,1.0002682,1.0002682,1.6642797,0.0,0.0,0.0,0.0,0.0,0.0,0.0,12.914409,0.0,0.0,nan,0.0,0.0,0.0,0.0,0.096565746,0.0,0.0,0.0,1.0702019,1.070194,1.0071665,0.0,0.0,0.0,0.0,0.0,0.0
5044000,4964000,0.09465287,0.094653234,0.21113947,1.0002682,1.0002682,1.6642797,0.0,0.0,0.0,0.0,0.0,0.0,0.0,12.914409,0.0,0.0,nan,0.0,0.0,0.0,0.0,0.096565746,0.0,0.0,0.0,1.0706391,1.070631,1.0071667,0.0,0.0,0.0,0.0,0.0,0.0
5052000,4972000,0.09465287,0.094653234,0.21113947,1.0002682,1.0002682,1.6642797,0.0,0.0,0.0,0.0,0.0,0.0,0.0,12.914409,0.0,0.0,nan,0.0,0.0,0.0,0.0,0.096565746,0.0,0.0,0.0,1.0710789,1.071071,1.0071671,0.0,0.0,0.0,0.0,0.0,0.0
5060000,4980000,0.09465287,0.094653234,0.21113947,1.0002682,1.0002682,1.6642797,0.0,0.0,0.0,0.0,0.0,0.0,0.0,12.914409,0.0,0.0,nan,0.0,0.0,0.0,0.0,0.096565746,0.0,0.0,0.0,1.0715214,1.0715137,1.0071673,0.0,0.0,0.0,0.0,0.0,0.0
5068000,4988000,0.09465287,0.094653234,0.21113947,1.0002682,1.0002682,1.6642797,0.0,0.0,0.0,0.0,0.0,0.0,0.0,12.914409,0.0,0.0,nan,0.0,0.0,0.0,0.0,0.096565746,0.0,0.0,0.0,1.0529119,1.0529042,1.0071523,0.0,0.0,0.0,0.0,0.0,0.0
5076000,4996000,0.09465287,0.094653234,0.21113947,1.0002682,1.0002682,1.6642797,0.0,0.0,0.0,0.0,0.0,0.0,0.0,12.914409,0.0,0.0,nan,0.0,0.0,0.0,0.0,0.096565746,0.0,0.0,0.0,1.0531409,1.0531332,1.0071523,0.0,0.0,0.0,0.0,0.0,0.0
5084000,5004000,0.09465287,0.094653234,0.21113947,1.0002682,1.0002682,1.6642797,0.0,0.0,0.0,0.0,0.0,0.0,0.0,12.8807745,0.0,0.0,nan,0.0,0.0,0.0,0.0,0.096565746,0.0,0.0,0.0,1.0533713,1.0533637,1.0071526,0.0,0.0,0.0,0.0,0.0,0.0
5092000,5012000,0.09465287,0.094653234,0.21113947,1.0002682,1.0002682,1.6642797,0.0,0.0,0.0,0.0,0.0,0.0,0.0,12.8807745,0.0,0.0,nan,0.0,0.0,0.0,0.0,0.09660479,0.0,0.0,0.0,1.0536029,1.0535954,1.0071532,0.0,0.0,0.0,0.0,0.0,0.0
5100000,5020000,0.09465287,0.094653234,0.21113947,1.0002682,1.0002682,1.6642797,0.0,0.0,0.0,0.0,0.0,0.0,0.0,12.8807745,0.0,0.0,nan,0.0,0.0,0.0,0.0,0.09660479,0.0,0.0,0.0,1.053105,1.0530976,1.0071528,0.0,0.0,0.0,0.0,0.0,0.0
5108000,5028000,0.09465287,0.094653234,0.21113947,1.0002682,1.0002682,1.6642797,0.0,0.0,0.0,0.0,0.0,0.0,0.0,12.8807745,0.0,0.0,nan,0.0,0.0,0.0,0.0,0.09660479,0.0,0.0,0.0,1.0533313,1.0533239,1.0071528,0.0,0.0,0.0,0.0,0.0,0.0
5116000,5036000,0.09465287,0.094653234,0.21113947,1.0002682,1.0002682,1.6642797,0.0,0.0,0.0,0.0,0.0,0.0,0.0,12.8807745,0.0,0.0,nan,0.0,0.0,0.0,0.0,0.09660479,0.0,0.0,0.0,1.0535588,1.0535516,1.0071528,0.0,0.0,0.0,0.0,0.0,0.0
5124000,5044000,0.09465287,0.094653234,0.21113947,1.0002682,1.0002682,1.6642797,0.0,0.0,0.0,0.0,0.0,0.0,0.0,12.8807745,0.0,0.0,nan,0.0,0.0,0.0,0.0,0.09660479,0.0,0.0,0.0,1.0537878,1.0537807,1.007153,0.0,0.0,0.0,0.0,0.0,0.0
5132000,5052000,0.09465287,0.094653234,0.21113947,1.0002682,1.0002682,1.6642797,0.0,0.0,0.0,0.0,0.0,0.0,0.0,12.8807745,0.0,0.0,nan,0.0,0.0,0.0,0.0,0.09660479,0.0,0.0,0.0,1.0540183,1.054011,1.0071532,0.0,0.0,0.0,0.0,0.0,0.0
5140000,5060000,0.09465287,0.094653234,0.21113947,1.0002682,1.0002682,1.6642797,0.0,0.0,0.0,0.0,0.0,0.0,0.0,12.849936,0.0,0.0,nan,0.0,0.0,0.0,0.0,0.09660479,0.0,0.0,0.0,1.05425,1.0542428,1.0071533,0.0,0.0,0.0,0.0,0.0,0.0
5148000,5068000,0.09465287,0.094653234,0.21113947,1.0002682,1.0002682,1.6642797,0.0,0.0,0.0,0.0,0.0,0.0,0.0,12.849936,0.0,0.0,nan,0.0,0.0,0.0,0.0,0.09660479,0.0,0.0,0.0,1.0544832,1.054476,1.0071535,0.0,0.0,0.0,0.0,0.0,0.0
5156000,5076000,0.09465287,0.094653234,0.21113947,1.0002682,1.0002682,1.6642797,0.0,0.0,0.0,0.0,0.0,0.0,0.0,12.849936,0.0,0.0,nan,0.0,0.0,0.0,0.0,0.09660479,0.0,0.0,0.0,1.0547178,1.0547105,1.0071535,0.0,0.0,0.0,0.0,0.0,0.0
5164000,5084000,0.09465287,0.094653234,0.21113947,1.0002682,1.0002682,1.6642797,0.0,0.0,0.0,0.0,0.0,0.0,0.0,12.849936,0.0,0.0,nan,0.0,0.0,0.0,0.0,0.09663704,0.0,0.0,0.0,1.0549535,1.0549464,1.0071533,0.0,0.0,0.0,0.0,0.0,0.0
5172000,5092000,0.09465287,0.094653234,0.21113947,1.0002682,1.0002682,1.6642797,0.0,0.0,0.0,0.0,0.0,0.0,0.0,12.849936,0.0,0.0,nan,0.0,0.0,0.0,0.0,0.09663704,0.0,0.0,0.0,1.0551908,1.0551838,1.0071536,0.0,0.0,0.0,0.0,0.0,0.0
5180000,5100000,0.09465287,0.094653234,0.21113947,1.0002682,1.0002682,1.6642797,0.0,0.0,0.0,0.0,0.0,0.0,0.0,12.849936,0.0,0.0,nan,0.0,0.0,0.0,0.0,0.09663704,0.0,0.0,0.0,1.0554296,1.0554225,1.0071537,0.0,0.0,0.0,0.0,0.0,0.0
5188000,5108000,0.09465287,0.094653234,0.21113947,1.0002682,1.0002682,1.6642797,0.0,0.0,0.0,0.0,0.0,0.0,0.0,12.849936,0.0,0.0,nan,0.0,0.0,0.0,0.0,0.09663704,0.0,0.0,0.0,1.0556697,1.0556628,1.0071539,0.0,0.0,0.0,0.0,0.0,0.0
5196000,5116000,0.09465287,0.094653234,0.21113947,1.0002682,1.0002682,1.6642797,0.0,0.0,0.0,0.0,0.0,0.0,0.0,12.822403,0.0,0.0,nan,0.0,0.0,0.0,0.0,0.09663704,0.0,0.0,0.0,1.0559112,1.0559043,1.007154,0.0,0.0,0.0,0.0,0.0,0.0
5204000,5124000,0.09465287,0.094653234,0.21113947,1.0002682,1.0002682,1.6642797,0.0,0.0,0.0,0.0,0.0,0.0,0.0,12.822403,0.0,0.0,nan,0.0,0.0,0.0,0.0,0.09663704,0.0,0.0,0.0,1.056154,1.0561471,1.0071541,0.0,0.0,0.0,0.0,0.0,0.0
5212000,5132000,0.09465287,0.094653234,0.21113947,1.0002682,1.0002682,1.6642797,0.0,0.0,0.0,0.0,0.0,0.0,0.0,12.822403,0.0,0.0,nan,0.0,0.0,0.0,0.0,0.09663704,0.0,0.0,0.0,1.0563983,1.0563915,1.0071543,0.0,0.0,0.0,0.0,0.0,0.0
5220000,5140000,0.09465287,0.094653234,0.21113947,1.0002682,1.0002682,1.6642797,0.0,0.0,0.0,0.0,0.0,0.0,0.0,12.822403,0.0,0.0,nan,0.0,0.0,0.0,0.0,0.09663704,0.0,0.0,0.0,1.056644,1.056637,1.0071547,0.0,0.0,0.0,0.0,0.0,0.0
5228000,5148000,0.09465287,0.094653234,0.21113947,1.0002682,1.0002682,1.6642797,0.0,0.0,0.0,0.0,0.0,0.0,0.0,12.822403,0.0,0.0,nan,0.0,0.0,0.0,0.0,0.09663704,0.0,0.0,0.0,1.056891,1.0568843,1.0071547,0.0,0.0,0.0,0.0,0.0,0.0
5236000,5156000,0.09465287,0.094653234,0.21113947,1.0002682,1.0002682,1.6642797,0.0,0.0,0.0,0.0,0.0,0.0,0.0,12.822403,0.0,0.0,nan,0.0,0.0,0.0,0.0,0.0966621,0.0,0.0,0.0,1.0571394,1.0571327,1.0071552,0.0,0.0,0.0,0.0,0.0,0.0
5244000,5164000,0.09465287,0.094653234,0.21113947,1.0002682,1.0002682,1.6642797,0.0,0.0,0.0,0.0,0.0,0.0,0.0,12.822403,0.0,0.0,nan,0.0,0.0,0.0,0.0,0.0966621,0.0,0.0,0.0,1.0573891,1.0573826,1.0071553,0.0,0.0,0.0,0.0,0.0,0.0
5252000,5172000,0.09465287,0.094653234,0.21113947,1.0002682,1.0002682,1.6642797,0.0,0.0,0.0,0.0,0.0,0.0,0.0,12.797376,0.0,0.0,nan,0.0,0.0,0.0,0.0,0.0966621,0.0,0.0,0.0,1.0576404,1.0576339,1.0071555,0.0,0.0,0.0,0.0,0.0,0.0
5260000,5180000,0.09465287,0.094653234,0.21113947,1.0002682,1.0002682,1.6642797,0.0,0.0,0.0,0.0,0.0,0.0,0.0,12.797376,0.0,0.0,nan,0.0,0.0,0.0,0.0,0.0966621,0.0,0.0,0.0,1.0578929,1.0578865,1.0071558,0.0,0.0,0.0,0.0,0.0,0.0
5268000,5188000,0.09465287,0.094653234,0.21113947,1.0002682,1.0002682,1.6642797,0.0,0.0,0.0,0.0,0.0,0.0,0.0,12.797376,0.0,0.0,nan,0.0,0.0,0.0,0.0,0.0966621,0.0,0.0,0.0,1.058147,1.0581405,1.007156,0.0,0.0,0.0,0.0,0.0,0.0
5276000,5196000,0.09465287,0.094653234,0.21113947,1.0002682,1.0002682,1.6642797,0.0,0.0,0.0,0.0,0.0,0.0,0.0,12.797376,0.0,0.0,nan,0.0,0.0,0.0,0.0,0.0966621,0.0,0.0,0.0,1.0475814,1.0475746,1.0071477,0.0,0.0,0.0,0.0,0.0,0.0
5284000,5204000,0.09465287,0.094653234,0.21113947,1.0002682,1.0002682,1.6642797,0.0,0.0,0.0,0.0,0.0,0.0,0.0,12.797376,0.0,0.0,nan,0.0,0.0,0.0,0.0,0.0966621,0.0,0.0,0.0,1.0477273,1.0477207,1.0071478,0.0,0.0,0.0,0.0,0.0,0.0
5292000,5212000,0.09465287,0.094653234,0.21113947,1.0002682,1.0002682,1.6642797,0.0,0.0,0.0,0.0,0.0,0.0,0.0,12.797376,0.0,0.0,nan,0.0,0.0,0.0,0.0,0.0966621,0.0,0.0,0.0,1.0478741,1.0478674,1.0071478,0.0,0.0,0.0,0.0,0.0,0.0
5300000,5220000,0.09465287,0.094653234,0.21113947,1.0002682,1.0002682,1.6642797,0.0,0.0,0.0,0.0,0.0,0.0,0.0,12.797376,0.0,0.0,nan,0.0,0.0,0.0,0.0,0.0966621,0.0,0.0,0.0,1.0480218,1.0480151,1.0071479,0.0,0.0,0.0,0.0,0.0,0.0
5308000,5228000,0.09465287,0.094653234,0.21113947,1.0002682,1.0002682,1.6642797,0.0,0.0,0.0,0.0,0.0,0.0,0.0,12.773958,0.0,0.0,nan,0.0,0.0,0.0,0.0,0.096679665,0.0,0.0,0.0,1.0477711,1.0477647,1.0071493,0.0,0.0,0.0,0.0,0.0,0.0
5316000,5236000,0.09465287,0.094653234,0.21113947,1.0002682,1.0002682,1.6642797,0.0,0.0,0.0,0.0,0.0,0.0,0.0,12.773958,0.0,0.0,nan,0.0,0.0,0.0,0.0,0.096679665,0.0,0.0,0.0,1.0479162,1.0479099,1.0071495,0.0,0.0,0.0,0.0,0.0,0.0
5324000,5244000,0.09465287,0.094653234,0.21113947,1.0002682,1.0002682,1.6642797,0.0,0.0,0.0,0.0,0.0,0.0,0.0,12.773958,0.0,0.0,nan,0.0,0.0,0.0,0.0,0.096679665,0.0,0.0,0.0,1.0480622,1.0480558,1.0071496,0.0,0.0,0.0,0.0,0.0,0.0
5332000,5252000,0.09465287,0.094653234,0.21113947,1.0002682,1.0002682,1.6642797,0.0,0.0,0.0,0.0,0.0,0.0,0.0,12.773958,0.0,0.0,nan,0.0,0.0,0.0,0.0,0.096679665,0.0,0.0,0.0,1.0482088,1.0482024,1.0071497,0.0,0.0,0.0,0.0,0.0,0.0
5340000,5260000,0.09465287,0.094653234,0.21113947,1.0002682,1.0002682,1.6642797,0.0,0.0,0.0,0.0,0.0,0.0,0.0,12.773958,0.0,0.0,nan,0.0,0.0,0.0,0.0,0.096679665,0.0,0.0,0.0,1.0483564,1.04835,1.0071498,0.0,0.0,0.0,0.0,0.0,0.0
5348000,5268000,0.09465287,0.094653234,0.21113947,1.0002682,1.0002682,1.6642797,0.0,0.0,0.0,0.0,0.0,0.0,0.0,12.773958,0.0,0.0,nan,0.0,0.0,0.0,0.0,0.096679665,0.0,0.0,0.0,1.0485047,1.0484983,1.0071499,0.0,0.0,0.0,0.0,0.0,0.0
5356000,5276000,0.09465287,0.094653234,0.21113947,1.0002682,1.0002682,1.6642797,0.0,0.0,0.0,0.0,0.0,0.0,0.0,12.773958,0.0,0.0,nan,0.0,0.0,0.0,0.0,0.096679665,0.0,0.0,0.0,1.0486538,1.0486476,1.00715,0.0,0.0,0.0,0.0,0.0,0.0
5364000,5284000,0.09465287,0.094653234,0.21113947,1.0002682,1.0002682,1.6642797,0.0,0.0,0.0,0.0,0.0,0.0,0.0,12.773958,0.0,0.0,nan,0.0,0.0,0.0,0.0,0.096679665,0.0,0.0,0.0,1.0488037,1.0487976,1.0071499,0.0,0.0,0.0,0.0,0.0,0.0
5372000,5292000,0.09465287,0.094653234,0.21113947,1.0002682,1.0002682,1.6642797,0.0,0.0,0.0,0.0,0.0,0.0,0.0,12.753052,0.0,0.0,nan,0.0,0.0,0.0,0.0,0.096679665,0.0,0.0,0.0,1.0489545,1.0489483,1.0071502,0.0,0.0,0.0,0.0,0.0,0.0
5380000,5300000,0.09465287,0.094653234,0.21113947,1.0002682,1.0002682,1.6642797,0.0,0.0,0.0,0.0,0.0,0.0,0.0,12.753052,0.0,0.0,nan,0.0,0.0,0.0,0.0,0.09668978,0.0,0.0,0.0,1.0491059,1.0491,1.0071507,0.0,0.0,0.0,0.0,0.0,0.0
5388000,5308000,0.09465287,0.094653234,0.21113947,1.0002682,1.0002682,1.6642797,0.0,0.0,0.0,0.0,0.0,0.0,0.0,12.753052,0.0,0.0,nan,0.0,0.0,0.0,0.0,0.09668978,0.0,0.0,0.0,1.0492582,1.0492523,1.0071508,0.0,0.0,0.0,0.0,0.0,0.0
5396000,5316000,0.09465287,0.094653234,0.21113947,1.0002682,1.0002682,1.6642797,0.0,0.0,0.0,0.0,0.0,0.0,0.0,12.753052,0.0,0.0,nan,0.0,0.0,0.0,0.0,0.09668978,0.0,0.0,0.0,1.0494113,1.0494056,1.0071508,0.0,0.0,0.0,0.0,0.0,0.0
5404000,5324000,0.092624485,0.09262474,0.21133943,1.0001875,1.0001875,1.4835215,0.0,0.0,0.0,0.0,0.0,0.0,0.0,12.753052,0.0,0.0,nan,0.0,0.0,0.0,0.0,0.09668978,0.0,0.0,0.0,1.0495653,1.0495597,1.0071508,0.0,0.0,0.0,0.0,0.0,0.0
