timestamp,timestamp_sample,control_mode_flags,output_tracking_error[0],output_tracking_error[1],output_tracking_error[2],filter_fault_flags,pos_horiz_accuracy,pos_vert_accuracy,mag_test_ratio,vel_test_ratio,pos_test_ratio,hgt_test_ratio,tas_test_ratio,hagl_test_ratio,beta_test_ratio,time_slip,accel_device_id,gyro_device_id,baro_device_id,mag_device_id,gps_check_fail_flags,innovation_check_flags,solution_status_flags,reset_count_vel_ne,reset_count_vel_d,reset_count_pos_ne,reset_count_pod_d,reset_count_quat,pre_flt_fail_innov_heading,pre_flt_fail_innov_vel_horiz,pre_flt_fail_innov_vel_vert,pre_flt_fail_innov_height,pre_flt_fail_mag_field_disturbed,health_flags,timeout_flags
3212000,3132000,13488881664,0.0004326704,0.018660352,0.0015435054,0,14.172738,10.008659,nan,nan,nan,nan,0.0,0.0,0.0,0.0,1310988,1310988,6620172,0,0,0,128,1,1,1,1,0,0,0,0,0,0,0,0
3220000,3140000,13488881664,0.00039426342,0.0045845225,0.0015666569,0,14.142143,10.0,nan,nan,nan,nan,0.0,0.0,0.0,0.0,1310988,1310988,6620172,0,0,0,128,1,1,1,1,0,0,0,0,0,0,0,0
3404000,3324000,13488881664,3.7815247e-05,0.002483425,0.0016636052,0,0.014314721,7.071068,nan,nan,nan,nan,0.0,0.0,0.0,0.0,1310988,1310988,6620172,0,0,0,128,1,1,1,1,0,0,0,0,0,0,0,0
3612000,3532000,13488881665,0.00087047426,0.019360796,0.0057862927,0,0.0105147045,5.7735023,nan,nan,nan,nan,0.0,0.0,0.0,0.0,1310988,1310988,6620172,0,0,0,128,1,1,1,1,0,0,0,0,0,0,0,0
3804000,3724000,13488881665,0.00018625495,0.007803211,0.004621055,0,0.029791558,5.773505,nan,nan,nan,nan,0.0,0.0,0.0,0.0,1310988,1310988,6620172,0,0,0,128,1,1,1,1,0,0,0,0,0,0,0,0
4004000,3924000,4898947585,0.0004880136,0.0033230172,0.090926014,0,0.03766513,2.218039,nan,nan,nan,0.006371494,0.0,0.0,0.0,0.0,1310988,1310988,6620172,0,0,0,164,1,1,1,1,0,0,0,0,0,0,0,0
4204000,4124000,4898947585,0.00033741037,0.0035890506,0.01626299,0,0.030800732,1.4938008,nan,nan,nan,0.0030644005,0.0,0.0,0.0,0.0,1310988,1310988,6620172,0,0,0,164,1,1,1,1,0,0,0,0,0,0,0,0
4404000,4324000,4898947585,0.00016895056,0.0028900523,0.014154706,0,0.026704764,1.2013409,nan,nan,nan,0.0017410389,0.0,0.0,0.0,0.0,1310988,1310988,6620172,0,0,0,164,1,1,1,1,0,0,0,0,0,0,0,0
4612000,4532000,4898947585,0.000189451,0.0023733086,0.022576487,0,0.025163734,0.99068326,nan,nan,nan,0.0069148145,0.0,0.0,0.0,0.0,1310988,1310988,6620172,0,0,0,164,1,1,1,1,0,0,0,0,0,0,0,0
4812000,4732000,4898947585,0.00021945659,0.0019727778,0.0068632658,0,0.023342479,0.889958,nan,nan,nan,0.00076185714,0.0,0.0,0.0,0.0,1310988,1310988,6620172,0,0,0,164,1,1,1,1,0,0,0,0,0,0,0,0
5004000,4924000,4898947585,0.000283348,0.0018378946,0.0048338687,0,0.021120682,0.8150335,nan,nan,nan,0.0020219728,0.0,0.0,0.0,0.0,1310988,1310988,6620172,0,0,0,164,1,1,1,1,0,0,0,0,0,0,0,0
5212000,5132000,4898947585,0.00017524943,0.001506765,0.0009830698,0,0.02025602,0.73959005,nan,nan,nan,0.009510931,0.0,0.0,0.0,0.0,1310988,1310988,6620172,0,0,0,164,1,1,1,1,0,0,0,0,0,0,0,0
5412000,5332000,4898947585,0.00013191414,0.0009774336,0.00094740535,0,0.0190089,0.695416,nan,nan,nan,0.0012615154,0.0,0.0,0.0,0.0,1310988,1310988,6620172,0,0,0,164,1,1,1,1,0,0,0,0,0,0,0,0
5612000,5532000,4898947585,8.491606e-05,0.00062584213,0.0043551205,0,0.017961351,0.6472255,nan,nan,nan,0.007366745,0.0,0.0,0.0,0.0,1310988,1310988,6620172,0,0,0,164,1,1,1,1,0,0,0,0,0,0,0,0
5812000,5732000,4898947585,0.0001257322,0.0016791953,0.001372824,0,0.01708227,0.6174673,nan,nan,nan,0.004011153,0.0,0.0,0.0,0.0,1310988,1310988,6620172,0,0,0,164,1,1,1,1,0,0,0,0,0,0,0,0
6004000,5924000,4898947585,8.6718544e-05,0.0018525623,0.0011785073,0,0.015979277,0.59161586,nan,nan,nan,0.0017849758,0.0,0.0,0.0,0.0,1310988,1310988,6620172,0,0,0,164,1,1,1,1,0,0,0,0,0,0,0,0
6212000,6132000,4898947585,5.602517e-05,0.0015155092,0.0031294175,0,0.015699951,0.56175286,nan,nan,nan,0.0043647955,0.0,0.0,0.0,0.0,1310988,1310988,6620172,0,0,0,164,1,1,1,1,0,0,0,0,0,0,0,0
6412000,6332000,4898947585,1.6510761e-05,0.0013330472,0.002004527,0,0.015142257,0.54253495,nan,nan,nan,0.0021741109,0.0,0.0,0.0,0.0,1310988,1310988,6620172,0,0,0,164,1,1,1,1,0,0,0,0,0,0,0,0
6612000,6532000,4898947585,0.00010580431,0.0020731178,0.0019400805,0,0.014647981,0.5253581,nan,nan,nan,0.004012502,0.0,0.0,0.0,0.0,1310988,1310988,6620172,0,0,0,164,1,1,1,1,0,0,0,0,0,0,0,0
6812000,6732000,4898947585,0.0001476054,0.0027402758,0.0015551038,0,0.014204896,0.5045787,nan,nan,nan,0.001295152,0.0,0.0,0.0,0.0,1310988,1310988,6620172,0,0,0,164,1,1,1,1,0,0,0,0,0,0,0,0
7012000,6932000,4898947585,0.00016146565,0.0031555651,0.0018413988,0,0.013802011,0.4910171,nan,nan,nan,0.0015629195,0.0,0.0,0.0,0.0,1310988,1310988,6620172,0,0,0,164,1,1,1,1,0,0,0,0,0,0,0,0
7212000,7132000,4898947585,0.0002114251,0.0035620355,0.0025107414,0,0.013432912,0.4742591,nan,nan,nan,0.0027736977,0.0,0.0,0.0,0.0,1310988,1310988,6620172,0,0,0,164,1,1,1,1,0,0,0,0,0,0,0,0
7412000,7332000,4898947585,0.0002632086,0.004093966,0.0023022902,0,0.013091881,0.46327236,nan,nan,nan,0.0025541475,0.0,0.0,0.0,0.0,1310988,1310988,6620172,0,0,0,164,1,1,1,1,0,0,0,0,0,0,0,0
7604000,7524000,4898947585,0.000255531,0.004426895,0.00312878,0,0.012531534,0.45304897,nan,nan,nan,0.001960074,0.0,0.0,0.0,0.0,1310988,1310988,6620172,0,0,0,164,1,1,1,1,0,0,0,0,0,0,0,0
7812000,7732000,4898947585,0.0001888129,0.0038481425,0.0030937106,0,0.012476698,0.44032973,nan,nan,nan,0.00085119146,0.0,0.0,0.0,0.0,1310988,1310988,6620172,0,0,0,164,1,1,1,1,0,0,0,0,0,0,0,0
8012000,7932000,4898947585,0.00012827963,0.0030451047,0.0018933857,0,0.012196994,0.43191534,nan,nan,nan,0.0020739497,0.0,0.0,0.0,0.0,1310988,1310988,6620172,0,0,0,164,1,1,1,1,0,0,0,0,0,0,0,0
8212000,8132000,4898947585,7.8424455e-05,0.0021421725,0.0024286336,0,0.01193265,0.42410573,nan,nan,nan,0.00084674853,0.0,0.0,0.0,0.0,1310988,1310988,6620172,0,0,0,164,1,1,1,1,0,0,0,0,0,0,0,0
8412000,8332000,4898947585,8.425595e-05,0.001956657,0.0022931772,0,0.011735512,0.41563186,nan,nan,nan,0.0017805232,0.0,0.0,0.0,0.0,1310988,1310988,6620172,0,0,0,164,1,1,1,1,0,0,0,0,0,0,0,0
8612000,8532000,4898949633,6.9684196e-05,0.0017803068,0.0022890973,0,0.011492597,1.0000001,nan,nan,nan,0.0048654308,0.0,0.0,0.0,0.0,1310988,1310988,6620172,0,0,0,164,1,1,1,2,0,0,0,0,0,0,0,0
8804000,8724000,4898949633,6.5322456e-05,0.001565253,0.0017805389,0,0.011061425,0.89637125,nan,nan,nan,0.006484934,0.0,0.0,0.0,0.0,1310988,1310988,6620172,0,0,0,164,1,1,1,2,0,0,0,0,0,0,0,0
9012000,8932000,4898949633,9.053937e-05,0.0014294791,0.0039709676,0,0.011040199,0.6238037,nan,nan,nan,0.00087488367,0.0,0.0,0.0,0.0,1310988,1310988,6620172,0,0,0,164,1,1,1,2,0,0,0,0,0,0,0,0
9204000,9124000,4898949633,4.771642e-05,0.0012790078,0.005191758,0,0.01697438,0.59647673,nan,nan,nan,0.0016247083,0.0,0.0,0.0,0.0,1310988,1310988,6620172,0,0,0,164,1,1,1,2,0,0,0,0,0,0,0,0
9404000,9324000,4898949633,5.9092432e-05,0.0012597557,0.000623534,0,0.01661098,0.49206662,nan,nan,nan,0.0014781128,0.0,0.0,0.0,0.0,1310988,1310988,6620172,0,0,0,164,1,1,1,2,0,0,0,0,0,0,0,0
9604000,9524000,4898949633,6.054668e-05,0.0013568542,0.0024817304,0,0.016261835,0.4789019,nan,nan,nan,0.0023172093,0.0,0.0,0.0,0.0,1310988,1310988,6620172,0,0,0,164,1,1,1,2,0,0,0,0,0,0,0,0
9812000,9732000,4898949633,5.6129724e-05,0.0013964241,0.0021663278,0,0.016209887,0.42319947,nan,nan,nan,0.002025832,0.0,0.0,0.0,0.0,1310988,1310988,6620172,0,0,0,164,1,1,1,2,0,0,0,0,0,0,0,0
10004000,9924000,4898949633,7.1262584e-05,0.0015575328,0.0015707454,0,0.015601217,0.4124552,nan,nan,nan,0.0026506623,0.0,0.0,0.0,0.0,1310988,1310988,6620172,0,0,0,164,1,1,1,2,0,0,0,0,0,0,0,0
10204000,10124000,4898949633,6.0693736e-05,0.0014951451,0.0012065471,0,0.015287885,0.3757635,nan,nan,nan,0.0011586385,0.0,0.0,0.0,0.0,1310988,1310988,6620172,0,0,0,164,1,1,1,2,0,0,0,0,0,0,0,0
10412000,10332000,4898949633,4.990773e-05,0.0013128157,0.0011815175,0,0.015252337,0.37101823,nan,nan,nan,0.001275921,0.0,0.0,0.0,0.0,1310988,1310988,6620172,0,0,0,164,1,1,1,2,0,0,0,0,0,0,0,0
10612000,10532000,4898949633,4.908361e-05,0.0014237176,0.0007460116,0,0.014953887,0.34257284,nan,nan,nan,0.0011041439,0.0,0.0,0.0,0.0,1310988,1310988,6620172,0,0,0,164,1,1,1,2,0,0,0,0,0,0,0,0
10804000,10724000,4898949633,5.940375e-05,0.0018714004,0.0009962057,0,0.014407996,0.33945447,nan,nan,nan,0.00038301066,0.0,0.0,0.0,0.0,1310988,1310988,6620172,0,0,0,164,1,1,1,2,0,0,0,0,0,0,0,0
11012000,10932000,4898949633,5.649334e-05,0.0022755936,0.002014485,0,0.014382634,0.31789654,nan,nan,nan,0.000911421,0.0,0.0,0.0,0.0,1310988,1310988,6620172,0,0,0,164,1,1,1,2,0,0,0,0,0,0,0,0
11204000,11124000,4898949633,7.055426e-05,0.0026850689,0.0022520195,0,0.013863146,0.31596363,nan,nan,nan,0.0017048147,0.0,0.0,0.0,0.0,1310988,1310988,6620172,0,0,0,164,1,1,1,2,0,0,0,0,0,0,0,0
11404000,11324000,4898949633,8.3642204e-05,0.0030354555,0.0037320186,0,0.013602276,0.2998656,nan,nan,nan,0.0021307457,0.0,0.0,0.0,0.0,1310988,1310988,6620172,0,0,0,164,1,1,1,2,0,0,0,0,0,0,0,0
11612000,11532000,4898949633,8.6247084e-05,0.0032259447,0.002941613,0,0.013584468,0.29795069,nan,nan,nan,0.0019817187,0.0,0.0,0.0,0.0,1310988,1310988,6620172,0,0,0,164,1,1,1,2,0,0,0,0,0,0,0,0
11804000,11724000,4898949633,0.00010155569,0.003636169,0.004715367,0,0.013101629,0.28469187,nan,nan,nan,0.0023439738,0.0,0.0,0.0,0.0,1310988,1310988,6620172,0,0,0,164,1,1,1,2,0,0,0,0,0,0,0,0
12004000,11924000,4898949633,0.00010625536,0.0034925996,0.0037355614,0,0.012861805,0.28435934,nan,nan,nan,0.0028312646,0.0,0.0,0.0,0.0,1310988,1310988,6620172,0,0,0,164,1,1,1,2,0,0,0,0,0,0,0,0
12204000,12124000,4898949633,9.7085045e-05,0.0031962728,0.0036394454,0,0.012628284,0.2724777,nan,nan,nan,0.003382328,0.0,0.0,0.0,0.0,1310988,1310988,6620172,0,0,0,164,1,1,1,2,0,0,0,0,0,0,0,0
12412000,12332000,4898949633,9.1221635e-05,0.002837246,0.0036383846,0,0.012617637,0.27280545,nan,nan,nan,0.0042383457,0.0,0.0,0.0,0.0,1310988,1310988,6620172,0,0,0,164,1,1,1,2,0,0,0,0,0,0,0,0
12612000,12532000,4898949633,7.154623e-05,0.002563382,0.00385132,0,0.012390953,0.26267067,nan,nan,nan,0.00096062414,0.0,0.0,0.0,0.0,1310988,1310988,6620172,0,0,0,164,1,1,1,2,0,0,0,0,0,0,0,0
12812000,12732000,4898949633,6.0622388e-05,0.0021977413,0.0032791046,0,0.012169877,0.26322597,nan,nan,nan,0.00295344,0.0,0.0,0.0,0.0,1310988,1310988,6620172,0,0,0,164,1,1,1,2,0,0,0,0,0,0,0,0
13012000,12932000,4898949633,9.712114e-05,0.0025740364,0.0035340781,0,0.011954405,0.25443462,nan,nan,nan,0.0012597336,0.0,0.0,0.0,0.0,1310988,1310988,6620172,0,0,0,164,1,1,1,2,0,0,0,0,0,0,0,0
13212000,13132000,4898949633,0.000100369914,0.0029919513,0.0031144705,0,0.011744501,0.25530005,nan,nan,nan,0.0018475747,0.0,0.0,0.0,0.0,1310988,1310988,6620172,0,0,0,164,1,1,1,2,0,0,0,0,0,0,0,0
13404000,13324000,4898949633,9.993003e-05,0.0025824206,0.002051552,0,0.011387916,0.24999632,nan,nan,nan,0.002218653,0.0,0.0,0.0,0.0,1310988,1310988,6620172,0,0,0,164,1,1,1,2,0,0,0,0,0,0,0,0
13612000,13532000,4898949633,0.000101093974,0.0026336801,0.002088775,0,0.011382309,0.2508737,nan,nan,nan,0.0039108954,0.0,0.0,0.0,0.0,1310988,1310988,6620172,0,0,0,164,1,1,1,2,0,0,0,0,0,0,0,0
13804000,13724000,4898949633,0.00010295163,0.0027296967,0.0024847721,0,0.010999265,0.24429254,nan,nan,nan,0.0048835254,0.0,0.0,0.0,0.0,1310988,1310988,6620172,0,0,0,164,1,1,1,2,0,0,0,0,0,0,0,0
14004000,13924000,4898949633,7.72586e-05,0.0022407223,0.0017502973,0,0.0108128125,0.24577476,nan,nan,nan,0.004577029,0.0,0.0,0.0,0.0,1310988,1310988,6620172,0,0,0,164,1,1,1,2,0,0,0,0,0,0,0,0
14204000,14124000,4898949633,2.5925261e-05,0.0009851294,0.0010066426,0,0.016484449,0.23945144,nan,nan,nan,0.00591359,0.0,0.0,0.0,0.0,1310988,1310988,6620172,0,0,0,164,1,1,1,2,0,0,0,0,0,0,0,0
14412000,14332000,4898949633,1.8992418e-05,0.0007877757,0.0014244757,0,0.01647093,0.24132997,nan,nan,nan,0.0018606998,0.0,0.0,0.0,0.0,1310988,1310988,6620172,0,0,0,164,1,1,1,2,0,0,0,0,0,0,0,0
14612000,14532000,4898949633,2.4060675e-05,0.0008656538,0.0007964082,0,0.01618601,0.23556124,nan,nan,nan,0.0017994579,0.0,0.0,0.0,0.0,1310988,1310988,6620172,0,0,0,164,1,1,1,2,0,0,0,0,0,0,0,0
14804000,14724000,4898949633,2.8445007e-05,0.0009995406,0.000833631,0,0.015641488,0.23708813,nan,nan,nan,0.003223964,0.0,0.0,0.0,0.0,1310988,1310988,6620172,0,0,0,164,1,1,1,2,0,0,0,0,0,0,0,0
15004000,14924000,4898949633,3.1517124e-05,0.0011020085,0.0008908824,0,0.015370691,0.23228304,nan,nan,nan,0.0025883715,0.0,0.0,0.0,0.0,1310988,1310988,6620172,0,0,0,164,1,1,1,2,0,0,0,0,0,0,0,0
15204000,15124000,4898949633,3.1912907e-05,0.00096738373,0.00079555385,0,0.015104137,0.233641,nan,nan,nan,0.003743961,0.0,0.0,0.0,0.0,1310988,1310988,6620172,0,0,0,164,1,1,1,2,0,0,0,0,0,0,0,0
15404000,15324000,4898949633,2.9630688e-05,0.00061823364,0.00080473535,0,0.014842261,0.22919619,nan,nan,nan,0.0024225288,0.0,0.0,0.0,0.0,1310988,1310988,6620172,0,0,0,164,1,1,1,2,0,0,0,0,0,0,0,0
15612000,15532000,4898949633,2.6449457e-05,0.00046036203,0.0003656666,0,0.014834296,0.23140746,nan,nan,nan,0.0024045827,0.0,0.0,0.0,0.0,1310988,1310988,6620172,0,0,0,164,1,1,1,2,0,0,0,0,0,0,0,0
15812000,15732000,4898949633,3.1222746e-05,0.00045998587,0.0005707294,0,0.014577815,0.22676256,nan,nan,nan,0.0008640087,0.0,0.0,0.0,0.0,1310988,1310988,6620172,0,0,0,164,1,1,1,2,0,0,0,0,0,0,0,0
16004000,15924000,4898949633,1.6516973e-05,0.00035281677,0.0005376686,0,0.01408509,0.22854416,nan,nan,nan,0.00047410314,0.0,0.0,0.0,0.0,1310988,1310988,6620172,0,0,0,164,1,1,1,2,0,0,0,0,0,0,0,0
16212000,16132000,4898949633,2.1626232e-05,0.00060270354,0.00042137713,0,0.014079115,0.22488314,nan,nan,nan,0.002000573,0.0,0.0,0.0,0.0,1310988,1310988,6620172,0,0,0,164,1,1,1,2,0,0,0,0,0,0,0,0
16404000,16324000,4898949633,3.0203068e-05,0.0008579764,0.0005963938,0,0.013603052,0.22626078,nan,nan,nan,0.0014802199,0.0,0.0,0.0,0.0,1310988,1310988,6620172,0,0,0,164,1,1,1,2,0,0,0,0,0,0,0,0
16604000,16524000,4898949633,4.347884e-05,0.0012038873,0.00088367076,0,0.013368522,0.22257441,nan,nan,nan,0.00066315004,0.0,0.0,0.0,0.0,1310988,1310988,6620172,0,0,0,164,1,1,1,2,0,0,0,0,0,0,0,0
16804000,16724000,4898949633,5.211537e-05,0.0015968072,0.0015389288,0,0.013138401,0.2242659,nan,nan,nan,0.00046774145,0.0,0.0,0.0,0.0,1310988,1310988,6620172,0,0,0,164,1,1,1,2,0,0,0,0,0,0,0,0
17004000,16924000,4898949633,5.818377e-05,0.0018634222,0.001485241,0,0.012912865,0.22076678,nan,nan,nan,0.0015774338,0.0,0.0,0.0,0.0,1310988,1310988,6620172,0,0,0,164,1,1,1,2,0,0,0,0,0,0,0,0
17204000,17124000,4898949633,6.060374e-05,0.001960596,0.0015664108,0,0.012691889,0.22295631,nan,nan,nan,0.0010350104,0.0,0.0,0.0,0.0,1310988,1310988,6620172,0,0,0,164,1,1,1,2,0,0,0,0,0,0,0,0
17412000,17332000,4898949633,6.5190616e-05,0.0020006176,0.0022977176,0,0.012688826,0.21942039,nan,nan,nan,0.0050313435,0.0,0.0,0.0,0.0,1310988,1310988,6620172,0,0,0,164,1,1,1,2,0,0,0,0,0,0,0,0
17604000,17524000,4898949633,5.930905e-05,0.0019278195,0.0019007369,0,0.012263322,0.22139493,nan,nan,nan,0.0029135556,0.0,0.0,0.0,0.0,1310988,1310988,6620172,0,0,0,164,1,1,1,2,0,0,0,0,0,0,0,0
17812000,17732000,4898949633,4.3036453e-05,0.0014786578,0.0013580251,0,0.012261095,0.21801408,nan,nan,nan,0.0014850205,0.0,0.0,0.0,0.0,1310988,1310988,6620172,0,0,0,164,1,1,1,2,0,0,0,0,0,0,0,0
18004000,17924000,4898949633,3.059877e-05,0.001255251,0.0009985468,0,0.01185226,0.22001943,nan,nan,nan,0.001264983,0.0,0.0,0.0,0.0,1310988,1310988,6620172,0,0,0,164,1,1,1,2,0,0,0,0,0,0,0,0
18204000,18124000,4898949633,1.9074843e-05,0.001012701,0.0007173022,0,0.011652755,0.2169282,nan,nan,nan,0.009686279,0.0,0.0,0.0,0.0,1310988,1310988,6620172,0,0,0,164,1,1,1,2,0,0,0,0,0,0,0,0
18412000,18332000,4898949633,6.20333e-05,0.00095170655,0.00024448964,0,0.01165054,0.21904527,nan,nan,nan,0.0032830667,0.0,0.0,0.0,0.0,1310988,1310988,6620172,0,0,0,164,1,1,1,2,0,0,0,0,0,0,0,0
18612000,18532000,4898949633,9.588361e-05,0.0019450311,0.0011805802,0,0.011455659,0.21605548,nan,nan,nan,0.0016371246,0.0,0.0,0.0,0.0,1310988,1310988,6620172,0,0,0,164,1,1,1,2,0,0,0,0,0,0,0,0
18812000,18732000,4898949633,0.00010308489,0.0024143732,0.0012998824,0,0.011304371,0.22146952,nan,nan,nan,0.005466593,0.0,0.0,0.0,0.0,1310988,1310988,6620172,0,0,0,164,1,1,1,2,0,0,0,0,0,0,0,0
19012000,18932000,4898949633,0.00011237289,0.0028793355,0.0018793831,0,0.011116206,0.21800423,nan,nan,nan,0.005720363,0.0,0.0,0.0,0.0,1310988,1310988,6620172,0,0,0,164,1,1,1,2,0,0,0,0,0,0,0,0
19204000,19124000,4898949633,0.00010979981,0.0028878695,0.0018683388,0,0.010754425,0.22015083,nan,nan,nan,0.0009890012,0.0,0.0,0.0,0.0,1310988,1310988,6620172,0,0,0,164,1,1,1,2,0,0,0,0,0,0,0,0
19404000,19324000,4898949633,1.7647168e-05,0.00079019624,0.00092681363,0,0.016287506,0.21719028,nan,nan,nan,0.004281315,0.0,0.0,0.0,0.0,1310988,1310988,6620172,0,0,0,164,1,1,1,2,0,0,0,0,0,0,0,0
19604000,19524000,4898949633,1.8970799e-05,0.0006104444,0.0006062523,0,0.016018309,0.21920538,nan,nan,nan,0.006182412,0.0,0.0,0.0,0.0,1310988,1310988,6620172,0,0,0,164,1,1,1,2,0,0,0,0,0,0,0,0
19804000,19724000,4898949633,2.0425485e-05,0.00054840185,0.00047500807,0,0.015752686,0.21631761,nan,nan,nan,0.002014294,0.0,0.0,0.0,0.0,1310988,1310988,6620172,0,0,0,164,1,1,1,2,0,0,0,0,0,0,0,0
20004000,19924000,4898949633,1.7814693e-05,0.00034638215,0.00037158633,0,0.0154905785,0.21876772,nan,nan,nan,0.002329994,0.0,0.0,0.0,0.0,1310988,1310988,6620172,0,0,0,164,1,1,1,2,0,0,0,0,0,0,0,0
20212000,20132000,4898949633,1.3331942e-05,0.0004483356,0.00042752892,0,0.0154874725,0.21579857,nan,nan,nan,0.0047391476,0.0,0.0,0.0,0.0,1310988,1310988,6620172,0,0,0,164,1,1,1,2,0,0,0,0,0,0,0,0
20412000,20332000,4898949633,1.5905714e-05,0.0006629431,0.0010608715,0,0.015229224,0.21825376,nan,nan,nan,0.0018741002,0.0,0.0,0.0,0.0,1310988,1310988,6620172,0,0,0,164,1,1,1,2,0,0,0,0,0,0,0,0
20612000,20532000,4898949633,8.31335e-06,0.0008078599,0.00067669275,0,0.014974694,0.21506427,nan,nan,nan,0.0008294192,0.0,0.0,0.0,0.0,1310988,1310988,6620172,0,0,0,164,1,1,1,2,0,0,0,0,0,0,0,0
20804000,20724000,4898949633,1.4056158e-05,0.001141539,0.0011665558,0,0.014479294,0.2172452,nan,nan,nan,0.0048319986,0.0,0.0,0.0,0.0,1310988,1310988,6620172,0,0,0,164,1,1,1,2,0,0,0,0,0,0,0,0
21004000,20924000,4898949633,3.8475886e-05,0.0017455937,0.0013110989,0,0.014235844,0.2145144,nan,nan,nan,0.0043542976,0.0,0.0,0.0,0.0,1310988,1310988,6620172,0,0,0,164,1,1,1,2,0,0,0,0,0,0,0,0
21204000,21124000,4898949633,6.118697e-05,0.002501537,0.001857304,0,0.013996348,0.21697716,nan,nan,nan,0.0015019205,0.0,0.0,0.0,0.0,1310988,1310988,6620172,0,0,0,164,1,1,1,2,0,0,0,0,0,0,0,0
21404000,21324000,4898949633,8.394557e-05,0.0031724842,0.0024180678,0,0.013760864,0.21387975,nan,nan,nan,0.0033409987,0.0,0.0,0.0,0.0,1310988,1310988,6620172,0,0,0,164,1,1,1,2,0,0,0,0,0,0,0,0
21604000,21524000,4898949633,0.0001009396,0.0036312046,0.0027986793,0,0.013529256,0.2163395,nan,nan,nan,0.002007583,0.0,0.0,0.0,0.0,1310988,1310988,6620172,0,0,0,164,1,1,1,2,0,0,0,0,0,0,0,0
21804000,21724000,4898949633,0.00010031002,0.0035563472,0.002777294,0,0.013301637,0.21328972,nan,nan,nan,0.0010813479,0.0,0.0,0.0,0.0,1310988,1310988,6620172,0,0,0,164,1,1,1,2,0,0,0,0,0,0,0,0
22004000,21924000,4898949633,9.571841e-05,0.0031505607,0.0024656316,0,0.013077816,0.21575235,nan,nan,nan,0.00091980636,0.0,0.0,0.0,0.0,1310988,1310988,6620172,0,0,0,164,1,1,1,2,0,0,0,0,0,0,0,0
22204000,22124000,4898949633,0.00010747278,0.002947154,0.0022316976,0,0.012857706,0.21274693,nan,nan,nan,0.003575149,0.0,0.0,0.0,0.0,1310988,1310988,6620172,0,0,0,164,1,1,1,2,0,0,0,0,0,0,0,0
22412000,22332000,4898949633,0.000108852626,0.0026915672,0.0019965263,0,0.012856279,0.21547356,nan,nan,nan,0.0014731692,0.0,0.0,0.0,0.0,1310988,1310988,6620172,0,0,0,164,1,1,1,2,0,0,0,0,0,0,0,0
22612000,22532000,4898949633,0.0001184502,0.0027109948,0.0021004586,0,0.012640116,0.21288824,nan,nan,nan,0.00072783214,0.0,0.0,0.0,0.0,1310988,1310988,6620172,0,0,0,164,1,1,1,2,0,0,0,0,0,0,0,0
22804000,22724000,4898949633,0.00010224674,0.0026272296,0.002361492,0,0.012220799,0.21469073,nan,nan,nan,0.0003632949,0.0,0.0,0.0,0.0,1310988,1310988,6620172,0,0,0,164,1,1,1,2,0,0,0,0,0,0,0,0
23004000,22924000,4898949633,6.5978915e-05,0.0021660023,0.0032816427,0,0.0120164985,0.21214159,nan,nan,nan,0.0038131182,0.0,0.0,0.0,0.0,1310988,1310988,6620172,0,0,0,164,1,1,1,2,0,0,0,0,0,0,0,0
23212000,23132000,4832889473,9.641504e-06,0.00045413844,0.00032725037,0,0.01894814,0.21770975,nan,nan,nan,0.0030843504,0.0,0.0,0.0,0.0,1310988,1310988,6620172,0,0,0,164,1,1,1,2,0,0,0,0,0,0,0,0
23412000,23332000,4832889473,1.2379428e-05,0.001524448,0.0012001656,0,0.034528837,0.21878009,nan,nan,nan,0.0017302124,0.0,0.0,0.0,0.0,1310988,1310988,6620172,0,0,0,164,1,1,1,2,0,0,0,0,0,0,0,0
23604000,23524000,4832889473,1.1525109e-05,0.0019899218,0.0023041915,0,0.06316045,0.2256615,nan,nan,nan,0.0024671678,0.0,0.0,0.0,0.0,1310988,1310988,6620172,0,0,0,164,1,1,1,2,0,0,0,0,0,0,0,0
23804000,23724000,4832889473,1.0992238e-05,0.0019359344,0.001766247,0,0.10743424,0.22764376,nan,nan,nan,0.0036997711,0.0,0.0,0.0,0.0,1310988,1310988,6620172,0,0,0,164,1,1,1,2,0,0,0,0,0,0,0,0
24012000,23932000,4832889473,1.141209e-05,0.0020094584,0.0024628579,0,0.16862063,0.2364932,nan,nan,nan,0.0038240284,0.0,0.0,0.0,0.0,1310988,1310988,6620172,0,0,0,164,1,1,1,2,0,0,0,0,0,0,0,0
24212000,24132000,4832889473,1.0464855e-05,0.001696447,0.0014548205,0,0.24175939,0.23929027,nan,nan,nan,0.0034136227,0.0,0.0,0.0,0.0,1310988,1310988,6620172,0,0,0,164,1,1,1,2,0,0,0,0,0,0,0,0
24412000,24332000,4832889473,1.0570031e-05,0.0015994508,0.0014251993,0,0.32877275,0.24940085,nan,nan,nan,0.0059999,0.0,0.0,0.0,0.0,1310988,1310988,6620172,0,0,0,164,1,1,1,2,0,0,0,0,0,0,0,0
24612000,24532000,4832889473,1.0125684e-05,0.0013301754,0.0013881654,0,0.4295265,0.25264132,nan,nan,nan,0.0044233734,0.0,0.0,0.0,0.0,1310988,1310988,6620172,0,0,0,164,1,1,1,2,0,0,0,0,0,0,0,0
24812000,24732000,4832889473,1.0536217e-05,0.0013438503,0.001136612,0,0.544275,0.26505074,nan,nan,nan,0.0051314575,0.0,0.0,0.0,0.0,1310988,1310988,6620172,0,0,0,164,1,1,1,2,0,0,0,0,0,0,0,0
25012000,24932000,4832889473,1.1329882e-05,0.0011576532,0.002074284,0,0.6723276,0.26748964,nan,nan,nan,0.007527666,0.0,0.0,0.0,0.0,1310988,1310988,6620172,0,0,0,164,1,1,1,2,0,0,0,0,0,0,0,0
25212000,25132000,4832889473,1.0219036e-05,0.0010998154,0.00089084037,0,0.8136628,0.28135112,nan,nan,nan,0.005590859,0.0,0.0,0.0,0.0,1310988,1310988,6620172,0,0,0,164,1,1,1,2,0,0,0,0,0,0,0,0
25404000,25324000,4832889473,1.8072451e-05,0.001506855,0.0043433784,0,0.96137595,0.28325155,nan,nan,nan,0.009218965,0.0,0.0,0.0,0.0,1310988,1310988,6620172,0,0,0,164,1,1,1,2,0,0,0,0,0,0,0,0
25612000,25532000,4832889473,9.9351055e-06,0.0009469079,0.0016338533,0,1.1344776,0.2980289,nan,nan,nan,0.005940844,0.0,0.0,0.0,0.0,1310988,1310988,6620172,0,0,0,164,1,1,1,2,0,0,0,0,0,0,0,0
25804000,25724000,4832889473,2.7453103e-05,0.0023419815,0.007194749,0,1.3051208,0.29868263,nan,nan,nan,0.008238023,0.0,0.0,0.0,0.0,1310988,1310988,6620172,0,0,0,164,1,1,1,2,0,0,0,0,0,0,0,0
26012000,25932000,4832889473,9.908276e-06,0.0007179054,0.002770121,0,1.5019519,0.31542134,nan,nan,nan,0.007155078,0.0,0.0,0.0,0.0,1310988,1310988,6620172,0,0,0,164,1,1,1,2,0,0,0,0,0,0,0,0
26204000,26124000,4832889473,2.0802509e-05,0.0020025724,0.0067692944,0,1.6925136,0.31312096,nan,nan,nan,0.006918626,0.0,0.0,0.0,0.0,1310988,1310988,6620172,0,0,0,164,1,1,1,2,0,0,0,0,0,0,0,0
26404000,26324000,4832889473,9.419274e-06,0.0011631352,0.0024426007,0,1.9000953,0.32952845,nan,nan,nan,0.007237724,0.0,0.0,0.0,0.0,1310988,1310988,6620172,0,0,0,164,1,1,1,2,0,0,0,0,0,0,0,0
26612000,26532000,4832889473,2.0193858e-05,0.0033362207,0.010141141,0,2.124059,0.32671693,nan,nan,nan,0.010304048,0.0,0.0,0.0,0.0,1310988,1310988,6620172,0,0,0,164,1,1,1,2,0,0,0,0,0,0,0,0
26812000,26732000,4832889473,2.5468531e-05,0.0012609154,0.0049725445,0,2.3432164,0.34338278,nan,nan,nan,0.009999738,0.0,0.0,0.0,0.0,1310988,1310988,6620172,0,0,0,164,1,1,1,2,0,0,0,0,0,0,0,0
27004000,26924000,4832889473,2.611103e-05,0.00312535,0.010816955,0,2.5522764,0.33825946,nan,nan,nan,0.009073579,0.0,0.0,0.0,0.0,1310988,1310988,6620172,0,0,0,164,1,1,1,2,0,0,0,0,0,0,0,0
27204000,27124000,4832889473,6.8972055e-05,0.0023738323,0.0065013347,0,2.7694228,0.35506955,nan,nan,nan,0.010168305,0.0,0.0,0.0,0.0,1310988,1310988,6620172,0,0,0,164,1,1,1,2,0,0,0,0,0,0,0,0
27404000,27324000,4832889473,6.3362546e-05,0.00369025,0.011604225,0,2.9811544,0.34705114,nan,nan,nan,0.009143565,0.0,0.0,0.0,0.0,1310988,1310988,6620172,0,0,0,164,1,1,1,2,0,0,0,0,0,0,0,0
27612000,27532000,4832889473,9.6012205e-05,0.0039992006,0.00991836,0,3.196328,0.36455557,nan,nan,nan,0.00952613,0.0,0.0,0.0,0.0,1310988,1310988,6620172,0,0,0,164,1,1,1,2,0,0,0,0,0,0,0,0
27812000,27732000,4832889473,6.6197e-05,0.0047104787,0.0148435915,0,3.3890898,0.3545899,nan,nan,nan,0.011812024,0.0,0.0,0.0,0.0,1310988,1310988,6620172,0,0,0,164,1,1,1,2,0,0,0,0,0,0,0,0
28012000,27932000,4832889473,9.9650024e-05,0.0045947796,0.012450268,0,3.5688086,0.37090155,nan,nan,nan,0.009970272,0.0,0.0,0.0,0.0,1310988,1310988,6620172,0,0,0,164,1,1,1,2,0,0,0,0,0,0,0,0
28212000,28132000,4832889473,5.833375e-05,0.005083465,0.016868755,0,3.7327487,0.36123878,nan,nan,nan,0.014292129,0.0,0.0,0.0,0.0,1310988,1310988,6620172,0,0,0,164,1,1,1,2,0,0,0,0,0,0,0,0
28412000,28332000,4832889473,7.751444e-05,0.004131599,0.012959412,0,3.880309,0.3752566,nan,nan,nan,0.017569156,0.0,0.0,0.0,0.0,1310988,1310988,6620172,0,0,0,164,1,1,1,2,0,0,0,0,0,0,0,0
28612000,28532000,4832889473,4.363637e-05,0.005200129,0.018342087,0,4.009937,0.36444277,nan,nan,nan,0.013265091,0.0,0.0,0.0,0.0,1310988,1310988,6620172,0,0,0,164,1,1,1,2,0,0,0,0,0,0,0,0
28812000,28732000,4832889473,6.73801e-05,0.0032990114,0.01133036,0,4.122257,0.38022137,nan,nan,nan,0.015008939,0.0,0.0,0.0,0.0,1310988,1310988,6620172,0,0,0,164,1,1,1,2,0,0,0,0,0,0,0,0
29012000,28932000,4832889473,3.056946e-05,0.005680745,0.020299299,0,4.216726,0.36630857,nan,nan,nan,0.015251042,0.0,0.0,0.0,0.0,1310988,1310988,6620172,0,0,0,164,1,1,1,2,0,0,0,0,0,0,0,0
29212000,29132000,4832889473,4.9819595e-05,0.002709684,0.010203699,0,4.294874,0.3816764,nan,nan,nan,0.015665242,0.0,0.0,0.0,0.0,1310988,1310988,6620172,0,0,0,164,1,1,1,2,0,0,0,0,0,0,0,0
29412000,29332000,4832889473,2.6931051e-05,0.006319037,0.022569366,0,4.3564925,0.3691314,nan,nan,nan,0.015914217,0.0,0.0,0.0,0.0,1310988,1310988,6620172,0,0,0,164,1,1,1,2,0,0,0,0,0,0,0,0
29612000,29532000,4832889473,3.9388236e-05,0.0024889803,0.009693099,0,4.403943,0.3821039,nan,nan,nan,0.017492987,0.0,0.0,0.0,0.0,1310988,1310988,6620172,0,0,0,164,1,1,1,2,0,0,0,0,0,0,0,0
29812000,29732000,4832889473,2.414597e-05,0.005930035,0.021385664,0,4.438627,0.36921504,nan,nan,nan,0.0153737785,0.0,0.0,0.0,0.0,1310988,1310988,6620172,0,0,0,164,1,1,1,2,0,0,0,0,0,0,0,0
30004000,29924000,4832889473,9.024191e-06,0.0027167134,0.009291378,0,4.693365,0.38106695,nan,nan,nan,0.017979736,0.0,0.0,0.0,0.0,1310988,1310988,6620172,0,0,0,164,1,1,1,2,0,0,0,0,0,0,0,0
30204000,30124000,4832889473,2.4792771e-05,0.0069788545,0.024878148,0,4.711247,0.36803088,nan,nan,nan,0.018333107,0.0,0.0,0.0,0.0,1310988,1310988,6620172,0,0,0,164,1,1,1,2,0,0,0,0,0,0,0,0
30412000,30332000,4832889473,8.526903e-06,0.0023167897,0.0080253715,0,4.72969,0.38136813,nan,nan,nan,0.018021889,0.0,0.0,0.0,0.0,1310988,1310988,6620172,0,0,0,164,1,1,1,2,0,0,0,0,0,0,0,0
30612000,30532000,4832889473,1.8460814e-05,0.006389109,0.023191437,0,4.7287993,0.36823717,nan,nan,nan,0.01957713,0.0,0.0,0.0,0.0,1310988,1310988,6620172,0,0,0,164,1,1,1,2,0,0,0,0,0,0,0,0
30812000,30732000,4832889473,9.8932815e-06,0.0017956346,0.006201665,0,4.720819,0.3827688,nan,nan,nan,0.022633933,0.0,0.0,0.0,0.0,1310988,1310988,6620172,0,0,0,164,1,1,1,2,0,0,0,0,0,0,0,0
31012000,30932000,4832889473,1.2901712e-05,0.0067670015,0.024702284,0,4.7065086,0.36737305,nan,nan,nan,0.022301983,0.0,0.0,0.0,0.0,1310988,1310988,6620172,0,0,0,164,1,1,1,2,0,0,0,0,0,0,0,0
31204000,31124000,4832889473,1.4840685e-05,0.0012894857,0.0047195316,0,4.6780767,0.38088447,nan,nan,nan,0.02013402,0.0,0.0,0.0,0.0,1310988,1310988,6620172,0,0,0,164,1,1,1,2,0,0,0,0,0,0,0,0
31412000,31332000,4832889473,8.4555195e-06,0.005676702,0.020844785,0,4.6636925,0.3684134,nan,nan,nan,0.018750409,0.0,0.0,0.0,0.0,1310988,1310988,6620172,0,0,0,164,1,1,1,2,0,0,0,0,0,0,0,0
31604000,31524000,4832889473,1.9379326e-05,0.00084945245,0.003977805,0,4.6281414,0.37977168,nan,nan,nan,0.02074485,0.0,0.0,0.0,0.0,1310988,1310988,6620172,0,0,0,164,1,1,1,2,0,0,0,0,0,0,0,0
31812000,31732000,4832889473,1.2527379e-05,0.00533587,0.019616513,0,4.607161,0.3674162,nan,nan,nan,0.019680172,0.0,0.0,0.0,0.0,1310988,1310988,6620172,0,0,0,164,1,1,1,2,0,0,0,0,0,0,0,0
32004000,31924000,4832889473,2.3611377e-05,0.00079589925,0.0047960975,0,4.56727,0.38090372,nan,nan,nan,0.02124958,0.0,0.0,0.0,0.0,1310988,1310988,6620172,0,0,0,164,1,1,1,2,0,0,0,0,0,0,0,0
32204000,32124000,4832889473,1.6984719e-05,0.0066183014,0.024313234,0,4.534117,0.36563668,nan,nan,nan,0.023688577,0.0,0.0,0.0,0.0,1310988,1310988,6620172,0,0,0,164,1,1,1,2,0,0,0,0,0,0,0,0
32412000,32332000,4832889473,2.5555795e-05,0.0009236775,0.005579246,0,4.507576,0.38070235,nan,nan,nan,0.022216592,0.0,0.0,0.0,0.0,1310988,1310988,6620172,0,0,0,164,1,1,1,2,0,0,0,0,0,0,0,0
32604000,32524000,4832889473,2.1789208e-05,0.0061210133,0.0226072,0,4.464619,0.36675784,nan,nan,nan,0.02279932,0.0,0.0,0.0,0.0,1310988,1310988,6620172,0,0,0,164,1,1,1,2,0,0,0,0,0,0,0,0
32812000,32732000,4832889473,2.733408e-05,0.0009669506,0.006141002,0,4.436232,0.37982348,nan,nan,nan,0.022948772,0.0,0.0,0.0,0.0,1310988,1310988,6620172,0,0,0,164,1,1,1,2,0,0,0,0,0,0,0,0
33004000,32924000,4832889473,2.3568422e-05,0.0062699295,0.023161648,0,4.3928175,0.36602497,nan,nan,nan,0.027223483,0.0,0.0,0.0,0.0,1310988,1310988,6620172,0,0,0,164,1,1,1,2,0,0,0,0,0,0,0,0
33204000,33124000,4832889473,2.791057e-05,0.0011492154,0.0073205717,0,4.356666,0.38042185,nan,nan,nan,0.02419608,0.0,0.0,0.0,0.0,1310988,1310988,6620172,0,0,0,164,1,1,1,2,0,0,0,0,0,0,0,0
33412000,33332000,4832889473,2.4354536e-05,0.005374712,0.019993734,0,4.3273354,0.36618364,nan,nan,nan,0.023047358,0.0,0.0,0.0,0.0,1310988,1310988,6620172,0,0,0,164,1,1,1,2,0,0,0,0,0,0,0,0
33604000,33524000,4832889473,2.7593833e-05,0.001085321,0.0076052984,0,4.2846813,0.3797395,nan,nan,nan,0.021639546,0.0,0.0,0.0,0.0,1310988,1310988,6620172,0,0,0,164,1,1,1,2,0,0,0,0,0,0,0,0
33804000,33724000,4832889473,2.4559393e-05,0.0053370893,0.019873777,0,4.2491145,0.3667783,nan,nan,nan,0.02331351,0.0,0.0,0.0,0.0,1310988,1310988,6620172,0,0,0,164,1,1,1,2,0,0,0,0,0,0,0,0
34012000,33932000,4832889473,2.6121785e-05,0.0010454097,0.0074918154,0,4.220275,0.37998518,nan,nan,nan,0.022853205,0.0,0.0,0.0,0.0,1310988,1310988,6620172,0,0,0,164,1,1,1,2,0,0,0,0,0,0,0,0
34204000,34124000,4832889473,2.3617213e-05,0.006318021,0.023171611,0,4.1793337,0.36627212,nan,nan,nan,0.027924428,0.0,0.0,0.0,0.0,1310988,1310988,6620172,0,0,0,164,1,1,1,2,0,0,0,0,0,0,0,0
34412000,34332000,4832889473,2.4785217e-05,0.0010301243,0.007703053,0,4.151255,0.379445,nan,nan,nan,0.022809489,0.0,0.0,0.0,0.0,1310988,1310988,6620172,0,0,0,164,1,1,1,2,0,0,0,0,0,0,0,0
34612000,34532000,4832889473,2.2615843e-05,0.005766209,0.02133639,0,4.1176457,0.36663744,nan,nan,nan,0.024872432,0.0,0.0,0.0,0.0,1310988,1310988,6620172,0,0,0,164,1,1,1,2,0,0,0,0,0,0,0,0
34812000,34732000,4832889473,2.3583383e-05,0.0011656716,0.0084464345,0,4.0847144,0.38119602,nan,nan,nan,0.027453797,0.0,0.0,0.0,0.0,1310988,1310988,6620172,0,0,0,164,1,1,1,2,0,0,0,0,0,0,0,0
35004000,34924000,4832889473,1.0601218e-05,0.005900013,0.020907927,0,4.223999,0.36739486,nan,nan,nan,0.022517748,0.0,0.0,0.0,0.0,1310988,1310988,6620172,0,0,0,164,1,1,1,2,0,0,0,0,0,0,0,0
35212000,35132000,4831840897,1.16646725e-05,0.0009563534,0.0037796977,0,4.194596,0.380751,nan,nan,nan,0.022030294,0.0,0.0,0.0,0.0,1310988,1310988,6620172,0,0,0,164,1,1,1,2,0,0,0,0,0,0,0,0
35412000,35332000,4831840897,1.079474e-05,0.0050724344,0.017963937,0,4.1602182,0.3678271,nan,nan,nan,0.023267306,0.0,0.0,0.0,0.0,1310988,1310988,6620172,0,0,0,164,1,1,1,2,0,0,0,0,0,0,0,0
35612000,35532000,4831840897,1.1756671e-05,0.0012742304,0.005169752,0,4.126762,0.38030973,nan,nan,nan,0.022994382,0.0,0.0,0.0,0.0,1310988,1310988,6620172,0,0,0,164,1,1,1,2,0,0,0,0,0,0,0,0
35804000,35724000,4831840897,1.1419098e-05,0.0049377545,0.01746774,0,4.088812,0.36661774,nan,nan,nan,0.020568337,0.0,0.0,0.0,0.0,1310988,1310988,6620172,0,0,0,164,1,1,1,2,0,0,0,0,0,0,0,0
36012000,35932000,4831840897,1.1842448e-05,0.0011655077,0.005372132,0,4.062627,0.38212392,nan,nan,nan,0.024023825,0.0,0.0,0.0,0.0,1310988,1310988,6620172,0,0,0,164,1,1,1,2,0,0,0,0,0,0,0,0
36212000,36132000,4831840897,1.16133815e-05,0.00460901,0.016421353,0,4.0319543,0.3670404,nan,nan,nan,0.021259878,0.0,0.0,0.0,0.0,1310988,1310988,6620172,0,0,0,164,1,1,1,2,0,0,0,0,0,0,0,0
36412000,36332000,4831840897,1.2382841e-05,0.0018383809,0.007878269,0,4.0022154,0.38167882,nan,nan,nan,0.020321231,0.0,0.0,0.0,0.0,1310988,1310988,6620172,0,0,0,164,1,1,1,2,0,0,0,0,0,0,0,0
36612000,36532000,4831840897,1.2695456e-05,0.003773064,0.013685356,0,3.9734094,0.36864874,nan,nan,nan,0.01878121,0.0,0.0,0.0,0.0,1310988,1310988,6620172,0,0,0,164,1,1,1,2,0,0,0,0,0,0,0,0
36804000,36724000,4831840897,1.4192433e-05,0.0017558375,0.00831741,0,3.9405618,0.38259554,nan,nan,nan,0.018880902,0.0,0.0,0.0,0.0,1310988,1310988,6620172,0,0,0,164,1,1,1,2,0,0,0,0,0,0,0,0
37012000,36932000,4831840897,1.4569537e-05,0.0035480731,0.013260555,0,3.918613,0.3682147,nan,nan,nan,0.018988512,0.0,0.0,0.0,0.0,1310988,1310988,6620172,0,0,0,164,1,1,1,2,0,0,0,0,0,0,0,0
37204000,37124000,4831840897,1.6471007e-05,0.0017974753,0.009187964,0,3.8877773,0.38209552,nan,nan,nan,0.019781115,0.0,0.0,0.0,0.0,1310988,1310988,6620172,0,0,0,164,1,1,1,2,0,0,0,0,0,0,0,0
37404000,37324000,4831840897,1.8292501e-05,0.0040128403,0.015432773,0,3.8627808,0.36692205,nan,nan,nan,0.022743322,0.0,0.0,0.0,0.0,1310988,1310988,6620172,0,0,0,164,1,1,1,2,0,0,0,0,0,0,0,0
37612000,37532000,4831840897,1.8482295e-05,0.0022417062,0.010937647,0,3.8434365,0.3824701,nan,nan,nan,0.019682772,0.0,0.0,0.0,0.0,1310988,1310988,6620172,0,0,0,164,1,1,1,2,0,0,0,0,0,0,0,0
37804000,37724000,4831840897,2.2031174e-05,0.0033737062,0.01441004,0,3.8155565,0.3685245,nan,nan,nan,0.018504526,0.0,0.0,0.0,0.0,1310988,1310988,6620172,0,0,0,164,1,1,1,2,0,0,0,0,0,0,0,0
38012000,37932000,4831840897,2.237352e-05,0.0024570269,0.012607974,0,3.797952,0.3819812,nan,nan,nan,0.01767646,0.0,0.0,0.0,0.0,1310988,1310988,6620172,0,0,0,164,1,1,1,2,0,0,0,0,0,0,0,0
38204000,38124000,4831840897,2.5624264e-05,0.0037348745,0.016525712,0,3.7720006,0.36806527,nan,nan,nan,0.017074307,0.0,0.0,0.0,0.0,1310988,1310988,6620172,0,0,0,164,1,1,1,2,0,0,0,0,0,0,0,0
38404000,38324000,4831840897,2.6444095e-05,0.0023072807,0.014151755,0,3.7515857,0.38284072,nan,nan,nan,0.017300347,0.0,0.0,0.0,0.0,1310988,1310988,6620172,0,0,0,164,1,1,1,2,0,0,0,0,0,0,0,0
38604000,38524000,4831840897,2.8553644e-05,0.0032658977,0.016897678,0,3.7320719,0.3675618,nan,nan,nan,0.020111294,0.0,0.0,0.0,0.0,1310988,1310988,6620172,0,0,0,164,1,1,1,2,0,0,0,0,0,0,0,0
38804000,38724000,4831840897,2.986231e-05,0.0028037187,0.017126529,0,3.713453,0.382255,nan,nan,nan,0.018421253,0.0,0.0,0.0,0.0,1310988,1310988,6620172,0,0,0,164,1,1,1,2,0,0,0,0,0,0,0,0
39012000,38932000,4831840897,3.224184e-05,0.004102945,0.020230997,0,3.7001812,0.36987633,nan,nan,nan,0.018124966,0.0,0.0,0.0,0.0,1310988,1310988,6620172,0,0,0,164,1,1,1,2,0,0,0,0,0,0,0,0
39204000,39124000,4831840897,3.4400207e-05,0.003033459,0.020048456,0,3.678883,0.38162735,nan,nan,nan,0.017616441,0.0,0.0,0.0,0.0,1310988,1310988,6620172,0,0,0,164,1,1,1,2,0,0,0,0,0,0,0,0
39404000,39324000,4831840897,3.7844413e-05,0.004792345,0.025089642,0,3.6629193,0.36846536,nan,nan,nan,0.017805628,0.0,0.0,0.0,0.0,1310988,1310988,6620172,0,0,0,164,1,1,1,2,0,0,0,0,0,0,0,0
39604000,39524000,4831840897,3.9930248e-05,0.003566084,0.02408191,0,3.647826,0.38323024,nan,nan,nan,0.017588519,0.0,0.0,0.0,0.0,1310988,1310988,6620172,0,0,0,164,1,1,1,2,0,0,0,0,0,0,0,0
39812000,39732000,4831840897,4.2887008e-05,0.005261721,0.028157914,0,3.6379783,0.36868683,nan,nan,nan,0.018937677,0.0,0.0,0.0,0.0,1310988,1310988,6620172,0,0,0,164,1,1,1,2,0,0,0,0,0,0,0,0
40004000,39924000,4831840897,4.642163e-05,0.0042847916,0.028779356,0,3.620205,0.3825353,nan,nan,nan,0.018708901,0.0,0.0,0.0,0.0,1310988,1310988,6620172,0,0,0,164,1,1,1,2,0,0,0,0,0,0,0,0
40204000,40124000,4831840897,1.2724288e-05,0.0049661584,0.017506441,0,3.7314174,0.3692541,nan,nan,nan,0.020655151,0.0,0.0,0.0,0.0,1310988,1310988,6620172,0,0,0,164,1,1,1,2,0,0,0,0,0,0,0,0
40412000,40332000,4831840897,1.2368112e-05,0.0010227211,0.0033575245,0,3.7232926,0.38267827,nan,nan,nan,0.019736784,0.0,0.0,0.0,0.0,1310988,1310988,6620172,0,0,0,164,1,1,1,2,0,0,0,0,0,0,0,0
40604000,40524000,4831840897,1.5600197e-05,0.0045033414,0.015909879,0,3.7070332,0.36860195,nan,nan,nan,0.019543355,0.0,0.0,0.0,0.0,1310988,1310988,6620172,0,0,0,164,1,1,1,2,0,0,0,0,0,0,0,0
40812000,40732000,4831840897,1.5266976e-05,0.0009884797,0.0034669756,0,3.700716,0.3842134,nan,nan,nan,0.021529445,0.0,0.0,0.0,0.0,1310988,1310988,6620172,0,0,0,164,1,1,1,2,0,0,0,0,0,0,0,0
41012000,40932000,4831840897,1.8561846e-05,0.005326035,0.018942501,0,3.690754,0.36876476,nan,nan,nan,0.020286115,0.0,0.0,0.0,0.0,1310988,1310988,6620172,0,0,0,164,1,1,1,2,0,0,0,0,0,0,0,0
41204000,41124000,4831840897,2.2331671e-05,0.00057609414,0.0038709894,0,3.6771064,0.38259643,nan,nan,nan,0.02261364,0.0,0.0,0.0,0.0,1310988,1310988,6620172,0,0,0,164,1,1,1,2,0,0,0,0,0,0,0,0
41412000,41332000,4831840897,2.453507e-05,0.0062749553,0.022580665,0,3.673375,0.370121,nan,nan,nan,0.023388427,0.0,0.0,0.0,0.0,1310988,1310988,6620172,0,0,0,164,1,1,1,2,0,0,0,0,0,0,0,0
41612000,41532000,4831840897,2.6634003e-05,0.0008880895,0.005088893,0,3.66592,0.38269687,nan,nan,nan,0.021836704,0.0,0.0,0.0,0.0,1310988,1310988,6620172,0,0,0,164,1,1,1,2,0,0,0,0,0,0,0,0
41812000,41732000,4831840897,3.1963813e-05,0.007420858,0.026945364,0,3.659256,0.36943552,nan,nan,nan,0.027010798,0.0,0.0,0.0,0.0,1310988,1310988,6620172,0,0,0,164,1,1,1,2,0,0,0,0,0,0,0,0
42004000,41924000,4831840897,3.7522914e-05,0.0016470172,0.008988414,0,3.6487572,0.383339,nan,nan,nan,0.024553671,0.0,0.0,0.0,0.0,1310988,1310988,6620172,0,0,0,164,1,1,1,2,0,0,0,0,0,0,0,0
42204000,42124000,4831840897,4.3729935e-05,0.008116199,0.030063633,0,3.6435757,0.36791855,nan,nan,nan,0.024497535,0.0,0.0,0.0,0.0,1310988,1310988,6620172,0,0,0,164,1,1,1,2,0,0,0,0,0,0,0,0
42404000,42324000,4831840897,4.708933e-05,0.0019623267,0.0111189205,0,3.6391025,0.38261798,nan,nan,nan,0.027533427,0.0,0.0,0.0,0.0,1310988,1310988,6620172,0,0,0,164,1,1,1,2,0,0,0,0,0,0,0,0
42612000,42532000,4831840897,5.055161e-05,0.007811436,0.029179169,0,3.6399722,0.36814147,nan,nan,nan,0.026428139,0.0,0.0,0.0,0.0,1310988,1310988,6620172,0,0,0,164,1,1,1,2,0,0,0,0,0,0,0,0
42812000,42732000,4831840897,5.4336197e-05,0.002180074,0.012320196,0,3.6368432,0.38279542,nan,nan,nan,0.025540909,0.0,0.0,0.0,0.0,1310988,1310988,6620172,0,0,0,164,1,1,1,2,0,0,0,0,0,0,0,0
43004000,42924000,4831840897,6.63116e-05,0.009127867,0.03472549,0,3.6296031,0.3687262,nan,nan,nan,0.028271284,0.0,0.0,0.0,0.0,1310988,1310988,6620172,0,0,0,164,1,1,1,2,0,0,0,0,0,0,0,0
43204000,43124000,4831840897,7.111482e-05,0.0032353913,0.017781822,0,3.627631,0.38123798,nan,nan,nan,0.029009758,0.0,0.0,0.0,0.0,1310988,1310988,6620172,0,0,0,164,1,1,1,2,0,0,0,0,0,0,0,0
43404000,43324000,4831840897,7.631802e-05,0.009967291,0.03854229,0,3.6262004,0.36809757,nan,nan,nan,0.032305505,0.0,0.0,0.0,0.0,1310988,1310988,6620172,0,0,0,164,1,1,1,2,0,0,0,0,0,0,0,0
43612000,43532000,4831840897,7.6607605e-05,0.0035300867,0.01948398,0,3.630083,0.38366362,nan,nan,nan,0.028930033,0.0,0.0,0.0,0.0,1310988,1310988,6620172,0,0,0,164,1,1,1,2,0,0,0,0,0,0,0,0
43812000,43732000,4831840897,8.188496e-05,0.008908859,0.035753746,0,3.6296592,0.36828837,nan,nan,nan,0.028093994,0.0,0.0,0.0,0.0,1310988,1310988,6620172,0,0,0,164,1,1,1,2,0,0,0,0,0,0,0,0
44004000,43924000,4831840897,8.509002e-05,0.004636574,0.025783315,0,3.6248052,0.3820839,nan,nan,nan,0.029215049,0.0,0.0,0.0,0.0,1310988,1310988,6620172,0,0,0,164,1,1,1,2,0,0,0,0,0,0,0,0
44204000,44124000,4831840897,9.117885e-05,0.010828164,0.044130478,0,3.6251724,0.36884847,nan,nan,nan,0.034923848,0.0,0.0,0.0,0.0,1310988,1310988,6620172,0,0,0,164,1,1,1,2,0,0,0,0,0,0,0,0
44412000,44332000,4831840897,9.1232905e-05,0.0051649595,0.028291434,0,3.6308155,0.38222098,nan,nan,nan,0.03084574,0.0,0.0,0.0,0.0,1310988,1310988,6620172,0,0,0,164,1,1,1,2,0,0,0,0,0,0,0,0
44604000,44524000,4831840897,9.9363606e-05,0.011222821,0.04718937,0,3.6269176,0.36819845,nan,nan,nan,0.03201154,0.0,0.0,0.0,0.0,1310988,1310988,6620172,0,0,0,164,1,1,1,2,0,0,0,0,0,0,0,0
44804000,44724000,4831840897,0.00010179608,0.006484477,0.035600293,0,3.6281242,0.38290417,nan,nan,nan,0.03357975,0.0,0.0,0.0,0.0,1310988,1310988,6620172,0,0,0,164,1,1,1,2,0,0,0,0,0,0,0,0
45012000,44932000,4832889473,0.00010569352,0.012043559,0.05055095,0,3.6341882,0.36837223,nan,nan,nan,0.035885267,0.0,0.0,0.0,0.0,1310988,1310988,6620172,0,0,0,164,1,1,1,2,0,0,0,0,0,0,0,0
45212000,45132000,4832889473,0.00010773176,0.0069324216,0.0378718,0,3.6350856,0.3830317,nan,nan,nan,0.03543491,0.0,0.0,0.0,0.0,1310988,1310988,6620172,0,0,0,164,1,1,1,2,0,0,0,0,0,0,0,0
45404000,45324000,4832889473,2.3344253e-05,0.010683711,0.038983356,0,3.7574103,0.36891925,nan,nan,nan,0.035995945,0.0,0.0,0.0,0.0,1310988,1310988,6620172,0,0,0,164,1,1,1,2,0,0,0,0,0,0,0,0
45612000,45532000,4832889473,2.195065e-05,0.0017998758,0.012000281,0,3.764463,0.38229293,nan,nan,nan,0.035968293,0.0,0.0,0.0,0.0,1310988,1310988,6620172,0,0,0,164,1,1,1,2,0,0,0,0,0,0,0,0
45804000,45724000,4832889473,3.0396968e-05,0.0103489,0.037602633,0,3.7612588,0.36830148,nan,nan,nan,0.03481301,0.0,0.0,0.0,0.0,1310988,1310988,6620172,0,0,0,164,1,1,1,2,0,0,0,0,0,0,0,0
46004000,45924000,4832889473,3.303537e-05,0.0011940507,0.009083775,0,3.7634015,0.38082597,nan,nan,nan,0.037555937,0.0,0.0,0.0,0.0,1310988,1310988,6620172,0,0,0,164,1,1,1,2,0,0,0,0,0,0,0,0
46204000,46124000,4832889473,3.894657e-05,0.009861957,0.03549543,0,3.7656085,0.3677911,nan,nan,nan,0.037816525,0.0,0.0,0.0,0.0,1310988,1310988,6620172,0,0,0,164,1,1,1,2,0,0,0,0,0,0,0,0
46404000,46324000,4832889473,4.2424395e-05,0.00094588695,0.0076495106,0,3.7678444,0.38251334,nan,nan,nan,0.035686046,0.0,0.0,0.0,0.0,1310988,1310988,6620172,0,0,0,164,1,1,1,2,0,0,0,0,0,0,0,0
46612000,46532000,4832889473,4.3974036e-05,0.00954581,0.034409527,0,3.775438,0.36808848,nan,nan,nan,0.034353845,0.0,0.0,0.0,0.0,1310988,1310988,6620172,0,0,0,164,1,1,1,2,0,0,0,0,0,0,0,0
46804000,46724000,4832889473,5.2493477e-05,0.0009140015,0.0065047396,0,3.7722845,0.38193586,nan,nan,nan,0.036675,0.0,0.0,0.0,0.0,1310988,1310988,6620172,0,0,0,164,1,1,1,2,0,0,0,0,0,0,0,0
47012000,46932000,4832889473,5.3768377e-05,0.008802794,0.031545334,0,3.779828,0.3675996,nan,nan,nan,0.032987054,0.0,0.0,0.0,0.0,1310988,1310988,6620172,0,0,0,164,1,1,1,2,0,0,0,0,0,0,0,0
47212000,47132000,4832889473,5.759072e-05,0.00087512744,0.0062398617,0,3.7818885,0.38226163,nan,nan,nan,0.034736503,0.0,0.0,0.0,0.0,1310988,1310988,6620172,0,0,0,164,1,1,1,2,0,0,0,0,0,0,0,0
47404000,47324000,4832889473,6.916077e-05,0.009287348,0.03268645,0,3.778382,0.36829773,nan,nan,nan,0.036789004,0.0,0.0,0.0,0.0,1310988,1310988,6620172,0,0,0,164,1,1,1,2,0,0,0,0,0,0,0,0
47604000,47524000,4832889473,7.317604e-05,0.0010045776,0.004978465,0,3.7801557,0.38086596,nan,nan,nan,0.03494493,0.0,0.0,0.0,0.0,1310988,1310988,6620172,0,0,0,164,1,1,1,2,0,0,0,0,0,0,0,0
47804000,47724000,4832889473,7.95059e-05,0.00915628,0.032169584,0,3.7817612,0.36784413,nan,nan,nan,0.03573449,0.0,0.0,0.0,0.0,1310988,1310988,6620172,0,0,0,164,1,1,1,2,0,0,0,0,0,0,0,0
48012000,47932000,4832889473,7.8131445e-05,0.001416334,0.0063872193,0,3.7886639,0.38346332,nan,nan,nan,0.03478168,0.0,0.0,0.0,0.0,1310988,1310988,6620172,0,0,0,164,1,1,1,2,0,0,0,0,0,0,0,0
48204000,48124000,4832889473,9.00929e-05,0.009192039,0.032383207,0,3.784377,0.3673571,nan,nan,nan,0.037814047,0.0,0.0,0.0,0.0,1310988,1310988,6620172,0,0,0,164,1,1,1,2,0,0,0,0,0,0,0,0
48404000,48324000,4832889473,9.445757e-05,0.0020090553,0.008918154,0,3.7853446,0.38203415,nan,nan,nan,0.03309438,0.0,0.0,0.0,0.0,1310988,1310988,6620172,0,0,0,164,1,1,1,2,0,0,0,0,0,0,0,0
48604000,48524000,4832889473,9.595396e-05,0.007953847,0.028363897,0,3.786068,0.3688552,nan,nan,nan,0.032999642,0.0,0.0,0.0,0.0,1310988,1310988,6620172,0,0,0,164,1,1,1,2,0,0,0,0,0,0,0,0
48812000,48732000,4832889473,9.464992e-05,0.0021948859,0.010142319,0,3.792042,0.38229132,nan,nan,nan,0.032482892,0.0,0.0,0.0,0.0,1310988,1310988,6620172,0,0,0,164,1,1,1,2,0,0,0,0,0,0,0,0
49012000,48932000,4832889473,9.7383876e-05,0.0160394,0.05885169,0,3.7918901,0.36890715,nan,nan,nan,0.059840374,0.0,0.0,0.0,0.0,1310988,1310988,6620172,0,0,0,164,1,1,1,2,0,0,0,0,0,0,0,0
49212000,49132000,4832889473,9.6678006e-05,0.004615301,0.020244202,0,3.7919514,0.38292676,nan,nan,nan,0.06331005,0.0,0.0,0.0,0.0,1310988,1310988,6620172,0,0,0,164,1,1,1,2,0,0,0,0,0,0,0,0
49404000,49324000,4832889473,0.0001029045,0.03682805,0.14319248,0,3.7860937,0.36597168,nan,nan,nan,0.11504468,0.0,0.0,0.0,0.0,1310988,1310988,6620172,0,0,0,164,1,1,1,2,0,0,0,0,0,0,0,0
49612000,49532000,4832889473,9.9224904e-05,0.01379915,0.05995029,0,3.790849,0.3797742,nan,nan,nan,0.11368111,0.0,0.0,0.0,0.0,1310988,1310988,6620172,0,0,0,164,1,1,1,2,0,0,0,0,0,0,0,0
49812000,49732000,4832889473,0.00010524565,0.04962434,0.20423508,0,3.7895901,0.3634507,nan,nan,nan,0.15379737,0.0,0.0,0.0,0.0,1310988,1310988,6620172,0,0,0,164,1,1,1,2,0,0,0,0,0,0,0,0
50004000,49924000,4832889473,0.000105233405,0.021407386,0.09667152,0,3.782377,0.37487075,nan,nan,nan,0.15314725,0.0,0.0,0.0,0.0,1310988,1310988,6620172,0,0,0,164,1,1,1,2,0,0,0,0,0,0,0,0
50212000,50132000,4832889473,0.000109638604,0.055190746,0.23769747,0,3.7857635,0.36138082,nan,nan,nan,0.18069819,0.0,0.0,0.0,0.0,1310988,1310988,6620172,0,0,0,164,1,1,1,2,0,0,0,0,0,0,0,0
50404000,50324000,4832889473,0.0001093827,0.024318581,0.11456607,0,3.7777553,0.37025446,nan,nan,nan,0.18294707,0.0,0.0,0.0,0.0,1310988,1310988,6620172,0,0,0,164,1,1,1,2,0,0,0,0,0,0,0,0
50604000,50524000,4832889473,3.055673e-05,0.06076616,0.26938915,0,3.9174328,0.3564516,nan,nan,nan,0.20696141,0.0,0.0,0.0,0.0,1310988,1310988,6620172,0,0,0,164,1,1,1,2,0,0,0,0,0,0,0,0
50812000,50732000,4832889473,2.417127e-05,0.019256366,0.09689864,0,3.919965,0.36831033,nan,nan,nan,0.20374978,0.0,0.0,0.0,0.0,1310988,1310988,6620172,0,0,0,164,1,1,1,2,0,0,0,0,0,0,0,0
51004000,50924000,4832889473,3.9199353e-05,0.06180653,0.27840203,0,3.9108016,0.35236445,nan,nan,nan,0.22266464,0.0,0.0,0.0,0.0,1310988,1310988,6620172,0,0,0,164,1,1,1,2,0,0,0,0,0,0,0,0
51212000,51132000,4832889473,3.08762e-05,0.017728552,0.09110089,0,3.9126835,0.363965,nan,nan,nan,0.21821886,0.0,0.0,0.0,0.0,1310988,1310988,6620172,0,0,0,164,1,1,1,2,0,0,0,0,0,0,0,0
51404000,51324000,4832889473,4.7792088e-05,0.05838777,0.26356563,0,3.902978,0.35050464,nan,nan,nan,0.2340755,0.0,0.0,0.0,0.0,1310988,1310988,6620172,0,0,0,164,1,1,1,2,0,0,0,0,0,0,0,0
51604000,51524000,4832889473,4.2848125e-05,0.017337875,0.08785278,0,3.8991847,0.35964942,nan,nan,nan,0.23079354,0.0,0.0,0.0,0.0,1310988,1310988,6620172,0,0,0,164,1,1,1,2,0,0,0,0,0,0,0,0
51812000,51732000,4832889473,5.150504e-05,0.052738264,0.24071813,0,3.9011838,0.34802702,nan,nan,nan,0.24134135,0.0,0.0,0.0,0.0,1310988,1310988,6620172,0,0,0,164,1,1,1,2,0,0,0,0,0,0,0,0
52004000,51924000,4832889473,4.9496328e-05,0.014241873,0.07475277,0,3.8916197,0.35628742,nan,nan,nan,0.23761255,0.0,0.0,0.0,0.0,1310988,1310988,6620172,0,0,0,164,1,1,1,2,0,0,0,0,0,0,0,0
52204000,52124000,4832889473,6.200701e-05,0.05121083,0.23779851,0,3.8874795,0.34432948,nan,nan,nan,0.24169397,0.0,0.0,0.0,0.0,1310988,1310988,6620172,0,0,0,164,1,1,1,2,0,0,0,0,0,0,0,0
52412000,52332000,4832889473,5.0391216e-05,0.007058241,0.043536905,0,3.8887417,0.3553357,nan,nan,nan,0.24032784,0.0,0.0,0.0,0.0,1310988,1310988,6620172,0,0,0,164,1,1,1,2,0,0,0,0,0,0,0,0
52612000,52532000,4832889473,6.380133e-05,0.045028068,0.21451439,0,3.884145,0.34183457,nan,nan,nan,0.24531743,0.0,0.0,0.0,0.0,1310988,1310988,6620172,0,0,0,164,1,1,1,2,0,0,0,0,0,0,0,0
52804000,52724000,4832889473,6.0054805e-05,0.005554462,0.03720212,0,3.8737342,0.3513042,nan,nan,nan,0.23808019,0.0,0.0,0.0,0.0,1310988,1310988,6620172,0,0,0,164,1,1,1,2,0,0,0,0,0,0,0,0
53004000,52924000,4832889473,7.193976e-05,0.04195777,0.20270818,0,3.8687372,0.3398036,nan,nan,nan,0.24581522,0.0,0.0,0.0,0.0,1310988,1310988,6620172,0,0,0,164,1,1,1,2,0,0,0,0,0,0,0,0
53212000,53132000,4832889473,6.0217473e-05,0.0028030956,0.022196665,0,3.8691258,0.34871012,nan,nan,nan,0.2395562,0.0,0.0,0.0,0.0,1310988,1310988,6620172,0,0,0,164,1,1,1,2,0,0,0,0,0,0,0,0
53404000,53324000,4832889473,7.5574564e-05,0.038697742,0.18738836,0,3.8581817,0.33705103,nan,nan,nan,0.24120206,0.0,0.0,0.0,0.0,1310988,1310988,6620172,0,0,0,164,1,1,1,2,0,0,0,0,0,0,0,0
53612000,53532000,4832889473,6.406238e-05,0.0024627084,0.015749145,0,3.85819,0.34592175,nan,nan,nan,0.2385192,0.0,0.0,0.0,0.0,1310988,1310988,6620172,0,0,0,164,1,1,1,2,0,0,0,0,0,0,0,0
53812000,53732000,4832889473,7.496642e-05,0.03436114,0.16389798,0,3.8524756,0.33532524,nan,nan,nan,0.24141268,0.0,0.0,0.0,0.0,1310988,1310988,6620172,0,0,0,164,1,1,1,2,0,0,0,0,0,0,0,0
54012000,53932000,4832889473,6.3975094e-05,0.004389406,0.016713345,0,3.8466105,0.34539413,nan,nan,nan,0.2313495,0.0,0.0,0.0,0.0,1310988,1310988,6620172,0,0,0,164,1,1,1,2,0,0,0,0,0,0,0,0
54212000,54132000,4832889473,7.191962e-05,0.03350554,0.15327662,0,3.8406045,0.33363855,nan,nan,nan,0.22898811,0.0,0.0,0.0,0.0,1310988,1310988,6620172,0,0,0,164,1,1,1,2,0,0,0,0,0,0,0,0
54412000,54332000,4832889473,6.17558e-05,0.004698065,0.020665772,0,3.8344698,0.34396058,nan,nan,nan,0.2286149,0.0,0.0,0.0,0.0,1310988,1310988,6620172,0,0,0,164,1,1,1,2,0,0,0,0,0,0,0,0
54604000,54524000,4832889473,7.0090646e-05,0.03401728,0.14648685,0,3.8227484,0.3336231,nan,nan,nan,0.22626998,0.0,0.0,0.0,0.0,1310988,1310988,6620172,0,0,0,164,1,1,1,2,0,0,0,0,0,0,0,0
54804000,54724000,4832889473,6.120214e-05,0.0053357403,0.027110487,0,3.8164017,0.3444371,nan,nan,nan,0.22204283,0.0,0.0,0.0,0.0,1310988,1310988,6620172,0,0,0,164,1,1,1,2,0,0,0,0,0,0,0,0
55004000,54924000,4832889473,6.8298024e-05,0.034485217,0.13814954,0,3.8099554,0.33354187,nan,nan,nan,0.22097301,0.0,0.0,0.0,0.0,1310988,1310988,6620172,0,0,0,164,1,1,1,2,0,0,0,0,0,0,0,0
55204000,55124000,4832889473,6.0153612e-05,0.0052464865,0.03099315,0,3.80342,0.34485018,nan,nan,nan,0.21417773,0.0,0.0,0.0,0.0,1310988,1310988,6620172,0,0,0,164,1,1,1,2,0,0,0,0,0,0,0,0
55412000,55332000,4832889473,6.5709515e-05,0.032951105,0.12151806,0,3.8022025,0.33498842,nan,nan,nan,0.20945027,0.0,0.0,0.0,0.0,1310988,1310988,6620172,0,0,0,164,1,1,1,2,0,0,0,0,0,0,0,0
55604000,55524000,4832889473,5.9592407e-05,0.005308985,0.03511634,0,3.7901158,0.34624317,nan,nan,nan,0.20702551,0.0,0.0,0.0,0.0,1310988,1310988,6620172,0,0,0,164,1,1,1,2,0,0,0,0,0,0,0,0
55804000,55724000,4832889473,2.6572206e-05,0.035956945,0.124762215,0,3.9269106,0.33602282,nan,nan,nan,0.20460661,0.0,0.0,0.0,0.0,1310988,1310988,6620172,0,0,0,164,1,1,1,2,0,0,0,0,0,0,0,0
56004000,55924000,4832889473,2.0758687e-05,0.0062050684,0.04215485,0,3.9197295,0.3485625,nan,nan,nan,0.19980931,0.0,0.0,0.0,0.0,1310988,1310988,6620172,0,0,0,164,1,1,1,2,0,0,0,0,0,0,0,0
56204000,56124000,4832889473,2.8382894e-05,0.035572484,0.11486828,0,3.9124942,0.3400251,nan,nan,nan,0.19548821,0.0,0.0,0.0,0.0,1310988,1310988,6620172,0,0,0,164,1,1,1,2,0,0,0,0,0,0,0,0
56412000,56332000,4832889473,2.1271224e-05,0.0072470307,0.048591595,0,3.9107318,0.3523551,nan,nan,nan,0.18705264,0.0,0.0,0.0,0.0,1310988,1310988,6620172,0,0,0,164,1,1,1,2,0,0,0,0,0,0,0,0
56612000,56532000,4898949633,0.0012061143,0.14360864,0.4324363,0,2.3615396,0.31646293,nan,nan,nan,0.15670113,0.0,0.0,0.0,0.0,1310988,1310988,6620172,0,0,0,164,1,1,1,2,0,0,0,0,0,0,0,0
56812000,56732000,4898949633,0.00037145618,0.0857479,0.15139015,0,0.034111656,0.30739433,nan,nan,nan,0.14690994,0.0,0.0,0.0,0.0,1310988,1310988,6620172,0,0,0,164,1,1,1,2,0,0,0,0,0,0,0,0
57012000,56932000,4898949633,7.443838e-05,0.060723465,0.12632757,0,0.02562936,0.28963178,nan,nan,nan,0.12436352,0.0,0.0,0.0,0.0,1310988,1310988,6620172,0,0,0,164,1,1,1,2,0,0,0,0,0,0,0,0
57212000,57132000,4898949633,1.7764445e-05,0.017303286,0.029977115,0,0.022876872,0.2876117,nan,nan,nan,0.12736435,0.0,0.0,0.0,0.0,1310988,1310988,6620172,0,0,0,164,1,1,1,2,0,0,0,0,0,0,0,0
57404000,57324000,4898949633,6.894698e-06,0.009461151,0.046804983,0,0.022118716,0.28217256,nan,nan,nan,0.12009899,0.0,0.0,0.0,0.0,1310988,1310988,6620172,0,0,0,164,1,1,1,2,0,0,0,0,0,0,0,0
57604000,57524000,4898949633,8.397908e-06,0.028864067,0.118216775,0,0.020244345,0.280268,nan,nan,nan,0.118795075,0.0,0.0,0.0,0.0,1310988,1310988,6620172,0,0,0,164,1,1,1,2,0,0,0,0,0,0,0,0
57812000,57732000,4898949633,8.609084e-06,0.0278373,0.08824215,0,0.018824235,0.26966146,nan,nan,nan,0.11028711,0.0,0.0,0.0,0.0,1310988,1310988,6620172,0,0,0,164,1,1,1,2,0,0,0,0,0,0,0,0
58012000,57932000,4898949633,7.070504e-06,0.0383422,0.14055264,0,0.017180277,0.26912552,nan,nan,nan,0.1099639,0.0,0.0,0.0,0.0,1310988,1310988,6620172,0,0,0,164,1,1,1,2,0,0,0,0,0,0,0,0
58212000,58132000,4898949633,6.0342545e-06,0.033104524,0.09891101,0,0.015910432,0.2602278,nan,nan,nan,0.10402754,0.0,0.0,0.0,0.0,1310988,1310988,6620172,0,0,0,164,1,1,1,2,0,0,0,0,0,0,0,0
58412000,58332000,4898949633,6.782274e-06,0.03946558,0.13923572,0,0.014939709,0.26037955,nan,nan,nan,0.107772335,0.0,0.0,0.0,0.0,1310988,1310988,6620172,0,0,0,164,1,1,1,2,0,0,0,0,0,0,0,0
58612000,58532000,4898949633,7.610526e-06,0.033376582,0.09636348,0,0.014194175,0.25278264,nan,nan,nan,0.10643049,0.0,0.0,0.0,0.0,1310988,1310988,6620172,0,0,0,164,1,1,1,2,0,0,0,0,0,0,0,0
58812000,58732000,4898949633,1.20660625e-05,0.037552893,0.12863027,0,0.013614384,0.25397992,nan,nan,nan,0.106302835,0.0,0.0,0.0,0.0,1310988,1310988,6620172,0,0,0,164,1,1,1,2,0,0,0,0,0,0,0,0
59012000,58932000,4898949633,1.6219532e-05,0.031418774,0.08754099,0,0.01315425,0.24663347,nan,nan,nan,0.10041183,0.0,0.0,0.0,0.0,1310988,1310988,6620172,0,0,0,164,1,1,1,2,0,0,0,0,0,0,0,0
59212000,59132000,4898949633,1.7323357e-05,0.03443344,0.11484194,0,0.012778667,0.24803308,nan,nan,nan,0.098734975,0.0,0.0,0.0,0.0,1310988,1310988,6620172,0,0,0,164,1,1,1,2,0,0,0,0,0,0,0,0
59404000,59324000,4898949633,2.1734799e-05,0.028518977,0.074364096,0,0.012248584,0.24175502,nan,nan,nan,0.09353413,0.0,0.0,0.0,0.0,1310988,1310988,6620172,0,0,0,164,1,1,1,2,0,0,0,0,0,0,0,0
