timestamp,timestamp_sample,lat,lon,alt,alt_ellipsoid,delta_alt,eph,epv,terrain_alt,lat_lon_reset_counter,alt_reset_counter,terrain_alt_valid,dead_reckoning
8604000,8604000,47.39775080049083,8.545607395198841,488.0997,488.10202,0.041857377,1.7320508,1.4142135,nan,2,2,0,0
8612000,8612000,47.397750800633,8.545607395345273,488.09982,488.10214,0.041857377,1.7320541,1.4142181,nan,2,2,0,0
8620000,8620000,47.397750800758494,8.545607395491638,488.09995,488.10226,0.041857377,1.7320641,1.4142319,nan,2,2,0,0
8628000,8628000,47.397750800881205,8.545607395639752,488.1001,488.10242,0.041857377,1.7320807,1.4142549,nan,2,2,0,0
8636000,8636000,47.39775080099753,8.545607395791784,488.1001,488.10242,0.041857377,1.7321041,1.3873388,nan,2,2,0,0
8644000,8644000,47.397750801116615,8.545607395958472,488.1001,488.10242,0.041857377,1.732134,1.387378,nan,2,2,0,0
8652000,8652000,47.397750801238864,8.545607396122184,488.1001,488.10242,0.041857377,1.7321706,1.3874266,nan,2,2,0,0
8660000,8660000,47.39775080136675,8.545607396282678,488.10013,488.10245,0.041857377,1.7322139,1.3874844,nan,2,2,0,0
8668000,8668000,47.39775080148606,8.545607396444385,488.10013,488.10245,0.041857377,1.7322638,1.3875518,nan,2,2,0,0
8676000,8676000,47.397750801584785,8.54560739662153,488.10016,488.10248,0.041857377,1.7323204,1.3876284,nan,2,2,0,0
8684000,8684000,47.397750801680864,8.54560739681201,488.1002,488.1025,0.041857377,1.7323836,1.3877144,nan,2,2,0,0
8692000,8692000,47.39775080177964,8.545607396998305,488.10043,488.10275,0.041857377,1.7324536,1.3641636,nan,2,2,0,0
8700000,8700000,47.397750801886296,8.545607397182314,488.10065,488.10297,0.041857377,1.73253,1.3642629,nan,2,2,0,0
8708000,8708000,47.39775080199566,8.545607397365131,488.10086,488.10318,0.041857377,1.7326132,1.3643718,nan,2,2,0,0
8716000,8716000,47.39775080208508,8.545607397557635,488.10107,488.1034,0.041857377,1.7327031,1.36449,nan,2,2,0,0
8724000,8724000,47.39775080215544,8.545607397758715,488.1013,488.1036,0.041857377,1.7327996,1.3646178,nan,2,2,0,0
8732000,8732000,47.39775080221906,8.54560739797306,488.1015,488.10382,0.041857377,1.7329028,1.3647552,nan,2,2,0,0
8740000,8740000,47.39775080227699,8.545607398185812,488.10168,488.104,0.041857377,1.7330127,1.3649019,nan,2,2,0,0
8748000,8748000,47.3977508023308,8.545607398387096,488.1019,488.10422,0.041857377,1.7331291,1.3650583,nan,2,2,0,0
8756000,8756000,47.397750802385254,8.545607398602485,488.10187,488.1042,0.041857377,1.7332523,1.3442265,nan,2,2,0,0
8764000,8764000,47.39775080242837,8.545607398836818,488.10187,488.1042,0.041857377,1.7333821,1.3443931,nan,2,2,0,0
8772000,8772000,47.39775080245683,8.545607399076143,488.10187,488.1042,0.041857377,1.7335185,1.3445693,nan,2,2,0,0
8780000,8780000,47.39775080247828,8.545607399331393,488.10187,488.1042,0.041857377,1.7336617,1.3447552,nan,2,2,0,0
8788000,8788000,47.397750802499786,8.545607399616976,488.10187,488.1042,0.041857377,1.7338114,1.3449506,nan,2,2,0,0
8796000,8796000,47.39775080251575,8.545607399925581,488.10187,488.1042,0.041857377,1.7339678,1.3451556,nan,2,2,0,0
8804000,8804000,47.3977508025103,8.54560740023682,488.1019,488.10422,0.041857377,1.7341309,1.3453704,nan,2,2,0,0
8812000,8812000,47.39775080248589,8.545607400556783,488.10184,488.10416,0.041857377,1.7343006,1.3267727,nan,2,2,0,0
8820000,8820000,47.39775080245059,8.54560740088165,488.1018,488.10413,0.041857377,1.7344769,1.3269955,nan,2,2,0,0
8828000,8828000,47.39775080240107,8.54560740120642,488.10178,488.1041,0.041857377,1.7346599,1.3272281,nan,2,2,0,0
8836000,8836000,47.397750802342,8.545607401532155,488.10175,488.10406,0.041857377,1.7348496,1.3274703,nan,2,2,0,0
8844000,8844000,47.39775080227766,8.545607401855442,488.1017,488.10403,0.041857377,1.7350459,1.3277223,nan,2,2,0,0
8852000,8852000,47.39775080221011,8.54560740216558,488.10168,488.104,0.041857377,1.7352488,1.327984,nan,2,2,0,0
8860000,8860000,47.39775080212598,8.545607402472926,488.10168,488.104,0.041857377,1.7354585,1.3282554,nan,2,2,0,0
8868000,8868000,47.39775080202467,8.545607402773166,488.10165,488.10397,0.041857377,1.7356746,1.3285365,nan,2,2,0,0
8876000,8876000,47.39775080190623,8.545607403072948,488.1017,488.10403,0.041857377,1.7358975,1.3117712,nan,2,2,0,0
8884000,8884000,47.397750801782074,8.545607403380282,488.1018,488.10413,0.041857377,1.736127,1.312058,nan,2,2,0,0
8892000,8892000,47.39775080166437,8.54560740367905,488.10187,488.1042,0.041857377,1.7363632,1.3123546,nan,2,2,0,0
8900000,8900000,47.39775080155299,8.545607403977087,488.10196,488.10428,0.041857377,1.736606,1.312661,nan,2,2,0,0
8908000,8908000,47.397750801433844,8.545607404274643,488.10202,488.10434,0.041857377,1.7368554,1.3129773,nan,2,2,0,0
8916000,8916000,47.397750801305584,8.545607404570896,488.1021,488.10443,0.041857377,1.7371114,1.3133034,nan,2,2,0,0
8924000,8924000,47.39775080117974,8.545607404890958,488.10217,488.1045,0.041857377,1.7373741,1.3136392,nan,2,2,0,0
8932000,8932000,47.397750801062045,8.545607405243041,488.10226,488.10458,0.041857377,1.7376434,1.2984196,nan,2,2,0,0
8940000,8940000,47.39775080093134,8.545607405600299,488.10236,488.10468,0.041857377,1.7379194,1.2987595,nan,2,2,0,0
8948000,8948000,47.39775080078323,8.545607405967997,488.10245,488.10477,0.041857377,1.738202,1.2991091,nan,2,2,0,0
8956000,8956000,47.39775080063517,8.54560740634833,488.10254,488.10486,0.041857377,1.7384912,1.2994686,nan,2,2,0,0
8964000,8964000,47.3977508004853,8.545607406724553,488.10263,488.10495,0.041857377,1.738787,1.2998381,nan,2,2,0,0
8972000,8972000,47.39775080032729,8.545607407111827,488.10272,488.10504,0.041857377,1.7390895,1.3002174,nan,2,2,0,0
8980000,8980000,47.397750800150625,8.545607407515027,488.10278,488.1051,0.041857377,1.7393985,1.3006064,nan,2,2,0,0
8988000,8988000,47.39775079996853,8.545607407934929,488.10287,488.1052,0.041857377,1.7397143,1.3010054,nan,2,2,0,0
8996000,8996000,47.397750799775174,8.54560740835624,488.103,488.10532,0.041857377,1.7400365,1.2870595,nan,2,2,0,0
9004000,9004000,47.397750799815476,8.545607408486322,488.1031,488.10544,0.041857377,1.4167632,1.1801865,nan,2,2,0,0
9012000,9012000,47.397750799863864,8.545607408615995,488.10318,488.10553,0.041857377,1.4168669,1.1803238,nan,2,2,0,0
9020000,9020000,47.397750799910014,8.545607408746656,488.10327,488.10562,0.041857377,1.4169747,1.1804665,nan,2,2,0,0
9028000,9028000,47.39775079994622,8.54560740887518,488.10336,488.1057,0.041857377,1.4170865,1.1806147,nan,2,2,0,0
9036000,9036000,47.397750799982354,8.545607409000189,488.10345,488.1058,0.041857377,1.4172024,1.1807683,nan,2,2,0,0
9044000,9044000,47.39775080002108,8.545607409131643,488.10355,488.1059,0.041857377,1.4173223,1.1809273,nan,2,2,0,0
9052000,9052000,47.39775080005573,8.54560740929726,488.10373,488.10608,0.041857377,1.4174464,1.1758603,nan,2,2,0,0
9060000,9060000,47.397750800088545,8.54560740946936,488.1039,488.10626,0.041857377,1.4175744,1.1760256,nan,2,2,0,0
9068000,9068000,47.397750800127966,8.545607409627294,488.1041,488.10645,0.041857377,1.4177065,1.1761965,nan,2,2,0,0
9076000,9076000,47.397750800158654,8.545607409790783,488.10428,488.10663,0.041857377,1.4178427,1.1763726,nan,2,2,0,0
9084000,9084000,47.39775080017309,8.545607409965037,488.10443,488.10678,0.041857377,1.4179829,1.1765544,nan,2,2,0,0
9092000,9092000,47.397750800168446,8.545607410148856,488.1046,488.10696,0.041857377,1.4181273,1.1767416,nan,2,2,0,0
9100000,9100000,47.397750800158285,8.54560741032749,488.10477,488.10712,0.041857377,1.4182756,1.1769341,nan,2,2,0,0
9108000,9108000,47.397750800145744,8.545607410505976,488.10492,488.10727,0.041857377,1.4184281,1.1721256,nan,2,2,0,0
9116000,9116000,47.39775080013141,8.545607410680798,488.10507,488.10742,0.041857377,1.4185846,1.1723237,nan,2,2,0,0
9124000,9124000,47.397750800102465,8.5456074108701,488.10522,488.10757,0.041857377,1.4187452,1.1725274,nan,2,2,0,0
9132000,9132000,47.397750800051035,8.54560741107697,488.10538,488.10773,0.041857377,1.4189099,1.1727365,nan,2,2,0,0
9140000,9140000,47.39775079996734,8.545607411276142,488.10553,488.10788,0.041857377,1.4190786,1.172951,nan,2,2,0,0
9148000,9148000,47.39775079986091,8.545607411470986,488.10568,488.10803,0.041857377,1.4192512,1.1731709,nan,2,2,0,0
9156000,9156000,47.39775079974494,8.545607411672524,488.1058,488.10815,0.041857377,1.4194281,1.1733965,nan,2,2,0,0
9164000,9164000,47.397750799633435,8.545607411878628,488.106,488.10834,0.041857377,1.4196091,1.1688156,nan,2,2,0,0
9172000,9172000,47.39775079952458,8.545607412102152,488.10617,488.10852,0.041857377,1.4197941,1.1690459,nan,2,2,0,0
9180000,9180000,47.39775079940713,8.545607412345905,488.10632,488.10867,0.041857377,1.419983,1.1692817,nan,2,2,0,0
9188000,9188000,47.3977507992753,8.545607412572846,488.10648,488.10883,0.041857377,1.4201763,1.1695229,nan,2,2,0,0
9196000,9196000,47.39775079914508,8.545607412795084,488.10666,488.109,0.041857377,1.4203734,1.1697695,nan,2,2,0,0
9204000,9204000,47.397750799018596,8.545607413034569,488.1068,488.10916,0.041857377,1.4205748,1.1700217,nan,2,2,0,0
9212000,9212000,47.39775079890373,8.54560741326016,488.10696,488.1093,0.041857377,1.42078,1.1702793,nan,2,2,0,0
9220000,9220000,47.397750798798086,8.54560741348736,488.10706,488.1094,0.041857377,1.4209894,1.165899,nan,2,2,0,0
9228000,9228000,47.397750798687355,8.545607413721106,488.10715,488.1095,0.041857377,1.4212028,1.1661607,nan,2,2,0,0
9236000,9236000,47.397750798560836,8.545607413935597,488.1072,488.10956,0.041857377,1.4214203,1.1664279,nan,2,2,0,0
9244000,9244000,47.397750798436164,8.545607414141514,488.1073,488.10965,0.041857377,1.421642,1.1667005,nan,2,2,0,0
9252000,9252000,47.3977507983232,8.545607414376262,488.1074,488.10974,0.041857377,1.4218676,1.1669786,nan,2,2,0,0
9260000,9260000,47.39775079820251,8.545607414627764,488.10745,488.1098,0.041857377,1.4220973,1.1672621,nan,2,2,0,0
9268000,9268000,47.397750798074036,8.545607414884053,488.10754,488.1099,0.041857377,1.4223312,1.167551,nan,2,2,0,0
9276000,9276000,47.397750797949264,8.54560741515722,488.1076,488.10995,0.041857377,1.422569,1.1678454,nan,2,2,0,0
9284000,9284000,47.39775079782669,8.545607415445048,488.1077,488.11005,0.041857377,1.422811,1.163631,nan,2,2,0,0
9292000,9292000,47.39775079768548,8.545607415726469,488.1078,488.11014,0.041857377,1.4230572,1.1639286,nan,2,2,0,0
9300000,9300000,47.39775079752374,8.545607416020594,488.10785,488.1102,0.041857377,1.4233073,1.1642318,nan,2,2,0,0
9308000,9308000,47.39775079734425,8.545607416325065,488.10794,488.1103,0.041857377,1.4235616,1.1645403,nan,2,2,0,0
9316000,9316000,47.39775079715483,8.545607416624874,488.10803,488.11038,0.041857377,1.4238198,1.1648544,nan,2,2,0,0
9324000,9324000,47.3977507969665,8.545607416907504,488.1081,488.11044,0.041857377,1.4240822,1.1651738,nan,2,2,0,0
9332000,9332000,47.397750796768136,8.545607417196509,488.1082,488.11053,0.041857377,1.4243486,1.1654987,nan,2,2,0,0
9340000,9340000,47.39775079656021,8.545607417475294,488.10822,488.11057,0.041857377,1.4246192,1.1614375,nan,2,2,0,0
9348000,9348000,47.397750796333014,8.54560741774507,488.10828,488.11063,0.041857377,1.4248939,1.1617651,nan,2,2,0,0
9356000,9356000,47.39775079608466,8.545607418021428,488.1083,488.11066,0.041857377,1.4251726,1.1620979,nan,2,2,0,0
9364000,9364000,47.39775079582776,8.545607418303677,488.10837,488.11072,0.041857377,1.4254553,1.1624364,nan,2,2,0,0
9372000,9372000,47.39775079557494,8.545607418574011,488.1084,488.11075,0.041857377,1.4257421,1.1627802,nan,2,2,0,0
9380000,9380000,47.39775079530909,8.545607418842067,488.10846,488.1108,0.041857377,1.426033,1.1631294,nan,2,2,0,0
9388000,9388000,47.39775079502612,8.545607419134981,488.1085,488.11084,0.041857377,1.4263281,1.1634842,nan,2,2,0,0
9396000,9396000,47.397750794733696,8.545607419465846,488.10852,488.11087,0.041857377,1.4266273,1.1638442,nan,2,2,0,0
9404000,9404000,47.39775079417506,8.545607419404597,488.10834,488.11032,0.041857377,1.2957758,1.1188082,nan,2,2,0,0
9412000,9412000,47.397750793620304,8.545607419332189,488.10815,488.11014,0.041857377,1.2959245,1.1189964,nan,2,2,0,0
9420000,9420000,47.39775079307374,8.54560741924613,488.10797,488.10995,0.041857377,1.2960763,1.1191884,nan,2,2,0,0
9428000,9428000,47.39775079253113,8.545607419171496,488.1078,488.10977,0.041857377,1.2962312,1.1193842,nan,2,2,0,0
9436000,9436000,47.39775079198905,8.545607419116061,488.1076,488.1096,0.041857377,1.296389,1.1195837,nan,2,2,0,0
9444000,9444000,47.397750791431825,8.545607419079772,488.10742,488.1094,0.041857377,1.2965497,1.119787,nan,2,2,0,0
9452000,9452000,47.39775079085767,8.545607419064998,488.10724,488.10922,0.041857377,1.2967134,1.119994,nan,2,2,0,0
9460000,9460000,47.39775079027968,8.545607419070478,488.10706,488.10904,0.041857377,1.2968801,1.1178867,nan,2,2,0,0
9468000,9468000,47.397750789692694,8.545607419085055,488.1069,488.1089,0.041857377,1.2970499,1.1180972,nan,2,2,0,0
9476000,9476000,47.397750789105984,8.545607419116198,488.10672,488.1087,0.041857377,1.2972225,1.1183116,nan,2,2,0,0
9484000,9484000,47.3977507885187,8.545607419158776,488.10654,488.10852,0.041857377,1.2973981,1.1185297,nan,2,2,0,0
9492000,9492000,47.39775078793725,8.54560741923289,488.10638,488.10837,0.041857377,1.2975768,1.1187515,nan,2,2,0,0
9500000,9500000,47.39775078734462,8.545607419321323,488.1062,488.1082,0.041857377,1.2977585,1.1189772,nan,2,2,0,0
9508000,9508000,47.3977507867336,8.545607419429107,488.10602,488.108,0.041857377,1.297943,1.1192065,nan,2,2,0,0
9516000,9516000,47.397750786120476,8.5456074195508,488.10587,488.10785,0.041857377,1.2981306,1.1194396,nan,2,2,0,0
9524000,9524000,47.39775078551231,8.545607419681488,488.10562,488.1076,0.041857377,1.2983212,1.1173786,nan,2,2,0,0
9532000,9532000,47.39775078489986,8.545607419838234,488.10538,488.10736,0.041857377,1.298515,1.1176149,nan,2,2,0,0
9540000,9540000,47.397750784270606,8.545607420025418,488.10516,488.10715,0.041857377,1.2987115,1.1178548,nan,2,2,0,0
9548000,9548000,47.397750783640575,8.54560742022672,488.10495,488.10693,0.041857377,1.2989112,1.1180985,nan,2,2,0,0
9556000,9556000,47.39775078301265,8.545607420430683,488.1047,488.1067,0.041857377,1.2991139,1.118346,nan,2,2,0,0
9564000,9564000,47.39775078237505,8.545607420626391,488.1045,488.10648,0.041857377,1.2993194,1.1185971,nan,2,2,0,0
9572000,9572000,47.39775078173188,8.545607420827087,488.10428,488.10626,0.041857377,1.2995281,1.1188521,nan,2,2,0,0
9580000,9580000,47.39775078107613,8.54560742103377,488.104,488.106,0.041857377,1.2997397,1.1168346,nan,2,2,0,0
9588000,9588000,47.39775078039937,8.545607421237548,488.10373,488.1057,0.041857377,1.2999544,1.1170924,nan,2,2,0,0
9596000,9596000,47.397750779711586,8.545607421455294,488.1035,488.10547,0.041857377,1.3001721,1.1173537,nan,2,2,0,0
9604000,9604000,47.397750779021,8.545607421698705,488.1032,488.1052,0.041857377,1.3003929,1.1176189,nan,2,2,0,0
9612000,9612000,47.39775077831515,8.545607421959645,488.10297,488.10495,0.041857377,1.3006166,1.1178877,nan,2,2,0,0
9620000,9620000,47.39775077759124,8.54560742222555,488.1027,488.10468,0.041857377,1.3008434,1.1181604,nan,2,2,0,0
9628000,9628000,47.39775077685281,8.545607422498641,488.10245,488.10443,0.041857377,1.3010731,1.1184367,nan,2,2,0,0
9636000,9636000,47.39775077610323,8.545607422782968,488.1022,488.1042,0.041857377,1.3013059,1.1187167,nan,2,2,0,0
9644000,9644000,47.397750775349465,8.545607423081908,488.10202,488.104,0.041857377,1.3015417,1.1167288,nan,2,2,0,0
9652000,9652000,47.397750774584885,8.545607423396316,488.10184,488.10382,0.041857377,1.3017806,1.1170112,nan,2,2,0,0
9660000,9660000,47.3977507738086,8.545607423740172,488.10165,488.10364,0.041857377,1.3020225,1.1172972,nan,2,2,0,0
9668000,9668000,47.3977507730297,8.545607424107759,488.1015,488.1035,0.041857377,1.3022674,1.117587,nan,2,2,0,0
9676000,9676000,47.397750772251925,8.545607424481817,488.10132,488.1033,0.041857377,1.3025154,1.1178805,nan,2,2,0,0
9684000,9684000,47.39775077147773,8.545607424847475,488.10114,488.10312,0.041857377,1.3027664,1.1181777,nan,2,2,0,0
9692000,9692000,47.39775077069251,8.545607425219332,488.10095,488.10294,0.041857377,1.3030205,1.1184787,nan,2,2,0,0
9700000,9700000,47.397750769889896,8.545607425603352,488.10074,488.10272,0.041857377,1.3032776,1.1165199,nan,2,2,0,0
9708000,9708000,47.397750769085114,8.545607426003011,488.10052,488.1025,0.041857377,1.3035377,1.1168227,nan,2,2,0,0
9716000,9716000,47.397750768281604,8.545607426417853,488.10028,488.10226,0.041857377,1.303801,1.1171293,nan,2,2,0,0
9724000,9724000,47.397750767470136,8.545607426844917,488.10007,488.10205,0.041857377,1.3040671,1.1174395,nan,2,2,0,0
9732000,9732000,47.39775076666316,8.545607427297549,488.09985,488.10184,0.041857377,1.3043365,1.1177535,nan,2,2,0,0
9740000,9740000,47.39775076586724,8.54560742776927,488.09964,488.10162,0.041857377,1.3046088,1.1180712,nan,2,2,0,0
9748000,9748000,47.39775076507007,8.545607428251063,488.09943,488.1014,0.041857377,1.3048843,1.1183925,nan,2,2,0,0
9756000,9756000,47.397750764284716,8.54560742873391,488.0992,488.1012,0.041857377,1.3051628,1.1187177,nan,2,2,0,0
9764000,9764000,47.397750763497875,8.545607429215147,488.09903,488.101,0.041857377,1.3054444,1.1167732,nan,2,2,0,0
9772000,9772000,47.39775076269945,8.545607429705377,488.09885,488.10083,0.041857377,1.305729,1.1170998,nan,2,2,0,0
9780000,9780000,47.39775076190186,8.545607430211684,488.09866,488.10065,0.041857377,1.3060168,1.11743,nan,2,2,0,0
9788000,9788000,47.39775076110236,8.545607430747152,488.09848,488.10046,0.041857377,1.3063077,1.1177639,nan,2,2,0,0
9796000,9796000,47.39775076029509,8.545607431314966,488.09833,488.1003,0.041857377,1.3066015,1.1181015,nan,2,2,0,0
9804000,9804000,47.397750759245994,8.545607432086904,488.0983,488.09998,0.041857377,1.2321475,1.0931945,nan,2,2,0,0
9812000,9812000,47.39775075819311,8.545607432862056,488.09827,488.09995,0.041857377,1.2323225,1.0934088,nan,2,2,0,0
9820000,9820000,47.39775075714264,8.545607433618093,488.09827,488.09995,0.041857377,1.2325,1.092216,nan,2,2,0,0
9828000,9828000,47.39775075608564,8.54560743435568,488.09824,488.0999,0.041857377,1.2326797,1.0924329,nan,2,2,0,0
9836000,9836000,47.397750755036746,8.545607435079523,488.09824,488.0999,0.041857377,1.232862,1.0926526,nan,2,2,0,0
9844000,9844000,47.39775075399242,8.545607435790867,488.09824,488.0999,0.041857377,1.2330468,1.092875,nan,2,2,0,0
9852000,9852000,47.397750752946564,8.545607436506245,488.09824,488.0999,0.041857377,1.2332338,1.0931003,nan,2,2,0,0
9860000,9860000,47.39775075189373,8.54560743721551,488.0982,488.09988,0.041857377,1.2334234,1.0933285,nan,2,2,0,0
9868000,9868000,47.39775075083646,8.545607437935592,488.0982,488.09988,0.041857377,1.2336153,1.0935594,nan,2,2,0,0
9876000,9876000,47.397750749771376,8.545607438675752,488.0982,488.09988,0.041857377,1.2338096,1.0937932,nan,2,2,0,0
9884000,9884000,47.397750748691394,8.54560743940687,488.09827,488.09995,0.041857377,1.2340064,1.0926077,nan,2,2,0,0
9892000,9892000,47.39775074760528,8.545607440115145,488.0983,488.09998,0.041857377,1.2342056,1.0928437,nan,2,2,0,0
9900000,9900000,47.39775074651264,8.545607440814413,488.09836,488.10004,0.041857377,1.2344073,1.0930824,nan,2,2,0,0
9908000,9908000,47.39775074541036,8.545607441520016,488.0984,488.10007,0.041857377,1.2346114,1.093324,nan,2,2,0,0
9916000,9916000,47.39775074429802,8.54560744224095,488.09845,488.10013,0.041857377,1.2348179,1.0935683,nan,2,2,0,0
9924000,9924000,47.39775074318472,8.545607442982138,488.09848,488.10016,0.041857377,1.235027,1.0938156,nan,2,2,0,0
9932000,9932000,47.397750742071246,8.545607443722597,488.09854,488.10022,0.041857377,1.2352383,1.0940655,nan,2,2,0,0
9940000,9940000,47.397750740958614,8.54560744446605,488.09854,488.10022,0.041857377,1.2354523,1.0928878,nan,2,2,0,0
9948000,9948000,47.39775073985463,8.545607445216902,488.09854,488.10022,0.041857377,1.2356687,1.0931396,nan,2,2,0,0
9956000,9956000,47.39775073875314,8.545607445974102,488.09857,488.10025,0.041857377,1.2358874,1.0933944,nan,2,2,0,0
9964000,9964000,47.39775073764684,8.5456074467229,488.09857,488.10025,0.041857377,1.2361087,1.093652,nan,2,2,0,0
9972000,9972000,47.39775073653022,8.54560744747259,488.0986,488.10028,0.041857377,1.2363324,1.0939124,nan,2,2,0,0
9980000,9980000,47.39775073539771,8.54560744821879,488.0986,488.10028,0.041857377,1.2365587,1.0941755,nan,2,2,0,0
9988000,9988000,47.39775073425862,8.545607448961068,488.09863,488.1003,0.041857377,1.2367874,1.0944414,nan,2,2,0,0
9996000,9996000,47.39775073310354,8.545607449701142,488.09863,488.1003,0.041857377,1.2370186,1.0947102,nan,2,2,0,0
10004000,10004000,47.397750731934586,8.545607450455535,488.0986,488.10028,0.041857377,1.2372522,1.0935313,nan,2,2,0,0
10012000,10012000,47.397750730760016,8.545607451216174,488.0986,488.10028,0.041857377,1.2374885,1.0938016,nan,2,2,0,0
10020000,10020000,47.397750729568514,8.545607451973275,488.09857,488.10025,0.041857377,1.2377272,1.0940748,nan,2,2,0,0
10028000,10028000,47.397750728371506,8.545607452736773,488.09854,488.10022,0.041857377,1.2379683,1.0943508,nan,2,2,0,0
10036000,10036000,47.39775072718522,8.54560745351961,488.0985,488.1002,0.041857377,1.238212,1.0946295,nan,2,2,0,0
10044000,10044000,47.39775072599672,8.545607454307223,488.0985,488.1002,0.041857377,1.2384583,1.0949111,nan,2,2,0,0
10052000,10052000,47.39775072480389,8.545607455081969,488.09848,488.10016,0.041857377,1.238707,1.0951955,nan,2,2,0,0
10060000,10060000,47.39775072359942,8.545607455873443,488.09845,488.10013,0.041857377,1.2389582,1.094017,nan,2,2,0,0
10068000,10068000,47.39775072239409,8.545607456680905,488.09842,488.1001,0.041857377,1.2392119,1.0943028,nan,2,2,0,0
10076000,10076000,47.39775072119566,8.54560745748355,488.09842,488.1001,0.041857377,1.2394682,1.0945913,nan,2,2,0,0
10084000,10084000,47.39775071999901,8.545607458291036,488.0984,488.10007,0.041857377,1.2397271,1.0948825,nan,2,2,0,0
10092000,10092000,47.397750718806044,8.545607459105748,488.09836,488.10004,0.041857377,1.2399884,1.0951767,nan,2,2,0,0
10100000,10100000,47.397750717626046,8.545607459933414,488.09833,488.1,0.041857377,1.2402525,1.0954735,nan,2,2,0,0
10108000,10108000,47.397750716455946,8.545607460771263,488.0983,488.09998,0.041857377,1.2405189,1.0957732,nan,2,2,0,0
10116000,10116000,47.39775071529704,8.545607461603977,488.0983,488.09998,0.041857377,1.2407879,1.0960758,nan,2,2,0,0
10124000,10124000,47.39775071414,8.545607462416722,488.09827,488.09995,0.041857377,1.2410595,1.0948879,nan,2,2,0,0
10132000,10132000,47.39775071297819,8.545607463209594,488.09827,488.09995,0.041857377,1.2413337,1.0951914,nan,2,2,0,0
10140000,10140000,47.3977507118185,8.545607463998582,488.09827,488.09995,0.041857377,1.2416104,1.0954977,nan,2,2,0,0
10148000,10148000,47.39775071066357,8.54560746480077,488.09824,488.0999,0.041857377,1.2418897,1.0958067,nan,2,2,0,0
10156000,10156000,47.39775070951543,8.545607465593383,488.09824,488.0999,0.041857377,1.2421716,1.0961186,nan,2,2,0,0
10164000,10164000,47.39775070837297,8.545607466373783,488.09824,488.0999,0.041857377,1.2424561,1.0964333,nan,2,2,0,0
10172000,10172000,47.39775070723035,8.545607467167619,488.09824,488.0999,0.041857377,1.2427431,1.0967506,nan,2,2,0,0
10180000,10180000,47.39775070608874,8.54560746797899,488.0982,488.09988,0.041857377,1.2430328,1.0955565,nan,2,2,0,0
10188000,10188000,47.39775070495082,8.545607468796844,488.0982,488.09988,0.041857377,1.2433251,1.0958747,nan,2,2,0,0
10196000,10196000,47.39775070381435,8.545607469609068,488.0982,488.09988,0.041857377,1.24362,1.0961957,nan,2,2,0,0
10204000,10204000,47.39775070529432,8.545607470893943,488.09818,488.0995,0.041857377,1.1934612,1.0783315,nan,2,2,0,0
10212000,10212000,47.3977507067348,8.54560747216063,488.09814,488.09946,0.041857377,1.1936542,1.0785556,nan,2,2,0,0
10220000,10220000,47.39775070813397,8.545607473408468,488.0981,488.09943,0.041857377,1.1938492,1.078782,nan,2,2,0,0
10228000,10228000,47.39775070950301,8.545607474644529,488.09808,488.0994,0.041857377,1.1940465,1.0790104,nan,2,2,0,0
10236000,10236000,47.39775071083568,8.545607475871769,488.09805,488.09937,0.041857377,1.1942457,1.0792412,nan,2,2,0,0
10244000,10244000,47.39775071213419,8.545607477096224,488.0981,488.09943,0.041857377,1.1944472,1.078457,nan,2,2,0,0
10252000,10252000,47.397750713401464,8.545607478305014,488.09818,488.0995,0.041857377,1.1946507,1.0786893,nan,2,2,0,0
10260000,10260000,47.3977507146352,8.54560747948547,488.0982,488.09952,0.041857377,1.1948563,1.0789238,nan,2,2,0,0
10268000,10268000,47.397750715833304,8.545607480664465,488.09827,488.09958,0.041857377,1.1950642,1.0791607,nan,2,2,0,0
10276000,10276000,47.397750717005,8.545607481855797,488.09833,488.09964,0.041857377,1.195274,1.0793997,nan,2,2,0,0
10284000,10284000,47.397750718152174,8.545607483066863,488.09836,488.09967,0.041857377,1.1954861,1.079641,nan,2,2,0,0
10292000,10292000,47.3977507192747,8.545607484284947,488.09842,488.09973,0.041857377,1.1957003,1.0798844,nan,2,2,0,0
10300000,10300000,47.39775072036905,8.54560748551461,488.09845,488.09976,0.041857377,1.1959167,1.0790963,nan,2,2,0,0
10308000,10308000,47.39775072143821,8.545607486768466,488.09845,488.09976,0.041857377,1.196135,1.0793412,nan,2,2,0,0
10316000,10316000,47.397750722481476,8.545607488020277,488.09848,488.0998,0.041857377,1.1963558,1.0795883,nan,2,2,0,0
10324000,10324000,47.39775072349532,8.545607489266732,488.0985,488.09982,0.041857377,1.1965786,1.0798377,nan,2,2,0,0
10332000,10332000,47.39775072447786,8.545607490495653,488.09854,488.09985,0.041857377,1.1968036,1.0800893,nan,2,2,0,0
10340000,10340000,47.39775072542781,8.545607491713527,488.09857,488.09988,0.041857377,1.1970308,1.080343,nan,2,2,0,0
10348000,10348000,47.39775072635299,8.54560749292609,488.09857,488.09988,0.041857377,1.1972601,1.0805991,nan,2,2,0,0
10356000,10356000,47.39775072725356,8.545607494116629,488.0986,488.0999,0.041857377,1.1974918,1.0808574,nan,2,2,0,0
10364000,10364000,47.397750728119235,8.545607495285292,488.09863,488.09995,0.041857377,1.1977255,1.0800586,nan,2,2,0,0
10372000,10372000,47.397750728957476,8.545607496451705,488.09866,488.09998,0.041857377,1.1979616,1.080318,nan,2,2,0,0
10380000,10380000,47.39775072977303,8.545607497633657,488.0987,488.1,0.041857377,1.1981997,1.0805796,nan,2,2,0,0
10388000,10388000,47.39775073056776,8.545607498825559,488.0987,488.1,0.041857377,1.1984402,1.0808434,nan,2,2,0,0
10396000,10396000,47.39775073133794,8.545607500004504,488.09872,488.10004,0.041857377,1.1986828,1.0811096,nan,2,2,0,0
10404000,10404000,47.3977507320777,8.545607501174652,488.09875,488.10007,0.041857377,1.1989278,1.081378,nan,2,2,0,0
10412000,10412000,47.39775073280067,8.545607502342227,488.09875,488.10007,0.041857377,1.1991749,1.0816486,nan,2,2,0,0
10420000,10420000,47.39775073350223,8.545607503506089,488.0988,488.1001,0.041857377,1.1994241,1.0808411,nan,2,2,0,0
10428000,10428000,47.397750734181386,8.545607504644165,488.0988,488.1001,0.041857377,1.1996759,1.0811126,nan,2,2,0,0
10436000,10436000,47.397750734842234,8.545607505755182,488.09882,488.10013,0.041857377,1.1999298,1.0813864,nan,2,2,0,0
10444000,10444000,47.39775073546752,8.545607506855754,488.09882,488.10013,0.041857377,1.2001859,1.0816624,nan,2,2,0,0
10452000,10452000,47.397750736067266,8.545607507932967,488.09882,488.10013,0.041857377,1.2004443,1.0819405,nan,2,2,0,0
10460000,10460000,47.39775073664532,8.545607508984727,488.09882,488.10013,0.041857377,1.2007052,1.082221,nan,2,2,0,0
10468000,10468000,47.39775073718881,8.54560751004057,488.09882,488.10013,0.041857377,1.2009681,1.0825037,nan,2,2,0,0
10476000,10476000,47.39775073770717,8.545607511088717,488.09885,488.10016,0.041857377,1.2012335,1.0827885,nan,2,2,0,0
10484000,10484000,47.39775073820048,8.545607512135577,488.09882,488.10013,0.041857377,1.2015011,1.081965,nan,2,2,0,0
10492000,10492000,47.397750738673075,8.545607513202928,488.0988,488.1001,0.041857377,1.201771,1.0822506,nan,2,2,0,0
10500000,10500000,47.39775073912649,8.545607514295197,488.09875,488.10007,0.041857377,1.2020433,1.0825384,nan,2,2,0,0
10508000,10508000,47.39775073955974,8.545607515384473,488.09872,488.10004,0.041857377,1.202318,1.0828285,nan,2,2,0,0
10516000,10516000,47.3977507399704,8.545607516473849,488.0987,488.1,0.041857377,1.2025949,1.0831207,nan,2,2,0,0
10524000,10524000,47.39775074035187,8.545607517562928,488.09866,488.09998,0.041857377,1.2028742,1.0834153,nan,2,2,0,0
10532000,10532000,47.39775074071486,8.545607518636489,488.09863,488.09995,0.041857377,1.2031558,1.083712,nan,2,2,0,0
10540000,10540000,47.39775074106857,8.54560751970921,488.09863,488.09995,0.041857377,1.2034398,1.0828753,nan,2,2,0,0
10548000,10548000,47.39775074141321,8.545607520794057,488.09863,488.09995,0.041857377,1.2037262,1.0831724,nan,2,2,0,0
10556000,10556000,47.39775074174689,8.545607521876526,488.0986,488.0999,0.041857377,1.2040149,1.0834719,nan,2,2,0,0
10564000,10564000,47.39775074206317,8.545607522976667,488.0986,488.0999,0.041857377,1.2043061,1.0837735,nan,2,2,0,0
10572000,10572000,47.39775074234738,8.545607524086755,488.09857,488.09988,0.041857377,1.2045996,1.0840774,nan,2,2,0,0
10580000,10580000,47.397750742604046,8.545607525202756,488.09857,488.09988,0.041857377,1.2048955,1.0843835,nan,2,2,0,0
10588000,10588000,47.39775074283381,8.545607526321332,488.09854,488.09985,0.041857377,1.2051939,1.0846918,nan,2,2,0,0
10596000,10596000,47.39775074304057,8.545607527440083,488.0985,488.09982,0.041857377,1.2054946,1.08384,nan,2,2,0,0
10604000,10604000,47.39775074382709,8.54560752708952,488.09857,488.09982,0.041857377,1.1679131,1.069526,nan,2,2,0,0
10612000,10612000,47.39775074457954,8.545607526763606,488.09866,488.0999,0.041857377,1.1681206,1.0697527,nan,2,2,0,0
10620000,10620000,47.39775074531883,8.545607526471446,488.09872,488.09998,0.041857377,1.1683302,1.0699813,nan,2,2,0,0
10628000,10628000,47.397750746037524,8.545607526232766,488.0988,488.10004,0.041857377,1.1685416,1.0702118,nan,2,2,0,0
10636000,10636000,47.39775074672591,8.545607526043725,488.09885,488.1001,0.041857377,1.168755,1.070444,nan,2,2,0,0
10644000,10644000,47.39775074738607,8.545607525887846,488.09894,488.1002,0.041857377,1.1689705,1.0706781,nan,2,2,0,0
10652000,10652000,47.39775074801544,8.545607525773688,488.09894,488.1002,0.041857377,1.1691879,1.0701036,nan,2,2,0,0
10660000,10660000,47.39775074863009,8.545607525681284,488.09897,488.10022,0.041857377,1.1694074,1.0703388,nan,2,2,0,0
10668000,10668000,47.39775074924491,8.545607525614518,488.099,488.10025,0.041857377,1.1696287,1.0705758,nan,2,2,0,0
10676000,10676000,47.39775074985364,8.545607525581481,488.09903,488.10028,0.041857377,1.1698521,1.0708146,nan,2,2,0,0
10684000,10684000,47.39775075045732,8.54560752559707,488.09903,488.10028,0.041857377,1.1700777,1.0710553,nan,2,2,0,0
10692000,10692000,47.39775075105252,8.545607525636989,488.09906,488.1003,0.041857377,1.1703051,1.0712978,nan,2,2,0,0
10700000,10700000,47.397750751623576,8.545607525697543,488.09906,488.1003,0.041857377,1.1705346,1.0715421,nan,2,2,0,0
10708000,10708000,47.39775075216178,8.54560752579752,488.0991,488.10034,0.041857377,1.1707662,1.070958,nan,2,2,0,0
10716000,10716000,47.39775075267676,8.545607525915612,488.09912,488.10037,0.041857377,1.1709999,1.0712032,nan,2,2,0,0
10724000,10724000,47.397750753180404,8.545607526045481,488.09912,488.10037,0.041857377,1.1712356,1.0714504,nan,2,2,0,0
10732000,10732000,47.39775075368166,8.54560752621267,488.09915,488.1004,0.041857377,1.1714734,1.0716993,nan,2,2,0,0
10740000,10740000,47.397750754187314,8.54560752640426,488.09918,488.10043,0.041857377,1.1717132,1.0719501,nan,2,2,0,0
10748000,10748000,47.39775075468198,8.54560752661713,488.09918,488.10043,0.041857377,1.1719552,1.0722027,nan,2,2,0,0
10756000,10756000,47.39775075514844,8.545607526866627,488.09918,488.10043,0.041857377,1.1721992,1.0724571,nan,2,2,0,0
10764000,10764000,47.397750755595794,8.545607527138964,488.0992,488.10046,0.041857377,1.1724454,1.0727134,nan,2,2,0,0
10772000,10772000,47.39775075601759,8.5456075274214,488.0992,488.10046,0.041857377,1.1726937,1.0721138,nan,2,2,0,0
10780000,10780000,47.39775075641961,8.54560752771982,488.0992,488.10046,0.041857377,1.1729442,1.0723708,nan,2,2,0,0
10788000,10788000,47.397750756801045,8.545607528034648,488.0992,488.10046,0.041857377,1.1731968,1.0726297,nan,2,2,0,0
10796000,10796000,47.39775075715866,8.545607528372514,488.0992,488.10046,0.041857377,1.1734515,1.0728903,nan,2,2,0,0
10804000,10804000,47.39775075749423,8.545607528735772,488.0992,488.10046,0.041857377,1.1737084,1.0731529,nan,2,2,0,0
10812000,10812000,47.39775075782763,8.545607529125185,488.0992,488.10046,0.041857377,1.1739674,1.0734172,nan,2,2,0,0
10820000,10820000,47.397750758148426,8.545607529546622,488.09918,488.10043,0.041857377,1.1742287,1.0736834,nan,2,2,0,0
10828000,10828000,47.39775075844764,8.545607529985034,488.09915,488.1004,0.041857377,1.1744921,1.0730708,nan,2,2,0,0
10836000,10836000,47.39775075872041,8.545607530423077,488.09912,488.10037,0.041857377,1.1747577,1.0733374,nan,2,2,0,0
10844000,10844000,47.39775075896272,8.5456075308679,488.0991,488.10034,0.041857377,1.1750255,1.0736061,nan,2,2,0,0
10852000,10852000,47.39775075919334,8.545607531311557,488.09906,488.1003,0.041857377,1.1752956,1.0738766,nan,2,2,0,0
10860000,10860000,47.397750759429364,8.545607531761132,488.09903,488.10028,0.041857377,1.1755679,1.0741489,nan,2,2,0,0
10868000,10868000,47.39775075963828,8.545607532226692,488.099,488.10025,0.041857377,1.1758423,1.0744231,nan,2,2,0,0
10876000,10876000,47.397750759820696,8.545607532703807,488.09897,488.10022,0.041857377,1.1761191,1.074699,nan,2,2,0,0
10884000,10884000,47.39775075999457,8.54560753319815,488.09894,488.1002,0.041857377,1.1763982,1.0749768,nan,2,2,0,0
10892000,10892000,47.39775076016999,8.545607533703228,488.0989,488.10016,0.041857377,1.1766794,1.0743446,nan,2,2,0,0
10900000,10900000,47.397750760342255,8.54560753421588,488.0989,488.10016,0.041857377,1.176963,1.0746228,nan,2,2,0,0
10908000,10908000,47.397750760508785,8.545607534723064,488.09888,488.10013,0.041857377,1.1772488,1.0749028,nan,2,2,0,0
10916000,10916000,47.39775076067122,8.54560753523792,488.09888,488.10013,0.041857377,1.177537,1.0751847,nan,2,2,0,0
10924000,10924000,47.397750760819136,8.545607535767969,488.09885,488.1001,0.041857377,1.1778275,1.0754683,nan,2,2,0,0
10932000,10932000,47.39775076095475,8.545607536302004,488.09885,488.1001,0.041857377,1.1781203,1.0757539,nan,2,2,0,0
10940000,10940000,47.39775076107235,8.545607536840715,488.09882,488.10007,0.041857377,1.1784154,1.0760412,nan,2,2,0,0
10948000,10948000,47.39775076118202,8.545607537377943,488.09882,488.10007,0.041857377,1.1787128,1.0753926,nan,2,2,0,0
10956000,10956000,47.39775076129325,8.545607537911257,488.09885,488.1001,0.041857377,1.1790128,1.0756803,nan,2,2,0,0
10964000,10964000,47.39775076139993,8.545607538453186,488.09885,488.1001,0.041857377,1.179315,1.0759697,nan,2,2,0,0
10972000,10972000,47.39775076149242,8.545607539003381,488.09885,488.1001,0.041857377,1.1796194,1.0762609,nan,2,2,0,0
10980000,10980000,47.39775076157448,8.54560753955246,488.09885,488.1001,0.041857377,1.1799265,1.0765541,nan,2,2,0,0
10988000,10988000,47.39775076166387,8.5456075401079,488.09888,488.10013,0.041857377,1.1802359,1.076849,nan,2,2,0,0
10996000,10996000,47.39775076173728,8.545607540691229,488.09888,488.10013,0.041857377,1.1805477,1.0771458,nan,2,2,0,0
11004000,11004000,47.39775076223001,8.54560753984566,488.09894,488.10004,0.041857377,1.1501592,1.0646143,nan,2,2,0,0
11012000,11012000,47.397750762705314,8.545607539022138,488.09897,488.10007,0.041857377,1.1503806,1.0641644,nan,2,2,0,0
11020000,11020000,47.39775076317515,8.545607538205893,488.099,488.1001,0.041857377,1.150604,1.0643914,nan,2,2,0,0
11028000,11028000,47.39775076363264,8.545607537401278,488.09903,488.10013,0.041857377,1.1508293,1.06462,nan,2,2,0,0
11036000,11036000,47.39775076407089,8.545607536617426,488.09906,488.10016,0.041857377,1.1510565,1.0648502,nan,2,2,0,0
11044000,11044000,47.39775076449064,8.545607535869777,488.0991,488.1002,0.041857377,1.1512858,1.065082,nan,2,2,0,0
11052000,11052000,47.39775076490046,8.545607535143585,488.09912,488.10022,0.041857377,1.1515172,1.0653152,nan,2,2,0,0
11060000,11060000,47.39775076529843,8.545607534449392,488.09915,488.10025,0.041857377,1.1517503,1.0655502,nan,2,2,0,0
11068000,11068000,47.39775076568429,8.545607533790486,488.09918,488.10028,0.041857377,1.1519856,1.065089,nan,2,2,0,0
11076000,11076000,47.39775076605181,8.545607533146352,488.09918,488.10028,0.041857377,1.1522229,1.0653247,nan,2,2,0,0
11084000,11084000,47.39775076640204,8.54560753252766,488.09918,488.10028,0.041857377,1.1524622,1.0655617,nan,2,2,0,0
11092000,11092000,47.39775076674138,8.54560753194364,488.0992,488.1003,0.041857377,1.1527036,1.0658003,nan,2,2,0,0
11100000,11100000,47.39775076707471,8.545607531425144,488.0992,488.1003,0.041857377,1.1529471,1.0660406,nan,2,2,0,0
11108000,11108000,47.39775076737874,8.545607530971687,488.0992,488.1003,0.041857377,1.1531924,1.0662824,nan,2,2,0,0
11116000,11116000,47.39775076765685,8.545607530574031,488.0992,488.1003,0.041857377,1.15344,1.0665257,nan,2,2,0,0
11124000,11124000,47.39775076792515,8.545607530238392,488.0992,488.1003,0.041857377,1.1536896,1.0667707,nan,2,2,0,0
11132000,11132000,47.39775076818151,8.545607529945292,488.09924,488.10034,0.041857377,1.1539415,1.0662935,nan,2,2,0,0
11140000,11140000,47.39775076842979,8.545607529678225,488.09924,488.10034,0.041857377,1.1541953,1.0665389,nan,2,2,0,0
11148000,11148000,47.39775076866498,8.545607529416753,488.09927,488.10037,0.041857377,1.1544513,1.0667859,nan,2,2,0,0
11156000,11156000,47.39775076888295,8.545607529150328,488.09927,488.10037,0.041857377,1.1547093,1.0670345,nan,2,2,0,0
11164000,11164000,47.39775076909261,8.545607528896081,488.0993,488.1004,0.041857377,1.1549697,1.0672846,nan,2,2,0,0
11172000,11172000,47.39775076928974,8.545607528658758,488.0993,488.1004,0.041857377,1.1552322,1.0675364,nan,2,2,0,0
11180000,11180000,47.397750769482506,8.545607528430843,488.0993,488.1004,0.041857377,1.1554967,1.0677896,nan,2,2,0,0
11188000,11188000,47.39775076966727,8.545607528198497,488.09927,488.10037,0.041857377,1.1557636,1.0672985,nan,2,2,0,0
11196000,11196000,47.397750769851704,8.545607527969663,488.09927,488.10037,0.041857377,1.1560326,1.0675522,nan,2,2,0,0
11204000,11204000,47.397750770027855,8.545607527763968,488.09924,488.10034,0.041857377,1.1563038,1.0678076,nan,2,2,0,0
11212000,11212000,47.39775077018716,8.545607527580966,488.0992,488.1003,0.041857377,1.1565772,1.0680643,nan,2,2,0,0
11220000,11220000,47.3977507703362,8.545607527420358,488.09918,488.10028,0.041857377,1.1568528,1.0683228,nan,2,2,0,0
11228000,11228000,47.397750770481004,8.545607527294969,488.09915,488.10025,0.041857377,1.1571307,1.0685827,nan,2,2,0,0
11236000,11236000,47.39775077062969,8.545607527190315,488.09912,488.10022,0.041857377,1.1574109,1.0688442,nan,2,2,0,0
11244000,11244000,47.39775077077538,8.545607527106522,488.0991,488.1002,0.041857377,1.1576933,1.0691073,nan,2,2,0,0
11252000,11252000,47.39775077091194,8.545607527028693,488.09903,488.10013,0.041857377,1.157978,1.0685968,nan,2,2,0,0
11260000,11260000,47.3977507710364,8.545607526970539,488.09897,488.10007,0.041857377,1.1582651,1.0688602,nan,2,2,0,0
11268000,11268000,47.397750771164105,8.545607526934111,488.09888,488.09998,0.041857377,1.1585544,1.069125,nan,2,2,0,0
11276000,11276000,47.397750771289516,8.54560752691971,488.09882,488.0999,0.041857377,1.158846,1.0693916,nan,2,2,0,0
11284000,11284000,47.397750771409726,8.545607526927505,488.09875,488.09985,0.041857377,1.1591401,1.0696597,nan,2,2,0,0
11292000,11292000,47.397750771513174,8.54560752694547,488.09866,488.09976,0.041857377,1.1594365,1.0699292,nan,2,2,0,0
11300000,11300000,47.39775077160695,8.54560752696987,488.0986,488.0997,0.041857377,1.1597352,1.0702006,nan,2,2,0,0
11308000,11308000,47.397750771708594,8.545607527015354,488.09854,488.09964,0.041857377,1.1600362,1.0696735,nan,2,2,0,0
11316000,11316000,47.39775077181588,8.545607527069006,488.09845,488.09955,0.041857377,1.1603397,1.0699449,nan,2,2,0,0
11324000,11324000,47.397750771927406,8.545607527127038,488.0984,488.0995,0.041857377,1.1606456,1.0702178,nan,2,2,0,0
11332000,11332000,47.39775077204424,8.545607527193011,488.0983,488.0994,0.041857377,1.160954,1.0704923,nan,2,2,0,0
11340000,11340000,47.397750772159256,8.545607527250374,488.09824,488.09933,0.041857377,1.1612648,1.0707684,nan,2,2,0,0
11348000,11348000,47.397750772265816,8.54560752729764,488.09814,488.09924,0.041857377,1.1615779,1.071046,nan,2,2,0,0
11356000,11356000,47.397750772378046,8.545607527353074,488.09805,488.09915,0.041857377,1.1618936,1.0713251,nan,2,2,0,0
11364000,11364000,47.397750772493424,8.545607527444586,488.09796,488.09906,0.041857377,1.1622118,1.0716059,nan,2,2,0,0
11372000,11372000,47.397750772591664,8.545607527586238,488.09787,488.09897,0.041857377,1.1625324,1.0710562,nan,2,2,0,0
11380000,11380000,47.39775077267681,8.545607527754514,488.09778,488.09888,0.041857377,1.1628555,1.071337,nan,2,2,0,0
11388000,11388000,47.39775077275145,8.545607527953182,488.0977,488.0988,0.041857377,1.1631812,1.0716194,nan,2,2,0,0
11396000,11396000,47.39775077280534,8.545607528186865,488.0976,488.0987,0.041857377,1.1635094,1.0719032,nan,2,2,0,0
11404000,11404000,47.39775077186904,8.545607527318849,488.09766,488.09937,0.041857377,1.1374297,1.0607746,nan,2,2,0,0
11412000,11412000,47.397750770944775,8.54560752646724,488.09772,488.09943,0.041857377,1.1376659,1.0609986,nan,2,2,0,0
11420000,11420000,47.397750770041455,8.545607525647407,488.09778,488.0995,0.041857377,1.137904,1.061224,nan,2,2,0,0
11428000,11428000,47.39775076916106,8.545607524862193,488.09778,488.0995,0.041857377,1.1381443,1.0608419,nan,2,2,0,0
11436000,11436000,47.39775076828631,8.545607524104721,488.0978,488.09952,0.041857377,1.1383865,1.0610678,nan,2,2,0,0
11444000,11444000,47.39775076742133,8.545607523381697,488.0978,488.09952,0.041857377,1.1386309,1.0612952,nan,2,2,0,0
11452000,11452000,47.39775076657076,8.545607522693961,488.09784,488.09955,0.041857377,1.1388772,1.0615237,nan,2,2,0,0
11460000,11460000,47.397750765721746,8.545607522027506,488.09784,488.09955,0.041857377,1.1391257,1.0617536,nan,2,2,0,0
11468000,11468000,47.39775076486847,8.545607521401168,488.09784,488.09955,0.041857377,1.1393763,1.061985,nan,2,2,0,0
11476000,11476000,47.39775076401769,8.545607520814842,488.09784,488.09955,0.041857377,1.139629,1.0615938,nan,2,2,0,0
11484000,11484000,47.397750763170734,8.545607520263934,488.0978,488.09952,0.041857377,1.1398839,1.0618255,nan,2,2,0,0
11492000,11492000,47.39775076232045,8.54560751973955,488.09778,488.0995,0.041857377,1.1401408,1.0620587,nan,2,2,0,0
11500000,11500000,47.39775076148489,8.545607519257805,488.09775,488.09946,0.041857377,1.1403999,1.062293,nan,2,2,0,0
11508000,11508000,47.3977507606668,8.545607518809396,488.09772,488.09943,0.041857377,1.1406612,1.062529,nan,2,2,0,0
11516000,11516000,47.397750759862134,8.545607518373357,488.0977,488.0994,0.041857377,1.1409248,1.0627662,nan,2,2,0,0
11524000,11524000,47.39775075906976,8.545607517949966,488.09766,488.09937,0.041857377,1.1411905,1.0630047,nan,2,2,0,0
11532000,11532000,47.397750758290684,8.545607517545406,488.09763,488.09933,0.041857377,1.1414584,1.0632447,nan,2,2,0,0
11540000,11540000,47.397750757529664,8.545607517164383,488.09756,488.09927,0.041857377,1.1417285,1.0628365,nan,2,2,0,0
11548000,11548000,47.39775075678733,8.545607516791152,488.09753,488.09924,0.041857377,1.1420009,1.0630767,nan,2,2,0,0
11556000,11556000,47.39775075604823,8.545607516438684,488.09747,488.09918,0.041857377,1.1422756,1.0633185,nan,2,2,0,0
11564000,11564000,47.397750755313496,8.545607516102303,488.0974,488.09912,0.041857377,1.1425525,1.0635614,nan,2,2,0,0
11572000,11572000,47.397750754597816,8.545607515773815,488.09735,488.09906,0.041857377,1.1428317,1.0638058,nan,2,2,0,0
11580000,11580000,47.397750753896766,8.54560751544884,488.0973,488.099,0.041857377,1.1431131,1.0640515,nan,2,2,0,0
11588000,11588000,47.39775075319883,8.545607515141684,488.09723,488.09894,0.041857377,1.143397,1.0642986,nan,2,2,0,0
11596000,11596000,47.39775075249996,8.545607514856652,488.09717,488.09888,0.041857377,1.1436831,1.0638759,nan,2,2,0,0
11604000,11604000,47.39775075179493,8.545607514572263,488.0971,488.09882,0.041857377,1.1439716,1.0641232,nan,2,2,0,0
11612000,11612000,47.397750751092246,8.545607514281068,488.09705,488.09875,0.041857377,1.1442624,1.0643718,nan,2,2,0,0
11620000,11620000,47.397750750391566,8.545607514004226,488.097,488.0987,0.041857377,1.1445557,1.0646219,nan,2,2,0,0
11628000,11628000,47.39775074968589,8.545607513747132,488.09692,488.09863,0.041857377,1.1448513,1.0648735,nan,2,2,0,0
11636000,11636000,47.397750748980236,8.545607513516815,488.09683,488.09854,0.041857377,1.1451494,1.0651262,nan,2,2,0,0
11644000,11644000,47.39775074827809,8.545607513311367,488.09677,488.09848,0.041857377,1.1454498,1.0653803,nan,2,2,0,0
11652000,11652000,47.39775074757951,8.545607513131657,488.09668,488.0984,0.041857377,1.1457527,1.0656359,nan,2,2,0,0
11660000,11660000,47.397750746885954,8.545607512961302,488.09662,488.09833,0.041857377,1.146058,1.0651935,nan,2,2,0,0
11668000,11668000,47.39775074619274,8.545607512785946,488.09656,488.09827,0.041857377,1.1463659,1.0654492,nan,2,2,0,0
11676000,11676000,47.397750745490285,8.545607512606432,488.09647,488.09818,0.041857377,1.1466761,1.0657063,nan,2,2,0,0
11684000,11684000,47.39775074478658,8.545607512418755,488.0964,488.0981,0.041857377,1.1469889,1.0659647,nan,2,2,0,0
11692000,11692000,47.397750744083346,8.545607512246814,488.0963,488.09802,0.041857377,1.1473043,1.0662245,nan,2,2,0,0
11700000,11700000,47.397750743388016,8.545607512085713,488.09622,488.09793,0.041857377,1.1476221,1.0664856,nan,2,2,0,0
11708000,11708000,47.39775074269725,8.54560751192711,488.09613,488.09784,0.041857377,1.1479425,1.0667483,nan,2,2,0,0
11716000,11716000,47.397750742018566,8.545607511779423,488.09607,488.09778,0.041857377,1.1482655,1.066289,nan,2,2,0,0
11724000,11724000,47.397750741351615,8.545607511631538,488.09598,488.0977,0.041857377,1.148591,1.0665516,nan,2,2,0,0
11732000,11732000,47.397750740697774,8.545607511495529,488.0959,488.0976,0.041857377,1.1489192,1.0668155,nan,2,2,0,0
11740000,11740000,47.39775074004686,8.545607511370484,488.0958,488.0975,0.041857377,1.14925,1.0670807,nan,2,2,0,0
11748000,11748000,47.39775073939613,8.545607511242173,488.0957,488.0974,0.041857377,1.1495835,1.0673474,nan,2,2,0,0
11756000,11756000,47.39775073874164,8.5456075111174,488.0956,488.09732,0.041857377,1.1499195,1.0676155,nan,2,2,0,0
11764000,11764000,47.39775073809102,8.545607511021505,488.09552,488.09723,0.041857377,1.1502583,1.0678849,nan,2,2,0,0
11772000,11772000,47.397750737437896,8.545607510957288,488.09543,488.09714,0.041857377,1.1505997,1.0681558,nan,2,2,0,0
11780000,11780000,47.39775073679098,8.545607510906557,488.09534,488.09705,0.041857377,1.1509439,1.0676742,nan,2,2,0,0
11788000,11788000,47.39775073614596,8.545607510861146,488.09525,488.09695,0.041857377,1.1512908,1.0679449,nan,2,2,0,0
11796000,11796000,47.39775073549841,8.545607510832935,488.09515,488.09686,0.041857377,1.1516403,1.068217,nan,2,2,0,0
11804000,11804000,47.397750735081004,8.545607510018224,488.09518,488.09744,0.041857377,1.1281431,1.0580716,nan,2,2,0,0
11812000,11812000,47.39775073466509,8.545607509236351,488.0952,488.09747,0.041857377,1.1283954,1.0582906,nan,2,2,0,0
11820000,11820000,47.39775073425247,8.545607508479796,488.09525,488.0975,0.041857377,1.12865,1.0585108,nan,2,2,0,0
11828000,11828000,47.39775073384949,8.545607507723734,488.09525,488.0975,0.041857377,1.1289066,1.0587323,nan,2,2,0,0
11836000,11836000,47.39775073345358,8.545607506966904,488.09528,488.09753,0.041857377,1.1291654,1.0583947,nan,2,2,0,0
11844000,11844000,47.39775073306411,8.545607506214134,488.0953,488.09756,0.041857377,1.1294265,1.0586164,nan,2,2,0,0
11852000,11852000,47.397750732671156,8.545607505495205,488.09534,488.0976,0.041857377,1.1296897,1.0588394,nan,2,2,0,0
11860000,11860000,47.39775073226131,8.545607504792361,488.09537,488.09763,0.041857377,1.1299553,1.0590637,nan,2,2,0,0
11868000,11868000,47.39775073183101,8.54560750410173,488.09537,488.09763,0.041857377,1.130223,1.0592891,nan,2,2,0,0
11876000,11876000,47.39775073138417,8.545607503437553,488.0954,488.09766,0.041857377,1.130493,1.0595157,nan,2,2,0,0
11884000,11884000,47.39775073092563,8.545607502786455,488.0954,488.09766,0.041857377,1.1307653,1.0597435,nan,2,2,0,0
11892000,11892000,47.39775073046131,8.545607502142744,488.09543,488.0977,0.041857377,1.13104,1.0599726,nan,2,2,0,0
11900000,11900000,47.39775072998301,8.545607501520214,488.09543,488.0977,0.041857377,1.1313168,1.0596188,nan,2,2,0,0
11908000,11908000,47.397750729497915,8.545607500914045,488.09543,488.0977,0.041857377,1.1315961,1.0598482,nan,2,2,0,0
11916000,11916000,47.39775072900886,8.545607500329588,488.09543,488.0977,0.041857377,1.1318777,1.0600787,nan,2,2,0,0
11924000,11924000,47.39775072851641,8.545607499771773,488.09543,488.0977,0.041857377,1.1321616,1.0603105,nan,2,2,0,0
11932000,11932000,47.397750728032385,8.54560749924437,488.0954,488.09766,0.041857377,1.132448,1.0605434,nan,2,2,0,0
11940000,11940000,47.39775072756048,8.545607498729058,488.0954,488.09766,0.041857377,1.1327367,1.0607777,nan,2,2,0,0
11948000,11948000,47.39775072710755,8.545607498211147,488.09537,488.09763,0.041857377,1.1330278,1.061013,nan,2,2,0,0
11956000,11956000,47.39775072666744,8.545607497696922,488.09534,488.0976,0.041857377,1.1333214,1.0606452,nan,2,2,0,0
11964000,11964000,47.39775072623238,8.545607497179642,488.0953,488.09756,0.041857377,1.1336174,1.0608808,nan,2,2,0,0
11972000,11972000,47.39775072579795,8.54560749666804,488.09525,488.0975,0.041857377,1.1339159,1.0611176,nan,2,2,0,0
11980000,11980000,47.397750725362066,8.545607496177436,488.0952,488.09747,0.041857377,1.1342168,1.0613557,nan,2,2,0,0
11988000,11988000,47.39775072492121,8.54560749570178,488.09515,488.0974,0.041857377,1.1345203,1.061595,nan,2,2,0,0
11996000,11996000,47.39775072447766,8.545607495242123,488.0951,488.09735,0.041857377,1.1348263,1.0618355,nan,2,2,0,0
12004000,12004000,47.39775072403588,8.545607494827923,488.09503,488.0973,0.041857377,1.1351348,1.0620772,nan,2,2,0,0
12012000,12012000,47.39775072359698,8.54560749445952,488.095,488.09726,0.041857377,1.1354458,1.0623201,nan,2,2,0,0
12020000,12020000,47.39775072315187,8.545607494118757,488.0949,488.09717,0.041857377,1.1357595,1.0619339,nan,2,2,0,0
12028000,12028000,47.39775072270129,8.545607493802073,488.09485,488.0971,0.041857377,1.1360757,1.0621768,nan,2,2,0,0
12036000,12036000,47.39775072224872,8.545607493491602,488.09476,488.09702,0.041857377,1.1363945,1.0624211,nan,2,2,0,0
12044000,12044000,47.39775072180021,8.545607493187106,488.09467,488.09692,0.041857377,1.136716,1.0626667,nan,2,2,0,0
12052000,12052000,47.397750721353546,8.545607492896073,488.0946,488.09686,0.041857377,1.13704,1.0629134,nan,2,2,0,0
12060000,12060000,47.39775072090572,8.545607492608825,488.0945,488.09677,0.041857377,1.1373668,1.0631613,nan,2,2,0,0
12068000,12068000,47.397750720460415,8.545607492321354,488.09442,488.09668,0.041857377,1.1376961,1.0634105,nan,2,2,0,0
12076000,12076000,47.39775072002049,8.54560749204001,488.09436,488.09662,0.041857377,1.1380283,1.0630083,nan,2,2,0,0
12084000,12084000,47.397750719592175,8.545607491773364,488.0943,488.09656,0.041857377,1.1383631,1.0632575,nan,2,2,0,0
12092000,12092000,47.3977507191773,8.545607491512582,488.0942,488.09647,0.041857377,1.1387007,1.0635079,nan,2,2,0,0
12100000,12100000,47.39775071876873,8.545607491242745,488.09415,488.0964,0.041857377,1.139041,1.0637596,nan,2,2,0,0
12108000,12108000,47.39775071835726,8.545607490968402,488.09406,488.0963,0.041857377,1.139384,1.0640124,nan,2,2,0,0
12116000,12116000,47.39775071794263,8.545607490719203,488.09396,488.09622,0.041857377,1.13973,1.0642666,nan,2,2,0,0
12124000,12124000,47.397750717549464,8.5456074904876,488.0939,488.09616,0.041857377,1.1400785,1.064522,nan,2,2,0,0
12132000,12132000,47.39775071716446,8.545607490251948,488.0938,488.09607,0.041857377,1.1404301,1.0647787,nan,2,2,0,0
12140000,12140000,47.39775071678088,8.545607490025565,488.09375,488.096,0.041857377,1.1407844,1.0643556,nan,2,2,0,0
12148000,12148000,47.39775071639841,8.545607489811072,488.0937,488.09595,0.041857377,1.1411415,1.064612,nan,2,2,0,0
12156000,12156000,47.39775071601732,8.545607489604178,488.09363,488.0959,0.041857377,1.1415017,1.0648698,nan,2,2,0,0
12164000,12164000,47.39775071564684,8.54560748941853,488.09354,488.0958,0.041857377,1.1418647,1.0651288,nan,2,2,0,0
12172000,12172000,47.39775071528445,8.545607489246589,488.09348,488.09573,0.041857377,1.1422306,1.065389,nan,2,2,0,0
12180000,12180000,47.39775071492233,8.545607489091203,488.0934,488.09567,0.041857377,1.1425995,1.0656506,nan,2,2,0,0
12188000,12188000,47.39775071456027,8.545607488932589,488.09332,488.09558,0.041857377,1.1429713,1.0659133,nan,2,2,0,0
12196000,12196000,47.39775071420777,8.545607488775769,488.09323,488.0955,0.041857377,1.1433461,1.0654724,nan,2,2,0,0
12204000,12204000,47.397750714555464,8.545607488108969,488.0932,488.09567,0.041857377,1.1213193,1.056064,nan,2,2,0,0
12212000,12212000,47.39775071488217,8.545607487470813,488.0932,488.09567,0.041857377,1.1215891,1.0562775,nan,2,2,0,0
12220000,12220000,47.39775071518374,8.545607486837866,488.09317,488.09564,0.041857377,1.1218611,1.0564921,nan,2,2,0,0
12228000,12228000,47.39775071547373,8.545607486228121,488.09314,488.0956,0.041857377,1.1221355,1.0567077,nan,2,2,0,0
12236000,12236000,47.39775071575405,8.545607485647439,488.0931,488.09558,0.041857377,1.1224122,1.0569245,nan,2,2,0,0
12244000,12244000,47.3977507160187,8.545607485074674,488.09308,488.09555,0.041857377,1.1226914,1.0571424,nan,2,2,0,0
12252000,12252000,47.397750716267474,8.545607484518852,488.09305,488.09552,0.041857377,1.1229728,1.0573614,nan,2,2,0,0
12260000,12260000,47.39775071650782,8.545607483983556,488.09305,488.09552,0.041857377,1.1232568,1.0570471,nan,2,2,0,0
12268000,12268000,47.39775071673016,8.545607483459595,488.09302,488.0955,0.041857377,1.1235431,1.0572664,nan,2,2,0,0
12276000,12276000,47.39775071694461,8.545607482935853,488.093,488.09546,0.041857377,1.1238319,1.0574867,nan,2,2,0,0
12284000,12284000,47.39775071715255,8.545607482437195,488.09296,488.09543,0.041857377,1.1241231,1.057708,nan,2,2,0,0
12292000,12292000,47.397750717353034,8.545607481960278,488.09293,488.0954,0.041857377,1.1244167,1.0579306,nan,2,2,0,0
12300000,12300000,47.39775071755308,8.545607481504591,488.09286,488.09534,0.041857377,1.124713,1.0581541,nan,2,2,0,0
12308000,12308000,47.39775071776138,8.545607481083389,488.09283,488.0953,0.041857377,1.1250116,1.0583788,nan,2,2,0,0
12316000,12316000,47.397750717969934,8.545607480681527,488.0928,488.09528,0.041857377,1.1253128,1.0580515,nan,2,2,0,0
12324000,12324000,47.39775071816814,8.545607480284442,488.09274,488.0952,0.041857377,1.1256164,1.0582763,nan,2,2,0,0
12332000,12332000,47.397750718359696,8.545607479887444,488.0927,488.09518,0.041857377,1.1259228,1.0585023,nan,2,2,0,0
12340000,12340000,47.39775071854126,8.545607479485334,488.09265,488.09512,0.041857377,1.1262317,1.0587294,nan,2,2,0,0
12348000,12348000,47.397750718705645,8.545607479093988,488.0926,488.09506,0.041857377,1.1265432,1.0589577,nan,2,2,0,0
12356000,12356000,47.397750718861566,8.545607478720303,488.09253,488.095,0.041857377,1.1268573,1.0591869,nan,2,2,0,0
12364000,12364000,47.39775071900699,8.545607478367216,488.09253,488.095,0.041857377,1.127174,1.0588487,nan,2,2,0,0
12372000,12372000,47.397750719137186,8.545607478017855,488.0925,488.09497,0.041857377,1.1274934,1.0590782,nan,2,2,0,0
12380000,12380000,47.397750719253345,8.545607477679269,488.09247,488.09494,0.041857377,1.1278155,1.0593088,nan,2,2,0,0
12388000,12388000,47.397750719353965,8.545607477355,488.09244,488.0949,0.041857377,1.1281402,1.0595405,nan,2,2,0,0
12396000,12396000,47.39775071944243,8.545607477062383,488.0924,488.09488,0.041857377,1.1284677,1.0597733,nan,2,2,0,0
12404000,12404000,47.39775071950908,8.545607476787039,488.09238,488.09485,0.041857377,1.1287979,1.0600072,nan,2,2,0,0
12412000,12412000,47.397750719551325,8.5456074765087,488.09232,488.0948,0.041857377,1.1291308,1.0602423,nan,2,2,0,0
12420000,12420000,47.39775071957691,8.545607476233306,488.0923,488.09476,0.041857377,1.1294665,1.0604786,nan,2,2,0,0
12428000,12428000,47.39775071959729,8.54560747596207,488.09222,488.0947,0.041857377,1.1298051,1.0601223,nan,2,2,0,0
12436000,12436000,47.397750719606385,8.545607475721644,488.09213,488.0946,0.041857377,1.1301464,1.0603584,nan,2,2,0,0
12444000,12444000,47.39775071958683,8.545607475515972,488.09207,488.09454,0.041857377,1.1304904,1.0605958,nan,2,2,0,0
12452000,12452000,47.39775071953136,8.545607475327689,488.09198,488.09445,0.041857377,1.1308376,1.0608343,nan,2,2,0,0
12460000,12460000,47.39775071944872,8.545607475163246,488.09192,488.0944,0.041857377,1.1311873,1.0610739,nan,2,2,0,0
12468000,12468000,47.39775071934956,8.545607475012538,488.09183,488.0943,0.041857377,1.1315401,1.0613146,nan,2,2,0,0
12476000,12476000,47.397750719237145,8.545607474857551,488.09174,488.0942,0.041857377,1.1318958,1.0615565,nan,2,2,0,0
12484000,12484000,47.39775071910933,8.545607474713314,488.09167,488.09415,0.041857377,1.1322544,1.0611845,nan,2,2,0,0
12492000,12492000,47.39775071895546,8.545607474585719,488.0916,488.0941,0.041857377,1.1326159,1.0614264,nan,2,2,0,0
12500000,12500000,47.39775071878574,8.545607474465278,488.09152,488.094,0.041857377,1.1329805,1.0616693,nan,2,2,0,0
12508000,12508000,47.3977507186072,8.545607474351257,488.09143,488.0939,0.041857377,1.1333479,1.0619135,nan,2,2,0,0
12516000,12516000,47.397750718426245,8.545607474246268,488.09137,488.09384,0.041857377,1.1337184,1.0621587,nan,2,2,0,0
12524000,12524000,47.39775071823595,8.545607474173055,488.09128,488.09375,0.041857377,1.134092,1.0624051,nan,2,2,0,0
12532000,12532000,47.39775071803624,8.545607474120853,488.0912,488.09366,0.041857377,1.1344686,1.0626526,nan,2,2,0,0
12540000,12540000,47.39775071782082,8.545607474059358,488.0911,488.09357,0.041857377,1.1348482,1.0629013,nan,2,2,0,0
12548000,12548000,47.39775071759094,8.545607473978485,488.09103,488.0935,0.041857377,1.135231,1.0625092,nan,2,2,0,0
12556000,12556000,47.39775071734012,8.5456074738904,488.09094,488.0934,0.041857377,1.1356168,1.0627577,nan,2,2,0,0
12564000,12564000,47.397750717065634,8.545607473815615,488.09085,488.09332,0.041857377,1.1360059,1.0630074,nan,2,2,0,0
12572000,12572000,47.39775071677624,8.545607473758128,488.0908,488.09326,0.041857377,1.136398,1.0632582,nan,2,2,0,0
12580000,12580000,47.39775071646926,8.545607473716577,488.0907,488.09317,0.041857377,1.1367933,1.0635102,nan,2,2,0,0
12588000,12588000,47.39775071613688,8.545607473691435,488.0906,488.09308,0.041857377,1.1371918,1.0637633,nan,2,2,0,0
12596000,12596000,47.39775071578697,8.545607473692277,488.0905,488.093,0.041857377,1.1375936,1.0640177,nan,2,2,0,0
12604000,12604000,47.39775071761181,8.545607472147687,488.09042,488.09335,0.041857377,1.1163037,1.0545177,nan,2,2,0,0
12612000,12612000,47.3977507193937,8.545607470653454,488.0903,488.09323,0.041857377,1.1165913,1.0547256,nan,2,2,0,0
12620000,12620000,47.39775072112869,8.545607469209273,488.0902,488.09314,0.041857377,1.1168814,1.0549347,nan,2,2,0,0
12628000,12628000,47.397750722812845,8.54560746781794,488.09012,488.09305,0.041857377,1.1171739,1.0551448,nan,2,2,0,0
12636000,12636000,47.39775072445607,8.545607466454173,488.09,488.09293,0.041857377,1.1174691,1.0553558,nan,2,2,0,0
12644000,12644000,47.397750726067216,8.545607465122503,488.08987,488.0928,0.041857377,1.1177666,1.0555679,nan,2,2,0,0
12652000,12652000,47.39775072763897,8.545607463818932,488.08975,488.09268,0.041857377,1.1180668,1.055781,nan,2,2,0,0
12660000,12660000,47.397750729163974,8.545607462552953,488.08963,488.09256,0.041857377,1.1183695,1.0559951,nan,2,2,0,0
12668000,12668000,47.39775073064281,8.545607461299308,488.08954,488.09247,0.041857377,1.1186748,1.0557013,nan,2,2,0,0
12676000,12676000,47.3977507320673,8.545607460060427,488.08945,488.09238,0.041857377,1.1189827,1.0559156,nan,2,2,0,0
12684000,12684000,47.39775073343235,8.545607458834251,488.08936,488.0923,0.041857377,1.1192931,1.0561309,nan,2,2,0,0
12692000,12692000,47.397750734759946,8.545607457631425,488.08923,488.09216,0.041857377,1.1196063,1.0563473,nan,2,2,0,0
12700000,12700000,47.39775073604929,8.545607456451366,488.08914,488.09207,0.041857377,1.119922,1.0565646,nan,2,2,0,0
12708000,12708000,47.397750737291965,8.545607455280376,488.08902,488.09195,0.041857377,1.1202404,1.0567831,nan,2,2,0,0
