timestamp,timestamp_sample,ref_timestamp,ref_lat,ref_lon,x,y,z,delta_xy[0],delta_xy[1],delta_z,vx,vy,vz,z_deriv,delta_vxy[0],delta_vxy[1],delta_vz,ax,ay,az,heading,delta_heading,ref_alt,dist_bottom,eph,epv,evh,evv,vxy_max,vz_max,hagl_min,hagl_max,xy_valid,z_valid,v_xy_valid,v_z_valid,xy_reset_counter,z_reset_counter,vxy_reset_counter,vz_reset_counter,heading_reset_counter,heading_good_for_control,xy_global,z_global,dist_bottom_valid,dist_bottom_sensor_bitfield,dead_reckoning
3212000,3212000,0,nan,nan,-0.000112399626,-6.056436e-05,-0.0007500235,-3.6619138e-08,1.2283679e-08,0.0,-0.0018926493,-0.0018518508,-0.014730742,-0.016409688,-6.1031897e-06,2.0472798e-06,0.0018590242,0.008929783,-0.040525552,-0.13136397,4.9679817e-05,0.0,nan,0.1,14.172738,10.008659,7.074018,3.1623116,inf,inf,inf,inf,0,0,0,0,1,1,1,1,0,0,0,0,0,0,1
3220000,3220000,0,nan,nan,-0.00012626853,-7.6189935e-05,-0.0008407864,-3.6619138e-08,1.2283679e-08,0.0,-0.0017535116,-0.0023018722,-0.015934857,-0.017525857,-6.1031897e-06,2.0472798e-06,0.0018590242,0.018458711,-0.058100495,-0.16074812,3.4059107e-05,0.0,nan,0.10229047,14.142143,10.0,0.001953125,0.001,inf,inf,inf,inf,0,0,0,0,1,1,1,1,0,0,0,0,0,0,1
3228000,3228000,0,nan,nan,-8.954859e-05,-2.9861225e-05,0.0006875472,-3.6619138e-08,1.2283679e-08,0.0,-0.0014229714,-0.0021405902,-0.012752971,-0.01848847,-6.1031897e-06,2.0472798e-06,0.0018590242,0.00073644327,-0.023355255,-0.142714,1.6276426,0.0,nan,0.10075695,14.142143,10.0,0.01291226,0.0041895034,inf,inf,inf,inf,0,0,0,0,1,1,1,1,0,0,0,0,0,0,1
3236000,3236000,0,nan,nan,-0.00010000439,-4.6286936e-05,0.0005825692,-3.6619138e-08,1.2283679e-08,0.0,-0.0012278764,-0.0019526853,-0.013707199,-0.01926263,-6.1031897e-06,2.0472798e-06,0.0018590242,0.029410817,0.03324037,-0.12284144,1.6276459,0.0,nan,0.100847065,14.142143,10.0,0.022499848,0.0064847944,inf,inf,inf,inf,0,0,0,0,1,1,1,1,0,0,0,0,0,0,1
3244000,3244000,0,nan,nan,-0.000108483786,-6.18707e-05,0.00047022736,-3.6619138e-08,1.2283679e-08,0.0,-0.0010377392,-0.0020356744,-0.014753969,-0.020122468,-6.1031897e-06,2.0472798e-06,0.0018590242,0.0106371725,-0.029630842,-0.13059935,1.6276491,0.0,nan,0.10093566,14.142143,10.0,0.033476,0.008631274,inf,inf,inf,inf,0,0,0,0,1,1,1,1,0,0,0,0,0,0,1
3252000,3252000,0,nan,nan,-0.000115663526,-7.884879e-05,0.00035020182,-3.6619138e-08,1.2283679e-08,0.0,-0.0008881429,-0.002175536,-0.015817506,-0.020994987,-6.1031897e-06,2.0472798e-06,0.0018590242,0.02242952,-0.0023463652,-0.13216305,1.6276432,0.0,nan,0.1010225,14.142143,10.0,0.04486326,0.010719041,inf,inf,inf,inf,0,0,0,0,1,1,1,1,0,0,0,0,0,0,1
3260000,3260000,0,nan,nan,-0.000120081684,-9.5981435e-05,0.00022378618,-3.6619138e-08,1.2283679e-08,0.0,-0.00042548132,-0.00216601,-0.016536564,-0.021521132,-6.1031897e-06,2.0472798e-06,0.0018590242,0.061381225,-0.0056203566,-0.08473172,1.6276462,0.0,nan,0.1011062,14.142143,10.0,0.056392167,0.012776902,inf,inf,inf,inf,0,0,0,0,1,1,1,1,0,0,0,0,0,0,1
3268000,3268000,0,nan,nan,-0.00012110654,-0.00011302531,9.23415e-05,-3.6619138e-08,1.2283679e-08,0.0,-0.00027283453,-0.0021052775,-0.017357487,-0.022148963,-6.1031897e-06,2.0472798e-06,0.0018590242,-0.0071249083,0.011875788,-0.115718685,1.6276491,0.0,nan,0.1011858,14.142143,10.0,0.068016596,0.014817162,inf,inf,inf,inf,0,0,0,0,1,1,1,1,0,0,0,0,0,0,1
3276000,3276000,0,nan,nan,-0.00012043784,-0.00012953984,-4.6000994e-05,-3.6619138e-08,1.2283679e-08,0.0,3.3091565e-06,-0.0020624355,-0.018449988,-0.023049511,-6.1031897e-06,2.0472798e-06,0.0018590242,0.042948388,0.0058731963,-0.14355963,1.6276335,0.0,nan,0.10126364,14.142143,10.0,0.07967322,0.01684638,inf,inf,inf,inf,0,0,0,0,1,1,1,1,0,0,0,0,0,0,1
3284000,3284000,0,nan,nan,-0.00011592545,-0.00014587436,-0.00019267158,-3.6619138e-08,1.2283679e-08,0.0,0.00045779202,-0.0021055753,-0.019642023,-0.024051744,-6.1031897e-06,2.0472798e-06,0.0018590242,0.04662688,-0.012735253,-0.15108007,1.6276201,0.0,nan,0.10134142,14.142143,10.0,0.09138628,0.018868042,inf,inf,inf,inf,0,0,0,0,1,1,1,1,0,0,0,0,0,0,1
3292000,3292000,0,nan,nan,-0.00010703804,-0.00016252468,-0.00034696984,-3.6619138e-08,1.2283679e-08,0.0,0.00089310535,-0.0021503072,-0.02056719,-0.024790024,-6.1031897e-06,2.0472798e-06,0.0018590242,0.036151335,-0.008856397,-0.111705616,1.6276283,0.0,nan,0.10141832,14.142143,10.0,0.10312218,0.020884428,inf,inf,inf,inf,0,0,0,0,1,1,1,1,0,0,0,0,0,0,1
3300000,3300000,0,nan,nan,-9.49703e-05,-0.00017930838,-0.0005078575,-3.6619138e-08,1.2283679e-08,0.0,0.0010751643,-0.0021868048,-0.02158954,-0.025628967,-6.1031897e-06,2.0472798e-06,0.0018590242,0.0065504713,-0.008578062,-0.13627018,1.6276265,0.0,nan,0.10149254,14.142143,10.0,0.11492503,0.022897005,inf,inf,inf,inf,0,0,0,0,1,1,1,1,0,0,0,0,0,0,1
3308000,3308000,0,nan,nan,-8.150827e-05,-0.00019657373,-0.0006808224,-3.6619138e-08,1.2283679e-08,0.0,0.0011801223,-0.0022335239,-0.022822741,-0.026646743,-6.1031897e-06,2.0472798e-06,0.0018590242,0.0047108913,-0.013737167,-0.15559232,1.6276275,0.0,nan,0.10156907,14.142143,10.0,0.12673582,0.02490654,inf,inf,inf,inf,0,0,0,0,1,1,1,1,0,0,0,0,0,0,1
3316000,3316000,0,nan,nan,-6.5344655e-05,-0.00021388974,-0.0008633009,-3.6619138e-08,1.2283679e-08,0.0,0.001570314,-0.0022460239,-0.023895659,-0.027509205,-6.1031897e-06,2.0472798e-06,0.0018590242,0.0452129,0.0013851385,-0.12209266,1.6276333,0.0,nan,0.1016466,14.142143,10.0,0.13854794,0.026913721,inf,inf,inf,inf,0,0,0,0,1,1,1,1,0,0,0,0,0,0,1
3324000,3324000,0,nan,nan,-4.5587025e-05,-0.00023098502,-0.0010539019,-3.6619138e-08,1.2283679e-08,0.0,0.001806134,-0.0023172954,-0.024891214,-0.028299503,-6.1031897e-06,2.0472798e-06,0.0018590242,0.0056717107,-0.019761426,-0.12697464,1.6276315,0.0,nan,0.10172407,14.142143,10.0,0.15039729,0.028919188,inf,inf,inf,inf,0,0,0,0,1,1,1,1,0,0,0,0,0,0,1
3332000,3332000,0,nan,nan,-2.3280012e-05,-0.000247989,-0.0012538035,-3.6619138e-08,1.2283679e-08,0.0,0.0020768058,-0.0022583588,-0.026203714,-0.029412085,-6.1031897e-06,2.0472798e-06,0.0018590242,0.024097549,0.008910093,-0.167883,1.6276377,0.0,nan,0.10180224,14.142143,10.0,0.16227365,0.030923191,inf,inf,inf,inf,0,0,0,0,1,1,1,1,0,0,0,0,0,0,1
3340000,3340000,0,nan,nan,4.5338857e-07,-0.00026372646,-0.0014633862,-3.6619138e-08,1.2283679e-08,0.0,0.0019613742,-0.002117071,-0.027239306,-0.030253174,-6.1031897e-06,2.0472798e-06,0.0018590242,-0.029555768,0.009781375,-0.12107565,1.6276455,0.0,nan,0.10188277,14.142143,10.0,0.17412631,0.03292627,inf,inf,inf,inf,0,0,0,0,1,1,1,1,0,0,0,0,0,0,1
3348000,3348000,0,nan,nan,2.5644733e-05,-0.00027863664,-0.0016814623,-3.6619138e-08,1.2283679e-08,0.0,0.0023314888,-0.0021097942,-0.028310457,-0.031135261,-6.1031897e-06,2.0472798e-06,0.0018590242,0.045592006,-0.0022455058,-0.12817326,1.6276366,0.0,nan,0.10196548,14.142143,10.0,0.18601842,0.034928072,inf,inf,inf,inf,0,0,0,0,1,1,1,1,0,0,0,0,0,0,1
3356000,3356000,0,nan,nan,5.4203418e-05,-0.00029335145,-0.0019072562,-3.6619138e-08,1.2283679e-08,0.0,0.0025965048,-0.0021552378,-0.029140215,-0.03178138,-6.1031897e-06,2.0472798e-06,0.0018590242,0.021593776,-0.012305696,-0.09776744,1.6276395,0.0,nan,0.102048084,14.142144,10.0,0.19797374,0.036929205,inf,inf,inf,inf,0,0,0,0,1,1,1,1,0,0,0,0,0,0,1
3364000,3364000,0,nan,nan,8.443163e-05,-0.000307576,-0.0021396626,-3.6619138e-08,1.2283679e-08,0.0,0.002546084,-0.0020123539,-0.029957475,-0.03242038,-6.1031897e-06,2.0472798e-06,0.0018590242,-0.030653492,0.022128833,-0.101679,1.6276271,0.0,nan,0.10212799,14.142145,10.0,0.20996812,0.038929872,inf,inf,inf,inf,0,0,0,0,1,1,1,1,0,0,0,0,0,0,1
3372000,3372000,0,nan,nan,0.000115114075,-0.0003199566,-0.002379103,-3.6619138e-08,1.2283679e-08,0.0,0.0026836395,-0.0018122746,-0.03086491,-0.033154868,-6.1031897e-06,2.0472798e-06,0.0018590242,0.021463929,0.016163887,-0.11151749,1.6276252,0.0,nan,0.10220631,14.142146,10.0,0.22195046,0.040929962,inf,inf,inf,inf,0,0,0,0,1,1,1,1,0,0,0,0,0,0,1
3380000,3380000,0,nan,nan,0.0001488936,-0.00033109315,-0.0026257809,-3.6619138e-08,1.2283679e-08,0.0,0.0031685429,-0.0017534374,-0.03175355,-0.033875797,-6.1031897e-06,2.0472798e-06,0.0018590242,0.059770316,0.0008062197,-0.11347792,1.62762,0.0,nan,0.10228392,14.142148,10.0,0.23397312,0.042929307,inf,inf,inf,inf,0,0,0,0,1,1,1,1,0,0,0,0,0,0,1
3388000,3388000,0,nan,nan,0.00018672721,-0.00034207499,-0.0028798503,-3.6619138e-08,1.2283679e-08,0.0,0.0035192438,-0.0018204659,-0.03264255,-0.03460222,-6.1031897e-06,2.0472798e-06,0.0018590242,0.029098358,-0.012807242,-0.103642225,1.627621,0.0,nan,0.10235988,14.14215,10.0,0.24604766,0.044928167,inf,inf,inf,inf,0,0,0,0,1,1,1,1,0,0,0,0,0,0,1
3396000,3396000,0,nan,nan,0.00021560016,-0.00035071507,-0.0031300397,-3.6619138e-08,1.2283679e-08,0.0,0.0037811974,-0.0018715392,-0.03359007,-0.035381094,-6.1031897e-06,2.0472798e-06,0.0018590242,0.017257173,-0.009269103,-0.12297462,1.6276125,0.0,nan,0.10277089,0.014084185,7.071068,0.2581264,0.04692696,inf,inf,inf,inf,0,0,0,0,1,1,1,1,0,0,0,0,0,0,1
3404000,3404000,0,nan,nan,0.0002473817,-0.00035983935,-0.00338832,-3.6619138e-08,1.2283679e-08,0.0,0.004122092,-0.0020021051,-0.034532566,-0.036160253,-6.1031897e-06,2.0472798e-06,0.0018590242,0.042147685,-0.027899686,-0.11570285,1.6276077,0.0,nan,0.10283384,0.014305073,7.071068,0.2702224,0.048925314,inf,inf,inf,inf,0,0,0,0,1,1,1,1,0,0,0,0,0,0,1
3412000,3412000,0,nan,nan,0.000283179,-0.0003698997,-0.0036548818,-3.6619138e-08,1.2283679e-08,0.0,0.004573048,-0.0020417944,-0.03556614,-0.037035685,-6.1031897e-06,2.0472798e-06,0.0018590242,0.04661086,0.00518751,-0.12924428,1.6275972,0.0,nan,0.10289596,0.014986232,7.071068,0.2823931,0.050923407,inf,inf,inf,inf,0,0,0,0,1,1,1,1,0,0,0,0,0,0,1
3420000,3420000,0,nan,nan,0.00032252038,-0.00038001055,-0.0039298236,-3.6619138e-08,1.2283679e-08,0.0,0.004850689,-0.0021153162,-0.036536608,-0.037853077,-6.1031897e-06,2.0472798e-06,0.0018590242,0.026423367,-0.01970626,-0.12304354,1.627587,0.0,nan,0.102957204,0.016124312,7.071068,0.294554,0.052920867,inf,inf,inf,inf,0,0,0,0,1,1,1,1,0,0,0,0,0,0,1
3428000,3428000,0,nan,nan,0.000359922,-0.00038924476,-0.0041441508,-3.6619138e-08,1.2283679e-08,0.0,0.005120738,-0.0020927927,-0.03669217,-0.03770405,-6.1031897e-06,2.0472798e-06,0.0018590242,0.044661835,0.001107095,-0.12700444,1.6275879,0.0,nan,0.10510865,0.014086802,7.071067,0.0015239678,0.0011237764,inf,inf,inf,inf,0,0,0,0,1,1,1,1,0,0,0,0,0,0,1
3436000,3436000,0,nan,nan,0.0003986225,-0.0003971681,-0.004351456,-3.6619138e-08,1.2283679e-08,0.0,0.005302415,-0.0018777876,-0.036049526,-0.036763236,-6.1031897e-06,2.0472798e-06,0.0018590242,0.03277903,0.022858307,-0.031537373,1.6331943,0.005594976,nan,0.10531574,0.014086865,7.071067,0.00531678,0.0036242604,inf,inf,inf,inf,0,0,0,0,1,1,1,1,1,0,0,0,0,0,1
3444000,3444000,0,nan,nan,0.00043781838,-0.0004032742,-0.0045479164,-3.6619138e-08,1.2283679e-08,0.0,0.0053914045,-0.0017388915,-0.03526967,-0.0356915,-6.1031897e-06,2.0472798e-06,0.0018590242,0.02144849,0.008188144,-0.019941477,1.6332169,0.005594976,nan,0.10551199,0.014086908,7.071067,0.008334833,0.0050792997,inf,inf,inf,inf,0,0,0,0,1,1,1,1,1,0,0,0,0,0,1
3452000,3452000,0,nan,nan,0.00047692514,-0.00040843352,-0.0047339234,-3.6619138e-08,1.2283679e-08,0.0,0.0054338477,-0.0017533374,-0.034679215,-0.034815334,-6.1031897e-06,2.0472798e-06,0.0018590242,0.015204422,-0.02015184,-0.033706423,1.633245,0.005594976,nan,0.105697505,0.014087271,7.071067,0.012135111,0.0062654084,inf,inf,inf,inf,0,0,0,0,1,1,1,1,1,0,0,0,0,0,1
3460000,3460000,0,nan,nan,0.000515126,-0.00041322535,-0.0049098143,-3.6619138e-08,1.2283679e-08,0.0,0.0053201225,-0.0016096267,-0.0340817,-0.03393815,-6.1031897e-06,2.0472798e-06,0.0018590242,-0.0077555156,0.027366417,-0.0436902,1.6332822,0.005594976,nan,0.10587233,0.014088451,7.071067,0.016174035,0.007314613,inf,inf,inf,inf,0,0,0,0,1,1,1,1,1,0,0,0,0,0,1
3468000,3468000,0,nan,nan,0.0005514829,-0.0004158156,-0.0050760903,-3.6619138e-08,1.2283679e-08,0.0,0.0052094148,-0.0013566897,-0.033527803,-0.033110507,-6.1031897e-06,2.0472798e-06,0.0018590242,0.0059828884,0.020581748,-0.033820044,1.6333092,0.005594976,nan,0.10603705,0.014091304,7.071067,0.020311108,0.00827917,inf,inf,inf,inf,0,0,0,0,1,1,1,1,1,0,0,0,0,0,1
3476000,3476000,0,nan,nan,0.0005864701,-0.00041637407,-0.0052312687,-3.6619138e-08,1.2283679e-08,0.0,0.005149482,-0.0011868587,-0.032680806,-0.03199556,-6.1031897e-06,2.0472798e-06,0.0018590242,0.0065484196,0.0065115886,-0.008811242,1.6333299,0.005594976,nan,0.106189944,0.014097031,7.071067,0.024500726,0.00918581,inf,inf,inf,inf,0,0,0,0,1,1,1,1,1,0,0,0,0,0,1
3484000,3484000,0,nan,nan,0.00062078604,-0.00041597054,-0.0053747483,-3.6619138e-08,1.2283679e-08,0.0,0.005236597,-0.0011294167,-0.031932283,-0.030984767,-6.1031897e-06,2.0472798e-06,0.0018590242,0.022623716,0.0060914024,-0.017913057,1.6333525,0.005594976,nan,0.106330216,0.014107181,7.071067,0.028722111,0.010050234,inf,inf,inf,inf,0,0,0,0,1,1,1,1,1,0,0,0,0,0,1
3492000,3492000,0,nan,nan,0.00065397355,-0.00041455476,-0.0055070994,-3.6619138e-08,1.2283679e-08,0.0,0.00511251,-0.0010484224,-0.031286266,-0.030082036,-6.1031897e-06,2.0472798e-06,0.0018590242,0.0034426192,-0.002350687,-0.038678754,1.6333824,0.005594976,nan,0.10645808,0.014123636,7.071067,0.0329698,0.010882534,inf,inf,inf,inf,0,0,0,0,1,1,1,1,1,0,0,0,0,0,1
3500000,3500000,0,nan,nan,0.00068602746,-0.00041276438,-0.005629858,-3.6619138e-08,1.2283679e-08,0.0,0.005129941,-0.001097022,-0.030882983,-0.029427478,-6.1031897e-06,2.0472798e-06,0.0018590242,0.0086990325,-0.01756355,-0.06391014,1.6333976,0.005594976,nan,0.106575,0.014148612,7.071067,0.037235577,0.011689587,inf,inf,inf,inf,0,0,0,0,1,1,1,1,1,0,0,0,0,0,1
3508000,3508000,0,nan,nan,0.0007165963,-0.0004111892,-0.0057433844,-3.6619138e-08,1.2283679e-08,0.0,0.0050794655,-0.0011286467,-0.030354278,-0.028652819,-6.1031897e-06,2.0472798e-06,0.0018590242,0.025704138,-0.005524081,-0.046360303,1.633437,0.005594976,nan,0.1066812,0.014184631,7.071067,0.041522674,0.012476312,inf,inf,inf,inf,0,0,0,0,1,1,1,1,1,0,0,0,0,0,1
3516000,3516000,0,nan,nan,0.00074665743,-0.00040924398,-0.0058472957,-3.6619138e-08,1.2283679e-08,0.0,0.005103055,-0.0010659071,-0.029774258,-0.027834667,-6.1031897e-06,2.0472798e-06,0.0018590242,0.000828033,0.006425092,-0.026040709,1.6334486,0.005594976,nan,0.10677591,0.014234519,7.071067,0.045828734,0.013246346,inf,inf,inf,inf,0,0,0,0,1,1,1,1,1,0,0,0,0,0,1
3524000,3524000,0,nan,nan,0.00077491556,-0.00040581464,-0.005941209,-3.6619138e-08,1.2283679e-08,0.0,0.004984207,-0.0008256672,-0.029154085,-0.026984017,-6.1031897e-06,2.0472798e-06,0.0018590242,0.013083161,0.026062885,-0.032368112,1.6334337,0.005594976,nan,0.10685925,0.01430136,7.071067,0.050149597,0.014002456,inf,inf,inf,inf,0,0,0,0,1,1,1,1,1,0,0,0,0,0,1
3532000,3532000,0,nan,nan,0.00080246135,-0.00040025287,-0.0060253525,-3.6619138e-08,1.2283679e-08,0.0,0.005091286,-0.0006315686,-0.028452776,-0.02605973,-6.1031897e-06,2.0472798e-06,0.0018590242,0.024637438,0.008881601,-0.012016854,1.6334077,0.005594976,nan,0.10693124,0.014388466,7.071067,0.05449648,0.0147467945,inf,inf,inf,inf,0,0,0,0,1,1,1,1,1,0,0,0,0,0,1
3540000,3540000,0,nan,nan,0.0008288834,-0.0003933186,-0.0061004707,-3.6619138e-08,1.2283679e-08,0.0,0.004918315,-0.0004795904,-0.02802423,-0.025415542,-6.1031897e-06,2.0472798e-06,0.0018590242,-0.014263117,0.017665863,-0.060296614,1.6333911,0.005594976,nan,0.10699189,0.01449935,7.071067,0.058864705,0.015481074,inf,inf,inf,inf,0,0,0,0,1,1,1,1,1,0,0,0,0,0,1
3548000,3548000,0,nan,nan,0.00085285417,-0.0003848129,-0.0061687874,-3.6619138e-08,1.2283679e-08,0.0,0.0047654053,-0.00030340222,-0.027611395,-0.024794245,-6.1031897e-06,2.0472798e-06,0.0018590242,0.0036632698,0.01629097,-0.031081026,1.6333948,0.005594976,nan,0.10704329,0.014637646,7.071067,0.06325737,0.016206682,inf,inf,inf,inf,0,0,0,0,1,1,1,1,1,0,0,0,0,0,1
3556000,3556000,0,nan,nan,0.0008757383,-0.00037468423,-0.0062292875,-3.6619138e-08,1.2283679e-08,0.0,0.004860683,-0.00011788141,-0.027032401,-0.024013817,-6.1031897e-06,2.0472798e-06,0.0018590242,0.03274635,0.017231693,-0.026750376,1.6333886,0.005594976,nan,0.10708539,0.014807058,7.071067,0.06766486,0.016924737,inf,inf,inf,inf,0,0,0,0,1,1,1,1,1,0,0,0,0,0,1
3564000,3564000,0,nan,nan,0.0008982951,-0.0003624395,-0.0062819016,-3.6619138e-08,1.2283679e-08,0.0,0.0048788153,0.0001750864,-0.026395917,-0.023182776,-6.1031897e-06,2.0472798e-06,0.0018590242,0.017634694,0.02840544,-0.005057081,1.6333817,0.005594976,nan,0.10711893,0.015011253,7.071067,0.07210159,0.01763617,inf,inf,inf,inf,0,0,0,0,1,1,1,1,1,0,0,0,0,0,1
3572000,3572000,0,nan,nan,0.00091989036,-0.00034835466,-0.006326454,-3.6619138e-08,1.2283679e-08,0.0,0.0048318245,0.00028124233,-0.025818257,-0.022417283,-6.1031897e-06,2.0472798e-06,0.0018590242,0.009717491,-0.0010167713,-0.029702669,1.633366,0.005594976,nan,0.10714289,0.01525385,7.071067,0.07656965,0.018341767,inf,inf,inf,inf,0,0,0,0,1,1,1,1,1,0,0,0,0,0,1
3580000,3580000,0,nan,nan,0.0009408968,-0.00033457403,-0.0063645556,-3.6619138e-08,1.2283679e-08,0.0,0.0049325726,0.00011947998,-0.025311202,-0.021728974,-6.1031897e-06,2.0472798e-06,0.0018590242,0.026714856,-0.021236088,-0.006961636,1.6333506,0.005594976,nan,0.10715751,0.01553832,7.071067,0.08107552,0.01904218,inf,inf,inf,inf,0,0,0,0,1,1,1,1,1,0,0,0,0,0,1
3588000,3588000,0,nan,nan,0.00096077734,-0.00032115242,-0.0063961344,-3.6619138e-08,1.2283679e-08,0.0,0.004722283,0.00011845544,-0.024872651,-0.021115603,-6.1031897e-06,2.0472798e-06,0.0018590242,-0.018198347,-0.0115777645,-0.0421619,1.633345,0.005594976,nan,0.107162274,0.01586794,7.071067,0.08560862,0.019737976,inf,inf,inf,inf,0,0,0,0,1,1,1,1,1,0,0,0,0,0,1
3596000,3596000,0,nan,nan,0.0009777105,-0.00030745665,-0.0064223357,-3.6619138e-08,1.2283679e-08,0.0,0.004420086,0.00020585615,-0.02437506,-0.020449482,-6.1031897e-06,2.0472798e-06,0.0018590242,-0.021901738,0.010936404,-0.0104093915,1.6333413,0.005594976,nan,0.10715909,0.016245654,7.071067,0.09017218,0.020429635,inf,inf,inf,inf,0,0,0,0,1,1,1,1,1,0,0,0,0,0,1
3604000,3604000,0,nan,nan,0.0009920825,-0.0002942437,-0.006449994,-3.6619138e-08,1.2283679e-08,0.0,0.0042207963,0.00029141555,-0.023787597,-0.019707281,-6.1031897e-06,2.0472798e-06,0.0018590242,-0.0038716386,0.00530231,-0.0076657156,1.6333452,0.005594976,nan,0.10691654,0.010785284,5.7735023,0.08677633,0.021117572,inf,inf,inf,inf,0,0,0,0,1,1,1,1,1,0,0,0,0,0,1
3612000,3612000,0,nan,nan,0.0010043354,-0.0002802104,-0.006471828,-3.6619138e-08,1.2283679e-08,0.0,0.004022244,0.00039537397,-0.023365088,-0.019135775,-6.1031897e-06,2.0472798e-06,0.0018590242,-0.014689634,0.009002498,-0.033975575,1.6333495,0.005594976,nan,0.1069057,0.01111139,5.7735023,0.09105575,0.02180215,inf,inf,inf,inf,0,0,0,0,1,1,1,1,1,0,0,0,0,0,1
3620000,3620000,0,nan,nan,0.0010138296,-0.0002654862,-0.00648924,-3.6619138e-08,1.2283679e-08,0.0,0.00371905,0.00045185848,-0.02293336,-0.018560661,-6.1031897e-06,2.0472798e-06,0.0018590242,-0.022617007,0.0048412764,-0.0065332274,1.6333455,0.005594976,nan,0.10688857,0.011503252,5.7735023,0.09538272,0.022483679,inf,inf,inf,inf,0,0,0,0,1,1,1,1,1,0,0,0,0,0,1
3628000,3628000,0,nan,nan,0.001020334,-0.00024946942,-0.006501506,-3.6619138e-08,1.2283679e-08,0.0,0.003445794,0.00067054847,-0.022446038,-0.017935436,-6.1031897e-06,2.0472798e-06,0.0018590242,-0.015146375,0.016921185,-0.016738659,1.633344,0.005594976,nan,0.10686343,0.011962635,5.7735023,0.09975045,0.023162438,inf,inf,inf,inf,0,0,0,0,1,1,1,1,1,0,0,0,0,0,1
3636000,3636000,0,nan,nan,0.0010249608,-0.00023253205,-0.0065082074,-3.6619138e-08,1.2283679e-08,0.0,0.003392762,0.0008009676,-0.021773491,-0.01712993,-6.1031897e-06,2.0472798e-06,0.0018590242,0.008823219,0.018179284,0.019801779,1.6333522,0.005594976,nan,0.10683693,0.012224118,5.7735023,0.09773809,0.023671106,inf,inf,inf,inf,0,0,0,0,1,1,1,1,1,0,0,0,0,0,1
3644000,3644000,0,nan,nan,0.0010279351,-0.00021381534,-0.0065090326,-3.6619138e-08,1.2283679e-08,0.0,0.003167302,0.00111698,-0.021218902,-0.016447628,-6.1031897e-06,2.0472798e-06,0.0018590242,-0.013838361,0.041854084,-0.00850018,1.6333592,0.005594976,nan,0.10679785,0.012761473,5.7735023,0.1019234,0.024343377,inf,inf,inf,inf,0,0,0,0,1,1,1,1,1,0,0,0,0,0,1
3652000,3652000,0,nan,nan,0.0010292475,-0.00019272273,-0.006506024,-3.6619138e-08,1.2283679e-08,0.0,0.0031072889,0.0013326128,-0.020927442,-0.01603358,-6.1031897e-06,2.0472798e-06,0.0018590242,0.0074653793,0.013168639,-0.036212612,1.6333753,0.005594976,nan,0.10675412,0.013361996,5.7735023,0.10615539,0.025013477,inf,inf,inf,inf,0,0,0,0,1,1,1,1,1,0,0,0,0,0,1
3660000,3660000,0,nan,nan,0.001029802,-0.00017028043,-0.006500445,-3.6619138e-08,1.2283679e-08,0.0,0.0031354043,0.0015029528,-0.02061134,-0.015599897,-6.1031897e-06,2.0472798e-06,0.0018590242,0.028030304,0.018212274,-0.020008532,1.6333427,0.005594976,nan,0.10670663,0.014025164,5.7735023,0.11043651,0.025681583,inf,inf,inf,inf,0,0,0,0,1,1,1,1,1,0,0,0,0,0,1
3668000,3668000,0,nan,nan,0.001030548,-0.00014632524,-0.006491983,-3.6619138e-08,1.2283679e-08,0.0,0.0031679277,0.0017383866,-0.020264195,-0.01514006,-6.1031897e-06,2.0472798e-06,0.0018590242,0.00422055,0.030589085,-0.021205282,1.6333051,0.005594976,nan,0.10665468,0.014750105,5.7735023,0.114768766,0.026347863,inf,inf,inf,inf,0,0,0,0,1,1,1,1,1,0,0,0,0,0,1
3676000,3676000,0,nan,nan,0.0010306569,-0.00012114215,-0.0064808466,-3.6619138e-08,1.2283679e-08,0.0,0.0031707578,0.0017685387,-0.019916806,-0.014684755,-6.1031897e-06,2.0472798e-06,0.0018590242,0.024354579,-0.008550894,-0.015670432,1.6332488,0.005594976,nan,0.1065986,0.01553574,5.7735023,0.11914923,0.02701246,inf,inf,inf,inf,0,0,0,0,1,1,1,1,1,0,0,0,0,0,1
3684000,3684000,0,nan,nan,0.0010304861,-9.577093e-05,-0.006466976,-3.6619138e-08,1.2283679e-08,0.0,0.0031069035,0.00186737,-0.019529201,-0.014193895,-6.1031897e-06,2.0472798e-06,0.0018590242,-0.003908411,0.016368415,-0.00945758,1.6332115,0.005594976,nan,0.10653906,0.016380843,5.7735023,0.123578295,0.0276755,inf,inf,inf,inf,0,0,0,0,1,1,1,1,1,0,0,0,0,0,1
3692000,3692000,0,nan,nan,0.0010291762,-6.862707e-05,-0.006450293,-3.6619138e-08,1.2283679e-08,0.0,0.003009844,0.002205544,-0.019120147,-0.013686138,-6.1031897e-06,2.0472798e-06,0.0018590242,0.0028405192,0.039900318,-0.0050300728,1.633176,0.005594976,nan,0.10647586,0.017284136,5.7735023,0.12806748,0.028337095,inf,inf,inf,inf,0,0,0,0,1,1,1,1,1,0,0,0,0,0,1
3700000,3700000,0,nan,nan,0.0010270249,-3.965301e-05,-0.0064312355,-3.6619138e-08,1.2283679e-08,0.0,0.0029668792,0.0022983348,-0.018862475,-0.013334204,-6.1031897e-06,2.0472798e-06,0.0018590242,0.009700029,-0.0028846841,-0.035771165,1.6331276,0.005594976,nan,0.10640892,0.018244434,5.7735023,0.13261177,0.028997349,inf,inf,inf,inf,0,0,0,0,1,1,1,1,1,0,0,0,0,0,1
3708000,3708000,0,nan,nan,0.0010239941,-1.0833152e-05,-0.006411391,-3.6619138e-08,1.2283679e-08,0.0,0.0027961216,0.0022869415,-0.018703006,-0.01308481,-6.1031897e-06,2.0472798e-06,0.0018590242,-0.01973746,0.007698836,-0.03233086,1.633095,0.005594976,nan,0.106340244,0.019260572,5.7735023,0.13721097,0.029656366,inf,inf,inf,inf,0,0,0,0,1,1,1,1,1,0,0,0,0,0,1
3716000,3716000,0,nan,nan,0.001019245,1.902463e-05,-0.0063900794,-3.6619138e-08,1.2283679e-08,0.0,0.0026590417,0.0025280716,-0.018246388,-0.012542498,-6.1031897e-06,2.0472798e-06,0.0018590242,0.002116154,0.025204323,0.020121222,1.633071,0.005594976,nan,0.10627024,0.020331463,5.7735023,0.14186108,0.030314215,inf,inf,inf,inf,0,0,0,0,1,1,1,1,1,0,0,0,0,0,1
3724000,3724000,0,nan,nan,0.0010127072,5.060507e-05,-0.006365496,-3.6619138e-08,1.2283679e-08,0.0,0.002305831,0.0027387403,-0.017781714,-0.011996263,-6.1031897e-06,2.0472798e-06,0.0018590242,-0.04609505,0.019670404,-0.008317641,1.6330385,0.005594976,nan,0.106197484,0.021456081,5.7735023,0.14657617,0.030970996,inf,inf,inf,inf,0,0,0,0,1,1,1,1,1,0,0,0,0,0,1
3732000,3732000,0,nan,nan,0.0010036625,8.3581646e-05,-0.0063392804,-3.6619138e-08,1.2283679e-08,0.0,0.0021973646,0.002978585,-0.017499918,-0.011636935,-6.1031897e-06,2.0472798e-06,0.0018590242,0.017465353,0.040567636,-0.008907168,1.6330003,0.005594976,nan,0.106122226,0.02263364,5.7735023,0.1513644,0.03162676,inf,inf,inf,inf,0,0,0,0,1,1,1,1,1,0,0,0,0,0,1
3740000,3740000,0,nan,nan,0.0009944356,0.000118645796,-0.006311665,-3.6619138e-08,1.2283679e-08,0.0,0.0021404573,0.0031873686,-0.017170938,-0.011234353,-6.1031897e-06,2.0472798e-06,0.0018590242,-0.011896219,0.01017253,-0.006474554,1.6329532,0.005594976,nan,0.106043845,0.023863485,5.7735023,0.15621492,0.03228158,inf,inf,inf,inf,0,0,0,0,1,1,1,1,1,0,0,0,0,0,1
3748000,3748000,0,nan,nan,0.0009834536,0.00015443492,-0.006282305,-3.6619138e-08,1.2283679e-08,0.0,0.0018719379,0.0032673767,-0.016763374,-0.010757021,-6.1031897e-06,2.0472798e-06,0.0018590242,-0.014550721,0.012503689,0.0032382084,1.6329081,0.005594976,nan,0.10596236,0.025145005,5.7735023,0.16112886,0.032935526,inf,inf,inf,inf,0,0,0,0,1,1,1,1,1,0,0,0,0,0,1
3756000,3756000,0,nan,nan,0.00097120146,0.00019158064,-0.0062513766,-3.6619138e-08,1.2283679e-08,0.0,0.001766178,0.003529187,-0.01645884,-0.010386454,-6.1031897e-06,2.0472798e-06,0.0018590242,-0.010157789,0.026629843,-0.01058448,1.6328572,0.005594976,nan,0.105878174,0.026477698,5.7735023,0.16610882,0.033588625,inf,inf,inf,inf,0,0,0,0,1,1,1,1,1,0,0,0,0,0,1
3764000,3764000,0,nan,nan,0.00095765095,0.00022995785,-0.0062205056,-3.6619138e-08,1.2283679e-08,0.0,0.0016155784,0.0036579466,-0.016469827,-0.010335052,-6.1031897e-06,2.0472798e-06,0.0018590242,0.0008123024,0.021602841,-0.05949195,1.6328071,0.005594976,nan,0.10579319,0.02786117,5.7735023,0.17115441,0.034240957,inf,inf,inf,inf,0,0,0,0,1,1,1,1,1,0,0,0,0,0,1
3772000,3772000,0,nan,nan,0.00094405137,0.00027013512,-0.0061910762,-3.6619138e-08,1.2283679e-08,0.0,0.0017027122,0.003976145,-0.016322937,-0.010129324,-6.1031897e-06,2.0472798e-06,0.0018590242,0.019428829,0.03493612,-0.0071981917,1.63277,0.005594976,nan,0.10570916,0.029295119,5.7735023,0.1762678,0.034892585,inf,inf,inf,inf,0,0,0,0,1,1,1,1,1,0,0,0,0,0,1
3780000,3780000,0,nan,nan,0.0009304687,0.00031218445,-0.0061605675,-3.6619138e-08,1.2283679e-08,0.0,0.001569579,0.0041840887,-0.015894827,-0.009645835,-6.1031897e-06,2.0472798e-06,0.0018590242,-0.017195007,0.025443047,0.007580034,1.6327329,0.005594976,nan,0.10562313,0.030779326,5.7735033,0.18145859,0.035543505,inf,inf,inf,inf,0,0,0,0,1,1,1,1,1,0,0,0,0,0,1
3788000,3788000,0,nan,nan,0.00091556064,0.00035612946,-0.0061290134,-3.6619138e-08,1.2283679e-08,0.0,0.0014092482,0.0044734194,-0.015632046,-0.009331047,-6.1031897e-06,2.0472798e-06,0.0018590242,-0.006423928,0.03174004,-0.00632368,1.6326938,0.005594976,nan,0.10553426,0.03231373,5.773504,0.18672575,0.03619377,inf,inf,inf,inf,0,0,0,0,1,1,1,1,1,0,0,0,0,0,1
3796000,3796000,0,nan,nan,0.0009001137,0.00040180687,-0.006096396,-3.6619138e-08,1.2283679e-08,0.0,0.0014094891,0.0046671815,-0.015219159,-0.008869437,-6.1031897e-06,2.0472798e-06,0.0018590242,0.01452882,0.022382474,0.010700895,1.6326799,0.005594976,nan,0.105443425,0.03389829,5.7735047,0.1920502,0.036843456,inf,inf,inf,inf,0,0,0,0,1,1,1,1,1,0,0,0,0,0,1
3804000,3804000,0,nan,nan,0.00088512554,0.00044830155,-0.006063236,-3.6619138e-08,1.2283679e-08,0.0,0.0014511469,0.004717973,-0.015056874,-0.008661625,-6.1031897e-06,2.0472798e-06,0.0018590242,0.009175885,0.0039481237,-0.019687226,1.6326319,0.005594976,nan,0.105352454,0.03553297,5.773505,0.19744793,0.03749257,inf,inf,inf,inf,0,0,0,0,1,1,1,1,1,0,0,0,0,0,1
3812000,3812000,0,nan,nan,0.0008703625,0.0004849779,-0.0060239406,-3.6619138e-08,1.2283679e-08,0.0,0.0015183535,0.004962873,-0.014742524,-0.008298815,-6.1031897e-06,2.0472798e-06,0.0018590242,0.023564104,0.03612028,0.0030528752,1.6325722,0.005594976,nan,0.10544438,0.013219912,5.000002,0.09448312,0.03814092,inf,inf,inf,inf,0,0,0,0,1,1,1,1,1,0,0,0,0,0,1
3820000,3820000,0,nan,nan,0.00085665355,0.000522481,-0.005984658,-3.6619138e-08,1.2283679e-08,0.0,0.0016201508,0.0049827434,-0.014570035,-0.008081112,-6.1031897e-06,2.0472798e-06,0.0018590242,0.014317439,0.0023146856,-0.018181277,1.6325245,0.005594976,nan,0.10534643,0.013847209,5.0000024,0.09779872,0.038788967,inf,inf,inf,inf,0,0,0,0,1,1,1,1,1,0,0,0,0,0,1
3828000,3828000,0,nan,nan,0.0008435045,0.00055940385,-0.0059460984,-3.6619138e-08,1.2283679e-08,0.0,0.001644229,0.0049670828,-0.0143593745,-0.007828398,-6.1031897e-06,2.0472798e-06,0.0018590242,0.013142344,0.015048353,-0.0009918584,1.6324937,0.005594976,nan,0.10524916,0.014514199,5.000003,0.1012061,0.03943653,inf,inf,inf,inf,0,0,0,0,1,1,1,1,1,0,0,0,0,0,1
3836000,3836000,0,nan,nan,0.0008308323,0.0005975632,-0.005907126,-3.6619138e-08,1.2283679e-08,0.0,0.0016535721,0.005332135,-0.014002923,-0.007432968,-6.1031897e-06,2.0472798e-06,0.0018590242,0.0025342305,0.051780105,0.0022435558,1.6324675,0.005594976,nan,0.10515141,0.015220787,5.0000033,0.10471342,0.040083647,inf,inf,inf,inf,0,0,0,0,1,1,1,1,1,0,0,0,0,0,1
3844000,3844000,0,nan,nan,0.0008179978,0.0006372229,-0.005866675,-3.6619138e-08,1.2283679e-08,0.0,0.0015189251,0.0056763524,-0.013847806,-0.007239198,-6.1031897e-06,2.0472798e-06,0.0018590242,-0.011641793,0.05628382,-0.016951,1.6324356,0.005594976,nan,0.105104096,0.015302343,5.0000033,0.10116449,0.03991109,inf,inf,inf,inf,0,0,0,0,1,1,1,1,1,0,0,0,0,0,1
3852000,3852000,0,nan,nan,0.00080413907,0.0006796508,-0.0058271987,-3.6619138e-08,1.2283679e-08,0.0,0.0013421511,0.0060414844,-0.013686751,-0.00704247,-6.1031897e-06,2.0472798e-06,0.0018590242,-0.015419601,0.039055765,-0.008511356,1.6324246,0.005594976,nan,0.10500447,0.016018244,5.000004,0.10464316,0.04054928,inf,inf,inf,inf,0,0,0,0,1,1,1,1,1,0,0,0,0,0,1
3860000,3860000,0,nan,nan,0.00078954594,0.0007232464,-0.00578855,-3.6619138e-08,1.2283679e-08,0.0,0.001291407,0.0061363364,-0.013570445,-0.0068933885,-6.1031897e-06,2.0472798e-06,0.0018590242,0.0053095277,0.022775957,-0.027586704,1.6324121,0.005594976,nan,0.10490533,0.01677131,5.0000043,0.10820764,0.041187055,inf,inf,inf,inf,0,0,0,0,1,1,1,1,1,0,0,0,0,0,1
3868000,3868000,0,nan,nan,0.000775615,0.0007667809,-0.005752349,-3.6619138e-08,1.2283679e-08,0.0,0.0014126609,0.006056687,-0.013720589,-0.0070135766,-6.1031897e-06,2.0472798e-06,0.0018590242,0.021368423,-0.015086465,-0.05208421,1.6323855,0.005594976,nan,0.10480886,0.017561687,5.000005,0.11187708,0.041824456,inf,inf,inf,inf,0,0,0,0,1,1,1,1,1,0,0,0,0,0,1
3876000,3876000,0,nan,nan,0.00076245493,0.00080977817,-0.005719223,-3.6619138e-08,1.2283679e-08,0.0,0.0013921472,0.006246313,-0.013781853,-0.0070476257,-6.1031897e-06,2.0472798e-06,0.0018590242,-0.0011953379,0.05431243,-0.03866292,1.6322821,0.005594976,nan,0.104715675,0.018389676,5.0000057,0.115638554,0.042461485,inf,inf,inf,inf,0,0,0,0,1,1,1,1,1,0,0,0,0,0,1
3884000,3884000,0,nan,nan,0.0007489135,0.00085542904,-0.0056885667,-3.6619138e-08,1.2283679e-08,0.0,0.0012707256,0.006673053,-0.013763683,-0.0070049046,-6.1031897e-06,2.0472798e-06,0.0018590242,-0.0069642407,0.046411324,-0.02328772,1.6322007,0.005594976,nan,0.10462485,0.019255534,5.000006,0.119510666,0.04309815,inf,inf,inf,inf,0,1,0,1,1,1,1,1,1,0,0,0,0,0,1
3892000,3892000,0,nan,nan,0.000735502,0.00090271025,-0.005660062,-3.6619138e-08,1.2283679e-08,0.0,0.0013524181,0.006820005,-0.013793056,-0.0070123165,-6.1031897e-06,2.0472798e-06,0.0018590242,0.019864963,0.026814274,-0.036348585,1.632105,0.005594976,nan,0.104535766,0.02015966,5.000007,0.12347544,0.04373451,inf,inf,inf,inf,0,1,0,1,1,1,1,1,1,0,0,0,0,0,1
3900000,3900000,0,nan,nan,0.0007232476,0.00095122244,-0.005634278,-3.6619138e-08,1.2283679e-08,0.0,0.0014635512,0.007080189,-0.013863087,-0.007062903,-6.1031897e-06,2.0472798e-06,0.0018590242,0.019088008,0.03995471,-0.035919245,1.6320066,0.005594976,nan,0.10444906,0.021102399,5.0000076,0.12754719,0.044370547,inf,inf,inf,inf,0,1,0,1,1,1,1,1,1,0,0,0,0,0,1
3908000,3908000,0,nan,nan,0.0007120282,0.0010011245,-0.0056109726,-3.6619138e-08,1.2283679e-08,0.0,0.0014972319,0.0072609773,-0.013827103,-0.0070099197,-6.1031897e-06,2.0472798e-06,0.0018590242,0.0013790558,0.028821157,-0.016053205,1.6318951,0.005594976,nan,0.10436418,0.022084214,5.0000086,0.13171759,0.045006283,inf,inf,inf,inf,0,1,0,1,1,1,1,1,1,0,0,0,0,0,1
3916000,3916000,0,nan,nan,0.00070044264,0.0010519,-0.005588949,-3.6619138e-08,1.2283679e-08,0.0,0.0012971585,0.007376889,-0.013625218,-0.0067934096,-6.1031897e-06,2.0472798e-06,0.0018590242,-0.02590798,0.01607611,0.0035902483,1.631804,0.005594976,nan,0.10428071,0.023105552,5.0000095,0.13598123,0.045641765,inf,inf,inf,inf,0,1,0,1,1,1,1,1,1,0,0,0,0,0,1
3924000,3924000,0,nan,nan,0.0006868668,0.0011028453,-0.005567532,-3.6619138e-08,1.2283679e-08,0.0,0.00095556944,0.007410536,-0.013485941,-0.0066418154,-6.1031897e-06,2.0472798e-06,0.0018590242,-0.03340155,0.009279203,-0.021763144,1.631723,0.005594976,nan,0.104197785,0.024166863,5.00001,0.14035712,0.046276983,inf,inf,inf,inf,0,1,0,1,1,1,1,1,1,0,0,0,0,0,1
3932000,3932000,0,nan,nan,0.0006722677,0.001153332,-0.0055483426,-3.6619138e-08,1.2283679e-08,0.0,0.00096189056,0.0073959082,-0.013538297,-0.0066841054,-6.1031897e-06,2.0472798e-06,0.0018590242,0.01185834,0.013617769,-0.02550613,1.6316358,0.005594976,nan,0.104116246,0.025268734,5.000011,0.1448343,0.046911955,inf,inf,inf,inf,0,1,0,1,1,1,1,1,1,0,0,0,0,0,1
3940000,3940000,0,nan,nan,0.00065864006,0.0012044273,-0.007015175,-3.6619138e-08,1.2283679e-08,0.0,0.0010967057,0.007584533,-0.013444437,-0.00806163,-6.1031897e-06,2.0472798e-06,0.0018590242,0.026289634,0.02516512,-0.011662952,1.6315485,0.005594976,nan,0.1,0.026411703,2.8673139,0.14941521,0.047546577,inf,inf,inf,inf,0,1,0,1,1,1,1,1,1,0,0,0,0,0,1
3948000,3948000,0,nan,nan,0.0006459784,0.0012559756,-0.008440178,-3.6619138e-08,1.2283679e-08,0.0,0.001043746,0.007610764,-0.013262368,-0.0093006175,-6.1031897e-06,2.0472798e-06,0.0018590242,-0.014826538,0.009198498,-0.0055292617,1.6314093,0.005594976,nan,0.1,0.0275964,2.8673146,0.15411386,0.048181023,inf,inf,inf,inf,0,1,0,1,1,1,1,1,1,0,0,0,0,0,1
3956000,3956000,0,nan,nan,0.00063262595,0.0013075598,-0.009825163,-3.6619138e-08,1.2283679e-08,0.0,0.00089387235,0.007660266,-0.013249089,-0.010659484,-6.1031897e-06,2.0472798e-06,0.0018590242,-0.01216623,0.009794283,-0.014948658,1.6312484,0.005594976,nan,0.1,0.028823512,2.8673153,0.1589097,0.048815288,inf,inf,inf,inf,0,1,0,1,1,1,1,1,1,0,0,0,0,0,1
3964000,3964000,0,nan,nan,0.00061911903,0.0013592122,-0.011170736,-3.6619138e-08,1.2283679e-08,0.0,0.000912538,0.0077316877,-0.012992418,-0.011727429,-6.1031897e-06,2.0472798e-06,0.0018590242,0.008469869,0.019222148,0.009723938,1.6311213,0.005594976,nan,0.1,0.030093646,2.8673158,0.16380307,0.04944938,inf,inf,inf,inf,0,1,0,1,1,1,1,1,1,0,0,0,0,0,1
3972000,3972000,0,nan,nan,0.00060590386,0.0014115324,-0.012478288,-3.6619138e-08,1.2283679e-08,0.0,0.00085753,0.007881432,-0.013065337,-0.013078776,-6.1031897e-06,2.0472798e-06,0.0018590242,-0.005134687,0.024743566,-0.044185665,1.6310064,0.005594976,nan,0.1,0.03140742,2.8673165,0.16880164,0.05008324,inf,inf,inf,inf,0,1,0,1,1,1,1,1,1,0,0,0,0,0,1
3980000,3980000,0,nan,nan,0.0005926616,0.0014644364,-0.013750855,-3.6619138e-08,1.2283679e-08,0.0,0.0008516898,0.007959322,-0.013143451,-0.014390439,-6.1031897e-06,2.0472798e-06,0.0018590242,0.010369883,0.019301413,-0.021180136,1.6308749,0.005594976,nan,0.1,0.03276552,2.8673174,0.1739053,0.05071693,inf,inf,inf,inf,0,1,0,1,1,1,1,1,1,0,0,0,0,0,1
3988000,3988000,0,nan,nan,0.0005797025,0.0015179507,-0.01498849,-3.6619138e-08,1.2283679e-08,0.0,0.00077002455,0.0080705695,-0.013101706,-0.015538637,-6.1031897e-06,2.0472798e-06,0.0018590242,-0.015985118,0.016679492,-0.018039716,1.630748,0.005594976,nan,0.1,0.034168653,2.8673184,0.1791044,0.051350426,inf,inf,inf,inf,0,1,0,1,1,1,1,1,1,0,0,0,0,0,1
3996000,3996000,0,nan,nan,0.0005662147,0.0015723394,-0.01619225,-3.6619138e-08,1.2283679e-08,0.0,0.0006608414,0.008285101,-0.013109793,-0.016694298,-6.1031897e-06,2.0472798e-06,0.0018590242,-0.011282972,0.041268546,-0.018433666,1.630623,0.005594976,nan,0.1,0.035617467,2.8673193,0.1843945,0.051983736,inf,inf,inf,inf,0,1,0,1,1,1,1,1,1,0,0,0,0,0,1
4004000,4004000,0,nan,nan,0.0005518294,0.0016280755,-0.019221583,-3.6619138e-08,1.2283679e-08,0.0,0.00047973415,0.008374037,-0.013131208,-0.019674553,-6.1031897e-06,2.0472798e-06,0.0018590242,-0.013588549,0.0032286623,-0.025339423,1.63051,0.005594976,nan,0.1,0.0371126,2.218039,0.18979087,0.0526168,inf,inf,inf,inf,0,1,0,1,1,1,1,1,1,0,0,0,0,0,1
4012000,4012000,0,nan,nan,0.0005377097,0.0016840629,-0.0221649,-3.6619138e-08,1.2283679e-08,0.0,0.00063027296,0.008475851,-0.012915228,-0.022311743,-6.1031897e-06,2.0472798e-06,0.0018590242,0.029551635,0.027697299,0.024080275,1.6304038,0.005594976,nan,0.1,0.038654745,2.21804,0.19530244,0.05324977,inf,inf,inf,inf,0,1,0,1,1,1,1,1,1,0,0,0,0,0,1
4020000,4020000,0,nan,nan,0.0005239025,0.0017201728,-0.025022954,-3.6619138e-08,1.2283679e-08,0.0,0.00066026195,0.008429758,-0.012692144,-0.024839183,-6.1031897e-06,2.0472798e-06,0.0018590242,-0.0032407842,0.0061379247,-0.0033285466,1.6302649,0.005594976,nan,0.1,0.013342326,2.218041,0.09765915,0.053882316,inf,inf,inf,inf,0,1,0,1,1,1,1,1,1,0,0,0,0,0,1
4028000,4028000,0,nan,nan,0.0005104778,0.0017554656,-0.027799468,-3.6619138e-08,1.2283679e-08,0.0,0.0007285721,0.008386477,-0.012629774,-0.027427582,-6.1031897e-06,2.0472798e-06,0.0018590242,0.024084145,0.013213706,-0.008516944,1.6301407,0.005594976,nan,0.1,0.013899717,2.2180421,0.101648696,0.054514993,inf,inf,inf,inf,0,1,0,1,1,1,1,1,1,0,0,0,0,0,1
4036000,4036000,0,nan,nan,0.00049804617,0.00179039,-0.030496716,-3.6619138e-08,1.2283679e-08,0.0,0.0006929987,0.008443382,-0.012431179,-0.029782841,-6.1031897e-06,2.0472798e-06,0.0018590242,-0.020559337,0.030248234,0.012751668,1.6300004,0.005594976,nan,0.1,0.014502185,2.2180436,0.10574551,0.055147532,inf,inf,inf,inf,0,1,0,1,1,1,1,1,1,0,0,0,0,0,1
4044000,4044000,0,nan,nan,0.00048463582,0.0018253746,-0.033116795,-3.6619138e-08,1.2283679e-08,0.0,0.0005294887,0.008429136,-0.012402842,-0.03221421,-6.1031897e-06,2.0472798e-06,0.0018590242,-0.003105553,0.006699847,-0.024543142,1.6298674,0.005594976,nan,0.1,0.01515063,2.2180448,0.10992479,0.05577995,inf,inf,inf,inf,0,1,0,1,1,1,1,1,1,0,0,0,0,0,1
4052000,4052000,0,nan,nan,0.0004715775,0.001858507,-0.03566038,-3.6619138e-08,1.2283679e-08,0.0,0.0006637486,0.008430135,-0.012447519,-0.03462172,-6.1031897e-06,2.0472798e-06,0.0018590242,0.022381587,0.023559535,-0.024736857,1.6297315,0.005594976,nan,0.1,0.015243794,2.2180455,0.10591007,0.05429379,inf,inf,inf,inf,0,1,0,1,1,1,1,1,1,0,0,0,0,0,1
4060000,4060000,0,nan,nan,0.0004597582,0.0018911413,-0.037669513,-3.6619138e-08,1.2283679e-08,0.0,0.0007223767,0.008376866,-0.012563554,-0.03654993,-6.1031897e-06,2.0472798e-06,0.0018590242,0.005326743,0.009410025,-0.028057953,1.6296151,0.005594976,nan,0.1,0.015908396,1.8735143,0.10999529,0.054908495,inf,inf,inf,inf,0,1,0,1,1,1,1,1,1,0,0,0,0,0,1
4068000,4068000,0,nan,nan,0.00044838345,0.0019227535,-0.039622135,-3.6619138e-08,1.2283679e-08,0.0,0.0007200085,0.008284129,-0.012412014,-0.03814079,-6.1031897e-06,2.0472798e-06,0.0018590242,0.004832807,0.00617803,-0.0016978009,1.6294943,0.005594976,nan,0.1,0.016617032,1.8735157,0.11416489,0.05552316,inf,inf,inf,inf,0,1,0,1,1,1,1,1,1,0,0,0,0,0,1
4076000,4076000,0,nan,nan,0.0004368673,0.0019533646,-0.04151942,-3.6619138e-08,1.2283679e-08,0.0,0.0005731407,0.008246212,-0.012360839,-0.03976425,-6.1031897e-06,2.0472798e-06,0.0018590242,-0.020795327,0.017665472,-0.0089630475,1.6293651,0.005594976,nan,0.1,0.017370308,1.8735172,0.118428074,0.056137715,inf,inf,inf,inf,0,1,0,1,1,1,1,1,1,0,0,0,0,0,1
4084000,4084000,0,nan,nan,0.00042509846,0.0019840423,-0.043363802,-3.6619138e-08,1.2283679e-08,0.0,0.00062304724,0.008393627,-0.012467366,-0.041479617,-6.1031897e-06,2.0472798e-06,0.0018590242,0.01714134,0.03921527,-0.03516208,1.6292528,0.005594976,nan,0.1,0.01816879,1.8735188,0.122781746,0.05675214,inf,inf,inf,inf,0,1,0,1,1,1,1,1,1,0,0,0,0,0,1
4092000,4092000,0,nan,nan,0.00041451497,0.0020150035,-0.045156762,-3.6619138e-08,1.2283679e-08,0.0,0.0007614058,0.008379436,-0.012349427,-0.042906635,-6.1031897e-06,2.0472798e-06,0.0018590242,0.021938248,0.009409151,-0.0009927897,1.6291085,0.005594976,nan,0.1,0.019013008,1.8735207,0.1272102,0.057366457,inf,inf,inf,inf,0,1,0,1,1,1,1,1,1,0,0,0,0,0,1
4100000,4100000,0,nan,nan,0.00040530818,0.0020459597,-0.0468999,-3.6619138e-08,1.2283679e-08,0.0,0.00087189436,0.008553947,-0.012503225,-0.044543363,-6.1031897e-06,2.0472798e-06,0.0018590242,0.01453176,0.0476392,-0.03599189,1.6289744,0.005594976,nan,0.1,0.019903328,1.8735226,0.13172665,0.05798066,inf,inf,inf,inf,0,1,0,1,1,1,1,1,1,0,0,0,0,0,1
4108000,4108000,0,nan,nan,0.0003972662,0.0020774375,-0.04859536,-3.6619138e-08,1.2283679e-08,0.0,0.0009574325,0.008535482,-0.012540616,-0.046003465,-6.1031897e-06,2.0472798e-06,0.0018590242,0.008067581,0.0058221044,-0.01790188,1.6288636,0.005594976,nan,0.1,0.020840159,1.8735248,0.13634165,0.05859477,inf,inf,inf,inf,0,1,0,1,1,1,1,1,1,0,0,0,0,0,1
4116000,4116000,0,nan,nan,0.00038854385,0.0021085516,-0.050244525,-3.6619138e-08,1.2283679e-08,0.0,0.0006146667,0.008619684,-0.012739475,-0.047566578,-6.1031897e-06,2.0472798e-06,0.0018590242,-0.048025347,0.035336312,-0.048051585,1.6287347,0.005594976,nan,0.1,0.021823945,1.873527,0.14103536,0.059208788,inf,inf,inf,inf,0,1,0,1,1,1,1,1,1,0,0,0,0,0,1
4124000,4124000,0,nan,nan,0.00037754932,0.002140308,-0.05165494,-3.6619138e-08,1.2283679e-08,0.0,0.00036031666,0.0087375,-0.012823483,-0.04876431,-6.1031897e-06,2.0472798e-06,0.0018590242,-0.024121298,0.028405467,-0.020135192,1.6286085,0.005594976,nan,0.1,0.022855012,1.6517675,0.14582779,0.059822556,inf,inf,inf,inf,0,1,0,1,1,1,1,1,1,0,0,0,0,0,1
4132000,4132000,0,nan,nan,0.00036529073,0.0021719567,-0.053026903,-3.6619138e-08,1.2283679e-08,0.0,0.00020898238,0.00869379,-0.012806753,-0.049813103,-6.1031897e-06,2.0472798e-06,0.0018590242,-0.014123302,0.013875963,-0.0058384608,1.6285224,0.005594976,nan,0.1,0.023933789,1.6517698,0.15071404,0.06043639,inf,inf,inf,inf,0,1,0,1,1,1,1,1,1,0,0,0,0,0,1
4140000,4140000,0,nan,nan,0.0003524176,0.0022036743,-0.054360475,-3.6619138e-08,1.2283679e-08,0.0,0.00014131195,0.008813724,-0.0126577085,-0.050682828,-6.1031897e-06,2.0472798e-06,0.0018590242,-0.000915068,0.03092327,0.00211969,1.6284356,0.005594976,nan,0.1,0.025060683,1.6517724,0.15569258,0.06105014,inf,inf,inf,inf,0,1,0,1,1,1,1,1,1,0,0,0,0,0,1
4148000,4148000,0,nan,nan,0.0003398669,0.0022362354,-0.05565673,-3.6619138e-08,1.2283679e-08,0.0,0.00019728295,0.008986001,-0.012593905,-0.051592436,-6.1031897e-06,2.0472798e-06,0.0018590242,0.010588934,0.041308288,-0.0068973745,1.628349,0.005594976,nan,0.1,0.026236096,1.651775,0.16073842,0.061663806,inf,inf,inf,inf,0,1,0,1,1,1,1,1,1,0,0,0,0,0,1
4156000,4156000,0,nan,nan,0.00032801778,0.0022700229,-0.056917258,-3.6619138e-08,1.2283679e-08,0.0,0.00021589582,0.009149458,-0.012571934,-0.052499868,-6.1031897e-06,2.0472798e-06,0.0018590242,-0.00086748326,0.03240138,-0.010840594,1.6282709,0.005594976,nan,0.1,0.027460238,1.6517779,0.16587698,0.062277403,inf,inf,inf,inf,0,1,0,1,1,1,1,1,1,0,0,0,0,0,1
4164000,4164000,0,nan,nan,0.00031595837,0.0023035745,-0.05814387,-3.6619138e-08,1.2283679e-08,0.0,9.210346e-05,0.008958429,-0.012726815,-0.053541463,-6.1031897e-06,2.0472798e-06,0.0018590242,-0.012918258,-0.01716736,-0.03855582,1.6281867,0.005594976,nan,0.1,0.0287336,1.651781,0.17111346,0.06289094,inf,inf,inf,inf,0,1,0,1,1,1,1,1,1,0,0,0,0,0,1
4172000,4172000,0,nan,nan,0.00030335344,0.0023355118,-0.059337437,-3.6619138e-08,1.2283679e-08,0.0,2.3597255e-05,0.008858515,-0.012559772,-0.05421972,-6.1031897e-06,2.0472798e-06,0.0018590242,-0.0015075346,0.010615054,0.023524275,1.6281136,0.005594976,nan,0.1,0.030056609,1.6517842,0.17641863,0.06350439,inf,inf,inf,inf,0,1,0,1,1,1,1,1,1,0,0,0,0,0,1
4180000,4180000,0,nan,nan,0.0002907406,0.002366497,-0.06015018,-3.6619138e-08,1.2283679e-08,0.0,-2.8599328e-05,0.00871649,-0.012395679,-0.054515105,-6.1031897e-06,2.0472798e-06,0.0018590242,-0.011006006,-0.005216963,-0.00090803945,1.6280603,0.005594976,nan,0.1,0.031429544,1.4937898,0.1818297,0.06411756,inf,inf,inf,inf,0,1,0,1,1,1,1,1,1,0,0,0,0,0,1
4188000,4188000,0,nan,nan,0.00027724044,0.0023971607,-0.06094141,-3.6619138e-08,1.2283679e-08,0.0,-0.0002362469,0.008889611,-0.012497153,-0.05504936,-6.1031897e-06,2.0472798e-06,0.0018590242,-0.022107195,0.053545326,-0.02711266,1.6280116,0.005594976,nan,0.1,0.032852944,1.4937932,0.18731688,0.06473088,inf,inf,inf,inf,0,1,0,1,1,1,1,1,1,0,0,0,0,0,1
4196000,4196000,0,nan,nan,0.00026318117,0.002429432,-0.061711967,-3.6619138e-08,1.2283679e-08,0.0,-0.00021502143,0.0090388525,-0.0123480745,-0.0553072,-6.1031897e-06,2.0472798e-06,0.0018590242,0.012404488,0.024416221,0.019594094,1.6279598,0.005594976,nan,0.1,0.03432717,1.4937968,0.19290154,0.065344155,inf,inf,inf,inf,0,1,0,1,1,1,1,1,1,0,0,0,0,0,1
4204000,4204000,4200000,47.3977508,8.5456073,0.00025003598,0.0024626148,-0.062460937,-3.6619138e-08,1.2283679e-08,0.0,-0.00011072173,0.009174968,-0.01222381,-0.0555648,-6.1031897e-06,2.0472798e-06,0.0018590242,0.014818229,0.032230742,-0.007622875,1.6279066,0.005594976,488.02423,0.1,0.035852734,1.4938006,0.19856188,0.06595738,inf,inf,inf,inf,0,1,0,1,1,1,1,1,1,0,1,1,0,0,1
4212000,4212000,4200000,47.3977508,8.5456073,0.00023780152,0.0024969415,-0.06319053,-3.6619138e-08,1.2283679e-08,0.0,-7.666918e-05,0.009362347,-0.01232678,-0.05602537,-6.1031897e-06,2.0472798e-06,0.0018590242,0.0011841474,0.04499328,-0.023045575,1.6278768,0.005594976,488.02423,0.1,0.037430007,1.4938047,0.2042985,0.066570535,inf,inf,inf,inf,0,1,0,1,1,1,1,1,1,0,1,1,0,0,1
4220000,4220000,4200000,47.3977508,8.5456073,0.00022550004,0.0025329508,-0.06390117,-3.6619138e-08,1.2283679e-08,0.0,-0.00016992452,0.009539218,-0.012209216,-0.05624191,-6.1031897e-06,2.0472798e-06,0.0018590242,-0.00796694,0.02813505,0.0063860784,1.6278441,0.005594976,488.02423,0.1,0.039059386,1.493809,0.21010846,0.06718366,inf,inf,inf,inf,0,1,0,1,1,1,1,1,1,0,1,1,0,0,1
4228000,4228000,4200000,47.3977508,8.5456073,0.00021221384,0.0025503754,-0.06459354,-3.6619138e-08,1.2283679e-08,0.0,-0.00014381486,0.009624782,-0.012364256,-0.05670833,-6.1031897e-06,2.0472798e-06,0.0018590242,0.0063595213,0.04078823,-0.03366917,1.6278075,0.005594976,488.02423,0.1,0.013360119,1.4938135,0.10272567,0.06779654,inf,inf,inf,inf,0,1,0,1,1,1,1,1,1,0,1,1,0,0,1
4236000,4236000,4200000,47.3977508,8.5456073,0.0001997661,0.0025681413,-0.06526886,-3.6619138e-08,1.2283679e-08,0.0,1.3378067e-05,0.009633619,-0.012357807,-0.05699123,-6.1031897e-06,2.0472798e-06,0.0018590242,0.03201964,0.021396058,-0.0036545095,1.6277862,0.005594976,488.02423,0.1,0.013943702,1.4938184,0.10638342,0.06840955,inf,inf,inf,inf,0,1,0,1,1,1,1,1,1,0,1,1,0,0,1
4244000,4244000,4200000,47.3977508,8.5456073,0.0001892178,0.002585295,-0.06468451,-3.6619138e-08,1.2283679e-08,0.0,0.0001946694,0.009546305,-0.012364036,-0.056027133,-6.1031897e-06,2.0472798e-06,0.0018590242,0.016749399,0.016612059,-0.014741904,1.6277484,0.005594976,488.02423,0.12602201,0.014574077,1.3739169,0.11011151,0.069022074,inf,inf,inf,inf,0,1,0,1,1,1,1,1,1,0,1,1,0,0,1
4252000,4252000,4200000,47.3977508,8.5456073,0.00017952702,0.0026020159,-0.06411966,-3.6619138e-08,1.2283679e-08,0.0,0.00019788808,0.00956803,-0.012420289,-0.055136327,-6.1031897e-06,2.0472798e-06,0.0018590242,0.0027318746,0.030822394,-0.015740281,1.6277237,0.005594976,488.02423,0.12535936,0.015251201,1.3739218,0.1138825,0.06963498,inf,inf,inf,inf,0,1,0,1,1,1,1,1,1,0,1,1,0,0,1
4260000,4260000,4200000,47.3977508,8.5456073,0.00016982113,0.0026182535,-0.06356632,-3.6619138e-08,1.2283679e-08,0.0,3.677623e-05,0.009627458,-0.012389496,-0.054169554,-6.1031897e-06,2.0472798e-06,0.0018590242,-0.03025845,0.036430486,-0.004147179,1.6277022,0.005594976,488.02423,0.12494293,0.015298109,1.3739209,0.108677536,0.06627835,inf,inf,inf,inf,0,1,0,1,1,1,1,1,1,0,1,1,0,0,1
4268000,4268000,4200000,47.3977508,8.5456073,0.00015848917,0.0026341712,-0.06303009,-3.6619138e-08,1.2283679e-08,0.0,-0.00017929987,0.009446436,-0.012257837,-0.053124372,-6.1031897e-06,2.0472798e-06,0.0018590242,-0.01405843,-0.014410513,-0.007392838,1.6276937,0.005594976,488.02423,0.12431969,0.015984403,1.3739259,0.11229632,0.06686402,inf,inf,inf,inf,0,1,0,1,1,1,1,1,1,0,1,1,0,0,1
4276000,4276000,4200000,47.3977508,8.5456073,0.0001466255,0.0026484353,-0.062511295,-3.6619138e-08,1.2283679e-08,0.0,-0.00021585605,0.009384555,-0.012313918,-0.052288838,-6.1031897e-06,2.0472798e-06,0.0018590242,-0.0058399015,0.032567255,-0.016775912,1.6276823,0.005594976,488.02423,0.12371346,0.016713303,1.373931,0.115958326,0.06744964,inf,inf,inf,inf,0,1,0,1,1,1,1,1,1,0,1,1,0,0,1
4284000,4284000,4200000,47.3977508,8.5456073,0.00013458401,0.0026625404,-0.06200991,-3.6619138e-08,1.2283679e-08,0.0,-0.00023646098,0.0093608145,-0.0123710465,-0.051475715,-6.1031897e-06,2.0472798e-06,0.0018590242,0.008192277,0.016278615,-0.022810882,1.6276817,0.005594976,488.02423,0.12312514,0.01748462,1.3739365,0.11967782,0.0680352,inf,inf,inf,inf,0,1,0,1,1,1,1,1,1,0,1,1,0,0,1
4292000,4292000,4200000,47.3977508,8.5456073,0.00012336372,0.002676284,-0.061525214,-3.6619138e-08,1.2283679e-08,0.0,-0.000113063456,0.009355957,-0.012321838,-0.050577097,-6.1031897e-06,2.0472798e-06,0.0018590242,0.015412398,0.025371205,-0.004395842,1.6276811,0.005594976,488.02423,0.12255302,0.018298201,1.3739424,0.12346579,0.06862073,inf,inf,inf,inf,0,1,0,1,1,1,1,1,1,0,1,1,0,0,1
4300000,4300000,4200000,47.3977508,8.5456073,0.00011312342,0.0026893434,-0.061271124,-3.6619138e-08,1.2283679e-08,0.0,-6.806348e-05,0.009212067,-0.012327598,-0.049967777,-6.1031897e-06,2.0472798e-06,0.0018590242,0.0021265585,0.0062605245,-0.01220405,1.6276598,0.005594976,488.02423,0.115523875,0.019153941,1.2789353,0.12729715,0.06920571,inf,inf,inf,inf,0,1,0,1,1,1,1,1,1,0,1,1,0,0,1
4308000,4308000,4200000,47.3977508,8.5456073,0.000102948055,0.00270154,-0.06102662,-3.6619138e-08,1.2283679e-08,0.0,-0.00014629654,0.009147081,-0.012388515,-0.049425855,-6.1031897e-06,2.0472798e-06,0.0018590242,-0.011007039,0.010220857,-0.029036773,1.627616,0.005594976,488.02423,0.11519073,0.02005163,1.2789412,0.13119976,0.06979115,inf,inf,inf,inf,0,1,0,1,1,1,1,1,1,0,1,1,0,0,1
4316000,4316000,4200000,47.3977508,8.5456073,9.219702e-05,0.0027122982,-0.060792666,-3.6619138e-08,1.2283679e-08,0.0,-0.00021979155,0.008879207,-0.01261914,-0.049065616,-6.1031897e-06,2.0472798e-06,0.0018590242,0.0024461623,-0.014318109,-0.040075738,1.6275833,0.005594976,488.02423,0.11486702,0.020991191,1.2789475,0.13514873,0.07037655,inf,inf,inf,inf,0,1,0,1,1,1,1,1,1,0,1,1,0,0,1
4324000,4324000,4200000,47.3977508,8.5456073,8.225944e-05,0.0027204524,-0.06056922,-3.6619138e-08,1.2283679e-08,0.0,-4.694233e-05,0.008534685,-0.012738753,-0.048606068,-6.1031897e-06,2.0472798e-06,0.0018590242,0.021314582,-0.017913552,-0.018164514,1.627554,0.005594976,488.02423,0.11455332,0.021972438,1.278954,0.13915378,0.07096192,inf,inf,inf,inf,0,1,0,1,1,1,1,1,1,0,1,1,0,0,1
4332000,4332000,4200000,47.3977508,8.5456073,7.3012554e-05,0.002726944,-0.060354475,-3.6619138e-08,1.2283679e-08,0.0,-9.3848175e-05,0.008501656,-0.012626782,-0.04792638,-6.1031897e-06,2.0472798e-06,0.0018590242,-0.0036234122,0.028787281,0.0065453346,1.6275178,0.005594976,488.02423,0.11424759,0.022995258,1.278961,0.143217,0.07154726,inf,inf,inf,inf,0,1,0,1,1,1,1,1,1,0,1,1,0,0,1
4340000,4340000,4200000,47.3977508,8.5456073,6.425203e-05,0.0027333118,-0.060147457,-3.6619138e-08,1.2283679e-08,0.0,2.3952118e-05,0.00844081,-0.012576506,-0.04731958,-6.1031897e-06,2.0472798e-06,0.0018590242,0.017974976,0.009689072,-0.009004026,1.6274801,0.005594976,488.02423,0.113948844,0.024059583,1.2789682,0.14733265,0.07213257,inf,inf,inf,inf,0,1,0,1,1,1,1,1,1,0,1,1,0,0,1
4348000,4348000,4200000,47.3977508,8.5456073,5.671351e-05,0.002738991,-0.05994849,-3.6619138e-08,1.2283679e-08,0.0,0.00014318546,0.008347434,-0.012553014,-0.046750538,-6.1031897e-06,2.0472798e-06,0.0018590242,0.015310244,0.011606519,-0.008926726,1.6274518,0.005594976,488.02423,0.11365797,0.025165332,1.2789758,0.1514976,0.072717845,inf,inf,inf,inf,0,1,0,1,1,1,1,1,1,0,1,1,0,0,1
4356000,4356000,4200000,47.3977508,8.5456073,5.011341e-05,0.0027439182,-0.059757393,-3.6619138e-08,1.2283679e-08,0.0,0.00020146708,0.008225808,-0.012495005,-0.04615771,-6.1031897e-06,2.0472798e-06,0.0018590242,0.0070609236,0.005770474,0.0028340144,1.6273991,0.005594976,488.02423,0.11337444,0.026312433,1.2789838,0.15572882,0.07330309,inf,inf,inf,inf,0,1,0,1,1,1,1,1,1,0,1,1,0,0,1
4364000,4364000,4200000,47.3977508,8.5456073,4.3921198e-05,0.002748877,-0.05945138,-3.6619138e-08,1.2283679e-08,0.0,0.00016632298,0.00837682,-0.012587315,-0.045603402,-6.1031897e-06,2.0472798e-06,0.0018590242,-0.010449701,0.050924394,-0.03225356,1.6273539,0.005594976,488.02423,0.11679615,0.027500957,1.2012963,0.16001485,0.07388751,inf,inf,inf,inf,0,1,0,1,1,1,1,1,1,0,1,1,0,0,1
4372000,4372000,4200000,47.3977508,8.5456073,3.73578e-05,0.002754936,-0.0591574,-3.6619138e-08,1.2283679e-08,0.0,0.00013792985,0.008378635,-0.012641809,-0.045025878,-6.1031897e-06,2.0472798e-06,0.0018590242,0.0116937,0.010576797,-0.013567506,1.6273165,0.005594976,488.02423,0.11640766,0.028730892,1.2013044,0.16434857,0.0744727,inf,inf,inf,inf,0,1,0,1,1,1,1,1,1,0,1,1,0,0,1
4380000,4380000,4200000,47.3977508,8.5456073,3.193444e-05,0.0027606946,-0.05887461,-3.6619138e-08,1.2283679e-08,0.0,0.00032364702,0.0083142985,-0.0126430355,-0.044409335,-6.1031897e-06,2.0472798e-06,0.0018590242,0.019672412,0.015187717,-0.0048475335,1.6272566,0.005594976,488.02423,0.11602977,0.030002305,1.2013129,0.1687405,0.07505786,inf,inf,inf,inf,0,1,0,1,1,1,1,1,1,0,1,1,0,0,1
4388000,4388000,4200000,47.3977508,8.5456073,2.693566e-05,0.0027671251,-0.058602244,-3.6619138e-08,1.2283679e-08,0.0,0.00018316656,0.0085382275,-0.012616448,-0.04377889,-6.1031897e-06,2.0472798e-06,0.0018590242,-0.023268599,0.06056243,-0.009277835,1.6271967,0.005594976,488.02423,0.11566128,0.031315267,1.2013218,0.17319037,0.075643,inf,inf,inf,inf,0,1,0,1,1,1,1,1,1,0,1,1,0,0,1
4396000,4396000,4200000,47.3977508,8.5456073,2.1403814e-05,0.0027757133,-0.05834062,-3.6619138e-08,1.2283679e-08,0.0,0.00020487746,0.008694326,-0.012733941,-0.0433061,-6.1031897e-06,2.0472798e-06,0.0018590242,0.013952972,0.025597123,-0.026120802,1.6271307,0.005594976,488.02423,0.11530164,0.032669894,1.2013313,0.17770562,0.076228105,inf,inf,inf,inf,0,1,0,1,1,1,1,1,1,0,1,1,0,0,1
4404000,4404000,4200000,47.3977508,8.5456073,1.6797585e-05,0.0027846217,-0.05808973,-3.6619138e-08,1.2283679e-08,0.0,0.00029648814,0.008622407,-0.01274228,-0.042737413,-6.1031897e-06,2.0472798e-06,0.0018590242,0.005951267,0.0135776345,-0.003728084,1.6270723,0.005594976,488.02423,0.11495062,0.034066394,1.2013409,0.18226804,0.07681318,inf,inf,inf,inf,0,1,0,1,1,1,1,1,1,0,1,1,0,0,1
4412000,4412000,4200000,47.3977508,8.5456073,1.221252e-05,0.0027937144,-0.05784911,-3.6619138e-08,1.2283679e-08,0.0,0.00019524715,0.008635561,-0.01288314,-0.042314187,-6.1031897e-06,2.0472798e-06,0.0018590242,-0.009175549,0.015546508,-0.030240973,1.6270301,0.005594976,488.02423,0.11460915,0.03550486,1.201351,0.18686938,0.07739827,inf,inf,inf,inf,0,1,0,1,1,1,1,1,1,0,1,1,0,0,1
4420000,4420000,4200000,47.3977508,8.5456073,7.9237325e-06,0.0028024788,-0.057630084,-3.6619138e-08,1.2283679e-08,0.0,0.00032668596,0.008488362,-0.012656238,-0.041547853,-6.1031897e-06,2.0472798e-06,0.0018590242,0.021540951,0.001391294,0.034729015,1.6270003,0.005594976,488.02423,0.11391355,0.036985338,1.1362875,0.19152893,0.077982225,inf,inf,inf,inf,0,1,0,1,1,1,1,1,1,0,1,1,0,0,1
4428000,4428000,4200000,47.3977508,8.5456073,4.9132886e-06,0.0028109292,-0.057418108,-3.6619138e-08,1.2283679e-08,0.0,0.00044326263,0.008485615,-0.012537899,-0.040901985,-6.1031897e-06,2.0472798e-06,0.0018590242,0.0141528575,0.022495994,-0.0127451485,1.6269641,0.005594976,488.02423,0.11360034,0.038508035,1.1362978,0.19624428,0.07856726,inf,inf,inf,inf,0,1,0,1,1,1,1,1,1,0,1,1,0,0,1
4436000,4436000,4200000,47.3977508,8.5456073,3.6985184e-06,0.0028041988,-0.057215463,-3.6619138e-08,1.2283679e-08,0.0,0.00050121185,0.008438902,-0.012694633,-0.04054283,-6.1031897e-06,2.0472798e-06,0.0018590242,0.010772491,0.018928591,-0.02001412,1.6269239,0.005594976,488.02423,0.11329578,0.013336037,1.1363087,0.0919062,0.0791522,inf,inf,inf,inf,0,1,0,1,1,1,1,1,1,0,1,1,0,0,1
4444000,4444000,4200000,47.3977508,8.5456073,4.091584e-06,0.002797138,-0.057022523,-3.6619138e-08,1.2283679e-08,0.0,0.00076812773,0.008358558,-0.012883332,-0.04022699,-6.1031897e-06,2.0472798e-06,0.0018590242,0.030308204,0.019385012,-0.036347654,1.6268959,0.005594976,488.02423,0.11300057,0.01388133,1.13632,0.09461595,0.079737194,inf,inf,inf,inf,0,1,0,1,1,1,1,1,1,0,1,1,0,0,1
4452000,4452000,4200000,47.3977508,8.5456073,5.3868457e-06,0.0027897493,-0.056838613,-3.6619138e-08,1.2283679e-08,0.0,0.000672894,0.0082518915,-0.012807639,-0.039657835,-6.1031897e-06,2.0472798e-06,0.0018590242,-0.015406097,0.0056485874,0.01524575,1.6268082,0.005594976,488.02423,0.1127132,0.014461153,1.1363318,0.09735882,0.08032218,inf,inf,inf,inf,0,1,0,1,1,1,1,1,1,0,1,1,0,0,1
4460000,4460000,4200000,47.3977508,8.5456073,6.1244805e-06,0.0027812074,-0.056661956,-3.6619138e-08,1.2283679e-08,0.0,0.00061155687,0.008019614,-0.012783533,-0.039151087,-6.1031897e-06,2.0472798e-06,0.0018590242,-0.0031660164,-0.005345544,-0.01705624,1.6267365,0.005594976,488.02423,0.11243228,0.01507519,1.1363441,0.10013405,0.08090716,inf,inf,inf,inf,0,1,0,1,1,1,1,1,1,0,1,1,0,0,1
4468000,4468000,4200000,47.3977508,8.5456073,7.4492236e-06,0.002770421,-0.056478396,-3.6619138e-08,1.2283679e-08,0.0,0.00080404856,0.007772507,-0.012959661,-0.03883357,-6.1031897e-06,2.0472798e-06,0.0018590242,0.025868574,-0.0051253154,-0.035593282,1.6266502,0.005594976,488.02423,0.11263727,0.01516304,1.1363279,0.09673475,0.075467825,inf,inf,inf,inf,0,1,0,1,1,1,1,1,1,0,1,1,0,0,1
4476000,4476000,4200000,47.3977508,8.5456073,9.82851e-06,0.002757771,-0.056303,-3.6619138e-08,1.2283679e-08,0.0,0.000802097,0.007480181,-0.012872786,-0.038264006,-6.1031897e-06,2.0472798e-06,0.0018590242,-0.0046334025,-0.011795432,0.008312053,1.6265669,0.005594976,488.02423,0.112371236,0.01578765,1.1363392,0.09942205,0.076017775,inf,inf,inf,inf,0,1,0,1,1,1,1,1,1,0,1,1,0,0,1
4484000,4484000,4200000,47.3977508,8.5456073,1.2354394e-05,0.0027430365,-0.05588411,-3.6619138e-08,1.2283679e-08,0.0,0.0008289752,0.0071942336,-0.01278735,-0.03745739,-6.1031897e-06,2.0472798e-06,0.0018590242,0.0074416744,-0.0064249174,-0.008030794,1.626493,0.005594976,488.02423,0.11964704,0.016443718,1.0808128,0.10213778,0.076566435,inf,inf,inf,inf,0,1,0,1,1,1,1,1,1,0,1,1,0,0,1
4492000,4492000,4200000,47.3977508,8.5456073,1.4731961e-05,0.002726975,-0.05547947,-3.6619138e-08,1.2283679e-08,0.0,0.0006848802,0.0070311106,-0.012833886,-0.03680203,-6.1031897e-06,2.0472798e-06,0.0018590242,-0.022404186,-0.00090501265,-0.027540138,1.6264368,0.005594976,488.02423,0.11914989,0.017130988,1.0808244,0.10489141,0.07711633,inf,inf,inf,inf,0,1,0,1,1,1,1,1,1,0,1,1,0,0,1
4500000,4500000,4200000,47.3977508,8.5456073,1.6845934e-05,0.0027096132,-0.055089008,-3.6619138e-08,1.2283679e-08,0.0,0.0007697279,0.0068386532,-0.012730633,-0.036015667,-6.1031897e-06,2.0472798e-06,0.0018590242,0.019356797,0.008341623,0.014248303,1.6263726,0.005594976,488.02423,0.11866689,0.017849253,1.0808365,0.107662834,0.07766622,inf,inf,inf,inf,0,1,0,1,1,1,1,1,1,0,1,1,0,0,1
4508000,4508000,4200000,47.3977508,8.5456073,2.0410045e-05,0.0026916296,-0.054710988,-3.6619138e-08,1.2283679e-08,0.0,0.0009919706,0.0067535806,-0.012610137,-0.03523037,-6.1031897e-06,2.0472798e-06,0.0018590242,0.033834334,0.012697535,-0.004471279,1.6263093,0.005594976,488.02423,0.11819732,0.018598204,1.0808492,0.110471085,0.07821609,inf,inf,inf,inf,0,1,0,1,1,1,1,1,1,0,1,1,0,0,1
4516000,4516000,4200000,47.3977508,8.5456073,2.6319898e-05,0.002673317,-0.054345924,-3.6619138e-08,1.2283679e-08,0.0,0.001289647,0.0066552716,-0.012615234,-0.034588497,-6.1031897e-06,2.0472798e-06,0.0018590242,0.037803456,0.007685317,-0.011625699,1.6262354,0.005594976,488.02423,0.117740184,0.01937765,1.0808622,0.113322996,0.07876595,inf,inf,inf,inf,0,1,0,1,1,1,1,1,1,0,1,1,0,0,1
4524000,4524000,4200000,47.3977508,8.5456073,3.4485085e-05,0.0026542437,-0.053993817,-3.6619138e-08,1.2283679e-08,0.0,0.0014717772,0.0064738514,-0.01263127,-0.03397494,-6.1031897e-06,2.0472798e-06,0.0018590242,0.013114927,-0.0011376686,-0.015813855,1.6261775,0.005594976,488.02423,0.1172943,0.020187482,1.0808756,0.11620883,0.0793158,inf,inf,inf,inf,0,1,0,1,1,1,1,1,1,0,1,1,0,0,1
