timestamp,timestamp_sample,gps_hvel[0],gps_hvel[1],gps_vvel,gps_hpos[0],gps_hpos[1],gps_vpos,ev_hvel[0],ev_hvel[1],ev_vvel,ev_hpos[0],ev_hpos[1],ev_vpos,rng_vpos,baro_vpos,aux_hvel[0],aux_hvel[1],aux_vvel,flow[0],flow[1],terr_flow[0],terr_flow[1],heading,mag_field[0],mag_field[1],mag_field[2],gravity[0],gravity[1],gravity[2],drag[0],drag[1],airspeed,beta,hagl,hagl_rate
3484000,3404000,7.108312e-06,0.0,0.0003936786,5.6638822e-11,0.0,186.85884,0.0,0.0,0.0,0.0,0.0,0.0,0.0,2.9560954e-06,0.0,0.0,nan,0.0,0.0,0.0,0.0,0.0,0.0,0.0,0.0,0.00017513127,0.0,0.0,0.0,0.0,0.0,0.0,0.0,0.0
3988000,3908000,5.9640065e-06,0.0,3.2160144e-05,1.0466368e-08,0.0,277.57455,0.0,0.0,0.0,0.0,0.0,0.0,0.0,5.09436e-06,0.0,0.0,nan,0.0,0.0,0.0,0.0,0.0,0.0,0.0,0.0,0.00036623867,0.0,0.0,0.0,0.0,0.0,0.0,0.0,0.0
4492000,4412000,4.508195e-05,0.0,9.235818e-05,7.718831e-09,0.0,1.1898435e-10,0.0,0.0,0.0,0.0,0.0,0.0,0.0,1.969388e-05,0.0,0.0,nan,0.0,0.0,0.0,0.0,0.0,0.0,0.0,0.0,0.00025906716,0.0,0.0,0.0,0.0,0.0,0.0,0.0,0.0
4988000,4908000,0.00012511469,0.0,0.00014482118,2.402969e-06,0.0,5.249246e-05,0.0,0.0,0.0,0.0,0.0,0.0,0.0,4.0883738e-06,0.0,0.0,nan,0.0,0.0,0.0,0.0,0.0,0.0,0.0,0.0,0.00036417978,0.0,0.0,0.0,0.0,0.0,0.0,0.0,0.0
5492000,5412000,1.0984775e-06,0.0,8.0151105e-05,2.283687e-06,0.0,4.0696174e-05,0.0,0.0,0.0,0.0,0.0,0.0,0.0,2.5966222e-06,0.0,0.0,nan,0.0,0.0,0.0,0.0,0.0,0.0,0.0,0.0,0.00021771643,0.0,0.0,0.0,0.0,0.0,0.0,0.0,0.0
5988000,5908000,3.651237e-07,0.0,0.00018096244,2.109857e-06,0.0,5.7189092e-05,0.0,0.0,0.0,0.0,0.0,0.0,0.0,3.1861384e-06,0.0,0.0,nan,0.0,0.0,0.0,0.0,0.0,0.0,0.0,0.0,0.0010842581,0.0,0.0,0.0,0.0,0.0,0.0,0.0,0.0
6484000,6404000,1.0390591e-07,0.0,0.0001466551,2.2566633e-06,0.0,4.542088e-05,0.0,0.0,0.0,0.0,0.0,0.0,0.0,1.2021541e-05,0.0,0.0,nan,0.0,0.0,0.0,0.0,0.0,0.0,0.0,0.0,6.581863e-05,0.0,0.0,0.0,0.0,0.0,0.0,0.0,0.0
6988000,6908000,4.793791e-05,0.0,4.218167e-06,2.2295037e-06,0.0,8.7161236e-05,0.0,0.0,0.0,0.0,0.0,0.0,0.0,2.4427172e-06,0.0,0.0,nan,0.0,0.0,0.0,0.0,0.0,0.0,0.0,0.0,0.00065687764,0.0,0.0,0.0,0.0,0.0,0.0,0.0,0.0
7492000,7412000,1.1617786e-05,0.0,8.6669694e-05,1.7778142e-06,0.0,7.911754e-05,0.0,0.0,0.0,0.0,0.0,0.0,0.0,4.7077808e-07,0.0,0.0,nan,0.0,0.0,0.0,0.0,0.0,0.0,0.0,0.0,2.7087262e-05,0.0,0.0,0.0,0.0,0.0,0.0,0.0,0.0
7988000,7908000,5.7383397e-05,0.0,0.00016932563,1.968722e-06,0.0,6.681314e-05,0.0,0.0,0.0,0.0,0.0,0.0,0.0,4.301267e-06,0.0,0.0,nan,0.0,0.0,0.0,0.0,0.0,0.0,0.0,0.0,0.00037598461,0.0,0.0,0.0,0.0,0.0,0.0,0.0,0.0
8492000,8412000,0.00020762841,0.0,3.7889225e-07,2.1501903e-06,0.0,6.958421e-05,0.0,0.0,0.0,0.0,0.0,0.0,0.0,4.1314293e-06,0.0,0.0,nan,0.0,0.0,0.0,0.0,0.0,0.0,0.0,0.0,0.00043431477,0.0,0.0,0.0,0.0,0.0,0.0,0.0,0.0
8988000,8908000,3.4249098e-07,0.0,1.9115421e-05,2.2075972e-06,0.0,6.004726e-05,0.0,0.0,0.0,0.0,0.0,0.0,0.0,5.687302e-07,0.0,0.0,nan,0.0,0.0,0.0,0.0,0.0,0.0,0.0,0.0,0.00015809115,0.0,0.0,0.0,0.0,0.0,0.0,0.0,0.0
9484000,9404000,7.649459e-05,0.0,0.00016216724,1.8121633e-06,0.0,2.0419115e-07,0.0,0.0,0.0,0.0,0.0,0.0,0.0,2.4907592e-06,0.0,0.0,nan,0.0,0.0,0.0,0.0,0.0,0.0,0.0,0.0,1.6582238e-05,0.0,0.0,0.0,0.0,0.0,0.0,0.0,0.0
9988000,9908000,0.00024901726,0.0,0.00021021979,1.844225e-06,0.0,3.156033e-06,0.0,0.0,0.0,0.0,0.0,0.0,0.0,1.1042415e-05,0.0,0.0,nan,0.0,0.0,0.0,0.0,0.0,0.0,0.0,0.0,0.00020896312,0.0,0.0,0.0,0.0,0.0,0.0,0.0,0.0
10484000,10404000,0.0001737949,0.0,6.147639e-06,8.596539e-06,0.0,2.324563e-06,0.0,0.0,0.0,0.0,0.0,0.0,0.0,1.0414805e-05,0.0,0.0,nan,0.0,0.0,0.0,0.0,0.0,0.0,0.0,0.0,0.0001359472,0.0,0.0,0.0,0.0,0.0,0.0,0.0,0.0
10988000,10908000,1.414254e-06,0.0,0.00013268235,2.411796e-06,0.0,4.961549e-09,0.0,0.0,0.0,0.0,0.0,0.0,0.0,2.975977e-05,0.0,0.0,nan,0.0,0.0,0.0,0.0,0.0,0.0,0.0,0.0,0.00051395094,0.0,0.0,0.0,0.0,0.0,0.0,0.0,0.0
11484000,11404000,0.00013563308,0.0,9.328888e-05,2.693905e-06,0.0,1.3564316e-05,0.0,0.0,0.0,0.0,0.0,0.0,0.0,7.194349e-06,0.0,0.0,nan,0.0,0.0,0.0,0.0,0.0,0.0,0.0,0.0,0.00044793778,0.0,0.0,0.0,0.0,0.0,0.0,0.0,0.0
11988000,11908000,5.3107105e-06,0.0,4.3208147e-05,4.482159e-06,0.0,9.346146e-06,0.0,0.0,0.0,0.0,0.0,0.0,0.0,6.7880183e-06,0.0,0.0,nan,0.0,0.0,0.0,0.0,0.0,0.0,0.0,0.0,4.464262e-06,0.0,0.0,0.0,0.0,0.0,0.0,0.0,0.0
12492000,12412000,3.787253e-06,0.0,3.3638054e-05,2.3901177e-06,0.0,2.0171847e-06,0.0,0.0,0.0,0.0,0.0,0.0,0.0,5.992018e-06,0.0,0.0,nan,0.0,0.0,0.0,0.0,0.0,0.0,0.0,0.0,0.00075166987,0.0,0.0,0.0,0.0,0.0,0.0,0.0,0.0
12988000,12908000,0.00017700094,0.0,5.5397617e-05,2.2808215e-06,0.0,3.51442e-06,0.0,0.0,0.0,0.0,0.0,0.0,0.0,1.6344766e-05,0.0,0.0,nan,0.0,0.0,0.0,0.0,0.0,0.0,0.0,0.0,0.00025655187,0.0,0.0,0.0,0.0,0.0,0.0,0.0,0.0
13492000,13412000,3.2350383e-06,0.0,0.00037578866,1.9368447e-06,0.0,1.1076921e-05,0.0,0.0,0.0,0.0,0.0,0.0,0.0,2.3464813e-06,0.0,0.0,nan,0.0,0.0,0.0,0.0,0.0,0.0,0.0,0.0,0.0013999019,0.0,0.0,0.0,0.0,0.0,0.0,0.0,0.0
13988000,13908000,6.5243374e-05,0.0,8.998948e-05,8.611745e-06,0.0,1.0101616e-05,0.0,0.0,0.0,0.0,0.0,0.0,0.0,3.5709643e-05,0.0,0.0,nan,0.0,0.0,0.0,0.0,0.0,0.0,0.0,0.0,0.00094593054,0.0,0.0,0.0,0.0,0.0,0.0,0.0,0.0
14484000,14404000,3.1523236e-05,0.0,8.7601606e-05,8.653274e-09,0.0,1.3579397e-05,0.0,0.0,0.0,0.0,0.0,0.0,0.0,3.307264e-06,0.0,0.0,nan,0.0,0.0,0.0,0.0,0.0,0.0,0.0,0.0,0.0006800616,0.0,0.0,0.0,0.0,0.0,0.0,0.0,0.0
14988000,14908000,0.00019843467,0.0,1.9653215e-05,2.5169677e-06,0.0,7.1988525e-06,0.0,0.0,0.0,0.0,0.0,0.0,0.0,4.550257e-06,0.0,0.0,nan,0.0,0.0,0.0,0.0,0.0,0.0,0.0,0.0,1.3885169e-06,0.0,0.0,0.0,0.0,0.0,0.0,0.0,0.0
15484000,15404000,9.792877e-07,0.0,1.1906197e-05,2.2351544e-06,0.0,1.7535109e-05,0.0,0.0,0.0,0.0,0.0,0.0,0.0,6.526698e-05,0.0,0.0,nan,0.0,0.0,0.0,0.0,0.0,0.0,0.0,0.0,0.00087232044,0.0,0.0,0.0,0.0,0.0,0.0,0.0,0.0
15988000,15908000,1.9633727e-07,0.0,6.745281e-05,2.3691895e-09,0.0,4.0177522e-07,0.0,0.0,0.0,0.0,0.0,0.0,0.0,9.881521e-08,0.0,0.0,nan,0.0,0.0,0.0,0.0,0.0,0.0,0.0,0.0,0.0005889166,0.0,0.0,0.0,0.0,0.0,0.0,0.0,0.0
16484000,16404000,6.290786e-05,0.0,6.904279e-05,6.7323938e-09,0.0,2.1102667e-06,0.0,0.0,0.0,0.0,0.0,0.0,0.0,2.3011792e-06,0.0,0.0,nan,0.0,0.0,0.0,0.0,0.0,0.0,0.0,0.0,0.0015318554,0.0,0.0,0.0,0.0,0.0,0.0,0.0,0.0
16988000,16908000,5.140012e-06,0.0,8.912254e-05,2.7110782e-06,0.0,1.8365165e-07,0.0,0.0,0.0,0.0,0.0,0.0,0.0,5.6537215e-06,0.0,0.0,nan,0.0,0.0,0.0,0.0,0.0,0.0,0.0,0.0,2.4709781e-05,0.0,0.0,0.0,0.0,0.0,0.0,0.0,0.0
17492000,17412000,4.1352096e-06,0.0,1.2300543e-06,2.724861e-06,0.0,2.8953987e-06,0.0,0.0,0.0,0.0,0.0,0.0,0.0,6.3460345e-07,0.0,0.0,nan,0.0,0.0,0.0,0.0,0.0,0.0,0.0,0.0,0.00025336893,0.0,0.0,0.0,0.0,0.0,0.0,0.0,0.0
17988000,17908000,4.5670764e-05,0.0,0.000679593,2.438061e-06,0.0,2.4898482e-06,0.0,0.0,0.0,0.0,0.0,0.0,0.0,9.063813e-07,0.0,0.0,nan,0.0,0.0,0.0,0.0,0.0,0.0,0.0,0.0,0.00023660423,0.0,0.0,0.0,0.0,0.0,0.0,0.0,0.0
18492000,18412000,2.2898982e-06,0.0,2.4509442e-05,2.3882835e-06,0.0,1.6786792e-06,0.0,0.0,0.0,0.0,0.0,0.0,0.0,8.356118e-06,0.0,0.0,nan,0.0,0.0,0.0,0.0,0.0,0.0,0.0,0.0,5.7516605e-05,0.0,0.0,0.0,0.0,0.0,0.0,0.0,0.0
18988000,18908000,6.0790235e-06,0.0,0.0001066693,1.2782905e-08,0.0,5.6646275e-07,0.0,0.0,0.0,0.0,0.0,0.0,0.0,7.6397373e-07,0.0,0.0,nan,0.0,0.0,0.0,0.0,0.0,0.0,0.0,0.0,8.9923706e-05,0.0,0.0,0.0,0.0,0.0,0.0,0.0,0.0
19484000,19404000,0.00017729327,0.0,3.267583e-05,3.2626513e-06,0.0,4.2251777e-06,0.0,0.0,0.0,0.0,0.0,0.0,0.0,1.3167115e-05,0.0,0.0,nan,0.0,0.0,0.0,0.0,0.0,0.0,0.0,0.0,5.355464e-05,0.0,0.0,0.0,0.0,0.0,0.0,0.0,0.0
19988000,19908000,0.00016695404,0.0,0.00033624662,2.9507696e-06,0.0,7.539132e-07,0.0,0.0,0.0,0.0,0.0,0.0,0.0,1.4377037e-05,0.0,0.0,nan,0.0,0.0,0.0,0.0,0.0,0.0,0.0,0.0,0.0011827999,0.0,0.0,0.0,0.0,0.0,0.0,0.0,0.0
20484000,20404000,5.76019e-05,0.0,7.985071e-05,2.650678e-06,0.0,1.3936794e-05,0.0,0.0,0.0,0.0,0.0,0.0,0.0,2.0733964e-05,0.0,0.0,nan,0.0,0.0,0.0,0.0,0.0,0.0,0.0,0.0,0.0002377176,0.0,0.0,0.0,0.0,0.0,0.0,0.0,0.0
20988000,20908000,7.0557515e-05,0.0,0.00031451645,2.3503978e-06,0.0,1.726091e-06,0.0,0.0,0.0,0.0,0.0,0.0,0.0,3.380012e-05,0.0,0.0,nan,0.0,0.0,0.0,0.0,0.0,0.0,0.0,0.0,0.0015045222,0.0,0.0,0.0,0.0,0.0,0.0,0.0,0.0
21484000,21404000,7.2121384e-06,0.0,2.724074e-05,1.8249741e-06,0.0,1.5481637e-05,0.0,0.0,0.0,0.0,0.0,0.0,0.0,2.7832772e-05,0.0,0.0,nan,0.0,0.0,0.0,0.0,0.0,0.0,0.0,0.0,0.0010158091,0.0,0.0,0.0,0.0,0.0,0.0,0.0,0.0
21988000,21908000,9.783976e-06,0.0,8.0570186e-05,8.490102e-06,0.0,2.0956643e-06,0.0,0.0,0.0,0.0,0.0,0.0,0.0,1.5364188e-07,0.0,0.0,nan,0.0,0.0,0.0,0.0,0.0,0.0,0.0,0.0,1.8424986e-05,0.0,0.0,0.0,0.0,0.0,0.0,0.0,0.0
22492000,22412000,1.5729413e-05,0.0,2.931491e-07,2.1253566e-06,0.0,7.790447e-07,0.0,0.0,0.0,0.0,0.0,0.0,0.0,2.7380236e-06,0.0,0.0,nan,0.0,0.0,0.0,0.0,0.0,0.0,0.0,0.0,0.00023572113,0.0,0.0,0.0,0.0,0.0,0.0,0.0,0.0
22988000,22908000,0.00017092052,0.0,0.0002654598,2.188051e-06,0.0,4.1256757e-07,0.0,0.0,0.0,0.0,0.0,0.0,0.0,2.4955132e-05,0.0,0.0,nan,0.0,0.0,0.0,0.0,0.0,0.0,0.0,0.0,7.746496e-06,0.0,0.0,0.0,0.0,0.0,0.0,0.0,0.0
23484000,23404000,4.8710906e-05,0.0,8.2496204e-05,3.164092e-08,0.0,1.0164182e-05,0.0,0.0,0.0,0.0,0.0,0.0,0.0,6.6939225e-07,0.0,0.0,nan,0.0,0.0,0.0,0.0,0.0,0.0,0.0,0.0,0.00034187696,0.0,0.0,0.0,0.0,0.0,0.0,0.0,0.0
23988000,23908000,0.00012953083,0.0,0.00022009666,4.8658293e-08,0.0,2.3563342e-05,0.0,0.0,0.0,0.0,0.0,0.0,0.0,3.7540726e-06,0.0,0.0,nan,0.0,0.0,0.0,0.0,0.0,0.0,0.0,0.0,0.00034041647,0.0,0.0,0.0,0.0,0.0,0.0,0.0,0.0
24492000,24412000,1.827294e-05,0.0,0.0010991035,2.9632015e-06,0.0,4.0249102e-05,0.0,0.0,0.0,0.0,0.0,0.0,0.0,3.8009037e-07,0.0,0.0,nan,0.0,0.0,0.0,0.0,0.0,0.0,0.0,0.0,0.00011914088,0.0,0.0,0.0,0.0,0.0,0.0,0.0,0.0
24988000,24908000,7.106617e-06,0.0,0.00017298221,3.3402982e-06,0.0,5.2070176e-05,0.0,0.0,0.0,0.0,0.0,0.0,0.0,1.8782964e-06,0.0,0.0,nan,0.0,0.0,0.0,0.0,0.0,0.0,0.0,0.0,0.00012262838,0.0,0.0,0.0,0.0,0.0,0.0,0.0,0.0
25484000,25404000,1.9666355e-05,0.0,0.00017106188,4.0357872e-06,0.0,0.00012836898,0.0,0.0,0.0,0.0,0.0,0.0,0.0,3.5260705e-06,0.0,0.0,nan,0.0,0.0,0.0,0.0,0.0,0.0,0.0,0.0,0.00028212628,0.0,0.0,0.0,0.0,0.0,0.0,0.0,0.0
25988000,25908000,2.9696805e-05,0.0,0.0005644526,7.315148e-06,0.0,0.00017785201,0.0,0.0,0.0,0.0,0.0,0.0,0.0,9.487534e-07,0.0,0.0,nan,0.0,0.0,0.0,0.0,0.0,0.0,0.0,0.0,0.06889478,0.0,0.0,0.0,0.0,0.0,0.0,0.0,0.0
26484000,26404000,0.0020908187,0.0,0.0004647538,1.0270696e-05,0.0,0.00014366109,0.0,0.0,0.0,0.0,0.0,0.0,0.0,4.1371564e-05,0.0,0.0,nan,0.0,0.0,0.0,0.0,0.0,0.0,0.0,0.0,0.0017580406,0.0,0.0,0.0,0.0,0.0,0.0,0.0,0.0
26988000,26908000,0.0032539358,0.0,0.000477423,0.00018093677,0.0,0.00018590788,0.0,0.0,0.0,0.0,0.0,0.0,0.0,1.1880594e-05,0.0,0.0,nan,0.0,0.0,0.0,0.0,0.0,0.0,0.0,0.0,0.024143854,0.0,0.0,0.0,0.0,0.0,0.0,0.0,0.0
27484000,27404000,7.5562e-05,0.0,0.0008660403,0.00050299877,0.0,0.00020655083,0.0,0.0,0.0,0.0,0.0,0.0,0.0,4.494725e-06,0.0,0.0,nan,0.0,0.0,0.0,0.0,0.0,0.0,0.0,0.0,0.024959315,0.0,0.0,0.0,0.0,0.0,0.0,0.0,0.0
27988000,27908000,0.00013282362,0.0,0.0006484201,0.00041990107,0.0,0.0002444661,0.0,0.0,0.0,0.0,0.0,0.0,0.0,1.8534154e-05,0.0,0.0,nan,0.0,0.0,0.0,0.0,0.0,0.0,0.0,0.0,0.012015634,0.0,0.0,0.0,0.0,0.0,0.0,0.0,0.0
28492000,28412000,0.00027292728,0.0,0.001977471,0.00024010484,0.0,0.000503552,0.0,0.0,0.0,0.0,0.0,0.0,0.0,3.3142933e-05,0.0,0.0,nan,0.0,0.0,0.0,0.0,0.0,0.0,0.0,0.0,0.00025401262,0.0,0.0,0.0,0.0,0.0,0.0,0.0,0.0
28988000,28908000,0.00051277346,0.0,0.0020323764,0.00012385807,0.0,0.00047932798,0.0,0.0,0.0,0.0,0.0,0.0,0.0,7.6824675e-05,0.0,0.0,nan,0.0,0.0,0.0,0.0,0.0,0.0,0.0,0.0,0.0031037906,0.0,0.0,0.0,0.0,0.0,0.0,0.0,0.0
29484000,29404000,0.00041418284,0.0,0.00042506077,1.7148e-05,0.0,0.0009441156,0.0,0.0,0.0,0.0,0.0,0.0,0.0,3.183625e-05,0.0,0.0,nan,0.0,0.0,0.0,0.0,0.0,0.0,0.0,0.0,0.013196859,0.0,0.0,0.0,0.0,0.0,0.0,0.0,0.0
29988000,29908000,0.00017609129,0.0,0.00094484404,2.1828213e-05,0.0,0.0009361012,0.0,0.0,0.0,0.0,0.0,0.0,0.0,2.358088e-05,0.0,0.0,nan,0.0,0.0,0.0,0.0,0.0,0.0,0.0,0.0,0.0006440692,0.0,0.0,0.0,0.0,0.0,0.0,0.0,0.0
30492000,30412000,0.00013362158,0.0,0.0018436725,2.247759e-05,0.0,0.0010214921,0.0,0.0,0.0,0.0,0.0,0.0,0.0,3.621545e-05,0.0,0.0,nan,0.0,0.0,0.0,0.0,0.0,0.0,0.0,0.0,0.004629084,0.0,0.0,0.0,0.0,0.0,0.0,0.0,0.0
30988000,30908000,2.789504e-05,0.0,0.0023064667,2.7695685e-05,0.0,0.00106246,0.0,0.0,0.0,0.0,0.0,0.0,0.0,4.24802e-05,0.0,0.0,nan,0.0,0.0,0.0,0.0,0.0,0.0,0.0,0.0,0.0006532361,0.0,0.0,0.0,0.0,0.0,0.0,0.0,0.0
31492000,31412000,0.00015652554,0.0,0.0010394142,3.1150306e-05,0.0,0.001354061,0.0,0.0,0.0,0.0,0.0,0.0,0.0,2.5769015e-05,0.0,0.0,nan,0.0,0.0,0.0,0.0,0.0,0.0,0.0,0.0,0.00032153158,0.0,0.0,0.0,0.0,0.0,0.0,0.0,0.0
31988000,31908000,7.2383526e-05,0.0,0.0012462572,3.7604714e-05,0.0,0.0014564607,0.0,0.0,0.0,0.0,0.0,0.0,0.0,1.8797055e-05,0.0,0.0,nan,0.0,0.0,0.0,0.0,0.0,0.0,0.0,0.0,1.647643e-05,0.0,0.0,0.0,0.0,0.0,0.0,0.0,0.0
32492000,32412000,0.00036887123,0.0,0.0020652201,3.4811823e-05,0.0,0.0015783634,0.0,0.0,0.0,0.0,0.0,0.0,0.0,2.928044e-05,0.0,0.0,nan,0.0,0.0,0.0,0.0,0.0,0.0,0.0,0.0,0.0008263881,0.0,0.0,0.0,0.0,0.0,0.0,0.0,0.0
32988000,32908000,0.00016888372,0.0,0.0022305716,3.1930536e-05,0.0,0.0016390779,0.0,0.0,0.0,0.0,0.0,0.0,0.0,0.00025013284,0.0,0.0,nan,0.0,0.0,0.0,0.0,0.0,0.0,0.0,0.0,0.0015654673,0.0,0.0,0.0,0.0,0.0,0.0,0.0,0.0
33492000,33412000,3.1810534e-05,0.0,0.0016082446,3.3571043e-05,0.0,0.0015828372,0.0,0.0,0.0,0.0,0.0,0.0,0.0,0.00016832704,0.0,0.0,nan,0.0,0.0,0.0,0.0,0.0,0.0,0.0,0.0,4.6757566e-05,0.0,0.0,0.0,0.0,0.0,0.0,0.0,0.0
33988000,33908000,0.00018628106,0.0,0.0073883245,2.8394275e-05,0.0,0.0015495322,0.0,0.0,0.0,0.0,0.0,0.0,0.0,4.0224935e-05,0.0,0.0,nan,0.0,0.0,0.0,0.0,0.0,0.0,0.0,0.0,0.0011489259,0.0,0.0,0.0,0.0,0.0,0.0,0.0,0.0
34492000,34412000,0.00027886857,0.0,0.0021548138,2.2882947e-05,0.0,0.0019295338,0.0,0.0,0.0,0.0,0.0,0.0,0.0,3.177845e-05,0.0,0.0,nan,0.0,0.0,0.0,0.0,0.0,0.0,0.0,0.0,0.0038624706,0.0,0.0,0.0,0.0,0.0,0.0,0.0,0.0
34988000,34908000,0.0002873464,0.0,0.001959985,2.4118532e-05,0.0,0.0018814118,0.0,0.0,0.0,0.0,0.0,0.0,0.0,1.9263038e-05,0.0,0.0,nan,0.0,0.0,0.0,0.0,0.0,0.0,0.0,0.0,0.0015342629,0.0,0.0,0.0,0.0,0.0,0.0,0.0,0.0
35484000,35404000,0.0006343988,0.0,0.0004626079,2.5950296e-05,0.0,0.0016017217,0.0,0.0,0.0,0.0,0.0,0.0,0.0,3.0751482e-05,0.0,0.0,nan,0.0,0.0,0.0,0.0,0.0,0.0,0.0,0.0,0.000911123,0.0,0.0,0.0,0.0,0.0,0.0,0.0,0.0
35988000,35908000,0.0015500794,0.0,0.0020904467,3.8445392e-05,0.0,0.0015432705,0.0,0.0,0.0,0.0,0.0,0.0,0.0,7.679311e-05,0.0,0.0,nan,0.0,0.0,0.0,0.0,0.0,0.0,0.0,0.0,0.0014309365,0.0,0.0,0.0,0.0,0.0,0.0,0.0,0.0
36492000,36412000,0.0010923663,0.0,0.0010614394,4.742661e-05,0.0,0.0016192435,0.0,0.0,0.0,0.0,0.0,0.0,0.0,2.9598692e-05,0.0,0.0,nan,0.0,0.0,0.0,0.0,0.0,0.0,0.0,0.0,0.001998705,0.0,0.0,0.0,0.0,0.0,0.0,0.0,0.0
36988000,36908000,0.0010714183,0.0,0.0002602803,7.8373654e-05,0.0,0.0013389557,0.0,0.0,0.0,0.0,0.0,0.0,0.0,9.244205e-06,0.0,0.0,nan,0.0,0.0,0.0,0.0,0.0,0.0,0.0,0.0,0.001242991,0.0,0.0,0.0,0.0,0.0,0.0,0.0,0.0
37484000,37404000,0.002599627,0.0,0.00035153865,0.00017328691,0.0,0.0011073793,0.0,0.0,0.0,0.0,0.0,0.0,0.0,2.0891378e-06,0.0,0.0,nan,0.0,0.0,0.0,0.0,0.0,0.0,0.0,0.0,0.0024552522,0.0,0.0,0.0,0.0,0.0,0.0,0.0,0.0
37988000,37908000,0.002647173,0.0,0.0006743549,0.00022841289,0.0,0.0010156446,0.0,0.0,0.0,0.0,0.0,0.0,0.0,4.420807e-09,0.0,0.0,nan,0.0,0.0,0.0,0.0,0.0,0.0,0.0,0.0,0.0030277988,0.0,0.0,0.0,0.0,0.0,0.0,0.0,0.0
38492000,38412000,0.0017178063,0.0,0.0011267179,0.00030646028,0.0,0.0010989634,0.0,0.0,0.0,0.0,0.0,0.0,0.0,6.4014666e-06,0.0,0.0,nan,0.0,0.0,0.0,0.0,0.0,0.0,0.0,0.0,0.003235003,0.0,0.0,0.0,0.0,0.0,0.0,0.0,0.0
38988000,38908000,0.0030979475,0.0,0.00045104345,0.00034834602,0.0,0.0010054513,0.0,0.0,0.0,0.0,0.0,0.0,0.0,3.8146916e-06,0.0,0.0,nan,0.0,0.0,0.0,0.0,0.0,0.0,0.0,0.0,0.0024116142,0.0,0.0,0.0,0.0,0.0,0.0,0.0,0.0
39484000,39404000,0.0043097413,0.0,0.0017745255,0.00045108097,0.0,0.0011717115,0.0,0.0,0.0,0.0,0.0,0.0,0.0,1.3791325e-06,0.0,0.0,nan,0.0,0.0,0.0,0.0,0.0,0.0,0.0,0.0,0.00274476,0.0,0.0,0.0,0.0,0.0,0.0,0.0,0.0
39988000,39908000,0.0052646906,0.0,0.0016181279,0.00059210486,0.0,0.0012431005,0.0,0.0,0.0,0.0,0.0,0.0,0.0,4.666353e-06,0.0,0.0,nan,0.0,0.0,0.0,0.0,0.0,0.0,0.0,0.0,0.00077049714,0.0,0.0,0.0,0.0,0.0,0.0,0.0,0.0
40492000,40412000,0.0052261185,0.0,0.0008883659,0.00072115386,0.0,0.0013517512,0.0,0.0,0.0,0.0,0.0,0.0,0.0,3.0146052e-07,0.0,0.0,nan,0.0,0.0,0.0,0.0,0.0,0.0,0.0,0.0,0.00048250062,0.0,0.0,0.0,0.0,0.0,0.0,0.0,0.0
40988000,40908000,0.005608559,0.0,0.0037437924,0.0008537161,0.0,0.00142021,0.0,0.0,0.0,0.0,0.0,0.0,0.0,1.1947365e-05,0.0,0.0,nan,0.0,0.0,0.0,0.0,0.0,0.0,0.0,0.0,0.0012361867,0.0,0.0,0.0,0.0,0.0,0.0,0.0,0.0
41492000,41412000,0.006030428,0.0,0.0020498706,0.0010825315,0.0,0.0018216702,0.0,0.0,0.0,0.0,0.0,0.0,0.0,8.3529915e-07,0.0,0.0,nan,0.0,0.0,0.0,0.0,0.0,0.0,0.0,0.0,0.00045196057,0.0,0.0,0.0,0.0,0.0,0.0,0.0,0.0
41988000,41908000,0.0061897305,0.0,0.0026109142,0.0012184841,0.0,0.0022040065,0.0,0.0,0.0,0.0,0.0,0.0,0.0,4.667732e-06,0.0,0.0,nan,0.0,0.0,0.0,0.0,0.0,0.0,0.0,0.0,0.0022609483,0.0,0.0,0.0,0.0,0.0,0.0,0.0,0.0
42484000,42404000,0.0063123507,0.0,0.003915376,0.0013525661,0.0,0.0023167776,0.0,0.0,0.0,0.0,0.0,0.0,0.0,2.2083535e-05,0.0,0.0,nan,0.0,0.0,0.0,0.0,0.0,0.0,0.0,0.0,0.0014784533,0.0,0.0,0.0,0.0,0.0,0.0,0.0,0.0
42988000,42908000,0.0060548247,0.0,0.005629747,0.0014851106,0.0,0.0023513632,0.0,0.0,0.0,0.0,0.0,0.0,0.0,8.310085e-06,0.0,0.0,nan,0.0,0.0,0.0,0.0,0.0,0.0,0.0,0.0,0.001741966,0.0,0.0,0.0,0.0,0.0,0.0,0.0,0.0
43484000,43404000,0.0067071905,0.0,0.0033525631,0.0018745444,0.0,0.0029208723,0.0,0.0,0.0,0.0,0.0,0.0,0.0,2.0343721e-05,0.0,0.0,nan,0.0,0.0,0.0,0.0,0.0,0.0,0.0,0.0,0.0001450594,0.0,0.0,0.0,0.0,0.0,0.0,0.0,0.0
43988000,43908000,0.00898951,0.0,0.004577439,0.0019903036,0.0,0.0030559136,0.0,0.0,0.0,0.0,0.0,0.0,0.0,9.921115e-06,0.0,0.0,nan,0.0,0.0,0.0,0.0,0.0,0.0,0.0,0.0,0.0013246655,0.0,0.0,0.0,0.0,0.0,0.0,0.0,0.0
44492000,44412000,0.007625036,0.0,0.006802942,0.0021651848,0.0,0.0033087158,0.0,0.0,0.0,0.0,0.0,0.0,0.0,3.4511933e-05,0.0,0.0,nan,0.0,0.0,0.0,0.0,0.0,0.0,0.0,0.0,0.00058786426,0.0,0.0,0.0,0.0,0.0,0.0,0.0,0.0
44988000,44908000,0.007689402,0.0,0.0043760506,0.002317712,0.0,0.0035434999,0.0,0.0,0.0,0.0,0.0,0.0,0.0,4.8388556e-05,0.0,0.0,nan,0.0,0.0,0.0,0.0,0.0,0.0,0.0,0.0,0.008805692,0.0,0.0,0.0,0.0,0.0,0.0,0.0,0.0
45484000,45404000,0.005402878,0.0,0.0013969836,0.0026500188,0.0,0.0043570893,0.0,0.0,0.0,0.0,0.0,0.0,0.0,6.149496e-05,0.0,0.0,nan,0.0,0.0,0.0,0.0,0.0,0.0,0.0,0.0,0.0005208547,0.0,0.0,0.0,0.0,0.0,0.0,0.0,0.0
45988000,45908000,0.005302464,0.0,0.004731842,0.002717952,0.0,0.0043011936,0.0,0.0,0.0,0.0,0.0,0.0,0.0,2.7232456e-05,0.0,0.0,nan,0.0,0.0,0.0,0.0,0.0,0.0,0.0,0.0,0.00019322526,0.0,0.0,0.0,0.0,0.0,0.0,0.0,0.0
46484000,46404000,0.006094806,0.0,0.0017751255,0.002696074,0.0,0.004451789,0.0,0.0,0.0,0.0,0.0,0.0,0.0,0.00019447795,0.0,0.0,nan,0.0,0.0,0.0,0.0,0.0,0.0,0.0,0.0,0.00044078732,0.0,0.0,0.0,0.0,0.0,0.0,0.0,0.0
46988000,46908000,0.005069626,0.0,0.005085481,0.00274909,0.0,0.0044642375,0.0,0.0,0.0,0.0,0.0,0.0,0.0,1.7683957e-06,0.0,0.0,nan,0.0,0.0,0.0,0.0,0.0,0.0,0.0,0.0,0.0004310485,0.0,0.0,0.0,0.0,0.0,0.0,0.0,0.0
47484000,47404000,0.004603538,0.0,0.0025761004,0.0025841212,0.0,0.0044461465,0.0,0.0,0.0,0.0,0.0,0.0,0.0,2.9692403e-05,0.0,0.0,nan,0.0,0.0,0.0,0.0,0.0,0.0,0.0,0.0,0.001359372,0.0,0.0,0.0,0.0,0.0,0.0,0.0,0.0
47988000,47908000,0.0037549373,0.0,0.005581143,0.0024463655,0.0,0.00445849,0.0,0.0,0.0,0.0,0.0,0.0,0.0,7.792093e-06,0.0,0.0,nan,0.0,0.0,0.0,0.0,0.0,0.0,0.0,0.0,0.0018122991,0.0,0.0,0.0,0.0,0.0,0.0,0.0,0.0
48484000,48404000,0.0039643683,0.0,0.001809889,0.0023833688,0.0,0.0043315585,0.0,0.0,0.0,0.0,0.0,0.0,0.0,4.5041347e-07,0.0,0.0,nan,0.0,0.0,0.0,0.0,0.0,0.0,0.0,0.0,0.0029972387,0.0,0.0,0.0,0.0,0.0,0.0,0.0,0.0
48988000,48908000,0.0028532967,0.0,0.0035865416,0.0022432308,0.0,0.0038623274,0.0,0.0,0.0,0.0,0.0,0.0,0.0,0.00032177783,0.0,0.0,nan,0.0,0.0,0.0,0.0,0.0,0.0,0.0,0.0,0.0012881585,0.0,0.0,0.0,0.0,0.0,0.0,0.0,0.0
49484000,49404000,0.0039570425,0.0,0.32969275,0.0020291284,0.0,0.03376594,0.0,0.0,0.0,0.0,0.0,0.0,0.0,0.0011739187,0.0,0.0,nan,0.0,0.0,0.0,0.0,0.0,0.0,0.0,0.0,0.00082047854,0.0,0.0,0.0,0.0,0.0,0.0,0.0,0.0
49988000,49908000,0.0039627794,0.0,0.34046358,0.0019543413,0.0,0.061330643,0.0,0.0,0.0,0.0,0.0,0.0,0.0,0.0034391503,0.0,0.0,nan,0.0,0.0,0.0,0.0,0.0,0.0,0.0,0.0,0.004883103,0.0,0.0,0.0,0.0,0.0,0.0,0.0,0.0
50492000,50412000,0.0038165462,0.0,0.33321628,0.0018767638,0.0,0.08958696,0.0,0.0,0.0,0.0,0.0,0.0,0.0,0.0051734676,0.0,0.0,nan,0.0,0.0,0.0,0.0,0.0,0.0,0.0,0.0,0.0038250661,0.0,0.0,0.0,0.0,0.0,0.0,0.0,0.0
50988000,50908000,0.0043794075,0.0,0.29458356,0.0020187753,0.0,0.113837264,0.0,0.0,0.0,0.0,0.0,0.0,0.0,0.0057898425,0.0,0.0,nan,0.0,0.0,0.0,0.0,0.0,0.0,0.0,0.0,0.0068662646,0.0,0.0,0.0,0.0,0.0,0.0,0.0,0.0
51484000,51404000,0.0050796205,0.0,0.22887771,0.0020067936,0.0,0.15155724,0.0,0.0,0.0,0.0,0.0,0.0,0.0,0.004866348,0.0,0.0,nan,0.0,0.0,0.0,0.0,0.0,0.0,0.0,0.0,0.9745144,0.0,0.0,0.0,0.0,0.0,0.0,0.0,0.0
51988000,51908000,0.002654109,0.0,0.20232812,0.0018787218,0.0,0.16035086,0.0,0.0,0.0,0.0,0.0,0.0,0.0,0.004516069,0.0,0.0,nan,0.0,0.0,0.0,0.0,0.0,0.0,0.0,0.0,0.00074730656,0.0,0.0,0.0,0.0,0.0,0.0,0.0,0.0
52492000,52412000,0.002267718,0.0,0.17920409,0.001732281,0.0,0.16575348,0.0,0.0,0.0,0.0,0.0,0.0,0.0,0.005537913,0.0,0.0,nan,0.0,0.0,0.0,0.0,0.0,0.0,0.0,0.0,0.0010782266,0.0,0.0,0.0,0.0,0.0,0.0,0.0,0.0
52988000,52908000,0.0018912381,0.0,0.15522863,0.0015837752,0.0,0.17106397,0.0,0.0,0.0,0.0,0.0,0.0,0.0,0.00560645,0.0,0.0,nan,0.0,0.0,0.0,0.0,0.0,0.0,0.0,0.0,0.0035680823,0.0,0.0,0.0,0.0,0.0,0.0,0.0,0.0
53492000,53412000,0.0012077291,0.0,0.11979447,0.0012836658,0.0,0.1735946,0.0,0.0,0.0,0.0,0.0,0.0,0.0,0.0035203418,0.0,0.0,nan,0.0,0.0,0.0,0.0,0.0,0.0,0.0,0.0,0.00028643885,0.0,0.0,0.0,0.0,0.0,0.0,0.0,0.0
53988000,53908000,0.0011849348,0.0,0.107277796,0.0011399405,0.0,0.16885623,0.0,0.0,0.0,0.0,0.0,0.0,0.0,0.002680941,0.0,0.0,nan,0.0,0.0,0.0,0.0,0.0,0.0,0.0,0.0,1.5331172e-05,0.0,0.0,0.0,0.0,0.0,0.0,0.0,0.0
54484000,54404000,0.00076885096,0.0,0.0935842,0.0010057365,0.0,0.16657239,0.0,0.0,0.0,0.0,0.0,0.0,0.0,0.0026108245,0.0,0.0,nan,0.0,0.0,0.0,0.0,0.0,0.0,0.0,0.0,0.0016585335,0.0,0.0,0.0,0.0,0.0,0.0,0.0,0.0
54988000,54908000,0.0006182497,0.0,0.08033967,0.00088151655,0.0,0.16044419,0.0,0.0,0.0,0.0,0.0,0.0,0.0,0.0025308721,0.0,0.0,nan,0.0,0.0,0.0,0.0,0.0,0.0,0.0,0.0,0.00089579355,0.0,0.0,0.0,0.0,0.0,0.0,0.0,0.0
55492000,55412000,0.001192622,0.0,0.06002857,0.00066363777,0.0,0.14531335,0.0,0.0,0.0,0.0,0.0,0.0,0.0,0.0007773662,0.0,0.0,nan,0.0,0.0,0.0,0.0,0.0,0.0,0.0,0.0,0.00020784499,0.0,0.0,0.0,0.0,0.0,0.0,0.0,0.0
55988000,55908000,0.00087175606,0.0,0.0454855,0.0006092267,0.0,0.1355206,0.0,0.0,0.0,0.0,0.0,0.0,0.0,0.0009914554,0.0,0.0,nan,0.0,0.0,0.0,0.0,0.0,0.0,0.0,0.0,2.1421381e-05,0.0,0.0,0.0,0.0,0.0,0.0,0.0,0.0
56484000,56404000,0.00061462494,0.0,0.027803585,0.0005206663,0.0,0.12487804,0.0,0.0,0.0,0.0,0.0,0.0,0.0,0.00041962354,0.0,0.0,nan,0.0,0.0,0.0,0.0,0.0,0.0,0.0,0.0,6.915608e-05,0.0,0.0,0.0,0.0,0.0,0.0,0.0,0.0
56988000,56908000,7.267013e-05,0.0,0.015338116,0.0006826907,0.0,0.08505078,0.0,0.0,0.0,0.0,0.0,0.0,0.0,9.376573e-06,0.0,0.0,nan,0.0,0.0,0.0,0.0,0.0,0.0,0.0,0.0,0.00050120015,0.0,0.0,0.0,0.0,0.0,0.0,0.0,0.0
57492000,57412000,4.0929543e-05,0.0,0.0017801066,8.156417e-05,0.0,0.052070532,0.0,0.0,0.0,0.0,0.0,0.0,0.0,0.0001884925,0.0,0.0,nan,0.0,0.0,0.0,0.0,0.0,0.0,0.0,0.0,0.00032022558,0.0,0.0,0.0,0.0,0.0,0.0,0.0,0.0
57988000,57908000,3.9428225e-05,0.0,2.1310818e-05,8.14218e-05,0.0,0.043910995,0.0,0.0,0.0,0.0,0.0,0.0,0.0,0.00044678332,0.0,0.0,nan,0.0,0.0,0.0,0.0,0.0,0.0,0.0,0.0,0.00077199185,0.0,0.0,0.0,0.0,0.0,0.0,0.0,0.0
58484000,58404000,0.00018638409,0.0,1.2148621e-05,7.880584e-05,0.0,0.038684934,0.0,0.0,0.0,0.0,0.0,0.0,0.0,0.00040412263,0.0,0.0,nan,0.0,0.0,0.0,0.0,0.0,0.0,0.0,0.0,0.0008151492,0.0,0.0,0.0,0.0,0.0,0.0,0.0,0.0
58988000,58908000,0.00018106004,0.0,7.0928195e-06,8.112955e-05,0.0,0.03511226,0.0,0.0,0.0,0.0,0.0,0.0,0.0,0.00031075085,0.0,0.0,nan,0.0,0.0,0.0,0.0,0.0,0.0,0.0,0.0,0.0004388228,0.0,0.0,0.0,0.0,0.0,0.0,0.0,0.0
59492000,59412000,6.627584e-05,0.0,7.59802e-05,8.1680504e-05,0.0,0.028429301,0.0,0.0,0.0,0.0,0.0,0.0,0.0,0.00055153354,0.0,0.0,nan,0.0,0.0,0.0,0.0,0.0,0.0,0.0,0.0,0.00056862255,0.0,0.0,0.0,0.0,0.0,0.0,0.0,0.0
