timestamp,unallocated_torque[0],unallocated_torque[1],unallocated_torque[2],unallocated_thrust[0],unallocated_thrust[1],unallocated_thrust[2],handled_motor_failure_mask,torque_setpoint_achieved,thrust_setpoint_achieved,actuator_saturation[0],actuator_saturation[1],actuator_saturation[2],actuator_saturation[3],actuator_saturation[4],actuator_saturation[5],actuator_saturation[6],actuator_saturation[7],actuator_saturation[8],actuator_saturation[9],actuator_saturation[10],actuator_saturation[11],actuator_saturation[12],actuator_saturation[13],actuator_saturation[14],actuator_saturation[15]
3212000,0.00018364761,3.6593643e-05,0.0003521473,0.0,0.0,0.0,0,1,1,-2,-2,-2,-2,2,2,2,2,2,2,2,2,2,2,2,2
3220000,0.00024038885,0.00065602467,0.00045876956,0.0,0.0,0.0,0,1,1,-2,-2,-2,-2,2,2,2,2,2,2,2,2,2,2,2,2
3412000,0.00031451712,-0.00035392647,0.0002587151,0.0,0.0,0.0,0,1,1,-2,-2,-2,-2,2,2,2,2,2,2,2,2,2,2,2,2
3612000,0.019487021,0.021056395,0.00015293679,0.0,0.0,1.1641532e-10,0,0,1,0,-2,0,-2,2,2,2,2,2,2,2,2,2,2,2,2
3812000,0.01896511,0.023833297,0.00087454583,0.0,0.0,1.1641532e-10,0,0,1,0,-2,0,-2,2,2,2,2,2,2,2,2,2,2,2,2
4012000,0.019112866,0.022983484,0.00022097428,0.0,0.0,1.1641532e-10,0,0,1,0,-2,0,-2,2,2,2,2,2,2,2,2,2,2,2,2
4204000,0.018611511,0.021387117,0.00047668102,0.0,0.0,1.1641532e-10,0,0,1,0,-2,0,-2,2,2,2,2,2,2,2,2,2,2,2,2
4412000,0.0190576,0.021130618,0.00025785097,0.0,0.0,1.1641532e-10,0,0,1,0,-2,0,-2,2,2,2,2,2,2,2,2,2,2,2,2
4612000,0.019311046,0.020476947,0.00051326404,0.0,0.0,1.1641532e-10,0,0,1,0,-2,0,-2,2,2,2,2,2,2,2,2,2,2,2,2
4812000,0.01914421,0.020684903,0.0010017594,0.0,0.0,1.1641532e-10,0,0,1,0,-2,0,-2,2,2,2,2,2,2,2,2,2,2,2,2
5012000,0.018343562,0.019805681,0.0014560344,0.0,0.0,1.1641532e-10,0,0,1,0,-2,0,-2,2,2,2,2,2,2,2,2,2,2,2,2
5204000,0.01793179,0.018869415,0.0010376535,0.0,0.0,1.1641532e-10,0,0,1,0,-2,0,-2,2,2,2,2,2,2,2,2,2,2,2,2
5412000,0.017030252,0.019185472,0.000105035535,0.0,0.0,1.1641532e-10,0,0,1,0,-2,0,-2,2,2,2,2,2,2,2,2,2,2,2,2
5612000,0.016772313,0.019180479,0.0006079143,0.0,0.0,5.820766e-10,0,0,1,0,-2,0,-2,2,2,2,2,2,2,2,2,2,2,2,2
5804000,0.018180575,0.018507125,0.0005670984,0.0,0.0,5.820766e-10,0,0,1,0,-2,0,-2,2,2,2,2,2,2,2,2,2,2,2,2
6012000,0.017204601,0.01992412,-2.4274686e-05,0.0,0.0,1.1641532e-10,0,0,1,0,-2,0,-2,2,2,2,2,2,2,2,2,2,2,2,2
6204000,0.017838344,0.01973994,0.0006836332,0.0,0.0,1.1641532e-10,0,0,1,0,-2,0,-2,2,2,2,2,2,2,2,2,2,2,2,2
6412000,0.017394723,0.01909648,0.0006488927,0.0,0.0,1.1641532e-10,0,0,1,0,-2,0,-2,2,2,2,2,2,2,2,2,2,2,2,2
6604000,0.017502688,0.019225044,0.0009087428,0.0,0.0,5.820766e-10,0,0,1,0,-2,0,-2,2,2,2,2,2,2,2,2,2,2,2,2
6812000,0.01758231,0.018470338,0.0009657059,0.0,0.0,1.1641532e-10,0,0,1,0,-2,0,-2,2,2,2,2,2,2,2,2,2,2,2,2
7012000,0.016053507,0.019022375,0.0003152338,0.0,0.0,-2.3283064e-10,0,0,1,0,-2,0,-2,2,2,2,2,2,2,2,2,2,2,2,2
7212000,0.017372306,0.018414438,0.00031455583,0.0,0.0,5.820766e-10,0,0,1,0,-2,0,-2,2,2,2,2,2,2,2,2,2,2,2,2
7412000,0.01793985,0.01974582,-0.00014623195,0.0,0.0,3.4924597e-10,0,0,1,0,-2,0,-2,2,2,2,2,2,2,2,2,2,2,2,2
7612000,0.017676717,0.02036113,0.00012083848,0.0,0.0,-2.3283064e-10,0,0,1,0,-2,0,-2,2,2,2,2,2,2,2,2,2,2,2,2
7812000,0.01649918,0.019791331,0.0005530713,0.0,0.0,1.1641532e-10,0,0,1,0,-2,0,-2,2,2,2,2,2,2,2,2,2,2,2,2
8012000,0.017628593,0.019044148,0.0004886362,0.0,0.0,1.1641532e-10,0,0,1,0,-2,0,-2,2,2,2,2,2,2,2,2,2,2,2,2
8212000,0.017288953,0.01934517,9.756674e-05,0.0,0.0,1.1641532e-10,0,0,1,0,-2,0,-2,2,2,2,2,2,2,2,2,2,2,2,2
8412000,0.017834615,0.018894492,0.00061704096,0.0,0.0,5.820766e-10,0,0,1,0,-2,0,-2,2,2,2,2,2,2,2,2,2,2,2,2
8612000,0.017280085,0.01812267,0.00030689142,0.0,0.0,-8.1490725e-10,0,0,1,0,-2,0,-2,2,2,2,2,2,2,2,2,2,2,2,2
8812000,0.016542064,0.019371165,0.00031246868,0.0,0.0,1.1641532e-10,0,0,1,0,-2,0,-2,2,2,2,2,2,2,2,2,2,2,2,2
9012000,0.017713856,0.017395163,0.00036268932,0.0,0.0,1.1641532e-10,0,0,1,0,-2,0,-2,2,2,2,2,2,2,2,2,2,2,2,2
9212000,0.017475123,0.018055167,0.00034855935,0.0,0.0,-2.3283064e-10,0,0,1,0,-2,0,-2,2,2,2,2,2,2,2,2,2,2,2,2
9404000,0.01748078,0.018106015,-9.0664966e-05,0.0,0.0,1.1641532e-10,0,0,1,0,-2,0,-2,2,2,2,2,2,2,2,2,2,2,2,2
9612000,0.01684493,0.018997816,-0.0004459594,0.0,0.0,1.0477379e-09,0,0,1,0,-2,0,-2,2,2,2,2,2,2,2,2,2,2,2,2
9812000,0.01757237,0.017566646,0.00018820057,0.0,0.0,1.1641532e-10,0,0,1,0,-2,0,-2,2,2,2,2,2,2,2,2,2,2,2,2
10012000,0.017125897,0.018105878,0.00010771339,0.0,0.0,-2.3283064e-10,0,0,1,0,-2,0,-2,2,2,2,2,2,2,2,2,2,2,2,2
10212000,0.017158726,0.017824227,0.0004631769,0.0,0.0,-1.1641532e-10,0,0,1,0,-2,0,-2,2,2,2,2,2,2,2,2,2,2,2,2
10412000,0.01629762,0.017816283,0.00050761586,0.0,0.0,4.656613e-10,0,0,1,0,-2,0,-2,2,2,2,2,2,2,2,2,2,2,2,2
10612000,0.016224852,0.017788347,-0.00010357688,0.0,0.0,3.4924597e-10,0,0,1,0,-2,0,-2,2,2,2,2,2,2,2,2,2,2,2,2
10812000,0.01664387,0.017769493,5.864471e-05,0.0,0.0,5.820766e-10,0,0,1,0,-2,0,-2,2,2,2,2,2,2,2,2,2,2,2,2
11004000,0.015776988,0.01789089,0.00012357922,0.0,0.0,-2.3283064e-10,0,0,1,0,-2,0,-2,2,2,2,2,2,2,2,2,2,2,2,2
11212000,0.016375763,0.01872584,0.00031164187,0.0,0.0,1.1641532e-10,0,0,1,0,-2,0,-2,2,2,2,2,2,2,2,2,2,2,2,2
11412000,0.01701353,0.01799877,0.0005227337,0.0,0.0,1.1641532e-10,0,0,1,0,-2,0,-2,2,2,2,2,2,2,2,2,2,2,2,2
11612000,0.016026316,0.017132984,0.00037303206,0.0,0.0,1.1641532e-10,0,0,1,0,-2,0,-2,2,2,2,2,2,2,2,2,2,2,2,2
11812000,0.016230296,0.018246938,-4.0866e-05,0.0,0.0,-3.4924597e-10,0,0,1,0,-2,0,-2,2,2,2,2,2,2,2,2,2,2,2,2
12012000,0.016351027,0.017363196,0.00037672775,0.0,0.0,-2.3283064e-10,0,0,1,0,-2,0,-2,2,2,2,2,2,2,2,2,2,2,2,2
12212000,0.016462116,0.017830163,0.00010329916,0.0,0.0,1.1641532e-10,0,0,1,0,-2,0,-2,2,2,2,2,2,2,2,2,2,2,2,2
12412000,0.016254371,0.017922096,0.00021019115,0.0,0.0,4.656613e-10,0,0,1,0,-2,0,-2,2,2,2,2,2,2,2,2,2,2,2,2
12612000,0.015621424,0.01855652,0.0006726057,0.0,0.0,1.1641532e-10,0,0,1,0,-2,0,-2,2,2,2,2,2,2,2,2,2,2,2,2
12812000,0.015623261,0.018116932,-0.0007311355,0.0,0.0,1.1641532e-10,0,0,1,0,-2,0,-2,2,2,2,2,2,2,2,2,2,2,2,2
13012000,0.016021794,0.017730603,7.265393e-05,0.0,0.0,1.1641532e-10,0,0,1,0,-2,0,-2,2,2,2,2,2,2,2,2,2,2,2,2
13212000,0.016440017,0.017511554,-6.489128e-08,0.0,0.0,-3.4924597e-10,0,0,1,0,-2,0,-2,2,2,2,2,2,2,2,2,2,2,2,2
13412000,0.015760735,0.017887643,9.405222e-05,0.0,0.0,2.3283064e-10,0,0,1,0,-2,0,-2,2,2,2,2,2,2,2,2,2,2,2,2
13612000,0.016547628,0.017774206,-9.754719e-05,0.0,0.0,-2.3283064e-10,0,0,1,0,-2,0,-2,2,2,2,2,2,2,2,2,2,2,2,2
13812000,0.015276877,0.016052615,0.000115021634,0.0,0.0,5.820766e-10,0,0,1,0,-2,0,-2,2,2,2,2,2,2,2,2,2,2,2,2
14012000,0.014505111,0.018918445,0.00012185186,0.0,0.0,1.1641532e-10,0,0,1,0,-2,0,-2,2,2,2,2,2,2,2,2,2,2,2,2
14212000,0.016079959,0.015924929,0.00012474286,0.0,0.0,1.1641532e-10,0,0,1,0,-2,0,-2,2,2,2,2,2,2,2,2,2,2,2,2
14412000,0.016881123,0.017046485,0.00020532956,0.0,0.0,4.656613e-10,0,0,1,0,-2,0,-2,2,2,2,2,2,2,2,2,2,2,2,2
14612000,0.015510699,0.016398447,0.0004715142,0.0,0.0,-2.3283064e-10,0,0,1,0,-2,0,-2,2,2,2,2,2,2,2,2,2,2,2,2
14812000,0.016182723,0.016783679,-0.00015380155,0.0,0.0,1.1641532e-10,0,0,1,0,-2,0,-2,2,2,2,2,2,2,2,2,2,2,2,2
15012000,0.016217107,0.017090742,4.4516073e-05,0.0,0.0,4.656613e-10,0,0,1,0,-2,0,-2,2,2,2,2,2,2,2,2,2,2,2,2
15212000,0.016145224,0.017100703,0.00012813012,0.0,0.0,-2.3283064e-10,0,0,1,0,-2,0,-2,2,2,2,2,2,2,2,2,2,2,2,2
15412000,0.015839096,0.016242575,0.0002608763,0.0,0.0,-2.3283064e-10,0,0,1,0,-2,0,-2,2,2,2,2,2,2,2,2,2,2,2,2
15612000,0.015260742,0.016780982,-0.00023103906,0.0,0.0,2.3283064e-10,0,0,1,0,-2,0,-2,2,2,2,2,2,2,2,2,2,2,2,2
15812000,0.015682383,0.016237242,0.00037435762,0.0,0.0,1.1641532e-10,0,0,1,0,-2,0,-2,2,2,2,2,2,2,2,2,2,2,2,2
16012000,0.015575845,0.015458134,9.709534e-06,0.0,0.0,1.1641532e-10,0,0,1,0,-2,0,-2,2,2,2,2,2,2,2,2,2,2,2,2
16212000,0.015863013,0.013912578,0.00051665166,0.0,0.0,-2.3283064e-10,0,0,1,0,-2,0,-2,2,2,2,2,2,2,2,2,2,2,2,2
16412000,0.016158814,0.015367483,0.00017093624,0.0,0.0,1.1641532e-10,0,0,1,0,-2,0,-2,2,2,2,2,2,2,2,2,2,2,2,2
16604000,0.016325295,0.016000463,0.00010384843,0.0,0.0,1.1641532e-10,0,0,1,0,-2,0,-2,2,2,2,2,2,2,2,2,2,2,2,2
16812000,0.017127238,0.015771246,0.00031725247,0.0,0.0,1.1641532e-10,0,0,1,0,-2,0,-2,2,2,2,2,2,2,2,2,2,2,2,2
17012000,0.01656279,0.01367579,-0.00014763205,0.0,0.0,-2.3283064e-10,0,0,1,0,-2,0,-2,2,2,2,2,2,2,2,2,2,2,2,2
17212000,0.0153894415,0.014755933,0.00042453984,0.0,0.0,-2.3283064e-10,0,0,1,0,-2,0,-2,2,2,2,2,2,2,2,2,2,2,2,2
17412000,0.016096756,0.016233807,0.00052858493,0.0,0.0,1.1641532e-10,0,0,1,0,-2,0,-2,2,2,2,2,2,2,2,2,2,2,2,2
17612000,0.015546765,0.015121801,0.0003460787,0.0,0.0,1.1641532e-10,0,0,1,0,-2,0,-2,2,2,2,2,2,2,2,2,2,2,2,2
17804000,0.015727565,0.015558401,-8.935825e-05,0.0,0.0,-2.3283064e-10,0,0,1,0,-2,0,-2,2,2,2,2,2,2,2,2,2,2,2,2
18012000,0.015254802,0.015010933,0.00016953568,0.0,0.0,5.820766e-10,0,0,1,0,-2,0,-2,2,2,2,2,2,2,2,2,2,2,2,2
18212000,0.01526232,0.0147057455,0.000126971,0.0,0.0,-2.3283064e-10,0,0,1,0,-2,0,-2,2,2,2,2,2,2,2,2,2,2,2,2
18404000,0.015151463,0.014446585,0.00042704662,0.0,0.0,1.1641532e-10,0,0,1,0,-2,0,-2,2,2,2,2,2,2,2,2,2,2,2,2
18612000,0.01548712,0.0153019475,4.9284426e-05,0.0,0.0,1.1641532e-10,0,0,1,0,-2,0,-2,2,2,2,2,2,2,2,2,2,2,2,2
18812000,0.016028332,0.015631264,0.00023782167,0.0,0.0,5.820766e-10,0,0,1,0,-2,0,-2,2,2,2,2,2,2,2,2,2,2,2,2
19012000,0.0155425,0.01383063,0.00042504584,0.0,0.0,1.1641532e-10,0,0,1,0,-2,0,-2,2,2,2,2,2,2,2,2,2,2,2,2
19204000,0.014660752,0.013014578,0.0004854384,0.0,0.0,1.1641532e-10,0,0,1,0,-2,0,-2,2,2,2,2,2,2,2,2,2,2,2,2
19412000,0.01621823,0.0137265315,2.1248485e-05,0.0,0.0,1.1641532e-10,0,0,1,0,-2,0,-2,2,2,2,2,2,2,2,2,2,2,2,2
19612000,0.016805695,0.0137215825,-1.658391e-05,0.0,0.0,-2.3283064e-10,0,0,1,0,-2,0,-2,2,2,2,2,2,2,2,2,2,2,2,2
19812000,0.01565986,0.014541878,-6.256984e-05,0.0,0.0,5.820766e-10,0,0,1,0,-2,0,-2,2,2,2,2,2,2,2,2,2,2,2,2
20012000,0.014779097,0.014553025,0.00044005847,0.0,0.0,-2.3283064e-10,0,0,1,0,-2,0,-2,2,2,2,2,2,2,2,2,2,2,2,2
20212000,0.016652424,0.0140988855,-2.6973617e-05,0.0,0.0,-2.3283064e-10,0,0,1,0,-2,0,-2,2,2,2,2,2,2,2,2,2,2,2,2
20404000,0.015849698,0.013809719,0.00016465173,0.0,0.0,5.820766e-10,0,0,1,0,-2,0,-2,2,2,2,2,2,2,2,2,2,2,2,2
20612000,0.015529045,0.013806264,0.00059809344,0.0,0.0,1.1641532e-10,0,0,1,0,-2,0,-2,2,2,2,2,2,2,2,2,2,2,2,2
20812000,0.015426902,0.012629483,9.1089096e-05,0.0,0.0,1.1641532e-10,0,0,1,0,-2,0,-2,2,2,2,2,2,2,2,2,2,2,2,2
21012000,0.015316103,0.013247893,0.00056607457,0.0,0.0,1.1641532e-10,0,0,1,0,-2,0,-2,2,2,2,2,2,2,2,2,2,2,2,2
21212000,0.01575205,0.014112696,0.00040323017,0.0,0.0,4.656613e-10,0,0,1,0,-2,0,-2,2,2,2,2,2,2,2,2,2,2,2,2
21412000,0.014814016,0.01359601,0.000806954,0.0,0.0,1.1641532e-10,0,0,1,0,-2,0,-2,2,2,2,2,2,2,2,2,2,2,2,2
21612000,0.015492384,0.01423504,0.00023985495,0.0,0.0,1.1641532e-10,0,0,1,0,-2,0,-2,2,2,2,2,2,2,2,2,2,2,2,2
21812000,0.015171404,0.011846093,-4.1099673e-05,0.0,0.0,1.1641532e-10,0,0,1,0,-2,0,-2,2,2,2,2,2,2,2,2,2,2,2,2
22012000,0.015060235,0.01416082,0.00020731674,0.0,0.0,1.0477379e-09,0,0,1,0,-2,0,-2,2,2,2,2,2,2,2,2,2,2,2,2
22212000,0.009144787,9.313226e-10,0.00083497056,0.0,0.0,0.0,0,0,1,0,0,0,-2,2,2,2,2,2,2,2,2,2,2,2,2
22404000,-2.7939677e-09,0.0,1.4879333e-09,0.0,0.0,0.0,0,1,1,0,0,0,0,2,2,2,2,2,2,2,2,2,2,2,2
22612000,0.0,-9.313226e-10,-3.2305252e-09,0.0,0.0,-7.450581e-09,0,1,1,0,0,0,0,2,2,2,2,2,2,2,2,2,2,2,2
22812000,-7.450581e-09,1.8626451e-09,2.3719622e-09,0.0,0.0,7.450581e-09,0,1,1,0,0,0,0,2,2,2,2,2,2,2,2,2,2,2,2
23012000,-1.6763806e-08,1.8626451e-09,8.876668e-09,0.0,0.0,0.0,0,1,1,0,0,0,0,2,2,2,2,2,2,2,2,2,2,2,2
23212000,1.1175871e-08,-3.7252903e-09,3.0267984e-09,0.0,0.0,1.4901161e-08,0,1,1,0,0,0,0,2,2,2,2,2,2,2,2,2,2,2,2
23412000,-9.313226e-09,-3.7252903e-09,-3.6670826e-09,0.0,0.0,-2.9802322e-08,0,1,1,0,0,0,0,2,2,2,2,2,2,2,2,2,2,2,2
23612000,-4.0978193e-08,-1.8626451e-09,2.73576e-09,0.0,0.0,-2.9802322e-08,0,1,1,0,0,0,0,2,2,2,2,2,2,2,2,2,2,2,2
23812000,-3.3527613e-08,-1.1175871e-08,-7.4214768e-09,0.0,0.0,0.0,0,1,1,0,0,0,0,2,2,2,2,2,2,2,2,2,2,2,2
24004000,0.0,0.0,5.4424163e-09,0.0,0.0,-2.9802322e-08,0,1,1,0,0,0,0,2,2,2,2,2,2,2,2,2,2,2,2
24204000,-2.6077032e-08,-1.1175871e-08,-2.4214387e-08,0.0,0.0,0.0,0,1,1,0,0,0,0,2,2,2,2,2,2,2,2,2,2,2,2
24412000,-1.1175871e-08,3.7252903e-09,6.722985e-09,0.0,0.0,-2.9802322e-08,0,1,1,0,0,0,0,2,2,2,2,2,2,2,2,2,2,2,2
24612000,1.4901161e-08,1.4901161e-08,-8.411007e-09,0.0,0.0,2.9802322e-08,0,1,1,0,0,0,0,2,2,2,2,2,2,2,2,2,2,2,2
24804000,-7.450581e-09,1.4901161e-08,3.009336e-08,0.0,0.0,-5.9604645e-08,0,1,1,0,0,0,0,2,2,2,2,2,2,2,2,2,2,2,2
25012000,1.1175871e-08,-2.2351742e-08,2.1536835e-08,0.0,0.0,-5.9604645e-08,0,1,1,0,0,0,0,2,2,2,2,2,2,2,2,2,2,2,2
25212000,6.3329935e-08,7.450581e-09,2.8683644e-08,0.0,0.0,0.0,0,1,1,0,0,0,0,2,2,2,2,2,2,2,2,2,2,2,2
25412000,-5.9604645e-08,-7.450581e-09,6.024493e-09,0.0,0.0,-5.9604645e-08,0,1,1,0,0,0,0,2,2,2,2,2,2,2,2,2,2,2,2
25604000,-1.4901161e-08,1.4901161e-08,9.662472e-09,0.0,0.0,-5.9604645e-08,0,1,1,0,0,0,0,2,2,2,2,2,2,2,2,2,2,2,2
25812000,2.0489097e-08,-7.450581e-09,-1.2922101e-08,0.0,0.0,-5.9604645e-08,0,1,1,0,0,0,0,2,2,2,2,2,2,2,2,2,2,2,2
26012000,7.450581e-09,3.0733645e-08,3.131572e-08,0.0,0.0,0.0,0,1,1,0,0,0,0,2,2,2,2,2,2,2,2,2,2,2,2
26212000,2.339948e-08,-1.7229468e-08,-1.4239049e-08,0.0,0.0,-5.9604645e-08,0,1,1,0,0,0,0,2,2,2,2,2,2,2,2,2,2,2,2
26412000,-4.4237822e-09,-2.7939677e-08,1.2340024e-08,0.0,0.0,-5.9604645e-08,0,1,1,0,0,0,0,2,2,2,2,2,2,2,2,2,2,2,2
26612000,-8.6583896e-10,6.9849193e-09,2.5582267e-08,0.0,0.0,0.0,0,1,1,0,0,0,0,2,2,2,2,2,2,2,2,2,2,2,2
26804000,-3.8184226e-08,-1.9092113e-08,2.3501343e-08,0.0,0.0,0.0,0,1,1,0,0,0,0,2,2,2,2,2,2,2,2,2,2,2,2
27012000,8.428469e-08,1.1641532e-08,-1.1466909e-08,0.0,0.0,5.9604645e-08,0,1,1,0,0,0,0,2,2,2,2,2,2,2,2,2,2,2,2
27204000,8.428469e-08,4.656613e-10,-9.749783e-09,0.0,0.0,0.0,0,1,1,0,0,0,0,2,2,2,2,2,2,2,2,2,2,2,2
27412000,6.923801e-08,-3.7252903e-09,1.1557859e-08,0.0,0.0,0.0,0,1,1,0,0,0,0,2,2,2,2,2,2,2,2,2,2,2,2
27612000,2.0489097e-08,1.5366822e-08,1.677563e-08,0.0,0.0,0.0,0,1,1,0,0,0,0,2,2,2,2,2,2,2,2,2,2,2,2
27812000,2.2439053e-08,4.8894435e-08,8.54925e-09,0.0,0.0,0.0,0,1,1,0,0,0,0,2,2,2,2,2,2,2,2,2,2,2,2
28004000,2.4272595e-08,3.9115548e-08,1.6148988e-08,0.0,0.0,0.0,0,1,1,0,0,0,0,2,2,2,2,2,2,2,2,2,2,2,2
28212000,2.1071173e-08,1.5832484e-08,-8.8330125e-09,0.0,0.0,-5.9604645e-08,0,1,1,0,0,0,0,2,2,2,2,2,2,2,2,2,2,2,2
28404000,4.48199e-09,-1.1641532e-08,-5.9371814e-09,0.0,0.0,0.0,0,1,1,0,0,0,0,2,2,2,2,2,2,2,2,2,2,2,2
28612000,4.2608008e-08,1.3504177e-08,-3.7878635e-08,0.0,0.0,-5.9604645e-08,0,1,1,0,0,0,0,2,2,2,2,2,2,2,2,2,2,2,2
28812000,9.080395e-09,3.7252903e-09,-3.5361154e-08,0.0,0.0,-5.9604645e-08,0,1,1,0,0,0,0,2,2,2,2,2,2,2,2,2,2,2,2
29012000,-5.0786184e-09,1.1874363e-08,-4.5169145e-08,0.0,0.0,-1.1920929e-07,0,1,1,0,0,0,0,2,2,2,2,2,2,2,2,2,2,2,2
29212000,-2.1471351e-08,7.450581e-09,-1.3853423e-08,0.0,0.0,-5.9604645e-08,0,1,1,0,0,0,0,2,2,2,2,2,2,2,2,2,2,2,2
29404000,2.7939677e-08,-1.3969839e-09,-9.560608e-09,0.0,0.0,5.9604645e-08,0,1,1,0,0,0,0,2,2,2,2,2,2,2,2,2,2,2,2
29612000,-7.795825e-08,-1.6763806e-08,1.9678282e-08,0.0,0.0,-5.9604645e-08,0,1,1,0,0,0,0,2,2,2,2,2,2,2,2,2,2,2,2
29804000,9.094947e-09,-2.2118911e-08,-3.4924597e-10,0.0,0.0,0.0,0,1,1,0,0,0,0,2,2,2,2,2,2,2,2,2,2,2,2
30012000,-2.8827344e-08,8.8475645e-09,-8.949428e-09,0.0,0.0,0.0,0,1,1,0,0,0,0,2,2,2,2,2,2,2,2,2,2,2,2
30212000,-5.2154064e-08,1.071021e-08,1.8015271e-08,0.0,0.0,-5.9604645e-08,0,1,1,0,0,0,0,2,2,2,2,2,2,2,2,2,2,2,2
30404000,3.934838e-08,-9.313226e-10,1.3940735e-08,0.0,0.0,-5.9604645e-08,0,1,1,0,0,0,0,2,2,2,2,2,2,2,2,2,2,2,2
30604000,-1.7869752e-08,-4.4237822e-09,1.0739313e-08,0.0,0.0,0.0,0,1,1,0,0,0,0,2,2,2,2,2,2,2,2,2,2,2,2
30812000,-1.929584e-08,9.778887e-09,-2.0881998e-08,0.0,0.0,0.0,0,1,1,0,0,0,0,2,2,2,2,2,2,2,2,2,2,2,2
31004000,-1.0069925e-08,6.2864274e-09,2.7182978e-08,0.0,0.0,0.0,0,1,1,0,0,0,0,2,2,2,2,2,2,2,2,2,2,2,2
31204000,3.736932e-08,-4.656613e-09,-3.754394e-09,0.0,0.0,-5.9604645e-08,0,1,1,0,0,0,0,2,2,2,2,2,2,2,2,2,2,2,2
31412000,-1.8626451e-08,1.8626451e-08,-2.3028406e-09,0.0,0.0,-5.9604645e-08,0,1,1,0,0,0,0,2,2,2,2,2,2,2,2,2,2,2,2
31612000,-1.2129021e-08,-1.1175871e-08,-1.9092113e-08,0.0,0.0,-5.9604645e-08,0,1,1,0,0,0,0,2,2,2,2,2,2,2,2,2,2,2,2
31812000,-5.347829e-09,1.0244548e-08,-1.702574e-08,0.0,0.0,0.0,0,1,1,0,0,0,0,2,2,2,2,2,2,2,2,2,2,2,2
32012000,-7.491326e-08,-8.614734e-09,2.3690518e-08,0.0,0.0,-5.9604645e-08,0,1,1,0,0,0,0,2,2,2,2,2,2,2,2,2,2,2,2
32212000,2.5029294e-08,-4.8894435e-08,-4.656613e-09,0.0,0.0,-5.9604645e-08,0,1,1,0,0,0,0,2,2,2,2,2,2,2,2,2,2,2,2
32412000,-2.4563633e-08,-1.1175871e-08,-3.8853614e-09,0.0,0.0,0.0,0,1,1,0,0,0,0,2,2,2,2,2,2,2,2,2,2,2,2
32604000,-5.7683792e-08,-1.6763806e-08,2.3283064e-10,0.0,0.0,5.9604645e-08,0,1,1,0,0,0,0,2,2,2,2,2,2,2,2,2,2,2,2
32812000,-1.792796e-08,5.122274e-09,-2.0780135e-08,0.0,0.0,-5.9604645e-08,0,1,1,0,0,0,0,2,2,2,2,2,2,2,2,2,2,2,2
33012000,1.5177648e-08,1.0244548e-08,-1.7113052e-08,0.0,0.0,0.0,0,1,1,0,0,0,0,2,2,2,2,2,2,2,2,2,2,2,2
33204000,1.5279511e-08,-2.6542693e-08,-7.1304385e-10,0.0,0.0,0.0,0,1,1,0,0,0,0,2,2,2,2,2,2,2,2,2,2,2,2
33404000,-4.476169e-08,-3.259629e-08,4.057074e-08,0.0,0.0,0.0,0,1,1,0,0,0,0,2,2,2,2,2,2,2,2,2,2,2,2
33612000,-2.500019e-08,1.1641532e-08,6.9812813e-09,0.0,0.0,0.0,0,1,1,0,0,0,0,2,2,2,2,2,2,2,2,2,2,2,2
33812000,-7.799827e-09,-2.6077032e-08,-1.0069925e-08,0.0,0.0,-5.9604645e-08,0,1,1,0,0,0,0,2,2,2,2,2,2,2,2,2,2,2,2
34004000,-2.910383e-11,3.306195e-08,2.4272595e-08,0.0,0.0,-5.9604645e-08,0,1,1,0,0,0,0,2,2,2,2,2,2,2,2,2,2,2,2
34212000,-3.5506673e-09,-3.4458935e-08,-2.1083906e-08,0.0,0.0,-5.9604645e-08,0,1,1,0,0,0,0,2,2,2,2,2,2,2,2,2,2,2,2
34412000,1.2165401e-08,2.0721927e-08,-9.124051e-09,0.0,0.0,-5.9604645e-08,0,1,1,0,0,0,0,2,2,2,2,2,2,2,2,2,2,2,2
34612000,-4.118192e-09,-1.0244548e-08,1.1903467e-08,0.0,0.0,-5.9604645e-08,0,1,1,0,0,0,0,2,2,2,2,2,2,2,2,2,2,2,2
34812000,-2.2864697e-09,-3.585592e-08,2.8405339e-08,0.0,0.0,-5.9604645e-08,0,1,1,0,0,0,0,2,2,2,2,2,2,2,2,2,2,2,2
35012000,1.2572855e-08,-1.7695129e-08,2.3137545e-09,0.0,0.0,0.0,0,1,1,0,0,0,0,2,2,2,2,2,2,2,2,2,2,2,2
35212000,-6.6356733e-09,2.1187589e-08,-3.4124241e-09,0.0,0.0,0.0,0,1,1,0,0,0,0,2,2,2,2,2,2,2,2,2,2,2,2
35404000,2.9656803e-08,2.4680048e-08,-1.0164513e-08,0.0,0.0,-5.9604645e-08,0,1,1,0,0,0,0,2,2,2,2,2,2,2,2,2,2,2,2
35604000,-5.6112185e-08,1.6298145e-08,-2.8987415e-08,0.0,0.0,-5.9604645e-08,0,1,1,0,0,0,0,2,2,2,2,2,2,2,2,2,2,2,2
35812000,-9.429641e-09,-9.778887e-09,3.3673132e-08,0.0,0.0,0.0,0,1,1,0,0,0,0,2,2,2,2,2,2,2,2,2,2,2,2
36012000,1.5017577e-08,-3.0500814e-08,1.4231773e-08,0.0,0.0,-5.9604645e-08,0,1,1,0,0,0,0,2,2,2,2,2,2,2,2,2,2,2,2
36204000,-2.3515895e-08,6.519258e-09,-2.226443e-08,0.0,0.0,-5.9604645e-08,0,1,1,0,0,0,0,2,2,2,2,2,2,2,2,2,2,2,2
36404000,2.8056093e-08,-6.519258e-09,-1.693843e-08,0.0,0.0,-5.9604645e-08,0,1,1,0,0,0,0,2,2,2,2,2,2,2,2,2,2,2,2
36612000,-3.0893716e-08,-1.9092113e-08,3.0122465e-09,0.0,0.0,-5.9604645e-08,0,1,1,0,0,0,0,2,2,2,2,2,2,2,2,2,2,2,2
36812000,1.1641532e-08,-2.7939677e-09,5.2386895e-10,0.0,0.0,0.0,0,1,1,0,0,0,0,2,2,2,2,2,2,2,2,2,2,2,2
37004000,1.9266736e-08,-3.562309e-08,8.694997e-09,0.0,0.0,-5.9604645e-08,0,1,1,0,0,0,0,2,2,2,2,2,2,2,2,2,2,2,2
37212000,2.5189365e-08,-2.4214387e-08,-1.9732397e-08,0.0,0.0,-5.9604645e-08,0,1,1,0,0,0,0,2,2,2,2,2,2,2,2,2,2,2,2
37412000,4.1909516e-09,-1.1641532e-08,7.537892e-09,0.0,0.0,0.0,0,1,1,0,0,0,0,2,2,2,2,2,2,2,2,2,2,2,2
37612000,-1.5716068e-08,-1.1175871e-08,-6.9994712e-09,0.0,0.0,0.0,0,1,1,0,0,0,0,2,2,2,2,2,2,2,2,2,2,2,2
37812000,2.9336661e-08,-8.381903e-09,-2.561137e-09,0.0,0.0,-5.9604645e-08,0,1,1,0,0,0,0,2,2,2,2,2,2,2,2,2,2,2,2
38012000,3.0355295e-08,2.3283064e-10,-2.3181201e-08,0.0,0.0,0.0,0,1,1,0,0,0,0,2,2,2,2,2,2,2,2,2,2,2,2
38204000,-8.195639e-08,-1.1641532e-08,-4.5401976e-09,0.0,0.0,0.0,0,1,1,0,0,0,0,2,2,2,2,2,2,2,2,2,2,2,2
38412000,-4.284084e-08,2.0954758e-08,-2.8667273e-08,0.0,0.0,0.0,0,1,1,0,0,0,0,2,2,2,2,2,2,2,2,2,2,2,2
38612000,-5.2532414e-08,2.863817e-08,3.306195e-08,0.0,0.0,-5.9604645e-08,0,1,1,0,0,0,0,2,2,2,2,2,2,2,2,2,2,2,2
38812000,-1.0727672e-07,4.656613e-10,4.458707e-08,0.0,0.0,-5.9604645e-08,0,1,1,0,0,0,0,2,2,2,2,2,2,2,2,2,2,2,2
39004000,2.4097972e-08,-1.1641532e-08,5.9080776e-09,0.0,0.0,-5.9604645e-08,0,1,1,0,0,0,0,2,2,2,2,2,2,2,2,2,2,2,2
39204000,-1.4420948e-08,-1.7229468e-08,-9.022187e-09,0.0,0.0,-5.9604645e-08,0,1,1,0,0,0,0,2,2,2,2,2,2,2,2,2,2,2,2
39412000,2.9976945e-08,6.9849193e-09,-1.952867e-08,0.0,0.0,0.0,0,1,1,0,0,0,0,2,2,2,2,2,2,2,2,2,2,2,2
39612000,5.122274e-09,-1.3969839e-09,2.5411282e-09,0.0,0.0,-5.9604645e-08,0,1,1,0,0,0,0,2,2,2,2,2,2,2,2,2,2,2,2
39812000,2.6542693e-08,4.33065e-08,-4.240428e-08,0.0,0.0,-5.9604645e-08,0,1,1,0,0,0,0,2,2,2,2,2,2,2,2,2,2,2,2
40012000,3.063178e-08,9.546056e-09,-7.781637e-09,0.0,0.0,0.0,0,1,1,0,0,0,0,2,2,2,2,2,2,2,2,2,2,2,2
40204000,-5.12955e-09,1.7462298e-08,-1.6465492e-08,0.0,0.0,-5.9604645e-08,0,1,1,0,0,0,0,2,2,2,2,2,2,2,2,2,2,2,2
40412000,-5.4533302e-09,1.21071935e-08,6.315531e-09,0.0,0.0,-5.9604645e-08,0,1,1,0,0,0,0,2,2,2,2,2,2,2,2,2,2,2,2
40612000,-5.029142e-08,-4.004687e-08,1.387798e-08,0.0,0.0,0.0,0,1,1,0,0,0,0,2,2,2,2,2,2,2,2,2,2,2,2
40812000,1.8713763e-08,-1.816079e-08,9.131327e-09,0.0,0.0,0.0,0,1,1,0,0,0,0,2,2,2,2,2,2,2,2,2,2,2,2
41004000,-1.6647391e-08,1.6763806e-08,5.5879354e-09,0.0,0.0,-5.9604645e-08,0,1,1,0,0,0,0,2,2,2,2,2,2,2,2,2,2,2,2
41212000,-1.6239937e-08,4.8894435e-09,2.6950147e-08,0.0,0.0,0.0,0,1,1,0,0,0,0,2,2,2,2,2,2,2,2,2,2,2,2
41412000,4.1211024e-08,2.0954758e-09,-4.474714e-09,0.0,0.0,-5.9604645e-08,0,1,1,0,0,0,0,2,2,2,2,2,2,2,2,2,2,2,2
41612000,-6.746268e-08,1.0011718e-08,1.9790605e-09,0.0,0.0,-5.9604645e-08,0,1,1,0,0,0,0,2,2,2,2,2,2,2,2,2,2,2,2
41812000,-6.402843e-08,-1.6065314e-08,1.4551915e-09,0.0,0.0,-5.9604645e-08,0,1,1,0,0,0,0,2,2,2,2,2,2,2,2,2,2,2,2
42004000,-1.9441359e-08,2.3283064e-09,-1.3533281e-08,0.0,0.0,-1.1920929e-07,0,1,1,0,0,0,0,2,2,2,2,2,2,2,2,2,2,2,2
42212000,-1.5832484e-08,-1.2340024e-08,-1.19398464e-08,0.0,0.0,0.0,0,1,1,0,0,0,0,2,2,2,2,2,2,2,2,2,2,2,2
42412000,6.486516e-09,4.004687e-08,9.313226e-10,0.0,0.0,-5.9604645e-08,0,1,1,0,0,0,0,2,2,2,2,2,2,2,2,2,2,2,2
42612000,3.4924597e-09,2.7939677e-09,-4.0745363e-10,0.0,0.0,-5.9604645e-08,0,1,1,0,0,0,0,2,2,2,2,2,2,2,2,2,2,2,2
42812000,-5.122274e-08,1.3504177e-08,2.0998414e-08,0.0,0.0,0.0,0,1,1,0,0,0,0,2,2,2,2,2,2,2,2,2,2,2,2
43012000,-2.1304004e-08,-2.9802322e-08,9.822543e-09,0.0,0.0,-5.9604645e-08,0,1,1,0,0,0,0,2,2,2,2,2,2,2,2,2,2,2,2
43212000,2.7415808e-08,-2.3283064e-09,9.633368e-09,0.0,0.0,-5.9604645e-08,0,1,1,0,0,0,0,2,2,2,2,2,2,2,2,2,2,2,2
43412000,-2.5902409e-08,1.3969839e-09,1.3911631e-08,0.0,0.0,0.0,0,1,1,0,0,0,0,2,2,2,2,2,2,2,2,2,2,2,2
43612000,4.1749445e-08,-9.313226e-10,-7.2905095e-09,0.0,0.0,-5.9604645e-08,0,1,1,0,0,0,0,2,2,2,2,2,2,2,2,2,2,2,2
43812000,8.169445e-08,-2.9802322e-08,1.1641532e-08,0.0,0.0,-1.1920929e-07,0,1,1,0,0,0,0,2,2,2,2,2,2,2,2,2,2,2,2
44012000,-3.608875e-09,1.6763806e-08,-1.929584e-08,0.0,0.0,0.0,0,1,1,0,0,0,0,2,2,2,2,2,2,2,2,2,2,2,2
44212000,3.480818e-08,1.816079e-08,-1.7695129e-08,0.0,0.0,-5.9604645e-08,0,1,1,0,0,0,0,2,2,2,2,2,2,2,2,2,2,2,2
44404000,-8.8475645e-08,2.7474016e-08,2.8812792e-09,0.0,0.0,-5.9604645e-08,0,1,1,0,0,0,0,2,2,2,2,2,2,2,2,2,2,2,2
44612000,-6.4537744e-08,-9.778887e-09,1.7258571e-08,0.0,0.0,-5.9604645e-08,0,1,1,0,0,0,0,2,2,2,2,2,2,2,2,2,2,2,2
44804000,8.859206e-08,-9.080395e-09,-3.943569e-09,0.0,0.0,0.0,0,1,1,0,0,0,0,2,2,2,2,2,2,2,2,2,2,2,2
45012000,-2.0372681e-09,1.8626451e-09,-7.392373e-09,0.0,0.0,-5.9604645e-08,0,1,1,0,0,0,0,2,2,2,2,2,2,2,2,2,2,2,2
45212000,-3.898458e-08,1.3969839e-08,-2.1536835e-09,0.0,0.0,0.0,0,1,1,0,0,0,0,2,2,2,2,2,2,2,2,2,2,2,2
45412000,1.0535587e-08,-3.7252903e-09,-7.712515e-09,0.0,0.0,0.0,0,1,1,0,0,0,0,2,2,2,2,2,2,2,2,2,2,2,2
45612000,-2.5233021e-08,1.1641532e-08,-1.8335413e-09,0.0,0.0,0.0,0,1,1,0,0,0,0,2,2,2,2,2,2,2,2,2,2,2,2
45812000,-1.4260877e-08,-2.3283064e-08,3.405148e-08,0.0,0.0,0.0,0,1,1,0,0,0,0,2,2,2,2,2,2,2,2,2,2,2,2
46004000,3.1854142e-08,-2.9802322e-08,3.0559022e-10,0.0,0.0,0.0,0,1,1,0,0,0,0,2,2,2,2,2,2,2,2,2,2,2,2
46204000,-9.720679e-09,-1.3969839e-09,-3.6408892e-08,0.0,0.0,0.0,0,1,1,0,0,0,0,2,2,2,2,2,2,2,2,2,2,2,2
46412000,7.383642e-08,1.5832484e-08,1.1117663e-08,0.0,0.0,0.0,0,1,1,0,0,0,0,2,2,2,2,2,2,2,2,2,2,2,2
46612000,3.981404e-08,1.3969839e-08,-4.132744e-09,0.0,0.0,-5.9604645e-08,0,1,1,0,0,0,0,2,2,2,2,2,2,2,2,2,2,2,2
46812000,1.1175871e-08,-1.1175871e-08,3.3760443e-09,0.0,0.0,0.0,0,1,1,0,0,0,0,2,2,2,2,2,2,2,2,2,2,2,2
47012000,1.7229468e-08,1.8626451e-09,-4.3364707e-09,0.0,0.0,0.0,0,1,1,0,0,0,0,2,2,2,2,2,2,2,2,2,2,2,2
47212000,-5.2154064e-08,1.9557774e-08,-1.8815626e-08,0.0,0.0,-5.9604645e-08,0,1,1,0,0,0,0,2,2,2,2,2,2,2,2,2,2,2,2
47412000,-9.787618e-08,1.7229468e-08,8.400093e-09,0.0,0.0,-5.9604645e-08,0,1,1,0,0,0,0,2,2,2,2,2,2,2,2,2,2,2,2
47612000,2.3224857e-08,-6.0070306e-08,-2.1682354e-09,0.0,0.0,-5.9604645e-08,0,1,1,0,0,0,0,2,2,2,2,2,2,2,2,2,2,2,2
47812000,7.392373e-09,-2.561137e-08,1.2514647e-09,0.0,0.0,0.0,0,1,1,0,0,0,0,2,2,2,2,2,2,2,2,2,2,2,2
48004000,-3.259629e-09,2.7939677e-09,-3.8271537e-08,0.0,0.0,0.0,0,1,1,0,0,0,0,2,2,2,2,2,2,2,2,2,2,2,2
48212000,-2.3283064e-09,1.5366822e-08,3.6743586e-08,0.0,0.0,0.0,0,1,1,0,0,0,0,2,2,2,2,2,2,2,2,2,2,2,2
48412000,-2.8550858e-08,4.1909516e-09,-1.34823495e-08,0.0,0.0,0.0,0,1,1,0,0,0,0,2,2,2,2,2,2,2,2,2,2,2,2
48604000,3.7660357e-08,2.9336661e-08,3.1723175e-09,0.0,0.0,-5.9604645e-08,0,1,1,0,0,0,0,2,2,2,2,2,2,2,2,2,2,2,2
48804000,-2.0838343e-08,-6.519258e-09,3.8489816e-09,0.0,0.0,-5.9604645e-08,0,1,1,0,0,0,0,2,2,2,2,2,2,2,2,2,2,2,2
49012000,1.0419171e-08,-1.2805685e-08,-1.686567e-08,0.0,0.0,-1.1920929e-07,0,1,1,0,0,0,0,2,2,2,2,2,2,2,2,2,2,2,2
49204000,3.3760443e-09,-2.9336661e-08,9.487849e-09,0.0,0.0,-5.9604645e-08,0,1,1,0,0,0,0,2,2,2,2,2,2,2,2,2,2,2,2
49404000,1.0244548e-08,-2.0489097e-08,-1.0913936e-08,0.0,0.0,-5.9604645e-08,0,1,1,0,0,0,0,2,2,2,2,2,2,2,2,2,2,2,2
49612000,3.934838e-08,-3.3294782e-08,-1.7869752e-08,0.0,0.0,0.0,0,1,1,0,0,0,0,2,2,2,2,2,2,2,2,2,2,2,2
49812000,-2.834713e-08,6.519258e-09,2.9802322e-08,0.0,0.0,0.0,0,1,1,0,0,0,0,2,2,2,2,2,2,2,2,2,2,2,2
50012000,-7.945346e-09,2.6542693e-08,-1.5817932e-08,0.0,0.0,0.0,0,1,1,0,0,0,0,2,2,2,2,2,2,2,2,2,2,2,2
50212000,5.893162e-08,1.1175871e-08,-2.7139322e-09,0.0,0.0,0.0,0,1,1,0,0,0,0,2,2,2,2,2,2,2,2,2,2,2,2
50404000,4.8341462e-08,-6.0535967e-09,2.3224857e-08,0.0,0.0,0.0,0,1,1,0,0,0,0,2,2,2,2,2,2,2,2,2,2,2,2
50612000,-2.6666385e-08,-5.5879354e-09,2.05182e-09,0.0,0.0,-5.9604645e-08,0,1,1,0,0,0,0,2,2,2,2,2,2,2,2,2,2,2,2
50804000,2.3748726e-08,1.5832484e-08,-2.386514e-09,0.0,0.0,-5.9604645e-08,0,1,1,0,0,0,0,2,2,2,2,2,2,2,2,2,2,2,2
51012000,6.565824e-08,1.816079e-08,-1.26165105e-08,0.0,0.0,0.0,0,1,1,0,0,0,0,2,2,2,2,2,2,2,2,2,2,2,2
51204000,1.7142156e-08,-3.1664968e-08,1.2660166e-08,0.0,0.0,0.0,0,1,1,0,0,0,0,2,2,2,2,2,2,2,2,2,2,2,2
51412000,-1.0244548e-08,3.7252903e-09,6.9849193e-10,0.0,0.0,0.0,0,1,1,0,0,0,0,2,2,2,2,2,2,2,2,2,2,2,2
51612000,-4.0512532e-08,2.2351742e-08,2.5916961e-08,0.0,0.0,0.0,0,1,1,0,0,0,0,2,2,2,2,2,2,2,2,2,2,2,2
51812000,8.8475645e-09,1.4901161e-08,4.438334e-09,0.0,0.0,0.0,0,1,1,0,0,0,0,2,2,2,2,2,2,2,2,2,2,2,2
52012000,2.3283064e-08,3.7252903e-09,1.1961674e-08,0.0,0.0,0.0,0,1,1,0,0,0,0,2,2,2,2,2,2,2,2,2,2,2,2
52212000,1.1175871e-08,1.1175871e-08,-1.7025741e-09,0.0,0.0,-2.9802322e-08,0,1,1,0,0,0,0,2,2,2,2,2,2,2,2,2,2,2,2
52404000,3.7252903e-09,-3.7252903e-09,9.371433e-09,0.0,0.0,-1.4901161e-08,0,1,1,0,0,0,0,2,2,2,2,2,2,2,2,2,2,2,2
52612000,0.0,0.0,-5.2386895e-09,0.0,0.0,0.0,0,1,1,0,0,0,0,2,2,2,2,2,2,2,2,2,2,2,2
52812000,0.0,7.450581e-09,4.8894435e-09,0.0,0.0,0.0,0,1,1,0,0,0,0,2,2,2,2,2,2,2,2,2,2,2,2
53012000,7.450581e-09,-1.1175871e-08,-2.3283064e-10,0.0,0.0,0.0,0,1,1,0,0,0,0,2,2,2,2,2,2,2,2,2,2,2,2
53212000,-1.3038516e-08,7.450581e-09,1.8480932e-09,0.0,0.0,0.0,0,1,1,0,0,0,0,2,2,2,2,2,2,2,2,2,2,2,2
53412000,-7.450581e-09,-1.4901161e-08,1.6880222e-09,0.0,0.0,0.0,0,1,1,0,0,0,0,2,2,2,2,2,2,2,2,2,2,2,2
53604000,-1.8626451e-08,0.0,7.625204e-09,0.0,0.0,-7.450581e-09,0,1,1,0,0,0,0,2,2,2,2,2,2,2,2,2,2,2,2
53812000,7.450581e-09,0.0,-1.6298145e-09,0.0,0.0,0.0,0,1,1,0,0,0,0,2,2,2,2,2,2,2,2,2,2,2,2
54012000,7.450581e-09,0.0,-1.8626451e-09,0.0,0.0,0.0,0,1,1,0,0,0,0,2,2,2,2,2,2,2,2,2,2,2,2
54212000,1.4901161e-08,-1.4901161e-08,-2.3283064e-09,0.0,0.0,-7.450581e-09,0,1,1,0,0,0,0,2,2,2,2,2,2,2,2,2,2,2,2
54404000,-1.8626451e-08,0.0,2.3283064e-10,0.0,0.0,-7.450581e-09,0,1,1,0,0,0,0,2,2,2,2,2,2,2,2,2,2,2,2
54612000,-1.4901161e-08,-1.4901161e-08,1.2572855e-08,0.0,0.0,0.0,0,1,1,0,0,0,0,2,2,2,2,2,2,2,2,2,2,2,2
54812000,-1.1175871e-08,-7.450581e-09,3.0267984e-09,0.0,0.0,0.0,0,1,1,0,0,0,0,2,2,2,2,2,2,2,2,2,2,2,2
55012000,3.7252903e-09,0.0,-5.5879354e-09,0.0,0.0,-7.450581e-09,0,1,1,0,0,0,0,2,2,2,2,2,2,2,2,2,2,2,2
55212000,-7.450581e-09,0.0,0.0,0.0,0.0,-7.450581e-09,0,1,1,0,0,0,0,2,2,2,2,2,2,2,2,2,2,2,2
55412000,-1.4901161e-08,-1.4901161e-08,2.561137e-09,0.0,0.0,-7.450581e-09,0,1,1,0,0,0,0,2,2,2,2,2,2,2,2,2,2,2,2
55612000,7.450581e-09,0.0,-4.656613e-10,0.0,0.0,-7.450581e-09,0,1,1,0,0,0,0,2,2,2,2,2,2,2,2,2,2,2,2
55812000,0.0013545752,0.0,-4.656613e-09,0.0,0.0,-7.450581e-09,0,0,1,0,0,0,0,2,2,2,2,2,2,2,2,2,2,2,2
56012000,0.020283189,0.0,-2.561137e-09,0.0,0.0,-7.450581e-09,0,0,1,0,0,0,0,2,2,2,2,2,2,2,2,2,2,2,2
56212000,0.026789475,1.4901161e-08,6.4028427e-09,0.0,0.0,-7.450581e-09,0,0,1,0,0,0,0,2,2,2,2,2,2,2,2,2,2,2,2
56412000,0.025368858,0.0,-1.2805685e-09,0.0,0.0,0.0,0,0,1,0,0,0,0,2,2,2,2,2,2,2,2,2,2,2,2
56604000,0.07225984,0.13593449,-0.0014121854,0.0,0.0,-3.608875e-09,0,0,1,0,-2,0,-2,2,2,2,2,2,2,2,2,2,2,2,2
56812000,0.07315041,0.13655286,-0.00071824406,0.0,0.0,3.8417056e-09,0,0,1,0,-2,0,-2,2,2,2,2,2,2,2,2,2,2,2,2
57012000,0.072170004,0.13452299,-0.0013784292,0.0,0.0,1.1641532e-10,0,0,1,0,-2,0,-2,2,2,2,2,2,2,2,2,2,2,2,2
57212000,0.07247447,0.13606563,-0.0013838711,0.0,0.0,-3.608875e-09,0,0,1,0,-2,0,-2,2,2,2,2,2,2,2,2,2,2,2,2
57412000,0.07175627,0.13475078,-0.001053938,0.0,0.0,-3.608875e-09,0,0,1,0,-2,0,-2,2,2,2,2,2,2,2,2,2,2,2,2
57612000,0.07275664,0.13601322,-0.0014776194,0.0,0.0,1.1641532e-10,0,0,1,0,-2,0,-2,2,2,2,2,2,2,2,2,2,2,2,2
57812000,0.07155358,0.13584946,-0.0013842032,0.0,0.0,1.1641532e-10,0,0,1,0,-2,0,-2,2,2,2,2,2,2,2,2,2,2,2,2
58012000,0.07145119,0.134751,-0.00091723935,0.0,0.0,-1.7462298e-09,0,0,1,0,-2,0,-2,2,2,2,2,2,2,2,2,2,2,2,2
58212000,0.07179922,0.13569212,-0.0010192752,0.0,0.0,1.1641532e-10,0,0,1,0,-2,0,-2,2,2,2,2,2,2,2,2,2,2,2,2
58412000,0.07106618,0.1355387,-0.0012965153,0.0,0.0,3.8417056e-09,0,0,1,0,-2,0,-2,2,2,2,2,2,2,2,2,2,2,2,2
58612000,0.012365328,0.01914213,-0.00023787029,0.0,0.0,1.1641532e-10,0,0,1,0,-2,0,-2,2,2,2,2,2,2,2,2,2,2,2,2
58804000,0.013163058,0.018434491,0.0006063579,0.0,0.0,1.1641532e-10,0,0,1,0,-2,0,-2,2,2,2,2,2,2,2,2,2,2,2,2
59004000,0.013327333,0.019866517,0.00013977599,0.0,0.0,-2.3283064e-10,0,0,1,0,-2,0,-2,2,2,2,2,2,2,2,2,2,2,2,2
59204000,0.012679077,0.019471757,0.00041690306,0.0,0.0,4.656613e-10,0,0,1,0,-2,0,-2,2,2,2,2,2,2,2,2,2,2,2,2
59412000,0.0130449375,0.0194881,-0.000113962764,0.0,0.0,1.0477379e-09,0,0,1,0,-2,0,-2,2,2,2,2,2,2,2,2,2,2,2,2
