timestamp,timestamp_sample,yaw_composite,yaw_variance,yaw[0],yaw[1],yaw[2],yaw[3],yaw[4],innov_vn[0],innov_vn[1],innov_vn[2],innov_vn[3],innov_vn[4],innov_ve[0],innov_ve[1],innov_ve[2],innov_ve[3],innov_ve[4],weight[0],weight[1],weight[2],weight[3],weight[4],yaw_composite_valid
23404000,23324000,2.6779451,3.5801747,-2.5132742,-1.2566371,0.0,1.2566371,2.5132742,0.0,0.0,0.0,0.0,0.0,0.0,0.0,0.0,0.0,0.0,0.2,0.2,0.2,0.2,0.2,0
23412000,23332000,2.6779451,3.5801725,-2.5132673,-1.2566301,7.0902834e-06,1.2566442,2.5132813,0.0,0.0,0.0,0.0,0.0,0.0,0.0,0.0,0.0,0.0,0.2,0.2,0.2,0.2,0.2,0
23420000,23340000,2.819842,3.647036,-2.5132632,-1.2566261,1.1030972e-05,1.2566482,2.5132852,0.0,0.0,0.0,0.0,0.0,0.0,0.0,0.0,0.0,0.0,0.2,0.2,0.2,0.2,0.2,0
23428000,23348000,2.2794228,3.607753,-2.5132596,-1.2566223,1.4754835e-05,1.2566519,2.513289,0.0,0.0,0.0,0.0,0.0,0.0,0.0,0.0,0.0,0.0,0.2,0.2,0.2,0.2,0.2,0
23436000,23356000,2.2455373,3.624744,-2.5132732,-1.2566359,1.1535402e-06,1.2566383,2.5132754,0.0,0.0,0.0,0.0,0.0,0.0,0.0,0.0,0.0,0.0,0.2,0.2,0.2,0.2,0.2,0
23444000,23364000,-2.782822,3.6257067,-2.513293,-1.2566559,-1.8803232e-05,1.2566184,2.5132556,0.0,0.0,0.0,0.0,0.0,0.0,0.0,0.0,0.0,0.0,0.2,0.2,0.2,0.2,0.2,0
23452000,23372000,2.896614,3.700037,-2.5133085,-1.2566714,-3.4286993e-05,1.2566029,2.5132399,0.0,0.0,0.0,0.0,0.0,0.0,0.0,0.0,0.0,0.0,0.2,0.2,0.2,0.2,0.2,0
23460000,23380000,-2.5829935,3.557917,-2.513315,-1.2566777,-4.0648058e-05,1.2565964,2.5132337,0.0,0.0,0.0,0.0,0.0,0.0,0.0,0.0,0.0,0.0,0.2,0.2,0.2,0.2,0.2,0
23468000,23388000,2.4468544,3.5574675,-2.5133271,-1.25669,-5.286847e-05,1.2565843,2.5132213,0.0,0.0,0.0,0.0,0.0,0.0,0.0,0.0,0.0,0.0,0.2,0.2,0.2,0.2,0.2,0
23476000,23396000,2.6135182,3.5631256,-2.5133414,-1.2567041,-6.693648e-05,1.2565702,2.5132072,0.0,0.0,0.0,0.0,0.0,0.0,0.0,0.0,0.0,0.0,0.2,0.2,0.2,0.2,0.2,0
23484000,23404000,2.976444,3.7676442,-2.5133324,-1.2566952,-5.8002068e-05,1.2565792,2.5132163,0.0,0.0,0.0,0.0,0.0,0.0,0.0,0.0,0.0,0.0,0.2,0.2,0.2,0.2,0.2,0
23492000,23412000,2.2974386,3.5996218,-2.5133388,-1.2567015,-6.436583e-05,1.2565727,2.5132098,0.0,0.0,0.0,0.0,0.0,0.0,0.0,0.0,0.0,0.0,0.2,0.2,0.2,0.2,0.2,0
23500000,23420000,2.6779451,3.5802064,-2.5133486,-1.2567112,-7.4136406e-05,1.256563,2.5132,0.0,0.0,0.0,0.0,0.0,0.0,0.0,0.0,0.0,0.0,0.2,0.2,0.2,0.2,0.2,0
23508000,23428000,2.5308666,3.5533783,-2.5133557,-1.2567184,-8.12801e-05,1.2565558,2.513193,0.0,0.0,0.0,0.0,0.0,0.0,0.0,0.0,0.0,0.0,0.2,0.2,0.2,0.2,0.2,0
23516000,23436000,2.9441972,3.7388349,-2.51336,-1.2567228,-8.565827e-05,1.2565515,2.5131886,0.0,0.0,0.0,0.0,0.0,0.0,0.0,0.0,0.0,0.0,0.2,0.2,0.2,0.2,0.2,0
23524000,23444000,2.4227626,3.5612407,-2.5133786,-1.2567413,-0.00010420067,1.2565329,2.51317,0.0,0.0,0.0,0.0,0.0,0.0,0.0,0.0,0.0,0.0,0.2,0.2,0.2,0.2,0.2,0
23532000,23452000,3.041924,3.832664,-2.5133934,-1.2567562,-0.00011901559,1.2565181,2.5131552,0.0,0.0,0.0,0.0,0.0,0.0,0.0,0.0,0.0,0.0,0.2,0.2,0.2,0.2,0.2,0
23540000,23460000,2.819842,3.647136,-2.5134108,-1.2567735,-0.00013634964,1.2565007,2.5131378,0.0,0.0,0.0,0.0,0.0,0.0,0.0,0.0,0.0,0.0,0.2,0.2,0.2,0.2,0.2,0
23548000,23468000,2.8501358,3.6666472,-2.5134273,-1.25679,-0.00015286528,1.2564843,2.5131214,0.0,0.0,0.0,0.0,0.0,0.0,0.0,0.0,0.0,0.0,0.2,0.2,0.2,0.2,0.2,0
23556000,23476000,2.4756234,3.5544748,-2.5134344,-1.256797,-0.00015980644,1.2564774,2.5131145,0.0,0.0,0.0,0.0,0.0,0.0,0.0,0.0,0.0,0.0,0.2,0.2,0.2,0.2,0.2,0
23564000,23484000,2.2974386,3.5995848,-2.513438,-1.2568007,-0.00016352082,1.2564737,2.5131106,0.0,0.0,0.0,0.0,0.0,0.0,0.0,0.0,0.0,0.0,0.2,0.2,0.2,0.2,0.2,0
23572000,23492000,3.1415927,3.9476428,-2.5134435,-1.2568061,-0.0001689323,1.2564682,2.5131054,0.0,0.0,0.0,0.0,0.0,0.0,0.0,0.0,0.0,0.0,0.2,0.2,0.2,0.2,0.2,0
23580000,23500000,3.041924,3.832717,-2.5134394,-1.2568022,-0.00016501975,1.2564721,2.5131092,0.0,0.0,0.0,0.0,0.0,0.0,0.0,0.0,0.0,0.0,0.2,0.2,0.2,0.2,0.2,0
23588000,23508000,2.4668517,3.5552123,-2.513437,-1.2567998,-0.00016262848,1.2564745,2.5131116,0.0,0.0,0.0,0.0,0.0,0.0,0.0,0.0,0.0,0.0,0.2,0.2,0.2,0.2,0.2,0
23596000,23516000,2.6779451,3.5802457,-2.5134468,-1.2568097,-0.00017247626,1.2564647,2.5131018,0.0,0.0,0.0,0.0,0.0,0.0,0.0,0.0,0.0,0.0,0.2,0.2,0.2,0.2,0.2,0
23604000,23524000,2.896614,3.7001536,-2.5134454,-1.256808,-0.00017076523,1.2564664,2.5131035,0.0,0.0,0.0,0.0,0.0,0.0,0.0,0.0,0.0,0.0,0.2,0.2,0.2,0.2,0.2,0
23612000,23532000,2.819842,3.647164,-2.5134482,-1.2568109,-0.00017366455,1.2564635,2.5131006,0.0,0.0,0.0,0.0,0.0,0.0,0.0,0.0,0.0,0.0,0.2,0.2,0.2,0.2,0.2,0
23620000,23540000,3.0860941,3.8813746,-2.5134292,-1.2567921,-0.00015484927,1.2564824,2.5131195,0.0,0.0,0.0,0.0,0.0,0.0,0.0,0.0,0.0,0.0,0.2,0.2,0.2,0.2,0.2,0
23628000,23548000,2.8387077,3.6590834,-2.5134296,-1.2567924,-0.00015516911,1.256482,2.5131192,0.0,0.0,0.0,0.0,0.0,0.0,0.0,0.0,0.0,0.0,0.2,0.2,0.2,0.2,0.2,0
23636000,23556000,2.896614,3.7001467,-2.5134327,-1.2567954,-0.00015828214,1.2564789,2.5131161,0.0,0.0,0.0,0.0,0.0,0.0,0.0,0.0,0.0,0.0,0.2,0.2,0.2,0.2,0.2,0
23644000,23564000,3.1415927,3.9476564,-2.513437,-1.2567999,-0.00016270345,1.2564745,2.5131116,0.0,0.0,0.0,0.0,0.0,0.0,0.0,0.0,0.0,0.0,0.2,0.2,0.2,0.2,0.2,0
23652000,23572000,3.070285,3.8635333,-2.5134494,-1.2568123,-0.00017508488,1.2564621,2.5130992,0.0,0.0,0.0,0.0,0.0,0.0,0.0,0.0,0.0,0.0,0.2,0.2,0.2,0.2,0.2,0
23660000,23580000,3.0860941,3.881422,-2.513468,-1.2568308,-0.00019354282,1.2564436,2.5130808,0.0,0.0,0.0,0.0,0.0,0.0,0.0,0.0,0.0,0.0,0.2,0.2,0.2,0.2,0.2,0
23668000,23588000,2.7985687,3.6345792,-2.5134635,-1.2568262,-0.00018899098,1.2564481,2.5130854,0.0,0.0,0.0,0.0,0.0,0.0,0.0,0.0,0.0,0.0,0.2,0.2,0.2,0.2,0.2,0
23676000,23596000,2.5308666,3.553395,-2.5134537,-1.2568165,-0.00017932271,1.2564578,2.513095,0.0,0.0,0.0,0.0,0.0,0.0,0.0,0.0,0.0,0.0,0.2,0.2,0.2,0.2,0.2,0
23684000,23604000,3.0172377,3.8072436,-2.5134578,-1.2568206,-0.0001833599,1.2564538,2.5130908,0.0,0.0,0.0,0.0,0.0,0.0,0.0,0.0,0.0,0.0,0.2,0.2,0.2,0.2,0.2,0
23692000,23612000,-2.896614,3.69988,-2.5134697,-1.2568326,-0.0001953021,1.2564418,2.5130792,0.0,0.0,0.0,0.0,0.0,0.0,0.0,0.0,0.0,0.0,0.2,0.2,0.2,0.2,0.2,0
23700000,23620000,-3.0791738,3.8730981,-2.5134735,-1.2568363,-0.00019902631,1.2564381,2.5130754,0.0,0.0,0.0,0.0,0.0,0.0,0.0,0.0,0.0,0.0,0.2,0.2,0.2,0.2,0.2,0
23708000,23628000,3.1415927,3.9476037,-2.513483,-1.256846,-0.00020873507,1.2564285,2.5130656,0.0,0.0,0.0,0.0,0.0,0.0,0.0,0.0,0.0,0.0,0.2,0.2,0.2,0.2,0.2,0
23716000,23636000,-2.9562447,3.74911,-2.5134945,-1.2568573,-0.0002200198,1.2564172,2.5130544,0.0,0.0,0.0,0.0,0.0,0.0,0.0,0.0,0.0,0.0,0.2,0.2,0.2,0.2,0.2,0
23724000,23644000,2.9562447,3.7495065,-2.5135012,-1.2568638,-0.00022663843,1.2564106,2.5130477,0.0,0.0,0.0,0.0,0.0,0.0,0.0,0.0,0.0,0.0,0.2,0.2,0.2,0.2,0.2,0
23732000,23652000,3.070285,3.8635979,-2.5135016,-1.2568645,-0.00022727555,1.2564099,2.513047,0.0,0.0,0.0,0.0,0.0,0.0,0.0,0.0,0.0,0.0,0.2,0.2,0.2,0.2,0.2,0
23740000,23660000,-3.0172377,3.8068464,-2.5134892,-1.256852,-0.00021482371,1.2564224,2.5130596,0.0,0.0,0.0,0.0,0.0,0.0,0.0,0.0,0.0,0.0,0.2,0.2,0.2,0.2,0.2,0
23748000,23668000,3.070285,3.8635778,-2.5134826,-1.2568455,-0.00020821515,1.256429,2.513066,0.0,0.0,0.0,0.0,0.0,0.0,0.0,0.0,0.0,0.0,0.2,0.2,0.2,0.2,0.2,0
23756000,23676000,2.9996955,3.7898972,-2.5134864,-1.2568492,-0.00021198152,1.2564253,2.5130622,0.0,0.0,0.0,0.0,0.0,0.0,0.0,0.0,0.0,0.0,0.2,0.2,0.2,0.2,0.2,0
23764000,23684000,3.0860941,3.8814754,-2.5135074,-1.2568702,-0.0002329256,1.2564043,2.5130415,0.0,0.0,0.0,0.0,0.0,0.0,0.0,0.0,0.0,0.0,0.2,0.2,0.2,0.2,0.2,0
23772000,23692000,3.1415927,3.9475405,-2.5135367,-1.2568995,-0.00026221483,1.2563751,2.5130122,0.0,0.0,0.0,0.0,0.0,0.0,0.0,0.0,0.0,0.0,0.2,0.2,0.2,0.2,0.2,0
23780000,23700000,3.0584514,3.8506317,-2.5135741,-1.2569367,-0.00029943953,1.2563378,2.512975,0.0,0.0,0.0,0.0,0.0,0.0,0.0,0.0,0.0,0.0,0.2,0.2,0.2,0.2,0.2,0
23788000,23708000,2.918116,3.7172263,-2.513573,-1.2569356,-0.00029832876,1.256339,2.512976,0.0,0.0,0.0,0.0,0.0,0.0,0.0,0.0,0.0,0.0,0.2,0.2,0.2,0.2,0.2,0
23796000,23716000,3.006065,3.7962353,-2.5135837,-1.2569464,-0.00030913806,1.2563281,2.5129652,0.0,0.0,0.0,0.0,0.0,0.0,0.0,0.0,0.0,0.0,0.2,0.2,0.2,0.2,0.2,0
23804000,23724000,1.7815325,3.814602,-2.5148916,-1.2568151,0.0010602013,1.2570232,2.5120056,-0.063807406,0.007185407,0.06824823,0.03499435,-0.046620548,-0.03828748,-0.07942576,-0.024620036,0.050390128,0.041943207,0.19970627,0.19928019,0.199848,0.20062666,0.20053889,0
23812000,23732000,1.7815275,3.8145995,-2.5148945,-1.2568179,0.0010573936,1.2570204,2.5120027,-0.063807406,0.007185407,0.06824823,0.03499435,-0.046620548,-0.03828748,-0.07942576,-0.024620036,0.050390128,0.041943207,0.19970627,0.19928019,0.199848,0.20062666,0.20053889,0
23820000,23740000,1.7815382,3.8146126,-2.5148952,-1.2568188,0.0010565778,1.2570196,2.512002,-0.063807406,0.007185407,0.06824823,0.03499435,-0.046620548,-0.03828748,-0.07942576,-0.024620036,0.050390128,0.041943207,0.19970627,0.19928019,0.199848,0.20062666,0.20053889,0
23828000,23748000,1.7815236,3.8146083,-2.5149052,-1.2568287,0.0010466223,1.2570096,2.511992,-0.063807406,0.007185407,0.06824823,0.03499435,-0.046620548,-0.03828748,-0.07942576,-0.024620036,0.050390128,0.041943207,0.19970627,0.19928019,0.199848,0.20062666,0.20053889,0
23836000,23756000,1.7814839,3.8146017,-2.5149374,-1.2568609,0.001014445,1.2569776,2.5119596,-0.063807406,0.007185407,0.06824823,0.03499435,-0.046620548,-0.03828748,-0.07942576,-0.024620036,0.050390128,0.041943207,0.19970627,0.19928019,0.199848,0.20062666,0.20053889,0
23844000,23764000,1.7814627,3.8146,-2.514957,-1.2568805,0.000994837,1.2569579,2.51194,-0.063807406,0.007185407,0.06824823,0.03499435,-0.046620548,-0.03828748,-0.07942576,-0.024620036,0.050390128,0.041943207,0.19970627,0.19928019,0.199848,0.20062666,0.20053889,0
23852000,23772000,1.7814678,3.8146071,-2.5149581,-1.2568816,0.0009937058,1.2569568,2.511939,-0.063807406,0.007185407,0.06824823,0.03499435,-0.046620548,-0.03828748,-0.07942576,-0.024620036,0.050390128,0.041943207,0.19970627,0.19928019,0.199848,0.20062666,0.20053889,0
23860000,23780000,1.7814549,3.814595,-2.5149589,-1.2568822,0.0009931258,1.2569561,2.5119383,-0.063807406,0.007185407,0.06824823,0.03499435,-0.046620548,-0.03828748,-0.07942576,-0.024620036,0.050390128,0.041943207,0.19970627,0.19928019,0.199848,0.20062666,0.20053889,0
23868000,23788000,1.7814837,3.8146179,-2.5149515,-1.256875,0.0010003401,1.2569634,2.5119457,-0.063807406,0.007185407,0.06824823,0.03499435,-0.046620548,-0.03828748,-0.07942576,-0.024620036,0.050390128,0.041943207,0.19970627,0.19928019,0.199848,0.20062666,0.20053889,0
23876000,23796000,1.7814715,3.814602,-2.5149477,-1.2568711,0.0010041874,1.2569672,2.5119495,-0.063807406,0.007185407,0.06824823,0.03499435,-0.046620548,-0.03828748,-0.07942576,-0.024620036,0.050390128,0.041943207,0.19970627,0.19928019,0.199848,0.20062666,0.20053889,0
23884000,23804000,1.7814889,3.8146281,-2.5149543,-1.2568779,0.0009974971,1.2569605,2.5119429,-0.063807406,0.007185407,0.06824823,0.03499435,-0.046620548,-0.03828748,-0.07942576,-0.024620036,0.050390128,0.041943207,0.19970627,0.19928019,0.199848,0.20062666,0.20053889,0
23892000,23812000,1.7814715,3.8146176,-2.5149615,-1.256885,0.0009903531,1.2569534,2.5119357,-0.063807406,0.007185407,0.06824823,0.03499435,-0.046620548,-0.03828748,-0.07942576,-0.024620036,0.050390128,0.041943207,0.19970627,0.19928019,0.199848,0.20062666,0.20053889,0
23900000,23820000,1.7814596,3.8146174,-2.514973,-1.2568964,0.0009789824,1.256942,2.5119243,-0.063807406,0.007185407,0.06824823,0.03499435,-0.046620548,-0.03828748,-0.07942576,-0.024620036,0.050390128,0.041943207,0.19970627,0.19928019,0.199848,0.20062666,0.20053889,0
23908000,23828000,1.7814723,3.8146374,-2.5149784,-1.2569017,0.0009736612,1.2569368,2.511919,-0.063807406,0.007185407,0.06824823,0.03499435,-0.046620548,-0.03828748,-0.07942576,-0.024620036,0.050390128,0.041943207,0.19970627,0.19928019,0.199848,0.20062666,0.20053889,0
23916000,23836000,1.7814453,3.814634,-2.5150018,-1.2569251,0.00095027,1.2569133,2.5118957,-0.063807406,0.007185407,0.06824823,0.03499435,-0.046620548,-0.03828748,-0.07942576,-0.024620036,0.050390128,0.041943207,0.19970627,0.19928019,0.199848,0.20062666,0.20053889,0
23924000,23844000,1.7814325,3.814636,-2.5150156,-1.2569389,0.0009363607,1.2568995,2.5118818,-0.063807406,0.007185407,0.06824823,0.03499435,-0.046620548,-0.03828748,-0.07942576,-0.024620036,0.050390128,0.041943207,0.19970627,0.19928019,0.199848,0.20062666,0.20053889,0
23932000,23852000,1.7814145,3.8146107,-2.5150092,-1.2569325,0.0009427844,1.2569058,2.511888,-0.063807406,0.007185407,0.06824823,0.03499435,-0.046620548,-0.03828748,-0.07942576,-0.024620036,0.050390128,0.041943207,0.19970627,0.19928019,0.199848,0.20062666,0.20053889,0
23940000,23860000,1.7814286,3.8146322,-2.5150146,-1.256938,0.0009373243,1.2569004,2.5118828,-0.063807406,0.007185407,0.06824823,0.03499435,-0.046620548,-0.03828748,-0.07942576,-0.024620036,0.050390128,0.041943207,0.19970627,0.19928019,0.199848,0.20062666,0.20053889,0
23948000,23868000,1.7814202,3.8146262,-2.5150163,-1.2569398,0.0009355304,1.2568986,2.5118809,-0.063807406,0.007185407,0.06824823,0.03499435,-0.046620548,-0.03828748,-0.07942576,-0.024620036,0.050390128,0.041943207,0.19970627,0.19928019,0.199848,0.20062666,0.20053889,0
23956000,23876000,1.7814081,3.8146234,-2.5150254,-1.2569488,0.0009264842,1.2568896,2.5118718,-0.063807406,0.007185407,0.06824823,0.03499435,-0.046620548,-0.03828748,-0.07942576,-0.024620036,0.050390128,0.041943207,0.19970627,0.19928019,0.199848,0.20062666,0.20053889,0
23964000,23884000,1.7814208,3.8146439,-2.515032,-1.2569554,0.00091997103,1.256883,2.5118654,-0.063807406,0.007185407,0.06824823,0.03499435,-0.046620548,-0.03828748,-0.07942576,-0.024620036,0.050390128,0.041943207,0.19970627,0.19928019,0.199848,0.20062666,0.20053889,0
23972000,23892000,1.7814081,3.8146355,-2.515036,-1.2569594,0.00091587595,1.256879,2.5118613,-0.063807406,0.007185407,0.06824823,0.03499435,-0.046620548,-0.03828748,-0.07942576,-0.024620036,0.050390128,0.041943207,0.19970627,0.19928019,0.199848,0.20062666,0.20053889,0
23980000,23900000,1.7813946,3.8146183,-2.5150323,-1.2569557,0.0009196044,1.2568827,2.511865,-0.063807406,0.007185407,0.06824823,0.03499435,-0.046620548,-0.03828748,-0.07942576,-0.024620036,0.050390128,0.041943207,0.19970627,0.19928019,0.199848,0.20062666,0.20053889,0
23988000,23908000,1.7814062,3.8146293,-2.515031,-1.2569544,0.0009208313,1.256884,2.511866,-0.063807406,0.007185407,0.06824823,0.03499435,-0.046620548,-0.03828748,-0.07942576,-0.024620036,0.050390128,0.041943207,0.19970627,0.19928019,0.199848,0.20062666,0.20053889,0
23996000,23916000,1.7814087,3.8146424,-2.5150406,-1.256964,0.0009113409,1.2568744,2.5118568,-0.063807406,0.007185407,0.06824823,0.03499435,-0.046620548,-0.03828748,-0.07942576,-0.024620036,0.050390128,0.041943207,0.19970627,0.19928019,0.199848,0.20062666,0.20053889,0
24004000,23924000,1.7813767,3.8146296,-2.5150592,-1.2569827,0.0008927009,1.2568557,2.511838,-0.063807406,0.007185407,0.06824823,0.03499435,-0.046620548,-0.03828748,-0.07942576,-0.024620036,0.050390128,0.041943207,0.19970627,0.19928019,0.199848,0.20062666,0.20053889,0
24012000,23932000,1.7813574,3.8146305,-2.5150793,-1.2570026,0.0008727266,1.2568358,2.511818,-0.063807406,0.007185407,0.06824823,0.03499435,-0.046620548,-0.03828748,-0.07942576,-0.024620036,0.050390128,0.041943207,0.19970627,0.19928019,0.199848,0.20062666,0.20053889,0
24020000,23940000,1.7813447,3.8146324,-2.515093,-1.2570164,0.00085887325,1.256822,2.511804,-0.063807406,0.007185407,0.06824823,0.03499435,-0.046620548,-0.03828748,-0.07942576,-0.024620036,0.050390128,0.041943207,0.19970627,0.19928019,0.199848,0.20062666,0.20053889,0
24028000,23948000,1.7813464,3.8146555,-2.5151129,-1.2570362,0.00083913235,1.2568023,2.5117846,-0.063807406,0.007185407,0.06824823,0.03499435,-0.046620548,-0.03828748,-0.07942576,-0.024620036,0.050390128,0.041943207,0.19970627,0.19928019,0.199848,0.20062666,0.20053889,0
24036000,23956000,1.7813098,3.8146372,-2.515132,-1.2570552,0.00082015374,1.2567832,2.5117655,-0.063807406,0.007185407,0.06824823,0.03499435,-0.046620548,-0.03828748,-0.07942576,-0.024620036,0.050390128,0.041943207,0.19970627,0.19928019,0.199848,0.20062666,0.20053889,0
24044000,23964000,1.781331,3.8146558,-2.5151272,-1.2570506,0.0008247366,1.2567879,2.5117702,-0.063807406,0.007185407,0.06824823,0.03499435,-0.046620548,-0.03828748,-0.07942576,-0.024620036,0.050390128,0.041943207,0.19970627,0.19928019,0.199848,0.20062666,0.20053889,0
24052000,23972000,1.7813272,3.8146458,-2.5151205,-1.2570438,0.00083144865,1.2567946,2.511777,-0.063807406,0.007185407,0.06824823,0.03499435,-0.046620548,-0.03828748,-0.07942576,-0.024620036,0.050390128,0.041943207,0.19970627,0.19928019,0.199848,0.20062666,0.20053889,0
24060000,23980000,1.7813255,3.8146567,-2.5151327,-1.257056,0.00081939,1.2567825,2.5117648,-0.063807406,0.007185407,0.06824823,0.03499435,-0.046620548,-0.03828748,-0.07942576,-0.024620036,0.050390128,0.041943207,0.19970627,0.19928019,0.199848,0.20062666,0.20053889,0
24068000,23988000,1.7813208,3.8146598,-2.5151393,-1.2570627,0.00081268535,1.2567759,2.511758,-0.063807406,0.007185407,0.06824823,0.03499435,-0.046620548,-0.03828748,-0.07942576,-0.024620036,0.050390128,0.041943207,0.19970627,0.19928019,0.199848,0.20062666,0.20053889,0
24076000,23996000,1.7812842,3.8146305,-2.5151474,-1.2570708,0.00080451433,1.2567676,2.5117497,-0.063807406,0.007185407,0.06824823,0.03499435,-0.046620548,-0.03828748,-0.07942576,-0.024620036,0.050390128,0.041943207,0.19970627,0.19928019,0.199848,0.20062666,0.20053889,0
24084000,24004000,1.7812952,3.8146439,-2.5151486,-1.257072,0.00080345816,1.2567666,2.5117488,-0.063807406,0.007185407,0.06824823,0.03499435,-0.046620548,-0.03828748,-0.07942576,-0.024620036,0.050390128,0.041943207,0.19970627,0.19928019,0.199848,0.20062666,0.20053889,0
24092000,24012000,1.7812656,3.8146296,-2.515164,-1.2570872,0.0007880595,1.2567512,2.5117333,-0.063807406,0.007185407,0.06824823,0.03499435,-0.046620548,-0.03828748,-0.07942576,-0.024620036,0.050390128,0.041943207,0.19970627,0.19928019,0.199848,0.20062666,0.20053889,0
24100000,24020000,1.78129,3.8146524,-2.515161,-1.2570844,0.0007909702,1.2567542,2.5117364,-0.063807406,0.007185407,0.06824823,0.03499435,-0.046620548,-0.03828748,-0.07942576,-0.024620036,0.050390128,0.041943207,0.19970627,0.19928019,0.199848,0.20062666,0.20053889,0
24108000,24028000,1.7813028,3.814642,-2.5151377,-1.2570609,0.00081441284,1.2567775,2.5117598,-0.063807406,0.007185407,0.06824823,0.03499435,-0.046620548,-0.03828748,-0.07942576,-0.024620036,0.050390128,0.041943207,0.19970627,0.19928019,0.199848,0.20062666,0.20053889,0
24116000,24036000,1.7812892,3.8146517,-2.5151596,-1.2570829,0.0007923262,1.2567555,2.5117378,-0.063807406,0.007185407,0.06824823,0.03499435,-0.046620548,-0.03828748,-0.07942576,-0.024620036,0.050390128,0.041943207,0.19970627,0.19928019,0.199848,0.20062666,0.20053889,0
24124000,24044000,1.781247,3.8146555,-2.5152051,-1.2571285,0.0007469419,1.25671,2.5116923,-0.063807406,0.007185407,0.06824823,0.03499435,-0.046620548,-0.03828748,-0.07942576,-0.024620036,0.050390128,0.041943207,0.19970627,0.19928019,0.199848,0.20062666,0.20053889,0
24132000,24052000,1.7812284,3.8146539,-2.5152216,-1.2571448,0.0007305724,1.2566937,2.5116758,-0.063807406,0.007185407,0.06824823,0.03499435,-0.046620548,-0.03828748,-0.07942576,-0.024620036,0.050390128,0.041943207,0.19970627,0.19928019,0.199848,0.20062666,0.20053889,0
24140000,24060000,1.7812554,3.8146632,-2.5152028,-1.257126,0.00074937777,1.2567124,2.511695,-0.063807406,0.007185407,0.06824823,0.03499435,-0.046620548,-0.03828748,-0.07942576,-0.024620036,0.050390128,0.041943207,0.19970627,0.19928019,0.199848,0.20062666,0.20053889,0
24148000,24068000,1.7812425,3.8146596,-2.5152118,-1.2571352,0.00074019696,1.2567034,2.5116856,-0.063807406,0.007185407,0.06824823,0.03499435,-0.046620548,-0.03828748,-0.07942576,-0.024620036,0.050390128,0.041943207,0.19970627,0.19928019,0.199848,0.20062666,0.20053889,0
24156000,24076000,1.7812138,3.814657,-2.5152373,-1.2571605,0.00071481126,1.256678,2.51166,-0.063807406,0.007185407,0.06824823,0.03499435,-0.046620548,-0.03828748,-0.07942576,-0.024620036,0.050390128,0.041943207,0.19970627,0.19928019,0.199848,0.20062666,0.20053889,0
24164000,24084000,1.781219,3.8146603,-2.5152345,-1.2571577,0.00071768434,1.2566808,2.511663,-0.063807406,0.007185407,0.06824823,0.03499435,-0.046620548,-0.03828748,-0.07942576,-0.024620036,0.050390128,0.041943207,0.19970627,0.19928019,0.199848,0.20062666,0.20053889,0
24172000,24092000,1.7812117,3.8146572,-2.5152385,-1.2571619,0.00071356405,1.2566767,2.511659,-0.063807406,0.007185407,0.06824823,0.03499435,-0.046620548,-0.03828748,-0.07942576,-0.024620036,0.050390128,0.041943207,0.19970627,0.19928019,0.199848,0.20062666,0.20053889,0
24180000,24100000,1.7811996,3.8146675,-2.5152595,-1.2571828,0.00069253496,1.2566557,2.511638,-0.063807406,0.007185407,0.06824823,0.03499435,-0.046620548,-0.03828748,-0.07942576,-0.024620036,0.050390128,0.041943207,0.19970627,0.19928019,0.199848,0.20062666,0.20053889,0
24188000,24108000,1.7811834,3.8146522,-2.5152602,-1.2571837,0.0006917382,1.2566549,2.5116372,-0.063807406,0.007185407,0.06824823,0.03499435,-0.046620548,-0.03828748,-0.07942576,-0.024620036,0.050390128,0.041943207,0.19970627,0.19928019,0.199848,0.20062666,0.20053889,0
24196000,24116000,1.78117,3.8146553,-2.515276,-1.2571994,0.0006759655,1.2566391,2.5116212,-0.063807406,0.007185407,0.06824823,0.03499435,-0.046620548,-0.03828748,-0.07942576,-0.024620036,0.050390128,0.041943207,0.19970627,0.19928019,0.199848,0.20062666,0.20053889,0
24204000,24124000,-2.1285133,3.6407137,-2.5114963,-1.2624389,-0.0063422564,1.2575333,2.5191827,-0.067185625,0.027297677,0.11167143,0.06929626,-0.041071087,-0.010527391,-0.06865721,0.003341623,0.10568809,0.097148016,0.20323332,0.20224288,0.19815636,0.196627,0.1997404,0
24212000,24132000,-2.128512,3.6407132,-2.5114932,-1.2624358,-0.0063392404,1.2575364,2.5191855,-0.067185625,0.027297677,0.11167143,0.06929626,-0.041071087,-0.010527391,-0.06865721,0.003341623,0.10568809,0.097148016,0.20323332,0.20224288,0.19815636,0.196627,0.1997404,0
24220000,24140000,-2.128517,3.640716,-2.5115013,-1.2624439,-0.0063473666,1.2575282,2.5191777,-0.067185625,0.027297677,0.11167143,0.06929626,-0.041071087,-0.010527391,-0.06865721,0.003341623,0.10568809,0.097148016,0.20323332,0.20224288,0.19815636,0.196627,0.1997404,0
24228000,24148000,-2.128518,3.6407166,-2.511502,-1.2624445,-0.006347989,1.2575276,2.519177,-0.067185625,0.027297677,0.11167143,0.06929626,-0.041071087,-0.010527391,-0.06865721,0.003341623,0.10568809,0.097148016,0.20323332,0.20224288,0.19815636,0.196627,0.1997404,0
24236000,24156000,-2.1285303,3.6407166,-2.5115137,-1.2624564,-0.006359772,1.2575158,2.519165,-0.067185625,0.027297677,0.11167143,0.06929626,-0.041071087,-0.010527391,-0.06865721,0.003341623,0.10568809,0.097148016,0.20323332,0.20224288,0.19815636,0.196627,0.1997404,0
24244000,24164000,-2.128542,3.640715,-2.5115223,-1.2624648,-0.0063681616,1.2575074,2.5191567,-0.067185625,0.027297677,0.11167143,0.06929626,-0.041071087,-0.010527391,-0.06865721,0.003341623,0.10568809,0.097148016,0.20323332,0.20224288,0.19815636,0.196627,0.1997404,0
24252000,24172000,-2.1285381,3.6407154,-2.5115185,-1.2624612,-0.006364491,1.2575111,2.5191605,-0.067185625,0.027297677,0.11167143,0.06929626,-0.041071087,-0.010527391,-0.06865721,0.003341623,0.10568809,0.097148016,0.20323332,0.20224288,0.19815636,0.196627,0.1997404,0
24260000,24180000,-2.1285238,3.6407168,-2.5115054,-1.262448,-0.0063513676,1.2575243,2.5191736,-0.067185625,0.027297677,0.11167143,0.06929626,-0.041071087,-0.010527391,-0.06865721,0.003341623,0.10568809,0.097148016,0.20323332,0.20224288,0.19815636,0.196627,0.1997404,0
24268000,24188000,-2.1285317,3.640717,-2.5115128,-1.2624555,-0.0063587287,1.2575169,2.5191662,-0.067185625,0.027297677,0.11167143,0.06929626,-0.041071087,-0.010527391,-0.06865721,0.003341623,0.10568809,0.097148016,0.20323332,0.20224288,0.19815636,0.196627,0.1997404,0
24276000,24196000,-2.128533,3.6407156,-2.5115104,-1.2624528,-0.0063562132,1.2575194,2.5191686,-0.067185625,0.027297677,0.11167143,0.06929626,-0.041071087,-0.010527391,-0.06865721,0.003341623,0.10568809,0.097148016,0.20323332,0.20224288,0.19815636,0.196627,0.1997404,0
24284000,24204000,-2.12854,3.640718,-2.5115209,-1.2624635,-0.006366802,1.2575089,2.5191581,-0.067185625,0.027297677,0.11167143,0.06929626,-0.041071087,-0.010527391,-0.06865721,0.003341623,0.10568809,0.097148016,0.20323332,0.20224288,0.19815636,0.196627,0.1997404,0
24292000,24212000,-2.128539,3.6407208,-2.5115228,-1.2624654,-0.006368776,1.2575068,2.519156,-0.067185625,0.027297677,0.11167143,0.06929626,-0.041071087,-0.010527391,-0.06865721,0.003341623,0.10568809,0.097148016,0.20323332,0.20224288,0.19815636,0.196627,0.1997404,0
24300000,24220000,-2.1285353,3.6407204,-2.5115173,-1.2624599,-0.0063632648,1.2575123,2.5191617,-0.067185625,0.027297677,0.11167143,0.06929626,-0.041071087,-0.010527391,-0.06865721,0.003341623,0.10568809,0.097148016,0.20323332,0.20224288,0.19815636,0.196627,0.1997404,0
24308000,24228000,-2.1285408,3.64072,-2.5115213,-1.2624638,-0.0063672094,1.2575084,2.5191576,-0.067185625,0.027297677,0.11167143,0.06929626,-0.041071087,-0.010527391,-0.06865721,0.003341623,0.10568809,0.097148016,0.20323332,0.20224288,0.19815636,0.196627,0.1997404,0
24316000,24236000,-2.1285453,3.640722,-2.5115278,-1.2624702,-0.0063737053,1.2575018,2.5191512,-0.067185625,0.027297677,0.11167143,0.06929626,-0.041071087,-0.010527391,-0.06865721,0.003341623,0.10568809,0.097148016,0.20323332,0.20224288,0.19815636,0.196627,0.1997404,0
24324000,24244000,-2.1285844,3.6407237,-2.511568,-1.2625107,-0.0064140856,1.2574615,2.5191107,-0.067185625,0.027297677,0.11167143,0.06929626,-0.041071087,-0.010527391,-0.06865721,0.003341623,0.10568809,0.097148016,0.20323332,0.20224288,0.19815636,0.196627,0.1997404,0
24332000,24252000,-2.1286075,3.6407208,-2.5115871,-1.2625295,-0.006432941,1.2574427,2.5190918,-0.067185625,0.027297677,0.11167143,0.06929626,-0.041071087,-0.010527391,-0.06865721,0.003341623,0.10568809,0.097148016,0.20323332,0.20224288,0.19815636,0.196627,0.1997404,0
24340000,24260000,-2.1286004,3.6407244,-2.5115838,-1.2625264,-0.006429789,1.2574458,2.519095,-0.067185625,0.027297677,0.11167143,0.06929626,-0.041071087,-0.010527391,-0.06865721,0.003341623,0.10568809,0.097148016,0.20323332,0.20224288,0.19815636,0.196627,0.1997404,0
24348000,24268000,-2.1286087,3.6407223,-2.5115886,-1.262531,-0.0064344807,1.2574412,2.5190904,-0.067185625,0.027297677,0.11167143,0.06929626,-0.041071087,-0.010527391,-0.06865721,0.003341623,0.10568809,0.097148016,0.20323332,0.20224288,0.19815636,0.196627,0.1997404,0
24356000,24276000,-2.1286187,3.6407223,-2.5115972,-1.2625396,-0.006442983,1.2574327,2.5190818,-0.067185625,0.027297677,0.11167143,0.06929626,-0.041071087,-0.010527391,-0.06865721,0.003341623,0.10568809,0.097148016,0.20323332,0.20224288,0.19815636,0.196627,0.1997404,0
24364000,24284000,-2.1286268,3.6407225,-2.5116055,-1.262548,-0.0064513884,1.2574242,2.5190735,-0.067185625,0.027297677,0.11167143,0.06929626,-0.041071087,-0.010527391,-0.06865721,0.003341623,0.10568809,0.097148016,0.20323332,0.20224288,0.19815636,0.196627,0.1997404,0
24372000,24292000,-2.1286159,3.6407259,-2.5115979,-1.2625403,-0.0064437864,1.2574319,2.519081,-0.067185625,0.027297677,0.11167143,0.06929626,-0.041071087,-0.010527391,-0.06865721,0.003341623,0.10568809,0.097148016,0.20323332,0.20224288,0.19815636,0.196627,0.1997404,0
24380000,24300000,-2.1286197,3.640726,-2.5116012,-1.2625437,-0.0064471285,1.2574285,2.5190778,-0.067185625,0.027297677,0.11167143,0.06929626,-0.041071087,-0.010527391,-0.06865721,0.003341623,0.10568809,0.097148016,0.20323332,0.20224288,0.19815636,0.196627,0.1997404,0
24388000,24308000,-2.1286316,3.6407278,-2.5116143,-1.262557,-0.006460378,1.2574153,2.5190644,-0.067185625,0.027297677,0.11167143,0.06929626,-0.041071087,-0.010527391,-0.06865721,0.003341623,0.10568809,0.097148016,0.20323332,0.20224288,0.19815636,0.196627,0.1997404,0
24396000,24316000,-2.128644,3.6407278,-2.5116258,-1.2625682,-0.0064716265,1.257404,2.5190532,-0.067185625,0.027297677,0.11167143,0.06929626,-0.041071087,-0.010527391,-0.06865721,0.003341623,0.10568809,0.097148016,0.20323332,0.20224288,0.19815636,0.196627,0.1997404,0
24404000,24324000,-2.1286688,3.6407256,-2.5116467,-1.2625892,-0.0064926203,1.257383,2.5190322,-0.067185625,0.027297677,0.11167143,0.06929626,-0.041071087,-0.010527391,-0.06865721,0.003341623,0.10568809,0.097148016,0.20323332,0.20224288,0.19815636,0.196627,0.1997404,0
24412000,24332000,-2.1286616,3.6407282,-2.5116427,-1.2625853,-0.006488673,1.2573869,2.5190363,-0.067185625,0.027297677,0.11167143,0.06929626,-0.041071087,-0.010527391,-0.06865721,0.003341623,0.10568809,0.097148016,0.20323332,0.20224288,0.19815636,0.196627,0.1997404,0
24420000,24340000,-2.1286607,3.6407287,-2.5116413,-1.2625837,-0.0064871446,1.2573885,2.5190377,-0.067185625,0.027297677,0.11167143,0.06929626,-0.041071087,-0.010527391,-0.06865721,0.003341623,0.10568809,0.097148016,0.20323332,0.20224288,0.19815636,0.196627,0.1997404,0
24428000,24348000,-2.1286705,3.6407285,-2.51165,-1.2625926,-0.0064959717,1.2573797,2.519029,-0.067185625,0.027297677,0.11167143,0.06929626,-0.041071087,-0.010527391,-0.06865721,0.003341623,0.10568809,0.097148016,0.20323332,0.20224288,0.19815636,0.196627,0.1997404,0
24436000,24356000,-2.1287038,3.64073,-2.5116844,-1.262627,-0.0065303897,1.2573452,2.5189946,-0.067185625,0.027297677,0.11167143,0.06929626,-0.041071087,-0.010527391,-0.06865721,0.003341623,0.10568809,0.097148016,0.20323332,0.20224288,0.19815636,0.196627,0.1997404,0
24444000,24364000,-2.1287317,3.6407318,-2.511714,-1.2626565,-0.006559973,1.2573156,2.518965,-0.067185625,0.027297677,0.11167143,0.06929626,-0.041071087,-0.010527391,-0.06865721,0.003341623,0.10568809,0.097148016,0.20323332,0.20224288,0.19815636,0.196627,0.1997404,0
24452000,24372000,-2.1287303,3.6407318,-2.5117116,-1.2626542,-0.006557609,1.257318,2.5189674,-0.067185625,0.027297677,0.11167143,0.06929626,-0.041071087,-0.010527391,-0.06865721,0.003341623,0.10568809,0.097148016,0.20323332,0.20224288,0.19815636,0.196627,0.1997404,0
24460000,24380000,-2.1287212,3.6407304,-2.5116997,-1.2626421,-0.0065455665,1.2573301,2.5189793,-0.067185625,0.027297677,0.11167143,0.06929626,-0.041071087,-0.010527391,-0.06865721,0.003341623,0.10568809,0.097148016,0.20323332,0.20224288,0.19815636,0.196627,0.1997404,0
24468000,24388000,-2.1287086,3.640734,-2.5116913,-1.2626338,-0.0065371986,1.2573384,2.5189877,-0.067185625,0.027297677,0.11167143,0.06929626,-0.041071087,-0.010527391,-0.06865721,0.003341623,0.10568809,0.097148016,0.20323332,0.20224288,0.19815636,0.196627,0.1997404,0
24476000,24396000,-2.128714,3.6407351,-2.5116973,-1.2626399,-0.0065433253,1.2573323,2.5189815,-0.067185625,0.027297677,0.11167143,0.06929626,-0.041071087,-0.010527391,-0.06865721,0.003341623,0.10568809,0.097148016,0.20323332,0.20224288,0.19815636,0.196627,0.1997404,0
24484000,24404000,-2.1287136,3.6407347,-2.5116954,-1.2626379,-0.0065413313,1.2573342,2.5189836,-0.067185625,0.027297677,0.11167143,0.06929626,-0.041071087,-0.010527391,-0.06865721,0.003341623,0.10568809,0.097148016,0.20323332,0.20224288,0.19815636,0.196627,0.1997404,0
24492000,24412000,-2.1287222,3.640737,-2.5117066,-1.262649,-0.006552595,1.257323,2.5189724,-0.067185625,0.027297677,0.11167143,0.06929626,-0.041071087,-0.010527391,-0.06865721,0.003341623,0.10568809,0.097148016,0.20323332,0.20224288,0.19815636,0.196627,0.1997404,0
24500000,24420000,-2.1287298,3.6407335,-2.5117085,-1.2626508,-0.0065543386,1.2573214,2.5189707,-0.067185625,0.027297677,0.11167143,0.06929626,-0.041071087,-0.010527391,-0.06865721,0.003341623,0.10568809,0.097148016,0.20323332,0.20224288,0.19815636,0.196627,0.1997404,0
24508000,24428000,-2.1287591,3.6407351,-2.5117397,-1.2626822,-0.006585712,1.25729,2.5189393,-0.067185625,0.027297677,0.11167143,0.06929626,-0.041071087,-0.010527391,-0.06865721,0.003341623,0.10568809,0.097148016,0.20323332,0.20224288,0.19815636,0.196627,0.1997404,0
24516000,24436000,-2.1287544,3.6407378,-2.5117373,-1.2626798,-0.0065833568,1.2572923,2.5189416,-0.067185625,0.027297677,0.11167143,0.06929626,-0.041071087,-0.010527391,-0.06865721,0.003341623,0.10568809,0.097148016,0.20323332,0.20224288,0.19815636,0.196627,0.1997404,0
24524000,24444000,-2.1287532,3.6407351,-2.5117319,-1.2626743,-0.0065777428,1.257298,2.5189471,-0.067185625,0.027297677,0.11167143,0.06929626,-0.041071087,-0.010527391,-0.06865721,0.003341623,0.10568809,0.097148016,0.20323332,0.20224288,0.19815636,0.196627,0.1997404,0
24532000,24452000,-2.1287565,3.640736,-2.5117357,-1.2626781,-0.006581555,1.2572942,2.5189433,-0.067185625,0.027297677,0.11167143,0.06929626,-0.041071087,-0.010527391,-0.06865721,0.003341623,0.10568809,0.097148016,0.20323332,0.20224288,0.19815636,0.196627,0.1997404,0
24540000,24460000,-2.12877,3.640737,-2.5117495,-1.2626917,-0.00659527,1.2572803,2.5189297,-0.067185625,0.027297677,0.11167143,0.06929626,-0.041071087,-0.010527391,-0.06865721,0.003341623,0.10568809,0.097148016,0.20323332,0.20224288,0.19815636,0.196627,0.1997404,0
24548000,24468000,-2.1287727,3.640736,-2.5117502,-1.2626926,-0.0065960465,1.2572796,2.518929,-0.067185625,0.027297677,0.11167143,0.06929626,-0.041071087,-0.010527391,-0.06865721,0.003341623,0.10568809,0.097148016,0.20323332,0.20224288,0.19815636,0.196627,0.1997404,0
24556000,24476000,-2.1287684,3.6407366,-2.511746,-1.2626882,-0.006591658,1.257284,2.5189333,-0.067185625,0.027297677,0.11167143,0.06929626,-0.041071087,-0.010527391,-0.06865721,0.003341623,0.10568809,0.097148016,0.20323332,0.20224288,0.19815636,0.196627,0.1997404,0
24564000,24484000,-2.1287766,3.6407363,-2.5117526,-1.2626947,-0.0065982356,1.2572775,2.5189269,-0.067185625,0.027297677,0.11167143,0.06929626,-0.041071087,-0.010527391,-0.06865721,0.003341623,0.10568809,0.097148016,0.20323332,0.20224288,0.19815636,0.196627,0.1997404,0
24572000,24492000,-2.1287763,3.640738,-2.511753,-1.2626953,-0.006598802,1.2572769,2.5189261,-0.067185625,0.027297677,0.11167143,0.06929626,-0.041071087,-0.010527391,-0.06865721,0.003341623,0.10568809,0.097148016,0.20323332,0.20224288,0.19815636,0.196627,0.1997404,0
24580000,24500000,-2.128779,3.640741,-2.5117593,-1.2627017,-0.006605223,1.2572705,2.5189197,-0.067185625,0.027297677,0.11167143,0.06929626,-0.041071087,-0.010527391,-0.06865721,0.003341623,0.10568809,0.097148016,0.20323332,0.20224288,0.19815636,0.196627,0.1997404,0
24588000,24508000,-2.12878,3.640738,-2.511756,-1.2626983,-0.006601745,1.2572739,2.5189233,-0.067185625,0.027297677,0.11167143,0.06929626,-0.041071087,-0.010527391,-0.06865721,0.003341623,0.10568809,0.097148016,0.20323332,0.20224288,0.19815636,0.196627,0.1997404,0
24596000,24516000,-2.1287644,3.6407423,-2.511745,-1.2626873,-0.0065907813,1.2572849,2.5189342,-0.067185625,0.027297677,0.11167143,0.06929626,-0.041071087,-0.010527391,-0.06865721,0.003341623,0.10568809,0.097148016,0.20323332,0.20224288,0.19815636,0.196627,0.1997404,0
24604000,24524000,-1.8464314,3.7940865,-2.5078356,-1.263385,-0.010941027,1.255305,2.5220668,-0.10179864,0.006882824,0.10901329,0.062555544,-0.06831846,-0.024670498,-0.095875934,-0.014534362,0.108231686,0.10119429,0.20438026,0.20465119,0.19847322,0.19445181,0.19804354,0
24612000,24532000,-1.8464328,3.7940857,-2.5078378,-1.2633873,-0.010943285,1.2553028,2.5220644,-0.10179864,0.006882824,0.10901329,0.062555544,-0.06831846,-0.024670498,-0.095875934,-0.014534362,0.108231686,0.10119429,0.20438026,0.20465119,0.19847322,0.19445181,0.19804354,0
24620000,24540000,-1.8464346,3.794085,-2.5078409,-1.2633904,-0.010946387,1.2552997,2.5220613,-0.10179864,0.006882824,0.10901329,0.062555544,-0.06831846,-0.024670498,-0.095875934,-0.014534362,0.108231686,0.10119429,0.20438026,0.20465119,0.19847322,0.19445181,0.19804354,0
24628000,24548000,-1.8464403,3.794087,-2.5078459,-1.2633953,-0.010951339,1.2552948,2.5220563,-0.10179864,0.006882824,0.10901329,0.062555544,-0.06831846,-0.024670498,-0.095875934,-0.014534362,0.108231686,0.10119429,0.20438026,0.20465119,0.19847322,0.19445181,0.19804354,0
24636000,24556000,-1.8464518,3.7940853,-2.5078588,-1.2634083,-0.010964339,1.2552817,2.5220435,-0.10179864,0.006882824,0.10901329,0.062555544,-0.06831846,-0.024670498,-0.095875934,-0.014534362,0.108231686,0.10119429,0.20438026,0.20465119,0.19847322,0.19445181,0.19804354,0
24644000,24564000,-1.8464656,3.7940884,-2.5078707,-1.2634201,-0.010976122,1.25527,2.5220315,-0.10179864,0.006882824,0.10901329,0.062555544,-0.06831846,-0.024670498,-0.095875934,-0.014534362,0.108231686,0.10119429,0.20438026,0.20465119,0.19847322,0.19445181,0.19804354,0
24652000,24572000,-1.8464776,3.7940874,-2.5078843,-1.2634338,-0.010989783,1.2552563,2.522018,-0.10179864,0.006882824,0.10901329,0.062555544,-0.06831846,-0.024670498,-0.095875934,-0.014534362,0.108231686,0.10119429,0.20438026,0.20465119,0.19847322,0.19445181,0.19804354,0
24660000,24580000,-1.8464891,3.7940898,-2.5078938,-1.2634431,-0.010999152,1.2552469,2.5220087,-0.10179864,0.006882824,0.10901329,0.062555544,-0.06831846,-0.024670498,-0.095875934,-0.014534362,0.108231686,0.10119429,0.20438026,0.20465119,0.19847322,0.19445181,0.19804354,0
24668000,24588000,-1.8464895,3.7940905,-2.507894,-1.2634436,-0.010999597,1.2552465,2.5220082,-0.10179864,0.006882824,0.10901329,0.062555544,-0.06831846,-0.024670498,-0.095875934,-0.014534362,0.108231686,0.10119429,0.20438026,0.20465119,0.19847322,0.19445181,0.19804354,0
24676000,24596000,-1.8464994,3.7940888,-2.5079064,-1.263456,-0.011012007,1.2552341,2.5219958,-0.10179864,0.006882824,0.10901329,0.062555544,-0.06831846,-0.024670498,-0.095875934,-0.014534362,0.108231686,0.10119429,0.20438026,0.20465119,0.19847322,0.19445181,0.19804354,0
24684000,24604000,-1.8464984,3.7940922,-2.507903,-1.2634525,-0.011008506,1.2552376,2.5219991,-0.10179864,0.006882824,0.10901329,0.062555544,-0.06831846,-0.024670498,-0.095875934,-0.014534362,0.108231686,0.10119429,0.20438026,0.20465119,0.19847322,0.19445181,0.19804354,0
24692000,24612000,-1.8464786,3.794091,-2.5078845,-1.2634339,-0.010989939,1.2552562,2.5220177,-0.10179864,0.006882824,0.10901329,0.062555544,-0.06831846,-0.024670498,-0.095875934,-0.014534362,0.108231686,0.10119429,0.20438026,0.20465119,0.19847322,0.19445181,0.19804354,0
24700000,24620000,-1.8464819,3.794092,-2.507888,-1.2634375,-0.0109935505,1.2552526,2.5220141,-0.10179864,0.006882824,0.10901329,0.062555544,-0.06831846,-0.024670498,-0.095875934,-0.014534362,0.108231686,0.10119429,0.20438026,0.20465119,0.19847322,0.19445181,0.19804354,0
24708000,24628000,-1.846494,3.794093,-2.5078993,-1.2634488,-0.011004837,1.2552413,2.522003,-0.10179864,0.006882824,0.10901329,0.062555544,-0.06831846,-0.024670498,-0.095875934,-0.014534362,0.108231686,0.10119429,0.20438026,0.20465119,0.19847322,0.19445181,0.19804354,0
24716000,24636000,-1.8464953,3.7940938,-2.5079005,-1.26345,-0.011006003,1.2552401,2.5220017,-0.10179864,0.006882824,0.10901329,0.062555544,-0.06831846,-0.024670498,-0.095875934,-0.014534362,0.108231686,0.10119429,0.20438026,0.20465119,0.19847322,0.19445181,0.19804354,0
24724000,24644000,-1.8464997,3.7940938,-2.5079055,-1.2634549,-0.011010994,1.2552352,2.5219967,-0.10179864,0.006882824,0.10901329,0.062555544,-0.06831846,-0.024670498,-0.095875934,-0.014534362,0.108231686,0.10119429,0.20438026,0.20465119,0.19847322,0.19445181,0.19804354,0
24732000,24652000,-1.8465033,3.7940946,-2.5079088,-1.2634583,-0.011014261,1.2552319,2.5219936,-0.10179864,0.006882824,0.10901329,0.062555544,-0.06831846,-0.024670498,-0.095875934,-0.014534362,0.108231686,0.10119429,0.20438026,0.20465119,0.19847322,0.19445181,0.19804354,0
24740000,24660000,-1.8465216,3.7940972,-2.5079253,-1.2634747,-0.011030742,1.2552154,2.521977,-0.10179864,0.006882824,0.10901329,0.062555544,-0.06831846,-0.024670498,-0.095875934,-0.014534362,0.108231686,0.10119429,0.20438026,0.20465119,0.19847322,0.19445181,0.19804354,0
24748000,24668000,-1.8465346,3.7940934,-2.5079422,-1.2634917,-0.011047791,1.2551982,2.52196,-0.10179864,0.006882824,0.10901329,0.062555544,-0.06831846,-0.024670498,-0.095875934,-0.014534362,0.108231686,0.10119429,0.20438026,0.20465119,0.19847322,0.19445181,0.19804354,0
24756000,24676000,-1.8465317,3.794097,-2.5079367,-1.263486,-0.011042105,1.255204,2.5219657,-0.10179864,0.006882824,0.10901329,0.062555544,-0.06831846,-0.024670498,-0.095875934,-0.014534362,0.108231686,0.10119429,0.20438026,0.20465119,0.19847322,0.19445181,0.19804354,0
24764000,24684000,-1.8465261,3.794097,-2.5079322,-1.2634817,-0.01103773,1.2552084,2.52197,-0.10179864,0.006882824,0.10901329,0.062555544,-0.06831846,-0.024670498,-0.095875934,-0.014534362,0.108231686,0.10119429,0.20438026,0.20465119,0.19847322,0.19445181,0.19804354,0
24772000,24692000,-1.8465415,3.7940996,-2.507946,-1.2634953,-0.011051366,1.2551948,2.5219564,-0.10179864,0.006882824,0.10901329,0.062555544,-0.06831846,-0.024670498,-0.095875934,-0.014534362,0.108231686,0.10119429,0.20438026,0.20465119,0.19847322,0.19445181,0.19804354,0
24780000,24700000,-1.8465415,3.7940998,-2.507946,-1.2634953,-0.011051375,1.2551948,2.5219564,-0.10179864,0.006882824,0.10901329,0.062555544,-0.06831846,-0.024670498,-0.095875934,-0.014534362,0.108231686,0.10119429,0.20438026,0.20465119,0.19847322,0.19445181,0.19804354,0
24788000,24708000,-1.8465385,3.7940981,-2.507945,-1.2634945,-0.0110506,1.2551955,2.5219572,-0.10179864,0.006882824,0.10901329,0.062555544,-0.06831846,-0.024670498,-0.095875934,-0.014534362,0.108231686,0.10119429,0.20438026,0.20465119,0.19847322,0.19445181,0.19804354,0
24796000,24716000,-1.846545,3.7940993,-2.507951,-1.2635005,-0.011056505,1.2551897,2.5219512,-0.10179864,0.006882824,0.10901329,0.062555544,-0.06831846,-0.024670498,-0.095875934,-0.014534362,0.108231686,0.10119429,0.20438026,0.20465119,0.19847322,0.19445181,0.19804354,0
24804000,24724000,-1.846549,3.7941012,-2.5079536,-1.2635031,-0.011059124,1.255187,2.5219486,-0.10179864,0.006882824,0.10901329,0.062555544,-0.06831846,-0.024670498,-0.095875934,-0.014534362,0.108231686,0.10119429,0.20438026,0.20465119,0.19847322,0.19445181,0.19804354,0
24812000,24732000,-1.8465528,3.7941027,-2.507957,-1.2635063,-0.011062361,1.2551838,2.5219455,-0.10179864,0.006882824,0.10901329,0.062555544,-0.06831846,-0.024670498,-0.095875934,-0.014534362,0.108231686,0.10119429,0.20438026,0.20465119,0.19847322,0.19445181,0.19804354,0
24820000,24740000,-1.8465466,3.7941017,-2.5079522,-1.2635016,-0.011057713,1.2551885,2.52195,-0.10179864,0.006882824,0.10901329,0.062555544,-0.06831846,-0.024670498,-0.095875934,-0.014534362,0.108231686,0.10119429,0.20438026,0.20465119,0.19847322,0.19445181,0.19804354,0
24828000,24748000,-1.8465514,3.794103,-2.5079563,-1.2635057,-0.011061738,1.2551844,2.521946,-0.10179864,0.006882824,0.10901329,0.062555544,-0.06831846,-0.024670498,-0.095875934,-0.014534362,0.108231686,0.10119429,0.20438026,0.20465119,0.19847322,0.19445181,0.19804354,0
24836000,24756000,-1.8465456,3.7941036,-2.5079508,-1.2635002,-0.011056303,1.2551899,2.5219514,-0.10179864,0.006882824,0.10901329,0.062555544,-0.06831846,-0.024670498,-0.095875934,-0.014534362,0.108231686,0.10119429,0.20438026,0.20465119,0.19847322,0.19445181,0.19804354,0
24844000,24764000,-1.8465363,3.7941055,-2.50794,-1.2634894,-0.01104545,1.2552007,2.5219624,-0.10179864,0.006882824,0.10901329,0.062555544,-0.06831846,-0.024670498,-0.095875934,-0.014534362,0.108231686,0.10119429,0.20438026,0.20465119,0.19847322,0.19445181,0.19804354,0
24852000,24772000,-1.8465388,3.794107,-2.5079422,-1.2634914,-0.011047499,1.2551987,2.5219603,-0.10179864,0.006882824,0.10901329,0.062555544,-0.06831846,-0.024670498,-0.095875934,-0.014534362,0.108231686,0.10119429,0.20438026,0.20465119,0.19847322,0.19445181,0.19804354,0
24860000,24780000,-1.8465389,3.7941067,-2.5079427,-1.263492,-0.0110480245,1.2551981,2.5219598,-0.10179864,0.006882824,0.10901329,0.062555544,-0.06831846,-0.024670498,-0.095875934,-0.014534362,0.108231686,0.10119429,0.20438026,0.20465119,0.19847322,0.19445181,0.19804354,0
24868000,24788000,-1.846524,3.7941053,-2.5079296,-1.263479,-0.011035044,1.2552111,2.5219727,-0.10179864,0.006882824,0.10901329,0.062555544,-0.06831846,-0.024670498,-0.095875934,-0.014534362,0.108231686,0.10119429,0.20438026,0.20465119,0.19847322,0.19445181,0.19804354,0
24876000,24796000,-1.846508,3.7941084,-2.5079112,-1.2634606,-0.011016646,1.2552296,2.5219913,-0.10179864,0.006882824,0.10901329,0.062555544,-0.06831846,-0.024670498,-0.095875934,-0.014534362,0.108231686,0.10119429,0.20438026,0.20465119,0.19847322,0.19445181,0.19804354,0
24884000,24804000,-1.8465145,3.7941108,-2.507917,-1.2634662,-0.011022261,1.255224,2.5219855,-0.10179864,0.006882824,0.10901329,0.062555544,-0.06831846,-0.024670498,-0.095875934,-0.014534362,0.108231686,0.10119429,0.20438026,0.20465119,0.19847322,0.19445181,0.19804354,0
24892000,24812000,-1.8465153,3.7941093,-2.507919,-1.2634684,-0.011024497,1.2552217,2.5219834,-0.10179864,0.006882824,0.10901329,0.062555544,-0.06831846,-0.024670498,-0.095875934,-0.014534362,0.108231686,0.10119429,0.20438026,0.20465119,0.19847322,0.19445181,0.19804354,0
24900000,24820000,-1.8465405,3.794112,-2.5079427,-1.263492,-0.011048034,1.2551982,2.5219598,-0.10179864,0.006882824,0.10901329,0.062555544,-0.06831846,-0.024670498,-0.095875934,-0.014534362,0.108231686,0.10119429,0.20438026,0.20465119,0.19847322,0.19445181,0.19804354,0
24908000,24828000,-1.8465463,3.7941132,-2.507948,-1.2634971,-0.011053161,1.255193,2.5219548,-0.10179864,0.006882824,0.10901329,0.062555544,-0.06831846,-0.024670498,-0.095875934,-0.014534362,0.108231686,0.10119429,0.20438026,0.20465119,0.19847322,0.19445181,0.19804354,0
24916000,24836000,-1.8465277,3.7941132,-2.5079298,-1.263479,-0.011035043,1.2552111,2.521973,-0.10179864,0.006882824,0.10901329,0.062555544,-0.06831846,-0.024670498,-0.095875934,-0.014534362,0.108231686,0.10119429,0.20438026,0.20465119,0.19847322,0.19445181,0.19804354,0
24924000,24844000,-1.8465358,3.7941124,-2.507939,-1.2634884,-0.011044431,1.2552018,2.5219634,-0.10179864,0.006882824,0.10901329,0.062555544,-0.06831846,-0.024670498,-0.095875934,-0.014534362,0.108231686,0.10119429,0.20438026,0.20465119,0.19847322,0.19445181,0.19804354,0
24932000,24852000,-1.846536,3.7941136,-2.5079389,-1.263488,-0.011044109,1.255202,2.5219636,-0.10179864,0.006882824,0.10901329,0.062555544,-0.06831846,-0.024670498,-0.095875934,-0.014534362,0.108231686,0.10119429,0.20438026,0.20465119,0.19847322,0.19445181,0.19804354,0
24940000,24860000,-1.8465507,3.7941167,-2.5079515,-1.2635009,-0.011056878,1.2551894,2.521951,-0.10179864,0.006882824,0.10901329,0.062555544,-0.06831846,-0.024670498,-0.095875934,-0.014534362,0.108231686,0.10119429,0.20438026,0.20465119,0.19847322,0.19445181,0.19804354,0
24948000,24868000,-1.8465445,3.7941146,-2.507948,-1.2634971,-0.011053184,1.255193,2.5219545,-0.10179864,0.006882824,0.10901329,0.062555544,-0.06831846,-0.024670498,-0.095875934,-0.014534362,0.108231686,0.10119429,0.20438026,0.20465119,0.19847322,0.19445181,0.19804354,0
24956000,24876000,-1.8465497,3.794114,-2.5079541,-1.2635036,-0.011059624,1.2551867,2.521948,-0.10179864,0.006882824,0.10901329,0.062555544,-0.06831846,-0.024670498,-0.095875934,-0.014534362,0.108231686,0.10119429,0.20438026,0.20465119,0.19847322,0.19445181,0.19804354,0
24964000,24884000,-1.8465592,3.7941155,-2.5079627,-1.2635121,-0.011068134,1.2551781,2.5219398,-0.10179864,0.006882824,0.10901329,0.062555544,-0.06831846,-0.024670498,-0.095875934,-0.014534362,0.108231686,0.10119429,0.20438026,0.20465119,0.19847322,0.19445181,0.19804354,0
24972000,24892000,-1.8465699,3.7941186,-2.5079713,-1.2635205,-0.011076494,1.2551697,2.5219312,-0.10179864,0.006882824,0.10901329,0.062555544,-0.06831846,-0.024670498,-0.095875934,-0.014534362,0.108231686,0.10119429,0.20438026,0.20465119,0.19847322,0.19445181,0.19804354,0
24980000,24900000,-1.846581,3.7941184,-2.507983,-1.2635324,-0.011088353,1.255158,2.5219195,-0.10179864,0.006882824,0.10901329,0.062555544,-0.06831846,-0.024670498,-0.095875934,-0.014534362,0.108231686,0.10119429,0.20438026,0.20465119,0.19847322,0.19445181,0.19804354,0
24988000,24908000,-1.8465854,3.794118,-2.5079882,-1.2635375,-0.011093519,1.2551527,2.5219142,-0.10179864,0.006882824,0.10901329,0.062555544,-0.06831846,-0.024670498,-0.095875934,-0.014534362,0.108231686,0.10119429,0.20438026,0.20465119,0.19847322,0.19445181,0.19804354,0
24996000,24916000,-1.8465867,3.7941175,-2.5079904,-1.2635398,-0.011095794,1.2551504,2.521912,-0.10179864,0.006882824,0.10901329,0.062555544,-0.06831846,-0.024670498,-0.095875934,-0.014534362,0.108231686,0.10119429,0.20438026,0.20465119,0.19847322,0.19445181,0.19804354,0
25004000,24924000,-2.11876,3.611261,-2.5113516,-1.2636987,-0.007821403,1.257331,2.5199702,-0.11325314,0.007110111,0.11978344,0.06817805,-0.07718758,-0.055153333,-0.13308465,-0.043112352,0.092992775,0.08453841,0.20392755,0.20276304,0.1977848,0.19588256,0.1996421,0
25012000,24932000,-2.118763,3.6112602,-2.5113535,-1.2637005,-0.007823163,1.2573292,2.5199685,-0.11325314,0.007110111,0.11978344,0.06817805,-0.07718758,-0.055153333,-0.13308465,-0.043112352,0.092992775,0.08453841,0.20392755,0.20276304,0.1977848,0.19588256,0.1996421,0
25020000,24940000,-2.118756,3.6112616,-2.511347,-1.2636942,-0.007816857,1.2573355,2.5199747,-0.11325314,0.007110111,0.11978344,0.06817805,-0.07718758,-0.055153333,-0.13308465,-0.043112352,0.092992775,0.08453841,0.20392755,0.20276304,0.1977848,0.19588256,0.1996421,0
25028000,24948000,-2.1187415,3.611261,-2.5113316,-1.2636786,-0.0078012715,1.2573512,2.5199904,-0.11325314,0.007110111,0.11978344,0.06817805,-0.07718758,-0.055153333,-0.13308465,-0.043112352,0.092992775,0.08453841,0.20392755,0.20276304,0.1977848,0.19588256,0.1996421,0
25036000,24956000,-2.1187394,3.611263,-2.5113306,-1.2636777,-0.0078003835,1.2573521,2.5199912,-0.11325314,0.007110111,0.11978344,0.06817805,-0.07718758,-0.055153333,-0.13308465,-0.043112352,0.092992775,0.08453841,0.20392755,0.20276304,0.1977848,0.19588256,0.1996421,0
25044000,24964000,-2.1187458,3.6112642,-2.511338,-1.263685,-0.007807714,1.2573447,2.5199838,-0.11325314,0.007110111,0.11978344,0.06817805,-0.07718758,-0.055153333,-0.13308465,-0.043112352,0.092992775,0.08453841,0.20392755,0.20276304,0.1977848,0.19588256,0.1996421,0
25052000,24972000,-2.1187525,3.6112645,-2.5113444,-1.2636915,-0.007814249,1.2573382,2.5199773,-0.11325314,0.007110111,0.11978344,0.06817805,-0.07718758,-0.055153333,-0.13308465,-0.043112352,0.092992775,0.08453841,0.20392755,0.20276304,0.1977848,0.19588256,0.1996421,0
25060000,24980000,-2.1187491,3.6112635,-2.511339,-1.263686,-0.0078087067,1.2573438,2.5199828,-0.11325314,0.007110111,0.11978344,0.06817805,-0.07718758,-0.055153333,-0.13308465,-0.043112352,0.092992775,0.08453841,0.20392755,0.20276304,0.1977848,0.19588256,0.1996421,0
25068000,24988000,-2.118751,3.611265,-2.511342,-1.263689,-0.0078117754,1.2573407,2.5199797,-0.11325314,0.007110111,0.11978344,0.06817805,-0.07718758,-0.055153333,-0.13308465,-0.043112352,0.092992775,0.08453841,0.20392755,0.20276304,0.1977848,0.19588256,0.1996421,0
25076000,24996000,-2.1187582,3.6112642,-2.5113475,-1.2636946,-0.007817307,1.2573352,2.5199742,-0.11325314,0.007110111,0.11978344,0.06817805,-0.07718758,-0.055153333,-0.13308465,-0.043112352,0.092992775,0.08453841,0.20392755,0.20276304,0.1977848,0.19588256,0.1996421,0
25084000,25004000,-2.1187687,3.6112657,-2.511359,-1.263706,-0.0078286845,1.2573237,2.5199628,-0.11325314,0.007110111,0.11978344,0.06817805,-0.07718758,-0.055153333,-0.13308465,-0.043112352,0.092992775,0.08453841,0.20392755,0.20276304,0.1977848,0.19588256,0.1996421,0
25092000,25012000,-2.1187825,3.6112652,-2.5113711,-1.2637184,-0.007840949,1.2573116,2.5199506,-0.11325314,0.007110111,0.11978344,0.06817805,-0.07718758,-0.055153333,-0.13308465,-0.043112352,0.092992775,0.08453841,0.20392755,0.20276304,0.1977848,0.19588256,0.1996421,0
25100000,25020000,-2.1187992,3.6112645,-2.5113869,-1.2637339,-0.007856528,1.257296,2.5199351,-0.11325314,0.007110111,0.11978344,0.06817805,-0.07718758,-0.055153333,-0.13308465,-0.043112352,0.092992775,0.08453841,0.20392755,0.20276304,0.1977848,0.19588256,0.1996421,0
25108000,25028000,-2.1188302,3.6112657,-2.5114186,-1.2637656,-0.007888233,1.2572643,2.5199034,-0.11325314,0.007110111,0.11978344,0.06817805,-0.07718758,-0.055153333,-0.13308465,-0.043112352,0.092992775,0.08453841,0.20392755,0.20276304,0.1977848,0.19588256,0.1996421,0
25116000,25036000,-2.1188416,3.6112676,-2.511431,-1.2637781,-0.007900707,1.2572517,2.519891,-0.11325314,0.007110111,0.11978344,0.06817805,-0.07718758,-0.055153333,-0.13308465,-0.043112352,0.092992775,0.08453841,0.20392755,0.20276304,0.1977848,0.19588256,0.1996421,0
25124000,25044000,-2.118855,3.6112647,-2.5114405,-1.2637875,-0.00791011,1.2572424,2.5198815,-0.11325314,0.007110111,0.11978344,0.06817805,-0.07718758,-0.055153333,-0.13308465,-0.043112352,0.092992775,0.08453841,0.20392755,0.20276304,0.1977848,0.19588256,0.1996421,0
25132000,25052000,-2.1188486,3.6112669,-2.5114355,-1.2637825,-0.007905155,1.2572473,2.5198865,-0.11325314,0.007110111,0.11978344,0.06817805,-0.07718758,-0.055153333,-0.13308465,-0.043112352,0.092992775,0.08453841,0.20392755,0.20276304,0.1977848,0.19588256,0.1996421,0
25140000,25060000,-2.1188393,3.611268,-2.5114274,-1.2637745,-0.007897157,1.2572553,2.5198946,-0.11325314,0.007110111,0.11978344,0.06817805,-0.07718758,-0.055153333,-0.13308465,-0.043112352,0.092992775,0.08453841,0.20392755,0.20276304,0.1977848,0.19588256,0.1996421,0
25148000,25068000,-2.1188426,3.6112676,-2.5114295,-1.2637765,-0.007899165,1.2572534,2.5198925,-0.11325314,0.007110111,0.11978344,0.06817805,-0.07718758,-0.055153333,-0.13308465,-0.043112352,0.092992775,0.08453841,0.20392755,0.20276304,0.1977848,0.19588256,0.1996421,0
25156000,25076000,-2.1188579,3.6112711,-2.5114474,-1.2637945,-0.007917209,1.2572353,2.5198743,-0.11325314,0.007110111,0.11978344,0.06817805,-0.07718758,-0.055153333,-0.13308465,-0.043112352,0.092992775,0.08453841,0.20392755,0.20276304,0.1977848,0.19588256,0.1996421,0
25164000,25084000,-2.118854,3.6112723,-2.511445,-1.263792,-0.007914807,1.2572377,2.519877,-0.11325314,0.007110111,0.11978344,0.06817805,-0.07718758,-0.055153333,-0.13308465,-0.043112352,0.092992775,0.08453841,0.20392755,0.20276304,0.1977848,0.19588256,0.1996421,0
25172000,25092000,-2.118855,3.611271,-2.5114434,-1.2637904,-0.007913066,1.2572395,2.5198786,-0.11325314,0.007110111,0.11978344,0.06817805,-0.07718758,-0.055153333,-0.13308465,-0.043112352,0.092992775,0.08453841,0.20392755,0.20276304,0.1977848,0.19588256,0.1996421,0
25180000,25100000,-2.1188583,3.6112711,-2.5114465,-1.2637933,-0.007916078,1.2572365,2.5198755,-0.11325314,0.007110111,0.11978344,0.06817805,-0.07718758,-0.055153333,-0.13308465,-0.043112352,0.092992775,0.08453841,0.20392755,0.20276304,0.1977848,0.19588256,0.1996421,0
25188000,25108000,-2.1188734,3.6112695,-2.5114589,-1.2638057,-0.007928409,1.2572241,2.5198631,-0.11325314,0.007110111,0.11978344,0.06817805,-0.07718758,-0.055153333,-0.13308465,-0.043112352,0.092992775,0.08453841,0.20392755,0.20276304,0.1977848,0.19588256,0.1996421,0
25196000,25116000,-2.1188774,3.6112719,-2.5114648,-1.2638117,-0.00793444,1.2572181,2.5198572,-0.11325314,0.007110111,0.11978344,0.06817805,-0.07718758,-0.055153333,-0.13308465,-0.043112352,0.092992775,0.08453841,0.20392755,0.20276304,0.1977848,0.19588256,0.1996421,0
25204000,25124000,-2.1188903,3.611275,-2.5114803,-1.2638273,-0.007950118,1.2572024,2.5198417,-0.11325314,0.007110111,0.11978344,0.06817805,-0.07718758,-0.055153333,-0.13308465,-0.043112352,0.092992775,0.08453841,0.20392755,0.20276304,0.1977848,0.19588256,0.1996421,0
25212000,25132000,-2.1188903,3.611273,-2.5114772,-1.2638241,-0.007946835,1.2572057,2.5198448,-0.11325314,0.007110111,0.11978344,0.06817805,-0.07718758,-0.055153333,-0.13308465,-0.043112352,0.092992775,0.08453841,0.20392755,0.20276304,0.1977848,0.19588256,0.1996421,0
25220000,25140000,-2.1188936,3.6112752,-2.5114825,-1.2638294,-0.007952134,1.2572004,2.5198395,-0.11325314,0.007110111,0.11978344,0.06817805,-0.07718758,-0.055153333,-0.13308465,-0.043112352,0.092992775,0.08453841,0.20392755,0.20276304,0.1977848,0.19588256,0.1996421,0
25228000,25148000,-2.1188893,3.6112752,-2.5114775,-1.2638242,-0.007946993,1.2572055,2.5198448,-0.11325314,0.007110111,0.11978344,0.06817805,-0.07718758,-0.055153333,-0.13308465,-0.043112352,0.092992775,0.08453841,0.20392755,0.20276304,0.1977848,0.19588256,0.1996421,0
25236000,25156000,-2.1188872,3.6112766,-2.5114765,-1.2638234,-0.007946142,1.2572063,2.5198455,-0.11325314,0.007110111,0.11978344,0.06817805,-0.07718758,-0.055153333,-0.13308465,-0.043112352,0.092992775,0.08453841,0.20392755,0.20276304,0.1977848,0.19588256,0.1996421,0
25244000,25164000,-2.1188688,3.6112764,-2.5114572,-1.2638041,-0.007926829,1.2572256,2.5198648,-0.11325314,0.007110111,0.11978344,0.06817805,-0.07718758,-0.055153333,-0.13308465,-0.043112352,0.092992775,0.08453841,0.20392755,0.20276304,0.1977848,0.19588256,0.1996421,0
25252000,25172000,-2.1188645,3.611278,-2.5114539,-1.2638007,-0.007923522,1.2572289,2.5198681,-0.11325314,0.007110111,0.11978344,0.06817805,-0.07718758,-0.055153333,-0.13308465,-0.043112352,0.092992775,0.08453841,0.20392755,0.20276304,0.1977848,0.19588256,0.1996421,0
25260000,25180000,-2.1188674,3.6112766,-2.5114546,-1.2638016,-0.007924237,1.2572283,2.5198674,-0.11325314,0.007110111,0.11978344,0.06817805,-0.07718758,-0.055153333,-0.13308465,-0.043112352,0.092992775,0.08453841,0.20392755,0.20276304,0.1977848,0.19588256,0.1996421,0
25268000,25188000,-2.1188757,3.6112807,-2.5114667,-1.2638137,-0.0079364665,1.257216,2.519855,-0.11325314,0.007110111,0.11978344,0.06817805,-0.07718758,-0.055153333,-0.13308465,-0.043112352,0.092992775,0.08453841,0.20392755,0.20276304,0.1977848,0.19588256,0.1996421,0
25276000,25196000,-2.118892,3.6112828,-2.5114846,-1.2638317,-0.00795446,1.257198,2.5198371,-0.11325314,0.007110111,0.11978344,0.06817805,-0.07718758,-0.055153333,-0.13308465,-0.043112352,0.092992775,0.08453841,0.20392755,0.20276304,0.1977848,0.19588256,0.1996421,0
25284000,25204000,-2.1188989,3.6112823,-2.5114903,-1.2638373,-0.007960112,1.2571924,2.5198314,-0.11325314,0.007110111,0.11978344,0.06817805,-0.07718758,-0.055153333,-0.13308465,-0.043112352,0.092992775,0.08453841,0.20392755,0.20276304,0.1977848,0.19588256,0.1996421,0
25292000,25212000,-2.1188922,3.6112814,-2.5114815,-1.2638285,-0.007951213,1.2572013,2.5198402,-0.11325314,0.007110111,0.11978344,0.06817805,-0.07718758,-0.055153333,-0.13308465,-0.043112352,0.092992775,0.08453841,0.20392755,0.20276304,0.1977848,0.19588256,0.1996421,0
25300000,25220000,-2.1188903,3.6112823,-2.5114806,-1.2638274,-0.0079502165,1.2572023,2.5198414,-0.11325314,0.007110111,0.11978344,0.06817805,-0.07718758,-0.055153333,-0.13308465,-0.043112352,0.092992775,0.08453841,0.20392755,0.20276304,0.1977848,0.19588256,0.1996421,0
25308000,25228000,-2.1188889,3.6112838,-2.5114796,-1.2638266,-0.00794937,1.2572031,2.5198421,-0.11325314,0.007110111,0.11978344,0.06817805,-0.07718758,-0.055153333,-0.13308465,-0.043112352,0.092992775,0.08453841,0.20392755,0.20276304,0.1977848,0.19588256,0.1996421,0
25316000,25236000,-2.1188803,3.6112843,-2.5114713,-1.2638183,-0.007941038,1.2572114,2.5198507,-0.11325314,0.007110111,0.11978344,0.06817805,-0.07718758,-0.055153333,-0.13308465,-0.043112352,0.092992775,0.08453841,0.20392755,0.20276304,0.1977848,0.19588256,0.1996421,0
25324000,25244000,-2.1188622,3.6112845,-2.5114527,-1.2637997,-0.007922377,1.25723,2.5198693,-0.11325314,0.007110111,0.11978344,0.06817805,-0.07718758,-0.055153333,-0.13308465,-0.043112352,0.092992775,0.08453841,0.20392755,0.20276304,0.1977848,0.19588256,0.1996421,0
25332000,25252000,-2.1188734,3.611281,-2.5114589,-1.2638057,-0.00792848,1.2572241,2.5198631,-0.11325314,0.007110111,0.11978344,0.06817805,-0.07718758,-0.055153333,-0.13308465,-0.043112352,0.092992775,0.08453841,0.20392755,0.20276304,0.1977848,0.19588256,0.1996421,0
25340000,25260000,-2.1188636,3.6112878,-2.511456,-1.2638031,-0.007925856,1.2572266,2.5198658,-0.11325314,0.007110111,0.11978344,0.06817805,-0.07718758,-0.055153333,-0.13308465,-0.043112352,0.092992775,0.08453841,0.20392755,0.20276304,0.1977848,0.19588256,0.1996421,0
