timestamp,timestamp_sample,time_utc_usec,device_id,lat,lon,alt,alt_ellipsoid,s_variance_m_s,c_variance_rad,eph,epv,hdop,vdop,noise_per_ms,jamming_indicator,vel_m_s,vel_n_m_s,vel_e_m_s,vel_d_m_s,cog_rad,timestamp_time_relative,heading,heading_offset,heading_accuracy,rtcm_injection_rate,automatic_gain_control,fix_type,jamming_state,vel_ned_valid,satellites_used,selected_rtcm_instance
3400000,0,1695621740566620,11468804,473977508,85456074,488104,488104,0.25,0.5,1.0,1.0,0.0,0.0,0,0,0.0,0.0,0.0,0.02,3.021863,0,nan,nan,0.0,0.0,0,3,0,1,10,0
3800000,0,1695621740962620,0,473977508,85456074,488111,488111,0.25,0.5,1.0,1.0,0.0,0.0,0,0,0.0,0.0,0.0,-0.02,0.84648466,0,nan,nan,0.0,0.0,0,3,0,1,10,0
4200000,0,1695621741366620,0,473977508,85456073,488101,488101,0.25,0.5,1.0,1.0,0.0,0.0,0,0,0.0,0.0,0.01,0.01,1.6543976,0,nan,nan,0.0,0.0,0,3,0,1,10,0
4600000,0,1695621741762620,0,473977508,85456074,488102,488102,0.25,0.5,1.0,1.0,0.0,0.0,0,0,0.0,0.02,0.01,-0.04,0.5337217,0,nan,nan,0.0,0.0,0,3,0,1,10,0
5000000,0,1695621742162620,0,473977508,85456074,488101,488101,0.25,0.5,1.0,1.0,0.0,0.0,0,0,0.0,0.01,0.0,-0.03,5.8252106,0,nan,nan,0.0,0.0,0,3,0,1,10,0
5400000,0,1695621742562620,0,473977508,85456074,488098,488098,0.25,0.5,1.0,1.0,0.0,0.0,0,0,0.0,0.0,0.0,-0.03,0.7305948,0,nan,nan,0.0,0.0,0,3,0,1,10,0
5800000,0,1695621742966620,0,473977508,85456074,488103,488103,0.25,0.5,1.0,1.0,0.0,0.0,0,0,0.0,0.0,0.0,-0.04,0.9724974,0,nan,nan,0.0,0.0,0,3,0,1,10,0
6200000,0,1695621743366620,0,473977508,85456074,488096,488096,0.25,0.5,1.0,1.0,0.0,0.0,0,0,0.0,0.0,0.0,0.02,2.1197023,0,nan,nan,0.0,0.0,0,3,0,1,10,0
6600000,0,1695621743762620,0,473977508,85456074,488109,488109,0.25,0.5,1.0,1.0,0.0,0.0,0,0,0.0,-0.01,-0.01,-0.01,3.7323864,0,nan,nan,0.0,0.0,0,3,0,1,10,0
7000000,0,1695621744162620,0,473977508,85456074,488109,488109,0.25,0.5,1.0,1.0,0.0,0.0,0,0,0.0,0.0,0.01,0.02,1.362404,0,nan,nan,0.0,0.0,0,3,0,1,10,0
7400000,0,1695621744562620,0,473977508,85456074,488104,488104,0.25,0.5,1.0,1.0,0.0,0.0,0,0,0.0,0.0,0.0,0.02,5.28922,0,nan,nan,0.0,0.0,0,3,0,1,10,0
7800000,0,1695621744966620,0,473977508,85456074,488101,488101,0.25,0.5,1.0,1.0,0.0,0.0,0,0,0.0,-0.01,-0.01,0.03,4.1149626,0,nan,nan,0.0,0.0,0,3,0,1,10,0
8200000,0,1695621745366620,0,473977508,85456074,488103,488103,0.25,0.5,1.0,1.0,0.0,0.0,0,0,0.0,0.02,0.0,0.0,0.26529005,0,nan,nan,0.0,0.0,0,3,0,1,10,0
8600000,0,1695621745766620,0,473977508,85456074,488102,488102,0.25,0.5,1.0,1.0,0.0,0.0,0,0,0.0,0.0,0.0,-0.01,0.776846,0,nan,nan,0.0,0.0,0,3,0,1,10,0
9000000,0,1695621746162620,0,473977508,85456074,488106,488106,0.25,0.5,1.0,1.0,0.0,0.0,0,0,0.0,0.0,0.0,0.0,4.5731115,0,nan,nan,0.0,0.0,0,3,0,1,10,0
9400000,0,1695621746566620,0,473977508,85456074,488102,488102,0.25,0.5,1.0,1.0,0.0,0.0,0,0,0.0,-0.01,0.0,0.03,3.1393237,0,nan,nan,0.0,0.0,0,3,0,1,10,0
9800000,0,1695621746962620,0,473977508,85456074,488092,488092,0.25,0.5,1.0,1.0,0.0,0.0,0,0,0.0,-0.02,0.01,-0.03,2.5197318,0,nan,nan,0.0,0.0,0,3,0,1,10,0
10200000,0,1695621747366620,0,473977508,85456075,488091,488091,0.25,0.5,1.0,1.0,0.0,0.0,0,0,0.0,0.02,0.01,0.0,0.49514988,0,nan,nan,0.0,0.0,0,3,0,1,10,0
10600000,0,1695621747766620,0,473977508,85456074,488098,488098,0.25,0.5,1.0,1.0,0.0,0.0,0,0,0.0,0.0,0.0,-0.02,0.47054073,0,nan,nan,0.0,0.0,0,3,0,1,10,0
11000000,0,1695621748162620,0,473977508,85456074,488097,488097,0.25,0.5,1.0,1.0,0.0,0.0,0,0,0.0,0.0,0.0,-0.01,0.5792748,0,nan,nan,0.0,0.0,0,3,0,1,10,0
11400000,0,1695621748566620,0,473977508,85456074,488114,488114,0.25,0.5,1.0,1.0,0.0,0.0,0,0,0.0,-0.02,0.0,-0.01,3.4430108,0,nan,nan,0.0,0.0,0,3,0,1,10,0
11800000,0,1695621748962620,0,473977507,85456074,488110,488110,0.25,0.5,1.0,1.0,0.0,0.0,0,0,0.0,0.0,0.0,0.0,2.5560346,0,nan,nan,0.0,0.0,0,3,0,1,10,0
12200000,0,1695621749366620,0,473977508,85456074,488101,488101,0.25,0.5,1.0,1.0,0.0,0.0,0,0,0.0,0.0,0.0,0.0,0.87249005,0,nan,nan,0.0,0.0,0,3,0,1,10,0
12600000,0,1695621749766620,0,473977508,85456074,488104,488104,0.25,0.5,1.0,1.0,0.0,0.0,0,0,0.0,0.02,-0.01,0.03,5.923822,0,nan,nan,0.0,0.0,0,3,0,1,10,0
13000000,0,1695621750162620,0,473977508,85456074,488104,488104,0.25,0.5,1.0,1.0,0.0,0.0,0,0,0.0,0.0,-0.02,0.0,4.8649306,0,nan,nan,0.0,0.0,0,3,0,1,10,0
13400000,0,1695621750566620,0,473977508,85456074,488109,488109,0.25,0.5,1.0,1.0,0.0,0.0,0,0,0.0,0.0,0.0,-0.03,0.09721483,0,nan,nan,0.0,0.0,0,3,0,1,10,0
13800000,0,1695621750962620,0,473977508,85456075,488110,488110,0.25,0.5,1.0,1.0,0.0,0.0,0,0,0.0,-0.01,0.0,-0.01,2.7277749,0,nan,nan,0.0,0.0,0,3,0,1,10,0
14200000,0,1695621751366620,0,473977508,85456073,488112,488112,0.25,0.5,1.0,1.0,0.0,0.0,0,0,0.0,0.01,0.0,-0.01,0.14468779,0,nan,nan,0.0,0.0,0,3,0,1,10,0
14600000,0,1695621751766620,0,473977508,85456074,488106,488106,0.25,0.5,1.0,1.0,0.0,0.0,0,0,0.0,0.0,0.02,0.0,1.7037903,0,nan,nan,0.0,0.0,0,3,0,1,10,0
15000000,0,1695621752162620,0,473977508,85456074,488109,488109,0.25,0.5,1.0,1.0,0.0,0.0,0,0,0.0,-0.01,-0.01,-0.03,3.7936475,0,nan,nan,0.0,0.0,0,3,0,1,10,0
15400000,0,1695621752566620,0,473977508,85456074,488116,488116,0.25,0.5,1.0,1.0,0.0,0.0,0,0,0.0,0.0,0.0,0.0,3.8149407,0,nan,nan,0.0,0.0,0,3,0,1,10,0
15800000,0,1695621752962620,0,473977508,85456073,488099,488099,0.25,0.5,1.0,1.0,0.0,0.0,0,0,0.0,0.0,0.0,-0.01,0.9063495,0,nan,nan,0.0,0.0,0,3,0,1,10,0
16200000,0,1695621753366620,0,473977508,85456073,488104,488104,0.25,0.5,1.0,1.0,0.0,0.0,0,0,0.0,0.0,0.01,-0.01,1.0936233,0,nan,nan,0.0,0.0,0,3,0,1,10,0
16600000,0,1695621753766620,0,473977508,85456074,488099,488099,0.25,0.5,1.0,1.0,0.0,0.0,0,0,0.0,0.0,0.0,-0.01,5.1708865,0,nan,nan,0.0,0.0,0,3,0,1,10,0
17000000,0,1695621754166620,0,473977508,85456074,488101,488101,0.25,0.5,1.0,1.0,0.0,0.0,0,0,0.0,0.0,0.0,0.01,5.1351075,0,nan,nan,0.0,0.0,0,3,0,1,10,0
17400000,0,1695621754562620,0,473977508,85456074,488106,488106,0.25,0.5,1.0,1.0,0.0,0.0,0,0,0.0,0.0,0.0,0.01,4.1310196,0,nan,nan,0.0,0.0,0,3,0,1,10,0
17800000,0,1695621754962620,0,473977508,85456074,488105,488105,0.25,0.5,1.0,1.0,0.0,0.0,0,0,0.0,-0.01,-0.01,-0.049999997,3.8280306,0,nan,nan,0.0,0.0,0,3,0,1,10,0
18200000,0,1695621755366620,0,473977508,85456074,488103,488103,0.25,0.5,1.0,1.0,0.0,0.0,0,0,0.0,0.0,0.0,0.0,3.5236452,0,nan,nan,0.0,0.0,0,3,0,1,10,0
18600000,0,1695621755766620,0,473977508,85456073,488097,488097,0.25,0.5,1.0,1.0,0.0,0.0,0,0,0.0,0.0,0.0,-0.01,5.9849086,0,nan,nan,0.0,0.0,0,3,0,1,10,0
19000000,0,1695621756166620,0,473977508,85456074,488100,488100,0.25,0.5,1.0,1.0,0.0,0.0,0,0,0.0,0.01,0.0,0.01,6.0323815,0,nan,nan,0.0,0.0,0,3,0,1,10,0
19400000,0,1695621756562620,0,473977508,85456074,488103,488103,0.25,0.5,1.0,1.0,0.0,0.0,0,0,0.0,0.02,0.0,0.0,6.211278,0,nan,nan,0.0,0.0,0,3,0,1,10,0
19800000,0,1695621756962620,0,473977508,85456074,488098,488098,0.25,0.5,1.0,1.0,0.0,0.0,0,0,0.0,0.02,0.0,-0.03,5.9686766,0,nan,nan,0.0,0.0,0,3,0,1,10,0
20200000,0,1695621757366620,0,473977508,85456074,488112,488112,0.25,0.5,1.0,1.0,0.0,0.0,0,0,0.0,-0.01,0.0,-0.01,3.1372292,0,nan,nan,0.0,0.0,0,3,0,1,10,0
20600000,0,1695621757766620,0,473977508,85456074,488100,488100,0.25,0.5,1.0,1.0,0.0,0.0,0,0,0.0,0.01,-0.01,-0.03,5.379977,0,nan,nan,0.0,0.0,0,3,0,1,10,0
21000000,0,1695621758166620,0,473977508,85456074,488107,488107,0.25,0.5,1.0,1.0,0.0,0.0,0,0,0.0,-0.01,0.0,0.02,3.3217106,0,nan,nan,0.0,0.0,0,3,0,1,10,0
21400000,0,1695621758562620,0,473977508,85456074,488112,488112,0.25,0.5,1.0,1.0,0.0,0.0,0,0,0.0,-0.01,0.0,0.0,3.2347932,0,nan,nan,0.0,0.0,0,3,0,1,10,0
21800000,0,1695621758962620,0,473977508,85456075,488100,488100,0.25,0.5,1.0,1.0,0.0,0.0,0,0,0.0,0.0,0.0,-0.01,3.5531414,0,nan,nan,0.0,0.0,0,3,0,1,10,0
22200000,0,1695621759366620,0,473977508,85456074,488097,488097,0.25,0.5,1.0,1.0,0.0,0.0,0,0,0.0,0.0,0.0,0.01,3.411246,0,nan,nan,0.0,0.0,0,3,0,1,10,0
22600000,0,1695621759766620,0,473977508,85456074,488096,488096,0.25,0.5,1.0,1.0,0.0,0.0,0,0,0.0,0.0,0.02,0.049999997,1.7938493,0,nan,nan,0.0,0.0,0,3,0,1,10,0
23000000,0,1695621760166620,0,473977508,85456074,488107,488107,0.25,0.5,1.0,1.0,0.0,0.0,0,0,0.0,0.0,0.0,0.01,3.903603,0,nan,nan,0.0,0.0,0,3,0,1,10,0
23400000,0,1695621760562620,0,473977508,85456073,488104,488104,0.25,0.5,1.0,1.0,0.0,0.0,0,0,0.0,0.01,0.01,0.0,1.0025171,0,nan,nan,0.0,0.0,0,3,0,1,10,0
23800000,0,1695621760962620,0,473977508,85456073,488105,488105,0.25,0.5,1.0,1.0,0.0,0.0,0,0,0.0,0.01,0.02,-0.01,0.97424275,0,nan,nan,0.0,0.0,0,3,0,1,10,0
24200000,0,1695621761366620,0,473977508,85456074,488104,488104,0.25,0.5,1.0,1.0,0.0,0.0,0,0,0.0,-0.01,-0.01,-0.049999997,3.706032,0,nan,nan,0.0,0.0,0,3,0,1,10,0
24600000,0,1695621761766620,0,473977508,85456074,488101,488101,0.25,0.5,1.0,1.0,0.0,0.0,0,0,0.0,0.0,-0.01,0.0,4.6062727,0,nan,nan,0.0,0.0,0,3,0,1,10,0
25000000,0,1695621762166620,0,473977508,85456074,488094,488094,0.25,0.5,1.0,1.0,0.0,0.0,0,0,0.0,0.0,0.01,0.0,2.105565,0,nan,nan,0.0,0.0,0,3,0,1,10,0
25400000,0,1695621762562620,0,473977508,85456074,488103,488103,0.25,0.5,1.0,1.0,0.0,0.0,0,0,0.0,0.0,0.01,0.01,1.9064231,0,nan,nan,0.0,0.0,0,3,0,1,10,0
25800000,0,1695621762962620,0,473977508,85456074,488106,488106,0.25,0.5,1.0,1.0,0.0,0.0,0,0,0.0,0.0,-0.01,-0.03,4.3926444,0,nan,nan,0.0,0.0,0,3,0,1,10,0
26200000,0,1695621763366620,0,473977507,85456073,488133,488133,0.25,0.5,1.0,1.0,0.0,0.0,0,0,0.12,-0.07,-0.07,-0.22999999,3.915297,0,nan,nan,0.0,0.0,0,3,0,1,10,0
26600000,0,1695621763766620,0,473977502,85456067,488297,488297,0.25,0.5,1.0,1.0,0.0,0.0,0,0,0.19999999,-0.16,-0.099999994,-0.59,3.726976,0,nan,nan,0.0,0.0,0,3,0,1,10,0
27000000,0,1695621764166620,0,473977496,85456061,488550,488550,0.25,0.5,1.0,1.0,0.0,0.0,0,0,0.14,-0.11,-0.08,-0.65999997,3.7679913,0,nan,nan,0.0,0.0,0,3,0,1,10,0
27400000,0,1695621764562620,0,473977494,85456058,488804,488804,0.25,0.5,1.0,1.0,0.0,0.0,0,0,0.049999997,-0.02,-0.01,-0.69,3.695909,0,nan,nan,0.0,0.0,0,3,0,1,10,0
27800000,0,1695621764962620,0,473977494,85456056,489078,489078,0.25,0.5,1.0,1.0,0.0,0.0,0,0,0.03,0.04,0.03,-0.69,0.6319837,0,nan,nan,0.0,0.0,0,3,0,1,10,0
28200000,0,1695621765366620,0,473977496,85456058,489382,489382,0.25,0.5,1.0,1.0,0.0,0.0,0,0,0.08,0.06,0.02,-0.71999997,0.31677726,0,nan,nan,0.0,0.0,0,3,0,1,10,0
28600000,0,1695621765766620,0,473977499,85456060,489645,489645,0.25,0.5,1.0,1.0,0.0,0.0,0,0,0.099999994,0.099999994,0.04,-0.68,0.43842667,0,nan,nan,0.0,0.0,0,3,0,1,10,0
29000000,0,1695621766166620,0,473977502,85456063,489909,489909,0.25,0.5,1.0,1.0,0.0,0.0,0,0,0.099999994,0.099999994,0.049999997,-0.64,0.46425754,0,nan,nan,0.0,0.0,0,3,0,1,10,0
29400000,0,1695621766562620,0,473977505,85456066,490106,490106,0.25,0.5,1.0,1.0,0.0,0.0,0,0,0.089999996,0.049999997,0.049999997,-0.19999999,0.8066911,0,nan,nan,0.0,0.0,0,3,0,1,10,0
29800000,0,1695621766962620,0,473977508,85456068,490175,490175,0.25,0.5,1.0,1.0,0.0,0.0,0,0,0.07,0.049999997,0.04,-0.19,0.72064644,0,nan,nan,0.0,0.0,0,3,0,1,10,0
30200000,0,1695621767366620,0,473977509,85456070,490269,490269,0.25,0.5,1.0,1.0,0.0,0.0,0,0,0.04,0.03,0.049999997,-0.22999999,1.0929252,0,nan,nan,0.0,0.0,0,3,0,1,10,0
30600000,0,1695621767766620,0,473977510,85456072,490353,490353,0.25,0.5,1.0,1.0,0.0,0.0,0,0,0.02,0.0,0.0,-0.21,1.9385371,0,nan,nan,0.0,0.0,0,3,0,1,10,0
31000000,0,1695621768166620,0,473977510,85456073,490440,490440,0.25,0.5,1.0,1.0,0.0,0.0,0,0,0.01,-0.02,-0.01,-0.24,3.849149,0,nan,nan,0.0,0.0,0,3,0,1,10,0
31400000,0,1695621768562620,0,473977509,85456072,490496,490496,0.25,0.5,1.0,1.0,0.0,0.0,0,0,0.02,-0.02,-0.02,-0.099999994,3.8613663,0,nan,nan,0.0,0.0,0,3,0,1,10,0
31800000,0,1695621768962620,0,473977509,85456072,490541,490541,0.25,0.5,1.0,1.0,0.0,0.0,0,0,0.01,-0.02,0.01,-0.08,2.675415,0,nan,nan,0.0,0.0,0,3,0,1,10,0
32200000,0,1695621769362620,0,473977508,85456072,490585,490585,0.25,0.5,1.0,1.0,0.0,0.0,0,0,0.01,0.02,0.0,-0.089999996,5.932025,0,nan,nan,0.0,0.0,0,3,0,1,10,0
32596000,0,1695621769766620,0,473977507,85456071,490617,490617,0.25,0.5,1.0,1.0,0.0,0.0,0,0,0.01,-0.01,-0.02,-0.08,4.254938,0,nan,nan,0.0,0.0,0,3,0,1,10,0
33000000,0,1695621770162620,0,473977507,85456071,490634,490634,0.25,0.5,1.0,1.0,0.0,0.0,0,0,0.02,0.0,-0.01,-0.01,4.2154937,0,nan,nan,0.0,0.0,0,3,0,1,10,0
33400000,0,1695621770566620,0,473977506,85456071,490658,490658,0.25,0.5,1.0,1.0,0.0,0.0,0,0,0.02,-0.04,-0.01,-0.04,3.4744267,0,nan,nan,0.0,0.0,0,3,0,1,10,0
33800000,0,1695621770962620,0,473977505,85456071,490670,490670,0.25,0.5,1.0,1.0,0.0,0.0,0,0,0.02,-0.01,-0.01,-0.14,3.951949,0,nan,nan,0.0,0.0,0,3,0,1,10,0
34200000,0,1695621771362620,0,473977504,85456071,490704,490704,0.25,0.5,1.0,1.0,0.0,0.0,0,0,0.01,0.0,0.0,-0.03,3.4459782,0,nan,nan,0.0,0.0,0,3,0,1,10,0
34600000,0,1695621771766620,0,473977504,85456072,490705,490705,0.25,0.5,1.0,1.0,0.0,0.0,0,0,0.01,-0.02,0.01,-0.01,2.5115287,0,nan,nan,0.0,0.0,0,3,0,1,10,0
35000000,0,1695621772162620,0,473977504,85456073,490693,490693,0.25,0.5,1.0,1.0,0.0,0.0,0,0,0.02,0.0,0.01,0.06,0.912109,0,nan,nan,0.0,0.0,0,3,0,1,10,0
35400000,0,1695621772566620,0,473977503,85456074,490689,490689,0.25,0.5,1.0,1.0,0.0,0.0,0,0,0.02,0.0,0.01,0.04,1.1499975,0,nan,nan,0.0,0.0,0,3,0,1,10,0
35800000,0,1695621772962620,0,473977504,85456076,490688,490688,0.25,0.5,1.0,1.0,0.0,0.0,0,0,0.03,0.03,0.04,-0.03,0.92956233,0,nan,nan,0.0,0.0,0,3,0,1,10,0
36200000,0,1695621773362620,0,473977504,85456077,490697,490697,0.25,0.5,1.0,1.0,0.0,0.0,0,0,0.03,0.0,0.01,0.0,1.7271777,0,nan,nan,0.0,0.0,0,3,0,1,10,0
36600000,0,1695621773766620,0,473977505,85456078,490679,490679,0.25,0.5,1.0,1.0,0.0,0.0,0,0,0.02,0.0,0.0,0.04,5.6951838,0,nan,nan,0.0,0.0,0,3,0,1,10,0
37000000,0,1695621774162620,0,473977505,85456079,490671,490671,0.25,0.5,1.0,1.0,0.0,0.0,0,0,0.02,0.0,0.01,0.01,1.50779,0,nan,nan,0.0,0.0,0,3,0,1,10,0
37400000,0,1695621774566620,0,473977505,85456081,490666,490666,0.25,0.5,1.0,1.0,0.0,0.0,0,0,0.02,0.03,0.01,0.02,0.34086278,0,nan,nan,0.0,0.0,0,3,0,1,10,0
37800000,0,1695621774962620,0,473977506,85456082,490660,490660,0.25,0.5,1.0,1.0,0.0,0.0,0,0,0.02,0.02,0.04,0.0,1.0972885,0,nan,nan,0.0,0.0,0,3,0,1,10,0
38200000,0,1695621775362620,0,473977506,85456084,490669,490669,0.25,0.5,1.0,1.0,0.0,0.0,0,0,0.02,-0.02,0.01,-0.02,2.4912827,0,nan,nan,0.0,0.0,0,3,0,1,10,0
38600000,0,1695621775766620,0,473977507,85456084,490663,490663,0.25,0.5,1.0,1.0,0.0,0.0,0,0,0.0,0.0,0.0,0.01,2.690425,0,nan,nan,0.0,0.0,0,3,0,1,10,0
39000000,0,1695621776162620,0,473977507,85456085,490678,490678,0.25,0.5,1.0,1.0,0.0,0.0,0,0,0.0,0.02,0.0,-0.02,5.936912,0,nan,nan,0.0,0.0,0,3,0,1,10,0
39400000,0,1695621776566620,0,473977507,85456084,490679,490679,0.25,0.5,1.0,1.0,0.0,0.0,0,0,0.0,0.0,0.0,-0.04,2.5494022,0,nan,nan,0.0,0.0,0,3,0,1,10,0
39800000,0,1695621776962620,0,473977508,85456084,490688,490688,0.25,0.5,1.0,1.0,0.0,0.0,0,0,0.0,0.01,-0.01,-0.03,5.5962234,0,nan,nan,0.0,0.0,0,3,0,1,10,0
40200000,0,1695621777362620,0,473977507,85456083,490699,490699,0.25,0.5,1.0,1.0,0.0,0.0,0,0,0.01,0.0,-0.01,0.0,4.26733,0,nan,nan,0.0,0.0,0,3,0,1,10,0
40600000,0,1695621777766620,0,473977507,85456082,490701,490701,0.25,0.5,1.0,1.0,0.0,0.0,0,0,0.01,0.0,-0.02,-0.07,4.9874525,0,nan,nan,0.0,0.0,0,3,0,1,10,0
41000000,0,1695621778162620,0,473977507,85456082,490712,490712,0.25,0.5,1.0,1.0,0.0,0.0,0,0,0.01,0.0,0.0,-0.03,5.93953,0,nan,nan,0.0,0.0,0,3,0,1,10,0
41400000,0,1695621778566620,0,473977506,85456082,490731,490731,0.25,0.5,1.0,1.0,0.0,0.0,0,0,0.0,0.0,0.0,-0.02,0.996932,0,nan,nan,0.0,0.0,0,3,0,1,10,0
41800000,0,1695621778962620,0,473977506,85456081,490757,490757,0.25,0.5,1.0,1.0,0.0,0.0,0,0,0.0,0.0,0.0,-0.03,1.7170548,0,nan,nan,0.0,0.0,0,3,0,1,10,0
42200000,0,1695621779362620,0,473977506,85456081,490769,490769,0.25,0.5,1.0,1.0,0.0,0.0,0,0,0.0,0.0,-0.01,-0.049999997,4.957957,0,nan,nan,0.0,0.0,0,3,0,1,10,0
42600000,0,1695621779766620,0,473977506,85456082,490773,490773,0.25,0.5,1.0,1.0,0.0,0.0,0,0,0.0,-0.01,0.0,-0.07,3.4323642,0,nan,nan,0.0,0.0,0,3,0,1,10,0
43000000,0,1695621780162620,0,473977507,85456081,490799,490799,0.25,0.5,1.0,1.0,0.0,0.0,0,0,0.01,0.01,0.0,-0.01,6.0336027,0,nan,nan,0.0,0.0,0,3,0,1,10,0
43400000,0,1695621780566620,0,473977508,85456081,490801,490801,0.25,0.5,1.0,1.0,0.0,0.0,0,0,0.02,0.0,-0.02,-0.01,4.952895,0,nan,nan,0.0,0.0,0,3,0,1,10,0
43800000,0,1695621780962620,0,473977508,85456080,490803,490803,0.25,0.5,1.0,1.0,0.0,0.0,0,0,0.02,0.04,-0.03,-0.03,5.6101866,0,nan,nan,0.0,0.0,0,3,0,1,10,0
44200000,0,1695621781362620,0,473977509,85456079,490814,490814,0.25,0.5,1.0,1.0,0.0,0.0,0,0,0.03,0.02,-0.02,-0.06,5.625894,0,nan,nan,0.0,0.0,0,3,0,1,10,0
44596000,0,1695621781766620,0,473977510,85456078,490822,490822,0.25,0.5,1.0,1.0,0.0,0.0,0,0,0.02,0.03,0.0,-0.01,6.1976643,0,nan,nan,0.0,0.0,0,3,0,1,10,0
45000000,0,1695621782162620,0,473977511,85456078,490754,490754,0.25,0.5,1.0,1.0,0.0,0.0,0,0,0.02,0.02,0.01,0.47,0.41626102,0,nan,nan,0.0,0.0,0,3,0,1,10,0
45400000,0,1695621782566620,0,473977511,85456078,490466,490466,0.25,0.5,1.0,1.0,0.0,0.0,0,0,0.02,0.0,0.01,0.79999995,1.3938199,0,nan,nan,0.0,0.0,0,3,0,1,10,0
45800000,0,1695621782962620,0,473977512,85456078,490196,490196,0.25,0.5,1.0,1.0,0.0,0.0,0,0,0.01,0.0,0.01,0.64,1.5322245,0,nan,nan,0.0,0.0,0,3,0,1,10,0
46200000,0,1695621783362620,0,473977512,85456079,489934,489934,0.25,0.5,1.0,1.0,0.0,0.0,0,0,0.01,0.02,0.0,0.71999997,0.16720253,0,nan,nan,0.0,0.0,0,3,0,1,10,0
46600000,0,1695621783766620,0,473977513,85456079,489665,489665,0.25,0.5,1.0,1.0,0.0,0.0,0,0,0.0,0.0,-0.01,0.65999997,5.151688,0,nan,nan,0.0,0.0,0,3,0,1,10,0
47000000,0,1695621784162620,0,473977513,85456079,489387,489387,0.25,0.5,1.0,1.0,0.0,0.0,0,0,0.0,0.0,0.01,0.72999996,1.6589353,0,nan,nan,0.0,0.0,0,3,0,1,10,0
47400000,0,1695621784566620,0,473977512,85456079,489114,489114,0.25,0.5,1.0,1.0,0.0,0.0,0,0,0.01,0.0,0.0,0.71999997,3.342131,0,nan,nan,0.0,0.0,0,3,0,1,10,0
47800000,0,1695621784962620,0,473977511,85456079,488837,488837,0.25,0.5,1.0,1.0,0.0,0.0,0,0,0.02,-0.02,0.01,0.65999997,2.7417376,0,nan,nan,0.0,0.0,0,3,0,1,10,0
48200000,0,1695621785362620,0,473977511,85456080,488555,488555,0.25,0.5,1.0,1.0,0.0,0.0,0,0,0.02,-0.01,0.0,0.74,2.9679325,0,nan,nan,0.0,0.0,0,3,0,1,10,0
48600000,0,1695621785766620,0,473977510,85456080,488252,488252,0.25,0.5,1.0,1.0,0.0,0.0,0,0,0.02,-0.04,0.0,0.7,3.1977923,0,nan,nan,0.0,0.0,0,3,0,1,10,0
49000000,0,1695621786162620,0,473977510,85456080,488133,488133,0.25,0.5,1.0,1.0,0.0,0.0,0,0,0.0,0.01,0.0,-0.47,0.41800633,0,nan,nan,0.0,0.0,0,3,0,1,10,0
49400000,0,1695621786566620,0,473977509,85456080,488376,488376,0.25,0.5,1.0,1.0,0.0,0.0,0,0,0.0,0.0,0.0,-0.45999998,2.4209461,0,nan,nan,0.0,0.0,0,3,0,1,10,0
49800000,0,1695621786962620,0,473977509,85456080,488528,488528,0.25,0.5,1.0,1.0,0.0,0.0,0,0,0.0,0.0,0.0,-0.22999999,4.595452,0,nan,nan,0.0,0.0,0,3,0,1,10,0
50200000,0,1695621787362620,0,473977509,85456080,488571,488571,0.25,0.5,1.0,1.0,0.0,0.0,0,0,0.0,0.0,0.0,0.0,0.10594148,0,nan,nan,0.0,0.0,0,3,0,1,10,0
50600000,0,1695621787766620,0,473977510,85456079,488514,488514,0.25,0.5,1.0,1.0,0.0,0.0,0,0,0.02,0.01,-0.01,0.26,5.386784,0,nan,nan,0.0,0.0,0,3,0,1,10,0
51000000,0,1695621788162620,0,473977511,85456079,488371,488371,0.25,0.5,1.0,1.0,0.0,0.0,0,0,0.03,0.03,0.0,0.48,0.09285151,0,nan,nan,0.0,0.0,0,3,0,1,10,0
51400000,0,1695621788566620,0,473977512,85456079,488173,488173,0.25,0.5,1.0,1.0,0.0,0.0,0,0,0.03,0.03,0.0,0.58,6.2048197,0,nan,nan,0.0,0.0,0,3,0,1,10,0
51800000,0,1695621788962620,0,473977512,85456079,488114,488114,0.25,0.5,1.0,1.0,0.0,0.0,0,0,0.0,0.0,0.0,0.0,1.7791885,0,nan,nan,0.0,0.0,0,3,0,1,10,0
52200000,0,1695621789362620,0,473977512,85456079,488104,488104,0.25,0.5,1.0,1.0,0.0,0.0,0,0,0.0,0.0,0.01,0.0,1.9231782,0,nan,nan,0.0,0.0,0,3,0,1,10,0
52600000,0,1695621789766620,0,473977512,85456079,488114,488114,0.25,0.5,1.0,1.0,0.0,0.0,0,0,0.0,0.0,0.0,0.01,4.087561,0,nan,nan,0.0,0.0,0,3,0,1,10,0
53000000,0,1695621790162620,0,473977512,85456078,488111,488111,0.25,0.5,1.0,1.0,0.0,0.0,0,0,0.0,-0.01,0.0,0.04,3.446676,0,nan,nan,0.0,0.0,0,3,0,1,10,0
53400000,0,1695621790566620,0,473977512,85456078,488116,488116,0.25,0.5,1.0,1.0,0.0,0.0,0,0,0.0,0.0,-0.01,0.01,4.303458,0,nan,nan,0.0,0.0,0,3,0,1,10,0
53800000,0,1695621790962620,0,473977512,85456079,488106,488106,0.25,0.5,1.0,1.0,0.0,0.0,0,0,0.0,0.01,0.0,0.0,5.8321924,0,nan,nan,0.0,0.0,0,3,0,1,10,0
54200000,0,1695621791362620,0,473977512,85456078,488109,488109,0.25,0.5,1.0,1.0,0.0,0.0,0,0,0.0,0.0,0.01,0.0,1.399405,0,nan,nan,0.0,0.0,0,3,0,1,10,0
54600000,0,1695621791766620,0,473977512,85456078,488108,488108,0.25,0.5,1.0,1.0,0.0,0.0,0,0,0.0,0.0,0.0,0.0,1.7170548,0,nan,nan,0.0,0.0,0,3,0,1,10,0
55000000,0,1695621792162620,0,473977512,85456079,488108,488108,0.25,0.5,1.0,1.0,0.0,0.0,0,0,0.0,0.0,0.0,-0.04,6.029065,0,nan,nan,0.0,0.0,0,3,0,1,10,0
55400000,0,1695621792566620,0,473977512,85456078,488111,488111,0.25,0.5,1.0,1.0,0.0,0.0,0,0,0.0,-0.01,-0.02,-0.02,4.0924478,0,nan,nan,0.0,0.0,0,3,0,1,10,0
55804000,0,1695621792962620,0,473977512,85456079,488111,488111,0.25,0.5,1.0,1.0,0.0,0.0,0,0,0.0,-0.02,0.0,0.0,2.9646163,0,nan,nan,0.0,0.0,0,3,0,1,10,0
56200000,0,1695621793362620,0,473977512,85456079,488111,488111,0.25,0.5,1.0,1.0,0.0,0.0,0,0,0.0,0.0,0.02,0.049999997,1.2630947,0,nan,nan,0.0,0.0,0,3,0,1,10,0
56600000,0,1695621793766620,0,473977512,85456078,488098,488098,0.25,0.5,1.0,1.0,0.0,0.0,0,0,0.0,0.01,0.0,-0.02,0.23509584,0,nan,nan,0.0,0.0,0,3,0,1,10,0
57000000,0,1695621794162620,0,473977512,85456078,488102,488102,0.25,0.5,1.0,1.0,0.0,0.0,0,0,0.0,0.02,0.0,-0.01,6.2454863,0,nan,nan,0.0,0.0,0,3,0,1,10,0
57400000,0,1695621794566620,0,473977512,85456079,488100,488100,0.25,0.5,1.0,1.0,0.0,0.0,0,0,0.0,0.01,-0.01,-0.01,5.414011,0,nan,nan,0.0,0.0,0,3,0,1,10,0
57800000,0,1695621794962620,0,473977512,85456079,488098,488098,0.25,0.5,1.0,1.0,0.0,0.0,0,0,0.0,0.0,0.01,0.03,1.6840682,0,nan,nan,0.0,0.0,0,3,0,1,10,0
58200000,0,1695621795362620,0,473977512,85456078,488100,488100,0.25,0.5,1.0,1.0,0.0,0.0,0,0,0.0,-0.02,0.0,0.0,3.5021775,0,nan,nan,0.0,0.0,0,3,0,1,10,0
58596000,0,1695621795766620,0,473977512,85456079,488106,488106,0.25,0.5,1.0,1.0,0.0,0.0,0,0,0.0,-0.02,-0.01,-0.02,3.9170423,0,nan,nan,0.0,0.0,0,3,0,1,10,0
59000000,0,1695621796162620,0,473977512,85456078,488107,488107,0.25,0.5,1.0,1.0,0.0,0.0,0,0,0.0,0.0,0.02,0.02,1.6107644,0,nan,nan,0.0,0.0,0,3,0,1,10,0
59400000,0,1695621796566620,0,473977512,85456079,488100,488100,0.25,0.5,1.0,1.0,0.0,0.0,0,0,0.0,0.01,0.0,-0.02,6.2332687,0,nan,nan,0.0,0.0,0,3,0,1,10,0
