timestamp,timestamp_sample,lat,lon,alt,alt_ellipsoid,delta_alt,eph,epv,terrain_alt,lat_lon_reset_counter,alt_reset_counter,terrain_alt_valid,dead_reckoning
3212000,0,47.3977508,8.5456074,488.104,0.0,0.0,0.0,0.0,0.0,0,0,0,0
3216000,0,47.3977508,8.5456074,488.104,0.0,0.0,0.0,0.0,0.0,0,0,0,0
3312000,0,47.3977508,8.5456074,488.104,0.0,0.0,0.0,0.0,0.0,0,0,0,0
3412000,0,47.3977508,8.5456074,488.104,0.0,0.0,0.0,0.0,0.0,0,0,0,0
3512000,0,47.3977508,8.5456074,488.104,0.0,0.0,0.0,0.0,0.0,0,0,0,0
3612000,0,47.3977508,8.5456074,488.104,0.0,0.0,0.0,0.0,0.0,0,0,0,0
3712000,0,47.3977508,8.5456074,488.104,0.0,0.0,0.0,0.0,0.0,0,0,0,0
3812000,0,47.3977508,8.5456074,488.104,0.0,0.0,0.0,0.0,0.0,0,0,0,0
3912000,0,47.3977508,8.5456074,488.104,0.0,0.0,0.0,0.0,0.0,0,0,0,0
4012000,0,47.3977508,8.5456074,488.104,0.0,0.0,0.0,0.0,0.0,0,0,0,0
4112000,0,47.3977508,8.5456074,488.104,0.0,0.0,0.0,0.0,0.0,0,0,0,0
4212000,0,47.3977508,8.5456074,488.104,0.0,0.0,0.0,0.0,0.0,0,0,0,0
4312000,0,47.3977508,8.5456074,488.104,0.0,0.0,0.0,0.0,0.0,0,0,0,0
4412000,0,47.3977508,8.5456074,488.104,0.0,0.0,0.0,0.0,0.0,0,0,0,0
4512000,0,47.3977508,8.5456074,488.104,0.0,0.0,0.0,0.0,0.0,0,0,0,0
4612000,0,47.3977508,8.5456074,488.104,0.0,0.0,0.0,0.0,0.0,0,0,0,0
4712000,0,47.3977508,8.5456074,488.104,0.0,0.0,0.0,0.0,0.0,0,0,0,0
4812000,0,47.3977508,8.5456074,488.104,0.0,0.0,0.0,0.0,0.0,0,0,0,0
4912000,0,47.3977508,8.5456074,488.104,0.0,0.0,0.0,0.0,0.0,0,0,0,0
5012000,0,47.3977508,8.5456074,488.104,0.0,0.0,0.0,0.0,0.0,0,0,0,0
5112000,0,47.3977508,8.5456074,488.104,0.0,0.0,0.0,0.0,0.0,0,0,0,0
5212000,0,47.3977508,8.5456074,488.104,0.0,0.0,0.0,0.0,0.0,0,0,0,0
5312000,0,47.3977508,8.5456074,488.104,0.0,0.0,0.0,0.0,0.0,0,0,0,0
5412000,0,47.3977508,8.5456074,488.104,0.0,0.0,0.0,0.0,0.0,0,0,0,0
5512000,0,47.3977508,8.5456074,488.104,0.0,0.0,0.0,0.0,0.0,0,0,0,0
5612000,0,47.3977508,8.5456074,488.104,0.0,0.0,0.0,0.0,0.0,0,0,0,0
5712000,0,47.3977508,8.5456074,488.104,0.0,0.0,0.0,0.0,0.0,0,0,0,0
5812000,0,47.3977508,8.5456074,488.104,0.0,0.0,0.0,0.0,0.0,0,0,0,0
5912000,0,47.3977508,8.5456074,488.104,0.0,0.0,0.0,0.0,0.0,0,0,0,0
6012000,0,47.3977508,8.5456074,488.104,0.0,0.0,0.0,0.0,0.0,0,0,0,0
6112000,0,47.3977508,8.5456074,488.104,0.0,0.0,0.0,0.0,0.0,0,0,0,0
6212000,0,47.3977508,8.5456074,488.104,0.0,0.0,0.0,0.0,0.0,0,0,0,0
6312000,0,47.3977508,8.5456074,488.104,0.0,0.0,0.0,0.0,0.0,0,0,0,0
6412000,0,47.3977508,8.5456074,488.104,0.0,0.0,0.0,0.0,0.0,0,0,0,0
6512000,0,47.3977508,8.5456074,488.104,0.0,0.0,0.0,0.0,0.0,0,0,0,0
6612000,0,47.3977508,8.5456074,488.104,0.0,0.0,0.0,0.0,0.0,0,0,0,0
6712000,0,47.3977508,8.5456074,488.104,0.0,0.0,0.0,0.0,0.0,0,0,0,0
6812000,0,47.3977508,8.5456074,488.104,0.0,0.0,0.0,0.0,0.0,0,0,0,0
6912000,0,47.3977508,8.5456074,488.104,0.0,0.0,0.0,0.0,0.0,0,0,0,0
7012000,0,47.3977508,8.5456074,488.104,0.0,0.0,0.0,0.0,0.0,0,0,0,0
7112000,0,47.3977508,8.5456074,488.104,0.0,0.0,0.0,0.0,0.0,0,0,0,0
7212000,0,47.3977508,8.5456074,488.104,0.0,0.0,0.0,0.0,0.0,0,0,0,0
7312000,0,47.3977508,8.5456074,488.104,0.0,0.0,0.0,0.0,0.0,0,0,0,0
7412000,0,47.3977508,8.5456074,488.104,0.0,0.0,0.0,0.0,0.0,0,0,0,0
7512000,0,47.3977508,8.5456074,488.104,0.0,0.0,0.0,0.0,0.0,0,0,0,0
7612000,0,47.3977508,8.5456074,488.104,0.0,0.0,0.0,0.0,0.0,0,0,0,0
7712000,0,47.3977508,8.5456074,488.104,0.0,0.0,0.0,0.0,0.0,0,0,0,0
7812000,0,47.3977508,8.5456074,488.104,0.0,0.0,0.0,0.0,0.0,0,0,0,0
7912000,0,47.3977508,8.5456074,488.104,0.0,0.0,0.0,0.0,0.0,0,0,0,0
8012000,0,47.3977508,8.5456074,488.104,0.0,0.0,0.0,0.0,0.0,0,0,0,0
8112000,0,47.3977508,8.5456074,488.104,0.0,0.0,0.0,0.0,0.0,0,0,0,0
8212000,0,47.3977508,8.5456074,488.104,0.0,0.0,0.0,0.0,0.0,0,0,0,0
8312000,0,47.3977508,8.5456074,488.104,0.0,0.0,0.0,0.0,0.0,0,0,0,0
8412000,0,47.3977508,8.5456074,488.104,0.0,0.0,0.0,0.0,0.0,0,0,0,0
8512000,0,47.3977508,8.5456074,488.104,0.0,0.0,0.0,0.0,0.0,0,0,0,0
8612000,0,47.3977508,8.5456074,488.104,0.0,0.0,0.0,0.0,0.0,0,0,0,0
8712000,0,47.3977508,8.5456074,488.104,0.0,0.0,0.0,0.0,0.0,0,0,0,0
8812000,0,47.3977508,8.5456074,488.104,0.0,0.0,0.0,0.0,0.0,0,0,0,0
8912000,0,47.3977508,8.5456074,488.104,0.0,0.0,0.0,0.0,0.0,0,0,0,0
9012000,0,47.3977508,8.5456074,488.104,0.0,0.0,0.0,0.0,0.0,0,0,0,0
9112000,0,47.3977508,8.5456074,488.104,0.0,0.0,0.0,0.0,0.0,0,0,0,0
9212000,0,47.3977508,8.5456074,488.104,0.0,0.0,0.0,0.0,0.0,0,0,0,0
9312000,0,47.3977508,8.5456074,488.104,0.0,0.0,0.0,0.0,0.0,0,0,0,0
9412000,0,47.3977508,8.5456074,488.104,0.0,0.0,0.0,0.0,0.0,0,0,0,0
9512000,0,47.3977508,8.5456074,488.104,0.0,0.0,0.0,0.0,0.0,0,0,0,0
9612000,0,47.3977508,8.5456074,488.104,0.0,0.0,0.0,0.0,0.0,0,0,0,0
9712000,0,47.3977508,8.5456074,488.104,0.0,0.0,0.0,0.0,0.0,0,0,0,0
9812000,0,47.3977508,8.5456074,488.104,0.0,0.0,0.0,0.0,0.0,0,0,0,0
9912000,0,47.3977508,8.5456074,488.104,0.0,0.0,0.0,0.0,0.0,0,0,0,0
10012000,0,47.3977508,8.5456074,488.104,0.0,0.0,0.0,0.0,0.0,0,0,0,0
10112000,0,47.3977508,8.5456074,488.104,0.0,0.0,0.0,0.0,0.0,0,0,0,0
10212000,0,47.3977508,8.5456074,488.104,0.0,0.0,0.0,0.0,0.0,0,0,0,0
10312000,0,47.3977508,8.5456074,488.104,0.0,0.0,0.0,0.0,0.0,0,0,0,0
10412000,0,47.3977508,8.5456074,488.104,0.0,0.0,0.0,0.0,0.0,0,0,0,0
10512000,0,47.3977508,8.5456074,488.104,0.0,0.0,0.0,0.0,0.0,0,0,0,0
10612000,0,47.3977508,8.5456074,488.104,0.0,0.0,0.0,0.0,0.0,0,0,0,0
10712000,0,47.3977508,8.5456074,488.104,0.0,0.0,0.0,0.0,0.0,0,0,0,0
10812000,0,47.3977508,8.5456074,488.104,0.0,0.0,0.0,0.0,0.0,0,0,0,0
10912000,0,47.3977508,8.5456074,488.104,0.0,0.0,0.0,0.0,0.0,0,0,0,0
11012000,0,47.3977508,8.5456074,488.104,0.0,0.0,0.0,0.0,0.0,0,0,0,0
11112000,0,47.3977508,8.5456074,488.104,0.0,0.0,0.0,0.0,0.0,0,0,0,0
11212000,0,47.3977508,8.5456074,488.104,0.0,0.0,0.0,0.0,0.0,0,0,0,0
11312000,0,47.3977508,8.5456074,488.104,0.0,0.0,0.0,0.0,0.0,0,0,0,0
11412000,0,47.3977508,8.5456074,488.104,0.0,0.0,0.0,0.0,0.0,0,0,0,0
11512000,0,47.3977508,8.5456074,488.104,0.0,0.0,0.0,0.0,0.0,0,0,0,0
11612000,0,47.3977508,8.5456074,488.104,0.0,0.0,0.0,0.0,0.0,0,0,0,0
11712000,0,47.3977508,8.5456074,488.104,0.0,0.0,0.0,0.0,0.0,0,0,0,0
11812000,0,47.3977508,8.5456074,488.104,0.0,0.0,0.0,0.0,0.0,0,0,0,0
11912000,0,47.3977508,8.5456074,488.104,0.0,0.0,0.0,0.0,0.0,0,0,0,0
12012000,0,47.3977508,8.5456074,488.104,0.0,0.0,0.0,0.0,0.0,0,0,0,0
12112000,0,47.3977508,8.5456074,488.104,0.0,0.0,0.0,0.0,0.0,0,0,0,0
12212000,0,47.3977508,8.5456074,488.104,0.0,0.0,0.0,0.0,0.0,0,0,0,0
12312000,0,47.3977508,8.5456074,488.104,0.0,0.0,0.0,0.0,0.0,0,0,0,0
12412000,0,47.3977508,8.5456074,488.104,0.0,0.0,0.0,0.0,0.0,0,0,0,0
12512000,0,47.3977508,8.5456074,488.104,0.0,0.0,0.0,0.0,0.0,0,0,0,0
12612000,0,47.3977508,8.5456074,488.104,0.0,0.0,0.0,0.0,0.0,0,0,0,0
12712000,0,47.3977508,8.5456074,488.104,0.0,0.0,0.0,0.0,0.0,0,0,0,0
12812000,0,47.3977508,8.5456074,488.104,0.0,0.0,0.0,0.0,0.0,0,0,0,0
12912000,0,47.3977508,8.5456074,488.104,0.0,0.0,0.0,0.0,0.0,0,0,0,0
13012000,0,47.3977508,8.5456074,488.104,0.0,0.0,0.0,0.0,0.0,0,0,0,0
13112000,0,47.3977508,8.5456074,488.104,0.0,0.0,0.0,0.0,0.0,0,0,0,0
13212000,0,47.3977508,8.5456074,488.104,0.0,0.0,0.0,0.0,0.0,0,0,0,0
13312000,0,47.3977508,8.5456074,488.104,0.0,0.0,0.0,0.0,0.0,0,0,0,0
13412000,0,47.3977508,8.5456074,488.104,0.0,0.0,0.0,0.0,0.0,0,0,0,0
13512000,0,47.3977508,8.5456074,488.104,0.0,0.0,0.0,0.0,0.0,0,0,0,0
13612000,0,47.3977508,8.5456074,488.104,0.0,0.0,0.0,0.0,0.0,0,0,0,0
13712000,0,47.3977508,8.5456074,488.104,0.0,0.0,0.0,0.0,0.0,0,0,0,0
13812000,0,47.3977508,8.5456074,488.104,0.0,0.0,0.0,0.0,0.0,0,0,0,0
13912000,0,47.3977508,8.5456074,488.104,0.0,0.0,0.0,0.0,0.0,0,0,0,0
14012000,0,47.3977508,8.5456074,488.104,0.0,0.0,0.0,0.0,0.0,0,0,0,0
14112000,0,47.3977508,8.5456074,488.104,0.0,0.0,0.0,0.0,0.0,0,0,0,0
14212000,0,47.3977508,8.5456074,488.104,0.0,0.0,0.0,0.0,0.0,0,0,0,0
14312000,0,47.3977508,8.5456074,488.104,0.0,0.0,0.0,0.0,0.0,0,0,0,0
14412000,0,47.3977508,8.5456074,488.104,0.0,0.0,0.0,0.0,0.0,0,0,0,0
14512000,0,47.3977508,8.5456074,488.104,0.0,0.0,0.0,0.0,0.0,0,0,0,0
14612000,0,47.3977508,8.5456074,488.104,0.0,0.0,0.0,0.0,0.0,0,0,0,0
14712000,0,47.3977508,8.5456074,488.104,0.0,0.0,0.0,0.0,0.0,0,0,0,0
14812000,0,47.3977508,8.5456074,488.104,0.0,0.0,0.0,0.0,0.0,0,0,0,0
14912000,0,47.3977508,8.5456074,488.104,0.0,0.0,0.0,0.0,0.0,0,0,0,0
15012000,0,47.3977508,8.5456074,488.104,0.0,0.0,0.0,0.0,0.0,0,0,0,0
15112000,0,47.3977508,8.5456074,488.104,0.0,0.0,0.0,0.0,0.0,0,0,0,0
15212000,0,47.3977508,8.5456074,488.104,0.0,0.0,0.0,0.0,0.0,0,0,0,0
15312000,0,47.3977508,8.5456074,488.104,0.0,0.0,0.0,0.0,0.0,0,0,0,0
15412000,0,47.3977508,8.5456074,488.104,0.0,0.0,0.0,0.0,0.0,0,0,0,0
15512000,0,47.3977508,8.5456074,488.104,0.0,0.0,0.0,0.0,0.0,0,0,0,0
15612000,0,47.3977508,8.5456074,488.104,0.0,0.0,0.0,0.0,0.0,0,0,0,0
15712000,0,47.3977508,8.5456074,488.104,0.0,0.0,0.0,0.0,0.0,0,0,0,0
15812000,0,47.3977508,8.5456074,488.104,0.0,0.0,0.0,0.0,0.0,0,0,0,0
15912000,0,47.3977508,8.5456074,488.104,0.0,0.0,0.0,0.0,0.0,0,0,0,0
16012000,0,47.3977508,8.5456074,488.104,0.0,0.0,0.0,0.0,0.0,0,0,0,0
16112000,0,47.3977508,8.5456074,488.104,0.0,0.0,0.0,0.0,0.0,0,0,0,0
16212000,0,47.3977508,8.5456074,488.104,0.0,0.0,0.0,0.0,0.0,0,0,0,0
16312000,0,47.3977508,8.5456074,488.104,0.0,0.0,0.0,0.0,0.0,0,0,0,0
16412000,0,47.3977508,8.5456074,488.104,0.0,0.0,0.0,0.0,0.0,0,0,0,0
16512000,0,47.3977508,8.5456074,488.104,0.0,0.0,0.0,0.0,0.0,0,0,0,0
16612000,0,47.3977508,8.5456074,488.104,0.0,0.0,0.0,0.0,0.0,0,0,0,0
16712000,0,47.3977508,8.5456074,488.104,0.0,0.0,0.0,0.0,0.0,0,0,0,0
16812000,0,47.3977508,8.5456074,488.104,0.0,0.0,0.0,0.0,0.0,0,0,0,0
16912000,0,47.3977508,8.5456074,488.104,0.0,0.0,0.0,0.0,0.0,0,0,0,0
17012000,0,47.3977508,8.5456074,488.104,0.0,0.0,0.0,0.0,0.0,0,0,0,0
17112000,0,47.3977508,8.5456074,488.104,0.0,0.0,0.0,0.0,0.0,0,0,0,0
17212000,0,47.3977508,8.5456074,488.104,0.0,0.0,0.0,0.0,0.0,0,0,0,0
17312000,0,47.3977508,8.5456074,488.104,0.0,0.0,0.0,0.0,0.0,0,0,0,0
17412000,0,47.3977508,8.5456074,488.104,0.0,0.0,0.0,0.0,0.0,0,0,0,0
17512000,0,47.3977508,8.5456074,488.104,0.0,0.0,0.0,0.0,0.0,0,0,0,0
17612000,0,47.3977508,8.5456074,488.104,0.0,0.0,0.0,0.0,0.0,0,0,0,0
17712000,0,47.3977508,8.5456074,488.104,0.0,0.0,0.0,0.0,0.0,0,0,0,0
17812000,0,47.3977508,8.5456074,488.104,0.0,0.0,0.0,0.0,0.0,0,0,0,0
17912000,0,47.3977508,8.5456074,488.104,0.0,0.0,0.0,0.0,0.0,0,0,0,0
18012000,0,47.3977508,8.5456074,488.104,0.0,0.0,0.0,0.0,0.0,0,0,0,0
18112000,0,47.3977508,8.5456074,488.104,0.0,0.0,0.0,0.0,0.0,0,0,0,0
18212000,0,47.3977508,8.5456074,488.104,0.0,0.0,0.0,0.0,0.0,0,0,0,0
18312000,0,47.3977508,8.5456074,488.104,0.0,0.0,0.0,0.0,0.0,0,0,0,0
18412000,0,47.3977508,8.5456074,488.104,0.0,0.0,0.0,0.0,0.0,0,0,0,0
18512000,0,47.3977508,8.5456074,488.104,0.0,0.0,0.0,0.0,0.0,0,0,0,0
18612000,0,47.3977508,8.5456074,488.104,0.0,0.0,0.0,0.0,0.0,0,0,0,0
18712000,0,47.3977508,8.5456074,488.104,0.0,0.0,0.0,0.0,0.0,0,0,0,0
18812000,0,47.3977508,8.5456074,488.104,0.0,0.0,0.0,0.0,0.0,0,0,0,0
18912000,0,47.3977508,8.5456074,488.104,0.0,0.0,0.0,0.0,0.0,0,0,0,0
19012000,0,47.3977508,8.5456074,488.104,0.0,0.0,0.0,0.0,0.0,0,0,0,0
19112000,0,47.3977508,8.5456074,488.104,0.0,0.0,0.0,0.0,0.0,0,0,0,0
19212000,0,47.3977508,8.5456074,488.104,0.0,0.0,0.0,0.0,0.0,0,0,0,0
19312000,0,47.3977508,8.5456074,488.104,0.0,0.0,0.0,0.0,0.0,0,0,0,0
19412000,0,47.3977508,8.5456074,488.104,0.0,0.0,0.0,0.0,0.0,0,0,0,0
19512000,0,47.3977508,8.5456074,488.104,0.0,0.0,0.0,0.0,0.0,0,0,0,0
19612000,0,47.3977508,8.5456074,488.104,0.0,0.0,0.0,0.0,0.0,0,0,0,0
19712000,0,47.3977508,8.5456074,488.104,0.0,0.0,0.0,0.0,0.0,0,0,0,0
19812000,0,47.3977508,8.5456074,488.104,0.0,0.0,0.0,0.0,0.0,0,0,0,0
19912000,0,47.3977508,8.5456074,488.104,0.0,0.0,0.0,0.0,0.0,0,0,0,0
20012000,0,47.3977508,8.5456074,488.104,0.0,0.0,0.0,0.0,0.0,0,0,0,0
20112000,0,47.3977508,8.5456074,488.104,0.0,0.0,0.0,0.0,0.0,0,0,0,0
20212000,0,47.3977508,8.5456074,488.104,0.0,0.0,0.0,0.0,0.0,0,0,0,0
20312000,0,47.3977508,8.5456074,488.104,0.0,0.0,0.0,0.0,0.0,0,0,0,0
20412000,0,47.3977508,8.5456074,488.104,0.0,0.0,0.0,0.0,0.0,0,0,0,0
20512000,0,47.3977508,8.5456074,488.104,0.0,0.0,0.0,0.0,0.0,0,0,0,0
20612000,0,47.3977508,8.5456074,488.104,0.0,0.0,0.0,0.0,0.0,0,0,0,0
20712000,0,47.3977508,8.5456074,488.104,0.0,0.0,0.0,0.0,0.0,0,0,0,0
20812000,0,47.3977508,8.5456074,488.104,0.0,0.0,0.0,0.0,0.0,0,0,0,0
20912000,0,47.3977508,8.5456074,488.104,0.0,0.0,0.0,0.0,0.0,0,0,0,0
21012000,0,47.3977508,8.5456074,488.104,0.0,0.0,0.0,0.0,0.0,0,0,0,0
21112000,0,47.3977508,8.5456074,488.104,0.0,0.0,0.0,0.0,0.0,0,0,0,0
21212000,0,47.3977508,8.5456074,488.104,0.0,0.0,0.0,0.0,0.0,0,0,0,0
21312000,0,47.3977508,8.5456074,488.104,0.0,0.0,0.0,0.0,0.0,0,0,0,0
21412000,0,47.3977508,8.5456074,488.104,0.0,0.0,0.0,0.0,0.0,0,0,0,0
21512000,0,47.3977508,8.5456074,488.104,0.0,0.0,0.0,0.0,0.0,0,0,0,0
21612000,0,47.3977508,8.5456074,488.104,0.0,0.0,0.0,0.0,0.0,0,0,0,0
21712000,0,47.3977508,8.5456074,488.104,0.0,0.0,0.0,0.0,0.0,0,0,0,0
21812000,0,47.3977508,8.5456074,488.104,0.0,0.0,0.0,0.0,0.0,0,0,0,0
21912000,0,47.3977508,8.5456074,488.104,0.0,0.0,0.0,0.0,0.0,0,0,0,0
22012000,0,47.3977508,8.5456074,488.104,0.0,0.0,0.0,0.0,0.0,0,0,0,0
22112000,0,47.3977508,8.5456074,488.104,0.0,0.0,0.0,0.0,0.0,0,0,0,0
22212000,0,47.3977508,8.5456074,488.104,0.0,0.0,0.0,0.0,0.0,0,0,0,0
22312000,0,47.3977508,8.5456074,488.104,0.0,0.0,0.0,0.0,0.0,0,0,0,0
22412000,0,47.3977508,8.5456074,488.104,0.0,0.0,0.0,0.0,0.0,0,0,0,0
22512000,0,47.3977508,8.5456074,488.104,0.0,0.0,0.0,0.0,0.0,0,0,0,0
22612000,0,47.3977508,8.5456074,488.104,0.0,0.0,0.0,0.0,0.0,0,0,0,0
22712000,0,47.3977508,8.5456074,488.104,0.0,0.0,0.0,0.0,0.0,0,0,0,0
22812000,0,47.3977508,8.5456074,488.104,0.0,0.0,0.0,0.0,0.0,0,0,0,0
22912000,0,47.3977508,8.5456074,488.104,0.0,0.0,0.0,0.0,0.0,0,0,0,0
23012000,0,47.3977508,8.5456074,488.104,0.0,0.0,0.0,0.0,0.0,0,0,0,0
23112000,0,47.3977508,8.5456074,488.104,0.0,0.0,0.0,0.0,0.0,0,0,0,0
23212000,0,47.3977508,8.5456074,488.104,0.0,0.0,0.0,0.0,0.0,0,0,0,0
23312000,0,47.3977508,8.5456074,488.104,0.0,0.0,0.0,0.0,0.0,0,0,0,0
23412000,0,47.3977508,8.5456074,488.104,0.0,0.0,0.0,0.0,0.0,0,0,0,0
23512000,0,47.3977508,8.5456074,488.104,0.0,0.0,0.0,0.0,0.0,0,0,0,0
23612000,0,47.3977508,8.5456074,488.104,0.0,0.0,0.0,0.0,0.0,0,0,0,0
23712000,0,47.3977508,8.5456074,488.104,0.0,0.0,0.0,0.0,0.0,0,0,0,0
23812000,0,47.3977508,8.5456074,488.104,0.0,0.0,0.0,0.0,0.0,0,0,0,0
23912000,0,47.3977508,8.5456074,488.104,0.0,0.0,0.0,0.0,0.0,0,0,0,0
24012000,0,47.3977508,8.5456074,488.104,0.0,0.0,0.0,0.0,0.0,0,0,0,0
24112000,0,47.3977508,8.5456074,488.104,0.0,0.0,0.0,0.0,0.0,0,0,0,0
24212000,0,47.3977508,8.5456074,488.104,0.0,0.0,0.0,0.0,0.0,0,0,0,0
24312000,0,47.3977508,8.5456074,488.104,0.0,0.0,0.0,0.0,0.0,0,0,0,0
24412000,0,47.3977508,8.5456074,488.104,0.0,0.0,0.0,0.0,0.0,0,0,0,0
24512000,0,47.3977508,8.5456074,488.104,0.0,0.0,0.0,0.0,0.0,0,0,0,0
24612000,0,47.3977508,8.5456074,488.104,0.0,0.0,0.0,0.0,0.0,0,0,0,0
24712000,0,47.3977508,8.5456074,488.104,0.0,0.0,0.0,0.0,0.0,0,0,0,0
24812000,0,47.3977508,8.5456074,488.104,0.0,0.0,0.0,0.0,0.0,0,0,0,0
24912000,0,47.3977508,8.5456074,488.104,0.0,0.0,0.0,0.0,0.0,0,0,0,0
25012000,0,47.3977508,8.5456074,488.104,0.0,0.0,0.0,0.0,0.0,0,0,0,0
25112000,0,47.3977508,8.5456074,488.104,0.0,0.0,0.0,0.0,0.0,0,0,0,0
25212000,0,47.3977508,8.5456074,488.104,0.0,0.0,0.0,0.0,0.0,0,0,0,0
25312000,0,47.3977508,8.5456074,488.104,0.0,0.0,0.0,0.0,0.0,0,0,0,0
25412000,0,47.3977508,8.5456074,488.104,0.0,0.0,0.0,0.0,0.0,0,0,0,0
25512000,0,47.3977508,8.5456074,488.104,0.0,0.0,0.0,0.0,0.0,0,0,0,0
25612000,0,47.3977508,8.5456074,488.104,0.0,0.0,0.0,0.0,0.0,0,0,0,0
25712000,0,47.3977508,8.5456074,488.105,0.0,0.0,0.0,0.0,0.0,0,0,0,0
25812000,0,47.3977508,8.5456074,488.108,0.0,0.0,0.0,0.0,0.0,0,0,0,0
25912000,0,47.3977508,8.5456074,488.115,0.0,0.0,0.0,0.0,0.0,0,0,0,0
26012000,0,47.397750699999996,8.5456074,488.128,0.0,0.0,0.0,0.0,0.0,0,0,0,0
26112000,0,47.397750599999995,8.5456073,488.147,0.0,0.0,0.0,0.0,0.0,0,0,0,0
26212000,0,47.3977505,8.5456072,488.174,0.0,0.0,0.0,0.0,0.0,0,0,0,0
26312000,0,47.3977504,8.545607,488.21,0.0,0.0,0.0,0.0,0.0,0,0,0,0
26412000,0,47.3977502,8.5456068,488.254,0.0,0.0,0.0,0.0,0.0,0,0,0,0
26512000,0,47.397750099999996,8.5456066,488.311,0.0,0.0,0.0,0.0,0.0,0,0,0,0
26612000,0,47.3977499,8.5456065,488.371,0.0,0.0,0.0,0.0,0.0,0,0,0,0
26712000,0,47.3977498,8.5456063,488.439,0.0,0.0,0.0,0.0,0.0,0,0,0,0
26812000,0,47.3977497,8.5456062,488.503,0.0,0.0,0.0,0.0,0.0,0,0,0,0
26912000,0,47.3977496,8.545606099999999,488.564,0.0,0.0,0.0,0.0,0.0,0,0,0,0
27012000,0,47.397749499999996,8.545606,488.628,0.0,0.0,0.0,0.0,0.0,0,0,0,0
27112000,0,47.397749399999995,8.5456059,488.694,0.0,0.0,0.0,0.0,0.0,0,0,0,0
27212000,0,47.397749399999995,8.545605799999999,488.761,0.0,0.0,0.0,0.0,0.0,0,0,0,0
27312000,0,47.3977493,8.545605799999999,488.83,0.0,0.0,0.0,0.0,0.0,0,0,0,0
27412000,0,47.3977493,8.5456057,488.902,0.0,0.0,0.0,0.0,0.0,0,0,0,0
27512000,0,47.3977493,8.5456057,488.969,0.0,0.0,0.0,0.0,0.0,0,0,0,0
27612000,0,47.3977493,8.5456057,489.042,0.0,0.0,0.0,0.0,0.0,0,0,0,0
27712000,0,47.397749399999995,8.5456057,489.11,0.0,0.0,0.0,0.0,0.0,0,0,0,0
27812000,0,47.397749399999995,8.5456057,489.181,0.0,0.0,0.0,0.0,0.0,0,0,0,0
27912000,0,47.397749499999996,8.545605799999999,489.255,0.0,0.0,0.0,0.0,0.0,0,0,0,0
28012000,0,47.397749499999996,8.545605799999999,489.325,0.0,0.0,0.0,0.0,0.0,0,0,0,0
28112000,0,47.3977496,8.545605799999999,489.396,0.0,0.0,0.0,0.0,0.0,0,0,0,0
28212000,0,47.3977497,8.5456059,489.465,0.0,0.0,0.0,0.0,0.0,0,0,0,0
28312000,0,47.3977497,8.5456059,489.535,0.0,0.0,0.0,0.0,0.0,0,0,0,0
28412000,0,47.3977498,8.545606,489.6,0.0,0.0,0.0,0.0,0.0,0,0,0,0
28512000,0,47.3977499,8.545606,489.67,0.0,0.0,0.0,0.0,0.0,0,0,0,0
28612000,0,47.397749999999995,8.545606099999999,489.735,0.0,0.0,0.0,0.0,0.0,0,0,0,0
28712000,0,47.397750099999996,8.5456062,489.799,0.0,0.0,0.0,0.0,0.0,0,0,0,0
28812000,0,47.3977502,8.5456062,489.862,0.0,0.0,0.0,0.0,0.0,0,0,0,0
28912000,0,47.3977502,8.5456063,489.923,0.0,0.0,0.0,0.0,0.0,0,0,0,0
29012000,0,47.3977503,8.5456064,489.981,0.0,0.0,0.0,0.0,0.0,0,0,0,0
29112000,0,47.3977504,8.5456064,490.034,0.0,0.0,0.0,0.0,0.0,0,0,0,0
29212000,0,47.3977505,8.5456065,490.076,0.0,0.0,0.0,0.0,0.0,0,0,0,0
29312000,0,47.3977505,8.5456066,490.106,0.0,0.0,0.0,0.0,0.0,0,0,0,0
29412000,0,47.397750599999995,8.5456067,490.128,0.0,0.0,0.0,0.0,0.0,0,0,0,0
29512000,0,47.397750699999996,8.5456067,490.146,0.0,0.0,0.0,0.0,0.0,0,0,0,0
29612000,0,47.397750699999996,8.5456068,490.165,0.0,0.0,0.0,0.0,0.0,0,0,0,0
29712000,0,47.3977508,8.5456069,490.185,0.0,0.0,0.0,0.0,0.0,0,0,0,0
29812000,0,47.3977508,8.5456069,490.208,0.0,0.0,0.0,0.0,0.0,0,0,0,0
29912000,0,47.3977509,8.545607,490.231,0.0,0.0,0.0,0.0,0.0,0,0,0,0
30012000,0,47.3977509,8.545607,490.256,0.0,0.0,0.0,0.0,0.0,0,0,0,0
30112000,0,47.3977509,8.5456071,490.279,0.0,0.0,0.0,0.0,0.0,0,0,0,0
30212000,0,47.3977509,8.5456071,490.301,0.0,0.0,0.0,0.0,0.0,0,0,0,0
30312000,0,47.397751,8.5456072,490.323,0.0,0.0,0.0,0.0,0.0,0,0,0,0
30412000,0,47.397751,8.5456072,490.345,0.0,0.0,0.0,0.0,0.0,0,0,0,0
30512000,0,47.397751,8.5456072,490.366,0.0,0.0,0.0,0.0,0.0,0,0,0,0
30612000,0,47.397751,8.5456072,490.385,0.0,0.0,0.0,0.0,0.0,0,0,0,0
30712000,0,47.397751,8.5456073,490.405,0.0,0.0,0.0,0.0,0.0,0,0,0,0
30812000,0,47.397751,8.5456073,490.423,0.0,0.0,0.0,0.0,0.0,0,0,0,0
30912000,0,47.397751,8.5456073,490.44,0.0,0.0,0.0,0.0,0.0,0,0,0,0
31012000,0,47.397751,8.5456073,490.456,0.0,0.0,0.0,0.0,0.0,0,0,0,0
31112000,0,47.3977509,8.5456073,490.472,0.0,0.0,0.0,0.0,0.0,0,0,0,0
31212000,0,47.3977509,8.5456072,490.487,0.0,0.0,0.0,0.0,0.0,0,0,0,0
31312000,0,47.3977509,8.5456072,490.5,0.0,0.0,0.0,0.0,0.0,0,0,0,0
31412000,0,47.3977509,8.5456072,490.512,0.0,0.0,0.0,0.0,0.0,0,0,0,0
31512000,0,47.3977509,8.5456072,490.524,0.0,0.0,0.0,0.0,0.0,0,0,0,0
31612000,0,47.3977508,8.5456072,490.536,0.0,0.0,0.0,0.0,0.0,0,0,0,0
31712000,0,47.3977508,8.5456072,490.547,0.0,0.0,0.0,0.0,0.0,0,0,0,0
31812000,0,47.3977508,8.5456072,490.557,0.0,0.0,0.0,0.0,0.0,0,0,0,0
31912000,0,47.3977508,8.5456072,490.567,0.0,0.0,0.0,0.0,0.0,0,0,0,0
32012000,0,47.3977508,8.5456072,490.576,0.0,0.0,0.0,0.0,0.0,0,0,0,0
32112000,0,47.3977508,8.5456072,490.585,0.0,0.0,0.0,0.0,0.0,0,0,0,0
32212000,0,47.3977508,8.5456072,490.595,0.0,0.0,0.0,0.0,0.0,0,0,0,0
32312000,0,47.3977508,8.5456072,490.603,0.0,0.0,0.0,0.0,0.0,0,0,0,0
32412000,0,47.397750699999996,8.5456071,490.611,0.0,0.0,0.0,0.0,0.0,0,0,0,0
32512000,0,47.397750699999996,8.5456071,490.619,0.0,0.0,0.0,0.0,0.0,0,0,0,0
32612000,0,47.397750699999996,8.5456071,490.627,0.0,0.0,0.0,0.0,0.0,0,0,0,0
32712000,0,47.397750699999996,8.5456071,490.634,0.0,0.0,0.0,0.0,0.0,0,0,0,0
32812000,0,47.397750699999996,8.5456071,490.641,0.0,0.0,0.0,0.0,0.0,0,0,0,0
32912000,0,47.397750699999996,8.5456071,490.647,0.0,0.0,0.0,0.0,0.0,0,0,0,0
33012000,0,47.397750599999995,8.5456071,490.653,0.0,0.0,0.0,0.0,0.0,0,0,0,0
33112000,0,47.397750599999995,8.5456071,490.659,0.0,0.0,0.0,0.0,0.0,0,0,0,0
33212000,0,47.397750599999995,8.5456071,490.664,0.0,0.0,0.0,0.0,0.0,0,0,0,0
33312000,0,47.397750599999995,8.5456071,490.669,0.0,0.0,0.0,0.0,0.0,0,0,0,0
33412000,0,47.397750599999995,8.5456071,490.674,0.0,0.0,0.0,0.0,0.0,0,0,0,0
33512000,0,47.3977505,8.5456071,490.679,0.0,0.0,0.0,0.0,0.0,0,0,0,0
33612000,0,47.3977505,8.5456071,490.683,0.0,0.0,0.0,0.0,0.0,0,0,0,0
33712000,0,47.3977505,8.5456071,490.687,0.0,0.0,0.0,0.0,0.0,0,0,0,0
33812000,0,47.3977505,8.5456071,490.691,0.0,0.0,0.0,0.0,0.0,0,0,0,0
33912000,0,47.3977504,8.5456071,490.695,0.0,0.0,0.0,0.0,0.0,0,0,0,0
34012000,0,47.3977504,8.5456071,490.698,0.0,0.0,0.0,0.0,0.0,0,0,0,0
34112000,0,47.3977504,8.5456071,490.7,0.0,0.0,0.0,0.0,0.0,0,0,0,0
34212000,0,47.3977504,8.5456071,490.702,0.0,0.0,0.0,0.0,0.0,0,0,0,0
34312000,0,47.3977504,8.5456071,490.703,0.0,0.0,0.0,0.0,0.0,0,0,0,0
34412000,0,47.3977504,8.5456071,490.703,0.0,0.0,0.0,0.0,0.0,0,0,0,0
34512000,0,47.3977504,8.5456072,490.703,0.0,0.0,0.0,0.0,0.0,0,0,0,0
34612000,0,47.3977504,8.5456072,490.703,0.0,0.0,0.0,0.0,0.0,0,0,0,0
34712000,0,47.3977504,8.5456072,490.702,0.0,0.0,0.0,0.0,0.0,0,0,0,0
34812000,0,47.3977503,8.5456072,490.701,0.0,0.0,0.0,0.0,0.0,0,0,0,0
34912000,0,47.3977503,8.5456073,490.7,0.0,0.0,0.0,0.0,0.0,0,0,0,0
35012000,0,47.3977503,8.5456073,490.698,0.0,0.0,0.0,0.0,0.0,0,0,0,0
35112000,0,47.3977503,8.5456073,490.697,0.0,0.0,0.0,0.0,0.0,0,0,0,0
35212000,0,47.3977503,8.5456074,490.695,0.0,0.0,0.0,0.0,0.0,0,0,0,0
35312000,0,47.3977503,8.5456074,490.694,0.0,0.0,0.0,0.0,0.0,0,0,0,0
35412000,0,47.3977503,8.5456074,490.693,0.0,0.0,0.0,0.0,0.0,0,0,0,0
35512000,0,47.3977503,8.5456075,490.692,0.0,0.0,0.0,0.0,0.0,0,0,0,0
35612000,0,47.3977504,8.5456075,490.691,0.0,0.0,0.0,0.0,0.0,0,0,0,0
35712000,0,47.3977504,8.5456076,490.69,0.0,0.0,0.0,0.0,0.0,0,0,0,0
35812000,0,47.3977504,8.5456076,490.689,0.0,0.0,0.0,0.0,0.0,0,0,0,0
35912000,0,47.3977504,8.5456076,490.689,0.0,0.0,0.0,0.0,0.0,0,0,0,0
36012000,0,47.3977504,8.5456077,490.688,0.0,0.0,0.0,0.0,0.0,0,0,0,0
36112000,0,47.3977504,8.5456077,490.687,0.0,0.0,0.0,0.0,0.0,0,0,0,0
36212000,0,47.3977504,8.545607799999999,490.686,0.0,0.0,0.0,0.0,0.0,0,0,0,0
36312000,0,47.3977504,8.545607799999999,490.684,0.0,0.0,0.0,0.0,0.0,0,0,0,0
36412000,0,47.3977504,8.545607799999999,490.683,0.0,0.0,0.0,0.0,0.0,0,0,0,0
36512000,0,47.3977504,8.5456079,490.681,0.0,0.0,0.0,0.0,0.0,0,0,0,0
36612000,0,47.3977505,8.5456079,490.679,0.0,0.0,0.0,0.0,0.0,0,0,0,0
36712000,0,47.3977505,8.5456079,490.677,0.0,0.0,0.0,0.0,0.0,0,0,0,0
36812000,0,47.3977505,8.545608,490.675,0.0,0.0,0.0,0.0,0.0,0,0,0,0
36912000,0,47.3977505,8.545608,490.673,0.0,0.0,0.0,0.0,0.0,0,0,0,0
37012000,0,47.3977505,8.545608,490.672,0.0,0.0,0.0,0.0,0.0,0,0,0,0
37112000,0,47.3977505,8.545608,490.671,0.0,0.0,0.0,0.0,0.0,0,0,0,0
37212000,0,47.3977505,8.545608099999999,490.669,0.0,0.0,0.0,0.0,0.0,0,0,0,0
37312000,0,47.3977505,8.545608099999999,490.668,0.0,0.0,0.0,0.0,0.0,0,0,0,0
37412000,0,47.3977505,8.545608099999999,490.667,0.0,0.0,0.0,0.0,0.0,0,0,0,0
37512000,0,47.397750599999995,8.5456082,490.666,0.0,0.0,0.0,0.0,0.0,0,0,0,0
37612000,0,47.397750599999995,8.5456082,490.665,0.0,0.0,0.0,0.0,0.0,0,0,0,0
37712000,0,47.397750599999995,8.5456082,490.664,0.0,0.0,0.0,0.0,0.0,0,0,0,0
37812000,0,47.397750599999995,8.5456083,490.664,0.0,0.0,0.0,0.0,0.0,0,0,0,0
37912000,0,47.397750599999995,8.5456083,490.663,0.0,0.0,0.0,0.0,0.0,0,0,0,0
38012000,0,47.397750599999995,8.5456083,490.663,0.0,0.0,0.0,0.0,0.0,0,0,0,0
38112000,0,47.397750599999995,8.5456083,490.663,0.0,0.0,0.0,0.0,0.0,0,0,0,0
38212000,0,47.397750599999995,8.545608399999999,490.663,0.0,0.0,0.0,0.0,0.0,0,0,0,0
38312000,0,47.397750699999996,8.545608399999999,490.663,0.0,0.0,0.0,0.0,0.0,0,0,0,0
38412000,0,47.397750699999996,8.545608399999999,490.664,0.0,0.0,0.0,0.0,0.0,0,0,0,0
38512000,0,47.397750699999996,8.545608399999999,490.664,0.0,0.0,0.0,0.0,0.0,0,0,0,0
38612000,0,47.397750699999996,8.545608399999999,490.664,0.0,0.0,0.0,0.0,0.0,0,0,0,0
38712000,0,47.397750699999996,8.545608399999999,490.665,0.0,0.0,0.0,0.0,0.0,0,0,0,0
38812000,0,47.397750699999996,8.545608399999999,490.666,0.0,0.0,0.0,0.0,0.0,0,0,0,0
38912000,0,47.397750699999996,8.545608399999999,490.667,0.0,0.0,0.0,0.0,0.0,0,0,0,0
39012000,0,47.397750699999996,8.545608399999999,490.668,0.0,0.0,0.0,0.0,0.0,0,0,0,0
39112000,0,47.397750699999996,8.545608399999999,490.67,0.0,0.0,0.0,0.0,0.0,0,0,0,0
39212000,0,47.397750699999996,8.545608399999999,490.672,0.0,0.0,0.0,0.0,0.0,0,0,0,0
39312000,0,47.397750699999996,8.545608399999999,490.674,0.0,0.0,0.0,0.0,0.0,0,0,0,0
39412000,0,47.397750699999996,8.545608399999999,490.676,0.0,0.0,0.0,0.0,0.0,0,0,0,0
39512000,0,47.397750699999996,8.545608399999999,490.679,0.0,0.0,0.0,0.0,0.0,0,0,0,0
39612000,0,47.397750699999996,8.545608399999999,490.681,0.0,0.0,0.0,0.0,0.0,0,0,0,0
39712000,0,47.397750699999996,8.5456083,490.684,0.0,0.0,0.0,0.0,0.0,0,0,0,0
39812000,0,47.397750699999996,8.5456083,490.686,0.0,0.0,0.0,0.0,0.0,0,0,0,0
39912000,0,47.397750699999996,8.5456083,490.689,0.0,0.0,0.0,0.0,0.0,0,0,0,0
40012000,0,47.397750699999996,8.5456083,490.691,0.0,0.0,0.0,0.0,0.0,0,0,0,0
40112000,0,47.397750699999996,8.5456083,490.694,0.0,0.0,0.0,0.0,0.0,0,0,0,0
40212000,0,47.397750699999996,8.5456083,490.697,0.0,0.0,0.0,0.0,0.0,0,0,0,0
40312000,0,47.397750699999996,8.5456083,490.7,0.0,0.0,0.0,0.0,0.0,0,0,0,0
40412000,0,47.397750699999996,8.5456083,490.703,0.0,0.0,0.0,0.0,0.0,0,0,0,0
40512000,0,47.397750699999996,8.5456082,490.706,0.0,0.0,0.0,0.0,0.0,0,0,0,0
40612000,0,47.397750699999996,8.5456082,490.709,0.0,0.0,0.0,0.0,0.0,0,0,0,0
40712000,0,47.397750699999996,8.5456082,490.713,0.0,0.0,0.0,0.0,0.0,0,0,0,0
40812000,0,47.397750699999996,8.5456082,490.717,0.0,0.0,0.0,0.0,0.0,0,0,0,0
40912000,0,47.397750699999996,8.5456082,490.721,0.0,0.0,0.0,0.0,0.0,0,0,0,0
41012000,0,47.397750699999996,8.5456082,490.724,0.0,0.0,0.0,0.0,0.0,0,0,0,0
41112000,0,47.397750699999996,8.5456082,490.728,0.0,0.0,0.0,0.0,0.0,0,0,0,0
41212000,0,47.397750699999996,8.5456082,490.732,0.0,0.0,0.0,0.0,0.0,0,0,0,0
41312000,0,47.397750599999995,8.5456082,490.736,0.0,0.0,0.0,0.0,0.0,0,0,0,0
41412000,0,47.397750599999995,8.5456082,490.74,0.0,0.0,0.0,0.0,0.0,0,0,0,0
41512000,0,47.397750599999995,8.5456082,490.744,0.0,0.0,0.0,0.0,0.0,0,0,0,0
41612000,0,47.397750599999995,8.5456082,490.748,0.0,0.0,0.0,0.0,0.0,0,0,0,0
41712000,0,47.397750599999995,8.5456082,490.752,0.0,0.0,0.0,0.0,0.0,0,0,0,0
41812000,0,47.397750599999995,8.5456082,490.756,0.0,0.0,0.0,0.0,0.0,0,0,0,0
41912000,0,47.397750599999995,8.5456082,490.76,0.0,0.0,0.0,0.0,0.0,0,0,0,0
42012000,0,47.397750599999995,8.5456082,490.764,0.0,0.0,0.0,0.0,0.0,0,0,0,0
42112000,0,47.397750599999995,8.5456082,490.769,0.0,0.0,0.0,0.0,0.0,0,0,0,0
42212000,0,47.397750599999995,8.5456082,490.772,0.0,0.0,0.0,0.0,0.0,0,0,0,0
42312000,0,47.397750599999995,8.5456082,490.776,0.0,0.0,0.0,0.0,0.0,0,0,0,0
42412000,0,47.397750599999995,8.545608099999999,490.78,0.0,0.0,0.0,0.0,0.0,0,0,0,0
42512000,0,47.397750599999995,8.545608099999999,490.783,0.0,0.0,0.0,0.0,0.0,0,0,0,0
42612000,0,47.397750599999995,8.545608099999999,490.786,0.0,0.0,0.0,0.0,0.0,0,0,0,0
42712000,0,47.397750599999995,8.545608099999999,490.79,0.0,0.0,0.0,0.0,0.0,0,0,0,0
42812000,0,47.397750599999995,8.545608099999999,490.792,0.0,0.0,0.0,0.0,0.0,0,0,0,0
42912000,0,47.397750699999996,8.545608099999999,490.795,0.0,0.0,0.0,0.0,0.0,0,0,0,0
43012000,0,47.397750699999996,8.545608099999999,490.797,0.0,0.0,0.0,0.0,0.0,0,0,0,0
43112000,0,47.397750699999996,8.545608099999999,490.799,0.0,0.0,0.0,0.0,0.0,0,0,0,0
43212000,0,47.397750699999996,8.545608099999999,490.801,0.0,0.0,0.0,0.0,0.0,0,0,0,0
43312000,0,47.397750699999996,8.545608099999999,490.803,0.0,0.0,0.0,0.0,0.0,0,0,0,0
43412000,0,47.397750699999996,8.545608,490.805,0.0,0.0,0.0,0.0,0.0,0,0,0,0
43512000,0,47.3977508,8.545608,490.807,0.0,0.0,0.0,0.0,0.0,0,0,0,0
43612000,0,47.3977508,8.545608,490.809,0.0,0.0,0.0,0.0,0.0,0,0,0,0
43712000,0,47.3977508,8.545608,490.811,0.0,0.0,0.0,0.0,0.0,0,0,0,0
43812000,0,47.3977508,8.545608,490.813,0.0,0.0,0.0,0.0,0.0,0,0,0,0
43912000,0,47.3977508,8.5456079,490.816,0.0,0.0,0.0,0.0,0.0,0,0,0,0
44012000,0,47.3977509,8.5456079,490.818,0.0,0.0,0.0,0.0,0.0,0,0,0,0
44112000,0,47.3977509,8.5456079,490.82,0.0,0.0,0.0,0.0,0.0,0,0,0,0
44212000,0,47.3977509,8.5456079,490.822,0.0,0.0,0.0,0.0,0.0,0,0,0,0
44312000,0,47.3977509,8.545607799999999,490.824,0.0,0.0,0.0,0.0,0.0,0,0,0,0
44412000,0,47.397751,8.545607799999999,490.826,0.0,0.0,0.0,0.0,0.0,0,0,0,0
44512000,0,47.397751,8.545607799999999,490.827,0.0,0.0,0.0,0.0,0.0,0,0,0,0
44612000,0,47.397751,8.545607799999999,490.826,0.0,0.0,0.0,0.0,0.0,0,0,0,0
44712000,0,47.397751,8.545607799999999,490.815,0.0,0.0,0.0,0.0,0.0,0,0,0,0
44812000,0,47.397751,8.545607799999999,490.79,0.0,0.0,0.0,0.0,0.0,0,0,0,0
44912000,0,47.3977511,8.545607799999999,490.744,0.0,0.0,0.0,0.0,0.0,0,0,0,0
45012000,0,47.3977511,8.545607799999999,490.68,0.0,0.0,0.0,0.0,0.0,0,0,0,0
45112000,0,47.3977511,8.545607799999999,490.604,0.0,0.0,0.0,0.0,0.0,0,0,0,0
45212000,0,47.3977511,8.545607799999999,490.525,0.0,0.0,0.0,0.0,0.0,0,0,0,0
45312000,0,47.3977511,8.545607799999999,490.449,0.0,0.0,0.0,0.0,0.0,0,0,0,0
45412000,0,47.3977511,8.545607799999999,490.381,0.0,0.0,0.0,0.0,0.0,0,0,0,0
45512000,0,47.397751199999995,8.545607799999999,490.312,0.0,0.0,0.0,0.0,0.0,0,0,0,0
45612000,0,47.397751199999995,8.545607799999999,490.247,0.0,0.0,0.0,0.0,0.0,0,0,0,0
45712000,0,47.397751199999995,8.545607799999999,490.182,0.0,0.0,0.0,0.0,0.0,0,0,0,0
45812000,0,47.397751199999995,8.5456079,490.119,0.0,0.0,0.0,0.0,0.0,0,0,0,0
45912000,0,47.397751199999995,8.5456079,490.05,0.0,0.0,0.0,0.0,0.0,0,0,0,0
46012000,0,47.397751199999995,8.5456079,489.987,0.0,0.0,0.0,0.0,0.0,0,0,0,0
46112000,0,47.397751199999995,8.5456079,489.917,0.0,0.0,0.0,0.0,0.0,0,0,0,0
46212000,0,47.397751199999995,8.5456079,489.849,0.0,0.0,0.0,0.0,0.0,0,0,0,0
46312000,0,47.397751199999995,8.5456079,489.784,0.0,0.0,0.0,0.0,0.0,0,0,0,0
46412000,0,47.397751299999996,8.5456079,489.714,0.0,0.0,0.0,0.0,0.0,0,0,0,0
46512000,0,47.397751299999996,8.5456079,489.645,0.0,0.0,0.0,0.0,0.0,0,0,0,0
46612000,0,47.397751299999996,8.5456079,489.577,0.0,0.0,0.0,0.0,0.0,0,0,0,0
46712000,0,47.397751299999996,8.5456079,489.509,0.0,0.0,0.0,0.0,0.0,0,0,0,0
46812000,0,47.397751299999996,8.5456079,489.443,0.0,0.0,0.0,0.0,0.0,0,0,0,0
46912000,0,47.397751199999995,8.5456079,489.374,0.0,0.0,0.0,0.0,0.0,0,0,0,0
47012000,0,47.397751199999995,8.5456079,489.302,0.0,0.0,0.0,0.0,0.0,0,0,0,0
47112000,0,47.397751199999995,8.5456079,489.232,0.0,0.0,0.0,0.0,0.0,0,0,0,0
47212000,0,47.397751199999995,8.5456079,489.162,0.0,0.0,0.0,0.0,0.0,0,0,0,0
47312000,0,47.397751199999995,8.5456079,489.091,0.0,0.0,0.0,0.0,0.0,0,0,0,0
47412000,0,47.397751199999995,8.5456079,489.024,0.0,0.0,0.0,0.0,0.0,0,0,0,0
47512000,0,47.397751199999995,8.5456079,488.951,0.0,0.0,0.0,0.0,0.0,0,0,0,0
47612000,0,47.397751199999995,8.5456079,488.881,0.0,0.0,0.0,0.0,0.0,0,0,0,0
47712000,0,47.3977511,8.5456079,488.81,0.0,0.0,0.0,0.0,0.0,0,0,0,0
47812000,0,47.3977511,8.5456079,488.74,0.0,0.0,0.0,0.0,0.0,0,0,0,0
47912000,0,47.3977511,8.5456079,488.673,0.0,0.0,0.0,0.0,0.0,0,0,0,0
48012000,0,47.3977511,8.5456079,488.6,0.0,0.0,0.0,0.0,0.0,0,0,0,0
48112000,0,47.3977511,8.5456079,488.529,0.0,0.0,0.0,0.0,0.0,0,0,0,0
48212000,0,47.397751,8.5456079,488.458,0.0,0.0,0.0,0.0,0.0,0,0,0,0
48312000,0,47.397751,8.5456079,488.39,0.0,0.0,0.0,0.0,0.0,0,0,0,0
48412000,0,47.397751,8.5456079,488.319,0.0,0.0,0.0,0.0,0.0,0,0,0,0
48512000,0,47.397751,8.5456079,488.245,0.0,0.0,0.0,0.0,0.0,0,0,0,0
48612000,0,47.397751,8.5456079,488.174,0.0,0.0,0.0,0.0,0.0,0,0,0,0
48712000,0,47.3977509,8.5456079,488.104,0.0,0.0,0.0,0.0,0.0,0,0,0,0
48812000,0,47.3977509,8.5456079,488.113,0.0,0.0,0.0,0.0,0.0,0,0,0,0
48912000,0,47.3977509,8.5456079,488.156,0.0,0.0,0.0,0.0,0.0,0,0,0,0
49012000,0,47.3977509,8.545608,488.215,0.0,0.0,0.0,0.0,0.0,0,0,0,0
49112000,0,47.3977509,8.545608,488.276,0.0,0.0,0.0,0.0,0.0,0,0,0,0
49212000,0,47.3977509,8.545608,488.338,0.0,0.0,0.0,0.0,0.0,0,0,0,0
49312000,0,47.3977509,8.545608,488.39,0.0,0.0,0.0,0.0,0.0,0,0,0,0
49412000,0,47.3977509,8.545608,488.436,0.0,0.0,0.0,0.0,0.0,0,0,0,0
49512000,0,47.3977509,8.545608,488.477,0.0,0.0,0.0,0.0,0.0,0,0,0,0
49612000,0,47.3977509,8.545608,488.509,0.0,0.0,0.0,0.0,0.0,0,0,0,0
49712000,0,47.3977509,8.545608,488.535,0.0,0.0,0.0,0.0,0.0,0,0,0,0
49812000,0,47.3977509,8.545608,488.552,0.0,0.0,0.0,0.0,0.0,0,0,0,0
49912000,0,47.3977509,8.545608,488.566,0.0,0.0,0.0,0.0,0.0,0,0,0,0
50012000,0,47.3977509,8.545608,488.572,0.0,0.0,0.0,0.0,0.0,0,0,0,0
50112000,0,47.3977509,8.545608,488.569,0.0,0.0,0.0,0.0,0.0,0,0,0,0
50212000,0,47.397751,8.545608,488.561,0.0,0.0,0.0,0.0,0.0,0,0,0,0
50312000,0,47.397751,8.545608,488.549,0.0,0.0,0.0,0.0,0.0,0,0,0,0
50412000,0,47.397751,8.545608,488.531,0.0,0.0,0.0,0.0,0.0,0,0,0,0
50512000,0,47.397751,8.5456079,488.505,0.0,0.0,0.0,0.0,0.0,0,0,0,0
50612000,0,47.397751,8.5456079,488.473,0.0,0.0,0.0,0.0,0.0,0,0,0,0
50712000,0,47.397751,8.5456079,488.439,0.0,0.0,0.0,0.0,0.0,0,0,0,0
50812000,0,47.3977511,8.5456079,488.403,0.0,0.0,0.0,0.0,0.0,0,0,0,0
50912000,0,47.3977511,8.5456079,488.359,0.0,0.0,0.0,0.0,0.0,0,0,0,0
51012000,0,47.3977511,8.5456079,488.31,0.0,0.0,0.0,0.0,0.0,0,0,0,0
51112000,0,47.3977511,8.5456079,488.263,0.0,0.0,0.0,0.0,0.0,0,0,0,0
51212000,0,47.397751199999995,8.5456079,488.211,0.0,0.0,0.0,0.0,0.0,0,0,0,0
51312000,0,47.397751199999995,8.5456079,488.153,0.0,0.0,0.0,0.0,0.0,0,0,0,0
51412000,0,47.397751199999995,8.5456079,488.104,0.0,0.0,0.0,0.0,0.0,0,0,0,0
51512000,0,47.397751199999995,8.5456079,488.104,0.0,0.0,0.0,0.0,0.0,0,0,0,0
51612000,0,47.397751199999995,8.5456079,488.104,0.0,0.0,0.0,0.0,0.0,0,0,0,0
51712000,0,47.397751199999995,8.5456079,488.104,0.0,0.0,0.0,0.0,0.0,0,0,0,0
51812000,0,47.397751199999995,8.5456079,488.104,0.0,0.0,0.0,0.0,0.0,0,0,0,0
51912000,0,47.397751199999995,8.5456079,488.104,0.0,0.0,0.0,0.0,0.0,0,0,0,0
52012000,0,47.397751199999995,8.5456079,488.104,0.0,0.0,0.0,0.0,0.0,0,0,0,0
52112000,0,47.397751199999995,8.5456079,488.104,0.0,0.0,0.0,0.0,0.0,0,0,0,0
52212000,0,47.397751199999995,8.5456079,488.104,0.0,0.0,0.0,0.0,0.0,0,0,0,0
52312000,0,47.397751199999995,8.5456079,488.104,0.0,0.0,0.0,0.0,0.0,0,0,0,0
52412000,0,47.397751199999995,8.5456079,488.104,0.0,0.0,0.0,0.0,0.0,0,0,0,0
52512000,0,47.397751199999995,8.5456079,488.104,0.0,0.0,0.0,0.0,0.0,0,0,0,0
52612000,0,47.397751199999995,8.5456079,488.104,0.0,0.0,0.0,0.0,0.0,0,0,0,0
52712000,0,47.397751199999995,8.5456079,488.104,0.0,0.0,0.0,0.0,0.0,0,0,0,0
52812000,0,47.397751199999995,8.5456079,488.104,0.0,0.0,0.0,0.0,0.0,0,0,0,0
52912000,0,47.397751199999995,8.5456079,488.104,0.0,0.0,0.0,0.0,0.0,0,0,0,0
53012000,0,47.397751199999995,8.5456079,488.104,0.0,0.0,0.0,0.0,0.0,0,0,0,0
53112000,0,47.397751199999995,8.5456079,488.104,0.0,0.0,0.0,0.0,0.0,0,0,0,0
53212000,0,47.397751199999995,8.5456079,488.104,0.0,0.0,0.0,0.0,0.0,0,0,0,0
53312000,0,47.397751199999995,8.5456079,488.104,0.0,0.0,0.0,0.0,0.0,0,0,0,0
53412000,0,47.397751199999995,8.5456079,488.104,0.0,0.0,0.0,0.0,0.0,0,0,0,0
53512000,0,47.397751199999995,8.5456079,488.104,0.0,0.0,0.0,0.0,0.0,0,0,0,0
53612000,0,47.397751199999995,8.5456079,488.104,0.0,0.0,0.0,0.0,0.0,0,0,0,0
53712000,0,47.397751199999995,8.5456079,488.104,0.0,0.0,0.0,0.0,0.0,0,0,0,0
53812000,0,47.397751199999995,8.5456079,488.104,0.0,0.0,0.0,0.0,0.0,0,0,0,0
53912000,0,47.397751199999995,8.5456079,488.104,0.0,0.0,0.0,0.0,0.0,0,0,0,0
54012000,0,47.397751199999995,8.5456079,488.104,0.0,0.0,0.0,0.0,0.0,0,0,0,0
54112000,0,47.397751199999995,8.5456079,488.104,0.0,0.0,0.0,0.0,0.0,0,0,0,0
54212000,0,47.397751199999995,8.5456079,488.104,0.0,0.0,0.0,0.0,0.0,0,0,0,0
54312000,0,47.397751199999995,8.5456079,488.104,0.0,0.0,0.0,0.0,0.0,0,0,0,0
54412000,0,47.397751199999995,8.5456079,488.104,0.0,0.0,0.0,0.0,0.0,0,0,0,0
54512000,0,47.397751199999995,8.5456079,488.104,0.0,0.0,0.0,0.0,0.0,0,0,0,0
54612000,0,47.397751199999995,8.5456079,488.104,0.0,0.0,0.0,0.0,0.0,0,0,0,0
54712000,0,47.397751199999995,8.5456079,488.104,0.0,0.0,0.0,0.0,0.0,0,0,0,0
54812000,0,47.397751199999995,8.5456079,488.104,0.0,0.0,0.0,0.0,0.0,0,0,0,0
54912000,0,47.397751199999995,8.5456079,488.104,0.0,0.0,0.0,0.0,0.0,0,0,0,0
55012000,0,47.397751199999995,8.5456079,488.104,0.0,0.0,0.0,0.0,0.0,0,0,0,0
55112000,0,47.397751199999995,8.5456079,488.104,0.0,0.0,0.0,0.0,0.0,0,0,0,0
55212000,0,47.397751199999995,8.5456079,488.104,0.0,0.0,0.0,0.0,0.0,0,0,0,0
55312000,0,47.397751199999995,8.5456079,488.104,0.0,0.0,0.0,0.0,0.0,0,0,0,0
55412000,0,47.397751199999995,8.5456079,488.104,0.0,0.0,0.0,0.0,0.0,0,0,0,0
55512000,0,47.397751199999995,8.5456079,488.104,0.0,0.0,0.0,0.0,0.0,0,0,0,0
55612000,0,47.397751199999995,8.5456079,488.104,0.0,0.0,0.0,0.0,0.0,0,0,0,0
55712000,0,47.397751199999995,8.5456079,488.104,0.0,0.0,0.0,0.0,0.0,0,0,0,0
55812000,0,47.397751199999995,8.5456079,488.104,0.0,0.0,0.0,0.0,0.0,0,0,0,0
55912000,0,47.397751199999995,8.5456079,488.104,0.0,0.0,0.0,0.0,0.0,0,0,0,0
56012000,0,47.397751199999995,8.5456079,488.104,0.0,0.0,0.0,0.0,0.0,0,0,0,0
56112000,0,47.397751199999995,8.5456079,488.104,0.0,0.0,0.0,0.0,0.0,0,0,0,0
56212000,0,47.397751199999995,8.5456079,488.104,0.0,0.0,0.0,0.0,0.0,0,0,0,0
56312000,0,47.397751199999995,8.5456079,488.104,0.0,0.0,0.0,0.0,0.0,0,0,0,0
56412000,0,47.397751199999995,8.5456079,488.104,0.0,0.0,0.0,0.0,0.0,0,0,0,0
56512000,0,47.397751199999995,8.5456079,488.104,0.0,0.0,0.0,0.0,0.0,0,0,0,0
56612000,0,47.397751199999995,8.5456079,488.104,0.0,0.0,0.0,0.0,0.0,0,0,0,0
56712000,0,47.397751199999995,8.5456079,488.104,0.0,0.0,0.0,0.0,0.0,0,0,0,0
56812000,0,47.397751199999995,8.5456079,488.104,0.0,0.0,0.0,0.0,0.0,0,0,0,0
56912000,0,47.397751199999995,8.5456079,488.104,0.0,0.0,0.0,0.0,0.0,0,0,0,0
57012000,0,47.397751199999995,8.5456079,488.104,0.0,0.0,0.0,0.0,0.0,0,0,0,0
57112000,0,47.397751199999995,8.5456079,488.104,0.0,0.0,0.0,0.0,0.0,0,0,0,0
57212000,0,47.397751199999995,8.5456079,488.104,0.0,0.0,0.0,0.0,0.0,0,0,0,0
57312000,0,47.397751199999995,8.5456079,488.104,0.0,0.0,0.0,0.0,0.0,0,0,0,0
57412000,0,47.397751199999995,8.5456079,488.104,0.0,0.0,0.0,0.0,0.0,0,0,0,0
57512000,0,47.397751199999995,8.5456079,488.104,0.0,0.0,0.0,0.0,0.0,0,0,0,0
57612000,0,47.397751199999995,8.5456079,488.104,0.0,0.0,0.0,0.0,0.0,0,0,0,0
57712000,0,47.397751199999995,8.5456079,488.104,0.0,0.0,0.0,0.0,0.0,0,0,0,0
57812000,0,47.397751199999995,8.5456079,488.104,0.0,0.0,0.0,0.0,0.0,0,0,0,0
57912000,0,47.397751199999995,8.5456079,488.104,0.0,0.0,0.0,0.0,0.0,0,0,0,0
58012000,0,47.397751199999995,8.5456079,488.104,0.0,0.0,0.0,0.0,0.0,0,0,0,0
58112000,0,47.397751199999995,8.5456079,488.104,0.0,0.0,0.0,0.0,0.0,0,0,0,0
58212000,0,47.397751199999995,8.5456079,488.104,0.0,0.0,0.0,0.0,0.0,0,0,0,0
58312000,0,47.397751199999995,8.5456079,488.104,0.0,0.0,0.0,0.0,0.0,0,0,0,0
58412000,0,47.397751199999995,8.5456079,488.104,0.0,0.0,0.0,0.0,0.0,0,0,0,0
58512000,0,47.397751199999995,8.5456079,488.104,0.0,0.0,0.0,0.0,0.0,0,0,0,0
58612000,0,47.397751199999995,8.5456079,488.104,0.0,0.0,0.0,0.0,0.0,0,0,0,0
58712000,0,47.397751199999995,8.5456079,488.104,0.0,0.0,0.0,0.0,0.0,0,0,0,0
58812000,0,47.397751199999995,8.5456079,488.104,0.0,0.0,0.0,0.0,0.0,0,0,0,0
58912000,0,47.397751199999995,8.5456079,488.104,0.0,0.0,0.0,0.0,0.0,0,0,0,0
59012000,0,47.397751199999995,8.5456079,488.104,0.0,0.0,0.0,0.0,0.0,0,0,0,0
59112000,0,47.397751199999995,8.5456079,488.104,0.0,0.0,0.0,0.0,0.0,0,0,0,0
59212000,0,47.397751199999995,8.5456079,488.104,0.0,0.0,0.0,0.0,0.0,0,0,0,0
59312000,0,47.397751199999995,8.5456079,488.104,0.0,0.0,0.0,0.0,0.0,0,0,0,0
59412000,0,47.397751199999995,8.5456079,488.104,0.0,0.0,0.0,0.0,0.0,0,0,0,0
