timestamp,timestamp_sample,control[0],control[1],control[2],control[3],control[4],control[5],control[6],control[7],control[8],control[9],control[10],control[11],reversible_flags
3212000,3212000,0.0,0.0,0.0,0.0,nan,nan,nan,nan,nan,nan,nan,nan,0
3216000,3216000,0.0,0.0,2.910383e-11,0.0,nan,nan,nan,nan,nan,nan,nan,nan,0
3308000,3308000,1.6780177e-10,0.0,0.0,0.0,nan,nan,nan,nan,nan,nan,nan,nan,0
3412000,3412000,0.0,0.0,0.0,0.0,nan,nan,nan,nan,nan,nan,nan,nan,0
3508000,3508000,0.0020000003,0.0,0.0020000003,0.0,nan,nan,nan,nan,nan,nan,nan,nan,0
3612000,3612000,0.0019999985,0.0,0.0020000022,0.0,nan,nan,nan,nan,nan,nan,nan,nan,0
3712000,3712000,0.0020000003,0.0,0.0020000003,0.0,nan,nan,nan,nan,nan,nan,nan,nan,0
3812000,3812000,0.0019999985,0.0,0.0020000022,0.0,nan,nan,nan,nan,nan,nan,nan,nan,0
3912000,3912000,0.0020000003,0.0,0.0020000003,0.0,nan,nan,nan,nan,nan,nan,nan,nan,0
4012000,4012000,0.0020000003,0.0,0.0020000003,0.0,nan,nan,nan,nan,nan,nan,nan,nan,0
4112000,4112000,0.0020000003,0.0,0.0020000003,0.0,nan,nan,nan,nan,nan,nan,nan,nan,0
4208000,4208000,0.0020000003,0.0,0.0020000003,0.0,nan,nan,nan,nan,nan,nan,nan,nan,0
4312000,4312000,0.0020000003,0.0,0.0020000003,0.0,nan,nan,nan,nan,nan,nan,nan,nan,0
4412000,4412000,0.0020000008,1.8626451e-09,0.001999998,0.0,nan,nan,nan,nan,nan,nan,nan,nan,0
4508000,4508000,0.0020000036,1.8626451e-09,0.001999999,0.0,nan,nan,nan,nan,nan,nan,nan,nan,0
4612000,4612000,0.0020000003,0.0,0.0020000003,0.0,nan,nan,nan,nan,nan,nan,nan,nan,0
4712000,4712000,0.0019999994,0.0,0.0020000013,0.0,nan,nan,nan,nan,nan,nan,nan,nan,0
4812000,4812000,0.0020000022,0.0,0.0019999985,0.0,nan,nan,nan,nan,nan,nan,nan,nan,0
4912000,4912000,0.0020000022,0.0,0.0019999985,0.0,nan,nan,nan,nan,nan,nan,nan,nan,0
5012000,5012000,0.0020000003,0.0,0.0020000003,0.0,nan,nan,nan,nan,nan,nan,nan,nan,0
5112000,5112000,0.0019999994,0.0,0.0020000013,0.0,nan,nan,nan,nan,nan,nan,nan,nan,0
5212000,5212000,0.0019999999,0.0,0.0020000017,0.0,nan,nan,nan,nan,nan,nan,nan,nan,0
5308000,5308000,0.002,1.8626451e-09,0.0019999987,0.0,nan,nan,nan,nan,nan,nan,nan,nan,0
5412000,5412000,0.0020000013,0.0,0.0019999994,0.0,nan,nan,nan,nan,nan,nan,nan,nan,0
5512000,5512000,0.0019999994,1.8626451e-09,0.0019999996,0.0,nan,nan,nan,nan,nan,nan,nan,nan,0
5612000,5612000,0.0020000027,1.8626451e-09,0.001999998,0.0,nan,nan,nan,nan,nan,nan,nan,nan,0
5708000,5708000,0.0019999994,0.0,0.0020000013,0.0,nan,nan,nan,nan,nan,nan,nan,nan,0
5808000,5808000,0.0020000013,0.0,0.0019999994,0.0,nan,nan,nan,nan,nan,nan,nan,nan,0
5912000,5912000,0.0019999994,0.0,0.0020000013,0.0,nan,nan,nan,nan,nan,nan,nan,nan,0
6012000,6012000,0.0019999945,0.0,0.0020000024,3.7252903e-09,nan,nan,nan,nan,nan,nan,nan,nan,0
6108000,6108000,0.002000001,1.8626451e-09,0.0019999978,0.0,nan,nan,nan,nan,nan,nan,nan,nan,0
6208000,6208000,0.0020000027,0.0,0.001999999,0.0,nan,nan,nan,nan,nan,nan,nan,nan,0
6312000,6312000,0.002,0.0,0.0019999999,0.0,nan,nan,nan,nan,nan,nan,nan,nan,0
6412000,6412000,0.0019999994,0.0,0.0020000013,0.0,nan,nan,nan,nan,nan,nan,nan,nan,0
6512000,6512000,0.0019999994,0.0,0.0020000013,0.0,nan,nan,nan,nan,nan,nan,nan,nan,0
6608000,6608000,0.0020000013,0.0,0.0019999994,0.0,nan,nan,nan,nan,nan,nan,nan,nan,0
6712000,6712000,0.0019999975,1.8626451e-09,0.0020000013,0.0,nan,nan,nan,nan,nan,nan,nan,nan,0
6812000,6812000,0.0019999994,0.0,0.0020000013,0.0,nan,nan,nan,nan,nan,nan,nan,nan,0
6912000,6912000,0.0019999994,0.0,0.0020000013,0.0,nan,nan,nan,nan,nan,nan,nan,nan,0
7012000,7012000,0.0019999994,0.0,0.0019999994,0.0,nan,nan,nan,nan,nan,nan,nan,nan,0
7112000,7112000,0.0019999985,1.8626451e-09,0.0019999985,0.0,nan,nan,nan,nan,nan,nan,nan,nan,0
7212000,7212000,0.0020000027,1.8626451e-09,0.001999998,0.0,nan,nan,nan,nan,nan,nan,nan,nan,0
7312000,7312000,0.0020000013,0.0,0.0019999994,0.0,nan,nan,nan,nan,nan,nan,nan,nan,0
7412000,7412000,0.0020000008,0.0,0.0020000008,0.0,nan,nan,nan,nan,nan,nan,nan,nan,0
7512000,7512000,0.0020000013,0.0,0.0019999994,0.0,nan,nan,nan,nan,nan,nan,nan,nan,0
7612000,7612000,0.0019999992,1.8626451e-09,0.0019999978,0.0,nan,nan,nan,nan,nan,nan,nan,nan,0
7712000,7712000,0.0020000003,0.0,0.0020000003,0.0,nan,nan,nan,nan,nan,nan,nan,nan,0
7812000,7812000,0.0020000022,0.0,0.0019999985,0.0,nan,nan,nan,nan,nan,nan,nan,nan,0
7912000,7912000,0.0020000017,1.8626451e-09,0.0019999952,0.0,nan,nan,nan,nan,nan,nan,nan,nan,0
8012000,8012000,0.0019999994,0.0,0.0020000013,0.0,nan,nan,nan,nan,nan,nan,nan,nan,0
8112000,8112000,0.0019999975,1.8626451e-09,0.0020000013,0.0,nan,nan,nan,nan,nan,nan,nan,nan,0
8212000,8212000,0.0020000003,0.0,0.0020000003,0.0,nan,nan,nan,nan,nan,nan,nan,nan,0
8312000,8312000,0.002000001,0.0,0.0019999985,9.313226e-10,nan,nan,nan,nan,nan,nan,nan,nan,0
8412000,8412000,0.0019999994,1.8626451e-09,0.0020000013,0.0,nan,nan,nan,nan,nan,nan,nan,nan,0
8512000,8512000,0.0020000013,0.0,0.0019999994,0.0,nan,nan,nan,nan,nan,nan,nan,nan,0
8612000,8612000,0.0019999985,0.0,0.0019999985,0.0,nan,nan,nan,nan,nan,nan,nan,nan,0
8712000,8712000,0.0019999994,0.0,0.0020000013,0.0,nan,nan,nan,nan,nan,nan,nan,nan,0
8812000,8812000,0.0020000013,0.0,0.0019999994,0.0,nan,nan,nan,nan,nan,nan,nan,nan,0
8912000,8912000,0.002000001,0.0,0.001999999,0.0,nan,nan,nan,nan,nan,nan,nan,nan,0
9012000,9012000,0.0019999994,0.0,0.0020000013,0.0,nan,nan,nan,nan,nan,nan,nan,nan,0
9108000,9108000,0.0019999994,0.0,0.0020000013,0.0,nan,nan,nan,nan,nan,nan,nan,nan,0
9212000,9212000,0.0019999992,1.8626451e-09,0.0019999978,0.0,nan,nan,nan,nan,nan,nan,nan,nan,0
9312000,9312000,0.0019999978,0.0,0.002000001,1.8626451e-09,nan,nan,nan,nan,nan,nan,nan,nan,0
9408000,9408000,0.0020000013,0.0,0.0020000013,0.0,nan,nan,nan,nan,nan,nan,nan,nan,0
9508000,9508000,0.0019999975,1.8626451e-09,0.0020000013,0.0,nan,nan,nan,nan,nan,nan,nan,nan,0
9612000,9612000,0.0020000022,0.0,0.0020000003,1.8626451e-09,nan,nan,nan,nan,nan,nan,nan,nan,0
9708000,9708000,0.0019999978,9.313226e-10,0.0020000003,0.0,nan,nan,nan,nan,nan,nan,nan,nan,0
9812000,9812000,0.002000001,1.8626451e-09,0.0019999978,0.0,nan,nan,nan,nan,nan,nan,nan,nan,0
9912000,9912000,0.0019999994,0.0,0.0019999994,0.0,nan,nan,nan,nan,nan,nan,nan,nan,0
10012000,10012000,0.0019999992,1.8626451e-09,0.0019999978,0.0,nan,nan,nan,nan,nan,nan,nan,nan,0
10112000,10112000,0.0020000027,1.8626451e-09,0.001999998,0.0,nan,nan,nan,nan,nan,nan,nan,nan,0
10212000,10212000,0.0019999999,0.0,0.0019999996,0.0,nan,nan,nan,nan,nan,nan,nan,nan,0
10312000,10312000,0.002000001,0.0,0.0020000006,0.0,nan,nan,nan,nan,nan,nan,nan,nan,0
10412000,10412000,0.0020000017,0.0,0.0019999999,0.0,nan,nan,nan,nan,nan,nan,nan,nan,0
10512000,10512000,0.0020000003,0.0,0.0020000003,0.0,nan,nan,nan,nan,nan,nan,nan,nan,0
10612000,10612000,0.0019999996,0.0,0.0020000017,0.0,nan,nan,nan,nan,nan,nan,nan,nan,0
10712000,10712000,0.0020000015,3.7252903e-09,0.0019999954,0.0,nan,nan,nan,nan,nan,nan,nan,nan,0
10812000,10812000,0.0020000013,0.0,0.0020000013,0.0,nan,nan,nan,nan,nan,nan,nan,nan,0
10908000,10908000,0.0019999961,0.0,0.0020000008,1.8626451e-09,nan,nan,nan,nan,nan,nan,nan,nan,0
11008000,11008000,0.0019999994,0.0,0.0020000013,0.0,nan,nan,nan,nan,nan,nan,nan,nan,0
11112000,11112000,0.0019999996,9.313226e-10,0.002000002,0.0,nan,nan,nan,nan,nan,nan,nan,nan,0
11212000,11212000,0.0020000013,0.0,0.0019999994,0.0,nan,nan,nan,nan,nan,nan,nan,nan,0
11312000,11312000,0.0019999994,0.0,0.0020000013,0.0,nan,nan,nan,nan,nan,nan,nan,nan,0
11412000,11412000,0.0020000013,0.0,0.0019999994,0.0,nan,nan,nan,nan,nan,nan,nan,nan,0
11508000,11508000,0.0020000017,0.0,0.0019999999,0.0,nan,nan,nan,nan,nan,nan,nan,nan,0
11612000,11612000,0.0020000013,0.0,0.0019999994,0.0,nan,nan,nan,nan,nan,nan,nan,nan,0
11712000,11712000,0.0020000013,0.0,0.0019999994,0.0,nan,nan,nan,nan,nan,nan,nan,nan,0
11812000,11812000,0.0020000003,0.0,0.0019999975,9.313226e-10,nan,nan,nan,nan,nan,nan,nan,nan,0
11908000,11908000,0.002000001,1.8626451e-09,0.0019999978,0.0,nan,nan,nan,nan,nan,nan,nan,nan,0
12012000,12012000,0.0019999994,0.0,0.0019999994,0.0,nan,nan,nan,nan,nan,nan,nan,nan,0
12112000,12112000,0.0020000003,0.0,0.0020000022,0.0,nan,nan,nan,nan,nan,nan,nan,nan,0
12212000,12212000,0.0020000013,0.0,0.0019999994,0.0,nan,nan,nan,nan,nan,nan,nan,nan,0
12312000,12312000,0.0019999992,1.8626451e-09,0.0019999996,0.0,nan,nan,nan,nan,nan,nan,nan,nan,0
12412000,12412000,0.0019999999,0.0,0.0020000017,0.0,nan,nan,nan,nan,nan,nan,nan,nan,0
12512000,12512000,0.0019999992,1.8626451e-09,0.0019999978,0.0,nan,nan,nan,nan,nan,nan,nan,nan,0
12612000,12612000,0.0019999994,0.0,0.0020000013,0.0,nan,nan,nan,nan,nan,nan,nan,nan,0
12712000,12712000,0.0020000013,0.0,0.0019999994,0.0,nan,nan,nan,nan,nan,nan,nan,nan,0
12812000,12812000,0.0020000013,0.0,0.0019999994,0.0,nan,nan,nan,nan,nan,nan,nan,nan,0
12912000,12912000,0.0019999994,0.0,0.0019999994,0.0,nan,nan,nan,nan,nan,nan,nan,nan,0
13012000,13012000,0.0020000013,0.0,0.0019999994,0.0,nan,nan,nan,nan,nan,nan,nan,nan,0
13112000,13112000,0.0019999996,0.0,0.0020000017,0.0,nan,nan,nan,nan,nan,nan,nan,nan,0
13212000,13212000,0.0019999968,0.0,0.002000001,9.313226e-10,nan,nan,nan,nan,nan,nan,nan,nan,0
13312000,13312000,0.002000001,1.8626451e-09,0.001999996,0.0,nan,nan,nan,nan,nan,nan,nan,nan,0
13412000,13412000,0.0020000003,1.8626451e-09,0.0019999987,0.0,nan,nan,nan,nan,nan,nan,nan,nan,0
13508000,13508000,0.0019999994,0.0,0.0020000013,0.0,nan,nan,nan,nan,nan,nan,nan,nan,0
13612000,13612000,0.0019999978,0.0,0.0019999992,1.8626451e-09,nan,nan,nan,nan,nan,nan,nan,nan,0
13712000,13712000,0.0020000003,0.0,0.0020000003,1.8626451e-09,nan,nan,nan,nan,nan,nan,nan,nan,0
13812000,13812000,0.002,2.7939677e-09,0.0019999996,0.0,nan,nan,nan,nan,nan,nan,nan,nan,0
13908000,13908000,0.0019999994,0.0,0.0019999994,0.0,nan,nan,nan,nan,nan,nan,nan,nan,0
14012000,14012000,0.002,0.0,0.0020000006,0.0,nan,nan,nan,nan,nan,nan,nan,nan,0
14112000,14112000,0.0020000003,0.0,0.0020000003,0.0,nan,nan,nan,nan,nan,nan,nan,nan,0
14212000,14212000,0.0020000008,1.8626451e-09,0.001999998,0.0,nan,nan,nan,nan,nan,nan,nan,nan,0
14312000,14312000,0.0019999992,1.8626451e-09,0.0019999996,0.0,nan,nan,nan,nan,nan,nan,nan,nan,0
14412000,14412000,0.002,0.0,0.0020000017,0.0,nan,nan,nan,nan,nan,nan,nan,nan,0
14512000,14512000,0.0020000015,3.7252903e-09,0.0019999954,0.0,nan,nan,nan,nan,nan,nan,nan,nan,0
14612000,14612000,0.0019999985,1.8626451e-09,0.0019999985,0.0,nan,nan,nan,nan,nan,nan,nan,nan,0
14712000,14712000,0.0020000013,0.0,0.0019999994,0.0,nan,nan,nan,nan,nan,nan,nan,nan,0
14812000,14812000,0.0019999994,0.0,0.0020000013,0.0,nan,nan,nan,nan,nan,nan,nan,nan,0
14908000,14908000,0.0019999992,1.8626451e-09,0.0019999996,0.0,nan,nan,nan,nan,nan,nan,nan,nan,0
15012000,15012000,0.0020000036,0.0,0.001999998,0.0,nan,nan,nan,nan,nan,nan,nan,nan,0
15112000,15112000,0.0019999945,0.0,0.0020000027,3.7252903e-09,nan,nan,nan,nan,nan,nan,nan,nan,0
15212000,15212000,0.0019999975,1.8626451e-09,0.0019999994,0.0,nan,nan,nan,nan,nan,nan,nan,nan,0
15312000,15312000,0.0019999982,3.7252903e-09,0.0019999987,0.0,nan,nan,nan,nan,nan,nan,nan,nan,0
15412000,15412000,0.0019999994,0.0,0.0019999994,0.0,nan,nan,nan,nan,nan,nan,nan,nan,0
15512000,15512000,0.0019999961,0.0,0.002000001,1.8626451e-09,nan,nan,nan,nan,nan,nan,nan,nan,0
15612000,15612000,0.0020000003,0.0,0.0020000006,0.0,nan,nan,nan,nan,nan,nan,nan,nan,0
15712000,15712000,0.0019999994,0.0,0.0020000013,0.0,nan,nan,nan,nan,nan,nan,nan,nan,0
15812000,15812000,0.0019999994,0.0,0.0020000013,0.0,nan,nan,nan,nan,nan,nan,nan,nan,0
15912000,15912000,0.0019999961,0.0,0.0020000027,1.8626451e-09,nan,nan,nan,nan,nan,nan,nan,nan,0
16012000,16012000,0.0019999999,1.8626451e-09,0.001999999,0.0,nan,nan,nan,nan,nan,nan,nan,nan,0
16108000,16108000,0.0020000022,0.0,0.0020000022,0.0,nan,nan,nan,nan,nan,nan,nan,nan,0
16212000,16212000,0.0019999994,0.0,0.0019999994,0.0,nan,nan,nan,nan,nan,nan,nan,nan,0
16308000,16308000,0.0019999994,0.0,0.0020000013,0.0,nan,nan,nan,nan,nan,nan,nan,nan,0
16412000,16412000,0.0019999994,0.0,0.0020000013,0.0,nan,nan,nan,nan,nan,nan,nan,nan,0
16508000,16508000,0.002,0.0,0.0019999996,0.0,nan,nan,nan,nan,nan,nan,nan,nan,0
16608000,16608000,0.0020000003,0.0,0.0019999985,0.0,nan,nan,nan,nan,nan,nan,nan,nan,0
16712000,16712000,0.0019999994,0.0,0.0020000013,0.0,nan,nan,nan,nan,nan,nan,nan,nan,0
16812000,16812000,0.0019999994,0.0,0.0020000013,0.0,nan,nan,nan,nan,nan,nan,nan,nan,0
16912000,16912000,0.0020000003,0.0,0.0020000003,0.0,nan,nan,nan,nan,nan,nan,nan,nan,0
17012000,17012000,0.0019999994,0.0,0.0019999994,0.0,nan,nan,nan,nan,nan,nan,nan,nan,0
17112000,17112000,0.0020000008,1.8626451e-09,0.0019999961,0.0,nan,nan,nan,nan,nan,nan,nan,nan,0
17212000,17212000,0.0019999999,1.8626451e-09,0.001999997,0.0,nan,nan,nan,nan,nan,nan,nan,nan,0
17312000,17312000,0.0019999994,0.0,0.0020000013,0.0,nan,nan,nan,nan,nan,nan,nan,nan,0
17412000,17412000,0.0019999994,0.0,0.0020000013,0.0,nan,nan,nan,nan,nan,nan,nan,nan,0
17512000,17512000,0.0020000003,0.0,0.0020000022,0.0,nan,nan,nan,nan,nan,nan,nan,nan,0
17612000,17612000,0.0019999985,9.313226e-10,0.0020000013,0.0,nan,nan,nan,nan,nan,nan,nan,nan,0
17712000,17712000,0.0019999994,0.0,0.0020000013,0.0,nan,nan,nan,nan,nan,nan,nan,nan,0
17808000,17808000,0.0019999994,0.0,0.0020000013,0.0,nan,nan,nan,nan,nan,nan,nan,nan,0
17912000,17912000,0.0019999994,0.0,0.0019999994,1.8626451e-09,nan,nan,nan,nan,nan,nan,nan,nan,0
18012000,18012000,0.0020000003,0.0,0.0020000022,0.0,nan,nan,nan,nan,nan,nan,nan,nan,0
18108000,18108000,0.0019999994,0.0,0.0020000013,0.0,nan,nan,nan,nan,nan,nan,nan,nan,0
18212000,18212000,0.0019999985,0.0,0.0020000003,0.0,nan,nan,nan,nan,nan,nan,nan,nan,0
18308000,18308000,0.0019999994,1.8626451e-09,0.0019999994,0.0,nan,nan,nan,nan,nan,nan,nan,nan,0
18408000,18408000,0.0019999994,9.313226e-10,0.0020000013,0.0,nan,nan,nan,nan,nan,nan,nan,nan,0
18512000,18512000,0.0019999994,0.0,0.0020000013,0.0,nan,nan,nan,nan,nan,nan,nan,nan,0
18612000,18612000,0.0019999994,0.0,0.0020000013,0.0,nan,nan,nan,nan,nan,nan,nan,nan,0
18712000,18712000,0.0020000003,0.0,0.0020000003,0.0,nan,nan,nan,nan,nan,nan,nan,nan,0
18812000,18812000,0.0020000027,1.8626451e-09,0.001999998,0.0,nan,nan,nan,nan,nan,nan,nan,nan,0
18912000,18912000,0.0020000003,0.0,0.0020000003,0.0,nan,nan,nan,nan,nan,nan,nan,nan,0
19012000,19012000,0.0020000003,0.0,0.0020000003,0.0,nan,nan,nan,nan,nan,nan,nan,nan,0
19112000,19112000,0.0019999994,0.0,0.0019999994,0.0,nan,nan,nan,nan,nan,nan,nan,nan,0
19208000,19208000,0.0019999994,0.0,0.0020000003,0.0,nan,nan,nan,nan,nan,nan,nan,nan,0
19312000,19312000,0.0019999994,0.0,0.0019999994,0.0,nan,nan,nan,nan,nan,nan,nan,nan,0
19412000,19412000,0.0019999994,0.0,0.0020000013,0.0,nan,nan,nan,nan,nan,nan,nan,nan,0
19512000,19512000,0.0020000013,0.0,0.0019999994,0.0,nan,nan,nan,nan,nan,nan,nan,nan,0
19612000,19612000,0.0019999994,0.0,0.0019999994,0.0,nan,nan,nan,nan,nan,nan,nan,nan,0
19708000,19708000,0.0019999994,0.0,0.0019999994,0.0,nan,nan,nan,nan,nan,nan,nan,nan,0
19812000,19812000,0.0020000003,0.0,0.0020000022,0.0,nan,nan,nan,nan,nan,nan,nan,nan,0
19912000,19912000,0.0019999994,0.0,0.0019999994,1.8626451e-09,nan,nan,nan,nan,nan,nan,nan,nan,0
20012000,20012000,0.0019999985,0.0,0.0020000003,0.0,nan,nan,nan,nan,nan,nan,nan,nan,0
20108000,20108000,0.0019999994,0.0,0.0020000013,0.0,nan,nan,nan,nan,nan,nan,nan,nan,0
20212000,20212000,0.0019999994,0.0,0.0019999994,0.0,nan,nan,nan,nan,nan,nan,nan,nan,0
20308000,20308000,0.0019999996,0.0,0.002,9.313226e-10,nan,nan,nan,nan,nan,nan,nan,nan,0
20408000,20408000,0.0019999994,0.0,0.0020000013,0.0,nan,nan,nan,nan,nan,nan,nan,nan,0
20512000,20512000,0.0020000003,0.0,0.0020000022,0.0,nan,nan,nan,nan,nan,nan,nan,nan,0
20612000,20612000,0.0019999985,9.313226e-10,0.0020000013,0.0,nan,nan,nan,nan,nan,nan,nan,nan,0
20712000,20712000,0.0019999985,9.313226e-10,0.0020000013,0.0,nan,nan,nan,nan,nan,nan,nan,nan,0
20812000,20812000,0.0019999999,1.8626451e-09,0.001999999,0.0,nan,nan,nan,nan,nan,nan,nan,nan,0
20912000,20912000,0.0020000003,0.0,0.0019999985,0.0,nan,nan,nan,nan,nan,nan,nan,nan,0
21012000,21012000,0.0020000017,1.8626451e-09,0.001999997,0.0,nan,nan,nan,nan,nan,nan,nan,nan,0
21112000,21112000,0.0020000003,0.0,0.0020000003,0.0,nan,nan,nan,nan,nan,nan,nan,nan,0
21212000,21212000,0.0020000022,9.313226e-10,0.0019999987,0.0,nan,nan,nan,nan,nan,nan,nan,nan,0
21312000,21312000,0.0020000003,0.0,0.0020000003,0.0,nan,nan,nan,nan,nan,nan,nan,nan,0
21412000,21412000,0.0019999985,9.313226e-10,0.0020000013,0.0,nan,nan,nan,nan,nan,nan,nan,nan,0
21512000,21512000,0.0019999999,1.8626451e-09,0.001999999,0.0,nan,nan,nan,nan,nan,nan,nan,nan,0
21612000,21612000,0.0019999985,9.313226e-10,0.0020000013,0.0,nan,nan,nan,nan,nan,nan,nan,nan,0
21712000,21712000,0.002,9.313226e-10,0.0019999996,0.0,nan,nan,nan,nan,nan,nan,nan,nan,0
21812000,21812000,0.001999999,0.0,0.0019999999,1.8626451e-09,nan,nan,nan,nan,nan,nan,nan,nan,0
21912000,21912000,0.002,9.313226e-10,0.0019999996,0.0,nan,nan,nan,nan,nan,nan,nan,nan,0
22012000,22012000,0.0020000022,0.0,0.0020000022,0.0,nan,nan,nan,nan,nan,nan,nan,nan,0
22112000,22112000,0.0020000013,0.0,0.0019999994,0.0,nan,nan,nan,nan,nan,nan,nan,nan,0
22212000,22212000,0.01701174,0.007278923,0.024290662,0.0,nan,nan,nan,nan,nan,nan,nan,nan,0
22312000,22312000,0.02668198,0.023965562,0.041197084,0.0090563735,nan,nan,nan,nan,nan,nan,nan,nan,0
22408000,22408000,0.039815206,0.04132722,0.054138295,0.025445765,nan,nan,nan,nan,nan,nan,nan,nan,0
22508000,22508000,0.05727923,0.058993425,0.07317097,0.04339282,nan,nan,nan,nan,nan,nan,nan,nan,0
22612000,22612000,0.07744579,0.07899168,0.09422313,0.06349003,nan,nan,nan,nan,nan,nan,nan,nan,0
22712000,22712000,0.100476004,0.09874918,0.11434428,0.08260585,nan,nan,nan,nan,nan,nan,nan,nan,0
22812000,22812000,0.12493925,0.121807165,0.1410339,0.104979835,nan,nan,nan,nan,nan,nan,nan,nan,0
22908000,22908000,0.14896885,0.14644235,0.1637577,0.13038118,nan,nan,nan,nan,nan,nan,nan,nan,0
23012000,23012000,0.17737971,0.1738594,0.1937856,0.15578584,nan,nan,nan,nan,nan,nan,nan,nan,0
23112000,23112000,0.20437442,0.20180532,0.22258547,0.18165816,nan,nan,nan,nan,nan,nan,nan,nan,0
23212000,23212000,0.23825425,0.23247726,0.25700396,0.20973432,nan,nan,nan,nan,nan,nan,nan,nan,0
23312000,23312000,0.26808816,0.26278532,0.29035336,0.24077286,nan,nan,nan,nan,nan,nan,nan,nan,0
23412000,23412000,0.30368534,0.29896307,0.32787415,0.2738464,nan,nan,nan,nan,nan,nan,nan,nan,0
23512000,23512000,0.3364948,0.3286627,0.36315158,0.3011475,nan,nan,nan,nan,nan,nan,nan,nan,0
23612000,23612000,0.3470952,0.33863306,0.37537917,0.30880532,nan,nan,nan,nan,nan,nan,nan,nan,0
23712000,23712000,0.35772339,0.34992886,0.3884603,0.31896392,nan,nan,nan,nan,nan,nan,nan,nan,0
23812000,23812000,0.37025702,0.360024,0.40205932,0.32697853,nan,nan,nan,nan,nan,nan,nan,nan,0
23912000,23912000,0.38249555,0.37177375,0.41745472,0.33603457,nan,nan,nan,nan,nan,nan,nan,nan,0
24008000,24008000,0.39463058,0.3823956,0.43058527,0.3455944,nan,nan,nan,nan,nan,nan,nan,nan,0
24108000,24108000,0.40751052,0.39685777,0.4465284,0.35708904,nan,nan,nan,nan,nan,nan,nan,nan,0
24208000,24208000,0.41964522,0.40995416,0.46102592,0.36714676,nan,nan,nan,nan,nan,nan,nan,nan,0
24312000,24312000,0.43584603,0.4228897,0.47877172,0.37817994,nan,nan,nan,nan,nan,nan,nan,nan,0
24412000,24412000,0.44843182,0.4369794,0.49315733,0.3905309,nan,nan,nan,nan,nan,nan,nan,nan,0
24512000,24512000,0.46479148,0.4514105,0.5114406,0.404372,nan,nan,nan,nan,nan,nan,nan,nan,0
24612000,24612000,0.47865745,0.4663743,0.52780896,0.41812947,nan,nan,nan,nan,nan,nan,nan,nan,0
24712000,24712000,0.49688298,0.48365825,0.54670644,0.43281767,nan,nan,nan,nan,nan,nan,nan,nan,0
24808000,24808000,0.5119222,0.4987298,0.5647089,0.44521585,nan,nan,nan,nan,nan,nan,nan,nan,0
24912000,24912000,0.5297531,0.5173241,0.5839724,0.46196252,nan,nan,nan,nan,nan,nan,nan,nan,0
25012000,25012000,0.54712415,0.533442,0.6018021,0.47664765,nan,nan,nan,nan,nan,nan,nan,nan,0
25112000,25112000,0.565764,0.5531406,0.62275183,0.49452436,nan,nan,nan,nan,nan,nan,nan,nan,0
25212000,25212000,0.5820702,0.570549,0.6414068,0.5111374,nan,nan,nan,nan,nan,nan,nan,nan,0
25312000,25312000,0.6287272,0.6159313,0.6902875,0.5541004,nan,nan,nan,nan,nan,nan,nan,nan,0
25412000,25412000,0.6465799,0.6349626,0.7095214,0.57049996,nan,nan,nan,nan,nan,nan,nan,nan,0
25508000,25508000,0.6699023,0.6549476,0.7338131,0.5890187,nan,nan,nan,nan,nan,nan,nan,nan,0
25608000,25608000,0.6886944,0.67376494,0.7529051,0.6060008,nan,nan,nan,nan,nan,nan,nan,nan,0
25708000,25708000,0.71692836,0.686864,0.7682545,0.6341696,nan,nan,nan,nan,nan,nan,nan,nan,0
25812000,25812000,0.7300824,0.6969044,0.7591647,0.6711235,nan,nan,nan,nan,nan,nan,nan,nan,0
25908000,25908000,0.73125756,0.7161927,0.7360016,0.73135114,nan,nan,nan,nan,nan,nan,nan,nan,0
26012000,26012000,0.73457843,0.7389707,0.72046655,0.7578748,nan,nan,nan,nan,nan,nan,nan,nan,0
26112000,26112000,0.7456477,0.7497629,0.74074036,0.75661874,nan,nan,nan,nan,nan,nan,nan,nan,0
26212000,26212000,0.75204206,0.74613285,0.75289106,0.7449944,nan,nan,nan,nan,nan,nan,nan,nan,0
26312000,26312000,0.75963944,0.7476062,0.7646196,0.7437688,nan,nan,nan,nan,nan,nan,nan,nan,0
26412000,26412000,0.75710696,0.74482787,0.761647,0.74261826,nan,nan,nan,nan,nan,nan,nan,nan,0
26512000,26512000,0.74786395,0.7419973,0.7498443,0.7404854,nan,nan,nan,nan,nan,nan,nan,nan,0
26612000,26612000,0.7236829,0.7182395,0.7241463,0.7190448,nan,nan,nan,nan,nan,nan,nan,nan,0
26708000,26708000,0.71136284,0.70316815,0.71101946,0.7036484,nan,nan,nan,nan,nan,nan,nan,nan,0
26808000,26808000,0.71816,0.71293896,0.7196471,0.71131974,nan,nan,nan,nan,nan,nan,nan,nan,0
26912000,26912000,0.72754157,0.72384703,0.7290033,0.7218238,nan,nan,nan,nan,nan,nan,nan,nan,0
27012000,27012000,0.7264656,0.71922386,0.726672,0.7175068,nan,nan,nan,nan,nan,nan,nan,nan,0
27112000,27112000,0.7281562,0.7211749,0.7297686,0.72227323,nan,nan,nan,nan,nan,nan,nan,nan,0
27208000,27208000,0.7247765,0.7173275,0.7243482,0.71709204,nan,nan,nan,nan,nan,nan,nan,nan,0
27312000,27312000,0.72691923,0.72066486,0.7274099,0.72150445,nan,nan,nan,nan,nan,nan,nan,nan,0
27412000,27412000,0.7231236,0.71593297,0.7228829,0.71638787,nan,nan,nan,nan,nan,nan,nan,nan,0
27512000,27512000,0.723914,0.7205893,0.7257466,0.71874386,nan,nan,nan,nan,nan,nan,nan,nan,0
27612000,27612000,0.7209507,0.71484697,0.7220616,0.7137287,nan,nan,nan,nan,nan,nan,nan,nan,0
27708000,27708000,0.7242015,0.7192123,0.7253833,0.717796,nan,nan,nan,nan,nan,nan,nan,nan,0
27812000,27812000,0.7204659,0.7137997,0.7201694,0.713863,nan,nan,nan,nan,nan,nan,nan,nan,0
27908000,27908000,0.7231688,0.71508074,0.7226119,0.71547323,nan,nan,nan,nan,nan,nan,nan,nan,0
28008000,28008000,0.7167932,0.71224976,0.71697974,0.7128073,nan,nan,nan,nan,nan,nan,nan,nan,0
28112000,28112000,0.7219338,0.71411496,0.721487,0.7151261,nan,nan,nan,nan,nan,nan,nan,nan,0
28212000,28212000,0.7163854,0.7110761,0.71767867,0.71050525,nan,nan,nan,nan,nan,nan,nan,nan,0
28312000,28312000,0.7177563,0.7125612,0.71757513,0.7142767,nan,nan,nan,nan,nan,nan,nan,nan,0
28408000,28408000,0.71289974,0.70857865,0.7130795,0.7086032,nan,nan,nan,nan,nan,nan,nan,nan,0
28512000,28512000,0.7167929,0.71084964,0.7171598,0.7113924,nan,nan,nan,nan,nan,nan,nan,nan,0
28612000,28612000,0.71366477,0.7068539,0.7141663,0.70715123,nan,nan,nan,nan,nan,nan,nan,nan,0
28712000,28712000,0.7148666,0.7082631,0.71501476,0.70934755,nan,nan,nan,nan,nan,nan,nan,nan,0
28812000,28812000,0.711247,0.7041075,0.7105387,0.7061223,nan,nan,nan,nan,nan,nan,nan,nan,0
28912000,28912000,0.70836586,0.70147365,0.7057572,0.7007049,nan,nan,nan,nan,nan,nan,nan,nan,0
29012000,29012000,0.68702483,0.68221295,0.68736863,0.6823083,nan,nan,nan,nan,nan,nan,nan,nan,0
29112000,29112000,0.6638298,0.6593439,0.6643949,0.6581402,nan,nan,nan,nan,nan,nan,nan,nan,0
29212000,29212000,0.66260374,0.65969753,0.6635553,0.66083735,nan,nan,nan,nan,nan,nan,nan,nan,0
29312000,29312000,0.6856505,0.6796338,0.68460405,0.6801336,nan,nan,nan,nan,nan,nan,nan,nan,0
29408000,29408000,0.7044719,0.6956374,0.7027152,0.6968326,nan,nan,nan,nan,nan,nan,nan,nan,0
29512000,29512000,0.71639025,0.70941526,0.7172905,0.7086219,nan,nan,nan,nan,nan,nan,nan,nan,0
29612000,29612000,0.7231477,0.71735513,0.72314674,0.71733785,nan,nan,nan,nan,nan,nan,nan,nan,0
29708000,29708000,0.72227347,0.7176604,0.7223933,0.71613944,nan,nan,nan,nan,nan,nan,nan,nan,0
29808000,29808000,0.716496,0.71184725,0.7161086,0.71302795,nan,nan,nan,nan,nan,nan,nan,nan,0
29908000,29908000,0.7125489,0.7063905,0.7125022,0.707108,nan,nan,nan,nan,nan,nan,nan,nan,0
30012000,30012000,0.7112383,0.70532054,0.7109248,0.7052955,nan,nan,nan,nan,nan,nan,nan,nan,0
30112000,30112000,0.71162194,0.70550966,0.7112125,0.7065367,nan,nan,nan,nan,nan,nan,nan,nan,0
30212000,30212000,0.7125445,0.703658,0.7114053,0.7060037,nan,nan,nan,nan,nan,nan,nan,nan,0
30312000,30312000,0.7099164,0.7030154,0.71005905,0.7037387,nan,nan,nan,nan,nan,nan,nan,nan,0
30408000,30408000,0.7086766,0.703624,0.7087718,0.70365417,nan,nan,nan,nan,nan,nan,nan,nan,0
30508000,30508000,0.70945644,0.70552677,0.71042705,0.70577246,nan,nan,nan,nan,nan,nan,nan,nan,0
30608000,30608000,0.711406,0.7056342,0.71098405,0.7058331,nan,nan,nan,nan,nan,nan,nan,nan,0
30712000,30712000,0.7083134,0.7043808,0.70772624,0.7044003,nan,nan,nan,nan,nan,nan,nan,nan,0
30812000,30812000,0.7088653,0.70186687,0.7087707,0.70227855,nan,nan,nan,nan,nan,nan,nan,nan,0
30912000,30912000,0.71100473,0.70339876,0.7115973,0.7024787,nan,nan,nan,nan,nan,nan,nan,nan,0
31008000,31008000,0.7097315,0.70410126,0.7100902,0.70380694,nan,nan,nan,nan,nan,nan,nan,nan,0
31112000,31112000,0.70870346,0.7015407,0.7077059,0.7008363,nan,nan,nan,nan,nan,nan,nan,nan,0
31208000,31208000,0.70738626,0.6997871,0.7068306,0.7012674,nan,nan,nan,nan,nan,nan,nan,nan,0
31312000,31312000,0.7089422,0.70317966,0.7089742,0.70327914,nan,nan,nan,nan,nan,nan,nan,nan,0
31412000,31412000,0.71039766,0.70225614,0.70951426,0.70292497,nan,nan,nan,nan,nan,nan,nan,nan,0
31512000,31512000,0.7103482,0.7028393,0.7096698,0.7024307,nan,nan,nan,nan,nan,nan,nan,nan,0
31612000,31612000,0.7083855,0.70251495,0.70887786,0.7028888,nan,nan,nan,nan,nan,nan,nan,nan,0
31708000,31708000,0.7107888,0.70571315,0.7105682,0.7051354,nan,nan,nan,nan,nan,nan,nan,nan,0
31812000,31812000,0.71099025,0.703878,0.7113054,0.7042569,nan,nan,nan,nan,nan,nan,nan,nan,0
31912000,31912000,0.71103,0.7038971,0.7108052,0.7038022,nan,nan,nan,nan,nan,nan,nan,nan,0
32012000,32012000,0.7082554,0.70364404,0.70896107,0.70285803,nan,nan,nan,nan,nan,nan,nan,nan,0
32108000,32108000,0.7117959,0.70589274,0.71178466,0.7053729,nan,nan,nan,nan,nan,nan,nan,nan,0
32212000,32212000,0.7103475,0.70497626,0.7106452,0.7039485,nan,nan,nan,nan,nan,nan,nan,nan,0
32312000,32312000,0.7101618,0.70294017,0.7103786,0.7044256,nan,nan,nan,nan,nan,nan,nan,nan,0
32412000,32412000,0.70830953,0.7018639,0.70692784,0.7038015,nan,nan,nan,nan,nan,nan,nan,nan,0
32512000,32512000,0.71064645,0.7047965,0.7102897,0.70454144,nan,nan,nan,nan,nan,nan,nan,nan,0
32608000,32608000,0.71123004,0.70318085,0.7110425,0.7042876,nan,nan,nan,nan,nan,nan,nan,nan,0
32712000,32712000,0.7089132,0.7020487,0.70951664,0.7036715,nan,nan,nan,nan,nan,nan,nan,nan,0
32812000,32812000,0.709491,0.70247763,0.7080354,0.7017714,nan,nan,nan,nan,nan,nan,nan,nan,0
32912000,32912000,0.70924324,0.7046514,0.7109233,0.7051753,nan,nan,nan,nan,nan,nan,nan,nan,0
33012000,33012000,0.7108105,0.7026464,0.7117991,0.70355976,nan,nan,nan,nan,nan,nan,nan,nan,0
33108000,33108000,0.7097934,0.7030113,0.70923084,0.70412254,nan,nan,nan,nan,nan,nan,nan,nan,0
33208000,33208000,0.71009785,0.7025211,0.7099491,0.7022282,nan,nan,nan,nan,nan,nan,nan,nan,0
33308000,33308000,0.711084,0.7035264,0.71187174,0.7031919,nan,nan,nan,nan,nan,nan,nan,nan,0
33408000,33408000,0.7111208,0.7045197,0.71103364,0.70508033,nan,nan,nan,nan,nan,nan,nan,nan,0
33508000,33508000,0.7096657,0.7018974,0.70791584,0.7034061,nan,nan,nan,nan,nan,nan,nan,nan,0
33612000,33612000,0.70897394,0.70258874,0.70929664,0.7021962,nan,nan,nan,nan,nan,nan,nan,nan,0
33712000,33712000,0.70897365,0.70624137,0.71015596,0.7027595,nan,nan,nan,nan,nan,nan,nan,nan,0
33812000,33812000,0.71139556,0.7047894,0.71008635,0.70423263,nan,nan,nan,nan,nan,nan,nan,nan,0
33908000,33908000,0.7070882,0.70109457,0.70723397,0.69993216,nan,nan,nan,nan,nan,nan,nan,nan,0
34008000,34008000,0.70661354,0.7002209,0.7063854,0.70074743,nan,nan,nan,nan,nan,nan,nan,nan,0
34108000,34108000,0.7068281,0.7021862,0.70739836,0.7023043,nan,nan,nan,nan,nan,nan,nan,nan,0
34212000,34212000,0.7084403,0.7031785,0.709048,0.7026321,nan,nan,nan,nan,nan,nan,nan,nan,0
34312000,34312000,0.7079401,0.70076734,0.70751953,0.7002668,nan,nan,nan,nan,nan,nan,nan,nan,0
34412000,34412000,0.70751107,0.7018979,0.7065358,0.7022999,nan,nan,nan,nan,nan,nan,nan,nan,0
34512000,34512000,0.70993215,0.70228153,0.7080827,0.70390165,nan,nan,nan,nan,nan,nan,nan,nan,0
34612000,34612000,0.7097628,0.7044034,0.71025294,0.7045594,nan,nan,nan,nan,nan,nan,nan,nan,0
34712000,34712000,0.70889527,0.7014397,0.70888615,0.7023593,nan,nan,nan,nan,nan,nan,nan,nan,0
34812000,34812000,0.7091846,0.7026242,0.708314,0.7015463,nan,nan,nan,nan,nan,nan,nan,nan,0
34912000,34912000,0.70922035,0.7031715,0.71058,0.70363134,nan,nan,nan,nan,nan,nan,nan,nan,0
35012000,35012000,0.70945144,0.70532835,0.710885,0.704411,nan,nan,nan,nan,nan,nan,nan,nan,0
35112000,35112000,0.71014506,0.7046359,0.7095408,0.70464104,nan,nan,nan,nan,nan,nan,nan,nan,0
35212000,35212000,0.71021086,0.7043006,0.70916486,0.7057409,nan,nan,nan,nan,nan,nan,nan,nan,0
35312000,35312000,0.7117294,0.7046381,0.7125479,0.70508206,nan,nan,nan,nan,nan,nan,nan,nan,0
35408000,35408000,0.7129673,0.7050969,0.71249455,0.70472574,nan,nan,nan,nan,nan,nan,nan,nan,0
35508000,35508000,0.7102622,0.70431423,0.70988,0.7046807,nan,nan,nan,nan,nan,nan,nan,nan,0
35612000,35612000,0.70913017,0.7040833,0.7107049,0.7044548,nan,nan,nan,nan,nan,nan,nan,nan,0
35712000,35712000,0.7108636,0.70406276,0.710931,0.70498776,nan,nan,nan,nan,nan,nan,nan,nan,0
35812000,35812000,0.7100954,0.7062784,0.71070576,0.7041611,nan,nan,nan,nan,nan,nan,nan,nan,0
35912000,35912000,0.7091077,0.7027727,0.7080472,0.70300585,nan,nan,nan,nan,nan,nan,nan,nan,0
36012000,36012000,0.7087472,0.7024674,0.7075211,0.7032157,nan,nan,nan,nan,nan,nan,nan,nan,0
36108000,36108000,0.7091854,0.70412296,0.70886064,0.70316195,nan,nan,nan,nan,nan,nan,nan,nan,0
36208000,36208000,0.7109575,0.7046994,0.7099462,0.7040172,nan,nan,nan,nan,nan,nan,nan,nan,0
36308000,36308000,0.7089225,0.70337224,0.7088146,0.70364344,nan,nan,nan,nan,nan,nan,nan,nan,0
36408000,36408000,0.70859903,0.7036522,0.71071464,0.7027845,nan,nan,nan,nan,nan,nan,nan,nan,0
36512000,36512000,0.7112035,0.7046393,0.7093552,0.70363724,nan,nan,nan,nan,nan,nan,nan,nan,0
36612000,36612000,0.7106381,0.7053661,0.71020836,0.70529586,nan,nan,nan,nan,nan,nan,nan,nan,0
36712000,36712000,0.711114,0.70357156,0.7096124,0.7042366,nan,nan,nan,nan,nan,nan,nan,nan,0
36812000,36812000,0.70981055,0.70505273,0.71068716,0.7050944,nan,nan,nan,nan,nan,nan,nan,nan,0
36908000,36908000,0.71269995,0.70459956,0.71229225,0.7040908,nan,nan,nan,nan,nan,nan,nan,nan,0
37008000,37008000,0.71093106,0.70669824,0.7111908,0.7057076,nan,nan,nan,nan,nan,nan,nan,nan,0
37112000,37112000,0.710491,0.70350885,0.71030414,0.70425636,nan,nan,nan,nan,nan,nan,nan,nan,0
37212000,37212000,0.71039,0.7039951,0.70967686,0.70358956,nan,nan,nan,nan,nan,nan,nan,nan,0
37312000,37312000,0.7096859,0.70437646,0.709559,0.7060104,nan,nan,nan,nan,nan,nan,nan,nan,0
37412000,37412000,0.7108976,0.7055417,0.71036536,0.7054569,nan,nan,nan,nan,nan,nan,nan,nan,0
37512000,37512000,0.71099615,0.70411247,0.71111053,0.7034322,nan,nan,nan,nan,nan,nan,nan,nan,0
37612000,37612000,0.7096624,0.7057545,0.71040094,0.7042443,nan,nan,nan,nan,nan,nan,nan,nan,0
37712000,37712000,0.7110069,0.7049264,0.71084857,0.705289,nan,nan,nan,nan,nan,nan,nan,nan,0
37812000,37812000,0.7124645,0.70485526,0.71063554,0.7058083,nan,nan,nan,nan,nan,nan,nan,nan,0
37908000,37908000,0.71029663,0.7037536,0.7102596,0.7032668,nan,nan,nan,nan,nan,nan,nan,nan,0
38012000,38012000,0.7099124,0.7046943,0.70969856,0.7042606,nan,nan,nan,nan,nan,nan,nan,nan,0
38112000,38112000,0.70916486,0.7071244,0.7104864,0.7058502,nan,nan,nan,nan,nan,nan,nan,nan,0
38208000,38208000,0.7106332,0.7059134,0.71136487,0.70539623,nan,nan,nan,nan,nan,nan,nan,nan,0
38308000,38308000,0.7101479,0.703082,0.709851,0.7040479,nan,nan,nan,nan,nan,nan,nan,nan,0
38412000,38412000,0.71008235,0.7039917,0.70914155,0.70393926,nan,nan,nan,nan,nan,nan,nan,nan,0
38512000,38512000,0.7100636,0.70553964,0.7103385,0.70427066,nan,nan,nan,nan,nan,nan,nan,nan,0
38612000,38612000,0.7109647,0.7059254,0.7101675,0.7058825,nan,nan,nan,nan,nan,nan,nan,nan,0
38708000,38708000,0.7128272,0.7036108,0.7104678,0.7029537,nan,nan,nan,nan,nan,nan,nan,nan,0
38812000,38812000,0.71065015,0.70623386,0.7099632,0.7060433,nan,nan,nan,nan,nan,nan,nan,nan,0
38908000,38908000,0.7119611,0.70549583,0.71170986,0.70623904,nan,nan,nan,nan,nan,nan,nan,nan,0
39008000,39008000,0.7139472,0.7053239,0.7135457,0.70512754,nan,nan,nan,nan,nan,nan,nan,nan,0
39108000,39108000,0.7118963,0.7035766,0.71117854,0.70436865,nan,nan,nan,nan,nan,nan,nan,nan,0
39208000,39208000,0.71008813,0.70476335,0.7107296,0.7050325,nan,nan,nan,nan,nan,nan,nan,nan,0
39312000,39312000,0.7102155,0.7062286,0.71086955,0.7050771,nan,nan,nan,nan,nan,nan,nan,nan,0
39412000,39412000,0.7114649,0.7055882,0.7110804,0.70666295,nan,nan,nan,nan,nan,nan,nan,nan,0
39512000,39512000,0.71095544,0.7030177,0.7102279,0.7024894,nan,nan,nan,nan,nan,nan,nan,nan,0
39612000,39612000,0.71139586,0.7028376,0.7117013,0.70255363,nan,nan,nan,nan,nan,nan,nan,nan,0
39712000,39712000,0.7096273,0.705154,0.70970577,0.70597184,nan,nan,nan,nan,nan,nan,nan,nan,0
39812000,39812000,0.71159756,0.70510346,0.7125359,0.70518994,nan,nan,nan,nan,nan,nan,nan,nan,0
39912000,39912000,0.7107329,0.70283735,0.71113116,0.70379937,nan,nan,nan,nan,nan,nan,nan,nan,0
40012000,40012000,0.7098024,0.7047274,0.70969903,0.7049519,nan,nan,nan,nan,nan,nan,nan,nan,0
40108000,40108000,0.71153855,0.7045035,0.71090406,0.7054521,nan,nan,nan,nan,nan,nan,nan,nan,0
40208000,40208000,0.7113351,0.7062423,0.7105705,0.7073902,nan,nan,nan,nan,nan,nan,nan,nan,0
40312000,40312000,0.7108035,0.7027834,0.7129931,0.70303226,nan,nan,nan,nan,nan,nan,nan,nan,0
40412000,40412000,0.70979565,0.7062596,0.7094202,0.70567054,nan,nan,nan,nan,nan,nan,nan,nan,0
40512000,40512000,0.71209615,0.7062577,0.7114341,0.70610446,nan,nan,nan,nan,nan,nan,nan,nan,0
40612000,40612000,0.7130428,0.7067763,0.7127768,0.70698893,nan,nan,nan,nan,nan,nan,nan,nan,0
40708000,40708000,0.7127065,0.70260847,0.7102436,0.70252424,nan,nan,nan,nan,nan,nan,nan,nan,0
40812000,40812000,0.70962894,0.7039151,0.70928234,0.70408195,nan,nan,nan,nan,nan,nan,nan,nan,0
40912000,40912000,0.71078604,0.7049649,0.7102847,0.7046283,nan,nan,nan,nan,nan,nan,nan,nan,0
41012000,41012000,0.7121436,0.7055333,0.7117966,0.7046208,nan,nan,nan,nan,nan,nan,nan,nan,0
41112000,41112000,0.7113571,0.70137733,0.7102458,0.7043816,nan,nan,nan,nan,nan,nan,nan,nan,0
41212000,41212000,0.71024597,0.7042854,0.7103075,0.7053106,nan,nan,nan,nan,nan,nan,nan,nan,0
41308000,41308000,0.7100982,0.7056985,0.71206015,0.7059134,nan,nan,nan,nan,nan,nan,nan,nan,0
41412000,41412000,0.71096975,0.7074055,0.7110375,0.7069253,nan,nan,nan,nan,nan,nan,nan,nan,0
41512000,41512000,0.7113416,0.7027069,0.7111507,0.70282686,nan,nan,nan,nan,nan,nan,nan,nan,0
41612000,41612000,0.70893353,0.7047764,0.70984334,0.7045131,nan,nan,nan,nan,nan,nan,nan,nan,0
41712000,41712000,0.71057886,0.70511144,0.7108894,0.7054859,nan,nan,nan,nan,nan,nan,nan,nan,0
41812000,41812000,0.7114835,0.7055392,0.7114799,0.7071054,nan,nan,nan,nan,nan,nan,nan,nan,0
41912000,41912000,0.71061826,0.7027799,0.70944065,0.70283335,nan,nan,nan,nan,nan,nan,nan,nan,0
42008000,42008000,0.7094884,0.70357215,0.708868,0.70400727,nan,nan,nan,nan,nan,nan,nan,nan,0
42112000,42112000,0.71031713,0.7051388,0.7097436,0.705364,nan,nan,nan,nan,nan,nan,nan,nan,0
42212000,42212000,0.7108925,0.7062152,0.71177286,0.70563096,nan,nan,nan,nan,nan,nan,nan,nan,0
42308000,42308000,0.7099608,0.701858,0.70865357,0.7024775,nan,nan,nan,nan,nan,nan,nan,nan,0
42412000,42412000,0.7077282,0.7031039,0.70850235,0.7040329,nan,nan,nan,nan,nan,nan,nan,nan,0
42512000,42512000,0.7095813,0.7047191,0.7091676,0.7049955,nan,nan,nan,nan,nan,nan,nan,nan,0
42612000,42612000,0.71028274,0.70517,0.7118733,0.7055342,nan,nan,nan,nan,nan,nan,nan,nan,0
42712000,42712000,0.70842624,0.7025232,0.70799834,0.70191026,nan,nan,nan,nan,nan,nan,nan,nan,0
42812000,42812000,0.70804596,0.70267475,0.70657647,0.7037089,nan,nan,nan,nan,nan,nan,nan,nan,0
42912000,42912000,0.70987356,0.7037822,0.71015525,0.7037275,nan,nan,nan,nan,nan,nan,nan,nan,0
43012000,43012000,0.7120237,0.7051277,0.7107601,0.7058831,nan,nan,nan,nan,nan,nan,nan,nan,0
43112000,43112000,0.7086456,0.70377374,0.7094012,0.703371,nan,nan,nan,nan,nan,nan,nan,nan,0
43212000,43212000,0.7085628,0.7042232,0.7098232,0.70433444,nan,nan,nan,nan,nan,nan,nan,nan,0
43308000,43308000,0.71075165,0.7058728,0.7102673,0.70468676,nan,nan,nan,nan,nan,nan,nan,nan,0
43412000,43412000,0.71238196,0.70564,0.7113261,0.7063288,nan,nan,nan,nan,nan,nan,nan,nan,0
43512000,43512000,0.7099082,0.7032042,0.7090884,0.70333475,nan,nan,nan,nan,nan,nan,nan,nan,0
43612000,43612000,0.7085805,0.7042948,0.708901,0.704361,nan,nan,nan,nan,nan,nan,nan,nan,0
43712000,43712000,0.7099969,0.7046971,0.7116095,0.7047546,nan,nan,nan,nan,nan,nan,nan,nan,0
43812000,43812000,0.71253544,0.70473504,0.7121398,0.7052927,nan,nan,nan,nan,nan,nan,nan,nan,0
43908000,43908000,0.7091961,0.7037143,0.70860285,0.70313585,nan,nan,nan,nan,nan,nan,nan,nan,0
44012000,44012000,0.7097238,0.7024455,0.70887744,0.7046166,nan,nan,nan,nan,nan,nan,nan,nan,0
44108000,44108000,0.7111989,0.70537,0.7116743,0.7036691,nan,nan,nan,nan,nan,nan,nan,nan,0
44212000,44212000,0.71215254,0.704784,0.7114961,0.70607674,nan,nan,nan,nan,nan,nan,nan,nan,0
44308000,44308000,0.70892036,0.7009943,0.708277,0.70181614,nan,nan,nan,nan,nan,nan,nan,nan,0
44408000,44408000,0.7092073,0.7009167,0.7087106,0.7019223,nan,nan,nan,nan,nan,nan,nan,nan,0
44512000,44512000,0.6874569,0.684984,0.68739265,0.6845693,nan,nan,nan,nan,nan,nan,nan,nan,0
44612000,44612000,0.6627003,0.656828,0.66330713,0.6574434,nan,nan,nan,nan,nan,nan,nan,nan,0
44708000,44708000,0.6358566,0.63057935,0.6366518,0.6303006,nan,nan,nan,nan,nan,nan,nan,nan,0
44808000,44808000,0.6246299,0.62203443,0.6254134,0.6190321,nan,nan,nan,nan,nan,nan,nan,nan,0
44912000,44912000,0.6354689,0.6290725,0.6346369,0.6300962,nan,nan,nan,nan,nan,nan,nan,nan,0
45012000,45012000,0.6877917,0.6817242,0.6888398,0.6817056,nan,nan,nan,nan,nan,nan,nan,nan,0
45108000,45108000,0.7139497,0.7077222,0.7142769,0.707574,nan,nan,nan,nan,nan,nan,nan,nan,0
45212000,45212000,0.73913896,0.73069197,0.7390083,0.7300405,nan,nan,nan,nan,nan,nan,nan,nan,0
45308000,45308000,0.74582237,0.74435955,0.74682647,0.7433714,nan,nan,nan,nan,nan,nan,nan,nan,0
45412000,45412000,0.7326141,0.72781897,0.73215944,0.7294396,nan,nan,nan,nan,nan,nan,nan,nan,0
45508000,45508000,0.721381,0.71466255,0.7221703,0.7148788,nan,nan,nan,nan,nan,nan,nan,nan,0
45612000,45612000,0.71960413,0.7137613,0.71963435,0.7133747,nan,nan,nan,nan,nan,nan,nan,nan,0
45712000,45712000,0.71841997,0.71196884,0.717224,0.7122686,nan,nan,nan,nan,nan,nan,nan,nan,0
45812000,45812000,0.7208864,0.71381056,0.7218235,0.7140919,nan,nan,nan,nan,nan,nan,nan,nan,0
45912000,45912000,0.7162933,0.70933664,0.7164313,0.70944285,nan,nan,nan,nan,nan,nan,nan,nan,0
46008000,46008000,0.716195,0.70981413,0.71634835,0.7099935,nan,nan,nan,nan,nan,nan,nan,nan,0
46112000,46112000,0.71719044,0.71247184,0.71732855,0.7117576,nan,nan,nan,nan,nan,nan,nan,nan,0
46208000,46208000,0.72070336,0.71410286,0.7195178,0.7134073,nan,nan,nan,nan,nan,nan,nan,nan,0
46312000,46312000,0.7190736,0.71252567,0.7196423,0.7101729,nan,nan,nan,nan,nan,nan,nan,nan,0
46412000,46412000,0.72032166,0.71344405,0.72157013,0.714608,nan,nan,nan,nan,nan,nan,nan,nan,0
46512000,46512000,0.7210535,0.71333605,0.7203057,0.71377283,nan,nan,nan,nan,nan,nan,nan,nan,0
46612000,46612000,0.7230759,0.7165243,0.721991,0.7162066,nan,nan,nan,nan,nan,nan,nan,nan,0
46712000,46712000,0.71653384,0.7119585,0.71652544,0.7126091,nan,nan,nan,nan,nan,nan,nan,nan,0
46812000,46812000,0.7182899,0.71141773,0.71781975,0.7139216,nan,nan,nan,nan,nan,nan,nan,nan,0
46912000,46912000,0.7170337,0.7126492,0.7181291,0.71220386,nan,nan,nan,nan,nan,nan,nan,nan,0
47012000,47012000,0.72208446,0.7153923,0.7224608,0.71429497,nan,nan,nan,nan,nan,nan,nan,nan,0
47112000,47112000,0.72099876,0.7123152,0.72143096,0.71257013,nan,nan,nan,nan,nan,nan,nan,nan,0
47212000,47212000,0.7201515,0.7153671,0.7208529,0.7138456,nan,nan,nan,nan,nan,nan,nan,nan,0
47312000,47312000,0.72025377,0.7149388,0.7209988,0.71468323,nan,nan,nan,nan,nan,nan,nan,nan,0
47412000,47412000,0.72368217,0.7175087,0.7233696,0.7179135,nan,nan,nan,nan,nan,nan,nan,nan,0
47512000,47512000,0.719564,0.712221,0.71928924,0.71291983,nan,nan,nan,nan,nan,nan,nan,nan,0
47612000,47612000,0.7210748,0.714556,0.72207063,0.7139364,nan,nan,nan,nan,nan,nan,nan,nan,0
47712000,47712000,0.72050864,0.71443486,0.72114146,0.71441466,nan,nan,nan,nan,nan,nan,nan,nan,0
47812000,47812000,0.722798,0.7167328,0.7230895,0.7174628,nan,nan,nan,nan,nan,nan,nan,nan,0
47912000,47912000,0.71681166,0.71383166,0.71721995,0.7126485,nan,nan,nan,nan,nan,nan,nan,nan,0
48008000,48008000,0.7175853,0.7130206,0.71850646,0.711423,nan,nan,nan,nan,nan,nan,nan,nan,0
48112000,48112000,0.7190739,0.71425384,0.71933675,0.71404,nan,nan,nan,nan,nan,nan,nan,nan,0
48212000,48212000,0.7224369,0.71694607,0.72298276,0.717045,nan,nan,nan,nan,nan,nan,nan,nan,0
48312000,48312000,0.71871215,0.7145768,0.7196787,0.7120915,nan,nan,nan,nan,nan,nan,nan,nan,0
48412000,48412000,0.7219439,0.715061,0.7214839,0.7152228,nan,nan,nan,nan,nan,nan,nan,nan,0
48512000,48512000,0.7204792,0.716116,0.72004014,0.716489,nan,nan,nan,nan,nan,nan,nan,nan,0
48608000,48608000,0.72287023,0.7160324,0.72332895,0.7161566,nan,nan,nan,nan,nan,nan,nan,nan,0
48708000,48708000,0.720475,0.7121987,0.7202201,0.7132466,nan,nan,nan,nan,nan,nan,nan,nan,0
48808000,48808000,0.8429353,0.8263354,0.8411678,0.8286347,nan,nan,nan,nan,nan,nan,nan,nan,0
48908000,48908000,0.76085645,0.7508156,0.7599351,0.7511628,nan,nan,nan,nan,nan,nan,nan,nan,0
49012000,49012000,0.72443587,0.7220363,0.72539175,0.7217368,nan,nan,nan,nan,nan,nan,nan,nan,0
49108000,49108000,0.6909305,0.6879935,0.6912647,0.68715507,nan,nan,nan,nan,nan,nan,nan,nan,0
49208000,49208000,0.6850355,0.6805237,0.6855618,0.6806536,nan,nan,nan,nan,nan,nan,nan,nan,0
49308000,49308000,0.6911243,0.6860228,0.6912449,0.685729,nan,nan,nan,nan,nan,nan,nan,nan,0
49408000,49408000,0.69939095,0.6918659,0.69867957,0.6921752,nan,nan,nan,nan,nan,nan,nan,nan,0
49512000,49512000,0.6774878,0.66949594,0.67775446,0.6695851,nan,nan,nan,nan,nan,nan,nan,nan,0
49612000,49612000,0.6767593,0.6735819,0.6775506,0.6732243,nan,nan,nan,nan,nan,nan,nan,nan,0
49712000,49712000,0.68527156,0.68063575,0.6849608,0.68059844,nan,nan,nan,nan,nan,nan,nan,nan,0
49812000,49812000,0.6952131,0.6895088,0.69521123,0.68779665,nan,nan,nan,nan,nan,nan,nan,nan,0
49908000,49908000,0.67556334,0.6685608,0.67501587,0.6674411,nan,nan,nan,nan,nan,nan,nan,nan,0
50012000,50012000,0.6779221,0.6723826,0.6778051,0.6718289,nan,nan,nan,nan,nan,nan,nan,nan,0
50112000,50112000,0.6861061,0.6807206,0.6858865,0.6816477,nan,nan,nan,nan,nan,nan,nan,nan,0
50212000,50212000,0.69777566,0.6912031,0.6979034,0.691497,nan,nan,nan,nan,nan,nan,nan,nan,0
50312000,50312000,0.68027,0.6719701,0.6795116,0.67175543,nan,nan,nan,nan,nan,nan,nan,nan,0
50408000,50408000,0.68282634,0.6759023,0.6818824,0.6755178,nan,nan,nan,nan,nan,nan,nan,nan,0
50512000,50512000,0.6956238,0.6898069,0.6948825,0.6895218,nan,nan,nan,nan,nan,nan,nan,nan,0
50612000,50612000,0.7068437,0.70267165,0.7070788,0.7027747,nan,nan,nan,nan,nan,nan,nan,nan,0
50712000,50712000,0.6895183,0.6833157,0.6904905,0.6828964,nan,nan,nan,nan,nan,nan,nan,nan,0
50808000,50808000,0.6949902,0.6882435,0.6942565,0.68921125,nan,nan,nan,nan,nan,nan,nan,nan,0
50908000,50908000,0.70446575,0.69756883,0.70445067,0.70007384,nan,nan,nan,nan,nan,nan,nan,nan,0
51012000,51012000,0.7146022,0.7107395,0.7158445,0.70886093,nan,nan,nan,nan,nan,nan,nan,nan,0
51108000,51108000,0.6974421,0.6913983,0.6994261,0.68908674,nan,nan,nan,nan,nan,nan,nan,nan,0
51208000,51208000,0.6985332,0.6921608,0.6990351,0.6934476,nan,nan,nan,nan,nan,nan,nan,nan,0
51312000,51312000,0.7100196,0.7045264,0.7087541,0.70610636,nan,nan,nan,nan,nan,nan,nan,nan,0
51412000,51412000,0.67237306,0.6549726,0.6638963,0.6552543,nan,nan,nan,nan,nan,nan,nan,nan,0
51512000,51512000,0.51664054,0.491938,0.5163016,0.49139094,nan,nan,nan,nan,nan,nan,nan,nan,0
51612000,51612000,0.48042563,0.45586687,0.48361903,0.45181426,nan,nan,nan,nan,nan,nan,nan,nan,0
51708000,51708000,0.4512476,0.4241131,0.45535973,0.41981363,nan,nan,nan,nan,nan,nan,nan,nan,0
51812000,51812000,0.4246171,0.39549434,0.43179223,0.3888193,nan,nan,nan,nan,nan,nan,nan,nan,0
51912000,51912000,0.37636074,0.34331688,0.38416183,0.33664757,nan,nan,nan,nan,nan,nan,nan,nan,0
52012000,52012000,0.34474838,0.3110762,0.35288784,0.30163777,nan,nan,nan,nan,nan,nan,nan,nan,0
52112000,52112000,0.32621634,0.28981102,0.33834237,0.28219336,nan,nan,nan,nan,nan,nan,nan,nan,0
52212000,52212000,0.3097594,0.26993933,0.32094112,0.25797215,nan,nan,nan,nan,nan,nan,nan,nan,0
52308000,52308000,0.2871389,0.24649957,0.3010129,0.23284146,nan,nan,nan,nan,nan,nan,nan,nan,0
52408000,52408000,0.2659297,0.22295344,0.2828656,0.20780697,nan,nan,nan,nan,nan,nan,nan,nan,0
52508000,52508000,0.24816093,0.20331585,0.26598054,0.1866646,nan,nan,nan,nan,nan,nan,nan,nan,0
52612000,52612000,0.22983035,0.18144211,0.24993534,0.1623274,nan,nan,nan,nan,nan,nan,nan,nan,0
52708000,52708000,0.20832758,0.15837352,0.23020676,0.13781516,nan,nan,nan,nan,nan,nan,nan,nan,0
52812000,52812000,0.18634078,0.13456227,0.2099749,0.113437176,nan,nan,nan,nan,nan,nan,nan,nan,0
52908000,52908000,0.16940424,0.113092266,0.19453265,0.08961476,nan,nan,nan,nan,nan,nan,nan,nan,0
53012000,53012000,0.15010358,0.09062329,0.17657107,0.066136196,nan,nan,nan,nan,nan,nan,nan,nan,0
53112000,53112000,0.14962977,0.09003711,0.17590164,0.064431444,nan,nan,nan,nan,nan,nan,nan,nan,0
53212000,53212000,0.1508337,0.0890941,0.17985862,0.060213532,nan,nan,nan,nan,nan,nan,nan,nan,0
53312000,53312000,0.15382859,0.084792145,0.18321571,0.058163516,nan,nan,nan,nan,nan,nan,nan,nan,0
53412000,53412000,0.15439707,0.0843672,0.18590249,0.0553332,nan,nan,nan,nan,nan,nan,nan,nan,0
53512000,53512000,0.1536847,0.0844287,0.18775551,0.054131046,nan,nan,nan,nan,nan,nan,nan,nan,0
53608000,53608000,0.15457642,0.08468041,0.18876,0.05198314,nan,nan,nan,nan,nan,nan,nan,nan,0
53708000,53708000,0.15528406,0.08309998,0.19164728,0.049968626,nan,nan,nan,nan,nan,nan,nan,nan,0
53812000,53812000,0.15502472,0.083883286,0.1929421,0.048149854,nan,nan,nan,nan,nan,nan,nan,nan,0
53912000,53912000,0.15551612,0.083695576,0.19637245,0.044415813,nan,nan,nan,nan,nan,nan,nan,nan,0
54012000,54012000,0.15635473,0.0810084,0.19930746,0.04332938,nan,nan,nan,nan,nan,nan,nan,nan,0
54112000,54112000,0.15812935,0.0797138,0.20331256,0.038844235,nan,nan,nan,nan,nan,nan,nan,nan,0
54212000,54212000,0.15828423,0.07997146,0.20497932,0.03676495,nan,nan,nan,nan,nan,nan,nan,nan,0
54312000,54312000,0.15819204,0.07984025,0.20718905,0.03477862,nan,nan,nan,nan,nan,nan,nan,nan,0
54408000,54408000,0.15793066,0.07885521,0.21055041,0.03266368,nan,nan,nan,nan,nan,nan,nan,nan,0
54512000,54512000,0.16080305,0.07729568,0.21268603,0.02921521,nan,nan,nan,nan,nan,nan,nan,nan,0
54612000,54612000,0.16181526,0.07555864,0.21629634,0.026329733,nan,nan,nan,nan,nan,nan,nan,nan,0
54712000,54712000,0.16154261,0.07509737,0.21839988,0.0249601,nan,nan,nan,nan,nan,nan,nan,nan,0
54812000,54812000,0.16214634,0.07316939,0.22174573,0.022938494,nan,nan,nan,nan,nan,nan,nan,nan,0
54912000,54912000,0.16343294,0.0728221,0.22358222,0.020162694,nan,nan,nan,nan,nan,nan,nan,nan,0
55012000,55012000,0.16547468,0.070621766,0.22796148,0.01594203,nan,nan,nan,nan,nan,nan,nan,nan,0
55108000,55108000,0.16535528,0.07151937,0.2277636,0.015361721,nan,nan,nan,nan,nan,nan,nan,nan,0
55212000,55212000,0.1654263,0.069967285,0.2308601,0.013746278,nan,nan,nan,nan,nan,nan,nan,nan,0
55312000,55312000,0.16608483,0.06910487,0.234332,0.010478269,nan,nan,nan,nan,nan,nan,nan,nan,0
55412000,55412000,0.16725428,0.06755637,0.23641004,0.008779275,nan,nan,nan,nan,nan,nan,nan,nan,0
55512000,55512000,0.16767618,0.06746135,0.23871109,0.00615134,nan,nan,nan,nan,nan,nan,nan,nan,0
55612000,55612000,0.16762134,0.06675124,0.24144426,0.0041831103,nan,nan,nan,nan,nan,nan,nan,nan,0
55712000,55712000,0.17035598,0.063509315,0.24265952,0.0034751461,nan,nan,nan,nan,nan,nan,nan,nan,0
55812000,55812000,0.16988431,0.0650416,0.24219972,0.0028743322,nan,nan,nan,nan,nan,nan,nan,nan,0
55912000,55912000,0.18410872,0.053613458,0.24098746,0.0012903166,nan,nan,nan,nan,nan,nan,nan,nan,0
56012000,56012000,0.18711807,0.050595406,0.24099122,0.0012952434,nan,nan,nan,nan,nan,nan,nan,nan,0
56112000,56112000,0.19105278,0.04657259,0.24102943,0.0013451523,nan,nan,nan,nan,nan,nan,nan,nan,0
56212000,56212000,0.19390556,0.043886736,0.24095708,0.001250588,nan,nan,nan,nan,nan,nan,nan,nan,0
56312000,56312000,0.19337615,0.044705447,0.24083166,0.0010867092,nan,nan,nan,nan,nan,nan,nan,nan,0
56412000,56412000,0.19307123,0.044622086,0.24099998,0.001306665,nan,nan,nan,nan,nan,nan,nan,nan,0
56508000,56508000,0.001999991,0.0,0.0020000022,1.4901161e-08,nan,nan,nan,nan,nan,nan,nan,nan,0
56608000,56608000,0.001999991,0.0,0.0019999947,1.4901161e-08,nan,nan,nan,nan,nan,nan,nan,nan,0
56712000,56712000,0.0019999966,0.0,0.0020000115,0.0,nan,nan,nan,nan,nan,nan,nan,nan,0
56812000,56812000,0.0019999929,0.0,0.0020000227,0.0,nan,nan,nan,nan,nan,nan,nan,nan,0
56908000,56908000,0.0019999817,0.0,0.0019999966,0.0,nan,nan,nan,nan,nan,nan,nan,nan,0
57012000,57012000,0.0019999966,0.0,0.002000004,0.0,nan,nan,nan,nan,nan,nan,nan,nan,0
57112000,57112000,0.002000004,0.0,0.002000004,0.0,nan,nan,nan,nan,nan,nan,nan,nan,0
57212000,57212000,0.0019999817,0.0,0.0019999966,7.450581e-09,nan,nan,nan,nan,nan,nan,nan,nan,0
57312000,57312000,0.0020000003,0.0,0.0020000003,0.0,nan,nan,nan,nan,nan,nan,nan,nan,0
57412000,57412000,0.0019999957,0.0,0.00199999,0.0,nan,nan,nan,nan,nan,nan,nan,nan,0
57508000,57508000,0.0020000003,0.0,0.0020000003,0.0,nan,nan,nan,nan,nan,nan,nan,nan,0
57612000,57612000,0.0019999777,0.0,0.0020000078,1.4901161e-08,nan,nan,nan,nan,nan,nan,nan,nan,0
57712000,57712000,0.0019999777,0.0,0.0020000082,1.4901161e-08,nan,nan,nan,nan,nan,nan,nan,nan,0
57812000,57812000,0.0019999966,0.0,0.0019999966,7.450581e-09,nan,nan,nan,nan,nan,nan,nan,nan,0
57912000,57912000,0.0019999892,0.0,0.0019999892,7.450581e-09,nan,nan,nan,nan,nan,nan,nan,nan,0
58012000,58012000,0.0019999759,0.0,0.0020000024,1.4901161e-08,nan,nan,nan,nan,nan,nan,nan,nan,0
58112000,58112000,0.0019999966,0.0,0.0019999966,0.0,nan,nan,nan,nan,nan,nan,nan,nan,0
58212000,58212000,0.0019999777,0.0,0.002000008,1.4901161e-08,nan,nan,nan,nan,nan,nan,nan,nan,0
58312000,58312000,0.002000004,0.0,0.002000004,0.0,nan,nan,nan,nan,nan,nan,nan,nan,0
58412000,58412000,0.0020000078,0.0,0.0020000078,0.0,nan,nan,nan,nan,nan,nan,nan,nan,0
58508000,58508000,0.0019999978,0.0,0.002000001,1.8626451e-09,nan,nan,nan,nan,nan,nan,nan,nan,0
58612000,58612000,0.0019999987,0.0,0.002,1.8626451e-09,nan,nan,nan,nan,nan,nan,nan,nan,0
58712000,58712000,0.0020000003,0.0,0.0019999985,0.0,nan,nan,nan,nan,nan,nan,nan,nan,0
58812000,58812000,0.0019999999,0.0,0.0020000027,0.0,nan,nan,nan,nan,nan,nan,nan,nan,0
58908000,58908000,0.002,9.313226e-10,0.0019999996,0.0,nan,nan,nan,nan,nan,nan,nan,nan,0
59008000,59008000,0.0020000013,0.0,0.0019999994,0.0,nan,nan,nan,nan,nan,nan,nan,nan,0
59108000,59108000,0.0020000003,0.0,0.0019999985,0.0,nan,nan,nan,nan,nan,nan,nan,nan,0
59208000,59208000,0.002,1.8626451e-09,0.0019999987,0.0,nan,nan,nan,nan,nan,nan,nan,nan,0
59312000,59312000,0.0019999994,0.0,0.0020000013,0.0,nan,nan,nan,nan,nan,nan,nan,nan,0
59412000,59412000,0.0020000022,0.0,0.0020000022,0.0,nan,nan,nan,nan,nan,nan,nan,nan,0
