timestamp,timestamp_sample,gps_hvel[0],gps_hvel[1],gps_vvel,gps_hpos[0],gps_hpos[1],gps_vpos,ev_hvel[0],ev_hvel[1],ev_vvel,ev_hpos[0],ev_hpos[1],ev_vpos,rng_vpos,baro_vpos,aux_hvel[0],aux_hvel[1],aux_vvel,flow[0],flow[1],terr_flow[0],terr_flow[1],heading,mag_field[0],mag_field[1],mag_field[2],gravity[0],gravity[1],gravity[2],drag[0],drag[1],airspeed,beta,hagl,hagl_rate
3212000,3132000,0.0,0.0,0.0,0.0,0.0,0.0,0.0,0.0,0.0,0.0,0.0,0.0,0.0,0.0,0.0,0.0,nan,0.0,0.0,0.0,0.0,0.0,0.0,0.0,0.0,0.00025682728,0.0,0.0,0.0,0.0,0.0,0.0,0.0,0.0
3220000,3140000,0.0,0.0,0.0,0.0,0.0,0.0,0.0,0.0,0.0,0.0,0.0,0.0,0.0,3.430921e-14,0.0,0.0,nan,0.0,0.0,0.0,0.0,0.0,0.0,0.0,0.0,5.833282e-06,0.0,0.0,0.0,0.0,0.0,0.0,0.0,0.0
3228000,3148000,0.0,0.0,0.0,0.0,0.0,0.0,0.0,0.0,0.0,0.0,0.0,0.0,0.0,3.430921e-14,0.0,0.0,nan,0.0,0.0,0.0,0.0,0.0,inf,0.0,0.0,0.00036314173,0.0,0.0,0.0,0.0,0.0,0.0,0.0,0.0
3236000,3156000,0.0,0.0,0.0,0.0,0.0,0.0,0.0,0.0,0.0,0.0,0.0,0.0,0.0,3.430921e-14,0.0,0.0,nan,0.0,0.0,0.0,0.0,0.0,inf,0.0,0.0,0.00033731287,0.0,0.0,0.0,0.0,0.0,0.0,0.0,0.0
3244000,3164000,0.0,0.0,0.0,0.0,0.0,0.0,0.0,0.0,0.0,0.0,0.0,0.0,0.0,3.430921e-14,0.0,0.0,nan,0.0,0.0,0.0,0.0,0.0,inf,0.0,0.0,0.00067668624,0.0,0.0,0.0,0.0,0.0,0.0,0.0,0.0
3252000,3172000,0.0,0.0,0.0,0.0,0.0,0.0,0.0,0.0,0.0,0.0,0.0,0.0,0.0,3.430921e-14,0.0,0.0,nan,0.0,0.0,0.0,0.0,0.0,inf,0.0,0.0,0.00052816636,0.0,0.0,0.0,0.0,0.0,0.0,0.0,0.0
3260000,3180000,0.0,0.0,0.0,0.0,0.0,0.0,0.0,0.0,0.0,0.0,0.0,0.0,0.0,3.430921e-14,0.0,0.0,nan,0.0,0.0,0.0,0.0,0.0,inf,0.0,0.0,0.00064784987,0.0,0.0,0.0,0.0,0.0,0.0,0.0,0.0
3268000,3188000,0.0,0.0,0.0,0.0,0.0,0.0,0.0,0.0,0.0,0.0,0.0,0.0,0.0,3.430921e-14,0.0,0.0,nan,0.0,0.0,0.0,0.0,0.0,inf,0.0,0.0,0.000587298,0.0,0.0,0.0,0.0,0.0,0.0,0.0,0.0
3276000,3196000,0.0,0.0,0.0,0.0,0.0,0.0,0.0,0.0,0.0,0.0,0.0,0.0,0.0,3.430921e-14,0.0,0.0,nan,0.0,0.0,0.0,0.0,0.0,inf,0.0,0.0,0.00031714785,0.0,0.0,0.0,0.0,0.0,0.0,0.0,0.0
3284000,3204000,0.0,0.0,0.0,0.0,0.0,0.0,0.0,0.0,0.0,0.0,0.0,0.0,0.0,2.5530252e-08,0.0,0.0,nan,0.0,0.0,0.0,0.0,0.0,inf,0.0,0.0,0.00044107332,0.0,0.0,0.0,0.0,0.0,0.0,0.0,0.0
3292000,3212000,0.0,0.0,0.0,0.0,0.0,0.0,0.0,0.0,0.0,0.0,0.0,0.0,0.0,2.5530252e-08,0.0,0.0,nan,0.0,0.0,0.0,0.0,0.0,inf,0.0,0.0,0.00083157397,0.0,0.0,0.0,0.0,0.0,0.0,0.0,0.0
3300000,3220000,0.0,0.0,0.0,0.0,0.0,0.0,0.0,0.0,0.0,0.0,0.0,0.0,0.0,2.5530252e-08,0.0,0.0,nan,0.0,0.0,0.0,0.0,0.0,inf,0.0,0.0,0.0015751991,0.0,0.0,0.0,0.0,0.0,0.0,0.0,0.0
3308000,3228000,0.0,0.0,0.0,0.0,0.0,0.0,0.0,0.0,0.0,0.0,0.0,0.0,0.0,2.5530252e-08,0.0,0.0,nan,0.0,0.0,0.0,0.0,0.0,inf,0.0,0.0,0.00050835515,0.0,0.0,0.0,0.0,0.0,0.0,0.0,0.0
3316000,3236000,0.0,0.0,0.0,0.0,0.0,0.0,0.0,0.0,0.0,0.0,0.0,0.0,0.0,2.5530252e-08,0.0,0.0,nan,0.0,0.0,0.0,0.0,0.0,inf,0.0,0.0,0.00027522564,0.0,0.0,0.0,0.0,0.0,0.0,0.0,0.0
3324000,3244000,0.0,0.0,0.0,0.0,0.0,0.0,0.0,0.0,0.0,0.0,0.0,0.0,0.0,2.5530252e-08,0.0,0.0,nan,0.0,0.0,0.0,0.0,0.0,inf,0.0,0.0,0.0001959908,0.0,0.0,0.0,0.0,0.0,0.0,0.0,0.0
3332000,3252000,0.0,0.0,0.0,0.0,0.0,0.0,0.0,0.0,0.0,0.0,0.0,0.0,0.0,2.5530252e-08,0.0,0.0,nan,0.0,0.0,0.0,0.0,0.0,inf,0.0,0.0,0.00020164403,0.0,0.0,0.0,0.0,0.0,0.0,0.0,0.0
3340000,3260000,0.0,0.0,0.0,0.0,0.0,0.0,0.0,0.0,0.0,0.0,0.0,0.0,0.0,4.0345065e-09,0.0,0.0,nan,0.0,0.0,0.0,0.0,0.0,inf,0.0,0.0,0.0012772282,0.0,0.0,0.0,0.0,0.0,0.0,0.0,0.0
3348000,3268000,0.0,0.0,0.0,0.0,0.0,0.0,0.0,0.0,0.0,0.0,0.0,0.0,0.0,4.0345065e-09,0.0,0.0,nan,0.0,0.0,0.0,0.0,0.0,inf,0.0,0.0,6.709479e-05,0.0,0.0,0.0,0.0,0.0,0.0,0.0,0.0
3356000,3276000,0.0,0.0,0.0,0.0,0.0,0.0,0.0,0.0,0.0,0.0,0.0,0.0,0.0,4.0345065e-09,0.0,0.0,nan,0.0,0.0,0.0,0.0,0.0,inf,0.0,0.0,0.0003178451,0.0,0.0,0.0,0.0,0.0,0.0,0.0,0.0
3364000,3284000,0.0,0.0,0.0,0.0,0.0,0.0,0.0,0.0,0.0,0.0,0.0,0.0,0.0,4.0345065e-09,0.0,0.0,nan,0.0,0.0,0.0,0.0,0.0,inf,0.0,0.0,0.001022504,0.0,0.0,0.0,0.0,0.0,0.0,0.0,0.0
3372000,3292000,0.0,0.0,0.0,0.0,0.0,0.0,0.0,0.0,0.0,0.0,0.0,0.0,0.0,4.0345065e-09,0.0,0.0,nan,0.0,0.0,0.0,0.0,0.0,inf,0.0,0.0,0.0008781707,0.0,0.0,0.0,0.0,0.0,0.0,0.0,0.0
3380000,3300000,0.0,0.0,0.0,0.0,0.0,0.0,0.0,0.0,0.0,0.0,0.0,0.0,0.0,4.0345065e-09,0.0,0.0,nan,0.0,0.0,0.0,0.0,0.0,inf,0.0,0.0,7.112183e-05,0.0,0.0,0.0,0.0,0.0,0.0,0.0,0.0
3388000,3308000,0.0,0.0,0.0,0.0,0.0,0.0,0.0,0.0,0.0,0.0,0.0,0.0,0.0,4.0345065e-09,0.0,0.0,nan,0.0,0.0,0.0,0.0,0.0,inf,0.0,0.0,8.0533355e-05,0.0,0.0,0.0,0.0,0.0,0.0,0.0,0.0
3396000,3316000,0.0,0.0,0.0,0.0,0.0,0.0,0.0,0.0,0.0,0.0,0.0,0.0,0.0,4.0345065e-09,0.0,0.0,nan,0.0,0.0,0.0,0.0,0.0,inf,0.0,0.0,0.00061124214,0.0,0.0,0.0,0.0,0.0,0.0,0.0,0.0
3404000,3324000,6.5551612e-06,0.0,0.0003936767,5.143082e-11,0.0,186.85884,0.0,0.0,0.0,0.0,0.0,0.0,0.0,6.828119e-07,0.0,0.0,nan,0.0,0.0,0.0,0.0,0.0,inf,0.0,0.0,0.00013178456,0.0,0.0,0.0,0.0,0.0,0.0,0.0,0.0
3412000,3332000,6.5551612e-06,0.0,0.0003936767,5.143082e-11,0.0,186.85884,0.0,0.0,0.0,0.0,0.0,0.0,0.0,6.828119e-07,0.0,0.0,nan,0.0,0.0,0.0,0.0,0.0,inf,0.0,0.0,0.00023223608,0.0,0.0,0.0,0.0,0.0,0.0,0.0,0.0
3420000,3340000,6.5551612e-06,0.0,0.0003936767,5.143082e-11,0.0,186.85884,0.0,0.0,0.0,0.0,0.0,0.0,0.0,6.828119e-07,0.0,0.0,nan,0.0,0.0,0.0,0.0,0.0,inf,0.0,0.0,0.00029106188,0.0,0.0,0.0,0.0,0.0,0.0,0.0,0.0
3428000,3348000,6.5551612e-06,0.0,0.0003936767,5.143082e-11,0.0,186.85884,0.0,0.0,0.0,0.0,0.0,0.0,0.0,6.828119e-07,0.0,0.0,nan,0.0,0.0,0.0,0.0,0.0,inf,0.0,0.0,0.0005724034,0.0,0.0,0.0,0.0,0.0,0.0,0.0,0.0
3436000,3356000,6.5551612e-06,0.0,0.0003936767,5.143082e-11,0.0,186.85884,0.0,0.0,0.0,0.0,0.0,0.0,0.0,6.828119e-07,0.0,0.0,nan,0.0,0.0,0.0,0.0,3.2533793e-05,inf,0.0,0.0,3.234621e-05,0.0,0.0,0.0,0.0,0.0,0.0,0.0,0.0
3444000,3364000,6.5551612e-06,0.0,0.0003936767,5.143082e-11,0.0,186.85884,0.0,0.0,0.0,0.0,0.0,0.0,0.0,6.828119e-07,0.0,0.0,nan,0.0,0.0,0.0,0.0,3.2533793e-05,inf,0.0,0.0,0.0014116999,0.0,0.0,0.0,0.0,0.0,0.0,0.0,0.0
3452000,3372000,6.5551612e-06,0.0,0.0003936767,5.143082e-11,0.0,186.85884,0.0,0.0,0.0,0.0,0.0,0.0,0.0,6.828119e-07,0.0,0.0,nan,0.0,0.0,0.0,0.0,3.2533793e-05,inf,0.0,0.0,0.0006279363,0.0,0.0,0.0,0.0,0.0,0.0,0.0,0.0
3460000,3380000,6.5551612e-06,0.0,0.0003936767,5.143082e-11,0.0,186.85884,0.0,0.0,0.0,0.0,0.0,0.0,0.0,2.9561056e-06,0.0,0.0,nan,0.0,0.0,0.0,0.0,3.2533793e-05,inf,0.0,0.0,0.0007004526,0.0,0.0,0.0,0.0,0.0,0.0,0.0,0.0
3468000,3388000,6.5551612e-06,0.0,0.0003936767,5.143082e-11,0.0,186.85884,0.0,0.0,0.0,0.0,0.0,0.0,0.0,2.9561056e-06,0.0,0.0,nan,0.0,0.0,0.0,0.0,3.2533793e-05,inf,0.0,0.0,9.7135206e-05,0.0,0.0,0.0,0.0,0.0,0.0,0.0,0.0
3476000,3396000,6.5551612e-06,0.0,0.0003936767,5.143082e-11,0.0,186.85884,0.0,0.0,0.0,0.0,0.0,0.0,0.0,2.9561056e-06,0.0,0.0,nan,0.0,0.0,0.0,0.0,3.2533793e-05,inf,0.0,0.0,2.6515208e-05,0.0,0.0,0.0,0.0,0.0,0.0,0.0,0.0
3484000,3404000,6.5551612e-06,0.0,0.0003936767,5.143082e-11,0.0,186.85884,0.0,0.0,0.0,0.0,0.0,0.0,0.0,2.9561056e-06,0.0,0.0,nan,0.0,0.0,0.0,0.0,3.2533793e-05,inf,0.0,0.0,0.00022717893,0.0,0.0,0.0,0.0,0.0,0.0,0.0,0.0
3492000,3412000,6.5551612e-06,0.0,0.0003936767,5.143082e-11,0.0,186.85884,0.0,0.0,0.0,0.0,0.0,0.0,0.0,2.9561056e-06,0.0,0.0,nan,0.0,0.0,0.0,0.0,3.2533793e-05,inf,0.0,0.0,0.00051148,0.0,0.0,0.0,0.0,0.0,0.0,0.0,0.0
3500000,3420000,6.5551612e-06,0.0,0.0003936767,5.143082e-11,0.0,186.85884,0.0,0.0,0.0,0.0,0.0,0.0,0.0,2.9561056e-06,0.0,0.0,nan,0.0,0.0,0.0,0.0,3.2533793e-05,inf,0.0,0.0,5.5492612e-05,0.0,0.0,0.0,0.0,0.0,0.0,0.0,0.0
3508000,3428000,6.5551612e-06,0.0,0.0003936767,5.143082e-11,0.0,186.85884,0.0,0.0,0.0,0.0,0.0,0.0,0.0,2.9561056e-06,0.0,0.0,nan,0.0,0.0,0.0,0.0,8.4729036e-05,inf,0.0,0.0,0.0003980213,0.0,0.0,0.0,0.0,0.0,0.0,0.0,0.0
3516000,3436000,6.5551612e-06,0.0,0.0003936767,5.143082e-11,0.0,186.85884,0.0,0.0,0.0,0.0,0.0,0.0,0.0,2.9561056e-06,0.0,0.0,nan,0.0,0.0,0.0,0.0,8.4729036e-05,inf,0.0,0.0,0.00047066895,0.0,0.0,0.0,0.0,0.0,0.0,0.0,0.0
3524000,3444000,6.5551612e-06,0.0,0.0003936767,5.143082e-11,0.0,186.85884,0.0,0.0,0.0,0.0,0.0,0.0,0.0,3.140797e-06,0.0,0.0,nan,0.0,0.0,0.0,0.0,8.4729036e-05,inf,0.0,0.0,0.00016793875,0.0,0.0,0.0,0.0,0.0,0.0,0.0,0.0
3532000,3452000,6.5551612e-06,0.0,0.0003936767,5.143082e-11,0.0,186.85884,0.0,0.0,0.0,0.0,0.0,0.0,0.0,3.140797e-06,0.0,0.0,nan,0.0,0.0,0.0,0.0,8.4729036e-05,inf,0.0,0.0,2.6269347e-05,0.0,0.0,0.0,0.0,0.0,0.0,0.0,0.0
3540000,3460000,6.5551612e-06,0.0,0.0003936767,5.143082e-11,0.0,186.85884,0.0,0.0,0.0,0.0,0.0,0.0,0.0,3.140797e-06,0.0,0.0,nan,0.0,0.0,0.0,0.0,8.4729036e-05,inf,0.0,0.0,0.0003234153,0.0,0.0,0.0,0.0,0.0,0.0,0.0,0.0
3548000,3468000,6.5551612e-06,0.0,0.0003936767,5.143082e-11,0.0,186.85884,0.0,0.0,0.0,0.0,0.0,0.0,0.0,3.140797e-06,0.0,0.0,nan,0.0,0.0,0.0,0.0,8.4729036e-05,inf,0.0,0.0,0.00073805085,0.0,0.0,0.0,0.0,0.0,0.0,0.0,0.0
3556000,3476000,6.5551612e-06,0.0,0.0003936767,5.143082e-11,0.0,186.85884,0.0,0.0,0.0,0.0,0.0,0.0,0.0,3.140797e-06,0.0,0.0,nan,0.0,0.0,0.0,0.0,8.4729036e-05,inf,0.0,0.0,0.00028223856,0.0,0.0,0.0,0.0,0.0,0.0,0.0,0.0
3564000,3484000,6.5551612e-06,0.0,0.0003936767,5.143082e-11,0.0,186.85884,0.0,0.0,0.0,0.0,0.0,0.0,0.0,3.140797e-06,0.0,0.0,nan,0.0,0.0,0.0,0.0,8.4729036e-05,inf,0.0,0.0,8.958912e-05,0.0,0.0,0.0,0.0,0.0,0.0,0.0,0.0
3572000,3492000,6.5551612e-06,0.0,0.0003936767,5.143082e-11,0.0,186.85884,0.0,0.0,0.0,0.0,0.0,0.0,0.0,3.140797e-06,0.0,0.0,nan,0.0,0.0,0.0,0.0,8.4729036e-05,inf,0.0,0.0,0.00019416951,0.0,0.0,0.0,0.0,0.0,0.0,0.0,0.0
3580000,3500000,6.5551612e-06,0.0,0.0003936767,5.143082e-11,0.0,186.85884,0.0,0.0,0.0,0.0,0.0,0.0,0.0,9.5758224e-08,0.0,0.0,nan,0.0,0.0,0.0,0.0,4.9924856e-05,inf,0.0,0.0,0.000104771745,0.0,0.0,0.0,0.0,0.0,0.0,0.0,0.0
3588000,3508000,6.5551612e-06,0.0,0.0003936767,5.143082e-11,0.0,186.85884,0.0,0.0,0.0,0.0,0.0,0.0,0.0,9.5758224e-08,0.0,0.0,nan,0.0,0.0,0.0,0.0,4.9924856e-05,inf,0.0,0.0,6.323072e-05,0.0,0.0,0.0,0.0,0.0,0.0,0.0,0.0
3596000,3516000,6.5551612e-06,0.0,0.0003936767,5.143082e-11,0.0,186.85884,0.0,0.0,0.0,0.0,0.0,0.0,0.0,9.5758224e-08,0.0,0.0,nan,0.0,0.0,0.0,0.0,4.9924856e-05,inf,0.0,0.0,5.4928096e-05,0.0,0.0,0.0,0.0,0.0,0.0,0.0,0.0
3604000,3524000,6.5551612e-06,0.0,0.0003936767,5.143082e-11,0.0,186.85884,0.0,0.0,0.0,0.0,0.0,0.0,0.0,9.5758224e-08,0.0,0.0,nan,0.0,0.0,0.0,0.0,4.9924856e-05,inf,0.0,0.0,0.00057545525,0.0,0.0,0.0,0.0,0.0,0.0,0.0,0.0
3612000,3532000,6.5551612e-06,0.0,0.0003936767,5.143082e-11,0.0,186.85884,0.0,0.0,0.0,0.0,0.0,0.0,0.0,9.5758224e-08,0.0,0.0,nan,0.0,0.0,0.0,0.0,4.9924856e-05,inf,0.0,0.0,0.0004317576,0.0,0.0,0.0,0.0,0.0,0.0,0.0,0.0
3620000,3540000,6.5551612e-06,0.0,0.0003936767,5.143082e-11,0.0,186.85884,0.0,0.0,0.0,0.0,0.0,0.0,0.0,9.5758224e-08,0.0,0.0,nan,0.0,0.0,0.0,0.0,4.9924856e-05,inf,0.0,0.0,0.00016944167,0.0,0.0,0.0,0.0,0.0,0.0,0.0,0.0
3628000,3548000,6.5551612e-06,0.0,0.0003936767,5.143082e-11,0.0,186.85884,0.0,0.0,0.0,0.0,0.0,0.0,0.0,9.5758224e-08,0.0,0.0,nan,0.0,0.0,0.0,0.0,4.9924856e-05,inf,0.0,0.0,0.00024106009,0.0,0.0,0.0,0.0,0.0,0.0,0.0,0.0
3636000,3556000,6.5551612e-06,0.0,0.0003936767,5.143082e-11,0.0,186.85884,0.0,0.0,0.0,0.0,0.0,0.0,0.0,9.5758224e-08,0.0,0.0,nan,0.0,0.0,0.0,0.0,4.9924856e-05,inf,0.0,0.0,0.00048515247,0.0,0.0,0.0,0.0,0.0,0.0,0.0,0.0
3644000,3564000,6.5551612e-06,0.0,0.0003936767,5.143082e-11,0.0,186.85884,0.0,0.0,0.0,0.0,0.0,0.0,0.0,5.4331735e-09,0.0,0.0,nan,0.0,0.0,0.0,0.0,4.9924856e-05,inf,0.0,0.0,0.00073049316,0.0,0.0,0.0,0.0,0.0,0.0,0.0,0.0
3652000,3572000,6.5551612e-06,0.0,0.0003936767,5.143082e-11,0.0,186.85884,0.0,0.0,0.0,0.0,0.0,0.0,0.0,5.4331735e-09,0.0,0.0,nan,0.0,0.0,0.0,0.0,0.00018999862,inf,0.0,0.0,3.758772e-05,0.0,0.0,0.0,0.0,0.0,0.0,0.0,0.0
3660000,3580000,6.5551612e-06,0.0,0.0003936767,5.143082e-11,0.0,186.85884,0.0,0.0,0.0,0.0,0.0,0.0,0.0,5.4331735e-09,0.0,0.0,nan,0.0,0.0,0.0,0.0,0.00018999862,inf,0.0,0.0,0.00072999654,0.0,0.0,0.0,0.0,0.0,0.0,0.0,0.0
3668000,3588000,6.5551612e-06,0.0,0.0003936767,5.143082e-11,0.0,186.85884,0.0,0.0,0.0,0.0,0.0,0.0,0.0,5.4331735e-09,0.0,0.0,nan,0.0,0.0,0.0,0.0,0.00018999862,inf,0.0,0.0,0.00015753854,0.0,0.0,0.0,0.0,0.0,0.0,0.0,0.0
3676000,3596000,6.5551612e-06,0.0,0.0003936767,5.143082e-11,0.0,186.85884,0.0,0.0,0.0,0.0,0.0,0.0,0.0,5.4331735e-09,0.0,0.0,nan,0.0,0.0,0.0,0.0,0.00018999862,inf,0.0,0.0,0.00049184746,0.0,0.0,0.0,0.0,0.0,0.0,0.0,0.0
3684000,3604000,6.5551612e-06,0.0,0.0003936767,5.143082e-11,0.0,186.85884,0.0,0.0,0.0,0.0,0.0,0.0,0.0,5.4331735e-09,0.0,0.0,nan,0.0,0.0,0.0,0.0,0.00018999862,inf,0.0,0.0,9.9132936e-05,0.0,0.0,0.0,0.0,0.0,0.0,0.0,0.0
3692000,3612000,6.5551612e-06,0.0,0.0003936767,5.143082e-11,0.0,186.85884,0.0,0.0,0.0,0.0,0.0,0.0,0.0,5.4331735e-09,0.0,0.0,nan,0.0,0.0,0.0,0.0,0.00018999862,inf,0.0,0.0,8.8881265e-05,0.0,0.0,0.0,0.0,0.0,0.0,0.0,0.0
3700000,3620000,6.5551612e-06,0.0,0.0003936767,5.143082e-11,0.0,186.85884,0.0,0.0,0.0,0.0,0.0,0.0,0.0,3.134096e-07,0.0,0.0,nan,0.0,0.0,0.0,0.0,0.00018999862,inf,0.0,0.0,0.00046662847,0.0,0.0,0.0,0.0,0.0,0.0,0.0,0.0
3708000,3628000,6.5551612e-06,0.0,0.0003936767,5.143082e-11,0.0,186.85884,0.0,0.0,0.0,0.0,0.0,0.0,0.0,3.134096e-07,0.0,0.0,nan,0.0,0.0,0.0,0.0,0.00018999862,inf,0.0,0.0,0.0004251413,0.0,0.0,0.0,0.0,0.0,0.0,0.0,0.0
3716000,3636000,6.5551612e-06,0.0,0.0003936767,5.143082e-11,0.0,186.85884,0.0,0.0,0.0,0.0,0.0,0.0,0.0,3.134096e-07,0.0,0.0,nan,0.0,0.0,0.0,0.0,0.00018999862,inf,0.0,0.0,9.006175e-05,0.0,0.0,0.0,0.0,0.0,0.0,0.0,0.0
3724000,3644000,6.5551612e-06,0.0,0.0003936767,5.143082e-11,0.0,186.85884,0.0,0.0,0.0,0.0,0.0,0.0,0.0,3.134096e-07,0.0,0.0,nan,0.0,0.0,0.0,0.0,2.6184202e-06,inf,0.0,0.0,0.0010436889,0.0,0.0,0.0,0.0,0.0,0.0,0.0,0.0
3732000,3652000,6.5551612e-06,0.0,0.0003936767,5.143082e-11,0.0,186.85884,0.0,0.0,0.0,0.0,0.0,0.0,0.0,3.134096e-07,0.0,0.0,nan,0.0,0.0,0.0,0.0,2.6184202e-06,inf,0.0,0.0,0.00038516326,0.0,0.0,0.0,0.0,0.0,0.0,0.0,0.0
3740000,3660000,6.5551612e-06,0.0,0.0003936767,5.143082e-11,0.0,186.85884,0.0,0.0,0.0,0.0,0.0,0.0,0.0,3.134096e-07,0.0,0.0,nan,0.0,0.0,0.0,0.0,2.6184202e-06,inf,0.0,0.0,0.00030647987,0.0,0.0,0.0,0.0,0.0,0.0,0.0,0.0
3748000,3668000,6.5551612e-06,0.0,0.0003936767,5.143082e-11,0.0,186.85884,0.0,0.0,0.0,0.0,0.0,0.0,0.0,3.134096e-07,0.0,0.0,nan,0.0,0.0,0.0,0.0,2.6184202e-06,inf,0.0,0.0,0.00045798116,0.0,0.0,0.0,0.0,0.0,0.0,0.0,0.0
3756000,3676000,6.5551612e-06,0.0,0.0003936767,5.143082e-11,0.0,186.85884,0.0,0.0,0.0,0.0,0.0,0.0,0.0,3.134096e-07,0.0,0.0,nan,0.0,0.0,0.0,0.0,2.6184202e-06,inf,0.0,0.0,0.00017551312,0.0,0.0,0.0,0.0,0.0,0.0,0.0,0.0
3764000,3684000,6.5551612e-06,0.0,0.0003936767,5.143082e-11,0.0,186.85884,0.0,0.0,0.0,0.0,0.0,0.0,0.0,1.5744599e-06,0.0,0.0,nan,0.0,0.0,0.0,0.0,2.6184202e-06,inf,0.0,0.0,4.756936e-05,0.0,0.0,0.0,0.0,0.0,0.0,0.0,0.0
3772000,3692000,6.5551612e-06,0.0,0.0003936767,5.143082e-11,0.0,186.85884,0.0,0.0,0.0,0.0,0.0,0.0,0.0,1.5744599e-06,0.0,0.0,nan,0.0,0.0,0.0,0.0,2.6184202e-06,inf,0.0,0.0,0.0011750404,0.0,0.0,0.0,0.0,0.0,0.0,0.0,0.0
3780000,3700000,6.5551612e-06,0.0,0.0003936767,5.143082e-11,0.0,186.85884,0.0,0.0,0.0,0.0,0.0,0.0,0.0,1.5744599e-06,0.0,0.0,nan,0.0,0.0,0.0,0.0,2.6184202e-06,inf,0.0,0.0,5.9826307e-05,0.0,0.0,0.0,0.0,0.0,0.0,0.0,0.0
3788000,3708000,6.5551612e-06,0.0,0.0003936767,5.143082e-11,0.0,186.85884,0.0,0.0,0.0,0.0,0.0,0.0,0.0,1.5744599e-06,0.0,0.0,nan,0.0,0.0,0.0,0.0,2.6184202e-06,inf,0.0,0.0,5.753023e-05,0.0,0.0,0.0,0.0,0.0,0.0,0.0,0.0
3796000,3716000,6.5551612e-06,0.0,0.0003936767,5.143082e-11,0.0,186.85884,0.0,0.0,0.0,0.0,0.0,0.0,0.0,1.5744599e-06,0.0,0.0,nan,0.0,0.0,0.0,0.0,9.073618e-06,inf,0.0,0.0,0.00057105575,0.0,0.0,0.0,0.0,0.0,0.0,0.0,0.0
3804000,3724000,3.5055468e-06,0.0,3.2160762e-05,5.425098e-09,0.0,277.57455,0.0,0.0,0.0,0.0,0.0,0.0,0.0,1.5744599e-06,0.0,0.0,nan,0.0,0.0,0.0,0.0,9.073618e-06,inf,0.0,0.0,0.0007269035,0.0,0.0,0.0,0.0,0.0,0.0,0.0,0.0
3812000,3732000,3.5055468e-06,0.0,3.2160762e-05,5.425098e-09,0.0,277.57455,0.0,0.0,0.0,0.0,0.0,0.0,0.0,1.5744599e-06,0.0,0.0,nan,0.0,0.0,0.0,0.0,9.073618e-06,inf,0.0,0.0,0.00056560594,0.0,0.0,0.0,0.0,0.0,0.0,0.0,0.0
3820000,3740000,3.5055468e-06,0.0,3.2160762e-05,5.425098e-09,0.0,277.57455,0.0,0.0,0.0,0.0,0.0,0.0,0.0,5.522521e-06,0.0,0.0,nan,0.0,0.0,0.0,0.0,9.073618e-06,inf,0.0,0.0,0.00024856097,0.0,0.0,0.0,0.0,0.0,0.0,0.0,0.0
3828000,3748000,3.5055468e-06,0.0,3.2160762e-05,5.425098e-09,0.0,277.57455,0.0,0.0,0.0,0.0,0.0,0.0,0.0,5.522521e-06,0.0,0.0,nan,0.0,0.0,0.0,0.0,9.073618e-06,inf,0.0,0.0,0.0004131795,0.0,0.0,0.0,0.0,0.0,0.0,0.0,0.0
3836000,3756000,3.5055468e-06,0.0,3.2160762e-05,5.425098e-09,0.0,277.57455,0.0,0.0,0.0,0.0,0.0,0.0,0.0,5.522521e-06,0.0,0.0,nan,0.0,0.0,0.0,0.0,9.073618e-06,inf,0.0,0.0,0.0004977828,0.0,0.0,0.0,0.0,0.0,0.0,0.0,0.0
3844000,3764000,3.5055468e-06,0.0,3.2160762e-05,5.425098e-09,0.0,277.57455,0.0,0.0,0.0,0.0,0.0,0.0,0.0,5.522521e-06,0.0,0.0,nan,0.0,0.0,0.0,0.0,9.073618e-06,inf,0.0,0.0,5.6216835e-05,0.0,0.0,0.0,0.0,0.0,0.0,0.0,0.0
3852000,3772000,3.5055468e-06,0.0,3.2160762e-05,5.425098e-09,0.0,277.57455,0.0,0.0,0.0,0.0,0.0,0.0,0.0,5.522521e-06,0.0,0.0,nan,0.0,0.0,0.0,0.0,9.073618e-06,inf,0.0,0.0,0.0007072344,0.0,0.0,0.0,0.0,0.0,0.0,0.0,0.0
3860000,3780000,3.5055468e-06,0.0,3.2160762e-05,5.425098e-09,0.0,277.57455,0.0,0.0,0.0,0.0,0.0,0.0,0.0,5.522521e-06,0.0,0.0,nan,0.0,0.0,0.0,0.0,9.073618e-06,inf,0.0,0.0,0.00024668328,0.0,0.0,0.0,0.0,0.0,0.0,0.0,0.0
3868000,3788000,3.5055468e-06,0.0,3.2160762e-05,5.425098e-09,0.0,277.57455,0.0,0.0,0.0,0.0,0.0,0.0,0.0,5.522521e-06,0.0,0.0,nan,0.0,0.0,0.0,0.0,0.00087077677,inf,0.0,0.0,0.0006322095,0.0,0.0,0.0,0.0,0.0,0.0,0.0,0.0
3876000,3796000,3.5055468e-06,0.0,3.2160762e-05,5.425098e-09,0.0,277.57455,0.0,0.0,0.0,0.0,0.0,0.0,0.0,5.522521e-06,0.0,0.0,nan,0.0,0.0,0.0,0.0,0.00087077677,inf,0.0,0.0,0.00017564531,0.0,0.0,0.0,0.0,0.0,0.0,0.0,0.0
3884000,3804000,3.5055468e-06,0.0,3.2160762e-05,5.425098e-09,0.0,277.57455,0.0,0.0,0.0,0.0,0.0,0.0,0.0,2.5437582e-06,0.0,0.0,nan,0.0,0.0,0.0,0.0,0.00087077677,inf,0.0,0.0,0.00015883181,0.0,0.0,0.0,0.0,0.0,0.0,0.0,0.0
3892000,3812000,3.5055468e-06,0.0,3.2160762e-05,5.425098e-09,0.0,277.57455,0.0,0.0,0.0,0.0,0.0,0.0,0.0,2.5437582e-06,0.0,0.0,nan,0.0,0.0,0.0,0.0,0.00087077677,inf,0.0,0.0,0.00062327983,0.0,0.0,0.0,0.0,0.0,0.0,0.0,0.0
3900000,3820000,3.5055468e-06,0.0,3.2160762e-05,5.425098e-09,0.0,277.57455,0.0,0.0,0.0,0.0,0.0,0.0,0.0,2.5437582e-06,0.0,0.0,nan,0.0,0.0,0.0,0.0,0.00087077677,inf,0.0,0.0,0.00036097094,0.0,0.0,0.0,0.0,0.0,0.0,0.0,0.0
3908000,3828000,3.5055468e-06,0.0,3.2160762e-05,5.425098e-09,0.0,277.57455,0.0,0.0,0.0,0.0,0.0,0.0,0.0,2.5437582e-06,0.0,0.0,nan,0.0,0.0,0.0,0.0,0.00087077677,inf,0.0,0.0,9.7214055e-05,0.0,0.0,0.0,0.0,0.0,0.0,0.0,0.0
3916000,3836000,3.5055468e-06,0.0,3.2160762e-05,5.425098e-09,0.0,277.57455,0.0,0.0,0.0,0.0,0.0,0.0,0.0,2.5437582e-06,0.0,0.0,nan,0.0,0.0,0.0,0.0,0.00087077677,inf,0.0,0.0,0.0016356916,0.0,0.0,0.0,0.0,0.0,0.0,0.0,0.0
3924000,3844000,3.5055468e-06,0.0,3.2160762e-05,5.425098e-09,0.0,277.57455,0.0,0.0,0.0,0.0,0.0,0.0,0.0,2.5437582e-06,0.0,0.0,nan,0.0,0.0,0.0,0.0,0.00087077677,inf,0.0,0.0,0.0016034938,0.0,0.0,0.0,0.0,0.0,0.0,0.0,0.0
3932000,3852000,3.5055468e-06,0.0,3.2160762e-05,5.425098e-09,0.0,277.57455,0.0,0.0,0.0,0.0,0.0,0.0,0.0,2.5437582e-06,0.0,0.0,nan,0.0,0.0,0.0,0.0,0.00087077677,inf,0.0,0.0,0.0018365034,0.0,0.0,0.0,0.0,0.0,0.0,0.0,0.0
3940000,3860000,3.5055468e-06,0.0,3.2160762e-05,5.425098e-09,0.0,277.57455,0.0,0.0,0.0,0.0,0.0,0.0,0.0,5.094428e-06,0.0,0.0,nan,0.0,0.0,0.0,0.0,0.00032954797,inf,0.0,0.0,0.00015557288,0.0,0.0,0.0,0.0,0.0,0.0,0.0,0.0
3948000,3868000,3.5055468e-06,0.0,3.2160762e-05,5.425098e-09,0.0,277.57455,0.0,0.0,0.0,0.0,0.0,0.0,0.0,5.094428e-06,0.0,0.0,nan,0.0,0.0,0.0,0.0,0.00032954797,inf,0.0,0.0,0.00034328867,0.0,0.0,0.0,0.0,0.0,0.0,0.0,0.0
3956000,3876000,3.5055468e-06,0.0,3.2160762e-05,5.425098e-09,0.0,277.57455,0.0,0.0,0.0,0.0,0.0,0.0,0.0,5.094428e-06,0.0,0.0,nan,0.0,0.0,0.0,0.0,0.00032954797,inf,0.0,0.0,0.00052811665,0.0,0.0,0.0,0.0,0.0,0.0,0.0,0.0
3964000,3884000,3.5055468e-06,0.0,3.2160762e-05,5.425098e-09,0.0,277.57455,0.0,0.0,0.0,0.0,0.0,0.0,0.0,5.094428e-06,0.0,0.0,nan,0.0,0.0,0.0,0.0,0.00032954797,inf,0.0,0.0,0.0024762533,0.0,0.0,0.0,0.0,0.0,0.0,0.0,0.0
3972000,3892000,3.5055468e-06,0.0,3.2160762e-05,5.425098e-09,0.0,277.57455,0.0,0.0,0.0,0.0,0.0,0.0,0.0,5.094428e-06,0.0,0.0,nan,0.0,0.0,0.0,0.0,0.00032954797,inf,0.0,0.0,0.00033072816,0.0,0.0,0.0,0.0,0.0,0.0,0.0,0.0
3980000,3900000,3.5055468e-06,0.0,3.2160762e-05,5.425098e-09,0.0,277.57455,0.0,0.0,0.0,0.0,0.0,0.0,0.0,5.094428e-06,0.0,0.0,nan,0.0,0.0,0.0,0.0,0.00032954797,inf,0.0,0.0,0.00092361995,0.0,0.0,0.0,0.0,0.0,0.0,0.0,0.0
3988000,3908000,3.5055468e-06,0.0,3.2160762e-05,5.425098e-09,0.0,277.57455,0.0,0.0,0.0,0.0,0.0,0.0,0.0,5.094428e-06,0.0,0.0,nan,0.0,0.0,0.0,0.0,0.00032954797,inf,0.0,0.0,0.0005071848,0.0,0.0,0.0,0.0,0.0,0.0,0.0,0.0
3996000,3916000,3.5055468e-06,0.0,3.2160762e-05,5.425098e-09,0.0,277.57455,0.0,0.0,0.0,0.0,0.0,0.0,0.0,5.094428e-06,0.0,0.0,nan,0.0,0.0,0.0,0.0,0.00032954797,inf,0.0,0.0,0.00029714746,0.0,0.0,0.0,0.0,0.0,0.0,0.0,0.0
4004000,3924000,3.5055468e-06,0.0,3.2160762e-05,5.425098e-09,0.0,277.57455,0.0,0.0,0.0,0.0,0.0,0.0,0.0,4.0596093e-05,0.0,0.0,nan,0.0,0.0,0.0,0.0,0.00032954797,inf,0.0,0.0,0.0010177357,0.0,0.0,0.0,0.0,0.0,0.0,0.0,0.0
4012000,3932000,3.5055468e-06,0.0,3.2160762e-05,5.425098e-09,0.0,277.57455,0.0,0.0,0.0,0.0,0.0,0.0,0.0,4.0596093e-05,0.0,0.0,nan,0.0,0.0,0.0,0.0,0.00019620241,inf,0.0,0.0,2.4095134e-05,0.0,0.0,0.0,0.0,0.0,0.0,0.0,0.0
4020000,3940000,3.5055468e-06,0.0,3.2160762e-05,5.425098e-09,0.0,277.57455,0.0,0.0,0.0,0.0,0.0,0.0,0.0,4.0596093e-05,0.0,0.0,nan,0.0,0.0,0.0,0.0,0.00019620241,inf,0.0,0.0,0.000535555,0.0,0.0,0.0,0.0,0.0,0.0,0.0,0.0
4028000,3948000,3.5055468e-06,0.0,3.2160762e-05,5.425098e-09,0.0,277.57455,0.0,0.0,0.0,0.0,0.0,0.0,0.0,4.0596093e-05,0.0,0.0,nan,0.0,0.0,0.0,0.0,0.00019620241,inf,0.0,0.0,6.3334946e-06,0.0,0.0,0.0,0.0,0.0,0.0,0.0,0.0
4036000,3956000,3.5055468e-06,0.0,3.2160762e-05,5.425098e-09,0.0,277.57455,0.0,0.0,0.0,0.0,0.0,0.0,0.0,4.0596093e-05,0.0,0.0,nan,0.0,0.0,0.0,0.0,0.00019620241,inf,0.0,0.0,0.0001765011,0.0,0.0,0.0,0.0,0.0,0.0,0.0,0.0
4044000,3964000,3.5055468e-06,0.0,3.2160762e-05,5.425098e-09,0.0,277.57455,0.0,0.0,0.0,0.0,0.0,0.0,0.0,4.0596093e-05,0.0,0.0,nan,0.0,0.0,0.0,0.0,0.00019620241,inf,0.0,0.0,2.953e-05,0.0,0.0,0.0,0.0,0.0,0.0,0.0,0.0
4052000,3972000,3.5055468e-06,0.0,3.2160762e-05,5.425098e-09,0.0,277.57455,0.0,0.0,0.0,0.0,0.0,0.0,0.0,4.0596093e-05,0.0,0.0,nan,0.0,0.0,0.0,0.0,0.00019620241,inf,0.0,0.0,0.00017390763,0.0,0.0,0.0,0.0,0.0,0.0,0.0,0.0
4060000,3980000,3.5055468e-06,0.0,3.2160762e-05,5.425098e-09,0.0,277.57455,0.0,0.0,0.0,0.0,0.0,0.0,0.0,5.913324e-06,0.0,0.0,nan,0.0,0.0,0.0,0.0,0.00019620241,inf,0.0,0.0,1.0657182e-05,0.0,0.0,0.0,0.0,0.0,0.0,0.0,0.0
4068000,3988000,3.5055468e-06,0.0,3.2160762e-05,5.425098e-09,0.0,277.57455,0.0,0.0,0.0,0.0,0.0,0.0,0.0,5.913324e-06,0.0,0.0,nan,0.0,0.0,0.0,0.0,0.00019620241,inf,0.0,0.0,5.495648e-05,0.0,0.0,0.0,0.0,0.0,0.0,0.0,0.0
4076000,3996000,3.5055468e-06,0.0,3.2160762e-05,5.425098e-09,0.0,277.57455,0.0,0.0,0.0,0.0,0.0,0.0,0.0,5.913324e-06,0.0,0.0,nan,0.0,0.0,0.0,0.0,0.00019620241,inf,0.0,0.0,0.0003573071,0.0,0.0,0.0,0.0,0.0,0.0,0.0,0.0
4084000,4004000,3.5055468e-06,0.0,3.2160762e-05,5.425098e-09,0.0,277.57455,0.0,0.0,0.0,0.0,0.0,0.0,0.0,5.913324e-06,0.0,0.0,nan,0.0,0.0,0.0,0.0,0.00024412082,inf,0.0,0.0,0.0003023551,0.0,0.0,0.0,0.0,0.0,0.0,0.0,0.0
4092000,4012000,3.5055468e-06,0.0,3.2160762e-05,5.425098e-09,0.0,277.57455,0.0,0.0,0.0,0.0,0.0,0.0,0.0,5.913324e-06,0.0,0.0,nan,0.0,0.0,0.0,0.0,0.00024412082,inf,0.0,0.0,0.00036784704,0.0,0.0,0.0,0.0,0.0,0.0,0.0,0.0
4100000,4020000,3.5055468e-06,0.0,3.2160762e-05,5.425098e-09,0.0,277.57455,0.0,0.0,0.0,0.0,0.0,0.0,0.0,5.913324e-06,0.0,0.0,nan,0.0,0.0,0.0,0.0,0.00024412082,inf,0.0,0.0,3.5279332e-05,0.0,0.0,0.0,0.0,0.0,0.0,0.0,0.0
4108000,4028000,3.5055468e-06,0.0,3.2160762e-05,5.425098e-09,0.0,277.57455,0.0,0.0,0.0,0.0,0.0,0.0,0.0,5.913324e-06,0.0,0.0,nan,0.0,0.0,0.0,0.0,0.00024412082,inf,0.0,0.0,0.000101246726,0.0,0.0,0.0,0.0,0.0,0.0,0.0,0.0
4116000,4036000,3.5055468e-06,0.0,3.2160762e-05,5.425098e-09,0.0,277.57455,0.0,0.0,0.0,0.0,0.0,0.0,0.0,5.913324e-06,0.0,0.0,nan,0.0,0.0,0.0,0.0,0.00024412082,inf,0.0,0.0,0.00013788788,0.0,0.0,0.0,0.0,0.0,0.0,0.0,0.0
4124000,4044000,3.5055468e-06,0.0,3.2160762e-05,5.425098e-09,0.0,277.57455,0.0,0.0,0.0,0.0,0.0,0.0,0.0,1.8764539e-06,0.0,0.0,nan,0.0,0.0,0.0,0.0,0.00024412082,inf,0.0,0.0,0.00022823838,0.0,0.0,0.0,0.0,0.0,0.0,0.0,0.0
4132000,4052000,3.5055468e-06,0.0,3.2160762e-05,5.425098e-09,0.0,277.57455,0.0,0.0,0.0,0.0,0.0,0.0,0.0,1.8764539e-06,0.0,0.0,nan,0.0,0.0,0.0,0.0,0.00024412082,inf,0.0,0.0,0.00030279788,0.0,0.0,0.0,0.0,0.0,0.0,0.0,0.0
4140000,4060000,3.5055468e-06,0.0,3.2160762e-05,5.425098e-09,0.0,277.57455,0.0,0.0,0.0,0.0,0.0,0.0,0.0,1.8764539e-06,0.0,0.0,nan,0.0,0.0,0.0,0.0,0.00024412082,inf,0.0,0.0,7.688484e-05,0.0,0.0,0.0,0.0,0.0,0.0,0.0,0.0
4148000,4068000,3.5055468e-06,0.0,3.2160762e-05,5.425098e-09,0.0,277.57455,0.0,0.0,0.0,0.0,0.0,0.0,0.0,1.8764539e-06,0.0,0.0,nan,0.0,0.0,0.0,0.0,0.00024412082,inf,0.0,0.0,5.6329377e-06,0.0,0.0,0.0,0.0,0.0,0.0,0.0,0.0
4156000,4076000,3.5055468e-06,0.0,3.2160762e-05,5.425098e-09,0.0,277.57455,0.0,0.0,0.0,0.0,0.0,0.0,0.0,1.8764539e-06,0.0,0.0,nan,0.0,0.0,0.0,0.0,3.9461715e-06,inf,0.0,0.0,0.00017867809,0.0,0.0,0.0,0.0,0.0,0.0,0.0,0.0
4164000,4084000,3.5055468e-06,0.0,3.2160762e-05,5.425098e-09,0.0,277.57455,0.0,0.0,0.0,0.0,0.0,0.0,0.0,1.8764539e-06,0.0,0.0,nan,0.0,0.0,0.0,0.0,3.9461715e-06,inf,0.0,0.0,0.0005695648,0.0,0.0,0.0,0.0,0.0,0.0,0.0,0.0
4172000,4092000,3.5055468e-06,0.0,3.2160762e-05,5.425098e-09,0.0,277.57455,0.0,0.0,0.0,0.0,0.0,0.0,0.0,1.8764539e-06,0.0,0.0,nan,0.0,0.0,0.0,0.0,3.9461715e-06,inf,0.0,0.0,0.00030175457,0.0,0.0,0.0,0.0,0.0,0.0,0.0,0.0
4180000,4100000,3.5055468e-06,0.0,3.2160762e-05,5.425098e-09,0.0,277.57455,0.0,0.0,0.0,0.0,0.0,0.0,0.0,9.390455e-06,0.0,0.0,nan,0.0,0.0,0.0,0.0,3.9461715e-06,inf,0.0,0.0,0.00073127565,0.0,0.0,0.0,0.0,0.0,0.0,0.0,0.0
4188000,4108000,3.5055468e-06,0.0,3.2160762e-05,5.425098e-09,0.0,277.57455,0.0,0.0,0.0,0.0,0.0,0.0,0.0,9.390455e-06,0.0,0.0,nan,0.0,0.0,0.0,0.0,3.9461715e-06,inf,0.0,0.0,0.00013544023,0.0,0.0,0.0,0.0,0.0,0.0,0.0,0.0
4196000,4116000,3.5055468e-06,0.0,3.2160762e-05,5.425098e-09,0.0,277.57455,0.0,0.0,0.0,0.0,0.0,0.0,0.0,9.390455e-06,0.0,0.0,nan,0.0,0.0,0.0,0.0,3.9461715e-06,inf,0.0,0.0,0.0011016888,0.0,0.0,0.0,0.0,0.0,0.0,0.0,0.0
4204000,4124000,1.2799569e-05,0.0,9.234255e-05,1.3908585e-08,0.0,1.1828012e-10,0.0,0.0,0.0,0.0,0.0,0.0,0.0,9.390455e-06,0.0,0.0,nan,0.0,0.0,0.0,0.0,3.9461715e-06,inf,0.0,0.0,0.0005822257,0.0,0.0,0.0,0.0,0.0,0.0,0.0,0.0
4212000,4132000,1.2799569e-05,0.0,9.234255e-05,1.3908585e-08,0.0,1.1828012e-10,0.0,0.0,0.0,0.0,0.0,0.0,0.0,9.390455e-06,0.0,0.0,nan,0.0,0.0,0.0,0.0,3.9461715e-06,inf,0.0,0.0,0.00018543153,0.0,0.0,0.0,0.0,0.0,0.0,0.0,0.0
4220000,4140000,1.2799569e-05,0.0,9.234255e-05,1.3908585e-08,0.0,1.1828012e-10,0.0,0.0,0.0,0.0,0.0,0.0,0.0,9.390455e-06,0.0,0.0,nan,0.0,0.0,0.0,0.0,3.9461715e-06,inf,0.0,0.0,0.00056198187,0.0,0.0,0.0,0.0,0.0,0.0,0.0,0.0
4228000,4148000,1.2799569e-05,0.0,9.234255e-05,1.3908585e-08,0.0,1.1828012e-10,0.0,0.0,0.0,0.0,0.0,0.0,0.0,9.390455e-06,0.0,0.0,nan,0.0,0.0,0.0,0.0,7.4672835e-06,inf,0.0,0.0,0.00081407605,0.0,0.0,0.0,0.0,0.0,0.0,0.0,0.0
4236000,4156000,1.2799569e-05,0.0,9.234255e-05,1.3908585e-08,0.0,1.1828012e-10,0.0,0.0,0.0,0.0,0.0,0.0,0.0,9.390455e-06,0.0,0.0,nan,0.0,0.0,0.0,0.0,7.4672835e-06,inf,0.0,0.0,0.00045904203,0.0,0.0,0.0,0.0,0.0,0.0,0.0,0.0
4244000,4164000,1.2799569e-05,0.0,9.234255e-05,1.3908585e-08,0.0,1.1828012e-10,0.0,0.0,0.0,0.0,0.0,0.0,0.0,0.00017419334,0.0,0.0,nan,0.0,0.0,0.0,0.0,7.4672835e-06,inf,0.0,0.0,0.00031407896,0.0,0.0,0.0,0.0,0.0,0.0,0.0,0.0
4252000,4172000,1.2799569e-05,0.0,9.234255e-05,1.3908585e-08,0.0,1.1828012e-10,0.0,0.0,0.0,0.0,0.0,0.0,0.0,0.00017419334,0.0,0.0,nan,0.0,0.0,0.0,0.0,7.4672835e-06,inf,0.0,0.0,5.968501e-05,0.0,0.0,0.0,0.0,0.0,0.0,0.0,0.0
4260000,4180000,1.2799569e-05,0.0,9.234255e-05,1.3908585e-08,0.0,1.1828012e-10,0.0,0.0,0.0,0.0,0.0,0.0,0.0,0.00017419334,0.0,0.0,nan,0.0,0.0,0.0,0.0,7.4672835e-06,inf,0.0,0.0,0.00015765801,0.0,0.0,0.0,0.0,0.0,0.0,0.0,0.0
4268000,4188000,1.2799569e-05,0.0,9.234255e-05,1.3908585e-08,0.0,1.1828012e-10,0.0,0.0,0.0,0.0,0.0,0.0,0.0,0.00017419334,0.0,0.0,nan,0.0,0.0,0.0,0.0,7.4672835e-06,inf,0.0,0.0,0.00054562197,0.0,0.0,0.0,0.0,0.0,0.0,0.0,0.0
4276000,4196000,1.2799569e-05,0.0,9.234255e-05,1.3908585e-08,0.0,1.1828012e-10,0.0,0.0,0.0,0.0,0.0,0.0,0.0,0.00017419334,0.0,0.0,nan,0.0,0.0,0.0,0.0,7.4672835e-06,inf,0.0,0.0,0.00036666184,0.0,0.0,0.0,0.0,0.0,0.0,0.0,0.0
4284000,4204000,1.2799569e-05,0.0,9.234255e-05,1.3908585e-08,0.0,1.1828012e-10,0.0,0.0,0.0,0.0,0.0,0.0,0.0,0.00017419334,0.0,0.0,nan,0.0,0.0,0.0,0.0,7.4672835e-06,inf,0.0,0.0,0.00028907685,0.0,0.0,0.0,0.0,0.0,0.0,0.0,0.0
4292000,4212000,1.2799569e-05,0.0,9.234255e-05,1.3908585e-08,0.0,1.1828012e-10,0.0,0.0,0.0,0.0,0.0,0.0,0.0,0.00017419334,0.0,0.0,nan,0.0,0.0,0.0,0.0,7.4672835e-06,inf,0.0,0.0,0.0005282147,0.0,0.0,0.0,0.0,0.0,0.0,0.0,0.0
4300000,4220000,1.2799569e-05,0.0,9.234255e-05,1.3908585e-08,0.0,1.1828012e-10,0.0,0.0,0.0,0.0,0.0,0.0,0.0,7.0964143e-06,0.0,0.0,nan,0.0,0.0,0.0,0.0,0.00020413738,inf,0.0,0.0,0.0005080728,0.0,0.0,0.0,0.0,0.0,0.0,0.0,0.0
4308000,4228000,1.2799569e-05,0.0,9.234255e-05,1.3908585e-08,0.0,1.1828012e-10,0.0,0.0,0.0,0.0,0.0,0.0,0.0,7.0964143e-06,0.0,0.0,nan,0.0,0.0,0.0,0.0,0.00020413738,inf,0.0,0.0,0.0004887983,0.0,0.0,0.0,0.0,0.0,0.0,0.0,0.0
4316000,4236000,1.2799569e-05,0.0,9.234255e-05,1.3908585e-08,0.0,1.1828012e-10,0.0,0.0,0.0,0.0,0.0,0.0,0.0,7.0964143e-06,0.0,0.0,nan,0.0,0.0,0.0,0.0,0.00020413738,inf,0.0,0.0,0.00041811896,0.0,0.0,0.0,0.0,0.0,0.0,0.0,0.0
4324000,4244000,1.2799569e-05,0.0,9.234255e-05,1.3908585e-08,0.0,1.1828012e-10,0.0,0.0,0.0,0.0,0.0,0.0,0.0,7.0964143e-06,0.0,0.0,nan,0.0,0.0,0.0,0.0,0.00020413738,inf,0.0,0.0,0.0005075203,0.0,0.0,0.0,0.0,0.0,0.0,0.0,0.0
4332000,4252000,1.2799569e-05,0.0,9.234255e-05,1.3908585e-08,0.0,1.1828012e-10,0.0,0.0,0.0,0.0,0.0,0.0,0.0,7.0964143e-06,0.0,0.0,nan,0.0,0.0,0.0,0.0,0.00020413738,inf,0.0,0.0,0.00022661289,0.0,0.0,0.0,0.0,0.0,0.0,0.0,0.0
4340000,4260000,1.2799569e-05,0.0,9.234255e-05,1.3908585e-08,0.0,1.1828012e-10,0.0,0.0,0.0,0.0,0.0,0.0,0.0,7.0964143e-06,0.0,0.0,nan,0.0,0.0,0.0,0.0,0.00020413738,inf,0.0,0.0,0.0004566329,0.0,0.0,0.0,0.0,0.0,0.0,0.0,0.0
4348000,4268000,1.2799569e-05,0.0,9.234255e-05,1.3908585e-08,0.0,1.1828012e-10,0.0,0.0,0.0,0.0,0.0,0.0,0.0,7.0964143e-06,0.0,0.0,nan,0.0,0.0,0.0,0.0,0.00020413738,inf,0.0,0.0,0.0005281114,0.0,0.0,0.0,0.0,0.0,0.0,0.0,0.0
4356000,4276000,1.2799569e-05,0.0,9.234255e-05,1.3908585e-08,0.0,1.1828012e-10,0.0,0.0,0.0,0.0,0.0,0.0,0.0,7.0964143e-06,0.0,0.0,nan,0.0,0.0,0.0,0.0,0.00020413738,inf,0.0,0.0,5.3818952e-05,0.0,0.0,0.0,0.0,0.0,0.0,0.0,0.0
4364000,4284000,1.2799569e-05,0.0,9.234255e-05,1.3908585e-08,0.0,1.1828012e-10,0.0,0.0,0.0,0.0,0.0,0.0,0.0,3.0311826e-06,0.0,0.0,nan,0.0,0.0,0.0,0.0,0.00020413738,inf,0.0,0.0,0.00013864989,0.0,0.0,0.0,0.0,0.0,0.0,0.0,0.0
4372000,4292000,1.2799569e-05,0.0,9.234255e-05,1.3908585e-08,0.0,1.1828012e-10,0.0,0.0,0.0,0.0,0.0,0.0,0.0,3.0311826e-06,0.0,0.0,nan,0.0,0.0,0.0,0.0,2.75137e-05,inf,0.0,0.0,0.0002640766,0.0,0.0,0.0,0.0,0.0,0.0,0.0,0.0
4380000,4300000,1.2799569e-05,0.0,9.234255e-05,1.3908585e-08,0.0,1.1828012e-10,0.0,0.0,0.0,0.0,0.0,0.0,0.0,3.0311826e-06,0.0,0.0,nan,0.0,0.0,0.0,0.0,2.75137e-05,inf,0.0,0.0,4.2802472e-05,0.0,0.0,0.0,0.0,0.0,0.0,0.0,0.0
4388000,4308000,1.2799569e-05,0.0,9.234255e-05,1.3908585e-08,0.0,1.1828012e-10,0.0,0.0,0.0,0.0,0.0,0.0,0.0,3.0311826e-06,0.0,0.0,nan,0.0,0.0,0.0,0.0,2.75137e-05,inf,0.0,0.0,7.061629e-05,0.0,0.0,0.0,0.0,0.0,0.0,0.0,0.0
4396000,4316000,1.2799569e-05,0.0,9.234255e-05,1.3908585e-08,0.0,1.1828012e-10,0.0,0.0,0.0,0.0,0.0,0.0,0.0,3.0311826e-06,0.0,0.0,nan,0.0,0.0,0.0,0.0,2.75137e-05,inf,0.0,0.0,0.0001915724,0.0,0.0,0.0,0.0,0.0,0.0,0.0,0.0
4404000,4324000,1.2799569e-05,0.0,9.234255e-05,1.3908585e-08,0.0,1.1828012e-10,0.0,0.0,0.0,0.0,0.0,0.0,0.0,3.0311826e-06,0.0,0.0,nan,0.0,0.0,0.0,0.0,2.75137e-05,inf,0.0,0.0,0.000553887,0.0,0.0,0.0,0.0,0.0,0.0,0.0,0.0
4412000,4332000,1.2799569e-05,0.0,9.234255e-05,1.3908585e-08,0.0,1.1828012e-10,0.0,0.0,0.0,0.0,0.0,0.0,0.0,3.0311826e-06,0.0,0.0,nan,0.0,0.0,0.0,0.0,2.75137e-05,inf,0.0,0.0,0.0001580029,0.0,0.0,0.0,0.0,0.0,0.0,0.0,0.0
4420000,4340000,1.2799569e-05,0.0,9.234255e-05,1.3908585e-08,0.0,1.1828012e-10,0.0,0.0,0.0,0.0,0.0,0.0,0.0,3.711915e-08,0.0,0.0,nan,0.0,0.0,0.0,0.0,2.75137e-05,inf,0.0,0.0,0.0002260013,0.0,0.0,0.0,0.0,0.0,0.0,0.0,0.0
4428000,4348000,1.2799569e-05,0.0,9.234255e-05,1.3908585e-08,0.0,1.1828012e-10,0.0,0.0,0.0,0.0,0.0,0.0,0.0,3.711915e-08,0.0,0.0,nan,0.0,0.0,0.0,0.0,2.75137e-05,inf,0.0,0.0,0.00022306616,0.0,0.0,0.0,0.0,0.0,0.0,0.0,0.0
4436000,4356000,1.2799569e-05,0.0,9.234255e-05,1.3908585e-08,0.0,1.1828012e-10,0.0,0.0,0.0,0.0,0.0,0.0,0.0,3.711915e-08,0.0,0.0,nan,0.0,0.0,0.0,0.0,2.75137e-05,inf,0.0,0.0,6.3308646e-05,0.0,0.0,0.0,0.0,0.0,0.0,0.0,0.0
4444000,4364000,1.2799569e-05,0.0,9.234255e-05,1.3908585e-08,0.0,1.1828012e-10,0.0,0.0,0.0,0.0,0.0,0.0,0.0,3.711915e-08,0.0,0.0,nan,0.0,0.0,0.0,0.0,0.00015696244,inf,0.0,0.0,0.00084854674,0.0,0.0,0.0,0.0,0.0,0.0,0.0,0.0
4452000,4372000,1.2799569e-05,0.0,9.234255e-05,1.3908585e-08,0.0,1.1828012e-10,0.0,0.0,0.0,0.0,0.0,0.0,0.0,3.711915e-08,0.0,0.0,nan,0.0,0.0,0.0,0.0,0.00015696244,inf,0.0,0.0,0.00013419552,0.0,0.0,0.0,0.0,0.0,0.0,0.0,0.0
4460000,4380000,1.2799569e-05,0.0,9.234255e-05,1.3908585e-08,0.0,1.1828012e-10,0.0,0.0,0.0,0.0,0.0,0.0,0.0,3.711915e-08,0.0,0.0,nan,0.0,0.0,0.0,0.0,0.00015696244,inf,0.0,0.0,0.00056444854,0.0,0.0,0.0,0.0,0.0,0.0,0.0,0.0
4468000,4388000,1.2799569e-05,0.0,9.234255e-05,1.3908585e-08,0.0,1.1828012e-10,0.0,0.0,0.0,0.0,0.0,0.0,0.0,3.711915e-08,0.0,0.0,nan,0.0,0.0,0.0,0.0,0.00015696244,inf,0.0,0.0,0.0014615327,0.0,0.0,0.0,0.0,0.0,0.0,0.0,0.0
4476000,4396000,1.2799569e-05,0.0,9.234255e-05,1.3908585e-08,0.0,1.1828012e-10,0.0,0.0,0.0,0.0,0.0,0.0,0.0,3.711915e-08,0.0,0.0,nan,0.0,0.0,0.0,0.0,0.00015696244,inf,0.0,0.0,0.00081733055,0.0,0.0,0.0,0.0,0.0,0.0,0.0,0.0
4484000,4404000,1.2799569e-05,0.0,9.234255e-05,1.3908585e-08,0.0,1.1828012e-10,0.0,0.0,0.0,0.0,0.0,0.0,0.0,1.9693744e-05,0.0,0.0,nan,0.0,0.0,0.0,0.0,0.00015696244,inf,0.0,0.0,0.00015243083,0.0,0.0,0.0,0.0,0.0,0.0,0.0,0.0
4492000,4412000,1.2799569e-05,0.0,9.234255e-05,1.3908585e-08,0.0,1.1828012e-10,0.0,0.0,0.0,0.0,0.0,0.0,0.0,1.9693744e-05,0.0,0.0,nan,0.0,0.0,0.0,0.0,0.00015696244,inf,0.0,0.0,0.00014818631,0.0,0.0,0.0,0.0,0.0,0.0,0.0,0.0
4500000,4420000,1.2799569e-05,0.0,9.234255e-05,1.3908585e-08,0.0,1.1828012e-10,0.0,0.0,0.0,0.0,0.0,0.0,0.0,1.9693744e-05,0.0,0.0,nan,0.0,0.0,0.0,0.0,0.00015696244,inf,0.0,0.0,0.00027213126,0.0,0.0,0.0,0.0,0.0,0.0,0.0,0.0
4508000,4428000,1.2799569e-05,0.0,9.234255e-05,1.3908585e-08,0.0,1.1828012e-10,0.0,0.0,0.0,0.0,0.0,0.0,0.0,1.9693744e-05,0.0,0.0,nan,0.0,0.0,0.0,0.0,0.00015696244,inf,0.0,0.0,0.00024368607,0.0,0.0,0.0,0.0,0.0,0.0,0.0,0.0
4516000,4436000,1.2799569e-05,0.0,9.234255e-05,1.3908585e-08,0.0,1.1828012e-10,0.0,0.0,0.0,0.0,0.0,0.0,0.0,1.9693744e-05,0.0,0.0,nan,0.0,0.0,0.0,0.0,3.3439267e-08,inf,0.0,0.0,0.0001435599,0.0,0.0,0.0,0.0,0.0,0.0,0.0,0.0
4524000,4444000,1.2799569e-05,0.0,9.234255e-05,1.3908585e-08,0.0,1.1828012e-10,0.0,0.0,0.0,0.0,0.0,0.0,0.0,1.9693744e-05,0.0,0.0,nan,0.0,0.0,0.0,0.0,3.3439267e-08,inf,0.0,0.0,0.0010508139,0.0,0.0,0.0,0.0,0.0,0.0,0.0,0.0
4532000,4452000,1.2799569e-05,0.0,9.234255e-05,1.3908585e-08,0.0,1.1828012e-10,0.0,0.0,0.0,0.0,0.0,0.0,0.0,1.9693744e-05,0.0,0.0,nan,0.0,0.0,0.0,0.0,3.3439267e-08,inf,0.0,0.0,0.000104142724,0.0,0.0,0.0,0.0,0.0,0.0,0.0,0.0
4540000,4460000,1.2799569e-05,0.0,9.234255e-05,1.3908585e-08,0.0,1.1828012e-10,0.0,0.0,0.0,0.0,0.0,0.0,0.0,2.2989985e-07,0.0,0.0,nan,0.0,0.0,0.0,0.0,3.3439267e-08,inf,0.0,0.0,9.435991e-05,0.0,0.0,0.0,0.0,0.0,0.0,0.0,0.0
4548000,4468000,1.2799569e-05,0.0,9.234255e-05,1.3908585e-08,0.0,1.1828012e-10,0.0,0.0,0.0,0.0,0.0,0.0,0.0,2.2989985e-07,0.0,0.0,nan,0.0,0.0,0.0,0.0,3.3439267e-08,inf,0.0,0.0,0.000513327,0.0,0.0,0.0,0.0,0.0,0.0,0.0,0.0
4556000,4476000,1.2799569e-05,0.0,9.234255e-05,1.3908585e-08,0.0,1.1828012e-10,0.0,0.0,0.0,0.0,0.0,0.0,0.0,2.2989985e-07,0.0,0.0,nan,0.0,0.0,0.0,0.0,3.3439267e-08,inf,0.0,0.0,0.00027528362,0.0,0.0,0.0,0.0,0.0,0.0,0.0,0.0
4564000,4484000,1.2799569e-05,0.0,9.234255e-05,1.3908585e-08,0.0,1.1828012e-10,0.0,0.0,0.0,0.0,0.0,0.0,0.0,2.2989985e-07,0.0,0.0,nan,0.0,0.0,0.0,0.0,3.3439267e-08,inf,0.0,0.0,0.00025679107,0.0,0.0,0.0,0.0,0.0,0.0,0.0,0.0
4572000,4492000,1.2799569e-05,0.0,9.234255e-05,1.3908585e-08,0.0,1.1828012e-10,0.0,0.0,0.0,0.0,0.0,0.0,0.0,2.2989985e-07,0.0,0.0,nan,0.0,0.0,0.0,0.0,3.3439267e-08,inf,0.0,0.0,0.00026382215,0.0,0.0,0.0,0.0,0.0,0.0,0.0,0.0
4580000,4500000,1.2799569e-05,0.0,9.234255e-05,1.3908585e-08,0.0,1.1828012e-10,0.0,0.0,0.0,0.0,0.0,0.0,0.0,2.2989985e-07,0.0,0.0,nan,0.0,0.0,0.0,0.0,3.3439267e-08,inf,0.0,0.0,0.00010496589,0.0,0.0,0.0,0.0,0.0,0.0,0.0,0.0
4588000,4508000,1.2799569e-05,0.0,9.234255e-05,1.3908585e-08,0.0,1.1828012e-10,0.0,0.0,0.0,0.0,0.0,0.0,0.0,2.2989985e-07,0.0,0.0,nan,0.0,0.0,0.0,0.0,5.2292415e-07,inf,0.0,0.0,0.00072386704,0.0,0.0,0.0,0.0,0.0,0.0,0.0,0.0
4596000,4516000,1.2799569e-05,0.0,9.234255e-05,1.3908585e-08,0.0,1.1828012e-10,0.0,0.0,0.0,0.0,0.0,0.0,0.0,2.2989985e-07,0.0,0.0,nan,0.0,0.0,0.0,0.0,5.2292415e-07,inf,0.0,0.0,0.0012594927,0.0,0.0,0.0,0.0,0.0,0.0,0.0,0.0
4604000,4524000,0.00013167561,0.0,0.00014482083,2.0957998e-06,0.0,5.249292e-05,0.0,0.0,0.0,0.0,0.0,0.0,0.0,4.781448e-05,0.0,0.0,nan,0.0,0.0,0.0,0.0,5.2292415e-07,inf,0.0,0.0,0.00046066512,0.0,0.0,0.0,0.0,0.0,0.0,0.0,0.0
4612000,4532000,0.00013167561,0.0,0.00014482083,2.0957998e-06,0.0,5.249292e-05,0.0,0.0,0.0,0.0,0.0,0.0,0.0,4.781448e-05,0.0,0.0,nan,0.0,0.0,0.0,0.0,5.2292415e-07,inf,0.0,0.0,0.00012456575,0.0,0.0,0.0,0.0,0.0,0.0,0.0,0.0
4620000,4540000,0.00013167561,0.0,0.00014482083,2.0957998e-06,0.0,5.249292e-05,0.0,0.0,0.0,0.0,0.0,0.0,0.0,4.781448e-05,0.0,0.0,nan,0.0,0.0,0.0,0.0,5.2292415e-07,inf,0.0,0.0,3.892642e-05,0.0,0.0,0.0,0.0,0.0,0.0,0.0,0.0
4628000,4548000,0.00013167561,0.0,0.00014482083,2.0957998e-06,0.0,5.249292e-05,0.0,0.0,0.0,0.0,0.0,0.0,0.0,4.781448e-05,0.0,0.0,nan,0.0,0.0,0.0,0.0,5.2292415e-07,inf,0.0,0.0,0.0018672819,0.0,0.0,0.0,0.0,0.0,0.0,0.0,0.0
4636000,4556000,0.00013167561,0.0,0.00014482083,2.0957998e-06,0.0,5.249292e-05,0.0,0.0,0.0,0.0,0.0,0.0,0.0,4.781448e-05,0.0,0.0,nan,0.0,0.0,0.0,0.0,5.2292415e-07,inf,0.0,0.0,0.00035531065,0.0,0.0,0.0,0.0,0.0,0.0,0.0,0.0
4644000,4564000,0.00013167561,0.0,0.00014482083,2.0957998e-06,0.0,5.249292e-05,0.0,0.0,0.0,0.0,0.0,0.0,0.0,4.781448e-05,0.0,0.0,nan,0.0,0.0,0.0,0.0,5.2292415e-07,inf,0.0,0.0,0.00078443764,0.0,0.0,0.0,0.0,0.0,0.0,0.0,0.0
4652000,4572000,0.00013167561,0.0,0.00014482083,2.0957998e-06,0.0,5.249292e-05,0.0,0.0,0.0,0.0,0.0,0.0,0.0,4.781448e-05,0.0,0.0,nan,0.0,0.0,0.0,0.0,5.2292415e-07,inf,0.0,0.0,0.0001334127,0.0,0.0,0.0,0.0,0.0,0.0,0.0,0.0
4660000,4580000,0.00013167561,0.0,0.00014482083,2.0957998e-06,0.0,5.249292e-05,0.0,0.0,0.0,0.0,0.0,0.0,0.0,5.066052e-08,0.0,0.0,nan,0.0,0.0,0.0,0.0,0.00010007949,inf,0.0,0.0,0.0015252334,0.0,0.0,0.0,0.0,0.0,0.0,0.0,0.0
4668000,4588000,0.00013167561,0.0,0.00014482083,2.0957998e-06,0.0,5.249292e-05,0.0,0.0,0.0,0.0,0.0,0.0,0.0,5.066052e-08,0.0,0.0,nan,0.0,0.0,0.0,0.0,0.00010007949,inf,0.0,0.0,8.290387e-05,0.0,0.0,0.0,0.0,0.0,0.0,0.0,0.0
4676000,4596000,0.00013167561,0.0,0.00014482083,2.0957998e-06,0.0,5.249292e-05,0.0,0.0,0.0,0.0,0.0,0.0,0.0,5.066052e-08,0.0,0.0,nan,0.0,0.0,0.0,0.0,0.00010007949,inf,0.0,0.0,0.00048788043,0.0,0.0,0.0,0.0,0.0,0.0,0.0,0.0
4684000,4604000,0.00013167561,0.0,0.00014482083,2.0957998e-06,0.0,5.249292e-05,0.0,0.0,0.0,0.0,0.0,0.0,0.0,5.066052e-08,0.0,0.0,nan,0.0,0.0,0.0,0.0,0.00010007949,inf,0.0,0.0,0.00020825083,0.0,0.0,0.0,0.0,0.0,0.0,0.0,0.0
4692000,4612000,0.00013167561,0.0,0.00014482083,2.0957998e-06,0.0,5.249292e-05,0.0,0.0,0.0,0.0,0.0,0.0,0.0,5.066052e-08,0.0,0.0,nan,0.0,0.0,0.0,0.0,0.00010007949,inf,0.0,0.0,0.0013989197,0.0,0.0,0.0,0.0,0.0,0.0,0.0,0.0
4700000,4620000,0.00013167561,0.0,0.00014482083,2.0957998e-06,0.0,5.249292e-05,0.0,0.0,0.0,0.0,0.0,0.0,0.0,5.066052e-08,0.0,0.0,nan,0.0,0.0,0.0,0.0,0.00010007949,inf,0.0,0.0,0.00094365893,0.0,0.0,0.0,0.0,0.0,0.0,0.0,0.0
4708000,4628000,0.00013167561,0.0,0.00014482083,2.0957998e-06,0.0,5.249292e-05,0.0,0.0,0.0,0.0,0.0,0.0,0.0,5.066052e-08,0.0,0.0,nan,0.0,0.0,0.0,0.0,0.00010007949,inf,0.0,0.0,0.00073777407,0.0,0.0,0.0,0.0,0.0,0.0,0.0,0.0
4716000,4636000,0.00013167561,0.0,0.00014482083,2.0957998e-06,0.0,5.249292e-05,0.0,0.0,0.0,0.0,0.0,0.0,0.0,5.066052e-08,0.0,0.0,nan,0.0,0.0,0.0,0.0,0.00010007949,inf,0.0,0.0,0.0009373375,0.0,0.0,0.0,0.0,0.0,0.0,0.0,0.0
4724000,4644000,0.00013167561,0.0,0.00014482083,2.0957998e-06,0.0,5.249292e-05,0.0,0.0,0.0,0.0,0.0,0.0,0.0,1.75634e-05,0.0,0.0,nan,0.0,0.0,0.0,0.0,0.00010007949,inf,0.0,0.0,0.0004086356,0.0,0.0,0.0,0.0,0.0,0.0,0.0,0.0
4732000,4652000,0.00013167561,0.0,0.00014482083,2.0957998e-06,0.0,5.249292e-05,0.0,0.0,0.0,0.0,0.0,0.0,0.0,1.75634e-05,0.0,0.0,nan,0.0,0.0,0.0,0.0,0.0024065073,inf,0.0,0.0,1.5384758e-05,0.0,0.0,0.0,0.0,0.0,0.0,0.0,0.0
4740000,4660000,0.00013167561,0.0,0.00014482083,2.0957998e-06,0.0,5.249292e-05,0.0,0.0,0.0,0.0,0.0,0.0,0.0,1.75634e-05,0.0,0.0,nan,0.0,0.0,0.0,0.0,0.0024065073,inf,0.0,0.0,0.00017875104,0.0,0.0,0.0,0.0,0.0,0.0,0.0,0.0
4748000,4668000,0.00013167561,0.0,0.00014482083,2.0957998e-06,0.0,5.249292e-05,0.0,0.0,0.0,0.0,0.0,0.0,0.0,1.75634e-05,0.0,0.0,nan,0.0,0.0,0.0,0.0,0.0024065073,inf,0.0,0.0,0.0001859445,0.0,0.0,0.0,0.0,0.0,0.0,0.0,0.0
4756000,4676000,0.00013167561,0.0,0.00014482083,2.0957998e-06,0.0,5.249292e-05,0.0,0.0,0.0,0.0,0.0,0.0,0.0,1.75634e-05,0.0,0.0,nan,0.0,0.0,0.0,0.0,0.0024065073,inf,0.0,0.0,0.00035256814,0.0,0.0,0.0,0.0,0.0,0.0,0.0,0.0
4764000,4684000,0.00013167561,0.0,0.00014482083,2.0957998e-06,0.0,5.249292e-05,0.0,0.0,0.0,0.0,0.0,0.0,0.0,1.75634e-05,0.0,0.0,nan,0.0,0.0,0.0,0.0,0.0024065073,inf,0.0,0.0,0.0008354082,0.0,0.0,0.0,0.0,0.0,0.0,0.0,0.0
4772000,4692000,0.00013167561,0.0,0.00014482083,2.0957998e-06,0.0,5.249292e-05,0.0,0.0,0.0,0.0,0.0,0.0,0.0,1.75634e-05,0.0,0.0,nan,0.0,0.0,0.0,0.0,0.0024065073,inf,0.0,0.0,0.00030658027,0.0,0.0,0.0,0.0,0.0,0.0,0.0,0.0
4780000,4700000,0.00013167561,0.0,0.00014482083,2.0957998e-06,0.0,5.249292e-05,0.0,0.0,0.0,0.0,0.0,0.0,0.0,5.805004e-07,0.0,0.0,nan,0.0,0.0,0.0,0.0,0.0024065073,inf,0.0,0.0,0.00027908536,0.0,0.0,0.0,0.0,0.0,0.0,0.0,0.0
4788000,4708000,0.00013167561,0.0,0.00014482083,2.0957998e-06,0.0,5.249292e-05,0.0,0.0,0.0,0.0,0.0,0.0,0.0,5.805004e-07,0.0,0.0,nan,0.0,0.0,0.0,0.0,0.0024065073,inf,0.0,0.0,0.0012172284,0.0,0.0,0.0,0.0,0.0,0.0,0.0,0.0
4796000,4716000,0.00013167561,0.0,0.00014482083,2.0957998e-06,0.0,5.249292e-05,0.0,0.0,0.0,0.0,0.0,0.0,0.0,5.805004e-07,0.0,0.0,nan,0.0,0.0,0.0,0.0,0.0024065073,inf,0.0,0.0,0.00097187905,0.0,0.0,0.0,0.0,0.0,0.0,0.0,0.0
4804000,4724000,0.00013167561,0.0,0.00014482083,2.0957998e-06,0.0,5.249292e-05,0.0,0.0,0.0,0.0,0.0,0.0,0.0,5.805004e-07,0.0,0.0,nan,0.0,0.0,0.0,0.0,3.3795935e-08,inf,0.0,0.0,9.255546e-05,0.0,0.0,0.0,0.0,0.0,0.0,0.0,0.0
4812000,4732000,0.00013167561,0.0,0.00014482083,2.0957998e-06,0.0,5.249292e-05,0.0,0.0,0.0,0.0,0.0,0.0,0.0,5.805004e-07,0.0,0.0,nan,0.0,0.0,0.0,0.0,3.3795935e-08,inf,0.0,0.0,0.0004731365,0.0,0.0,0.0,0.0,0.0,0.0,0.0,0.0
4820000,4740000,0.00013167561,0.0,0.00014482083,2.0957998e-06,0.0,5.249292e-05,0.0,0.0,0.0,0.0,0.0,0.0,0.0,5.805004e-07,0.0,0.0,nan,0.0,0.0,0.0,0.0,3.3795935e-08,inf,0.0,0.0,0.0006309177,0.0,0.0,0.0,0.0,0.0,0.0,0.0,0.0
4828000,4748000,0.00013167561,0.0,0.00014482083,2.0957998e-06,0.0,5.249292e-05,0.0,0.0,0.0,0.0,0.0,0.0,0.0,5.805004e-07,0.0,0.0,nan,0.0,0.0,0.0,0.0,3.3795935e-08,inf,0.0,0.0,5.2172472e-06,0.0,0.0,0.0,0.0,0.0,0.0,0.0,0.0
4836000,4756000,0.00013167561,0.0,0.00014482083,2.0957998e-06,0.0,5.249292e-05,0.0,0.0,0.0,0.0,0.0,0.0,0.0,5.805004e-07,0.0,0.0,nan,0.0,0.0,0.0,0.0,3.3795935e-08,inf,0.0,0.0,0.0008737509,0.0,0.0,0.0,0.0,0.0,0.0,0.0,0.0
4844000,4764000,0.00013167561,0.0,0.00014482083,2.0957998e-06,0.0,5.249292e-05,0.0,0.0,0.0,0.0,0.0,0.0,0.0,7.547975e-05,0.0,0.0,nan,0.0,0.0,0.0,0.0,3.3795935e-08,inf,0.0,0.0,0.00014952137,0.0,0.0,0.0,0.0,0.0,0.0,0.0,0.0
4852000,4772000,0.00013167561,0.0,0.00014482083,2.0957998e-06,0.0,5.249292e-05,0.0,0.0,0.0,0.0,0.0,0.0,0.0,7.547975e-05,0.0,0.0,nan,0.0,0.0,0.0,0.0,3.3795935e-08,inf,0.0,0.0,0.00015814054,0.0,0.0,0.0,0.0,0.0,0.0,0.0,0.0
4860000,4780000,0.00013167561,0.0,0.00014482083,2.0957998e-06,0.0,5.249292e-05,0.0,0.0,0.0,0.0,0.0,0.0,0.0,7.547975e-05,0.0,0.0,nan,0.0,0.0,0.0,0.0,3.3795935e-08,inf,0.0,0.0,7.387768e-05,0.0,0.0,0.0,0.0,0.0,0.0,0.0,0.0
4868000,4788000,0.00013167561,0.0,0.00014482083,2.0957998e-06,0.0,5.249292e-05,0.0,0.0,0.0,0.0,0.0,0.0,0.0,7.547975e-05,0.0,0.0,nan,0.0,0.0,0.0,0.0,3.3795935e-08,inf,0.0,0.0,0.0012424346,0.0,0.0,0.0,0.0,0.0,0.0,0.0,0.0
4876000,4796000,0.00013167561,0.0,0.00014482083,2.0957998e-06,0.0,5.249292e-05,0.0,0.0,0.0,0.0,0.0,0.0,0.0,7.547975e-05,0.0,0.0,nan,0.0,0.0,0.0,0.0,0.002924791,inf,0.0,0.0,0.00038170052,0.0,0.0,0.0,0.0,0.0,0.0,0.0,0.0
4884000,4804000,0.00013167561,0.0,0.00014482083,2.0957998e-06,0.0,5.249292e-05,0.0,0.0,0.0,0.0,0.0,0.0,0.0,7.547975e-05,0.0,0.0,nan,0.0,0.0,0.0,0.0,0.002924791,inf,0.0,0.0,0.000577222,0.0,0.0,0.0,0.0,0.0,0.0,0.0,0.0
4892000,4812000,0.00013167561,0.0,0.00014482083,2.0957998e-06,0.0,5.249292e-05,0.0,0.0,0.0,0.0,0.0,0.0,0.0,7.547975e-05,0.0,0.0,nan,0.0,0.0,0.0,0.0,0.002924791,inf,0.0,0.0,0.0026396846,0.0,0.0,0.0,0.0,0.0,0.0,0.0,0.0
4900000,4820000,0.00013167561,0.0,0.00014482083,2.0957998e-06,0.0,5.249292e-05,0.0,0.0,0.0,0.0,0.0,0.0,0.0,1.2680047e-05,0.0,0.0,nan,0.0,0.0,0.0,0.0,0.002924791,inf,0.0,0.0,0.0011389318,0.0,0.0,0.0,0.0,0.0,0.0,0.0,0.0
4908000,4828000,0.00013167561,0.0,0.00014482083,2.0957998e-06,0.0,5.249292e-05,0.0,0.0,0.0,0.0,0.0,0.0,0.0,1.2680047e-05,0.0,0.0,nan,0.0,0.0,0.0,0.0,0.002924791,inf,0.0,0.0,0.00011173227,0.0,0.0,0.0,0.0,0.0,0.0,0.0,0.0
4916000,4836000,0.00013167561,0.0,0.00014482083,2.0957998e-06,0.0,5.249292e-05,0.0,0.0,0.0,0.0,0.0,0.0,0.0,1.2680047e-05,0.0,0.0,nan,0.0,0.0,0.0,0.0,0.002924791,inf,0.0,0.0,0.00035648994,0.0,0.0,0.0,0.0,0.0,0.0,0.0,0.0
4924000,4844000,0.00013167561,0.0,0.00014482083,2.0957998e-06,0.0,5.249292e-05,0.0,0.0,0.0,0.0,0.0,0.0,0.0,1.2680047e-05,0.0,0.0,nan,0.0,0.0,0.0,0.0,0.002924791,inf,0.0,0.0,0.00039766042,0.0,0.0,0.0,0.0,0.0,0.0,0.0,0.0
4932000,4852000,0.00013167561,0.0,0.00014482083,2.0957998e-06,0.0,5.249292e-05,0.0,0.0,0.0,0.0,0.0,0.0,0.0,1.2680047e-05,0.0,0.0,nan,0.0,0.0,0.0,0.0,0.002924791,inf,0.0,0.0,9.046717e-05,0.0,0.0,0.0,0.0,0.0,0.0,0.0,0.0
4940000,4860000,0.00013167561,0.0,0.00014482083,2.0957998e-06,0.0,5.249292e-05,0.0,0.0,0.0,0.0,0.0,0.0,0.0,1.2680047e-05,0.0,0.0,nan,0.0,0.0,0.0,0.0,0.002924791,inf,0.0,0.0,9.81682e-05,0.0,0.0,0.0,0.0,0.0,0.0,0.0,0.0
4948000,4868000,0.00013167561,0.0,0.00014482083,2.0957998e-06,0.0,5.249292e-05,0.0,0.0,0.0,0.0,0.0,0.0,0.0,1.2680047e-05,0.0,0.0,nan,0.0,0.0,0.0,0.0,6.64818e-05,inf,0.0,0.0,0.00024889119,0.0,0.0,0.0,0.0,0.0,0.0,0.0,0.0
4956000,4876000,0.00013167561,0.0,0.00014482083,2.0957998e-06,0.0,5.249292e-05,0.0,0.0,0.0,0.0,0.0,0.0,0.0,1.2680047e-05,0.0,0.0,nan,0.0,0.0,0.0,0.0,6.64818e-05,inf,0.0,0.0,0.00040222864,0.0,0.0,0.0,0.0,0.0,0.0,0.0,0.0
4964000,4884000,0.00013167561,0.0,0.00014482083,2.0957998e-06,0.0,5.249292e-05,0.0,0.0,0.0,0.0,0.0,0.0,0.0,4.0886684e-06,0.0,0.0,nan,0.0,0.0,0.0,0.0,6.64818e-05,inf,0.0,0.0,0.00013305471,0.0,0.0,0.0,0.0,0.0,0.0,0.0,0.0
4972000,4892000,0.00013167561,0.0,0.00014482083,2.0957998e-06,0.0,5.249292e-05,0.0,0.0,0.0,0.0,0.0,0.0,0.0,4.0886684e-06,0.0,0.0,nan,0.0,0.0,0.0,0.0,6.64818e-05,inf,0.0,0.0,7.931656e-05,0.0,0.0,0.0,0.0,0.0,0.0,0.0,0.0
4980000,4900000,0.00013167561,0.0,0.00014482083,2.0957998e-06,0.0,5.249292e-05,0.0,0.0,0.0,0.0,0.0,0.0,0.0,4.0886684e-06,0.0,0.0,nan,0.0,0.0,0.0,0.0,6.64818e-05,inf,0.0,0.0,0.00011958604,0.0,0.0,0.0,0.0,0.0,0.0,0.0,0.0
4988000,4908000,0.00013167561,0.0,0.00014482083,2.0957998e-06,0.0,5.249292e-05,0.0,0.0,0.0,0.0,0.0,0.0,0.0,4.0886684e-06,0.0,0.0,nan,0.0,0.0,0.0,0.0,6.64818e-05,inf,0.0,0.0,0.00025738723,0.0,0.0,0.0,0.0,0.0,0.0,0.0,0.0
4996000,4916000,0.00013167561,0.0,0.00014482083,2.0957998e-06,0.0,5.249292e-05,0.0,0.0,0.0,0.0,0.0,0.0,0.0,4.0886684e-06,0.0,0.0,nan,0.0,0.0,0.0,0.0,6.64818e-05,inf,0.0,0.0,0.00042246858,0.0,0.0,0.0,0.0,0.0,0.0,0.0,0.0
5004000,4924000,2.841985e-05,0.0,6.790636e-05,2.3257628e-06,0.0,4.8867932e-05,0.0,0.0,0.0,0.0,0.0,0.0,0.0,4.0886684e-06,0.0,0.0,nan,0.0,0.0,0.0,0.0,6.64818e-05,inf,0.0,0.0,0.0004969027,0.0,0.0,0.0,0.0,0.0,0.0,0.0,0.0
5012000,4932000,2.841985e-05,0.0,6.790636e-05,2.3257628e-06,0.0,4.8867932e-05,0.0,0.0,0.0,0.0,0.0,0.0,0.0,4.0886684e-06,0.0,0.0,nan,0.0,0.0,0.0,0.0,6.64818e-05,inf,0.0,0.0,0.0006868335,0.0,0.0,0.0,0.0,0.0,0.0,0.0,0.0
5020000,4940000,2.841985e-05,0.0,6.790636e-05,2.3257628e-06,0.0,4.8867932e-05,0.0,0.0,0.0,0.0,0.0,0.0,0.0,9.846143e-07,0.0,0.0,nan,0.0,0.0,0.0,0.0,1.4819444e-05,inf,0.0,0.0,0.00066976994,0.0,0.0,0.0,0.0,0.0,0.0,0.0,0.0
5028000,4948000,2.841985e-05,0.0,6.790636e-05,2.3257628e-06,0.0,4.8867932e-05,0.0,0.0,0.0,0.0,0.0,0.0,0.0,9.846143e-07,0.0,0.0,nan,0.0,0.0,0.0,0.0,1.4819444e-05,inf,0.0,0.0,3.7521393e-06,0.0,0.0,0.0,0.0,0.0,0.0,0.0,0.0
5036000,4956000,2.841985e-05,0.0,6.790636e-05,2.3257628e-06,0.0,4.8867932e-05,0.0,0.0,0.0,0.0,0.0,0.0,0.0,9.846143e-07,0.0,0.0,nan,0.0,0.0,0.0,0.0,1.4819444e-05,inf,0.0,0.0,0.00015315492,0.0,0.0,0.0,0.0,0.0,0.0,0.0,0.0
5044000,4964000,2.841985e-05,0.0,6.790636e-05,2.3257628e-06,0.0,4.8867932e-05,0.0,0.0,0.0,0.0,0.0,0.0,0.0,9.846143e-07,0.0,0.0,nan,0.0,0.0,0.0,0.0,1.4819444e-05,inf,0.0,0.0,5.401248e-05,0.0,0.0,0.0,0.0,0.0,0.0,0.0,0.0
5052000,4972000,2.841985e-05,0.0,6.790636e-05,2.3257628e-06,0.0,4.8867932e-05,0.0,0.0,0.0,0.0,0.0,0.0,0.0,9.846143e-07,0.0,0.0,nan,0.0,0.0,0.0,0.0,1.4819444e-05,inf,0.0,0.0,0.00018632325,0.0,0.0,0.0,0.0,0.0,0.0,0.0,0.0
5060000,4980000,2.841985e-05,0.0,6.790636e-05,2.3257628e-06,0.0,4.8867932e-05,0.0,0.0,0.0,0.0,0.0,0.0,0.0,9.846143e-07,0.0,0.0,nan,0.0,0.0,0.0,0.0,1.4819444e-05,inf,0.0,0.0,0.0006016932,0.0,0.0,0.0,0.0,0.0,0.0,0.0,0.0
5068000,4988000,2.841985e-05,0.0,6.790636e-05,2.3257628e-06,0.0,4.8867932e-05,0.0,0.0,0.0,0.0,0.0,0.0,0.0,9.846143e-07,0.0,0.0,nan,0.0,0.0,0.0,0.0,1.4819444e-05,inf,0.0,0.0,0.0010058711,0.0,0.0,0.0,0.0,0.0,0.0,0.0,0.0
5076000,4996000,2.841985e-05,0.0,6.790636e-05,2.3257628e-06,0.0,4.8867932e-05,0.0,0.0,0.0,0.0,0.0,0.0,0.0,9.846143e-07,0.0,0.0,nan,0.0,0.0,0.0,0.0,1.4819444e-05,inf,0.0,0.0,9.6738986e-05,0.0,0.0,0.0,0.0,0.0,0.0,0.0,0.0
5084000,5004000,2.841985e-05,0.0,6.790636e-05,2.3257628e-06,0.0,4.8867932e-05,0.0,0.0,0.0,0.0,0.0,0.0,0.0,9.635462e-07,0.0,0.0,nan,0.0,0.0,0.0,0.0,1.4819444e-05,inf,0.0,0.0,0.0003963591,0.0,0.0,0.0,0.0,0.0,0.0,0.0,0.0
5092000,5012000,2.841985e-05,0.0,6.790636e-05,2.3257628e-06,0.0,4.8867932e-05,0.0,0.0,0.0,0.0,0.0,0.0,0.0,9.635462e-07,0.0,0.0,nan,0.0,0.0,0.0,0.0,8.381861e-05,inf,0.0,0.0,1.9495972e-06,0.0,0.0,0.0,0.0,0.0,0.0,0.0,0.0
5100000,5020000,2.841985e-05,0.0,6.790636e-05,2.3257628e-06,0.0,4.8867932e-05,0.0,0.0,0.0,0.0,0.0,0.0,0.0,9.635462e-07,0.0,0.0,nan,0.0,0.0,0.0,0.0,8.381861e-05,inf,0.0,0.0,0.0006594304,0.0,0.0,0.0,0.0,0.0,0.0,0.0,0.0
5108000,5028000,2.841985e-05,0.0,6.790636e-05,2.3257628e-06,0.0,4.8867932e-05,0.0,0.0,0.0,0.0,0.0,0.0,0.0,9.635462e-07,0.0,0.0,nan,0.0,0.0,0.0,0.0,8.381861e-05,inf,0.0,0.0,9.536809e-06,0.0,0.0,0.0,0.0,0.0,0.0,0.0,0.0
5116000,5036000,2.841985e-05,0.0,6.790636e-05,2.3257628e-06,0.0,4.8867932e-05,0.0,0.0,0.0,0.0,0.0,0.0,0.0,9.635462e-07,0.0,0.0,nan,0.0,0.0,0.0,0.0,8.381861e-05,inf,0.0,0.0,0.00012270169,0.0,0.0,0.0,0.0,0.0,0.0,0.0,0.0
5124000,5044000,2.841985e-05,0.0,6.790636e-05,2.3257628e-06,0.0,4.8867932e-05,0.0,0.0,0.0,0.0,0.0,0.0,0.0,9.635462e-07,0.0,0.0,nan,0.0,0.0,0.0,0.0,8.381861e-05,inf,0.0,0.0,0.0008457511,0.0,0.0,0.0,0.0,0.0,0.0,0.0,0.0
5132000,5052000,2.841985e-05,0.0,6.790636e-05,2.3257628e-06,0.0,4.8867932e-05,0.0,0.0,0.0,0.0,0.0,0.0,0.0,9.635462e-07,0.0,0.0,nan,0.0,0.0,0.0,0.0,8.381861e-05,inf,0.0,0.0,0.0006768814,0.0,0.0,0.0,0.0,0.0,0.0,0.0,0.0
5140000,5060000,2.841985e-05,0.0,6.790636e-05,2.3257628e-06,0.0,4.8867932e-05,0.0,0.0,0.0,0.0,0.0,0.0,0.0,2.3417431e-05,0.0,0.0,nan,0.0,0.0,0.0,0.0,8.381861e-05,inf,0.0,0.0,8.249084e-05,0.0,0.0,0.0,0.0,0.0,0.0,0.0,0.0
5148000,5068000,2.841985e-05,0.0,6.790636e-05,2.3257628e-06,0.0,4.8867932e-05,0.0,0.0,0.0,0.0,0.0,0.0,0.0,2.3417431e-05,0.0,0.0,nan,0.0,0.0,0.0,0.0,8.381861e-05,inf,0.0,0.0,0.0001638896,0.0,0.0,0.0,0.0,0.0,0.0,0.0,0.0
5156000,5076000,2.841985e-05,0.0,6.790636e-05,2.3257628e-06,0.0,4.8867932e-05,0.0,0.0,0.0,0.0,0.0,0.0,0.0,2.3417431e-05,0.0,0.0,nan,0.0,0.0,0.0,0.0,8.381861e-05,inf,0.0,0.0,4.48326e-05,0.0,0.0,0.0,0.0,0.0,0.0,0.0,0.0
5164000,5084000,2.841985e-05,0.0,6.790636e-05,2.3257628e-06,0.0,4.8867932e-05,0.0,0.0,0.0,0.0,0.0,0.0,0.0,2.3417431e-05,0.0,0.0,nan,0.0,0.0,0.0,0.0,3.7832455e-05,inf,0.0,0.0,3.1806157e-06,0.0,0.0,0.0,0.0,0.0,0.0,0.0,0.0
5172000,5092000,2.841985e-05,0.0,6.790636e-05,2.3257628e-06,0.0,4.8867932e-05,0.0,0.0,0.0,0.0,0.0,0.0,0.0,2.3417431e-05,0.0,0.0,nan,0.0,0.0,0.0,0.0,3.7832455e-05,inf,0.0,0.0,0.00036162176,0.0,0.0,0.0,0.0,0.0,0.0,0.0,0.0
5180000,5100000,2.841985e-05,0.0,6.790636e-05,2.3257628e-06,0.0,4.8867932e-05,0.0,0.0,0.0,0.0,0.0,0.0,0.0,2.3417431e-05,0.0,0.0,nan,0.0,0.0,0.0,0.0,3.7832455e-05,inf,0.0,0.0,1.7592394e-07,0.0,0.0,0.0,0.0,0.0,0.0,0.0,0.0
5188000,5108000,2.841985e-05,0.0,6.790636e-05,2.3257628e-06,0.0,4.8867932e-05,0.0,0.0,0.0,0.0,0.0,0.0,0.0,2.3417431e-05,0.0,0.0,nan,0.0,0.0,0.0,0.0,3.7832455e-05,inf,0.0,0.0,0.0005339207,0.0,0.0,0.0,0.0,0.0,0.0,0.0,0.0
5196000,5116000,2.841985e-05,0.0,6.790636e-05,2.3257628e-06,0.0,4.8867932e-05,0.0,0.0,0.0,0.0,0.0,0.0,0.0,9.045983e-05,0.0,0.0,nan,0.0,0.0,0.0,0.0,3.7832455e-05,inf,0.0,0.0,0.00047838842,0.0,0.0,0.0,0.0,0.0,0.0,0.0,0.0
5204000,5124000,2.841985e-05,0.0,6.790636e-05,2.3257628e-06,0.0,4.8867932e-05,0.0,0.0,0.0,0.0,0.0,0.0,0.0,9.045983e-05,0.0,0.0,nan,0.0,0.0,0.0,0.0,3.7832455e-05,inf,0.0,0.0,0.00041545235,0.0,0.0,0.0,0.0,0.0,0.0,0.0,0.0
5212000,5132000,2.841985e-05,0.0,6.790636e-05,2.3257628e-06,0.0,4.8867932e-05,0.0,0.0,0.0,0.0,0.0,0.0,0.0,9.045983e-05,0.0,0.0,nan,0.0,0.0,0.0,0.0,3.7832455e-05,inf,0.0,0.0,0.00044929795,0.0,0.0,0.0,0.0,0.0,0.0,0.0,0.0
5220000,5140000,2.841985e-05,0.0,6.790636e-05,2.3257628e-06,0.0,4.8867932e-05,0.0,0.0,0.0,0.0,0.0,0.0,0.0,9.045983e-05,0.0,0.0,nan,0.0,0.0,0.0,0.0,3.7832455e-05,inf,0.0,0.0,8.132633e-06,0.0,0.0,0.0,0.0,0.0,0.0,0.0,0.0
5228000,5148000,2.841985e-05,0.0,6.790636e-05,2.3257628e-06,0.0,4.8867932e-05,0.0,0.0,0.0,0.0,0.0,0.0,0.0,9.045983e-05,0.0,0.0,nan,0.0,0.0,0.0,0.0,3.7832455e-05,inf,0.0,0.0,0.00074721326,0.0,0.0,0.0,0.0,0.0,0.0,0.0,0.0
5236000,5156000,2.841985e-05,0.0,6.790636e-05,2.3257628e-06,0.0,4.8867932e-05,0.0,0.0,0.0,0.0,0.0,0.0,0.0,9.045983e-05,0.0,0.0,nan,0.0,0.0,0.0,0.0,3.74824e-05,inf,0.0,0.0,0.00012388942,0.0,0.0,0.0,0.0,0.0,0.0,0.0,0.0
5244000,5164000,2.841985e-05,0.0,6.790636e-05,2.3257628e-06,0.0,4.8867932e-05,0.0,0.0,0.0,0.0,0.0,0.0,0.0,9.045983e-05,0.0,0.0,nan,0.0,0.0,0.0,0.0,3.74824e-05,inf,0.0,0.0,0.00018750738,0.0,0.0,0.0,0.0,0.0,0.0,0.0,0.0
5252000,5172000,2.841985e-05,0.0,6.790636e-05,2.3257628e-06,0.0,4.8867932e-05,0.0,0.0,0.0,0.0,0.0,0.0,0.0,1.08039385e-05,0.0,0.0,nan,0.0,0.0,0.0,0.0,3.74824e-05,inf,0.0,0.0,0.0004658611,0.0,0.0,0.0,0.0,0.0,0.0,0.0,0.0
5260000,5180000,2.841985e-05,0.0,6.790636e-05,2.3257628e-06,0.0,4.8867932e-05,0.0,0.0,0.0,0.0,0.0,0.0,0.0,1.08039385e-05,0.0,0.0,nan,0.0,0.0,0.0,0.0,3.74824e-05,inf,0.0,0.0,1.2176119e-05,0.0,0.0,0.0,0.0,0.0,0.0,0.0,0.0
5268000,5188000,2.841985e-05,0.0,6.790636e-05,2.3257628e-06,0.0,4.8867932e-05,0.0,0.0,0.0,0.0,0.0,0.0,0.0,1.08039385e-05,0.0,0.0,nan,0.0,0.0,0.0,0.0,3.74824e-05,inf,0.0,0.0,0.00055516686,0.0,0.0,0.0,0.0,0.0,0.0,0.0,0.0
5276000,5196000,2.841985e-05,0.0,6.790636e-05,2.3257628e-06,0.0,4.8867932e-05,0.0,0.0,0.0,0.0,0.0,0.0,0.0,1.08039385e-05,0.0,0.0,nan,0.0,0.0,0.0,0.0,3.74824e-05,inf,0.0,0.0,0.00081584597,0.0,0.0,0.0,0.0,0.0,0.0,0.0,0.0
5284000,5204000,2.841985e-05,0.0,6.790636e-05,2.3257628e-06,0.0,4.8867932e-05,0.0,0.0,0.0,0.0,0.0,0.0,0.0,1.08039385e-05,0.0,0.0,nan,0.0,0.0,0.0,0.0,3.74824e-05,inf,0.0,0.0,0.00072429015,0.0,0.0,0.0,0.0,0.0,0.0,0.0,0.0
5292000,5212000,2.841985e-05,0.0,6.790636e-05,2.3257628e-06,0.0,4.8867932e-05,0.0,0.0,0.0,0.0,0.0,0.0,0.0,1.08039385e-05,0.0,0.0,nan,0.0,0.0,0.0,0.0,3.74824e-05,inf,0.0,0.0,0.0022074883,0.0,0.0,0.0,0.0,0.0,0.0,0.0,0.0
5300000,5220000,2.841985e-05,0.0,6.790636e-05,2.3257628e-06,0.0,4.8867932e-05,0.0,0.0,0.0,0.0,0.0,0.0,0.0,1.08039385e-05,0.0,0.0,nan,0.0,0.0,0.0,0.0,3.74824e-05,inf,0.0,0.0,0.0042943014,0.0,0.0,0.0,0.0,0.0,0.0,0.0,0.0
5308000,5228000,2.841985e-05,0.0,6.790636e-05,2.3257628e-06,0.0,4.8867932e-05,0.0,0.0,0.0,0.0,0.0,0.0,0.0,2.7328966e-05,0.0,0.0,nan,0.0,0.0,0.0,0.0,0.00093118445,inf,0.0,0.0,0.00065711135,0.0,0.0,0.0,0.0,0.0,0.0,0.0,0.0
5316000,5236000,2.841985e-05,0.0,6.790636e-05,2.3257628e-06,0.0,4.8867932e-05,0.0,0.0,0.0,0.0,0.0,0.0,0.0,2.7328966e-05,0.0,0.0,nan,0.0,0.0,0.0,0.0,0.00093118445,inf,0.0,0.0,9.3909875e-05,0.0,0.0,0.0,0.0,0.0,0.0,0.0,0.0
5324000,5244000,2.841985e-05,0.0,6.790636e-05,2.3257628e-06,0.0,4.8867932e-05,0.0,0.0,0.0,0.0,0.0,0.0,0.0,2.7328966e-05,0.0,0.0,nan,0.0,0.0,0.0,0.0,0.00093118445,inf,0.0,0.0,5.726516e-05,0.0,0.0,0.0,0.0,0.0,0.0,0.0,0.0
5332000,5252000,2.841985e-05,0.0,6.790636e-05,2.3257628e-06,0.0,4.8867932e-05,0.0,0.0,0.0,0.0,0.0,0.0,0.0,2.7328966e-05,0.0,0.0,nan,0.0,0.0,0.0,0.0,0.00093118445,inf,0.0,0.0,0.0001331963,0.0,0.0,0.0,0.0,0.0,0.0,0.0,0.0
5340000,5260000,2.841985e-05,0.0,6.790636e-05,2.3257628e-06,0.0,4.8867932e-05,0.0,0.0,0.0,0.0,0.0,0.0,0.0,2.7328966e-05,0.0,0.0,nan,0.0,0.0,0.0,0.0,0.00093118445,inf,0.0,0.0,0.00019447494,0.0,0.0,0.0,0.0,0.0,0.0,0.0,0.0
5348000,5268000,2.841985e-05,0.0,6.790636e-05,2.3257628e-06,0.0,4.8867932e-05,0.0,0.0,0.0,0.0,0.0,0.0,0.0,2.7328966e-05,0.0,0.0,nan,0.0,0.0,0.0,0.0,0.00093118445,inf,0.0,0.0,0.0014702658,0.0,0.0,0.0,0.0,0.0,0.0,0.0,0.0
5356000,5276000,2.841985e-05,0.0,6.790636e-05,2.3257628e-06,0.0,4.8867932e-05,0.0,0.0,0.0,0.0,0.0,0.0,0.0,2.7328966e-05,0.0,0.0,nan,0.0,0.0,0.0,0.0,0.00093118445,inf,0.0,0.0,0.00026268355,0.0,0.0,0.0,0.0,0.0,0.0,0.0,0.0
5364000,5284000,2.841985e-05,0.0,6.790636e-05,2.3257628e-06,0.0,4.8867932e-05,0.0,0.0,0.0,0.0,0.0,0.0,0.0,2.7328966e-05,0.0,0.0,nan,0.0,0.0,0.0,0.0,0.00093118445,inf,0.0,0.0,2.0811706e-06,0.0,0.0,0.0,0.0,0.0,0.0,0.0,0.0
5372000,5292000,2.841985e-05,0.0,6.790636e-05,2.3257628e-06,0.0,4.8867932e-05,0.0,0.0,0.0,0.0,0.0,0.0,0.0,1.5917888e-06,0.0,0.0,nan,0.0,0.0,0.0,0.0,0.00093118445,inf,0.0,0.0,8.441891e-05,0.0,0.0,0.0,0.0,0.0,0.0,0.0,0.0
5380000,5300000,2.841985e-05,0.0,6.790636e-05,2.3257628e-06,0.0,4.8867932e-05,0.0,0.0,0.0,0.0,0.0,0.0,0.0,1.5917888e-06,0.0,0.0,nan,0.0,0.0,0.0,0.0,5.283006e-05,inf,0.0,0.0,0.00046823037,0.0,0.0,0.0,0.0,0.0,0.0,0.0,0.0
5388000,5308000,2.841985e-05,0.0,6.790636e-05,2.3257628e-06,0.0,4.8867932e-05,0.0,0.0,0.0,0.0,0.0,0.0,0.0,1.5917888e-06,0.0,0.0,nan,0.0,0.0,0.0,0.0,5.283006e-05,inf,0.0,0.0,0.0009298881,0.0,0.0,0.0,0.0,0.0,0.0,0.0,0.0
5396000,5316000,2.841985e-05,0.0,6.790636e-05,2.3257628e-06,0.0,4.8867932e-05,0.0,0.0,0.0,0.0,0.0,0.0,0.0,1.5917888e-06,0.0,0.0,nan,0.0,0.0,0.0,0.0,5.283006e-05,inf,0.0,0.0,0.0003496805,0.0,0.0,0.0,0.0,0.0,0.0,0.0,0.0
5404000,5324000,3.0888793e-06,0.0,8.0188765e-05,2.2338922e-06,0.0,4.0701787e-05,0.0,0.0,0.0,0.0,0.0,0.0,0.0,1.5917888e-06,0.0,0.0,nan,0.0,0.0,0.0,0.0,5.283006e-05,inf,0.0,0.0,6.022753e-05,0.0,0.0,0.0,0.0,0.0,0.0,0.0,0.0
5412000,5332000,3.0888793e-06,0.0,8.0188765e-05,2.2338922e-06,0.0,4.0701787e-05,0.0,0.0,0.0,0.0,0.0,0.0,0.0,1.5917888e-06,0.0,0.0,nan,0.0,0.0,0.0,0.0,5.283006e-05,inf,0.0,0.0,0.00034916744,0.0,0.0,0.0,0.0,0.0,0.0,0.0,0.0
5420000,5340000,3.0888793e-06,0.0,8.0188765e-05,2.2338922e-06,0.0,4.0701787e-05,0.0,0.0,0.0,0.0,0.0,0.0,0.0,1.5917888e-06,0.0,0.0,nan,0.0,0.0,0.0,0.0,5.283006e-05,inf,0.0,0.0,0.00075014465,0.0,0.0,0.0,0.0,0.0,0.0,0.0,0.0
5428000,5348000,3.0888793e-06,0.0,8.0188765e-05,2.2338922e-06,0.0,4.0701787e-05,0.0,0.0,0.0,0.0,0.0,0.0,0.0,2.9240405e-06,0.0,0.0,nan,0.0,0.0,0.0,0.0,5.283006e-05,inf,0.0,0.0,0.00019302322,0.0,0.0,0.0,0.0,0.0,0.0,0.0,0.0
5436000,5356000,3.0888793e-06,0.0,8.0188765e-05,2.2338922e-06,0.0,4.0701787e-05,0.0,0.0,0.0,0.0,0.0,0.0,0.0,2.9240405e-06,0.0,0.0,nan,0.0,0.0,0.0,0.0,5.283006e-05,inf,0.0,0.0,0.0005359205,0.0,0.0,0.0,0.0,0.0,0.0,0.0,0.0
