timestamp,timestamp_sample,xyz[0],xyz[1],xyz[2]
3212000,3212000,-0.20102581,0.17897165,-9.933788
3216000,3216000,-0.19482192,0.17298853,-9.939386
3264000,3264000,-0.20877461,0.17401055,-9.902501
3312000,3312000,-0.21927729,0.21338749,-9.948717
3364000,3364000,-0.20788717,0.21015048,-9.901978
3412000,3412000,-0.22960842,0.17747974,-9.925365
3464000,3464000,-0.20270976,0.2122228,-9.842845
3512000,3512000,-0.2288124,0.19163668,-9.8542185
3564000,3564000,-0.19669545,0.17494258,-9.8218355
3612000,3612000,-0.21508369,0.20496297,-9.815916
3660000,3660000,-0.20792131,0.18379037,-9.83334
3712000,3712000,-0.22708502,0.20138842,-9.832885
3764000,3764000,-0.21329932,0.2034319,-9.829052
3812000,3812000,-0.21450198,0.17910172,-9.8104105
3864000,3864000,-0.21441641,0.19394417,-9.826739
3912000,3912000,-0.20676574,0.18726927,-9.825689
3964000,3964000,-0.22447164,0.20003796,-9.805405
4012000,4012000,-0.22334075,0.19298524,-9.81164
4064000,4064000,-0.22706732,0.18353057,-9.828989
4112000,4112000,-0.21554656,0.1901087,-9.828966
4164000,4164000,-0.21939182,0.20044371,-9.824091
4212000,4212000,-0.19995761,0.18161456,-9.814387
4264000,4264000,-0.1989168,0.21410182,-9.8099
4312000,4312000,-0.2188777,0.20285219,-9.825543
4360000,4360000,-0.21490616,0.18402328,-9.808918
4412000,4412000,-0.20700802,0.19478074,-9.820944
4464000,4464000,-0.22429577,0.19931157,-9.809088
4512000,4512000,-0.20859534,0.16500056,-9.802942
4564000,4564000,-0.20527376,0.16779429,-9.797962
4612000,4612000,-0.21432108,0.16459878,-9.805043
4664000,4664000,-0.21839446,0.18454736,-9.775939
4712000,4712000,-0.21427284,0.16097568,-9.801815
4764000,4764000,-0.22944792,0.2119924,-9.80254
4812000,4812000,-0.25480404,0.17933634,-9.821997
4864000,4864000,-0.20750338,0.17973113,-9.8029375
4912000,4912000,-0.20611845,0.17946877,-9.808296
4964000,4964000,-0.19984454,0.18695706,-9.806892
5012000,5012000,-0.21292928,0.19229072,-9.795946
5064000,5064000,-0.20024264,0.1824414,-9.810917
5112000,5112000,-0.22369209,0.16517776,-9.792538
5164000,5164000,-0.22097665,0.19107111,-9.822144
5212000,5212000,-0.2059168,0.21572801,-9.798805
5264000,5264000,-0.22226,0.18608543,-9.826235
5308000,5308000,-0.19463457,0.20611213,-9.813265
5364000,5364000,-0.20175561,0.20431033,-9.790434
5412000,5412000,-0.19580056,0.17698967,-9.832687
5464000,5464000,-0.18739295,0.19815797,-9.811714
5512000,5512000,-0.20447516,0.1843495,-9.804594
5560000,5560000,-0.1912517,0.18735193,-9.809955
5608000,5608000,-0.18585974,0.18056989,-9.815964
5660000,5660000,-0.21715036,0.17689493,-9.837513
5712000,5712000,-0.19914351,0.16725779,-9.845571
5764000,5764000,-0.18064785,0.19293845,-9.798383
5812000,5812000,-0.19392,0.16239056,-9.814505
5864000,5864000,-0.16900724,0.19549559,-9.813169
5912000,5912000,-0.18174867,0.19853774,-9.813188
5960000,5960000,-0.22453828,0.18639813,-9.782341
6012000,6012000,-0.20648023,0.16417125,-9.819752
6064000,6064000,-0.21605814,0.1627444,-9.794998
6108000,6108000,-0.18661107,0.1938656,-9.789421
6160000,6160000,-0.20564857,0.1796687,-9.782849
6208000,6208000,-0.1969314,0.19507831,-9.828266
6260000,6260000,-0.22374317,0.18289879,-9.82224
6312000,6312000,-0.19156578,0.15900947,-9.804459
6364000,6364000,-0.22143722,0.18475041,-9.8022175
6412000,6412000,-0.19341934,0.17605305,-9.808825
6464000,6464000,-0.2082163,0.1870161,-9.7903805
6508000,6508000,-0.19556884,0.16573271,-9.810358
6564000,6564000,-0.213406,0.18311578,-9.811457
6612000,6612000,-0.21969214,0.18122765,-9.800553
6664000,6664000,-0.2302363,0.18891032,-9.793524
6712000,6712000,-0.208684,0.1955699,-9.773308
6764000,6764000,-0.18396235,0.17014547,-9.796284
6812000,6812000,-0.23538034,0.1688191,-9.791401
6860000,6860000,-0.18834442,0.21116158,-9.783453
6908000,6908000,-0.21785474,0.19124515,-9.810568
6964000,6964000,-0.21342112,0.21032463,-9.795342
7012000,7012000,-0.18799081,0.17969641,-9.8004465
7064000,7064000,-0.20831168,0.22840554,-9.808527
7112000,7112000,-0.2357899,0.1793443,-9.801419
7164000,7164000,-0.1958798,0.18002966,-9.790004
7212000,7212000,-0.20387323,0.1800093,-9.793485
7264000,7264000,-0.21801512,0.18322639,-9.80603
7312000,7312000,-0.17815985,0.17303412,-9.796691
7364000,7364000,-0.19094627,0.17684674,-9.785002
7412000,7412000,-0.19514379,0.18470176,-9.810445
7464000,7464000,-0.22944187,0.15951425,-9.8203745
7512000,7512000,-0.21111721,0.17720172,-9.771045
7564000,7564000,-0.19485031,0.152105,-9.794076
7612000,7612000,-0.19375166,0.19312435,-9.825282
7664000,7664000,-0.17392375,0.17961693,-9.793885
7712000,7712000,-0.20131698,0.18750842,-9.794567
7764000,7764000,-0.2048989,0.1906143,-9.819457
7812000,7812000,-0.2236965,0.18824217,-9.795154
7864000,7864000,-0.19926637,0.17665806,-9.823117
7908000,7908000,-0.20068252,0.1626477,-9.792355
7964000,7964000,-0.23981844,0.16949771,-9.805502
8012000,8012000,-0.22130908,0.15822901,-9.791066
8064000,8064000,-0.20242433,0.17963058,-9.82451
8108000,8108000,-0.22198424,0.216536,-9.816999
8164000,8164000,-0.22798827,0.18673664,-9.798069
8212000,8212000,-0.2076787,0.18338192,-9.77092
8264000,8264000,-0.18549438,0.16758226,-9.7822695
8312000,8312000,-0.19839394,0.16639788,-9.761972
8364000,8364000,-0.19844455,0.19232392,-9.778902
8412000,8412000,-0.23382144,0.19300844,-9.794389
8464000,8464000,-0.17654163,0.16449109,-9.796483
8512000,8512000,-0.20101103,0.20649892,-9.809699
8564000,8564000,-0.20309609,0.19001015,-9.812736
8612000,8612000,-0.21490303,0.21090688,-9.805128
8664000,8664000,-0.20786782,0.17197132,-9.810144
8712000,8712000,-0.19532302,0.18347566,-9.779543
8764000,8764000,-0.17989969,0.18666014,-9.810581
8808000,8808000,-0.1924493,0.20946813,-9.812894
8860000,8860000,-0.203971,0.19651607,-9.805874
8908000,8908000,-0.20050783,0.18108004,-9.825407
8960000,8960000,-0.19873084,0.17137682,-9.804512
9012000,9012000,-0.2016183,0.15667912,-9.798145
9064000,9064000,-0.20953223,0.16345389,-9.812834
9112000,9112000,-0.20538883,0.16966146,-9.810451
9164000,9164000,-0.19480774,0.15952922,-9.820516
9212000,9212000,-0.21276572,0.14904642,-9.774945
9264000,9264000,-0.18850556,0.18572342,-9.8238535
9312000,9312000,-0.19333926,0.19461983,-9.811036
9364000,9364000,-0.1943665,0.18208256,-9.781956
9412000,9412000,-0.2194267,0.15877797,-9.81309
9464000,9464000,-0.1897696,0.17782378,-9.7945595
9512000,9512000,-0.18130994,0.18428859,-9.79094
9564000,9564000,-0.21398017,0.18345499,-9.793699
9612000,9612000,-0.18200026,0.19131023,-9.793594
9660000,9660000,-0.16873841,0.18695788,-9.793052
9712000,9712000,-0.18260938,0.1686098,-9.79384
9764000,9764000,-0.20349525,0.17618284,-9.796412
9812000,9812000,-0.20334987,0.17208342,-9.798613
9864000,9864000,-0.20139453,0.17456627,-9.80601
9912000,9912000,-0.18684037,0.18474853,-9.770575
9964000,9964000,-0.20848298,0.17607844,-9.79733
10012000,10012000,-0.19104953,0.18195866,-9.75572
10064000,10064000,-0.17672938,0.18411969,-9.832535
10108000,10108000,-0.18939196,0.15249531,-9.780622
10164000,10164000,-0.21232599,0.1633485,-9.814243
10212000,10212000,-0.20948058,0.17412798,-9.822918
10264000,10264000,-0.20802712,0.17823064,-9.786562
10312000,10312000,-0.17688836,0.16508655,-9.822399
10364000,10364000,-0.21418542,0.18462193,-9.761747
10412000,10412000,-0.19446917,0.1620977,-9.788703
10460000,10460000,-0.21544862,0.1750884,-9.784986
10508000,10508000,-0.19316608,0.16923428,-9.801258
10564000,10564000,-0.17252786,0.1717588,-9.801627
10608000,10608000,-0.20496362,0.18788406,-9.761589
10660000,10660000,-0.19810858,0.15257779,-9.80095
10712000,10712000,-0.18051136,0.18388815,-9.795204
10764000,10764000,-0.18876725,0.17529128,-9.783604
10812000,10812000,-0.18164238,0.14609465,-9.786788
10864000,10864000,-0.1943435,0.16023703,-9.782678
10912000,10912000,-0.21078879,0.15222485,-9.780432
10960000,10960000,-0.20656385,0.14892587,-9.786663
11012000,11012000,-0.21435583,0.16849647,-9.778892
11064000,11064000,-0.18976665,0.15896629,-9.792804
11112000,11112000,-0.15658337,0.19661888,-9.778818
11164000,11164000,-0.21140905,0.1656971,-9.801392
11208000,11208000,-0.18589464,0.17299938,-9.777964
11264000,11264000,-0.1919873,0.15904203,-9.780173
11312000,11312000,-0.19543032,0.13791516,-9.796358
11364000,11364000,-0.16654961,0.14885598,-9.775074
11412000,11412000,-0.21381107,0.15621574,-9.774303
11464000,11464000,-0.19197318,0.17974958,-9.795695
11508000,11508000,-0.1866281,0.14375742,-9.772699
11564000,11564000,-0.20107852,0.16713688,-9.775493
11608000,11608000,-0.22646119,0.18162264,-9.777755
11664000,11664000,-0.21373542,0.16896676,-9.79631
11712000,11712000,-0.20215924,0.16045031,-9.784603
11764000,11764000,-0.17502475,0.16803826,-9.805408
11812000,11812000,-0.18521106,0.16607815,-9.799828
11864000,11864000,-0.20314316,0.20637962,-9.803289
11912000,11912000,-0.19079876,0.17675671,-9.806106
11964000,11964000,-0.21437962,0.16145457,-9.77767
12012000,12012000,-0.15456082,0.16103315,-9.797595
12060000,12060000,-0.20091382,0.16812651,-9.826021
12112000,12112000,-0.19057266,0.17682958,-9.79422
12164000,12164000,-0.17960428,0.14534205,-9.784857
12212000,12212000,-0.18181878,0.17415373,-9.770763
12260000,12260000,-0.18757422,0.16121043,-9.815612
12308000,12308000,-0.17190585,0.13057698,-9.793198
12364000,12364000,-0.18288524,0.1662407,-9.796275
12412000,12412000,-0.20260239,0.19282918,-9.772844
12464000,12464000,-0.1774499,0.18476623,-9.802219
12512000,12512000,-0.19568147,0.1581071,-9.788339
12564000,12564000,-0.18192145,0.1929565,-9.775423
12612000,12612000,-0.16829696,0.16354991,-9.791097
12664000,12664000,-0.19123438,0.18658662,-9.802435
12712000,12712000,-0.20095013,0.18907534,-9.783997
12764000,12764000,-0.19189924,0.1726227,-9.778658
12812000,12812000,-0.1856132,0.17185229,-9.780006
12864000,12864000,-0.18329161,0.18024231,-9.782806
12912000,12912000,-0.2048622,0.18046045,-9.784298
12964000,12964000,-0.20517907,0.15004668,-9.795156
13012000,13012000,-0.18858391,0.17648794,-9.797895
13060000,13060000,-0.179409,0.16795516,-9.777012
13112000,13112000,-0.18965235,0.16921152,-9.76903
13164000,13164000,-0.18693714,0.1779012,-9.790622
13212000,13212000,-0.1854701,0.19817795,-9.799017
13264000,13264000,-0.17991653,0.17206731,-9.813133
13312000,13312000,-0.18523699,0.15766972,-9.777842
13364000,13364000,-0.17623152,0.162897,-9.786863
13412000,13412000,-0.16185565,0.20767249,-9.808562
13464000,13464000,-0.15979597,0.19766387,-9.786303
13508000,13508000,-0.16401531,0.15710372,-9.814909
13560000,13560000,-0.17364827,0.18126687,-9.773489
13612000,13612000,-0.18260266,0.14264655,-9.792498
13660000,13660000,-0.17144275,0.19488744,-9.817641
13712000,13712000,-0.20029049,0.15180029,-9.794042
13764000,13764000,-0.21132857,0.174769,-9.777582
13812000,13812000,-0.20187059,0.15305912,-9.793829
13864000,13864000,-0.19989419,0.16149184,-9.796175
13908000,13908000,-0.17453653,0.14567894,-9.786989
13964000,13964000,-0.19184469,0.1546093,-9.775802
14012000,14012000,-0.2117684,0.16838728,-9.770882
14060000,14060000,-0.16084184,0.15625569,-9.7926655
14112000,14112000,-0.20060752,0.16951488,-9.800044
14164000,14164000,-0.19027156,0.18354802,-9.812769
14212000,14212000,-0.17246303,0.16768219,-9.782557
14264000,14264000,-0.18548809,0.16177273,-9.790834
14312000,14312000,-0.1897737,0.1718935,-9.7975235
14364000,14364000,-0.19869085,0.1510317,-9.808256
14412000,14412000,-0.18350145,0.16917829,-9.797503
14464000,14464000,-0.16208315,0.1474807,-9.790777
14512000,14512000,-0.16664803,0.15435664,-9.777934
14564000,14564000,-0.16193107,0.16333893,-9.807205
14608000,14608000,-0.16632128,0.13919409,-9.800782
14664000,14664000,-0.179793,0.16515969,-9.797923
14708000,14708000,-0.19512315,0.17737056,-9.778663
14764000,14764000,-0.18804121,0.16057648,-9.818708
14812000,14812000,-0.18499726,0.16836204,-9.805764
14860000,14860000,-0.17858009,0.19422555,-9.787545
14912000,14912000,-0.18141007,0.1686388,-9.781863
14964000,14964000,-0.16592714,0.17559929,-9.794601
15012000,15012000,-0.18118325,0.16468987,-9.789035
15064000,15064000,-0.18422747,0.16229078,-9.793055
15112000,15112000,-0.18158287,0.15044737,-9.78548
15164000,15164000,-0.18793027,0.15252198,-9.77375
15212000,15212000,-0.16024625,0.13390246,-9.762928
15264000,15264000,-0.1744754,0.17520547,-9.783808
15312000,15312000,-0.16761595,0.18292755,-9.774716
15364000,15364000,-0.16573858,0.17915285,-9.785191
15412000,15412000,-0.17425343,0.19588865,-9.802256
15464000,15464000,-0.14882563,0.16838276,-9.786195
15508000,15508000,-0.18771964,0.14430717,-9.790466
15564000,15564000,-0.19254668,0.12407491,-9.796932
15608000,15608000,-0.19442552,0.13645555,-9.766996
15664000,15664000,-0.16324437,0.15792939,-9.799668
15712000,15712000,-0.18828718,0.15602654,-9.802558
15764000,15764000,-0.15188289,0.12556747,-9.806408
15812000,15812000,-0.17131351,0.14932133,-9.821934
15864000,15864000,-0.1509268,0.16328233,-9.794404
15912000,15912000,-0.18734708,0.17714785,-9.80258
15964000,15964000,-0.18153727,0.1456619,-9.761205
16012000,16012000,-0.16140796,0.16558288,-9.793007
16060000,16060000,-0.14724244,0.1694869,-9.785273
16108000,16108000,-0.16591424,0.16846871,-9.813561
16160000,16160000,-0.15534776,0.16677022,-9.815008
16212000,16212000,-0.17949238,0.16649467,-9.804466
16264000,16264000,-0.15561627,0.13485584,-9.795983
16308000,16308000,-0.1652431,0.13341965,-9.795618
16360000,16360000,-0.15848994,0.14324082,-9.78008
16412000,16412000,-0.16935161,0.1386032,-9.782173
16464000,16464000,-0.17130256,0.14882988,-9.798009
16512000,16512000,-0.17473917,0.1444749,-9.780167
16564000,16564000,-0.15733165,0.16559426,-9.784125
16608000,16608000,-0.18051443,0.17098968,-9.7930765
16664000,16664000,-0.16349721,0.14314337,-9.781837
16712000,16712000,-0.1635716,0.153524,-9.797947
16764000,16764000,-0.18292275,0.13689452,-9.770608
16812000,16812000,-0.14372416,0.1550054,-9.765393
16864000,16864000,-0.16741931,0.15445723,-9.7779045
16912000,16912000,-0.17091773,0.15709215,-9.798392
16960000,16960000,-0.17152181,0.14938149,-9.805942
17012000,17012000,-0.15473564,0.15931694,-9.781173
17064000,17064000,-0.17209461,0.19143564,-9.816324
17112000,17112000,-0.17655349,0.14883551,-9.795748
17164000,17164000,-0.1945197,0.15147285,-9.81819
17212000,17212000,-0.17836663,0.15229169,-9.773168
17264000,17264000,-0.16212344,0.17125936,-9.798855
17312000,17312000,-0.17872605,0.16982508,-9.7674465
17364000,17364000,-0.13878766,0.17825586,-9.817293
17412000,17412000,-0.15745904,0.16769162,-9.790249
17464000,17464000,-0.157314,0.16579768,-9.799303
17508000,17508000,-0.21030998,0.15168989,-9.794609
17564000,17564000,-0.13348334,0.1422888,-9.779252
17612000,17612000,-0.17770149,0.12585846,-9.805514
17660000,17660000,-0.18099707,0.17155987,-9.784813
17712000,17712000,-0.15202843,0.15176895,-9.7982645
17760000,17760000,-0.17629549,0.14703043,-9.812853
17808000,17808000,-0.15608771,0.15473372,-9.784696
17864000,17864000,-0.15182248,0.14683309,-9.774006
17908000,17908000,-0.16345479,0.15030226,-9.792087
17960000,17960000,-0.1636174,0.13641466,-9.765808
18012000,18012000,-0.1806586,0.13760595,-9.783615
18060000,18060000,-0.15023948,0.13207592,-9.780683
18108000,18108000,-0.16235475,0.16162425,-9.774334
18164000,18164000,-0.16309877,0.14143789,-9.797261
18212000,18212000,-0.15364537,0.11564193,-9.782394
18264000,18264000,-0.15155903,0.13230918,-9.832384
18308000,18308000,-0.15460005,0.15750864,-9.7905445
18364000,18364000,-0.17557447,0.15839133,-9.783901
18412000,18412000,-0.17558193,0.14224873,-9.768438
18464000,18464000,-0.17664975,0.13245082,-9.779452
18512000,18512000,-0.16835475,0.15511905,-9.765615
18564000,18564000,-0.1642196,0.13641967,-9.777219
18612000,18612000,-0.16028687,0.14589462,-9.810717
18660000,18660000,-0.17454264,0.15495448,-9.790261
18708000,18708000,-0.18028633,0.14074442,-9.795922
18764000,18764000,-0.1414233,0.14779104,-9.803814
18812000,18812000,-0.15999441,0.12116636,-9.801139
18864000,18864000,-0.18901144,0.14119008,-9.772322
18912000,18912000,-0.17087573,0.15970404,-9.773715
18964000,18964000,-0.18058507,0.14441484,-9.803193
19012000,19012000,-0.15415682,0.15806,-9.777388
19064000,19064000,-0.14246319,0.17009665,-9.7821665
19112000,19112000,-0.15609494,0.14863451,-9.78388
19160000,19160000,-0.1694724,0.16008094,-9.784127
19212000,19212000,-0.18019593,0.15736583,-9.788948
19260000,19260000,-0.12358703,0.15598771,-9.805017
19308000,19308000,-0.14297886,0.12551418,-9.79138
19364000,19364000,-0.14154573,0.1311223,-9.779128
19408000,19408000,-0.15757872,0.15869066,-9.788782
19460000,19460000,-0.17277083,0.14327337,-9.791065
19508000,19508000,-0.13126706,0.12941456,-9.794382
19564000,19564000,-0.14975089,0.15200743,-9.802405
19612000,19612000,-0.17483683,0.15670457,-9.76872
19664000,19664000,-0.13959298,0.14759634,-9.8077965
19712000,19712000,-0.17956102,0.1499885,-9.785528
19764000,19764000,-0.14126945,0.14259903,-9.789139
19812000,19812000,-0.14664024,0.15482765,-9.811398
19864000,19864000,-0.15904677,0.1576663,-9.782835
19912000,19912000,-0.12196798,0.14274903,-9.808819
19964000,19964000,-0.13096572,0.13358377,-9.7978325
20012000,20012000,-0.15827525,0.1328831,-9.786371
20064000,20064000,-0.13399446,0.15029514,-9.792928
20108000,20108000,-0.15944156,0.1453062,-9.81193
20164000,20164000,-0.18237846,0.1669259,-9.775095
20212000,20212000,-0.15041111,0.14094898,-9.823078
20264000,20264000,-0.1723539,0.15229416,-9.769088
20308000,20308000,-0.1589765,0.12727708,-9.781965
20360000,20360000,-0.14925863,0.16835807,-9.812337
20412000,20412000,-0.17183845,0.15025532,-9.78061
20464000,20464000,-0.15922853,0.14561392,-9.772246
20512000,20512000,-0.16021416,0.15777838,-9.796446
20564000,20564000,-0.17240117,0.123946205,-9.781865
20612000,20612000,-0.16950676,0.14252687,-9.791521
20664000,20664000,-0.1603089,0.13367455,-9.796537
20708000,20708000,-0.17002301,0.14336987,-9.803432
20760000,20760000,-0.15412153,0.15172637,-9.788694
20808000,20808000,-0.156042,0.1562608,-9.767919
20860000,20860000,-0.18430153,0.1488893,-9.7661
20908000,20908000,-0.18036547,0.16170335,-9.801028
20964000,20964000,-0.15151456,0.14412601,-9.804675
21012000,21012000,-0.18957722,0.15267828,-9.803953
21064000,21064000,-0.18217729,0.15340874,-9.805073
21108000,21108000,-0.14155397,0.1349042,-9.767131
21164000,21164000,-0.17086576,0.15771902,-9.809065
21212000,21212000,-0.1555315,0.16612433,-9.818512
21264000,21264000,-0.15488517,0.15834337,-9.784679
21308000,21308000,-0.13895757,0.16847262,-9.796791
21364000,21364000,-0.1463126,0.17082556,-9.78045
21412000,21412000,-0.18056074,0.1486664,-9.769731
21464000,21464000,-0.16570613,0.12767962,-9.803674
21512000,21512000,-0.16649532,0.13695556,-9.785904
21564000,21564000,-0.14137098,0.1436628,-9.804989
21612000,21612000,-0.17321403,0.14254121,-9.784832
21664000,21664000,-0.14931007,0.14138977,-9.776791
21712000,21712000,-0.17254165,0.17176387,-9.794328
21764000,21764000,-0.14861602,0.14489679,-9.783144
21812000,21812000,-0.17546251,0.14189802,-9.815161
21864000,21864000,-0.1907973,0.15232795,-9.786296
21912000,21912000,-0.15445058,0.15543161,-9.769577
21960000,21960000,-0.16776201,0.14612259,-9.776228
22012000,22012000,-0.19210976,0.1418479,-9.785093
22064000,22064000,-0.18744381,0.14814013,-9.761856
22112000,22112000,-0.16006853,0.16413228,-9.784979
22164000,22164000,-0.17970803,0.14449996,-9.804445
22212000,22212000,-0.15840608,0.14718145,-9.807013
22264000,22264000,-0.1787481,0.1359479,-9.791694
22308000,22308000,-0.1816955,0.13196169,-9.768389
22360000,22360000,-0.152474,0.1731793,-9.764278
22408000,22408000,-0.1663531,0.13222349,-9.794508
22464000,22464000,-0.16847199,0.17441794,-9.793816
22512000,22512000,-0.1389201,0.13703796,-9.789709
22564000,22564000,-0.15188847,0.15208212,-9.766153
22612000,22612000,-0.1589107,0.14775947,-9.784458
22664000,22664000,-0.141767,0.13382453,-9.804418
22712000,22712000,-0.15996456,0.14633504,-9.808054
22760000,22760000,-0.15813662,0.15343213,-9.772522
22812000,22812000,-0.16186786,0.13321246,-9.782037
22864000,22864000,-0.17263451,0.12147829,-9.77254
22908000,22908000,-0.1559602,0.1367049,-9.780976
22964000,22964000,-0.14473501,0.16062184,-9.794917
23012000,23012000,-0.14630008,0.15652046,-9.801207
23060000,23060000,-0.13974872,0.16418225,-9.774265
23108000,23108000,-0.15094955,0.15714799,-9.798502
23164000,23164000,-0.16997941,0.13507351,-9.788404
23212000,23212000,-0.16571409,0.15430951,-9.773845
23264000,23264000,-0.1699735,0.13679321,-9.767581
23312000,23312000,-0.16339588,0.17448245,-9.784809
23364000,23364000,-0.16847268,0.14354035,-9.799095
23412000,23412000,-0.13370961,0.14393829,-9.801792
23464000,23464000,-0.17707306,0.15195483,-9.805267
23512000,23512000,-0.14138417,0.13653716,-9.803713
23564000,23564000,-0.14870541,0.14672975,-9.77734
23612000,23612000,-0.14829722,0.15794535,-9.784203
23664000,23664000,-0.15822348,0.15852068,-9.786514
23712000,23712000,-0.14328337,0.13999224,-9.795952
23764000,23764000,-0.14381525,0.16899416,-9.7739105
23812000,23812000,-0.1615558,0.1392638,-9.784764
23864000,23864000,-0.16821778,0.14661434,-9.81656
23912000,23912000,-0.16626425,0.14203265,-9.800804
23964000,23964000,-0.14170186,0.14911298,-9.811201
24012000,24012000,-0.16597451,0.14211752,-9.828867
24064000,24064000,-0.16078913,0.1338383,-9.784589
24112000,24112000,-0.17264466,0.13554756,-9.808367
24164000,24164000,-0.14529258,0.14716464,-9.782729
24208000,24208000,-0.14783974,0.1544749,-9.776655
24260000,24260000,-0.16544445,0.120634526,-9.79085
24308000,24308000,-0.15887871,0.15056576,-9.779998
24360000,24360000,-0.16160145,0.13783282,-9.782047
24408000,24408000,-0.17055312,0.11379475,-9.803627
24460000,24460000,-0.13766994,0.15089856,-9.779863
24508000,24508000,-0.19348651,0.134123,-9.787602
24564000,24564000,-0.15637559,0.14146835,-9.781106
24612000,24612000,-0.14298368,0.16173683,-9.789206
24664000,24664000,-0.17684022,0.17207478,-9.787948
24712000,24712000,-0.17728373,0.120632805,-9.778031
24764000,24764000,-0.15993635,0.1203428,-9.797507
24812000,24812000,-0.16698715,0.13387737,-9.805237
24864000,24864000,-0.19137233,0.14162034,-9.792721
24912000,24912000,-0.16145483,0.15260692,-9.779135
24964000,24964000,-0.15704829,0.14469168,-9.781767
25012000,25012000,-0.18402292,0.1383412,-9.773979
25064000,25064000,-0.15465657,0.16130799,-9.788555
25112000,25112000,-0.16868523,0.11819338,-9.786624
25164000,25164000,-0.15808256,0.14871417,-9.811452
25212000,25212000,-0.16858983,0.13514577,-9.788101
25264000,25264000,-0.14587438,0.14904323,-9.788927
25312000,25312000,-0.17213231,0.16302922,-9.781036
25364000,25364000,-0.16814275,0.16848296,-9.809044
25412000,25412000,-0.17421731,0.15551542,-9.7899885
25464000,25464000,-0.15771644,0.14782679,-9.794114
25508000,25508000,-0.16126631,0.12158556,-9.788015
25560000,25560000,-0.19465244,0.1334493,-9.7725315
25608000,25608000,-0.14765052,0.16285068,-9.791785
25664000,25664000,-0.13959509,0.15845054,-9.920447
25712000,25712000,-0.18332532,0.18656148,-10.0441475
25764000,25764000,-0.17897414,0.13669755,-10.123503
25812000,25812000,-0.16230741,0.12888417,-10.203438
25864000,25864000,-0.1041269,0.044531044,-10.242201
25912000,25912000,-0.12990028,0.1281177,-10.2225065
25964000,25964000,-0.15495841,0.16071296,-10.288498
26012000,26012000,-0.18530045,0.13808452,-10.410049
26064000,26064000,-0.11993234,0.12676477,-10.514458
26112000,26112000,-0.13592583,0.15564863,-10.6141
26164000,26164000,-0.13576256,0.13058221,-10.686567
26212000,26212000,-0.11961309,0.11859739,-10.672705
26264000,26264000,-0.11574579,0.11468472,-10.736257
26312000,26312000,-0.11299661,0.104631595,-10.7302265
26364000,26364000,-0.13741452,0.12174598,-10.70829
26412000,26412000,-0.10931562,0.10602337,-10.706773
26464000,26464000,-0.10280479,0.116702154,-10.72012
26512000,26512000,-0.13275652,0.09732585,-10.657767
26560000,26560000,-0.10147287,0.11203443,-10.44166
26612000,26612000,-0.14395367,0.11796537,-10.13546
26664000,26664000,-0.1313829,0.11945818,-9.89802
26712000,26712000,-0.14571115,0.12536111,-9.682232
26764000,26764000,-0.1436938,0.12025271,-9.538725
26812000,26812000,-0.12570901,0.13500819,-9.66444
26864000,26864000,-0.1437135,0.11382806,-9.807987
26912000,26912000,-0.15468656,0.13004297,-9.896101
26964000,26964000,-0.13141726,0.13851236,-9.904855
27012000,27012000,-0.13949957,0.13762783,-9.907053
27064000,27064000,-0.14943069,0.10746005,-9.925592
27112000,27112000,-0.12861338,0.13537091,-9.948326
27164000,27164000,-0.11579468,0.13674262,-9.915623
27208000,27208000,-0.15122753,0.17572938,-9.868455
27260000,27260000,-0.1395505,0.15714788,-9.886522
27312000,27312000,-0.15913501,0.17123485,-9.881558
27360000,27360000,-0.1342352,0.1784569,-9.862302
27412000,27412000,-0.11839394,0.18057135,-9.830061
27464000,27464000,-0.15999383,0.19678038,-9.856518
27508000,27508000,-0.18745969,0.1834672,-9.8359585
27564000,27564000,-0.158856,0.17015304,-9.780401
27612000,27612000,-0.16784419,0.17106538,-9.775438
27660000,27660000,-0.1786042,0.17360234,-9.798035
27708000,27708000,-0.1741539,0.18318929,-9.806291
27764000,27764000,-0.1677902,0.19912583,-9.787937
27812000,27812000,-0.15701233,0.1833834,-9.787874
27864000,27864000,-0.1898715,0.19674264,-9.816781
27912000,27912000,-0.1799616,0.17731866,-9.767442
27960000,27960000,-0.1882136,0.17842315,-9.695945
28012000,28012000,-0.17438117,0.1901755,-9.703319
28064000,28064000,-0.16755521,0.20672175,-9.741678
28112000,28112000,-0.16331539,0.18124448,-9.742283
28164000,28164000,-0.18840605,0.19551411,-9.730583
28212000,28212000,-0.17101792,0.19534779,-9.714752
28264000,28264000,-0.17564759,0.20120871,-9.720459
28312000,28312000,-0.21751992,0.20315063,-9.692726
28360000,28360000,-0.20504951,0.19818448,-9.662281
28408000,28408000,-0.21182929,0.2146703,-9.659214
28464000,28464000,-0.19615617,0.20658804,-9.694989
28512000,28512000,-0.19333422,0.19939163,-9.618771
28564000,28564000,-0.18653798,0.22711724,-9.62006
28612000,28612000,-0.21579942,0.21121612,-9.619742
28660000,28660000,-0.21655168,0.20039254,-9.633619
28712000,28712000,-0.21378174,0.21293615,-9.619846
28764000,28764000,-0.19333452,0.22319086,-9.610845
28808000,28808000,-0.19506446,0.16660905,-9.543289
28860000,28860000,-0.18921673,0.1946744,-9.610552
28908000,28908000,-0.1835784,0.20632789,-9.579468
28964000,28964000,-0.18412495,0.21902564,-9.487364
29012000,29012000,-0.19553158,0.22426957,-9.29227
29064000,29064000,-0.1913101,0.24126822,-9.037676
29112000,29112000,-0.17339814,0.18237297,-8.815124
29160000,29160000,-0.19869143,0.21025613,-8.588772
29212000,29212000,-0.20134456,0.16912019,-8.42719
29264000,29264000,-0.18093452,0.18365353,-8.651657
29312000,29312000,-0.19077331,0.18611234,-8.900986
29364000,29364000,-0.23058872,0.1963509,-9.154747
29408000,29408000,-0.19510245,0.22964399,-9.375354
29460000,29460000,-0.17028788,0.20277637,-9.569441
29512000,29512000,-0.166273,0.18510054,-9.747753
29564000,29564000,-0.20341784,0.18427987,-9.874725
29612000,29612000,-0.17580412,0.17995471,-9.969347
29664000,29664000,-0.18746373,0.21010788,-10.047987
29708000,29708000,-0.18325776,0.18515697,-10.019336
29764000,29764000,-0.20664385,0.19158487,-9.962633
29808000,29808000,-0.18652919,0.16850753,-9.922789
29860000,29860000,-0.19342637,0.19605577,-9.83887
29908000,29908000,-0.18886778,0.16070877,-9.810942
29960000,29960000,-0.19449013,0.18333274,-9.726452
30012000,30012000,-0.17955871,0.196666,-9.729544
30064000,30064000,-0.17677501,0.14554235,-9.720642
30112000,30112000,-0.16559768,0.20369525,-9.705244
30164000,30164000,-0.18698594,0.17646158,-9.712808
30212000,30212000,-0.18950222,0.1728176,-9.726865
30264000,30264000,-0.15346411,0.15790147,-9.739976
30312000,30312000,-0.20494321,0.16980217,-9.703575
30364000,30364000,-0.1895889,0.16595663,-9.6797085
30408000,30408000,-0.20371085,0.15328543,-9.6796875
30460000,30460000,-0.16657147,0.16094731,-9.674382
30508000,30508000,-0.19705431,0.14109778,-9.6926
30560000,30560000,-0.181601,0.1480675,-9.697851
30608000,30608000,-0.1836663,0.14590432,-9.733528
30664000,30664000,-0.20478068,0.16242641,-9.736525
30712000,30712000,-0.1465372,0.18757409,-9.696542
30764000,30764000,-0.1859908,0.16038567,-9.683361
30812000,30812000,-0.1668182,0.1615051,-9.655983
30860000,30860000,-0.17730935,0.15364668,-9.683261
30912000,30912000,-0.1572011,0.15447566,-9.698209
30964000,30964000,-0.16551198,0.16144657,-9.707856
31012000,31012000,-0.17745046,0.14494634,-9.726066
31064000,31064000,-0.1659374,0.1464476,-9.709047
31112000,31112000,-0.16282463,0.15685736,-9.673004
31164000,31164000,-0.18688628,0.1389423,-9.662936
31212000,31212000,-0.18327755,0.12641285,-9.637007
31264000,31264000,-0.16579051,0.14075407,-9.701613
31312000,31312000,-0.1385426,0.15105408,-9.691953
31364000,31364000,-0.19534373,0.15786815,-9.686721
31412000,31412000,-0.15314877,0.16794907,-9.712645
31464000,31464000,-0.18493846,0.15233201,-9.700588
31512000,31512000,-0.16673908,0.15937248,-9.708052
31564000,31564000,-0.17278676,0.17500332,-9.713253
31612000,31612000,-0.17608406,0.13002855,-9.707676
31660000,31660000,-0.17354985,0.15463904,-9.724702
31708000,31708000,-0.17502014,0.15721935,-9.747301
31764000,31764000,-0.17407002,0.1274146,-9.752604
31812000,31812000,-0.14788482,0.13917546,-9.757636
31864000,31864000,-0.19813453,0.1330109,-9.779853
31912000,31912000,-0.17264998,0.1762276,-9.732014
31964000,31964000,-0.1657346,0.16482113,-9.724808
32008000,32008000,-0.16380626,0.14829844,-9.729691
32060000,32060000,-0.17061643,0.17711246,-9.745945
32108000,32108000,-0.18883151,0.16435465,-9.744825
32164000,32164000,-0.13948132,0.13594452,-9.763966
32212000,32212000,-0.1567183,0.11950943,-9.765602
32260000,32260000,-0.18885547,0.12918696,-9.760694
32312000,32312000,-0.1648809,0.15722309,-9.765471
32364000,32364000,-0.18075687,0.14503805,-9.723001
32412000,32412000,-0.17736316,0.14137942,-9.701921
32464000,32464000,-0.16811839,0.15563565,-9.721746
32512000,32512000,-0.16545646,0.1175477,-9.780214
32564000,32564000,-0.19281498,0.15810418,-9.743008
32608000,32608000,-0.15710154,0.18541496,-9.781065
32664000,32664000,-0.17170471,0.13451532,-9.754913
32712000,32712000,-0.15444133,0.16337028,-9.725019
32760000,32760000,-0.14518295,0.12158346,-9.722328
32808000,32808000,-0.1945567,0.14598998,-9.708172
32864000,32864000,-0.18755648,0.1503966,-9.715455
32912000,32912000,-0.2010318,0.14608863,-9.784774
32960000,32960000,-0.16790101,0.1487101,-9.790201
33012000,33012000,-0.16990282,0.14197023,-9.776624
33060000,33060000,-0.19772826,0.1390327,-9.766608
33112000,33112000,-0.21535414,0.14654775,-9.753005
33164000,33164000,-0.16895229,0.13512424,-9.775679
33212000,33212000,-0.17235616,0.14763427,-9.710786
33264000,33264000,-0.19255298,0.1279499,-9.755764
33312000,33312000,-0.16811268,0.1373456,-9.759734
33364000,33364000,-0.17718288,0.13782261,-9.800138
33412000,33412000,-0.17922492,0.14883746,-9.796364
33464000,33464000,-0.16796377,0.14711682,-9.815336
33512000,33512000,-0.18216045,0.1545109,-9.74495
33564000,33564000,-0.18799923,0.120014384,-9.748884
33612000,33612000,-0.20101167,0.14183177,-9.73609
33664000,33664000,-0.16322155,0.14555281,-9.723006
33712000,33712000,-0.18109693,0.13993718,-9.7403345
33764000,33764000,-0.17100948,0.14680347,-9.7814045
33812000,33812000,-0.16434374,0.16808699,-9.7825985
33864000,33864000,-0.19229396,0.12829664,-9.7695465
33912000,33912000,-0.20439988,0.15758845,-9.731251
33964000,33964000,-0.17691013,0.14070559,-9.685386
34008000,34008000,-0.19097494,0.14993033,-9.661871
34064000,34064000,-0.18601191,0.14857516,-9.70619
34108000,34108000,-0.19215727,0.15380321,-9.736561
34164000,34164000,-0.21060914,0.15178809,-9.718114
34212000,34212000,-0.18732587,0.16177526,-9.76743
34260000,34260000,-0.19111179,0.16017118,-9.783931
34312000,34312000,-0.18603478,0.14480482,-9.758747
34364000,34364000,-0.18609084,0.15061358,-9.738678
34412000,34412000,-0.23290093,0.16419768,-9.722939
34464000,34464000,-0.19947377,0.17596447,-9.746044
34512000,34512000,-0.18867454,0.16735531,-9.758106
34560000,34560000,-0.21233517,0.15884848,-9.7818575
34612000,34612000,-0.21015522,0.15208699,-9.785893
34664000,34664000,-0.19726205,0.17013851,-9.783354
34712000,34712000,-0.18393171,0.15880275,-9.774354
34764000,34764000,-0.19018476,0.17306608,-9.767081
34812000,34812000,-0.23555817,0.17254254,-9.767314
34864000,34864000,-0.19587624,0.16593875,-9.734024
34912000,34912000,-0.21449777,0.1853792,-9.778616
34964000,34964000,-0.1973985,0.16841732,-9.790952
35012000,35012000,-0.19453426,0.17403641,-9.808223
35064000,35064000,-0.2097831,0.15084408,-9.804719
35112000,35112000,-0.18469644,0.16283026,-9.791295
35164000,35164000,-0.19772568,0.1689702,-9.824388
35212000,35212000,-0.2044369,0.18156296,-9.780467
35264000,35264000,-0.2239554,0.15691283,-9.7810955
35308000,35308000,-0.19097397,0.18238257,-9.805293
35360000,35360000,-0.21224836,0.17667784,-9.822679
35408000,35408000,-0.18745083,0.16853118,-9.824095
35460000,35460000,-0.21485673,0.16928878,-9.843838
35508000,35508000,-0.19039868,0.15228614,-9.807788
35560000,35560000,-0.2022204,0.14846551,-9.802653
35612000,35612000,-0.20342818,0.17801002,-9.795273
35664000,35664000,-0.21535371,0.17565854,-9.817364
35712000,35712000,-0.19516303,0.16091503,-9.804275
35764000,35764000,-0.21088229,0.16860636,-9.840799
35812000,35812000,-0.17907172,0.17381647,-9.815504
35864000,35864000,-0.21177559,0.17955273,-9.824041
35912000,35912000,-0.19585505,0.15873031,-9.778725
35964000,35964000,-0.2021558,0.15400828,-9.7807455
36008000,36008000,-0.19921434,0.17056473,-9.755533
36060000,36060000,-0.1922809,0.14663807,-9.7655525
36108000,36108000,-0.20915282,0.16297188,-9.760658
36160000,36160000,-0.19182569,0.18875763,-9.766547
36208000,36208000,-0.19356112,0.18859646,-9.774676
36260000,36260000,-0.20060529,0.15886366,-9.793011
36308000,36308000,-0.1893719,0.16659127,-9.781711
36360000,36360000,-0.18881178,0.18883553,-9.768188
36408000,36408000,-0.20783861,0.19512765,-9.775176
36460000,36460000,-0.21562576,0.174897,-9.765432
36508000,36508000,-0.17116623,0.16330765,-9.804036
36560000,36560000,-0.20169884,0.17866762,-9.79927
36612000,36612000,-0.20070978,0.17482765,-9.7966585
36664000,36664000,-0.23015934,0.17771491,-9.810306
36712000,36712000,-0.22105645,0.18832967,-9.802539
36764000,36764000,-0.21480887,0.16342749,-9.765084
36812000,36812000,-0.19028531,0.18154249,-9.809847
36864000,36864000,-0.17766643,0.18250497,-9.795
36912000,36912000,-0.1708526,0.15598401,-9.798866
36964000,36964000,-0.19965479,0.1724844,-9.830075
37012000,37012000,-0.18770266,0.18339825,-9.808288
37064000,37064000,-0.19511697,0.16724262,-9.815933
37112000,37112000,-0.2060693,0.17777854,-9.808653
37164000,37164000,-0.18529746,0.17581035,-9.80159
37212000,37212000,-0.21154636,0.1725736,-9.809081
37264000,37264000,-0.1775798,0.17093211,-9.792703
37312000,37312000,-0.1644383,0.18965,-9.775328
37364000,37364000,-0.20854214,0.18864344,-9.82012
37412000,37412000,-0.20681593,0.18498003,-9.763515
37464000,37464000,-0.19789532,0.17274182,-9.801338
37512000,37512000,-0.1990907,0.16138597,-9.796514
37564000,37564000,-0.20362303,0.19956677,-9.7890215
37612000,37612000,-0.18421042,0.18359777,-9.798435
37664000,37664000,-0.18441838,0.16303039,-9.813511
37712000,37712000,-0.21102986,0.15535463,-9.777872
37760000,37760000,-0.19877858,0.16230589,-9.819949
37812000,37812000,-0.19565573,0.17700478,-9.83354
37860000,37860000,-0.1982649,0.14662696,-9.804815
37908000,37908000,-0.2157072,0.15419213,-9.822234
37960000,37960000,-0.20749226,0.18154322,-9.781415
38008000,38008000,-0.1723296,0.17158866,-9.768933
38064000,38064000,-0.18929707,0.17143923,-9.770114
38108000,38108000,-0.19925648,0.15745944,-9.783374
38164000,38164000,-0.19811806,0.15605485,-9.819494
38208000,38208000,-0.20441163,0.16062126,-9.815283
38260000,38260000,-0.17423864,0.18406564,-9.80447
38312000,38312000,-0.15361694,0.16496444,-9.78573
38364000,38364000,-0.19666809,0.15948723,-9.76285
38412000,38412000,-0.19108738,0.16793834,-9.754078
38464000,38464000,-0.17332543,0.17178918,-9.771241
38512000,38512000,-0.18488894,0.13950998,-9.784109
38564000,38564000,-0.22670037,0.1755652,-9.801613
38612000,38612000,-0.19039194,0.166318,-9.813642
38660000,38660000,-0.19435269,0.14355057,-9.815346
38708000,38708000,-0.18601885,0.16738915,-9.796112
38760000,38760000,-0.17372638,0.16755906,-9.774303
38812000,38812000,-0.17362672,0.1687409,-9.782384
38864000,38864000,-0.18484728,0.1480318,-9.79989
38912000,38912000,-0.18883008,0.15288542,-9.783675
38964000,38964000,-0.1833515,0.15364248,-9.797057
39012000,39012000,-0.19328852,0.14946681,-9.835811
39064000,39064000,-0.16816813,0.13563392,-9.8092
39112000,39112000,-0.2031729,0.14921862,-9.7996235
39164000,39164000,-0.19458327,0.16730024,-9.784012
39208000,39208000,-0.15971988,0.1622653,-9.7557745
39260000,39260000,-0.17494272,0.14527947,-9.774082
39312000,39312000,-0.20006563,0.1607869,-9.779894
39364000,39364000,-0.18566297,0.15994239,-9.786164
39412000,39412000,-0.18103357,0.15252888,-9.79294
39464000,39464000,-0.21226689,0.18293127,-9.785894
39512000,39512000,-0.19409493,0.1789671,-9.777609
39564000,39564000,-0.1984244,0.13535467,-9.742204
39612000,39612000,-0.1461844,0.14234947,-9.733272
39664000,39664000,-0.17728701,0.16048965,-9.757709
39712000,39712000,-0.19665983,0.16786452,-9.752451
39764000,39764000,-0.16043481,0.14773306,-9.768999
39812000,39812000,-0.18364422,0.15683736,-9.803244
39864000,39864000,-0.17703785,0.1731781,-9.810551
39912000,39912000,-0.16861214,0.19422506,-9.76368
39964000,39964000,-0.1743797,0.15550022,-9.759901
40012000,40012000,-0.19678676,0.15488128,-9.753687
40064000,40064000,-0.18599804,0.12698266,-9.767292
40108000,40108000,-0.18735167,0.1549616,-9.7813225
40160000,40160000,-0.22038618,0.14559373,-9.769443
40208000,40208000,-0.1680557,0.17585722,-9.78294
40264000,40264000,-0.16090898,0.14299886,-9.776201
40312000,40312000,-0.16876788,0.16410348,-9.776752
40364000,40364000,-0.18998896,0.13620202,-9.764368
40412000,40412000,-0.16290906,0.13849415,-9.74849
40464000,40464000,-0.20965819,0.14444421,-9.786204
40512000,40512000,-0.19268581,0.13413933,-9.795406
40564000,40564000,-0.19168499,0.14577192,-9.767424
40612000,40612000,-0.1955297,0.15445061,-9.80205
40660000,40660000,-0.14608012,0.18063869,-9.844131
40712000,40712000,-0.21005017,0.15065283,-9.773363
40764000,40764000,-0.19473037,0.15786672,-9.747985
40812000,40812000,-0.19580457,0.17168462,-9.774036
40864000,40864000,-0.23664,0.16694625,-9.764856
40912000,40912000,-0.18468238,0.1525744,-9.765399
40964000,40964000,-0.18743485,0.16040996,-9.753437
41012000,41012000,-0.18492293,0.14829431,-9.787642
41060000,41060000,-0.20303783,0.14787912,-9.791838
41112000,41112000,-0.19017112,0.16209105,-9.736259
41164000,41164000,-0.21253517,0.18296832,-9.737399
41212000,41212000,-0.20474793,0.1827316,-9.747732
41264000,41264000,-0.18222958,0.16671991,-9.757458
41312000,41312000,-0.20195737,0.16640005,-9.784086
41364000,41364000,-0.17361975,0.15792857,-9.776712
41412000,41412000,-0.18276554,0.17817143,-9.793102
41464000,41464000,-0.19957575,0.13619862,-9.799274
41512000,41512000,-0.20810026,0.15392357,-9.749171
41564000,41564000,-0.20684206,0.19446215,-9.742046
41612000,41612000,-0.18741834,0.16392596,-9.734075
41664000,41664000,-0.1888521,0.16353834,-9.75215
41712000,41712000,-0.15898815,0.16683526,-9.753546
41764000,41764000,-0.18260287,0.16124135,-9.76969
41812000,41812000,-0.18915069,0.16644892,-9.783846
41864000,41864000,-0.18741047,0.17922214,-9.771828
41912000,41912000,-0.18664055,0.1768462,-9.759135
41964000,41964000,-0.16639836,0.17165226,-9.714684
42012000,42012000,-0.1841197,0.17164376,-9.736465
42064000,42064000,-0.18197498,0.16584015,-9.747583
42112000,42112000,-0.1801951,0.17185083,-9.751568
42164000,42164000,-0.19204307,0.16135192,-9.776461
42212000,42212000,-0.15391015,0.14554718,-9.782343
42264000,42264000,-0.18493679,0.16739166,-9.8137455
42308000,42308000,-0.20761378,0.1686883,-9.755402
42360000,42360000,-0.19319299,0.19649269,-9.721502
42412000,42412000,-0.18763572,0.16094874,-9.757225
42464000,42464000,-0.19183779,0.1817056,-9.7093
42512000,42512000,-0.19122827,0.17738725,-9.755469
42564000,42564000,-0.16623142,0.17070107,-9.7801285
42612000,42612000,-0.16245021,0.16723955,-9.753502
42664000,42664000,-0.19582406,0.17661555,-9.804016
42712000,42712000,-0.20718093,0.17210044,-9.741262
42764000,42764000,-0.1721352,0.18425916,-9.729229
42812000,42812000,-0.17724296,0.1808045,-9.736769
42864000,42864000,-0.15805572,0.13694489,-9.707422
42912000,42912000,-0.18132016,0.15759104,-9.737145
42960000,42960000,-0.15382671,0.17203835,-9.7341795
43012000,43012000,-0.19232984,0.16934773,-9.756657
43064000,43064000,-0.18549824,0.16870575,-9.792446
43112000,43112000,-0.17035587,0.16485322,-9.751345
43164000,43164000,-0.1997698,0.14668894,-9.733892
43212000,43212000,-0.16994075,0.17383726,-9.727519
43260000,43260000,-0.1913252,0.18664984,-9.753658
43308000,43308000,-0.1649789,0.13659051,-9.762294
43364000,43364000,-0.17733067,0.16114211,-9.770888
43412000,43412000,-0.1366642,0.16438317,-9.792651
43464000,43464000,-0.17404005,0.17387758,-9.817174
43512000,43512000,-0.17502329,0.16052084,-9.74759
43560000,43560000,-0.18210611,0.19114159,-9.74615
43612000,43612000,-0.17293015,0.1614102,-9.775577
43664000,43664000,-0.17450103,0.15083769,-9.735528
43712000,43712000,-0.17163166,0.17864627,-9.755324
43764000,43764000,-0.16485786,0.18345055,-9.780132
43812000,43812000,-0.16228524,0.15602392,-9.812678
43864000,43864000,-0.15546107,0.19186202,-9.776819
43908000,43908000,-0.17364062,0.17777786,-9.754549
43964000,43964000,-0.20541352,0.16611916,-9.73734
44012000,44012000,-0.17534946,0.20004871,-9.729673
44064000,44064000,-0.1993401,0.17963937,-9.716333
44112000,44112000,-0.19231856,0.16907623,-9.743066
44164000,44164000,-0.1929622,0.16187961,-9.78733
44212000,44212000,-0.16038913,0.16938795,-9.8035755
44260000,44260000,-0.15469237,0.16319379,-9.796558
44308000,44308000,-0.18105797,0.14953554,-9.745572
44364000,44364000,-0.15965092,0.16951025,-9.700694
44408000,44408000,-0.19525714,0.19556499,-9.696364
44464000,44464000,-0.18522091,0.13831039,-9.730904
44512000,44512000,-0.18381245,0.16922705,-9.639869
44560000,44560000,-0.1782346,0.17209929,-9.355394
44612000,44612000,-0.20589429,0.1661208,-8.963242
44664000,44664000,-0.19338728,0.16776533,-8.641228
44708000,44708000,-0.1826514,0.15077461,-8.368864
44764000,44764000,-0.2073755,0.15381062,-8.06064
44812000,44812000,-0.17444941,0.15516916,-7.8774643
44864000,44864000,-0.20133638,0.15567493,-7.6731143
44912000,44912000,-0.16734114,0.1833467,-7.5428843
44964000,44964000,-0.18997207,0.17399253,-8.023245
45012000,45012000,-0.18515068,0.16643605,-8.578613
45064000,45064000,-0.19613594,0.14231253,-9.0359535
45108000,45108000,-0.1822919,0.17625605,-9.315856
45164000,45164000,-0.18540058,0.15710965,-9.644466
45212000,45212000,-0.16690515,0.15037633,-9.93615
45260000,45260000,-0.18687087,0.15994327,-10.140568
45308000,45308000,-0.18826804,0.16358832,-10.399917
45364000,45364000,-0.20549583,0.147982,-10.412436
45412000,45412000,-0.18616736,0.15196812,-10.258921
45464000,45464000,-0.16826162,0.124390334,-10.050583
45512000,45512000,-0.20823899,0.13849108,-9.925381
45564000,45564000,-0.21014401,0.12970805,-9.805203
45612000,45612000,-0.20678549,0.16244115,-9.786468
45664000,45664000,-0.15755762,0.16466968,-9.769224
45708000,45708000,-0.19709799,0.15302338,-9.729511
45764000,45764000,-0.19187151,0.14350036,-9.7479925
45812000,45812000,-0.17261702,0.15026323,-9.745663
45864000,45864000,-0.1932283,0.1574539,-9.781535
45912000,45912000,-0.17169383,0.15927443,-9.726289
45964000,45964000,-0.20549919,0.1276229,-9.690645
46008000,46008000,-0.17706633,0.15263519,-9.694113
46064000,46064000,-0.1828229,0.13949442,-9.702307
46112000,46112000,-0.19861618,0.15142918,-9.710999
46160000,46160000,-0.18548492,0.15722045,-9.730087
46212000,46212000,-0.17193371,0.12651429,-9.773195
46260000,46260000,-0.17541867,0.12578408,-9.776924
46312000,46312000,-0.16039926,0.1483987,-9.7497
46364000,46364000,-0.19806607,0.16172136,-9.762053
46412000,46412000,-0.16582695,0.13910864,-9.733699
46464000,46464000,-0.18046512,0.16168365,-9.764909
46512000,46512000,-0.19029681,0.13245063,-9.770829
46564000,46564000,-0.19508837,0.12510736,-9.786031
46612000,46612000,-0.17336594,0.11172196,-9.792732
46664000,46664000,-0.1648196,0.1042692,-9.82013
46712000,46712000,-0.14843912,0.111096054,-9.768132
46764000,46764000,-0.19496104,0.12361766,-9.753799
46812000,46812000,-0.21927088,0.12114808,-9.747736
46864000,46864000,-0.2164312,0.13379088,-9.734675
46912000,46912000,-0.17496526,0.13206747,-9.690143
46964000,46964000,-0.19784899,0.12933548,-9.773978
47012000,47012000,-0.1932391,0.1285472,-9.737528
47064000,47064000,-0.20747527,0.14602768,-9.774288
47112000,47112000,-0.20119223,0.12242837,-9.765568
47164000,47164000,-0.17552936,0.14120513,-9.758492
47212000,47212000,-0.16944586,0.1147933,-9.734968
47264000,47264000,-0.17358497,0.14784999,-9.742088
47312000,47312000,-0.19095421,0.12208317,-9.76671
47364000,47364000,-0.1895406,0.16831787,-9.776552
47412000,47412000,-0.18558094,0.15598784,-9.811581
47464000,47464000,-0.20047453,0.1321961,-9.846989
47508000,47508000,-0.19152287,0.14771825,-9.780229
47564000,47564000,-0.20238945,0.12897432,-9.749282
47612000,47612000,-0.19195168,0.13861336,-9.741947
47664000,47664000,-0.19429694,0.13118255,-9.780733
47708000,47708000,-0.1832057,0.14767234,-9.767564
47764000,47764000,-0.20370638,0.13607638,-9.790735
47812000,47812000,-0.1886654,0.1371294,-9.83045
47864000,47864000,-0.19842793,0.119970866,-9.771779
47912000,47912000,-0.20106874,0.13466291,-9.708076
47964000,47964000,-0.19840866,0.13677613,-9.759305
48008000,48008000,-0.1900876,0.110661216,-9.751699
48064000,48064000,-0.20310237,0.17032792,-9.717056
48112000,48112000,-0.18371674,0.09694269,-9.733038
48164000,48164000,-0.18238273,0.15237287,-9.738209
48212000,48212000,-0.19391209,0.10078664,-9.796377
48264000,48264000,-0.19063969,0.16351196,-9.799962
48312000,48312000,-0.1624137,0.1171375,-9.782122
48364000,48364000,-0.2029511,0.13159057,-9.752987
48412000,48412000,-0.20114765,0.13039377,-9.759629
48464000,48464000,-0.2111336,0.14460522,-9.7855215
48512000,48512000,-0.19307837,0.1473007,-9.78117
48564000,48564000,-0.19866507,0.12810199,-9.819743
48612000,48612000,-0.196652,0.14725983,-9.832185
48664000,48664000,-0.1887113,0.12738211,-9.810671
48708000,48708000,-0.19481032,0.14873847,-9.777073
48764000,48764000,-0.19145957,0.1532976,-12.095509
48812000,48812000,-0.21334204,0.14796866,-14.025135
48864000,48864000,-0.18400653,0.13045722,-12.806894
48912000,48912000,-0.18330729,0.1616906,-11.60406
48964000,48964000,-0.18808582,0.1424356,-10.729587
49008000,49008000,-0.18053892,0.13521568,-10.30954
49064000,49064000,-0.18881589,0.15596586,-9.885583
49112000,49112000,-0.20123217,0.13280505,-9.445915
49160000,49160000,-0.20909147,0.14985964,-9.142077
49208000,49208000,-0.18847018,0.1141853,-9.072243
49264000,49264000,-0.18206376,0.13121551,-9.026368
49308000,49308000,-0.1904612,0.14609444,-9.10346
49364000,49364000,-0.18965203,0.14019826,-9.199665
49408000,49408000,-0.17803295,0.16308135,-9.3221245
49464000,49464000,-0.20326751,0.11378166,-9.244843
49512000,49512000,-0.19080319,0.16103083,-9.058966
49564000,49564000,-0.16688737,0.15164974,-8.871941
49612000,49612000,-0.21139155,0.14660545,-8.866854
49664000,49664000,-0.18983716,0.15673031,-8.939188
49712000,49712000,-0.20447165,0.15323605,-9.053675
49764000,49764000,-0.19469164,0.14153793,-9.184426
49812000,49812000,-0.17488503,0.14255808,-9.331024
49864000,49864000,-0.17767425,0.17096126,-9.307996
49908000,49908000,-0.20966606,0.16724819,-9.12306
49964000,49964000,-0.18770382,0.15734887,-8.91739
50012000,50012000,-0.17467722,0.1356925,-8.9637375
50064000,50064000,-0.20379512,0.14379133,-9.00317
50112000,50112000,-0.17769223,0.15142396,-9.129624
50164000,50164000,-0.19296296,0.14757816,-9.270701
50208000,50208000,-0.16069615,0.15012603,-9.365547
50260000,50260000,-0.19685851,0.1309609,-9.412273
50312000,50312000,-0.18743776,0.1600907,-9.171833
50364000,50364000,-0.19469997,0.13791245,-9.017862
50408000,50408000,-0.18357807,0.17109051,-9.000896
50464000,50464000,-0.21490365,0.16347407,-9.064983
50512000,50512000,-0.19266658,0.17005949,-9.224568
50564000,50564000,-0.1779058,0.1615057,-9.3723755
50612000,50612000,-0.1980535,0.14490443,-9.537188
50664000,50664000,-0.2108074,0.13351953,-9.559732
50712000,50712000,-0.19178136,0.14638716,-9.354149
50764000,50764000,-0.18762614,0.15239663,-9.19173
50812000,50812000,-0.18554372,0.14457591,-9.144143
50864000,50864000,-0.17923383,0.15218292,-9.277807
50908000,50908000,-0.2029747,0.14308235,-9.392684
50964000,50964000,-0.1762327,0.15759996,-9.570656
51012000,51012000,-0.19970253,0.15812875,-9.691993
51064000,51064000,-0.18179108,0.14087662,-9.660332
51108000,51108000,-0.17159112,0.12847231,-9.526263
51164000,51164000,-0.17319414,0.14482053,-9.340911
51208000,51208000,-0.19889475,0.11617855,-9.302355
51264000,51264000,-0.18172799,0.17286056,-9.38607
51312000,51312000,-0.20291457,0.15186098,-9.476296
51364000,51364000,-0.1765129,0.14240122,-9.627971
51412000,51412000,0.44168228,2.3494227,-53.6204
51464000,51464000,-0.081752345,0.039330155,-9.109264
51512000,51512000,-0.17983627,0.1239765,-9.780939
51564000,51564000,-0.16592047,0.12115832,-9.780273
51612000,51612000,-0.20534436,0.15981407,-9.7995405
51664000,51664000,-0.20035586,0.16309631,-9.800741
51708000,51708000,-0.20889102,0.15434779,-9.790387
51760000,51760000,-0.18105793,0.14473574,-9.780554
51808000,51808000,-0.21183519,0.12805358,-9.806416
51864000,51864000,-0.1952021,0.13814357,-9.768787
51912000,51912000,-0.21136564,0.14784253,-9.7952795
51964000,51964000,-0.20592965,0.14284968,-9.790149
52012000,52012000,-0.16799988,0.11991556,-9.787068
52064000,52064000,-0.20528561,0.15225239,-9.778575
52112000,52112000,-0.16812849,0.1324864,-9.757246
52164000,52164000,-0.19754544,0.1302305,-9.81227
52212000,52212000,-0.19809683,0.14719209,-9.790781
52264000,52264000,-0.18967843,0.11987635,-9.7801485
52312000,52312000,-0.18065141,0.16345076,-9.792471
52364000,52364000,-0.19314477,0.13982071,-9.774181
52412000,52412000,-0.21271022,0.14671002,-9.798567
52460000,52460000,-0.17901242,0.1201224,-9.782938
52512000,52512000,-0.19694467,0.14343926,-9.796551
52564000,52564000,-0.20287009,0.13254277,-9.794928
52612000,52612000,-0.1998938,0.13868603,-9.8222065
52660000,52660000,-0.19948563,0.16032493,-9.763805
52708000,52708000,-0.17993633,0.14212441,-9.786081
52764000,52764000,-0.17312741,0.13439563,-9.767915
52808000,52808000,-0.19803557,0.17692393,-9.814937
52864000,52864000,-0.18451814,0.11139789,-9.77611
52908000,52908000,-0.21103205,0.17565742,-9.780457
52964000,52964000,-0.17636263,0.122979924,-9.804652
53012000,53012000,-0.19527425,0.1589213,-9.791235
53064000,53064000,-0.21008901,0.16336326,-9.783526
53112000,53112000,-0.19056036,0.16264552,-9.800205
53164000,53164000,-0.19130301,0.14162843,-9.789951
53212000,53212000,-0.1798965,0.13359636,-9.789786
53264000,53264000,-0.18020317,0.1363065,-9.814802
53312000,53312000,-0.20116632,0.14392541,-9.793703
53364000,53364000,-0.22911133,0.14437424,-9.789615
53412000,53412000,-0.20975095,0.1425175,-9.776396
53464000,53464000,-0.23174505,0.1307655,-9.801683
53512000,53512000,-0.21116033,0.13617322,-9.809533
53564000,53564000,-0.1988438,0.13824993,-9.788091
53608000,53608000,-0.20527315,0.15960667,-9.78747
53660000,53660000,-0.20635065,0.1433489,-9.807114
53708000,53708000,-0.16961196,0.113271385,-9.78179
53764000,53764000,-0.21329874,0.15688318,-9.806665
53812000,53812000,-0.19916376,0.14086595,-9.797176
53864000,53864000,-0.18782315,0.17907445,-9.811161
53912000,53912000,-0.19566901,0.1364051,-9.810473
53960000,53960000,-0.22393194,0.11936419,-9.794908
54008000,54008000,-0.19294325,0.13532618,-9.804401
54064000,54064000,-0.2010341,0.13629341,-9.801289
54112000,54112000,-0.19469783,0.14312552,-9.789612
54164000,54164000,-0.19855702,0.1434456,-9.818596
54212000,54212000,-0.21405846,0.14088331,-9.795485
54264000,54264000,-0.21293494,0.15201204,-9.806738
54312000,54312000,-0.21129052,0.15671623,-9.784481
54364000,54364000,-0.20486093,0.14462948,-9.803564
54408000,54408000,-0.22042964,0.16727638,-9.784363
54464000,54464000,-0.20128275,0.16527154,-9.784414
54512000,54512000,-0.20274526,0.14761224,-9.812832
54564000,54564000,-0.17961763,0.13281073,-9.821384
54608000,54608000,-0.20047483,0.112788044,-9.807167
54664000,54664000,-0.20500962,0.14854115,-9.815303
54712000,54712000,-0.20786755,0.12733704,-9.806526
54764000,54764000,-0.21000087,0.13625558,-9.7950535
54812000,54812000,-0.20329082,0.14495246,-9.830755
54864000,54864000,-0.20852643,0.15759857,-9.81761
54912000,54912000,-0.19743471,0.1522071,-9.807133
54964000,54964000,-0.22710799,0.17258275,-9.795047
55012000,55012000,-0.18102798,0.1399598,-9.794188
55064000,55064000,-0.20411474,0.1437367,-9.79744
55112000,55112000,-0.2407667,0.15050265,-9.825111
55164000,55164000,-0.2192244,0.14174242,-9.823155
55212000,55212000,-0.22573674,0.1427201,-9.823604
55264000,55264000,-0.17147443,0.13471122,-9.806783
55312000,55312000,-0.22093414,0.13211147,-9.801678
55364000,55364000,-0.22236711,0.17656888,-9.786854
55412000,55412000,-0.21432826,0.122972414,-9.8178835
55464000,55464000,-0.2093807,0.14704496,-9.814739
55512000,55512000,-0.22376904,0.1393386,-9.829009
55564000,55564000,-0.22522843,0.14691688,-9.827293
55608000,55608000,-0.22124763,0.13875188,-9.808091
55664000,55664000,-0.21057966,0.16338578,-9.8221855
55712000,55712000,-0.20229083,0.13011873,-9.8074
55764000,55764000,-0.20261666,0.13075686,-9.807574
55812000,55812000,-0.19072026,0.1364111,-9.812106
55864000,55864000,-0.22289492,0.13533594,-9.827861
55912000,55912000,-0.22189383,0.12886578,-9.802995
55964000,55964000,-0.22683726,0.15200771,-9.819541
56012000,56012000,-0.22834526,0.14049551,-9.819491
56064000,56064000,-0.24564184,0.14452219,-9.805318
56108000,56108000,-0.2299295,0.13476118,-9.806142
56164000,56164000,-0.23692352,0.13118382,-9.806928
56212000,56212000,-0.21866593,0.14708018,-9.789202
56264000,56264000,-0.23257843,0.13982227,-9.81995
56312000,56312000,-0.23703605,0.14550595,-9.8231
56364000,56364000,-0.22470777,0.15137774,-9.815206
56412000,56412000,-0.2272953,0.13288891,-9.804458
56464000,56464000,-0.24000332,0.13560598,-9.822056
56512000,56512000,-0.23325393,0.15262812,-9.829183
56564000,56564000,-0.2112838,0.16027953,-9.836768
56608000,56608000,-0.20909217,0.15539029,-9.816758
56664000,56664000,-0.21024606,0.14395444,-9.830662
56712000,56712000,-0.19213623,0.14966041,-9.843552
56764000,56764000,-0.23213361,0.14747396,-9.830529
56808000,56808000,-0.21995756,0.16499871,-9.817477
56864000,56864000,-0.21317065,0.1574767,-9.829546
56912000,56912000,-0.22181398,0.123100296,-9.831936
56964000,56964000,-0.2220934,0.16127011,-9.822396
57012000,57012000,-0.22107491,0.13336088,-9.803211
57064000,57064000,-0.19366848,0.12406422,-9.822733
57112000,57112000,-0.21540564,0.14650936,-9.839918
57164000,57164000,-0.22788534,0.16187468,-9.840334
57212000,57212000,-0.1952295,0.15238674,-9.858665
57260000,57260000,-0.20071301,0.16157311,-9.830491
57312000,57312000,-0.22940399,0.15594044,-9.80177
57360000,57360000,-0.22189087,0.12500215,-9.853619
57412000,57412000,-0.21651162,0.1321872,-9.824204
57464000,57464000,-0.20450914,0.15399039,-9.810711
57508000,57508000,-0.21611385,0.14042494,-9.840814
57564000,57564000,-0.21722382,0.13023165,-9.856212
57612000,57612000,-0.22442105,0.14098252,-9.816768
57664000,57664000,-0.22545582,0.16564146,-9.838745
57712000,57712000,-0.22663006,0.13285685,-9.828627
57764000,57764000,-0.21712284,0.15368366,-9.845328
57812000,57812000,-0.22727597,0.1664909,-9.830516
57864000,57864000,-0.1967737,0.17875692,-9.830582
57912000,57912000,-0.24181509,0.14952981,-9.846583
57964000,57964000,-0.21135442,0.14422165,-9.836573
58012000,58012000,-0.19595324,0.14415447,-9.844763
58064000,58064000,-0.23771381,0.13534999,-9.80991
58112000,58112000,-0.21378413,0.13180809,-9.840468
58160000,58160000,-0.21644163,0.14255387,-9.835109
58212000,58212000,-0.20460546,0.14769024,-9.8666935
58264000,58264000,-0.21500362,0.1673274,-9.838726
58312000,58312000,-0.21740466,0.123273134,-9.82964
58364000,58364000,-0.19615632,0.16251391,-9.820133
58408000,58408000,-0.22959702,0.1571434,-9.834383
58460000,58460000,-0.22245249,0.12539953,-9.847532
58508000,58508000,-0.20853268,0.14916822,-9.847142
58564000,58564000,-0.19685689,0.15569413,-9.850621
58612000,58612000,-0.2515003,0.1561172,-9.855573
58664000,58664000,-0.22748615,0.13964209,-9.846346
58712000,58712000,-0.218995,0.16076812,-9.843129
58760000,58760000,-0.22846112,0.13283275,-9.838041
58812000,58812000,-0.20952693,0.15112965,-9.858371
58864000,58864000,-0.23243554,0.17964241,-9.857364
58912000,58912000,-0.22363977,0.16132411,-9.871913
58964000,58964000,-0.23240408,0.13629232,-9.860945
59008000,59008000,-0.25395066,0.12196046,-9.830074
59060000,59060000,-0.23114938,0.13868812,-9.848552
59112000,59112000,-0.21319723,0.15836222,-9.854627
59164000,59164000,-0.22115928,0.10838018,-9.865298
59212000,59212000,-0.22877084,0.13231963,-9.8373165
59264000,59264000,-0.22613989,0.14732032,-9.851564
59312000,59312000,-0.23139518,0.15116775,-9.842557
59364000,59364000,-0.21766171,0.14552775,-9.843342
59412000,59412000,-0.20384675,0.12854467,-9.866146
59464000,59464000,-0.2117812,0.13426268,-9.841291
