timestamp,roll_body,pitch_body,yaw_body,yaw_sp_move_rate,q_d[0],q_d[1],q_d[2],q_d[3],thrust_body[0],thrust_body[1],thrust_body[2],reset_integral,fw_control_yaw_wheel
3212000,0.0,0.0,4.9679817e-05,0.0,1.0,0.0,0.0,2.4839908e-05,0.0,0.0,-0.001,0,0
3220000,0.0,0.0,3.4059107e-05,0.0,1.0,0.0,0.0,1.7029553e-05,0.0,0.0,-0.001,0,0
3260000,0.0,-0.0,1.6276462,0.0,0.68672436,0.0,0.0,0.7269179,0.0,0.0,-0.001,0,0
3308000,0.0,-0.0,1.6276275,0.0,0.68673116,0.0,0.0,0.7269115,0.0,0.0,-0.001,0,0
3356000,0.0,-0.0,1.6276395,0.0,0.6867268,0.0,0.0,0.7269157,0.0,0.0,-0.001,0,0
3404000,0.0,-0.0,1.6276077,0.0,0.6867384,0.0,0.0,0.7269047,0.0,0.0,-0.001,0,0
3460000,0.0,-0.0,1.6332822,0.0,0.6846732,0.0,0.0,0.72885025,0.0,0.0,-0.001,0,0
3508000,0.0,-0.0,1.633437,0.0,0.68461674,0.0,0.0,0.72890323,0.0,0.0,-0.001,0,0
3556000,0.0,-0.0,1.6333886,0.0,0.6846344,0.0,0.0,0.72888666,0.0,0.0,-0.001,0,0
3604000,0.0,-0.0,1.6333452,0.0,0.68465024,0.0,0.0,0.7288718,0.0,0.0,-0.001,0,0
3660000,0.0,-0.0,1.6333427,0.0,0.68465114,0.0,0.0,0.7288709,0.0,0.0,-0.001,0,0
3708000,0.0,-0.0,1.633095,0.0,0.6847414,0.0,0.0,0.72878623,0.0,0.0,-0.001,0,0
3764000,0.0,-0.0,1.6328071,0.0,0.6848463,0.0,0.0,0.72868764,0.0,0.0,-0.001,0,0
3804000,0.0,-0.0,1.6326319,0.0,0.6849101,0.0,0.0,0.7286276,0.0,0.0,-0.001,0,0
3860000,0.0,-0.0,1.6324121,0.0,0.6849902,0.0,0.0,0.7285523,0.0,0.0,-0.001,0,0
3908000,0.0,-0.0,1.6318951,0.0,0.6851785,0.0,0.0,0.7283752,0.0,0.0,-0.001,0,0
3964000,0.0,-0.0,1.6311213,0.0,0.68546027,0.0,0.0,0.72811,0.0,0.0,-0.001,0,0
4012000,0.0,-0.0,1.6304038,0.0,0.68572146,0.0,0.0,0.7278641,0.0,0.0,-0.001,0,0
4060000,0.0,-0.0,1.6296151,0.0,0.68600845,0.0,0.0,0.7275936,0.0,0.0,-0.001,0,0
4108000,0.0,-0.0,1.6288636,0.0,0.6862818,0.0,0.0,0.7273357,0.0,0.0,-0.001,0,0
4164000,0.0,-0.0,1.6281867,0.0,0.6865279,0.0,0.0,0.72710353,0.0,0.0,-0.001,0,0
4212000,0.0,-0.0,1.6278768,0.0,0.68664056,0.0,0.0,0.7269971,0.0,0.0,-0.001,0,0
4260000,0.0,-0.0,1.6277022,0.0,0.686704,0.0,0.0,0.72693723,0.0,0.0,-0.001,0,0
4308000,0.0,-0.0,1.627616,0.0,0.68673533,0.0,0.0,0.72690755,0.0,0.0,-0.001,0,0
4356000,0.0,-0.0,1.6273991,0.0,0.6868142,0.0,0.0,0.726833,0.0,0.0,-0.001,0,0
4404000,0.0,-0.0,1.6270723,0.0,0.6869329,0.0,0.0,0.72672087,0.0,0.0,-0.001,0,0
4460000,0.0,-0.0,1.6267365,0.0,0.68705493,0.0,0.0,0.7266056,0.0,0.0,-0.001,0,0
4508000,0.0,-0.0,1.6263093,0.0,0.68721014,0.0,0.0,0.72645867,0.0,0.0,-0.001,0,0
4564000,0.0,-0.0,1.626,0.0,0.68732244,0.0,0.0,0.72635245,0.0,0.0,-0.001,0,0
4604000,0.0,-0.0,1.6258541,0.0,0.6873754,0.0,0.0,0.7263023,0.0,0.0,-0.001,0,0
4660000,0.0,-0.0,1.6257304,0.0,0.68742037,0.0,0.0,0.72625977,0.0,0.0,-0.001,0,0
4708000,0.0,-0.0,1.6254163,0.0,0.6875344,0.0,0.0,0.7261519,0.0,0.0,-0.001,0,0
4756000,0.0,-0.0,1.6248101,0.0,0.6877545,0.0,0.0,0.7259433,0.0,0.0,-0.001,0,0
4812000,0.0,-0.0,1.6235027,0.0,0.68822885,0.0,0.0,0.7254937,0.0,0.0,-0.001,0,0
4860000,0.0,-0.0,1.6225075,0.0,0.6885898,0.0,0.0,0.72515106,0.0,0.0,-0.001,0,0
4908000,0.0,-0.0,1.6224914,0.0,0.68859565,0.0,0.0,0.7251456,0.0,0.0,-0.001,0,0
4964000,0.0,-0.0,1.6231531,0.0,0.6883557,0.0,0.0,0.7253733,0.0,0.0,-0.001,0,0
5004000,0.0,-0.0,1.6238315,0.0,0.6881096,0.0,0.0,0.72560686,0.0,0.0,-0.001,0,0
5060000,0.0,-0.0,1.6243871,0.0,0.687908,0.0,0.0,0.7257979,0.0,0.0,-0.001,0,0
5108000,0.0,-0.0,1.6245129,0.0,0.68786234,0.0,0.0,0.72584116,0.0,0.0,-0.001,0,0
5164000,0.0,-0.0,1.6242976,0.0,0.6879405,0.0,0.0,0.7257672,0.0,0.0,-0.001,0,0
5204000,0.0,-0.0,1.6241952,0.0,0.6879777,0.0,0.0,0.72573185,0.0,0.0,-0.001,0,0
5260000,0.0,-0.0,1.6240109,0.0,0.6880445,0.0,0.0,0.72566855,0.0,0.0,-0.001,0,0
5308000,0.0,-0.0,1.6237421,0.0,0.68814206,0.0,0.0,0.725576,0.0,0.0,-0.001,0,0
5356000,0.0,-0.0,1.6230298,0.0,0.6884004,0.0,0.0,0.725331,0.0,0.0,-0.001,0,0
5412000,0.0,-0.0,1.6221312,0.0,0.68872625,0.0,0.0,0.7250215,0.0,0.0,-0.001,0,0
5460000,0.0,-0.0,1.6214527,0.0,0.6889722,0.0,0.0,0.72478783,0.0,0.0,-0.001,0,0
5508000,0.0,-0.0,1.6208478,0.0,0.68919134,0.0,0.0,0.7245794,0.0,0.0,-0.001,0,0
5556000,0.0,-0.0,1.6204273,0.0,0.6893437,0.0,0.0,0.72443455,0.0,0.0,-0.001,0,0
5604000,0.0,-0.0,1.6202878,0.0,0.6893942,0.0,0.0,0.72438645,0.0,0.0,-0.001,0,0
5660000,0.0,-0.0,1.6213312,0.0,0.68901616,0.0,0.0,0.724746,0.0,0.0,-0.001,0,0
5708000,0.0,-0.0,1.6223999,0.0,0.68862885,0.0,0.0,0.725114,0.0,0.0,-0.001,0,0
5764000,0.0,-0.0,1.6234896,0.0,0.6882336,0.0,0.0,0.72548914,0.0,0.0,-0.001,0,0
5812000,0.0,-0.0,1.6242604,0.0,0.68795395,0.0,0.0,0.7257543,0.0,0.0,-0.001,0,0
5860000,0.0,-0.0,1.6245549,0.0,0.68784714,0.0,0.0,0.7258556,0.0,0.0,-0.001,0,0
5908000,0.0,-0.0,1.6246886,0.0,0.68779856,0.0,0.0,0.72590166,0.0,0.0,-0.001,0,0
5956000,0.0,-0.0,1.6248046,0.0,0.6877565,0.0,0.0,0.7259414,0.0,0.0,-0.001,0,0
6012000,0.0,-0.0,1.6248555,0.0,0.687738,0.0,0.0,0.72595894,0.0,0.0,-0.001,0,0
6060000,0.0,-0.0,1.6247702,0.0,0.687769,0.0,0.0,0.72592956,0.0,0.0,-0.001,0,0
6108000,0.0,-0.0,1.6245048,0.0,0.6878653,0.0,0.0,0.72583836,0.0,0.0,-0.001,0,0
6156000,0.0,-0.0,1.6242619,0.0,0.6879535,0.0,0.0,0.72575486,0.0,0.0,-0.001,0,0
6204000,0.0,-0.0,1.6237551,0.0,0.6881373,0.0,0.0,0.7255806,0.0,0.0,-0.001,0,0
6260000,0.0,-0.0,1.6231747,0.0,0.6883479,0.0,0.0,0.7253807,0.0,0.0,-0.001,0,0
6308000,0.0,-0.0,1.622744,0.0,0.6885041,0.0,0.0,0.7252324,0.0,0.0,-0.001,0,0
6364000,0.0,-0.0,1.6222318,0.0,0.68868977,0.0,0.0,0.7250561,0.0,0.0,-0.001,0,0
6412000,0.0,-0.0,1.6219246,0.0,0.6888011,0.0,0.0,0.7249503,0.0,0.0,-0.001,0,0
6460000,0.0,-0.0,1.62174,0.0,0.68886805,0.0,0.0,0.7248868,0.0,0.0,-0.001,0,0
6508000,0.0,-0.0,1.6216712,0.0,0.688893,0.0,0.0,0.72486305,0.0,0.0,-0.001,0,0
6564000,0.0,-0.0,1.6216608,0.0,0.6888967,0.0,0.0,0.72485954,0.0,0.0,-0.001,0,0
6604000,0.0,-0.0,1.6216031,0.0,0.68891764,0.0,0.0,0.7248396,0.0,0.0,-0.001,0,0
6660000,0.0,-0.0,1.6220838,0.0,0.6887434,0.0,0.0,0.72500527,0.0,0.0,-0.001,0,0
6708000,0.0,-0.0,1.6223971,0.0,0.68862987,0.0,0.0,0.72511303,0.0,0.0,-0.001,0,0
6756000,0.0,-0.0,1.6226823,0.0,0.68852645,0.0,0.0,0.72521126,0.0,0.0,-0.001,0,0
6812000,0.0,-0.0,1.6237679,0.0,0.6881327,0.0,0.0,0.72558486,0.0,0.0,-0.001,0,0
6860000,0.0,-0.0,1.6244899,0.0,0.6878707,0.0,0.0,0.7258333,0.0,0.0,-0.001,0,0
6908000,0.0,-0.0,1.6251367,0.0,0.68763596,0.0,0.0,0.7260556,0.0,0.0,-0.001,0,0
6956000,0.0,-0.0,1.6256689,0.0,0.6874427,0.0,0.0,0.72623867,0.0,0.0,-0.001,0,0
7012000,0.0,-0.0,1.6258217,0.0,0.6873872,0.0,0.0,0.7262912,0.0,0.0,-0.001,0,0
7060000,0.0,-0.0,1.6260457,0.0,0.68730587,0.0,0.0,0.7263682,0.0,0.0,-0.001,0,0
7108000,0.0,-0.0,1.6264195,0.0,0.6871701,0.0,0.0,0.7264966,0.0,0.0,-0.001,0,0
7156000,0.0,-0.0,1.6265879,0.0,0.68710893,0.0,0.0,0.7265544,0.0,0.0,-0.001,0,0
7204000,0.0,-0.0,1.626604,0.0,0.6871031,0.0,0.0,0.72655994,0.0,0.0,-0.001,0,0
7260000,0.0,-0.0,1.6263096,0.0,0.68721,0.0,0.0,0.7264588,0.0,0.0,-0.001,0,0
7308000,0.0,-0.0,1.6260512,0.0,0.6873039,0.0,0.0,0.72637004,0.0,0.0,-0.001,0,0
7364000,0.0,-0.0,1.6262711,0.0,0.687224,0.0,0.0,0.7264456,0.0,0.0,-0.001,0,0
7412000,0.0,-0.0,1.626667,0.0,0.6870802,0.0,0.0,0.7265817,0.0,0.0,-0.001,0,0
7460000,0.0,-0.0,1.6269172,0.0,0.6869893,0.0,0.0,0.7266675,0.0,0.0,-0.001,0,0
7508000,0.0,-0.0,1.6269959,0.0,0.6869607,0.0,0.0,0.72669464,0.0,0.0,-0.001,0,0
7556000,0.0,-0.0,1.62688,0.0,0.6870028,0.0,0.0,0.7266548,0.0,0.0,-0.001,0,0
7612000,0.0,-0.0,1.6266972,0.0,0.68706924,0.0,0.0,0.72659194,0.0,0.0,-0.001,0,0
7660000,0.0,-0.0,1.6267292,0.0,0.68705755,0.0,0.0,0.726603,0.0,0.0,-0.001,0,0
7708000,0.0,-0.0,1.6267053,0.0,0.6870663,0.0,0.0,0.7265947,0.0,0.0,-0.001,0,0
7756000,0.0,-0.0,1.6264817,0.0,0.6871475,0.0,0.0,0.726518,0.0,0.0,-0.001,0,0
7804000,0.0,-0.0,1.6262957,0.0,0.6872151,0.0,0.0,0.72645396,0.0,0.0,-0.001,0,0
7860000,0.0,-0.0,1.6261004,0.0,0.687286,0.0,0.0,0.72638696,0.0,0.0,-0.001,0,0
7908000,0.0,-0.0,1.6259058,0.0,0.6873567,0.0,0.0,0.72632,0.0,0.0,-0.001,0,0
7956000,0.0,-0.0,1.6254072,0.0,0.6875377,0.0,0.0,0.7261487,0.0,0.0,-0.001,0,0
8004000,0.0,-0.0,1.6249801,0.0,0.68769276,0.0,0.0,0.72600186,0.0,0.0,-0.001,0,0
8060000,0.0,-0.0,1.624597,0.0,0.6878318,0.0,0.0,0.7258701,0.0,0.0,-0.001,0,0
8108000,0.0,-0.0,1.6245613,0.0,0.6878448,0.0,0.0,0.7258578,0.0,0.0,-0.001,0,0
8164000,0.0,-0.0,1.6244837,0.0,0.68787295,0.0,0.0,0.7258311,0.0,0.0,-0.001,0,0
8204000,0.0,-0.0,1.6244991,0.0,0.68786734,0.0,0.0,0.72583646,0.0,0.0,-0.001,0,0
8260000,0.0,-0.0,1.6246027,0.0,0.6878298,0.0,0.0,0.725872,0.0,0.0,-0.001,0,0
8308000,0.0,-0.0,1.6249758,0.0,0.6876944,0.0,0.0,0.7260003,0.0,0.0,-0.001,0,0
8364000,0.0,-0.0,1.6249205,0.0,0.6877144,0.0,0.0,0.72598135,0.0,0.0,-0.001,0,0
8412000,0.0,-0.0,1.6244639,0.0,0.68788016,0.0,0.0,0.72582424,0.0,0.0,-0.001,0,0
8460000,0.0,-0.0,1.6239507,0.0,0.68806636,0.0,0.0,0.7256478,0.0,0.0,-0.001,0,0
8508000,0.0,-0.0,1.6235698,0.0,0.6882045,0.0,0.0,0.72551674,0.0,0.0,-0.001,0,0
8556000,0.0,-0.0,1.6234386,0.0,0.68825215,0.0,0.0,0.72547156,0.0,0.0,-0.001,0,0
8612000,0.0,-0.0,1.6234585,0.0,0.68824494,0.0,0.0,0.7254785,0.0,0.0,-0.001,0,0
8660000,0.0,-0.0,1.6233919,0.0,0.6882691,0.0,0.0,0.72545546,0.0,0.0,-0.001,0,0
8708000,0.0,-0.0,1.6232439,0.0,0.6883227,0.0,0.0,0.7254046,0.0,0.0,-0.001,0,0
8764000,0.0,-0.0,1.6231393,0.0,0.6883607,0.0,0.0,0.7253686,0.0,0.0,-0.001,0,0
8804000,0.0,-0.0,1.6231695,0.0,0.6883497,0.0,0.0,0.725379,0.0,0.0,-0.001,0,0
8860000,0.0,-0.0,1.6231866,0.0,0.6883436,0.0,0.0,0.7253848,0.0,0.0,-0.001,0,0
8908000,0.0,-0.0,1.623221,0.0,0.68833107,0.0,0.0,0.72539675,0.0,0.0,-0.001,0,0
8956000,0.0,-0.0,1.6234486,0.0,0.6882485,0.0,0.0,0.725475,0.0,0.0,-0.001,0,0
9004000,0.0,-0.0,1.6237391,0.0,0.68814313,0.0,0.0,0.725575,0.0,0.0,-0.001,0,0
9060000,0.0,-0.0,1.6239313,0.0,0.6880734,0.0,0.0,0.72564113,0.0,0.0,-0.001,0,0
9108000,0.0,-0.0,1.6239668,0.0,0.6880605,0.0,0.0,0.7256533,0.0,0.0,-0.001,0,0
9164000,0.0,-0.0,1.6239413,0.0,0.68806976,0.0,0.0,0.7256445,0.0,0.0,-0.001,0,0
9204000,0.0,-0.0,1.6238945,0.0,0.6880868,0.0,0.0,0.7256284,0.0,0.0,-0.001,0,0
9260000,0.0,-0.0,1.6238227,0.0,0.6881128,0.0,0.0,0.7256038,0.0,0.0,-0.001,0,0
9308000,0.0,-0.0,1.6238304,0.0,0.68811,0.0,0.0,0.7256064,0.0,0.0,-0.001,0,0
9364000,0.0,-0.0,1.6237346,0.0,0.68814474,0.0,0.0,0.7255735,0.0,0.0,-0.001,0,0
9404000,0.0,-0.0,1.6236725,0.0,0.6881673,0.0,0.0,0.725552,0.0,0.0,-0.001,0,0
9460000,0.0,-0.0,1.623638,0.0,0.6881798,0.0,0.0,0.7255402,0.0,0.0,-0.001,0,0
9508000,0.0,-0.0,1.6236529,0.0,0.68817437,0.0,0.0,0.72554535,0.0,0.0,-0.001,0,0
9556000,0.0,-0.0,1.6237239,0.0,0.6881487,0.0,0.0,0.7255697,0.0,0.0,-0.001,0,0
9612000,0.0,-0.0,1.6239043,0.0,0.6880832,0.0,0.0,0.72563183,0.0,0.0,-0.001,0,0
9660000,0.0,-0.0,1.62397,0.0,0.6880594,0.0,0.0,0.72565436,0.0,0.0,-0.001,0,0
9708000,0.0,-0.0,1.624016,0.0,0.68804264,0.0,0.0,0.7256703,0.0,0.0,-0.001,0,0
9756000,0.0,-0.0,1.6240363,0.0,0.6880353,0.0,0.0,0.7256772,0.0,0.0,-0.001,0,0
9812000,0.0,-0.0,1.6239647,0.0,0.6880613,0.0,0.0,0.7256526,0.0,0.0,-0.001,0,0
9860000,0.0,-0.0,1.6238867,0.0,0.6880896,0.0,0.0,0.7256257,0.0,0.0,-0.001,0,0
9908000,0.0,-0.0,1.6237969,0.0,0.68812215,0.0,0.0,0.72559494,0.0,0.0,-0.001,0,0
9956000,0.0,-0.0,1.6237563,0.0,0.6881369,0.0,0.0,0.725581,0.0,0.0,-0.001,0,0
10004000,0.0,-0.0,1.623714,0.0,0.68815225,0.0,0.0,0.7255663,0.0,0.0,-0.001,0,0
10060000,0.0,-0.0,1.6238146,0.0,0.6881158,0.0,0.0,0.72560096,0.0,0.0,-0.001,0,0
10108000,0.0,-0.0,1.6239444,0.0,0.6880686,0.0,0.0,0.7256457,0.0,0.0,-0.001,0,0
10156000,0.0,-0.0,1.6240078,0.0,0.6880456,0.0,0.0,0.7256675,0.0,0.0,-0.001,0,0
10204000,0.0,-0.0,1.6240888,0.0,0.68801624,0.0,0.0,0.72569525,0.0,0.0,-0.001,0,0
10260000,0.0,-0.0,1.624068,0.0,0.6880238,0.0,0.0,0.7256881,0.0,0.0,-0.001,0,0
10308000,0.0,-0.0,1.6239628,0.0,0.688062,0.0,0.0,0.72565186,0.0,0.0,-0.001,0,0
10356000,0.0,-0.0,1.6239557,0.0,0.6880645,0.0,0.0,0.7256496,0.0,0.0,-0.001,0,0
10404000,0.0,-0.0,1.6239877,0.0,0.68805295,0.0,0.0,0.7256605,0.0,0.0,-0.001,0,0
10460000,0.0,-0.0,1.6239872,0.0,0.68805313,0.0,0.0,0.7256603,0.0,0.0,-0.001,0,0
10508000,0.0,-0.0,1.6239207,0.0,0.6880773,0.0,0.0,0.7256375,0.0,0.0,-0.001,0,0
10556000,0.0,-0.0,1.6238004,0.0,0.6881209,0.0,0.0,0.72559613,0.0,0.0,-0.001,0,0
10604000,0.0,-0.0,1.623655,0.0,0.68817365,0.0,0.0,0.7255461,0.0,0.0,-0.001,0,0
10660000,0.0,-0.0,1.6234132,0.0,0.68826133,0.0,0.0,0.725463,0.0,0.0,-0.001,0,0
10708000,0.0,-0.0,1.6232675,0.0,0.6883142,0.0,0.0,0.72541267,0.0,0.0,-0.001,0,0
10756000,0.0,-0.0,1.6232194,0.0,0.68833166,0.0,0.0,0.7253961,0.0,0.0,-0.001,0,0
10804000,0.0,-0.0,1.6232587,0.0,0.6883174,0.0,0.0,0.72540957,0.0,0.0,-0.001,0,0
10860000,0.0,-0.0,1.6232477,0.0,0.68832135,0.0,0.0,0.72540593,0.0,0.0,-0.001,0,0
10908000,0.0,-0.0,1.6232643,0.0,0.6883154,0.0,0.0,0.7254116,0.0,0.0,-0.001,0,0
10956000,0.0,-0.0,1.6233267,0.0,0.68829274,0.0,0.0,0.7254331,0.0,0.0,-0.001,0,0
11012000,0.0,-0.0,1.6233581,0.0,0.68828136,0.0,0.0,0.72544384,0.0,0.0,-0.001,0,0
11060000,0.0,-0.0,1.6233613,0.0,0.68828017,0.0,0.0,0.725445,0.0,0.0,-0.001,0,0
11108000,0.0,-0.0,1.6234107,0.0,0.6882623,0.0,0.0,0.725462,0.0,0.0,-0.001,0,0
11164000,0.0,-0.0,1.6233281,0.0,0.6882922,0.0,0.0,0.7254335,0.0,0.0,-0.001,0,0
11204000,0.0,-0.0,1.6231964,0.0,0.68834,0.0,0.0,0.7253882,0.0,0.0,-0.001,0,0
11260000,0.0,-0.0,1.6230458,0.0,0.6883946,0.0,0.0,0.72533643,0.0,0.0,-0.001,0,0
11308000,0.0,-0.0,1.6230774,0.0,0.68838316,0.0,0.0,0.7253473,0.0,0.0,-0.001,0,0
11356000,0.0,-0.0,1.6231141,0.0,0.68836987,0.0,0.0,0.7253599,0.0,0.0,-0.001,0,0
11412000,0.0,-0.0,1.6230603,0.0,0.68838936,0.0,0.0,0.7253414,0.0,0.0,-0.001,0,0
11460000,0.0,-0.0,1.6232535,0.0,0.6883193,0.0,0.0,0.72540784,0.0,0.0,-0.001,0,0
11508000,0.0,-0.0,1.6234674,0.0,0.68824166,0.0,0.0,0.72548157,0.0,0.0,-0.001,0,0
11564000,0.0,-0.0,1.6236479,0.0,0.6881762,0.0,0.0,0.7255436,0.0,0.0,-0.001,0,0
11604000,0.0,-0.0,1.6238024,0.0,0.6881202,0.0,0.0,0.7255968,0.0,0.0,-0.001,0,0
11660000,0.0,-0.0,1.6239333,0.0,0.6880727,0.0,0.0,0.7256418,0.0,0.0,-0.001,0,0
11708000,0.0,-0.0,1.623965,0.0,0.6880612,0.0,0.0,0.7256527,0.0,0.0,-0.001,0,0
11764000,0.0,-0.0,1.6238722,0.0,0.68809485,0.0,0.0,0.7256208,0.0,0.0,-0.001,0,0
11812000,0.0,-0.0,1.6237477,0.0,0.68814003,0.0,0.0,0.7255779,0.0,0.0,-0.001,0,0
11860000,0.0,-0.0,1.6236882,0.0,0.6881616,0.0,0.0,0.72555745,0.0,0.0,-0.001,0,0
11908000,0.0,-0.0,1.623621,0.0,0.688186,0.0,0.0,0.7255344,0.0,0.0,-0.001,0,0
11956000,0.0,-0.0,1.623589,0.0,0.68819755,0.0,0.0,0.72552335,0.0,0.0,-0.001,0,0
12004000,0.0,-0.0,1.6235045,0.0,0.68822825,0.0,0.0,0.7254942,0.0,0.0,-0.001,0,0
12060000,0.0,-0.0,1.6236053,0.0,0.6881917,0.0,0.0,0.7255289,0.0,0.0,-0.001,0,0
12108000,0.0,-0.0,1.6237099,0.0,0.68815374,0.0,0.0,0.7255649,0.0,0.0,-0.001,0,0
12156000,0.0,-0.0,1.6237236,0.0,0.68814874,0.0,0.0,0.7255697,0.0,0.0,-0.001,0,0
12204000,0.0,-0.0,1.6236933,0.0,0.68815976,0.0,0.0,0.7255593,0.0,0.0,-0.001,0,0
12260000,0.0,-0.0,1.6236724,0.0,0.68816733,0.0,0.0,0.72555196,0.0,0.0,-0.001,0,0
12308000,0.0,-0.0,1.6236321,0.0,0.688182,0.0,0.0,0.72553813,0.0,0.0,-0.001,0,0
12356000,0.0,-0.0,1.6235851,0.0,0.688199,0.0,0.0,0.725522,0.0,0.0,-0.001,0,0
12404000,0.0,-0.0,1.6235986,0.0,0.6881941,0.0,0.0,0.7255266,0.0,0.0,-0.001,0,0
12460000,0.0,-0.0,1.623393,0.0,0.68826866,0.0,0.0,0.7254559,0.0,0.0,-0.001,0,0
12508000,0.0,-0.0,1.6232897,0.0,0.68830615,0.0,0.0,0.7254203,0.0,0.0,-0.001,0,0
12564000,0.0,-0.0,1.6231631,0.0,0.6883521,0.0,0.0,0.72537667,0.0,0.0,-0.001,0,0
12612000,0.0,-0.0,1.6229575,0.0,0.6884267,0.0,0.0,0.7253059,0.0,0.0,-0.001,0,0
12660000,0.0,-0.0,1.6227038,0.0,0.68851864,0.0,0.0,0.72521865,0.0,0.0,-0.001,0,0
12708000,0.0,-0.0,1.622503,0.0,0.6885914,0.0,0.0,0.72514963,0.0,0.0,-0.001,0,0
12764000,0.0,-0.0,1.6224413,0.0,0.68861383,0.0,0.0,0.7251283,0.0,0.0,-0.001,0,0
12812000,0.0,-0.0,1.6224849,0.0,0.68859804,0.0,0.0,0.72514325,0.0,0.0,-0.001,0,0
12860000,0.0,-0.0,1.6223919,0.0,0.6886317,0.0,0.0,0.7251113,0.0,0.0,-0.001,0,0
12908000,0.0,-0.0,1.6222907,0.0,0.68866843,0.0,0.0,0.7250765,0.0,0.0,-0.001,0,0
12956000,0.0,-0.0,1.6222047,0.0,0.6886996,0.0,0.0,0.7250469,0.0,0.0,-0.001,0,0
13004000,0.0,-0.0,1.6221948,0.0,0.6887032,0.0,0.0,0.7250434,0.0,0.0,-0.001,0,0
13060000,0.0,-0.0,1.622401,0.0,0.68862844,0.0,0.0,0.7251144,0.0,0.0,-0.001,0,0
13108000,0.0,-0.0,1.6225364,0.0,0.6885793,0.0,0.0,0.7251611,0.0,0.0,-0.001,0,0
13156000,0.0,-0.0,1.6226555,0.0,0.68853617,0.0,0.0,0.725202,0.0,0.0,-0.001,0,0
13204000,0.0,-0.0,1.6226227,0.0,0.688548,0.0,0.0,0.7251908,0.0,0.0,-0.001,0,0
13260000,0.0,-0.0,1.622501,0.0,0.6885922,0.0,0.0,0.7251488,0.0,0.0,-0.001,0,0
13308000,0.0,-0.0,1.6223754,0.0,0.68863773,0.0,0.0,0.7251056,0.0,0.0,-0.001,0,0
13356000,0.0,-0.0,1.6222992,0.0,0.68866533,0.0,0.0,0.72507936,0.0,0.0,-0.001,0,0
13404000,0.0,-0.0,1.6223336,0.0,0.6886529,0.0,0.0,0.72509116,0.0,0.0,-0.001,0,0
13460000,0.0,-0.0,1.6223881,0.0,0.6886331,0.0,0.0,0.72511,0.0,0.0,-0.001,0,0
13508000,0.0,-0.0,1.6224942,0.0,0.68859464,0.0,0.0,0.7251465,0.0,0.0,-0.001,0,0
13556000,0.0,-0.0,1.6225392,0.0,0.6885783,0.0,0.0,0.72516197,0.0,0.0,-0.001,0,0
13604000,0.0,-0.0,1.62266,0.0,0.6885345,0.0,0.0,0.7252036,0.0,0.0,-0.001,0,0
13660000,0.0,-0.0,1.622736,0.0,0.68850696,0.0,0.0,0.72522974,0.0,0.0,-0.001,0,0
13708000,0.0,-0.0,1.6227784,0.0,0.6884916,0.0,0.0,0.72524434,0.0,0.0,-0.001,0,0
13764000,0.0,-0.0,1.6230756,0.0,0.6883838,0.0,0.0,0.7253467,0.0,0.0,-0.001,0,0
13804000,0.0,-0.0,1.6231447,0.0,0.6883587,0.0,0.0,0.72537047,0.0,0.0,-0.001,0,0
13860000,0.0,-0.0,1.6231691,0.0,0.6883499,0.0,0.0,0.72537875,0.0,0.0,-0.001,0,0
13908000,0.0,-0.0,1.6230571,0.0,0.6883905,0.0,0.0,0.72534037,0.0,0.0,-0.001,0,0
13956000,0.0,-0.0,1.6229401,0.0,0.688433,0.0,0.0,0.72529995,0.0,0.0,-0.001,0,0
14004000,0.0,-0.0,1.6227653,0.0,0.68849635,0.0,0.0,0.72523975,0.0,0.0,-0.001,0,0
14060000,0.0,-0.0,1.6224508,0.0,0.6886104,0.0,0.0,0.7251316,0.0,0.0,-0.001,0,0
14108000,0.0,-0.0,1.6221948,0.0,0.6887032,0.0,0.0,0.7250434,0.0,0.0,-0.001,0,0
14156000,0.0,-0.0,1.6218497,0.0,0.6888283,0.0,0.0,0.7249246,0.0,0.0,-0.001,0,0
14204000,0.0,-0.0,1.6215487,0.0,0.6889374,0.0,0.0,0.72482085,0.0,0.0,-0.001,0,0
14260000,0.0,-0.0,1.6212591,0.0,0.6890423,0.0,0.0,0.7247211,0.0,0.0,-0.001,0,0
14308000,0.0,-0.0,1.6208558,0.0,0.6891884,0.0,0.0,0.72458214,0.0,0.0,-0.001,0,0
14364000,0.0,-0.0,1.6204689,0.0,0.6893286,0.0,0.0,0.7244488,0.0,0.0,-0.001,0,0
14412000,0.0,-0.0,1.6202518,0.0,0.6894073,0.0,0.0,0.72437394,0.0,0.0,-0.001,0,0
14460000,0.0,-0.0,1.6201324,0.0,0.68945044,0.0,0.0,0.7243328,0.0,0.0,-0.001,0,0
14508000,0.0,-0.0,1.6201311,0.0,0.6894509,0.0,0.0,0.7243324,0.0,0.0,-0.001,0,0
14556000,0.0,-0.0,1.6201634,0.0,0.68943924,0.0,0.0,0.7243435,0.0,0.0,-0.001,0,0
14604000,0.0,-0.0,1.6202004,0.0,0.6894258,0.0,0.0,0.7243563,0.0,0.0,-0.001,0,0
14660000,0.0,-0.0,1.6202389,0.0,0.6894119,0.0,0.0,0.7243696,0.0,0.0,-0.001,0,0
14708000,0.0,-0.0,1.6203061,0.0,0.68938756,0.0,0.0,0.7243927,0.0,0.0,-0.001,0,0
14756000,0.0,-0.0,1.6203307,0.0,0.6893787,0.0,0.0,0.72440124,0.0,0.0,-0.001,0,0
14804000,0.0,-0.0,1.6203413,0.0,0.68937486,0.0,0.0,0.72440475,0.0,0.0,-0.001,0,0
14860000,0.0,-0.0,1.620216,0.0,0.6894202,0.0,0.0,0.72436166,0.0,0.0,-0.001,0,0
14908000,0.0,-0.0,1.6198788,0.0,0.68954235,0.0,0.0,0.7242454,0.0,0.0,-0.001,0,0
14956000,0.0,-0.0,1.619567,0.0,0.68965524,0.0,0.0,0.72413784,0.0,0.0,-0.001,0,0
15004000,0.0,-0.0,1.6192794,0.0,0.6897594,0.0,0.0,0.7240387,0.0,0.0,-0.001,0,0
15060000,0.0,-0.0,1.6191871,0.0,0.68979275,0.0,0.0,0.72400695,0.0,0.0,-0.001,0,0
15108000,0.0,-0.0,1.6192253,0.0,0.6897789,0.0,0.0,0.72402006,0.0,0.0,-0.001,0,0
15156000,0.0,-0.0,1.6192055,0.0,0.6897861,0.0,0.0,0.72401327,0.0,0.0,-0.001,0,0
15212000,0.0,-0.0,1.6191183,0.0,0.68981767,0.0,0.0,0.7239831,0.0,0.0,-0.001,0,0
15260000,0.0,-0.0,1.6190124,0.0,0.689856,0.0,0.0,0.72394663,0.0,0.0,-0.001,0,0
15308000,0.0,-0.0,1.6189895,0.0,0.6898643,0.0,0.0,0.72393876,0.0,0.0,-0.001,0,0
15364000,0.0,-0.0,1.6189902,0.0,0.68986404,0.0,0.0,0.72393894,0.0,0.0,-0.001,0,0
15404000,0.0,-0.0,1.6189595,0.0,0.6898751,0.0,0.0,0.72392845,0.0,0.0,-0.001,0,0
15460000,0.0,-0.0,1.6189613,0.0,0.6898745,0.0,0.0,0.723929,0.0,0.0,-0.001,0,0
15508000,0.0,-0.0,1.6188644,0.0,0.6899096,0.0,0.0,0.72389555,0.0,0.0,-0.001,0,0
15556000,0.0,-0.0,1.6188209,0.0,0.6899253,0.0,0.0,0.7238806,0.0,0.0,-0.001,0,0
15604000,0.0,-0.0,1.6188947,0.0,0.6898986,0.0,0.0,0.7239061,0.0,0.0,-0.001,0,0
15660000,0.0,-0.0,1.6189795,0.0,0.6898679,0.0,0.0,0.7239353,0.0,0.0,-0.001,0,0
15708000,0.0,-0.0,1.6190366,0.0,0.68984723,0.0,0.0,0.72395504,0.0,0.0,-0.001,0,0
15756000,0.0,-0.0,1.6190451,0.0,0.6898442,0.0,0.0,0.7239579,0.0,0.0,-0.001,0,0
15804000,0.0,-0.0,1.6189526,0.0,0.6898776,0.0,0.0,0.72392595,0.0,0.0,-0.001,0,0
15860000,0.0,-0.0,1.618888,0.0,0.689901,0.0,0.0,0.72390383,0.0,0.0,-0.001,0,0
15908000,0.0,-0.0,1.6189038,0.0,0.68989533,0.0,0.0,0.72390914,0.0,0.0,-0.001,0,0
15964000,0.0,-0.0,1.6188897,0.0,0.6899004,0.0,0.0,0.7239044,0.0,0.0,-0.001,0,0
16004000,0.0,-0.0,1.618825,0.0,0.6899238,0.0,0.0,0.723882,0.0,0.0,-0.001,0,0
16060000,0.0,-0.0,1.6188512,0.0,0.68991435,0.0,0.0,0.7238911,0.0,0.0,-0.001,0,0
16108000,0.0,-0.0,1.6187454,0.0,0.6899526,0.0,0.0,0.7238546,0.0,0.0,-0.001,0,0
16156000,0.0,-0.0,1.6186717,0.0,0.6899793,0.0,0.0,0.7238291,0.0,0.0,-0.001,0,0
16212000,0.0,-0.0,1.6185653,0.0,0.6900178,0.0,0.0,0.7237924,0.0,0.0,-0.001,0,0
16260000,0.0,-0.0,1.6184131,0.0,0.6900729,0.0,0.0,0.7237399,0.0,0.0,-0.001,0,0
16308000,0.0,-0.0,1.6182699,0.0,0.6901247,0.0,0.0,0.72369045,0.0,0.0,-0.001,0,0
16356000,0.0,-0.0,1.6181133,0.0,0.6901814,0.0,0.0,0.7236365,0.0,0.0,-0.001,0,0
16404000,0.0,-0.0,1.6179873,0.0,0.690227,0.0,0.0,0.72359294,0.0,0.0,-0.001,0,0
16460000,0.0,-0.0,1.6179333,0.0,0.6902465,0.0,0.0,0.7235743,0.0,0.0,-0.001,0,0
16508000,0.0,-0.0,1.6178916,0.0,0.6902616,0.0,0.0,0.72355986,0.0,0.0,-0.001,0,0
16564000,0.0,-0.0,1.6179087,0.0,0.6902554,0.0,0.0,0.7235658,0.0,0.0,-0.001,0,0
16604000,0.0,-0.0,1.6179556,0.0,0.6902384,0.0,0.0,0.723582,0.0,0.0,-0.001,0,0
16660000,0.0,-0.0,1.6180619,0.0,0.6902,0.0,0.0,0.7236187,0.0,0.0,-0.001,0,0
16708000,0.0,-0.0,1.6180155,0.0,0.6902168,0.0,0.0,0.7236027,0.0,0.0,-0.001,0,0
16764000,0.0,-0.0,1.6178491,0.0,0.690277,0.0,0.0,0.72354525,0.0,0.0,-0.001,0,0
16812000,0.0,-0.0,1.6177057,0.0,0.69032884,0.0,0.0,0.72349584,0.0,0.0,-0.001,0,0
16860000,0.0,-0.0,1.6176139,0.0,0.69036204,0.0,0.0,0.72346413,0.0,0.0,-0.001,0,0
16908000,0.0,-0.0,1.6176026,0.0,0.69036615,0.0,0.0,0.7234602,0.0,0.0,-0.001,0,0
16956000,0.0,-0.0,1.6175796,0.0,0.6903745,0.0,0.0,0.7234522,0.0,0.0,-0.001,0,0
17004000,0.0,-0.0,1.617482,0.0,0.6904098,0.0,0.0,0.7234185,0.0,0.0,-0.001,0,0
17060000,0.0,-0.0,1.6173885,0.0,0.6904436,0.0,0.0,0.7233862,0.0,0.0,-0.001,0,0
17108000,0.0,-0.0,1.617331,0.0,0.6904644,0.0,0.0,0.7233664,0.0,0.0,-0.001,0,0
17164000,0.0,-0.0,1.6173557,0.0,0.69045544,0.0,0.0,0.72337496,0.0,0.0,-0.001,0,0
17204000,0.0,-0.0,1.6174208,0.0,0.6904319,0.0,0.0,0.72339743,0.0,0.0,-0.001,0,0
17260000,0.0,-0.0,1.6174278,0.0,0.6904294,0.0,0.0,0.72339976,0.0,0.0,-0.001,0,0
17308000,0.0,-0.0,1.617508,0.0,0.69040036,0.0,0.0,0.72342753,0.0,0.0,-0.001,0,0
17356000,0.0,-0.0,1.617539,0.0,0.69038916,0.0,0.0,0.72343814,0.0,0.0,-0.001,0,0
17404000,0.0,-0.0,1.6175764,0.0,0.6903756,0.0,0.0,0.7234511,0.0,0.0,-0.001,0,0
17460000,0.0,-0.0,1.6173923,0.0,0.6904422,0.0,0.0,0.7233876,0.0,0.0,-0.001,0,0
17508000,0.0,-0.0,1.6172469,0.0,0.69049484,0.0,0.0,0.7233373,0.0,0.0,-0.001,0,0
17556000,0.0,-0.0,1.6170431,0.0,0.6905685,0.0,0.0,0.72326696,0.0,0.0,-0.001,0,0
17604000,0.0,-0.0,1.6168568,0.0,0.69063586,0.0,0.0,0.7232027,0.0,0.0,-0.001,0,0
17660000,0.0,-0.0,1.616695,0.0,0.6906944,0.0,0.0,0.72314674,0.0,0.0,-0.001,0,0
17708000,0.0,-0.0,1.6165473,0.0,0.69074774,0.0,0.0,0.72309583,0.0,0.0,-0.001,0,0
17756000,0.0,-0.0,1.6164241,0.0,0.6907923,0.0,0.0,0.7230533,0.0,0.0,-0.001,0,0
17804000,0.0,-0.0,1.6163398,0.0,0.6908228,0.0,0.0,0.7230242,0.0,0.0,-0.001,0,0
17860000,0.0,-0.0,1.6162387,0.0,0.6908593,0.0,0.0,0.72298926,0.0,0.0,-0.001,0,0
17908000,0.0,-0.0,1.6161482,0.0,0.69089204,0.0,0.0,0.7229579,0.0,0.0,-0.001,0,0
17956000,0.0,-0.0,1.6160479,0.0,0.69092834,0.0,0.0,0.7229233,0.0,0.0,-0.001,0,0
18004000,0.0,-0.0,1.6159829,0.0,0.6909518,0.0,0.0,0.7229008,0.0,0.0,-0.001,0,0
18060000,0.0,-0.0,1.6160111,0.0,0.69094163,0.0,0.0,0.7229105,0.0,0.0,-0.001,0,0
18108000,0.0,-0.0,1.615991,0.0,0.6909489,0.0,0.0,0.7229036,0.0,0.0,-0.001,0,0
18156000,0.0,-0.0,1.6160909,0.0,0.6909128,0.0,0.0,0.7229381,0.0,0.0,-0.001,0,0
18212000,0.0,-0.0,1.616238,0.0,0.6908596,0.0,0.0,0.72298896,0.0,0.0,-0.001,0,0
18260000,0.0,-0.0,1.6162796,0.0,0.69084454,0.0,0.0,0.7230033,0.0,0.0,-0.001,0,0
18308000,0.0,-0.0,1.616266,0.0,0.6908495,0.0,0.0,0.7229986,0.0,0.0,-0.001,0,0
18356000,0.0,-0.0,1.6162782,0.0,0.6908451,0.0,0.0,0.72300285,0.0,0.0,-0.001,0,0
18404000,0.0,-0.0,1.6161895,0.0,0.69087714,0.0,0.0,0.7229722,0.0,0.0,-0.001,0,0
18460000,0.0,-0.0,1.6162046,0.0,0.69087166,0.0,0.0,0.72297746,0.0,0.0,-0.001,0,0
18508000,0.0,-0.0,1.616174,0.0,0.69088274,0.0,0.0,0.7229668,0.0,0.0,-0.001,0,0
18564000,0.0,-0.0,1.616154,0.0,0.69088995,0.0,0.0,0.72295994,0.0,0.0,-0.001,0,0
18612000,0.0,-0.0,1.6161312,0.0,0.69089824,0.0,0.0,0.722952,0.0,0.0,-0.001,0,0
18660000,0.0,-0.0,1.6161482,0.0,0.69089204,0.0,0.0,0.7229579,0.0,0.0,-0.001,0,0
18708000,0.0,-0.0,1.6161019,0.0,0.6909088,0.0,0.0,0.722942,0.0,0.0,-0.001,0,0
18756000,0.0,-0.0,1.6160275,0.0,0.6909357,0.0,0.0,0.72291625,0.0,0.0,-0.001,0,0
18804000,0.0,-0.0,1.6159196,0.0,0.6909747,0.0,0.0,0.72287893,0.0,0.0,-0.001,0,0
18860000,0.0,-0.0,1.6158053,0.0,0.691016,0.0,0.0,0.72283953,0.0,0.0,-0.001,0,0
18908000,0.0,-0.0,1.6156064,0.0,0.6910879,0.0,0.0,0.72277075,0.0,0.0,-0.001,0,0
18956000,0.0,-0.0,1.6154717,0.0,0.69113654,0.0,0.0,0.72272426,0.0,0.0,-0.001,0,0
19004000,0.0,-0.0,1.6154227,0.0,0.69115424,0.0,0.0,0.72270733,0.0,0.0,-0.001,0,0
19060000,0.0,-0.0,1.6154201,0.0,0.6911552,0.0,0.0,0.7227064,0.0,0.0,-0.001,0,0
19108000,0.0,-0.0,1.615441,0.0,0.6911477,0.0,0.0,0.72271353,0.0,0.0,-0.001,0,0
19156000,0.0,-0.0,1.6153235,0.0,0.69119006,0.0,0.0,0.72267306,0.0,0.0,-0.001,0,0
19204000,0.0,-0.0,1.6152413,0.0,0.6912198,0.0,0.0,0.7226447,0.0,0.0,-0.001,0,0
19260000,0.0,-0.0,1.6150478,0.0,0.6912897,0.0,0.0,0.7225777,0.0,0.0,-0.001,0,0
19308000,0.0,-0.0,1.6148701,0.0,0.6913539,0.0,0.0,0.72251624,0.0,0.0,-0.001,0,0
19356000,0.0,-0.0,1.6147516,0.0,0.6913967,0.0,0.0,0.7224753,0.0,0.0,-0.001,0,0
19404000,0.0,-0.0,1.6146957,0.0,0.6914169,0.0,0.0,0.72245604,0.0,0.0,-0.001,0,0
19460000,0.0,-0.0,1.6147085,0.0,0.69141227,0.0,0.0,0.7224604,0.0,0.0,-0.001,0,0
19508000,0.0,-0.0,1.614715,0.0,0.69140995,0.0,0.0,0.72246265,0.0,0.0,-0.001,0,0
19556000,0.0,-0.0,1.6147331,0.0,0.6914034,0.0,0.0,0.7224689,0.0,0.0,-0.001,0,0
19604000,0.0,-0.0,1.6148641,0.0,0.69135606,0.0,0.0,0.7225142,0.0,0.0,-0.001,0,0
19660000,0.0,-0.0,1.6149038,0.0,0.69134176,0.0,0.0,0.7225279,0.0,0.0,-0.001,0,0
19708000,0.0,-0.0,1.614911,0.0,0.6913392,0.0,0.0,0.72253036,0.0,0.0,-0.001,0,0
19756000,0.0,-0.0,1.614928,0.0,0.691333,0.0,0.0,0.7225363,0.0,0.0,-0.001,0,0
19804000,0.0,-0.0,1.614873,0.0,0.69135284,0.0,0.0,0.7225173,0.0,0.0,-0.001,0,0
19860000,0.0,-0.0,1.6148508,0.0,0.6913609,0.0,0.0,0.7225096,0.0,0.0,-0.001,0,0
19908000,0.0,-0.0,1.6147999,0.0,0.6913793,0.0,0.0,0.722492,0.0,0.0,-0.001,0,0
19956000,0.0,-0.0,1.6147314,0.0,0.691404,0.0,0.0,0.7224684,0.0,0.0,-0.001,0,0
20004000,0.0,-0.0,1.6147094,0.0,0.691412,0.0,0.0,0.72246075,0.0,0.0,-0.001,0,0
20060000,0.0,-0.0,1.6147085,0.0,0.69141227,0.0,0.0,0.7224604,0.0,0.0,-0.001,0,0
20108000,0.0,-0.0,1.614752,0.0,0.69139653,0.0,0.0,0.72247547,0.0,0.0,-0.001,0,0
20156000,0.0,-0.0,1.6147889,0.0,0.6913833,0.0,0.0,0.72248816,0.0,0.0,-0.001,0,0
20212000,0.0,-0.0,1.6147901,0.0,0.6913828,0.0,0.0,0.7224886,0.0,0.0,-0.001,0,0
20260000,0.0,-0.0,1.6147819,0.0,0.6913858,0.0,0.0,0.7224858,0.0,0.0,-0.001,0,0
20308000,0.0,-0.0,1.6146678,0.0,0.69142705,0.0,0.0,0.72244626,0.0,0.0,-0.001,0,0
20356000,0.0,-0.0,1.6145318,0.0,0.69147617,0.0,0.0,0.72239923,0.0,0.0,-0.001,0,0
20412000,0.0,-0.0,1.6143647,0.0,0.6915364,0.0,0.0,0.72234166,0.0,0.0,-0.001,0,0
20460000,0.0,-0.0,1.6142229,0.0,0.6915877,0.0,0.0,0.72229254,0.0,0.0,-0.001,0,0
20508000,0.0,-0.0,1.6141227,0.0,0.69162387,0.0,0.0,0.72225785,0.0,0.0,-0.001,0,0
20564000,0.0,-0.0,1.6140225,0.0,0.69166005,0.0,0.0,0.7222232,0.0,0.0,-0.001,0,0
20612000,0.0,-0.0,1.6141076,0.0,0.6916293,0.0,0.0,0.72225267,0.0,0.0,-0.001,0,0
20660000,0.0,-0.0,1.614264,0.0,0.69157284,0.0,0.0,0.7223067,0.0,0.0,-0.001,0,0
20708000,0.0,-0.0,1.6144145,0.0,0.69151855,0.0,0.0,0.7223587,0.0,0.0,-0.001,0,0
20756000,0.0,-0.0,1.6144571,0.0,0.6915031,0.0,0.0,0.72237355,0.0,0.0,-0.001,0,0
20804000,0.0,-0.0,1.6144348,0.0,0.69151115,0.0,0.0,0.72236574,0.0,0.0,-0.001,0,0
20860000,0.0,-0.0,1.6142982,0.0,0.6915605,0.0,0.0,0.7223186,0.0,0.0,-0.001,0,0
20908000,0.0,-0.0,1.6142267,0.0,0.6915863,0.0,0.0,0.72229385,0.0,0.0,-0.001,0,0
20964000,0.0,-0.0,1.6140671,0.0,0.69164395,0.0,0.0,0.7222386,0.0,0.0,-0.001,0,0
21004000,0.0,-0.0,1.614038,0.0,0.6916545,0.0,0.0,0.7222285,0.0,0.0,-0.001,0,0
21060000,0.0,-0.0,1.6139748,0.0,0.6916773,0.0,0.0,0.7222067,0.0,0.0,-0.001,0,0
21108000,0.0,-0.0,1.6138982,0.0,0.691705,0.0,0.0,0.72218025,0.0,0.0,-0.001,0,0
21156000,0.0,-0.0,1.613818,0.0,0.6917339,0.0,0.0,0.72215253,0.0,0.0,-0.001,0,0
21204000,0.0,-0.0,1.6138374,0.0,0.6917269,0.0,0.0,0.7221592,0.0,0.0,-0.001,0,0
21260000,0.0,-0.0,1.6138818,0.0,0.6917109,0.0,0.0,0.72217464,0.0,0.0,-0.001,0,0
21308000,0.0,-0.0,1.6138785,0.0,0.6917121,0.0,0.0,0.7221734,0.0,0.0,-0.001,0,0
21356000,0.0,-0.0,1.6138413,0.0,0.6917255,0.0,0.0,0.72216064,0.0,0.0,-0.001,0,0
21412000,0.0,-0.0,1.6138266,0.0,0.6917308,0.0,0.0,0.7221555,0.0,0.0,-0.001,0,0
21460000,0.0,-0.0,1.6136404,0.0,0.69179803,0.0,0.0,0.722091,0.0,0.0,-0.001,0,0
21508000,0.0,-0.0,1.61343,0.0,0.69187397,0.0,0.0,0.7220183,0.0,0.0,-0.001,0,0
21556000,0.0,-0.0,1.6132243,0.0,0.69194824,0.0,0.0,0.72194713,0.0,0.0,-0.001,0,0
21604000,0.0,-0.0,1.6130211,0.0,0.6920216,0.0,0.0,0.72187674,0.0,0.0,-0.001,0,0
21660000,0.0,-0.0,1.6129098,0.0,0.6920618,0.0,0.0,0.7218383,0.0,0.0,-0.001,0,0
21708000,0.0,-0.0,1.6128095,0.0,0.69209796,0.0,0.0,0.72180367,0.0,0.0,-0.001,0,0
21764000,0.0,-0.0,1.6127796,0.0,0.69210875,0.0,0.0,0.7217933,0.0,0.0,-0.001,0,0
21804000,0.0,-0.0,1.6127646,0.0,0.6921142,0.0,0.0,0.72178805,0.0,0.0,-0.001,0,0
21860000,0.0,-0.0,1.6127989,0.0,0.6921018,0.0,0.0,0.7217999,0.0,0.0,-0.001,0,0
21908000,0.0,-0.0,1.6129618,0.0,0.692043,0.0,0.0,0.7218563,0.0,0.0,-0.001,0,0
21956000,0.0,-0.0,1.6130686,0.0,0.69200444,0.0,0.0,0.7218933,0.0,0.0,-0.001,0,0
22004000,0.0,-0.0,1.6131482,0.0,0.6919757,0.0,0.0,0.7219208,0.0,0.0,-0.001,0,0
22060000,0.0,-0.0,1.6132056,0.0,0.69195503,0.0,0.0,0.72194064,0.0,0.0,-0.001,0,0
22108000,0.0,-0.0,1.613235,0.0,0.69194436,0.0,0.0,0.7219508,0.0,0.0,-0.001,0,0
22164000,0.0,-0.0,1.6131594,0.0,0.69197166,0.0,0.0,0.72192466,0.0,0.0,-0.001,0,0
22204000,0.0015191612,-0.0039913924,1.6130503,0.0,0.6920084,0.0019663025,-0.00083271234,0.72188634,0.0,0.0,-0.012145332,0,0
22260000,0.0012579557,-0.0041536326,1.612908,0.0,0.6920598,0.0019344137,-0.0009832663,0.7218369,0.0,0.0,-0.019540405,0,0
22308000,0.0011363223,-0.0038782058,1.6128215,0.0,0.69209146,0.0017928781,-0.0009319374,0.72180706,0.0,0.0,-0.026419498,0,0
22356000,0.0007915662,-0.003917588,1.6127683,0.0,0.6921109,0.0016877615,-0.001070034,0.7217885,0.0,0.0,-0.033792138,0,0
22404000,0.00087989244,-0.0039139586,1.6127341,0.0,0.6921232,0.0017169998,-0.0010369312,0.72177666,0.0,0.0,-0.041476585,0,0
22460000,0.000693915,-0.0039360584,1.6125351,0.0,0.6921951,0.0016605047,-0.0011118611,0.72170764,0.0,0.0,-0.05094539,0,0
22508000,0.00083769707,-0.0040576393,1.6124386,0.0,0.69222975,0.0017540873,-0.0011021405,0.72167426,0.0,0.0,-0.059675224,0,0
22556000,0.0008974801,-0.0043295366,1.6123294,0.0,0.69226885,0.0018728256,-0.0011747787,0.72163635,0.0,0.0,-0.06897156,0,0
22612000,0.0010000544,-0.004035501,1.6122454,0.0,0.6922993,0.0018021932,-0.0010360674,0.72160757,0.0,0.0,-0.0801687,0,0
22660000,0.0012388806,-0.0031289097,1.6122363,0.0,0.6923031,0.0015577591,-0.0006360883,0.7216048,0.0,0.0,-0.09033498,0,0
22708000,0.0007626105,-0.0028075422,1.6121,0.0,0.69235283,0.0012768998,-0.00069677253,0.7215578,0.0,0.0,-0.10078374,0,0
22756000,0.00087181624,-0.0022006317,1.6120789,0.0,0.69236076,0.0010957392,-0.00044728658,0.72155064,0.0,0.0,-0.111753926,0,0
22804000,0.000881649,-0.0021417558,1.6120613,0.0,0.69236714,0.0010778987,-0.00042336702,0.7215445,0.0,0.0,-0.123190045,0,0
22860000,0.0011334415,-0.0022960464,1.6121163,0.0,0.69234705,0.0012207391,-0.00038590652,0.7215636,0.0,0.0,-0.1370734,0,0
22908000,0.0010887361,-0.0024670684,1.6121309,0.0,0.69234174,0.0012669684,-0.0004612295,0.7215685,0.0,0.0,-0.14946571,0,0
22956000,0.0011279199,-0.0022987637,1.6121076,0.0,0.6923502,0.0012198064,-0.00038884458,0.72156054,0.0,0.0,-0.16228637,0,0
23004000,0.0012630208,-0.0018144869,1.6120831,0.0,0.6923592,0.0010918556,-0.00017247151,0.72155225,0.0,0.0,-0.17520265,0,0
23060000,0.0007243309,-0.0013636465,1.6119614,0.0,0.6924036,0.0007427069,-0.00021079116,0.72151005,0.0,0.0,-0.19092871,0,0
23108000,0.0008412671,-0.0014262132,1.6118808,0.0,0.6924326,0.0008057542,-0.00019029903,0.72148216,0.0,0.0,-0.20494021,0,0
23164000,0.0006809726,-0.0016234897,1.6118146,0.0,0.6924565,0.0008214128,-0.00031645133,0.7214592,0.0,0.0,-0.22184385,0,0
23212000,0.00053033954,-0.0016428553,1.611873,0.0,0.69243544,0.000776256,-0.0003774715,0.7214794,0.0,0.0,-0.23691553,0,0
23260000,0.0006705238,-0.0016278331,1.611967,0.0,0.69240147,0.0008193863,-0.000321662,0.72151184,0.0,0.0,-0.25240123,0,0
23308000,0.0002182474,-0.0017469432,1.6120055,0.0,0.69238776,0.0007057877,-0.00052604574,0.7215251,0.0,0.0,-0.268169,0,0
23356000,0.00040649297,-0.0016777953,1.6121438,0.0,0.6923378,0.00074604125,-0.00043414364,0.72157305,0.0,0.0,-0.28441435,0,0
23412000,0.0005782893,-0.0013894453,1.6122127,0.0,0.692313,0.0007014884,-0.0002723198,0.72159696,0.0,0.0,-0.30388123,0,0
23460000,0.000503148,-0.001238944,1.6122394,0.0,0.6923034,0.0006211804,-0.00024732537,0.7216062,0.0,0.0,-0.3207941,0,0
23508000,0.00076255243,-0.0010428062,1.6123239,0.0,0.6922729,0.0006402102,-8.5810956e-05,0.7216356,0.0,0.0,-0.3322921,0,0
23556000,0.0010090269,-0.0011166208,1.6124417,0.0,0.6922303,0.0007521589,-2.2384247e-05,0.7216763,0.0,0.0,-0.3381556,0,0
23604000,0.0005838642,-0.00061184843,1.6125346,0.0,0.692197,0.0004228626,-1.0699971e-06,0.7217085,0.0,0.0,-0.34247822,0,0
23660000,0.0005496865,-0.0008779116,1.6127219,0.0,0.6921294,0.0005070536,-0.00010543979,0.7217733,0.0,0.0,-0.34933877,0,0
23708000,0.00072292675,-0.0004388995,1.6128038,0.0,0.69209987,0.00040856798,0.00010902366,0.7218017,0.0,0.0,-0.35385633,0,0
23756000,0.00065534323,-0.0005345849,1.6128372,0.0,0.6920878,0.0004197128,5.1527786e-05,0.72181326,0.0,0.0,-0.36005604,0,0
23804000,0.0010344447,-0.00049114873,1.6128467,0.0,0.6920843,0.00053522113,0.00020338132,0.7218165,0.0,0.0,-0.36482975,0,0
23860000,0.00083790364,-0.000114775234,1.6127737,0.0,0.69211084,0.00033138297,0.0002626771,0.72179115,0.0,0.0,-0.37215117,0,0
23908000,0.0011415066,9.0912414e-05,1.612756,0.0,0.6921172,0.0003622186,0.00044342218,0.7217849,0.0,0.0,-0.3770401,0,0
23956000,0.0013427747,0.00032296285,1.6126833,0.0,0.6921434,0.00034814558,0.0005963488,0.7217597,0.0,0.0,-0.38343975,0,0
24004000,0.0011261028,0.00020783335,1.6126915,0.0,0.69214046,0.00031470752,0.00047831447,0.72176266,0.0,0.0,-0.38841686,0,0
24060000,0.001701724,0.00029046414,1.6127467,0.0,0.69212043,0.0004840733,0.0007146548,0.7217816,0.0,0.0,-0.39660844,0,0
24108000,0.0017565809,0.00011775597,1.612833,0.0,0.69208926,0.0005653567,0.00067470904,0.72181135,0.0,0.0,-0.4022297,0,0
24164000,0.001825793,6.588976e-05,1.6129296,0.0,0.69205433,0.00060799305,0.00068176945,0.72184485,0.0,0.0,-0.40929773,0,0
24204000,0.0015311566,-0.00019936584,1.6129066,0.0,0.6920627,0.0006017831,0.00048363596,0.721837,0.0,0.0,-0.4145952,0,0
24260000,0.0015577509,-0.00027714332,1.6127291,0.0,0.6921267,0.00063909823,0.00046626411,0.72177565,0.0,0.0,-0.4234803,0,0
24308000,0.0012855523,-0.00036809663,1.6125956,0.0,0.6921749,0.0005777467,0.00033651676,0.7217295,0.0,0.0,-0.4291345,0,0
24356000,0.0011087472,-0.0006630309,1.6124068,0.0,0.692243,0.0006230042,0.00017058232,0.7216643,0.0,0.0,-0.4361622,0,0
24404000,0.0014847169,-0.0010646492,1.6122917,0.0,0.6922842,0.0008980616,0.00016718368,0.7216244,0.0,0.0,-0.4422749,0,0
24460000,0.0011154186,-0.0010103558,1.6121418,0.0,0.69233847,0.00075064617,5.2673327e-05,0.7215726,0.0,0.0,-0.45204177,0,0
24508000,0.0012353243,-0.0015896832,1.6120399,0.0,0.69237494,0.0010011615,-0.00010466278,0.7215372,0.0,0.0,-0.45843259,0,0
24564000,0.0014000839,-0.0017454398,1.6119317,0.0,0.6924138,0.001114386,-9.9204044e-05,0.72149974,0.0,0.0,-0.4665351,0,0
24612000,0.000983695,-0.0017565484,1.6118629,0.0,0.69243884,0.0009742281,-0.0002532956,0.7214759,0.0,0.0,-0.47310895,0,0
24660000,0.0004476306,-0.0020807646,1.6117247,0.0,0.6924888,0.0009055505,-0.00055898697,0.72142786,0.0,0.0,-0.4830855,0,0
24708000,0.0005476089,-0.0021695432,1.6116277,0.0,0.6925237,0.00097216404,-0.0005537097,0.7213942,0.0,0.0,-0.49001637,0,0
24756000,0.00065657427,-0.0024507581,1.6115707,0.0,0.6925441,0.0011113108,-0.0006118118,0.72137445,0.0,0.0,-0.49792826,0,0
24812000,0.00068140245,-0.0025861654,1.6115664,0.0,0.69254553,0.0011687463,-0.00064974703,0.72137296,0.0,0.0,-0.5056506,0,0
24860000,0.0007324032,-0.0030978033,1.6115091,0.0,0.69256586,0.0013709238,-0.00080855744,0.7213529,0.0,0.0,-0.51635486,0,0
24908000,0.0006700467,-0.0034045838,1.6114708,0.0,0.6925795,0.0014599613,-0.0009373088,0.7213395,0.0,0.0,-0.52385026,0,0
24964000,0.0006343363,-0.0036965304,1.6115332,0.0,0.6925568,0.0015529239,-0.0010512384,0.7213609,0.0,0.0,-0.5327624,0,0
25012000,0.00046652142,-0.0038163245,1.6115459,0.0,0.69255227,0.0015380279,-0.0011532382,0.7213652,0.0,0.0,-0.5402942,0,0
25060000,0.00020082075,-0.0032326619,1.6114912,0.0,0.69257253,0.0012354767,-0.0010469971,0.72134644,0.0,0.0,-0.55181795,0,0
25108000,0.00021373098,-0.0031382635,1.6114172,0.0,0.69259936,0.0012058631,-0.0010096963,0.72132087,0.0,0.0,-0.55968463,0,0
25164000,-6.638664e-05,-0.0033822623,1.6113616,0.0,0.6926194,0.0011968256,-0.0011952536,0.72130126,0.0,0.0,-0.56889325,0,0
25212000,-5.343507e-05,-0.0035543416,1.6113437,0.0,0.6926257,0.0012633606,-0.0012501867,0.72129506,0.0,0.0,-0.57700944,0,0
25260000,-0.00018127625,-0.0034651542,1.6114072,0.0,0.692603,0.0011869622,-0.0012653678,0.72131693,0.0,0.0,-0.61452603,0,0
25308000,-0.0003474365,-0.0039060602,1.6114476,0.0,0.69258827,0.0012884673,-0.0014779553,0.7213305,0.0,0.0,-0.6230402,0,0
25356000,-0.00029475446,-0.0038334173,1.6114893,0.0,0.6925732,0.001280541,-0.0014337722,0.72134507,0.0,0.0,-0.63179195,0,0
25412000,-0.0005401062,-0.00423643,1.6115303,0.0,0.69255835,0.0013409685,-0.001661794,0.7213587,0.0,0.0,-0.64109313,0,0
25460000,-0.0008677743,-0.0035661801,1.6115422,0.0,0.6925546,0.0009857673,-0.0015478779,0.7213632,0.0,0.0,-0.65379906,0,0
25508000,-0.00055744377,-0.0032461227,1.6115685,0.0,0.6925451,0.0009778063,-0.0013251061,0.72137266,0.0,0.0,-0.66270065,0,0
25556000,-0.000749553,-0.003691083,1.6115835,0.0,0.6925396,0.0010717871,-0.0015484666,0.72137743,0.0,0.0,-0.67192423,0,0
25604000,-0.001012498,-0.0036277787,1.611549,0.0,0.69255215,0.0009578758,-0.0016214041,0.7213654,0.0,0.0,-0.6812063,0,0
25660000,-0.0017746728,-0.003410648,1.6115777,0.0,0.6925422,0.0006156637,-0.0018211113,0.72137475,0.0,0.0,-0.6947221,0,0
25708000,-0.0026406674,-0.004063397,1.6115723,0.0,0.6925442,0.0005512275,-0.0023594932,0.72137135,0.0,0.0,-0.70205116,0,0
25756000,-0.003531546,-0.0041342746,1.6114883,0.0,0.69257474,0.00026819203,-0.0027053738,0.721341,0.0,0.0,-0.70855147,0,0
25804000,-0.0048401286,-0.004547628,1.6116494,0.0,0.6925167,-3.560105e-05,-0.003320481,0.7213943,0.0,0.0,-0.7143188,0,0
25860000,-0.0063103717,-0.004930971,1.6123865,0.0,0.69225067,-0.00040494464,-0.0039836755,0.721646,0.0,0.0,-0.72381866,0,0
25908000,-0.009530269,-0.006254179,1.6137766,0.0,0.6917484,-0.0010380868,-0.005604187,0.7221162,0.0,0.0,-0.7287132,0,0
25956000,-0.015811704,-0.010741842,1.6151638,0.0,0.6912469,-0.0015837845,-0.00942527,0.72255546,0.0,0.0,-0.73389834,0,0
26012000,-0.0234292,-0.017636545,1.6161838,0.0,0.69087964,-0.0017180456,-0.014560647,0.7228211,0.0,0.0,-0.73765385,0,0
26060000,-0.029256199,-0.02343921,1.616689,0.0,0.6906992,-0.0016286541,-0.01867077,0.72289926,0.0,0.0,-0.74561775,0,0
26108000,-0.033997845,-0.028322978,1.6168535,0.0,0.6906421,-0.0014985558,-0.022070533,0.72285825,0.0,0.0,-0.7474908,0,0
26156000,-0.03783528,-0.03258749,1.6168104,0.0,0.6906603,-0.0012822165,-0.024929158,0.7227484,0.0,0.0,-0.7488544,0,0
26204000,-0.040106036,-0.035204053,1.6167141,0.0,0.69069684,-0.0011215457,-0.026652616,0.7226522,0.0,0.0,-0.74901515,0,0
26260000,-0.04073981,-0.03600273,1.6166216,0.0,0.69073087,-0.0010528975,-0.027157178,0.72260106,0.0,0.0,-0.753352,0,0
26308000,-0.04103654,-0.036495928,1.6166198,0.0,0.6907319,-0.0009770858,-0.027434587,0.7225896,0.0,0.0,-0.75254345,0,0
26364000,-0.041533798,-0.036536627,1.6166327,0.0,0.69072706,-0.0011339295,-0.027628293,0.72258675,0.0,0.0,-0.75115836,0,0
26404000,-0.041603733,-0.03625837,1.616602,0.0,0.6907378,-0.0012591083,-0.027557516,0.72257894,0.0,0.0,-0.7515501,0,0
26460000,-0.04193297,-0.036560748,1.6165793,0.0,0.6907461,-0.0012638081,-0.027780801,0.72256243,0.0,0.0,-0.7533851,0,0
26508000,-0.042333413,-0.036955565,1.616421,0.0,0.6908036,-0.001261585,-0.028061623,0.7224966,0.0,0.0,-0.74349403,0,0
26556000,-0.0427707,-0.037445024,1.6161718,0.0,0.69089395,-0.0012392157,-0.028388351,0.7223975,0.0,0.0,-0.7306,0,0
26604000,-0.043534905,-0.03760608,1.616003,0.0,0.69095457,-0.0014474136,-0.028719854,0.722326,0.0,0.0,-0.7212784,0,0
26660000,-0.045029797,-0.037517972,1.6158274,0.0,0.69101655,-0.0019982778,-0.029229157,0.7222449,0.0,0.0,-0.7121252,0,0
26708000,-0.045659076,-0.037595477,1.6156828,0.0,0.69106823,-0.0021898164,-0.029482998,0.7221846,0.0,0.0,-0.70706755,0,0
26764000,-0.046069503,-0.03795652,1.6155763,0.0,0.6911069,-0.002202741,-0.02975572,0.7221364,0.0,0.0,-0.71102244,0,0
26804000,-0.04619733,-0.037594996,1.6155047,0.0,0.69113195,-0.0023786193,-0.029676976,0.7221151,0.0,0.0,-0.7155165,0,0
26860000,-0.04601048,-0.037608277,1.6153725,0.0,0.69117993,-0.002311209,-0.02961395,0.72207195,0.0,0.0,-0.7239725,0,0
26908000,-0.045508154,-0.03753557,1.615333,0.0,0.69119465,-0.0021644605,-0.029407438,0.72206676,0.0,0.0,-0.72501653,0,0
26956000,-0.045361675,-0.037332363,1.615292,0.0,0.69120926,-0.0021878632,-0.029284347,0.7220577,0.0,0.0,-0.722992,0,0
27004000,-0.044707194,-0.03675723,1.6152354,0.0,0.69122934,-0.002170295,-0.028849402,0.72205603,0.0,0.0,-0.7224671,0,0
27060000,-0.044163212,-0.035881694,1.6152555,0.0,0.69122124,-0.0022983465,-0.028350683,0.72208315,0.0,0.0,-0.72594327,0,0
27108000,-0.043631308,-0.035119135,1.6152273,0.0,0.6912306,-0.0023904329,-0.027895277,0.7220917,0.0,0.0,-0.7245586,0,0
27156000,-0.04330222,-0.034283005,1.6151716,0.0,0.6912496,-0.0025795635,-0.027487634,0.72208846,0.0,0.0,-0.72112095,0,0
27204000,-0.042923152,-0.03369654,1.6150862,0.0,0.6912798,-0.0026615963,-0.027148115,0.72207206,0.0,0.0,-0.7202148,0,0
27260000,-0.04244851,-0.033472,1.6150359,0.0,0.6912982,-0.0025793407,-0.02689914,0.72206414,0.0,0.0,-0.72417355,0,0
27308000,-0.041573633,-0.033479318,1.614976,0.0,0.69132084,-0.0022750932,-0.02658574,0.7220551,0.0,0.0,-0.7234194,0,0
27356000,-0.041058403,-0.03293099,1.6150182,0.0,0.6913053,-0.0022945402,-0.026210371,0.7220837,0.0,0.0,-0.7204474,0,0
27404000,-0.040040128,-0.032038685,1.6149826,0.0,0.69131774,-0.0022653905,-0.025534471,0.72209597,0.0,0.0,-0.7195819,0,0
27460000,-0.03860168,-0.03079334,1.6149662,0.0,0.6913232,-0.002218288,-0.024584904,0.7221239,0.0,0.0,-0.72278726,0,0
27508000,-0.03780784,-0.030290289,1.6150101,0.0,0.6913074,-0.0021250942,-0.024124544,0.7221548,0.0,0.0,-0.7214986,0,0
27556000,-0.036731288,-0.029471135,1.6150886,0.0,0.69127893,-0.002048,-0.023452919,0.7222043,0.0,0.0,-0.71862745,0,0
27612000,-0.03561106,-0.028619595,1.6151265,0.0,0.69126505,-0.001968026,-0.022754272,0.7222402,0.0,0.0,-0.7172512,0,0
27660000,-0.03493443,-0.028060077,1.6151966,0.0,0.6912396,-0.0019355303,-0.022316704,0.72227836,0.0,0.0,-0.7218236,0,0
27708000,-0.03394696,-0.027720558,1.6151961,0.0,0.6912402,-0.001716917,-0.021842802,0.72229284,0.0,0.0,-0.72096354,0,0
27756000,-0.03309468,-0.02724317,1.615189,0.0,0.6912428,-0.0015949145,-0.021370078,0.7223048,0.0,0.0,-0.71813416,0,0
27812000,-0.03195944,-0.026515776,1.6150783,0.0,0.69128275,-0.0014665086,-0.020708708,0.7222861,0.0,0.0,-0.7162756,0,0
27860000,-0.031169249,-0.025763372,1.6149925,0.0,0.69131345,-0.0014660865,-0.020163322,0.72227204,0.0,0.0,-0.71983945,0,0
27908000,-0.029930472,-0.024991676,1.6148695,0.0,0.6913579,-0.0013178875,-0.019449232,0.7222495,0.0,0.0,-0.7183371,0,0
27956000,-0.029138055,-0.024724089,1.6148443,0.0,0.69136715,-0.0011408718,-0.019070592,0.72225106,0.0,0.0,-0.71537167,0,0
28012000,-0.028263412,-0.023999447,1.6148682,0.0,0.6913583,-0.0011000789,-0.01850434,0.72227424,0.0,0.0,-0.71407104,0,0
28060000,-0.027690617,-0.023328478,1.6149749,0.0,0.69131947,-0.0011435014,-0.018065684,0.7223224,0.0,0.0,-0.71823156,0,0
28108000,-0.026867427,-0.022608286,1.6149614,0.0,0.6913241,-0.0011192623,-0.017519508,0.72233146,0.0,0.0,-0.7175072,0,0
28156000,-0.026300844,-0.02250414,1.6149133,0.0,0.6913417,-0.0009614561,-0.017278865,0.72232074,0.0,0.0,-0.7149054,0,0
28212000,-0.025269732,-0.022127122,1.614786,0.0,0.6913878,-0.00074230036,-0.016776133,0.72228867,0.0,0.0,-0.71315837,0,0
28260000,-0.024869263,-0.022366663,1.6147251,0.0,0.69141006,-0.0005178369,-0.016714275,0.7222689,0.0,0.0,-0.7163286,0,0
28308000,-0.024133412,-0.022616874,1.6147772,0.0,0.6913915,-0.00017263624,-0.016535012,0.7222911,0.0,0.0,-0.71484715,0,0
28356000,-0.023667498,-0.022700442,1.6148038,0.0,0.691382,1.8835055e-05,-0.016395627,0.7223034,0.0,0.0,-0.71176106,0,0
28404000,-0.023153432,-0.022673732,1.6147962,0.0,0.6913847,0.00018683172,-0.016200744,0.7223052,0.0,0.0,-0.71079034,0,0
28460000,-0.022844922,-0.022472994,1.6148312,0.0,0.691372,0.0002212459,-0.01601994,0.7223214,0.0,0.0,-0.7141214,0,0
28508000,-0.02233874,-0.022105953,1.6148356,0.0,0.69137025,0.0002636683,-0.015710281,0.7223298,0.0,0.0,-0.7135703,0,0
28564000,-0.02208963,-0.02177936,1.6148198,0.0,0.69137585,0.00023167761,-0.015507445,0.7223288,0.0,0.0,-0.710694,0,0
28612000,-0.021177636,-0.021564523,1.6147225,0.0,0.6914108,0.00046859853,-0.015103836,0.7223038,0.0,0.0,-0.70980567,0,0
28660000,-0.02041791,-0.021625279,1.6154543,0.0,0.6911462,0.0007586194,-0.014850182,0.72256196,0.0,0.0,-0.7127409,0,0
28708000,-0.019484028,-0.021529948,1.6154275,0.0,0.6911555,0.0010467025,-0.014479864,0.7225602,0.0,0.0,-0.7113036,0,0
28756000,-0.018918617,-0.021155888,1.6157055,0.0,0.6910548,0.0011088948,-0.014146196,0.7226631,0.0,0.0,-0.7084836,0,0
28804000,-0.018250799,-0.02120139,1.615677,0.0,0.6910647,0.0013558901,-0.013920631,0.7226575,0.0,0.0,-0.70800394,0,0
28860000,-0.017528497,-0.02051172,1.6152788,0.0,0.6912083,0.0013535544,-0.013421656,0.7225297,0.0,0.0,-0.710802,0,0
28908000,-0.017629962,-0.020436259,1.6150345,0.0,0.6912967,0.0012895782,-0.013432393,0.722445,0.0,0.0,-0.7036921,0,0
28956000,-0.017144885,-0.020376267,1.6152638,0.0,0.69121355,0.0014370879,-0.013236273,0.7225279,0.0,0.0,-0.69292057,0,0
29004000,-0.017078463,-0.020253196,1.6158129,0.0,0.6910151,0.0014191912,-0.013169363,0.72271883,0.0,0.0,-0.68472874,0,0
29060000,-0.01663571,-0.019479524,1.6163788,0.0,0.6908106,0.0012961511,-0.012741741,0.7229224,0.0,0.0,-0.6700895,0,0
29108000,-0.015759623,-0.019223906,1.617187,0.0,0.6905179,0.0015113315,-0.012336181,0.7232085,0.0,0.0,-0.66230476,0,0
29156000,-0.015635852,-0.019785048,1.6179582,0.0,0.6902386,0.0017618195,-0.012484454,0.723472,0.0,0.0,-0.6523352,0,0
29212000,-0.01469697,-0.019925691,1.6185817,0.0,0.69001204,0.002140529,-0.01219269,0.7236921,0.0,0.0,-0.66342807,0,0
29260000,-0.014486229,-0.019825444,1.6190271,0.0,0.6898506,0.002179649,-0.012081368,0.7238476,0.0,0.0,-0.6741482,0,0
29308000,-0.0142659135,-0.019341819,1.6191812,0.0,0.689795,0.0020814925,-0.011834682,0.7239051,0.0,0.0,-0.6837374,0,0
29356000,-0.014351379,-0.01955482,1.6191461,0.0,0.68980765,0.0021289121,-0.011939105,0.72389114,0.0,0.0,-0.6932534,0,0
29404000,-0.014866862,-0.019243468,1.6191798,0.0,0.68979615,0.0018386146,-0.01201828,0.72390157,0.0,0.0,-0.700395,0,0
29460000,-0.015069958,-0.017825028,1.6192415,0.0,0.6897747,0.0012554491,-0.011602607,0.72393,0.0,0.0,-0.7084201,0,0
29508000,-0.0147521505,-0.016980596,1.6192327,0.0,0.689778,0.001059314,-0.0111963805,0.7239335,0.0,0.0,-0.7128813,0,0
29556000,-0.014574517,-0.017094979,1.619226,0.0,0.6897803,0.0011619485,-0.011171531,0.72393167,0.0,0.0,-0.7181969,0,0
29612000,-0.014583892,-0.016396184,1.6191645,0.0,0.6898027,0.00090540893,-0.010933976,0.7239142,0.0,0.0,-0.7198414,0,0
29660000,-0.014540603,-0.016625723,1.6191314,0.0,0.68981457,0.00100325,-0.0109974835,0.72390187,0.0,0.0,-0.72106534,0,0
29708000,-0.014484913,-0.016199144,1.6191314,-0.0008127372,0.6898147,0.0008680395,-0.010830212,0.72390455,0.0,0.0,-0.7188699,0,0
29764000,-0.014750522,-0.016540987,1.6191314,-0.00093320233,0.68981475,0.00090017397,-0.01104424,0.72390115,0.0,0.0,-0.71562535,0,0
29804000,-0.014410298,-0.016656676,1.6191314,-0.0007714966,0.6898145,0.0010593979,-0.0109609915,0.72390246,0.0,0.0,-0.7135746,0,0
29860000,-0.014076355,-0.016058214,1.6191314,-0.0003796496,0.6898145,0.0009579389,-0.010633731,0.7239074,0.0,0.0,-0.71120244,0,0
29908000,-0.013595008,-0.016216002,1.6191314,-0.00031386377,0.6898142,0.0011810767,-0.010513922,0.7239091,0.0,0.0,-0.7091522,0,0
29956000,-0.013296663,-0.015987543,1.6191314,-0.00036038517,0.6898141,0.0012012783,-0.010327146,0.7239119,0.0,0.0,-0.7084632,0,0
30004000,-0.0134224,-0.015990611,1.6191314,-0.00029793743,0.6898142,0.0011590201,-0.010373715,0.7239112,0.0,0.0,-0.70819485,0,0
30060000,-0.012876714,-0.015641466,1.6191314,-0.00014661351,0.689814,0.0012208442,-0.010055792,0.72391576,0.0,0.0,-0.70855373,0,0
30108000,-0.013048475,-0.015536888,1.6191314,-0.000121208264,0.6898141,0.0011237457,-0.010081896,0.72391546,0.0,0.0,-0.7085978,0,0
30164000,-0.012851454,-0.01574195,1.6191314,-0.00013917394,0.6898139,0.0012659302,-0.010081303,0.72391546,0.0,0.0,-0.7085336,0,0
30204000,-0.012602886,-0.015528702,1.6191314,-0.000115057825,0.68981385,0.0012744691,-0.009917789,0.7239178,0.0,0.0,-0.70840293,0,0
30260000,-0.012525609,-0.013785071,1.6191314,-5.6619374e-05,0.68981427,0.00066994026,-0.009288484,0.72392654,0.0,0.0,-0.7073238,0,0
30308000,-0.012757988,-0.0134467315,1.6191314,-4.680834e-05,0.6898143,0.0004673153,-0.009255912,0.723927,0.0,0.0,-0.70639116,0,0
30356000,-0.012479584,-0.013123362,1.6191314,-5.3746346e-05,0.68981427,0.00044628134,-0.009043618,0.7239297,0.0,0.0,-0.70606756,0,0
30404000,-0.012581371,-0.013279616,1.6191314,-4.4433156e-05,0.68981427,0.00046773654,-0.009134349,0.72392863,0.0,0.0,-0.70603883,0,0
30460000,-0.012433294,-0.01285105,1.6191314,-2.1865333e-05,0.68981427,0.00036367172,-0.008932947,0.72393113,0.0,0.0,-0.7073623,0,0
30508000,-0.012301556,-0.013146073,1.6191314,-1.8076498e-05,0.6898142,0.0005159057,-0.0089870095,0.7239304,0.0,0.0,-0.7077352,0,0
30556000,-0.012552129,-0.013396549,1.6191314,-2.0755824e-05,0.68981427,0.0005201514,-0.009164092,0.7239283,0.0,0.0,-0.7079858,0,0
30604000,-0.012730941,-0.013569338,1.6191314,-1.7159246e-05,0.6898143,0.00052102585,-0.009288406,0.72392654,0.0,0.0,-0.7080272,0,0
30660000,-0.013974675,-0.0148304785,1.6191314,-8.443979e-06,0.6898146,0.0005485776,-0.010173522,0.7239144,0.0,0.0,-0.70703864,0,0
30708000,-0.01429442,-0.015172964,1.6191314,-6.980803e-06,0.6898147,0.0005622723,-0.010407369,0.72391105,0.0,0.0,-0.7060001,0,0
30756000,-0.014964812,-0.015574229,1.6191314,-8.015508e-06,0.68981487,0.00047630427,-0.0107884025,0.7239053,0.0,0.0,-0.7054269,0,0
30804000,-0.01556171,-0.015934365,1.6191314,-6.626577e-06,0.689815,0.00040079653,-0.011128649,0.7239,0.0,0.0,-0.7054454,0,0
30860000,-0.015549039,-0.016051058,1.6191314,-3.2609055e-06,0.68981504,0.0004474092,-0.011164306,0.7238994,0.0,0.0,-0.7068002,0,0
30908000,-0.01558742,-0.016294267,1.6191314,-2.6958544e-06,0.68981504,0.0005222101,-0.01126207,0.7238979,0.0,0.0,-0.70706224,0,0
30956000,-0.015796784,-0.016457682,1.6191314,-3.0954382e-06,0.6898151,0.00050915417,-0.0113942055,0.7238958,0.0,0.0,-0.70704347,0,0
31012000,-0.015948493,-0.016888907,1.6191314,-2.5590593e-06,0.68981516,0.00061292987,-0.011597827,0.7238923,0.0,0.0,-0.70647126,0,0
31060000,-0.016719567,-0.016717674,1.6191314,-1.2593003e-06,0.6898153,0.0002849942,-0.011817863,0.72388893,0.0,0.0,-0.70570797,0,0
31108000,-0.017180957,-0.017150039,1.6191314,-1.0410882e-06,0.68981546,0.00028237153,-0.012133964,0.72388345,0.0,0.0,-0.70447946,0,0
31156000,-0.017284453,-0.01769104,1.6191314,-1.1953999e-06,0.6898155,0.0004425127,-0.012357989,0.7238796,0.0,0.0,-0.7036321,0,0
31204000,-0.017320145,-0.018106194,1.6191314,-9.882606e-07,0.6898155,0.0005804852,-0.012514074,0.7238768,0.0,0.0,-0.7038029,0,0
31260000,-0.017585466,-0.018307008,1.6191314,-4.863181e-07,0.6898156,0.00056166813,-0.012679356,0.72387385,0.0,0.0,-0.7054465,0,0
31308000,-0.01742074,-0.01828864,1.6191314,-4.0204864e-07,0.6898156,0.00061183254,-0.012613401,0.72387505,0.0,0.0,-0.7060726,0,0
31364000,-0.017506897,-0.018649409,1.6191314,-4.6164087e-07,0.6898156,0.0007127123,-0.012768994,0.7238722,0.0,0.0,-0.70589656,0,0
31404000,-0.017924134,-0.018617474,1.6191314,-3.8164757e-07,0.6898157,0.0005572437,-0.012908995,0.7238697,0.0,0.0,-0.7062733,0,0
31460000,-0.018204305,-0.019170007,1.6191314,-1.8780685e-07,0.6898158,0.0006606231,-0.013200937,0.72386426,0.0,0.0,-0.7066168,0,0
31508000,-0.018182954,-0.019128028,1.6191314,-1.5526359e-07,0.68981576,0.0006527919,-0.013178734,0.7238647,0.0,0.0,-0.70621604,0,0
31556000,-0.018630717,-0.019242255,1.6191314,-1.78277e-07,0.68981594,0.00053970434,-0.013380183,0.723861,0.0,0.0,-0.7055941,0,0
31604000,-0.018447215,-0.019261023,1.6191314,-1.473851e-07,0.6898159,0.0006097889,-0.01332024,0.72386205,0.0,0.0,-0.70566684,0,0
31660000,-0.01850378,-0.019358195,1.6191314,-7.252748e-08,0.6898159,0.0006254549,-0.0133742215,0.72386104,0.0,0.0,-0.70750767,0,0
31708000,-0.018458443,-0.019603193,1.6191314,-5.995988e-08,0.6898159,0.00072977867,-0.013442299,0.7238597,0.0,0.0,-0.7080338,0,0
31756000,-0.018287497,-0.019156136,1.6191314,-6.884723e-08,0.6898158,0.00062690896,-0.013226263,0.72386384,0.0,0.0,-0.70747346,0,0
31804000,-0.018238835,-0.019217987,1.6191314,-5.6917354e-08,0.6898158,0.0006660829,-0.01322998,0.72386366,0.0,0.0,-0.7076077,0,0
31860000,-0.018450754,-0.01867294,1.6191314,-2.8008744e-08,0.6898158,0.00039568692,-0.0131187225,0.7238659,0.0,0.0,-0.7078138,0,0
31908000,-0.018697703,-0.017966954,1.6191314,-2.3155376e-08,0.68981576,5.4951233e-05,-0.012964645,0.72386885,0.0,0.0,-0.7072981,0,0
31964000,-0.018761909,-0.017685458,1.6191314,-2.6587502e-08,0.68981564,-6.90929e-05,-0.012890811,0.72387034,0.0,0.0,-0.7058005,0,0
32004000,-0.018821644,-0.017800277,1.6191314,-2.1980409e-08,0.6898157,-4.8133214e-05,-0.012952026,0.72386914,0.0,0.0,-0.7059297,0,0
32060000,-0.019089885,-0.017546294,1.6191314,-1.0816448e-08,0.6898156,-0.00023259046,-0.012961527,0.723869,0.0,0.0,-0.70818883,0,0
32108000,-0.018946117,-0.017778732,1.6191314,-8.942169e-09,0.6898157,-9.8863355e-05,-0.012989648,0.7238684,0.0,0.0,-0.7087417,0,0
32156000,-0.018503534,-0.017487999,1.6191314,-1.0267591e-08,0.6898156,-5.1457177e-05,-0.0127292015,0.7238732,0.0,0.0,-0.7073423,0,0
32204000,-0.01784378,-0.017081406,1.6191314,-8.488418e-09,0.68981546,2.8913826e-05,-0.012350197,0.7238798,0.0,0.0,-0.7074794,0,0
32260000,-0.016487813,-0.017489884,1.6191314,-4.1771075e-09,0.6898153,0.0006444628,-0.012000281,0.72388566,0.0,0.0,-0.7077088,0,0
32308000,-0.016005551,-0.017326962,1.6191314,-3.4532965e-09,0.68981516,0.00075182185,-0.011769546,0.72388947,0.0,0.0,-0.70678025,0,0
32356000,-0.015502384,-0.017306186,1.6191314,-3.9651495e-09,0.6898149,0.0009178476,-0.011580262,0.7238925,0.0,0.0,-0.7051044,0,0
32404000,-0.015089192,-0.017751751,1.6191314,-3.2780667e-09,0.68981457,0.0012216512,-0.011584368,0.7238924,0.0,0.0,-0.70522577,0,0
32460000,-0.014931335,-0.01766336,1.6191314,-1.6131202e-09,0.6898145,0.0012441003,-0.011496748,0.7238938,0.0,0.0,-0.70724326,0,0
32508000,-0.014439678,-0.017419051,1.6191314,-1.333598e-09,0.68981427,0.0013252386,-0.0112345405,0.72389805,0.0,0.0,-0.7075686,0,0
32556000,-0.0144197745,-0.017432112,1.6191314,-1.5312659e-09,0.68981427,0.0013368314,-0.0112318415,0.72389805,0.0,0.0,-0.70694405,0,0
32604000,-0.014813745,-0.01753578,1.6191314,-1.2659275e-09,0.6898145,0.0012384757,-0.01141019,0.72389513,0.0,0.0,-0.70711064,0,0
32660000,-0.015869921,-0.018249465,1.6191314,-6.2295663e-10,0.68981487,0.0011325418,-0.012038587,0.7238849,0.0,0.0,-0.7066511,0,0
32708000,-0.01617821,-0.018765293,1.6191314,-5.150104e-10,0.6898149,0.0012129364,-0.012328055,0.7238798,0.0,0.0,-0.70595354,0,0
32756000,-0.016259888,-0.018531218,1.6191314,-5.913461e-10,0.68981504,0.0011000317,-0.012276896,0.72388077,0.0,0.0,-0.70498943,0,0
32804000,-0.016408883,-0.01914883,1.6191314,-4.888774e-10,0.6898149,0.0012722114,-0.012543809,0.723876,0.0,0.0,-0.7054439,0,0
32860000,-0.016489953,-0.019305822,1.6191314,-2.4057412e-10,0.6898149,0.0013010793,-0.01262729,0.7238745,0.0,0.0,-0.7070705,0,0
32908000,-0.016268294,-0.019517405,1.6191314,-1.9888731e-10,0.6898147,0.0014541236,-0.012620027,0.7238745,0.0,0.0,-0.7074344,0,0
32956000,-0.016244087,-0.019589368,1.6191314,-2.2836669e-10,0.6898147,0.0014885217,-0.012636081,0.7238743,0.0,0.0,-0.70718074,0,0
33004000,-0.016111678,-0.019473163,1.6191314,-1.887952e-10,0.6898146,0.0014921259,-0.012548085,0.7238757,0.0,0.0,-0.707204,0,0
33060000,-0.016403534,-0.020014893,1.6191314,-9.290518e-11,0.68981457,0.0015875656,-0.012840533,0.7238705,0.0,0.0,-0.70691234,0,0
33108000,-0.01669206,-0.020227974,1.6191314,-7.6806526e-11,0.6898147,0.001565184,-0.01301844,0.7238672,0.0,0.0,-0.70649445,0,0
33164000,-0.016514245,-0.020402636,1.6191314,-8.8190906e-11,0.68981445,0.0016897393,-0.013014315,0.72386724,0.0,0.0,-0.70606035,0,0
33204000,-0.01693869,-0.020411171,1.6191314,-7.2909144e-11,0.6898148,0.0015464355,-0.013170878,0.7238644,0.0,0.0,-0.7061991,0,0
33260000,-0.016538419,-0.020224493,1.6191314,-3.587822e-11,0.68981457,0.0016169156,-0.012961632,0.7238683,0.0,0.0,-0.7070782,0,0
33308000,-0.01627306,-0.020011187,1.6191314,-2.966123e-11,0.6898145,0.0016312249,-0.012792031,0.72387135,0.0,0.0,-0.70747894,0,0
33356000,-0.015934162,-0.019757971,1.6191314,-3.4057663e-11,0.6898143,0.0016564506,-0.01258205,0.72387505,0.0,0.0,-0.7077436,0,0
33404000,-0.016416876,-0.019661274,1.6191314,-2.8156135e-11,0.68981475,0.0014549552,-0.012723417,0.7238727,0.0,0.0,-0.7079387,0,0
33460000,-0.017922366,-0.019695915,1.6191314,-1.3855494e-11,0.68981564,0.0009482405,-0.013280251,0.72386265,0.0,0.0,-0.7065354,0,0
33508000,-0.019133778,-0.01973682,1.6191314,-1.1454608e-11,0.6898161,0.0005452228,-0.013732803,0.7238542,0.0,0.0,-0.7056672,0,0
33556000,-0.019582039,-0.019999264,1.6191314,-1.3152428e-11,0.68981624,0.00048561633,-0.013985539,0.72384924,0.0,0.0,-0.70560074,0,0
33604000,-0.01960522,-0.02008369,1.6191314,-1.0873369e-11,0.68981624,0.00050818396,-0.014023042,0.7238485,0.0,0.0,-0.70576394,0,0
33660000,-0.019750359,-0.019958904,1.6191314,-5.3507303e-12,0.6898163,0.00041295245,-0.014032543,0.7238484,0.0,0.0,-0.706597,0,0
33708000,-0.019492501,-0.02005386,1.6191314,-4.423553e-12,0.68981624,0.00053626136,-0.013971961,0.7238495,0.0,0.0,-0.7071321,0,0
33756000,-0.019260373,-0.02012639,1.6191314,-5.0792187e-12,0.6898162,0.00064258,-0.013912958,0.7238506,0.0,0.0,-0.7077847,0,0
33804000,-0.019407604,-0.019674778,1.6191314,-4.1990894e-12,0.6898162,0.00042832005,-0.013810513,0.7238527,0.0,0.0,-0.70762604,0,0
33860000,-0.019951914,-0.020145891,1.6191314,-2.066351e-12,0.68981636,0.00041112164,-0.014169968,0.7238456,0.0,0.0,-0.705083,0,0
33908000,-0.019818654,-0.020403044,1.6191314,-1.7082928e-12,0.68981636,0.000550172,-0.014210414,0.72384465,0.0,0.0,-0.70368445,0,0
33956000,-0.019870404,-0.020390695,1.6191314,-1.9614987e-12,0.68981636,0.00052785216,-0.014224884,0.7238444,0.0,0.0,-0.703327,0,0
34004000,-0.019591764,-0.020408854,1.6191314,-1.6216092e-12,0.68981624,0.00063053094,-0.014130302,0.7238464,0.0,0.0,-0.70361316,0,0
34060000,-0.01942375,-0.020615153,1.6191314,-7.9798586e-13,0.68981624,0.00076315826,-0.01414063,0.7238461,0.0,0.0,-0.70427155,0,0
34108000,-0.019053955,-0.020494273,1.6191314,-6.5971057e-13,0.68981606,0.0008469472,-0.013965111,0.72384953,0.0,0.0,-0.7047352,0,0
