timestamp,timestamp_sample,q[0],q[1],q[2],q[3],delta_q_reset[0],delta_q_reset[1],delta_q_reset[2],delta_q_reset[3],quat_reset_counter
3212000,0,0.70711,6.9254136e-05,6.9679154e-05,0.70711,0.0,0.0,0.0,0.0,0
3216000,0,0.70711,6.936171e-05,6.9786736e-05,0.70711,0.0,0.0,0.0,0.0,0
3224000,0,0.70711,6.9576876e-05,7.000189e-05,0.70711,0.0,0.0,0.0,0.0,0
3232000,0,0.70711,6.979203e-05,7.021705e-05,0.70711,0.0,0.0,0.0,0.0,0
3244000,0,0.70711,7.0114766e-05,7.053979e-05,0.70711,0.0,0.0,0.0,0.0,0
3252000,0,0.70711,7.032993e-05,7.075495e-05,0.70711,0.0,0.0,0.0,0.0,0
3264000,0,0.70711,7.065266e-05,7.107768e-05,0.70711,0.0,0.0,0.0,0.0,0
3272000,0,0.70711,7.086782e-05,7.129284e-05,0.70711,0.0,0.0,0.0,0.0,0
3284000,0,0.70711,7.119056e-05,7.161558e-05,0.70711,0.0,0.0,0.0,0.0,0
3292000,0,0.70711,7.140572e-05,7.1830735e-05,0.70711,0.0,0.0,0.0,0.0,0
3304000,0,0.70711,7.172846e-05,7.2153474e-05,0.70711,0.0,0.0,0.0,0.0,0
3312000,0,0.70711,7.1943614e-05,7.236863e-05,0.70711,0.0,0.0,0.0,0.0,0
3324000,0,0.70711,7.226635e-05,7.269137e-05,0.70711,0.0,0.0,0.0,0.0,0
3332000,0,0.70711,7.248151e-05,7.290653e-05,0.70711,0.0,0.0,0.0,0.0,0
3344000,0,0.70711,7.280425e-05,7.322927e-05,0.70711,0.0,0.0,0.0,0.0,0
3352000,0,0.70711,7.301941e-05,7.3444426e-05,0.70711,0.0,0.0,0.0,0.0,0
3364000,0,0.70711,7.334215e-05,7.3767165e-05,0.70711,0.0,0.0,0.0,0.0,0
3372000,0,0.70711,7.3557305e-05,7.398232e-05,0.70711,0.0,0.0,0.0,0.0,0
3384000,0,0.70711,7.3880045e-05,7.430506e-05,0.70711,0.0,0.0,0.0,0.0,0
3392000,0,0.70711,7.40952e-05,7.452022e-05,0.70711,0.0,0.0,0.0,0.0,0
3404000,0,0.70711,7.441794e-05,7.484296e-05,0.70711,0.0,0.0,0.0,0.0,0
3412000,0,0.70711,7.46331e-05,7.505812e-05,0.70711,0.0,0.0,0.0,0.0,0
3424000,0,0.70711,7.495584e-05,7.5380856e-05,0.70711,0.0,0.0,0.0,0.0,0
3432000,0,0.70711,7.5170996e-05,7.559601e-05,0.70711,0.0,0.0,0.0,0.0,0
3444000,0,0.70711,7.5493735e-05,7.591875e-05,0.70711,0.0,0.0,0.0,0.0,0
3452000,0,0.70711,7.570889e-05,7.613391e-05,0.70711,0.0,0.0,0.0,0.0,0
3464000,0,0.70711,7.603163e-05,7.645665e-05,0.70711,0.0,0.0,0.0,0.0,0
3472000,0,0.70711,7.62468e-05,7.667181e-05,0.70711,0.0,0.0,0.0,0.0,0
3484000,0,0.70711,7.656954e-05,7.699455e-05,0.70711,0.0,0.0,0.0,0.0,0
3492000,0,0.70711,7.6784694e-05,7.720971e-05,0.70711,0.0,0.0,0.0,0.0,0
3504000,0,0.70711,7.7107434e-05,7.753245e-05,0.70711,0.0,0.0,0.0,0.0,0
3512000,0,0.70711,7.732259e-05,7.774761e-05,0.70711,0.0,0.0,0.0,0.0,0
3524000,0,0.70711,7.764533e-05,7.807035e-05,0.70711,0.0,0.0,0.0,0.0,0
3532000,0,0.70711,7.786049e-05,7.8285506e-05,0.70711,0.0,0.0,0.0,0.0,0
3544000,0,0.70711,7.818323e-05,7.8608246e-05,0.70711,0.0,0.0,0.0,0.0,0
3552000,0,0.70711,7.839839e-05,7.88234e-05,0.70711,0.0,0.0,0.0,0.0,0
3564000,0,0.70711,7.872113e-05,7.914614e-05,0.70711,0.0,0.0,0.0,0.0,0
3572000,0,0.70711,7.893629e-05,7.936131e-05,0.70711,0.0,0.0,0.0,0.0,0
3584000,0,0.70711,7.925903e-05,7.968405e-05,0.70711,0.0,0.0,0.0,0.0,0
3592000,0,0.70711,7.947419e-05,7.9899204e-05,0.70711,0.0,0.0,0.0,0.0,0
3604000,0,0.70711,7.979693e-05,8.0221944e-05,0.70711,0.0,0.0,0.0,0.0,0
3612000,0,0.70711,8.001209e-05,8.043711e-05,0.70711,0.0,0.0,0.0,0.0,0
3624000,0,0.70711,8.033483e-05,8.075985e-05,0.70711,0.0,0.0,0.0,0.0,0
3632000,0,0.70711,8.054999e-05,8.0975005e-05,0.70711,0.0,0.0,0.0,0.0,0
3644000,0,0.70711,8.0872735e-05,8.1297745e-05,0.70711,0.0,0.0,0.0,0.0,0
3652000,0,0.70711,8.108789e-05,8.15129e-05,0.70711,0.0,0.0,0.0,0.0,0
3664000,0,0.70711,8.141063e-05,8.183565e-05,0.70711,0.0,0.0,0.0,0.0,0
3672000,0,0.70711,8.1625796e-05,8.205081e-05,0.70711,0.0,0.0,0.0,0.0,0
3684000,0,0.70711,8.1948536e-05,8.2373546e-05,0.70711,0.0,0.0,0.0,0.0,0
3692000,0,0.70711,8.216369e-05,8.258871e-05,0.70711,0.0,0.0,0.0,0.0,0
3704000,0,0.70711,8.248643e-05,8.291145e-05,0.70711,0.0,0.0,0.0,0.0,0
3712000,0,0.70711,8.27016e-05,8.312661e-05,0.70711,0.0,0.0,0.0,0.0,0
3724000,0,0.70711,8.302434e-05,8.344935e-05,0.70711,0.0,0.0,0.0,0.0,0
3732000,0,0.70711,8.3239494e-05,8.366451e-05,0.70711,0.0,0.0,0.0,0.0,0
3744000,0,0.70711,8.356224e-05,8.398725e-05,0.70711,0.0,0.0,0.0,0.0,0
3752000,0,0.70711,8.37774e-05,8.420241e-05,0.70711,0.0,0.0,0.0,0.0,0
3764000,0,0.70711,8.410014e-05,8.4525156e-05,0.70711,0.0,0.0,0.0,0.0,0
3772000,0,0.70711,8.43153e-05,8.474031e-05,0.70711,0.0,0.0,0.0,0.0,0
3784000,0,0.70711,8.463804e-05,8.506305e-05,0.70711,0.0,0.0,0.0,0.0,0
3792000,0,0.70711,8.48532e-05,8.527822e-05,0.70711,0.0,0.0,0.0,0.0,0
3804000,0,0.70711,8.517595e-05,8.560096e-05,0.70711,0.0,0.0,0.0,0.0,0
3812000,0,0.70711,8.5391104e-05,8.581612e-05,0.70711,0.0,0.0,0.0,0.0,0
3824000,0,0.70711,8.571385e-05,8.613886e-05,0.70711,0.0,0.0,0.0,0.0,0
3832000,0,0.70711,8.592901e-05,8.635402e-05,0.70711,0.0,0.0,0.0,0.0,0
3844000,0,0.70711,8.625175e-05,8.6676766e-05,0.70711,0.0,0.0,0.0,0.0,0
3852000,0,0.70711,8.646691e-05,8.689192e-05,0.70711,0.0,0.0,0.0,0.0,0
3864000,0,0.70711,8.678965e-05,8.721466e-05,0.70711,0.0,0.0,0.0,0.0,0
3872000,0,0.70711,8.700482e-05,8.742983e-05,0.70711,0.0,0.0,0.0,0.0,0
3884000,0,0.70711,8.732756e-05,8.775257e-05,0.70711,0.0,0.0,0.0,0.0,0
3892000,0,0.70711,8.754272e-05,8.796773e-05,0.70711,0.0,0.0,0.0,0.0,0
3904000,0,0.70711,8.786546e-05,8.829047e-05,0.70711,0.0,0.0,0.0,0.0,0
3912000,0,0.70711,8.8080626e-05,8.8505636e-05,0.70711,0.0,0.0,0.0,0.0,0
3924000,0,0.70711,8.8403365e-05,8.8828376e-05,0.70711,0.0,0.0,0.0,0.0,0
3932000,0,0.70711,8.861853e-05,8.904354e-05,0.70711,0.0,0.0,0.0,0.0,0
3944000,0,0.70711,8.894127e-05,8.936628e-05,0.70711,0.0,0.0,0.0,0.0,0
3952000,0,0.70711,8.9156434e-05,8.9581445e-05,0.70711,0.0,0.0,0.0,0.0,0
3964000,0,0.70711,8.9479174e-05,8.9904184e-05,0.70711,0.0,0.0,0.0,0.0,0
3972000,0,0.70711,8.969434e-05,9.011935e-05,0.70711,0.0,0.0,0.0,0.0,0
3984000,0,0.70711,9.001708e-05,9.044209e-05,0.70711,0.0,0.0,0.0,0.0,0
3992000,0,0.70711,9.023224e-05,9.065725e-05,0.70711,0.0,0.0,0.0,0.0,0
4004000,0,0.70711,9.055498e-05,9.097999e-05,0.70711,0.0,0.0,0.0,0.0,0
4012000,0,0.70711,9.077015e-05,9.119516e-05,0.70711,0.0,0.0,0.0,0.0,0
4024000,0,0.70711,9.1092894e-05,9.15179e-05,0.70711,0.0,0.0,0.0,0.0,0
4032000,0,0.70711,9.130805e-05,9.173306e-05,0.70711,0.0,0.0,0.0,0.0,0
4044000,0,0.70711,9.16308e-05,9.205581e-05,0.70711,0.0,0.0,0.0,0.0,0
4052000,0,0.70711,9.1845955e-05,9.2270966e-05,0.70711,0.0,0.0,0.0,0.0,0
4064000,0,0.70711,9.21687e-05,9.259371e-05,0.70711,0.0,0.0,0.0,0.0,0
4072000,0,0.70711,9.238387e-05,9.280887e-05,0.70711,0.0,0.0,0.0,0.0,0
4084000,0,0.70711,9.270661e-05,9.313162e-05,0.70711,0.0,0.0,0.0,0.0,0
4092000,0,0.70711,9.292177e-05,9.334678e-05,0.70711,0.0,0.0,0.0,0.0,0
4104000,0,0.70711,9.324452e-05,9.366952e-05,0.70711,0.0,0.0,0.0,0.0,0
4112000,0,0.70711,9.3459676e-05,9.3884686e-05,0.70711,0.0,0.0,0.0,0.0,0
4124000,0,0.70711,9.378242e-05,9.420743e-05,0.70711,0.0,0.0,0.0,0.0,0
4132000,0,0.70711,9.399759e-05,9.442259e-05,0.70711,0.0,0.0,0.0,0.0,0
4144000,0,0.70711,9.432033e-05,9.474534e-05,0.70711,0.0,0.0,0.0,0.0,0
4152000,0,0.70711,9.453549e-05,9.49605e-05,0.70711,0.0,0.0,0.0,0.0,0
4164000,0,0.70711,9.485824e-05,9.528324e-05,0.70711,0.0,0.0,0.0,0.0,0
4172000,0,0.70711,9.5073396e-05,9.5498406e-05,0.70711,0.0,0.0,0.0,0.0,0
4184000,0,0.70711,9.539614e-05,9.582115e-05,0.70711,0.0,0.0,0.0,0.0,0
4192000,0,0.70711,9.561131e-05,9.603631e-05,0.70711,0.0,0.0,0.0,0.0,0
4204000,0,0.70711,9.5934054e-05,9.635906e-05,0.70711,0.0,0.0,0.0,0.0,0
4212000,0,0.70711,9.614921e-05,9.657422e-05,0.70711,0.0,0.0,0.0,0.0,0
4224000,0,0.70711,9.647196e-05,9.689697e-05,0.70711,0.0,0.0,0.0,0.0,0
4232000,0,0.70711,9.668712e-05,9.7112126e-05,0.70711,0.0,0.0,0.0,0.0,0
4244000,0,0.70711,9.700987e-05,9.743487e-05,0.70711,0.0,0.0,0.0,0.0,0
4252000,0,0.70711,9.722503e-05,9.765004e-05,0.70711,0.0,0.0,0.0,0.0,0
4264000,0,0.70711,9.7547774e-05,9.7972785e-05,0.70711,0.0,0.0,0.0,0.0,0
4272000,0,0.70711,9.776294e-05,9.818795e-05,0.70711,0.0,0.0,0.0,0.0,0
4284000,0,0.70711,9.8085686e-05,9.851069e-05,0.70711,0.0,0.0,0.0,0.0,0
4292000,0,0.70711,9.830085e-05,9.872585e-05,0.70711,0.0,0.0,0.0,0.0,0
4304000,0,0.70711,9.862359e-05,9.90486e-05,0.70711,0.0,0.0,0.0,0.0,0
4312000,0,0.70711,9.8838755e-05,9.9263765e-05,0.70711,0.0,0.0,0.0,0.0,0
4324000,0,0.70711,9.91615e-05,9.958651e-05,0.70711,0.0,0.0,0.0,0.0,0
4332000,0,0.70711,9.9376666e-05,9.980167e-05,0.70711,0.0,0.0,0.0,0.0,0
4344000,0,0.70711,9.969941e-05,0.000100124416,0.70711,0.0,0.0,0.0,0.0,0
4352000,0,0.70711,9.991458e-05,0.00010033958,0.70711,0.0,0.0,0.0,0.0,0
4364000,0,0.70711,0.000100237325,0.00010066233,0.70711,0.0,0.0,0.0,0.0,0
4372000,0,0.70711,0.00010045248,0.00010087749,0.70711,0.0,0.0,0.0,0.0,0
4384000,0,0.70711,0.00010077523,0.00010120024,0.70711,0.0,0.0,0.0,0.0,0
4392000,0,0.70711,0.00010099039,0.000101415404,0.70711,0.0,0.0,0.0,0.0,0
4404000,0,0.70711,0.00010131314,0.000101738144,0.70711,0.0,0.0,0.0,0.0,0
4412000,0,0.70711,0.000101528305,0.00010195331,0.70711,0.0,0.0,0.0,0.0,0
4424000,0,0.70711,0.00010185105,0.000102276055,0.70711,0.0,0.0,0.0,0.0,0
4432000,0,0.70711,0.00010206622,0.00010249122,0.70711,0.0,0.0,0.0,0.0,0
4444000,0,0.70711,0.00010238896,0.00010281397,0.70711,0.0,0.0,0.0,0.0,0
4452000,0,0.70711,0.00010260413,0.00010302913,0.70711,0.0,0.0,0.0,0.0,0
4464000,0,0.70711,0.000102926875,0.00010335188,0.70711,0.0,0.0,0.0,0.0,0
4472000,0,0.70711,0.00010314204,0.00010356704,0.70711,0.0,0.0,0.0,0.0,0
4484000,0,0.70711,0.00010346479,0.00010388979,0.70711,0.0,0.0,0.0,0.0,0
4492000,0,0.70711,0.00010367995,0.000104104955,0.70711,0.0,0.0,0.0,0.0,0
4504000,0,0.70711,0.0001040027,0.0001044277,0.70711,0.0,0.0,0.0,0.0,0
4512000,0,0.70711,0.00010421786,0.000104642866,0.70711,0.0,0.0,0.0,0.0,0
4524000,0,0.70711,0.00010454061,0.00010496561,0.70711,0.0,0.0,0.0,0.0,0
4532000,0,0.70711,0.000104755774,0.00010518078,0.70711,0.0,0.0,0.0,0.0,0
4544000,0,0.70711,0.00010507852,0.000105503525,0.70711,0.0,0.0,0.0,0.0,0
4552000,0,0.70711,0.000105293686,0.00010571869,0.70711,0.0,0.0,0.0,0.0,0
4564000,0,0.70711,0.00010561643,0.000106041436,0.70711,0.0,0.0,0.0,0.0,0
4572000,0,0.70711,0.0001058316,0.0001062566,0.70711,0.0,0.0,0.0,0.0,0
4584000,0,0.70711,0.000106154344,0.00010657935,0.70711,0.0,0.0,0.0,0.0,0
4592000,0,0.70711,0.00010636951,0.00010679451,0.70711,0.0,0.0,0.0,0.0,0
4604000,0,0.70711,0.000106692256,0.00010711726,0.70711,0.0,0.0,0.0,0.0,0
4612000,0,0.70711,0.00010690742,0.000107332424,0.70711,0.0,0.0,0.0,0.0,0
4624000,0,0.70711,0.00010723017,0.00010765517,0.70711,0.0,0.0,0.0,0.0,0
4632000,0,0.70711,0.00010744534,0.00010787034,0.70711,0.0,0.0,0.0,0.0,0
4644000,0,0.70711,0.000107768086,0.00010819309,0.70711,0.0,0.0,0.0,0.0,0
4652000,0,0.70711,0.00010798325,0.000108408254,0.70711,0.0,0.0,0.0,0.0,0
4664000,0,0.70711,0.000108306,0.000108731,0.70711,0.0,0.0,0.0,0.0,0
4672000,0,0.70711,0.00010852116,0.000108946166,0.70711,0.0,0.0,0.0,0.0,0
4684000,0,0.70711,0.00010884391,0.00010926891,0.70711,0.0,0.0,0.0,0.0,0
4692000,0,0.70711,0.000109059074,0.00010948408,0.70711,0.0,0.0,0.0,0.0,0
4704000,0,0.70711,0.00010938183,0.00010980683,0.70711,0.0,0.0,0.0,0.0,0
4712000,0,0.70711,0.00010959699,0.000110021996,0.70711,0.0,0.0,0.0,0.0,0
4724000,0,0.70711,0.00010991974,0.00011034474,0.70711,0.0,0.0,0.0,0.0,0
4732000,0,0.70711,0.000110134904,0.00011055991,0.70711,0.0,0.0,0.0,0.0,0
4744000,0,0.70711,0.00011045765,0.000110882655,0.70711,0.0,0.0,0.0,0.0,0
4752000,0,0.70711,0.00011067282,0.00011109782,0.70711,0.0,0.0,0.0,0.0,0
4764000,0,0.70711,0.00011099557,0.00011142057,0.70711,0.0,0.0,0.0,0.0,0
4772000,0,0.70711,0.000111210735,0.00011163574,0.70711,0.0,0.0,0.0,0.0,0
4784000,0,0.70711,0.00011153348,0.000111958485,0.70711,0.0,0.0,0.0,0.0,0
4792000,0,0.70711,0.00011174865,0.00011217365,0.70711,0.0,0.0,0.0,0.0,0
4804000,0,0.70711,0.0001120714,0.000112496404,0.70711,0.0,0.0,0.0,0.0,0
4812000,0,0.70711,0.000112286565,0.00011271157,0.70711,0.0,0.0,0.0,0.0,0
4824000,0,0.70711,0.00011260931,0.000113034315,0.70711,0.0,0.0,0.0,0.0,0
4832000,0,0.70711,0.000112824484,0.00011324948,0.70711,0.0,0.0,0.0,0.0,0
4844000,0,0.70711,0.00011314723,0.000113572234,0.70711,0.0,0.0,0.0,0.0,0
4852000,0,0.70711,0.000113362395,0.0001137874,0.70711,0.0,0.0,0.0,0.0,0
4864000,0,0.70711,0.00011368515,0.000114110146,0.70711,0.0,0.0,0.0,0.0,0
4872000,0,0.70711,0.000113900314,0.00011432532,0.70711,0.0,0.0,0.0,0.0,0
4884000,0,0.70711,0.00011422306,0.000114648064,0.70711,0.0,0.0,0.0,0.0,0
4892000,0,0.70711,0.00011443823,0.00011486323,0.70711,0.0,0.0,0.0,0.0,0
4904000,0,0.70711,0.00011476098,0.00011518598,0.70711,0.0,0.0,0.0,0.0,0
4912000,0,0.70711,0.000114976145,0.00011540115,0.70711,0.0,0.0,0.0,0.0,0
4924000,0,0.70711,0.0001152989,0.000115723895,0.70711,0.0,0.0,0.0,0.0,0
4932000,0,0.70711,0.00011551406,0.00011593907,0.70711,0.0,0.0,0.0,0.0,0
4944000,0,0.70711,0.00011583681,0.000116261814,0.70711,0.0,0.0,0.0,0.0,0
4952000,0,0.70711,0.00011605198,0.00011647698,0.70711,0.0,0.0,0.0,0.0,0
4964000,0,0.70711,0.00011637473,0.00011679973,0.70711,0.0,0.0,0.0,0.0,0
4972000,0,0.70711,0.0001165899,0.0001170149,0.70711,0.0,0.0,0.0,0.0,0
4984000,0,0.70711,0.00011691265,0.00011733765,0.70711,0.0,0.0,0.0,0.0,0
4992000,0,0.70711,0.00011712781,0.000117552816,0.70711,0.0,0.0,0.0,0.0,0
5004000,0,0.70711,0.00011745057,0.00011787556,0.70711,0.0,0.0,0.0,0.0,0
5012000,0,0.70711,0.00011766573,0.000118090735,0.70711,0.0,0.0,0.0,0.0,0
5024000,0,0.70711,0.000117988486,0.00011841348,0.70711,0.0,0.0,0.0,0.0,0
5032000,0,0.70711,0.00011820365,0.00011862865,0.70711,0.0,0.0,0.0,0.0,0
5044000,0,0.70711,0.000118526405,0.0001189514,0.70711,0.0,0.0,0.0,0.0,0
5052000,0,0.70711,0.00011874157,0.00011916657,0.70711,0.0,0.0,0.0,0.0,0
5064000,0,0.70711,0.00011906432,0.00011948932,0.70711,0.0,0.0,0.0,0.0,0
5072000,0,0.70711,0.00011927949,0.000119704484,0.70711,0.0,0.0,0.0,0.0,0
5084000,0,0.70711,0.00011960224,0.00012002724,0.70711,0.0,0.0,0.0,0.0,0
5092000,0,0.70711,0.00011981741,0.0001202424,0.70711,0.0,0.0,0.0,0.0,0
5104000,0,0.70711,0.00012014016,0.00012056516,0.70711,0.0,0.0,0.0,0.0,0
5112000,0,0.70711,0.000120355326,0.00012078033,0.70711,0.0,0.0,0.0,0.0,0
5124000,0,0.70711,0.00012067808,0.000121103076,0.70711,0.0,0.0,0.0,0.0,0
5132000,0,0.70711,0.000120893244,0.00012131825,0.70711,0.0,0.0,0.0,0.0,0
5144000,0,0.70711,0.000121216,0.000121640995,0.70711,0.0,0.0,0.0,0.0,0
5152000,0,0.70711,0.00012143116,0.00012185617,0.70711,0.0,0.0,0.0,0.0,0
5164000,0,0.70711,0.00012175392,0.00012217891,0.70711,0.0,0.0,0.0,0.0,0
5172000,0,0.70711,0.00012196909,0.00012239408,0.70711,0.0,0.0,0.0,0.0,0
5184000,0,0.70711,0.00012229184,0.00012271684,0.70711,0.0,0.0,0.0,0.0,0
5192000,0,0.70711,0.000122507,0.000122932,0.70711,0.0,0.0,0.0,0.0,0
5204000,0,0.70711,0.00012282976,0.00012325475,0.70711,0.0,0.0,0.0,0.0,0
5212000,0,0.70711,0.00012304493,0.00012346993,0.70711,0.0,0.0,0.0,0.0,0
5224000,0,0.70711,0.00012336767,0.00012379268,0.70711,0.0,0.0,0.0,0.0,0
5232000,0,0.70711,0.00012358285,0.00012400784,0.70711,0.0,0.0,0.0,0.0,0
5244000,0,0.70711,0.0001239056,0.0001243306,0.70711,0.0,0.0,0.0,0.0,0
5252000,0,0.70711,0.00012412076,0.00012454577,0.70711,0.0,0.0,0.0,0.0,0
5264000,0,0.70711,0.00012444353,0.00012486851,0.70711,0.0,0.0,0.0,0.0,0
5272000,0,0.70711,0.00012465869,0.00012508368,0.70711,0.0,0.0,0.0,0.0,0
5284000,0,0.70711,0.00012498144,0.00012540644,0.70711,0.0,0.0,0.0,0.0,0
5292000,0,0.70711,0.00012519662,0.0001256216,0.70711,0.0,0.0,0.0,0.0,0
5304000,0,0.70711,0.00012551936,0.00012594437,0.70711,0.0,0.0,0.0,0.0,0
5312000,0,0.70711,0.00012573453,0.00012615953,0.70711,0.0,0.0,0.0,0.0,0
5324000,0,0.70711,0.00012605729,0.00012648228,0.70711,0.0,0.0,0.0,0.0,0
5332000,0,0.70711,0.00012627245,0.00012669746,0.70711,0.0,0.0,0.0,0.0,0
5344000,0,0.70711,0.0001265952,0.0001270202,0.70711,0.0,0.0,0.0,0.0,0
5352000,0,0.70711,0.00012681038,0.00012723537,0.70711,0.0,0.0,0.0,0.0,0
5364000,0,0.70711,0.00012713313,0.00012755813,0.70711,0.0,0.0,0.0,0.0,0
5372000,0,0.70711,0.0001273483,0.0001277733,0.70711,0.0,0.0,0.0,0.0,0
5384000,0,0.70711,0.00012767105,0.00012809604,0.70711,0.0,0.0,0.0,0.0,0
5392000,0,0.70711,0.00012788622,0.00012831122,0.70711,0.0,0.0,0.0,0.0,0
5404000,0,0.70711,0.00012820898,0.00012863397,0.70711,0.0,0.0,0.0,0.0,0
5412000,0,0.70711,0.00012842414,0.00012884915,0.70711,0.0,0.0,0.0,0.0,0
5424000,0,0.70711,0.0001287469,0.0001291719,0.70711,0.0,0.0,0.0,0.0,0
5432000,0,0.70711,0.00012896207,0.00012938706,0.70711,0.0,0.0,0.0,0.0,0
5444000,0,0.70711,0.00012928482,0.00012970982,0.70711,0.0,0.0,0.0,0.0,0
5452000,0,0.70711,0.0001295,0.00012992499,0.70711,0.0,0.0,0.0,0.0,0
5464000,0,0.70711,0.00012982274,0.00013024775,0.70711,0.0,0.0,0.0,0.0,0
5472000,0,0.70711,0.00013003792,0.00013046291,0.70711,0.0,0.0,0.0,0.0,0
5484000,0,0.70711,0.00013036067,0.00013078566,0.70711,0.0,0.0,0.0,0.0,0
5492000,0,0.70711,0.00013057583,0.00013100084,0.70711,0.0,0.0,0.0,0.0,0
5504000,0,0.70711,0.0001308986,0.00013132358,0.70711,0.0,0.0,0.0,0.0,0
5512000,0,0.70711,0.00013111376,0.00013153876,0.70711,0.0,0.0,0.0,0.0,0
5524000,0,0.70711,0.00013143652,0.00013186151,0.70711,0.0,0.0,0.0,0.0,0
5532000,0,0.70711,0.00013165169,0.00013207669,0.70711,0.0,0.0,0.0,0.0,0
5544000,0,0.70711,0.00013197445,0.00013239944,0.70711,0.0,0.0,0.0,0.0,0
5552000,0,0.70711,0.00013218961,0.0001326146,0.70711,0.0,0.0,0.0,0.0,0
5564000,0,0.70711,0.00013251237,0.00013293736,0.70711,0.0,0.0,0.0,0.0,0
5572000,0,0.70711,0.00013272754,0.00013315253,0.70711,0.0,0.0,0.0,0.0,0
5584000,0,0.70711,0.0001330503,0.00013347529,0.70711,0.0,0.0,0.0,0.0,0
5592000,0,0.70711,0.00013326546,0.00013369045,0.70711,0.0,0.0,0.0,0.0,0
5604000,0,0.70711,0.00013358823,0.00013401321,0.70711,0.0,0.0,0.0,0.0,0
5612000,0,0.70711,0.00013380339,0.00013422838,0.70711,0.0,0.0,0.0,0.0,0
5624000,0,0.70711,0.00013412615,0.00013455114,0.70711,0.0,0.0,0.0,0.0,0
5632000,0,0.70711,0.00013434132,0.0001347663,0.70711,0.0,0.0,0.0,0.0,0
5644000,0,0.70711,0.00013466408,0.00013508907,0.70711,0.0,0.0,0.0,0.0,0
5652000,0,0.70711,0.00013487924,0.00013530423,0.70711,0.0,0.0,0.0,0.0,0
5664000,0,0.70711,0.000135202,0.000135627,0.70711,0.0,0.0,0.0,0.0,0
5672000,0,0.70711,0.00013541717,0.00013584216,0.70711,0.0,0.0,0.0,0.0,0
5684000,0,0.70711,0.00013573993,0.00013616492,0.70711,0.0,0.0,0.0,0.0,0
5692000,0,0.70711,0.0001359551,0.00013638008,0.70711,0.0,0.0,0.0,0.0,0
5704000,0,0.70711,0.00013627786,0.00013670285,0.70711,0.0,0.0,0.0,0.0,0
5712000,0,0.70711,0.00013649302,0.00013691801,0.70711,0.0,0.0,0.0,0.0,0
5724000,0,0.70711,0.00013681578,0.00013724077,0.70711,0.0,0.0,0.0,0.0,0
5732000,0,0.70711,0.00013703095,0.00013745594,0.70711,0.0,0.0,0.0,0.0,0
5744000,0,0.70711,0.00013735371,0.0001377787,0.70711,0.0,0.0,0.0,0.0,0
5752000,0,0.70711,0.00013756887,0.00013799386,0.70711,0.0,0.0,0.0,0.0,0
5764000,0,0.70711,0.00013789163,0.00013831662,0.70711,0.0,0.0,0.0,0.0,0
5772000,0,0.70711,0.0001381068,0.00013853179,0.70711,0.0,0.0,0.0,0.0,0
5784000,0,0.70711,0.00013842956,0.00013885455,0.70711,0.0,0.0,0.0,0.0,0
5792000,0,0.70711,0.00013864473,0.00013906973,0.70711,0.0,0.0,0.0,0.0,0
5804000,0,0.70711,0.00013896749,0.00013939248,0.70711,0.0,0.0,0.0,0.0,0
5812000,0,0.70711,0.00013918267,0.00013960766,0.70711,0.0,0.0,0.0,0.0,0
5824000,0,0.70711,0.00013950541,0.0001399304,0.70711,0.0,0.0,0.0,0.0,0
5832000,0,0.70711,0.00013972059,0.00014014558,0.70711,0.0,0.0,0.0,0.0,0
5844000,0,0.70711,0.00014004334,0.00014046833,0.70711,0.0,0.0,0.0,0.0,0
5852000,0,0.70711,0.00014025852,0.0001406835,0.70711,0.0,0.0,0.0,0.0,0
5864000,0,0.7071099,0.00014058128,0.00014100627,0.70711,0.0,0.0,0.0,0.0,0
5872000,0,0.7071099,0.00014079644,0.00014122143,0.70711,0.0,0.0,0.0,0.0,0
5884000,0,0.7071099,0.0001411192,0.0001415442,0.70711,0.0,0.0,0.0,0.0,0
5892000,0,0.7071099,0.00014133437,0.00014175936,0.70711,0.0,0.0,0.0,0.0,0
5904000,0,0.7071099,0.00014165713,0.00014208212,0.70711,0.0,0.0,0.0,0.0,0
5912000,0,0.7071099,0.0001418723,0.0001422973,0.70711,0.0,0.0,0.0,0.0,0
5924000,0,0.7071099,0.00014219506,0.00014262005,0.70711,0.0,0.0,0.0,0.0,0
5932000,0,0.7071099,0.00014241024,0.00014283523,0.70711,0.0,0.0,0.0,0.0,0
5944000,0,0.7071099,0.00014273298,0.00014315797,0.70711,0.0,0.0,0.0,0.0,0
5952000,0,0.7071099,0.00014294816,0.00014337315,0.70711,0.0,0.0,0.0,0.0,0
5964000,0,0.7071099,0.00014327093,0.00014369591,0.70711,0.0,0.0,0.0,0.0,0
5972000,0,0.7071099,0.00014348609,0.00014391108,0.70711,0.0,0.0,0.0,0.0,0
5984000,0,0.7071099,0.00014380885,0.00014423384,0.70711,0.0,0.0,0.0,0.0,0
5992000,0,0.7071099,0.00014402403,0.00014444902,0.70711,0.0,0.0,0.0,0.0,0
6004000,0,0.7071099,0.00014434678,0.00014477177,0.70711,0.0,0.0,0.0,0.0,0
6012000,0,0.7071099,0.00014456196,0.00014498695,0.70711,0.0,0.0,0.0,0.0,0
6024000,0,0.7071099,0.00014488472,0.0001453097,0.70711,0.0,0.0,0.0,0.0,0
6032000,0,0.7071099,0.00014509988,0.00014552487,0.70711,0.0,0.0,0.0,0.0,0
6044000,0,0.7071099,0.00014542264,0.00014584763,0.70711,0.0,0.0,0.0,0.0,0
6052000,0,0.7071099,0.00014563781,0.0001460628,0.70711,0.0,0.0,0.0,0.0,0
6064000,0,0.7071099,0.00014596057,0.00014638556,0.70711,0.0,0.0,0.0,0.0,0
6072000,0,0.7071099,0.00014617575,0.00014660074,0.70711,0.0,0.0,0.0,0.0,0
6084000,0,0.7071099,0.00014649851,0.0001469235,0.70711,0.0,0.0,0.0,0.0,0
6092000,0,0.7071099,0.00014671368,0.00014713866,0.70711,0.0,0.0,0.0,0.0,0
6104000,0,0.7071099,0.00014703644,0.00014746143,0.70711,0.0,0.0,0.0,0.0,0
6112000,0,0.7071099,0.00014725162,0.0001476766,0.70711,0.0,0.0,0.0,0.0,0
6124000,0,0.7071099,0.00014757436,0.00014799935,0.70711,0.0,0.0,0.0,0.0,0
6132000,0,0.7071099,0.00014778954,0.00014821453,0.70711,0.0,0.0,0.0,0.0,0
6144000,0,0.7071099,0.0001481123,0.00014853729,0.70711,0.0,0.0,0.0,0.0,0
6152000,0,0.7071099,0.00014832747,0.00014875246,0.70711,0.0,0.0,0.0,0.0,0
6164000,0,0.7071099,0.00014865023,0.00014907522,0.70711,0.0,0.0,0.0,0.0,0
6172000,0,0.7071099,0.00014886541,0.0001492904,0.70711,0.0,0.0,0.0,0.0,0
6184000,0,0.7071099,0.00014918817,0.00014961316,0.70711,0.0,0.0,0.0,0.0,0
6192000,0,0.7071099,0.00014940333,0.00014982832,0.70711,0.0,0.0,0.0,0.0,0
6204000,0,0.7071099,0.0001497261,0.00015015109,0.70711,0.0,0.0,0.0,0.0,0
6212000,0,0.7071099,0.00014994128,0.00015036626,0.70711,0.0,0.0,0.0,0.0,0
6224000,0,0.7071099,0.00015026404,0.00015068903,0.70711,0.0,0.0,0.0,0.0,0
6232000,0,0.7071099,0.0001504792,0.00015090419,0.70711,0.0,0.0,0.0,0.0,0
6244000,0,0.7071099,0.00015080196,0.00015122695,0.70711,0.0,0.0,0.0,0.0,0
6252000,0,0.7071099,0.00015101714,0.00015144213,0.70711,0.0,0.0,0.0,0.0,0
6264000,0,0.7071099,0.0001513399,0.00015176489,0.70711,0.0,0.0,0.0,0.0,0
6272000,0,0.7071099,0.00015155507,0.00015198006,0.70711,0.0,0.0,0.0,0.0,0
6284000,0,0.7071099,0.00015187783,0.00015230282,0.70711,0.0,0.0,0.0,0.0,0
6292000,0,0.7071099,0.00015209301,0.000152518,0.70711,0.0,0.0,0.0,0.0,0
6304000,0,0.7071099,0.00015241577,0.00015284076,0.70711,0.0,0.0,0.0,0.0,0
6312000,0,0.7071099,0.00015263095,0.00015305592,0.70711,0.0,0.0,0.0,0.0,0
6324000,0,0.7071099,0.0001529537,0.00015337869,0.70711,0.0,0.0,0.0,0.0,0
6332000,0,0.7071099,0.00015316888,0.00015359386,0.70711,0.0,0.0,0.0,0.0,0
6344000,0,0.7071099,0.00015349164,0.00015391663,0.70711,0.0,0.0,0.0,0.0,0
6352000,0,0.7071099,0.00015370682,0.00015413179,0.70711,0.0,0.0,0.0,0.0,0
6364000,0,0.7071099,0.00015402958,0.00015445455,0.70711,0.0,0.0,0.0,0.0,0
6372000,0,0.7071099,0.00015424474,0.00015466973,0.70711,0.0,0.0,0.0,0.0,0
6384000,0,0.7071099,0.0001545675,0.0001549925,0.70711,0.0,0.0,0.0,0.0,0
6392000,0,0.7071099,0.00015478268,0.00015520767,0.70711,0.0,0.0,0.0,0.0,0
6404000,0,0.7071099,0.00015510544,0.00015553043,0.70711,0.0,0.0,0.0,0.0,0
6412000,0,0.7071099,0.00015532062,0.0001557456,0.70711,0.0,0.0,0.0,0.0,0
6424000,0,0.7071099,0.00015564339,0.00015606836,0.70711,0.0,0.0,0.0,0.0,0
6432000,0,0.7071099,0.00015585855,0.00015628354,0.70711,0.0,0.0,0.0,0.0,0
6444000,0,0.7071099,0.00015618131,0.0001566063,0.70711,0.0,0.0,0.0,0.0,0
6452000,0,0.7071099,0.00015639649,0.00015682148,0.70711,0.0,0.0,0.0,0.0,0
6464000,0,0.7071099,0.00015671925,0.00015714424,0.70711,0.0,0.0,0.0,0.0,0
6472000,0,0.7071099,0.00015693443,0.0001573594,0.70711,0.0,0.0,0.0,0.0,0
6484000,0,0.7071099,0.0001572572,0.00015768217,0.70711,0.0,0.0,0.0,0.0,0
6492000,0,0.7071099,0.00015747236,0.00015789735,0.70711,0.0,0.0,0.0,0.0,0
6504000,0,0.7071099,0.00015779512,0.00015822011,0.70711,0.0,0.0,0.0,0.0,0
6512000,0,0.7071099,0.0001580103,0.00015843529,0.70711,0.0,0.0,0.0,0.0,0
6524000,0,0.7071099,0.00015833306,0.00015875805,0.70711,0.0,0.0,0.0,0.0,0
6532000,0,0.7071099,0.00015854824,0.00015897323,0.70711,0.0,0.0,0.0,0.0,0
6544000,0,0.7071099,0.000158871,0.00015929599,0.70711,0.0,0.0,0.0,0.0,0
6552000,0,0.7071099,0.00015908618,0.00015951115,0.70711,0.0,0.0,0.0,0.0,0
6564000,0,0.7071099,0.00015940894,0.00015983391,0.70711,0.0,0.0,0.0,0.0,0
6572000,0,0.7071099,0.0001596241,0.0001600491,0.70711,0.0,0.0,0.0,0.0,0
6584000,0,0.7071099,0.00015994688,0.00016037186,0.70711,0.0,0.0,0.0,0.0,0
6592000,0,0.7071099,0.00016016205,0.00016058703,0.70711,0.0,0.0,0.0,0.0,0
6604000,0,0.7071099,0.00016048481,0.0001609098,0.70711,0.0,0.0,0.0,0.0,0
6612000,0,0.7071099,0.00016069999,0.00016112498,0.70711,0.0,0.0,0.0,0.0,0
6624000,0,0.7071099,0.00016102275,0.00016144774,0.70711,0.0,0.0,0.0,0.0,0
6632000,0,0.7071099,0.00016123793,0.00016166292,0.70711,0.0,0.0,0.0,0.0,0
6644000,0,0.7071099,0.00016156069,0.00016198568,0.70711,0.0,0.0,0.0,0.0,0
6652000,0,0.7071099,0.00016177587,0.00016220084,0.70711,0.0,0.0,0.0,0.0,0
6664000,0,0.7071099,0.00016209863,0.0001625236,0.70711,0.0,0.0,0.0,0.0,0
6672000,0,0.7071099,0.00016231381,0.00016273878,0.70711,0.0,0.0,0.0,0.0,0
6684000,0,0.7071099,0.00016263657,0.00016306154,0.70711,0.0,0.0,0.0,0.0,0
6692000,0,0.7071099,0.00016285175,0.00016327672,0.70711,0.0,0.0,0.0,0.0,0
6704000,0,0.7071099,0.00016317451,0.00016359948,0.70711,0.0,0.0,0.0,0.0,0
6712000,0,0.7071099,0.00016338969,0.00016381466,0.70711,0.0,0.0,0.0,0.0,0
6724000,0,0.7071099,0.00016371245,0.00016413743,0.70711,0.0,0.0,0.0,0.0,0
6732000,0,0.7071099,0.00016392762,0.0001643526,0.70711,0.0,0.0,0.0,0.0,0
6744000,0,0.7071099,0.00016425039,0.00016467537,0.70711,0.0,0.0,0.0,0.0,0
6752000,0,0.7071099,0.00016446556,0.00016489055,0.70711,0.0,0.0,0.0,0.0,0
6764000,0,0.7071099,0.00016478833,0.0001652133,0.70711,0.0,0.0,0.0,0.0,0
6772000,0,0.7071099,0.0001650035,0.00016542849,0.70711,0.0,0.0,0.0,0.0,0
6784000,0,0.7071099,0.00016532627,0.00016575125,0.70711,0.0,0.0,0.0,0.0,0
6792000,0,0.7071099,0.00016554144,0.00016596643,0.70711,0.0,0.0,0.0,0.0,0
6804000,0,0.7071099,0.00016586421,0.00016628919,0.70711,0.0,0.0,0.0,0.0,0
6812000,0,0.7071099,0.00016607938,0.00016650437,0.70711,0.0,0.0,0.0,0.0,0
6824000,0,0.7071099,0.00016640215,0.00016682713,0.70711,0.0,0.0,0.0,0.0,0
6832000,0,0.7071099,0.00016661732,0.00016704231,0.70711,0.0,0.0,0.0,0.0,0
6844000,0,0.7071099,0.0001669401,0.00016736507,0.70711,0.0,0.0,0.0,0.0,0
6852000,0,0.7071099,0.00016715526,0.00016758025,0.70711,0.0,0.0,0.0,0.0,0
6864000,0,0.7071099,0.00016747804,0.00016790301,0.70711,0.0,0.0,0.0,0.0,0
6872000,0,0.7071099,0.0001676932,0.00016811819,0.70711,0.0,0.0,0.0,0.0,0
6884000,0,0.7071099,0.00016801598,0.00016844095,0.70711,0.0,0.0,0.0,0.0,0
6892000,0,0.7071099,0.00016823116,0.00016865613,0.70711,0.0,0.0,0.0,0.0,0
6904000,0,0.7071099,0.00016855392,0.00016897889,0.70711,0.0,0.0,0.0,0.0,0
6912000,0,0.7071099,0.0001687691,0.00016919407,0.70711,0.0,0.0,0.0,0.0,0
6924000,0,0.7071099,0.00016909186,0.00016951683,0.70711,0.0,0.0,0.0,0.0,0
6932000,0,0.7071099,0.00016930704,0.00016973201,0.70711,0.0,0.0,0.0,0.0,0
6944000,0,0.7071099,0.0001696298,0.00017005477,0.70711,0.0,0.0,0.0,0.0,0
6952000,0,0.7071099,0.00016984498,0.00017026995,0.70711,0.0,0.0,0.0,0.0,0
6964000,0,0.7071099,0.00017016774,0.00017059271,0.70711,0.0,0.0,0.0,0.0,0
6972000,0,0.7071099,0.00017038292,0.00017080789,0.70711,0.0,0.0,0.0,0.0,0
6984000,0,0.7071099,0.00017070568,0.00017113067,0.70711,0.0,0.0,0.0,0.0,0
6992000,0,0.7071099,0.00017092086,0.00017134583,0.70711,0.0,0.0,0.0,0.0,0
7004000,0,0.7071099,0.00017124362,0.00017166861,0.70711,0.0,0.0,0.0,0.0,0
7012000,0,0.7071099,0.0001714588,0.00017188379,0.70711,0.0,0.0,0.0,0.0,0
7024000,0,0.7071099,0.00017178158,0.00017220655,0.70711,0.0,0.0,0.0,0.0,0
7032000,0,0.7071099,0.00017199675,0.00017242173,0.70711,0.0,0.0,0.0,0.0,0
7044000,0,0.7071099,0.00017231952,0.00017274449,0.70711,0.0,0.0,0.0,0.0,0
7052000,0,0.7071099,0.0001725347,0.00017295967,0.70711,0.0,0.0,0.0,0.0,0
7064000,0,0.7071099,0.00017285746,0.00017328243,0.70711,0.0,0.0,0.0,0.0,0
7072000,0,0.7071099,0.00017307264,0.00017349761,0.70711,0.0,0.0,0.0,0.0,0
7084000,0,0.7071099,0.0001733954,0.00017382039,0.70711,0.0,0.0,0.0,0.0,0
7092000,0,0.7071099,0.00017361058,0.00017403555,0.70711,0.0,0.0,0.0,0.0,0
7104000,0,0.7071099,0.00017393335,0.00017435833,0.70711,0.0,0.0,0.0,0.0,0
7112000,0,0.7071099,0.00017414852,0.0001745735,0.70711,0.0,0.0,0.0,0.0,0
7124000,0,0.7071099,0.0001744713,0.00017489627,0.70711,0.0,0.0,0.0,0.0,0
7132000,0,0.7071099,0.00017468647,0.00017511145,0.70711,0.0,0.0,0.0,0.0,0
7144000,0,0.7071099,0.00017500923,0.00017543421,0.70711,0.0,0.0,0.0,0.0,0
7152000,0,0.7071099,0.00017522441,0.00017564939,0.70711,0.0,0.0,0.0,0.0,0
7164000,0,0.7071099,0.00017554717,0.00017597216,0.70711,0.0,0.0,0.0,0.0,0
7172000,0,0.7071099,0.00017576235,0.00017618734,0.70711,0.0,0.0,0.0,0.0,0
7184000,0,0.7071099,0.00017608513,0.0001765101,0.70711,0.0,0.0,0.0,0.0,0
7192000,0,0.7071099,0.00017630031,0.00017672528,0.70711,0.0,0.0,0.0,0.0,0
7204000,0,0.7071099,0.00017662307,0.00017704804,0.70711,0.0,0.0,0.0,0.0,0
7212000,0,0.7071099,0.00017683825,0.00017726322,0.70711,0.0,0.0,0.0,0.0,0
7224000,0,0.7071099,0.00017716101,0.000177586,0.70711,0.0,0.0,0.0,0.0,0
7232000,0,0.7071099,0.00017737619,0.00017780118,0.70711,0.0,0.0,0.0,0.0,0
7244000,0,0.7071099,0.00017769897,0.00017812394,0.70711,0.0,0.0,0.0,0.0,0
7252000,0,0.7071099,0.00017791415,0.00017833912,0.70711,0.0,0.0,0.0,0.0,0
7264000,0,0.7071099,0.0001782369,0.00017866188,0.70711,0.0,0.0,0.0,0.0,0
7272000,0,0.7071099,0.00017845209,0.00017887706,0.70711,0.0,0.0,0.0,0.0,0
7284000,0,0.7071099,0.00017877486,0.00017919984,0.70711,0.0,0.0,0.0,0.0,0
7292000,0,0.7071099,0.00017899004,0.00017941502,0.70711,0.0,0.0,0.0,0.0,0
7304000,0,0.7071099,0.0001793128,0.00017973778,0.70711,0.0,0.0,0.0,0.0,0
7312000,0,0.7071099,0.00017952798,0.00017995296,0.70711,0.0,0.0,0.0,0.0,0
7324000,0,0.7071099,0.00017985074,0.00018027573,0.70711,0.0,0.0,0.0,0.0,0
7332000,0,0.7071099,0.00018006592,0.00018049091,0.70711,0.0,0.0,0.0,0.0,0
7344000,0,0.7071099,0.0001803887,0.00018081367,0.70711,0.0,0.0,0.0,0.0,0
7352000,0,0.7071099,0.00018060388,0.00018102885,0.70711,0.0,0.0,0.0,0.0,0
7364000,0,0.7071099,0.00018092664,0.00018135161,0.70711,0.0,0.0,0.0,0.0,0
7372000,0,0.7071099,0.00018114182,0.0001815668,0.70711,0.0,0.0,0.0,0.0,0
7384000,0,0.7071099,0.0001814646,0.00018188957,0.70711,0.0,0.0,0.0,0.0,0
7392000,0,0.7071099,0.00018167977,0.00018210475,0.70711,0.0,0.0,0.0,0.0,0
7404000,0,0.7071099,0.00018200254,0.00018242751,0.70711,0.0,0.0,0.0,0.0,0
7412000,0,0.7071099,0.00018221771,0.00018264269,0.70711,0.0,0.0,0.0,0.0,0
7424000,0,0.7071099,0.00018254049,0.00018296546,0.70711,0.0,0.0,0.0,0.0,0
7432000,0,0.7071099,0.00018275567,0.00018318064,0.70711,0.0,0.0,0.0,0.0,0
7444000,0,0.7071099,0.00018307843,0.0001835034,0.70711,0.0,0.0,0.0,0.0,0
7452000,0,0.7071099,0.00018329361,0.0001837186,0.70711,0.0,0.0,0.0,0.0,0
7464000,0,0.7071099,0.00018361639,0.00018404136,0.70711,0.0,0.0,0.0,0.0,0
7472000,0,0.7071099,0.00018383157,0.00018425654,0.70711,0.0,0.0,0.0,0.0,0
7484000,0,0.7071099,0.00018415434,0.00018457932,0.70711,0.0,0.0,0.0,0.0,0
7492000,0,0.7071099,0.00018436952,0.0001847945,0.70711,0.0,0.0,0.0,0.0,0
7504000,0,0.7071099,0.00018469228,0.00018511726,0.70711,0.0,0.0,0.0,0.0,0
7512000,0,0.7071099,0.00018490746,0.00018533244,0.70711,0.0,0.0,0.0,0.0,0
7524000,0,0.7071099,0.00018523024,0.00018565521,0.70711,0.0,0.0,0.0,0.0,0
7532000,0,0.7071099,0.00018544542,0.00018587039,0.70711,0.0,0.0,0.0,0.0,0
7544000,0,0.7071099,0.00018576818,0.00018619315,0.70711,0.0,0.0,0.0,0.0,0
7552000,0,0.7071099,0.00018598337,0.00018640833,0.70711,0.0,0.0,0.0,0.0,0
7564000,0,0.7071099,0.00018630613,0.00018673111,0.70711,0.0,0.0,0.0,0.0,0
7572000,0,0.7071099,0.00018652131,0.00018694629,0.70711,0.0,0.0,0.0,0.0,0
7584000,0,0.7071099,0.00018684409,0.00018726906,0.70711,0.0,0.0,0.0,0.0,0
7592000,0,0.7071099,0.00018705927,0.00018748424,0.70711,0.0,0.0,0.0,0.0,0
7604000,0,0.7071099,0.00018738203,0.000187807,0.70711,0.0,0.0,0.0,0.0,0
7612000,0,0.7071099,0.00018759722,0.00018802218,0.70711,0.0,0.0,0.0,0.0,0
7624000,0,0.7071099,0.00018791998,0.00018834496,0.70711,0.0,0.0,0.0,0.0,0
7632000,0,0.7071099,0.00018813516,0.00018856014,0.70711,0.0,0.0,0.0,0.0,0
7644000,0,0.7071099,0.00018845794,0.00018888291,0.70711,0.0,0.0,0.0,0.0,0
7652000,0,0.7071099,0.00018867312,0.0001890981,0.70711,0.0,0.0,0.0,0.0,0
7664000,0,0.7071099,0.0001889959,0.00018942087,0.70711,0.0,0.0,0.0,0.0,0
7672000,0,0.7071099,0.00018921107,0.00018963605,0.70711,0.0,0.0,0.0,0.0,0
7684000,0,0.7071099,0.00018953384,0.00018995881,0.70711,0.0,0.0,0.0,0.0,0
7692000,0,0.7071099,0.00018974901,0.00019017399,0.70711,0.0,0.0,0.0,0.0,0
7704000,0,0.7071099,0.00019007179,0.00019049676,0.70711,0.0,0.0,0.0,0.0,0
7712000,0,0.7071099,0.00019028697,0.00019071194,0.70711,0.0,0.0,0.0,0.0,0
7724000,0,0.7071099,0.00019060975,0.00019103472,0.70711,0.0,0.0,0.0,0.0,0
7732000,0,0.7071099,0.00019082493,0.0001912499,0.70711,0.0,0.0,0.0,0.0,0
7744000,0,0.7071099,0.0001911477,0.00019157268,0.70711,0.0,0.0,0.0,0.0,0
7752000,0,0.7071099,0.00019136288,0.00019178785,0.70711,0.0,0.0,0.0,0.0,0
7764000,0,0.7071099,0.00019168566,0.00019211062,0.70711,0.0,0.0,0.0,0.0,0
7772000,0,0.7071099,0.00019190084,0.00019232581,0.70711,0.0,0.0,0.0,0.0,0
7784000,0,0.7071099,0.0001922236,0.00019264857,0.70711,0.0,0.0,0.0,0.0,0
7792000,0,0.7071099,0.00019243879,0.00019286375,0.70711,0.0,0.0,0.0,0.0,0
7804000,0,0.7071099,0.00019276155,0.00019318653,0.70711,0.0,0.0,0.0,0.0,0
7812000,0,0.7071099,0.00019297673,0.0001934017,0.70711,0.0,0.0,0.0,0.0,0
7824000,0,0.7071099,0.00019329951,0.00019372448,0.70711,0.0,0.0,0.0,0.0,0
7832000,0,0.7071099,0.00019351469,0.00019393966,0.70711,0.0,0.0,0.0,0.0,0
7844000,0,0.7071099,0.00019383746,0.00019426244,0.70711,0.0,0.0,0.0,0.0,0
7852000,0,0.7071099,0.00019405264,0.00019447762,0.70711,0.0,0.0,0.0,0.0,0
7864000,0,0.7071099,0.00019437542,0.00019480039,0.70711,0.0,0.0,0.0,0.0,0
7872000,0,0.7071099,0.0001945906,0.00019501557,0.70711,0.0,0.0,0.0,0.0,0
7884000,0,0.7071099,0.00019491337,0.00019533835,0.70711,0.0,0.0,0.0,0.0,0
7892000,0,0.7071099,0.00019512855,0.00019555353,0.70711,0.0,0.0,0.0,0.0,0
7904000,0,0.7071099,0.00019545133,0.0001958763,0.70711,0.0,0.0,0.0,0.0,0
7912000,0,0.7071099,0.00019566651,0.00019609148,0.70711,0.0,0.0,0.0,0.0,0
7924000,0,0.7071099,0.00019598928,0.00019641424,0.70711,0.0,0.0,0.0,0.0,0
7932000,0,0.7071099,0.00019620446,0.00019662944,0.70711,0.0,0.0,0.0,0.0,0
7944000,0,0.7071099,0.00019652724,0.0001969522,0.70711,0.0,0.0,0.0,0.0,0
7952000,0,0.7071099,0.00019674242,0.00019716739,0.70711,0.0,0.0,0.0,0.0,0
7964000,0,0.7071099,0.0001970652,0.00019749015,0.70711,0.0,0.0,0.0,0.0,0
7972000,0,0.7071099,0.00019728037,0.00019770535,0.70711,0.0,0.0,0.0,0.0,0
7984000,0,0.7071099,0.00019760315,0.00019802811,0.70711,0.0,0.0,0.0,0.0,0
7992000,0,0.7071099,0.00019781833,0.0001982433,0.70711,0.0,0.0,0.0,0.0,0
8004000,0,0.7071099,0.0001981411,0.00019856606,0.70711,0.0,0.0,0.0,0.0,0
8012000,0,0.7071099,0.00019835628,0.00019878126,0.70711,0.0,0.0,0.0,0.0,0
8024000,0,0.7071099,0.00019867906,0.00019910402,0.70711,0.0,0.0,0.0,0.0,0
8032000,0,0.7071099,0.00019889424,0.00019931921,0.70711,0.0,0.0,0.0,0.0,0
8044000,0,0.7071099,0.00019921701,0.00019964199,0.70711,0.0,0.0,0.0,0.0,0
8052000,0,0.7071099,0.0001994322,0.00019985717,0.70711,0.0,0.0,0.0,0.0,0
8064000,0,0.7071099,0.00019975497,0.00020017994,0.70711,0.0,0.0,0.0,0.0,0
8072000,0,0.7071099,0.00019997015,0.00020039512,0.70711,0.0,0.0,0.0,0.0,0
8084000,0,0.7071099,0.00020029293,0.0002007179,0.70711,0.0,0.0,0.0,0.0,0
8092000,0,0.7071099,0.0002005081,0.00020093308,0.70711,0.0,0.0,0.0,0.0,0
8104000,0,0.7071099,0.00020083088,0.00020125585,0.70711,0.0,0.0,0.0,0.0,0
8112000,0,0.7071099,0.00020104606,0.00020147103,0.70711,0.0,0.0,0.0,0.0,0
8124000,0,0.7071099,0.00020136884,0.00020179381,0.70711,0.0,0.0,0.0,0.0,0
8132000,0,0.7071099,0.00020158403,0.00020200899,0.70711,0.0,0.0,0.0,0.0,0
8144000,0,0.7071099,0.00020190679,0.00020233176,0.70711,0.0,0.0,0.0,0.0,0
8152000,0,0.7071099,0.00020212198,0.00020254694,0.70711,0.0,0.0,0.0,0.0,0
8164000,0,0.7071099,0.00020244476,0.00020286972,0.70711,0.0,0.0,0.0,0.0,0
8172000,0,0.7071099,0.00020265994,0.0002030849,0.70711,0.0,0.0,0.0,0.0,0
8184000,0,0.7071099,0.00020298272,0.00020340768,0.70711,0.0,0.0,0.0,0.0,0
8192000,0,0.7071099,0.0002031979,0.00020362287,0.70711,0.0,0.0,0.0,0.0,0
8204000,0,0.7071099,0.00020352067,0.00020394564,0.70711,0.0,0.0,0.0,0.0,0
8212000,0,0.7071099,0.00020373585,0.00020416082,0.70711,0.0,0.0,0.0,0.0,0
8224000,0,0.7071099,0.00020405863,0.0002044836,0.70711,0.0,0.0,0.0,0.0,0
8232000,0,0.7071099,0.00020427382,0.00020469878,0.70711,0.0,0.0,0.0,0.0,0
8244000,0,0.7071099,0.00020459658,0.00020502156,0.70711,0.0,0.0,0.0,0.0,0
8252000,0,0.7071099,0.00020481177,0.00020523673,0.70711,0.0,0.0,0.0,0.0,0
8264000,0,0.7071099,0.00020513455,0.00020555951,0.70711,0.0,0.0,0.0,0.0,0
8272000,0,0.7071099,0.00020534973,0.00020577469,0.70711,0.0,0.0,0.0,0.0,0
8284000,0,0.7071099,0.0002056725,0.00020609747,0.70711,0.0,0.0,0.0,0.0,0
8292000,0,0.7071099,0.00020588769,0.00020631266,0.70711,0.0,0.0,0.0,0.0,0
8304000,0,0.7071099,0.00020621046,0.00020663544,0.70711,0.0,0.0,0.0,0.0,0
8312000,0,0.7071099,0.00020642566,0.00020685061,0.70711,0.0,0.0,0.0,0.0,0
8324000,0,0.7071099,0.00020674843,0.00020717339,0.70711,0.0,0.0,0.0,0.0,0
8332000,0,0.7071099,0.00020696361,0.00020738857,0.70711,0.0,0.0,0.0,0.0,0
8344000,0,0.7071099,0.00020728639,0.00020771135,0.70711,0.0,0.0,0.0,0.0,0
8352000,0,0.7071099,0.00020750157,0.00020792654,0.70711,0.0,0.0,0.0,0.0,0
8364000,0,0.7071099,0.00020782434,0.00020824932,0.70711,0.0,0.0,0.0,0.0,0
8372000,0,0.7071099,0.00020803954,0.0002084645,0.70711,0.0,0.0,0.0,0.0,0
8384000,0,0.7071099,0.00020836231,0.00020878727,0.70711,0.0,0.0,0.0,0.0,0
8392000,0,0.7071099,0.00020857749,0.00020900245,0.70711,0.0,0.0,0.0,0.0,0
8404000,0,0.7071099,0.00020890027,0.00020932523,0.70711,0.0,0.0,0.0,0.0,0
8412000,0,0.7071099,0.00020911545,0.00020954042,0.70711,0.0,0.0,0.0,0.0,0
8424000,0,0.7071099,0.00020943822,0.0002098632,0.70711,0.0,0.0,0.0,0.0,0
8432000,0,0.7071099,0.00020965342,0.00021007837,0.70711,0.0,0.0,0.0,0.0,0
8444000,0,0.7071099,0.00020997619,0.00021040115,0.70711,0.0,0.0,0.0,0.0,0
8452000,0,0.7071099,0.00021019137,0.00021061633,0.70711,0.0,0.0,0.0,0.0,0
8464000,0,0.7071099,0.00021051415,0.00021093912,0.70711,0.0,0.0,0.0,0.0,0
8472000,0,0.7071099,0.00021072934,0.0002111543,0.70711,0.0,0.0,0.0,0.0,0
8484000,0,0.7071099,0.00021105212,0.00021147708,0.70711,0.0,0.0,0.0,0.0,0
8492000,0,0.7071099,0.0002112673,0.00021169226,0.70711,0.0,0.0,0.0,0.0,0
8504000,0,0.7071099,0.00021159007,0.00021201503,0.70711,0.0,0.0,0.0,0.0,0
8512000,0,0.7071099,0.00021180525,0.00021223022,0.70711,0.0,0.0,0.0,0.0,0
8524000,0,0.7071099,0.00021212804,0.000212553,0.70711,0.0,0.0,0.0,0.0,0
8532000,0,0.7071099,0.00021234322,0.00021276818,0.70711,0.0,0.0,0.0,0.0,0
8544000,0,0.7071099,0.000212666,0.00021309096,0.70711,0.0,0.0,0.0,0.0,0
8552000,0,0.7071099,0.00021288118,0.00021330615,0.70711,0.0,0.0,0.0,0.0,0
8564000,0,0.7071099,0.00021320397,0.00021362893,0.70711,0.0,0.0,0.0,0.0,0
8572000,0,0.7071099,0.00021341915,0.0002138441,0.70711,0.0,0.0,0.0,0.0,0
8584000,0,0.7071099,0.00021374192,0.00021416688,0.70711,0.0,0.0,0.0,0.0,0
8592000,0,0.7071099,0.0002139571,0.00021438207,0.70711,0.0,0.0,0.0,0.0,0
8604000,0,0.7071099,0.00021427989,0.00021470485,0.70711,0.0,0.0,0.0,0.0,0
8612000,0,0.7071099,0.00021449507,0.00021492003,0.70711,0.0,0.0,0.0,0.0,0
8624000,0,0.7071099,0.00021481785,0.0002152428,0.70711,0.0,0.0,0.0,0.0,0
8632000,0,0.7071099,0.00021503304,0.000215458,0.70711,0.0,0.0,0.0,0.0,0
8644000,0,0.7071099,0.00021535582,0.00021578078,0.70711,0.0,0.0,0.0,0.0,0
8652000,0,0.7071099,0.000215571,0.00021599595,0.70711,0.0,0.0,0.0,0.0,0
8664000,0,0.7071099,0.00021589377,0.00021631875,0.70711,0.0,0.0,0.0,0.0,0
8672000,0,0.7071099,0.00021610897,0.00021653392,0.70711,0.0,0.0,0.0,0.0,0
8684000,0,0.7071099,0.00021643174,0.0002168567,0.70711,0.0,0.0,0.0,0.0,0
8692000,0,0.7071099,0.00021664692,0.0002170719,0.70711,0.0,0.0,0.0,0.0,0
8704000,0,0.7071099,0.00021696971,0.00021739467,0.70711,0.0,0.0,0.0,0.0,0
8712000,0,0.7071099,0.00021718489,0.00021760985,0.70711,0.0,0.0,0.0,0.0,0
8724000,0,0.7071099,0.00021750767,0.00021793263,0.70711,0.0,0.0,0.0,0.0,0
8732000,0,0.7071099,0.00021772286,0.00021814782,0.70711,0.0,0.0,0.0,0.0,0
8744000,0,0.7071099,0.00021804564,0.0002184706,0.70711,0.0,0.0,0.0,0.0,0
8752000,0,0.7071099,0.00021826082,0.00021868579,0.70711,0.0,0.0,0.0,0.0,0
8764000,0,0.7071099,0.0002185836,0.00021900857,0.70711,0.0,0.0,0.0,0.0,0
8772000,0,0.7071099,0.00021879878,0.00021922374,0.70711,0.0,0.0,0.0,0.0,0
8784000,0,0.7071099,0.00021912156,0.00021954652,0.70711,0.0,0.0,0.0,0.0,0
8792000,0,0.7071099,0.00021933675,0.00021976171,0.70711,0.0,0.0,0.0,0.0,0
8804000,0,0.7071099,0.00021965953,0.00022008449,0.70711,0.0,0.0,0.0,0.0,0
8812000,0,0.7071099,0.00021987471,0.00022029968,0.70711,0.0,0.0,0.0,0.0,0
8824000,0,0.7071099,0.0002201975,0.00022062246,0.70711,0.0,0.0,0.0,0.0,0
8832000,0,0.7071099,0.00022041268,0.00022083764,0.70711,0.0,0.0,0.0,0.0,0
8844000,0,0.7071099,0.00022073546,0.00022116043,0.70711,0.0,0.0,0.0,0.0,0
8852000,0,0.7071099,0.00022095065,0.00022137561,0.70711,0.0,0.0,0.0,0.0,0
8864000,0,0.7071099,0.00022127343,0.00022169838,0.70711,0.0,0.0,0.0,0.0,0
8872000,0,0.7071099,0.00022148862,0.00022191358,0.70711,0.0,0.0,0.0,0.0,0
8884000,0,0.7071099,0.0002218114,0.00022223635,0.70711,0.0,0.0,0.0,0.0,0
8892000,0,0.7071099,0.00022202659,0.00022245155,0.70711,0.0,0.0,0.0,0.0,0
8904000,0,0.7071099,0.00022234936,0.00022277432,0.70711,0.0,0.0,0.0,0.0,0
8912000,0,0.7071099,0.00022256454,0.0002229895,0.70711,0.0,0.0,0.0,0.0,0
8924000,0,0.7071099,0.00022288733,0.0002233123,0.70711,0.0,0.0,0.0,0.0,0
8932000,0,0.7071099,0.00022310251,0.00022352747,0.70711,0.0,0.0,0.0,0.0,0
8944000,0,0.7071099,0.00022342529,0.00022385026,0.70711,0.0,0.0,0.0,0.0,0
8952000,0,0.7071099,0.00022364048,0.00022406544,0.70711,0.0,0.0,0.0,0.0,0
8964000,0,0.7071099,0.00022396326,0.00022438822,0.70711,0.0,0.0,0.0,0.0,0
8972000,0,0.7071099,0.00022417845,0.00022460341,0.70711,0.0,0.0,0.0,0.0,0
8984000,0,0.7071099,0.00022450123,0.00022492619,0.70711,0.0,0.0,0.0,0.0,0
8992000,0,0.7071099,0.00022471642,0.00022514138,0.70711,0.0,0.0,0.0,0.0,0
9004000,0,0.7071099,0.0002250392,0.00022546416,0.70711,0.0,0.0,0.0,0.0,0
9012000,0,0.7071099,0.00022525439,0.00022567935,0.70711,0.0,0.0,0.0,0.0,0
9024000,0,0.7071099,0.00022557717,0.00022600213,0.70711,0.0,0.0,0.0,0.0,0
9032000,0,0.7071099,0.00022579236,0.00022621732,0.70711,0.0,0.0,0.0,0.0,0
9044000,0,0.7071099,0.00022611514,0.0002265401,0.70711,0.0,0.0,0.0,0.0,0
9052000,0,0.7071099,0.00022633032,0.00022675528,0.70711,0.0,0.0,0.0,0.0,0
9064000,0,0.7071099,0.00022665311,0.00022707807,0.70711,0.0,0.0,0.0,0.0,0
9072000,0,0.7071099,0.00022686829,0.00022729325,0.70711,0.0,0.0,0.0,0.0,0
9084000,0,0.7071099,0.00022719108,0.00022761604,0.70711,0.0,0.0,0.0,0.0,0
9092000,0,0.7071099,0.00022740626,0.00022783122,0.70711,0.0,0.0,0.0,0.0,0
9104000,0,0.7071099,0.00022772905,0.00022815401,0.70711,0.0,0.0,0.0,0.0,0
9112000,0,0.7071099,0.00022794423,0.00022836919,0.70711,0.0,0.0,0.0,0.0,0
9124000,0,0.7071099,0.00022826702,0.00022869198,0.70711,0.0,0.0,0.0,0.0,0
9132000,0,0.7071099,0.0002284822,0.00022890716,0.70711,0.0,0.0,0.0,0.0,0
9144000,0,0.7071099,0.00022880499,0.00022922995,0.70711,0.0,0.0,0.0,0.0,0
9152000,0,0.7071099,0.00022902017,0.00022944513,0.70711,0.0,0.0,0.0,0.0,0
9164000,0,0.7071099,0.00022934296,0.00022976792,0.70711,0.0,0.0,0.0,0.0,0
9172000,0,0.7071099,0.00022955814,0.0002299831,0.70711,0.0,0.0,0.0,0.0,0
9184000,0,0.7071099,0.00022988093,0.00023030589,0.70711,0.0,0.0,0.0,0.0,0
9192000,0,0.7071099,0.0002300961,0.00023052107,0.70711,0.0,0.0,0.0,0.0,0
9204000,0,0.7071099,0.0002304189,0.00023084386,0.70711,0.0,0.0,0.0,0.0,0
9212000,0,0.7071099,0.00023063409,0.00023105904,0.70711,0.0,0.0,0.0,0.0,0
9224000,0,0.7071099,0.00023095687,0.00023138183,0.70711,0.0,0.0,0.0,0.0,0
9232000,0,0.7071099,0.00023117206,0.000231597,0.70711,0.0,0.0,0.0,0.0,0
9244000,0,0.7071099,0.00023149484,0.0002319198,0.70711,0.0,0.0,0.0,0.0,0
9252000,0,0.7071099,0.00023171003,0.00023213499,0.70711,0.0,0.0,0.0,0.0,0
9264000,0,0.7071099,0.0002320328,0.00023245777,0.70711,0.0,0.0,0.0,0.0,0
9272000,0,0.7071099,0.000232248,0.00023267296,0.70711,0.0,0.0,0.0,0.0,0
9284000,0,0.7071099,0.00023257078,0.00023299574,0.70711,0.0,0.0,0.0,0.0,0
9292000,0,0.7071099,0.00023278597,0.00023321093,0.70711,0.0,0.0,0.0,0.0,0
9304000,0,0.7071099,0.00023310875,0.0002335337,0.70711,0.0,0.0,0.0,0.0,0
9312000,0,0.7071099,0.00023332394,0.0002337489,0.70711,0.0,0.0,0.0,0.0,0
9324000,0,0.7071099,0.00023364673,0.00023407167,0.70711,0.0,0.0,0.0,0.0,0
9332000,0,0.7071099,0.00023386191,0.00023428687,0.70711,0.0,0.0,0.0,0.0,0
9344000,0,0.7071099,0.0002341847,0.00023460966,0.70711,0.0,0.0,0.0,0.0,0
9352000,0,0.7071099,0.00023439988,0.00023482484,0.70711,0.0,0.0,0.0,0.0,0
9364000,0,0.7071099,0.00023472267,0.00023514763,0.70711,0.0,0.0,0.0,0.0,0
9372000,0,0.7071099,0.00023493786,0.00023536281,0.70711,0.0,0.0,0.0,0.0,0
9384000,0,0.7071099,0.00023526064,0.0002356856,0.70711,0.0,0.0,0.0,0.0,0
9392000,0,0.7071099,0.00023547583,0.00023590079,0.70711,0.0,0.0,0.0,0.0,0
9404000,0,0.7071099,0.00023579861,0.00023622357,0.70711,0.0,0.0,0.0,0.0,0
9412000,0,0.7071099,0.0002360138,0.00023643876,0.70711,0.0,0.0,0.0,0.0,0
9424000,0,0.7071099,0.0002363366,0.00023676154,0.70711,0.0,0.0,0.0,0.0,0
9432000,0,0.7071099,0.00023655177,0.00023697673,0.70711,0.0,0.0,0.0,0.0,0
9444000,0,0.7071099,0.00023687456,0.00023729952,0.70711,0.0,0.0,0.0,0.0,0
9452000,0,0.7071099,0.00023708976,0.0002375147,0.70711,0.0,0.0,0.0,0.0,0
9464000,0,0.7071099,0.00023741253,0.00023783749,0.70711,0.0,0.0,0.0,0.0,0
9472000,0,0.7071099,0.00023762773,0.00023805269,0.70711,0.0,0.0,0.0,0.0,0
9484000,0,0.7071099,0.0002379505,0.00023837546,0.70711,0.0,0.0,0.0,0.0,0
9492000,0,0.7071099,0.0002381657,0.00023859066,0.70711,0.0,0.0,0.0,0.0,0
9504000,0,0.7071099,0.00023848849,0.00023891345,0.70711,0.0,0.0,0.0,0.0,0
9512000,0,0.7071099,0.00023870368,0.00023912863,0.70711,0.0,0.0,0.0,0.0,0
9524000,0,0.7071099,0.00023902646,0.00023945142,0.70711,0.0,0.0,0.0,0.0,0
9532000,0,0.7071099,0.00023924165,0.00023966661,0.70711,0.0,0.0,0.0,0.0,0
9544000,0,0.7071099,0.00023956443,0.00023998939,0.70711,0.0,0.0,0.0,0.0,0
9552000,0,0.7071099,0.00023977962,0.00024020458,0.70711,0.0,0.0,0.0,0.0,0
9564000,0,0.7071099,0.00024010241,0.00024052737,0.70711,0.0,0.0,0.0,0.0,0
9572000,0,0.7071099,0.0002403176,0.00024074255,0.70711,0.0,0.0,0.0,0.0,0
9584000,0,0.7071099,0.00024064038,0.00024106534,0.70711,0.0,0.0,0.0,0.0,0
9592000,0,0.7071099,0.00024085557,0.00024128053,0.70711,0.0,0.0,0.0,0.0,0
9604000,0,0.7071099,0.00024117836,0.00024160331,0.70711,0.0,0.0,0.0,0.0,0
9612000,0,0.7071099,0.00024139354,0.0002418185,0.70711,0.0,0.0,0.0,0.0,0
9624000,0,0.7071099,0.00024171633,0.0002421413,0.70711,0.0,0.0,0.0,0.0,0
9632000,0,0.7071099,0.00024193153,0.00024235647,0.70711,0.0,0.0,0.0,0.0,0
9644000,0,0.7071099,0.0002422543,0.00024267926,0.70711,0.0,0.0,0.0,0.0,0
9652000,0,0.7071099,0.0002424695,0.00024289446,0.70711,0.0,0.0,0.0,0.0,0
9664000,0,0.7071099,0.00024279229,0.00024321725,0.70711,0.0,0.0,0.0,0.0,0
9672000,0,0.7071099,0.00024300748,0.00024343243,0.70711,0.0,0.0,0.0,0.0,0
9684000,0,0.7071099,0.00024333026,0.00024375522,0.70711,0.0,0.0,0.0,0.0,0
9692000,0,0.7071099,0.00024354545,0.00024397041,0.70711,0.0,0.0,0.0,0.0,0
9704000,0,0.7071099,0.00024386824,0.0002442932,0.70711,0.0,0.0,0.0,0.0,0
9712000,0,0.7071099,0.00024408344,0.00024450838,0.70711,0.0,0.0,0.0,0.0,0
9724000,0,0.7071099,0.00024440623,0.00024483117,0.70711,0.0,0.0,0.0,0.0,0
9732000,0,0.7071099,0.00024462142,0.00024504637,0.70711,0.0,0.0,0.0,0.0,0
9744000,0,0.7071099,0.00024494418,0.00024536916,0.70711,0.0,0.0,0.0,0.0,0
9752000,0,0.7071099,0.00024515938,0.00024558435,0.70711,0.0,0.0,0.0,0.0,0
9764000,0,0.7071099,0.00024548217,0.00024590714,0.70711,0.0,0.0,0.0,0.0,0
9772000,0,0.7071099,0.00024569736,0.0002461223,0.70711,0.0,0.0,0.0,0.0,0
9784000,0,0.7071099,0.00024602015,0.0002464451,0.70711,0.0,0.0,0.0,0.0,0
9792000,0,0.7071099,0.00024623534,0.0002466603,0.70711,0.0,0.0,0.0,0.0,0
9804000,0,0.7071099,0.00024655813,0.00024698308,0.70711,0.0,0.0,0.0,0.0,0
9812000,0,0.7071099,0.00024677333,0.00024719827,0.70711,0.0,0.0,0.0,0.0,0
9824000,0,0.7071099,0.00024709612,0.00024752106,0.70711,0.0,0.0,0.0,0.0,0
9832000,0,0.7071099,0.0002473113,0.00024773626,0.70711,0.0,0.0,0.0,0.0,0
9844000,0,0.7071099,0.00024763407,0.00024805905,0.70711,0.0,0.0,0.0,0.0,0
9852000,0,0.7071099,0.00024784927,0.00024827424,0.70711,0.0,0.0,0.0,0.0,0
9864000,0,0.7071099,0.00024817206,0.000248597,0.70711,0.0,0.0,0.0,0.0,0
9872000,0,0.7071099,0.00024838725,0.0002488122,0.70711,0.0,0.0,0.0,0.0,0
9884000,0,0.7071099,0.00024871004,0.000249135,0.70711,0.0,0.0,0.0,0.0,0
9892000,0,0.7071099,0.00024892524,0.00024935018,0.70711,0.0,0.0,0.0,0.0,0
9904000,0,0.7071099,0.00024924803,0.00024967297,0.70711,0.0,0.0,0.0,0.0,0
9912000,0,0.7071099,0.00024946322,0.00024988817,0.70711,0.0,0.0,0.0,0.0,0
9924000,0,0.7071099,0.000249786,0.00025021096,0.70711,0.0,0.0,0.0,0.0,0
9932000,0,0.7071099,0.0002500012,0.00025042615,0.70711,0.0,0.0,0.0,0.0,0
9944000,0,0.7071099,0.000250324,0.00025074894,0.70711,0.0,0.0,0.0,0.0,0
9952000,0,0.7071099,0.00025053916,0.00025096413,0.70711,0.0,0.0,0.0,0.0,0
9964000,0,0.7071099,0.00025086195,0.00025128693,0.70711,0.0,0.0,0.0,0.0,0
9972000,0,0.7071099,0.00025107714,0.00025150212,0.70711,0.0,0.0,0.0,0.0,0
9984000,0,0.7071099,0.00025139994,0.00025182488,0.70711,0.0,0.0,0.0,0.0,0
9992000,0,0.7071099,0.00025161513,0.00025204007,0.70711,0.0,0.0,0.0,0.0,0
10004000,0,0.7071099,0.00025193792,0.00025236286,0.70711,0.0,0.0,0.0,0.0,0
10012000,0,0.7071099,0.0002521531,0.00025257806,0.70711,0.0,0.0,0.0,0.0,0
10024000,0,0.7071099,0.0002524759,0.00025290085,0.70711,0.0,0.0,0.0,0.0,0
10032000,0,0.7071099,0.0002526911,0.00025311604,0.70711,0.0,0.0,0.0,0.0,0
10044000,0,0.7071099,0.0002530139,0.00025343883,0.70711,0.0,0.0,0.0,0.0,0
10052000,0,0.7071099,0.00025322908,0.00025365403,0.70711,0.0,0.0,0.0,0.0,0
10064000,0,0.7071099,0.00025355187,0.00025397682,0.70711,0.0,0.0,0.0,0.0,0
10072000,0,0.7071099,0.00025376707,0.000254192,0.70711,0.0,0.0,0.0,0.0,0
10084000,0,0.7071099,0.00025408986,0.0002545148,0.70711,0.0,0.0,0.0,0.0,0
10092000,0,0.7071099,0.00025430505,0.00025473,0.70711,0.0,0.0,0.0,0.0,0
10104000,0,0.7071099,0.00025462784,0.0002550528,0.70711,0.0,0.0,0.0,0.0,0
10112000,0,0.7071099,0.00025484303,0.00025526798,0.70711,0.0,0.0,0.0,0.0,0
10124000,0,0.7071099,0.00025516583,0.00025559077,0.70711,0.0,0.0,0.0,0.0,0
10132000,0,0.7071099,0.000255381,0.00025580596,0.70711,0.0,0.0,0.0,0.0,0
10144000,0,0.7071099,0.00025570378,0.00025612875,0.70711,0.0,0.0,0.0,0.0,0
10152000,0,0.7071099,0.00025591897,0.00025634395,0.70711,0.0,0.0,0.0,0.0,0
10164000,0,0.7071099,0.00025624176,0.00025666674,0.70711,0.0,0.0,0.0,0.0,0
10172000,0,0.7071099,0.00025645696,0.00025688193,0.70711,0.0,0.0,0.0,0.0,0
10184000,0,0.7071099,0.00025677975,0.0002572047,0.70711,0.0,0.0,0.0,0.0,0
10192000,0,0.7071099,0.00025699494,0.0002574199,0.70711,0.0,0.0,0.0,0.0,0
10204000,0,0.7071099,0.00025731773,0.00025774268,0.70711,0.0,0.0,0.0,0.0,0
10212000,0,0.7071099,0.00025753293,0.00025795787,0.70711,0.0,0.0,0.0,0.0,0
10224000,0,0.7071099,0.00025785572,0.00025828066,0.70711,0.0,0.0,0.0,0.0,0
10232000,0,0.7071099,0.0002580709,0.00025849586,0.70711,0.0,0.0,0.0,0.0,0
10244000,0,0.7071099,0.0002583937,0.00025881865,0.70711,0.0,0.0,0.0,0.0,0
10252000,0,0.7071099,0.0002586089,0.00025903384,0.70711,0.0,0.0,0.0,0.0,0
10264000,0,0.7071099,0.0002589317,0.00025935663,0.70711,0.0,0.0,0.0,0.0,0
10272000,0,0.7071099,0.00025914688,0.00025957183,0.70711,0.0,0.0,0.0,0.0,0
10284000,0,0.7071099,0.00025946967,0.00025989462,0.70711,0.0,0.0,0.0,0.0,0
10292000,0,0.7071099,0.00025968486,0.0002601098,0.70711,0.0,0.0,0.0,0.0,0
10304000,0,0.7071099,0.00026000766,0.0002604326,0.70711,0.0,0.0,0.0,0.0,0
10312000,0,0.7071099,0.00026022285,0.0002606478,0.70711,0.0,0.0,0.0,0.0,0
10324000,0,0.7071099,0.00026054564,0.00026097058,0.70711,0.0,0.0,0.0,0.0,0
10332000,0,0.7071099,0.00026076083,0.00026118578,0.70711,0.0,0.0,0.0,0.0,0
10344000,0,0.7071099,0.00026108362,0.00026150857,0.70711,0.0,0.0,0.0,0.0,0
10352000,0,0.7071099,0.00026129882,0.00026172376,0.70711,0.0,0.0,0.0,0.0,0
10364000,0,0.7071099,0.0002616216,0.00026204655,0.70711,0.0,0.0,0.0,0.0,0
10372000,0,0.7071099,0.0002618368,0.00026226175,0.70711,0.0,0.0,0.0,0.0,0
10384000,0,0.7071099,0.0002621596,0.00026258454,0.70711,0.0,0.0,0.0,0.0,0
10392000,0,0.7071099,0.0002623748,0.00026279973,0.70711,0.0,0.0,0.0,0.0,0
10404000,0,0.7071099,0.00026269758,0.00026312252,0.70711,0.0,0.0,0.0,0.0,0
10412000,0,0.7071099,0.00026291277,0.00026333772,0.70711,0.0,0.0,0.0,0.0,0
10424000,0,0.7071099,0.00026323556,0.0002636605,0.70711,0.0,0.0,0.0,0.0,0
10432000,0,0.7071099,0.00026345075,0.0002638757,0.70711,0.0,0.0,0.0,0.0,0
10444000,0,0.7071099,0.00026377355,0.00026419852,0.70711,0.0,0.0,0.0,0.0,0
10452000,0,0.7071099,0.00026398874,0.0002644137,0.70711,0.0,0.0,0.0,0.0,0
10464000,0,0.7071099,0.00026431153,0.0002647365,0.70711,0.0,0.0,0.0,0.0,0
10472000,0,0.7071099,0.00026452675,0.0002649517,0.70711,0.0,0.0,0.0,0.0,0
10484000,0,0.7071099,0.00026484954,0.0002652745,0.70711,0.0,0.0,0.0,0.0,0
10492000,0,0.7071099,0.00026506474,0.00026548968,0.70711,0.0,0.0,0.0,0.0,0
10504000,0,0.7071099,0.00026538753,0.00026581247,0.70711,0.0,0.0,0.0,0.0,0
10512000,0,0.7071099,0.00026560272,0.00026602767,0.70711,0.0,0.0,0.0,0.0,0
10524000,0,0.7071099,0.0002659255,0.00026635046,0.70711,0.0,0.0,0.0,0.0,0
10532000,0,0.7071099,0.0002661407,0.00026656565,0.70711,0.0,0.0,0.0,0.0,0
10544000,0,0.7071099,0.0002664635,0.00026688844,0.70711,0.0,0.0,0.0,0.0,0
10552000,0,0.7071099,0.0002666787,0.00026710363,0.70711,0.0,0.0,0.0,0.0,0
10564000,0,0.7071099,0.00026700148,0.00026742643,0.70711,0.0,0.0,0.0,0.0,0
10572000,0,0.7071099,0.00026721667,0.00026764162,0.70711,0.0,0.0,0.0,0.0,0
10584000,0,0.7071099,0.00026753946,0.0002679644,0.70711,0.0,0.0,0.0,0.0,0
10592000,0,0.7071099,0.00026775466,0.0002681796,0.70711,0.0,0.0,0.0,0.0,0
10604000,0,0.7071099,0.00026807745,0.0002685024,0.70711,0.0,0.0,0.0,0.0,0
10612000,0,0.7071099,0.00026829264,0.0002687176,0.70711,0.0,0.0,0.0,0.0,0
10624000,0,0.7071099,0.00026861543,0.00026904038,0.70711,0.0,0.0,0.0,0.0,0
10632000,0,0.7071099,0.00026883063,0.00026925557,0.70711,0.0,0.0,0.0,0.0,0
10644000,0,0.7071099,0.00026915342,0.00026957836,0.70711,0.0,0.0,0.0,0.0,0
10652000,0,0.7071099,0.00026936864,0.00026979359,0.70711,0.0,0.0,0.0,0.0,0
10664000,0,0.7071099,0.00026969143,0.00027011638,0.70711,0.0,0.0,0.0,0.0,0
10672000,0,0.7071099,0.00026990662,0.00027033157,0.70711,0.0,0.0,0.0,0.0,0
10684000,0,0.7071099,0.00027022942,0.00027065436,0.70711,0.0,0.0,0.0,0.0,0
10692000,0,0.7071099,0.0002704446,0.00027086955,0.70711,0.0,0.0,0.0,0.0,0
10704000,0,0.7071099,0.0002707674,0.00027119234,0.70711,0.0,0.0,0.0,0.0,0
10712000,0,0.7071099,0.0002709826,0.00027140754,0.70711,0.0,0.0,0.0,0.0,0
10724000,0,0.7071099,0.00027130538,0.00027173033,0.70711,0.0,0.0,0.0,0.0,0
10732000,0,0.7071099,0.00027152058,0.00027194552,0.70711,0.0,0.0,0.0,0.0,0
10744000,0,0.7071099,0.00027184337,0.0002722683,0.70711,0.0,0.0,0.0,0.0,0
10752000,0,0.7071099,0.00027205856,0.0002724835,0.70711,0.0,0.0,0.0,0.0,0
10764000,0,0.7071099,0.00027238138,0.0002728063,0.70711,0.0,0.0,0.0,0.0,0
10772000,0,0.7071099,0.00027259658,0.00027302152,0.70711,0.0,0.0,0.0,0.0,0
10784000,0,0.7071099,0.00027291937,0.0002733443,0.70711,0.0,0.0,0.0,0.0,0
10792000,0,0.7071099,0.00027313456,0.0002735595,0.70711,0.0,0.0,0.0,0.0,0
10804000,0,0.7071099,0.00027345735,0.0002738823,0.70711,0.0,0.0,0.0,0.0,0
10812000,0,0.7071099,0.00027367254,0.0002740975,0.70711,0.0,0.0,0.0,0.0,0
10824000,0,0.7071099,0.00027399533,0.00027442028,0.70711,0.0,0.0,0.0,0.0,0
10832000,0,0.7071099,0.00027421053,0.00027463547,0.70711,0.0,0.0,0.0,0.0,0
10844000,0,0.7071099,0.00027453332,0.00027495826,0.70711,0.0,0.0,0.0,0.0,0
10852000,0,0.7071099,0.0002747485,0.00027517346,0.70711,0.0,0.0,0.0,0.0,0
10864000,0,0.7071099,0.00027507133,0.00027549628,0.70711,0.0,0.0,0.0,0.0,0
10872000,0,0.7071099,0.00027528653,0.00027571147,0.70711,0.0,0.0,0.0,0.0,0
10884000,0,0.7071099,0.00027560932,0.00027603426,0.70711,0.0,0.0,0.0,0.0,0
10892000,0,0.7071099,0.0002758245,0.00027624946,0.70711,0.0,0.0,0.0,0.0,0
10904000,0,0.7071099,0.0002761473,0.00027657225,0.70711,0.0,0.0,0.0,0.0,0
10912000,0,0.7071099,0.0002763625,0.00027678744,0.70711,0.0,0.0,0.0,0.0,0
10924000,0,0.7071099,0.00027668528,0.00027711023,0.70711,0.0,0.0,0.0,0.0,0
10932000,0,0.7071099,0.00027690048,0.00027732542,0.70711,0.0,0.0,0.0,0.0,0
10944000,0,0.7071099,0.0002772233,0.00027764824,0.70711,0.0,0.0,0.0,0.0,0
10952000,0,0.7071099,0.0002774385,0.00027786344,0.70711,0.0,0.0,0.0,0.0,0
10964000,0,0.7071099,0.00027776128,0.00027818623,0.70711,0.0,0.0,0.0,0.0,0
10972000,0,0.7071099,0.00027797648,0.00027840142,0.70711,0.0,0.0,0.0,0.0,0
10984000,0,0.7071099,0.00027829927,0.0002787242,0.70711,0.0,0.0,0.0,0.0,0
10992000,0,0.7071099,0.00027851446,0.0002789394,0.70711,0.0,0.0,0.0,0.0,0
11004000,0,0.7071099,0.00027883725,0.0002792622,0.70711,0.0,0.0,0.0,0.0,0
11012000,0,0.7071099,0.00027905247,0.00027947742,0.70711,0.0,0.0,0.0,0.0,0
11024000,0,0.7071099,0.00027937526,0.0002798002,0.70711,0.0,0.0,0.0,0.0,0
11032000,0,0.7071099,0.00027959046,0.0002800154,0.70711,0.0,0.0,0.0,0.0,0
11044000,0,0.7071099,0.00027991325,0.0002803382,0.70711,0.0,0.0,0.0,0.0,0
11052000,0,0.7071099,0.00028012844,0.0002805534,0.70711,0.0,0.0,0.0,0.0,0
11064000,0,0.7071099,0.00028045123,0.00028087618,0.70711,0.0,0.0,0.0,0.0,0
11072000,0,0.7071099,0.00028066646,0.00028109137,0.70711,0.0,0.0,0.0,0.0,0
11084000,0,0.7071099,0.00028098925,0.0002814142,0.70711,0.0,0.0,0.0,0.0,0
11092000,0,0.7071099,0.00028120444,0.00028162939,0.70711,0.0,0.0,0.0,0.0,0
11104000,0,0.70710987,0.00028152723,0.00028195218,0.70711,0.0,0.0,0.0,0.0,0
11112000,0,0.70710987,0.00028174242,0.00028216737,0.70711,0.0,0.0,0.0,0.0,0
11124000,0,0.70710987,0.00028206522,0.00028249016,0.70711,0.0,0.0,0.0,0.0,0
11132000,0,0.70710987,0.00028228044,0.00028270535,0.70711,0.0,0.0,0.0,0.0,0
11144000,0,0.70710987,0.00028260323,0.00028302817,0.70711,0.0,0.0,0.0,0.0,0
11152000,0,0.70710987,0.00028281842,0.00028324337,0.70711,0.0,0.0,0.0,0.0,0
11164000,0,0.70710987,0.0002831412,0.00028356616,0.70711,0.0,0.0,0.0,0.0,0
11172000,0,0.70710987,0.0002833564,0.00028378135,0.70711,0.0,0.0,0.0,0.0,0
11184000,0,0.70710987,0.00028367923,0.00028410414,0.70711,0.0,0.0,0.0,0.0,0
11192000,0,0.70710987,0.00028389442,0.00028431937,0.70711,0.0,0.0,0.0,0.0,0
11204000,0,0.70710987,0.0002842172,0.00028464216,0.70711,0.0,0.0,0.0,0.0,0
11212000,0,0.70710987,0.0002844324,0.00028485735,0.70711,0.0,0.0,0.0,0.0,0
11224000,0,0.70710987,0.0002847552,0.00028518014,0.70711,0.0,0.0,0.0,0.0,0
11232000,0,0.70710987,0.0002849704,0.00028539533,0.70711,0.0,0.0,0.0,0.0,0
11244000,0,0.70710987,0.0002852932,0.00028571815,0.70711,0.0,0.0,0.0,0.0,0
11252000,0,0.70710987,0.0002855084,0.00028593335,0.70711,0.0,0.0,0.0,0.0,0
11264000,0,0.70710987,0.0002858312,0.00028625614,0.70711,0.0,0.0,0.0,0.0,0
11272000,0,0.70710987,0.0002860464,0.00028647133,0.70711,0.0,0.0,0.0,0.0,0
11284000,0,0.70710987,0.0002863692,0.00028679412,0.70711,0.0,0.0,0.0,0.0,0
11292000,0,0.70710987,0.0002865844,0.00028700934,0.70711,0.0,0.0,0.0,0.0,0
11304000,0,0.70710987,0.0002869072,0.00028733214,0.70711,0.0,0.0,0.0,0.0,0
11312000,0,0.70710987,0.00028712238,0.00028754733,0.70711,0.0,0.0,0.0,0.0,0
11324000,0,0.70710987,0.00028744517,0.00028787012,0.70711,0.0,0.0,0.0,0.0,0
11332000,0,0.70710987,0.0002876604,0.0002880853,0.70711,0.0,0.0,0.0,0.0,0
11344000,0,0.70710987,0.0002879832,0.00028840813,0.70711,0.0,0.0,0.0,0.0,0
11352000,0,0.70710987,0.00028819838,0.00028862333,0.70711,0.0,0.0,0.0,0.0,0
11364000,0,0.70710987,0.00028852117,0.00028894612,0.70711,0.0,0.0,0.0,0.0,0
11372000,0,0.70710987,0.00028873637,0.0002891613,0.70711,0.0,0.0,0.0,0.0,0
11384000,0,0.70710987,0.0002890592,0.00028948413,0.70711,0.0,0.0,0.0,0.0,0
