timestamp,timestamp_sample,gps_hvel[0],gps_hvel[1],gps_vvel,gps_hpos[0],gps_hpos[1],gps_vpos,ev_hvel[0],ev_hvel[1],ev_vvel,ev_hpos[0],ev_hpos[1],ev_vpos,rng_vpos,baro_vpos,aux_hvel[0],aux_hvel[1],aux_vvel,flow[0],flow[1],terr_flow[0],terr_flow[1],heading,mag_field[0],mag_field[1],mag_field[2],gravity[0],gravity[1],gravity[2],drag[0],drag[1],airspeed,beta,hagl,hagl_rate
3452000,3372000,-0.0016957443,-0.004770817,-0.04490609,-1.3042844e-05,-3.763131e-05,488.1035,0.0,0.0,0.0,0.0,0.0,0.0,0.0,-0.032597948,0.0,0.0,nan,0.0,0.0,0.0,0.0,0.0,0.0,0.0,0.0,-0.027755037,-0.015910469,0.00023881914,0.0,0.0,0.0,0.0,0.0,0.0
3956000,3876000,0.0039805593,0.00019600074,0.012803946,0.00051163987,1.9726665e-05,488.11032,0.0,0.0,0.0,0.0,0.0,0.0,0.0,0.0688777,0.0,0.0,nan,0.0,0.0,0.0,0.0,0.0,0.0,0.0,0.0,-0.021781996,0.0056954646,0.00058849336,0.0,0.0,0.0,0.0,0.0,0.0
4460000,4380000,0.0028114521,-0.010551071,-0.021854261,0.00043938856,-9.8706034e-05,-9.804219e-05,0.0,0.0,0.0,0.0,0.0,0.0,0.0,0.0035645105,0.0,0.0,nan,0.0,0.0,0.0,0.0,0.0,0.0,0.0,0.0,-0.0060434993,0.026486984,0.0006225872,0.0,0.0,0.0,0.0,0.0,0.0
4956000,4876000,-0.017236674,-0.012398589,0.027553603,0.0005033496,-0.007751911,0.05099252,0.0,0.0,0.0,0.0,0.0,0.0,0.0,0.06417963,0.0,0.0,nan,0.0,0.0,0.0,0.0,0.0,0.0,0.0,0.0,0.011889415,0.023808926,0.0001645659,0.0,0.0,0.0,0.0,0.0,0.0
5460000,5380000,0.001222991,0.0015912277,0.020578569,0.00022817965,-0.007556586,0.03885024,0.0,0.0,0.0,0.0,0.0,0.0,0.0,0.03050707,0.0,0.0,nan,0.0,0.0,0.0,0.0,0.0,0.0,0.0,0.0,0.004678853,0.0032121157,-4.120394e-05,0.0,0.0,0.0,0.0,0.0,0.0
5956000,5876000,0.00077141,0.0009145484,0.030890942,0.00014616265,-0.0072631794,0.044437595,0.0,0.0,0.0,0.0,0.0,0.0,0.0,0.031692374,0.0,0.0,nan,0.0,0.0,0.0,0.0,0.0,0.0,0.0,0.0,-0.012426788,0.02180283,0.0006315777,0.0,0.0,0.0,0.0,0.0,0.0
6452000,6372000,0.0004870153,-0.00019389729,-0.027769122,0.000109141096,-0.0075115403,0.038648937,0.0,0.0,0.0,0.0,0.0,0.0,0.0,-0.061401583,0.0,0.0,nan,0.0,0.0,0.0,0.0,0.0,0.0,0.0,0.0,0.018209947,-0.0062332526,-0.00051282777,0.0,0.0,0.0,0.0,0.0,0.0
6956000,6876000,0.006976698,0.010449161,0.0047026817,-0.00042253893,-0.0074661453,0.052727725,0.0,0.0,0.0,0.0,0.0,0.0,0.0,-0.03337717,0.0,0.0,nan,0.0,0.0,0.0,0.0,0.0,0.0,0.0,0.0,0.0062744217,-0.03426441,-0.0007991018,0.0,0.0,0.0,0.0,0.0,0.0
7460000,7380000,0.0011149715,0.0051372373,-0.021263715,2.2333188e-07,-0.0066670096,0.049012534,0.0,0.0,0.0,0.0,0.0,0.0,0.0,-0.012112269,0.0,0.0,nan,0.0,0.0,0.0,0.0,0.0,0.0,0.0,0.0,0.014232907,0.007167074,-0.00018334374,0.0,0.0,0.0,0.0,0.0,0.0
7956000,7876000,0.01012935,0.011412246,-0.029693013,0.00012043124,-0.007015821,0.044654272,0.0,0.0,0.0,0.0,0.0,0.0,0.0,-0.032350905,0.0,0.0,nan,0.0,0.0,0.0,0.0,0.0,0.0,0.0,0.0,-0.010329586,-0.004632868,0.00012260208,0.0,0.0,0.0,0.0,0.0,0.0
8460000,8380000,-0.021702036,0.00089005637,-0.0014064535,-7.316489e-05,-0.0073320176,0.04532973,0.0,0.0,0.0,0.0,0.0,0.0,0.0,0.03581906,0.0,0.0,nan,0.0,0.0,0.0,0.0,0.0,0.0,0.0,0.0,-0.026295954,0.01751136,0.000799979,0.0,0.0,0.0,0.0,0.0,0.0
8956000,8876000,-0.00029863784,0.00088114716,0.009982223,-0.00014055308,-0.0074292286,0.04185904,0.0,0.0,0.0,0.0,0.0,0.0,0.0,0.013577767,0.0,0.0,nan,0.0,0.0,0.0,0.0,0.0,0.0,0.0,0.0,-0.018399173,-0.01777006,2.5940471e-05,0.0,0.0,0.0,0.0,0.0,0.0
9452000,9372000,0.01319361,0.002990245,-0.029048106,0.0008233005,-0.006731295,-0.0025953203,0.0,0.0,0.0,0.0,0.0,0.0,0.0,-0.04443281,0.0,0.0,nan,0.0,0.0,0.0,0.0,0.0,0.0,0.0,0.0,0.02253517,0.0014968056,-0.00045259818,0.0,0.0,0.0,0.0,0.0,0.0
9956000,9876000,0.02379662,-0.006898908,0.033062033,0.00088057265,-0.006790543,-0.009803548,0.0,0.0,0.0,0.0,0.0,0.0,0.0,-0.05861809,0.0,0.0,nan,0.0,0.0,0.0,0.0,0.0,0.0,0.0,0.0,-0.0013994128,-0.0067684865,-9.723302e-05,0.0,0.0,0.0,0.0,0.0,0.0
10452000,10372000,-0.019874156,-0.009552795,0.0056523234,0.00041577514,-0.014660784,-0.008226104,0.0,0.0,0.0,0.0,0.0,0.0,0.0,0.013447285,0.0,0.0,nan,0.0,0.0,0.0,0.0,0.0,0.0,0.0,0.0,-0.014882977,0.014382586,0.00052133045,0.0,0.0,0.0,0.0,0.0,0.0
10956000,10876000,-0.0017923288,-0.0015056123,0.02625284,-0.00022449528,-0.007765398,-0.00037486106,0.0,0.0,0.0,0.0,0.0,0.0,0.0,0.09605723,0.0,0.0,nan,0.0,0.0,0.0,0.0,0.0,0.0,0.0,0.0,-0.0062147505,-0.002067405,8.1652135e-05,0.0,0.0,0.0,0.0,0.0,0.0
11452000,11372000,0.01754418,-0.0036330395,0.022004629,-0.00038358168,-0.008206939,0.019303188,0.0,0.0,0.0,0.0,0.0,0.0,0.0,-0.07683588,0.0,0.0,nan,0.0,0.0,0.0,0.0,0.0,0.0,0.0,0.0,-0.030351736,-0.023654385,9.501046e-05,0.0,0.0,0.0,0.0,0.0,0.0
11956000,11876000,-0.0034708534,-0.002510156,0.014972925,0.010586009,-0.008223514,0.015945576,0.0,0.0,0.0,0.0,0.0,0.0,0.0,-0.045842864,0.0,0.0,nan,0.0,0.0,0.0,0.0,0.0,0.0,0.0,0.0,-0.005019011,-0.025033243,-0.0003634494,0.0,0.0,0.0,0.0,0.0,0.0
12460000,12380000,-0.0029304782,-0.00054980407,0.013208963,-0.0006519803,-0.007730311,0.0073806494,0.0,0.0,0.0,0.0,0.0,0.0,0.0,-0.042633623,0.0,0.0,nan,0.0,0.0,0.0,0.0,0.0,0.0,0.0,0.0,0.004493324,-0.015999023,-0.00036665416,0.0,0.0,0.0,0.0,0.0,0.0
12956000,12876000,-0.020030161,0.01173456,-0.01694866,-0.00036438965,-0.0075514745,0.009714045,0.0,0.0,0.0,0.0,0.0,0.0,0.0,0.071138576,0.0,0.0,nan,0.0,0.0,0.0,0.0,0.0,0.0,0.0,0.0,-0.015649587,-0.0078667505,0.00015578006,0.0,0.0,0.0,0.0,0.0,0.0
13452000,13372000,0.0012571139,0.0027071459,0.044200495,0.00012687592,-0.006958754,0.017186739,0.0,0.0,0.0,0.0,0.0,0.0,0.0,0.009694606,0.0,0.0,nan,0.0,0.0,0.0,0.0,0.0,0.0,0.0,0.0,0.008826064,-0.0074441773,-0.0003000568,0.0,0.0,0.0,0.0,0.0,0.0
13956000,13876000,0.012155451,0.00075170235,0.021626526,0.0003702115,-0.014673331,0.016388051,0.0,0.0,0.0,0.0,0.0,0.0,0.0,0.10514871,0.0,0.0,nan,0.0,0.0,0.0,0.0,0.0,0.0,0.0,0.0,0.03057728,0.04191023,-1.3458628e-05,0.0,0.0,0.0,0.0,0.0,0.0
14452000,14372000,-0.008464382,-0.0015873689,0.021334598,0.00046514647,2.6853377e-05,0.018977195,0.0,0.0,0.0,0.0,0.0,0.0,0.0,-0.06441828,0.0,0.0,nan,0.0,0.0,0.0,0.0,0.0,0.0,0.0,0.0,0.00872026,0.03358388,0.00033794306,0.0,0.0,0.0,0.0,0.0,0.0
14956000,14876000,0.002373603,-0.021232642,0.010103807,0.00047014313,-0.00793298,0.013802968,0.0,0.0,0.0,0.0,0.0,0.0,0.0,0.03754221,0.0,0.0,nan,0.0,0.0,0.0,0.0,0.0,0.0,0.0,0.0,-0.0023700078,-0.010056637,-0.00013025252,0.0,0.0,0.0,0.0,0.0,0.0
15452000,15372000,0.0014910521,0.00032384,0.007862188,0.0003424625,-0.007475628,0.021510065,0.0,0.0,0.0,0.0,0.0,0.0,0.0,0.14218253,0.0,0.0,nan,0.0,0.0,0.0,0.0,0.0,0.0,0.0,0.0,-0.0046108253,-0.004389905,8.466468e-06,0.0,0.0,0.0,0.0,0.0,0.0
15956000,15876000,-0.0006345866,-0.0006675192,0.018711166,0.00024338411,-3.9989052e-05,0.0032538623,0.0,0.0,0.0,0.0,0.0,0.0,0.0,0.050902396,0.0,0.0,nan,0.0,0.0,0.0,0.0,0.0,0.0,0.0,0.0,0.015733918,0.005026658,-0.00020492123,0.0,0.0,0.0,0.0,0.0,0.0
16452000,16372000,0.00031632127,-0.011946552,0.018928224,7.728055e-05,-0.00041027548,0.0074538738,0.0,0.0,0.0,0.0,0.0,0.0,0.0,0.026702896,0.0,0.0,nan,0.0,0.0,0.0,0.0,0.0,0.0,0.0,0.0,0.014596508,0.017554825,1.1875969e-05,0.0,0.0,0.0,0.0,0.0,0.0
16956000,16876000,-0.00032686666,-0.0034143003,0.021502594,4.7278787e-05,-0.008233044,0.0021978617,0.0,0.0,0.0,0.0,0.0,0.0,0.0,-0.045448326,0.0,0.0,nan,0.0,0.0,0.0,0.0,0.0,0.0,0.0,0.0,-0.02330225,-0.013475193,0.00013387328,0.0,0.0,0.0,0.0,0.0,0.0
17460000,17380000,-0.0016453824,-0.0030615008,0.0025255661,-0.00017424546,-0.008253898,0.008719943,0.0,0.0,0.0,0.0,0.0,0.0,0.0,-0.0140236765,0.0,0.0,nan,0.0,0.0,0.0,0.0,0.0,0.0,0.0,0.0,-0.010613759,-0.013787504,-6.244189e-05,0.0,0.0,0.0,0.0,0.0,0.0
17956000,17876000,0.008187257,0.010172805,0.05935672,-0.0003083016,-0.00780743,0.008083619,0.0,0.0,0.0,0.0,0.0,0.0,0.0,0.01637631,0.0,0.0,nan,0.0,0.0,0.0,0.0,0.0,0.0,0.0,0.0,-0.0061768917,0.01235481,0.00028389078,0.0,0.0,0.0,0.0,0.0,0.0
18460000,18380000,0.0022775414,-0.0019032757,0.011270985,-3.0274277e-06,-0.007727299,0.0066362172,0.0,0.0,0.0,0.0,0.0,0.0,0.0,-0.050894983,0.0,0.0,nan,0.0,0.0,0.0,0.0,0.0,0.0,0.0,0.0,0.022626817,0.01087632,-0.00023386834,0.0,0.0,0.0,0.0,0.0,0.0
18956000,18876000,0.0024084388,-0.0037105172,0.023547644,0.00045421778,-0.0005653256,0.0038566068,0.0,0.0,0.0,0.0,0.0,0.0,0.0,-0.015390269,0.0,0.0,nan,0.0,0.0,0.0,0.0,0.0,0.0,0.0,0.0,0.017508253,0.0054391227,-0.00021230294,0.0,0.0,0.0,0.0,0.0,0.0
19452000,19372000,-0.020069407,-0.004722112,0.013029829,-0.00013636409,-0.0090320045,0.010528952,0.0,0.0,0.0,0.0,0.0,0.0,0.0,0.009108499,0.0,0.0,nan,0.0,0.0,0.0,0.0,0.0,0.0,0.0,0.0,-0.004884132,0.033681676,0.00053043186,0.0,0.0,0.0,0.0,0.0,0.0
19956000,19876000,-0.019472253,-0.002526916,0.041792743,0.000144067,-0.008589435,0.0044466928,0.0,0.0,0.0,0.0,0.0,0.0,0.0,0.06676488,0.0,0.0,nan,0.0,0.0,0.0,0.0,0.0,0.0,0.0,0.0,0.0001129898,0.008763727,0.00012611826,0.0,0.0,0.0,0.0,0.0,0.0
20452000,20372000,0.01143581,-0.0015930452,0.020363787,0.00034196838,-0.008140923,0.019115247,0.0,0.0,0.0,0.0,0.0,0.0,0.0,0.08018323,0.0,0.0,nan,0.0,0.0,0.0,0.0,0.0,0.0,0.0,0.0,0.0030810582,0.00867744,7.6826494e-05,0.0,0.0,0.0,0.0,0.0,0.0
20956000,20876000,-0.012654704,0.010310146,0.040410385,-0.00019830783,-0.0076659196,0.0067266375,0.0,0.0,0.0,0.0,0.0,0.0,0.0,-0.023615241,0.0,0.0,nan,0.0,0.0,0.0,0.0,0.0,0.0,0.0,0.0,-0.001858571,0.00046750507,3.507039e-05,0.0,0.0,0.0,0.0,0.0,0.0
21452000,21372000,0.002788736,0.0040446436,0.011889823,-0.001605164,-0.0067549,0.020139381,0.0,0.0,0.0,0.0,0.0,0.0,0.0,0.092902265,0.0,0.0,nan,0.0,0.0,0.0,0.0,0.0,0.0,0.0,0.0,0.012684757,0.010594998,-4.8416754e-05,0.0,0.0,0.0,0.0,0.0,0.0
21956000,21876000,-0.004710229,0.0012949483,0.020445654,-0.0013779238,-0.014569534,0.007408686,0.0,0.0,0.0,0.0,0.0,0.0,0.0,0.013499312,0.0,0.0,nan,0.0,0.0,0.0,0.0,0.0,0.0,0.0,0.0,0.0036907017,-0.004225245,-0.00012123182,0.0,0.0,0.0,0.0,0.0,0.0
22460000,22380000,-0.0059714173,0.00015159277,0.0012331363,-0.0014001434,-0.0072896024,0.0045165718,0.0,0.0,0.0,0.0,0.0,0.0,0.0,-0.029139996,0.0,0.0,nan,0.0,0.0,0.0,0.0,0.0,0.0,0.0,0.0,0.0073734443,0.013958418,7.6798315e-05,0.0,0.0,0.0,0.0,0.0,0.0
22956000,22876000,-0.004717034,-0.019681407,-0.03710348,-0.0013406449,-0.0073963166,0.0032867268,0.0,0.0,0.0,0.0,0.0,0.0,0.0,-0.04958675,0.0,0.0,nan,0.0,0.0,0.0,0.0,0.0,0.0,0.0,0.0,-0.009539044,-0.018789768,-0.00015049287,0.0,0.0,0.0,0.0,0.0,0.0
23452000,23372000,-0.010900382,-0.010966491,0.020747684,-0.0008896463,-0.0008098053,0.016335212,0.0,0.0,0.0,0.0,0.0,0.0,0.0,0.014409721,0.0,0.0,nan,0.0,0.0,0.0,0.0,0.0,0.0,0.0,0.0,-0.01295291,0.0063510532,0.0002822461,0.0,0.0,0.0,0.0,0.0,0.0
23956000,23876000,-0.00952816,-0.020180173,0.034012422,-0.0011061089,-0.0010611434,0.024925474,0.0,0.0,0.0,0.0,0.0,0.0,0.0,0.034133065,0.0,0.0,nan,0.0,0.0,0.0,0.0,0.0,0.0,0.0,0.0,-0.002271155,-0.014370454,-0.00018619106,0.0,0.0,0.0,0.0,0.0,0.0
24452000,24372000,0.008338335,0.00885833,0.07630441,-0.0011519967,-0.008728596,0.032666296,0.0,0.0,0.0,0.0,0.0,0.0,0.0,0.0996666,0.0,0.0,nan,0.0,0.0,0.0,0.0,0.0,0.0,0.0,0.0,0.017787147,0.004049961,-0.00022614672,0.0,0.0,0.0,0.0,0.0,0.0
24956000,24876000,-0.0064851074,0.0063186954,0.030394185,-0.0028514413,-0.009542819,0.03728394,0.0,0.0,0.0,0.0,0.0,0.0,0.0,0.024165075,0.0,0.0,nan,0.0,0.0,0.0,0.0,0.0,0.0,0.0,0.0,-0.0024305691,0.008553124,0.00015334714,0.0,0.0,0.0,0.0,0.0,0.0
25452000,25372000,-0.0143919,-0.012616433,0.030463593,-0.011124734,-0.012146245,0.059069157,0.0,0.0,0.0,0.0,0.0,0.0,0.0,0.033118255,0.0,0.0,nan,0.0,0.0,0.0,0.0,0.0,0.0,0.0,0.0,0.019915342,-0.016166866,-0.00056768005,0.0,0.0,0.0,0.0,0.0,0.0
25956000,25876000,-0.01998571,0.014253166,0.05552026,-0.018401705,-0.011791087,0.06986997,0.0,0.0,0.0,0.0,0.0,0.0,0.0,0.08447164,0.0,0.0,nan,0.0,0.0,0.0,0.0,0.0,0.0,0.0,0.0,0.019897781,-0.110906705,0.0002344316,0.0,0.0,0.0,0.0,0.0,0.0
26452000,26372000,-0.034163624,0.18751055,0.050516754,-0.024990555,0.013815411,0.06310257,0.0,0.0,0.0,0.0,0.0,0.0,0.0,0.11357787,0.0,0.0,nan,0.0,0.0,0.0,0.0,0.0,0.0,0.0,0.0,0.009815336,-0.026090425,-0.00037591613,0.0,0.0,0.0,0.0,0.0,0.0
26956000,26876000,0.012424052,0.25788587,0.0513013,-0.026562631,0.12099265,0.072147965,0.0,0.0,0.0,0.0,0.0,0.0,0.0,0.12818962,0.0,0.0,nan,0.0,0.0,0.0,0.0,0.0,0.0,0.0,0.0,-0.08129829,0.15773231,0.0049861916,0.0,0.0,0.0,0.0,0.0,0.0
27452000,27372000,-0.038246796,0.04444308,0.06924909,-0.0111647695,0.26168352,0.07662171,0.0,0.0,0.0,0.0,0.0,0.0,0.0,0.037455916,0.0,0.0,nan,0.0,0.0,0.0,0.0,0.0,0.0,0.0,0.0,-0.09601141,0.15334868,0.0060774502,0.0,0.0,0.0,0.0,0.0,0.0
27956000,27876000,-0.05526361,-0.060864598,0.059956968,-0.011631861,0.26534072,0.08364189,0.0,0.0,0.0,0.0,0.0,0.0,0.0,0.07531834,0.0,0.0,nan,0.0,0.0,0.0,0.0,0.0,0.0,0.0,0.0,-0.051192075,0.088866144,0.0032245836,0.0,0.0,0.0,0.0,0.0,0.0
28460000,28380000,-0.048949875,-0.08842985,0.10468584,-0.018187642,0.21812627,0.12028146,0.0,0.0,0.0,0.0,0.0,0.0,0.0,0.10179567,0.0,0.0,nan,0.0,0.0,0.0,0.0,0.0,0.0,0.0,0.0,-0.0147513235,0.020228647,0.0007190298,0.0,0.0,0.0,0.0,0.0,0.0
28956000,28876000,-0.08072992,-0.12074416,0.10607928,-0.031004958,0.1669057,0.11750972,0.0,0.0,0.0,0.0,0.0,0.0,0.0,0.15502942,0.0,0.0,nan,0.0,0.0,0.0,0.0,0.0,0.0,0.0,0.0,-0.00058901566,-0.036451917,-0.0007276641,0.0,0.0,0.0,0.0,0.0,0.0
29452000,29372000,-0.029047031,-0.10297888,0.04846984,-0.05471447,0.06691511,0.16524684,0.0,0.0,0.0,0.0,0.0,0.0,0.0,0.0563941,0.0,0.0,nan,0.0,0.0,0.0,0.0,0.0,0.0,0.0,0.0,0.021419363,-0.07574053,-0.0017542976,0.0,0.0,0.0,0.0,0.0,0.0
29956000,29876000,-0.038045254,-0.067809016,0.07222385,-0.08050398,0.043171298,0.16455293,0.0,0.0,0.0,0.0,0.0,0.0,0.0,0.0858624,0.0,0.0,nan,0.0,0.0,0.0,0.0,0.0,0.0,0.0,0.0,0.070580296,-0.04323573,-0.0020040558,0.0,0.0,0.0,0.0,0.0,0.0
30452000,30372000,-0.034642927,-0.056689754,0.10084033,-0.0824531,0.028233306,0.17186666,0.0,0.0,0.0,0.0,0.0,0.0,0.0,0.07220054,0.0,0.0,nan,0.0,0.0,0.0,0.0,0.0,0.0,0.0,0.0,0.067011006,-0.037429452,-0.001640748,0.0,0.0,0.0,0.0,0.0,0.0
30956000,30876000,-0.024739705,0.013580157,0.112750895,-0.09165889,0.020410435,0.17523336,0.0,0.0,0.0,0.0,0.0,0.0,0.0,0.115287066,0.0,0.0,nan,0.0,0.0,0.0,0.0,0.0,0.0,0.0,0.0,0.027865544,-0.024259578,-0.0007841495,0.0,0.0,0.0,0.0,0.0,0.0
31460000,31380000,-0.034887973,0.053209785,0.075689785,-0.09599652,0.045588203,0.19783974,0.0,0.0,0.0,0.0,0.0,0.0,0.0,0.021411896,0.0,0.0,nan,0.0,0.0,0.0,0.0,0.0,0.0,0.0,0.0,-0.0049357237,0.0006156393,9.0735404e-05,0.0,0.0,0.0,0.0,0.0,0.0
31956000,31876000,-0.034490686,0.016434783,0.08287674,-0.10431189,0.053516023,0.20509768,0.0,0.0,0.0,0.0,0.0,0.0,0.0,0.16929269,0.0,0.0,nan,0.0,0.0,0.0,0.0,0.0,0.0,0.0,0.0,-0.004298367,0.03306574,0.00061681,0.0,0.0,0.0,0.0,0.0,0.0
32460000,32380000,-0.074336186,0.016487904,0.106727146,-0.09907615,0.056381058,0.21342087,0.0,0.0,0.0,0.0,0.0,0.0,0.0,0.09668231,0.0,0.0,nan,0.0,0.0,0.0,0.0,0.0,0.0,0.0,0.0,0.033763885,0.04788194,0.00010414608,0.0,0.0,0.0,0.0,0.0,0.0
32956000,32876000,-0.048119113,0.02468969,0.11092864,-0.0935628,0.0616068,0.2175901,0.0,0.0,0.0,0.0,0.0,0.0,0.0,0.15819573,0.0,0.0,nan,0.0,0.0,0.0,0.0,0.0,0.0,0.0,0.0,0.03315661,0.016489584,-0.00038324884,0.0,0.0,0.0,0.0,0.0,0.0
33460000,33380000,-0.019261401,0.008664693,0.0942214,-0.09312715,0.054258466,0.21369934,0.0,0.0,0.0,0.0,0.0,0.0,0.0,0.22934341,0.0,0.0,nan,0.0,0.0,0.0,0.0,0.0,0.0,0.0,0.0,-0.010534275,0.03751905,0.00073877984,0.0,0.0,0.0,0.0,0.0,0.0
33956000,33876000,-0.044960894,-0.0003831936,0.20205335,-0.08436842,0.047906194,0.21156478,0.0,0.0,0.0,0.0,0.0,0.0,0.0,0.05368185,0.0,0.0,nan,0.0,0.0,0.0,0.0,0.0,0.0,0.0,0.0,0.04448944,0.054089427,-2.0953154e-05,0.0,0.0,0.0,0.0,0.0,0.0
34452000,34372000,-0.053224485,-0.028615464,0.10913579,-0.07462039,0.0372479,0.23603487,0.0,0.0,0.0,0.0,0.0,0.0,0.0,0.029929161,0.0,0.0,nan,0.0,0.0,0.0,0.0,0.0,0.0,0.0,0.0,0.025126358,0.045412432,0.00022638374,0.0,0.0,0.0,0.0,0.0,0.0
34956000,34876000,-0.03182155,-0.05243873,0.10409961,-0.07549842,0.014838114,0.23302841,0.0,0.0,0.0,0.0,0.0,0.0,0.0,0.077634096,0.0,0.0,nan,0.0,0.0,0.0,0.0,0.0,0.0,0.0,0.0,0.017456653,0.0098699825,-0.00015479133,0.0,0.0,0.0,0.0,0.0,0.0
35452000,35372000,-0.06315853,-0.076225944,0.050601482,-0.07904271,-0.037471663,0.21511865,0.0,0.0,0.0,0.0,0.0,0.0,0.0,0.098024845,0.0,0.0,nan,0.0,0.0,0.0,0.0,0.0,0.0,0.0,0.0,0.0034808393,0.030492254,0.00049599627,0.0,0.0,0.0,0.0,0.0,0.0
35956000,35876000,-0.09852233,-0.11660425,0.10757162,-0.094844535,-0.073945984,0.21112251,0.0,0.0,0.0,0.0,0.0,0.0,0.0,0.08659768,0.0,0.0,nan,0.0,0.0,0.0,0.0,0.0,0.0,0.0,0.0,0.030220572,0.011281874,-0.00037125513,0.0,0.0,0.0,0.0,0.0,0.0
36460000,36380000,-0.07750235,-0.09609351,0.07668056,-0.10156134,-0.10391405,0.21640468,0.0,0.0,0.0,0.0,0.0,0.0,0.0,0.096218586,0.0,0.0,nan,0.0,0.0,0.0,0.0,0.0,0.0,0.0,0.0,0.020703679,0.029078504,0.0001183961,0.0,0.0,0.0,0.0,0.0,0.0
36956000,36876000,-0.09372172,-0.084891155,0.03797105,-0.12417302,-0.13185939,0.1967516,0.0,0.0,0.0,0.0,0.0,0.0,0.0,0.06999874,0.0,0.0,nan,0.0,0.0,0.0,0.0,0.0,0.0,0.0,0.0,0.020286875,-0.0032225237,-0.00042761466,0.0,0.0,0.0,0.0,0.0,0.0
37452000,37372000,-0.14286143,-0.106210485,0.044139344,-0.15608838,-0.19144744,0.17886186,0.0,0.0,0.0,0.0,0.0,0.0,0.0,0.21600413,0.0,0.0,nan,0.0,0.0,0.0,0.0,0.0,0.0,0.0,0.0,0.04218127,0.016614297,-0.00046418048,0.0,0.0,0.0,0.0,0.0,0.0
37956000,37876000,-0.14320067,-0.14159939,0.061130174,-0.1849588,-0.21743163,0.17141008,0.0,0.0,0.0,0.0,0.0,0.0,0.0,0.001175642,0.0,0.0,nan,0.0,0.0,0.0,0.0,0.0,0.0,0.0,0.0,0.030802952,-0.019232463,-0.00089630636,0.0,0.0,0.0,0.0,0.0,0.0
38452000,38372000,-0.11487883,-0.10876009,0.07900993,-0.20452896,-0.24932826,0.17826748,0.0,0.0,0.0,0.0,0.0,0.0,0.0,0.037829638,0.0,0.0,nan,0.0,0.0,0.0,0.0,0.0,0.0,0.0,0.0,0.07552519,-0.013434353,-0.0015410992,0.0,0.0,0.0,0.0,0.0,0.0
38956000,38876000,-0.1539922,-0.099701405,0.049984902,-0.23877259,-0.2633558,0.17047787,0.0,0.0,0.0,0.0,0.0,0.0,0.0,-0.034551144,0.0,0.0,nan,0.0,0.0,0.0,0.0,0.0,0.0,0.0,0.0,0.046595607,0.0036070307,-0.00070356205,0.0,0.0,0.0,0.0,0.0,0.0
39452000,39372000,-0.18210047,-0.11226305,0.09915699,-0.29483935,-0.29311076,0.18410468,0.0,0.0,0.0,0.0,0.0,0.0,0.0,0.020760536,0.0,0.0,nan,0.0,0.0,0.0,0.0,0.0,0.0,0.0,0.0,0.06776495,-0.0030017528,-0.0012399172,0.0,0.0,0.0,0.0,0.0,0.0
39956000,39876000,-0.20205018,-0.10016668,0.094674505,-0.33544585,-0.30690792,0.18958116,0.0,0.0,0.0,0.0,0.0,0.0,0.0,-0.056052923,0.0,0.0,nan,0.0,0.0,0.0,0.0,0.0,0.0,0.0,0.0,0.040640168,0.033801466,-0.00012826292,0.0,0.0,0.0,0.0,0.0,0.0
40460000,40380000,-0.20572951,-0.10397427,0.0701652,-0.37887165,-0.32801402,0.19781041,0.0,0.0,0.0,0.0,0.0,0.0,0.0,-0.009711027,0.0,0.0,nan,0.0,0.0,0.0,0.0,0.0,0.0,0.0,0.0,0.037448063,0.0081078,-0.0005143336,0.0,0.0,0.0,0.0,0.0,0.0
40956000,40876000,-0.21447104,-0.095326245,0.14402066,-0.40987107,-0.33223364,0.20270109,0.0,0.0,0.0,0.0,0.0,0.0,0.0,0.061145306,0.0,0.0,nan,0.0,0.0,0.0,0.0,0.0,0.0,0.0,0.0,0.05748189,0.018996656,-0.0007703859,0.0,0.0,0.0,0.0,0.0,0.0
41460000,41380000,-0.22588342,-0.11650276,0.10657999,-0.4573915,-0.35301864,0.22963715,0.0,0.0,0.0,0.0,0.0,0.0,0.0,0.016767979,0.0,0.0,nan,0.0,0.0,0.0,0.0,0.0,0.0,0.0,0.0,0.021973973,0.029376904,0.00012097656,0.0,0.0,0.0,0.0,0.0,0.0
41956000,41876000,-0.230891,-0.117029645,0.120269105,-0.48363465,-0.354356,0.25251484,0.0,0.0,0.0,0.0,0.0,0.0,0.0,0.038203478,0.0,0.0,nan,0.0,0.0,0.0,0.0,0.0,0.0,0.0,0.0,0.028358743,0.06297448,0.00049170305,0.0,0.0,0.0,0.0,0.0,0.0
42452000,42372000,-0.23534217,-0.109174214,0.14726214,-0.5082045,-0.3626169,0.25881863,0.0,0.0,0.0,0.0,0.0,0.0,0.0,0.064974785,0.0,0.0,nan,0.0,0.0,0.0,0.0,0.0,0.0,0.0,0.0,0.029452085,0.010717467,-0.0002689712,0.0,0.0,0.0,0.0,0.0,0.0
42956000,42876000,-0.23269406,-0.121613935,0.17662841,-0.5314729,-0.37812936,0.26067638,0.0,0.0,0.0,0.0,0.0,0.0,0.0,0.08391023,0.0,0.0,nan,0.0,0.0,0.0,0.0,0.0,0.0,0.0,0.0,0.030730717,0.014158819,-0.00022736115,0.0,0.0,0.0,0.0,0.0,0.0
43460000,43380000,-0.2496069,-0.10875934,0.13627507,-0.5958049,-0.38602954,0.29063153,0.0,0.0,0.0,0.0,0.0,0.0,0.0,0.07973647,0.0,0.0,nan,0.0,0.0,0.0,0.0,0.0,0.0,0.0,0.0,0.059320807,0.0154857095,-0.0007251711,0.0,0.0,0.0,0.0,0.0,0.0
43956000,43876000,-0.29165944,-0.09814477,0.15927514,-0.6137238,-0.3857934,0.29719353,0.0,0.0,0.0,0.0,0.0,0.0,0.0,0.053828478,0.0,0.0,nan,0.0,0.0,0.0,0.0,0.0,0.0,0.0,0.0,0.06611503,0.0073403125,-0.0010779082,0.0,0.0,0.0,0.0,0.0,0.0
44460000,44380000,-0.27099776,-0.10236947,0.1941508,-0.6401721,-0.3829533,0.30942488,0.0,0.0,0.0,0.0,0.0,0.0,0.0,0.07374501,0.0,0.0,nan,0.0,0.0,0.0,0.0,0.0,0.0,0.0,0.0,0.02300946,0.0034947735,-0.00036063357,0.0,0.0,0.0,0.0,0.0,0.0
44956000,44876000,-0.27439463,-0.11341465,0.15569843,-0.6626137,-0.37654158,0.3201263,0.0,0.0,0.0,0.0,0.0,0.0,0.0,0.12305641,0.0,0.0,nan,0.0,0.0,0.0,0.0,0.0,0.0,0.0,0.0,0.056496132,-0.032264713,-0.0018127081,0.0,0.0,0.0,0.0,0.0,0.0
45452000,45372000,-0.23573932,-0.0991216,0.087982714,-0.730704,-0.38581586,0.3550887,0.0,0.0,0.0,0.0,0.0,0.0,0.0,0.0885551,0.0,0.0,nan,0.0,0.0,0.0,0.0,0.0,0.0,0.0,0.0,0.035291508,-0.016132202,-0.00088874996,0.0,0.0,0.0,0.0,0.0,0.0
45956000,45876000,-0.23536749,-0.08923655,0.16190958,-0.7406745,-0.37323856,0.35271072,0.0,0.0,0.0,0.0,0.0,0.0,0.0,0.09227002,0.0,0.0,nan,0.0,0.0,0.0,0.0,0.0,0.0,0.0,0.0,0.016985688,-0.037559807,-0.00091708417,0.0,0.0,0.0,0.0,0.0,0.0
46452000,46372000,-0.2538582,-0.07290096,0.09916061,-0.7384349,-0.36622995,0.35875428,0.0,0.0,0.0,0.0,0.0,0.0,0.0,0.1215781,0.0,0.0,nan,0.0,0.0,0.0,0.0,0.0,0.0,0.0,0.0,0.030290976,0.003907779,-0.00045056746,0.0,0.0,0.0,0.0,0.0,0.0
46956000,46876000,-0.23275556,-0.055585913,0.16788381,-0.7464356,-0.35063326,0.3591746,0.0,0.0,0.0,0.0,0.0,0.0,0.0,0.02352345,0.0,0.0,nan,0.0,0.0,0.0,0.0,0.0,0.0,0.0,0.0,0.03803214,-0.024558382,-0.0010112948,0.0,0.0,0.0,0.0,0.0,0.0
47452000,47372000,-0.223636,-0.04407696,0.119469404,-0.7250905,-0.31439832,0.3586042,0.0,0.0,0.0,0.0,0.0,0.0,0.0,-0.0,0.0,0.0,nan,0.0,0.0,0.0,0.0,0.0,0.0,0.0,0.0,0.034738563,-0.007274462,-0.00069790403,0.0,0.0,0.0,0.0,0.0,0.0
47956000,47876000,-0.2025826,-0.043120995,0.17583519,-0.7060526,-0.29326507,0.35903227,0.0,0.0,0.0,0.0,0.0,0.0,0.0,0.04935816,0.0,0.0,nan,0.0,0.0,0.0,0.0,0.0,0.0,0.0,0.0,0.061863862,0.00077444565,-0.0012090859,0.0,0.0,0.0,0.0,0.0,0.0
48452000,48372000,-0.2085971,-0.02810485,0.10012305,-0.69732547,-0.2792782,0.35381138,0.0,0.0,0.0,0.0,0.0,0.0,0.0,0.011869065,0.0,0.0,nan,0.0,0.0,0.0,0.0,0.0,0.0,0.0,0.0,0.023086336,0.007164855,-0.00029654268,0.0,0.0,0.0,0.0,0.0,0.0
48956000,48876000,-0.17721444,-0.025385343,0.14098084,-0.67677945,-0.2589657,0.3343115,0.0,0.0,0.0,0.0,0.0,0.0,0.0,0.2280215,0.0,0.0,nan,0.0,0.0,0.0,0.0,0.0,0.0,0.0,0.0,-0.04324014,-0.014390667,0.00054121565,0.0,0.0,0.0,0.0,0.0,0.0
49452000,49372000,-0.20870246,-0.02800799,1.3420498,-0.6436763,-0.22973037,0.9872662,0.0,0.0,0.0,0.0,0.0,0.0,0.0,0.605652,0.0,0.0,nan,0.0,0.0,0.0,0.0,0.0,0.0,0.0,0.0,0.042602997,-0.047627825,-0.0015501861,0.0,0.0,0.0,0.0,0.0,0.0
49956000,49876000,-0.2081321,-0.016874861,1.3595941,-0.6314065,-0.21511023,1.3287427,0.0,0.0,0.0,0.0,0.0,0.0,0.0,1.0253277,0.0,0.0,nan,0.0,0.0,0.0,0.0,0.0,0.0,0.0,0.0,0.02886061,-0.011034158,-0.0007157464,0.0,0.0,0.0,0.0,0.0,0.0
50460000,50380000,-0.20348875,-0.00959488,1.3420014,-0.6182014,-0.19933696,1.60456,0.0,0.0,0.0,0.0,0.0,0.0,0.0,1.1770755,0.0,0.0,nan,0.0,0.0,0.0,0.0,0.0,0.0,0.0,0.0,0.04172394,-0.023558492,-0.0011572711,0.0,0.0,0.0,0.0,0.0,0.0
50956000,50876000,-0.22163737,0.004277435,1.260235,-0.66161793,-0.1864709,1.8055915,0.0,0.0,0.0,0.0,0.0,0.0,0.0,1.3453069,0.0,0.0,nan,0.0,0.0,0.0,0.0,0.0,0.0,0.0,0.0,0.04497415,-0.015956651,-0.001086057,0.0,0.0,0.0,0.0,0.0,0.0
51452000,51372000,-0.23704293,0.008803607,1.1110485,-0.6574985,-0.15340206,2.0783672,0.0,0.0,0.0,0.0,0.0,0.0,0.0,1.0823766,0.0,0.0,nan,0.0,0.0,0.0,0.0,0.0,0.0,0.0,0.0,0.041645925,-0.046733562,-0.0013194721,0.0,0.0,0.0,0.0,0.0,0.0
51956000,51876000,-0.17187364,0.037368737,1.0428069,-0.63509834,-0.1289002,2.1351712,0.0,0.0,0.0,0.0,0.0,0.0,0.0,1.1873908,0.0,0.0,nan,0.0,0.0,0.0,0.0,0.0,0.0,0.0,0.0,0.033045296,-0.033772156,-0.0011948918,0.0,0.0,0.0,0.0,0.0,0.0
52452000,52372000,-0.15839218,0.033486523,0.979417,-0.6087321,-0.10423584,2.1682315,0.0,0.0,0.0,0.0,0.0,0.0,0.0,1.1945122,0.0,0.0,nan,0.0,0.0,0.0,0.0,0.0,0.0,0.0,0.0,0.04811522,-0.034989916,-0.0015547588,0.0,0.0,0.0,0.0,0.0,0.0
52956000,52876000,-0.14417076,0.047169738,0.9105384,-0.5808717,-0.08137165,2.2000453,0.0,0.0,0.0,0.0,0.0,0.0,0.0,1.2879326,0.0,0.0,nan,0.0,0.0,0.0,0.0,0.0,0.0,0.0,0.0,-0.016322933,-0.024800852,-4.9421214e-05,0.0,0.0,0.0,0.0,0.0,0.0
53460000,53380000,-0.11436658,0.069607355,0.7996306,-0.52052885,-0.032845303,2.2127078,0.0,0.0,0.0,0.0,0.0,0.0,0.0,0.9463973,0.0,0.0,nan,0.0,0.0,0.0,0.0,0.0,0.0,0.0,0.0,-0.005971046,-0.017442282,-0.00012258446,0.0,0.0,0.0,0.0,0.0,0.0
53956000,53876000,-0.11283823,0.064216696,0.75731325,-0.4892647,-0.021201815,2.1803942,0.0,0.0,0.0,0.0,0.0,0.0,0.0,0.95738983,0.0,0.0,nan,0.0,0.0,0.0,0.0,0.0,0.0,0.0,0.0,0.0011139156,-0.018080909,-0.0002647191,0.0,0.0,0.0,0.0,0.0,0.0
54452000,54372000,-0.0905278,0.060269453,0.70836616,-0.45831728,0.0049199834,2.1654484,0.0,0.0,0.0,0.0,0.0,0.0,0.0,0.90263414,0.0,0.0,nan,0.0,0.0,0.0,0.0,0.0,0.0,0.0,0.0,-0.0207335,-0.018072926,0.0001423446,0.0,0.0,0.0,0.0,0.0,0.0
54956000,54876000,-0.08084705,0.078219205,0.65746665,-0.42786434,0.02274637,2.1244938,0.0,0.0,0.0,0.0,0.0,0.0,0.0,0.8044964,0.0,0.0,nan,0.0,0.0,0.0,0.0,0.0,0.0,0.0,0.0,0.0053051794,-0.030583465,-0.00051663985,0.0,0.0,0.0,0.0,0.0,0.0
55460000,55380000,-0.049792565,0.111359894,0.570724,-0.3690262,0.05856093,2.0223804,0.0,0.0,0.0,0.0,0.0,0.0,0.0,0.4924215,0.0,0.0,nan,0.0,0.0,0.0,0.0,0.0,0.0,0.0,0.0,-0.017198749,0.003977944,0.00036825432,0.0,0.0,0.0,0.0,0.0,0.0
55956000,55876000,-0.03491826,0.09679941,0.49803317,-0.3642368,0.076988794,1.9542907,0.0,0.0,0.0,0.0,0.0,0.0,0.0,0.4517907,0.0,0.0,nan,0.0,0.0,0.0,0.0,0.0,0.0,0.0,0.0,0.006498066,0.0013183597,-0.00011568426,0.0,0.0,0.0,0.0,0.0,0.0
56460000,56380000,-0.04916851,0.080947444,0.39025778,-0.33563003,0.0941811,1.8788533,0.0,0.0,0.0,0.0,0.0,0.0,0.0,0.36195707,0.0,0.0,nan,0.0,0.0,0.0,0.0,0.0,0.0,0.0,0.0,0.0012272198,-0.046789773,-0.0006661861,0.0,0.0,0.0,0.0,0.0,0.0
56956000,56876000,-0.0151267275,0.01090418,0.2869495,-0.14961383,-0.25420326,1.5368669,0.0,0.0,0.0,0.0,0.0,0.0,0.0,-0.05404508,0.0,0.0,nan,0.0,0.0,0.0,0.0,0.0,0.0,0.0,0.0,0.014588901,-0.0036831517,-0.0003547891,0.0,0.0,0.0,0.0,0.0,0.0
57460000,57380000,-0.009876699,0.009670711,0.096741796,-0.044563368,-0.045161963,1.1892762,0.0,0.0,0.0,0.0,0.0,0.0,0.0,-0.16697013,0.0,0.0,nan,0.0,0.0,0.0,0.0,0.0,0.0,0.0,0.0,0.010657083,0.020859934,2.1965941e-05,0.0,0.0,0.0,0.0,0.0,0.0
57956000,57876000,0.000410632,-0.0095414715,0.010554893,-0.04445426,-0.045120813,1.0879496,0.0,0.0,0.0,0.0,0.0,0.0,0.0,-0.37266272,0.0,0.0,nan,0.0,0.0,0.0,0.0,0.0,0.0,0.0,0.0,0.0080767,-0.027208416,-0.00054004637,0.0,0.0,0.0,0.0,0.0,0.0
58452000,58372000,0.020621127,0.00091624947,0.007957175,-0.04438902,-0.03745873,1.0184319,0.0,0.0,0.0,0.0,0.0,0.0,0.0,-0.3324538,0.0,0.0,nan,0.0,0.0,0.0,0.0,0.0,0.0,0.0,0.0,0.017732222,-0.019607881,-0.000625242,0.0,0.0,0.0,0.0,0.0,0.0
58956000,58876000,0.020282712,0.010630682,0.006074842,-0.044413764,-0.045038156,0.9682931,0.0,0.0,0.0,0.0,0.0,0.0,0.0,-0.3106994,0.0,0.0,nan,0.0,0.0,0.0,0.0,0.0,0.0,0.0,0.0,0.012578584,0.0029880684,-0.00022326753,0.0,0.0,0.0,0.0,0.0,0.0
59460000,59380000,-0.012256607,-0.0018591592,-0.019867081,-0.044958733,-0.045190327,0.8688211,0.0,0.0,0.0,0.0,0.0,0.0,0.0,-0.37886542,0.0,0.0,nan,0.0,0.0,0.0,0.0,0.0,0.0,0.0,0.0,0.0041993028,-0.005029466,-0.00014578697,0.0,0.0,0.0,0.0,0.0,0.0
