timestamp,timestamp_sample,xyz[0],xyz[1],xyz[2],xyz_derivative[0],xyz_derivative[1],xyz_derivative[2]
3212000,3212000,-0.0012618318,-0.0037319576,-0.0017607365,0.0018757209,0.1744,-0.15575
3216000,3216000,-0.0014512317,-0.0035903687,-0.0026962685,-0.019284863,0.11464705,-0.18933696
3224000,3224000,-0.0027603512,-0.005044873,-0.0019425624,-0.14796132,-0.08838198,0.0008642546
3232000,3232000,-0.003359763,-0.0045742267,-0.0007233194,-0.056698352,0.03147431,0.12511078
3244000,3244000,-0.0037111838,-0.0054732403,0.00057122146,-0.06324698,-0.067666285,0.06214334
3252000,3252000,-0.0016170263,-0.0033093458,-0.00069190015,0.16621056,0.15272155,-0.08341826
3264000,3264000,-0.0033339416,-0.005206329,0.00096232275,-0.08217513,-0.11545027,0.10743255
3268000,3268000,-0.0025413737,-0.005804782,0.00040300583,0.038324457,-0.13013586,0.0011424175
3280000,3280000,0.0009656857,-0.0029575943,-0.0024709639,0.21932638,0.14410202,-0.16582793
3288000,3288000,-0.0036034442,-0.0066235852,0.00014775712,-0.314349,-0.29612127,0.18875602
3304000,3304000,0.0020945095,-0.0061673545,7.5552365e-05,0.27457535,-0.029729873,-0.011144132
3308000,3308000,0.0015612689,-0.00855317,2.6773818e-05,0.09923808,-0.2733468,-0.011595712
3324000,3324000,0.00020715437,-0.0038496468,0.0001845357,0.11954312,0.14351091,-0.010173251
3332000,3332000,0.00021751873,-0.0062902747,0.0008838692,-0.0010056198,-0.10671027,0.03763371
3340000,3340000,-0.0027311204,-0.0030397256,0.0011060303,-0.20817752,0.22535437,0.017414777
3352000,3352000,-0.000536734,-0.00630744,0.00038157857,0.03251262,-0.17112768,0.054987762
3364000,3364000,-0.00021354754,-0.0031078332,-0.0011464044,0.082710795,0.22109577,-0.08172969
3372000,3372000,-0.00027991907,-0.006979629,-0.00039324648,-0.0097633,-0.2943462,-0.0048879622
3384000,3384000,-0.001220186,-0.0061789444,0.0004958499,0.07913364,0.0399529,0.11759325
3392000,3392000,0.0008304892,-0.0035441667,-0.0005547579,0.18572856,0.24478923,-0.06482789
3404000,3404000,-0.0003359098,-0.0070925183,-0.00055225973,-0.05515825,-0.23619097,0.015064634
3412000,3412000,-0.00079771393,-0.0031341477,-0.0012935755,-0.064953335,0.27468288,-0.086895674
3424000,3424000,-0.0019766437,-0.0070333164,-0.00013256524,-0.068681665,-0.27005416,0.12349916
3432000,3432000,-0.00071203645,-0.005334276,0.00083452306,0.052453674,0.095855586,0.12390292
3444000,3444000,-0.00038461614,-0.002632052,-4.2181015e-05,0.021733206,0.07247125,-0.108282395
3452000,3452000,-8.6524116e-05,-0.0037533503,0.0004974284,0.03461436,-0.059911143,0.04220382
3464000,3464000,-0.0024256767,-0.008955995,0.0012462711,-0.19511488,-0.4316244,0.0040751733
3472000,3472000,-0.00316998,-0.008036313,-0.0004189787,-0.10102785,-0.041069094,-0.13259847
3484000,3484000,-0.0021431115,-0.0062644156,-0.00012209117,-0.024800926,0.06815615,0.036040317
3492000,3492000,-0.0021873778,-0.005192049,0.0006383949,0.002255192,0.14749686,0.036914025
3504000,3504000,-0.00029952568,-0.004926852,0.00024362632,0.14986278,0.034420475,0.08184651
3512000,3512000,-0.002214677,-0.0041445647,0.0026030221,-0.1402961,0.029168408,0.2054989
3524000,3524000,-0.0004173601,-0.0061111497,-0.00073418056,0.1260185,-0.07066874,-0.296148
3532000,3532000,0.001265334,-0.003350765,-0.0021281051,0.20878151,0.23603797,-0.17240804
3544000,3544000,-0.0014609443,-0.004276664,0.00072048826,-0.20884961,-0.063134566,0.17520183
3552000,3552000,-0.0019271127,-0.0030012953,0.0021662363,-0.09031473,0.10772248,0.1379672
3564000,3564000,3.6723097e-05,-0.005011691,0.0008490854,0.09972278,-0.1805673,-0.05386853
3572000,3572000,-0.0010920295,-0.0042693857,0.00017257026,-0.086197145,0.014431448,-0.0555787
3584000,3584000,-9.397435e-05,-0.009763483,-0.00077758846,0.10874504,-0.37077397,-0.12365024
3592000,3592000,-0.0001137387,-0.007850283,-0.0015328224,0.017783355,0.06000696,-0.09209463
3604000,3604000,-0.0032176832,-0.0044566137,3.9579274e-05,-0.16307935,0.1962863,0.09862423
3612000,3612000,-0.0014356081,-0.0040191063,-0.0001434194,0.082012974,0.11369333,-0.017167328
3624000,3624000,0.0014946323,-0.006861927,-0.0011182354,0.21726927,-0.17587823,-0.024174262
3632000,3632000,0.00051753456,-0.0065017263,-0.00052416296,0.01707362,-0.031240968,0.051237464
3644000,3644000,-0.0017130296,-0.008449166,-0.00015227376,-0.20747267,-0.16856655,-0.0012704126
3648000,3648000,-0.0009862501,-0.00786534,2.6827465e-05,-0.040181674,-0.033362933,0.018523207
3660000,3660000,0.0026801182,-0.006501901,0.0003736266,0.2866401,0.053597167,-0.029265227
3668000,3668000,0.0015842445,-0.008212702,-0.0005729723,-0.032982826,-0.13280654,-0.08024296
3684000,3684000,0.0012041726,-0.0057484577,-0.00041632698,0.039257247,0.0866546,0.1685324
3688000,3688000,0.001115175,-0.0059199156,0.0008291176,0.012817452,0.030978385,0.22993004
3704000,3704000,-0.0014966503,-0.0061705224,-0.0012290544,-0.13412555,-0.01503355,-0.003298499
3712000,3712000,-0.000361252,-0.007668652,0.0013692891,0.07294451,-0.12825884,0.21072957
3724000,3724000,-0.00082147354,-0.0055601485,0.0004288588,-0.04527732,0.2084947,-0.036199614
3732000,3732000,-0.0006719496,-0.001921349,0.00022671717,0.0047544446,0.35284352,-0.038421325
3744000,3744000,0.0004898291,-0.0051412345,-0.0009181234,0.06454645,-0.168259,-0.070297986
3752000,3752000,-0.0022416762,-0.0046997718,-0.00092114613,-0.21921676,-0.016451204,-0.030540425
3764000,3764000,-0.00067266193,-0.004777455,-0.0018244891,0.055331886,-0.011325735,-0.025069691
3772000,3772000,-0.00034598797,-0.0034426597,-0.00015643938,0.038153734,0.10774574,0.14949669
3784000,3784000,-0.0018197834,-0.00532917,-0.0017083621,-0.008359134,-0.11291677,-0.13870391
3792000,3792000,-0.0013956293,-0.008431848,0.00053841306,-0.017751597,-0.28764173,0.171722
3804000,3804000,-0.00073756644,-0.0051797233,-0.0013278618,0.17597833,0.14739221,-0.20724651
3812000,3812000,0.000539472,-0.008371152,-0.0036287983,0.106402546,-0.22309461,-0.25458384
3820000,3820000,-0.003703203,-0.0027761364,-0.0020654588,-0.29992735,0.40401587,0.068348326
3832000,3832000,0.001582049,-0.0053713066,0.00082857645,0.24938908,-0.22737965,0.19285432
3844000,3844000,-0.0010913054,-0.004850502,-0.0008354932,-0.023609452,0.062287405,-0.07392756
3852000,3852000,-0.0008622726,-0.004285745,0.0017250974,-0.025157358,0.08092327,0.22214644
3864000,3864000,-0.000823255,-0.0040268237,-0.00022615935,0.052173547,-0.028225556,-0.1749498
3872000,3872000,0.00039014348,-0.0075780954,-0.00056662183,0.12195292,-0.31391603,-0.06422911
3884000,3884000,-0.0001844656,-0.0038883686,0.0028491896,-0.0808949,0.3235451,0.25567317
3892000,3892000,-0.002016922,-0.0037043635,0.00088859646,-0.16042289,0.07770235,-0.10990155
3904000,3904000,0.00014349079,-0.003189731,-0.0008837022,0.09268485,0.0825184,-0.14564785
3912000,3912000,0.0011205056,-0.0055366727,-0.0008159623,0.11927627,-0.19030008,-0.0019666883
3924000,3924000,0.00052497734,-0.0065808883,0.0019905688,-0.039256472,-0.13967466,0.14969058
3932000,3932000,0.0019855238,-0.006742416,0.00063616305,0.13361157,-0.020969585,-0.01857968
3944000,3944000,0.0010008846,-0.0031742149,0.00046562092,-0.14241229,0.2991108,-0.0048139472
3952000,3952000,-0.0012508808,-0.0023085384,-0.0017867248,-0.22327968,0.099355415,-0.22161329
3964000,3964000,-0.0010338605,-0.0075543057,0.0009172298,0.008327037,-0.28053337,0.27366945
3972000,3972000,-0.00040222192,-0.005201891,0.0019537418,0.018511072,0.13299361,0.10575139
3984000,3984000,0.00051531265,-0.0045076944,-0.0006588405,0.11723064,0.0118047865,-0.07449891
3992000,3992000,-0.00021548977,-0.005288668,-0.0017756026,-0.060707286,-0.068212755,-0.123432085
4004000,4004000,-0.001343739,-0.0054689664,-0.0003292105,-0.0018709376,-0.024476154,0.048869755
4012000,4012000,0.00016038388,-0.005103149,-0.00026998913,0.11490646,0.0347303,0.05530054
4024000,4024000,-0.0021732128,-0.0014056487,0.000804081,-0.115146786,0.12454518,0.13083689
4032000,4032000,-0.0009603926,-0.0028207076,-0.000566042,0.05188792,-0.076879136,-0.11226888
4044000,4044000,0.0027294597,-0.0023086348,-0.002001487,0.2268582,0.16457398,-0.080400385
4052000,4052000,-0.0016533372,-0.0031047368,-0.0029021176,-0.29189184,-0.09974508,-0.093153074
4064000,4064000,0.0004261767,-0.0050390344,-0.002104888,0.1407953,-0.15040733,-0.022985643
4072000,4072000,0.0001996851,-0.004451095,-0.0034094153,-0.012030132,0.028611967,-0.12844796
4084000,4084000,-0.0047798054,-0.0008802181,-0.0031446505,-0.2763142,0.18651794,0.059205886
4092000,4092000,-0.003186881,-0.0016786188,-0.0020565386,0.045735948,-0.017900372,0.11755036
4104000,4104000,7.868849e-05,-0.002310573,-0.00010622328,0.28915942,-0.14160657,0.1968934
4112000,4112000,-0.0011125825,-0.004825838,-0.0007409999,-0.061764643,-0.2082293,-0.025831852
4124000,4124000,-0.0021012113,-0.00093206693,-0.003132928,0.021055736,0.1791729,-0.052214134
4132000,4132000,0.0012415906,-0.0019483331,0.001243202,0.28396714,-0.047942907,0.3250908
4144000,4144000,-0.0005936411,-0.003028698,-0.00042950164,-0.088360704,-0.08628684,-0.061965756
4152000,4152000,0.0010610068,-0.006538205,-0.00025254395,0.112050734,-0.31641126,0.007953716
4164000,4164000,-0.0025904095,-0.0005223721,-0.002030681,-0.17534733,0.45805064,-0.14853069
4172000,4172000,0.001253278,-0.0021333809,-0.0012513517,0.2588886,-0.027900174,0.045843236
4180000,4180000,0.00079460646,-0.0012054795,0.0005446279,0.005443774,0.093907066,0.13841738
4188000,4188000,-0.0020797658,-0.004235369,0.0003695807,-0.23714504,-0.2696479,0.041824527
4200000,4200000,-0.00090478116,-0.0013545409,-0.002571307,0.17632857,0.27242565,-0.24621007
4208000,4208000,0.0011335043,-0.0020955687,0.00027409103,0.204041,-1.8517825e-05,0.17947115
4220000,4220000,-0.0012609168,-0.0022924913,-0.00023453927,-0.06686458,0.023609262,-0.030549748
4232000,4232000,0.0014871148,-0.0022429042,-0.0010240816,0.08652032,-0.07457047,-0.028167209
4244000,4244000,0.0010618885,-0.0011693165,-0.0032525486,0.004788953,0.058117773,-0.20938788
4252000,4252000,-0.00061584386,-0.00042181648,-0.0021888912,-0.16314483,0.11081119,0.04774907
4260000,4260000,-0.0003465276,-0.00016959058,-0.0018948088,-0.00078618526,0.014949693,0.027068527
4268000,4268000,-0.0016586618,-0.0033206008,-0.00090651325,-0.12545072,-0.27000344,0.08869282
4280000,4280000,0.0017845025,-0.002381633,-0.001281938,0.23519042,0.020278977,0.007749493
4288000,4288000,0.0021631112,-0.0026564323,0.00065477425,0.11042644,-0.0038052222,0.16909158
4304000,4304000,-0.00029969082,-0.0014439188,-0.0024436922,-0.2146067,0.035889577,0.007378452
4312000,4312000,0.0002924893,-0.0032638828,-0.00087673933,0.0025876611,-0.14922425,0.13723588
4320000,4320000,0.0009993683,-0.002120228,-0.00019393605,0.04326027,0.08447769,0.09324757
4328000,4328000,0.00093307253,-0.00037841685,-8.399994e-05,0.030303488,0.14843434,0.029498452
4340000,4340000,0.0018252435,-0.0033704005,-0.0012802224,0.0024602711,-0.20488892,-0.019210164
4348000,4348000,0.0012451535,-0.0024406137,-0.00010474876,-0.067826584,0.051728748,0.066912316
4360000,4360000,-0.0015870226,-0.003039373,-0.003253375,-0.16322811,-0.09017795,-0.14764848
4368000,4368000,0.0022719493,-0.0009445674,-0.0012588622,0.26092422,0.1740527,0.12510294
4380000,4380000,-0.00084494485,0.0009356197,-0.0024138612,-0.17485823,0.16643178,-0.039319158
4388000,4388000,-0.0041275015,-0.0008583539,-0.0025766795,-0.31498092,-0.12490145,-0.027943807
4404000,4404000,-0.0021978596,-0.00018440047,-0.002647863,0.034338325,0.0043562045,0.058325224
4412000,4412000,-0.0007541401,-0.0009778282,-0.0005903969,0.1389098,-0.062145036,0.19483258
4424000,4424000,-7.751526e-05,-0.0032483446,0.00017581461,0.08253293,-0.14749537,0.031878594
4432000,4432000,-0.00042876462,-0.0033681788,-0.0010318067,0.02171039,-0.05879172,-0.09550179
4444000,4444000,-0.00026560563,2.1947082e-05,0.0003043468,-0.12764448,0.24249874,0.0772942
4452000,4452000,-0.002018215,-0.0019925777,-0.0027642008,-0.16780865,-0.12541847,-0.22170326
4464000,4464000,-0.0006667857,0.0010888255,-0.0020253821,0.15294142,0.22305241,-0.015015015
4472000,4472000,0.0013834792,0.001661771,-0.0038615982,0.18107699,0.07322804,-0.14412583
4484000,4484000,-0.0010878256,-0.00012423936,-0.00218216,-0.18713683,-0.063329056,0.08328545
4492000,4492000,-0.0009309987,-0.00019279076,-0.00014691777,-0.015622228,-0.043381255,0.20340264
4500000,4500000,0.00087531155,0.0011763137,-0.0013204992,0.1508483,0.12794942,-0.04819666
4508000,4508000,0.00044910208,0.00046615535,-0.0018535759,-0.017499417,-0.036718234,-0.068933025
4524000,4524000,0.0007990267,-0.0009575053,-0.0013574975,0.011384957,-0.21716985,0.11052341
4532000,4532000,-0.0020159008,-0.0020102896,5.0439732e-05,-0.22664149,-0.15134276,0.15502596
4540000,4540000,-0.00032532588,-0.002590633,-3.9359904e-05,0.0785725,-0.08022508,0.033985246
4548000,4548000,0.00021539134,5.375361e-05,0.0018143194,0.087031916,0.21855654,0.16921636
4560000,4560000,-0.001247198,-0.00083683804,-0.0003660461,-0.13900061,-0.12710342,-0.10363573
4572000,4572000,2.2608729e-05,-0.002066074,-8.443603e-05,0.033468876,-0.041469462,-0.08956148
4584000,4584000,-0.00071401126,0.0006200825,0.00030010275,-0.006887002,0.14011905,0.11046498
4592000,4592000,0.00028400344,-0.0028556725,0.0009601576,0.071154684,-0.25586748,0.017155226
4604000,4604000,-0.00096769223,0.0013433613,-0.0013202011,-0.062270764,0.20818484,-0.03176946
4612000,4612000,-0.0002713998,-0.0007373439,-0.0019054238,0.040699594,-0.11448675,-0.06446859
4624000,4624000,-0.0014950121,0.00013607927,0.0014780592,-0.08823782,0.083334446,0.27382785
4628000,4628000,-0.00017302932,0.00023165578,0.0026258447,0.091762684,0.057782907,0.2794671
4644000,4644000,0.00059350615,-0.0042274483,-0.0024206275,-0.04823704,-0.18712358,-0.39312443
4648000,4648000,-0.00039853022,-0.0036713462,-0.004074279,-0.13411283,-0.046922248,-0.4018458
4664000,4664000,-0.0025549054,-0.00016094837,0.0006413115,-0.1517527,0.17664579,0.20131238
4672000,4672000,-0.0019156449,-0.00027639093,-0.0016685945,0.009581305,0.025279598,-0.09352715
4684000,4684000,-0.00019016664,0.0014047325,-0.0045780884,0.14877266,0.048623487,-0.3363019
4692000,4692000,0.0011456423,0.0007230253,-0.006156195,0.12461836,-0.022595441,-0.15927318
4704000,4704000,-0.00024094281,0.0015100529,-0.0006513838,-0.06484346,0.104547195,0.25246727
4712000,4712000,-0.00038517767,0.0021967853,-0.0018312384,-0.042579394,0.054878052,-0.024393966
4724000,4724000,-0.00082000333,-0.0016604927,-0.00023272308,0.071393214,-0.26409042,0.11468771
4732000,4732000,0.00079512957,0.0015545462,0.00096662715,0.124802165,0.22353096,0.1551656
4744000,4744000,3.126508e-05,0.0016125895,-0.0014622412,0.039838225,0.055300407,-0.07603992
4752000,4752000,0.0009220543,0.0036817084,-0.0028521281,0.08346605,0.17493421,-0.13948555
4764000,4764000,0.00038356462,0.0015335158,-0.0027184167,-0.040938724,-0.21870887,-0.102733545
4768000,4768000,-0.00033992121,-0.00050741015,-0.0062049143,-0.101091444,-0.34402537,-0.4332558
4784000,4784000,0.0006392,0.00022315467,-0.004782844,-0.025217943,0.13928321,-0.012049911
4792000,4792000,0.0003450106,0.0026870836,-0.0043982444,0.034854688,0.23045434,0.040106118
4804000,4804000,0.005141799,-0.00024713343,-0.0033402732,0.275067,-0.17598215,0.104604065
4812000,4812000,0.0026583178,-0.002627919,-0.0041714166,-0.15359929,-0.24281403,-0.058634218
4824000,4824000,0.0015360917,-0.0011198916,-0.0069130817,-0.10238561,0.16085815,-0.09459598
4832000,4832000,2.0077103e-05,0.0029297185,-0.0034365102,-0.1585733,0.35245776,0.22860229
4840000,4840000,0.00047503365,0.0009164759,-0.0037645947,0.023902744,-0.045433663,0.05824078
4848000,4848000,0.0038874885,0.003224508,-0.0028922572,0.28581288,0.17927594,0.08367327
4860000,4860000,0.000936762,-0.00010060845,-0.0045274943,-0.16121925,-0.16341534,-0.008281055
4868000,4868000,0.0006677242,-0.00042099832,-0.002712896,-0.06292021,-0.07975347,0.0970002
4884000,4884000,0.0019066873,0.00028562313,-0.0015998849,-0.106157854,-0.017163122,0.1415588
4892000,4892000,-0.0013829449,-0.00010352768,-0.0014487882,-0.29181144,-0.048037194,0.045703422
4904000,4904000,0.0010884353,0.0002617482,-0.0008007714,0.19416232,0.047850788,0.060410373
4912000,4912000,0.0012328523,-0.00044885091,-0.0021915436,0.048135977,-0.07090459,-0.11493547
4924000,4924000,0.0022815964,-0.00013575796,-0.002122303,-0.0076177865,0.05132441,0.0091645
4932000,4932000,0.0023551602,-0.0005112435,-0.0018715666,0.027981304,-0.030266983,0.016666003
4944000,4944000,-0.0023129764,0.0025975993,-0.0037855085,-0.34197682,0.26404202,-0.050475102
4952000,4952000,-0.0017199807,0.0034391324,-0.0033634815,-0.025977746,0.115045115,-0.0041482914
4964000,4964000,0.0018181561,0.0012844233,-0.0024902483,0.18280266,-0.026585491,0.15543985
4972000,4972000,0.0021891603,-0.00060071005,0.00084629306,0.07728081,-0.1813901,0.30469647
4984000,4984000,-0.00058444426,-0.00024314225,-0.0013885509,-0.14043263,-0.07209106,-0.17261748
4992000,4992000,-0.00090611586,0.0012633484,-0.0026917807,-0.08628246,0.12383601,-0.12114659
5004000,5004000,0.0019430048,0.0029824595,-0.0014305713,0.18073943,0.14002556,-0.011984696
5012000,5012000,0.0010130781,0.00078362366,-0.006835402,-0.042577825,-0.18598765,-0.4601357
5024000,5024000,0.0003441075,0.0016527269,-1.1116965e-05,0.0014144331,0.1770906,0.45949513
5032000,5032000,0.0030898012,0.0030878924,-0.0024405532,0.23297366,0.12620664,-0.09956117
5044000,5044000,0.001356695,0.0022915495,-0.0024983392,-0.14352134,0.0885137,0.095424764
5052000,5052000,-0.00022597588,0.0026310417,-0.0012350023,-0.14972563,0.05084748,0.09886266
5060000,5060000,0.001305593,0.0020081738,-0.0034300704,0.07450543,-0.054781813,-0.1587539
5068000,5068000,0.00039567682,0.00056870375,-0.00304536,-0.082800835,-0.12770234,-0.012378903
5084000,5084000,0.0027889977,-1.6789883e-05,-0.0031368237,0.22977623,-0.07061127,0.063889414
5092000,5092000,0.00037681474,-0.0012926809,-0.0026144632,-0.09642729,-0.13075453,0.053572122
5104000,5104000,-0.00077844283,-0.0006668512,-0.0034478162,-0.21554789,0.058249258,-0.075627446
5112000,5112000,0.00071659347,0.0024862946,-0.0032367674,0.092316076,0.27803355,0.0024203204
5124000,5124000,0.0007384147,0.0018572088,-0.0016965397,-0.039767154,0.010651569,0.103006564
5132000,5132000,-0.0016333488,0.0010665096,-0.0029410194,-0.20980361,-0.076031834,-0.05515774
5144000,5144000,0.0010566923,0.0015645935,-0.0023938378,0.23729962,0.14275771,-0.027251909
5152000,5152000,0.0012175608,0.0013089646,-0.0043047145,0.018624887,-0.04334579,-0.16993502
5164000,5164000,3.0455878e-05,8.557085e-05,-0.0038917856,-0.006550085,-0.04559953,0.026879966
5172000,5172000,-0.0011516454,0.0008093226,-0.0016116931,-0.10341133,0.056390528,0.1867079
5180000,5180000,0.0008668342,-0.000348276,-0.0012982142,0.15326019,-0.08668817,0.09277254
5192000,5192000,0.0013894232,-0.0021604737,-0.00040993362,0.022455033,-0.09182081,0.017306266
5204000,5204000,4.5604655e-05,0.00028308155,-0.0045766076,-0.0011954159,0.1363655,-0.2308766
5212000,5212000,0.0005378921,0.00013654632,-0.003878316,0.015680742,0.042048134,-0.037340272
5220000,5220000,0.00096932054,-0.00069812126,-0.0032309685,0.06306132,-0.08392703,0.07026017
5228000,5228000,0.002030868,-0.001024778,-0.0030331372,0.09619148,-0.029220916,0.019336995
5244000,5244000,-0.0009820004,-0.00018897746,0.0011073519,-0.14450368,-0.08553912,0.41998202
5252000,5252000,-0.001513919,-0.0013114484,0.0016259593,-0.11459701,-0.059541304,0.12099565
5264000,5264000,0.001469839,0.0014419365,0.00075905817,0.21898252,0.008484065,0.04649761
5268000,5268000,0.0031099492,-0.0007991134,0.00051259645,0.3011068,-0.23600236,2.3180226e-05
5280000,5280000,0.0029638396,-0.0013878462,-0.0033717798,-0.015466571,-0.045182705,-0.26798198
5288000,5288000,0.0013316501,-0.0010637958,-0.0073260786,-0.1558227,0.036107015,-0.40520507
5304000,5304000,0.00029238954,0.00046279747,-0.0020634253,0.01404091,-0.028314568,0.23125863
5308000,5308000,0.0015628297,0.00043151993,-0.0016291204,0.14453582,-0.01950433,0.17852128
5324000,5324000,0.0020934737,0.0008711568,-0.0045329807,-0.05416242,0.0016495967,-0.050072066
5332000,5332000,0.0018630495,-0.00033481792,3.4814933e-05,-0.012947623,-0.084994934,0.3605631
5340000,5340000,0.002641597,0.0027429457,-0.00026778562,0.037981883,0.24976033,0.06984512
5348000,5348000,0.00060924306,0.0010339674,0.001845377,-0.17044625,-0.11999679,0.22996832
5364000,5364000,-0.000938775,-0.0012752316,-0.0004760184,-0.003566198,0.15599266,-0.14216346
5372000,5372000,0.001612967,0.000592859,-0.0012505215,0.18966985,0.16979887,-0.11266437
5384000,5384000,0.0039603175,0.0010004933,-0.0048390506,0.26292965,0.10163158,-0.2264713
5392000,5392000,0.0014285248,-0.0021075536,-0.004755299,-0.14885557,-0.23653154,-0.049364395
5404000,5404000,0.00013851852,0.00036190916,-0.0014541328,-0.106208175,0.07208425,0.24525312
5412000,5412000,0.0016136838,0.00010114629,0.00016283593,0.10280654,0.038597237,0.19824845
5424000,5424000,0.001499839,0.00049236976,-0.004114678,-0.048823792,-0.017654348,-0.25553185
5432000,5432000,0.00072975096,0.0008428227,-0.0030621053,-0.041052308,0.038471244,0.013565452
5444000,5444000,0.0010199451,-0.00043846387,-0.0030955083,-0.08262384,-0.12696837,-0.015940147
5452000,5452000,-0.00035031757,0.00047150208,-0.0020954458,-0.14127623,0.051141985,0.10191895
5464000,5464000,-0.0007821758,0.00014836853,-0.0010449523,-0.013828766,-0.068087935,0.010526582
5472000,5472000,-0.00079791097,-0.001522989,-0.0026560691,-0.026453104,-0.14882031,-0.115020715
5484000,5484000,4.281674e-05,0.00038061105,-0.0041481997,0.092853256,0.08646287,-0.1255248
5492000,5492000,0.00026688958,0.001002186,-0.003625647,0.016443558,0.09791615,0.026037266
5504000,5504000,0.00092761405,0.0016452526,-0.0035306276,0.11181156,0.077898346,-0.02915865
5512000,5512000,0.0005121586,0.0030463373,-0.00291745,-0.012043618,0.12677398,0.08459051
5524000,5524000,0.0008158183,0.0015465673,-0.0028121537,0.16843218,-0.039067943,-0.1010966
5532000,5532000,0.001412662,0.0015895697,-0.0033471447,0.052152365,-0.032024454,-0.055700272
5544000,5544000,0.0020322388,0.0013218638,-0.0023295367,0.079164594,0.03295103,0.08302679
5552000,5552000,0.0024188743,0.00078458665,-0.0011151792,0.062256794,-0.054007374,0.105687946
5564000,5564000,0.0007697805,0.0013704398,-0.003789329,-0.16632889,0.10014512,-0.14228402
5572000,5572000,0.00045602745,0.0039658207,-0.0034991063,-0.04735773,0.25740498,-0.019426199
5584000,5584000,-0.00044462038,-0.0010670125,-0.0021605399,-0.05385963,-0.3486905,0.09392259
5588000,5588000,0.00027716788,-0.0016104043,-0.0026033018,0.046861522,-0.25719613,0.0059658205
5604000,5604000,0.00053937756,0.0006201817,-0.0005166769,0.10679558,0.07597206,0.099298336
5612000,5612000,0.0021449616,-1.9751955e-05,-0.0027137217,0.16893618,-0.016797254,-0.17748302
5624000,5624000,-0.0017253333,0.0005880529,-0.0046470817,-0.29536587,0.09772064,-0.031566843
5632000,5632000,-0.0015336373,0.0012914399,-0.0026775892,-0.032339767,0.07541348,0.13816981
5644000,5644000,-0.000799387,0.001118192,-0.0013844387,-0.07683525,-0.006748824,0.08889831
5652000,5652000,0.00014860928,-0.00019251183,-0.0024955813,0.09479459,-0.13215335,-0.05090752
5660000,5660000,0.0011646531,0.0009895316,-0.0019920391,0.07264203,0.07173292,0.021136502
5668000,5668000,-0.002007755,0.0011015832,-0.002738632,-0.22225022,0.038718253,-0.045195755
5684000,5684000,-0.0004127859,0.0021004123,-0.0018556919,0.044647794,0.00554995,-0.090611055
5692000,5692000,0.00022525899,0.0032459777,-0.0025780594,0.09618234,0.12990107,-0.064724624
5704000,5704000,0.00040111155,0.0026334764,-0.0014336191,0.004634373,-0.07413525,0.031156924
5708000,5708000,0.00041508488,0.0017870073,-0.0030974806,0.0041438756,-0.1332345,-0.161047
5720000,5720000,-0.0028043396,-0.0016974881,-0.0022874875,-0.25357014,-0.24166045,0.097418495
5728000,5728000,4.5798253e-05,-0.0010562809,-0.001437038,0.20729627,-0.009044991,0.059844922
5744000,5744000,0.00023160409,0.0007381076,-0.0030203692,-0.0639165,0.07107102,-0.09439762
5752000,5752000,-9.211246e-05,-0.00012252294,-0.0032169647,-0.039081354,-0.020235995,-0.024272777
5764000,5764000,0.0007229428,0.0014678901,0.0011820002,0.069114126,0.020845931,0.26016432
5772000,5772000,0.0003693268,-0.0001627598,-0.0021722089,-0.027315285,-0.12748016,-0.20981038
5784000,5784000,0.0001762202,-0.00055867434,-0.00055663416,0.02490956,-0.07842031,0.1479193
5792000,5792000,0.00044252886,-0.001516493,0.0008113384,0.0041384473,-0.08463201,0.1122429
5800000,5800000,-0.002047024,6.420072e-05,-0.0025918297,-0.19431305,0.10301233,-0.22363406
5808000,5808000,-0.00034030527,0.0024038947,-0.0031139841,0.0881425,0.25795537,-0.12797791
5824000,5824000,0.00030238112,-0.00014537014,-0.0014855503,0.13939713,-0.19660103,0.078537665
5832000,5832000,0.0032951175,-0.004312667,-0.0027574804,0.26949805,-0.43406862,-0.07101445
5844000,5844000,0.002807618,-0.0012557306,-0.0034694632,0.06567454,0.15527755,-0.04272621
5852000,5852000,0.0026079833,-0.0013527628,-0.0019005411,-0.020651136,0.031157177,0.11065726
5860000,5860000,0.0011354019,-0.0019440791,-0.003008658,-0.11120192,-0.03505317,-0.06961277
5868000,5868000,0.0010502223,-0.0014294605,-0.0038041028,-0.07075002,0.052434076,-0.050471906
5880000,5880000,0.0024852073,0.000500788,-0.00029602845,0.13505799,0.100650035,0.11656939
5888000,5888000,0.00047832727,-2.381904e-05,-0.0017078773,-0.14025773,0.011854096,-0.0583712
5904000,5904000,0.0013693892,0.0031402283,-0.0034222677,0.08234112,0.07842661,-0.18768024
5912000,5912000,0.0019474466,4.3710228e-05,-0.0020871228,0.051043916,-0.2429623,0.10591094
5920000,5920000,0.00015000242,0.0021502003,-6.2481384e-05,-0.11664133,0.10533635,0.15322588
5928000,5928000,0.0004645296,0.00028422847,-0.00047358073,-0.0048019104,-0.115664914,-0.016627772
5940000,5940000,0.0013385683,-0.0005525751,-0.002161785,-0.01943259,-0.15075378,-0.11761078
5948000,5948000,-0.0019578664,0.0012856275,-0.00102167,-0.27126232,0.12808436,0.060282018
5960000,5960000,-0.00238667,0.00036784261,0.0004594425,-0.07519795,-0.031803843,0.13547894
5972000,5972000,-0.0012905797,-0.00026911497,0.0007419898,0.15014559,-0.014574666,0.08050839
5980000,5980000,0.0013033595,0.0005171774,0.00060448213,0.24446902,0.07774714,0.0017599887
5992000,5992000,0.0009923996,0.0013839086,-0.0007636894,0.06986721,0.03369871,-0.10695241
6004000,6004000,0.0008876326,-0.00053881994,-0.00063975254,-0.031463817,-0.15923168,0.016008409
6012000,6012000,0.0021358319,-0.0027477555,0.000654613,0.13155288,-0.20205623,0.12336617
6020000,6020000,-0.00018164096,0.00060935505,-0.0018548865,-0.21628046,0.22594851,-0.20031749
6032000,6032000,0.001072332,-0.0024974793,0.0005329669,0.10231763,-0.297817,0.15801832
6040000,6040000,-0.00031187513,-0.00024548452,0.00058982696,-0.083231494,0.15278111,0.05348419
6052000,6052000,0.0029508816,0.0017296625,0.0020973855,0.19978514,-0.0030027493,0.08316909
6064000,6064000,0.00035780028,0.0011718655,-0.0010241019,-0.18701558,-0.00738284,-0.21913007
6072000,6072000,4.9156253e-05,-0.00040493906,-0.0015070194,-0.053854566,-0.13279706,-0.09158919
6084000,6084000,-0.0014854722,0.00023220293,-0.0024041785,-0.16383897,0.06578446,-0.08038406
6092000,6092000,-0.00081149756,-0.0022551324,-0.0032208394,0.012107626,-0.21315394,-0.08941232
6100000,6100000,0.0025730869,-0.00014217012,-0.002006079,0.31754148,0.15457475,0.082740106
6108000,6108000,0.002357995,0.0021745074,-0.0015250427,0.0357686,0.20807165,0.051088545
6120000,6120000,-0.00065329636,-0.0009634611,-0.0006604342,-0.19366364,-0.11190232,0.10308958
6128000,6128000,0.0011275527,0.0033799605,-0.00077127543,0.12909557,0.29654512,0.0023072748
6140000,6140000,-0.0015690235,-0.00079492247,-0.00031001976,-0.32515177,-0.12370697,0.023643134
6148000,6148000,-0.0020823297,0.003114981,-0.0024225255,-0.104154564,0.29053515,-0.16813803
6164000,6164000,0.001944527,-0.0017362097,-0.0017971296,0.11876717,-0.3277616,0.14259654
6172000,6172000,-0.00072443543,-0.0009787343,-0.00014245522,-0.17306726,-0.009086217,0.15014264
6184000,6184000,0.0015610473,0.0019468202,-0.0012335773,0.12625296,0.11498541,-0.09522024
6188000,6188000,0.0028978325,-6.648246e-05,-0.004880206,0.21564135,-0.15080723,-0.4461811
6200000,6200000,0.0021649885,-0.0015203217,-0.004547396,-0.043285258,-0.12803973,0.14108619
6208000,6208000,0.0010269757,-0.0023811767,-0.0012989513,-0.11307441,-0.08816756,0.31143436
6224000,6224000,0.0012091987,0.0008646101,-9.250827e-05,0.008825869,0.2675907,-0.1066149
6232000,6232000,0.0018316214,0.001171073,-0.0040385327,0.074053004,0.10730891,-0.3531227
6240000,6240000,0.0035292478,0.0010872288,-0.0016737849,0.13318877,0.0065549184,0.10695489
6248000,6248000,0.0009374533,0.001197861,-0.00073167204,-0.155799,0.027302338,0.10692203
6260000,6260000,0.0021697427,-0.0028716177,-0.00017995248,0.0040170997,-0.3646616,0.08636984
6268000,6268000,0.00024735043,-0.0050278977,-0.0014288642,-0.17081472,-0.24629818,-0.076147065
6284000,6284000,0.0028047431,0.0011166665,-0.001191125,0.031742096,0.25521016,-0.27151787
6292000,6292000,0.0005818623,0.001499963,-0.002768293,-0.15618955,0.08550731,-0.18600559
6300000,6300000,0.0008271292,-0.00012642704,-0.0012565239,-0.022335116,-0.09458606,0.077498175
6312000,6312000,-0.0012486468,-0.0015106443,-2.9525487e-05,-0.155901,-0.113961264,0.06956551
6324000,6324000,0.0006693981,-0.0034648841,-0.0017078521,0.007895604,-0.22347379,-0.120508365
6332000,6332000,-0.00035103364,-0.0006389478,-0.0026345456,-0.042702347,0.20760183,-0.1124336
6344000,6344000,0.0021168673,-0.00021956395,-0.0012774575,0.10485288,-0.0068991943,0.068361185
6352000,6352000,4.3272157e-05,0.0021934954,-0.00068552326,-0.13110416,0.21743998,0.07564946
6360000,6360000,0.00078302145,0.002510713,-0.0013845314,0.026470933,0.08087294,-0.059476044
6368000,6368000,0.002065828,-0.0010873615,-0.0002802898,0.111691706,-0.2766396,0.12211405
6384000,6384000,0.0010457506,0.0028983827,-0.0020573009,0.030025207,0.20136647,-0.20729
6392000,6392000,0.0011465072,-0.0004344983,-0.0040426534,-0.017925061,-0.22142956,-0.22083403
6400000,6400000,0.0006225351,-0.0032007517,-0.0026989707,-0.02969883,-0.28885752,0.057395373
6412000,6412000,0.0010184095,-0.0020787446,-0.0026615867,0.031573504,0.03823911,-0.07087663
6424000,6424000,0.0012092968,0.0015422674,-0.001788051,0.024363533,0.10875783,0.058421463
6432000,6432000,0.0019907693,0.00034634816,-0.0034428607,0.063927025,-0.018806899,-0.1324734
6440000,6440000,0.0011651886,0.0012827944,-0.0032131486,-0.0591861,0.04862972,-0.012883744
6448000,6448000,2.0242645e-05,0.0005047573,-0.0034814107,-0.11047284,-0.0544589,-0.023752563
6464000,6464000,-0.0005152873,0.0019025467,0.0025273385,-0.1103436,-0.027313016,0.38368723
6472000,6472000,0.0008465963,0.0021258695,-0.00021533435,0.10091605,0.0199909,-0.14554036
6484000,6484000,0.0003959108,0.0007434315,-0.003989468,-0.0055088494,-0.013493237,-0.18483958
6492000,6492000,0.0006986725,-0.0004139617,-0.0036815319,0.0043325685,-0.110349745,-0.05829813
6504000,6504000,0.0008362663,0.0005055042,-0.0027262205,0.06555736,0.05485353,0.079160795
6512000,6512000,0.0027297477,-0.0007603392,-0.002660729,0.18848267,-0.12543163,0.031543646
6524000,6524000,0.0018856649,0.00039166445,-0.0025062822,-0.07781936,0.12078491,0.0048562945
6532000,6532000,0.0008553849,0.0013492731,-0.0026107954,-0.08764503,0.10366553,0.0026809908
6544000,6544000,-0.00012566429,0.001721289,-0.0016161425,-0.1462958,0.08439455,0.058964185
6552000,6552000,0.0014704159,0.0009038891,0.00025460357,0.13673168,-0.06005091,0.20593083
6564000,6564000,0.0049865246,0.0012567923,0.0001844163,0.1782498,0.0033000235,-0.07131679
6568000,6568000,0.003929535,-0.00017468957,-0.0025573936,-0.011965908,-0.15195592,-0.3353146
6580000,6580000,0.0010837186,0.0024420682,0.0006814883,-0.1523923,0.16531795,0.36354026
6588000,6588000,0.0022761747,-0.0009098202,-0.0012626541,0.047899045,-0.17490701,-0.0966872
6604000,6604000,-8.967728e-05,0.00041213445,-0.0040050666,-0.024136446,-0.15571757,-0.25695932
6608000,6608000,0.0012691668,0.0007111472,-0.0049470547,0.13227025,-0.05664537,-0.24773335
6620000,6620000,0.003470729,-0.0016584699,0.00028432254,0.26065674,-0.19760874,0.31209677
6628000,6628000,0.0021282402,-0.0021709115,0.001729697,-0.075217955,-0.09371381,0.235894
6640000,6640000,0.00024826603,0.00023536896,-0.0012538589,-0.08497591,0.13336603,-0.24929968
6652000,6652000,0.0016559962,0.00014084391,-0.002402015,0.12952714,-0.0022165102,-0.009130798
6664000,6664000,0.003760498,-1.5900005e-05,-0.0028723378,0.093841046,0.072723,-0.086849175
6672000,6672000,0.0018872032,0.0022933215,-0.0013535321,-0.15088093,0.2398999,0.12880228
6684000,6684000,0.00044783647,-0.001286305,-0.00028412393,-0.050147135,-0.32280517,0.046199962
6692000,6692000,-0.00020493718,9.084726e-05,-0.001915653,-0.07126353,0.062228847,-0.11714845
6704000,6704000,0.0010454858,-0.0019863788,-0.0036483943,0.052901156,-0.20653597,-0.115343235
6712000,6712000,0.00011367269,1.6883016e-05,-0.0013041797,-0.061804593,0.120247126,0.15050353
6724000,6724000,0.0035117124,7.983809e-05,-0.0022948121,0.27991924,0.019163046,0.048035093
6728000,6728000,0.0042451387,0.0014137789,-0.0021787765,0.23841,0.15428035,0.03985633
6744000,6744000,0.0014419365,-2.8080307e-05,-0.0012744013,-0.07368468,-0.19902283,0.0015264044
6752000,6752000,0.0024099243,-0.00066444,-0.0030336545,0.017859545,-0.08618637,-0.24922344
6764000,6764000,-0.001213683,0.001909297,-0.00038659124,-0.158463,0.10501347,0.21225713
6772000,6772000,0.0022596337,0.0003536516,0.0026944205,0.23728445,-0.08603629,0.2878847
6780000,6780000,0.0011090699,0.0012480677,0.0002201377,-0.04758259,0.030061629,-0.121310964
6792000,6792000,0.0007834587,0.0004628431,0.00094481575,-0.03058971,-0.020379154,0.07714923
6804000,6804000,0.0018307706,-0.0011834954,-0.0016863055,0.03157551,-0.16831827,-0.20261969
6812000,6812000,4.8896065e-05,0.0006210827,-0.0044818064,-0.14298373,0.13195713,-0.2883665
6824000,6824000,0.0006803253,-0.00057459343,-0.0011888228,-0.019553538,-0.17174691,0.18684217
6832000,6832000,0.00049231853,0.0008528633,0.0005232159,-0.009373277,0.07059407,0.18425086
6844000,6844000,0.002827621,0.00030714972,-0.003213864,0.14502925,0.042008214,-0.17113973
6852000,6852000,0.0018040863,0.0019007449,-0.00066828553,-0.042105593,0.121862926,0.14914958
6864000,6864000,-9.598711e-05,0.0016019088,0.0011833711,-0.1458877,0.0787343,0.19186541
6872000,6872000,0.0011049067,0.0013489393,0.0007871816,0.06624523,-0.031964324,0.009525507
6884000,6884000,0.0037198614,-0.00018139975,0.0018725602,0.112753205,-0.1220279,0.13850808
6892000,6892000,-0.00019262859,-0.0029231468,0.00040410733,-0.28514415,-0.23921347,-0.11944346
6904000,6904000,-0.0027932033,0.0016474514,0.0011344806,-0.23188522,0.19905788,0.11931768
6912000,6912000,-0.0012432293,-0.0022094967,9.087211e-05,0.085110165,-0.2617633,-0.07973545
6924000,6924000,0.0018517348,-0.004734329,-0.0007196732,0.12902127,-0.18725978,0.01267999
6932000,6932000,0.0010907453,0.0004488174,-0.0016028949,0.0018852977,0.3983902,-0.09794825
6940000,6940000,0.0010269415,0.0005657156,-0.0009182596,-0.014032224,0.12171291,0.06856978
6948000,6948000,-2.2154767e-05,4.996825e-05,0.0014101276,-0.0866805,-0.029306673,0.19075692
6964000,6964000,0.00062453793,-0.00024165679,-0.0024218888,0.03530158,-0.0070744026,-0.09759396
6972000,6972000,0.00024034863,5.7933852e-05,0.00031307695,-0.039518103,0.056578215,0.20196474
6980000,6980000,0.000771969,0.0042188913,-0.00023349599,0.050853997,0.35296533,-0.0008024437
6992000,6992000,-0.00033764925,-0.000604799,-0.0043487377,-0.10070794,-0.27492517,-0.32354552
7004000,7004000,0.0006520702,0.00040476304,0.0003336626,-0.0015544966,0.02180265,0.2353214
7012000,7012000,0.0028167595,0.0005920455,-0.0010633903,0.20571017,-0.0068730405,-0.04494685
7024000,7024000,0.0019500771,-0.0020032367,0.0003519538,-0.071510546,-0.118600905,0.11173718
7032000,7032000,0.0018614316,0.0008636066,0.00015966641,-0.019949969,0.21129264,0.003312178
7044000,7044000,-0.0010139775,0.0014516115,-0.0021684596,-0.24876297,-0.023404023,-0.096689455
7052000,7052000,-0.0012355091,-0.0010690377,-0.0011978186,-0.09197218,-0.20002168,0.0706854
7060000,7060000,-0.0018514292,0.00032820087,-0.00020596053,-0.058031924,0.06936577,0.065750286
7072000,7072000,-0.0009285009,-0.00022661965,-0.0023796668,-0.06962831,-0.11294269,-0.13074711
7084000,7084000,-0.0022249462,0.000119776,-0.001382505,-0.10669989,-0.012253914,0.09931485
7092000,7092000,-0.000862675,-0.001075292,-0.0014311165,0.11712636,-0.102558926,-0.00036920042
7104000,7104000,0.0021294884,0.0023930965,-0.003319572,0.16738027,0.15823872,-0.10943546
7112000,7112000,0.002049786,0.00046302797,-0.0021607496,0.050866917,-0.081242345,0.0772459
7124000,7124000,0.00013893726,0.0043867626,-0.0029022668,-0.10057987,0.24874936,-0.007763199
7132000,7132000,0.0027550673,0.0023404532,-0.0009879866,0.19017743,-0.14675397,0.16540289
7144000,7144000,0.0019128658,-0.0013673613,-0.0032642852,-0.06314838,-0.20434627,-0.16670784
7152000,7152000,0.0012065956,-0.0005257502,-0.003150413,-0.07157011,0.015808009,-0.037230298
7164000,7164000,-0.0001076546,-0.0020963186,0.0004063486,-0.10704769,-0.08541492,0.25315246
7172000,7172000,-0.0006429113,0.00091219787,0.000998012,-0.104952514,0.22061889,0.120011434
7184000,7184000,-0.0007734201,0.0040089246,0.002693529,0.0719626,0.25032786,0.19750334
7192000,7192000,0.001385776,0.0043698726,-0.0005840216,0.19052194,0.0684316,-0.24562438
7204000,7204000,0.0015363512,-0.0013802228,-0.0039366796,0.035722192,-0.2880202,-0.2184078
7212000,7212000,0.00049752893,0.0015685121,-0.0010032658,-0.101154916,0.14511117,0.1776907
7224000,7224000,-0.0021247517,0.0005246373,0.00021173467,-0.16718104,0.032218438,0.084513605
7232000,7232000,-0.00010857009,-0.00011429982,-0.0022438413,0.14002845,-0.07216855,-0.19391663
7244000,7244000,0.003285193,0.00045842864,-0.0019925984,0.24335873,0.08190645,0.07528132
7252000,7252000,0.0052319746,-0.0003673369,-0.0011415425,0.21415864,-0.07124136,0.08295472
7264000,7264000,0.0022268435,-0.0013607596,-0.00048555376,-0.15947565,-0.15008628,0.023595216
7272000,7272000,0.0033695525,-0.0012153108,-0.00086128374,0.06254323,0.016951293,-0.020222496
7284000,7284000,0.0014572095,0.00037114043,-0.0009966868,-0.16084537,0.0813299,-0.03529186
7288000,7288000,0.0009394818,0.0013755686,-0.0017730428,-0.14734171,0.1543118,-0.10355382
7300000,7300000,0.0029497356,0.002534652,0.0007249065,0.087813064,0.0028115113,0.15306377
7312000,7312000,0.0009308586,0.0032072044,0.0019314552,-0.0987224,0.12607206,0.15991738
7324000,7324000,0.0032310425,0.0014539575,-0.00031682054,0.13691275,-0.09959552,-0.10353266
7332000,7332000,0.0003184228,-0.00081240386,-3.1930744e-05,-0.20845377,-0.2576913,-0.00015217143
7344000,7344000,0.0013691087,-0.0026916657,0.0004924103,0.09237863,-0.09658862,0.041759368
7352000,7352000,-0.002742236,-0.0011397367,-0.00012404614,-0.3154223,0.09238668,-0.12375606
7364000,7364000,0.00096439896,0.00052598724,-0.00051496585,0.2514704,0.041053683,0.037471116
7372000,7372000,0.00034373486,-0.002021642,0.0017693834,0.011226252,-0.1576138,0.18222986
7384000,7384000,-0.0026622075,-0.0021929839,0.00011548262,-0.13364087,-0.06028716,-0.108630426
7392000,7392000,0.00015074434,-0.0011874731,-0.001106009,0.15313673,0.08746062,-0.12181438
7404000,7404000,0.0014430452,0.00026171887,0.00077495724,0.15554065,-1.1527067e-05,0.05837755
7412000,7412000,-0.0010961121,-0.0014300365,0.0011675849,-0.18781182,-0.12733024,0.064340875
7420000,7420000,-0.0009453142,-0.0034964737,-0.00072882464,0.0020088926,-0.2327188,-0.15507683
7432000,7432000,7.7347155e-05,-0.00080207735,0.0015292536,0.0040988848,0.16381559,0.13568951
7440000,7440000,0.0009787917,0.002360039,-0.0019379791,0.08905137,0.31582862,-0.24965873
7452000,7452000,1.4611753e-05,-0.0028843395,0.0002557492,-0.14922516,-0.29799145,0.09872736
7464000,7464000,0.0027437634,-0.0022978438,-0.0021126405,0.2988826,0.04003034,-0.13006988
7472000,7472000,0.0028769695,-0.0015805205,-0.00072388013,0.05914948,0.081161454,0.07185647
7484000,7484000,-0.00024282816,0.0009974125,0.00054956286,-0.24410379,0.14035355,0.04095384
7492000,7492000,-0.004822305,-0.0019816179,-0.0010861667,-0.41431308,-0.21415287,-0.095904745
7504000,7504000,-0.001573492,-8.0579426e-05,-1.0303978e-05,0.12331357,0.15046138,0.023374902
7512000,7512000,-0.0021245633,0.0017803654,-0.0013835287,-0.022098675,0.17907093,-0.10104801
7524000,7524000,0.00023841241,0.0024540578,-0.0032895177,0.14628407,0.14434648,-0.17198983
7532000,7532000,1.5121186e-06,0.00201947,-0.0027401624,0.020910757,-0.013009898,-0.0016960579
7544000,7544000,0.0014150589,0.00027232105,-0.0009807931,0.102087066,-0.1836704,0.08908068
7552000,7552000,0.0022964745,-0.00026793685,-0.0018506509,0.10922572,-0.07903262,-0.0320687
7564000,7564000,0.0014800975,0.0010047443,0.0014109924,-0.03642533,0.12392054,0.3018606
7568000,7568000,-0.0003415154,0.0018534758,0.002056715,-0.21653087,0.16186178,0.24149418
7580000,7580000,0.0018650639,-0.00089906296,-0.003165101,0.22510913,-0.0676163,-0.3549617
7588000,7588000,0.0014026774,0.001002098,-0.0047957636,0.004700005,0.121177666,-0.22495194
7604000,7604000,0.0011040318,0.0006085932,0.0009883692,0.022193985,-0.020812526,0.400471
7612000,7612000,8.082145e-05,-0.0022638766,-5.2615535e-05,-0.08443527,-0.2788372,0.015708292
7624000,7624000,-0.0018674937,0.0004937933,-0.0002494781,-0.13847926,0.19083576,0.12136697
7632000,7632000,-0.0024403515,0.00040696887,-0.00021959818,-0.09627007,0.019376852,-0.0054327766
7644000,7644000,0.0023385566,0.0015554484,-0.0010552799,0.27118185,0.10874325,-0.035484128
7652000,7652000,0.0004038778,0.0026730625,9.457969e-05,-0.045478698,0.12461749,0.0936909
7664000,7664000,0.0007161394,0.0013277764,0.0016725534,-0.14569855,-0.14954413,0.11804037
7672000,7672000,-0.0010846785,0.0010487121,-0.00089557306,-0.13220324,-0.046801664,-0.17311586
7684000,7684000,-2.079527e-06,0.001889105,0.00063716806,-0.061933026,0.056025717,0.101525575
7692000,7692000,-0.0011666407,0.0014694156,0.0005668054,-0.10494765,-0.039849643,0.012709788
7704000,7704000,-1.5694066e-05,-0.0028029606,0.0026278503,0.08397683,-0.24758053,0.22959343
7712000,7712000,0.0009643858,-0.0028185835,0.003820733,0.1004607,-0.09502439,0.10872443
7724000,7724000,-0.00019301253,0.0006205579,-0.001440764,-0.06650729,0.263824,-0.23835872
7732000,7732000,0.0006159053,0.0028729879,-0.00076141173,0.04137359,0.26692706,-0.038945254
7744000,7744000,0.00029353634,0.0002485551,-0.0013337733,-0.00534129,-0.16831926,-0.086295605
7752000,7752000,0.0011099665,-0.0002789367,0.001408469,0.063389935,-0.08325636,0.23508342
7764000,7764000,0.0015668155,-0.00012889225,-0.000302417,0.026122592,-0.09293315,-0.111287996
7772000,7772000,-0.0011705031,-0.001943389,0.00086935307,-0.2211703,-0.15730074,0.07174142
7784000,7784000,0.0018572895,-0.0011760499,-0.0003788706,0.19697095,-0.023850994,-0.10951044
7792000,7792000,0.0011960296,-0.00041783322,-0.0015311715,0.020157065,0.059714023,-0.099644504
7804000,7804000,0.0023835348,0.0031795276,-0.00028695457,0.020552926,0.17610522,0.014549664
7812000,7812000,0.0041972175,-0.00031077582,-0.0021849915,0.1545762,-0.22434288,-0.16640358
7824000,7824000,-0.00073777314,0.00262026,0.0023831448,-0.30364305,0.06118668,0.35134026
7832000,7832000,0.0005354223,0.0006023827,0.0014817024,0.02534061,-0.097185045,-0.008058893
7844000,7844000,0.0028581796,-0.00083481474,-0.00076978793,0.11837074,-0.27778143,-0.12030234
7852000,7852000,-0.00035512738,-0.0012238547,-0.001345039,-0.23993272,-0.05947633,-0.086536616
7864000,7864000,0.0031084316,-0.0013895384,0.0016923695,0.22254193,-0.15234938,0.3155228
7872000,7872000,0.0011592793,-0.0003068163,0.0006218163,-0.113973305,0.092311196,-0.06253503
7884000,7884000,-0.0012276742,0.0010450818,0.0010599672,-0.11430831,0.01972051,0.050978787
7892000,7892000,-0.0003806817,9.7951386e-05,-0.0021655688,0.015423995,-0.059560116,-0.28105178
7904000,7904000,0.0016593403,0.0011292323,-0.0004365359,0.15198365,0.037687756,0.20944914
7912000,7912000,0.001312945,-0.0023339968,-0.0026280954,0.025616571,-0.27150068,-0.16169073
7924000,7924000,0.0013001018,-0.0007037679,-0.0028544248,0.0061244504,0.055684783,0.0725793
7932000,7932000,0.00094344997,-0.0012270766,-0.0008130375,-0.03978784,-0.02545987,0.17130367
7944000,7944000,0.0017610148,0.00068152416,-0.0012302855,0.07334446,0.107742935,-0.018646674
7952000,7952000,2.6910217e-05,-7.3378906e-06,0.0010188275,-0.100241736,-0.017081995,0.2019121
7964000,7964000,0.00037237688,0.0004922049,3.5420817e-06,-0.06906216,0.07541042,-0.033414375
7968000,7968000,-0.00067002664,0.0007555103,0.000719761,-0.15139869,0.07129052,0.05791948
7980000,7980000,-0.0012960563,0.0006454955,0.00033361098,-0.021334149,0.097338706,-0.050659917
7992000,7992000,0.00067904626,-0.0003737947,-0.0005475718,0.09694895,-0.17345123,-0.06375036
8004000,8004000,0.0002881937,0.00017719669,0.0008722226,0.045170546,-0.00212896,0.07777575
8012000,8012000,0.00023761613,-0.00012824917,-0.0018043951,-0.0067521147,-0.0071468037,-0.21165423
8024000,8024000,0.0004976236,0.0008346457,-0.00015030554,0.04265902,0.068449095,0.10127361
8032000,8032000,0.00083758077,0.0035834005,-4.6768866e-05,0.020449229,0.22468,0.040200584
8044000,8044000,0.00092700287,-0.0013219239,-0.001963987,0.017835967,-0.3470417,-0.058509555
8052000,8052000,0.0012395063,-0.00027700467,-0.0001769365,0.04742548,0.003545141,0.09389337
8064000,8064000,0.0012201687,0.0011312589,0.00064922794,-0.10241177,0.052157376,0.11977776
8068000,8068000,-0.0004606964,0.0017050067,0.00090196216,-0.23902602,0.09139563,0.09544968
8080000,8080000,0.00059931155,0.00067422586,-0.0016817275,0.099366285,-0.19082841,-0.121394455
8088000,8088000,0.00064799504,-0.0005473811,-0.0012228411,0.023562718,-0.113100864,-0.010455615
8104000,8104000,0.0012235169,0.0012362204,-0.0019781282,0.039663233,0.06670372,-0.108149186
8112000,8112000,0.0016437967,0.00062362105,-0.00076932996,0.036159053,-0.0070438003,0.066648155
8124000,8124000,0.0010554908,0.0031558655,-0.00016358652,-0.016124796,0.13549918,0.10128252
8132000,8132000,-0.00067451026,0.0007581506,0.0008592794,-0.1648772,-0.16242321,0.108214974
8144000,8144000,0.0004889467,-0.00022571767,-0.002057398,0.103836626,-0.16496484,-0.24669555
8148000,8148000,-0.00043151423,-0.001200716,-0.0018472837,-0.039718863,-0.19883195,-0.11806843
8164000,8164000,0.004007198,-0.00083639193,-0.00059846847,0.25216365,0.016316472,0.030569293
8172000,8172000,0.0009179927,-0.002703203,-0.000750624,-0.17368656,-0.15944263,-0.028010918
8184000,8184000,0.0018682452,0.0014189878,0.00012403695,0.00996767,0.21380365,0.1634734
8192000,8192000,-0.0008126084,0.00090069696,0.0019206785,-0.20433038,0.03709923,0.15746255
8204000,8204000,0.00045953586,0.003907687,0.0005400231,0.04512735,0.23381186,-0.04404756
8212000,8212000,0.0008980393,0.00088915136,9.924668e-06,0.069212854,-0.21650484,-0.05913492
8224000,8224000,0.00051146076,0.0020793853,0.00078910566,-0.10305837,0.11510185,0.1400328
8232000,8232000,-0.0005705311,0.0008175508,0.002683204,-0.09304686,-0.07144534,0.15896495
8244000,8244000,-0.00044805766,0.0010908563,-0.0018995826,-0.07838702,-0.032500852,-0.30722973
8252000,8252000,-0.0016686214,0.0012274585,-0.003350019,-0.09461133,0.016778627,-0.18917441
8264000,8264000,0.0013911533,-0.00083574513,-0.0020592136,0.18184254,-0.12647445,0.06657044
8272000,8272000,0.002955365,0.0026039288,-0.0016112635,0.1731359,0.24419504,0.044011094
8284000,8284000,-0.00073254446,-0.001473289,0.0007110648,-0.16754213,-0.2032792,0.20196128
8292000,8292000,-0.0015103299,-0.0011484199,0.00084119826,-0.12707824,-0.03542398,0.050142746
8304000,8304000,0.0016778768,4.484551e-05,0.0010380235,0.24769765,0.078575194,0.014118024
8312000,8312000,-0.00074392103,0.0016303652,0.00065637147,-0.1414058,0.16136286,-0.011793445
8324000,8324000,0.0042769276,0.002822173,0.0010646454,0.3928572,0.06501513,0.010121648
8332000,8332000,0.0026389994,0.0010136585,5.9224054e-05,-0.05072339,-0.13856584,-0.08088033
8344000,8344000,0.0038538906,0.0023990832,-0.0011057818,0.15240541,0.12904121,-0.12717235
8352000,8352000,0.0031163674,0.0023264498,-0.0017759813,-0.037490025,0.007257074,-0.0035258492
8364000,8364000,0.0008305452,0.00016174838,-0.0042073345,-0.0793702,-0.12868632,-0.1757167
8372000,8372000,0.002341664,0.0005172314,-0.0021724235,0.100620955,0.011487069,0.13178165
8384000,8384000,0.0004938769,-0.0012229127,-0.0007504945,-0.0949077,-0.15250263,0.040716242
8392000,8392000,0.002749879,0.000736475,-0.0020079515,0.15912838,0.121105306,-0.07402389
8404000,8404000,0.0016170493,-0.0006409725,-0.0028621922,-0.08986912,-0.07366723,-0.10008192
8412000,8412000,0.0002823486,-0.0006600744,-0.0024193013,-0.1294415,-0.027576411,0.01973198
8424000,8424000,0.0006495901,-0.0020851805,-0.0026133358,0.006986685,-0.14171219,-0.03155318
8432000,8432000,-0.0019434072,0.0016603125,-0.0016719621,-0.21441764,0.302708,0.061958585
8444000,8444000,0.00096413563,0.0013174657,0.0007862408,0.18354258,0.010827691,0.14018638
8452000,8452000,0.002449225,0.0007025413,0.0010745464,0.16907139,-0.04820982,0.063088626
8464000,8464000,0.0004600202,0.00172209,-0.0007807477,-0.1485066,0.12070486,-0.13353983
8472000,8472000,-0.00022625912,0.0014753505,-0.0015337542,-0.07715464,0.006848724,-0.08865643
8484000,8484000,0.0010477159,0.00038945954,-0.000937487,0.04870426,-0.08679418,0.008611918
8492000,8492000,-0.00158057,-0.000497303,-8.20994e-05,-0.2074952,-0.117249265,0.05791591
8504000,8504000,0.0023459885,0.0024673163,-0.0028400312,0.2248563,0.2403439,-0.08649103
8512000,8512000,0.00068586756,0.0017795984,0.0004688832,-0.079537906,-0.0011176732,0.2405332
8524000,8524000,0.00028036354,0.0015229443,0.0009544183,-0.057263456,0.0002110747,0.054561935
8532000,8532000,-0.0015952751,-0.0011622757,-0.00066589564,-0.16084659,-0.21444798,-0.14110918
8544000,8544000,0.0021263896,0.00086260773,-0.0003937308,0.2067942,0.1112643,0.040399298
8552000,8552000,0.0023518915,0.0023198568,-1.9973784e-05,0.09212626,0.14661905,0.038543705
8564000,8564000,0.0014096429,-2.5210902e-06,-0.0010665708,-0.037787773,-0.16213629,-0.053772353
8572000,8572000,0.00089251844,0.0012306711,-0.0010998299,-0.061977677,0.06240288,-0.023491215
8584000,8584000,0.0017037395,-0.0002925289,-0.0019397452,0.032522976,-0.049245186,-0.09713964
8592000,8592000,0.00059456046,0.0010006935,-0.0003190049,-0.07375932,0.08104928,0.14649944
8604000,8604000,0.0021244804,-0.0011637025,-0.00072144694,0.06595079,-0.13948655,-0.07398128
8612000,8612000,0.0012274971,0.00080563454,-0.0010296057,-0.028904824,0.13400868,-0.033173513
8624000,8624000,0.00037357677,-0.0008741701,0.00031205278,-0.12696892,-0.16624421,0.049873255
8632000,8632000,0.0010993995,-0.0019235611,-0.0004455644,0.04113317,-0.10944394,-0.009002646
8644000,8644000,-0.002142331,-0.0021818257,-0.0005868525,-0.27827275,-0.071875736,-0.13903534
8652000,8652000,-0.0017433116,-0.0024318276,-0.0017190991,-0.015905261,-0.048852574,-0.12350721
8664000,8664000,0.0019418857,-0.001007922,-0.0012094829,0.20916173,0.07923055,0.02026974
8672000,8672000,0.0016080048,-0.0029109167,-0.0023358655,0.014728315,-0.13187231,-0.0892125
8684000,8684000,-5.1281066e-05,0.0012758169,0.000115950126,-0.0053598583,0.22569057,0.18951432
8692000,8692000,0.0016585973,0.00021093665,0.0010453783,0.11435578,0.0059196004,0.10939337
8704000,8704000,-0.0013518642,-0.0001141103,-0.0033737232,-0.1801113,-0.1269511,-0.21768226
8712000,8712000,0.00048275152,0.0015148711,-0.0024555498,0.0931033,0.1255651,0.009675922
8724000,8724000,-0.0007031235,0.00052021444,0.0007294216,-0.01594045,-0.13424379,0.24028724
8732000,8732000,0.0005609296,0.0005039815,0.0016849935,0.06649515,-0.008363727,0.14498718
8744000,8744000,6.257824e-05,-0.0018992014,-0.00060035224,-0.026328716,-0.1905077,-0.08585975
8752000,8752000,-0.0005606803,-0.00032121548,-0.00021492707,-0.05107469,0.078454636,-0.036408253
8764000,8764000,0.0008005978,0.0009446065,-0.0026787205,0.099805266,0.02510895,-0.09978127
8772000,8772000,0.001185894,0.0010690121,-0.0009155033,0.06328955,0.053197257,0.08479709
8784000,8784000,-0.00017679401,0.0008769189,-0.00078542647,-0.07541917,-0.046910625,0.16753702
8792000,8792000,-0.000549502,0.00052994816,-0.0004900447,-0.047775157,-0.038998265,0.00725612
8804000,8804000,-0.0013596223,0.002442421,-0.0013345025,-0.028190386,0.1402518,0.06704196
8812000,8812000,0.001355574,-0.00016260799,-0.0010683428,0.20877904,-0.22394273,0.016750641
8824000,8824000,0.0017716317,-0.003486189,-0.0009368576,0.015975684,-0.09956841,0.018345663
8832000,8832000,-0.0010348641,0.0019767205,-0.0035631426,-0.20069832,0.40683165,-0.21196681
8844000,8844000,0.00030008605,0.00097486004,-0.00090467953,0.12667188,-0.04192439,0.14948201
8852000,8852000,0.0019140679,-0.00065950956,-0.00077953126,0.15016522,-0.154966,0.0528736
8864000,8864000,0.0008598521,0.002938738,-0.0017407715,-0.09543602,0.29372045,-0.053754784
8872000,8872000,-0.0010167464,0.0044646296,-5.2664487e-05,-0.18582453,0.18943898,0.123267576
8884000,8884000,0.0001290096,-0.0029627802,-0.0016047901,0.11547961,-0.40500504,-0.073208265
8892000,8892000,0.0017626412,-0.00083046034,-0.0017614679,0.15413243,0.0727056,-0.034352005
8904000,8904000,0.0058745053,-0.00057410076,0.0003330832,0.33321404,-0.02634151,0.098750435
8912000,8912000,-0.0008475174,0.0005517537,-0.00020382894,-0.49826288,0.093298174,-0.0067480626
8924000,8924000,-0.0019207076,-0.0009943736,-0.0017117334,-0.16312554,-0.13456406,-0.08982514
8932000,8932000,-0.0015026362,7.017143e-05,-0.0021069807,0.024047695,0.08322926,-0.076660894
8944000,8944000,0.00034179585,-0.0003958242,-0.0016252052,0.06313507,-0.07612743,-0.0017810775
8952000,8952000,-0.0001177612,0.0007082345,-9.881257e-05,-0.0055305315,0.09045452,0.13994865
8964000,8964000,0.00043532078,0.0011980366,0.0001659707,0.072914615,0.017262919,0.039187472
8972000,8972000,0.0022576982,0.00060858624,0.0004867362,0.14598598,-0.061670206,0.024362117
8984000,8984000,0.002785991,-0.0017618882,-0.00014987966,0.06921637,-0.09844689,-0.03377958
8992000,8992000,0.0009983295,0.0016458877,0.0003254324,-0.12068984,0.25881678,0.019253235
9004000,9004000,-0.001341415,0.0011418713,-0.001976306,-0.19869262,0.033657797,-0.09801878
9012000,9012000,-0.0017381151,0.0038138023,-0.0013486468,-0.06348015,0.22107768,0.034717385
9024000,9024000,-0.0026440946,0.0013299491,-0.001421137,-0.18143883,-0.11747073,-0.0074509336
9032000,9032000,-0.0009044864,0.0012927139,-0.0007736274,0.10874309,-0.068100914,0.053363435
9044000,9044000,0.0013981895,-0.00059699174,-0.0015649511,0.15906805,-0.045386624,-0.10699044
9052000,9052000,0.0014786265,0.0023698013,-0.0021621995,0.06817885,0.23372945,-0.074600875
9064000,9064000,-0.0009937914,0.00090048416,-0.0007920771,-0.172076,-0.1545891,0.05414563
9072000,9072000,-0.0013017467,-0.0011838726,-0.00061057415,-0.065312445,-0.1953331,0.04087035
9084000,9084000,0.0013568482,0.000537171,-0.0007567766,0.07546166,0.08494235,0.022611309
9092000,9092000,-0.0010341658,0.0031676702,7.924059e-05,-0.14871618,0.22837387,0.07580189
9104000,9104000,0.000102506485,0.00047142012,-0.0010894353,0.039798997,-0.11528078,-0.1155854
9108000,9108000,0.0004948273,0.0010577296,-0.00080106873,0.064852275,-0.002716116,-0.03490889
9124000,9124000,-0.0006542475,0.0029727537,-0.0029513077,-0.05930606,0.16251661,-0.3462941
9132000,9132000,0.0014947449,0.0018286933,-0.0043797856,0.14856821,-0.096240856,-0.18229851
9144000,9144000,-0.0024152258,-0.002249374,0.000992711,-0.23827156,-0.15015306,0.31883842
9152000,9152000,-0.0015872497,-0.0020255642,-0.0019443292,0.013927765,-0.053293575,-0.19285583
9164000,9164000,-0.0008095525,-0.0017951131,-0.00046785758,-0.015879072,-0.031761356,0.20247634
9172000,9172000,0.00034356012,-0.00473734,-0.0017177397,0.10912046,-0.24053171,-0.0964086
9184000,9184000,0.001155567,-0.0012225518,-0.0008981775,0.067208245,0.15986045,0.16974248
9192000,9192000,0.0012293293,0.0005804193,-0.0015756864,0.026456121,0.22724089,-0.025090251
9204000,9204000,-5.3752796e-05,0.0005145464,-0.0001783476,-0.08486483,0.0178828,0.08949012
9212000,9212000,-0.00040991104,0.0016802831,-0.0012120814,-0.044472545,0.08696238,-0.05111056
9224000,9224000,-0.0005587364,0.0017157998,-0.00491214,-0.045955945,0.14293544,-0.29817593
9232000,9232000,0.0017626607,0.0008476763,-0.0044714473,0.19837506,-0.07361936,-0.015994864
9244000,9244000,0.0009165619,-0.0011800807,0.0019710264,-0.086918384,0.02215674,0.36051965
9252000,9252000,-7.894274e-05,0.0017610323,0.002838203,-0.08734887,0.2247386,0.20557088
9264000,9264000,0.0018606023,0.00024037622,3.279664e-05,0.025692344,-0.10562269,-0.22440007
9272000,9272000,0.0014614301,-0.002641717,-0.0010874171,-0.022861676,-0.26907206,-0.15427257
9284000,9284000,0.001831464,-0.002264339,-0.00068157807,0.06400589,0.05312085,0.07294008
9292000,9292000,0.0035099457,0.0022048359,0.0010213524,0.14560656,0.36918533,0.13329193
9304000,9304000,0.00025792478,-0.0006624833,-0.00062587985,-0.19378097,-0.19360194,-0.07815403
9312000,9312000,0.00064301654,-0.00254945,0.0015535716,-0.021088868,-0.16981511,0.18561623
9324000,9324000,-0.0012748035,0.0030017109,0.001597183,-0.18857707,0.30562466,-0.08027689
9332000,9332000,-0.0003509979,0.0013921852,-0.0021529892,0.052089855,-0.058202177,-0.33555275
9344000,9344000,-0.00034259597,-0.00091592595,-0.0013913332,-0.048761014,-0.16889817,0.023578534
9352000,9352000,4.4202665e-05,-0.0019467827,-0.00175709,0.008112942,-0.10694017,-0.013900848
9364000,9364000,6.3311774e-05,-0.0021536886,-0.0007265179,0.017028682,-0.08027876,0.011553286
9368000,9368000,0.0005996125,-0.0022798749,0.0002309971,0.067343324,-0.059330318,0.10948835
9380000,9380000,-0.0033304922,-0.0018927762,0.0006395246,-0.2530756,-0.07092866,-0.01830122
9388000,9388000,0.0015076401,-0.0029326333,-0.00077745377,0.34921706,-0.08097567,-0.096475065
9400000,9400000,-0.0006327861,0.0037396022,0.00059125357,-0.14694685,0.36844134,0.024218326
9408000,9408000,0.0004894732,0.000939711,0.0012853034,0.068291605,-0.114303306,0.064757265
9420000,9420000,0.00092283846,0.0027586934,0.0028422764,-0.024020799,0.1452066,0.12672769
9428000,9428000,0.0012084815,0.004625207,0.00055355806,0.024339452,0.19248375,-0.17115447
9444000,9444000,0.0004268168,0.0020468386,0.0010816271,-0.028836988,-0.035556454,0.085989244
9452000,9452000,-0.0003007818,0.0013723345,0.00027474388,-0.071113795,-0.06381871,-0.04604692
9464000,9464000,0.0017396667,-0.0019489639,-0.0016944925,0.15046105,-0.23803405,-0.0807165
9472000,9472000,-0.00029788108,-0.0015422283,-0.00068546634,-0.1372811,-0.034542665,0.03836733
9484000,9484000,0.0013696345,0.0013038805,-0.0022827443,0.15849297,0.17595024,-0.08972648
9492000,9492000,0.001660079,0.0005870806,-0.00072099234,0.033997312,-0.009600533,0.1016431
9504000,9504000,0.0022736683,0.0012210752,-0.0015418762,0.13314688,-0.02300322,-0.030008687
9508000,9508000,0.001816384,2.4762005e-05,-0.00065362325,0.026768122,-0.14167929,0.07834917
9520000,9520000,0.0002907256,-0.0011636186,-0.0014696505,0.05112288,-0.11562057,-0.074258536
9532000,9532000,-0.0006549903,0.0019565397,-0.0019778686,-0.11013971,0.2398769,-0.06355575
9540000,9540000,0.00051316386,0.0027618844,-0.0010886686,0.07225918,0.118453145,0.06131566
9548000,9548000,0.0027958183,0.0013456983,-0.00033294124,0.23442155,-0.06036134,0.07182272
9560000,9560000,0.0012426939,-0.0013870597,-0.001886761,-0.12861577,-0.31075993,-0.024738362
9572000,9572000,0.0013054508,0.00010279892,-0.0007782135,-0.00532794,0.17282836,0.07214599
9584000,9584000,0.0013822984,-0.00052214274,-0.0014272667,-0.043789763,-0.089129806,-0.07308491
9592000,9592000,-0.0005461109,-0.0016175332,-0.00010950392,-0.1499323,-0.09059963,0.09536671
9604000,9604000,0.00280355,-0.00016166037,0.0017271445,0.22985107,0.07617779,0.20808797
9612000,9612000,0.0017412531,-0.0014151894,0.0026582945,-0.041780315,-0.100031346,0.10953957
9624000,9624000,0.0010497707,0.0016144216,-0.0017028563,-0.023550201,0.2544747,-0.19876134
9632000,9632000,-0.00039670093,0.004457977,-0.0029211838,-0.15406328,0.30087212,-0.181614
9644000,9644000,-0.0013767888,0.0015234316,0.0005930262,0.008040555,-0.16700047,0.25179365
9652000,9652000,-0.0024244115,0.0010031508,-0.00041342163,-0.10588556,-0.100957245,-0.04425302
9664000,9664000,0.0001706864,-0.00055454765,0.001499383,0.06828993,-0.1104305,0.22378363
9672000,9672000,-0.0016639328,0.0021120268,0.0015664021,-0.093364,0.23025145,0.047750372
9684000,9684000,-0.002036771,0.0030816754,-0.003338397,-0.038905185,-0.0002697794,-0.34946114
