timestamp,timestamp_sample,xyz[0],xyz[1],xyz[2],xyz_derivative[0],xyz_derivative[1],xyz_derivative[2]
3212000,0,6.3905456e-05,7.506922e-05,7.588511e-09,0.0,0.0,0.0
3216000,0,6.390548e-05,7.506922e-05,7.5758715e-09,0.0,0.0,0.0
3224000,0,6.390551e-05,7.5069205e-05,7.55059e-09,0.0,0.0,0.0
3232000,0,6.3905536e-05,7.50692e-05,7.525308e-09,0.0,0.0,0.0
3244000,0,6.390559e-05,7.506918e-05,7.487388e-09,0.0,0.0,0.0
3252000,0,6.3905616e-05,7.506917e-05,7.462106e-09,0.0,0.0,0.0
3264000,0,6.390567e-05,7.5069154e-05,7.4241844e-09,0.0,0.0,0.0
3272000,0,6.3905696e-05,7.506914e-05,7.398903e-09,0.0,0.0,0.0
3284000,0,6.390575e-05,7.5069125e-05,7.360982e-09,0.0,0.0,0.0
3292000,0,6.390577e-05,7.506911e-05,7.3357e-09,0.0,0.0,0.0
3304000,0,6.390582e-05,7.5069096e-05,7.2977784e-09,0.0,0.0,0.0
3312000,0,6.390585e-05,7.506909e-05,7.272497e-09,0.0,0.0,0.0
3324000,0,6.39059e-05,7.5069074e-05,7.2345756e-09,0.0,0.0,0.0
3332000,0,6.390593e-05,7.506906e-05,7.209294e-09,0.0,0.0,0.0
3344000,0,6.390597e-05,7.5069045e-05,7.171373e-09,0.0,0.0,0.0
3352000,0,6.3906e-05,7.506903e-05,7.1460913e-09,0.0,0.0,0.0
3364000,0,6.390605e-05,7.5069016e-05,7.10817e-09,0.0,0.0,0.0
3372000,0,6.390608e-05,7.506901e-05,7.0828885e-09,0.0,0.0,0.0
3384000,0,6.390613e-05,7.506899e-05,7.0449677e-09,0.0,0.0,0.0
3392000,0,6.390616e-05,7.506898e-05,7.0196857e-09,0.0,0.0,0.0
3404000,0,6.3906205e-05,7.5068965e-05,6.981764e-09,0.0,0.0,0.0
3412000,0,6.390624e-05,7.506895e-05,6.956483e-09,0.0,0.0,0.0
3424000,0,6.3906286e-05,7.5068936e-05,6.9185613e-09,0.0,0.0,0.0
3432000,0,6.3906315e-05,7.506892e-05,6.89328e-09,0.0,0.0,0.0
3444000,0,6.3906366e-05,7.506891e-05,6.855359e-09,0.0,0.0,0.0
3452000,0,6.3906395e-05,7.50689e-05,6.830078e-09,0.0,0.0,0.0
3464000,0,6.3906446e-05,7.506888e-05,6.792156e-09,0.0,0.0,0.0
3472000,0,6.3906475e-05,7.506887e-05,6.766875e-09,0.0,0.0,0.0
3484000,0,6.390652e-05,7.5068856e-05,6.7289534e-09,0.0,0.0,0.0
3492000,0,6.3906555e-05,7.506884e-05,6.7036723e-09,0.0,0.0,0.0
3504000,0,6.39066e-05,7.506883e-05,6.6657506e-09,0.0,0.0,0.0
3512000,0,6.3906635e-05,7.506882e-05,6.640471e-09,0.0,0.0,0.0
3524000,0,6.390668e-05,7.50688e-05,6.602548e-09,0.0,0.0,0.0
3532000,0,6.3906715e-05,7.506879e-05,6.577268e-09,0.0,0.0,0.0
3544000,0,6.390676e-05,7.5068776e-05,6.539345e-09,0.0,0.0,0.0
3552000,0,6.3906795e-05,7.506876e-05,6.5140653e-09,0.0,0.0,0.0
3564000,0,6.390683e-05,7.506875e-05,6.4761423e-09,0.0,0.0,0.0
3572000,0,6.3906875e-05,7.506874e-05,6.4508625e-09,0.0,0.0,0.0
3584000,0,6.390691e-05,7.506872e-05,6.4129395e-09,0.0,0.0,0.0
3592000,0,6.390695e-05,7.506871e-05,6.3876597e-09,0.0,0.0,0.0
3604000,0,6.3907e-05,7.5068696e-05,6.349738e-09,0.0,0.0,0.0
3612000,0,6.390703e-05,7.506868e-05,6.324457e-09,0.0,0.0,0.0
3624000,0,6.390708e-05,7.506867e-05,6.2865353e-09,0.0,0.0,0.0
3632000,0,6.390711e-05,7.506865e-05,6.261254e-09,0.0,0.0,0.0
3644000,0,6.390715e-05,7.506864e-05,6.2233325e-09,0.0,0.0,0.0
3652000,0,6.390719e-05,7.506863e-05,6.1980514e-09,0.0,0.0,0.0
3664000,0,6.390723e-05,7.506861e-05,6.1601297e-09,0.0,0.0,0.0
3672000,0,6.390726e-05,7.50686e-05,6.1348486e-09,0.0,0.0,0.0
3684000,0,6.390731e-05,7.506859e-05,6.096927e-09,0.0,0.0,0.0
3692000,0,6.390734e-05,7.506857e-05,6.071646e-09,0.0,0.0,0.0
3704000,0,6.390739e-05,7.506856e-05,6.033724e-09,0.0,0.0,0.0
3712000,0,6.390741e-05,7.506854e-05,6.008442e-09,0.0,0.0,0.0
3724000,0,6.3907464e-05,7.506853e-05,5.9705214e-09,0.0,0.0,0.0
3732000,0,6.390749e-05,7.506852e-05,5.9452394e-09,0.0,0.0,0.0
3744000,0,6.3907544e-05,7.50685e-05,5.9073186e-09,0.0,0.0,0.0
3752000,0,6.390757e-05,7.506849e-05,5.8820366e-09,0.0,0.0,0.0
3764000,0,6.3907624e-05,7.506848e-05,5.844116e-09,0.0,0.0,0.0
3772000,0,6.390765e-05,7.506846e-05,5.818834e-09,0.0,0.0,0.0
3784000,0,6.3907704e-05,7.506845e-05,5.780913e-09,0.0,0.0,0.0
3792000,0,6.3907726e-05,7.5068434e-05,5.755631e-09,0.0,0.0,0.0
3804000,0,6.390778e-05,7.506842e-05,5.7177094e-09,0.0,0.0,0.0
3812000,0,6.3907806e-05,7.506841e-05,5.692428e-09,0.0,0.0,0.0
3824000,0,6.390785e-05,7.506839e-05,5.6545066e-09,0.0,0.0,0.0
3832000,0,6.390788e-05,7.506838e-05,5.629225e-09,0.0,0.0,0.0
3844000,0,6.390793e-05,7.506837e-05,5.591304e-09,0.0,0.0,0.0
3852000,0,6.390796e-05,7.5068354e-05,5.5660223e-09,0.0,0.0,0.0
3864000,0,6.390801e-05,7.506834e-05,5.528101e-09,0.0,0.0,0.0
3872000,0,6.390804e-05,7.5068325e-05,5.5028195e-09,0.0,0.0,0.0
3884000,0,6.390809e-05,7.506831e-05,5.4648983e-09,0.0,0.0,0.0
3892000,0,6.390812e-05,7.50683e-05,5.4396168e-09,0.0,0.0,0.0
3904000,0,6.390816e-05,7.506828e-05,5.4016955e-09,0.0,0.0,0.0
3912000,0,6.390819e-05,7.5068274e-05,5.3764135e-09,0.0,0.0,0.0
3924000,0,6.390824e-05,7.506826e-05,5.338492e-09,0.0,0.0,0.0
3932000,0,6.390827e-05,7.5068245e-05,5.3132108e-09,0.0,0.0,0.0
3944000,0,6.390832e-05,7.506823e-05,5.275289e-09,0.0,0.0,0.0
3952000,0,6.390835e-05,7.5068216e-05,5.250008e-09,0.0,0.0,0.0
3964000,0,6.3908396e-05,7.50682e-05,5.2120863e-09,0.0,0.0,0.0
3972000,0,6.390843e-05,7.5068194e-05,5.186805e-09,0.0,0.0,0.0
3984000,0,6.3908476e-05,7.506817e-05,5.1488835e-09,0.0,0.0,0.0
3992000,0,6.3908505e-05,7.5068165e-05,5.1236024e-09,0.0,0.0,0.0
4004000,0,6.3908556e-05,7.506815e-05,5.0856808e-09,0.0,0.0,0.0
4012000,0,6.390859e-05,7.5068136e-05,5.060401e-09,0.0,0.0,0.0
4024000,0,6.3908636e-05,7.506812e-05,5.022478e-09,0.0,0.0,0.0
4032000,0,6.390867e-05,7.5068114e-05,4.997198e-09,0.0,0.0,0.0
4044000,0,6.390871e-05,7.506809e-05,4.959275e-09,0.0,0.0,0.0
4052000,0,6.390875e-05,7.5068085e-05,4.9339954e-09,0.0,0.0,0.0
4064000,0,6.390879e-05,7.506807e-05,4.8960724e-09,0.0,0.0,0.0
4072000,0,6.3908825e-05,7.5068056e-05,4.8707927e-09,0.0,0.0,0.0
4084000,0,6.390887e-05,7.506804e-05,4.832869e-09,0.0,0.0,0.0
4092000,0,6.3908905e-05,7.5068034e-05,4.8075894e-09,0.0,0.0,0.0
4104000,0,6.3908956e-05,7.506801e-05,4.7696678e-09,0.0,0.0,0.0
4112000,0,6.3908985e-05,7.5068005e-05,4.7443867e-09,0.0,0.0,0.0
4124000,0,6.390903e-05,7.506799e-05,4.706465e-09,0.0,0.0,0.0
4132000,0,6.390906e-05,7.5067976e-05,4.681184e-09,0.0,0.0,0.0
4144000,0,6.390911e-05,7.506796e-05,4.643262e-09,0.0,0.0,0.0
4152000,0,6.390914e-05,7.506795e-05,4.617981e-09,0.0,0.0,0.0
4164000,0,6.390919e-05,7.506793e-05,4.5800594e-09,0.0,0.0,0.0
4172000,0,6.390922e-05,7.5067925e-05,4.5547783e-09,0.0,0.0,0.0
4184000,0,6.390926e-05,7.50679e-05,4.5168567e-09,0.0,0.0,0.0
4192000,0,6.39093e-05,7.5067896e-05,4.491575e-09,0.0,0.0,0.0
4204000,0,6.390934e-05,7.506788e-05,4.4536534e-09,0.0,0.0,0.0
4212000,0,6.390937e-05,7.506787e-05,4.428372e-09,0.0,0.0,0.0
4224000,0,6.390942e-05,7.506785e-05,4.3904507e-09,0.0,0.0,0.0
4232000,0,6.390945e-05,7.506784e-05,4.3651687e-09,0.0,0.0,0.0
4244000,0,6.39095e-05,7.506782e-05,4.327248e-09,0.0,0.0,0.0
4252000,0,6.390952e-05,7.506781e-05,4.301966e-09,0.0,0.0,0.0
4264000,0,6.3909574e-05,7.5067794e-05,4.264045e-09,0.0,0.0,0.0
4272000,0,6.39096e-05,7.506779e-05,4.238763e-09,0.0,0.0,0.0
4284000,0,6.3909654e-05,7.506777e-05,4.200842e-09,0.0,0.0,0.0
4292000,0,6.390968e-05,7.506776e-05,4.1755603e-09,0.0,0.0,0.0
4304000,0,6.390973e-05,7.506774e-05,4.1376382e-09,0.0,0.0,0.0
4312000,0,6.3909756e-05,7.506773e-05,4.1123567e-09,0.0,0.0,0.0
4324000,0,6.390981e-05,7.506771e-05,4.0744355e-09,0.0,0.0,0.0
4332000,0,6.3909836e-05,7.50677e-05,4.049154e-09,0.0,0.0,0.0
4344000,0,6.390989e-05,7.5067685e-05,4.0112327e-09,0.0,0.0,0.0
4352000,0,6.3909916e-05,7.506768e-05,3.985951e-09,0.0,0.0,0.0
4364000,0,6.390996e-05,7.506766e-05,3.94803e-09,0.0,0.0,0.0
4372000,0,6.390999e-05,7.506765e-05,3.922748e-09,0.0,0.0,0.0
4384000,0,6.391004e-05,7.506763e-05,3.8848267e-09,0.0,0.0,0.0
4392000,0,6.391007e-05,7.506762e-05,3.859545e-09,0.0,0.0,0.0
4404000,0,6.391012e-05,7.5067604e-05,3.821624e-09,0.0,0.0,0.0
4412000,0,6.391015e-05,7.506759e-05,3.7963424e-09,0.0,0.0,0.0
4424000,0,6.391019e-05,7.5067575e-05,3.7584207e-09,0.0,0.0,0.0
4432000,0,6.391023e-05,7.506757e-05,3.7331396e-09,0.0,0.0,0.0
4444000,0,6.391027e-05,7.5067546e-05,3.6952177e-09,0.0,0.0,0.0
4452000,0,6.39103e-05,7.506754e-05,3.6699366e-09,0.0,0.0,0.0
4464000,0,6.391035e-05,7.5067524e-05,3.6320147e-09,0.0,0.0,0.0
4472000,0,6.391038e-05,7.506751e-05,3.6067336e-09,0.0,0.0,0.0
4484000,0,6.3910426e-05,7.5067495e-05,3.568812e-09,0.0,0.0,0.0
4492000,0,6.391046e-05,7.506748e-05,3.5435306e-09,0.0,0.0,0.0
4504000,0,6.3910506e-05,7.5067466e-05,3.505609e-09,0.0,0.0,0.0
4512000,0,6.391054e-05,7.506746e-05,3.4803291e-09,0.0,0.0,0.0
4524000,0,6.3910586e-05,7.5067444e-05,3.442406e-09,0.0,0.0,0.0
4532000,0,6.391062e-05,7.506743e-05,3.4171261e-09,0.0,0.0,0.0
4544000,0,6.3910666e-05,7.5067415e-05,3.3792031e-09,0.0,0.0,0.0
4552000,0,6.39107e-05,7.50674e-05,3.3539231e-09,0.0,0.0,0.0
4564000,0,6.391074e-05,7.5067386e-05,3.3160001e-09,0.0,0.0,0.0
4572000,0,6.391078e-05,7.506738e-05,3.2907204e-09,0.0,0.0,0.0
4584000,0,6.391082e-05,7.506736e-05,3.2527971e-09,0.0,0.0,0.0
4592000,0,6.3910855e-05,7.506735e-05,3.2275174e-09,0.0,0.0,0.0
4604000,0,6.39109e-05,7.5067335e-05,3.1895944e-09,0.0,0.0,0.0
4612000,0,6.3910935e-05,7.506732e-05,3.1643144e-09,0.0,0.0,0.0
4624000,0,6.3910986e-05,7.5067306e-05,3.1263927e-09,0.0,0.0,0.0
4632000,0,6.3911015e-05,7.506729e-05,3.1011114e-09,0.0,0.0,0.0
4644000,0,6.391106e-05,7.506728e-05,3.0631897e-09,0.0,0.0,0.0
4652000,0,6.391109e-05,7.506727e-05,3.0379086e-09,0.0,0.0,0.0
4664000,0,6.391114e-05,7.506725e-05,2.9999867e-09,0.0,0.0,0.0
4672000,0,6.391117e-05,7.506724e-05,2.9747056e-09,0.0,0.0,0.0
4684000,0,6.391122e-05,7.5067226e-05,2.936784e-09,0.0,0.0,0.0
4692000,0,6.391125e-05,7.506721e-05,2.9115026e-09,0.0,0.0,0.0
4704000,0,6.391129e-05,7.50672e-05,2.873581e-09,0.0,0.0,0.0
4712000,0,6.391132e-05,7.506718e-05,2.848299e-09,0.0,0.0,0.0
4724000,0,6.391137e-05,7.506717e-05,2.810378e-09,0.0,0.0,0.0
4732000,0,6.39114e-05,7.506716e-05,2.7850962e-09,0.0,0.0,0.0
4744000,0,6.391145e-05,7.506714e-05,2.747175e-09,0.0,0.0,0.0
4752000,0,6.391148e-05,7.506713e-05,2.7218932e-09,0.0,0.0,0.0
4764000,0,6.3911524e-05,7.506712e-05,2.683972e-09,0.0,0.0,0.0
4772000,0,6.391155e-05,7.50671e-05,2.6586902e-09,0.0,0.0,0.0
4784000,0,6.3911604e-05,7.506709e-05,2.6207692e-09,0.0,0.0,0.0
4792000,0,6.391163e-05,7.506707e-05,2.5954872e-09,0.0,0.0,0.0
4804000,0,6.391168e-05,7.506706e-05,2.5575655e-09,0.0,0.0,0.0
4812000,0,6.3911706e-05,7.506705e-05,2.5322837e-09,0.0,0.0,0.0
4824000,0,6.391176e-05,7.506703e-05,2.4943625e-09,0.0,0.0,0.0
4832000,0,6.3911786e-05,7.506702e-05,2.4690807e-09,0.0,0.0,0.0
4844000,0,6.391184e-05,7.506701e-05,2.4311595e-09,0.0,0.0,0.0
4852000,0,6.3911866e-05,7.506699e-05,2.4058777e-09,0.0,0.0,0.0
4864000,0,6.391192e-05,7.506698e-05,2.3679565e-09,0.0,0.0,0.0
4872000,0,6.391194e-05,7.5066964e-05,2.3426747e-09,0.0,0.0,0.0
4884000,0,6.391199e-05,7.506695e-05,2.3047535e-09,0.0,0.0,0.0
4892000,0,6.391202e-05,7.506694e-05,2.279472e-09,0.0,0.0,0.0
4904000,0,6.391207e-05,7.506692e-05,2.2415507e-09,0.0,0.0,0.0
4912000,0,6.39121e-05,7.506691e-05,2.216269e-09,0.0,0.0,0.0
4924000,0,6.391214e-05,7.50669e-05,2.178347e-09,0.0,0.0,0.0
4932000,0,6.391218e-05,7.5066884e-05,2.153066e-09,0.0,0.0,0.0
4944000,0,6.391222e-05,7.506687e-05,2.115144e-09,0.0,0.0,0.0
4952000,0,6.391225e-05,7.5066855e-05,2.089863e-09,0.0,0.0,0.0
4964000,0,6.39123e-05,7.506684e-05,2.051941e-09,0.0,0.0,0.0
4972000,0,6.391233e-05,7.506683e-05,2.02666e-09,0.0,0.0,0.0
4984000,0,6.3912375e-05,7.506681e-05,1.988738e-09,0.0,0.0,0.0
4992000,0,6.391241e-05,7.5066804e-05,1.963457e-09,0.0,0.0,0.0
5004000,0,6.3912456e-05,7.506679e-05,1.9255353e-09,0.0,0.0,0.0
5012000,0,6.391249e-05,7.5066775e-05,1.9002553e-09,0.0,0.0,0.0
5024000,0,6.3912536e-05,7.506676e-05,1.8623322e-09,0.0,0.0,0.0
5032000,0,6.391257e-05,7.5066746e-05,1.8370523e-09,0.0,0.0,0.0
5044000,0,6.3912616e-05,7.506673e-05,1.7991292e-09,0.0,0.0,0.0
5052000,0,6.391265e-05,7.5066724e-05,1.7738493e-09,0.0,0.0,0.0
5064000,0,6.391269e-05,7.50667e-05,1.7359262e-09,0.0,0.0,0.0
5072000,0,6.391273e-05,7.5066695e-05,1.7106463e-09,0.0,0.0,0.0
5084000,0,6.391277e-05,7.506667e-05,1.6727232e-09,0.0,0.0,0.0
5092000,0,6.3912805e-05,7.5066666e-05,1.6474433e-09,0.0,0.0,0.0
5104000,0,6.391285e-05,7.506665e-05,1.6095202e-09,0.0,0.0,0.0
5112000,0,6.3912885e-05,7.506664e-05,1.5842403e-09,0.0,0.0,0.0
5124000,0,6.391293e-05,7.506662e-05,1.5463184e-09,0.0,0.0,0.0
5132000,0,6.3912965e-05,7.5066615e-05,1.5210372e-09,0.0,0.0,0.0
5144000,0,6.391301e-05,7.506659e-05,1.4831154e-09,0.0,0.0,0.0
5152000,0,6.391304e-05,7.5066586e-05,1.4578342e-09,0.0,0.0,0.0
5164000,0,6.391309e-05,7.506657e-05,1.4199124e-09,0.0,0.0,0.0
5172000,0,6.391312e-05,7.506656e-05,1.3946312e-09,0.0,0.0,0.0
5184000,0,6.391317e-05,7.506654e-05,1.3567094e-09,0.0,0.0,0.0
5192000,0,6.39132e-05,7.506653e-05,1.3314282e-09,0.0,0.0,0.0
5204000,0,6.391324e-05,7.506651e-05,1.2935064e-09,0.0,0.0,0.0
5212000,0,6.391327e-05,7.5066506e-05,1.2682245e-09,0.0,0.0,0.0
5224000,0,6.391332e-05,7.5066484e-05,1.2303033e-09,0.0,0.0,0.0
5232000,0,6.391335e-05,7.506648e-05,1.2050215e-09,0.0,0.0,0.0
5244000,0,6.39134e-05,7.506646e-05,1.1671003e-09,0.0,0.0,0.0
5252000,0,6.391342e-05,7.506645e-05,1.1418185e-09,0.0,0.0,0.0
5264000,0,6.3913474e-05,7.506643e-05,1.1038973e-09,0.0,0.0,0.0
5272000,0,6.39135e-05,7.506642e-05,1.0786154e-09,0.0,0.0,0.0
5284000,0,6.3913554e-05,7.5066404e-05,1.0406943e-09,0.0,0.0,0.0
5292000,0,6.391358e-05,7.506639e-05,1.0154124e-09,0.0,0.0,0.0
5304000,0,6.3913634e-05,7.5066375e-05,9.774913e-10,0.0,0.0,0.0
5312000,0,6.3913656e-05,7.506637e-05,9.522094e-10,0.0,0.0,0.0
5324000,0,6.391371e-05,7.5066346e-05,9.142876e-10,0.0,0.0,0.0
5332000,0,6.3913736e-05,7.506634e-05,8.8900587e-10,0.0,0.0,0.0
5344000,0,6.391379e-05,7.5066324e-05,8.510846e-10,0.0,0.0,0.0
5352000,0,6.391381e-05,7.506631e-05,8.2580287e-10,0.0,0.0,0.0
5364000,0,6.391386e-05,7.5066295e-05,7.8788154e-10,0.0,0.0,0.0
5372000,0,6.391389e-05,7.506628e-05,7.625998e-10,0.0,0.0,0.0
5384000,0,6.391394e-05,7.5066266e-05,7.2467854e-10,0.0,0.0,0.0
5392000,0,6.391397e-05,7.506626e-05,6.9939676e-10,0.0,0.0,0.0
5404000,0,6.391402e-05,7.506624e-05,6.614755e-10,0.0,0.0,0.0
5412000,0,6.391405e-05,7.506623e-05,6.3619376e-10,0.0,0.0,0.0
5424000,0,6.391409e-05,7.5066215e-05,5.9827193e-10,0.0,0.0,0.0
5432000,0,6.391412e-05,7.50662e-05,5.729907e-10,0.0,0.0,0.0
5444000,0,6.391417e-05,7.5066186e-05,5.350689e-10,0.0,0.0,0.0
5452000,0,6.39142e-05,7.506617e-05,5.0978766e-10,0.0,0.0,0.0
5464000,0,6.3914245e-05,7.506616e-05,4.718658e-10,0.0,0.0,0.0
5472000,0,6.391428e-05,7.506615e-05,4.465846e-10,0.0,0.0,0.0
5484000,0,6.3914325e-05,7.506613e-05,4.086628e-10,0.0,0.0,0.0
5492000,0,6.3914355e-05,7.506612e-05,3.8338158e-10,0.0,0.0,0.0
5504000,0,6.3914405e-05,7.5066106e-05,3.4545974e-10,0.0,0.0,0.0
5512000,0,6.391444e-05,7.506609e-05,3.201797e-10,0.0,0.0,0.0
5524000,0,6.3914486e-05,7.506608e-05,2.822567e-10,0.0,0.0,0.0
5532000,0,6.391452e-05,7.506606e-05,2.5697663e-10,0.0,0.0,0.0
5544000,0,6.391456e-05,7.506605e-05,2.1905364e-10,0.0,0.0,0.0
5552000,0,6.3914595e-05,7.506604e-05,1.9377358e-10,0.0,0.0,0.0
5564000,0,6.391464e-05,7.506602e-05,1.5585058e-10,0.0,0.0,0.0
5572000,0,6.3914675e-05,7.506601e-05,1.3057053e-10,0.0,0.0,0.0
5584000,0,6.391472e-05,7.506599e-05,9.264752e-11,0.0,0.0,0.0
5592000,0,6.3914755e-05,7.506598e-05,6.7367466e-11,0.0,0.0,0.0
5604000,0,6.391479e-05,7.506597e-05,2.9444457e-11,0.0,0.0,0.0
5612000,0,6.3914835e-05,7.506595e-05,4.164402e-12,0.0,0.0,0.0
5624000,0,6.391488e-05,7.506594e-05,-3.3757438e-11,0.0,0.0,0.0
5632000,0,6.391491e-05,7.506593e-05,-5.903872e-11,0.0,0.0,0.0
5644000,0,6.391496e-05,7.506591e-05,-9.69605e-11,0.0,0.0,0.0
5652000,0,6.391499e-05,7.50659e-05,-1.2224179e-10,0.0,0.0,0.0
5664000,0,6.391503e-05,7.506589e-05,-1.6016358e-10,0.0,0.0,0.0
5672000,0,6.391507e-05,7.506587e-05,-1.8544485e-10,0.0,0.0,0.0
5684000,0,6.391511e-05,7.506586e-05,-2.2336664e-10,0.0,0.0,0.0
5692000,0,6.391514e-05,7.5065844e-05,-2.4864794e-10,0.0,0.0,0.0
5704000,0,6.391519e-05,7.506583e-05,-2.865697e-10,0.0,0.0,0.0
5712000,0,6.391521e-05,7.5065815e-05,-3.118516e-10,0.0,0.0,0.0
5724000,0,6.3915264e-05,7.50658e-05,-3.4977285e-10,0.0,0.0,0.0
5732000,0,6.391529e-05,7.506579e-05,-3.7505468e-10,0.0,0.0,0.0
5744000,0,6.3915344e-05,7.506578e-05,-4.1297593e-10,0.0,0.0,0.0
5752000,0,6.391537e-05,7.5065764e-05,-4.3825776e-10,0.0,0.0,0.0
5764000,0,6.3915424e-05,7.506575e-05,-4.7617904e-10,0.0,0.0,0.0
5772000,0,6.391545e-05,7.5065735e-05,-5.014608e-10,0.0,0.0,0.0
5784000,0,6.39155e-05,7.506572e-05,-5.393821e-10,0.0,0.0,0.0
5792000,0,6.3915526e-05,7.5065705e-05,-5.646639e-10,0.0,0.0,0.0
5804000,0,6.391558e-05,7.506569e-05,-6.025852e-10,0.0,0.0,0.0
5812000,0,6.3915606e-05,7.506568e-05,-6.27867e-10,0.0,0.0,0.0
5824000,0,6.391565e-05,7.506566e-05,-6.6578887e-10,0.0,0.0,0.0
5832000,0,6.391568e-05,7.5065655e-05,-6.910706e-10,0.0,0.0,0.0
5844000,0,6.391573e-05,7.506564e-05,-7.28992e-10,0.0,0.0,0.0
5852000,0,6.391576e-05,7.5065625e-05,-7.542737e-10,0.0,0.0,0.0
5864000,0,6.391581e-05,7.506561e-05,-7.9219503e-10,0.0,0.0,0.0
5872000,0,6.391584e-05,7.5065596e-05,-8.1747675e-10,0.0,0.0,0.0
5884000,0,6.391588e-05,7.506558e-05,-8.5539814e-10,0.0,0.0,0.0
5892000,0,6.391591e-05,7.506557e-05,-8.8067986e-10,0.0,0.0,0.0
5904000,0,6.391596e-05,7.506555e-05,-9.1860125e-10,0.0,0.0,0.0
5912000,0,6.391599e-05,7.5065545e-05,-9.43883e-10,0.0,0.0,0.0
5924000,0,6.3916035e-05,7.506552e-05,-9.818049e-10,0.0,0.0,0.0
5932000,0,6.391607e-05,7.5065516e-05,-1.0070861e-09,0.0,0.0,0.0
5944000,0,6.3916115e-05,7.50655e-05,-1.045008e-09,0.0,0.0,0.0
5952000,0,6.3916144e-05,7.506549e-05,-1.0702892e-09,0.0,0.0,0.0
5964000,0,6.3916195e-05,7.506547e-05,-1.1082111e-09,0.0,0.0,0.0
5972000,0,6.3916224e-05,7.506546e-05,-1.1334923e-09,0.0,0.0,0.0
5984000,0,6.391627e-05,7.506544e-05,-1.1714141e-09,0.0,0.0,0.0
5992000,0,6.3916304e-05,7.5065436e-05,-1.1966954e-09,0.0,0.0,0.0
6004000,0,6.391635e-05,7.5065414e-05,-1.2346172e-09,0.0,0.0,0.0
6012000,0,6.3916385e-05,7.506541e-05,-1.2598974e-09,0.0,0.0,0.0
6024000,0,6.391643e-05,7.506539e-05,-1.2978203e-09,0.0,0.0,0.0
6032000,0,6.3916465e-05,7.506538e-05,-1.3231005e-09,0.0,0.0,0.0
6044000,0,6.39165e-05,7.506536e-05,-1.3610234e-09,0.0,0.0,0.0
6052000,0,6.3916545e-05,7.506535e-05,-1.3863036e-09,0.0,0.0,0.0
6064000,0,6.391658e-05,7.5065334e-05,-1.4242265e-09,0.0,0.0,0.0
6072000,0,6.391662e-05,7.506533e-05,-1.4495067e-09,0.0,0.0,0.0
6084000,0,6.391666e-05,7.5065305e-05,-1.4874297e-09,0.0,0.0,0.0
6092000,0,6.39167e-05,7.50653e-05,-1.5127098e-09,0.0,0.0,0.0
6104000,0,6.391674e-05,7.5065276e-05,-1.5506328e-09,0.0,0.0,0.0
6112000,0,6.391678e-05,7.506527e-05,-1.575913e-09,0.0,0.0,0.0
6124000,0,6.391682e-05,7.5065254e-05,-1.6138348e-09,0.0,0.0,0.0
6132000,0,6.391685e-05,7.506524e-05,-1.6391161e-09,0.0,0.0,0.0
6144000,0,6.39169e-05,7.5065225e-05,-1.677038e-09,0.0,0.0,0.0
6152000,0,6.391693e-05,7.506522e-05,-1.7023193e-09,0.0,0.0,0.0
6164000,0,6.391698e-05,7.5065196e-05,-1.7402411e-09,0.0,0.0,0.0
6172000,0,6.391701e-05,7.506519e-05,-1.7655224e-09,0.0,0.0,0.0
6184000,0,6.3917054e-05,7.5065174e-05,-1.8034442e-09,0.0,0.0,0.0
6192000,0,6.391708e-05,7.506516e-05,-1.8287255e-09,0.0,0.0,0.0
6204000,0,6.3917134e-05,7.5065145e-05,-1.8666473e-09,0.0,0.0,0.0
6212000,0,6.391716e-05,7.506513e-05,-1.8919293e-09,0.0,0.0,0.0
6224000,0,6.3917214e-05,7.5065116e-05,-1.9298505e-09,0.0,0.0,0.0
6232000,0,6.3917236e-05,7.50651e-05,-1.9551323e-09,0.0,0.0,0.0
6244000,0,6.391729e-05,7.506509e-05,-1.9930537e-09,0.0,0.0,0.0
6252000,0,6.3917316e-05,7.506508e-05,-2.0183355e-09,0.0,0.0,0.0
6264000,0,6.391737e-05,7.506506e-05,-2.0562567e-09,0.0,0.0,0.0
6272000,0,6.3917396e-05,7.506505e-05,-2.0815385e-09,0.0,0.0,0.0
6284000,0,6.391745e-05,7.5065036e-05,-2.11946e-09,0.0,0.0,0.0
6292000,0,6.391747e-05,7.506502e-05,-2.1447417e-09,0.0,0.0,0.0
6304000,0,6.391752e-05,7.506501e-05,-2.1826632e-09,0.0,0.0,0.0
6312000,0,6.391755e-05,7.506499e-05,-2.207945e-09,0.0,0.0,0.0
6324000,0,6.391759e-05,7.506498e-05,-2.2458668e-09,0.0,0.0,0.0
6332000,0,6.391762e-05,7.506496e-05,-2.2711484e-09,0.0,0.0,0.0
6344000,0,6.391767e-05,7.506495e-05,-2.3090698e-09,0.0,0.0,0.0
6352000,0,6.39177e-05,7.506494e-05,-2.3343516e-09,0.0,0.0,0.0
6364000,0,6.391775e-05,7.506492e-05,-2.372273e-09,0.0,0.0,0.0
6372000,0,6.391778e-05,7.506491e-05,-2.3975548e-09,0.0,0.0,0.0
6384000,0,6.3917825e-05,7.50649e-05,-2.4354763e-09,0.0,0.0,0.0
6392000,0,6.3917854e-05,7.506488e-05,-2.4607578e-09,0.0,0.0,0.0
6404000,0,6.3917905e-05,7.506487e-05,-2.4986793e-09,0.0,0.0,0.0
6412000,0,6.3917934e-05,7.5064854e-05,-2.523961e-09,0.0,0.0,0.0
6424000,0,6.391798e-05,7.506484e-05,-2.561883e-09,0.0,0.0,0.0
6432000,0,6.3918014e-05,7.5064825e-05,-2.5871643e-09,0.0,0.0,0.0
6444000,0,6.391806e-05,7.506481e-05,-2.6250861e-09,0.0,0.0,0.0
6452000,0,6.391809e-05,7.50648e-05,-2.6503673e-09,0.0,0.0,0.0
6464000,0,6.391814e-05,7.506478e-05,-2.6882894e-09,0.0,0.0,0.0
6472000,0,6.391817e-05,7.5064774e-05,-2.7135705e-09,0.0,0.0,0.0
6484000,0,6.391821e-05,7.506476e-05,-2.7514924e-09,0.0,0.0,0.0
6492000,0,6.391825e-05,7.5064745e-05,-2.7767737e-09,0.0,0.0,0.0
6504000,0,6.391829e-05,7.506473e-05,-2.8146956e-09,0.0,0.0,0.0
6512000,0,6.391833e-05,7.506472e-05,-2.8399758e-09,0.0,0.0,0.0
6524000,0,6.391837e-05,7.50647e-05,-2.8778988e-09,0.0,0.0,0.0
6532000,0,6.391841e-05,7.5064694e-05,-2.903179e-09,0.0,0.0,0.0
6544000,0,6.391844e-05,7.506467e-05,-2.9411018e-09,0.0,0.0,0.0
6552000,0,6.391849e-05,7.5064665e-05,-2.966382e-09,0.0,0.0,0.0
6564000,0,6.3918524e-05,7.506464e-05,-3.004305e-09,0.0,0.0,0.0
6572000,0,6.391856e-05,7.5064636e-05,-3.0295852e-09,0.0,0.0,0.0
6584000,0,6.3918604e-05,7.506462e-05,-3.0675082e-09,0.0,0.0,0.0
6592000,0,6.391864e-05,7.506461e-05,-3.0927885e-09,0.0,0.0,0.0
6604000,0,6.391868e-05,7.506459e-05,-3.1307115e-09,0.0,0.0,0.0
6612000,0,6.391872e-05,7.5064585e-05,-3.1559917e-09,0.0,0.0,0.0
6624000,0,6.3918764e-05,7.506456e-05,-3.1939136e-09,0.0,0.0,0.0
6632000,0,6.391879e-05,7.5064556e-05,-3.219195e-09,0.0,0.0,0.0
6644000,0,6.3918844e-05,7.506454e-05,-3.2571168e-09,0.0,0.0,0.0
6652000,0,6.391887e-05,7.506453e-05,-3.282398e-09,0.0,0.0,0.0
6664000,0,6.391892e-05,7.506451e-05,-3.3203198e-09,0.0,0.0,0.0
6672000,0,6.391895e-05,7.50645e-05,-3.3456011e-09,0.0,0.0,0.0
6684000,0,6.3919e-05,7.506448e-05,-3.383523e-09,0.0,0.0,0.0
6692000,0,6.3919026e-05,7.506447e-05,-3.4088043e-09,0.0,0.0,0.0
6704000,0,6.391908e-05,7.5064454e-05,-3.4467262e-09,0.0,0.0,0.0
6712000,0,6.39191e-05,7.506444e-05,-3.472008e-09,0.0,0.0,0.0
6724000,0,6.391915e-05,7.5064425e-05,-3.5099295e-09,0.0,0.0,0.0
6732000,0,6.391918e-05,7.506442e-05,-3.5352112e-09,0.0,0.0,0.0
6744000,0,6.391923e-05,7.50644e-05,-3.5731327e-09,0.0,0.0,0.0
6752000,0,6.391926e-05,7.506439e-05,-3.5984145e-09,0.0,0.0,0.0
6764000,0,6.391931e-05,7.5064374e-05,-3.636336e-09,0.0,0.0,0.0
6772000,0,6.391933e-05,7.506436e-05,-3.6616177e-09,0.0,0.0,0.0
6784000,0,6.391938e-05,7.5064345e-05,-3.699539e-09,0.0,0.0,0.0
6792000,0,6.391941e-05,7.506433e-05,-3.7248207e-09,0.0,0.0,0.0
6804000,0,6.391946e-05,7.5064316e-05,-3.762742e-09,0.0,0.0,0.0
6812000,0,6.391949e-05,7.506431e-05,-3.788024e-09,0.0,0.0,0.0
6824000,0,6.3919535e-05,7.506429e-05,-3.825946e-09,0.0,0.0,0.0
6832000,0,6.3919564e-05,7.506428e-05,-3.851228e-09,0.0,0.0,0.0
6844000,0,6.3919615e-05,7.506426e-05,-3.889149e-09,0.0,0.0,0.0
6852000,0,6.3919644e-05,7.506425e-05,-3.914431e-09,0.0,0.0,0.0
6864000,0,6.391969e-05,7.5064236e-05,-3.9523522e-09,0.0,0.0,0.0
6872000,0,6.391972e-05,7.506422e-05,-3.9776338e-09,0.0,0.0,0.0
6884000,0,6.391977e-05,7.506421e-05,-4.0155554e-09,0.0,0.0,0.0
6892000,0,6.39198e-05,7.506419e-05,-4.040837e-09,0.0,0.0,0.0
6904000,0,6.391985e-05,7.506418e-05,-4.0787587e-09,0.0,0.0,0.0
6912000,0,6.391988e-05,7.506417e-05,-4.10404e-09,0.0,0.0,0.0
6924000,0,6.391992e-05,7.506415e-05,-4.1419623e-09,0.0,0.0,0.0
6932000,0,6.391995e-05,7.506414e-05,-4.1672434e-09,0.0,0.0,0.0
6944000,0,6.392e-05,7.506412e-05,-4.2051655e-09,0.0,0.0,0.0
6952000,0,6.392003e-05,7.506411e-05,-4.2304467e-09,0.0,0.0,0.0
6964000,0,6.392007e-05,7.50641e-05,-4.2683688e-09,0.0,0.0,0.0
6972000,0,6.392011e-05,7.506408e-05,-4.29365e-09,0.0,0.0,0.0
6984000,0,6.392015e-05,7.506407e-05,-4.331572e-09,0.0,0.0,0.0
6992000,0,6.392018e-05,7.5064054e-05,-4.356853e-09,0.0,0.0,0.0
7004000,0,6.392023e-05,7.506404e-05,-4.394775e-09,0.0,0.0,0.0
7012000,0,6.392027e-05,7.506403e-05,-4.4200554e-09,0.0,0.0,0.0
7024000,0,6.3920306e-05,7.506401e-05,-4.4579784e-09,0.0,0.0,0.0
7032000,0,6.392034e-05,7.5064e-05,-4.4832587e-09,0.0,0.0,0.0
7044000,0,6.3920386e-05,7.506398e-05,-4.5211817e-09,0.0,0.0,0.0
7052000,0,6.392042e-05,7.5063974e-05,-4.546462e-09,0.0,0.0,0.0
7064000,0,6.3920466e-05,7.506396e-05,-4.584385e-09,0.0,0.0,0.0
7072000,0,6.39205e-05,7.5063945e-05,-4.609665e-09,0.0,0.0,0.0
7084000,0,6.392054e-05,7.506393e-05,-4.647588e-09,0.0,0.0,0.0
7092000,0,6.3920575e-05,7.506392e-05,-4.6728683e-09,0.0,0.0,0.0
7104000,0,6.392062e-05,7.50639e-05,-4.7107913e-09,0.0,0.0,0.0
7112000,0,6.3920656e-05,7.5063894e-05,-4.7360715e-09,0.0,0.0,0.0
7124000,0,6.39207e-05,7.506388e-05,-4.773993e-09,0.0,0.0,0.0
7132000,0,6.3920736e-05,7.5063865e-05,-4.7992748e-09,0.0,0.0,0.0
7144000,0,6.392078e-05,7.506385e-05,-4.8371964e-09,0.0,0.0,0.0
7152000,0,6.392081e-05,7.5063836e-05,-4.862478e-09,0.0,0.0,0.0
7164000,0,6.392086e-05,7.506382e-05,-4.9003996e-09,0.0,0.0,0.0
7172000,0,6.392089e-05,7.506381e-05,-4.925681e-09,0.0,0.0,0.0
7184000,0,6.392093e-05,7.506379e-05,-4.963603e-09,0.0,0.0,0.0
7192000,0,6.392097e-05,7.5063785e-05,-4.9888844e-09,0.0,0.0,0.0
7204000,0,6.392101e-05,7.506376e-05,-5.026806e-09,0.0,0.0,0.0
7212000,0,6.392104e-05,7.5063756e-05,-5.052088e-09,0.0,0.0,0.0
7224000,0,6.392109e-05,7.5063734e-05,-5.0900093e-09,0.0,0.0,0.0
7232000,0,6.3921114e-05,7.506373e-05,-5.1152913e-09,0.0,0.0,0.0
7244000,0,6.3921165e-05,7.506371e-05,-5.1532125e-09,0.0,0.0,0.0
7252000,0,6.3921194e-05,7.50637e-05,-5.1784945e-09,0.0,0.0,0.0
7264000,0,6.3921245e-05,7.506368e-05,-5.2164157e-09,0.0,0.0,0.0
7272000,0,6.3921274e-05,7.506367e-05,-5.2416977e-09,0.0,0.0,0.0
7284000,0,6.3921325e-05,7.5063654e-05,-5.279619e-09,0.0,0.0,0.0
7292000,0,6.392135e-05,7.506364e-05,-5.304901e-09,0.0,0.0,0.0
7304000,0,6.39214e-05,7.5063625e-05,-5.342822e-09,0.0,0.0,0.0
7312000,0,6.392143e-05,7.506362e-05,-5.368104e-09,0.0,0.0,0.0
7324000,0,6.392147e-05,7.5063595e-05,-5.4060263e-09,0.0,0.0,0.0
7332000,0,6.39215e-05,7.506359e-05,-5.431308e-09,0.0,0.0,0.0
7344000,0,6.392155e-05,7.506357e-05,-5.4692295e-09,0.0,0.0,0.0
7352000,0,6.392158e-05,7.506356e-05,-5.494511e-09,0.0,0.0,0.0
7364000,0,6.392163e-05,7.5063545e-05,-5.5324327e-09,0.0,0.0,0.0
7372000,0,6.392166e-05,7.506353e-05,-5.5577143e-09,0.0,0.0,0.0
7384000,0,6.39217e-05,7.5063515e-05,-5.595636e-09,0.0,0.0,0.0
7392000,0,6.392173e-05,7.50635e-05,-5.6209175e-09,0.0,0.0,0.0
7404000,0,6.392178e-05,7.5063486e-05,-5.658839e-09,0.0,0.0,0.0
7412000,0,6.392181e-05,7.506348e-05,-5.6841207e-09,0.0,0.0,0.0
7424000,0,6.3921856e-05,7.506346e-05,-5.722043e-09,0.0,0.0,0.0
7432000,0,6.3921885e-05,7.506345e-05,-5.747324e-09,0.0,0.0,0.0
7444000,0,6.3921936e-05,7.506343e-05,-5.785246e-09,0.0,0.0,0.0
7452000,0,6.3921965e-05,7.506342e-05,-5.810527e-09,0.0,0.0,0.0
7464000,0,6.392201e-05,7.5063406e-05,-5.8484493e-09,0.0,0.0,0.0
7472000,0,6.3922045e-05,7.506339e-05,-5.8737304e-09,0.0,0.0,0.0
7484000,0,6.392209e-05,7.506338e-05,-5.9116525e-09,0.0,0.0,0.0
7492000,0,6.392212e-05,7.506336e-05,-5.9369336e-09,0.0,0.0,0.0
7504000,0,6.392217e-05,7.506335e-05,-5.9748557e-09,0.0,0.0,0.0
7512000,0,6.3922205e-05,7.506334e-05,-6.000136e-09,0.0,0.0,0.0
7524000,0,6.392224e-05,7.506332e-05,-6.038059e-09,0.0,0.0,0.0
7532000,0,6.3922285e-05,7.506331e-05,-6.063339e-09,0.0,0.0,0.0
7544000,0,6.392232e-05,7.506329e-05,-6.101262e-09,0.0,0.0,0.0
7552000,0,6.392236e-05,7.506328e-05,-6.1265424e-09,0.0,0.0,0.0
7564000,0,6.39224e-05,7.506327e-05,-6.1644654e-09,0.0,0.0,0.0
7572000,0,6.392244e-05,7.506325e-05,-6.1897456e-09,0.0,0.0,0.0
7584000,0,6.3922475e-05,7.506324e-05,-6.2276686e-09,0.0,0.0,0.0
7592000,0,6.392252e-05,7.506323e-05,-6.252949e-09,0.0,0.0,0.0
7604000,0,6.3922555e-05,7.506321e-05,-6.290872e-09,0.0,0.0,0.0
7612000,0,6.392259e-05,7.50632e-05,-6.316152e-09,0.0,0.0,0.0
7624000,0,6.392264e-05,7.506318e-05,-6.354074e-09,0.0,0.0,0.0
7632000,0,6.392267e-05,7.506317e-05,-6.3793553e-09,0.0,0.0,0.0
7644000,0,6.3922715e-05,7.506316e-05,-6.4172774e-09,0.0,0.0,0.0
7652000,0,6.3922744e-05,7.5063144e-05,-6.442559e-09,0.0,0.0,0.0
7664000,0,6.3922795e-05,7.506313e-05,-6.4804806e-09,0.0,0.0,0.0
7672000,0,6.3922824e-05,7.5063115e-05,-6.505762e-09,0.0,0.0,0.0
7684000,0,6.3922875e-05,7.50631e-05,-6.543684e-09,0.0,0.0,0.0
7692000,0,6.3922904e-05,7.5063086e-05,-6.5689654e-09,0.0,0.0,0.0
7704000,0,6.392295e-05,7.506307e-05,-6.606887e-09,0.0,0.0,0.0
7712000,0,6.392298e-05,7.5063064e-05,-6.632169e-09,0.0,0.0,0.0
7724000,0,6.392303e-05,7.506304e-05,-6.6700903e-09,0.0,0.0,0.0
7732000,0,6.392305e-05,7.5063035e-05,-6.6953723e-09,0.0,0.0,0.0
7744000,0,6.39231e-05,7.506302e-05,-6.7332935e-09,0.0,0.0,0.0
7752000,0,6.392313e-05,7.5063006e-05,-6.7585755e-09,0.0,0.0,0.0
7764000,0,6.392318e-05,7.506299e-05,-6.796497e-09,0.0,0.0,0.0
7772000,0,6.392321e-05,7.506298e-05,-6.8217787e-09,0.0,0.0,0.0
7784000,0,6.392326e-05,7.506296e-05,-6.8597004e-09,0.0,0.0,0.0
7792000,0,6.392328e-05,7.506295e-05,-6.884982e-09,0.0,0.0,0.0
7804000,0,6.392333e-05,7.506293e-05,-6.9229036e-09,0.0,0.0,0.0
7812000,0,6.392336e-05,7.5062926e-05,-6.948185e-09,0.0,0.0,0.0
7824000,0,6.3923406e-05,7.5062904e-05,-6.9861072e-09,0.0,0.0,0.0
7832000,0,6.3923435e-05,7.50629e-05,-7.011389e-09,0.0,0.0,0.0
7844000,0,6.3923486e-05,7.5062875e-05,-7.0493105e-09,0.0,0.0,0.0
7852000,0,6.3923515e-05,7.506287e-05,-7.074592e-09,0.0,0.0,0.0
7864000,0,6.3923566e-05,7.506285e-05,-7.1125137e-09,0.0,0.0,0.0
7872000,0,6.392359e-05,7.506284e-05,-7.1377952e-09,0.0,0.0,0.0
7884000,0,6.392364e-05,7.5062824e-05,-7.175717e-09,0.0,0.0,0.0
7892000,0,6.392367e-05,7.506281e-05,-7.2009985e-09,0.0,0.0,0.0
7904000,0,6.392372e-05,7.5062795e-05,-7.23892e-09,0.0,0.0,0.0
7912000,0,6.392375e-05,7.506278e-05,-7.2642017e-09,0.0,0.0,0.0
7924000,0,6.392379e-05,7.5062766e-05,-7.302124e-09,0.0,0.0,0.0
7932000,0,6.392382e-05,7.506276e-05,-7.3274053e-09,0.0,0.0,0.0
7944000,0,6.392387e-05,7.506274e-05,-7.365327e-09,0.0,0.0,0.0
7952000,0,6.39239e-05,7.506273e-05,-7.3906086e-09,0.0,0.0,0.0
7964000,0,6.3923944e-05,7.506271e-05,-7.4285302e-09,0.0,0.0,0.0
7972000,0,6.392398e-05,7.50627e-05,-7.453812e-09,0.0,0.0,0.0
7984000,0,6.3924024e-05,7.5062686e-05,-7.4917335e-09,0.0,0.0,0.0
7992000,0,6.392405e-05,7.506267e-05,-7.517015e-09,0.0,0.0,0.0
8004000,0,6.3924104e-05,7.506266e-05,-7.554937e-09,0.0,0.0,0.0
8012000,0,6.392414e-05,7.506265e-05,-7.580217e-09,0.0,0.0,0.0
8024000,0,6.392418e-05,7.506263e-05,-7.61814e-09,0.0,0.0,0.0
8032000,0,6.392421e-05,7.506262e-05,-7.643421e-09,0.0,0.0,0.0
8044000,0,6.392426e-05,7.50626e-05,-7.681344e-09,0.0,0.0,0.0
8052000,0,6.392429e-05,7.506259e-05,-7.706624e-09,0.0,0.0,0.0
8064000,0,6.392433e-05,7.506257e-05,-7.744546e-09,0.0,0.0,0.0
8072000,0,6.392437e-05,7.506256e-05,-7.7698274e-09,0.0,0.0,0.0
8084000,0,6.392441e-05,7.506255e-05,-7.80775e-09,0.0,0.0,0.0
8092000,0,6.3924446e-05,7.506253e-05,-7.83303e-09,0.0,0.0,0.0
8104000,0,6.392449e-05,7.506252e-05,-7.870954e-09,0.0,0.0,0.0
8112000,0,6.3924526e-05,7.5062504e-05,-7.896234e-09,0.0,0.0,0.0
8124000,0,6.392457e-05,7.506249e-05,-7.9341556e-09,0.0,0.0,0.0
8132000,0,6.392461e-05,7.506248e-05,-7.959437e-09,0.0,0.0,0.0
8144000,0,6.392465e-05,7.506246e-05,-7.997359e-09,0.0,0.0,0.0
8152000,0,6.392468e-05,7.506245e-05,-8.02264e-09,0.0,0.0,0.0
8164000,0,6.392473e-05,7.506244e-05,-8.060562e-09,0.0,0.0,0.0
8172000,0,6.392476e-05,7.5062424e-05,-8.085844e-09,0.0,0.0,0.0
8184000,0,6.39248e-05,7.506241e-05,-8.123766e-09,0.0,0.0,0.0
8192000,0,6.392483e-05,7.5062395e-05,-8.149047e-09,0.0,0.0,0.0
8204000,0,6.392488e-05,7.506238e-05,-8.186968e-09,0.0,0.0,0.0
8212000,0,6.3924905e-05,7.5062366e-05,-8.21225e-09,0.0,0.0,0.0
8224000,0,6.3924956e-05,7.506235e-05,-8.250172e-09,0.0,0.0,0.0
8232000,0,6.3924985e-05,7.506234e-05,-8.275454e-09,0.0,0.0,0.0
8244000,0,6.3925036e-05,7.506232e-05,-8.313376e-09,0.0,0.0,0.0
8252000,0,6.3925065e-05,7.5062315e-05,-8.338657e-09,0.0,0.0,0.0
8264000,0,6.3925116e-05,7.506229e-05,-8.3765785e-09,0.0,0.0,0.0
8272000,0,6.392514e-05,7.5062286e-05,-8.4018605e-09,0.0,0.0,0.0
8284000,0,6.392519e-05,7.506227e-05,-8.439782e-09,0.0,0.0,0.0
8292000,0,6.392522e-05,7.506226e-05,-8.465063e-09,0.0,0.0,0.0
8304000,0,6.392527e-05,7.506224e-05,-8.502985e-09,0.0,0.0,0.0
8312000,0,6.39253e-05,7.506223e-05,-8.528267e-09,0.0,0.0,0.0
8324000,0,6.392534e-05,7.506221e-05,-8.566189e-09,0.0,0.0,0.0
8332000,0,6.392537e-05,7.50622e-05,-8.591471e-09,0.0,0.0,0.0
8344000,0,6.392542e-05,7.5062184e-05,-8.629392e-09,0.0,0.0,0.0
8352000,0,6.392544e-05,7.506217e-05,-8.654674e-09,0.0,0.0,0.0
8364000,0,6.3925494e-05,7.5062155e-05,-8.692595e-09,0.0,0.0,0.0
8372000,0,6.392552e-05,7.506215e-05,-8.717877e-09,0.0,0.0,0.0
8384000,0,6.3925574e-05,7.5062126e-05,-8.755799e-09,0.0,0.0,0.0
8392000,0,6.39256e-05,7.506212e-05,-8.781081e-09,0.0,0.0,0.0
8404000,0,6.392565e-05,7.5062104e-05,-8.819002e-09,0.0,0.0,0.0
8412000,0,6.3925676e-05,7.506209e-05,-8.8442835e-09,0.0,0.0,0.0
8424000,0,6.392573e-05,7.5062075e-05,-8.882206e-09,0.0,0.0,0.0
8432000,0,6.3925756e-05,7.506206e-05,-8.907487e-09,0.0,0.0,0.0
8444000,0,6.39258e-05,7.5062046e-05,-8.945409e-09,0.0,0.0,0.0
8452000,0,6.392583e-05,7.506203e-05,-8.97069e-09,0.0,0.0,0.0
8464000,0,6.392588e-05,7.506202e-05,-9.0086125e-09,0.0,0.0,0.0
8472000,0,6.392591e-05,7.5062e-05,-9.033894e-09,0.0,0.0,0.0
8484000,0,6.392595e-05,7.506199e-05,-9.071815e-09,0.0,0.0,0.0
8492000,0,6.392599e-05,7.506198e-05,-9.097097e-09,0.0,0.0,0.0
8504000,0,6.392603e-05,7.506196e-05,-9.135019e-09,0.0,0.0,0.0
8512000,0,6.392607e-05,7.506195e-05,-9.160299e-09,0.0,0.0,0.0
8524000,0,6.392611e-05,7.506194e-05,-9.198222e-09,0.0,0.0,0.0
8532000,0,6.392615e-05,7.506192e-05,-9.223503e-09,0.0,0.0,0.0
8544000,0,6.3926185e-05,7.506191e-05,-9.261425e-09,0.0,0.0,0.0
8552000,0,6.392623e-05,7.506189e-05,-9.286706e-09,0.0,0.0,0.0
8564000,0,6.3926265e-05,7.506188e-05,-9.324629e-09,0.0,0.0,0.0
8572000,0,6.39263e-05,7.506187e-05,-9.349909e-09,0.0,0.0,0.0
8584000,0,6.392634e-05,7.506185e-05,-9.387832e-09,0.0,0.0,0.0
8592000,0,6.392638e-05,7.506184e-05,-9.413113e-09,0.0,0.0,0.0
8604000,0,6.392642e-05,7.506182e-05,-9.4510355e-09,0.0,0.0,0.0
8612000,0,6.3926454e-05,7.506181e-05,-9.476316e-09,0.0,0.0,0.0
8624000,0,6.3926505e-05,7.50618e-05,-9.514238e-09,0.0,0.0,0.0
8632000,0,6.3926534e-05,7.5061784e-05,-9.539519e-09,0.0,0.0,0.0
8644000,0,6.392658e-05,7.506177e-05,-9.577441e-09,0.0,0.0,0.0
8652000,0,6.392661e-05,7.5061755e-05,-9.602722e-09,0.0,0.0,0.0
8664000,0,6.392666e-05,7.506174e-05,-9.640645e-09,0.0,0.0,0.0
8672000,0,6.392669e-05,7.5061726e-05,-9.665926e-09,0.0,0.0,0.0
8684000,0,6.392674e-05,7.506171e-05,-9.7038475e-09,0.0,0.0,0.0
8692000,0,6.392677e-05,7.5061704e-05,-9.7291295e-09,0.0,0.0,0.0
8704000,0,6.392681e-05,7.506168e-05,-9.767051e-09,0.0,0.0,0.0
8712000,0,6.392684e-05,7.5061675e-05,-9.792333e-09,0.0,0.0,0.0
8724000,0,6.392689e-05,7.506165e-05,-9.830254e-09,0.0,0.0,0.0
8732000,0,6.392691e-05,7.5061645e-05,-9.855536e-09,0.0,0.0,0.0
8744000,0,6.3926964e-05,7.506163e-05,-9.893458e-09,0.0,0.0,0.0
8752000,0,6.392699e-05,7.506162e-05,-9.91874e-09,0.0,0.0,0.0
8764000,0,6.3927044e-05,7.50616e-05,-9.956661e-09,0.0,0.0,0.0
8772000,0,6.392707e-05,7.506159e-05,-9.981942e-09,0.0,0.0,0.0
8784000,0,6.392712e-05,7.506157e-05,-1.0019864e-08,0.0,0.0,0.0
8792000,0,6.3927146e-05,7.506156e-05,-1.0045146e-08,0.0,0.0,0.0
8804000,0,6.39272e-05,7.506154e-05,-1.0083068e-08,0.0,0.0,0.0
8812000,0,6.3927226e-05,7.506153e-05,-1.0108349e-08,0.0,0.0,0.0
8824000,0,6.392727e-05,7.5061515e-05,-1.0146271e-08,0.0,0.0,0.0
8832000,0,6.39273e-05,7.506151e-05,-1.01715525e-08,0.0,0.0,0.0
8844000,0,6.392735e-05,7.5061485e-05,-1.0209474e-08,0.0,0.0,0.0
8852000,0,6.392738e-05,7.506148e-05,-1.0234756e-08,0.0,0.0,0.0
8864000,0,6.392742e-05,7.506146e-05,-1.0272678e-08,0.0,0.0,0.0
8872000,0,6.392745e-05,7.506145e-05,-1.029796e-08,0.0,0.0,0.0
8884000,0,6.39275e-05,7.5061434e-05,-1.03358815e-08,0.0,0.0,0.0
8892000,0,6.392753e-05,7.506142e-05,-1.0361163e-08,0.0,0.0,0.0
8904000,0,6.392758e-05,7.5061405e-05,-1.0399084e-08,0.0,0.0,0.0
8912000,0,6.3927604e-05,7.506139e-05,-1.0424366e-08,0.0,0.0,0.0
8924000,0,6.3927655e-05,7.5061376e-05,-1.0462288e-08,0.0,0.0,0.0
8932000,0,6.3927684e-05,7.506136e-05,-1.0487569e-08,0.0,0.0,0.0
8944000,0,6.392773e-05,7.506135e-05,-1.0525492e-08,0.0,0.0,0.0
8952000,0,6.3927764e-05,7.506134e-05,-1.0550773e-08,0.0,0.0,0.0
8964000,0,6.392781e-05,7.506132e-05,-1.0588694e-08,0.0,0.0,0.0
8972000,0,6.392784e-05,7.506131e-05,-1.0613976e-08,0.0,0.0,0.0
8984000,0,6.392789e-05,7.506129e-05,-1.0651898e-08,0.0,0.0,0.0
8992000,0,6.392792e-05,7.506128e-05,-1.0677179e-08,0.0,0.0,0.0
9004000,0,6.392796e-05,7.506127e-05,-1.0715102e-08,0.0,0.0,0.0
9012000,0,6.3928e-05,7.506125e-05,-1.0740382e-08,0.0,0.0,0.0
9024000,0,6.392804e-05,7.506124e-05,-1.07783045e-08,0.0,0.0,0.0
9032000,0,6.392808e-05,7.506122e-05,-1.0803586e-08,0.0,0.0,0.0
9044000,0,6.392811e-05,7.506121e-05,-1.0841508e-08,0.0,0.0,0.0
9052000,0,6.392816e-05,7.50612e-05,-1.0866788e-08,0.0,0.0,0.0
9064000,0,6.392819e-05,7.506118e-05,-1.0904711e-08,0.0,0.0,0.0
9072000,0,6.392823e-05,7.506117e-05,-1.0929992e-08,0.0,0.0,0.0
9084000,0,6.392827e-05,7.506115e-05,-1.0967915e-08,0.0,0.0,0.0
9092000,0,6.392831e-05,7.506114e-05,-1.0993195e-08,0.0,0.0,0.0
9104000,0,6.3928346e-05,7.506112e-05,-1.1031118e-08,0.0,0.0,0.0
9112000,0,6.392838e-05,7.5061114e-05,-1.10563985e-08,0.0,0.0,0.0
9124000,0,6.392843e-05,7.50611e-05,-1.109432e-08,0.0,0.0,0.0
9132000,0,6.392846e-05,7.5061085e-05,-1.1119602e-08,0.0,0.0,0.0
9144000,0,6.3928506e-05,7.506107e-05,-1.1157524e-08,0.0,0.0,0.0
9152000,0,6.3928535e-05,7.5061056e-05,-1.1182805e-08,0.0,0.0,0.0
9164000,0,6.3928586e-05,7.506104e-05,-1.12207275e-08,0.0,0.0,0.0
9172000,0,6.3928615e-05,7.5061034e-05,-1.1246009e-08,0.0,0.0,0.0
9184000,0,6.3928666e-05,7.506101e-05,-1.128393e-08,0.0,0.0,0.0
9192000,0,6.3928695e-05,7.5061005e-05,-1.1309211e-08,0.0,0.0,0.0
9204000,0,6.392874e-05,7.506098e-05,-1.1347134e-08,0.0,0.0,0.0
9212000,0,6.392877e-05,7.5060976e-05,-1.1372415e-08,0.0,0.0,0.0
9224000,0,6.392882e-05,7.506096e-05,-1.1410337e-08,0.0,0.0,0.0
9232000,0,6.392884e-05,7.506095e-05,-1.1435619e-08,0.0,0.0,0.0
9244000,0,6.392889e-05,7.506093e-05,-1.147354e-08,0.0,0.0,0.0
9252000,0,6.392892e-05,7.506092e-05,-1.1498822e-08,0.0,0.0,0.0
9264000,0,6.392897e-05,7.50609e-05,-1.1536744e-08,0.0,0.0,0.0
9272000,0,6.3928994e-05,7.506089e-05,-1.1562025e-08,0.0,0.0,0.0
9284000,0,6.3929045e-05,7.5060874e-05,-1.1599947e-08,0.0,0.0,0.0
9292000,0,6.3929074e-05,7.506086e-05,-1.1625229e-08,0.0,0.0,0.0
9304000,0,6.3929125e-05,7.5060845e-05,-1.16631504e-08,0.0,0.0,0.0
9312000,0,6.3929154e-05,7.506084e-05,-1.1688432e-08,0.0,0.0,0.0
9324000,0,6.39292e-05,7.5060816e-05,-1.1726354e-08,0.0,0.0,0.0
9332000,0,6.392923e-05,7.506081e-05,-1.1751635e-08,0.0,0.0,0.0
9344000,0,6.392928e-05,7.506079e-05,-1.1789557e-08,0.0,0.0,0.0
9352000,0,6.39293e-05,7.506078e-05,-1.1814839e-08,0.0,0.0,0.0
9364000,0,6.392935e-05,7.5060765e-05,-1.18527606e-08,0.0,0.0,0.0
9372000,0,6.392938e-05,7.506075e-05,-1.18780425e-08,0.0,0.0,0.0
9384000,0,6.392943e-05,7.5060736e-05,-1.1915964e-08,0.0,0.0,0.0
9392000,0,6.392946e-05,7.506072e-05,-1.1941245e-08,0.0,0.0,0.0
9404000,0,6.39295e-05,7.506071e-05,-1.1979167e-08,0.0,0.0,0.0
9412000,0,6.392953e-05,7.506069e-05,-1.2004449e-08,0.0,0.0,0.0
9424000,0,6.392958e-05,7.506068e-05,-1.2042371e-08,0.0,0.0,0.0
9432000,0,6.392961e-05,7.506066e-05,-1.2067652e-08,0.0,0.0,0.0
9444000,0,6.3929656e-05,7.506065e-05,-1.2105574e-08,0.0,0.0,0.0
9452000,0,6.3929685e-05,7.506064e-05,-1.2130855e-08,0.0,0.0,0.0
9464000,0,6.3929736e-05,7.506062e-05,-1.2168777e-08,0.0,0.0,0.0
9472000,0,6.3929765e-05,7.506061e-05,-1.2194059e-08,0.0,0.0,0.0
9484000,0,6.392981e-05,7.506059e-05,-1.2231981e-08,0.0,0.0,0.0
9492000,0,6.3929845e-05,7.506058e-05,-1.2257262e-08,0.0,0.0,0.0
9504000,0,6.392989e-05,7.506057e-05,-1.2295184e-08,0.0,0.0,0.0
9512000,0,6.3929925e-05,7.5060554e-05,-1.2320465e-08,0.0,0.0,0.0
9524000,0,6.392996e-05,7.506054e-05,-1.2358387e-08,0.0,0.0,0.0
9532000,0,6.3930005e-05,7.5060525e-05,-1.2383668e-08,0.0,0.0,0.0
9544000,0,6.393004e-05,7.506051e-05,-1.2421591e-08,0.0,0.0,0.0
9552000,0,6.393008e-05,7.50605e-05,-1.2446871e-08,0.0,0.0,0.0
9564000,0,6.393012e-05,7.506048e-05,-1.2484794e-08,0.0,0.0,0.0
9572000,0,6.393016e-05,7.5060474e-05,-1.2510075e-08,0.0,0.0,0.0
9584000,0,6.3930194e-05,7.506045e-05,-1.2547997e-08,0.0,0.0,0.0
9592000,0,6.393023e-05,7.5060445e-05,-1.25732775e-08,0.0,0.0,0.0
9604000,0,6.3930274e-05,7.506042e-05,-1.2611201e-08,0.0,0.0,0.0
9612000,0,6.393031e-05,7.5060416e-05,-1.2636481e-08,0.0,0.0,0.0
9624000,0,6.3930354e-05,7.50604e-05,-1.2674403e-08,0.0,0.0,0.0
9632000,0,6.393039e-05,7.506039e-05,-1.2699685e-08,0.0,0.0,0.0
9644000,0,6.3930434e-05,7.506037e-05,-1.27376065e-08,0.0,0.0,0.0
9652000,0,6.393046e-05,7.506036e-05,-1.2762888e-08,0.0,0.0,0.0
9664000,0,6.3930514e-05,7.506034e-05,-1.280081e-08,0.0,0.0,0.0
9672000,0,6.393054e-05,7.506033e-05,-1.2826091e-08,0.0,0.0,0.0
9684000,0,6.393059e-05,7.5060314e-05,-1.2864013e-08,0.0,0.0,0.0
9692000,0,6.3930616e-05,7.506031e-05,-1.2889294e-08,0.0,0.0,0.0
9704000,0,6.393067e-05,7.5060285e-05,-1.2927217e-08,0.0,0.0,0.0
9712000,0,6.393069e-05,7.506028e-05,-1.2952498e-08,0.0,0.0,0.0
9724000,0,6.393074e-05,7.5060256e-05,-1.2990419e-08,0.0,0.0,0.0
9732000,0,6.393077e-05,7.506025e-05,-1.3015701e-08,0.0,0.0,0.0
9744000,0,6.393082e-05,7.5060234e-05,-1.3053623e-08,0.0,0.0,0.0
9752000,0,6.393084e-05,7.506022e-05,-1.3078905e-08,0.0,0.0,0.0
9764000,0,6.393089e-05,7.5060205e-05,-1.3116827e-08,0.0,0.0,0.0
9772000,0,6.393092e-05,7.506019e-05,-1.3142108e-08,0.0,0.0,0.0
9784000,0,6.393097e-05,7.5060176e-05,-1.31800295e-08,0.0,0.0,0.0
9792000,0,6.3931e-05,7.506016e-05,-1.32053115e-08,0.0,0.0,0.0
9804000,0,6.3931046e-05,7.506015e-05,-1.3243233e-08,0.0,0.0,0.0
9812000,0,6.3931075e-05,7.506013e-05,-1.3268514e-08,0.0,0.0,0.0
9824000,0,6.3931126e-05,7.506012e-05,-1.3306437e-08,0.0,0.0,0.0
9832000,0,6.393115e-05,7.506011e-05,-1.3331718e-08,0.0,0.0,0.0
9844000,0,6.39312e-05,7.506009e-05,-1.336964e-08,0.0,0.0,0.0
9852000,0,6.393123e-05,7.506008e-05,-1.3394922e-08,0.0,0.0,0.0
9864000,0,6.393128e-05,7.506006e-05,-1.3432843e-08,0.0,0.0,0.0
9872000,0,6.393131e-05,7.506005e-05,-1.3458125e-08,0.0,0.0,0.0
9884000,0,6.393135e-05,7.506004e-05,-1.3496047e-08,0.0,0.0,0.0
9892000,0,6.393138e-05,7.506002e-05,-1.3521328e-08,0.0,0.0,0.0
9904000,0,6.393143e-05,7.506001e-05,-1.355925e-08,0.0,0.0,0.0
9912000,0,6.393146e-05,7.5059994e-05,-1.3584532e-08,0.0,0.0,0.0
9924000,0,6.3931504e-05,7.505998e-05,-1.3622453e-08,0.0,0.0,0.0
9932000,0,6.393153e-05,7.5059965e-05,-1.36477345e-08,0.0,0.0,0.0
9944000,0,6.3931584e-05,7.505995e-05,-1.3685657e-08,0.0,0.0,0.0
9952000,0,6.393161e-05,7.5059936e-05,-1.3710938e-08,0.0,0.0,0.0
9964000,0,6.393166e-05,7.505992e-05,-1.374886e-08,0.0,0.0,0.0
9972000,0,6.3931686e-05,7.5059914e-05,-1.3774142e-08,0.0,0.0,0.0
9984000,0,6.393174e-05,7.505989e-05,-1.38120635e-08,0.0,0.0,0.0
9992000,0,6.3931766e-05,7.5059885e-05,-1.3837345e-08,0.0,0.0,0.0
10004000,0,6.393181e-05,7.505986e-05,-1.3875267e-08,0.0,0.0,0.0
10012000,0,6.393185e-05,7.5059856e-05,-1.3900547e-08,0.0,0.0,0.0
10024000,0,6.393189e-05,7.505984e-05,-1.393847e-08,0.0,0.0,0.0
10032000,0,6.3931926e-05,7.505983e-05,-1.3963751e-08,0.0,0.0,0.0
10044000,0,6.393196e-05,7.505981e-05,-1.4001674e-08,0.0,0.0,0.0
10052000,0,6.3932006e-05,7.50598e-05,-1.4026954e-08,0.0,0.0,0.0
10064000,0,6.393204e-05,7.505978e-05,-1.4064876e-08,0.0,0.0,0.0
10072000,0,6.393208e-05,7.505977e-05,-1.40901575e-08,0.0,0.0,0.0
10084000,0,6.393212e-05,7.5059754e-05,-1.412808e-08,0.0,0.0,0.0
10092000,0,6.393216e-05,7.505975e-05,-1.4153361e-08,0.0,0.0,0.0
10104000,0,6.3932195e-05,7.5059725e-05,-1.4191284e-08,0.0,0.0,0.0
10112000,0,6.393223e-05,7.505972e-05,-1.4216564e-08,0.0,0.0,0.0
10124000,0,6.393228e-05,7.5059696e-05,-1.42544865e-08,0.0,0.0,0.0
10132000,0,6.393231e-05,7.505969e-05,-1.4279768e-08,0.0,0.0,0.0
10144000,0,6.3932355e-05,7.5059674e-05,-1.4317689e-08,0.0,0.0,0.0
10152000,0,6.3932384e-05,7.505966e-05,-1.434297e-08,0.0,0.0,0.0
10164000,0,6.3932435e-05,7.5059645e-05,-1.4380893e-08,0.0,0.0,0.0
10172000,0,6.3932464e-05,7.505963e-05,-1.4406174e-08,0.0,0.0,0.0
10184000,0,6.393251e-05,7.5059615e-05,-1.4444096e-08,0.0,0.0,0.0
10192000,0,6.3932544e-05,7.50596e-05,-1.4469378e-08,0.0,0.0,0.0
10204000,0,6.393259e-05,7.505959e-05,-1.4507299e-08,0.0,0.0,0.0
10212000,0,6.393262e-05,7.505957e-05,-1.4532581e-08,0.0,0.0,0.0
10224000,0,6.393266e-05,7.505956e-05,-1.4570503e-08,0.0,0.0,0.0
10232000,0,6.393269e-05,7.505954e-05,-1.4595784e-08,0.0,0.0,0.0
10244000,0,6.393274e-05,7.505953e-05,-1.4633706e-08,0.0,0.0,0.0
10252000,0,6.393277e-05,7.505952e-05,-1.4658988e-08,0.0,0.0,0.0
10264000,0,6.393282e-05,7.50595e-05,-1.46969095e-08,0.0,0.0,0.0
10272000,0,6.393284e-05,7.505949e-05,-1.4722191e-08,0.0,0.0,0.0
10284000,0,6.3932894e-05,7.505948e-05,-1.4760112e-08,0.0,0.0,0.0
10292000,0,6.393292e-05,7.505946e-05,-1.4785394e-08,0.0,0.0,0.0
10304000,0,6.3932974e-05,7.505945e-05,-1.4823316e-08,0.0,0.0,0.0
10312000,0,6.3932996e-05,7.505943e-05,-1.4848598e-08,0.0,0.0,0.0
10324000,0,6.393305e-05,7.505942e-05,-1.488652e-08,0.0,0.0,0.0
10332000,0,6.3933076e-05,7.5059404e-05,-1.4911802e-08,0.0,0.0,0.0
10344000,0,6.393312e-05,7.505939e-05,-1.4949723e-08,0.0,0.0,0.0
10352000,0,6.393315e-05,7.5059375e-05,-1.4975004e-08,0.0,0.0,0.0
10364000,0,6.39332e-05,7.505936e-05,-1.5012926e-08,0.0,0.0,0.0
10372000,0,6.393323e-05,7.5059346e-05,-1.5038207e-08,0.0,0.0,0.0
10384000,0,6.393327e-05,7.505933e-05,-1.5076129e-08,0.0,0.0,0.0
10392000,0,6.39333e-05,7.5059324e-05,-1.5101412e-08,0.0,0.0,0.0
10404000,0,6.393335e-05,7.50593e-05,-1.5139333e-08,0.0,0.0,0.0
10412000,0,6.393338e-05,7.5059295e-05,-1.5164614e-08,0.0,0.0,0.0
10424000,0,6.3933425e-05,7.505927e-05,-1.5202536e-08,0.0,0.0,0.0
10432000,0,6.3933454e-05,7.5059266e-05,-1.5227817e-08,0.0,0.0,0.0
10444000,0,6.3933505e-05,7.5059244e-05,-1.5265739e-08,0.0,0.0,0.0
10452000,0,6.3933534e-05,7.505924e-05,-1.5291022e-08,0.0,0.0,0.0
10464000,0,6.393358e-05,7.505922e-05,-1.5328943e-08,0.0,0.0,0.0
10472000,0,6.393361e-05,7.505921e-05,-1.5354225e-08,0.0,0.0,0.0
10484000,0,6.393366e-05,7.505919e-05,-1.5392146e-08,0.0,0.0,0.0
10492000,0,6.393369e-05,7.505918e-05,-1.5417427e-08,0.0,0.0,0.0
10504000,0,6.393373e-05,7.5059164e-05,-1.5455349e-08,0.0,0.0,0.0
10512000,0,6.3933774e-05,7.505916e-05,-1.548063e-08,0.0,0.0,0.0
10524000,0,6.393381e-05,7.5059135e-05,-1.5518554e-08,0.0,0.0,0.0
10532000,0,6.393385e-05,7.505913e-05,-1.5543833e-08,0.0,0.0,0.0
10544000,0,6.393388e-05,7.5059106e-05,-1.5581756e-08,0.0,0.0,0.0
10552000,0,6.393393e-05,7.50591e-05,-1.5607037e-08,0.0,0.0,0.0
10564000,0,6.393396e-05,7.505908e-05,-1.5644959e-08,0.0,0.0,0.0
10572000,0,6.3934e-05,7.505907e-05,-1.567024e-08,0.0,0.0,0.0
10584000,0,6.3934036e-05,7.505905e-05,-1.5708164e-08,0.0,0.0,0.0
10592000,0,6.393408e-05,7.505904e-05,-1.5733443e-08,0.0,0.0,0.0
10604000,0,6.3934116e-05,7.5059026e-05,-1.5771366e-08,0.0,0.0,0.0
10612000,0,6.393415e-05,7.505901e-05,-1.5796648e-08,0.0,0.0,0.0
10624000,0,6.39342e-05,7.5059e-05,-1.583457e-08,0.0,0.0,0.0
10632000,0,6.393423e-05,7.505898e-05,-1.585985e-08,0.0,0.0,0.0
10644000,0,6.3934276e-05,7.505897e-05,-1.5897772e-08,0.0,0.0,0.0
10652000,0,6.3934305e-05,7.505895e-05,-1.5923053e-08,0.0,0.0,0.0
10664000,0,6.3934356e-05,7.505894e-05,-1.5960975e-08,0.0,0.0,0.0
10672000,0,6.3934385e-05,7.505893e-05,-1.5986258e-08,0.0,0.0,0.0
10684000,0,6.393443e-05,7.505891e-05,-1.602418e-08,0.0,0.0,0.0
10692000,0,6.393446e-05,7.50589e-05,-1.604946e-08,0.0,0.0,0.0
10704000,0,6.393451e-05,7.505888e-05,-1.6087382e-08,0.0,0.0,0.0
10712000,0,6.393453e-05,7.505887e-05,-1.6112663e-08,0.0,0.0,0.0
10724000,0,6.393458e-05,7.505886e-05,-1.6150585e-08,0.0,0.0,0.0
10732000,0,6.393461e-05,7.5058844e-05,-1.6175868e-08,0.0,0.0,0.0
10744000,0,6.393466e-05,7.505883e-05,-1.621379e-08,0.0,0.0,0.0
10752000,0,6.393468e-05,7.5058815e-05,-1.623907e-08,0.0,0.0,0.0
10764000,0,6.3934734e-05,7.50588e-05,-1.6276992e-08,0.0,0.0,0.0
10772000,0,6.393476e-05,7.5058786e-05,-1.6302273e-08,0.0,0.0,0.0
10784000,0,6.3934815e-05,7.505877e-05,-1.6340195e-08,0.0,0.0,0.0
10792000,0,6.3934844e-05,7.505876e-05,-1.6365476e-08,0.0,0.0,0.0
10804000,0,6.393489e-05,7.505874e-05,-1.6403398e-08,0.0,0.0,0.0
10812000,0,6.393492e-05,7.505873e-05,-1.642868e-08,0.0,0.0,0.0
10824000,0,6.393496e-05,7.505871e-05,-1.6466602e-08,0.0,0.0,0.0
10832000,0,6.393499e-05,7.50587e-05,-1.6491883e-08,0.0,0.0,0.0
10844000,0,6.393504e-05,7.5058684e-05,-1.6529805e-08,0.0,0.0,0.0
10852000,0,6.393507e-05,7.505868e-05,-1.6555086e-08,0.0,0.0,0.0
10864000,0,6.393512e-05,7.5058655e-05,-1.6593008e-08,0.0,0.0,0.0
10872000,0,6.393514e-05,7.505865e-05,-1.661829e-08,0.0,0.0,0.0
10884000,0,6.393519e-05,7.5058626e-05,-1.6656212e-08,0.0,0.0,0.0
10892000,0,6.393522e-05,7.505862e-05,-1.6681494e-08,0.0,0.0,0.0
10904000,0,6.393527e-05,7.5058604e-05,-1.6719415e-08,0.0,0.0,0.0
10912000,0,6.3935295e-05,7.505859e-05,-1.6744696e-08,0.0,0.0,0.0
10924000,0,6.3935346e-05,7.5058575e-05,-1.678262e-08,0.0,0.0,0.0
10932000,0,6.3935375e-05,7.505856e-05,-1.68079e-08,0.0,0.0,0.0
10944000,0,6.393542e-05,7.5058546e-05,-1.6845823e-08,0.0,0.0,0.0
10952000,0,6.3935455e-05,7.505853e-05,-1.6871104e-08,0.0,0.0,0.0
10964000,0,6.39355e-05,7.505852e-05,-1.6909025e-08,0.0,0.0,0.0
10972000,0,6.393553e-05,7.50585e-05,-1.6934306e-08,0.0,0.0,0.0
10984000,0,6.393557e-05,7.505849e-05,-1.6972228e-08,0.0,0.0,0.0
10992000,0,6.393561e-05,7.505847e-05,-1.699751e-08,0.0,0.0,0.0
11004000,0,6.393565e-05,7.505846e-05,-1.7035433e-08,0.0,0.0,0.0
11012000,0,6.393569e-05,7.505845e-05,-1.7060714e-08,0.0,0.0,0.0
11024000,0,6.3935724e-05,7.505843e-05,-1.7098635e-08,0.0,0.0,0.0
11032000,0,6.393577e-05,7.505842e-05,-1.7123917e-08,0.0,0.0,0.0
11044000,0,6.3935804e-05,7.50584e-05,-1.7161838e-08,0.0,0.0,0.0
11052000,0,6.393584e-05,7.505839e-05,-1.718712e-08,0.0,0.0,0.0
11064000,0,6.3935884e-05,7.505837e-05,-1.7225043e-08,0.0,0.0,0.0
11072000,0,6.393592e-05,7.5058364e-05,-1.7250322e-08,0.0,0.0,0.0
11084000,0,6.393596e-05,7.505835e-05,-1.7288246e-08,0.0,0.0,0.0
11092000,0,6.393599e-05,7.5058335e-05,-1.7313527e-08,0.0,0.0,0.0
11104000,0,6.393604e-05,7.505832e-05,-1.7351448e-08,0.0,0.0,0.0
11112000,0,6.393607e-05,7.5058306e-05,-1.737673e-08,0.0,0.0,0.0
11124000,0,6.393612e-05,7.505829e-05,-1.7414651e-08,0.0,0.0,0.0
11132000,0,6.3936146e-05,7.5058284e-05,-1.7439932e-08,0.0,0.0,0.0
11144000,0,6.39362e-05,7.505826e-05,-1.7477854e-08,0.0,0.0,0.0
11152000,0,6.3936226e-05,7.5058255e-05,-1.7503137e-08,0.0,0.0,0.0
11164000,0,6.393627e-05,7.505823e-05,-1.7541058e-08,0.0,0.0,0.0
11172000,0,6.39363e-05,7.5058226e-05,-1.756634e-08,0.0,0.0,0.0
11184000,0,6.393635e-05,7.5058204e-05,-1.7604261e-08,0.0,0.0,0.0
11192000,0,6.393638e-05,7.50582e-05,-1.7629542e-08,0.0,0.0,0.0
11204000,0,6.393642e-05,7.505818e-05,-1.7667464e-08,0.0,0.0,0.0
11212000,0,6.393645e-05,7.505817e-05,-1.7692747e-08,0.0,0.0,0.0
11224000,0,6.39365e-05,7.505815e-05,-1.7730668e-08,0.0,0.0,0.0
11232000,0,6.3936524e-05,7.505814e-05,-1.775595e-08,0.0,0.0,0.0
11244000,0,6.3936575e-05,7.5058124e-05,-1.7793871e-08,0.0,0.0,0.0
11252000,0,6.3936604e-05,7.505811e-05,-1.7819152e-08,0.0,0.0,0.0
11264000,0,6.3936655e-05,7.5058095e-05,-1.7857074e-08,0.0,0.0,0.0
11272000,0,6.393668e-05,7.505808e-05,-1.7882355e-08,0.0,0.0,0.0
11284000,0,6.393673e-05,7.5058066e-05,-1.7920277e-08,0.0,0.0,0.0
11292000,0,6.393676e-05,7.505805e-05,-1.794556e-08,0.0,0.0,0.0
11304000,0,6.39368e-05,7.505804e-05,-1.7983481e-08,0.0,0.0,0.0
11312000,0,6.393683e-05,7.505802e-05,-1.8008762e-08,0.0,0.0,0.0
11324000,0,6.393688e-05,7.505801e-05,-1.8046684e-08,0.0,0.0,0.0
11332000,0,6.393691e-05,7.5058e-05,-1.8071965e-08,0.0,0.0,0.0
11344000,0,6.3936954e-05,7.505798e-05,-1.8109887e-08,0.0,0.0,0.0
11352000,0,6.393698e-05,7.505797e-05,-1.813517e-08,0.0,0.0,0.0
11364000,0,6.3937034e-05,7.505795e-05,-1.8173091e-08,0.0,0.0,0.0
11372000,0,6.393706e-05,7.505794e-05,-1.8198373e-08,0.0,0.0,0.0
11384000,0,6.393711e-05,7.505793e-05,-1.8236294e-08,0.0,0.0,0.0
11392000,0,6.3937136e-05,7.505791e-05,-1.8261575e-08,0.0,0.0,0.0
11404000,0,6.393719e-05,7.50579e-05,-1.8299497e-08,0.0,0.0,0.0
11412000,0,6.3937216e-05,7.5057884e-05,-1.8324778e-08,0.0,0.0,0.0
11424000,0,6.393726e-05,7.505787e-05,-1.8362702e-08,0.0,0.0,0.0
11432000,0,6.393729e-05,7.5057855e-05,-1.8387983e-08,0.0,0.0,0.0
11444000,0,6.393734e-05,7.505784e-05,-1.8425904e-08,0.0,0.0,0.0
11452000,0,6.393737e-05,7.5057826e-05,-1.8451185e-08,0.0,0.0,0.0
11464000,0,6.393741e-05,7.505781e-05,-1.8489107e-08,0.0,0.0,0.0
11472000,0,6.393744e-05,7.50578e-05,-1.8514388e-08,0.0,0.0,0.0
11484000,0,6.393749e-05,7.505778e-05,-1.8552312e-08,0.0,0.0,0.0
11492000,0,6.393752e-05,7.505777e-05,-1.8577593e-08,0.0,0.0,0.0
11504000,0,6.3937565e-05,7.505775e-05,-1.8615514e-08,0.0,0.0,0.0
11512000,0,6.39376e-05,7.5057746e-05,-1.8640796e-08,0.0,0.0,0.0
11524000,0,6.3937645e-05,7.5057724e-05,-1.8678717e-08,0.0,0.0,0.0
11532000,0,6.393768e-05,7.505772e-05,-1.8703998e-08,0.0,0.0,0.0
11544000,0,6.393772e-05,7.5057695e-05,-1.874192e-08,0.0,0.0,0.0
11552000,0,6.3937754e-05,7.505769e-05,-1.8767201e-08,0.0,0.0,0.0
11564000,0,6.39378e-05,7.5057666e-05,-1.8805125e-08,0.0,0.0,0.0
11572000,0,6.3937834e-05,7.505766e-05,-1.8830404e-08,0.0,0.0,0.0
11584000,0,6.393787e-05,7.5057644e-05,-1.8868327e-08,0.0,0.0,0.0
11592000,0,6.3937914e-05,7.505763e-05,-1.8893608e-08,0.0,0.0,0.0
11604000,0,6.393795e-05,7.5057615e-05,-1.893153e-08,0.0,0.0,0.0
11612000,0,6.393799e-05,7.50576e-05,-1.8956811e-08,0.0,0.0,0.0
11624000,0,6.393803e-05,7.5057585e-05,-1.8994733e-08,0.0,0.0,0.0
11632000,0,6.393806e-05,7.505757e-05,-1.9020014e-08,0.0,0.0,0.0
11644000,0,6.393811e-05,7.505756e-05,-1.9057936e-08,0.0,0.0,0.0
11652000,0,6.393814e-05,7.505755e-05,-1.9083219e-08,0.0,0.0,0.0
11664000,0,6.393818e-05,7.505753e-05,-1.912114e-08,0.0,0.0,0.0
11672000,0,6.393822e-05,7.505752e-05,-1.9146421e-08,0.0,0.0,0.0
11684000,0,6.393826e-05,7.50575e-05,-1.9184343e-08,0.0,0.0,0.0
11692000,0,6.393829e-05,7.505749e-05,-1.9209624e-08,0.0,0.0,0.0
11704000,0,6.3938336e-05,7.505747e-05,-1.9247546e-08,0.0,0.0,0.0
11712000,0,6.3938365e-05,7.505746e-05,-1.9272829e-08,0.0,0.0,0.0
11724000,0,6.3938416e-05,7.505745e-05,-1.931075e-08,0.0,0.0,0.0
11732000,0,6.3938445e-05,7.505743e-05,-1.9336031e-08,0.0,0.0,0.0
11744000,0,6.393849e-05,7.505742e-05,-1.9373953e-08,0.0,0.0,0.0
11752000,0,6.393852e-05,7.50574e-05,-1.9399234e-08,0.0,0.0,0.0
11764000,0,6.393857e-05,7.505739e-05,-1.9437156e-08,0.0,0.0,0.0
11772000,0,6.39386e-05,7.5057374e-05,-1.9462437e-08,0.0,0.0,0.0
11784000,0,6.393864e-05,7.505736e-05,-1.9500359e-08,0.0,0.0,0.0
11792000,0,6.393867e-05,7.5057345e-05,-1.9525642e-08,0.0,0.0,0.0
11804000,0,6.3938714e-05,7.505733e-05,-1.9563563e-08,0.0,0.0,0.0
11812000,0,6.393874e-05,7.5057316e-05,-1.9588844e-08,0.0,0.0,0.0
11824000,0,6.3938794e-05,7.50573e-05,-1.9626766e-08,0.0,0.0,0.0
11832000,0,6.393882e-05,7.505729e-05,-1.9652047e-08,0.0,0.0,0.0
11844000,0,6.393887e-05,7.505727e-05,-1.9689969e-08,0.0,0.0,0.0
11852000,0,6.3938896e-05,7.505726e-05,-1.9715252e-08,0.0,0.0,0.0
11864000,0,6.393895e-05,7.505724e-05,-1.9753173e-08,0.0,0.0,0.0
11872000,0,6.393898e-05,7.5057236e-05,-1.9778454e-08,0.0,0.0,0.0
11884000,0,6.393902e-05,7.5057214e-05,-1.9816376e-08,0.0,0.0,0.0
11892000,0,6.393905e-05,7.505721e-05,-1.9841657e-08,0.0,0.0,0.0
11904000,0,6.39391e-05,7.5057185e-05,-1.9879579e-08,0.0,0.0,0.0
11912000,0,6.393913e-05,7.505718e-05,-1.990486e-08,0.0,0.0,0.0
11924000,0,6.393917e-05,7.5057156e-05,-1.9942782e-08,0.0,0.0,0.0
11932000,0,6.39392e-05,7.505715e-05,-1.9968065e-08,0.0,0.0,0.0
11944000,0,6.393925e-05,7.5057134e-05,-2.0005986e-08,0.0,0.0,0.0
11952000,0,6.393928e-05,7.505712e-05,-2.0031267e-08,0.0,0.0,0.0
11964000,0,6.3939326e-05,7.5057105e-05,-2.0069189e-08,0.0,0.0,0.0
11972000,0,6.3939355e-05,7.505709e-05,-2.009447e-08,0.0,0.0,0.0
11984000,0,6.3939406e-05,7.5057076e-05,-2.0132392e-08,0.0,0.0,0.0
11992000,0,6.3939435e-05,7.505706e-05,-2.0157673e-08,0.0,0.0,0.0
12004000,0,6.393948e-05,7.505705e-05,-2.0195596e-08,0.0,0.0,0.0
12012000,0,6.3939515e-05,7.505704e-05,-2.0220876e-08,0.0,0.0,0.0
12024000,0,6.393956e-05,7.505702e-05,-2.0258799e-08,0.0,0.0,0.0
12032000,0,6.3939595e-05,7.505701e-05,-2.028408e-08,0.0,0.0,0.0
12044000,0,6.393963e-05,7.505699e-05,-2.0322002e-08,0.0,0.0,0.0
12052000,0,6.393967e-05,7.505698e-05,-2.0347283e-08,0.0,0.0,0.0
12064000,0,6.393971e-05,7.505696e-05,-2.0385205e-08,0.0,0.0,0.0
12072000,0,6.393975e-05,7.505695e-05,-2.0410486e-08,0.0,0.0,0.0
12084000,0,6.3939784e-05,7.505693e-05,-2.044841e-08,0.0,0.0,0.0
12092000,0,6.393982e-05,7.505692e-05,-2.047369e-08,0.0,0.0,0.0
12104000,0,6.393987e-05,7.505691e-05,-2.0511612e-08,0.0,0.0,0.0
12112000,0,6.39399e-05,7.5056894e-05,-2.0536893e-08,0.0,0.0,0.0
12124000,0,6.3939944e-05,7.505688e-05,-2.0574815e-08,0.0,0.0,0.0
12132000,0,6.393997e-05,7.5056865e-05,-2.0600096e-08,0.0,0.0,0.0
12144000,0,6.3940024e-05,7.505685e-05,-2.0638018e-08,0.0,0.0,0.0
12152000,0,6.394005e-05,7.5056836e-05,-2.0663299e-08,0.0,0.0,0.0
12164000,0,6.39401e-05,7.505682e-05,-2.070122e-08,0.0,0.0,0.0
12172000,0,6.3940126e-05,7.505681e-05,-2.0726503e-08,0.0,0.0,0.0
12184000,0,6.394018e-05,7.505679e-05,-2.0764425e-08,0.0,0.0,0.0
12192000,0,6.3940206e-05,7.505678e-05,-2.0789706e-08,0.0,0.0,0.0
12204000,0,6.394025e-05,7.505676e-05,-2.0827628e-08,0.0,0.0,0.0
12212000,0,6.394028e-05,7.505675e-05,-2.0852909e-08,0.0,0.0,0.0
12224000,0,6.394033e-05,7.5056734e-05,-2.089083e-08,0.0,0.0,0.0
12232000,0,6.394035e-05,7.505673e-05,-2.0916112e-08,0.0,0.0,0.0
12244000,0,6.39404e-05,7.5056705e-05,-2.0954033e-08,0.0,0.0,0.0
12252000,0,6.394043e-05,7.50567e-05,-2.0979316e-08,0.0,0.0,0.0
12264000,0,6.394048e-05,7.5056676e-05,-2.1017238e-08,0.0,0.0,0.0
12272000,0,6.3940504e-05,7.505667e-05,-2.1042519e-08,0.0,0.0,0.0
12284000,0,6.3940555e-05,7.505665e-05,-2.108044e-08,0.0,0.0,0.0
12292000,0,6.3940584e-05,7.505664e-05,-2.1105722e-08,0.0,0.0,0.0
12304000,0,6.394063e-05,7.505662e-05,-2.1143643e-08,0.0,0.0,0.0
12312000,0,6.394066e-05,7.505661e-05,-2.1168926e-08,0.0,0.0,0.0
12324000,0,6.394071e-05,7.5056596e-05,-2.1206848e-08,0.0,0.0,0.0
12332000,0,6.394073e-05,7.505658e-05,-2.1232129e-08,0.0,0.0,0.0
12344000,0,6.394078e-05,7.505657e-05,-2.127005e-08,0.0,0.0,0.0
12352000,0,6.394081e-05,7.505655e-05,-2.1295332e-08,0.0,0.0,0.0
12364000,0,6.394086e-05,7.505654e-05,-2.1333253e-08,0.0,0.0,0.0
12372000,0,6.394088e-05,7.505652e-05,-2.1358534e-08,0.0,0.0,0.0
12384000,0,6.394093e-05,7.505651e-05,-2.1396456e-08,0.0,0.0,0.0
12392000,0,6.394096e-05,7.5056494e-05,-2.1421737e-08,0.0,0.0,0.0
12404000,0,6.394101e-05,7.505648e-05,-2.145966e-08,0.0,0.0,0.0
12412000,0,6.3941035e-05,7.5056465e-05,-2.1484942e-08,0.0,0.0,0.0
12424000,0,6.394109e-05,7.505645e-05,-2.1522863e-08,0.0,0.0,0.0
12432000,0,6.3941116e-05,7.5056436e-05,-2.1548145e-08,0.0,0.0,0.0
12444000,0,6.394116e-05,7.505642e-05,-2.1586066e-08,0.0,0.0,0.0
12452000,0,6.394119e-05,7.5056414e-05,-2.1611347e-08,0.0,0.0,0.0
12464000,0,6.394124e-05,7.505639e-05,-2.1649269e-08,0.0,0.0,0.0
12472000,0,6.394127e-05,7.5056385e-05,-2.167455e-08,0.0,0.0,0.0
12484000,0,6.394131e-05,7.505636e-05,-2.1712474e-08,0.0,0.0,0.0
12492000,0,6.394134e-05,7.5056356e-05,-2.1737755e-08,0.0,0.0,0.0
12504000,0,6.394139e-05,7.5056334e-05,-2.1775676e-08,0.0,0.0,0.0
12512000,0,6.394143e-05,7.505633e-05,-2.1800957e-08,0.0,0.0,0.0
12524000,0,6.3941465e-05,7.5056305e-05,-2.183888e-08,0.0,0.0,0.0
12532000,0,6.39415e-05,7.50563e-05,-2.186416e-08,0.0,0.0,0.0
12544000,0,6.3941545e-05,7.505628e-05,-2.1902082e-08,0.0,0.0,0.0
12552000,0,6.394158e-05,7.505627e-05,-2.1927363e-08,0.0,0.0,0.0
12564000,0,6.394162e-05,7.5056254e-05,-2.1965286e-08,0.0,0.0,0.0
12572000,0,6.3941654e-05,7.505624e-05,-2.1990568e-08,0.0,0.0,0.0
12584000,0,6.39417e-05,7.5056225e-05,-2.202849e-08,0.0,0.0,0.0
12592000,0,6.3941734e-05,7.505621e-05,-2.205377e-08,0.0,0.0,0.0
12604000,0,6.394178e-05,7.5056196e-05,-2.2091692e-08,0.0,0.0,0.0
12612000,0,6.394181e-05,7.505618e-05,-2.2116973e-08,0.0,0.0,0.0
12624000,0,6.394186e-05,7.505617e-05,-2.2154895e-08,0.0,0.0,0.0
12632000,0,6.394189e-05,7.505616e-05,-2.2180176e-08,0.0,0.0,0.0
12644000,0,6.394193e-05,7.505614e-05,-2.2218098e-08,0.0,0.0,0.0
12652000,0,6.394196e-05,7.505613e-05,-2.2243379e-08,0.0,0.0,0.0
12664000,0,6.394201e-05,7.505611e-05,-2.2281302e-08,0.0,0.0,0.0
12672000,0,6.394204e-05,7.50561e-05,-2.2306583e-08,0.0,0.0,0.0
12684000,0,6.394208e-05,7.505608e-05,-2.2344505e-08,0.0,0.0,0.0
