timestamp,timestamp_sample,device_id,magnetometer_ga[0],magnetometer_ga[1],magnetometer_ga[2],calibration_count
3200000,3148800,197388,0.008529177,-0.21548437,0.42901635,0
3216000,3216000,197388,0.0027137452,-0.21149588,0.42485708,0
3348000,3288000,197388,0.010215499,-0.21695213,0.42849964,0
3360000,3360000,197388,0.0068642152,-0.21714018,0.42641777,0
3492000,3430909,197388,0.009524569,-0.2153887,0.42825085,0
3504000,3504000,197388,0.0072510135,-0.21221271,0.43433037,0
3636000,3575636,197388,0.0105542205,-0.21638994,0.4278632,0
3648000,3648000,197388,0.0091030365,-0.21295635,0.4362645,0
3776000,3719636,197388,0.009402629,-0.21744989,0.4297937,0
3792000,3792000,197388,0.013768298,-0.21510878,0.42906365,0
3920000,3862545,197388,0.012391784,-0.21607064,0.4295886,0
3936000,3936000,197388,0.012004624,-0.20963396,0.42926964,0
4064000,4006545,197388,0.012130593,-0.2163999,0.4289341,0
4080000,4080000,197388,0.009440147,-0.21114962,0.42707536,0
4212000,4151636,197388,0.009405896,-0.21710737,0.42862043,0
4224000,4224000,197388,0.011842655,-0.22168736,0.42954606,0
4352000,4294181,197388,0.010496135,-0.21601486,0.42918757,0
4368000,4368000,197388,0.0115292715,-0.21229427,0.43061873,0
4496000,4438545,197388,0.00951471,-0.21667302,0.42743295,0
4512000,4512000,197388,0.009593707,-0.21537589,0.42354137,0
4644000,4583272,197388,0.011200298,-0.21657638,0.43113324,0
4656000,4656000,197388,0.017634215,-0.21182914,0.42742392,0
4788000,4727636,197388,0.01016707,-0.21609513,0.42932573,0
4800000,4800000,197388,0.0014270293,-0.21375047,0.44027957,0
4928000,4871272,197388,0.0081674885,-0.21672525,0.42640454,0
4944000,4944000,197388,0.0101843355,-0.21177225,0.4302635,0
5072000,5015272,197388,0.011170092,-0.21734884,0.42967686,0
5088000,5088000,197388,0.008684722,-0.21455692,0.4293879,0
5220000,5159636,197388,0.010674906,-0.21631621,0.42829007,0
5232000,5232000,197388,0.014808082,-0.21133718,0.4310706,0
5364000,5303272,197388,0.011376785,-0.21561755,0.42923963,0
5376000,5376000,197388,0.01116129,-0.21576543,0.43019813,0
5504000,5446181,197388,0.011032428,-0.21546504,0.430469,0
5520000,5520000,197388,-0.00038428605,-0.20912348,0.42361706,0
5648000,5590545,197388,0.008554788,-0.21605429,0.43035245,0
5664000,5664000,197388,0.006396198,-0.22248529,0.43262073,0
5796000,5736000,197388,0.010631564,-0.21536028,0.42791632,0
5808000,5808000,197388,0.0077666994,-0.21636182,0.43319273,0
5940000,5878909,197388,0.0096557755,-0.21635234,0.42726678,0
5952000,5952000,197388,0.010584283,-0.21636824,0.42612374,0
6080000,6023272,197388,0.009664528,-0.21468827,0.4295678,0
6096000,6096000,197388,0.013444149,-0.21912412,0.43026313,0
6228000,6167636,197388,0.010314512,-0.21345939,0.42959383,0
6240000,6240000,197388,0.011156017,-0.21321467,0.42791042,0
6368000,6311272,197388,0.009139683,-0.21623439,0.42732188,0
6384000,6384000,197388,0.009645332,-0.22416125,0.43466383,0
6512000,6455272,197388,0.010424283,-0.21557698,0.42935997,0
6528000,6528000,197388,0.0054610367,-0.21231653,0.4319994,0
6656000,6598909,197388,0.0105250785,-0.21762085,0.4269039,0
6672000,6672000,197388,0.00060439704,-0.21949978,0.4369037,0
6800000,6742545,197388,0.010045794,-0.21615216,0.43060535,0
6816000,6816000,197388,0.00588824,-0.21735843,0.42946404,0
6944000,6886545,197388,0.011505157,-0.2165429,0.42952067,0
6960000,6960000,197388,0.003160603,-0.21196882,0.43184137,0
7088000,7030909,197388,0.010664139,-0.21430296,0.42878225,0
7104000,7104000,197388,0.01187652,-0.21686226,0.4322296,0
7232000,7173818,197388,0.009569169,-0.21478322,0.42997196,0
7248000,7248000,197388,0.003278942,-0.21783587,0.4360972,0
7376000,7318909,197388,0.010154157,-0.21296513,0.43275696,0
7392000,7392000,197388,0.009924958,-0.21518709,0.43048048,0
7520000,7462909,197388,0.009595607,-0.21694316,0.43069094,0
7536000,7536000,197388,0.007318845,-0.21248591,0.42779717,0
7668000,7607272,197388,0.012586972,-0.21656722,0.4286452,0
7680000,7680000,197388,0.008516494,-0.20877181,0.42463115,0
7812000,7750909,197388,0.00993039,-0.21497025,0.42810875,0
7824000,7824000,197388,0.013440996,-0.21423693,0.42271763,0
7956000,7894909,197388,0.010314337,-0.2164245,0.42956752,0
7968000,7968000,197388,0.006526925,-0.21950491,0.4297858,0
8096000,8038909,197388,0.011488497,-0.2170135,0.42801437,0
8112000,8112000,197388,0.0069146124,-0.21704523,0.4275402,0
8240000,8183272,197388,0.0058934814,-0.21650033,0.43016517,0
8252000,8252000,197388,0.017270694,-0.21502483,0.42616236,0
8376000,8321600,197388,0.0108840205,-0.21625426,0.42797813,0
8400000,8394000,197388,0.008143246,-0.21315323,0.4290378,0
8520000,8466000,197388,0.008399301,-0.21462126,0.43022633,0
8544000,8538000,197388,0.012221276,-0.21696246,0.4308982,0
8664000,8609600,197388,0.009191003,-0.21628968,0.42713347,0
8688000,8682000,197388,0.0076142885,-0.21653503,0.42954528,0
8808000,8754000,197388,0.010741167,-0.21669891,0.4293631,0
8832000,8824000,197388,0.005436251,-0.21324627,0.42971405,0
8936000,8890666,197388,0.008451386,-0.21566643,0.4262609,0
8976000,8962666,197388,0.010804187,-0.21350738,0.42964137,0
9084000,9034666,197388,0.00843732,-0.21652633,0.42943305,0
9120000,9106666,197388,0.010135845,-0.21767688,0.42695206,0
9216000,9173500,197388,0.008485102,-0.21726336,0.42966238,0
9264000,9246000,197388,0.011634095,-0.2150125,0.4307768,0
9356000,9317000,197388,0.008799874,-0.21538813,0.42871258,0
9408000,9388000,197388,0.0077099847,-0.21831389,0.429959,0
9492000,9454857,197388,0.008526745,-0.21569511,0.43256134,0
9540000,9522000,197388,0.009286537,-0.21666057,0.42885843,0
9632000,9593500,197388,0.008627146,-0.21371615,0.42689657,0
9684000,9665000,197388,0.010008932,-0.21797878,0.42914778,0
9776000,9736500,197388,0.010023629,-0.21697095,0.42819893,0
9816000,9804000,197388,0.00891475,-0.21562281,0.4282412,0
9920000,9874222,197388,0.009189573,-0.21663381,0.42831543,0
9948000,9942000,197388,0.0059618065,-0.21828291,0.4299001,0
10064000,10012800,197388,0.009526081,-0.21722858,0.43018904,0
10080000,10080000,197388,0.009233756,-0.21559903,0.42750582,0
10208000,10150545,197388,0.0099699795,-0.21493077,0.42806098,0
10224000,10224000,197388,0.007631936,-0.21624048,0.43272746,0
10352000,10295272,197388,0.010122485,-0.21507578,0.43002534,0
10364000,10364000,197388,0.009708629,-0.21555014,0.42558992,0
10488000,10432400,197388,0.009713195,-0.21452098,0.43019563,0
10500000,10500000,197388,0.011519583,-0.21246025,0.42727417,0
10632000,10571272,197388,0.008812297,-0.21672916,0.42919335,0
10640000,10640000,197388,0.008439201,-0.21423219,0.43067145,0
10764000,10710000,197388,0.010465267,-0.21455093,0.43081614,0
10788000,10782000,197388,0.0075080264,-0.21228707,0.42243236,0
10908000,10854000,197388,0.008614433,-0.21654661,0.42978978,0
10932000,10926000,197388,0.009788091,-0.21635728,0.42740613,0
11048000,10997600,197388,0.008911572,-0.21538153,0.4299191,0
11076000,11070000,197388,0.010954806,-0.22105154,0.43003172,0
11192000,11141200,197388,0.0091758985,-0.21669371,0.42993718,0
11208000,11208000,197388,0.008168709,-0.21759069,0.44046703,0
11336000,11278545,197388,0.010516976,-0.2160856,0.42936453,0
11352000,11352000,197388,0.003626014,-0.22097021,0.4318886,0
11484000,11422909,197388,0.009093635,-0.21502993,0.43045315,0
11496000,11496000,197388,0.008132694,-0.2161341,0.42957732,0
11628000,11566545,197388,0.008636825,-0.21703704,0.42860535,0
11640000,11640000,197388,0.010964201,-0.21277234,0.42181495,0
11772000,11710545,197388,0.008556843,-0.21482325,0.42998463,0
11784000,11784000,197388,0.0082544135,-0.21853808,0.4275825,0
11912000,11855272,197388,0.010189392,-0.21425918,0.42762333,0
11928000,11928000,197388,0.006703574,-0.2188024,0.42373884,0
12060000,11998909,197388,0.009267555,-0.21456192,0.42867288,0
12072000,12072000,197388,0.0089162765,-0.22171624,0.4292817,0
12204000,12142181,197388,0.008971966,-0.2157029,0.42964262,0
12212000,12212000,197388,0.009989547,-0.2191592,0.43098256,0
12336000,12281600,197388,0.009334712,-0.21769665,0.42862645,0
12360000,12354000,197388,0.01206305,-0.215924,0.43098813,0
12476000,12424400,197388,0.009056427,-0.21842372,0.4281896,0
12492000,12492000,197388,0.0115712,-0.21034221,0.42510444,0
12624000,12563272,197388,0.010854441,-0.21628898,0.42721328,0
12636000,12636000,197388,0.0068552564,-0.20993853,0.43207172,0
12768000,12706909,197388,0.010348236,-0.2161243,0.42842957,0
12776000,12776000,197388,0.011128337,-0.2145637,0.4207509,0
12896000,12844800,197388,0.008042636,-0.21682544,0.42820168,0
12912000,12912000,197388,0.0047678626,-0.21322724,0.43104422,0
13040000,12982909,197388,0.009129705,-0.21494946,0.43007773,0
13056000,13056000,197388,0.011051965,-0.21302046,0.42978233,0
13184000,13126545,197388,0.0105921505,-0.21596606,0.4276349,0
13200000,13200000,197388,0.007685692,-0.21843652,0.42958978,0
13332000,13270545,197388,0.008187032,-0.21731956,0.4296577,0
13340000,13340000,197388,0.0074207946,-0.21635912,0.43758583,0
13464000,13409600,197388,0.010267494,-0.21656716,0.4313171,0
13488000,13482000,197388,0.0058401204,-0.21857458,0.43075323,0
13608000,13553600,197388,0.009478438,-0.2165931,0.4295948,0
13632000,13626000,197388,0.0033100205,-0.21641235,0.43536758,0
13752000,13697200,197388,0.010378595,-0.21649821,0.4285863,0
13772000,13766000,197388,0.0126250945,-0.21632896,0.4283942,0
13880000,13835111,197388,0.008704565,-0.21602084,0.4287385,0
13908000,13902000,197388,0.014938042,-0.21284413,0.4330105,0
14028000,13973200,197388,0.010470157,-0.21824484,0.42845818,0
14040000,14040000,197388,0.013306979,-0.2134179,0.4355269,0
14172000,14111272,197388,0.01021509,-0.21562512,0.43008277,0
14184000,14184000,197388,0.016228693,-0.21813956,0.4256123,0
14312000,14254909,197388,0.009323433,-0.21472248,0.4270369,0
14328000,14328000,197388,0.007470807,-0.21415028,0.42268097,0
14456000,14398545,197388,0.009851845,-0.21635531,0.43044496,0
14472000,14472000,197388,0.008326905,-0.20816107,0.42964628,0
14604000,14543272,197388,0.009562489,-0.2151353,0.42960286,0
14616000,14616000,197388,0.00821076,-0.21375561,0.4277537,0
14748000,14687272,197388,0.009370921,-0.21719716,0.42936972,0
14760000,14760000,197388,0.017240755,-0.21306513,0.42148814,0
14892000,14831272,197388,0.011183635,-0.21533845,0.4310717,0
14900000,14900000,197388,0.008351528,-0.21028316,0.4318026,0
15024000,14968400,197388,0.0076410766,-0.21593928,0.43049636,0
15036000,15036000,197388,0.011634959,-0.21188395,0.43159023,0
15168000,15107272,197388,0.010279191,-0.21477377,0.4297448,0
15180000,15180000,197388,0.00783973,-0.22030538,0.434703,0
15312000,15251272,197388,0.010904239,-0.21501236,0.43083638,0
15320000,15320000,197388,0.008902997,-0.21170154,0.42956385,0
15444000,15388800,197388,0.012447487,-0.21559885,0.4308947,0
15456000,15456000,197388,0.0037119098,-0.21434313,0.43166143,0
15584000,15527636,197388,0.010826533,-0.21589707,0.42948622,0
15600000,15600000,197388,0.009427723,-0.21201669,0.43030137,0
15732000,15672000,197388,0.010416405,-0.21561146,0.43048856,0
15744000,15744000,197388,0.00827152,-0.21860294,0.4271462,0
15872000,15815272,197388,0.009339356,-0.21650922,0.4292783,0
15888000,15888000,197388,0.008069024,-0.21748778,0.4347531,0
16016000,15958181,197388,0.011699262,-0.21622936,0.42935416,0
16032000,16032000,197388,0.008251165,-0.21323058,0.4310948,0
16164000,16102545,197388,0.011269493,-0.21584295,0.4305351,0
16176000,16176000,197388,0.012218915,-0.2159241,0.42978355,0
16304000,16246909,197388,0.009877749,-0.21470775,0.43144795,0
16320000,16320000,197388,0.008171901,-0.21593122,0.42854548,0
16448000,16390545,197388,0.01033842,-0.21849006,0.4287561,0
16464000,16464000,197388,0.005978441,-0.22283179,0.42907187,0
16596000,16534545,197388,0.00847675,-0.21718061,0.42740673,0
16608000,16608000,197388,0.014393478,-0.213668,0.42650247,0
16740000,16679272,197388,0.009763921,-0.21645577,0.42934436,0
16752000,16752000,197388,0.008350644,-0.21564457,0.43480244,0
16884000,16823272,197388,0.010060879,-0.21551846,0.4297874,0
16896000,16896000,197388,0.011703894,-0.21562771,0.42874596,0
17024000,16967636,197388,0.009694999,-0.2148272,0.42906198,0
17040000,17040000,197388,0.0049326904,-0.20555812,0.42712083,0
17172000,17110909,197388,0.010130179,-0.21605614,0.43004268,0
17184000,17184000,197388,0.007878261,-0.2071104,0.4338586,0
17312000,17254545,197388,0.008739357,-0.21590622,0.4297707,0
17328000,17328000,197388,0.013807286,-0.21790446,0.43205544,0
17456000,17398545,197388,0.00904292,-0.21551874,0.43016747,0
17472000,17472000,197388,0.012888504,-0.21832508,0.43243873,0
17604000,17543272,197388,0.009126004,-0.21607979,0.4292353,0
17616000,17616000,197388,0.013436212,-0.21556357,0.44055212,0
17748000,17686545,197388,0.008706234,-0.21610749,0.4276565,0
17760000,17760000,197388,0.011724558,-0.2189571,0.43413496,0
17892000,17831272,197388,0.009497453,-0.2173284,0.43003833,0
17904000,17904000,197388,0.007537783,-0.22436151,0.42666173,0
18036000,17975272,197388,0.009516775,-0.21536085,0.43102187,0
18048000,18048000,197388,0.005193924,-0.21372283,0.42906398,0
18176000,18118545,197388,0.00917134,-0.21524228,0.4296832,0
18192000,18192000,197388,0.009439746,-0.21364588,0.43231663,0
18320000,18262909,197388,0.010256949,-0.21449736,0.43143058,0
18336000,18336000,197388,0.008626371,-0.21633615,0.43588355,0
18464000,18406545,197388,0.00945424,-0.21667945,0.42894888,0
18480000,18480000,197388,0.009303582,-0.21491705,0.42967522,0
18608000,18550909,197388,0.009722431,-0.21584052,0.42790517,0
18624000,18624000,197388,0.011701852,-0.21247496,0.43068594,0
18752000,18694909,197388,0.009381613,-0.21461366,0.42986616,0
18768000,18768000,197388,0.011421964,-0.2170082,0.42923433,0
18896000,18838545,197388,0.010387629,-0.21501063,0.42946002,0
18912000,18912000,197388,0.0062962896,-0.22245295,0.42706802,0
19040000,18982909,197388,0.010342802,-0.21649441,0.4302077,0
19056000,19056000,197388,0.010112339,-0.20907524,0.42877284,0
19188000,19127636,197388,0.010735987,-0.21700075,0.42839906,0
19200000,19200000,197388,0.010323009,-0.21402153,0.42648372,0
19332000,19271272,197388,0.009777133,-0.21486929,0.4281444,0
19344000,19344000,197388,0.0062596668,-0.22004598,0.43043318,0
19472000,19415272,197388,0.008928375,-0.21441835,0.42969367,0
19488000,19488000,197388,0.0060992604,-0.21817814,0.42703307,0
19620000,19558545,197388,0.010321496,-0.21509221,0.42917556,0
19632000,19632000,197388,0.010253054,-0.21737048,0.42697915,0
19760000,19702909,197388,0.009327188,-0.21579203,0.4299203,0
19776000,19776000,197388,0.011503143,-0.21771806,0.43313113,0
19908000,19847272,197388,0.008571804,-0.2149471,0.42830658,0
19920000,19920000,197388,0.008410441,-0.21620551,0.4302758,0
20052000,19991636,197388,0.007627548,-0.21489476,0.43050992,0
20064000,20064000,197388,0.009744004,-0.21998794,0.42696825,0
20192000,20134181,197388,0.010614172,-0.2158296,0.4306121,0
20208000,20208000,197388,0.012460687,-0.22192727,0.43520784,0
20340000,20279272,197388,0.009934665,-0.21579918,0.42878693,0
20352000,20352000,197388,0.012674873,-0.21079324,0.4263211,0
20480000,20421818,197388,0.0082694385,-0.21337783,0.42948425,0
20496000,20496000,197388,0.0022654138,-0.21752882,0.43308222,0
20624000,20566909,197388,0.00814022,-0.21645702,0.42913035,0
20640000,20640000,197388,0.010740386,-0.21722266,0.43087888,0
20768000,20710545,197388,0.010626503,-0.21515387,0.42959142,0
20784000,20784000,197388,0.011240791,-0.21280636,0.42496157,0
20916000,20855636,197388,0.010226083,-0.21424386,0.4290965,0
20928000,20928000,197388,0.009065545,-0.20973372,0.42869332,0
21056000,20998909,197388,0.010244687,-0.21267736,0.43044165,0
21072000,21072000,197388,0.0061903927,-0.21511912,0.42817247,0
21204000,21142909,197388,0.008973195,-0.21402624,0.42939687,0
21216000,21216000,197388,0.009801905,-0.21941927,0.4333055,0
21348000,21288000,197388,0.009466737,-0.2163022,0.42775103,0
21360000,21360000,197388,0.016471699,-0.20994611,0.4243201,0
21492000,21432000,197388,0.009103787,-0.21570759,0.42944592,0
21504000,21504000,197388,0.010907861,-0.21704388,0.4286012,0
21636000,21575272,197388,0.008681104,-0.21555321,0.43044743,0
21648000,21648000,197388,0.008661575,-0.21899125,0.4262481,0
21776000,21719636,197388,0.008964099,-0.21403241,0.4287811,0
21792000,21792000,197388,0.0023509169,-0.21303032,0.42860746,0
21920000,21862545,197388,0.009061092,-0.21485338,0.43036938,0
21936000,21936000,197388,0.0076398253,-0.2124765,0.42947957,0
22068000,22007272,197388,0.010648675,-0.2146349,0.42846018,0
22080000,22080000,197388,0.012548815,-0.21791504,0.42721727,0
22212000,22151272,197388,0.007943281,-0.2139685,0.43046814,0
22224000,22224000,197388,0.011380579,-0.21269022,0.4341265,0
22356000,22296000,197388,0.010578488,-0.21514519,0.42945066,0
22368000,22368000,197388,0.012306921,-0.21312018,0.42897546,0
22500000,22438545,197388,0.009597706,-0.21560912,0.428507,0
22512000,22512000,197388,0.011140816,-0.22078,0.43200636,0
22644000,22582909,197388,0.010528947,-0.2142631,0.42910266,0
22656000,22656000,197388,0.004340083,-0.22093953,0.42624328,0
22784000,22726181,197388,0.008633427,-0.21457218,0.42913026,0
22800000,22800000,197388,0.012208673,-0.21268196,0.43277824,0
22932000,22870909,197388,0.008384304,-0.21586297,0.4304638,0
22944000,22944000,197388,0.012248215,-0.21509658,0.42792186,0
23076000,23016000,197388,0.00822305,-0.2151657,0.428544,0
23088000,23088000,197388,0.0050514936,-0.21726829,0.42993844,0
23220000,23160000,197388,0.009879731,-0.21573165,0.4281083,0
23232000,23232000,197388,0.005391734,-0.2144016,0.43269488,0
23360000,23302181,197388,0.008369152,-0.21385987,0.43072218,0
23376000,23376000,197388,0.00671673,-0.21346442,0.42782384,0
23508000,23446909,197388,0.007043214,-0.21554635,0.43147588,0
23520000,23520000,197388,0.00315201,-0.21221597,0.42223403,0
23652000,23592000,197388,0.008282668,-0.21528342,0.43053383,0
23664000,23664000,197388,0.011510073,-0.2221164,0.43785465,0
23796000,23735636,197388,0.009699956,-0.21714446,0.4286638,0
23808000,23808000,197388,0.0068685752,-0.21613495,0.42828107,0
23936000,23879636,197388,0.009600649,-0.21434696,0.42871833,0
23952000,23952000,197388,0.0029130916,-0.21661064,0.4367945,0
24084000,24023272,197388,0.008818598,-0.21585576,0.4271829,0
24096000,24096000,197388,0.016883481,-0.21946725,0.4330118,0
24224000,24166545,197388,0.009267644,-0.21448521,0.42772415,0
24240000,24240000,197388,0.012287641,-0.21542193,0.4348132,0
24372000,24310909,197388,0.010546009,-0.21521266,0.42870736,0
24384000,24384000,197388,0.0119208805,-0.20930667,0.4309912,0
24512000,24453818,197388,0.009668699,-0.21492302,0.43049854,0
24528000,24528000,197388,0.013856512,-0.22097406,0.43318388,0
24660000,24598545,197388,0.009306341,-0.21513508,0.42867887,0
24672000,24672000,197388,0.010033911,-0.21472822,0.4345826,0
24804000,24744000,197388,0.010336413,-0.21462668,0.42965743,0
24816000,24816000,197388,0.0071233464,-0.21441813,0.43191254,0
24944000,24886909,197388,0.009319672,-0.2151191,0.42993477,0
24960000,24960000,197388,0.013041217,-0.21619034,0.4245548,0
25092000,25030909,197388,0.009740961,-0.21371526,0.42978218,0
25104000,25104000,197388,0.0062398496,-0.2159011,0.42493358,0
25232000,25174909,197388,0.010974099,-0.21555607,0.43059063,0
25248000,25248000,197388,0.007851065,-0.21152489,0.42661047,0
25376000,25318545,197388,0.008630701,-0.21554653,0.4309989,0
25392000,25392000,197388,0.008852989,-0.21520324,0.42536637,0
25524000,25461818,197388,0.00897903,-0.21450427,0.42743334,0
25536000,25536000,197388,0.011016356,-0.21313915,0.42980286,0
25668000,25606909,197388,0.010194226,-0.21448421,0.43041664,0
25680000,25680000,197388,0.0058383993,-0.21655591,0.42482656,0
25808000,25750545,197388,0.008452277,-0.2130959,0.4320659,0
25824000,25824000,197388,0.0061673764,-0.20761894,0.42838705,0
25952000,25894545,197388,0.0016529697,-0.20449634,0.43571377,0
25968000,25968000,197388,-0.0026149699,-0.1939954,0.43202358,0
26096000,26038181,197388,-0.008157629,-0.19444914,0.43836445,0
26112000,26112000,197388,-0.014902223,-0.19967791,0.44109556,0
26240000,26182545,197388,-0.006222611,-0.20111851,0.43417278,0
26256000,26256000,197388,0.000832461,-0.1980493,0.43182763,0
26384000,26326545,197388,0.0039332025,-0.20964058,0.4291846,0
26400000,26400000,197388,0.013168247,-0.21974544,0.42784947,0
26532000,26470909,197388,0.009024908,-0.21570346,0.42910734,0
26544000,26544000,197388,0.013893125,-0.21388783,0.42805248,0
26672000,26615636,197388,0.010070254,-0.21641634,0.42779386,0
26688000,26688000,197388,0.012255114,-0.21783993,0.42165646,0
26820000,26758909,197388,0.009958449,-0.21860923,0.4265531,0
26832000,26832000,197388,0.011741401,-0.22221087,0.42934698,0
26960000,26903272,197388,0.011126061,-0.22192109,0.42368755,0
26976000,26976000,197388,0.013066941,-0.22564231,0.42033774,0
27108000,27048000,197388,0.0131499935,-0.22308262,0.42757586,0
27120000,27120000,197388,0.013808123,-0.22125503,0.4181672,0
27248000,27190909,197388,0.012851682,-0.2237625,0.42345053,0
27264000,27264000,197388,0.012351154,-0.22029392,0.42488596,0
27392000,27334909,197388,0.012808193,-0.22345908,0.42203635,0
27408000,27408000,197388,0.0081018,-0.22356933,0.4238062,0
27540000,27478909,197388,0.012833884,-0.2272372,0.42414024,0
27552000,27552000,197388,0.014707255,-0.22499214,0.4246119,0
27684000,27622909,197388,0.012414774,-0.22379674,0.4261714,0
27696000,27696000,197388,0.01560851,-0.22226036,0.42490163,0
27828000,27768000,197388,0.013943617,-0.22177991,0.426131,0
27840000,27840000,197388,0.0076330137,-0.21672547,0.427513,0
27968000,27910545,197388,0.010993955,-0.22209506,0.4294667,0
27984000,27984000,197388,0.014455162,-0.21829583,0.42365268,0
28112000,28054909,197388,0.01410669,-0.22195138,0.42599052,0
28128000,28128000,197388,0.005104523,-0.21960191,0.42369857,0
28256000,28198181,197388,0.011787465,-0.21895492,0.42830005,0
28272000,28272000,197388,0.010648254,-0.21399523,0.4322036,0
28404000,28342909,197388,0.009299401,-0.21938084,0.42715582,0
28416000,28416000,197388,0.014100324,-0.21348064,0.42568246,0
28548000,28487272,197388,0.0125149,-0.21843103,0.42853495,0
28560000,28560000,197388,0.010937073,-0.22749765,0.42638287,0
28688000,28629818,197388,0.009408331,-0.21972369,0.42826495,0
28704000,28704000,197388,0.015126987,-0.21693733,0.42661577,0
28836000,28775272,197388,0.010615065,-0.21727313,0.4272097,0
28848000,28848000,197388,0.005321217,-0.21384336,0.42684382,0
28976000,28918545,197388,0.0109343575,-0.21800244,0.42920598,0
28992000,28992000,197388,0.0037742676,-0.21373318,0.42468315,0
29124000,29062545,197388,0.010231261,-0.21619715,0.43029332,0
29136000,29136000,197388,0.008091914,-0.2154537,0.43519497,0
29264000,29206909,197388,0.01138417,-0.21592563,0.4316778,0
29280000,29280000,197388,0.008790888,-0.2110262,0.4350362,0
29412000,29350545,197388,0.0090088425,-0.21521653,0.43187815,0
29420000,29420000,197388,0.010452211,-0.21401747,0.43386078,0
29544000,29488800,197388,0.010290784,-0.213906,0.42890468,0
29568000,29560000,197388,0.009218445,-0.2134603,0.4288299,0
29676000,29627555,197388,0.008184973,-0.21473844,0.4297418,0
29712000,29700000,197388,0.009236716,-0.2145379,0.4308314,0
29816000,29770222,197388,0.0066596405,-0.21447769,0.4309205,0
29856000,29842666,197388,0.010851489,-0.2179678,0.43116793,0
29960000,29914666,197388,0.005870165,-0.21414323,0.43160382,0
30000000,29986666,197388,0.0041756146,-0.21788554,0.43239164,0
30108000,30059111,197388,0.009817185,-0.21268864,0.4277408,0
30132000,30126000,197388,0.0013914644,-0.21236885,0.42852047,0
30252000,30198000,197388,0.0070443884,-0.21521483,0.43088514,0
30276000,30270000,197388,0.009816601,-0.21521187,0.42923066,0
30396000,30342000,197388,0.0074973213,-0.21497674,0.43009478,0
30416000,30412000,197388,0.006313798,-0.21122669,0.4252162,0
30528000,30478666,197388,0.00543458,-0.21315247,0.42949334,0
30560000,30549333,197388,0.006561992,-0.21416193,0.42736077,0
30656000,30616000,197388,0.0077010184,-0.21287368,0.43337134,0
30692000,30682666,197388,0.0069772042,-0.21214068,0.4333715,0
30800000,30754222,197388,0.006638365,-0.21413916,0.43135485,0
30828000,30822000,197388,0.010610189,-0.21844465,0.43085045,0
30944000,30892800,197388,0.008469208,-0.21444264,0.4297823,0
30960000,30960000,197388,0.0070554013,-0.21063687,0.4295371,0
31088000,31030181,197388,0.0075914315,-0.21519725,0.42755792,0
31104000,31104000,197388,0.009145064,-0.21602276,0.42704695,0
31232000,31175636,197388,0.008881152,-0.21527785,0.42818826,0
31248000,31248000,197388,0.0028457672,-0.21556059,0.4320295,0
31380000,31319272,197388,0.007832753,-0.21567447,0.42978713,0
31392000,31392000,197388,0.008234088,-0.21621853,0.4384926,0
31520000,31462909,197388,0.009864535,-0.21477707,0.42952582,0
31536000,31536000,197388,0.007059413,-0.20706986,0.43065748,0
31668000,31607272,197388,0.010689785,-0.21529491,0.42874402,0
31680000,31680000,197388,0.009531834,-0.2205909,0.42488602,0
31812000,31750909,197388,0.009031071,-0.21655492,0.42828995,0
31824000,31824000,197388,0.0058332426,-0.21435484,0.43913224,0
31956000,31894909,197388,0.010270469,-0.21681675,0.4296546,0
31968000,31968000,197388,0.0071449564,-0.21712203,0.43409628,0
32096000,32038909,197388,0.009754384,-0.21717176,0.42800164,0
32112000,32112000,197388,0.009552126,-0.21304345,0.4272134,0
32244000,32183272,197388,0.00956457,-0.21677646,0.4275155,0
32256000,32256000,197388,0.012943621,-0.21709847,0.42857003,0
32388000,32326181,197388,0.0097292485,-0.21635917,0.42904577,0
32400000,32400000,197388,0.0041725687,-0.21824944,0.42663267,0
32528000,32471636,197388,0.0070184525,-0.21495399,0.42926106,0
32544000,32544000,197388,0.016296,-0.21306388,0.43076408,0
32676000,32614545,197388,0.00928838,-0.21352877,0.43022346,0
32688000,32688000,197388,0.004928943,-0.213277,0.42717403,0
32816000,32758545,197388,0.0070048296,-0.21532239,0.43082762,0
32832000,32832000,197388,0.008867057,-0.22054699,0.42798358,0
32960000,32903272,197388,0.008298678,-0.21484911,0.43137375,0
32976000,32976000,197388,0.01096133,-0.21123298,0.42803597,0
33108000,33046909,197388,0.009694313,-0.21719643,0.4282481,0
33120000,33120000,197388,0.008776973,-0.21901985,0.43303972,0
33248000,33191636,197388,0.009174481,-0.21524285,0.43159962,0
33264000,33264000,197388,0.009597352,-0.20858166,0.4318062,0
33396000,33335636,197388,0.00988543,-0.21516506,0.42904982,0
33408000,33408000,197388,0.008439608,-0.21764113,0.42954767,0
33540000,33480000,197388,0.011001248,-0.2155771,0.42871293,0
33552000,33552000,197388,0.011093683,-0.21560542,0.43410957,0
33684000,33624000,197388,0.008727236,-0.21566457,0.42940563,0
33696000,33696000,197388,0.008957834,-0.22010052,0.4255549,0
33824000,33766909,197388,0.008934423,-0.2176999,0.42964855,0
33840000,33840000,197388,0.016368516,-0.21195598,0.42810506,0
33972000,33911272,197388,0.009200395,-0.2134178,0.4303758,0
33984000,33984000,197388,0.010973381,-0.22258513,0.42800108,0
34116000,34055272,197388,0.011110981,-0.2149862,0.42908072,0
34128000,34128000,197388,0.022217302,-0.22176833,0.4296444,0
34260000,34200000,197388,0.011567356,-0.2156638,0.42840382,0
34272000,34272000,197388,0.008730723,-0.22282845,0.43088725,0
34404000,34343272,197388,0.011103032,-0.21756308,0.43017033,0
34416000,34416000,197388,0.010249616,-0.22065629,0.42885366,0
34548000,34487272,197388,0.009796448,-0.2173993,0.42851633,0
34560000,34560000,197388,0.014602546,-0.2195824,0.43515602,0
34688000,34630909,197388,0.009660415,-0.21665782,0.42777166,0
34704000,34704000,197388,0.0029682189,-0.21397811,0.42491147,0
34832000,34774545,197388,0.0076949364,-0.21692212,0.42848206,0
34848000,34848000,197388,0.014748008,-0.21247794,0.4276646,0
34980000,34918545,197388,0.009714076,-0.21789019,0.42833218,0
34992000,34992000,197388,0.0057132845,-0.2161424,0.43357155,0
35120000,35062545,197388,0.010038984,-0.21629433,0.4284023,0
35136000,35136000,197388,0.0101833735,-0.21951438,0.43003273,0
35268000,35208000,197388,0.010659804,-0.21667552,0.42704484,0
35280000,35280000,197388,0.008142219,-0.2142469,0.4345483,0
35412000,35352000,197388,0.009341381,-0.21642193,0.42718264,0
35424000,35424000,197388,0.0069345674,-0.21646759,0.4276594,0
35556000,35496000,197388,0.009649761,-0.21466076,0.42971846,0
35568000,35568000,197388,0.012470258,-0.21986182,0.4319417,0
35700000,35639272,197388,0.010231371,-0.218148,0.42692208,0
35712000,35712000,197388,0.01278721,-0.22207199,0.42755717,0
35840000,35782909,197388,0.00850022,-0.21660417,0.42860517,0
35856000,35856000,197388,0.012008649,-0.21821131,0.42961118,0
35984000,35926545,197388,0.0084232,-0.21634562,0.42836204,0
36000000,36000000,197388,0.0075336345,-0.21212861,0.42965558,0
36132000,36072000,197388,0.010028327,-0.21554488,0.43114853,0
36144000,36144000,197388,0.0031462284,-0.22073197,0.4270438,0
36276000,36215272,197388,0.00864745,-0.21512951,0.42904696,0
36288000,36288000,197388,0.009627422,-0.21726897,0.43491206,0
36416000,36358181,197388,0.008026877,-0.21707642,0.43010983,0
36432000,36432000,197388,-0.0033546253,-0.21639252,0.42489606,0
36564000,36502909,197388,0.008586327,-0.21512765,0.4293824,0
36576000,36576000,197388,0.005486967,-0.21847223,0.42578793,0
36704000,36646909,197388,0.010186783,-0.2166006,0.42687076,0
36720000,36720000,197388,0.0090323975,-0.2153826,0.4290914,0
36848000,36791636,197388,0.009339579,-0.2145822,0.4279738,0
36864000,36864000,197388,0.010610613,-0.21297675,0.42999065,0
36996000,36934545,197388,0.007978365,-0.2162352,0.42859438,0
37008000,37008000,197388,0.008617644,-0.21360032,0.4249551,0
37140000,37078909,197388,0.009001078,-0.21693838,0.42857552,0
37152000,37152000,197388,0.009075882,-0.21601546,0.4344793,0
37280000,37222545,197388,0.010342294,-0.21629874,0.42653498,0
37296000,37296000,197388,0.009789798,-0.21277004,0.4295856,0
37424000,37366545,197388,0.009222593,-0.21353957,0.42964023,0
37440000,37440000,197388,0.01169895,-0.2231071,0.42676583,0
37568000,37510181,197388,0.010995135,-0.21808009,0.42853552,0
37584000,37584000,197388,0.0017052661,-0.21857221,0.42685017,0
37712000,37654909,197388,0.00774206,-0.2175126,0.4287077,0
37728000,37728000,197388,0.014184981,-0.21307924,0.43281502,0
37856000,37797818,197388,0.009702677,-0.21757464,0.42991713,0
37872000,37872000,197388,0.008641803,-0.21384136,0.42956352,0
38004000,37944000,197388,0.008913773,-0.21419047,0.42987928,0
38016000,38016000,197388,0.008002528,-0.21646519,0.4288179,0
38148000,38087272,197388,0.00918935,-0.21466392,0.43013257,0
38160000,38160000,197388,0.0087151965,-0.21582414,0.42932507,0
38288000,38230909,197388,0.008422515,-0.21594879,0.4281993,0
38304000,38304000,197388,0.0057879263,-0.2154129,0.43418285,0
38436000,38375636,197388,0.009884667,-0.21735342,0.428691,0
38448000,38448000,197388,0.0108480835,-0.2121364,0.42757228,0
38580000,38519272,197388,0.007619627,-0.21703637,0.42986584,0
38592000,38592000,197388,0.0030468833,-0.21865821,0.42859328,0
38724000,38662545,197388,0.008643672,-0.2161741,0.42855033,0
38736000,38736000,197388,0.012496336,-0.22254409,0.43050432,0
38864000,38806909,197388,0.007670868,-0.21620867,0.42924508,0
38880000,38880000,197388,0.006918952,-0.21490641,0.42875344,0
39012000,38950909,197388,0.0086431345,-0.21700509,0.42813328,0
39024000,39024000,197388,0.009524149,-0.21944663,0.42676598,0
39156000,39095636,197388,0.008240451,-0.21584743,0.428205,0
39168000,39168000,197388,0.007142272,-0.21638773,0.43365496,0
39296000,39238909,197388,0.0088400915,-0.21504974,0.42744917,0
39312000,39312000,197388,0.014635494,-0.21938257,0.42465064,0
39440000,39382909,197388,0.010160162,-0.21557781,0.4297528,0
39456000,39456000,197388,0.004441772,-0.2064331,0.4309065,0
39584000,39526909,197388,0.009487532,-0.21506757,0.42887464,0
39600000,39600000,197388,0.011519905,-0.21729979,0.43298066,0
39732000,39671272,197388,0.00876744,-0.21638164,0.42713985,0
39744000,39744000,197388,0.0052191187,-0.21947402,0.42951822,0
39872000,39814909,197388,0.007569312,-0.21507372,0.4305541,0
39888000,39888000,197388,0.0062748366,-0.21670432,0.4317448,0
40016000,39959272,197388,0.009241529,-0.21623196,0.43004414,0
40028000,40028000,197388,0.0023147308,-0.22013018,0.4262828,0
40152000,40097600,197388,0.008428699,-0.21803537,0.428251,0
40172000,40168000,197388,0.008215368,-0.21660066,0.42985696,0
40296000,40240000,197388,0.008610653,-0.21560442,0.43056068,0
40308000,40308000,197388,0.007385203,-0.2124257,0.4317972,0
40440000,40378545,197388,0.0062987865,-0.21590374,0.4293761,0
40448000,40448000,197388,0.006462553,-0.20828088,0.43357253,0
40568000,40517200,197388,0.009721787,-0.21430974,0.42975003,0
40596000,40588000,197388,0.010636373,-0.21288782,0.42778695,0
40704000,40655555,197388,0.008308311,-0.21721417,0.42823747,0
40740000,40726666,197388,0.0082359295,-0.21670394,0.4311959,0
40836000,40794000,197388,0.009299642,-0.21670677,0.42859745,0
40880000,40864000,197388,0.009008554,-0.21557616,0.42980483,0
40968000,40930857,197388,0.011292142,-0.2163599,0.42891654,0
41016000,40998000,197388,0.009368989,-0.21626274,0.43013334,0
41112000,41069000,197388,0.011142393,-0.21520087,0.4285481,0
41160000,41141000,197388,0.013363039,-0.21569228,0.43068555,0
41256000,41213500,197388,0.009017599,-0.21740936,0.42939714,0
41304000,41285000,197388,0.0061035305,-0.2178992,0.4296753,0
41388000,41352000,197388,0.0073535666,-0.21715012,0.43006748,0
41448000,41423200,197388,0.00848434,-0.21729334,0.4291578,0
41520000,41490000,197388,0.006582482,-0.21569042,0.42924067,0
41592000,41560666,197388,0.008878721,-0.21787107,0.43149883,0
41664000,41632666,197388,0.0072068814,-0.21687472,0.4300747,0
41736000,41705333,197388,0.008719602,-0.22030205,0.43201876,0
41808000,41777333,197388,0.010369314,-0.21573447,0.4304043,0
41868000,41844000,197388,0.008611335,-0.21328688,0.43090877,0
41952000,41916000,197388,0.008854648,-0.21517104,0.42823562,0
42008000,41986400,197388,0.008798885,-0.21945074,0.42728353,0
42084000,42053333,197388,0.008631896,-0.21871963,0.42996168,0
42156000,42125333,197388,0.009819283,-0.21960235,0.4324463,0
42228000,42196666,197388,0.00845845,-0.21698461,0.42866895,0
42300000,42268666,197388,0.0060284003,-0.21526173,0.42741323,0
42360000,42336000,197388,0.0076911547,-0.21672116,0.42995134,0
42444000,42408000,197388,0.010623283,-0.21761711,0.4299768,0
42504000,42479200,197388,0.0081779035,-0.21864896,0.42797762,0
42576000,42546000,197388,0.010136809,-0.21482268,0.43148276,0
42648000,42617333,197388,0.010818283,-0.21695171,0.4309771,0
42720000,42688666,197388,0.009146914,-0.219792,0.42818826,0
42792000,42760000,197388,0.009500208,-0.21640354,0.42746705,0
42852000,42827200,197388,0.010730572,-0.22030099,0.42641693,0
42936000,42899428,197388,0.009377256,-0.21757205,0.427841,0
42992000,42971200,197388,0.006736347,-0.21624067,0.42645952,0
43068000,43038000,197388,0.0073277615,-0.21571717,0.42652854,0
43140000,43110000,197388,0.009661544,-0.21882021,0.42810225,0
43208000,43180666,197388,0.008068698,-0.21452367,0.42629343,0
43284000,43253333,197388,0.0048319073,-0.21408908,0.43130395,0
43356000,43325333,197388,0.008432392,-0.21682966,0.42774546,0
43416000,43392000,197388,0.009446191,-0.21577823,0.42984962,0
43500000,43463428,197388,0.005997215,-0.21557768,0.42834514,0
43560000,43535200,197388,0.007928662,-0.21508431,0.42684197,0
43644000,43607428,197388,0.009305737,-0.2155203,0.4291443,0
43704000,43680000,197388,0.0043547065,-0.21130084,0.42924252,0
43788000,43751428,197388,0.009673222,-0.21686742,0.43114784,0
43848000,43822400,197388,0.010408863,-0.21591191,0.42957234,0
43920000,43890000,197388,0.004604317,-0.2168622,0.42726427,0
43992000,43960000,197388,0.007065231,-0.21605334,0.42662162,0
44052000,44027200,197388,0.006278594,-0.2177451,0.4277086,0
44136000,44099428,197388,0.008674458,-0.21841559,0.43117428,0
44192000,44169600,197388,0.0077560595,-0.21927522,0.4300551,0
44268000,44236666,197388,0.009289196,-0.21550375,0.43092987,0
44328000,44304000,197388,0.010562867,-0.21402322,0.42982346,0
44412000,44376000,197388,0.008297066,-0.21664043,0.4276965,0
44472000,44447200,197388,0.012062171,-0.21543036,0.43293473,0
44552000,44518285,197388,0.0077708713,-0.21620901,0.43224087,0
44616000,44589600,197388,0.01028501,-0.21702985,0.42996797,0
44688000,44657333,197388,0.009887116,-0.21324277,0.43233985,0
44756000,44728666,197388,0.0071503427,-0.21503493,0.4286866,0
44832000,44800666,197388,0.011418268,-0.21707022,0.43009913,0
44900000,44872000,197388,0.011985887,-0.21774471,0.42793664,0
44976000,44944666,197388,0.009667006,-0.21739763,0.42906055,0
45036000,45012000,197388,0.009889189,-0.21659377,0.42873493,0
45120000,45084000,197388,0.008589784,-0.21703012,0.42657414,0
45180000,45155200,197388,0.008598528,-0.21509086,0.4271594,0
45264000,45226285,197388,0.009920105,-0.21507058,0.4263591,0
45312000,45293000,197388,0.006959494,-0.21513344,0.4326174,0
45408000,45365500,197388,0.008957066,-0.21858603,0.4294424,0
45456000,45438000,197388,0.008503792,-0.21437483,0.4293203,0
45552000,45508000,197388,0.009078677,-0.21611992,0.4298808,0
45600000,45580000,197388,0.007134444,-0.21365863,0.4280648,0
45696000,45652500,197388,0.0094397515,-0.21659286,0.43078113,0
45744000,45725000,197388,0.009363985,-0.21664432,0.43017858,0
45840000,45797500,197388,0.008866105,-0.21658196,0.42963558,0
45888000,45870000,197388,0.009988082,-0.21865454,0.42990553,0
45984000,45941500,197388,0.008118536,-0.21695742,0.42948496,0
46032000,46014000,197388,0.01106136,-0.21360254,0.42789182,0
46128000,46085000,197388,0.008078131,-0.21558188,0.4324786,0
46176000,46156000,197388,0.012834007,-0.21432881,0.42482418,0
46256000,46222857,197388,0.0074100425,-0.21654198,0.4292841,0
46308000,46290000,197388,0.008460019,-0.21602675,0.43160805,0
46404000,46362000,197388,0.00853437,-0.2141341,0.4293583,0
46448000,46433000,197388,0.010499237,-0.21380785,0.432047,0
46548000,46504500,197388,0.007563152,-0.21321116,0.43175113,0
46584000,46572000,197388,0.008008546,-0.21561687,0.42837757,0
46688000,46642666,197388,0.007930484,-0.21485615,0.4286714,0
46728000,46714666,197388,0.005552703,-0.21278857,0.43220052,0
46824000,46782000,197388,0.0071848817,-0.21373081,0.42882144,0
46872000,46854000,197388,0.006674289,-0.21608359,0.42945856,0
46968000,46925000,197388,0.008732617,-0.21548416,0.43032566,0
47016000,46997000,197388,0.009472688,-0.21291395,0.42891818,0
47112000,47068500,197388,0.007476816,-0.21397042,0.43072912,0
47160000,47140000,197388,0.0086415,-0.21809311,0.43077433,0
47244000,47206857,197388,0.009090424,-0.21522897,0.43083662,0
47304000,47279200,197388,0.010368898,-0.21599007,0.4319422,0
47384000,47350285,197388,0.006948185,-0.21593289,0.42972672,0
47448000,47422400,197388,0.0086230645,-0.21543208,0.43263412,0
47520000,47490000,197388,0.008879707,-0.21412921,0.42984134,0
47592000,47560666,197388,0.00845103,-0.21808903,0.4310283,0
47664000,47633333,197388,0.007219139,-0.21714666,0.43179452,0
47736000,47704666,197388,0.0074617565,-0.2177661,0.4287227,0
47808000,47777333,197388,0.007950059,-0.21508506,0.43172622,0
47880000,47848666,197388,0.006238642,-0.2145037,0.43086323,0
47952000,47921333,197388,0.009543499,-0.21546933,0.4304049,0
48024000,47992666,197388,0.008496224,-0.21379346,0.4306233,0
48096000,48065333,197388,0.009450017,-0.21798491,0.43122965,0
48168000,48137333,197388,0.008788934,-0.21720243,0.4283162,0
48240000,48209333,197388,0.0075114416,-0.2169931,0.42698908,0
48300000,48276000,197388,0.008154272,-0.21700878,0.42903948,0
48384000,48348000,197388,0.008928197,-0.21635084,0.42827478,0
48444000,48420000,197388,0.0066263466,-0.21523722,0.4306596,0
48528000,48491428,197388,0.008965333,-0.21525323,0.42930755,0
48584000,48562400,197388,0.01210981,-0.2162108,0.43104562,0
48660000,48630000,197388,0.009606861,-0.21593174,0.42902038,0
48728000,48700666,197388,0.0072973864,-0.21591178,0.42994803,0
48804000,48772666,197388,0.010445455,-0.21494615,0.42830858,0
48876000,48845333,197388,0.008171131,-0.2166464,0.42572176,0
48944000,48916666,197388,0.011266298,-0.21279478,0.4308091,0
49016000,48988000,197388,0.010866786,-0.2161892,0.4305147,0
49092000,49060666,197388,0.009253976,-0.21686861,0.4300315,0
49160000,49132666,197388,0.008825026,-0.21681081,0.4300383,0
49232000,49204666,197388,0.008444792,-0.21581537,0.43051785,0
49308000,49277333,197388,0.010103617,-0.21499452,0.42924255,0
49376000,49348666,197388,0.010142582,-0.21745077,0.42797098,0
49452000,49420666,197388,0.0061069466,-0.21586132,0.42979014,0
49524000,49492666,197388,0.009345722,-0.21513876,0.42969525,0
49592000,49564666,197388,0.006849661,-0.21751533,0.42707467,0
49664000,49636666,197388,0.010253884,-0.21724865,0.42899033,0
49740000,49709333,197388,0.011621418,-0.21658012,0.4274752,0
49812000,49781333,197388,0.0081811715,-0.21873026,0.4273442,0
49884000,49852666,197388,0.009206065,-0.21679175,0.42911142,0
49952000,49924666,197388,0.008459784,-0.2174412,0.43091798,0
50024000,49996666,197388,0.009184766,-0.21934305,0.42846498,0
50096000,50068000,197388,0.008838609,-0.22088552,0.42678666,0
50160000,50135200,197388,0.009521566,-0.21733104,0.42754403,0
50240000,50206285,197388,0.0094610825,-0.2182756,0.42855823,0
50304000,50278400,197388,0.00962949,-0.22009197,0.42813286,0
50376000,50346000,197388,0.0077075968,-0.21747999,0.4305683,0
50448000,50417333,197388,0.007915473,-0.2168458,0.42764854,0
50520000,50489333,197388,0.009968398,-0.21778564,0.42892522,0
50588000,50560000,197388,0.009329334,-0.2179207,0.42815977,0
50652000,50627200,197388,0.009229714,-0.22120343,0.42774054,0
50724000,50694000,197388,0.007820758,-0.21625225,0.42802972,0
50792000,50765333,197388,0.008599604,-0.21658894,0.4274035,0
50864000,50836000,197388,0.006074109,-0.2143254,0.42914218,0
50928000,50904000,197388,0.008095527,-0.21508692,0.43111822,0
51008000,50974285,197388,0.010200446,-0.21676314,0.42891216,0
51056000,51041000,197388,0.009226411,-0.21766979,0.42671356,0
51144000,51108000,197388,0.008312105,-0.21532682,0.42748696,0
51204000,51178400,197388,0.0065895766,-0.21618207,0.42916447,0
51276000,51246000,197388,0.007441582,-0.21941142,0.4296639,0
51348000,51318000,197388,0.00906067,-0.21532099,0.42727804,0
51416000,51388666,197388,0.006857871,-0.21518552,0.42915118,0
51492000,51460666,197388,0.008568663,-0.21472952,0.42918867,0
51552000,51528000,197388,0.010230174,-0.21764481,0.43107158,0
51632000,51599428,197388,0.00952206,-0.21697697,0.43036836,0
51696000,51671200,197388,0.011353949,-0.21513088,0.42650062,0
51776000,51742857,197388,0.007815483,-0.21810915,0.43106198,0
51836000,51814400,197388,0.010311723,-0.21702461,0.42948967,0
51920000,51886285,197388,0.009011527,-0.21533234,0.42954853,0
51972000,51953000,197388,0.007913205,-0.21757813,0.43057415,0
52064000,52025000,197388,0.008113522,-0.21571045,0.4286122,0
52104000,52092000,197388,0.0095695965,-0.21730745,0.43154573,0
52208000,52161777,197388,0.008163185,-0.21958108,0.42902556,0
52236000,52230000,197388,0.008038598,-0.21144074,0.43340442,0
52356000,52300800,197388,0.009650548,-0.214272,0.42895827,0
52368000,52368000,197388,0.0043569463,-0.21653092,0.43108442,0
52496000,52438545,197388,0.009247971,-0.21587665,0.4292835,0
52512000,52512000,197388,0.010046714,-0.21444894,0.4246467,0
52644000,52582909,197388,0.00896771,-0.21612482,0.4280852,0
52656000,52656000,197388,0.013638161,-0.21236756,0.42550316,0
52788000,52727636,197388,0.009271041,-0.21666133,0.42843097,0
52800000,52800000,197388,0.01226749,-0.22325481,0.42795834,0
52928000,52870181,197388,0.010238468,-0.21650727,0.4275867,0
52944000,52944000,197388,0.010582563,-0.21735439,0.42968482,0
53072000,53015272,197388,0.007186822,-0.21612658,0.42996022,0
53088000,53088000,197388,0.0070975493,-0.21298993,0.4308128,0
53216000,53158545,197388,0.007733069,-0.21642703,0.4289352,0
53232000,53232000,197388,0.016509091,-0.20998144,0.43488413,0
53364000,53302909,197388,0.008078553,-0.21676615,0.4295536,0
53376000,53376000,197388,0.012237275,-0.21407866,0.42821017,0
53508000,53447272,197388,0.008967398,-0.21844251,0.4289337,0
53520000,53520000,197388,0.0035586834,-0.21586108,0.42256793,0
53648000,53591272,197388,0.008189452,-0.21607469,0.42899436,0
53664000,53664000,197388,0.008970338,-0.22186299,0.43045264,0
53792000,53735272,197388,0.008703505,-0.21879095,0.43120208,0
53808000,53808000,197388,0.00858386,-0.21941234,0.42511913,0
53940000,53880000,197388,0.007186161,-0.21551952,0.43076032,0
53952000,53952000,197388,0.0067307698,-0.20799358,0.42603973,0
54080000,54023272,197388,0.009473272,-0.2153126,0.430485,0
54096000,54096000,197388,0.0043483176,-0.21496871,0.43569684,0
54228000,54168000,197388,0.008599316,-0.21597771,0.42912987,0
54240000,54240000,197388,0.0034041204,-0.21417926,0.42566466,0
54368000,54310545,197388,0.008903102,-0.21632499,0.43080458,0
54384000,54384000,197388,0.0033405274,-0.21317668,0.42723083,0
54516000,54454545,197388,0.010267611,-0.21568353,0.4271512,0
54528000,54528000,197388,0.01108625,-0.22256161,0.43284082,0
54660000,54599272,197388,0.0098309815,-0.21317944,0.4291802,0
54672000,54672000,197388,0.0036950614,-0.220787,0.434807,0
54800000,54741818,197388,0.01011387,-0.21750659,0.42881247,0
54816000,54816000,197388,0.011845267,-0.21908882,0.43916377,0
54948000,54886545,197388,0.006880825,-0.21718691,0.42721745,0
54960000,54960000,197388,0.008162015,-0.21470384,0.4317924,0
55088000,55030545,197388,0.0071777995,-0.21699037,0.42960867,0
55104000,55104000,197388,0.011446596,-0.21558012,0.4288883,0
55232000,55174545,197388,0.0066199955,-0.21518986,0.42750877,0
55248000,55248000,197388,0.012723975,-0.21658379,0.43322253,0
55380000,55318909,197388,0.010613076,-0.21709111,0.42837366,0
55392000,55392000,197388,0.00603521,-0.21260698,0.43263847,0
55520000,55462181,197388,0.007858109,-0.21688037,0.4275662,0
55536000,55536000,197388,0.012827193,-0.21481374,0.42397243,0
55668000,55606909,197388,0.008803628,-0.21797079,0.4280114,0
55680000,55680000,197388,0.012354255,-0.21460724,0.42636427,0
55812000,55750909,197388,0.009408667,-0.21510333,0.42979172,0
55824000,55824000,197388,0.0046724137,-0.2204721,0.4294593,0
55956000,55894909,197388,0.010166581,-0.21627931,0.42909718,0
55968000,55968000,197388,0.0066001927,-0.22471723,0.42485654,0
56096000,56039272,197388,0.009664082,-0.21489644,0.43024954,0
56112000,56112000,197388,0.007314282,-0.21098213,0.43504968,0
56244000,56182909,197388,0.009774763,-0.21813801,0.43002212,0
56256000,56256000,197388,0.010903241,-0.20993218,0.428778,0
56384000,56326181,197388,0.008666497,-0.21606801,0.42979234,0
56400000,56400000,197388,0.012961233,-0.21734206,0.42363873,0
56528000,56470545,197388,0.008674802,-0.21730393,0.42892054,0
56544000,56544000,197388,0.010084284,-0.21117172,0.42750582,0
56672000,56614545,197388,0.010028676,-0.2168002,0.42752388,0
56688000,56688000,197388,0.011011393,-0.21896914,0.4375282,0
56820000,56758545,197388,0.0078078457,-0.21812336,0.43102336,0
56832000,56832000,197388,0.007905126,-0.21672095,0.43398133,0
56960000,56902909,197388,0.008409314,-0.21651511,0.42727107,0
56976000,56976000,197388,0.008062089,-0.218999,0.42719597,0
57104000,57046545,197388,0.0067231795,-0.21777484,0.42929357,0
57120000,57120000,197388,0.009715503,-0.21781822,0.43191293,0
57248000,57190909,197388,0.008740051,-0.21743283,0.42895448,0
57264000,57264000,197388,0.010139738,-0.21856484,0.43072838,0
57392000,57334181,197388,0.009860652,-0.21586417,0.42650154,0
57408000,57408000,197388,0.0061317706,-0.21924254,0.4305343,0
57540000,57478545,197388,0.008442831,-0.21454382,0.4307839,0
57548000,57548000,197388,0.009819204,-0.22290432,0.43452522,0
57672000,57616800,197388,0.009562842,-0.2157207,0.4301172,0
57696000,57688000,197388,0.009571662,-0.21528491,0.42981142,0
57816000,57759600,197388,0.0096746795,-0.21661536,0.42921048,0
57828000,57828000,197388,0.0033218442,-0.22257726,0.42877504,0
57960000,57898909,197388,0.00675361,-0.21538524,0.43093735,0
57968000,57968000,197388,0.009589624,-0.21276446,0.4338266,0
58092000,58036800,197388,0.0062722526,-0.21552876,0.4282131,0
58104000,58104000,197388,0.008774264,-0.21653132,0.42712831,0
58232000,58174545,197388,0.00963148,-0.21644351,0.42956063,0
58248000,58248000,197388,0.006064104,-0.22151832,0.42669535,0
58380000,58318545,197388,0.008195199,-0.21702,0.4300259,0
58392000,58392000,197388,0.011574005,-0.21862534,0.42484584,0
58520000,58462545,197388,0.009754183,-0.21631508,0.42930526,0
58536000,58536000,197388,0.0056412783,-0.22037688,0.42782027,0
58668000,58604363,197388,0.0098789595,-0.21475948,0.42843777,0
58680000,58680000,197388,0.008725699,-0.21816663,0.4340428,0
58812000,58751636,197388,0.008768198,-0.21606801,0.42881945,0
58824000,58824000,197388,0.0025261105,-0.21866982,0.42318666,0
58952000,58895272,197388,0.008371991,-0.2174477,0.42962965,0
58968000,58968000,197388,0.011633636,-0.2193967,0.4271508,0
59100000,59038909,197388,0.008416869,-0.21624197,0.42667806,0
59112000,59112000,197388,0.0047884686,-0.22138216,0.43669286,0
59244000,59183636,197388,0.00992825,-0.21528634,0.42930418,0
59256000,59256000,197388,-0.005211171,-0.2162476,0.4248813,0
59388000,59328000,197388,0.009251189,-0.21611917,0.4324871,0
59400000,59400000,197388,0.0025364137,-0.21727312,0.42679092,0
