timestamp,timestamp_sample,control[0],control[1],control[2],control[3],control[4],control[5],control[6],control[7],control[8]
3212000,3212000,0.00018364761,3.6593643e-05,0.0003521473,-0.0,0.0,0.0,0.0,0.0,0.0
3216000,3216000,0.00027553935,0.00019461417,0.0005392537,-0.0,0.0,0.0,0.0,0.0,0.0
3264000,3264000,0.0007466166,0.0011273002,-0.00019246455,-0.0,0.0,0.0,0.0,0.0,0.0
3308000,3308000,-0.00053190463,0.002103016,-5.3547637e-06,-0.0,0.0,0.0,0.0,0.0,0.0
3364000,3364000,-0.00021610026,-0.0001971123,0.0002292809,-0.0,0.0,0.0,0.0,0.0,0.0
3412000,3412000,0.00031451712,-0.00035392647,0.0002587151,-0.0,0.0,0.0,0.0,0.0,0.0
3464000,3464000,0.02194561,0.02363513,-0.00014027308,0.001,0.0,0.0,0.0,0.0,0.0
3512000,3512000,0.02117271,0.021977564,-0.0004137929,0.001,0.0,0.0,0.0,0.0,0.0
3564000,3564000,0.019529482,0.023114365,-4.1726697e-05,0.001,0.0,0.0,0.0,0.0,0.0
3612000,3612000,0.019487023,0.022470608,0.00015293573,0.001,0.0,0.0,0.0,0.0,0.0
3660000,3660000,0.018043678,0.023386126,7.180674e-05,0.001,0.0,0.0,0.0,0.0,0.0
3712000,3712000,0.019072799,0.024400357,-0.00012599063,0.001,0.0,0.0,0.0,0.0,0.0
3764000,3764000,0.019212194,0.02383289,0.00051067886,0.001,0.0,0.0,0.0,0.0,0.0
3812000,3812000,0.018965112,0.02524751,0.0008745448,0.001,0.0,0.0,0.0,0.0,0.0
3864000,3864000,0.019412713,0.024085073,0.00018633991,0.001,0.0,0.0,0.0,0.0,0.0
3912000,3912000,0.018947408,0.024855517,0.00036020967,0.001,0.0,0.0,0.0,0.0,0.0
3964000,3964000,0.019583058,0.025548706,-9.2096625e-06,0.001,0.0,0.0,0.0,0.0,0.0
4012000,4012000,0.019112866,0.024397697,0.00022097428,0.001,0.0,0.0,0.0,0.0,0.0
4064000,4064000,0.018992798,0.02483798,0.0006218333,0.001,0.0,0.0,0.0,0.0,0.0
4112000,4112000,0.019865194,0.024753217,0.00034479992,0.001,0.0,0.0,0.0,0.0,0.0
4164000,4164000,0.020430269,0.02194498,0.0005625984,0.001,0.0,0.0,0.0,0.0,0.0
4208000,4208000,0.018730072,0.023469053,8.553881e-05,0.001,0.0,0.0,0.0,0.0,0.0
4260000,4260000,0.019522388,0.022931471,0.0005162313,0.001,0.0,0.0,0.0,0.0,0.0
4312000,4312000,0.01934048,0.023576982,0.00032905635,0.001,0.0,0.0,0.0,0.0,0.0
4360000,4360000,0.020046229,0.023133598,0.0008078048,0.001,0.0,0.0,0.0,0.0,0.0
4412000,4412000,0.0190576,0.022544831,0.00025785228,0.001,0.0,0.0,0.0,0.0,0.0
4464000,4464000,0.019032229,0.021241268,0.0005713853,0.001,0.0,0.0,0.0,0.0,0.0
4508000,4508000,0.019356808,0.02181141,0.0005304318,0.001,0.0,0.0,0.0,0.0,0.0
4560000,4560000,0.0199832,0.02205585,0.00020555538,0.001,0.0,0.0,0.0,0.0,0.0
4612000,4612000,0.019311046,0.02189116,0.00051326404,0.001,0.0,0.0,0.0,0.0,0.0
4660000,4660000,0.020189807,0.02109687,3.925618e-06,0.001,0.0,0.0,0.0,0.0,0.0
4712000,4712000,0.019500382,0.020736385,0.00050969224,0.001,0.0,0.0,0.0,0.0,0.0
4764000,4764000,0.019292103,0.021462178,0.0007077392,0.001,0.0,0.0,0.0,0.0,0.0
4812000,4812000,0.019144207,0.022099117,0.0010017605,0.001,0.0,0.0,0.0,0.0,0.0
4860000,4860000,0.019296281,0.021430487,0.0010663003,0.001,0.0,0.0,0.0,0.0,0.0
4912000,4912000,0.01839474,0.021170015,0.00051132444,0.001,0.0,0.0,0.0,0.0,0.0
4964000,4964000,0.01769668,0.020729477,0.00057732384,0.001,0.0,0.0,0.0,0.0,0.0
5012000,5012000,0.018343562,0.021219894,0.0014560344,0.001,0.0,0.0,0.0,0.0,0.0
5060000,5060000,0.017816668,0.020559032,0.00076770823,0.001,0.0,0.0,0.0,0.0,0.0
5112000,5112000,0.017716384,0.019519344,0.0007670158,0.001,0.0,0.0,0.0,0.0,0.0
5164000,5164000,0.018008487,0.020818485,0.0009028593,0.001,0.0,0.0,0.0,0.0,0.0
5208000,5208000,0.017545385,0.020598277,0.0008869406,0.001,0.0,0.0,0.0,0.0,0.0
5264000,5264000,0.016996082,0.02050112,-2.9729401e-05,0.001,0.0,0.0,0.0,0.0,0.0
5308000,5308000,0.017097846,0.020748781,0.00044490225,0.001,0.0,0.0,0.0,0.0,0.0
5364000,5364000,0.017814057,0.02046011,0.0002341421,0.001,0.0,0.0,0.0,0.0,0.0
5412000,5412000,0.01703025,0.020599686,0.000105036095,0.001,0.0,0.0,0.0,0.0,0.0
5464000,5464000,0.017686496,0.020868655,0.00036979187,0.001,0.0,0.0,0.0,0.0,0.0
5512000,5512000,0.017518846,0.019815901,0.0007413708,0.001,0.0,0.0,0.0,0.0,0.0
5560000,5560000,0.017256442,0.020672115,0.0007941194,0.001,0.0,0.0,0.0,0.0,0.0
5612000,5612000,0.016772311,0.020594692,0.0006079161,0.001,0.0,0.0,0.0,0.0,0.0
5660000,5660000,0.017240917,0.020145945,0.00045848932,0.001,0.0,0.0,0.0,0.0,0.0
5708000,5708000,0.017627452,0.02052865,0.0006791604,0.001,0.0,0.0,0.0,0.0,0.0
5764000,5764000,0.017484121,0.02009893,-0.00018165912,0.001,0.0,0.0,0.0,0.0,0.0
5808000,5808000,0.017660515,0.019234542,0.00070415717,0.001,0.0,0.0,0.0,0.0,0.0
5860000,5860000,0.018009888,0.020812111,0.0007016171,0.001,0.0,0.0,0.0,0.0,0.0
5912000,5912000,0.017375134,0.021098066,0.0005193962,0.001,0.0,0.0,0.0,0.0,0.0
5960000,5960000,0.01845555,0.020374298,6.494927e-06,0.001,0.0,0.0,0.0,0.0,0.0
6012000,6012000,0.017204605,0.02133833,-2.4277973e-05,0.001,0.0,0.0,0.0,0.0,0.0
6064000,6064000,0.018397277,0.020140594,0.000324733,0.001,0.0,0.0,0.0,0.0,0.0
6108000,6108000,0.01742383,0.019349819,0.00042383635,0.001,0.0,0.0,0.0,0.0,0.0
6164000,6164000,0.01724583,0.021478409,0.00047933855,0.001,0.0,0.0,0.0,0.0,0.0
6208000,6208000,0.018031077,0.020869229,0.00042267787,0.001,0.0,0.0,0.0,0.0,0.0
6260000,6260000,0.01743013,0.021757679,0.00016616704,0.001,0.0,0.0,0.0,0.0,0.0
6312000,6312000,0.018370004,0.02084757,0.00014484352,0.001,0.0,0.0,0.0,0.0,0.0
6360000,6360000,0.017494008,0.019672131,0.00041751363,0.001,0.0,0.0,0.0,0.0,0.0
6412000,6412000,0.017394725,0.020510694,0.00064889214,0.001,0.0,0.0,0.0,0.0,0.0
6464000,6464000,0.018001165,0.02005324,-0.0003989065,0.001,0.0,0.0,0.0,0.0,0.0
6512000,6512000,0.016591752,0.02071905,0.00064338,0.001,0.0,0.0,0.0,0.0,0.0
6564000,6564000,0.016189529,0.020035764,6.283531e-05,0.001,0.0,0.0,0.0,0.0,0.0
6608000,6608000,0.01681884,0.020299222,0.0010816193,0.001,0.0,0.0,0.0,0.0,0.0
6664000,6664000,0.01647609,0.020096105,0.00064389507,0.001,0.0,0.0,0.0,0.0,0.0
6712000,6712000,0.017449697,0.019963896,0.00034261352,0.001,0.0,0.0,0.0,0.0,0.0
6764000,6764000,0.017862603,0.019732984,0.0001384011,0.001,0.0,0.0,0.0,0.0,0.0
6812000,6812000,0.017582312,0.019884551,0.0009657053,0.001,0.0,0.0,0.0,0.0,0.0
6864000,6864000,0.017562883,0.019910198,-0.00019478406,0.001,0.0,0.0,0.0,0.0,0.0
6912000,6912000,0.0170338,0.021520736,1.3201463e-05,0.001,0.0,0.0,0.0,0.0,0.0
6964000,6964000,0.016885381,0.020563161,0.0005540556,0.001,0.0,0.0,0.0,0.0,0.0
7012000,7012000,0.016053507,0.020436589,0.0003152338,0.001,0.0,0.0,0.0,0.0,0.0
7060000,7060000,0.017540477,0.020289565,0.00011963182,0.001,0.0,0.0,0.0,0.0,0.0
7112000,7112000,0.016660115,0.020722646,0.0005054994,0.001,0.0,0.0,0.0,0.0,0.0
7164000,7164000,0.017421184,0.021110412,1.2941379e-05,0.001,0.0,0.0,0.0,0.0,0.0
7212000,7212000,0.017372305,0.019828651,0.00031455766,0.001,0.0,0.0,0.0,0.0,0.0
7264000,7264000,0.01728758,0.021175055,0.000224617,0.001,0.0,0.0,0.0,0.0,0.0
7312000,7312000,0.017240673,0.019624727,-0.00027864505,0.001,0.0,0.0,0.0,0.0,0.0
7364000,7364000,0.016211363,0.020304002,0.0001931154,0.001,0.0,0.0,0.0,0.0,0.0
7412000,7412000,0.01793985,0.021160034,-0.00014623195,0.001,0.0,0.0,0.0,0.0,0.0
7464000,7464000,0.015986929,0.020871453,0.0005136517,0.001,0.0,0.0,0.0,0.0,0.0
7512000,7512000,0.017757744,0.019873207,0.00038259936,0.001,0.0,0.0,0.0,0.0,0.0
7564000,7564000,0.017265577,0.0201046,-0.00017238288,0.001,0.0,0.0,0.0,0.0,0.0
7612000,7612000,0.017676717,0.02177534,0.00012083939,0.001,0.0,0.0,0.0,0.0,0.0
7664000,7664000,0.017844342,0.020795342,-0.00023879754,0.001,0.0,0.0,0.0,0.0,0.0
7712000,7712000,0.017143114,0.02123642,-0.00065892056,0.001,0.0,0.0,0.0,0.0,0.0
7764000,7764000,0.017277045,0.0207969,0.00017689126,0.001,0.0,0.0,0.0,0.0,0.0
7812000,7812000,0.016499178,0.021205544,0.0005530724,0.001,0.0,0.0,0.0,0.0,0.0
7864000,7864000,0.016457569,0.021101004,-0.00021288691,0.001,0.0,0.0,0.0,0.0,0.0
7912000,7912000,0.017339816,0.021582417,0.0006759897,0.001,0.0,0.0,0.0,0.0,0.0
7964000,7964000,0.017738033,0.020139676,0.00012629716,0.001,0.0,0.0,0.0,0.0,0.0
8012000,8012000,0.017628595,0.020458361,0.0004886356,0.001,0.0,0.0,0.0,0.0,0.0
8064000,8064000,0.017764768,0.020039616,-1.6108004e-05,0.001,0.0,0.0,0.0,0.0,0.0
8112000,8112000,0.017295161,0.020247407,0.00026076098,0.001,0.0,0.0,0.0,0.0,0.0
8164000,8164000,0.016286192,0.020358674,0.00023134511,0.001,0.0,0.0,0.0,0.0,0.0
8212000,8212000,0.017288953,0.020759383,9.756674e-05,0.001,0.0,0.0,0.0,0.0,0.0
8264000,8264000,0.01690056,0.020709539,0.00051740254,0.001,0.0,0.0,0.0,0.0,0.0
8312000,8312000,0.018193174,0.019478278,-6.159647e-05,0.001,0.0,0.0,0.0,0.0,0.0
8364000,8364000,0.017673414,0.020476839,0.0009684725,0.001,0.0,0.0,0.0,0.0,0.0
8412000,8412000,0.017834617,0.020308705,0.0006170409,0.001,0.0,0.0,0.0,0.0,0.0
8464000,8464000,0.017852759,0.019508002,0.00030151336,0.001,0.0,0.0,0.0,0.0,0.0
8512000,8512000,0.017602837,0.019828822,3.4564084e-05,0.001,0.0,0.0,0.0,0.0,0.0
8564000,8564000,0.017336596,0.02054446,0.00031812297,0.001,0.0,0.0,0.0,0.0,0.0
8612000,8612000,0.017280085,0.019536883,0.00030689142,0.001,0.0,0.0,0.0,0.0,0.0
8664000,8664000,0.016457256,0.020049116,0.00035880515,0.001,0.0,0.0,0.0,0.0,0.0
8712000,8712000,0.017007502,0.019552989,0.00061302533,0.001,0.0,0.0,0.0,0.0,0.0
8764000,8764000,0.016947957,0.019923944,0.0006480631,0.001,0.0,0.0,0.0,0.0,0.0
8812000,8812000,0.016542062,0.020785378,0.00031246923,0.001,0.0,0.0,0.0,0.0,0.0
8864000,8864000,0.017484551,0.018787157,0.00045346376,0.001,0.0,0.0,0.0,0.0,0.0
8912000,8912000,0.018888362,0.019728338,0.000116702104,0.001,0.0,0.0,0.0,0.0,0.0
8964000,8964000,0.017020468,0.019843612,5.7094974e-05,0.001,0.0,0.0,0.0,0.0,0.0
9012000,9012000,0.017713858,0.018809376,0.00036268876,0.001,0.0,0.0,0.0,0.0,0.0
9064000,9064000,0.017936302,0.020297337,0.0002527934,0.001,0.0,0.0,0.0,0.0,0.0
9108000,9108000,0.017008219,0.019789336,0.0002641881,0.001,0.0,0.0,0.0,0.0,0.0
9164000,9164000,0.017467273,0.020299314,0.00019621072,0.001,0.0,0.0,0.0,0.0,0.0
9212000,9212000,0.017475123,0.019469379,0.00034856025,0.001,0.0,0.0,0.0,0.0,0.0
9264000,9264000,0.016877802,0.020240514,8.431391e-05,0.001,0.0,0.0,0.0,0.0,0.0
9312000,9312000,0.017128492,0.02089857,-0.0002119971,0.001,0.0,0.0,0.0,0.0,0.0
9364000,9364000,0.017106242,0.020570375,0.00025328336,0.001,0.0,0.0,0.0,0.0,0.0
9408000,9408000,0.016902385,0.020226248,-0.00015258566,0.001,0.0,0.0,0.0,0.0,0.0
9464000,9464000,0.01642597,0.020926503,0.00045180164,0.001,0.0,0.0,0.0,0.0,0.0
9508000,9508000,0.016737923,0.020326562,0.00022902463,0.001,0.0,0.0,0.0,0.0,0.0
9560000,9560000,0.017247796,0.021001048,0.00047264813,0.001,0.0,0.0,0.0,0.0,0.0
9612000,9612000,0.016844928,0.02041203,-0.00044595936,0.001,0.0,0.0,0.0,0.0,0.0
9664000,9664000,0.01676676,0.020245794,-0.00020783511,0.001,0.0,0.0,0.0,0.0,0.0
9708000,9708000,0.016980032,0.019215142,0.00023865198,0.001,0.0,0.0,0.0,0.0,0.0
9764000,9764000,0.01638754,0.021264128,0.00046658615,0.001,0.0,0.0,0.0,0.0,0.0
9812000,9812000,0.017572368,0.018980859,0.000188202,0.001,0.0,0.0,0.0,0.0,0.0
9864000,9864000,0.01589453,0.018886521,0.0003521606,0.001,0.0,0.0,0.0,0.0,0.0
9912000,9912000,0.017070496,0.018412303,-2.7943717e-05,0.001,0.0,0.0,0.0,0.0,0.0
9964000,9964000,0.016647713,0.021363342,0.00038130648,0.001,0.0,0.0,0.0,0.0,0.0
10012000,10012000,0.017125897,0.019520089,0.0001077143,0.001,0.0,0.0,0.0,0.0,0.0
10064000,10064000,0.01689742,0.01977756,0.0003302665,0.001,0.0,0.0,0.0,0.0,0.0
10112000,10112000,0.016749116,0.020080613,0.00061895105,0.001,0.0,0.0,0.0,0.0,0.0
10164000,10164000,0.017148556,0.020535283,0.0002068713,0.001,0.0,0.0,0.0,0.0,0.0
10212000,10212000,0.017158726,0.01923844,0.00046317696,0.001,0.0,0.0,0.0,0.0,0.0
10264000,10264000,0.016836641,0.018633464,0.00049173157,0.001,0.0,0.0,0.0,0.0,0.0
10312000,10312000,0.01702608,0.019284278,0.00072607526,0.001,0.0,0.0,0.0,0.0,0.0
10364000,10364000,0.01598312,0.020338291,0.00015671861,0.001,0.0,0.0,0.0,0.0,0.0
10412000,10412000,0.016297618,0.019230496,0.0005076164,0.001,0.0,0.0,0.0,0.0,0.0
10464000,10464000,0.01583151,0.020486481,0.00022411766,0.001,0.0,0.0,0.0,0.0,0.0
10512000,10512000,0.017577048,0.020096613,0.00013042524,0.001,0.0,0.0,0.0,0.0,0.0
10564000,10564000,0.016760195,0.01994993,0.0002886516,0.001,0.0,0.0,0.0,0.0,0.0
10612000,10612000,0.016224854,0.019202562,-0.00010357744,0.001,0.0,0.0,0.0,0.0,0.0
10660000,10660000,0.016346946,0.01897259,-0.00024957556,0.001,0.0,0.0,0.0,0.0,0.0
10712000,10712000,0.016911509,0.018985156,0.00067933527,0.001,0.0,0.0,0.0,0.0,0.0
10764000,10764000,0.016420037,0.018966356,-0.00013755009,0.001,0.0,0.0,0.0,0.0,0.0
10812000,10812000,0.01664387,0.019183708,5.864471e-05,0.001,0.0,0.0,0.0,0.0,0.0
10864000,10864000,0.016705476,0.018956956,-2.8642942e-06,0.001,0.0,0.0,0.0,0.0,0.0
10908000,10908000,0.016851308,0.019640813,-0.00021382899,0.001,0.0,0.0,0.0,0.0,0.0
10960000,10960000,0.016688194,0.019383693,0.00045439514,0.001,0.0,0.0,0.0,0.0,0.0
11008000,11008000,0.015755836,0.019556094,-9.739302e-05,0.001,0.0,0.0,0.0,0.0,0.0
11060000,11060000,0.017909067,0.019078847,0.00011180232,0.001,0.0,0.0,0.0,0.0,0.0
11112000,11112000,0.016866604,0.019386116,0.0003197904,0.001,0.0,0.0,0.0,0.0,0.0
11164000,11164000,0.01720584,0.020001613,0.00026301696,0.001,0.0,0.0,0.0,0.0,0.0
11212000,11212000,0.016375761,0.020140054,0.00031164242,0.001,0.0,0.0,0.0,0.0,0.0
11264000,11264000,0.01692651,0.018387878,4.169196e-05,0.001,0.0,0.0,0.0,0.0,0.0
11312000,11312000,0.016891344,0.01797582,-0.00042696096,0.001,0.0,0.0,0.0,0.0,0.0
11364000,11364000,0.015396009,0.019132296,0.0004044151,0.001,0.0,0.0,0.0,0.0,0.0
11412000,11412000,0.017013527,0.019412983,0.0005227343,0.001,0.0,0.0,0.0,0.0,0.0
11464000,11464000,0.017114148,0.019805767,0.0003429684,0.001,0.0,0.0,0.0,0.0,0.0
11508000,11508000,0.015948854,0.020158555,-8.332747e-06,0.001,0.0,0.0,0.0,0.0,0.0
11564000,11564000,0.016253466,0.019751472,0.0002112077,0.001,0.0,0.0,0.0,0.0,0.0
11612000,11612000,0.016026314,0.018547198,0.0003730326,0.001,0.0,0.0,0.0,0.0,0.0
11664000,11664000,0.016541345,0.019614208,-4.1479758e-05,0.001,0.0,0.0,0.0,0.0,0.0
11712000,11712000,0.016791312,0.019615076,-8.61524e-06,0.001,0.0,0.0,0.0,0.0,0.0
11764000,11764000,0.015619389,0.020650288,0.00036455324,0.001,0.0,0.0,0.0,0.0,0.0
11812000,11812000,0.016230294,0.01966115,-4.0865503e-05,0.001,0.0,0.0,0.0,0.0,0.0
11860000,11860000,0.015816385,0.018775046,0.0005817523,0.001,0.0,0.0,0.0,0.0,0.0
11908000,11908000,0.016081385,0.018614264,0.0001773769,0.001,0.0,0.0,0.0,0.0,0.0
11964000,11964000,0.016391627,0.018720994,0.0006925018,0.001,0.0,0.0,0.0,0.0,0.0
12012000,12012000,0.016351027,0.01877741,0.00037672775,0.001,0.0,0.0,0.0,0.0,0.0
12064000,12064000,0.016160335,0.01798274,5.528732e-05,0.001,0.0,0.0,0.0,0.0,0.0
12112000,12112000,0.015714172,0.018122539,0.00024777438,0.001,0.0,0.0,0.0,0.0,0.0
12164000,12164000,0.01566127,0.019085921,0.00057964574,0.001,0.0,0.0,0.0,0.0,0.0
12212000,12212000,0.016462114,0.019244377,0.00010329972,0.001,0.0,0.0,0.0,0.0,0.0
12260000,12260000,0.01629268,0.018861115,0.00016790918,0.001,0.0,0.0,0.0,0.0,0.0
12312000,12312000,0.01710773,0.020099264,0.00042234673,0.001,0.0,0.0,0.0,0.0,0.0
12364000,12364000,0.016218798,0.019060683,-0.0003360832,0.001,0.0,0.0,0.0,0.0,0.0
12412000,12412000,0.016254373,0.019336311,0.00021019064,0.001,0.0,0.0,0.0,0.0,0.0
12464000,12464000,0.015574611,0.019859647,0.00023888412,0.001,0.0,0.0,0.0,0.0,0.0
12512000,12512000,0.016817937,0.018321097,8.212391e-06,0.001,0.0,0.0,0.0,0.0,0.0
12564000,12564000,0.017364476,0.018915808,-0.00011952231,0.001,0.0,0.0,0.0,0.0,0.0
12612000,12612000,0.015621425,0.019970734,0.0006726051,0.001,0.0,0.0,0.0,0.0,0.0
12664000,12664000,0.016786236,0.018787887,-0.00031167647,0.001,0.0,0.0,0.0,0.0,0.0
12712000,12712000,0.015995087,0.02035958,-0.00027729524,0.001,0.0,0.0,0.0,0.0,0.0
12764000,12764000,0.015713807,0.019156197,0.00033206423,0.001,0.0,0.0,0.0,0.0,0.0
12812000,12812000,0.01562326,0.019531146,-0.0007311349,0.001,0.0,0.0,0.0,0.0,0.0
12864000,12864000,0.016812094,0.020006841,0.0001043095,0.001,0.0,0.0,0.0,0.0,0.0
12912000,12912000,0.016856324,0.019135892,0.00026792428,0.001,0.0,0.0,0.0,0.0,0.0
12964000,12964000,0.01617175,0.019235706,-6.72685e-05,0.001,0.0,0.0,0.0,0.0,0.0
13012000,13012000,0.016021792,0.019144816,7.265449e-05,0.001,0.0,0.0,0.0,0.0,0.0
13060000,13060000,0.016524015,0.018522125,-9.840705e-05,0.001,0.0,0.0,0.0,0.0,0.0
13112000,13112000,0.015197816,0.018564593,-0.00019181539,0.001,0.0,0.0,0.0,0.0,0.0
13164000,13164000,0.016509714,0.016575122,9.9527046e-05,0.001,0.0,0.0,0.0,0.0,0.0
13212000,13212000,0.016440019,0.018925767,-6.632181e-08,0.001,0.0,0.0,0.0,0.0,0.0
13264000,13264000,0.016504694,0.018551888,0.00026482655,0.001,0.0,0.0,0.0,0.0,0.0
13312000,13312000,0.015872942,0.019196624,0.00020977731,0.001,0.0,0.0,0.0,0.0,0.0
13364000,13364000,0.015982676,0.018566245,0.0002871687,0.001,0.0,0.0,0.0,0.0,0.0
13412000,13412000,0.015760735,0.019301856,9.405318e-05,0.001,0.0,0.0,0.0,0.0,0.0
13460000,13460000,0.017267553,0.018495342,0.00019802412,0.001,0.0,0.0,0.0,0.0,0.0
13508000,13508000,0.016374731,0.01782511,-0.00016004436,0.001,0.0,0.0,0.0,0.0,0.0
13560000,13560000,0.016120652,0.018311111,0.00010368026,0.001,0.0,0.0,0.0,0.0,0.0
13612000,13612000,0.016547628,0.019188417,-9.754812e-05,0.001,0.0,0.0,0.0,0.0,0.0
13660000,13660000,0.015636912,0.017641436,0.001004753,0.001,0.0,0.0,0.0,0.0,0.0
13712000,13712000,0.017190507,0.018201146,-8.044869e-06,0.001,0.0,0.0,0.0,0.0,0.0
13764000,13764000,0.016436672,0.018642979,0.00037906444,0.001,0.0,0.0,0.0,0.0,0.0
13812000,13812000,0.015276878,0.017466828,0.00011502254,0.001,0.0,0.0,0.0,0.0,0.0
13864000,13864000,0.01598501,0.019259665,0.00035952084,0.001,0.0,0.0,0.0,0.0,0.0
13908000,13908000,0.015597881,0.018386424,-4.0536423e-05,0.001,0.0,0.0,0.0,0.0,0.0
13960000,13960000,0.016631661,0.018125046,-0.0002566709,0.001,0.0,0.0,0.0,0.0,0.0
14012000,14012000,0.014505111,0.020332659,0.000121851706,0.001,0.0,0.0,0.0,0.0,0.0
14064000,14064000,0.015565372,0.017846648,0.00018098767,0.001,0.0,0.0,0.0,0.0,0.0
14112000,14112000,0.015028532,0.018891823,1.8086843e-05,0.001,0.0,0.0,0.0,0.0,0.0
14164000,14164000,0.015960287,0.018823389,0.00024975438,0.001,0.0,0.0,0.0,0.0,0.0
14212000,14212000,0.016079959,0.017339142,0.00012474418,0.001,0.0,0.0,0.0,0.0,0.0
14264000,14264000,0.01632977,0.017253924,-0.0004060031,0.001,0.0,0.0,0.0,0.0,0.0
14312000,14312000,0.016835338,0.018511431,0.00064546906,0.001,0.0,0.0,0.0,0.0,0.0
14364000,14364000,0.015655728,0.018426154,0.000107407686,0.001,0.0,0.0,0.0,0.0,0.0
14412000,14412000,0.016881123,0.018460698,0.00020532911,0.001,0.0,0.0,0.0,0.0,0.0
14460000,14460000,0.015251272,0.018924916,0.0008088914,0.001,0.0,0.0,0.0,0.0,0.0
14512000,14512000,0.015738027,0.017634949,0.00020061005,0.001,0.0,0.0,0.0,0.0,0.0
14564000,14564000,0.01661775,0.018403525,0.00012924847,0.001,0.0,0.0,0.0,0.0,0.0
14612000,14612000,0.0155107,0.017812658,0.0004715147,0.001,0.0,0.0,0.0,0.0,0.0
14664000,14664000,0.015796015,0.0189715,-0.0002107387,0.001,0.0,0.0,0.0,0.0,0.0
14712000,14712000,0.01701188,0.01917913,0.00037112515,0.001,0.0,0.0,0.0,0.0,0.0
14764000,14764000,0.016500207,0.016923243,-0.00010314106,0.001,0.0,0.0,0.0,0.0,0.0
14812000,14812000,0.016182724,0.018197892,-0.0001538021,0.001,0.0,0.0,0.0,0.0,0.0
14864000,14864000,0.016426656,0.018341474,0.0002680178,0.001,0.0,0.0,0.0,0.0,0.0
14908000,14908000,0.01600708,0.018098794,0.0004350509,0.001,0.0,0.0,0.0,0.0,0.0
14964000,14964000,0.016084392,0.017076867,-8.2837316e-05,0.001,0.0,0.0,0.0,0.0,0.0
15012000,15012000,0.016217103,0.018504957,4.4517696e-05,0.001,0.0,0.0,0.0,0.0,0.0
15064000,15064000,0.015532377,0.019776959,3.5477977e-05,0.001,0.0,0.0,0.0,0.0,0.0
15112000,15112000,0.016480362,0.018268349,-0.00025487607,0.001,0.0,0.0,0.0,0.0,0.0
15164000,15164000,0.015253416,0.017331744,-0.00037421635,0.001,0.0,0.0,0.0,0.0,0.0
15212000,15212000,0.016145226,0.018514914,0.00012813012,0.001,0.0,0.0,0.0,0.0,0.0
15264000,15264000,0.016097696,0.017954202,0.00048339,0.001,0.0,0.0,0.0,0.0,0.0
15312000,15312000,0.015753912,0.017151559,0.0005952089,0.001,0.0,0.0,0.0,0.0,0.0
15364000,15364000,0.01579169,0.017566705,-0.00031608372,0.001,0.0,0.0,0.0,0.0,0.0
15412000,15412000,0.015839096,0.017656788,0.0002608763,0.001,0.0,0.0,0.0,0.0,0.0
15460000,15460000,0.01634781,0.017413689,-1.8714823e-05,0.001,0.0,0.0,0.0,0.0,0.0
15512000,15512000,0.016800106,0.018418556,-0.00028972002,0.001,0.0,0.0,0.0,0.0,0.0
15560000,15560000,0.016389841,0.017437456,0.0006677042,0.001,0.0,0.0,0.0,0.0,0.0
15612000,15612000,0.015260742,0.018195195,-0.00023103916,0.001,0.0,0.0,0.0,0.0,0.0
15664000,15664000,0.0153173385,0.016491426,-0.00029022116,0.001,0.0,0.0,0.0,0.0,0.0
15712000,15712000,0.016344786,0.017030837,-0.00056942826,0.001,0.0,0.0,0.0,0.0,0.0
15764000,15764000,0.015240595,0.017521672,0.00026598966,0.001,0.0,0.0,0.0,0.0,0.0
15812000,15812000,0.015682384,0.017651455,0.00037435707,0.001,0.0,0.0,0.0,0.0,0.0
15864000,15864000,0.015580755,0.018174553,9.915853e-05,0.001,0.0,0.0,0.0,0.0,0.0
15912000,15912000,0.0166885,0.016036622,-3.648725e-05,0.001,0.0,0.0,0.0,0.0,0.0
15964000,15964000,0.016788606,0.017567752,0.00018710093,0.001,0.0,0.0,0.0,0.0,0.0
16012000,16012000,0.015575845,0.016872346,9.710296e-06,0.001,0.0,0.0,0.0,0.0,0.0
16060000,16060000,0.015914936,0.01662413,-0.0003030993,0.001,0.0,0.0,0.0,0.0,0.0
16108000,16108000,0.015402722,0.017738314,0.00043368852,0.001,0.0,0.0,0.0,0.0,0.0
16164000,16164000,0.017016763,0.01628556,-0.0002393535,0.001,0.0,0.0,0.0,0.0,0.0
16212000,16212000,0.015863013,0.015326791,0.00051665166,0.001,0.0,0.0,0.0,0.0,0.0
16264000,16264000,0.01704164,0.017030373,0.00032868265,0.001,0.0,0.0,0.0,0.0,0.0
16308000,16308000,0.015477038,0.01681794,0.00019442754,0.001,0.0,0.0,0.0,0.0,0.0
16360000,16360000,0.015454966,0.016963286,0.0006407211,0.001,0.0,0.0,0.0,0.0,0.0
16412000,16412000,0.016158815,0.016781697,0.00017093569,0.001,0.0,0.0,0.0,0.0,0.0
16464000,16464000,0.01650327,0.015299426,0.00020298465,0.001,0.0,0.0,0.0,0.0,0.0
16508000,16508000,0.015772827,0.01730921,2.7077518e-05,0.001,0.0,0.0,0.0,0.0,0.0
16564000,16564000,0.015202884,0.017744735,0.00033770181,0.001,0.0,0.0,0.0,0.0,0.0
16608000,16608000,0.015362908,0.017120415,4.6707017e-05,0.001,0.0,0.0,0.0,0.0,0.0
16664000,16664000,0.016684974,0.01702262,0.00027328194,0.001,0.0,0.0,0.0,0.0,0.0
16712000,16712000,0.015961004,0.016696205,-3.7792594e-05,0.001,0.0,0.0,0.0,0.0,0.0
16760000,16760000,0.016004642,0.016537009,6.219681e-05,0.001,0.0,0.0,0.0,0.0,0.0
16812000,16812000,0.01712724,0.017185459,0.00031725192,0.001,0.0,0.0,0.0,0.0,0.0
16864000,16864000,0.01534391,0.016832398,3.271868e-05,0.001,0.0,0.0,0.0,0.0,0.0
16912000,16912000,0.015546997,0.016926214,0.00022897046,0.001,0.0,0.0,0.0,0.0,0.0
16960000,16960000,0.01566986,0.016256254,0.00015727019,0.001,0.0,0.0,0.0,0.0,0.0
17012000,17012000,0.01656279,0.015090004,-0.00014763205,0.001,0.0,0.0,0.0,0.0,0.0
17064000,17064000,0.0154968025,0.016090529,2.4133304e-05,0.001,0.0,0.0,0.0,0.0,0.0
17112000,17112000,0.016057774,0.01603663,0.00030681232,0.001,0.0,0.0,0.0,0.0,0.0
17160000,17160000,0.01595215,0.017287955,0.0004623376,0.001,0.0,0.0,0.0,0.0,0.0
17212000,17212000,0.015389441,0.016170144,0.00042454115,0.001,0.0,0.0,0.0,0.0,0.0
17264000,17264000,0.0163147,0.015960718,9.894413e-05,0.001,0.0,0.0,0.0,0.0,0.0
17312000,17312000,0.016694004,0.015786532,0.00044536163,0.001,0.0,0.0,0.0,0.0,0.0
17364000,17364000,0.015394142,0.017311612,2.8289738e-05,0.001,0.0,0.0,0.0,0.0,0.0
17412000,17412000,0.016096758,0.01764802,0.00052858435,0.001,0.0,0.0,0.0,0.0,0.0
17464000,17464000,0.015697816,0.016379056,7.552074e-05,0.001,0.0,0.0,0.0,0.0,0.0
17512000,17512000,0.014922999,0.01614871,0.00078052015,0.001,0.0,0.0,0.0,0.0,0.0
17564000,17564000,0.016729627,0.01634113,0.0007879335,0.001,0.0,0.0,0.0,0.0,0.0
17612000,17612000,0.015546767,0.016536014,0.00034607816,0.001,0.0,0.0,0.0,0.0,0.0
17664000,17664000,0.015799973,0.01671057,0.00057706604,0.001,0.0,0.0,0.0,0.0,0.0
17712000,17712000,0.016138753,0.016760217,0.00051799626,0.001,0.0,0.0,0.0,0.0,0.0
17760000,17760000,0.015585878,0.01607292,9.230761e-05,0.001,0.0,0.0,0.0,0.0,0.0
17808000,17808000,0.016147375,0.016646227,-2.343551e-05,0.001,0.0,0.0,0.0,0.0,0.0
17860000,17860000,0.015367264,0.015522951,-6.0605038e-05,0.001,0.0,0.0,0.0,0.0,0.0
17912000,17912000,0.016060388,0.015411254,-0.00027355234,0.001,0.0,0.0,0.0,0.0,0.0
17964000,17964000,0.0156809,0.015976962,0.0007571682,0.001,0.0,0.0,0.0,0.0,0.0
18012000,18012000,0.015254803,0.016425148,0.00016953512,0.001,0.0,0.0,0.0,0.0,0.0
18064000,18064000,0.015163427,0.015874814,-0.00011813302,0.001,0.0,0.0,0.0,0.0,0.0
18108000,18108000,0.01509671,0.01518459,0.0004992463,0.001,0.0,0.0,0.0,0.0,0.0
18160000,18160000,0.014759854,0.016673565,0.0004108201,0.001,0.0,0.0,0.0,0.0,0.0
18212000,18212000,0.015262321,0.016119959,0.0001269705,0.001,0.0,0.0,0.0,0.0,0.0
18264000,18264000,0.015783707,0.016803462,0.00017869461,0.001,0.0,0.0,0.0,0.0,0.0
18308000,18308000,0.016376432,0.01624764,0.00040990306,0.001,0.0,0.0,0.0,0.0,0.0
18360000,18360000,0.016171303,0.015708217,0.00043068963,0.001,0.0,0.0,0.0,0.0,0.0
18408000,18408000,0.015350683,0.015506841,0.00028090688,0.001,0.0,0.0,0.0,0.0,0.0
18464000,18464000,0.015064975,0.015526187,-2.051011e-05,0.001,0.0,0.0,0.0,0.0,0.0
18512000,18512000,0.015868817,0.015913637,0.00036654403,0.001,0.0,0.0,0.0,0.0,0.0
18564000,18564000,0.015141529,0.01567273,0.000198115,0.001,0.0,0.0,0.0,0.0,0.0
18612000,18612000,0.0154871205,0.016716162,4.928387e-05,0.001,0.0,0.0,0.0,0.0,0.0
18660000,18660000,0.015753474,0.014986676,0.00035854697,0.001,0.0,0.0,0.0,0.0,0.0
18712000,18712000,0.014479962,0.016000511,0.000297313,0.001,0.0,0.0,0.0,0.0,0.0
18764000,18764000,0.015051196,0.016007734,-0.0006447197,0.001,0.0,0.0,0.0,0.0,0.0
18812000,18812000,0.01602833,0.017045477,0.0002378235,0.001,0.0,0.0,0.0,0.0,0.0
18864000,18864000,0.016898666,0.015309228,0.00014733853,0.001,0.0,0.0,0.0,0.0,0.0
18912000,18912000,0.015673634,0.015953926,1.9288214e-05,0.001,0.0,0.0,0.0,0.0,0.0
18964000,18964000,0.0149389785,0.015748104,0.00023841695,0.001,0.0,0.0,0.0,0.0,0.0
19012000,19012000,0.0155425,0.015244844,0.00042504584,0.001,0.0,0.0,0.0,0.0,0.0
19064000,19064000,0.014899951,0.016273405,0.00046966443,0.001,0.0,0.0,0.0,0.0,0.0
19112000,19112000,0.015475813,0.0152983805,0.000498379,0.001,0.0,0.0,0.0,0.0,0.0
19160000,19160000,0.015529264,0.015598648,0.00052818767,0.001,0.0,0.0,0.0,0.0,0.0
19208000,19208000,0.013753305,0.014378798,0.0005384423,0.001,0.0,0.0,0.0,0.0,0.0
19260000,19260000,0.01617238,0.01582131,-2.467318e-06,0.001,0.0,0.0,0.0,0.0,0.0
19312000,19312000,0.015738035,0.015321269,0.0003108369,0.001,0.0,0.0,0.0,0.0,0.0
19364000,19364000,0.015709994,0.016242051,0.00038954435,0.001,0.0,0.0,0.0,0.0,0.0
19412000,19412000,0.016218232,0.015140746,2.1247926e-05,0.001,0.0,0.0,0.0,0.0,0.0
19464000,19464000,0.014991137,0.015859546,0.00016466096,0.001,0.0,0.0,0.0,0.0,0.0
19512000,19512000,0.015500635,0.015497969,0.00013082629,0.001,0.0,0.0,0.0,0.0,0.0
19564000,19564000,0.014492505,0.015923787,0.000550964,0.001,0.0,0.0,0.0,0.0,0.0
19612000,19612000,0.016805695,0.015135796,-1.658391e-05,0.001,0.0,0.0,0.0,0.0,0.0
19664000,19664000,0.015007466,0.016064547,0.0005824685,0.001,0.0,0.0,0.0,0.0,0.0
19708000,19708000,0.017073773,0.0150281405,0.0002670919,0.001,0.0,0.0,0.0,0.0,0.0
19764000,19764000,0.016398832,0.015574858,0.0002738387,0.001,0.0,0.0,0.0,0.0,0.0
19812000,19812000,0.015659861,0.015956093,-6.25704e-05,0.001,0.0,0.0,0.0,0.0,0.0
19864000,19864000,0.016699031,0.015323214,0.0005165033,0.001,0.0,0.0,0.0,0.0,0.0
19912000,19912000,0.016322281,0.015300395,-0.00052504253,0.001,0.0,0.0,0.0,0.0,0.0
19964000,19964000,0.015292015,0.014468582,0.00015893693,0.001,0.0,0.0,0.0,0.0,0.0
20012000,20012000,0.014779098,0.015967239,0.00044005798,0.001,0.0,0.0,0.0,0.0,0.0
20060000,20060000,0.0154106235,0.015489295,0.00021054219,0.001,0.0,0.0,0.0,0.0,0.0
20108000,20108000,0.015819352,0.016032748,0.00038057347,0.001,0.0,0.0,0.0,0.0,0.0
20164000,20164000,0.0150282625,0.016174639,9.1780596e-05,0.001,0.0,0.0,0.0,0.0,0.0
20212000,20212000,0.016652424,0.015513099,-2.6973617e-05,0.001,0.0,0.0,0.0,0.0,0.0
20264000,20264000,0.015533049,0.014472667,0.00018290225,0.001,0.0,0.0,0.0,0.0,0.0
20308000,20308000,0.0152045945,0.015790109,-0.0003183535,0.001,0.0,0.0,0.0,0.0,0.0
20360000,20360000,0.014578384,0.015264377,0.00042694874,0.001,0.0,0.0,0.0,0.0,0.0
20408000,20408000,0.01615143,0.01560165,8.762339e-05,0.001,0.0,0.0,0.0,0.0,0.0
20464000,20464000,0.015254205,0.015777878,-0.00035388462,0.001,0.0,0.0,0.0,0.0,0.0
20512000,20512000,0.015244872,0.015344684,0.000190109,0.001,0.0,0.0,0.0,0.0,0.0
20564000,20564000,0.014746176,0.016367415,0.0001268161,0.001,0.0,0.0,0.0,0.0,0.0
20612000,20612000,0.015529047,0.015220477,0.00059809285,0.001,0.0,0.0,0.0,0.0,0.0
20664000,20664000,0.014824052,0.015370265,-0.00013144063,0.001,0.0,0.0,0.0,0.0,0.0
20712000,20712000,0.015395447,0.014901361,0.0004436092,0.001,0.0,0.0,0.0,0.0,0.0
20764000,20764000,0.014802376,0.015240963,0.00042890725,0.001,0.0,0.0,0.0,0.0,0.0
20812000,20812000,0.015426902,0.014043695,9.108986e-05,0.001,0.0,0.0,0.0,0.0,0.0
20864000,20864000,0.016242027,0.014510703,0.00017130947,0.001,0.0,0.0,0.0,0.0,0.0
20912000,20912000,0.014848317,0.015220448,-8.417048e-05,0.001,0.0,0.0,0.0,0.0,0.0
20964000,20964000,0.014971248,0.015844602,-4.20408e-05,0.001,0.0,0.0,0.0,0.0,0.0
21012000,21012000,0.015316101,0.014662106,0.00056607637,0.001,0.0,0.0,0.0,0.0,0.0
21064000,21064000,0.014620568,0.014055887,-0.0003695712,0.001,0.0,0.0,0.0,0.0,0.0
21112000,21112000,0.015692152,0.0150573775,0.00068021007,0.001,0.0,0.0,0.0,0.0,0.0
21164000,21164000,0.016158089,0.015729181,0.00013771873,0.001,0.0,0.0,0.0,0.0,0.0
21212000,21212000,0.015752047,0.015526909,0.00040323145,0.001,0.0,0.0,0.0,0.0,0.0
21264000,21264000,0.015045943,0.014000096,-0.00018834094,0.001,0.0,0.0,0.0,0.0,0.0
21312000,21312000,0.015176723,0.014695471,0.0003204927,0.001,0.0,0.0,0.0,0.0,0.0
21364000,21364000,0.01444387,0.014984612,9.161102e-05,0.001,0.0,0.0,0.0,0.0,0.0
21412000,21412000,0.014814018,0.015010224,0.0008069534,0.001,0.0,0.0,0.0,0.0,0.0
21464000,21464000,0.015896734,0.015471788,0.0007489918,0.001,0.0,0.0,0.0,0.0,0.0
21512000,21512000,0.01441051,0.014306059,0.0002493456,0.001,0.0,0.0,0.0,0.0,0.0
21564000,21564000,0.014924111,0.015860833,-0.000109999324,0.001,0.0,0.0,0.0,0.0,0.0
21612000,21612000,0.015492386,0.015649254,0.0002398544,0.001,0.0,0.0,0.0,0.0,0.0
21664000,21664000,0.014425574,0.015469398,1.825022e-05,0.001,0.0,0.0,0.0,0.0,0.0
21712000,21712000,0.014782468,0.01414611,0.0004840295,0.001,0.0,0.0,0.0,0.0,0.0
21764000,21764000,0.014973112,0.014375563,0.0009233618,0.001,0.0,0.0,0.0,0.0,0.0
21812000,21812000,0.015171404,0.013260306,-4.1100455e-05,0.001,0.0,0.0,0.0,0.0,0.0
21864000,21864000,0.014342381,0.016504418,-7.236337e-05,0.001,0.0,0.0,0.0,0.0,0.0
21912000,21912000,0.014568917,0.015257635,0.00015534004,0.001,0.0,0.0,0.0,0.0,0.0
21964000,21964000,0.014057006,0.015510591,0.0007257573,0.001,0.0,0.0,0.0,0.0,0.0
22012000,22012000,0.015060235,0.0155750355,0.00020731674,0.001,0.0,0.0,0.0,0.0,0.0
22064000,22064000,0.014904813,0.013969574,0.00067708484,0.001,0.0,0.0,0.0,0.0,0.0
22112000,22112000,0.01488429,0.014981373,0.00053611497,0.001,0.0,0.0,0.0,0.0,0.0
22164000,22164000,0.014763914,0.015076568,0.000650304,0.001,0.0,0.0,0.0,0.0,0.0
22212000,22212000,0.016491542,0.012029117,0.00083497056,0.012145332,0.0,0.0,0.0,0.0,0.0
22264000,22264000,0.016163621,0.011370163,-0.00020622769,0.018445184,0.0,0.0,0.0,0.0,0.0
22312000,22312000,0.014822807,0.012323857,0.00011161976,0.025225252,0.0,0.0,0.0,0.0,0.0
22360000,22360000,0.015436496,0.011590712,0.0007649473,0.032499675,0.0,0.0,0.0,0.0,0.0
22408000,22408000,0.015138454,0.009609764,0.00044138805,0.040181626,0.0,0.0,0.0,0.0,0.0
22460000,22460000,0.014810924,0.011500174,-5.297868e-05,0.049549166,0.0,0.0,0.0,0.0,0.0
22508000,22508000,0.01591244,0.009922106,-8.245949e-05,0.058209114,0.0,0.0,0.0,0.0,0.0
22564000,22564000,0.016730813,0.009819647,0.000264668,0.06897156,0.0,0.0,0.0,0.0,0.0
22612000,22612000,0.016375488,0.010319233,-0.0003613253,0.078537665,0.0,0.0,0.0,0.0,0.0
22664000,22664000,0.01629534,0.011110989,0.0003553566,0.08866554,0.0,0.0,0.0,0.0,0.0
22712000,22712000,0.014992993,0.011831753,0.0006443825,0.09904384,0.0,0.0,0.0,0.0,0.0
22764000,22764000,0.015022684,0.012000262,0.00035904304,0.111753926,0.0,0.0,0.0,0.0,0.0
22812000,22812000,0.01656523,0.013854398,0.00020752403,0.123190045,0.0,0.0,0.0,0.0,0.0
22864000,22864000,0.014840787,0.012540839,0.0005473522,0.13503058,0.0,0.0,0.0,0.0,0.0
22908000,22908000,0.01548338,0.012693631,0.00036037588,0.14738753,0.0,0.0,0.0,0.0,0.0
22964000,22964000,0.016160801,0.012759313,-8.5320426e-05,0.16228637,0.0,0.0,0.0,0.0,0.0
23012000,23012000,0.017288467,0.014679555,0.00047235115,0.17520265,0.0,0.0,0.0,0.0,0.0
23064000,23064000,0.017448187,0.015721861,-5.9122947e-05,0.18861133,0.0,0.0,0.0,0.0,0.0
23112000,23112000,0.019227924,0.015378299,0.0005483796,0.20260586,0.0,0.0,0.0,0.0,0.0
23164000,23164000,0.020099733,0.017056445,0.0001539767,0.21941532,0.0,0.0,0.0,0.0,0.0
23212000,23212000,0.020671751,0.01875482,0.001131035,0.23436746,0.0,0.0,0.0,0.0,0.0
23264000,23264000,0.02160772,0.018203385,0.00021780137,0.24976678,0.0,0.0,0.0,0.0,0.0
23312000,23312000,0.02236209,0.019404195,-7.1589224e-05,0.26549995,0.0,0.0,0.0,0.0,0.0
23364000,23364000,0.023359811,0.020848908,0.00066460803,0.28441435,0.0,0.0,0.0,0.0,0.0
23412000,23412000,0.024820236,0.020771267,0.00026280084,0.30109227,0.0,0.0,0.0,0.0,0.0
23464000,23464000,0.026861928,0.022076912,0.00058637344,0.31795472,0.0,0.0,0.0,0.0,0.0
23512000,23512000,0.027280834,0.024690835,0.0002431361,0.33236417,0.0,0.0,0.0,0.0,0.0
23564000,23564000,0.028591678,0.024666611,0.00024770986,0.3381556,0.0,0.0,0.0,0.0,0.0
23612000,23612000,0.029223016,0.02652923,0.0004372527,0.34247822,0.0,0.0,0.0,0.0,0.0
23664000,23664000,0.02952739,0.025248941,-0.00019676462,0.34688145,0.0,0.0,0.0,0.0,0.0
23712000,23712000,0.031123154,0.027326472,6.458573e-05,0.35376915,0.0,0.0,0.0,0.0,0.0
23764000,23764000,0.030715931,0.028082725,0.00068116403,0.36005604,0.0,0.0,0.0,0.0,0.0
23812000,23812000,0.03264261,0.030162977,0.0003521106,0.36482975,0.0,0.0,0.0,0.0,0.0
23864000,23864000,0.03370149,0.03204785,0.00028664814,0.36939046,0.0,0.0,0.0,0.0,0.0
23912000,23912000,0.03562629,0.032577105,0.00022093943,0.37693968,0.0,0.0,0.0,0.0,0.0
23964000,23964000,0.036280595,0.03317237,3.190514e-05,0.38343975,0.0,0.0,0.0,0.0,0.0
24008000,24008000,0.03666014,0.03437453,0.00023975957,0.3883015,0.0,0.0,0.0,0.0,0.0
24064000,24064000,0.038627308,0.0353595,-0.00020400489,0.39660844,0.0,0.0,0.0,0.0,0.0
24108000,24108000,0.03971002,0.035387903,0.00021266949,0.40199646,0.0,0.0,0.0,0.0,0.0
24160000,24160000,0.040655956,0.036596842,0.0004329725,0.40898764,0.0,0.0,0.0,0.0,0.0
24208000,24208000,0.042390607,0.036617592,0.00040408497,0.41444305,0.0,0.0,0.0,0.0,0.0
24264000,24264000,0.042679686,0.03837242,2.4177585e-05,0.42011845,0.0,0.0,0.0,0.0,0.0
24312000,24312000,0.04410634,0.04014531,0.0005053161,0.42892188,0.0,0.0,0.0,0.0,0.0
24364000,24364000,0.04384279,0.03986955,0.0009865338,0.4361622,0.0,0.0,0.0,0.0,0.0
24412000,24412000,0.045896206,0.040332954,0.00048800727,0.4422749,0.0,0.0,0.0,0.0,0.0
24464000,24464000,0.046581835,0.04113709,0.0004530619,0.4485452,0.0,0.0,0.0,0.0,0.0
24512000,24512000,0.04725419,0.04258533,0.000110298955,0.45800367,0.0,0.0,0.0,0.0,0.0
24564000,24564000,0.04993939,0.042049874,0.00053260894,0.46607104,0.0,0.0,0.0,0.0,0.0
24612000,24612000,0.049212854,0.043120317,-0.00025681322,0.4727426,0.0,0.0,0.0,0.0,0.0
24664000,24664000,0.05076315,0.042579725,0.00078015093,0.4830855,0.0,0.0,0.0,0.0,0.0
24712000,24712000,0.050732818,0.044941414,0.00028808432,0.49001637,0.0,0.0,0.0,0.0,0.0
24760000,24760000,0.051977385,0.045713477,-3.9233608e-05,0.49792826,0.0,0.0,0.0,0.0,0.0
24808000,24808000,0.053596813,0.04691138,0.0002059873,0.50514424,0.0,0.0,0.0,0.0,0.0
24864000,24864000,0.0536478,0.046839587,0.00031871122,0.51242405,0.0,0.0,0.0,0.0,0.0
24912000,24912000,0.055224404,0.047531325,0.0003235424,0.5232531,0.0,0.0,0.0,0.0,0.0
24964000,24964000,0.05558195,0.04786147,0.00046205334,0.5321237,0.0,0.0,0.0,0.0,0.0
25012000,25012000,0.056113593,0.04908613,0.0005994578,0.53975403,0.0,0.0,0.0,0.0,0.0
25064000,25064000,0.058105424,0.04988768,0.00017034546,0.54755396,0.0,0.0,0.0,0.0,0.0
25112000,25112000,0.058231406,0.04979832,0.00046123334,0.55904526,0.0,0.0,0.0,0.0,0.0
25164000,25164000,0.058929138,0.051575836,-0.00020311221,0.56827855,0.0,0.0,0.0,0.0,0.0
25212000,25212000,0.05992242,0.05013053,2.1248357e-05,0.5762909,0.0,0.0,0.0,0.0,0.0
25264000,25264000,0.061171252,0.05172492,0.00040544517,0.61452603,0.0,0.0,0.0,0.0,0.0
25312000,25312000,0.062252335,0.05267347,7.667017e-05,0.62226164,0.0,0.0,0.0,0.0,0.0
25364000,25364000,0.06213649,0.05371087,0.0001786047,0.63179195,0.0,0.0,0.0,0.0,0.0
25412000,25412000,0.06419362,0.053258844,0.00043085372,0.64039105,0.0,0.0,0.0,0.0,0.0
25464000,25464000,0.064885475,0.05468712,0.00033034477,0.64906305,0.0,0.0,0.0,0.0,0.0
25508000,25508000,0.06538936,0.056479853,0.0005716224,0.6619205,0.0,0.0,0.0,0.0,0.0
25560000,25560000,0.06534549,0.056200005,0.0005110888,0.6709359,0.0,0.0,0.0,0.0,0.0
25608000,25608000,0.06636396,0.057216898,0.0010064704,0.68034136,0.0,0.0,0.0,0.0,0.0
25664000,25664000,0.061983638,0.05781375,0.0005814429,0.6900354,0.0,0.0,0.0,0.0,0.0
25708000,25708000,0.052403137,0.058035526,0.00038756116,0.7015542,0.0,0.0,0.0,0.0,0.0
25764000,25764000,0.038422875,0.054425966,0.00016830646,0.70855147,0.0,0.0,0.0,0.0,0.0
25812000,25812000,0.027908746,0.04285742,-0.0009350811,0.7143188,0.0,0.0,0.0,0.0,0.0
25860000,25860000,0.0117955785,0.02723592,-0.003300988,0.71914214,0.0,0.0,0.0,0.0,0.0
25908000,25908000,-0.0039204205,0.0069704363,-0.005637118,0.7287008,0.0,0.0,0.0,0.0,0.0
25964000,25964000,-0.017059831,-0.013370261,-0.0025182336,0.73389834,0.0,0.0,0.0,0.0,0.0
26012000,26012000,-0.016340323,-0.014778673,-0.0013573265,0.7379727,0.0,0.0,0.0,0.0,0.0
26064000,26064000,-0.010587212,-0.013493491,-0.0011524422,0.7409488,0.0,0.0,0.0,0.0,0.0
26112000,26112000,-0.0058057,-0.0070688175,-0.0005518935,0.7481925,0.0,0.0,0.0,0.0,0.0
26164000,26164000,-0.00075435115,-0.0015158511,-0.0004542654,0.7488544,0.0,0.0,0.0,0.0,0.0
26212000,26212000,0.0009836211,0.0048810993,8.198149e-05,0.74901515,0.0,0.0,0.0,0.0,0.0
26264000,26264000,0.004313384,0.0107543515,-0.00033007833,0.7484607,0.0,0.0,0.0,0.0,0.0
26312000,26312000,0.004526508,0.011626268,-0.00032364472,0.7539086,0.0,0.0,0.0,0.0,0.0
26364000,26364000,0.004015475,0.010875269,-0.0004167718,0.75256413,0.0,0.0,0.0,0.0,0.0
26412000,26412000,0.0035626295,0.011068961,-0.0006600572,0.7515501,0.0,0.0,0.0,0.0,0.0
26464000,26464000,0.0021461681,0.007360501,-0.00028199021,0.7504069,0.0,0.0,0.0,0.0,0.0
26512000,26512000,0.0017937949,0.005383045,-0.0001327048,0.7450478,0.0,0.0,0.0,0.0,0.0
26560000,26560000,0.0013373136,0.0066299364,-0.00032119174,0.73492104,0.0,0.0,0.0,0.0,0.0
26612000,26612000,-8.741893e-05,0.0037281895,-0.00035933233,0.7212784,0.0,0.0,0.0,0.0,0.0
26664000,26664000,-0.00094997126,0.004325913,-0.00053678144,0.7131483,0.0,0.0,0.0,0.0,0.0
26708000,26708000,-0.00040648828,0.005503348,-3.8763697e-05,0.70729977,0.0,0.0,0.0,0.0,0.0
26760000,26760000,0.00091026566,0.0041351235,-0.00038447962,0.7110018,0.0,0.0,0.0,0.0,0.0
26808000,26808000,0.0015587362,0.0047900765,3.74035e-05,0.7155165,0.0,0.0,0.0,0.0,0.0
26864000,26864000,0.0006650537,0.005617902,0.00011849348,0.7184369,0.0,0.0,0.0,0.0,0.0
26912000,26912000,0.001721077,0.0038445578,0.00015903036,0.725554,0.0,0.0,0.0,0.0,0.0
26964000,26964000,0.00027017924,0.0045749773,0.00048473256,0.722992,0.0,0.0,0.0,0.0,0.0
27012000,27012000,0.0008693858,0.0058007403,0.00042786234,0.7224671,0.0,0.0,0.0,0.0,0.0
27064000,27064000,0.0010338308,0.004993776,-8.509033e-05,0.72113824,0.0,0.0,0.0,0.0,0.0
27112000,27112000,0.00044125487,0.0051182755,-0.00076774514,0.7253433,0.0,0.0,0.0,0.0,0.0
27164000,27164000,0.0010566456,0.0037744732,0.00048335834,0.72112095,0.0,0.0,0.0,0.0,0.0
27208000,27208000,-0.00014188426,0.005199068,0.00018798781,0.7208861,0.0,0.0,0.0,0.0,0.0
27260000,27260000,0.0005291059,0.0040883925,8.620179e-05,0.7193952,0.0,0.0,0.0,0.0,0.0
27312000,27312000,-8.689193e-05,0.004299148,-0.0003767645,0.72412467,0.0,0.0,0.0,0.0,0.0
27360000,27360000,0.0006137218,0.003454428,-7.6698416e-05,0.723268,0.0,0.0,0.0,0.0,0.0
27412000,27412000,-0.00033663475,0.004838613,-6.068658e-05,0.7195819,0.0,0.0,0.0,0.0,0.0
27464000,27464000,0.0005926196,0.004656679,-0.00010377772,0.7182033,0.0,0.0,0.0,0.0,0.0
27512000,27512000,0.0018552348,0.0036513163,3.6535203e-06,0.7222485,0.0,0.0,0.0,0.0,0.0
27564000,27564000,0.00014645798,0.005252871,0.0002793143,0.71862745,0.0,0.0,0.0,0.0,0.0
27612000,27612000,0.0011244714,0.0051041176,2.1075757e-06,0.71789706,0.0,0.0,0.0,0.0,0.0
27660000,27660000,-0.0008265197,0.004030144,-0.0006718175,0.717259,0.0,0.0,0.0,0.0,0.0
27708000,27708000,0.0012954065,0.0044464655,6.639764e-05,0.72164834,0.0,0.0,0.0,0.0,0.0
27764000,27764000,0.00040197832,0.005047347,0.00029022846,0.71813416,0.0,0.0,0.0,0.0,0.0
27812000,27812000,-0.00019721925,0.004586533,6.604407e-05,0.7170746,0.0,0.0,0.0,0.0,0.0
27860000,27860000,0.0005764197,0.0043406785,0.0003308391,0.7155194,0.0,0.0,0.0,0.0,0.0
27908000,27908000,-0.0004900951,0.005383454,4.6543988e-05,0.7190837,0.0,0.0,0.0,0.0,0.0
27960000,27960000,0.00058940926,0.003783455,0.0006459688,0.7179297,0.0,0.0,0.0,0.0,0.0
28008000,28008000,-0.00013728227,0.0030815187,-0.00021078301,0.71470755,0.0,0.0,0.0,0.0,0.0
28060000,28060000,-0.0016082606,0.005075359,-0.00050170795,0.713899,0.0,0.0,0.0,0.0,0.0
28108000,28108000,-0.00032291177,0.004300848,-0.0003608231,0.7181655,0.0,0.0,0.0,0.0,0.0
28160000,28160000,0.0006439017,0.0036912619,0.00045798242,0.7174945,0.0,0.0,0.0,0.0,0.0
28212000,28212000,0.000989204,0.004413312,-0.00020463453,0.7139114,0.0,0.0,0.0,0.0,0.0
28264000,28264000,0.0011664984,0.0031141024,0.0004306105,0.71227497,0.0,0.0,0.0,0.0,0.0
28312000,28312000,-0.0008542325,0.0030029372,-0.0004345742,0.7155424,0.0,0.0,0.0,0.0,0.0
28360000,28360000,-0.0008118751,0.0030379146,0.000106015206,0.71433866,0.0,0.0,0.0,0.0,0.0
28408000,28408000,9.2072296e-05,0.0031103492,-5.7846522e-05,0.71079034,0.0,0.0,0.0,0.0,0.0
28464000,28464000,0.00035272405,0.0047865855,0.00040299812,0.71013653,0.0,0.0,0.0,0.0,0.0
28512000,28512000,-2.7663715e-05,0.0041403137,-0.00025764605,0.71404874,0.0,0.0,0.0,0.0,0.0
28564000,28564000,-0.00047444407,0.005969115,0.0005562611,0.71117115,0.0,0.0,0.0,0.0,0.0
28612000,28612000,0.00015671033,0.004888192,-0.00022628583,0.7104591,0.0,0.0,0.0,0.0,0.0
28664000,28664000,0.0017292696,0.0040874,-0.00028284467,0.7090189,0.0,0.0,0.0,0.0,0.0
28712000,28712000,-0.00038978632,0.0043383385,-0.0003491217,0.71187305,0.0,0.0,0.0,0.0,0.0
28764000,28764000,0.000107381944,0.0049671098,0.00038334684,0.7084836,0.0,0.0,0.0,0.0,0.0
28812000,28812000,-0.0012865879,0.0040856265,-0.00037005506,0.70800394,0.0,0.0,0.0,0.0,0.0
28864000,28864000,-0.0005600217,0.0048538563,-0.00023053726,0.7075556,0.0,0.0,0.0,0.0,0.0
28912000,28912000,-0.0011550722,0.004223008,0.0009566211,0.70407546,0.0,0.0,0.0,0.0,0.0
28964000,28964000,-0.0012553436,0.003380307,-0.00015030678,0.69292057,0.0,0.0,0.0,0.0,0.0
29012000,29012000,0.00015484367,0.0034903572,-0.00012441531,0.68472874,0.0,0.0,0.0,0.0,0.0
29060000,29060000,-0.0004848871,0.0051722648,0.00015307413,0.67610854,0.0,0.0,0.0,0.0,0.0
29112000,29112000,0.0008497533,0.0037974012,0.00018088165,0.66142726,0.0,0.0,0.0,0.0,0.0
29164000,29164000,-0.0002660678,0.0031568492,-0.00016951349,0.6523352,0.0,0.0,0.0,0.0,0.0
29212000,29212000,4.5281842e-05,0.001988474,-0.0005923726,0.66167355,0.0,0.0,0.0,0.0,0.0
29264000,29264000,0.00028987322,0.00419953,0.0003296519,0.67212725,0.0,0.0,0.0,0.0,0.0
29312000,29312000,-0.0008170692,0.0037077905,0.00015484368,0.68250555,0.0,0.0,0.0,0.0,0.0
29364000,29364000,-0.0009880901,0.0036055406,-0.00020382491,0.6932534,0.0,0.0,0.0,0.0,0.0
29408000,29408000,-0.001527339,0.005203308,0.0001590494,0.69991434,0.0,0.0,0.0,0.0,0.0
29460000,29460000,-0.0004035352,0.0052136723,-3.904947e-05,0.7058907,0.0,0.0,0.0,0.0,0.0
29512000,29512000,0.00086186535,0.0055308198,-3.0295294e-05,0.71292955,0.0,0.0,0.0,0.0,0.0
29564000,29564000,0.00023625395,0.002890733,-0.00039261248,0.7181969,0.0,0.0,0.0,0.0,0.0
29612000,29612000,6.983966e-06,0.0041016988,5.175254e-06,0.7202469,0.0,0.0,0.0,0.0,0.0
29664000,29664000,-0.0005543015,0.0030334117,0.00039221975,0.7203706,0.0,0.0,0.0,0.0,0.0
29708000,29708000,0.0007340808,0.0038420304,0.00039687022,0.7196167,0.0,0.0,0.0,0.0,0.0
29764000,29764000,-0.0007911331,0.0034707948,-0.0003837724,0.71624196,0.0,0.0,0.0,0.0,0.0
29808000,29808000,-0.00073811295,0.0027327356,-0.000224728,0.71437,0.0,0.0,0.0,0.0,0.0
29860000,29860000,0.0006849905,0.004976605,-0.00024290955,0.7107668,0.0,0.0,0.0,0.0,0.0
29908000,29908000,-0.00034063682,0.0040844465,-0.00018999232,0.70963746,0.0,0.0,0.0,0.0,0.0
29960000,29960000,6.5000495e-05,0.004982498,-0.00014887976,0.708555,0.0,0.0,0.0,0.0,0.0
30012000,30012000,-0.00016831662,0.0040825075,9.588216e-05,0.70819485,0.0,0.0,0.0,0.0,0.0
30064000,30064000,-0.0005645255,0.0037500095,0.00021788561,0.70779574,0.0,0.0,0.0,0.0,0.0
30112000,30112000,-0.00068346586,0.003814138,-0.00017494935,0.70872027,0.0,0.0,0.0,0.0,0.0
30164000,30164000,-0.0006090896,0.004045569,0.00017865941,0.7086647,0.0,0.0,0.0,0.0,0.0
30212000,30212000,-0.001677837,0.005051598,-0.00034173043,0.70840293,0.0,0.0,0.0,0.0,0.0
30264000,30264000,-0.000397352,0.004948243,-0.00038677803,0.7068033,0.0,0.0,0.0,0.0,0.0
30312000,30312000,-0.00023488149,0.004674467,-0.00024526138,0.70668244,0.0,0.0,0.0,0.0,0.0
30360000,30360000,0.00024644996,0.004669935,-0.00021417838,0.70606756,0.0,0.0,0.0,0.0,0.0
30408000,30408000,4.1305582e-05,0.0035957198,-3.550707e-05,0.7061817,0.0,0.0,0.0,0.0,0.0
30460000,30460000,0.000293286,0.0038926052,-0.00091580756,0.7064622,0.0,0.0,0.0,0.0,0.0
30508000,30508000,0.0004474696,0.00303498,-0.00034449564,0.70779574,0.0,0.0,0.0,0.0,0.0
30564000,30564000,0.000117406016,0.00244267,0.00019826296,0.7079858,0.0,0.0,0.0,0.0,0.0
30608000,30608000,-0.00032833908,0.0038617903,6.315253e-05,0.7084644,0.0,0.0,0.0,0.0,0.0
30664000,30664000,-0.001017616,0.0025681148,0.00048760357,0.706444,0.0,0.0,0.0,0.0,0.0
30712000,30712000,-0.0003443258,0.002566277,0.00016078766,0.70620525,0.0,0.0,0.0,0.0,0.0
30760000,30760000,-0.00046006884,0.0053548007,-0.00030537907,0.7054269,0.0,0.0,0.0,0.0,0.0
30812000,30812000,-0.00023426118,0.0047696335,-8.9834386e-05,0.7054454,0.0,0.0,0.0,0.0,0.0
30864000,30864000,-0.00010389408,0.0042387187,6.292896e-05,0.70587665,0.0,0.0,0.0,0.0,0.0
30912000,30912000,0.0007414572,0.005913028,9.2773116e-05,0.70711994,0.0,0.0,0.0,0.0,0.0
30960000,30960000,0.0002816841,0.00588059,4.8677386e-05,0.70704347,0.0,0.0,0.0,0.0,0.0
31008000,31008000,0.00033390196,0.0042120544,-1.8250477e-05,0.70693254,0.0,0.0,0.0,0.0,0.0
31060000,31060000,-0.0002039561,0.005109281,0.0011776229,0.7050569,0.0,0.0,0.0,0.0,0.0
31112000,31112000,-0.00026220395,0.0049611903,0.00048205288,0.70469666,0.0,0.0,0.0,0.0,0.0
31164000,31164000,-9.5021205e-05,0.004833367,0.0006385303,0.7036321,0.0,0.0,0.0,0.0,0.0
31208000,31208000,-0.0009654373,0.0046536,-0.00026190322,0.7038179,0.0,0.0,0.0,0.0,0.0
31264000,31264000,0.0007274902,0.0045650117,0.0009795636,0.7043996,0.0,0.0,0.0,0.0,0.0
31312000,31312000,-2.522074e-05,0.0040508755,-3.7250742e-05,0.70609385,0.0,0.0,0.0,0.0,0.0
31364000,31364000,-0.0008853605,0.0055918917,1.2439483e-05,0.70586044,0.0,0.0,0.0,0.0,0.0
31412000,31412000,-0.0007977593,0.005208145,6.0786737e-05,0.7062733,0.0,0.0,0.0,0.0,0.0
31464000,31464000,0.0008798251,0.0042516007,-0.00013720852,0.7054671,0.0,0.0,0.0,0.0,0.0
31512000,31512000,-0.00020905325,0.0052141664,0.00030788552,0.7063221,0.0,0.0,0.0,0.0,0.0
31564000,31564000,0.0012041148,0.0045097475,-3.2141314e-05,0.7055941,0.0,0.0,0.0,0.0,0.0
31612000,31612000,0.00011790061,0.0041930173,-0.00024535696,0.70566684,0.0,0.0,0.0,0.0,0.0
31664000,31664000,6.0428756e-06,0.0046458994,7.650356e-05,0.7061121,0.0,0.0,0.0,0.0,0.0
31708000,31708000,0.0001266108,0.003715287,0.0002261289,0.70805144,0.0,0.0,0.0,0.0,0.0
31764000,31764000,0.00035404295,0.0040336433,-8.71434e-05,0.70747346,0.0,0.0,0.0,0.0,0.0
31812000,31812000,1.4375299e-05,0.005006615,-0.00019660419,0.7076077,0.0,0.0,0.0,0.0,0.0
31864000,31864000,-0.0012914895,0.004547464,-0.0007081428,0.7064227,0.0,0.0,0.0,0.0,0.0
31912000,31912000,-8.694132e-05,0.0049977773,9.05395e-05,0.7073837,0.0,0.0,0.0,0.0,0.0
31964000,31964000,-6.1245024e-05,0.0046638073,-0.00024828175,0.70583594,0.0,0.0,0.0,0.0,0.0
32012000,32012000,0.00074733346,0.0037881145,2.2775752e-05,0.7059297,0.0,0.0,0.0,0.0,0.0
32060000,32060000,-4.3501015e-05,0.004430541,-0.00042595933,0.70626986,0.0,0.0,0.0,0.0,0.0
32108000,32108000,0.00022094554,0.0043539945,0.00015041957,0.7087116,0.0,0.0,0.0,0.0,0.0
32160000,32160000,0.00054108095,0.0048581474,0.0004646415,0.7073423,0.0,0.0,0.0,0.0,0.0
32212000,32212000,0.000619955,0.004266616,0.00020677678,0.7074794,0.0,0.0,0.0,0.0,0.0
32264000,32264000,-0.0002596872,0.003989917,0.00026851223,0.7061838,0.0,0.0,0.0,0.0,0.0
32312000,32312000,-0.00052597566,0.004657914,-0.00048213537,0.7069766,0.0,0.0,0.0,0.0,0.0
32364000,32364000,0.001240208,0.003939915,0.0002976362,0.7051044,0.0,0.0,0.0,0.0,0.0
32412000,32412000,-0.0016378132,0.0033841913,-0.0001574762,0.70522577,0.0,0.0,0.0,0.0,0.0
32460000,32460000,6.7363566e-05,0.0046553505,-7.6698925e-05,0.7057538,0.0,0.0,0.0,0.0,0.0
32508000,32508000,6.842008e-05,0.004144283,-9.367488e-06,0.70764,0.0,0.0,0.0,0.0,0.0
32564000,32564000,4.5423687e-05,0.0033267292,-0.000138987,0.70694405,0.0,0.0,0.0,0.0,0.0
32608000,32608000,-0.00059146265,0.0052340454,-0.00026035294,0.7074353,0.0,0.0,0.0,0.0,0.0
32664000,32664000,-0.001480723,0.003980724,0.00024126148,0.70568645,0.0,0.0,0.0,0.0,0.0
32712000,32712000,-0.0003650245,0.004493535,-0.00063054654,0.7060376,0.0,0.0,0.0,0.0,0.0
32764000,32764000,-0.00025611222,0.005069344,0.00035411216,0.70498943,0.0,0.0,0.0,0.0,0.0
32812000,32812000,-0.0005232637,0.00469428,0.00061229797,0.7054439,0.0,0.0,0.0,0.0,0.0
32864000,32864000,0.0009853696,0.004851292,0.00031228992,0.7060876,0.0,0.0,0.0,0.0,0.0
32912000,32912000,0.00073137035,0.0036556777,-0.0006242227,0.7074984,0.0,0.0,0.0,0.0,0.0
32960000,32960000,0.00035459874,0.004055806,5.312872e-05,0.7077269,0.0,0.0,0.0,0.0,0.0
33012000,33012000,0.00016558521,0.005799498,-0.0005387293,0.707204,0.0,0.0,0.0,0.0,0.0
33060000,33060000,-0.00059331686,0.003924167,6.321039e-05,0.7064253,0.0,0.0,0.0,0.0,0.0
33108000,33108000,-0.00080791255,0.004203887,-0.00015541671,0.7065396,0.0,0.0,0.0,0.0,0.0
33160000,33160000,-0.00038094082,0.0036384533,-0.00024510815,0.70612985,0.0,0.0,0.0,0.0,0.0
33208000,33208000,4.3062e-05,0.0054085217,0.00012510481,0.7061991,0.0,0.0,0.0,0.0,0.0
33260000,33260000,0.00012492453,0.0048053814,0.0004587613,0.7066693,0.0,0.0,0.0,0.0,0.0
33308000,33308000,0.0005967944,0.0057408228,-0.00012837429,0.70741856,0.0,0.0,0.0,0.0,0.0
33360000,33360000,0.00062747597,0.0040870747,8.174906e-05,0.7077436,0.0,0.0,0.0,0.0,0.0
33408000,33408000,-0.0002951431,0.0044386256,-0.00013408267,0.7079387,0.0,0.0,0.0,0.0,0.0
33460000,33460000,-0.0015094968,0.0046806424,-7.8289224e-05,0.7066875,0.0,0.0,0.0,0.0,0.0
33508000,33508000,-0.0016606605,0.0043409653,6.83196e-05,0.7057213,0.0,0.0,0.0,0.0,0.0
33564000,33564000,0.00079637504,0.002975448,1.0929953e-05,0.70560074,0.0,0.0,0.0,0.0,0.0
33612000,33612000,0.00035625978,0.0047679236,1.9798157e-05,0.70576394,0.0,0.0,0.0,0.0,0.0
33664000,33664000,0.00043660565,0.0049151327,2.0799833e-05,0.706374,0.0,0.0,0.0,0.0,0.0
33712000,33712000,0.002199543,0.0035810359,0.000651315,0.7070327,0.0,0.0,0.0,0.0,0.0
33764000,33764000,0.00041658024,0.0052778185,-0.00012932866,0.7077847,0.0,0.0,0.0,0.0,0.0
33812000,33812000,-0.000504914,0.0044052023,0.00052852085,0.70762604,0.0,0.0,0.0,0.0,0.0
33860000,33860000,-0.0009655007,0.004545589,-0.00016738453,0.70530415,0.0,0.0,0.0,0.0,0.0
33908000,33908000,0.0005920212,0.004700635,0.00028793974,0.7038373,0.0,0.0,0.0,0.0,0.0
33960000,33960000,0.0007654897,0.004585253,0.00019357828,0.703327,0.0,0.0,0.0,0.0,0.0
34008000,34008000,-0.00036087306,0.004253475,-8.453129e-05,0.70349187,0.0,0.0,0.0,0.0,0.0
34064000,34064000,0.00061830843,0.0037513955,-0.00039730067,0.7041131,0.0,0.0,0.0,0.0,0.0
34108000,34108000,0.00027438634,0.0034421566,-0.00019495524,0.7046793,0.0,0.0,0.0,0.0,0.0
34164000,34164000,-5.7191413e-05,0.0037652913,0.00055470783,0.70552105,0.0,0.0,0.0,0.0,0.0
34212000,34212000,0.00058652135,0.0041286447,-1.7370829e-05,0.7058248,0.0,0.0,0.0,0.0,0.0
34260000,34260000,-0.0012489872,0.004722893,-0.000395378,0.7047691,0.0,0.0,0.0,0.0,0.0
34312000,34312000,-2.141195e-05,0.0051001897,0.00026091278,0.7041235,0.0,0.0,0.0,0.0,0.0
34364000,34364000,8.862301e-05,0.004499325,0.0005369578,0.7040331,0.0,0.0,0.0,0.0,0.0
34412000,34412000,-0.00073346496,0.0034821914,0.00016235904,0.70456123,0.0,0.0,0.0,0.0,0.0
34464000,34464000,-0.00011266806,0.0029449214,-0.00056843326,0.70519245,0.0,0.0,0.0,0.0,0.0
34512000,34512000,-0.001766365,0.0041830977,6.49846e-05,0.70604956,0.0,0.0,0.0,0.0,0.0
34564000,34564000,0.00064726133,0.0043696356,-0.00045506813,0.7068693,0.0,0.0,0.0,0.0,0.0
34612000,34612000,0.0002119606,0.003907802,-0.00018300454,0.7072447,0.0,0.0,0.0,0.0,0.0
34664000,34664000,-0.0022643679,0.0046290117,-0.00025038587,0.7061591,0.0,0.0,0.0,0.0,0.0
34712000,34712000,-0.000407599,0.004943531,-0.0002578916,0.70539516,0.0,0.0,0.0,0.0,0.0
34764000,34764000,-0.00034476072,0.0046565356,-0.00042932495,0.70521,0.0,0.0,0.0,0.0,0.0
34812000,34812000,-2.6110007e-05,0.004712151,0.00055189576,0.70541734,0.0,0.0,0.0,0.0,0.0
34864000,34864000,0.0014757167,0.002406152,0.00026744016,0.7058956,0.0,0.0,0.0,0.0,0.0
34912000,34912000,0.00057614944,0.0045952774,-0.00051536766,0.70665085,0.0,0.0,0.0,0.0,0.0
34964000,34964000,0.000515954,0.004236393,-0.00018236433,0.70721936,0.0,0.0,0.0,0.0,0.0
35012000,35012000,0.0012210621,0.0037466327,-0.00014618487,0.707519,0.0,0.0,0.0,0.0,0.0
35064000,35064000,-0.0008963837,0.003355074,-3.6127105e-05,0.7072407,0.0,0.0,0.0,0.0,0.0
35112000,35112000,-0.00034771924,0.0036800872,0.00016970157,0.70724076,0.0,0.0,0.0,0.0,0.0
35164000,35164000,-0.00031208276,0.0029316244,-0.00047230502,0.7071898,0.0,0.0,0.0,0.0,0.0
35212000,35212000,-0.0012282893,0.0033001655,-0.00011167292,0.70735437,0.0,0.0,0.0,0.0,0.0
35264000,35264000,0.0008280156,0.0027421312,1.41640085e-05,0.70792675,0.0,0.0,0.0,0.0,0.0
35308000,35308000,0.0014321699,0.004639635,-0.00027986962,0.70849943,0.0,0.0,0.0,0.0,0.0
35360000,35360000,0.00065832015,0.0038868284,-0.00019264931,0.7086576,0.0,0.0,0.0,0.0,0.0
35408000,35408000,-0.000107840846,0.005529264,0.00023901177,0.7088212,0.0,0.0,0.0,0.0,0.0
35460000,35460000,-0.0011137997,0.004838687,-0.0001004864,0.70766985,0.0,0.0,0.0,0.0,0.0
35508000,35508000,-0.00037887553,0.0039411495,4.4454737e-06,0.70728433,0.0,0.0,0.0,0.0,0.0
35560000,35560000,0.0007037657,0.004480365,3.5980614e-05,0.7069435,0.0,0.0,0.0,0.0,0.0
35612000,35612000,0.0007378062,0.0039940747,-0.00055124954,0.70709336,0.0,0.0,0.0,0.0,0.0
35664000,35664000,0.00071516173,0.004660088,-8.2920684e-05,0.70735687,0.0,0.0,0.0,0.0,0.0
35712000,35712000,-0.00036618617,0.004505691,-0.00028108785,0.70771134,0.0,0.0,0.0,0.0,0.0
35764000,35764000,0.00069586607,0.0038477944,-4.3096526e-05,0.70794046,0.0,0.0,0.0,0.0,0.0
35812000,35812000,0.0012753741,0.003663417,0.00042682962,0.7078102,0.0,0.0,0.0,0.0,0.0
35864000,35864000,0.0005018513,0.0045394995,0.00032406716,0.70666885,0.0,0.0,0.0,0.0,0.0
35912000,35912000,-0.0007083303,0.0040221373,0.00023431538,0.7057334,0.0,0.0,0.0,0.0,0.0
35964000,35964000,-0.000418289,0.004301438,-0.00035022735,0.7052507,0.0,0.0,0.0,0.0,0.0
36012000,36012000,-0.0010284366,0.0037424043,0.00013533185,0.7054879,0.0,0.0,0.0,0.0,0.0
36064000,36064000,-4.9289127e-05,0.0036322463,1.862424e-05,0.7057804,0.0,0.0,0.0,0.0,0.0
36108000,36108000,0.00023480694,0.003804639,0.00036416197,0.7063328,0.0,0.0,0.0,0.0,0.0
36160000,36160000,-9.776681e-05,0.0034292932,0.00021708864,0.7067223,0.0,0.0,0.0,0.0,0.0
36208000,36208000,-0.00027966563,0.0043088202,0.00047964609,0.70740515,0.0,0.0,0.0,0.0,0.0
36260000,36260000,-0.0020800543,0.004205608,-0.00024303104,0.70648885,0.0,0.0,0.0,0.0,0.0
36308000,36308000,-0.00018034107,0.0037905811,-4.624881e-05,0.70618826,0.0,0.0,0.0,0.0,0.0
36360000,36360000,-0.0004150845,0.005227617,0.00021089535,0.7060451,0.0,0.0,0.0,0.0,0.0
36408000,36408000,0.0015893321,0.004552713,-0.0003534283,0.70643765,0.0,0.0,0.0,0.0,0.0
36460000,36460000,4.364358e-05,0.0032816047,-0.0001893664,0.7068446,0.0,0.0,0.0,0.0,0.0
36512000,36512000,-0.0006183311,0.0043424168,0.0008073353,0.7072089,0.0,0.0,0.0,0.0,0.0
36560000,36560000,0.0006974582,0.0035464382,-0.00013481508,0.70760083,0.0,0.0,0.0,0.0,0.0
36612000,36612000,-0.00021501299,0.0036007492,0.00014160603,0.70787716,0.0,0.0,0.0,0.0,0.0
36664000,36664000,0.00011675802,0.003435115,-0.0003274547,0.707429,0.0,0.0,0.0,0.0,0.0
36712000,36712000,-0.0011495472,0.0045672706,0.00023692661,0.7071337,0.0,0.0,0.0,0.0,0.0
36764000,36764000,-0.00046150407,0.0045062304,2.3499435e-05,0.7073731,0.0,0.0,0.0,0.0,0.0
36812000,36812000,0.00048300446,0.0036594863,-0.00026008982,0.7076613,0.0,0.0,0.0,0.0,0.0
36860000,36860000,-0.0001471957,0.005068913,-0.00035028477,0.70805645,0.0,0.0,0.0,0.0,0.0
36908000,36908000,-1.0480468e-05,0.005763609,0.00025960404,0.7084207,0.0,0.0,0.0,0.0,0.0
36960000,36960000,-0.0006287369,0.0039262986,-6.131145e-05,0.70863706,0.0,0.0,0.0,0.0,0.0
37008000,37008000,0.00058197055,0.0034351323,0.00020702493,0.708632,0.0,0.0,0.0,0.0,0.0
37064000,37064000,-5.074576e-05,0.005299474,0.0006097608,0.70765084,0.0,0.0,0.0,0.0,0.0
37112000,37112000,-0.00043395057,0.0046067853,-0.0001587741,0.70714015,0.0,0.0,0.0,0.0,0.0
37164000,37164000,-0.0006808352,0.0038924476,-8.942371e-05,0.7070546,0.0,0.0,0.0,0.0,0.0
37212000,37212000,-0.00023027914,0.004413101,0.00031684688,0.70691293,0.0,0.0,0.0,0.0,0.0
37264000,37264000,0.001501382,0.0034721612,7.7352495e-05,0.7071957,0.0,0.0,0.0,0.0,0.0
37312000,37312000,-0.0007875381,0.003131806,-0.00042685552,0.707408,0.0,0.0,0.0,0.0,0.0
37364000,37364000,0.00079473783,0.0042026876,-0.0005202471,0.7077687,0.0,0.0,0.0,0.0,0.0
37412000,37412000,-0.00026721475,0.0036290043,0.00017476467,0.70806545,0.0,0.0,0.0,0.0,0.0
37464000,37464000,0.00052379014,0.0047575613,-0.0006564808,0.7075515,0.0,0.0,0.0,0.0,0.0
37512000,37512000,0.00036308027,0.005148455,0.0001602565,0.7074129,0.0,0.0,0.0,0.0,0.0
37564000,37564000,-4.6661837e-05,0.004038714,-7.210836e-05,0.70738584,0.0,0.0,0.0,0.0,0.0
37612000,37612000,0.0010830481,0.0035583,0.00021855305,0.7075156,0.0,0.0,0.0,0.0,0.0
37664000,37664000,0.00016831003,0.004165664,5.5971814e-05,0.7076199,0.0,0.0,0.0,0.0,0.0
37708000,37708000,-0.0008729886,0.0037076853,-0.00017398736,0.70801777,0.0,0.0,0.0,0.0,0.0
37760000,37760000,7.361671e-05,0.0038072683,0.00032278718,0.70853597,0.0,0.0,0.0,0.0,0.0
37812000,37812000,-0.0014627092,0.0043969597,0.0002481014,0.70844096,0.0,0.0,0.0,0.0,0.0
37864000,37864000,0.0004768527,0.006697418,0.00036037524,0.7076043,0.0,0.0,0.0,0.0,0.0
37908000,37908000,0.00019186077,0.004785672,0.00014836167,0.7068942,0.0,0.0,0.0,0.0,0.0
37960000,37960000,-0.00010393042,0.003190346,0.0004006615,0.7068208,0.0,0.0,0.0,0.0,0.0
38012000,38012000,6.750383e-05,0.0037674727,0.00018338284,0.7071415,0.0,0.0,0.0,0.0,0.0
38064000,38064000,-0.00054365187,0.0027299891,-0.0002087255,0.7076219,0.0,0.0,0.0,0.0,0.0
38112000,38112000,0.0013131633,0.002360564,-1.3430487e-05,0.7081565,0.0,0.0,0.0,0.0,0.0
38164000,38164000,5.614727e-05,0.002673316,-0.0003662422,0.7084637,0.0,0.0,0.0,0.0,0.0
38208000,38208000,0.00064462936,0.0037789193,-6.0743023e-05,0.708327,0.0,0.0,0.0,0.0,0.0
38260000,38260000,-0.0015619854,0.006418049,-0.000120414275,0.7072441,0.0,0.0,0.0,0.0,0.0
38308000,38308000,-0.00059239275,0.0045498977,-0.00018945434,0.7067823,0.0,0.0,0.0,0.0,0.0
38360000,38360000,0.00039393472,0.004752686,-1.9128734e-05,0.7064775,0.0,0.0,0.0,0.0,0.0
38412000,38412000,-0.0005149855,0.0039926833,0.00028130732,0.7067888,0.0,0.0,0.0,0.0,0.0
38460000,38460000,4.1596824e-05,0.0044967383,-0.000258087,0.7071365,0.0,0.0,0.0,0.0,0.0
38512000,38512000,0.0007124189,0.0037447154,0.00028154624,0.70755315,0.0,0.0,0.0,0.0,0.0
38564000,38564000,0.0010903976,0.0018627343,0.0006087023,0.70793843,0.0,0.0,0.0,0.0,0.0
38612000,38612000,-0.00043703587,0.0032966419,0.00023796872,0.7082351,0.0,0.0,0.0,0.0,0.0
