timestamp,timestamp_sample,control_mode_flags,output_tracking_error[0],output_tracking_error[1],output_tracking_error[2],filter_fault_flags,pos_horiz_accuracy,pos_vert_accuracy,mag_test_ratio,vel_test_ratio,pos_test_ratio,hgt_test_ratio,tas_test_ratio,hagl_test_ratio,beta_test_ratio,time_slip,accel_device_id,gyro_device_id,baro_device_id,mag_device_id,gps_check_fail_flags,innovation_check_flags,solution_status_flags,reset_count_vel_ne,reset_count_vel_d,reset_count_pos_ne,reset_count_pod_d,reset_count_quat,pre_flt_fail_innov_heading,pre_flt_fail_innov_vel_horiz,pre_flt_fail_innov_vel_vert,pre_flt_fail_innov_height,pre_flt_fail_mag_field_disturbed,health_flags,timeout_flags
3212000,3132000,13488881664,0.0004326704,0.018660352,0.0015435054,0,14.172738,10.008659,nan,nan,nan,nan,0.0,0.0,0.0,0.0,1310988,1310988,6620172,197388,0,0,128,1,1,1,1,0,0,0,0,0,0,0,0
3220000,3140000,13488881664,0.00039426342,0.0045845225,0.0015666569,0,14.142143,10.0,nan,nan,nan,nan,0.0,0.0,0.0,0.0,1310988,1310988,6620172,197388,0,0,128,1,1,1,1,0,0,0,0,0,0,0,0
3228000,3148000,13488881664,6.125425e-05,0.0013210519,3.0015475e-05,0,14.142143,10.0,nan,nan,nan,nan,0.0,0.0,0.0,0.0,1310988,1310988,6620172,197388,0,0,128,1,1,1,1,0,0,0,0,0,0,0,0
3236000,3156000,13488881664,9.422551e-05,0.0013556452,5.5763823e-05,0,14.142143,10.0,nan,nan,nan,nan,0.0,0.0,0.0,0.0,1310988,1310988,6620172,197388,0,0,128,1,1,1,1,0,0,0,0,0,0,0,0
3244000,3164000,13488881664,0.00012609178,0.0014195597,8.2048e-05,0,14.142143,10.0,nan,nan,nan,nan,0.0,0.0,0.0,0.0,1310988,1310988,6620172,197388,0,0,128,1,1,1,1,0,0,0,0,0,0,0,0
3252000,3172000,13488881664,0.00015722381,0.001643788,0.000109381224,0,14.142143,10.0,nan,nan,nan,nan,0.0,0.0,0.0,0.0,1310988,1310988,6620172,197388,0,0,128,1,1,1,1,0,0,0,0,0,0,0,0
3260000,3180000,13488881664,0.00018775137,0.0020168524,0.00013796173,0,14.142143,10.0,nan,nan,nan,nan,0.0,0.0,0.0,0.0,1310988,1310988,6620172,197388,0,0,128,1,1,1,1,0,0,0,0,0,0,0,0
3268000,3188000,13488881664,0.00021786087,0.0022466055,0.0001678392,0,14.142143,10.0,nan,nan,nan,nan,0.0,0.0,0.0,0.0,1310988,1310988,6620172,197388,0,0,128,1,1,1,1,0,0,0,0,0,0,0,0
3276000,3196000,13488881664,0.0002476233,0.00251413,0.00019870573,0,14.142143,10.0,nan,nan,nan,nan,0.0,0.0,0.0,0.0,1310988,1310988,6620172,197388,0,0,128,1,1,1,1,0,0,0,0,0,0,0,0
3284000,3204000,13488881664,0.00027464842,0.002725204,0.00023140457,0,14.142143,10.0,nan,nan,nan,nan,0.0,0.0,0.0,0.0,1310988,1310988,6620172,197388,0,0,128,1,1,1,1,0,0,0,0,0,0,0,0
3292000,3212000,13488881664,0.00029852756,0.0029914158,0.0002664216,0,14.142143,10.0,nan,nan,nan,nan,0.0,0.0,0.0,0.0,1310988,1310988,6620172,197388,0,0,128,1,1,1,1,0,0,0,0,0,0,0,0
3300000,3220000,13488881664,0.00032015578,0.0033851922,0.0003043974,0,14.142143,10.0,nan,nan,nan,nan,0.0,0.0,0.0,0.0,1310988,1310988,6620172,197388,0,0,128,1,1,1,1,0,0,0,0,0,0,0,0
3308000,3228000,13488881664,0.000273458,0.0033659209,0.00022568787,0,14.142143,10.0,nan,nan,nan,nan,0.0,0.0,0.0,0.0,1310988,1310988,6620172,197388,0,0,128,1,1,1,1,0,0,0,0,0,0,0,0
3316000,3236000,13488881664,0.00027042045,0.003246141,0.00024110467,0,14.142143,10.0,nan,nan,nan,nan,0.0,0.0,0.0,0.0,1310988,1310988,6620172,197388,0,0,128,1,1,1,1,0,0,0,0,0,0,0,0
3324000,3244000,13488881664,0.00026572944,0.0031291803,0.00025720618,0,14.142143,10.0,nan,nan,nan,nan,0.0,0.0,0.0,0.0,1310988,1310988,6620172,197388,0,0,128,1,1,1,1,0,0,0,0,0,0,0,0
3332000,3252000,13488881664,0.00025942383,0.0030159801,0.0002740599,0,14.142143,10.0,nan,nan,nan,nan,0.0,0.0,0.0,0.0,1310988,1310988,6620172,197388,0,0,128,1,1,1,1,0,0,0,0,0,0,0,0
3340000,3260000,13488881664,0.00025161574,0.002905914,0.0002909734,0,14.142143,10.0,nan,nan,nan,nan,0.0,0.0,0.0,0.0,1310988,1310988,6620172,197388,0,0,128,1,1,1,1,0,0,0,0,0,0,0,0
3348000,3268000,13488881664,0.00024225005,0.0027993806,0.00030712536,0,14.142143,10.0,nan,nan,nan,nan,0.0,0.0,0.0,0.0,1310988,1310988,6620172,197388,0,0,128,1,1,1,1,0,0,0,0,0,0,0,0
3356000,3276000,13488881664,0.0002314412,0.0026968506,0.0003233263,0,14.142144,10.0,nan,nan,nan,nan,0.0,0.0,0.0,0.0,1310988,1310988,6620172,197388,0,0,128,1,1,1,1,0,0,0,0,0,0,0,0
3364000,3284000,13488881664,0.00021915018,0.002597588,0.0003386034,0,14.142145,10.0,nan,nan,nan,nan,0.0,0.0,0.0,0.0,1310988,1310988,6620172,197388,0,0,128,1,1,1,1,0,0,0,0,0,0,0,0
3372000,3292000,13488881664,0.00020550704,0.0025014682,0.0003530078,0,14.142146,10.0,nan,nan,nan,nan,0.0,0.0,0.0,0.0,1310988,1310988,6620172,197388,0,0,128,1,1,1,1,0,0,0,0,0,0,0,0
3380000,3300000,13488881664,0.00019071216,0.002409699,0.00036643428,0,14.142148,10.0,nan,nan,nan,nan,0.0,0.0,0.0,0.0,1310988,1310988,6620172,197388,0,0,128,1,1,1,1,0,0,0,0,0,0,0,0
3388000,3308000,13488881664,0.00017487086,0.0023212624,0.0003789091,0,14.14215,10.0,nan,nan,nan,nan,0.0,0.0,0.0,0.0,1310988,1310988,6620172,197388,0,0,128,1,1,1,1,0,0,0,0,0,0,0,0
3396000,3316000,13488881664,0.00016120028,0.0022358033,0.00050636067,0,0.014084185,7.071068,nan,nan,nan,nan,0.0,0.0,0.0,0.0,1310988,1310988,6620172,197388,0,0,128,1,1,1,1,0,0,0,0,0,0,0,0
3404000,3324000,13488881664,0.0001479853,0.0021539605,0.00049329264,0,0.014305073,7.071068,nan,nan,nan,nan,0.0,0.0,0.0,0.0,1310988,1310988,6620172,197388,0,0,128,1,1,1,1,0,0,0,0,0,0,0,0
3412000,3332000,13488881664,0.00013502254,0.002075012,0.00048169546,0,0.014986232,7.071068,nan,nan,nan,nan,0.0,0.0,0.0,0.0,1310988,1310988,6620172,197388,0,0,128,1,1,1,1,0,0,0,0,0,0,0,0
3420000,3340000,13488881664,0.00012237286,0.0019987782,0.0004714724,0,0.016124312,7.071068,nan,nan,nan,nan,0.0,0.0,0.0,0.0,1310988,1310988,6620172,197388,0,0,128,1,1,1,1,0,0,0,0,0,0,0,0
3428000,3348000,13488881664,0.0023160332,0.028623678,0.0025844849,0,0.014086802,7.071067,nan,nan,nan,nan,0.0,0.0,0.0,0.0,1310988,1310988,6620172,197388,0,0,128,1,1,1,1,0,0,0,0,0,0,0,0
3436000,3356000,13488881683,0.002373755,0.028547214,0.0027326103,0,0.014086865,7.071067,0.0057038404,nan,nan,nan,0.0,0.0,0.0,0.0,1310988,1310988,6620172,197388,0,0,129,1,1,1,1,1,0,0,0,0,0,0,0
3444000,3364000,13488881683,0.0023780537,0.028472679,0.002882352,0,0.014086908,7.071067,0.0057038404,nan,nan,nan,0.0,0.0,0.0,0.0,1310988,1310988,6620172,197388,0,0,129,1,1,1,1,1,0,0,0,0,0,0,0
3452000,3372000,13488881683,0.002382427,0.028398978,0.0030337118,0,0.014087271,7.071067,0.0057038404,nan,nan,nan,0.0,0.0,0.0,0.0,1310988,1310988,6620172,197388,0,0,129,1,1,1,1,1,0,0,0,0,0,0,0
3460000,3380000,13488881683,0.002386959,0.028325634,0.0031865975,0,0.014088451,7.071067,0.0057038404,nan,nan,nan,0.0,0.0,0.0,0.0,1310988,1310988,6620172,197388,0,0,129,1,1,1,1,1,0,0,0,0,0,0,0
3468000,3388000,13488881683,0.0023915314,0.028253447,0.0033411977,0,0.014091304,7.071067,0.0057038404,nan,nan,nan,0.0,0.0,0.0,0.0,1310988,1310988,6620172,197388,0,0,129,1,1,1,1,1,0,0,0,0,0,0,0
3476000,3396000,13488881683,0.002396137,0.028182533,0.0034971032,0,0.014097031,7.071067,0.0057038404,nan,nan,nan,0.0,0.0,0.0,0.0,1310988,1310988,6620172,197388,0,0,129,1,1,1,1,1,0,0,0,0,0,0,0
3484000,3404000,13488881683,0.0024007775,0.02811235,0.0036545412,0,0.014107181,7.071067,0.0057038404,nan,nan,nan,0.0,0.0,0.0,0.0,1310988,1310988,6620172,197388,0,0,129,1,1,1,1,1,0,0,0,0,0,0,0
3492000,3412000,13488881683,0.0024053974,0.02804312,0.0038133883,0,0.014123636,7.071067,0.0057038404,nan,nan,nan,0.0,0.0,0.0,0.0,1310988,1310988,6620172,197388,0,0,129,1,1,1,1,1,0,0,0,0,0,0,0
3500000,3420000,13488881683,0.0024100775,0.027975082,0.0039735413,0,0.014148612,7.071067,0.0057038404,nan,nan,nan,0.0,0.0,0.0,0.0,1310988,1310988,6620172,197388,0,0,129,1,1,1,1,1,0,0,0,0,0,0,0
3508000,3428000,13488881683,0.0023620492,0.027907686,0.0041351477,0,0.014184631,7.071067,0.0092048375,nan,nan,nan,0.0,0.0,0.0,0.0,1310988,1310988,6620172,197388,0,0,129,1,1,1,1,1,0,0,0,0,0,0,0
3516000,3436000,13488881683,0.0022466793,0.027039247,0.004287401,0,0.014234519,7.071067,0.0092048375,nan,nan,nan,0.0,0.0,0.0,0.0,1310988,1310988,6620172,197388,0,0,129,1,1,1,1,1,0,0,0,0,0,0,0
3524000,3444000,13488881683,0.0021331713,0.026195362,0.004427338,0,0.01430136,7.071067,0.0092048375,nan,nan,nan,0.0,0.0,0.0,0.0,1310988,1310988,6620172,197388,0,0,129,1,1,1,1,1,0,0,0,0,0,0,0
3532000,3452000,13488881683,0.0020200617,0.025375368,0.004555568,0,0.014388466,7.071067,0.0092048375,nan,nan,nan,0.0,0.0,0.0,0.0,1310988,1310988,6620172,197388,0,0,129,1,1,1,1,1,0,0,0,0,0,0,0
3540000,3460000,13488881683,0.001907475,0.024578687,0.0046721622,0,0.01449935,7.071067,0.0092048375,nan,nan,nan,0.0,0.0,0.0,0.0,1310988,1310988,6620172,197388,0,0,129,1,1,1,1,1,0,0,0,0,0,0,0
3548000,3468000,13488881683,0.0017955204,0.023804251,0.004777805,0,0.014637646,7.071067,0.0092048375,nan,nan,nan,0.0,0.0,0.0,0.0,1310988,1310988,6620172,197388,0,0,129,1,1,1,1,1,0,0,0,0,0,0,0
3556000,3476000,13488881683,0.0016844084,0.023051009,0.0048724455,0,0.014807058,7.071067,0.0092048375,nan,nan,nan,0.0,0.0,0.0,0.0,1310988,1310988,6620172,197388,0,0,129,1,1,1,1,1,0,0,0,0,0,0,0
3564000,3484000,13488881683,0.0015743786,0.02231823,0.004956662,0,0.015011253,7.071067,0.0092048375,nan,nan,nan,0.0,0.0,0.0,0.0,1310988,1310988,6620172,197388,0,0,129,1,1,1,1,1,0,0,0,0,0,0,0
3572000,3492000,13488881683,0.0014656329,0.02160579,0.005030547,0,0.01525385,7.071067,0.0092048375,nan,nan,nan,0.0,0.0,0.0,0.0,1310988,1310988,6620172,197388,0,0,129,1,1,1,1,1,0,0,0,0,0,0,0
3580000,3500000,13488881683,0.0013128449,0.020912591,0.005094669,0,0.01553832,7.071067,0.0070657525,nan,nan,nan,0.0,0.0,0.0,0.0,1310988,1310988,6620172,197388,0,0,129,1,1,1,1,1,0,0,0,0,0,0,0
3588000,3508000,13488881683,0.0011934867,0.020237908,0.005149203,0,0.01586794,7.071067,0.0070657525,nan,nan,nan,0.0,0.0,0.0,0.0,1310988,1310988,6620172,197388,0,0,129,1,1,1,1,1,0,0,0,0,0,0,0
3596000,3516000,13488881683,0.0010768654,0.01958114,0.005194677,0,0.016245654,7.071067,0.0070657525,nan,nan,nan,0.0,0.0,0.0,0.0,1310988,1310988,6620172,197388,0,0,129,1,1,1,1,1,0,0,0,0,0,0,0
3604000,3524000,13488881683,0.00095022126,0.018928638,0.004990658,0,0.010785284,5.7735023,0.0070657525,nan,nan,nan,0.0,0.0,0.0,0.0,1310988,1310988,6620172,197388,0,0,129,1,1,1,1,1,0,0,0,0,0,0,0
3612000,3532000,13488881683,0.00084623083,0.018305767,0.0050265053,0,0.01111139,5.7735023,0.0070657525,nan,nan,nan,0.0,0.0,0.0,0.0,1310988,1310988,6620172,197388,0,0,129,1,1,1,1,1,0,0,0,0,0,0,0
3620000,3540000,13488881683,0.00074900314,0.017699687,0.005053971,0,0.011503252,5.7735023,0.0070657525,nan,nan,nan,0.0,0.0,0.0,0.0,1310988,1310988,6620172,197388,0,0,129,1,1,1,1,1,0,0,0,0,0,0,0
3628000,3548000,13488881683,0.0006589085,0.017109679,0.0050741555,0,0.011962635,5.7735023,0.0070657525,nan,nan,nan,0.0,0.0,0.0,0.0,1310988,1310988,6620172,197388,0,0,129,1,1,1,1,1,0,0,0,0,0,0,0
3636000,3556000,13488881683,0.0005803386,0.016599042,0.005092411,0,0.012224118,5.7735023,0.0070657525,nan,nan,nan,0.0,0.0,0.0,0.0,1310988,1310988,6620172,197388,0,0,129,1,1,1,1,1,0,0,0,0,0,0,0
3644000,3564000,13488881683,0.00050768175,0.016038684,0.0050986325,0,0.012761473,5.7735023,0.0070657525,nan,nan,nan,0.0,0.0,0.0,0.0,1310988,1310988,6620172,197388,0,0,129,1,1,1,1,1,0,0,0,0,0,0,0
3652000,3572000,13488881683,0.00080465624,0.015492755,0.0050979997,0,0.013361996,5.7735023,0.013783999,nan,nan,nan,0.0,0.0,0.0,0.0,1310988,1310988,6620172,197388,0,0,129,1,1,1,1,1,0,0,0,0,0,0,0
3660000,3580000,13488881683,0.00075722294,0.014961912,0.005091715,0,0.014025164,5.7735023,0.013783999,nan,nan,nan,0.0,0.0,0.0,0.0,1310988,1310988,6620172,197388,0,0,129,1,1,1,1,1,0,0,0,0,0,0,0
3668000,3588000,13488881683,0.0007381212,0.014445354,0.0050791665,0,0.014750105,5.7735023,0.013783999,nan,nan,nan,0.0,0.0,0.0,0.0,1310988,1310988,6620172,197388,0,0,129,1,1,1,1,1,0,0,0,0,0,0,0
3676000,3596000,13488881683,0.0007247684,0.013942778,0.0050615007,0,0.01553574,5.7735023,0.013783999,nan,nan,nan,0.0,0.0,0.0,0.0,1310988,1310988,6620172,197388,0,0,129,1,1,1,1,1,0,0,0,0,0,0,0
3684000,3604000,13488881683,0.00071784185,0.013453873,0.005038498,0,0.016380843,5.7735023,0.013783999,nan,nan,nan,0.0,0.0,0.0,0.0,1310988,1310988,6620172,197388,0,0,129,1,1,1,1,1,0,0,0,0,0,0,0
3692000,3612000,13488881683,0.000715774,0.012978416,0.005010566,0,0.017284136,5.7735023,0.013783999,nan,nan,nan,0.0,0.0,0.0,0.0,1310988,1310988,6620172,197388,0,0,129,1,1,1,1,1,0,0,0,0,0,0,0
3700000,3620000,13488881683,0.00071777106,0.01251594,0.0049784733,0,0.018244434,5.7735023,0.013783999,nan,nan,nan,0.0,0.0,0.0,0.0,1310988,1310988,6620172,197388,0,0,129,1,1,1,1,1,0,0,0,0,0,0,0
3708000,3628000,13488881683,0.00072289724,0.01206618,0.0049417964,0,0.019260572,5.7735023,0.013783999,nan,nan,nan,0.0,0.0,0.0,0.0,1310988,1310988,6620172,197388,0,0,129,1,1,1,1,1,0,0,0,0,0,0,0
3716000,3636000,13488881683,0.000730473,0.011628875,0.0049013426,0,0.020331463,5.7735023,0.013783999,nan,nan,nan,0.0,0.0,0.0,0.0,1310988,1310988,6620172,197388,0,0,129,1,1,1,1,1,0,0,0,0,0,0,0
3724000,3644000,13488881683,0.00083677284,0.011202649,0.0048568933,0,0.021456081,5.7735023,0.0016181533,nan,nan,nan,0.0,0.0,0.0,0.0,1310988,1310988,6620172,197388,0,0,129,1,1,1,1,1,0,0,0,0,0,0,0
3732000,3652000,13488881683,0.0008470818,0.010788469,0.00480899,0,0.02263364,5.7735023,0.0016181533,nan,nan,nan,0.0,0.0,0.0,0.0,1310988,1310988,6620172,197388,0,0,129,1,1,1,1,1,0,0,0,0,0,0,0
3740000,3660000,13488881683,0.00081362796,0.010385926,0.00475799,0,0.023863485,5.7735023,0.0016181533,nan,nan,nan,0.0,0.0,0.0,0.0,1310988,1310988,6620172,197388,0,0,129,1,1,1,1,1,0,0,0,0,0,0,0
3748000,3668000,13488881683,0.00078136584,0.009994828,0.0047039185,0,0.025145005,5.7735023,0.0016181533,nan,nan,nan,0.0,0.0,0.0,0.0,1310988,1310988,6620172,197388,0,0,129,1,1,1,1,1,0,0,0,0,0,0,0
3756000,3676000,13488881683,0.0007488448,0.009614997,0.004647017,0,0.026477698,5.7735023,0.0016181533,nan,nan,nan,0.0,0.0,0.0,0.0,1310988,1310988,6620172,197388,0,0,129,1,1,1,1,1,0,0,0,0,0,0,0
3764000,3684000,13488881683,0.0007158391,0.009246054,0.0045875744,0,0.02786117,5.7735023,0.0016181533,nan,nan,nan,0.0,0.0,0.0,0.0,1310988,1310988,6620172,197388,0,0,129,1,1,1,1,1,0,0,0,0,0,0,0
3772000,3692000,13488881683,0.0006824525,0.008887742,0.0045256936,0,0.029295119,5.7735023,0.0016181533,nan,nan,nan,0.0,0.0,0.0,0.0,1310988,1310988,6620172,197388,0,0,129,1,1,1,1,1,0,0,0,0,0,0,0
3780000,3700000,13488881683,0.0006486071,0.00853992,0.00446138,0,0.030779326,5.7735033,0.0016181533,nan,nan,nan,0.0,0.0,0.0,0.0,1310988,1310988,6620172,197388,0,0,129,1,1,1,1,1,0,0,0,0,0,0,0
3788000,3708000,13488881683,0.0006142256,0.008202267,0.004395328,0,0.03231373,5.773504,0.0016181533,nan,nan,nan,0.0,0.0,0.0,0.0,1310988,1310988,6620172,197388,0,0,129,1,1,1,1,1,0,0,0,0,0,0,0
3796000,3716000,13488881683,0.0007487967,0.007874121,0.0043275557,0,0.03389829,5.7735047,0.0030122446,nan,nan,nan,0.0,0.0,0.0,0.0,1310988,1310988,6620172,197388,0,0,129,1,1,1,1,1,0,0,0,0,0,0,0
3804000,3724000,13488881683,0.00071294955,0.0075559225,0.004257683,0,0.03553297,5.773505,0.0030122446,nan,nan,nan,0.0,0.0,0.0,0.0,1310988,1310988,6620172,197388,0,0,129,1,1,1,1,1,0,0,0,0,0,0,0
3812000,3732000,13488881683,0.0008267401,0.00742375,0.0043695783,0,0.013219912,5.000002,0.0030122446,nan,nan,nan,0.0,0.0,0.0,0.0,1310988,1310988,6620172,197388,0,0,129,1,1,1,1,1,0,0,0,0,0,0,0
3820000,3740000,13488881683,0.00079260534,0.0071328543,0.0042916066,0,0.013847209,5.0000024,0.0030122446,nan,nan,nan,0.0,0.0,0.0,0.0,1310988,1310988,6620172,197388,0,0,129,1,1,1,1,1,0,0,0,0,0,0,0
3828000,3748000,13488881683,0.00076065125,0.0068512894,0.004212525,0,0.014514199,5.000003,0.0030122446,nan,nan,nan,0.0,0.0,0.0,0.0,1310988,1310988,6620172,197388,0,0,129,1,1,1,1,1,0,0,0,0,0,0,0
3836000,3756000,13488881683,0.00073082285,0.0065787574,0.004132584,0,0.015220787,5.0000033,0.0030122446,nan,nan,nan,0.0,0.0,0.0,0.0,1310988,1310988,6620172,197388,0,0,129,1,1,1,1,1,0,0,0,0,0,0,0
3844000,3764000,13488881683,0.00077661185,0.00666053,0.0041046003,0,0.015302343,5.0000033,0.0030122446,nan,nan,nan,0.0,0.0,0.0,0.0,1310988,1310988,6620172,197388,0,0,129,1,1,1,1,1,0,0,0,0,0,0,0
3852000,3772000,13488881683,0.00075418176,0.006401516,0.004024446,0,0.016018244,5.000004,0.0030122446,nan,nan,nan,0.0,0.0,0.0,0.0,1310988,1310988,6620172,197388,0,0,129,1,1,1,1,1,0,0,0,0,0,0,0
3860000,3780000,13488881683,0.0007341352,0.0061513553,0.003943474,0,0.01677131,5.0000043,0.0030122446,nan,nan,nan,0.0,0.0,0.0,0.0,1310988,1310988,6620172,197388,0,0,129,1,1,1,1,1,0,0,0,0,0,0,0
3868000,3788000,13488881683,0.002124528,0.0059047956,0.0038620362,0,0.017561687,5.000005,0.029508928,nan,nan,nan,0.0,0.0,0.0,0.0,1310988,1310988,6620172,197388,0,0,129,1,1,1,1,1,0,0,0,0,0,0,0
3876000,3796000,13488881683,0.002098906,0.005671505,0.0037804015,0,0.018389676,5.0000057,0.029508928,nan,nan,nan,0.0,0.0,0.0,0.0,1310988,1310988,6620172,197388,0,0,129,1,1,1,1,1,0,0,0,0,0,0,0
3884000,3804000,4898947603,0.0020664753,0.005446403,0.003698628,0,0.019255534,5.000006,0.029508928,nan,nan,0.0015949163,0.0,0.0,0.0,0.0,1310988,1310988,6620172,197388,0,0,165,1,1,1,1,1,0,0,0,0,0,0,0
3892000,3812000,4898947603,0.0020358996,0.0052292203,0.003616795,0,0.02015966,5.000007,0.029508928,nan,nan,0.0015949163,0.0,0.0,0.0,0.0,1310988,1310988,6620172,197388,0,0,165,1,1,1,1,1,0,0,0,0,0,0,0
3900000,3820000,4898947603,0.002000405,0.0050155516,0.0035349212,0,0.021102399,5.0000076,0.029508928,nan,nan,0.0015949163,0.0,0.0,0.0,0.0,1310988,1310988,6620172,197388,0,0,165,1,1,1,1,1,0,0,0,0,0,0,0
3908000,3828000,4898947603,0.0019670108,0.004808458,0.0034532452,0,0.022084214,5.0000086,0.029508928,nan,nan,0.0015949163,0.0,0.0,0.0,0.0,1310988,1310988,6620172,197388,0,0,165,1,1,1,1,1,0,0,0,0,0,0,0
3916000,3836000,4898947603,0.0019356523,0.0046078106,0.0033714927,0,0.023105552,5.0000095,0.029508928,nan,nan,0.0015949163,0.0,0.0,0.0,0.0,1310988,1310988,6620172,197388,0,0,165,1,1,1,1,1,0,0,0,0,0,0,0
3924000,3844000,4898947603,0.0019062803,0.004413349,0.003290031,0,0.024166863,5.00001,0.029508928,nan,nan,0.0015949163,0.0,0.0,0.0,0.0,1310988,1310988,6620172,197388,0,0,165,1,1,1,1,1,0,0,0,0,0,0,0
3932000,3852000,4898947603,0.001877143,0.0042215576,0.0032088845,0,0.025268734,5.000011,0.029508928,nan,nan,0.0015949163,0.0,0.0,0.0,0.0,1310988,1310988,6620172,197388,0,0,165,1,1,1,1,1,0,0,0,0,0,0,0
3940000,3860000,4898947603,0.0028109641,0.0040288423,0.043174688,0,0.026411703,2.8673139,0.018153457,nan,nan,0.002257084,0.0,0.0,0.0,0.0,1310988,1310988,6620172,197388,0,0,165,1,1,1,1,1,0,0,0,0,0,0,0
3948000,3868000,4898947603,0.0027900906,0.003849276,0.041771926,0,0.0275964,2.8673146,0.018153457,nan,nan,0.002257084,0.0,0.0,0.0,0.0,1310988,1310988,6620172,197388,0,0,165,1,1,1,1,1,0,0,0,0,0,0,0
3956000,3876000,4898947603,0.0026865536,0.0036747889,0.040411714,0,0.028823512,2.8673153,0.018153457,nan,nan,0.002257084,0.0,0.0,0.0,0.0,1310988,1310988,6620172,197388,0,0,165,1,1,1,1,1,0,0,0,0,0,0,0
3964000,3884000,4898947603,0.0025844006,0.0035050677,0.039092734,0,0.030093646,2.8673158,0.018153457,nan,nan,0.002257084,0.0,0.0,0.0,0.0,1310988,1310988,6620172,197388,0,0,165,1,1,1,1,1,0,0,0,0,0,0,0
3972000,3892000,4898947603,0.002483944,0.0033410657,0.037813943,0,0.03140742,2.8673165,0.018153457,nan,nan,0.002257084,0.0,0.0,0.0,0.0,1310988,1310988,6620172,197388,0,0,165,1,1,1,1,1,0,0,0,0,0,0,0
3980000,3900000,4898947603,0.0023854235,0.0031819257,0.036573928,0,0.03276552,2.8673174,0.018153457,nan,nan,0.002257084,0.0,0.0,0.0,0.0,1310988,1310988,6620172,197388,0,0,165,1,1,1,1,1,0,0,0,0,0,0,0
3988000,3908000,4898947603,0.002288725,0.0030275942,0.0353715,0,0.034168653,2.8673184,0.018153457,nan,nan,0.002257084,0.0,0.0,0.0,0.0,1310988,1310988,6620172,197388,0,0,165,1,1,1,1,1,0,0,0,0,0,0,0
3996000,3916000,4898947603,0.0021934276,0.002877909,0.034205668,0,0.035617467,2.8673193,0.018153457,nan,nan,0.002257084,0.0,0.0,0.0,0.0,1310988,1310988,6620172,197388,0,0,165,1,1,1,1,1,0,0,0,0,0,0,0
4004000,3924000,4898947603,0.0020998835,0.0027307593,0.09096018,0,0.0371126,2.218039,0.018153457,nan,nan,0.0063715065,0.0,0.0,0.0,0.0,1310988,1310988,6620172,197388,0,0,165,1,1,1,1,1,0,0,0,0,0,0,0
4012000,3932000,4898947603,0.002744469,0.00258154,0.088005766,0,0.038654745,2.21804,0.0140072275,nan,nan,0.0063715065,0.0,0.0,0.0,0.0,1310988,1310988,6620172,197388,0,0,165,1,1,1,1,1,0,0,0,0,0,0,0
4020000,3940000,4898947603,0.0028501314,0.004869518,0.08514434,0,0.013342326,2.218041,0.0140072275,nan,nan,0.0063715065,0.0,0.0,0.0,0.0,1310988,1310988,6620172,197388,0,0,165,1,1,1,1,1,0,0,0,0,0,0,0
4028000,3948000,4898947603,0.0027184112,0.0047621555,0.08236202,0,0.013899717,2.2180421,0.0140072275,nan,nan,0.0063715065,0.0,0.0,0.0,0.0,1310988,1310988,6620172,197388,0,0,165,1,1,1,1,1,0,0,0,0,0,0,0
4036000,3956000,4898947603,0.0025888218,0.0046598893,0.07966161,0,0.014502185,2.2180436,0.0140072275,nan,nan,0.0063715065,0.0,0.0,0.0,0.0,1310988,1310988,6620172,197388,0,0,165,1,1,1,1,1,0,0,0,0,0,0,0
4044000,3964000,4898947603,0.0024650886,0.004562583,0.07704101,0,0.01515063,2.2180448,0.0140072275,nan,nan,0.0063715065,0.0,0.0,0.0,0.0,1310988,1310988,6620172,197388,0,0,165,1,1,1,1,1,0,0,0,0,0,0,0
4052000,3972000,4898947603,0.002447454,0.0051165647,0.07440313,0,0.015243794,2.2180455,0.0140072275,nan,nan,0.0063715065,0.0,0.0,0.0,0.0,1310988,1310988,6620172,197388,0,0,165,1,1,1,1,1,0,0,0,0,0,0,0
4060000,3980000,4898947603,0.002341449,0.005012393,0.057498336,0,0.015908396,1.8735143,0.0140072275,nan,nan,0.0024317326,0.0,0.0,0.0,0.0,1310988,1310988,6620172,197388,0,0,165,1,1,1,1,1,0,0,0,0,0,0,0
4068000,3988000,4898947603,0.0022418601,0.0049124863,0.055563767,0,0.016617032,1.8735157,0.0140072275,nan,nan,0.0024317326,0.0,0.0,0.0,0.0,1310988,1310988,6620172,197388,0,0,165,1,1,1,1,1,0,0,0,0,0,0,0
4076000,3996000,4898947603,0.0021487493,0.0048176595,0.05368657,0,0.017370308,1.8735172,0.0140072275,nan,nan,0.0024317326,0.0,0.0,0.0,0.0,1310988,1310988,6620172,197388,0,0,165,1,1,1,1,1,0,0,0,0,0,0,0
4084000,4004000,4898947603,0.0027571481,0.0047190697,0.051865246,0,0.01816879,1.8735188,0.015624366,nan,nan,0.0024317326,0.0,0.0,0.0,0.0,1310988,1310988,6620172,197388,0,0,165,1,1,1,1,1,0,0,0,0,0,0,0
4092000,4012000,4898947603,0.0026684417,0.0046340553,0.05009777,0,0.019013008,1.8735207,0.015624366,nan,nan,0.0024317326,0.0,0.0,0.0,0.0,1310988,1310988,6620172,197388,0,0,165,1,1,1,1,1,0,0,0,0,0,0,0
4100000,4020000,4898947603,0.002551187,0.0045531457,0.048383333,0,0.019903328,1.8735226,0.015624366,nan,nan,0.0024317326,0.0,0.0,0.0,0.0,1310988,1310988,6620172,197388,0,0,165,1,1,1,1,1,0,0,0,0,0,0,0
4108000,4028000,4898947603,0.0024130952,0.0044715945,0.046719678,0,0.020840159,1.8735248,0.015624366,nan,nan,0.0024317326,0.0,0.0,0.0,0.0,1310988,1310988,6620172,197388,0,0,165,1,1,1,1,1,0,0,0,0,0,0,0
4116000,4036000,4898947603,0.0022815296,0.0043904623,0.04510546,0,0.021823945,1.873527,0.015624366,nan,nan,0.0024317326,0.0,0.0,0.0,0.0,1310988,1310988,6620172,197388,0,0,165,1,1,1,1,1,0,0,0,0,0,0,0
4124000,4044000,4898947603,0.002156186,0.0043097646,0.037486415,0,0.022855012,1.6517675,0.015624366,nan,nan,0.0013698372,0.0,0.0,0.0,0.0,1310988,1310988,6620172,197388,0,0,165,1,1,1,1,1,0,0,0,0,0,0,0
4132000,4052000,4898947603,0.0020367312,0.0042301333,0.036161527,0,0.023933789,1.6517698,0.015624366,nan,nan,0.0013698372,0.0,0.0,0.0,0.0,1310988,1310988,6620172,197388,0,0,165,1,1,1,1,1,0,0,0,0,0,0,0
4140000,4060000,4898947603,0.0019163615,0.004150726,0.034876443,0,0.025060683,1.6517724,0.015624366,nan,nan,0.0013698372,0.0,0.0,0.0,0.0,1310988,1310988,6620172,197388,0,0,165,1,1,1,1,1,0,0,0,0,0,0,0
4148000,4068000,4898947603,0.0018012904,0.004070752,0.03363021,0,0.026236096,1.651775,0.015624366,nan,nan,0.0013698372,0.0,0.0,0.0,0.0,1310988,1310988,6620172,197388,0,0,165,1,1,1,1,1,0,0,0,0,0,0,0
4156000,4076000,4898947603,0.0016038878,0.0039915494,0.032421496,0,0.027460238,1.6517779,0.0019864973,nan,nan,0.0013698372,0.0,0.0,0.0,0.0,1310988,1310988,6620172,197388,0,0,165,1,1,1,1,1,0,0,0,0,0,0,0
4164000,4084000,4898947603,0.0014981534,0.0039103613,0.031249369,0,0.0287336,1.651781,0.0019864973,nan,nan,0.0013698372,0.0,0.0,0.0,0.0,1310988,1310988,6620172,197388,0,0,165,1,1,1,1,1,0,0,0,0,0,0,0
4172000,4092000,4898947603,0.0013607477,0.0038285772,0.03011256,0,0.030056609,1.6517842,0.0019864973,nan,nan,0.0013698372,0.0,0.0,0.0,0.0,1310988,1310988,6620172,197388,0,0,165,1,1,1,1,1,0,0,0,0,0,0,0
4180000,4100000,4898947603,0.0012276846,0.0037464171,0.018223805,0,0.031429544,1.4937898,0.0019864973,nan,nan,0.003064385,0.0,0.0,0.0,0.0,1310988,1310988,6620172,197388,0,0,165,1,1,1,1,1,0,0,0,0,0,0,0
4188000,4108000,4898947603,0.0011001583,0.0036640468,0.017502055,0,0.032852944,1.4937932,0.0019864973,nan,nan,0.003064385,0.0,0.0,0.0,0.0,1310988,1310988,6620172,197388,0,0,165,1,1,1,1,1,0,0,0,0,0,0,0
4196000,4116000,4898947603,0.0009795981,0.0035807993,0.016802792,0,0.03432717,1.4937968,0.0019864973,nan,nan,0.003064385,0.0,0.0,0.0,0.0,1310988,1310988,6620172,197388,0,0,165,1,1,1,1,1,0,0,0,0,0,0,0
4204000,4124000,4898947603,0.0008658075,0.0034971463,0.01612499,0,0.035852734,1.4938006,0.0019864973,nan,nan,0.003064385,0.0,0.0,0.0,0.0,1310988,1310988,6620172,197388,0,0,165,1,1,1,1,1,0,0,0,0,0,0,0
4212000,4132000,4898947603,0.00075822696,0.0034136898,0.015468187,0,0.037430007,1.4938047,0.0019864973,nan,nan,0.003064385,0.0,0.0,0.0,0.0,1310988,1310988,6620172,197388,0,0,165,1,1,1,1,1,0,0,0,0,0,0,0
4220000,4140000,4898947603,0.00065680634,0.0033306042,0.014831911,0,0.039059386,1.493809,0.0019864973,nan,nan,0.003064385,0.0,0.0,0.0,0.0,1310988,1310988,6620172,197388,0,0,165,1,1,1,1,1,0,0,0,0,0,0,0
4228000,4148000,4898947603,0.0014532466,0.006301704,0.014281102,0,0.013360119,1.4938135,0.0027326331,nan,nan,0.003064385,0.0,0.0,0.0,0.0,1310988,1310988,6620172,197388,0,0,165,1,1,1,1,1,0,0,0,0,0,0,0
4236000,4156000,4898947603,0.0014052562,0.006198594,0.013686996,0,0.013943702,1.4938184,0.0027326331,nan,nan,0.003064385,0.0,0.0,0.0,0.0,1310988,1310988,6620172,197388,0,0,165,1,1,1,1,1,0,0,0,0,0,0,0
4244000,4164000,4898947603,0.0013650435,0.0060950904,0.025775144,0,0.014574077,1.3739169,0.0027326331,nan,nan,0.013198232,0.0,0.0,0.0,0.0,1310988,1310988,6620172,197388,0,0,165,1,1,1,1,1,0,0,0,0,0,0,0
4252000,4172000,4898947603,0.0013312198,0.005993583,0.025097227,0,0.015251201,1.3739218,0.0027326331,nan,nan,0.013198232,0.0,0.0,0.0,0.0,1310988,1310988,6620172,197388,0,0,165,1,1,1,1,1,0,0,0,0,0,0,0
4260000,4180000,4898947603,0.001402991,0.0061395634,0.024672372,0,0.015298109,1.3739209,0.0027326331,nan,nan,0.013198232,0.0,0.0,0.0,0.0,1310988,1310988,6620172,197388,0,0,165,1,1,1,1,1,0,0,0,0,0,0,0
4268000,4188000,4898947603,0.001381837,0.0060240906,0.024033798,0,0.015984403,1.3739259,0.0027326331,nan,nan,0.013198232,0.0,0.0,0.0,0.0,1310988,1310988,6620172,197388,0,0,165,1,1,1,1,1,0,0,0,0,0,0,0
4276000,4196000,4898947603,0.001365445,0.005911016,0.023412913,0,0.016713303,1.373931,0.0027326331,nan,nan,0.013198232,0.0,0.0,0.0,0.0,1310988,1310988,6620172,197388,0,0,165,1,1,1,1,1,0,0,0,0,0,0,0
4284000,4204000,4898947603,0.001353187,0.005800514,0.022808574,0,0.01748462,1.3739365,0.0027326331,nan,nan,0.013198232,0.0,0.0,0.0,0.0,1310988,1310988,6620172,197388,0,0,165,1,1,1,1,1,0,0,0,0,0,0,0
4292000,4212000,4898947603,0.0013444936,0.005693679,0.022220923,0,0.018298201,1.3739424,0.0027326331,nan,nan,0.013198232,0.0,0.0,0.0,0.0,1310988,1310988,6620172,197388,0,0,165,1,1,1,1,1,0,0,0,0,0,0,0
4300000,4220000,4898947603,0.0014383785,0.0055819834,0.014996292,0,0.019153941,1.2789353,0.0142876655,nan,nan,0.0026639097,0.0,0.0,0.0,0.0,1310988,1310988,6620172,197388,0,0,165,1,1,1,1,1,0,0,0,0,0,0,0
4308000,4228000,4898947603,0.0014225816,0.00548188,0.014655309,0,0.02005163,1.2789412,0.0142876655,nan,nan,0.0026639097,0.0,0.0,0.0,0.0,1310988,1310988,6620172,197388,0,0,165,1,1,1,1,1,0,0,0,0,0,0,0
4316000,4236000,4898947603,0.0013533717,0.0053875367,0.014323379,0,0.020991191,1.2789475,0.0142876655,nan,nan,0.0026639097,0.0,0.0,0.0,0.0,1310988,1310988,6620172,197388,0,0,165,1,1,1,1,1,0,0,0,0,0,0,0
4324000,4244000,4898947603,0.0012874498,0.0052913628,0.013999919,0,0.021972438,1.278954,0.0142876655,nan,nan,0.0026639097,0.0,0.0,0.0,0.0,1310988,1310988,6620172,197388,0,0,165,1,1,1,1,1,0,0,0,0,0,0,0
4332000,4252000,4898947603,0.0012247284,0.0051934887,0.013684932,0,0.022995258,1.278961,0.0142876655,nan,nan,0.0026639097,0.0,0.0,0.0,0.0,1310988,1310988,6620172,197388,0,0,165,1,1,1,1,1,0,0,0,0,0,0,0
4340000,4260000,4898947603,0.0011649446,0.0050939815,0.013378214,0,0.024059583,1.2789682,0.0142876655,nan,nan,0.0026639097,0.0,0.0,0.0,0.0,1310988,1310988,6620172,197388,0,0,165,1,1,1,1,1,0,0,0,0,0,0,0
4348000,4268000,4898947603,0.0011028042,0.0049945293,0.013078846,0,0.025165332,1.2789758,0.0142876655,nan,nan,0.0026639097,0.0,0.0,0.0,0.0,1310988,1310988,6620172,197388,0,0,165,1,1,1,1,1,0,0,0,0,0,0,0
4356000,4276000,4898947603,0.0010437196,0.0048938617,0.012786969,0,0.026312433,1.2789838,0.0142876655,nan,nan,0.0026639097,0.0,0.0,0.0,0.0,1310988,1310988,6620172,197388,0,0,165,1,1,1,1,1,0,0,0,0,0,0,0
4364000,4284000,4898947603,0.0009877639,0.004791888,0.016294181,0,0.027500957,1.2012963,0.0142876655,nan,nan,0.0017410292,0.0,0.0,0.0,0.0,1310988,1310988,6620172,197388,0,0,165,1,1,1,1,1,0,0,0,0,0,0,0
4372000,4292000,4898947603,0.0011068435,0.0046851267,0.015893623,0,0.028730892,1.2013044,0.0052453503,nan,nan,0.0017410292,0.0,0.0,0.0,0.0,1310988,1310988,6620172,197388,0,0,165,1,1,1,1,1,0,0,0,0,0,0,0
4380000,4300000,4898947603,0.0010688992,0.004580973,0.015503461,0,0.030002305,1.2013129,0.0052453503,nan,nan,0.0017410292,0.0,0.0,0.0,0.0,1310988,1310988,6620172,197388,0,0,165,1,1,1,1,1,0,0,0,0,0,0,0
4388000,4308000,4898947603,0.0010052589,0.0044759586,0.015123234,0,0.031315267,1.2013218,0.0052453503,nan,nan,0.0017410292,0.0,0.0,0.0,0.0,1310988,1310988,6620172,197388,0,0,165,1,1,1,1,1,0,0,0,0,0,0,0
4396000,4316000,4898947603,0.00094388897,0.004370471,0.014752975,0,0.032669894,1.2013313,0.0052453503,nan,nan,0.0017410292,0.0,0.0,0.0,0.0,1310988,1310988,6620172,197388,0,0,165,1,1,1,1,1,0,0,0,0,0,0,0
4404000,4324000,4898947603,0.00088640925,0.0042641787,0.014392384,0,0.034066394,1.2013409,0.0052453503,nan,nan,0.0017410292,0.0,0.0,0.0,0.0,1310988,1310988,6620172,197388,0,0,165,1,1,1,1,1,0,0,0,0,0,0,0
4412000,4332000,4898947603,0.0008326821,0.0041576084,0.014040996,0,0.03550486,1.201351,0.0052453503,nan,nan,0.0017410292,0.0,0.0,0.0,0.0,1310988,1310988,6620172,197388,0,0,165,1,1,1,1,1,0,0,0,0,0,0,0
4420000,4340000,4898947603,0.000782334,0.0040518115,0.013325734,0,0.036985338,1.1362875,0.0052453503,nan,nan,0.00019266331,0.0,0.0,0.0,0.0,1310988,1310988,6620172,197388,0,0,165,1,1,1,1,1,0,0,0,0,0,0,0
4428000,4348000,4898947603,0.0007349897,0.0039463555,0.013004177,0,0.038508035,1.1362978,0.0052453503,nan,nan,0.00019266331,0.0,0.0,0.0,0.0,1310988,1310988,6620172,197388,0,0,165,1,1,1,1,1,0,0,0,0,0,0,0
4436000,4356000,4898947603,0.0012245068,0.006132946,0.012763358,0,0.013336037,1.1363087,0.0052453503,nan,nan,0.00019266331,0.0,0.0,0.0,0.0,1310988,1310988,6620172,197388,0,0,165,1,1,1,1,1,0,0,0,0,0,0,0
4444000,4364000,4898947603,0.0016058396,0.0059991125,0.0124594215,0,0.01388133,1.13632,0.012528465,nan,nan,0.00019266331,0.0,0.0,0.0,0.0,1310988,1310988,6620172,197388,0,0,165,1,1,1,1,1,0,0,0,0,0,0,0
4452000,4372000,4898947603,0.0015661736,0.005869417,0.01216361,0,0.014461153,1.1363318,0.012528465,nan,nan,0.00019266331,0.0,0.0,0.0,0.0,1310988,1310988,6620172,197388,0,0,165,1,1,1,1,1,0,0,0,0,0,0,0
4460000,4380000,4898947603,0.0015172156,0.0057417336,0.0118754,0,0.01507519,1.1363441,0.012528465,nan,nan,0.00019266331,0.0,0.0,0.0,0.0,1310988,1310988,6620172,197388,0,0,165,1,1,1,1,1,0,0,0,0,0,0,0
4468000,4388000,4898947603,0.0015119157,0.005733971,0.012083458,0,0.01516304,1.1363279,0.012528465,nan,nan,0.00019266331,0.0,0.0,0.0,0.0,1310988,1310988,6620172,197388,0,0,165,1,1,1,1,1,0,0,0,0,0,0,0
4476000,4396000,4898947603,0.0014682225,0.0055863187,0.01180891,0,0.01578765,1.1363392,0.012528465,nan,nan,0.00019266331,0.0,0.0,0.0,0.0,1310988,1310988,6620172,197388,0,0,165,1,1,1,1,1,0,0,0,0,0,0,0
4484000,4404000,4898947603,0.0014277617,0.0054432373,0.019253278,0,0.016443718,1.0808128,0.012528465,nan,nan,0.0044377632,0.0,0.0,0.0,0.0,1310988,1310988,6620172,197388,0,0,165,1,1,1,1,1,0,0,0,0,0,0,0
4492000,4412000,4898947603,0.0013903051,0.0053025684,0.018742772,0,0.017130988,1.0808244,0.012528465,nan,nan,0.0044377632,0.0,0.0,0.0,0.0,1310988,1310988,6620172,197388,0,0,165,1,1,1,1,1,0,0,0,0,0,0,0
4500000,4420000,4898947603,0.0013557262,0.0051659173,0.01824657,0,0.017849253,1.0808365,0.012528465,nan,nan,0.0044377632,0.0,0.0,0.0,0.0,1310988,1310988,6620172,197388,0,0,165,1,1,1,1,1,0,0,0,0,0,0,0
4508000,4428000,4898947603,0.0013240451,0.005033341,0.017763447,0,0.018598204,1.0808492,0.012528465,nan,nan,0.0044377632,0.0,0.0,0.0,0.0,1310988,1310988,6620172,197388,0,0,165,1,1,1,1,1,0,0,0,0,0,0,0
4516000,4436000,4898947603,0.0012881818,0.0049049966,0.017294036,0,0.01937765,1.0808622,0.00018286407,nan,nan,0.0044377632,0.0,0.0,0.0,0.0,1310988,1310988,6620172,197388,0,0,165,1,1,1,1,1,0,0,0,0,0,0,0
4524000,4444000,4898947603,0.001231743,0.004783993,0.01683725,0,0.020187482,1.0808756,0.00018286407,nan,nan,0.0044377632,0.0,0.0,0.0,0.0,1310988,1310988,6620172,197388,0,0,165,1,1,1,1,1,0,0,0,0,0,0,0
4532000,4452000,4898947603,0.0011520957,0.004663333,0.016393257,0,0.021027535,1.0808897,0.00018286407,nan,nan,0.0044377632,0.0,0.0,0.0,0.0,1310988,1310988,6620172,197388,0,0,165,1,1,1,1,1,0,0,0,0,0,0,0
4540000,4460000,4898947603,0.0010746137,0.0045434358,0.016720274,0,0.021897588,1.0327748,0.00018286407,nan,nan,0.00047947874,0.0,0.0,0.0,0.0,1310988,1310988,6620172,197388,0,0,165,1,1,1,1,1,0,0,0,0,0,0,0
4548000,4468000,4898947603,0.0009995702,0.0044243718,0.01627548,0,0.02279753,1.0327891,0.00018286407,nan,nan,0.00047947874,0.0,0.0,0.0,0.0,1310988,1310988,6620172,197388,0,0,165,1,1,1,1,1,0,0,0,0,0,0,0
4556000,4476000,4898947603,0.0009240548,0.0043071117,0.01584252,0,0.023727333,1.032804,0.00018286407,nan,nan,0.00047947874,0.0,0.0,0.0,0.0,1310988,1310988,6620172,197388,0,0,165,1,1,1,1,1,0,0,0,0,0,0,0
4564000,4484000,4898947603,0.0008508456,0.0041911304,0.0154205905,0,0.024686838,1.0328194,0.00018286407,nan,nan,0.00047947874,0.0,0.0,0.0,0.0,1310988,1310988,6620172,197388,0,0,165,1,1,1,1,1,0,0,0,0,0,0,0
4572000,4492000,4898947603,0.0007796168,0.004076483,0.015009639,0,0.025675986,1.0328354,0.00018286407,nan,nan,0.00047947874,0.0,0.0,0.0,0.0,1310988,1310988,6620172,197388,0,0,165,1,1,1,1,1,0,0,0,0,0,0,0
4580000,4500000,4898947603,0.0007102475,0.003963115,0.014609735,0,0.026694776,1.0328518,0.00018286407,nan,nan,0.00047947874,0.0,0.0,0.0,0.0,1310988,1310988,6620172,197388,0,0,165,1,1,1,1,1,0,0,0,0,0,0,0
4588000,4508000,4898947603,0.0006700662,0.0038512144,0.01421993,0,0.027743127,1.032869,0.00072313496,nan,nan,0.00047947874,0.0,0.0,0.0,0.0,1310988,1310988,6620172,197388,0,0,165,1,1,1,1,1,0,0,0,0,0,0,0
4596000,4516000,4898947603,0.00060400175,0.0037409456,0.0138404155,0,0.028821051,1.0328866,0.00072313496,nan,nan,0.00047947874,0.0,0.0,0.0,0.0,1310988,1310988,6620172,197388,0,0,165,1,1,1,1,1,0,0,0,0,0,0,0
4604000,4524000,4898947603,0.0005397598,0.0036294942,0.023530241,0,0.029928595,0.9906652,0.00072313496,nan,nan,0.0069148014,0.0,0.0,0.0,0.0,1310988,1310988,6620172,197388,0,0,165,1,1,1,1,1,0,0,0,0,0,0,0
4612000,4532000,4898947603,0.00047840909,0.003522759,0.022846151,0,0.03106579,0.99068326,0.00072313496,nan,nan,0.0069148014,0.0,0.0,0.0,0.0,1310988,1310988,6620172,197388,0,0,165,1,1,1,1,1,0,0,0,0,0,0,0
4620000,4540000,4898947603,0.00042104506,0.0034182412,0.022180883,0,0.03223271,0.9907019,0.00072313496,nan,nan,0.0069148014,0.0,0.0,0.0,0.0,1310988,1310988,6620172,197388,0,0,165,1,1,1,1,1,0,0,0,0,0,0,0
4628000,4548000,4898947603,0.00036751843,0.0033157622,0.02153396,0,0.033429343,0.9907212,0.00072313496,nan,nan,0.0069148014,0.0,0.0,0.0,0.0,1310988,1310988,6620172,197388,0,0,165,1,1,1,1,1,0,0,0,0,0,0,0
4636000,4556000,4898947603,0.0003177379,0.003215602,0.020904746,0,0.034655802,0.99074113,0.00072313496,nan,nan,0.0069148014,0.0,0.0,0.0,0.0,1310988,1310988,6620172,197388,0,0,165,1,1,1,1,1,0,0,0,0,0,0,0
4644000,4564000,4898947603,0.0006178637,0.0043619205,0.020317944,0,0.013158591,0.9907617,0.00072313496,nan,nan,0.0069148014,0.0,0.0,0.0,0.0,1310988,1310988,6620172,197388,0,0,165,1,1,1,1,1,0,0,0,0,0,0,0
4652000,4572000,4898947603,0.0005861452,0.004244073,0.019723047,0,0.013636663,0.99078286,0.00072313496,nan,nan,0.0069148014,0.0,0.0,0.0,0.0,1310988,1310988,6620172,197388,0,0,165,1,1,1,1,1,0,0,0,0,0,0,0
4660000,4580000,4898947603,0.0008582002,0.004128172,0.019446794,0,0.014139088,0.9533413,0.010003974,nan,nan,0.00022507893,0.0,0.0,0.0,0.0,1310988,1310988,6620172,197388,0,0,165,1,1,1,1,1,0,0,0,0,0,0,0
4668000,4588000,4898947603,0.00082830375,0.004016591,0.018874755,0,0.014665718,0.953363,0.010003974,nan,nan,0.00022507893,0.0,0.0,0.0,0.0,1310988,1310988,6620172,197388,0,0,165,1,1,1,1,1,0,0,0,0,0,0,0
4676000,4596000,4898947603,0.00082734553,0.004004337,0.01902243,0,0.01480799,0.95331126,0.010003974,nan,nan,0.00022507893,0.0,0.0,0.0,0.0,1310988,1310988,6620172,197388,0,0,165,1,1,1,1,1,0,0,0,0,0,0,0
4684000,4604000,4898947603,0.0008032557,0.003855266,0.01847622,0,0.015347582,0.95333046,0.010003974,nan,nan,0.00022507893,0.0,0.0,0.0,0.0,1310988,1310988,6620172,197388,0,0,165,1,1,1,1,1,0,0,0,0,0,0,0
4692000,4612000,4898947603,0.0007822053,0.003710916,0.017944971,0,0.015909832,0.9533503,0.010003974,nan,nan,0.00022507893,0.0,0.0,0.0,0.0,1310988,1310988,6620172,197388,0,0,165,1,1,1,1,1,0,0,0,0,0,0,0
4700000,4620000,4898947603,0.000764087,0.003571097,0.017428327,0,0.01649452,0.9533707,0.010003974,nan,nan,0.00022507893,0.0,0.0,0.0,0.0,1310988,1310988,6620172,197388,0,0,165,1,1,1,1,1,0,0,0,0,0,0,0
4708000,4628000,4898947603,0.0007486653,0.0034358245,0.016926052,0,0.017101504,0.9533917,0.010003974,nan,nan,0.00022507893,0.0,0.0,0.0,0.0,1310988,1310988,6620172,197388,0,0,165,1,1,1,1,1,0,0,0,0,0,0,0
4716000,4636000,4898947603,0.0007357901,0.0033055632,0.016437588,0,0.01773067,0.9534133,0.010003974,nan,nan,0.00022507893,0.0,0.0,0.0,0.0,1310988,1310988,6620172,197388,0,0,165,1,1,1,1,1,0,0,0,0,0,0,0
4724000,4644000,4898947603,0.00072519924,0.0031779392,0.010752193,0,0.018381875,0.9199142,0.010003974,nan,nan,0.004190871,0.0,0.0,0.0,0.0,1310988,1310988,6620172,197388,0,0,165,1,1,1,1,1,0,0,0,0,0,0,0
4732000,4652000,4898947603,0.0031704425,0.003056902,0.010458422,0,0.019054996,0.91993624,0.049056165,nan,nan,0.004190871,0.0,0.0,0.0,0.0,1310988,1310988,6620172,197388,0,0,165,1,1,1,1,1,0,0,0,0,0,0,0
4740000,4660000,4898947603,0.0031708884,0.0029415912,0.01017243,0,0.01974986,0.919959,0.049056165,nan,nan,0.004190871,0.0,0.0,0.0,0.0,1310988,1310988,6620172,197388,0,0,165,1,1,1,1,1,0,0,0,0,0,0,0
4748000,4668000,4898947603,0.0031448742,0.0028285868,0.00989405,0,0.020466315,0.91998243,0.049056165,nan,nan,0.004190871,0.0,0.0,0.0,0.0,1310988,1310988,6620172,197388,0,0,165,1,1,1,1,1,0,0,0,0,0,0,0
4756000,4676000,4898947603,0.0031202089,0.0027197523,0.009622972,0,0.021204308,0.9200066,0.049056165,nan,nan,0.004190871,0.0,0.0,0.0,0.0,1310988,1310988,6620172,197388,0,0,165,1,1,1,1,1,0,0,0,0,0,0,0
4764000,4684000,4898947603,0.003096355,0.0026139356,0.009358684,0,0.021963822,0.9200313,0.049056165,nan,nan,0.004190871,0.0,0.0,0.0,0.0,1310988,1310988,6620172,197388,0,0,165,1,1,1,1,1,0,0,0,0,0,0,0
4772000,4692000,4898947603,0.0030738923,0.0025116042,0.009101135,0,0.022744771,0.9200568,0.049056165,nan,nan,0.004190871,0.0,0.0,0.0,0.0,1310988,1310988,6620172,197388,0,0,165,1,1,1,1,1,0,0,0,0,0,0,0
4780000,4700000,4898947603,0.0030525706,0.0024133218,0.007970708,0,0.02354708,0.8898495,0.049056165,nan,nan,0.00076190574,0.0,0.0,0.0,0.0,1310988,1310988,6620172,197388,0,0,165,1,1,1,1,1,0,0,0,0,0,0,0
4788000,4708000,4898947603,0.003032317,0.002319736,0.0077537727,0,0.02437069,0.88987553,0.049056165,nan,nan,0.00076190574,0.0,0.0,0.0,0.0,1310988,1310988,6620172,197388,0,0,165,1,1,1,1,1,0,0,0,0,0,0,0
4796000,4716000,4898947603,0.0030129368,0.002230728,0.007541646,0,0.025215594,0.8899023,0.049056165,nan,nan,0.00076190574,0.0,0.0,0.0,0.0,1310988,1310988,6620172,197388,0,0,165,1,1,1,1,1,0,0,0,0,0,0,0
4804000,4724000,4898947603,0.00298443,0.0021457295,0.007334649,0,0.02608173,0.8899298,0.0001838367,nan,nan,0.00076190574,0.0,0.0,0.0,0.0,1310988,1310988,6620172,197388,0,0,165,1,1,1,1,1,0,0,0,0,0,0,0
4812000,4732000,4898947603,0.0029664608,0.0020648518,0.00713256,0,0.026969103,0.889958,0.0001838367,nan,nan,0.00076190574,0.0,0.0,0.0,0.0,1310988,1310988,6620172,197388,0,0,165,1,1,1,1,1,0,0,0,0,0,0,0
4820000,4740000,4898947603,0.0028079934,0.0019887353,0.006935228,0,0.027877731,0.8899871,0.0001838367,nan,nan,0.00076190574,0.0,0.0,0.0,0.0,1310988,1310988,6620172,197388,0,0,165,1,1,1,1,1,0,0,0,0,0,0,0
4828000,4748000,4898947603,0.0026496078,0.0019164444,0.006742456,0,0.028807614,0.89001685,0.0001838367,nan,nan,0.00076190574,0.0,0.0,0.0,0.0,1310988,1310988,6620172,197388,0,0,165,1,1,1,1,1,0,0,0,0,0,0,0
4836000,4756000,4898947603,0.002492363,0.0018488106,0.0065546385,0,0.029758837,0.8900475,0.0001838367,nan,nan,0.00076190574,0.0,0.0,0.0,0.0,1310988,1310988,6620172,197388,0,0,165,1,1,1,1,1,0,0,0,0,0,0,0
4844000,4764000,4898947603,0.0023365468,0.001771744,0.01583748,0,0.030731387,0.86262184,0.0001838367,nan,nan,0.008687909,0.0,0.0,0.0,0.0,1310988,1310988,6620172,197388,0,0,165,1,1,1,1,1,0,0,0,0,0,0,0
4852000,4772000,4898947603,0.002249781,0.0029359083,0.015369055,0,0.012916891,0.8626531,0.0001838367,nan,nan,0.008687909,0.0,0.0,0.0,0.0,1310988,1310988,6620172,197388,0,0,165,1,1,1,1,1,0,0,0,0,0,0,0
4860000,4780000,4898947603,0.002098848,0.0028616998,0.014899549,0,0.013334988,0.86268514,0.0001838367,nan,nan,0.008687909,0.0,0.0,0.0,0.0,1310988,1310988,6620172,197388,0,0,165,1,1,1,1,1,0,0,0,0,0,0,0
4868000,4788000,4898947603,0.0019498228,0.002791009,0.014442771,0,0.013771188,0.862718,0.0001838367,nan,nan,0.008687909,0.0,0.0,0.0,0.0,1310988,1310988,6620172,197388,0,0,165,1,1,1,1,1,0,0,0,0,0,0,0
4876000,4796000,4898947603,0.0013232271,0.0027238817,0.013998001,0,0.0142253395,0.8627517,0.05408134,nan,nan,0.008687909,0.0,0.0,0.0,0.0,1310988,1310988,6620172,197388,0,0,165,1,1,1,1,1,0,0,0,0,0,0,0
4884000,4804000,4898947603,0.0014829534,0.0028480098,0.014431916,0,0.014398555,0.86262745,0.05408134,nan,nan,0.008687909,0.0,0.0,0.0,0.0,1310988,1310988,6620172,197388,0,0,165,1,1,1,1,1,0,0,0,0,0,0,0
4892000,4812000,4898947603,0.0016311966,0.0027256394,0.014000729,0,0.014865988,0.8626564,0.05408134,nan,nan,0.008687909,0.0,0.0,0.0,0.0,1310988,1310988,6620172,197388,0,0,165,1,1,1,1,1,0,0,0,0,0,0,0
4900000,4820000,4898947603,0.0017811883,0.0026035507,0.009923165,0,0.015350494,0.8376172,0.05408134,nan,nan,0.0035609053,0.0,0.0,0.0,0.0,1310988,1310988,6620172,197388,0,0,165,1,1,1,1,1,0,0,0,0,0,0,0
4908000,4828000,4898947603,0.0019255666,0.00249331,0.00963285,0,0.015851976,0.8376467,0.05408134,nan,nan,0.0035609053,0.0,0.0,0.0,0.0,1310988,1310988,6620172,197388,0,0,165,1,1,1,1,1,0,0,0,0,0,0,0
4916000,4836000,4898947603,0.002063931,0.0023885574,0.009350639,0,0.016370341,0.837677,0.05408134,nan,nan,0.0035609053,0.0,0.0,0.0,0.0,1310988,1310988,6620172,197388,0,0,165,1,1,1,1,1,0,0,0,0,0,0,0
4924000,4844000,4898947603,0.0021955909,0.0022894891,0.009075738,0,0.016905453,0.837708,0.05408134,nan,nan,0.0035609053,0.0,0.0,0.0,0.0,1310988,1310988,6620172,197388,0,0,165,1,1,1,1,1,0,0,0,0,0,0,0
4932000,4852000,4898947603,0.0023206077,0.0021958402,0.008808269,0,0.01745719,0.83773977,0.05408134,nan,nan,0.0035609053,0.0,0.0,0.0,0.0,1310988,1310988,6620172,197388,0,0,165,1,1,1,1,1,0,0,0,0,0,0,0
4940000,4860000,4898947603,0.0024328453,0.0021107749,0.00854792,0,0.018025476,0.8377723,0.05408134,nan,nan,0.0035609053,0.0,0.0,0.0,0.0,1310988,1310988,6620172,197388,0,0,165,1,1,1,1,1,0,0,0,0,0,0,0
4948000,4868000,4898947603,0.0029766574,0.0020297724,0.008294439,0,0.018610224,0.8378056,0.008153637,nan,nan,0.0035609053,0.0,0.0,0.0,0.0,1310988,1310988,6620172,197388,0,0,165,1,1,1,1,1,0,0,0,0,0,0,0
4956000,4876000,4898947603,0.0030790863,0.0019520817,0.0080481265,0,0.01921141,0.83783984,0.008153637,nan,nan,0.0035609053,0.0,0.0,0.0,0.0,1310988,1310988,6620172,197388,0,0,165,1,1,1,1,1,0,0,0,0,0,0,0
4964000,4884000,4898947603,0.0030177273,0.0018785228,0.005854111,0,0.019828955,0.814851,0.008153637,nan,nan,0.0020220457,0.0,0.0,0.0,0.0,1310988,1310988,6620172,197388,0,0,165,1,1,1,1,1,0,0,0,0,0,0,0
4972000,4892000,4898947603,0.0029481568,0.001810382,0.0056828056,0,0.020462792,0.8148858,0.008153637,nan,nan,0.0020220457,0.0,0.0,0.0,0.0,1310988,1310988,6620172,197388,0,0,165,1,1,1,1,1,0,0,0,0,0,0,0
4980000,4900000,4898947603,0.002870822,0.0017471649,0.0055153402,0,0.021112863,0.81492144,0.008153637,nan,nan,0.0020220457,0.0,0.0,0.0,0.0,1310988,1310988,6620172,197388,0,0,165,1,1,1,1,1,0,0,0,0,0,0,0
4988000,4908000,4898947603,0.0027855795,0.0016884479,0.0053517637,0,0.021779135,0.8149579,0.008153637,nan,nan,0.0020220457,0.0,0.0,0.0,0.0,1310988,1310988,6620172,197388,0,0,165,1,1,1,1,1,0,0,0,0,0,0,0
4996000,4916000,4898947603,0.0026927143,0.0016353087,0.0051916963,0,0.02246156,0.8149953,0.008153637,nan,nan,0.0020220457,0.0,0.0,0.0,0.0,1310988,1310988,6620172,197388,0,0,165,1,1,1,1,1,0,0,0,0,0,0,0
5004000,4924000,4898947603,0.0025927946,0.0015870922,0.005035431,0,0.023160106,0.8150335,0.008153637,nan,nan,0.0020220457,0.0,0.0,0.0,0.0,1310988,1310988,6620172,197388,0,0,165,1,1,1,1,1,0,0,0,0,0,0,0
5012000,4932000,4898947603,0.0024863468,0.001543578,0.0048828553,0,0.023874788,0.81507266,0.008153637,nan,nan,0.0020220457,0.0,0.0,0.0,0.0,1310988,1310988,6620172,197388,0,0,165,1,1,1,1,1,0,0,0,0,0,0,0
5020000,4940000,4898947603,0.0021632342,0.0015041142,0.0056415983,0,0.024605555,0.7938682,0.003849603,nan,nan,0.0009922773,0.0,0.0,0.0,0.0,1310988,1310988,6620172,197388,0,0,165,1,1,1,1,1,0,0,0,0,0,0,0
5028000,4948000,4898947603,0.0020437227,0.0014706546,0.0054668253,0,0.025352389,0.79390806,0.003849603,nan,nan,0.0009922773,0.0,0.0,0.0,0.0,1310988,1310988,6620172,197388,0,0,165,1,1,1,1,1,0,0,0,0,0,0,0
5036000,4956000,4898947603,0.0018947357,0.001442217,0.0052960645,0,0.026115272,0.7939488,0.003849603,nan,nan,0.0009922773,0.0,0.0,0.0,0.0,1310988,1310988,6620172,197388,0,0,165,1,1,1,1,1,0,0,0,0,0,0,0
5044000,4964000,4898947603,0.0017406661,0.0014186362,0.0051295534,0,0.026894214,0.7939905,0.003849603,nan,nan,0.0009922773,0.0,0.0,0.0,0.0,1310988,1310988,6620172,197388,0,0,165,1,1,1,1,1,0,0,0,0,0,0,0
5052000,4972000,4898947603,0.0015894562,0.0013999875,0.004967057,0,0.027689261,0.79403317,0.003849603,nan,nan,0.0009922773,0.0,0.0,0.0,0.0,1310988,1310988,6620172,197388,0,0,165,1,1,1,1,1,0,0,0,0,0,0,0
5060000,4980000,4898947603,0.0014919589,0.0025234674,0.004845791,0,0.012668267,0.79407674,0.003849603,nan,nan,0.0009922773,0.0,0.0,0.0,0.0,1310988,1310988,6620172,197388,0,0,165,1,1,1,1,1,0,0,0,0,0,0,0
5068000,4988000,4898947603,0.0013500265,0.0024822408,0.004692159,0,0.013039566,0.79412127,0.003849603,nan,nan,0.0009922773,0.0,0.0,0.0,0.0,1310988,1310988,6620172,197388,0,0,165,1,1,1,1,1,0,0,0,0,0,0,0
5076000,4996000,4898947603,0.0012129593,0.0024439471,0.004542507,0,0.0134251295,0.7941668,0.003849603,nan,nan,0.0009922773,0.0,0.0,0.0,0.0,1310988,1310988,6620172,197388,0,0,165,1,1,1,1,1,0,0,0,0,0,0,0
5084000,5004000,4898947603,0.0010812704,0.0024059275,0.0052467417,0,0.013824853,0.7745228,0.003849603,nan,nan,0.0009816039,0.0,0.0,0.0,0.0,1310988,1310988,6620172,197388,0,0,165,1,1,1,1,1,0,0,0,0,0,0,0
5092000,5012000,4898947603,0.00051608216,0.0024876988,0.0060529667,0,0.014011378,0.77431333,0.00915525,nan,nan,0.0009816039,0.0,0.0,0.0,0.0,1310988,1310988,6620172,197388,0,0,165,1,1,1,1,1,0,0,0,0,0,0,0
5100000,5020000,4898947603,0.0004208731,0.0023838421,0.0058727553,0,0.014423764,0.77435154,0.00915525,nan,nan,0.0009816039,0.0,0.0,0.0,0.0,1310988,1310988,6620172,197388,0,0,165,1,1,1,1,1,0,0,0,0,0,0,0
5108000,5028000,4898947603,0.00035464007,0.0022854765,0.0056972164,0,0.014849722,0.7743906,0.00915525,nan,nan,0.0009816039,0.0,0.0,0.0,0.0,1310988,1310988,6620172,197388,0,0,165,1,1,1,1,1,0,0,0,0,0,0,0
5116000,5036000,4898947603,0.00031569685,0.0021923622,0.0055261976,0,0.015289191,0.77443045,0.00915525,nan,nan,0.0009816039,0.0,0.0,0.0,0.0,1310988,1310988,6620172,197388,0,0,165,1,1,1,1,1,0,0,0,0,0,0,0
5124000,5044000,4898947603,0.00030818558,0.0021054551,0.0053595924,0,0.01574209,0.7744712,0.00915525,nan,nan,0.0009816039,0.0,0.0,0.0,0.0,1310988,1310988,6620172,197388,0,0,165,1,1,1,1,1,0,0,0,0,0,0,0
5132000,5052000,4898947603,0.00032760674,0.0020245947,0.005197685,0,0.016208375,0.7745128,0.00915525,nan,nan,0.0009816039,0.0,0.0,0.0,0.0,1310988,1310988,6620172,197388,0,0,165,1,1,1,1,1,0,0,0,0,0,0,0
5140000,5060000,4898947603,0.0003641365,0.0019574505,0.009066778,0,0.01668798,0.75625795,0.00915525,nan,nan,0.004839156,0.0,0.0,0.0,0.0,1310988,1310988,6620172,197388,0,0,165,1,1,1,1,1,0,0,0,0,0,0,0
5148000,5068000,4898947603,0.000398178,0.0018888748,0.0087830275,0,0.017180795,0.7563003,0.00915525,nan,nan,0.004839156,0.0,0.0,0.0,0.0,1310988,1310988,6620172,197388,0,0,165,1,1,1,1,1,0,0,0,0,0,0,0
5156000,5076000,4898947603,0.00043770572,0.0018253927,0.008507662,0,0.017686797,0.75634354,0.00915525,nan,nan,0.004839156,0.0,0.0,0.0,0.0,1310988,1310988,6620172,197388,0,0,165,1,1,1,1,1,0,0,0,0,0,0,0
5164000,5084000,4898947603,0.00024632676,0.0017661898,0.008239824,0,0.018205946,0.75638765,0.006150809,nan,nan,0.004839156,0.0,0.0,0.0,0.0,1310988,1310988,6620172,197388,0,0,165,1,1,1,1,1,0,0,0,0,0,0,0
5172000,5092000,4898947603,0.00025101824,0.0017122101,0.007979197,0,0.018738136,0.7564327,0.006150809,nan,nan,0.004839156,0.0,0.0,0.0,0.0,1310988,1310988,6620172,197388,0,0,165,1,1,1,1,1,0,0,0,0,0,0,0
5180000,5100000,4898947603,0.0002462073,0.0016622785,0.0077249636,0,0.019283297,0.75647867,0.006150809,nan,nan,0.004839156,0.0,0.0,0.0,0.0,1310988,1310988,6620172,197388,0,0,165,1,1,1,1,1,0,0,0,0,0,0,0
5188000,5108000,4898947603,0.00023999796,0.001618781,0.007477514,0,0.019841421,0.7565256,0.006150809,nan,nan,0.004839156,0.0,0.0,0.0,0.0,1310988,1310988,6620172,197388,0,0,165,1,1,1,1,1,0,0,0,0,0,0,0
5196000,5116000,4898947603,0.00023179459,0.0015836452,0.0007534565,0,0.020412462,0.7394936,0.006150809,nan,nan,0.009511037,0.0,0.0,0.0,0.0,1310988,1310988,6620172,197388,0,0,165,1,1,1,1,1,0,0,0,0,0,0,0
5204000,5124000,4898947603,0.00022115235,0.0015547929,0.0007416569,0,0.020996397,0.73954135,0.006150809,nan,nan,0.009511037,0.0,0.0,0.0,0.0,1310988,1310988,6620172,197388,0,0,165,1,1,1,1,1,0,0,0,0,0,0,0
5212000,5132000,4898947603,0.00020765333,0.0015316298,0.00073071,0,0.021593226,0.73959,0.006150809,nan,nan,0.009511037,0.0,0.0,0.0,0.0,1310988,1310988,6620172,197388,0,0,165,1,1,1,1,1,0,0,0,0,0,0,0
5220000,5140000,4898947603,0.00019141812,0.0015135367,0.00072129315,0,0.022202913,0.7396397,0.006150809,nan,nan,0.009511037,0.0,0.0,0.0,0.0,1310988,1310988,6620172,197388,0,0,165,1,1,1,1,1,0,0,0,0,0,0,0
5228000,5148000,4898947603,0.00017243084,0.0015003558,0.0007121776,0,0.022825455,0.7396904,0.006150809,nan,nan,0.009511037,0.0,0.0,0.0,0.0,1310988,1310988,6620172,197388,0,0,165,1,1,1,1,1,0,0,0,0,0,0,0
5236000,5156000,4898947603,0.0004697549,0.0014921378,0.00070403423,0,0.023460843,0.73974216,0.0061222874,nan,nan,0.009511037,0.0,0.0,0.0,0.0,1310988,1310988,6620172,197388,0,0,165,1,1,1,1,1,0,0,0,0,0,0,0
5244000,5164000,4898947603,0.00044942752,0.0014883601,0.00069679925,0,0.02410908,0.73979485,0.0061222874,nan,nan,0.009511037,0.0,0.0,0.0,0.0,1310988,1310988,6620172,197388,0,0,165,1,1,1,1,1,0,0,0,0,0,0,0
5252000,5172000,4898947603,0.00044490743,0.0014987688,0.0029330205,0,0.024770139,0.7238532,0.0061222874,nan,nan,0.0032869345,0.0,0.0,0.0,0.0,1310988,1310988,6620172,197388,0,0,165,1,1,1,1,1,0,0,0,0,0,0,0
5260000,5180000,4898947603,0.0004380446,0.0015035762,0.0028514697,0,0.025444033,0.7239068,0.0061222874,nan,nan,0.0032869345,0.0,0.0,0.0,0.0,1310988,1310988,6620172,197388,0,0,165,1,1,1,1,1,0,0,0,0,0,0,0
5268000,5188000,4898947603,0.00045249448,0.0017326798,0.0027988527,0,0.01243746,0.72396153,0.0061222874,nan,nan,0.0032869345,0.0,0.0,0.0,0.0,1310988,1310988,6620172,197388,0,0,165,1,1,1,1,1,0,0,0,0,0,0,0
5276000,5196000,4898947603,0.00044379826,0.00172223,0.0027227276,0,0.012773289,0.72401726,0.0061222874,nan,nan,0.0032869345,0.0,0.0,0.0,0.0,1310988,1310988,6620172,197388,0,0,165,1,1,1,1,1,0,0,0,0,0,0,0
5284000,5204000,4898947603,0.00043517392,0.0017153317,0.0026497387,0,0.013120913,0.7240741,0.0061222874,nan,nan,0.0032869345,0.0,0.0,0.0,0.0,1310988,1310988,6620172,197388,0,0,165,1,1,1,1,1,0,0,0,0,0,0,0
5292000,5212000,4898947603,0.00042670078,0.0017118291,0.0025793826,0,0.013480267,0.7241321,0.0061222874,nan,nan,0.0032869345,0.0,0.0,0.0,0.0,1310988,1310988,6620172,197388,0,0,165,1,1,1,1,1,0,0,0,0,0,0,0
5300000,5220000,4898947603,0.00041572106,0.0017022322,0.0014498633,0,0.013670807,0.7238014,0.0061222874,nan,nan,0.0032869345,0.0,0.0,0.0,0.0,1310988,1310988,6620172,197388,0,0,165,1,1,1,1,1,0,0,0,0,0,0,0
5308000,5228000,4898947603,0.0021008465,0.0016257338,0.0026567734,0,0.014042025,0.7088489,0.030515315,nan,nan,0.0052277115,0.0,0.0,0.0,0.0,1310988,1310988,6620172,197388,0,0,165,1,1,1,1,1,0,0,0,0,0,0,0
5316000,5236000,4898947603,0.0021018023,0.001533542,0.0025787242,0,0.014424548,0.7088971,0.030515315,nan,nan,0.0052277115,0.0,0.0,0.0,0.0,1310988,1310988,6620172,197388,0,0,165,1,1,1,1,1,0,0,0,0,0,0,0
5324000,5244000,4898947603,0.0020851456,0.0014479508,0.002502558,0,0.014818338,0.7089462,0.030515315,nan,nan,0.0052277115,0.0,0.0,0.0,0.0,1310988,1310988,6620172,197388,0,0,165,1,1,1,1,1,0,0,0,0,0,0,0
5332000,5252000,4898947603,0.002069391,0.001369037,0.0024279768,0,0.01522333,0.7089963,0.030515315,nan,nan,0.0052277115,0.0,0.0,0.0,0.0,1310988,1310988,6620172,197388,0,0,165,1,1,1,1,1,0,0,0,0,0,0,0
5340000,5260000,4898947603,0.002053881,0.0012978734,0.0023554715,0,0.015639482,0.7090473,0.030515315,nan,nan,0.0052277115,0.0,0.0,0.0,0.0,1310988,1310988,6620172,197388,0,0,165,1,1,1,1,1,0,0,0,0,0,0,0
5348000,5268000,4898947603,0.0020385508,0.0012338891,0.0022846595,0,0.01606674,0.70909935,0.030515315,nan,nan,0.0052277115,0.0,0.0,0.0,0.0,1310988,1310988,6620172,197388,0,0,165,1,1,1,1,1,0,0,0,0,0,0,0
5356000,5276000,4898947603,0.0020235581,0.001177371,0.0022156592,0,0.016505063,0.7091523,0.030515315,nan,nan,0.0052277115,0.0,0.0,0.0,0.0,1310988,1310988,6620172,197388,0,0,165,1,1,1,1,1,0,0,0,0,0,0,0
5364000,5284000,4898947603,0.0020087038,0.0011285812,0.0021484785,0,0.016954413,0.7092062,0.030515315,nan,nan,0.0052277115,0.0,0.0,0.0,0.0,1310988,1310988,6620172,197388,0,0,165,1,1,1,1,1,0,0,0,0,0,0,0
5372000,5292000,4898947603,0.0019942238,0.0010866979,0.0012556617,0,0.017414719,0.6951318,0.030515315,nan,nan,0.0012616611,0.0,0.0,0.0,0.0,1310988,1310988,6620172,197388,0,0,165,1,1,1,1,1,0,0,0,0,0,0,0
5380000,5300000,4898947603,0.0023863995,0.0010566612,0.00122118,0,0.017885944,0.6951866,0.007268429,nan,nan,0.0012616611,0.0,0.0,0.0,0.0,1310988,1310988,6620172,197388,0,0,165,1,1,1,1,1,0,0,0,0,0,0,0
5388000,5308000,4898947603,0.0023744013,0.0010333133,0.0011871664,0,0.01836806,0.6952424,0.007268429,nan,nan,0.0012616611,0.0,0.0,0.0,0.0,1310988,1310988,6620172,197388,0,0,165,1,1,1,1,1,0,0,0,0,0,0,0
5396000,5316000,4898947603,0.0022705593,0.001019077,0.0011534158,0,0.018861009,0.6952992,0.007268429,nan,nan,0.0012616611,0.0,0.0,0.0,0.0,1310988,1310988,6620172,197388,0,0,165,1,1,1,1,1,0,0,0,0,0,0,0
5404000,5324000,4898947603,0.0021667152,0.00101389,0.001120385,0,0.019364769,0.6953571,0.007268429,nan,nan,0.0012616611,0.0,0.0,0.0,0.0,1310988,1310988,6620172,197388,0,0,165,1,1,1,1,1,0,0,0,0,0,0,0
5412000,5332000,4898947603,0.0020637636,0.0010171327,0.001087756,0,0.019879293,0.695416,0.007268429,nan,nan,0.0012616611,0.0,0.0,0.0,0.0,1310988,1310988,6620172,197388,0,0,165,1,1,1,1,1,0,0,0,0,0,0,0
5420000,5340000,4898947603,0.001961643,0.0010282364,0.0010557628,0,0.020404566,0.69547594,0.007268429,nan,nan,0.0012616611,0.0,0.0,0.0,0.0,1310988,1310988,6620172,197388,0,0,165,1,1,1,1,1,0,0,0,0,0,0,0
5428000,5348000,4898947603,0.001860179,0.0010502758,0.00064138713,0,0.02094057,0.68219686,0.007268429,nan,nan,0.0017099826,0.0,0.0,0.0,0.0,1310988,1310988,6620172,197388,0,0,165,1,1,1,1,1,0,0,0,0,0,0,0
5436000,5356000,4898947603,0.0017593119,0.001073445,0.00063903694,0,0.021487305,0.6822577,0.007268429,nan,nan,0.0017099826,0.0,0.0,0.0,0.0,1310988,1310988,6620172,197388,0,0,165,1,1,1,1,1,0,0,0,0,0,0,0
5444000,5364000,4898947603,0.0016595197,0.0011017085,0.0006374325,0,0.022044735,0.6823197,0.007268429,nan,nan,0.0017099826,0.0,0.0,0.0,0.0,1310988,1310988,6620172,197388,0,0,165,1,1,1,1,1,0,0,0,0,0,0,0
5452000,5372000,4898947603,0.0018504005,0.0011348072,0.0006367009,0,0.02261284,0.6823828,0.005186647,nan,nan,0.0017099826,0.0,0.0,0.0,0.0,1310988,1310988,6620172,197388,0,0,165,1,1,1,1,1,0,0,0,0,0,0,0
5460000,5380000,4898947603,0.0017530589,0.0011696207,0.0006363272,0,0.02319164,0.682447,0.005186647,nan,nan,0.0017099826,0.0,0.0,0.0,0.0,1310988,1310988,6620172,197388,0,0,165,1,1,1,1,1,0,0,0,0,0,0,0
5468000,5388000,4898947603,0.001634613,0.0012071021,0.00063663995,0,0.023781128,0.68251234,0.005186647,nan,nan,0.0017099826,0.0,0.0,0.0,0.0,1310988,1310988,6620172,197388,0,0,165,1,1,1,1,1,0,0,0,0,0,0,0
5476000,5396000,4898947603,0.001526741,0.0013709478,0.00054841867,0,0.0122331735,0.68257886,0.005186647,nan,nan,0.0017099826,0.0,0.0,0.0,0.0,1310988,1310988,6620172,197388,0,0,165,1,1,1,1,1,0,0,0,0,0,0,0
5484000,5404000,4898947603,0.0014151554,0.0014191931,0.0005576298,0,0.012542108,0.68264645,0.005186647,nan,nan,0.0017099826,0.0,0.0,0.0,0.0,1310988,1310988,6620172,197388,0,0,165,1,1,1,1,1,0,0,0,0,0,0,0
5492000,5412000,4898947603,0.0013087511,0.0014751533,0.0014449394,0,0.012861249,0.67008615,0.005186647,nan,nan,0.0016115996,0.0,0.0,0.0,0.0,1310988,1310988,6620172,197388,0,0,165,1,1,1,1,1,0,0,0,0,0,0,0
5500000,5420000,4898947603,0.0012076586,0.0015223023,0.0014197591,0,0.013190531,0.6701548,0.005186647,nan,nan,0.0016115996,0.0,0.0,0.0,0.0,1310988,1310988,6620172,197388,0,0,165,1,1,1,1,1,0,0,0,0,0,0,0
5508000,5428000,4898947603,0.001115384,0.0016490482,0.0005040691,0,0.013380733,0.66971684,0.005186647,nan,nan,0.0016115996,0.0,0.0,0.0,0.0,1310988,1310988,6620172,197388,0,0,165,1,1,1,1,1,0,0,0,0,0,0,0
5516000,5436000,4898947603,0.0010250373,0.0015884945,0.0005135304,0,0.013721154,0.6697739,0.005186647,nan,nan,0.0016115996,0.0,0.0,0.0,0.0,1310988,1310988,6620172,197388,0,0,165,1,1,1,1,1,0,0,0,0,0,0,0
5524000,5444000,4898947603,0.0011517454,0.0015355789,0.00052326394,0,0.014071388,0.66983193,0.0038594045,nan,nan,0.0016115996,0.0,0.0,0.0,0.0,1310988,1310988,6620172,197388,0,0,165,1,1,1,1,1,0,0,0,0,0,0,0
5532000,5452000,4898947603,0.0010719371,0.0014900487,0.00053276913,0,0.014431392,0.66989094,0.0038594045,nan,nan,0.0016115996,0.0,0.0,0.0,0.0,1310988,1310988,6620172,197388,0,0,165,1,1,1,1,1,0,0,0,0,0,0,0
5540000,5460000,4898947603,0.0009818701,0.0014520255,0.0005424181,0,0.014801104,0.6699509,0.0038594045,nan,nan,0.0016115996,0.0,0.0,0.0,0.0,1310988,1310988,6620172,197388,0,0,165,1,1,1,1,1,0,0,0,0,0,0,0
5548000,5468000,4898947603,0.0008970849,0.0014233456,0.0007095466,0,0.015180489,0.65806264,0.0038594045,nan,nan,0.0007773488,0.0,0.0,0.0,0.0,1310988,1310988,6620172,197388,0,0,165,1,1,1,1,1,0,0,0,0,0,0,0
5556000,5476000,4898947603,0.0008183172,0.0013990032,0.0007080995,0,0.015569499,0.65812355,0.0038594045,nan,nan,0.0007773488,0.0,0.0,0.0,0.0,1310988,1310988,6620172,197388,0,0,165,1,1,1,1,1,0,0,0,0,0,0,0
5564000,5484000,4898947603,0.0007433808,0.0013825843,0.0007073865,0,0.015968103,0.6581855,0.0038594045,nan,nan,0.0007773488,0.0,0.0,0.0,0.0,1310988,1310988,6620172,197388,0,0,165,1,1,1,1,1,0,0,0,0,0,0,0
5572000,5492000,4898947603,0.0006740393,0.0013721967,0.0007066756,0,0.016376253,0.6582484,0.0038594045,nan,nan,0.0007773488,0.0,0.0,0.0,0.0,1310988,1310988,6620172,197388,0,0,165,1,1,1,1,1,0,0,0,0,0,0,0
5580000,5500000,4898947603,0.00060992636,0.001367176,0.00070631615,0,0.016793907,0.65831244,0.0038594045,nan,nan,0.0007773488,0.0,0.0,0.0,0.0,1310988,1310988,6620172,197388,0,0,165,1,1,1,1,1,0,0,0,0,0,0,0
5588000,5508000,4898947603,0.00055084337,0.0013675103,0.0007066047,0,0.017221028,0.65837747,0.0038594045,nan,nan,0.0007773488,0.0,0.0,0.0,0.0,1310988,1310988,6620172,197388,0,0,165,1,1,1,1,1,0,0,0,0,0,0,0
5596000,5516000,4898947603,0.0031836666,0.0013628535,0.004881867,0,0.017657567,0.6470923,0.06533689,nan,nan,0.0073665828,0.0,0.0,0.0,0.0,1310988,1310988,6620172,197388,0,0,165,1,1,1,1,1,0,0,0,0,0,0,0
5604000,5524000,4898947603,0.0032467325,0.0013690504,0.004725435,0,0.018103508,0.6471583,0.06533689,nan,nan,0.0073665828,0.0,0.0,0.0,0.0,1310988,1310988,6620172,197388,0,0,165,1,1,1,1,1,0,0,0,0,0,0,0
