timestamp,timestamp_sample,time_last_fuse,device_id,observation,observation_variance,innovation,innovation_variance,test_ratio,estimator_instance,fusion_enabled,innovation_rejected,fused
3220000,3138914,0,0,-0.0018005371,12.25,9.821029e-06,112.451,3.430921e-14,3,0,0,0
3284000,3198907,0,0,0.009613037,12.25,-0.008464295,112.25,2.553026e-08,3,0,0,0
3340000,3259031,0,0,0.0037841797,12.25,-0.0033647974,112.25,4.0345167e-09,3,0,0,0
3404000,3319060,0,0,0.032043457,12.25,-0.032597948,62.25,6.828121e-07,3,0,0,0
3460000,3378167,0,0,-0.06686401,12.25,0.06782641,62.249985,2.9560954e-06,3,0,0,0
3524000,3439192,0,0,0.0708313,12.25,-0.06991345,62.249985,3.1408135e-06,3,0,0,0
3580000,3499283,0,0,0.013000488,12.25,-0.0122077735,62.249985,9.57621e-08,3,0,0,0
3644000,3559305,0,0,0.0027770996,12.25,-0.0024884911,45.58333,5.434081e-09,3,0,0,0
3700000,3619390,0,0,-0.018920898,12.25,0.01889833,45.58333,3.1340133e-07,3,0,0,0
3764000,3679402,0,0,-0.042785645,12.25,0.04235805,45.58333,1.5744389e-06,3,0,0,0
3820000,3738470,0,0,0.07107544,12.25,-0.07171395,37.250023,5.5225637e-06,3,0,0,0
3884000,3799491,3804000,0,0.047607422,12.25,-0.048671495,37.25006,2.5437967e-06,3,0,0,0
3940000,3859544,3860000,0,-0.070373535,12.25,0.0688777,37.250114,5.09436e-06,3,1,0,1
4004000,3919558,3924000,0,-0.19244385,12.25,0.14414062,20.471527,4.0595933e-05,3,1,0,1
4060000,3979608,3980000,0,-0.056274414,12.25,-0.050381348,17.169733,5.913383e-06,3,1,0,1
4124000,4039620,4044000,0,-0.06567383,12.25,-0.027190886,15.760113,1.8764949e-06,3,1,0,1
4180000,4099663,4100000,0,-0.02810669,12.25,-0.059299126,14.978403,9.39055e-06,3,1,0,1
4244000,4159673,4164000,0,0.17376709,12.25,-0.2511268,14.481509,0.00017419363,3,1,0,1
4300000,4219710,4220000,0,-0.089141846,12.25,0.05008156,14.137734,7.0963633e-06,3,1,0,1
4364000,4279719,4284000,0,-0.014038086,12.25,-0.03243876,13.88582,3.0312162e-06,3,1,0,1
4420000,4339753,4340000,0,-0.046905518,12.25,0.0035645105,13.69327,3.7115267e-08,3,1,0,1
4484000,4399758,4404000,0,0.037628174,12.25,-0.08165179,13.541294,1.969388e-05,3,1,0,1
4540000,4459786,4460000,0,-0.02810669,12.25,-0.008782167,13.418354,2.2991333e-07,3,1,0,1
4604000,4519792,4524000,0,0.089263916,12.25,-0.1261688,13.316893,4.7814658e-05,3,1,0,1
4660000,4578818,4580000,0,-0.023406982,12.25,-0.0040944256,13.231694,5.0679287e-08,3,1,0,1
4724000,4639821,4644000,0,-0.10324097,12.25,0.07601201,13.1590395,1.7563061e-05,3,1,0,1
4780000,4699842,4700000,0,-0.046905518,12.25,0.013785485,13.096553,5.8042633e-07,3,1,0,1
4844000,4759846,4764000,0,0.12213135,12.25,-0.15687865,13.04224,7.5480624e-05,3,1,0,1
4900000,4819865,4820000,0,-0.089141846,12.25,0.06417963,12.994227,1.2679552e-05,3,1,0,1
4964000,4879868,4884000,0,-0.06567383,12.25,0.03638432,12.952034,4.0883738e-06,3,1,0,1
5020000,4939883,4940000,0,-0.014038086,12.25,-0.017830934,12.914409,9.847674e-07,3,1,0,1
5084000,4999887,5004000,0,-0.014038086,12.25,-0.017616838,12.8807745,9.637712e-07,3,1,0,1
5140000,5059899,5060000,0,0.056396484,12.25,-0.08673599,12.849936,2.341843e-05,3,1,0,1
5196000,5115902,5116000,0,-0.19714355,12.25,0.17028552,12.822403,9.0457805e-05,3,1,0,1
5252000,5167911,5172000,0,-0.09384155,12.25,0.058790427,12.797376,1.0803197e-05,3,1,0,1
5308000,5227916,5228000,0,0.056396484,12.25,-0.09342338,12.773958,2.733038e-05,3,1,0,1
5372000,5287924,5292000,0,-0.056274414,12.25,0.02252525,12.753052,1.5914212e-06,3,1,0,1
5428000,5347928,5348000,0,-0.06567383,12.25,0.03050707,12.733771,2.9235055e-06,3,1,0,1
5492000,5407934,5412000,0,-0.06567383,12.25,0.02873104,12.7161,2.5966222e-06,3,1,0,1
5548000,5465938,5468000,0,-0.023406982,12.25,-0.013853595,12.698916,6.045306e-07,3,1,0,1
5596000,5515942,5516000,0,0.09396362,12.25,-0.13117951,12.683548,5.426893e-05,3,1,0,1
5660000,5575947,5580000,0,6.1035156e-05,12.25,-0.03339067,12.669453,3.520079e-06,3,1,0,1
5716000,5635951,5636000,0,-0.02810669,12.25,-0.0046520755,12.656256,6.839876e-08,3,1,0,1
5780000,5695955,5700000,0,-0.10324097,12.25,0.07131262,12.643124,1.6089347e-05,3,1,0,1
5836000,5755958,5756000,0,-0.037506104,12.25,0.0028568842,12.631555,2.5845708e-08,3,1,0,1
5900000,5815961,5820000,0,-0.018707275,12.25,-0.016627703,12.620839,8.762667e-07,3,1,0,1
5956000,5875964,5876000,0,-0.06567383,12.25,0.031692374,12.609705,3.1861384e-06,3,1,0,1
6020000,5934633,5940000,0,-0.046905518,12.25,0.011465993,12.600208,4.1735495e-07,3,1,0,1
6076000,5995968,5996000,0,0.009460449,12.25,-0.045724105,12.591194,6.6417647e-06,3,1,0,1
6140000,6055971,6060000,0,-0.051574707,12.25,0.017430723,12.581772,9.659374e-07,3,1,0,1
6196000,6115973,6116000,0,0.04232788,12.25,-0.07738654,12.5737,1.905144e-05,3,1,0,1
6260000,6175976,6180000,0,-0.037506104,12.25,0.0039492957,12.566196,4.9647284e-08,3,1,0,1
6316000,6235977,6236000,0,0.023529053,12.25,-0.057635266,12.559016,1.0579885e-05,3,1,0,1
6380000,6295979,6300000,0,-0.070373535,12.25,0.038511787,12.551162,4.726758e-06,3,1,0,1
6436000,6355980,6356000,0,0.02822876,12.25,-0.061401583,12.544663,1.2021541e-05,3,1,0,1
6500000,6415982,6420000,0,-0.11260986,12.25,0.08045717,12.538629,2.0650923e-05,3,1,0,1
6556000,6475983,6476000,0,0.037628174,12.25,-0.071021296,12.531606,1.610017e-05,3,1,0,1
6620000,6535984,6540000,0,0.004760742,12.25,-0.036896795,12.526109,4.347315e-06,3,1,0,1
6676000,6595986,6596000,0,-0.11260986,12.25,0.08097389,12.520796,2.094682e-05,3,1,0,1
6740000,6655987,6660000,0,-0.046905518,12.25,0.013120502,12.515877,5.5017347e-07,3,1,0,1
6796000,6715988,6716000,0,-0.056274414,12.25,0.022904225,12.509782,1.6774187e-06,3,1,0,1
6860000,6775989,6780000,0,0.014129639,12.25,-0.04824028,12.505265,7.4436643e-06,3,1,0,1
6916000,6835989,6836000,0,6.1035156e-05,12.25,-0.03337717,12.500868,3.564666e-06,3,1,0,1
6980000,6893323,6900000,0,-0.004638672,12.25,-0.027623791,12.495492,2.4427172e-06,3,1,0,1
7028000,6943991,6948000,0,6.1035156e-05,12.25,-0.03193443,12.491319,3.265653e-06,3,1,0,1
7084000,7003992,7004000,0,-0.023406982,12.25,-0.008007523,12.487451,2.0539153e-07,3,1,0,1
7148000,7063992,7068000,0,0.023529053,12.25,-0.054948527,12.483892,9.674356e-06,3,1,0,1
7204000,7121993,7124000,0,0.018829346,12.25,-0.048991337,12.479016,7.693399e-06,3,1,0,1
7268000,7183993,7188000,0,-0.09384155,12.25,0.064471975,12.475712,1.332713e-05,3,1,0,1
7324000,7243994,7244000,0,-0.004638672,12.25,-0.025997804,12.472456,2.167611e-06,3,1,0,1
7388000,7303994,7308000,0,-0.07507324,12.25,0.045093745,12.468109,6.52367e-06,3,1,0,1
7444000,7363995,7364000,0,-0.018707275,12.25,-0.012112269,12.465072,4.7077808e-07,3,1,0,1
7508000,7423995,7428000,0,-0.056274414,12.25,0.025645727,12.4622965,2.1110181e-06,3,1,0,1
7564000,7482996,7484000,0,-0.06567383,12.25,0.034593422,12.459539,3.8418907e-06,3,1,0,1
7628000,7543996,7548000,0,-0.004638672,12.25,-0.027070511,12.45559,2.353361e-06,3,1,0,1
7684000,7603996,7604000,0,-0.06097412,12.25,0.029743558,12.453005,2.8416569e-06,3,1,0,1
7748000,7663996,7668000,0,-0.037506104,12.25,0.005785294,12.4506645,1.075272e-07,3,1,0,1
7804000,7723997,7724000,0,-0.046905518,12.25,0.015015084,12.446895,7.245269e-07,3,1,0,1
7868000,7783997,7788000,0,-0.04220581,12.25,0.010085471,12.444692,3.2694012e-07,3,1,0,1
7924000,7843997,7844000,0,6.1035156e-05,12.25,-0.032350905,12.442482,3.3645413e-06,3,1,0,1
7988000,7903998,7908000,0,0.004760742,12.25,-0.036575243,12.440505,4.301267e-06,3,1,0,1
8044000,7963998,7964000,0,-0.070373535,12.25,0.039145887,12.437007,4.9285186e-06,3,1,0,1
8108000,8023998,8028000,0,-0.150177,12.25,0.118347734,12.435137,4.505358e-05,3,1,0,1
8164000,8083998,8084000,0,-0.018707275,12.25,-0.014928516,12.433243,7.1698304e-07,3,1,0,1
8228000,8143998,8148000,0,-0.070373535,12.25,0.03714942,12.430093,4.441091e-06,3,1,0,1
8284000,8201999,8204000,0,-0.12670898,12.25,0.092829615,12.428297,2.7734573e-05,3,1,0,1
8340000,8259999,8260000,0,0.04232788,12.25,-0.07764515,12.426585,1.9406038e-05,3,1,0,1
8396000,8311999,8316000,0,-0.06567383,12.25,0.031380877,12.424956,3.170263e-06,3,1,0,1
8452000,8371999,8372000,0,-0.070373535,12.25,0.03581906,12.421901,4.1314293e-06,3,1,0,1
8516000,8431999,8436000,0,-0.06097412,12.25,0.025880828,12.420467,2.1571402e-06,3,1,0,1
8572000,8491999,8492000,0,-0.070373535,12.25,0.034920685,12.418992,3.9277074e-06,3,1,0,1
8636000,8551999,8556000,0,-0.023040771,12.250541,-0.054747567,13.2505455,9.048068e-06,3,1,0,1
8692000,8611999,8612000,0,-0.1638794,12.251488,0.09021233,13.176058,2.4706218e-05,3,1,0,1
8756000,8671999,8676000,0,0.014526367,12.252569,-0.09452602,13.11234,2.7257283e-05,3,1,0,1
8812000,8731999,8732000,0,-0.051239014,12.253515,-0.02253417,13.0570135,1.5556047e-06,3,1,0,1
8876000,8792000,8796000,0,-0.12164307,12.254597,0.049279645,13.008762,7.467224e-06,3,1,0,1
8932000,8852000,8852000,0,-0.088775635,12.255541,0.013577767,12.966132,5.687302e-07,3,1,0,1
8996000,8912000,8916000,0,-0.093444824,12.25662,0.017523922,12.9284725,9.501133e-07,3,1,0,1
9052000,8970000,8972000,0,-0.19204712,12.257564,0.11330236,12.646753,4.0603067e-05,3,1,0,1
9108000,9028000,9028000,0,-0.0887146,12.258506,0.0065487325,12.635864,1.357593e-07,3,1,0,1
9164000,9080000,9084000,0,-0.12625122,12.259447,0.043960795,12.625712,6.1225896e-06,3,1,0,1
9220000,9139000,9140000,0,-0.027648926,12.260386,-0.055845432,12.616234,9.887934e-06,3,1,0,1
9284000,9200000,9204000,0,-0.09811401,12.261459,0.016202673,12.607427,8.329269e-07,3,1,0,1
9340000,9260000,9260000,0,-0.055877686,12.262396,-0.026428647,12.5991125,2.217532e-06,3,1,0,1
9404000,9320000,9324000,0,-0.037109375,12.263465,-0.04443281,12.591497,6.2717704e-06,3,1,0,1
9460000,9380000,9380000,0,-0.10760498,12.264398,0.027906694,12.506765,2.4907592e-06,3,1,0,1
9524000,9440000,9444000,0,0.01449585,12.265462,-0.09472404,12.503297,2.8704886e-05,3,1,0,1
9580000,9500000,9500000,0,-0.0043945312,12.26639,-0.07393755,12.499975,1.749367e-05,3,1,0,1
9644000,9560000,9564000,0,-0.16882324,12.267449,0.09199898,12.497024,2.709065e-05,3,1,0,1
9700000,9620000,9620000,0,0.00033569336,12.268372,-0.07887976,12.493843,1.9920264e-05,3,1,0,1
9764000,9680000,9684000,0,-0.1171875,12.269426,0.040205054,12.491211,5.176268e-06,3,1,0,1
9820000,9740000,9740000,0,-0.079559326,12.270343,0.0037869886,12.449486,4.6078313e-08,3,1,0,1
9884000,9800000,9804000,0,-0.1687622,12.271391,0.09290601,12.448116,2.773601e-05,3,1,0,1
9940000,9859000,9860000,0,-0.018371582,12.272301,-0.05861809,12.446845,1.1042415e-05,3,1,0,1
10004000,9920000,9924000,0,-0.013763428,12.273343,-0.062175184,12.445853,1.242423e-05,3,1,0,1
10060000,9980000,9980000,0,-0.07022095,12.274245,-0.0046209246,12.444762,6.863271e-08,3,1,0,1
10124000,10040000,10044000,0,-0.10308838,12.27528,0.028199114,12.443597,2.556142e-06,3,1,0,1
10180000,10100000,10100000,0,-0.08895874,12.276175,0.0139795765,12.442628,6.282549e-07,3,1,0,1
10244000,10160000,10164000,0,-0.2720337,12.277202,0.19838959,12.418681,0.00012677169,3,1,0,1
10300000,10220000,10220000,0,-0.02746582,12.278089,-0.048586927,12.418037,7.6040665e-06,3,1,0,1
10364000,10280000,10284000,0,-0.09329224,12.279106,0.01809863,12.417939,1.05512e-06,3,1,0,1
10420000,10339000,10340000,0,-0.08859253,12.279984,0.013447285,12.417704,5.8248924e-07,3,1,0,1
10484000,10400000,10404000,0,-0.018127441,12.280993,-0.05686128,12.417728,1.0414805e-05,3,1,0,1
10540000,10460000,10460000,0,-0.10748291,12.281863,0.032873638,12.417115,3.4812467e-06,3,1,0,1
10596000,10516000,10516000,0,-0.036956787,12.282727,-0.0376665,12.416986,4.570401e-06,3,1,0,1
10652000,10566666,10572000,0,0.023986816,12.283587,-0.09781511,12.401272,3.0860694e-05,3,1,0,1
10708000,10628000,10628000,0,-0.09365845,12.284443,0.021133102,12.401499,1.4404969e-06,3,1,0,1
10772000,10688000,10692000,0,-0.06072998,12.285429,-0.012247726,12.401464,4.838358e-07,3,1,0,1
10828000,10748000,10748000,0,-0.023223877,12.286274,-0.04922001,12.401721,7.813785e-06,3,1,0,1
10892000,10808000,10812000,0,-0.14074707,12.28725,0.069305345,12.402232,1.5491505e-05,3,1,0,1
10948000,10868000,10868000,0,-0.16870117,12.288084,0.09605723,12.401965,2.975977e-05,3,1,0,1
11012000,10928000,10932000,0,-0.041625977,12.289049,-0.031295054,12.390945,3.1616003e-06,3,1,0,1
11068000,10988000,10988000,0,-0.051116943,12.289872,-0.020991847,12.391446,1.4224574e-06,3,1,0,1
11132000,11048000,11052000,0,-0.14978027,12.290826,0.07724038,12.39162,1.9258423e-05,3,1,0,1
11188000,11108000,11108000,0,-0.013366699,12.291637,-0.05922596,12.392131,1.1322393e-05,3,1,0,1
11252000,11168000,11172000,0,0.0005187988,12.29258,-0.071910635,12.392894,1.669066e-05,3,1,0,1
11308000,11228000,11228000,0,-0.07015991,12.29338,3.736466e-05,12.393475,4.5059776e-12,3,1,0,1
11372000,11288000,11292000,0,-0.060760498,12.29431,-0.010183163,12.393577,3.346792e-07,3,1,0,1
11428000,11346000,11348000,0,0.00491333,12.295097,-0.07683588,12.385251,1.906704e-05,3,1,0,1
11476000,11396000,11396000,0,-0.023529053,12.295744,-0.047198318,12.385727,7.194349e-06,3,1,0,1
11540000,11456000,11460000,0,-0.06124878,12.296657,-0.008201458,12.386673,2.1721381e-07,3,1,0,1
11596000,11516000,11516000,0,-0.07537842,12.297427,0.004935369,12.386679,7.865827e-08,3,1,0,1
11660000,11576000,11580000,0,-0.08944702,12.298327,0.019937605,12.38762,1.2835657e-06,3,1,0,1
11716000,11636000,11636000,0,-0.07525635,12.299086,0.0064855292,12.38837,1.3581155e-07,3,1,0,1
11780000,11696000,11700000,0,-0.09869385,12.299973,0.028699942,12.388539,2.659512e-06,3,1,0,1
11836000,11756000,11756000,0,-0.122039795,12.300717,0.051386833,12.382101,8.530399e-06,3,1,0,1
11900000,11816000,11820000,0,-0.06549072,12.301591,-0.004530385,12.38314,6.629785e-08,3,1,0,1
11956000,11876000,11876000,0,-0.023284912,12.302322,-0.045842864,12.3839855,6.7880183e-06,3,1,0,1
12020000,11936000,11940000,0,-0.03753662,12.303184,-0.032423586,12.384222,3.395575e-06,3,1,0,1
12076000,11996000,11996000,0,-0.10812378,12.303902,0.039161846,12.385052,4.95323e-06,3,1,0,1
12140000,12056000,12060000,0,-0.15487671,12.304749,0.08659938,12.386145,2.4218843e-05,3,1,0,1
12196000,12116000,12116000,0,0.023925781,12.305452,-0.09404469,12.386083,2.8562394e-05,3,1,0,1
12260000,12173333,12180000,0,-0.10797119,12.306286,0.038766287,12.381151,4.855203e-06,3,1,0,1
12316000,12234000,12236000,0,-0.08432007,12.306976,0.01566036,12.382044,7.922663e-07,3,1,0,1
12364000,12284000,12284000,0,-0.19223022,12.307526,0.12415443,12.382728,4.9792987e-05,3,1,0,1
12428000,12344000,12348000,0,-0.02734375,12.30834,-0.042633623,12.382949,5.8713827e-06,3,1,0,1
12484000,12404000,12404000,0,-0.11206055,12.309011,0.043070935,12.383843,5.992018e-06,3,1,0,1
12548000,12464000,12468000,0,-0.13061523,12.309812,0.062269017,12.385003,1.2522985e-05,3,1,0,1
12604000,12524000,12524000,0,-0.0692749,12.31047,-0.00081944466,12.384923,2.1687323e-09,3,1,0,1
12668000,12584000,12588000,0,-0.14910889,12.311255,0.07920444,12.3809,2.026781e-05,3,1,0,1
12724000,12642000,12644000,0,-0.021942139,12.311899,-0.04763084,12.381836,7.329113e-06,3,1,0,1
12772000,12692000,12692000,0,-0.13955688,12.312401,0.07094428,12.382557,1.6258648e-05,3,1,0,1
12836000,12752000,12756000,0,-0.08755493,12.313169,0.017243683,12.382746,9.605127e-07,3,1,0,1
12892000,12812000,12812000,0,0.0017700195,12.313792,-0.07140833,12.383676,1.6470554e-05,3,1,0,1
12956000,12872000,12876000,0,-0.13946533,12.314546,0.071138576,12.384874,1.6344766e-05,3,1,0,1
13012000,12930000,12932000,0,-0.08276367,12.315155,0.011958443,12.380234,4.6204084e-07,3,1,0,1
13060000,12980000,12980000,0,-0.17190552,12.315623,0.101645745,12.380931,3.3379907e-05,3,1,0,1
13124000,13040000,13044000,0,0.016448975,12.316358,-0.08641329,12.382119,2.4122708e-05,3,1,0,1
13180000,13100000,13100000,0,-0.101379395,12.316948,0.032645732,12.383097,3.4425761e-06,3,1,0,1
13244000,13160000,13164000,0,0.04434204,12.317668,-0.11458146,12.383242,4.2408636e-05,3,1,0,1
13300000,13218000,13220000,0,-0.06896973,12.318244,8.392334e-05,12.384189,2.2748772e-11,3,1,0,1
13348000,13268000,13268000,0,-0.087768555,12.31868,0.019515932,12.384916,1.2301144e-06,3,1,0,1
13412000,13326666,13332000,0,-0.07824707,12.31938,0.009694606,12.381986,3.0361974e-07,3,1,0,1
13468000,13388000,13388000,0,-0.096954346,12.319938,0.026950844,12.381909,2.3464813e-06,3,1,0,1
13532000,13448000,13452000,0,-0.1390686,12.320624,0.069708705,12.383107,1.5696558e-05,3,1,0,1
13588000,13508000,13508000,0,-0.14807129,12.321168,0.07906705,12.38409,2.0192354e-05,3,1,0,1
13652000,13568000,13572000,0,-0.10534668,12.32184,0.034791104,12.384188,3.909569e-06,3,1,0,1
13708000,13628000,13628000,0,-0.039398193,12.322371,-0.030689731,12.3851385,3.0419028e-06,3,1,0,1
13772000,13688000,13692000,0,-0.18511963,12.323029,0.115943044,12.386361,4.3411586e-05,3,1,0,1
13828000,13748000,13748000,0,0.01272583,12.3235445,-0.08282558,12.383554,2.2158667e-05,3,1,0,1
13892000,13808000,13812000,0,-0.091033936,12.324189,0.020241112,12.383652,1.323366e-06,3,1,0,1
13948000,13868000,13868000,0,-0.17544556,12.324692,0.10514871,12.38461,3.5709643e-05,3,1,0,1
14012000,13928000,13932000,0,-0.02456665,12.325322,-0.045553595,12.385841,6.7016194e-06,3,1,0,1
14068000,13988000,13988000,0,-0.057678223,12.325811,-0.0135105625,12.385629,5.895068e-07,3,1,0,1
14132000,14048000,14052000,0,-0.057769775,12.326428,-0.012640521,12.386821,5.1597664e-07,3,1,0,1
14188000,14106000,14108000,0,0.07357788,12.326903,-0.14328688,12.3877945,6.629471e-05,3,1,0,1
14236000,14156000,14156000,0,0.049224854,12.327237,-0.11877437,12.385022,4.556262e-05,3,1,0,1
14300000,14216000,14220000,0,0.04849243,12.327837,-0.118610166,12.385068,4.5436558e-05,3,1,0,1
14356000,14276000,14276000,0,-0.069610596,12.328294,0.0006401092,12.386014,1.3232336e-09,3,1,0,1
14420000,14336000,14340000,0,-0.0038757324,12.328881,-0.06441828,12.387238,1.3399967e-05,3,1,0,1
14476000,14396000,14396000,0,-0.037139893,12.329325,-0.032002732,12.386973,3.307264e-06,3,1,0,1
14540000,14456000,14460000,0,-0.10308838,12.329899,0.03471022,12.388155,3.8901658e-06,3,1,0,1
14596000,14516000,14516000,0,-0.084106445,12.33033,0.016118094,12.389115,8.387781e-07,3,1,0,1
14660000,14576000,14580000,0,-0.116882324,12.330891,0.04869607,12.387067,7.657365e-06,3,1,0,1
14716000,14636000,14636000,0,-0.0743103,12.331308,0.004779339,12.386799,7.3762656e-08,3,1,0,1
14780000,14694666,14700000,0,-0.13531494,12.331857,0.06625506,12.3879795,1.4174171e-05,3,1,0,1
14836000,14756000,14756000,0,-0.064453125,12.332262,-0.00444261,12.38894,6.3723874e-08,3,1,0,1
14900000,14816000,14820000,0,-0.055114746,12.332797,-0.014630966,12.388864,6.911535e-07,3,1,0,1
14956000,14876000,14876000,0,-0.10684204,12.33319,0.03754221,12.389784,4.550257e-06,3,1,0,1
15020000,14936000,14940000,0,-0.09719849,12.333714,0.027337752,12.387895,2.4131712e-06,3,1,0,1
15076000,14996000,14996000,0,-0.087646484,12.334094,0.0180846,12.38885,1.0559585e-06,3,1,0,1
15140000,15056000,15060000,0,-0.10159302,12.334605,0.031149015,12.388771,3.1327115e-06,3,1,0,1
15196000,15116000,15116000,0,-0.14834595,12.334973,0.078217655,12.3896885,1.9751913e-05,3,1,0,1
15260000,15174666,15180000,0,-0.0022277832,12.335472,-0.06772066,12.390886,1.4804712e-05,3,1,0,1
15316000,15236000,15236000,0,-0.14355469,12.335829,0.072954856,12.3905,1.7182232e-05,3,1,0,1
15380000,15294666,15300000,0,-0.08200073,12.336316,0.011573695,12.391655,4.3238907e-07,3,1,0,1
15436000,15356000,15356000,0,-0.21334839,12.336661,0.14218253,12.3896475,6.526698e-05,3,1,0,1
15500000,15416000,15420000,0,-0.14663696,12.337136,0.073992155,12.389575,1.7675631e-05,3,1,0,1
15556000,15476000,15476000,0,-0.061584473,12.33747,-0.010941431,12.39045,3.864748e-07,3,1,0,1
15620000,15536000,15540000,0,-0.028808594,12.3379345,-0.043165773,12.391601,6.0146676e-06,3,1,0,1
15676000,15596000,15596000,0,-0.019744873,12.338257,-0.051557355,12.392527,8.579884e-06,3,1,0,1
15740000,15656000,15660000,0,-0.034179688,12.33871,-0.03800384,12.392339,4.661886e-06,3,1,0,1
15796000,15716000,15716000,0,-0.090789795,12.339021,0.019259408,12.393224,1.1971858e-06,3,1,0,1
15860000,15776000,15780000,0,-0.11413574,12.339463,0.042913087,12.391575,5.944468e-06,3,1,0,1
15916000,15836000,15836000,0,-0.12319946,12.339764,0.050902396,12.391202,8.364173e-06,3,1,0,1
15980000,15896000,15900000,0,-0.0664978,12.340195,-0.005532965,12.392303,9.881521e-08,3,1,0,1
16036000,15956000,15956000,0,-0.19329834,12.340485,0.12174696,12.393185,4.7840236e-05,3,1,0,1
16100000,16016000,16020000,0,-0.051574707,12.340906,-0.01989618,12.39435,1.2775432e-06,3,1,0,1
16156000,16076000,16076000,0,-0.11743164,12.341186,0.044859335,12.393856,6.4947017e-06,3,1,0,1
16220000,16136000,16140000,0,-0.041992188,12.341597,-0.030588157,12.3922825,3.020058e-06,3,1,0,1
16276000,16196000,16196000,0,0.023529053,12.341866,-0.09547141,12.393155,2.9418788e-05,3,1,0,1
16340000,16256000,16260000,0,-0.12741089,12.342266,0.054843754,12.3929825,9.708196e-06,3,1,0,1
16396000,16314000,16316000,0,-0.098846436,12.3425255,0.02654031,12.393817,2.273353e-06,3,1,0,1
16444000,16364000,16364000,0,-0.09866333,12.342646,0.026702896,12.394423,2.3011792e-06,3,1,0,1
16508000,16422666,16428000,0,-0.10784912,12.343035,0.036455393,12.395565,4.2886168e-06,3,1,0,1
16564000,16484000,16484000,0,-0.088775635,12.343284,0.015803434,12.395044,8.0596254e-07,3,1,0,1
16628000,16542666,16548000,0,-0.11682129,12.343663,0.044395186,12.39354,6.361161e-06,3,1,0,1
16684000,16604000,16604000,0,-0.16345215,12.343902,0.09153098,12.39439,2.703778e-05,3,1,0,1
16748000,16664000,16668000,0,-0.15335083,12.344272,0.07960796,12.394191,2.0452899e-05,3,1,0,1
16804000,16724000,16724000,0,-0.082336426,12.344501,0.008923747,12.395001,2.5698506e-07,3,1,0,1
16868000,16784000,16788000,0,-0.025909424,12.344862,-0.04675781,12.396093,7.05478e-06,3,1,0,1
16924000,16844000,16844000,0,-0.026275635,12.345082,-0.045448326,12.396958,6.6647003e-06,3,1,0,1
16988000,16904000,16908000,0,-0.031311035,12.345435,-0.041859053,12.39665,5.6537215e-06,3,1,0,1
17044000,16964000,16964000,0,-0.008178711,12.345647,-0.06430067,12.394948,1.3342779e-05,3,1,0,1
17108000,17024000,17028000,0,-0.1307373,12.34599,0.059368312,12.396032,1.1373305e-05,3,1,0,1
17164000,17084000,17084000,0,-0.050476074,12.346193,-0.022759914,12.39554,1.6716132e-06,3,1,0,1
17228000,17144000,17148000,0,-0.12106323,12.346528,0.048713893,12.396582,7.65709e-06,3,1,0,1
17284000,17204000,17204000,0,-0.017425537,12.346723,-0.05440633,12.397401,9.550547e-06,3,1,0,1
17348000,17262666,17268000,0,-0.07888794,12.34705,0.008144878,12.398508,2.1402265e-07,3,1,0,1
17404000,17322000,17324000,0,-0.21966553,12.347237,0.14719991,12.3979025,6.9908e-05,3,1,0,1
17452000,17372000,17372000,0,-0.05886841,12.347285,-0.0140236765,12.395993,6.3460345e-07,3,1,0,1
17516000,17432000,17436000,0,-0.03552246,12.347603,-0.036508493,12.397056,4.300602e-06,3,1,0,1
17572000,17492000,17492000,0,-0.14379883,12.347781,0.07263118,12.397894,1.701995e-05,3,1,0,1
17636000,17549333,17556000,0,0.030517578,12.348091,-0.10341425,12.397564,3.4505192e-05,3,1,0,1
17684000,17600000,17604000,0,-0.12524414,12.348126,0.053247154,12.398107,9.147395e-06,3,1,0,1
17740000,17660000,17660000,0,-0.012145996,12.348296,-0.059495173,12.398929,1.1419295e-05,3,1,0,1
17804000,17720000,17724000,0,-0.09710693,12.3485985,0.024509326,12.3985815,1.9379863e-06,3,1,0,1
17860000,17780000,17780000,0,-0.0030212402,12.348761,-0.069538794,12.396963,1.5602673e-05,3,1,0,1
17924000,17840000,17844000,0,-0.08807373,12.349056,0.01637631,12.398006,8.6524716e-07,3,1,0,1
17980000,17900000,17900000,0,-0.08795166,12.349211,0.016761608,12.398823,9.063813e-07,3,1,0,1
18044000,17960000,17964000,0,-0.15826416,12.349499,0.08583085,12.398476,2.376723e-05,3,1,0,1
18100000,18019000,18020000,0,-0.11999512,12.349647,0.047787607,12.399253,7.367074e-06,3,1,0,1
18164000,18080000,18084000,0,0.24661255,12.349927,-0.31828108,12.400317,0.000326775,3,1,0,1
18220000,18140000,18140000,0,-0.09399414,12.350068,0.02169983,12.397345,1.5193016e-06,3,1,0,1
18284000,18200000,18204000,0,-0.014007568,12.350342,-0.05763243,12.398338,1.0715943e-05,3,1,0,1
18340000,18259000,18260000,0,-0.047332764,12.350476,-0.023401268,12.399111,1.7666407e-06,3,1,0,1
18404000,18320000,18324000,0,0.022918701,12.350744,-0.09279728,12.400173,2.7778113e-05,3,1,0,1
18460000,18380000,18380000,0,-0.020111084,12.350872,-0.050894983,12.399535,8.356118e-06,3,1,0,1
18524000,18440000,18444000,0,-0.09564209,12.351132,0.025612593,12.400551,2.1160508e-06,3,1,0,1
18580000,18499000,18500000,0,-0.025024414,12.351254,-0.04439996,12.401341,6.3585267e-06,3,1,0,1
18644000,18560000,18564000,0,-0.2084961,12.351509,0.137561,12.398628,6.104878e-05,3,1,0,1
18700000,18620000,18620000,0,-0.10406494,12.3516245,0.033299893,12.399358,3.5772266e-06,3,1,0,1
18764000,18680000,18684000,0,-0.24932861,12.351873,0.17924973,12.400371,0.00010364357,3,1,0,1
18820000,18740000,18740000,0,-0.10232544,12.351983,0.032285802,12.401158,3.3621795e-06,3,1,0,1
18884000,18800000,18804000,0,-0.03161621,12.352225,-0.040057324,12.400746,5.175783e-06,3,1,0,1
18940000,18860000,18860000,0,-0.055419922,12.352329,-0.015390269,12.401494,7.6397373e-07,3,1,0,1
19004000,18920000,18924000,0,0.10876465,12.352567,-0.17865744,12.402532,0.00010294183,3,1,0,1
19060000,18980000,18980000,0,-0.061706543,12.352665,-0.009426586,12.399565,2.8665693e-07,3,1,0,1
19124000,19040000,19044000,0,-0.03363037,12.352897,-0.036654793,12.400532,4.333923e-06,3,1,0,1
19180000,19100000,19100000,0,-0.057403564,12.352989,-0.012031391,12.401276,4.6690158e-07,3,1,0,1
19244000,19160000,19164000,0,-0.052825928,12.353215,-0.018080764,12.4009075,1.0544842e-06,3,1,0,1
19300000,19220000,19220000,0,-0.038879395,12.353302,-0.031277888,12.401612,3.1554164e-06,3,1,0,1
19364000,19280000,19284000,0,0.04534912,12.353523,-0.11458144,12.402603,4.2342428e-05,3,1,0,1
19420000,19340000,19340000,0,-0.07766724,12.353606,0.009108499,12.40102,2.676062e-07,3,1,0,1
19484000,19400000,19404000,0,-0.13394165,12.353822,0.0638907,12.400657,1.3167115e-05,3,1,0,1
19540000,19460000,19460000,0,-0.09112549,12.353899,0.021448962,12.4013605,1.4838952e-06,3,1,0,1
19604000,19520000,19524000,0,-0.25057983,12.35411,0.18153115,12.4023485,0.00010628167,3,1,0,1
19660000,19580000,19580000,0,-0.09881592,12.354182,0.027735911,12.401701,2.4812107e-06,3,1,0,1
19724000,19640000,19644000,0,-0.05630493,12.354389,-0.014220163,12.402647,6.521609e-07,3,1,0,1
19780000,19699000,19700000,0,-0.014190674,12.354457,-0.055650495,12.403369,9.987536e-06,3,1,0,1
19836000,19756000,19756000,0,-0.0803833,12.354524,0.011208825,12.401799,4.0522428e-07,3,1,0,1
19892000,19808000,19812000,0,-0.056793213,12.3545885,-0.013826422,12.40117,6.166191e-07,3,1,0,1
19948000,19868000,19868000,0,-0.13674927,12.354653,0.06676488,12.401859,1.4377037e-05,3,1,0,1
20012000,19928000,19932000,0,-0.03289795,12.354852,-0.036671594,12.402833,4.3370924e-06,3,1,0,1
20068000,19988000,19988000,0,-0.009735107,12.354912,-0.05911097,12.403581,1.1268058e-05,3,1,0,1
20132000,20048000,20052000,0,-0.057159424,12.355105,-0.012715988,12.403112,5.214702e-07,3,1,0,1
20188000,20108000,20108000,0,0.031921387,12.355162,-0.101168394,12.403821,3.30061e-05,3,1,0,1
20252000,20168000,20172000,0,0.00289917,12.355351,-0.07196918,12.402523,1.670487e-05,3,1,0,1
20308000,20228000,20228000,0,0.016357422,12.355403,-0.08646336,12.401876,2.41122e-05,3,1,0,1
20372000,20288000,20292000,0,-0.068878174,12.355589,-0.00026410818,12.402807,2.2495915e-10,3,1,0,1
20428000,20348000,20348000,0,-0.14871216,12.355637,0.08018323,12.403515,2.0733964e-05,3,1,0,1
20492000,20408000,20412000,0,-0.08230591,12.355818,0.012241453,12.403094,4.832767e-07,3,1,0,1
20548000,20468000,20468000,0,-0.09158325,12.355862,0.02201482,12.403765,1.5629199e-06,3,1,0,1
20612000,20526666,20532000,0,-0.06323242,12.35604,-0.006075494,12.402467,1.19046085e-07,3,1,0,1
20668000,20588000,20588000,0,-0.021057129,12.35608,-0.047631748,12.4031725,7.3167844e-06,3,1,0,1
20732000,20648000,20652000,0,-0.12472534,12.356254,0.05489037,12.402759,9.7170405e-06,3,1,0,1
20788000,20708000,20708000,0,0.0776062,12.35629,-0.14704058,12.403428,6.972566e-05,3,1,0,1
20852000,20766666,20772000,0,-0.041015625,12.356461,-0.0271575,12.404385,2.3782875e-06,3,1,0,1
20908000,20828000,20828000,0,-0.045959473,12.356494,-0.023615241,12.403689,1.7984315e-06,3,1,0,1
20972000,20886666,20892000,0,0.03363037,12.356661,-0.10238128,12.404603,3.380012e-05,3,1,0,1
21028000,20948000,20948000,0,-0.11279297,12.35669,0.044429697,12.403057,6.3661664e-06,3,1,0,1
21092000,21008000,21012000,0,0.014373779,12.3568535,-0.08211348,12.404012,2.1743366e-05,3,1,0,1
21148000,21068000,21068000,0,-0.0708313,12.35688,0.0019199699,12.403324,1.1888054e-08,3,1,0,1
21212000,21128000,21132000,0,-0.10836792,12.35704,0.040211014,12.404238,5.214107e-06,3,1,0,1
21268000,21188000,21188000,0,-0.061065674,12.357063,-0.0065493956,12.404929,1.3831463e-07,3,1,0,1
21332000,21248000,21252000,0,0.018676758,12.357221,-0.08767612,12.40447,2.4788169e-05,3,1,0,1
21388000,21308000,21308000,0,-0.01965332,12.357241,-0.048381664,12.405125,7.5478015e-06,3,1,0,1
21452000,21368000,21372000,0,-0.16091919,12.357395,0.092902265,12.403839,2.7832772e-05,3,1,0,1
21508000,21428000,21428000,0,-0.099090576,12.357411,0.0314148,12.404531,3.1823522e-06,3,1,0,1
21572000,21488000,21492000,0,-0.07064819,12.357563,0.0014174879,12.4040785,6.479391e-09,3,1,0,1
21628000,21546000,21548000,0,0.018554688,12.357576,-0.08718503,12.404733,2.4510742e-05,3,1,0,1
21676000,21596000,21596000,0,-0.06201172,12.357454,-0.005761221,12.405157,1.0702538e-07,3,1,0,1
21740000,21656000,21660000,0,-0.052703857,12.357606,-0.016365804,12.404701,8.6367106e-07,3,1,0,1
21796000,21716000,21716000,0,-0.08102417,12.357618,0.012592554,12.405344,5.113036e-07,3,1,0,1
21860000,21776000,21780000,0,-0.057434082,12.357766,-0.010709174,12.404069,3.6983482e-07,3,1,0,1
21916000,21834000,21836000,0,-0.08099365,12.357777,0.013499312,12.404751,5.8761816e-07,3,1,0,1
21964000,21884000,21884000,0,-0.062072754,12.357652,-0.006902434,12.403804,1.5364188e-07,3,1,0,1
22028000,21942666,21948000,0,-0.06213379,12.357799,-0.0061503053,12.404697,1.2197397e-07,3,1,0,1
22084000,22004000,22004000,0,-0.08099365,12.357808,0.013354592,12.40537,5.750578e-07,3,1,0,1
22148000,22064000,22068000,0,-0.12310791,12.357953,0.056172304,12.406336,1.01732785e-05,3,1,0,1
22204000,22124000,22124000,0,0.04168701,12.35796,-0.11037829,12.405549,3.92836e-05,3,1,0,1
22268000,22184000,22188000,0,-0.05316162,12.358102,-0.014580503,12.404282,6.855409e-07,3,1,0,1
22324000,22244000,22244000,0,-0.07675171,12.358107,0.009737588,12.404956,3.057508e-07,3,1,0,1
22388000,22304000,22308000,0,-0.10482788,12.358246,0.036341846,12.404505,4.2588713e-06,3,1,0,1
22444000,22364000,22364000,0,-0.03878784,12.358248,-0.029139996,12.405143,2.7380236e-06,3,1,0,1
22508000,22424000,22428000,0,-0.165802,12.358385,0.098830946,12.406068,3.1492833e-05,3,1,0,1
22564000,22484000,22484000,0,-0.05227661,12.358384,-0.014324412,12.406765,6.6153837e-07,3,1,0,1
22628000,22544000,22548000,0,-0.061767578,12.358519,-0.0065573677,12.404065,1.3866124e-07,3,1,0,1
22684000,22604000,22604000,0,-0.1416626,12.358516,0.07414472,12.404703,1.7726952e-05,3,1,0,1
22748000,22664000,22668000,0,-0.094055176,12.358648,0.02722498,12.405629,2.3898815e-06,3,1,0,1
22804000,22724000,22724000,0,-0.07034302,12.358643,0.0014841184,12.404907,7.1023747e-09,3,1,0,1
22868000,22784000,22788000,0,-0.16894531,12.358773,0.101026915,12.405793,3.2908618e-05,3,1,0,1
22924000,22842000,22844000,0,-0.017822266,12.358766,-0.04958675,12.406456,7.927632e-06,3,1,0,1
22972000,22892000,22892000,0,-0.15438843,12.3586235,0.087979466,12.406885,2.4955132e-05,3,1,0,1
23036000,22952000,22956000,0,-0.09729004,12.358754,0.02786129,12.404203,2.5031886e-06,3,1,0,1
23092000,23012000,23012000,0,-0.07827759,12.358747,0.009639844,12.404834,2.996464e-07,3,1,0,1
23156000,23072000,23076000,0,-0.13452148,12.358875,0.06687853,12.405753,1.4421494e-05,3,1,0,1
23212000,23132000,23132000,0,-0.12924194,12.358866,0.062308677,12.4064455,1.2517272e-05,3,1,0,1
23276000,23192000,23196000,0,-0.06295776,12.358993,-0.0,12.40744,3.0098732e-08,3,1,0,1
23332000,23252000,23252000,0,-0.001953125,12.358981,-0.0,12.4082,1.2787466e-05,3,1,0,1
23396000,23312000,23316000,0,-0.05883789,12.359106,-0.0,12.409278,7.41437e-08,3,1,0,1
23452000,23372000,23372000,0,-0.07766724,12.359093,0.014409721,12.407676,6.6939225e-07,3,1,0,1
23516000,23432000,23436000,0,-0.10571289,12.359215,0.043754857,12.408803,6.1713854e-06,3,1,0,1
23572000,23492000,23492000,0,-0.030181885,12.3592005,-0.0,12.409684,3.0492297e-06,3,1,0,1
23636000,23552000,23556000,0,-0.06802368,12.359321,0.0084649585,12.410906,2.3094373e-07,3,1,0,1
23692000,23612000,23612000,0,0.035308838,12.359304,-0.0,12.411871,2.8255987e-05,3,1,0,1
23756000,23672000,23676000,0,-0.10165405,12.359424,0.04483906,12.413196,6.478723e-06,3,1,0,1
23812000,23732000,23732000,0,0.025512695,12.3594055,-0.0,12.411407,2.1918944e-05,3,1,0,1
23876000,23792000,23796000,0,-0.036254883,12.359523,-0.0,12.412786,1.180167e-06,3,1,0,1
23932000,23852000,23852000,0,-0.08810425,12.359503,0.034133065,12.41389,3.7540726e-06,3,1,0,1
23996000,23912000,23916000,0,-0.0032653809,12.359618,-0.0,12.415382,7.805586e-06,3,1,0,1
24052000,23972000,23972000,0,0.015075684,12.359596,-0.0,12.416587,1.4079531e-05,3,1,0,1
24116000,24032000,24036000,0,0.009796143,12.359711,-0.0,12.418201,1.1285336e-05,3,1,0,1
24172000,24092000,24092000,0,-0.05645752,12.359688,0.008511268,12.419512,2.3331569e-07,3,1,0,1
24236000,24150666,24156000,0,-0.18313599,12.359801,0.13496655,12.41775,5.8677204e-05,3,1,0,1
24292000,24212000,24212000,0,-0.102142334,12.3597765,0.054816287,12.4191065,9.678072e-06,3,1,0,1
24356000,24272000,24276000,0,-0.040618896,12.359887,-0.0,12.420904,8.820335e-08,3,1,0,1
24412000,24332000,24332000,0,-0.14398193,12.359861,0.0996666,12.422377,3.1985608e-05,3,1,0,1
24476000,24392000,24396000,0,-0.053894043,12.359972,0.010865498,12.4243145,3.8009037e-07,3,1,0,1
24532000,24452000,24452000,0,0.011932373,12.359944,-0.0,12.425906,9.181764e-06,3,1,0,1
24596000,24512000,24516000,0,-0.06832886,12.360054,0.028745234,12.427989,2.6594437e-06,3,1,0,1
24652000,24572000,24572000,0,-0.11035156,12.360025,0.06993148,12.425278,1.5743428e-05,3,1,0,1
24716000,24632000,24636000,0,-0.05340576,12.360133,0.014610875,12.427402,6.8711927e-07,3,1,0,1
24772000,24692000,24692000,0,-0.09082031,12.360103,0.053710084,12.429155,9.283891e-06,3,1,0,1
24836000,24752000,24756000,0,-0.10913086,12.360209,0.0738156,12.431434,1.7532147e-05,3,1,0,1
24892000,24812000,24812000,0,-0.10379028,12.360179,0.069943346,12.433319,1.5738586e-05,3,1,0,1
24956000,24872000,24876000,0,-0.05621338,12.360284,0.024165075,12.435754,1.8782964e-06,3,1,0,1
25012000,24932000,24932000,0,0.09890747,12.360252,-0.0,12.4322195,5.6016597e-05,3,1,0,1
25076000,24992000,24996000,0,0.0038757324,12.360356,-0.0,12.434671,3.8605904e-06,3,1,0,1
25132000,25052000,25052000,0,-0.05279541,12.360323,0.024079222,12.436707,1.8648312e-06,3,1,0,1
25196000,25112000,25116000,0,-0.09011841,12.360426,0.063675575,12.439322,1.3037941e-05,3,1,0,1
25252000,25172000,25172000,0,-0.07546997,12.360393,0.05079665,12.441495,8.295787e-06,3,1,0,1
25316000,25232000,25236000,0,-0.13134766,12.360495,0.10884862,12.444276,3.808344e-05,3,1,0,1
25372000,25292000,25292000,0,0.10437012,12.360459,-0.0,12.446584,5.052261e-05,3,1,0,1
25436000,25352000,25356000,0,-0.05633545,12.36056,0.033118255,12.442392,3.5260705e-06,3,1,0,1
25492000,25412000,25412000,0,-0.10769653,12.360525,0.086444154,12.444689,2.4018575e-05,3,1,0,1
25556000,25472000,25476000,0,-0.083465576,12.360624,0.06416116,12.447618,1.32287305e-05,3,1,0,1
25612000,25532000,25532000,0,-0.007751465,12.360588,-0.0,12.450052,3.0435515e-07,3,1,0,1
25676000,25592000,25596000,0,-0.082977295,12.360687,0.06817287,12.453148,1.4928082e-05,3,1,0,1
25732000,25652000,25652000,0,-0.1434021,12.36065,0.13046387,12.455717,5.466027e-05,3,1,0,1
25796000,25712000,25716000,0,-0.067108154,12.360748,0.05541548,12.458979,9.859157e-06,3,1,0,1
25852000,25772000,25772000,0,-0.14642334,12.36071,0.12906191,12.452673,5.35049e-05,3,1,0,1
25916000,25832000,25836000,0,-0.103027344,12.360807,0.08447164,12.455871,2.2914362e-05,3,1,0,1
25972000,25890000,25892000,0,-0.0036621094,12.360768,-0.0,12.458525,9.487534e-07,3,1,0,1
26020000,25940000,25940000,0,-0.09301758,12.360595,0.069679394,12.460593,1.5585832e-05,3,1,0,1
26084000,26000000,26004000,0,-0.06893921,12.360695,0.040077716,12.464016,5.1547536e-06,3,1,0,1
26140000,26060000,26060000,0,-0.021606445,12.360658,-0.0,12.4668455,6.1926517e-07,3,1,0,1
26204000,26120000,26124000,0,-0.07809448,12.360758,0.032689366,12.470425,3.4276127e-06,3,1,0,1
26260000,26180000,26180000,0,-0.082458496,12.36072,0.019083753,12.462327,1.1689299e-06,3,1,0,1
26324000,26240000,26244000,0,-0.1855774,12.360818,0.10555458,12.465791,3.5751505e-05,3,1,0,1
26380000,26300000,26300000,0,-0.1423645,12.360779,0.043954708,12.468652,6.197996e-06,3,1,0,1
26444000,26360000,26364000,0,-0.23587036,12.360877,0.11357787,12.472271,4.1371564e-05,3,1,0,1
26500000,26418000,26420000,0,-0.21609497,12.360837,0.0692018,12.475241,1.5354857e-05,3,1,0,1
26548000,26468000,26468000,0,-0.36102295,12.360663,0.19101033,12.477537,0.000116962015,3,1,0,1
26612000,26528000,26532000,0,-0.33584595,12.360764,0.12311581,12.468437,4.862679e-05,3,1,0,1
26668000,26588000,26588000,0,-0.36291504,12.360726,0.11747712,12.471341,4.4264278e-05,3,1,0,1
26732000,26648000,26652000,0,-0.4041443,12.360825,0.11991024,12.475003,4.6103283e-05,3,1,0,1
26788000,26708000,26708000,0,-0.4312439,12.360786,0.112413585,12.478017,4.0509047e-05,3,1,0,1
26852000,26768000,26772000,0,-0.4255371,12.360885,0.06786129,12.481827,1.4757951e-05,3,1,0,1
26908000,26828000,26828000,0,-0.51882935,12.360846,0.12818962,12.484931,5.2647723e-05,3,1,0,1
26972000,26888000,26892000,0,-0.48953247,12.360944,0.06090468,12.488872,1.1880594e-05,3,1,0,1
27028000,26948000,26948000,0,-0.59225464,12.360904,0.12168771,12.47707,4.7472357e-05,3,1,0,1
27092000,27008000,27012000,0,-0.5536499,12.361,0.044398606,12.480824,6.3176476e-06,3,1,0,1
27148000,27068000,27068000,0,-0.64245605,12.360959,0.09957194,12.483881,3.17676e-05,3,1,0,1
27212000,27128000,27132000,0,-0.6979065,12.361054,0.1155535,12.487764,4.2770218e-05,3,1,0,1
27268000,27188000,27188000,0,-0.64520264,12.361013,0.027609885,12.490924,2.4411509e-06,3,1,0,1
27332000,27248000,27252000,0,-0.7341919,12.361108,0.077135205,12.494908,1.9047246e-05,3,1,0,1
27388000,27308000,27308000,0,-0.76168823,12.361067,0.06920743,12.498148,1.532921e-05,3,1,0,1
27452000,27368000,27372000,0,-0.7798462,12.361161,0.037455916,12.485264,4.494725e-06,3,1,0,1
27508000,27428000,27428000,0,-0.81707764,12.361118,0.039164186,12.488345,4.912848e-06,3,1,0,1
27572000,27488000,27492000,0,-0.9012451,12.361211,0.08271253,12.49223,2.1905978e-05,3,1,0,1
27628000,27548000,27548000,0,-0.9146118,12.361167,0.059864104,12.495391,1.1472105e-05,3,1,0,1
27692000,27608000,27612000,0,-1.0314636,12.361259,0.13569468,12.499402,5.892457e-05,3,1,0,1
27748000,27668000,27668000,0,-1.1429138,12.361216,0.2104485,12.502608,0.00014169386,3,1,0,1
27812000,27728000,27732000,0,-1.1269531,12.361308,0.14115453,12.488334,6.381829e-05,3,1,0,1
27868000,27788000,27788000,0,-1.0881653,12.361262,0.065457344,12.491392,1.3720374e-05,3,1,0,1
27932000,27848000,27852000,0,-1.1392212,12.361353,0.07531834,12.495275,1.8159992e-05,3,1,0,1
27988000,27908000,27908000,0,-1.176117,12.361307,0.07609975,12.49838,1.8534154e-05,3,1,0,1
28052000,27968000,27972000,0,-1.1613464,12.361397,0.020187855,12.5023575,1.3039125e-06,3,1,0,1
28108000,28028000,28028000,0,-1.2174988,12.361351,0.041111827,12.5055485,5.406184e-06,3,1,0,1
28172000,28086666,28092000,0,-1.3251343,12.361442,0.10865843,12.5095825,3.7752354e-05,3,1,0,1
28228000,28148000,28148000,0,-1.3992615,12.361395,0.13127637,12.4931555,5.5177366e-05,3,1,0,1
28292000,28206666,28212000,0,-1.4169006,12.361484,0.108095646,12.4969845,3.739996e-05,3,1,0,1
28348000,28266000,28268000,0,-1.4112244,12.361435,0.0670203,12.50006,1.4373436e-05,3,1,0,1
28396000,28316000,28316000,0,-1.5984192,12.361253,0.22449803,12.502317,0.00016124808,3,1,0,1
28460000,28376000,28380000,0,-1.5166016,12.361344,0.10179567,12.506268,3.3142933e-05,3,1,0,1
28516000,28436000,28436000,0,-1.6283875,12.3612995,0.17928267,12.509418,0.00010277784,3,1,0,1
28580000,28496000,28500000,0,-1.5704651,12.361391,0.0820086,12.513405,2.149826e-05,3,1,0,1
28636000,28556000,28556000,0,-1.715271,12.361345,0.17803383,12.49607,0.00010145924,3,1,0,1
28700000,28616000,28620000,0,-1.6150818,12.361435,0.039549947,12.49986,5.005491e-06,3,1,0,1
28756000,28676000,28676000,0,-1.750885,12.361388,0.14363563,12.502892,6.600455e-05,3,1,0,1
28820000,28736000,28740000,0,-1.7824402,12.361477,0.1385355,12.506728,6.138163e-05,3,1,0,1
28876000,28796000,28796000,0,-1.7530518,12.36143,0.07747328,12.509807,1.9191693e-05,3,1,0,1
28940000,28856000,28860000,0,-1.8650513,12.361519,0.15502942,12.51375,7.6824675e-05,3,1,0,1
28996000,28916000,28916000,0,-1.8214111,12.361471,0.08092439,12.516823,2.0927859e-05,3,1,0,1
29060000,28974666,28980000,0,-1.9380493,12.361561,0.14587224,12.4995575,6.8094276e-05,3,1,0,1
29116000,29036000,29036000,0,-1.9273682,12.361511,0.106858015,12.502514,3.6532285e-05,3,1,0,1
29180000,29096000,29100000,0,-1.9451904,12.361598,0.09553826,12.5063,2.9193476e-05,3,1,0,1
29236000,29156000,29156000,0,-2.0335388,12.361548,0.16158807,12.509268,8.3492356e-05,3,1,0,1
29300000,29216000,29220000,0,-2.0368042,12.361635,0.14333308,12.5131235,6.567303e-05,3,1,0,1
29356000,29276000,29276000,0,-1.9275208,12.361586,0.019492865,12.516163,1.2143395e-06,3,1,0,1
29420000,29334666,29340000,0,-1.9977722,12.361672,0.0563941,12.498559,1.0178115e-05,3,1,0,1
29476000,29396000,29396000,0,-2.0488892,12.361621,0.099749565,12.501442,3.183625e-05,3,1,0,1
29540000,29456000,29460000,0,-2.0386353,12.361707,0.08192146,12.505141,2.146677e-05,3,1,0,1
29596000,29514000,29516000,0,-2.0379028,12.361655,0.07532251,12.508072,1.814342e-05,3,1,0,1
29644000,29564000,29564000,0,-2.0090637,12.361469,0.04152584,12.510171,5.5135793e-06,3,1,0,1
29708000,29624000,29628000,0,-2.1448364,12.361558,0.17099237,12.513965,9.3458446e-05,3,1,0,1
29764000,29684000,29684000,0,-1.9790039,12.361509,-0.0,12.516945,2.3039492e-08,3,1,0,1
29828000,29744000,29748000,0,-2.2043762,12.361598,0.19280005,12.499164,0.0001189579,3,1,0,1
29884000,29804000,29804000,0,-2.1228638,12.361547,0.10164261,12.501997,3.3054625e-05,3,1,0,1
29948000,29864000,29868000,0,-2.1172485,12.361634,0.0858624,12.505642,2.358088e-05,3,1,0,1
30004000,29922000,29924000,0,-2.135254,12.361584,0.09485006,12.508522,2.8769296e-05,3,1,0,1
30052000,29972000,29972000,0,-2.1766663,12.3614,0.1283691,12.510583,5.2686988e-05,3,1,0,1
30116000,30030666,30036000,0,-2.1849365,12.361489,0.1262834,12.51432,5.09736e-05,3,1,0,1
30172000,30090000,30092000,0,-2.15094,12.361443,0.08323836,12.517251,2.2141045e-05,3,1,0,1
30220000,30140000,30140000,0,-2.2957458,12.361261,0.19738889,12.497933,0.00012470021,3,1,0,1
30284000,30200000,30204000,0,-2.1766052,12.361353,0.06761265,12.501465,1.46269895e-05,3,1,0,1
30340000,30260000,30260000,0,-2.2323303,12.361307,0.11537194,12.504278,4.2579617e-05,3,1,0,1
30404000,30320000,30324000,0,-2.1984253,12.361398,0.07220054,12.507904,1.6670794e-05,3,1,0,1
30460000,30380000,30380000,0,-2.2400513,12.361352,0.10642862,12.510739,3.621545e-05,3,1,0,1
30524000,30440000,30444000,0,-2.3095093,12.361443,0.1675651,12.514432,8.974619e-05,3,1,0,1
30580000,30500000,30500000,0,-2.2657776,12.361397,0.116025686,12.517323,4.3018652e-05,3,1,0,1
30644000,30560000,30564000,0,-2.2318726,12.361486,0.050581932,12.49953,8.18761e-06,3,1,0,1
30700000,30620000,30620000,0,-2.2830505,12.361439,0.09578538,12.5022745,2.9354143e-05,3,1,0,1
30764000,30680000,30684000,0,-2.4183655,12.361527,0.22407198,12.505837,0.00016059141,3,1,0,1
30820000,30740000,30740000,0,-2.3318481,12.361479,0.13000727,12.508645,5.404867e-05,3,1,0,1
30884000,30800000,30804000,0,-2.3353882,12.361567,0.12679696,12.512261,5.1397485e-05,3,1,0,1
30940000,30860000,30860000,0,-2.3295593,12.361519,0.115287066,12.515108,4.24802e-05,3,1,0,1
31004000,30920000,30924000,0,-2.3707886,12.361607,0.15078092,12.518802,7.264237e-05,3,1,0,1
31060000,30980000,30980000,0,-2.3929138,12.361558,0.14108253,12.500165,6.369285e-05,3,1,0,1
31124000,31040000,31044000,0,-2.2836914,12.361644,0.026215076,12.503658,2.1984933e-06,3,1,0,1
31180000,31100000,31100000,0,-2.335083,12.361593,0.07403755,12.506425,1.7531978e-05,3,1,0,1
31244000,31160000,31164000,0,-2.3344116,12.361679,0.06923509,12.510005,1.5326923e-05,3,1,0,1
31300000,31220000,31220000,0,-2.4558716,12.361629,0.1875329,12.512804,0.00011242432,3,1,0,1
31364000,31280000,31284000,0,-2.2851868,12.361714,0.012439966,12.51645,4.94558e-07,3,1,0,1
31420000,31340000,31340000,0,-2.3226013,12.361664,0.021411896,12.497994,1.467337e-06,3,1,0,1
31484000,31400000,31404000,0,-2.3928528,12.361748,0.08974266,12.501441,2.5769015e-05,3,1,0,1
31540000,31460000,31460000,0,-2.4390259,12.361695,0.1337192,12.504173,5.7199544e-05,3,1,0,1
31604000,31520000,31524000,0,-2.3908691,12.361779,0.08297157,12.507709,2.2016126e-05,3,1,0,1
31660000,31580000,31580000,0,-2.3713684,12.361727,0.06188631,12.5104885,1.2245455e-05,3,1,0,1
31724000,31640000,31644000,0,-2.380188,12.36181,0.0696187,12.514086,1.5492187e-05,3,1,0,1
31780000,31700000,31700000,0,-2.3326416,12.361757,0.0211699,12.516905,1.4321903e-06,3,1,0,1
31844000,31760000,31764000,0,-2.4451294,12.361841,0.10573292,12.499242,3.577641e-05,3,1,0,1
31900000,31820000,31820000,0,-2.5099182,12.361787,0.16929269,12.501938,9.1697824e-05,3,1,0,1
31964000,31880000,31884000,0,-2.4191895,12.361869,0.0766592,12.505435,1.8797055e-05,3,1,0,1
32020000,31940000,31940000,0,-2.371582,12.3618145,0.028330326,12.50819,2.566662e-06,3,1,0,1
32084000,32000000,32004000,0,-2.5309448,12.3618965,0.18780708,12.511763,0.00011276269,3,1,0,1
32140000,32060000,32060000,0,-2.496399,12.361842,0.1516397,12.514556,7.349713e-05,3,1,0,1
32204000,32120000,32124000,0,-2.4809875,12.361924,0.1353066,12.518196,5.8500045e-05,3,1,0,1
32260000,32180000,32180000,0,-2.526703,12.36187,0.1513207,12.499755,7.327489e-05,3,1,0,1
32324000,32240000,32244000,0,-2.4220886,12.361951,0.04577899,12.503215,6.704566e-06,3,1,0,1
32380000,32298000,32300000,0,-2.4592285,12.361895,0.083185434,12.505949,2.2132881e-05,3,1,0,1
32444000,32357333,32364000,0,-2.4725952,12.361975,0.09668231,12.509493,2.9889203e-05,3,1,0,1
32492000,32408000,32412000,0,-2.4717407,12.361784,0.095700264,12.511479,2.928044e-05,3,1,0,1
32548000,32468000,32468000,0,-2.4661865,12.361732,0.09043956,12.5142765,2.6143944e-05,3,1,0,1
32612000,32528000,32532000,0,-2.6203308,12.361815,0.2160337,12.4969225,0.00014938257,3,1,0,1
32668000,32586000,32588000,0,-2.4869385,12.361761,0.08165622,12.499604,2.1337437e-05,3,1,0,1
32732000,32648000,32652000,0,-2.4909058,12.361844,0.08642173,12.503072,2.3894017e-05,3,1,0,1
32788000,32708000,32708000,0,-2.4995422,12.36179,0.095694065,12.505813,2.9289911e-05,3,1,0,1
32852000,32768000,32772000,0,-2.4423523,12.361872,0.039509296,12.509364,4.9914115e-06,3,1,0,1
32908000,32828000,32828000,0,-2.5593567,12.361817,0.15819573,12.512156,8.000505e-05,3,1,0,1
32972000,32888000,32892000,0,-2.6800232,12.3619,0.27975917,12.5157795,0.00025013284,3,1,0,1
33028000,32948000,32948000,0,-2.5413513,12.361846,0.112246275,12.49761,4.0325234e-05,3,1,0,1
33092000,33008000,33012000,0,-2.5967102,12.361927,0.16896057,12.501057,9.134483e-05,3,1,0,1
33148000,33068000,33068000,0,-2.5998535,12.361871,0.17257404,12.503782,9.527294e-05,3,1,0,1
33212000,33128000,33132000,0,-2.5043945,12.361952,0.077950716,12.507316,1.9432831e-05,3,1,0,1
33268000,33188000,33188000,0,-2.5036926,12.361896,0.07894206,12.5100975,1.9925821e-05,3,1,0,1
33332000,33248000,33252000,0,-2.4231873,12.361977,0.0006599426,12.51371,1.3921508e-09,3,1,0,1
33388000,33308000,33308000,0,-2.531189,12.361921,0.11161685,12.516537,3.9813956e-05,3,1,0,1
33452000,33368000,33372000,0,-2.6757202,12.362001,0.22934341,12.499098,0.00016832704,3,1,0,1
33508000,33428000,33428000,0,-2.5046387,12.361944,0.05838561,12.501815,1.09068305e-05,3,1,0,1
33572000,33488000,33492000,0,-2.3820496,12.362024,-0.0,12.505329,1.2209481e-05,3,1,0,1
33628000,33548000,33548000,0,-2.4953003,12.361967,0.054242373,12.508104,9.409052e-06,3,1,0,1
33692000,33608000,33612000,0,-2.51828,12.362046,0.07998228,12.511702,2.0451784e-05,3,1,0,1
33748000,33668000,33668000,0,-2.5645142,12.361989,0.12846613,12.514526,5.275005e-05,3,1,0,1
33812000,33728000,33732000,0,-2.4365845,12.362068,-0.0,12.497193,2.1073952e-06,3,1,0,1
33868000,33788000,33788000,0,-2.596466,12.36201,0.13732743,12.499899,6.0348724e-05,3,1,0,1
33932000,33848000,33852000,0,-2.5107422,12.362087,0.05368185,12.503397,9.219066e-06,3,1,0,1
33988000,33908000,33908000,0,-2.5665894,12.362029,0.11214495,12.506163,4.0224935e-05,3,1,0,1
34052000,33968000,33972000,0,-2.443512,12.362107,-0.0,12.5097475,2.2019117e-07,3,1,0,1
34108000,34028000,34028000,0,-2.4811401,12.362049,0.03313899,12.512568,3.5106866e-06,3,1,0,1
34172000,34088000,34092000,0,-2.654541,12.362127,0.21089697,12.516232,0.00014214352,3,1,0,1
34228000,34148000,34148000,0,-2.5071106,12.362069,0.03340721,12.49803,3.5718967e-06,3,1,0,1
34292000,34208000,34212000,0,-2.5162048,12.362145,0.046872616,12.50151,7.0296855e-06,3,1,0,1
34348000,34268000,34268000,0,-2.558014,12.362086,0.09246063,12.504269,2.734736e-05,3,1,0,1
34412000,34328000,34332000,0,-2.491455,12.362163,0.029929161,12.507837,2.8646189e-06,3,1,0,1
34468000,34388000,34388000,0,-2.5569153,12.362103,0.09969568,12.5106535,3.177845e-05,3,1,0,1
34532000,34448000,34452000,0,-2.471527,12.362181,0.018733025,12.514306,1.12168e-06,3,1,0,1
34588000,34508000,34508000,0,-2.5605469,12.362122,0.112677336,12.517169,4.0572057e-05,3,1,0,1
34652000,34568000,34572000,0,-2.343567,12.362199,-0.0,12.499658,5.5107e-05,3,1,0,1
34708000,34628000,34628000,0,-2.4996948,12.362138,0.029824734,12.502406,2.8458994e-06,3,1,0,1
34772000,34688000,34692000,0,-2.668457,12.362214,0.20391369,12.505962,0.0001329951,3,1,0,1
34828000,34748000,34748000,0,-2.5069885,12.362153,0.0450747,12.50877,6.4969736e-06,3,1,0,1
34892000,34808000,34812000,0,-2.7272644,12.362229,0.27063632,12.51241,0.0002341484,3,1,0,1
34948000,34868000,34868000,0,-2.532318,12.362169,0.077634096,12.51527,1.9263038e-05,3,1,0,1
35012000,34928000,34932000,0,-2.4001465,12.362246,-0.0,12.49783,1.9934054e-05,3,1,0,1
35068000,34987000,34988000,0,-2.532318,12.362184,0.058252335,12.5005665,1.0858179e-05,3,1,0,1
35132000,35048000,35052000,0,-2.606903,12.362259,0.13794637,12.504105,6.0873455e-05,3,1,0,1
35188000,35107000,35108000,0,-2.5258484,12.362197,0.060369253,12.506906,1.165579e-05,3,1,0,1
35252000,35168000,35172000,0,-2.501831,12.362272,0.041422844,12.510531,5.4861043e-06,3,1,0,1
35308000,35228000,35228000,0,-2.5484009,12.362211,0.09253454,12.513386,2.737114e-05,3,1,0,1
35372000,35288000,35292000,0,-2.5663757,12.362287,0.11521506,12.517091,4.2420434e-05,3,1,0,1
35428000,35348000,35348000,0,-2.574707,12.362226,0.098024845,12.498741,3.0751482e-05,3,1,0,1
35492000,35408000,35412000,0,-2.6724243,12.362299,0.19984221,12.502259,0.00012777501,3,1,0,1
35548000,35468000,35468000,0,-2.5063171,12.362237,0.035865307,12.50505,4.1145627e-06,3,1,0,1
35612000,35528000,35532000,0,-2.3604126,12.362311,-0.105523586,12.508659,3.560806e-05,3,1,0,1
35668000,35588000,35588000,0,-2.5303955,12.362249,0.070032835,12.511506,1.568028e-05,3,1,0,1
35732000,35648000,35652000,0,-2.5907898,12.362324,0.1345818,12.515198,5.7888858e-05,3,1,0,1
35788000,35708000,35708000,0,-2.486267,12.362262,0.032766104,12.518092,3.430611e-06,3,1,0,1
35852000,35768000,35772000,0,-2.50943,12.362337,0.03171897,12.500418,3.21939e-06,3,1,0,1
35908000,35828000,35828000,0,-2.5608215,12.362274,0.08659768,12.503196,2.3991173e-05,3,1,0,1
35972000,35888000,35892000,0,-2.6257935,12.362347,0.15495443,12.506785,7.679311e-05,3,1,0,1
36028000,35947000,35948000,0,-2.5023193,12.362285,0.033512592,12.509624,3.5911355e-06,3,1,0,1
36092000,36008000,36012000,0,-2.4081116,12.362358,-0.056604385,12.513298,1.02420845e-05,3,1,0,1
36148000,36068000,36068000,0,-2.5166016,12.362295,0.056676388,12.516186,1.0265789e-05,3,1,0,1
36212000,36128000,36132000,0,-2.5254822,12.36237,0.04030156,12.498572,5.1980846e-06,3,1,0,1
36268000,36187000,36188000,0,-2.4734497,12.362306,-0.008298397,12.501335,2.2033933e-07,3,1,0,1
36332000,36248000,36252000,0,-2.3796387,12.362378,-0.09748578,12.504903,3.0399206e-05,3,1,0,1
36388000,36308000,36308000,0,-2.4790955,12.362315,0.007119894,12.507729,1.6211702e-07,3,1,0,1
36452000,36368000,36372000,0,-2.563568,12.362388,0.096218586,12.511385,2.9598692e-05,3,1,0,1
36508000,36428000,36428000,0,-2.5439148,12.362325,0.07964635,12.514264,2.0276193e-05,3,1,0,1
36572000,36488000,36492000,0,-2.477478,12.362398,0.017171621,12.517999,9.4220997e-07,3,1,0,1
36628000,36548000,36548000,0,-2.5383606,12.362335,0.05540204,12.499467,9.822455e-06,3,1,0,1
36692000,36608000,36612000,0,-2.4721375,12.362408,-0.006905079,12.503011,1.5253963e-07,3,1,0,1
36748000,36668000,36668000,0,-2.495697,12.362343,0.020688772,12.505821,1.3690434e-06,3,1,0,1
36812000,36728000,36732000,0,-2.4814148,12.362415,0.010669947,12.509456,3.6403745e-07,3,1,0,1
36868000,36788000,36788000,0,-2.500122,12.362351,0.033251286,12.512323,3.534589e-06,3,1,0,1
36932000,36848000,36852000,0,-2.5326538,12.362425,0.06999874,12.51604,1.5659341e-05,3,1,0,1
36988000,36908000,36908000,0,-2.5132446,12.362361,0.053788424,12.518953,9.244205e-06,3,1,0,1
37052000,36968000,36972000,0,-2.503357,12.362434,0.02212882,12.501106,1.5668523e-06,3,1,0,1
37108000,37028000,37028000,0,-2.4327393,12.36237,-0.045178413,12.5039,6.529448e-06,3,1,0,1
37172000,37088000,37092000,0,-2.5552063,12.362441,0.08179498,12.50751,2.1396485e-05,3,1,0,1
37228000,37148000,37148000,0,-2.4558716,12.362376,-0.015013218,12.510363,7.20672e-07,3,1,0,1
37292000,37208000,37212000,0,-2.5217285,12.362449,0.055034876,12.514057,9.681392e-06,3,1,0,1
37348000,37268000,37268000,0,-2.460205,12.362385,-0.0036182404,12.51696,4.1836557e-08,3,1,0,1
37404000,37324000,37324000,0,-2.6762085,12.362322,0.21600413,12.519882,0.0001490678,3,1,0,1
37460000,37376000,37380000,0,-2.4582825,12.362261,-0.025552273,12.501208,2.0891378e-06,3,1,0,1
37516000,37436000,37436000,0,-2.4960938,12.362199,0.01574421,12.50401,7.92962e-07,3,1,0,1
37580000,37494666,37500000,0,-2.3691711,12.362274,-0.107658625,12.50763,3.7066588e-05,3,1,0,1
37636000,37556000,37556000,0,-2.6001892,12.362212,0.12792301,12.510489,5.2321844e-05,3,1,0,1
37700000,37616000,37620000,0,-2.434723,12.3622875,-0.035246372,12.514193,3.970873e-06,3,1,0,1
37756000,37676000,37676000,0,-2.5570984,12.3622265,0.09092307,12.517101,2.6418275e-05,3,1,0,1
37820000,37736000,37740000,0,-2.457672,12.362302,-0.029123306,12.499342,2.7142773e-06,3,1,0,1
37876000,37796000,37796000,0,-2.495514,12.362239,0.0120995045,12.502124,4.6839406e-07,3,1,0,1
37940000,37856000,37860000,0,-2.4812927,12.362313,0.001175642,12.505717,4.420807e-09,3,1,0,1
37996000,37916000,37916000,0,-2.4155579,12.36225,-0.061605453,12.50856,1.2136432e-05,3,1,0,1
38060000,37976000,37980000,0,-2.50531,12.362325,0.032324314,12.512239,3.3402853e-06,3,1,0,1
38116000,38036000,38036000,0,-2.56604,12.362263,0.09580302,12.515135,2.9334786e-05,3,1,0,1
38180000,38096000,38100000,0,-2.485382,12.362338,0.017655611,12.518891,9.960006e-07,3,1,0,1
38236000,38156000,38156000,0,-2.4664307,12.362276,-0.022590399,12.500214,1.6330157e-06,3,1,0,1
38300000,38216000,38220000,0,-2.5183105,12.3623495,0.032854557,12.503778,3.4531065e-06,3,1,0,1
38356000,38276000,38276000,0,-2.508606,12.362286,0.025640726,12.506602,2.1027192e-06,3,1,0,1
38420000,38334666,38340000,0,-2.5177612,12.362359,0.037829638,12.510255,4.5757065e-06,3,1,0,1
38476000,38396000,38396000,0,-2.5221252,12.362297,0.044749975,12.513135,6.4014666e-06,3,1,0,1
38540000,38454666,38460000,0,-2.4465942,12.3623705,-0.027719498,12.516868,2.4554724e-06,3,1,0,1
38596000,38516000,38516000,0,-2.3200684,12.3623085,-0.15062213,12.519793,7.248371e-05,3,1,0,1
38660000,38576000,38580000,0,-2.4294128,12.362382,-0.05889845,12.501816,1.1099275e-05,3,1,0,1
38716000,38636000,38636000,0,-2.4346313,12.362318,-0.049929142,12.504621,7.974394e-06,3,1,0,1
38780000,38696000,38700000,0,-2.571228,12.362391,0.09078097,12.508246,2.6354406e-05,3,1,0,1
38836000,38756000,38756000,0,-2.546936,12.362328,0.06857467,12.511108,1.5034591e-05,3,1,0,1
38900000,38816000,38820000,0,-2.5087585,12.362401,0.033293962,12.514815,3.542962e-06,3,1,0,1
38956000,38874000,38876000,0,-2.4380188,12.362337,-0.034551144,12.517725,3.8146916e-06,3,1,0,1
39020000,38934666,38940000,0,-2.3960876,12.362411,-0.09745836,12.499837,3.0394422e-05,3,1,0,1
39076000,38996000,38996000,0,-2.4767761,12.362347,-0.012670994,12.502621,5.136654e-07,3,1,0,1
39140000,39056000,39060000,0,-2.542633,12.362418,0.05676961,12.506215,1.0307798e-05,3,1,0,1
39196000,39116000,39116000,0,-2.46698,12.362354,-0.01655364,12.509059,8.7623863e-07,3,1,0,1
39260000,39176000,39180000,0,-2.4577637,12.362427,-0.022095203,12.512739,1.5606431e-06,3,1,0,1
39316000,39236000,39236000,0,-2.4016418,12.362363,-0.07478833,12.515633,1.7876187e-05,3,1,0,1
39380000,39296000,39300000,0,-2.4962158,12.362436,0.024431467,12.519389,1.9071108e-06,3,1,0,1
39436000,39356000,39356000,0,-2.5147705,12.362372,0.020760536,12.500608,1.3791325e-06,3,1,0,1
39500000,39416000,39420000,0,-2.519287,12.362444,0.028432608,12.504172,2.586059e-06,3,1,0,1
39556000,39476000,39476000,0,-2.5049438,12.362379,0.016741276,12.506995,8.963635e-07,3,1,0,1
39620000,39536000,39540000,0,-2.5939941,12.362451,0.10903978,12.510647,3.801458e-05,3,1,0,1
39676000,39596000,39596000,0,-2.475647,12.362387,-0.0074141026,12.513524,1.7571043e-07,3,1,0,1
39740000,39656000,39660000,0,-2.4569397,12.362459,-0.022154093,12.517255,1.5684074e-06,3,1,0,1
39796000,39716000,39716000,0,-2.4289856,12.362395,-0.04631257,12.520176,6.8524732e-06,3,1,0,1
39860000,39776000,39780000,0,-2.5749512,12.362468,0.07836175,12.502123,1.9646468e-05,3,1,0,1
39916000,39836000,39836000,0,-2.4380798,12.362402,-0.056052923,12.504924,1.00502175e-05,3,1,0,1
39980000,39894666,39900000,0,-2.5278015,12.3624735,0.0381999,12.508547,4.666353e-06,3,1,0,1
40036000,39954000,39956000,0,-2.499298,12.362409,0.012766838,12.511405,5.210995e-07,3,1,0,1
40100000,40014666,40020000,0,-2.5367432,12.36248,0.054264545,12.515109,9.411475e-06,3,1,0,1
40156000,40076000,40076000,0,-2.559723,12.362415,0.08038759,12.518015,2.064917e-05,3,1,0,1
40220000,40136000,40140000,0,-2.5543213,12.362488,0.05135131,12.50007,8.438215e-06,3,1,0,1
40276000,40196000,40196000,0,-2.4082947,12.362422,-0.09168458,12.50285,2.689327e-05,3,1,0,1
40340000,40256000,40260000,0,-2.4326172,12.362493,-0.062190533,12.50644,1.2370146e-05,3,1,0,1
40396000,40316000,40316000,0,-2.4425354,12.362427,-0.047878265,12.509279,7.330009e-06,3,1,0,1
40460000,40376000,40380000,0,-2.47583,12.362498,-0.009711027,12.512956,3.0146052e-07,3,1,0,1
40516000,40436000,40436000,0,-2.3773193,12.362433,-0.10417795,12.515845,3.4685778e-05,3,1,0,1
40580000,40496000,40500000,0,-2.5003357,12.362505,0.024786472,12.519596,1.9629044e-06,3,1,0,1
40636000,40556000,40556000,0,-2.4860535,12.36244,-0.013453245,12.500776,5.7913144e-07,3,1,0,1
40700000,40614666,40620000,0,-2.5284119,12.362511,0.033366203,12.504336,3.5613357e-06,3,1,0,1
40756000,40676000,40676000,0,-2.3966675,12.362444,-0.09501314,12.507154,2.8871465e-05,3,1,0,1
40820000,40734666,40740000,0,-2.5571594,12.362515,0.07090163,12.510802,1.6072643e-05,3,1,0,1
40876000,40796000,40796000,0,-2.612854,12.36245,0.12965512,12.513674,5.373466e-05,3,1,0,1
40940000,40854666,40860000,0,-2.5412598,12.36252,0.061145306,12.517399,1.1947365e-05,3,1,0,1
40996000,40916000,40916000,0,-2.4984436,12.362455,0.021824837,12.520316,1.5217619e-06,3,1,0,1
41060000,40974666,40980000,0,-2.484192,12.362527,-0.01676178,12.502237,8.9890233e-07,3,1,0,1
41116000,41036000,41036000,0,-2.54068,12.362461,0.043976784,12.505035,6.1861724e-06,3,1,0,1
41180000,41096000,41100000,0,-2.5966187,12.362531,0.104133606,12.508653,3.4676184e-05,3,1,0,1
41236000,41156000,41156000,0,-2.431366,12.362465,-0.058036327,12.511507,1.0768375e-05,3,1,0,1
41300000,41214666,41220000,0,-2.6102905,12.362535,0.12676549,12.515205,5.135989e-05,3,1,0,1
41356000,41276000,41276000,0,-2.552826,12.36247,0.072457075,12.518106,1.6775788e-05,3,1,0,1
41420000,41334666,41340000,0,-2.5239868,12.362541,0.016767979,12.500149,8.997177e-07,3,1,0,1
41476000,41396000,41396000,0,-2.519165,12.362474,0.016158342,12.502924,8.3529915e-07,3,1,0,1
41540000,41456000,41460000,0,-2.6504517,12.362544,0.15234399,12.506511,7.4229145e-05,3,1,0,1
