timestamp,timestamp_sample,lat,lon,alt,alt_ellipsoid,delta_alt,eph,epv,terrain_alt,lat_lon_reset_counter,alt_reset_counter,terrain_alt_valid,dead_reckoning
8604000,8604000,47.39775080049083,8.545607395198841,488.0997,488.10202,0.041857377,1.7320508,1.4142135,nan,2,2,0,0
8612000,8612000,47.397750800633,8.545607395345273,488.09982,488.10214,0.041857377,1.7320541,1.4142181,nan,2,2,0,0
9604000,9604000,47.397750779021,8.545607421698705,488.1032,488.1052,0.041857377,1.3003929,1.1176189,nan,2,2,0,0
10604000,10604000,47.39775074382709,8.54560752708952,488.09857,488.09982,0.041857377,1.1679131,1.069526,nan,2,2,0,0
11604000,11604000,47.39775075179493,8.545607514572263,488.0971,488.09882,0.041857377,1.1439716,1.0641232,nan,2,2,0,0
12604000,12604000,47.39775071761181,8.545607472147687,488.09042,488.09335,0.041857377,1.1163037,1.0545177,nan,2,2,0,0
13604000,13604000,47.397750781803246,8.545607318880325,488.0813,488.08597,0.041857377,1.1188267,1.056035,nan,2,2,0,0
14604000,14604000,47.39775078349559,8.54560734144183,488.077,488.08453,0.041857377,1.1056038,1.0506243,nan,2,2,0,0
15604000,15604000,47.39775076227178,8.545607422339359,488.07898,488.0888,0.041857377,1.1144234,1.0538228,nan,2,2,0,0
16604000,16604000,47.397750784530984,8.545607447679572,488.07306,488.0847,0.041857377,1.1035653,1.0497262,nan,2,2,0,0
17604000,17604000,47.39775080316028,8.5456074332448,488.06277,488.07635,0.041857377,1.1134642,1.0532596,nan,2,2,0,0
18604000,18604000,47.39775078814816,8.545607388856883,488.05594,488.0729,0.041857377,1.1031376,1.0497056,nan,2,2,0,0
19604000,19604000,47.3977508820974,8.545607385001407,488.04733,488.06696,0.041857377,1.112882,1.0535061,nan,2,2,0,0
20604000,20604000,47.39775096603972,8.545607391311993,488.0458,488.06982,0.041857377,1.102846,1.0502781,nan,2,2,0,0
21604000,21604000,47.397750884120114,8.545607298738057,488.04227,488.06958,0.041857377,1.1122569,1.0540576,nan,2,2,0,0
22604000,22604000,47.397750847024966,8.545607259462834,488.0341,488.06522,0.041857377,1.1024858,1.0502605,nan,2,2,0,0
23604000,23604000,47.397750856477806,8.54560739975914,488.023,488.05817,0.041857377,1.1116533,1.0539763,nan,2,2,0,0
24604000,24604000,47.39775087896914,8.545607416107853,488.02484,488.06543,0.041857377,1.1021248,1.0501183,nan,2,2,0,0
25604000,25604000,47.3977508495112,8.545607384583446,488.02377,488.06705,0.041857377,1.1111653,1.054193,nan,2,2,0,0
26604000,26604000,47.39775018707863,8.545606463224267,488.2741,488.3182,0.041857377,1.1018134,1.0502914,nan,2,2,0,0
27604000,27604000,47.39774950882943,8.54560587585374,488.93512,488.97693,0.041857377,1.1109147,1.0539699,nan,2,2,0,0
28604000,28604000,47.39775000849922,8.545606252119766,489.60706,489.64746,0.041857377,1.1017053,1.0501171,nan,2,2,0,0
29604000,29604000,47.39775069178917,8.545606769982777,490.04047,490.08398,0.041857377,1.1105121,1.0537634,nan,2,2,0,0
30604000,30604000,47.397750985652834,8.54560728390923,490.24002,490.29095,0.041857377,1.1015735,1.0500003,nan,2,2,0,0
31604000,31604000,47.397750835361485,8.545607107251207,490.40155,490.45825,0.041857377,1.1128622,1.053685,nan,2,2,0,0
32604000,32604000,47.39775085541241,8.545607164231503,490.4801,490.54556,0.041857377,1.1027577,1.0503004,nan,2,2,0,0
33604000,33604000,47.39775069842557,8.545606985925785,490.53635,490.60693,0.041857377,1.1135678,1.0540031,nan,2,2,0,0
34604000,34604000,47.39775059632361,8.545606972697206,490.57425,490.6521,0.041857377,1.103277,1.0501441,nan,2,2,0,0
35604000,35604000,47.3977504998614,8.545607163428608,490.57474,490.65552,0.041857377,1.1129811,1.0542424,nan,2,2,0,0
36604000,36604000,47.39775060470056,8.545607472580208,490.57727,490.66174,0.041857377,1.1029356,1.0503211,nan,2,2,0,0
37604000,37604000,47.39775064207885,8.545607614159492,490.57373,490.65915,0.041857377,1.1117674,1.0539613,nan,2,2,0,0
38604000,38604000,47.3977507061176,8.545607909116873,490.57483,490.66098,0.041857377,1.1021364,1.0500982,nan,2,2,0,0
39604000,39604000,47.39775078401268,8.545607960519112,490.5822,490.6698,0.041857377,1.1106445,1.0541826,nan,2,2,0,0
40604000,40604000,47.397750835660425,8.545607849790343,490.5852,490.67563,0.041857377,1.1014491,1.0502657,nan,2,2,0,0
41604000,41604000,47.3977508021928,8.54560780978159,490.60367,490.69693,0.041857377,1.1101067,1.0538839,nan,2,2,0,0
42604000,42604000,47.39775078090909,8.545607760090439,490.61673,490.71738,0.041857377,1.1011802,1.0500138,nan,2,2,0,0
43604000,43604000,47.39775078379199,8.545607768888093,490.63373,490.7401,0.041857377,1.1100936,1.0540943,nan,2,2,0,0
44604000,44604000,47.39775097905339,8.545607513056849,490.6368,490.75177,0.041857377,1.1012161,1.0501958,nan,2,2,0,0
45604000,45604000,47.397751110864334,8.545607651546854,490.08047,490.20648,0.041857377,1.1101899,1.0538082,nan,2,2,0,0
46604000,46604000,47.397751173507075,8.545607724578959,489.3995,489.54086,0.041857377,1.1012622,1.0499978,nan,2,2,0,0
47604000,47604000,47.3977511917828,8.54560774203816,488.71313,488.86395,0.041857377,1.1102921,1.0536728,nan,2,2,0,0
48604000,48604000,47.39775107063767,8.545607774523267,488.0096,488.1727,0.041857377,1.1013368,1.050306,nan,2,2,0,0
49604000,49604000,47.397750979571065,8.545607798633593,487.58963,487.7887,0.041857377,1.1104472,1.0534276,nan,2,2,0,0
50604000,50604000,47.397750934664614,8.545607810044451,487.1702,487.48178,0.041857377,1.1015217,1.0484947,nan,2,2,0,0
51604000,51604000,47.39775114931231,8.545607885314302,486.6935,487.0851,0.041857377,1.1125829,1.0500492,nan,2,2,0,0
52604000,52604000,47.3977512176587,8.545608068050663,486.6444,487.1559,0.041857377,1.1028912,1.0458791,nan,2,2,0,0
53604000,53604000,47.39775118091374,8.5456079585668,486.7248,487.30948,0.041857377,1.1133004,1.0477517,nan,2,2,0,0
54604000,54604000,47.39775120984106,8.545607891028071,486.79684,487.47028,0.041857377,1.103161,1.0444663,nan,2,2,0,0
55604000,55604000,47.397751174723815,8.545607780252281,486.97562,487.69232,0.041857377,1.1134363,1.0474669,nan,2,2,0,0
56604000,56604000,47.39775108124019,8.54560778478271,487.1323,487.88684,0.041857377,1.103214,1.0457124,nan,2,2,0,0
57604000,57604000,47.39775123300649,8.545607773654215,487.345,488.1071,0.041857377,1.1130918,1.0503268,nan,2,2,0,0
58604000,58604000,47.397751172419554,8.545607798223491,487.51736,488.26733,0.041857377,1.1030262,1.048311,nan,2,2,0,0
