timestamp,data_rate,rate_multiplier,tx_rate_avg,tx_error_rate_avg,tx_message_count,tx_buffer_overruns,rx_rate_avg,rx_message_count,rx_message_lost_count,rx_buffer_overruns,rx_parse_errors,rx_packet_drop_count,rx_message_lost_rate,type,mode,flow_control,forwarding,mavlink_v2,ftp,streams,heartbeat_type_antenna_tracker,heartbeat_type_gcs,heartbeat_type_onboard_controller,heartbeat_type_gimbal,heartbeat_type_adsb,heartbeat_type_camera,heartbeat_type_parachute,heartbeat_type_open_drone_id,heartbeat_component_telemetry_radio,heartbeat_component_log,heartbeat_component_osd,heartbeat_component_obstacle_avoidance,heartbeat_component_vio,heartbeat_component_pairing_manager,heartbeat_component_udp_bridge,heartbeat_component_uart_bridge,avoidance_system_healthy,open_drone_id_system_healthy,parachute_system_healthy
3216000,400000.0,1.0,0.0,0.0,2,0,0.0,0,0,0,0,0,0.0,0,10,0,0,1,1,5,0,0,0,0,0,0,0,0,0,0,0,0,0,0,0,0,0,0,0
4476000,400000.0,1.0,1246.016,0.0,37,0,0.0,0,0,0,0,0,0.0,0,10,0,0,1,1,5,0,0,0,0,0,0,0,0,0,0,0,0,0,0,0,0,0,0,0
5732000,400000.0,1.0,1653.3865,0.0,83,0,0.0,0,0,0,0,0,0.0,0,10,0,0,1,1,5,0,0,0,0,0,0,0,0,0,0,0,0,0,0,0,0,0,0,0
6988000,400000.0,1.0,1445.2191,0.0,122,0,0.0,0,0,0,0,0,0.0,0,10,0,0,1,1,5,0,0,0,0,0,0,0,0,0,0,0,0,0,0,0,0,0,0,0
7988000,400000.0,1.0,1458.1674,0.0,152,0,0.0,0,0,0,0,0,0.0,0,10,0,0,1,1,5,0,0,0,0,0,0,0,0,0,0,0,0,0,0,0,0,0,0,0
8244000,400000.0,1.0,1445.2191,0.0,162,0,0.0,0,0,0,0,0,0.0,0,10,0,0,1,1,5,0,0,0,0,0,0,0,0,0,0,0,0,0,0,0,0,0,0,0
9496000,400000.0,1.0,1666.3347,0.0,208,0,0.0,0,0,0,0,0,0.0,0,10,0,0,1,1,5,0,0,0,0,0,0,0,0,0,0,0,0,0,0,0,0,0,0,0
10748000,400000.0,1.0,1445.2191,0.0,250,0,0.0,0,0,0,0,0,0.0,0,10,0,0,1,1,5,0,0,0,0,0,0,0,0,0,0,0,0,0,0,0,0,0,0,0
12000000,400000.0,1.0,1593.6255,0.0,288,0,0.0,0,0,0,0,0,0.0,0,10,0,0,1,1,5,0,0,0,0,0,0,0,0,0,0,0,0,0,0,0,0,0,0,0
13000000,400000.0,1.0,1522.9084,0.0,320,0,0.0,0,0,0,0,0,0.0,0,10,0,0,1,1,5,0,0,0,0,0,0,0,0,0,0,0,0,0,0,0,0,0,0,0
13256000,400000.0,1.0,1432.271,0.0,328,0,0.0,0,0,0,0,0,0.0,0,10,0,0,1,1,5,0,0,0,0,0,0,0,0,0,0,0,0,0,0,0,0,0,0,0
14508000,400000.0,1.0,1445.2191,0.0,366,0,0.0,0,0,0,0,0,0.0,0,10,0,0,1,1,5,0,0,0,0,0,0,0,0,0,0,0,0,0,0,0,0,0,0,0
15760000,400000.0,1.0,1445.2191,0.0,405,0,0.0,0,0,0,0,0,0.0,0,10,0,0,1,1,5,0,0,0,0,0,0,0,0,0,0,0,0,0,0,0,0,0,0,0
17012000,400000.0,1.0,1445.2191,0.0,443,0,0.0,0,0,0,0,0,0.0,0,10,0,0,1,1,5,0,0,0,0,0,0,0,0,0,0,0,0,0,0,0,0,0,0,0
18012000,400000.0,1.0,1432.271,0.0,474,0,0.0,0,0,0,0,0,0.0,0,10,0,0,1,1,5,0,0,0,0,0,0,0,0,0,0,0,0,0,0,0,0,0,0,0
18268000,400000.0,1.0,1458.1674,0.0,483,0,0.0,0,0,0,0,0,0.0,0,10,0,0,1,1,5,0,0,0,0,0,0,0,0,0,0,0,0,0,0,0,0,0,0,0
19528000,400000.0,1.0,1445.2191,0.0,521,0,0.0,0,0,0,0,0,0.0,0,10,0,0,1,1,5,0,0,0,0,0,0,0,0,0,0,0,0,0,0,0,0,0,0,0
20784000,400000.0,1.0,1432.271,0.0,559,0,0.0,0,0,0,0,0,0.0,0,10,0,0,1,1,5,0,0,0,0,0,0,0,0,0,0,0,0,0,0,0,0,0,0,0
22044000,400000.0,1.0,1512.9482,0.0,601,0,0.0,0,0,0,0,0,0.0,0,10,0,0,1,1,5,0,0,0,0,0,0,0,0,0,0,0,0,0,0,0,0,0,0,0
23044000,400000.0,1.0,1445.2191,0.0,633,0,0.0,0,0,0,0,0,0.0,0,10,0,0,1,1,5,0,0,0,0,0,0,0,0,0,0,0,0,0,0,0,0,0,0,0
23300000,400000.0,1.0,1457.1714,0.0,642,0,0.0,0,0,0,0,0,0.0,0,10,0,0,1,1,5,0,0,0,0,0,0,0,0,0,0,0,0,0,0,0,0,0,0,0
24560000,400000.0,1.0,1458.1674,0.0,681,0,0.0,0,0,0,0,0,0.0,0,10,0,0,1,1,5,0,0,0,0,0,0,0,0,0,0,0,0,0,0,0,0,0,0,0
25816000,400000.0,1.0,1509.9602,0.0,719,0,0.0,0,0,0,0,0,0.0,0,10,0,0,1,1,5,0,0,0,0,0,0,0,0,0,0,0,0,0,0,0,0,0,0,0
27072000,400000.0,1.0,1432.271,0.0,757,0,0.0,0,0,0,0,0,0.0,0,10,0,0,1,1,5,0,0,0,0,0,0,0,0,0,0,0,0,0,0,0,0,0,0,0
28072000,400000.0,1.0,1458.1674,0.0,788,0,0.0,0,0,0,0,0,0.0,0,10,0,0,1,1,5,0,0,0,0,0,0,0,0,0,0,0,0,0,0,0,0,0,0,0
28332000,400000.0,1.0,1445.2191,0.0,797,0,0.0,0,0,0,0,0,0.0,0,10,0,0,1,1,5,0,0,0,0,0,0,0,0,0,0,0,0,0,0,0,0,0,0,0
29588000,400000.0,1.0,1432.271,0.0,835,0,0.0,0,0,0,0,0,0.0,0,10,0,0,1,1,5,0,0,0,0,0,0,0,0,0,0,0,0,0,0,0,0,0,0,0
30848000,400000.0,1.0,1458.1674,0.0,875,0,0.0,0,0,0,0,0,0.0,0,10,0,0,1,1,5,0,0,0,0,0,0,0,0,0,0,0,0,0,0,0,0,0,0,0
32104000,400000.0,1.0,1445.2191,0.0,913,0,0.0,0,0,0,0,0,0.0,0,10,0,0,1,1,5,0,0,0,0,0,0,0,0,0,0,0,0,0,0,0,0,0,0,0
33104000,400000.0,1.0,1432.271,0.0,944,0,0.0,0,0,0,0,0,0.0,0,10,0,0,1,1,5,0,0,0,0,0,0,0,0,0,0,0,0,0,0,0,0,0,0,0
33364000,400000.0,1.0,1458.1674,0.0,953,0,0.0,0,0,0,0,0,0.0,0,10,0,0,1,1,5,0,0,0,0,0,0,0,0,0,0,0,0,0,0,0,0,0,0,0
34616000,400000.0,1.0,1432.271,0.0,991,0,0.0,0,0,0,0,0,0.0,0,10,0,0,1,1,5,0,0,0,0,0,0,0,0,0,0,0,0,0,0,0,0,0,0,0
35868000,400000.0,1.0,1445.2191,0.0,1029,0,0.0,0,0,0,0,0,0.0,0,10,0,0,1,1,5,0,0,0,0,0,0,0,0,0,0,0,0,0,0,0,0,0,0,0
37124000,400000.0,1.0,1458.1674,0.0,1068,0,0.0,0,0,0,0,0,0.0,0,10,0,0,1,1,5,0,0,0,0,0,0,0,0,0,0,0,0,0,0,0,0,0,0,0
38124000,400000.0,1.0,1497.012,0.0,1099,0,0.0,0,0,0,0,0,0.0,0,10,0,0,1,1,5,0,0,0,0,0,0,0,0,0,0,0,0,0,0,0,0,0,0,0
38380000,400000.0,1.0,1445.2191,0.0,1107,0,0.0,0,0,0,0,0,0.0,0,10,0,0,1,1,5,0,0,0,0,0,0,0,0,0,0,0,0,0,0,0,0,0,0,0
39640000,400000.0,1.0,1458.1674,0.0,1146,0,0.0,0,0,0,0,0,0.0,0,10,0,0,1,1,5,0,0,0,0,0,0,0,0,0,0,0,0,0,0,0,0,0,0,0
40896000,400000.0,1.0,1432.271,0.0,1185,0,0.0,0,0,0,0,0,0.0,0,10,0,0,1,1,5,0,0,0,0,0,0,0,0,0,0,0,0,0,0,0,0,0,0,0
42156000,400000.0,1.0,1445.2191,0.0,1224,0,0.0,0,0,0,0,0,0.0,0,10,0,0,1,1,5,0,0,0,0,0,0,0,0,0,0,0,0,0,0,0,0,0,0,0
43156000,400000.0,1.0,1458.1674,0.0,1255,0,0.0,0,0,0,0,0,0.0,0,10,0,0,1,1,5,0,0,0,0,0,0,0,0,0,0,0,0,0,0,0,0,0,0,0
43412000,400000.0,1.0,1432.271,0.0,1264,0,0.0,0,0,0,0,0,0.0,0,10,0,0,1,1,5,0,0,0,0,0,0,0,0,0,0,0,0,0,0,0,0,0,0,0
44672000,400000.0,1.0,1445.2191,0.0,1303,0,0.0,0,0,0,0,0,0.0,0,10,0,0,1,1,5,0,0,0,0,0,0,0,0,0,0,0,0,0,0,0,0,0,0,0
45928000,400000.0,1.0,1470.1195,0.0,1342,0,0.0,0,0,0,0,0,0.0,0,10,0,0,1,1,5,0,0,0,0,0,0,0,0,0,0,0,0,0,0,0,0,0,0,0
46928000,400000.0,1.0,1445.2191,0.0,1372,0,0.0,0,0,0,0,0,0.0,0,10,0,0,1,1,5,0,0,0,0,0,0,0,0,0,0,0,0,0,0,0,0,0,0,0
47184000,400000.0,1.0,1445.2191,0.0,1380,0,0.0,0,0,0,0,0,0.0,0,10,0,0,1,1,5,0,0,0,0,0,0,0,0,0,0,0,0,0,0,0,0,0,0,0
48444000,400000.0,1.0,1458.1674,0.0,1421,0,0.0,0,0,0,0,0,0.0,0,10,0,0,1,1,5,0,0,0,0,0,0,0,0,0,0,0,0,0,0,0,0,0,0,0
49700000,400000.0,1.0,1445.2191,0.0,1459,0,0.0,0,0,0,0,0,0.0,0,10,0,0,1,1,5,0,0,0,0,0,0,0,0,0,0,0,0,0,0,0,0,0,0,0
50956000,400000.0,1.0,1509.9602,0.0,1497,0,0.0,0,0,0,0,0,0.0,0,10,0,0,1,1,5,0,0,0,0,0,0,0,0,0,0,0,0,0,0,0,0,0,0,0
51956000,400000.0,1.0,1445.2191,0.0,1529,0,0.0,0,0,0,0,0,0.0,0,10,0,0,1,1,5,0,0,0,0,0,0,0,0,0,0,0,0,0,0,0,0,0,0,0
52216000,400000.0,1.0,1445.2191,0.0,1537,0,0.0,0,0,0,0,0,0.0,0,10,0,0,1,1,5,0,0,0,0,0,0,0,0,0,0,0,0,0,0,0,0,0,0,0
53472000,400000.0,1.0,1445.2191,0.0,1575,0,0.0,0,0,0,0,0,0.0,0,10,0,0,1,1,5,0,0,0,0,0,0,0,0,0,0,0,0,0,0,0,0,0,0,0
54728000,400000.0,1.0,1445.2191,0.0,1614,0,0.0,0,0,0,0,0,0.0,0,10,0,0,1,1,5,0,0,0,0,0,0,0,0,0,0,0,0,0,0,0,0,0,0,0
55988000,400000.0,1.0,1445.2191,0.0,1653,0,0.0,0,0,0,0,0,0.0,0,10,0,0,1,1,5,0,0,0,0,0,0,0,0,0,0,0,0,0,0,0,0,0,0,0
56988000,400000.0,1.0,1445.2191,0.0,1684,0,0.0,0,0,0,0,0,0.0,0,10,0,0,1,1,5,0,0,0,0,0,0,0,0,0,0,0,0,0,0,0,0,0,0,0
57244000,400000.0,1.0,1445.2191,0.0,1693,0,0.0,0,0,0,0,0,0.0,0,10,0,0,1,1,5,0,0,0,0,0,0,0,0,0,0,0,0,0,0,0,0,0,0,0
58504000,400000.0,1.0,1432.271,0.0,1732,0,0.0,0,0,0,0,0,0.0,0,10,0,0,1,1,5,0,0,0,0,0,0,0,0,0,0,0,0,0,0,0,0,0,0,0
