timestamp,position[0],position[1],position[2],velocity[0],velocity[1],velocity[2],acceleration[0],acceleration[1],acceleration[2],jerk[0],jerk[1],jerk[2],yaw,yawspeed
3196000,nan,nan,nan,0.0,0.0,0.0,0.0,0.0,0.3,nan,nan,nan,6.1049046e-05,0.0
3220000,nan,nan,nan,0.0,0.0,0.0,0.0,0.0,0.3,nan,nan,nan,3.4059107e-05,0.0
3396000,nan,nan,nan,0.0,0.0,0.0,0.0,0.0,0.3,nan,nan,nan,1.6276125,0.0
3596000,nan,nan,nan,0.0,0.0,0.0,0.0,0.0,0.3,nan,nan,nan,1.6333413,0.0
3796000,nan,nan,nan,0.0,0.0,0.0,0.0,0.0,0.3,nan,nan,nan,1.6326799,0.0
3996000,nan,nan,-0.01619225,0.0,0.0,0.0,0.0,0.0,nan,nan,nan,nan,1.630623,0.0
4196000,nan,nan,-0.061711967,0.0,0.0,0.0,0.0,0.0,nan,nan,nan,nan,1.6279598,0.0
4396000,nan,nan,-0.05834062,0.0,0.0,0.0,0.0,0.0,nan,nan,nan,nan,1.6271307,0.0
4596000,nan,nan,-0.05116377,0.0,0.0,0.0,0.0,0.0,nan,nan,nan,nan,1.6258843,0.0
4796000,nan,nan,-0.042339362,0.0,0.0,0.0,0.0,0.0,nan,nan,nan,nan,1.6238625,0.0
4996000,nan,nan,-0.03747366,0.0,0.0,0.0,0.0,0.0,nan,nan,nan,nan,1.6237088,0.0
5196000,nan,nan,-0.034947637,0.0,0.0,0.0,0.0,0.0,nan,nan,nan,nan,1.6242377,0.0
5396000,nan,nan,-0.03660692,0.0,0.0,0.0,0.0,0.0,nan,nan,nan,nan,1.6223668,0.0
5596000,nan,nan,-0.038196396,0.0,0.0,0.0,0.0,0.0,nan,nan,nan,nan,1.6201321,0.0
5796000,nan,nan,-0.03645169,0.0,0.0,0.0,0.0,0.0,nan,nan,nan,nan,1.6240578,0.0
5996000,nan,nan,-0.0367657,0.0,0.0,0.0,0.0,0.0,nan,nan,nan,nan,1.6248499,0.0
6196000,nan,nan,-0.036934767,0.0,0.0,0.0,0.0,0.0,nan,nan,nan,nan,1.623856,0.0
6396000,nan,nan,-0.035475083,0.0,0.0,0.0,0.0,0.0,nan,nan,nan,nan,1.6220089,0.0
6596000,nan,nan,-0.034233473,0.0,0.0,0.0,0.0,0.0,nan,nan,nan,nan,1.6216297,0.0
6796000,nan,nan,-0.03361883,0.0,0.0,0.0,0.0,0.0,nan,nan,nan,nan,1.6235093,0.0
6996000,nan,nan,-0.03288014,0.0,0.0,0.0,0.0,0.0,nan,nan,nan,nan,1.6258019,0.0
7196000,nan,nan,-0.031188019,0.0,0.0,0.0,0.0,0.0,nan,nan,nan,nan,1.6266569,0.0
7396000,nan,nan,-0.029753637,0.0,0.0,0.0,0.0,0.0,nan,nan,nan,nan,1.6265445,0.0
7596000,nan,nan,-0.029374985,0.0,0.0,0.0,0.0,0.0,nan,nan,nan,nan,1.6267271,0.0
7796000,nan,nan,-0.029594872,0.0,0.0,0.0,0.0,0.0,nan,nan,nan,nan,1.6263257,0.0
7996000,nan,nan,-0.030027293,0.0,0.0,0.0,0.0,0.0,nan,nan,nan,nan,1.6250447,0.0
8196000,nan,nan,-0.030950978,0.0,0.0,0.0,0.0,0.0,nan,nan,nan,nan,1.624475,0.0
8396000,nan,nan,-0.032473322,0.0,0.0,0.0,0.0,0.0,nan,nan,nan,nan,1.6246526,0.0
8596000,nan,nan,-0.033559468,0.0,0.0,0.0,0.0,0.0,nan,nan,nan,nan,1.6234431,0.0
8796000,0.00027623188,0.0074771172,-0.06644447,8.6237866e-05,7.8585785e-05,0.699488,0.005638361,0.0051162243,-0.063998565,0.0,0.0,-4.0,1.6231599,-0.0011565804
8996000,1.7564756e-05,0.008093243,-0.06736994,0.00010781126,0.00010023,0.69948804,0.007136345,0.006605506,-0.063997574,0.0,0.0,-4.0,1.6237031,0.0021143977
9196000,-6.491491e-05,0.0084570395,-0.07089655,0.00013552306,0.00012608834,0.699488,0.009120226,0.008436799,-0.06399858,0.0,0.0,-4.0,1.6238993,0.0012011823
9396000,-0.0005203764,0.008946215,-0.073018596,0.00016820579,0.00015854606,0.69948804,0.011556745,0.010825038,-0.06399746,0.0,0.0,-4.0,1.623678,-0.00044188945
9596000,-0.002102778,0.009111428,-0.06857092,0.00020460853,0.00019687647,0.69948804,0.014411807,0.013791919,-0.06399504,0.0,0.0,-4.0,1.6238234,0.00062542193
9796000,-0.0042346036,0.009802521,-0.063241765,0.00024740593,0.00024440343,0.6994881,0.017994285,0.017733932,-0.0639937,0.0,0.0,-4.0,1.6239727,0.0005552977
9996000,-0.0071814694,0.011158195,-0.063179985,0.00029526948,0.00030077554,0.6994881,0.022365332,0.02289784,-0.06399109,0.0,0.0,-4.0,1.6237203,-0.00076704985
10196000,-0.010440211,0.01264581,-0.06279129,0.00034966663,0.0003630271,0.6994881,0.027969956,0.029485464,-0.06399101,0.0,0.0,-4.0,1.6240793,0.0011675272
10396000,-0.007806363,0.014878117,-0.06325418,0.0004194614,0.00042820701,0.6994881,0.036802173,0.038120747,-0.06399202,0.0,0.0,-4.0,1.623982,0.00017651146
10596000,-0.0063794577,0.016953344,-0.06313058,0.0004766932,0.00048409257,0.6994881,0.047209382,0.049076557,-0.06399439,0.0,0.0,-4.0,1.623671,-0.0013616015
10796000,-0.0048431884,0.017142832,-0.06378301,0.0005106477,0.0005117036,0.69948804,0.06076789,0.06259,-0.06399694,0.0,0.0,-4.0,1.6232657,-0.001693931
10996000,-0.0042699925,0.018033458,-0.06343385,0.00051195524,0.00051195524,0.69948804,0.0639972,0.0639972,-0.0639972,4.0,4.0,-4.0,1.6233288,-0.00037263107
11196000,-0.0033906593,0.017196352,-0.0638795,0.0005119725,0.0005119725,0.69948804,0.06399828,0.06399828,-0.06399828,4.0,4.0,-4.0,1.6232334,-0.0007453768
11396000,-0.003035469,0.017145446,-0.062360454,0.00051198184,0.00051198184,0.699488,0.06399886,0.06399886,-0.06399886,4.0,4.0,-4.0,1.6230826,-0.00079944666
11596000,-0.005123715,0.016219217,-0.06187429,0.00051191734,0.00051191734,0.69948804,0.06399483,0.06399483,-0.06399483,4.0,4.0,-4.0,1.6237695,0.0024647454
11796000,-0.0070257913,0.015877327,-0.05990403,0.00051192637,0.00051192637,0.69948804,0.0639954,0.0639954,-0.0639954,4.0,4.0,-4.0,1.6237658,0.00047665508
11996000,-0.00829663,0.014768689,-0.05978013,0.00051193807,0.00051193807,0.69948804,0.06399613,0.06399613,-0.06399613,4.0,4.0,-4.0,1.623508,-0.00091728463
12196000,-0.009457474,0.0142353205,-0.05797858,0.0005119576,0.0005119576,0.69948804,0.06399735,0.06399735,-0.06399735,4.0,4.0,-4.0,1.623697,0.00030562776
12396000,-0.008975888,0.013376363,-0.057045016,0.0005119739,0.0005119739,0.69948804,0.06399837,0.06399837,-0.06399837,4.0,4.0,-4.0,1.6236115,-9.935302e-05
12596000,-0.009285464,0.013078097,-0.05526325,0.0005119612,0.0005119612,0.69948804,0.063997574,0.063997574,-0.063997574,4.0,4.0,-4.0,1.6230468,-0.0022364964
12796000,-0.0058893417,0.010950689,-0.052408196,0.00051186857,0.00051186857,0.6994881,0.063991785,0.063991785,-0.063991785,4.0,4.0,-4.0,1.6224413,-0.0029522022
12996000,-0.0040431563,0.009388964,-0.048552956,0.00051193056,0.00051193056,0.69948804,0.06399566,0.06399566,-0.06399566,4.0,4.0,-4.0,1.6221788,-0.0021630542
13196000,-0.0026058503,0.005178106,-0.04742174,0.0005118484,0.0005118484,0.69948816,0.063990526,0.063990526,-0.063990526,4.0,4.0,-4.0,1.6226344,0.00063052325
13396000,-0.0023925267,0.0020979291,-0.04390981,0.0005119003,0.0005119003,0.6994881,0.06399377,0.06399377,-0.06399377,4.0,4.0,-4.0,1.6223443,-0.0006916051
13596000,-0.0020201926,0.0014632287,-0.045729954,0.0005119863,0.0005119863,0.699488,0.063999146,0.063999146,-0.063999146,4.0,4.0,-4.0,1.6226497,0.0010517644
13796000,-0.0022462083,0.0011663587,-0.045517027,0.0005119704,0.0005119704,0.69948804,0.06399815,0.06399815,-0.06399815,4.0,4.0,-4.0,1.6231395,0.0024589463
13996000,-0.003582081,0.0018690878,-0.047343623,0.0005119383,0.0005119383,0.69948804,0.06399614,0.06399614,-0.06399614,4.0,4.0,-4.0,1.6228149,-0.00061228767
14196000,-0.0049508074,0.002256792,-0.045939032,0.0005119457,0.0005119457,0.69948804,0.063996606,0.063996606,-0.063996606,4.0,4.0,-4.0,1.6216016,-0.005169168
14396000,-0.0030269292,0.002575552,-0.045272943,0.0005119321,0.0005119321,0.69948804,0.063995756,0.063995756,-0.063995756,4.0,4.0,-4.0,1.6203079,-0.0070551974
14596000,-0.0019305409,0.0028620756,-0.04182448,0.0005119697,0.0005119697,0.69948804,0.0639981,0.0639981,-0.0639981,4.0,4.0,-4.0,1.6201923,-0.0029609348
14796000,-0.001034323,0.0073665804,-0.04149283,0.0005118334,0.0005118334,0.69948816,0.06398959,0.06398959,-0.06398959,4.0,4.0,-4.0,1.6203327,-0.0006799231
14996000,-0.00087393966,0.010908181,-0.039503623,0.00051187834,0.00051187834,0.6994881,0.063992396,0.063992396,-0.063992396,4.0,4.0,-4.0,1.6193236,-0.004656462
15196000,-0.0025183798,0.009974582,-0.041977067,0.00051192555,0.00051192555,0.69948804,0.06399535,0.06399535,-0.06399535,4.0,4.0,-4.0,1.6191417,-0.0024584448
15396000,-0.0039994684,0.009608834,-0.04157074,0.0005119389,0.0005119389,0.69948804,0.06399618,0.06399618,-0.06399618,4.0,4.0,-4.0,1.6189692,-0.0015214703
15596000,-0.0041790553,0.00923798,-0.04353884,0.00051199005,0.00051199005,0.699488,0.06399938,0.06399938,-0.06399938,4.0,4.0,-4.0,1.6188844,-0.0007952932
15796000,-0.004414752,0.009105705,-0.04172181,0.0005119854,0.0005119854,0.699488,0.06399909,0.06399909,-0.06399909,4.0,4.0,-4.0,1.6189635,-0.0002833176
15996000,-0.0037024913,0.008421958,-0.04208499,0.000511973,0.000511973,0.69948804,0.06399831,0.06399831,-0.06399831,4.0,4.0,-4.0,1.6188301,-0.00066338875
16196000,-0.003330287,0.008457946,-0.040206987,0.00051197933,0.00051197933,0.699488,0.06399871,0.06399871,-0.06399871,4.0,4.0,-4.0,1.618629,-0.0010877091
16396000,-0.0026089817,0.009688441,-0.040466186,0.00051193684,0.00051193684,0.69948804,0.063996054,0.063996054,-0.063996054,4.0,4.0,-4.0,1.6179975,-0.0028062938
16596000,-0.0017855492,0.011034253,-0.03784105,0.0005119365,0.0005119365,0.69948804,0.06399603,0.06399603,-0.06399603,4.0,4.0,-4.0,1.6179414,-0.001177415
16796000,-0.0013213805,0.010873569,-0.038200915,0.0005119713,0.0005119713,0.69948804,0.06399821,0.06399821,-0.06399821,4.0,4.0,-4.0,1.6177645,-0.0015732254
16996000,-0.0005595934,0.011195012,-0.03536606,0.0005119551,0.0005119551,0.69948804,0.063997194,0.063997194,-0.063997194,4.0,4.0,-4.0,1.6174986,-0.0016074242
17196000,-0.0002767703,0.010685894,-0.033190105,0.00051197084,0.00051197084,0.69948804,0.06399818,0.06399818,-0.06399818,4.0,4.0,-4.0,1.6174179,-0.0006826884
17396000,0.00065906777,0.010636299,-0.028573055,0.0005119575,0.0005119575,0.69948804,0.06399734,0.06399734,-0.06399734,4.0,4.0,-4.0,1.6175855,0.00046930832
17596000,0.00034751298,0.010076302,-0.027594183,0.00051198446,0.00051198446,0.699488,0.06399903,0.06399903,-0.06399903,4.0,4.0,-4.0,1.6168797,-0.002641604
17796000,0.00064954767,0.009843416,-0.023887968,0.0005119736,0.0005119736,0.69948804,0.06399835,0.06399835,-0.06399835,4.0,4.0,-4.0,1.6163455,-0.003064322
17996000,-0.0015331637,0.0076155798,-0.02713224,0.0005119111,0.0005119111,0.6994881,0.063994445,0.063994445,-0.063994445,4.0,4.0,-4.0,1.6159927,-0.0026805026
18196000,-0.0021816315,0.0066452473,-0.02605776,0.00051198516,0.00051198516,0.699488,0.06399907,0.06399907,-0.06399907,4.0,4.0,-4.0,1.6161932,-7.0531028e-06
18396000,-0.0023613495,0.0063646315,-0.02552044,0.0005119846,0.0005119846,0.699488,0.063999034,0.063999034,-0.063999034,4.0,4.0,-4.0,1.6162071,-0.00010457882
18596000,-0.0014146218,0.006679495,-0.020906646,0.0005119271,0.0005119271,0.69948804,0.06399544,0.06399544,-0.06399544,4.0,4.0,-4.0,1.616142,-0.0003431202
18796000,-0.0012387428,0.006270951,-0.021165349,0.0005119614,0.0005119614,0.69948804,0.06399759,0.06399759,-0.06399759,4.0,4.0,-4.0,1.6159499,-0.0010260547
18996000,0.00042471712,0.0062346114,-0.01878638,0.00051190483,0.00051190483,0.6994881,0.06399405,0.06399405,-0.06399405,4.0,4.0,-4.0,1.6154287,-0.002452239
19196000,0.0021162487,0.0059756045,-0.017340502,0.00051190954,0.00051190954,0.6994881,0.06399435,0.06399435,-0.06399435,4.0,4.0,-4.0,1.61526,-0.0017615526
19396000,0.0048682783,0.0062596817,-0.012407889,0.00051185477,0.00051185477,0.69948816,0.06399092,0.06399092,-0.06399092,4.0,4.0,-4.0,1.6146954,-0.0027367352
19596000,0.00863296,0.0063562198,-0.012076013,0.0005118292,0.0005118292,0.69948816,0.06398933,0.06398933,-0.06398933,4.0,4.0,-4.0,1.6148282,-0.00042874442
19796000,0.012991805,0.00682926,-0.00957517,0.00051180564,0.00051180564,0.69948816,0.06398785,0.06398785,-0.06398785,4.0,4.0,-4.0,1.6148795,-0.00012970969
19996000,0.016598836,0.006915225,-0.012723818,0.0005118284,0.0005118284,0.69948816,0.063989274,0.063989274,-0.063989274,4.0,4.0,-4.0,1.6146868,-0.000847279
20196000,0.02121195,0.0075545176,-0.0110551305,0.0005117953,0.0005117953,0.69948816,0.0639872,0.0639872,-0.0639872,4.0,4.0,-4.0,1.6147791,3.5171117e-05
20396000,0.018374054,0.0072193565,-0.01266497,0.00051194214,0.00051194214,0.69948804,0.06399638,0.06399638,-0.06399638,4.0,4.0,-4.0,1.6144058,-0.0016885381
20596000,0.018451676,0.007029214,-0.010395664,0.0005119366,0.0005119366,0.69948804,0.06399604,0.06399604,-0.06399604,4.0,4.0,-4.0,1.61409,-0.0016064536
20796000,0.01764948,0.004428492,-0.013669517,0.0005118986,0.0005118986,0.6994881,0.06399366,0.06399366,-0.06399366,4.0,4.0,-4.0,1.6144449,0.00056166766
20996000,0.018938536,0.0022580107,-0.011158504,0.00051187846,0.00051187846,0.6994881,0.0639924,0.0639924,-0.0639924,4.0,4.0,-4.0,1.6140672,-0.0011955192
21196000,0.015024577,0.0013559602,-0.010256552,0.0005118897,0.0005118897,0.6994881,0.063993104,0.063993104,-0.063993104,4.0,4.0,-4.0,nan,0.0
21396000,0.013865141,-0.00017529498,-0.0054733655,0.00051192474,0.00051192474,0.69948804,0.063995294,0.063995294,-0.063995294,4.0,4.0,-4.0,nan,0.0
21596000,0.009643686,-3.6191093e-05,-0.0068705464,7.4336085e-06,0.00051189645,0.6994881,0.00046634674,0.06399353,-0.06399353,0.0,4.0,-4.0,nan,0.0
21796000,0.008401122,-0.0010754021,-0.0034787343,8.735585e-06,4.506316e-06,0.69948804,0.00054836273,0.0002822876,-0.0639954,0.0,0.0,-4.0,nan,0.0
21996000,0.006309976,-0.0004333031,-0.0055384696,1.0368258e-05,3.7922214e-06,0.69948804,0.00065135956,0.0002374649,-0.063997164,0.0,0.0,-4.0,nan,0.0
22196000,0.0062703923,-0.0018545459,-0.002725785,1.0654567e-05,4.992148e-06,0.6994881,0.00066947937,0.00031280518,-0.06399356,0.0,0.0,-4.0,nan,0.0
22396000,0.0063553564,-0.0020377375,-0.00376854,0.00021520417,8.256109e-05,0.631306,0.001156807,0.00045394897,-0.5,0.0,0.0,0.0,nan,0.0
22596000,0.0064214654,-0.0020121722,-0.0013286347,0.0004463915,0.00017328262,0.5313812,0.001156807,0.00045394897,-0.5,0.0,0.0,0.0,nan,0.0
22796000,0.006533694,-0.001968509,0.00024015206,0.0006774345,0.00026394744,0.43151885,0.001156807,0.00045394897,-0.5,0.0,0.0,0.0,nan,0.0
22996000,0.006692143,-0.0019067081,0.0047893934,0.0009085758,0.0003546509,0.33161405,0.001156807,0.00045394897,-0.5,0.0,0.0,0.0,nan,0.0
23196000,0.0068969927,-0.001826699,0.002455625,0.0011399372,0.00044544073,0.23161413,0.001156807,0.00045394897,-0.5,0.0,0.0,0.0,nan,0.0
23396000,0.007148116,-0.0017285319,0.0051881364,0.0013712987,0.0005362306,0.13161415,0.001156807,0.00045394897,-0.5,0.0,0.0,0.0,nan,0.0
23596000,0.0074455105,-0.0016122069,0.0017159693,0.0016026602,0.0006270206,0.031614132,0.001156807,0.00045394897,-0.5,0.0,0.0,0.0,nan,0.0
23796000,0.007789178,-0.0014777239,0.0043284963,0.0018340216,0.0007178106,-0.06838588,0.001156807,0.00045394897,-0.5,0.0,0.0,0.0,nan,0.0
23996000,0.008179119,-0.0013250828,-7.7908844e-05,0.0020653831,0.00080860057,-0.16838588,0.001156807,0.00045394897,-0.5,0.0,0.0,0.0,nan,0.0
24196000,0.008615334,-0.0011542838,0.0019103107,0.0022967446,0.00089939055,-0.26838586,0.001156807,0.00045394897,-0.5,0.0,0.0,0.0,nan,0.0
24396000,0.009097822,-0.0009653267,-0.0067099123,0.002528106,0.0009901804,-0.36838576,0.001156807,0.00045394897,-0.5,0.0,0.0,0.0,nan,0.0
24596000,0.00962658,-0.00075821177,-0.00773614,0.0027594676,0.0010809698,-0.46838567,0.001156807,0.00045394897,-0.5,0.0,0.0,0.0,nan,0.0
24796000,0.0102014635,-0.0005329974,-0.012604467,0.0029721993,0.0011644234,-0.5683858,-1.835823e-05,-6.198883e-06,-0.5,0.0,0.0,0.0,nan,0.0
24996000,0.010792306,-0.00030150337,-0.011380366,0.0029473861,0.0011548941,-0.66808885,-0.00021386147,-8.273125e-05,-0.5,0.0,0.0,0.0,nan,0.0
25196000,0.011374103,-7.351444e-05,-0.014358699,0.0028813283,0.0011291987,-0.76778364,-0.00043034554,-0.00016760826,-0.5,0.0,0.0,0.0,nan,0.0
25396000,0.011938082,0.00014753302,-0.012038024,0.0027693976,0.0010855516,-0.8674506,-0.000672102,-0.00026226044,-0.5,0.0,0.0,0.0,nan,0.0
25596000,0.012474361,0.00035776413,-0.014962764,0.0026064557,0.0010218999,-0.9670427,-0.00094151497,-0.0003681183,-0.5,0.0,0.0,0.0,nan,0.0
25796000,0.012972283,0.0005530072,-0.015251559,0.0023864754,0.00093589956,-1.066571,-0.0012437105,-0.0004862547,-0.5,0.0,0.0,0.0,nan,0.0
25996000,0.013419591,0.0007284544,-0.038006183,0.0021004486,0.00082400197,-1.1659955,-0.0016095638,-0.0006299019,-0.5,0.0,0.0,0.0,nan,0.0
26196000,0.013799779,0.00087763346,-0.077756494,0.0017326762,0.0006800543,-1.264768,-0.0020992756,-0.00082176924,-0.5,0.0,0.0,0.0,nan,0.0
26396000,0.014091864,0.0009923177,-0.15696017,0.0012361666,0.0004856633,-1.3621207,-0.0030750334,-0.0012038648,-0.5,0.0,0.0,0.0,nan,0.0
26596000,0.014262975,0.0010596403,-0.2660747,0.00054091413,0.00021355551,-1.417764,-0.0037107766,-0.0014522374,0.06566639,0.0,0.0,4.0,nan,0.0
26796000,0.014355444,0.0010961691,-0.39589018,0.00050511124,0.00019903808,-1.359804,-0.00014576316,-5.993247e-05,0.29948825,0.0,0.0,-4.0,nan,0.0
26996000,0.014444961,0.0011314199,-0.5177495,0.00046065377,0.00018133564,-1.3130671,-0.00025579333,-0.00010114908,0.23423658,0.0,0.0,-4.0,nan,0.0
27196000,0.01452484,0.001162856,-0.6520612,0.0004139294,0.00016285929,-1.2671689,-0.00025579333,-0.00010114908,0.26350996,0.0,0.0,-4.0,nan,0.0
27396000,0.014595623,0.0011906977,-0.7836065,0.00036759363,0.00014453662,-1.2188976,-0.00025579333,-0.00010114908,0.27071598,0.0,0.0,-4.0,nan,0.0
27596000,0.014657873,0.0012151658,-0.9223722,0.00032136854,0.00012625771,-1.167363,-0.00025579333,-0.00010114908,0.29390386,0.0,0.0,-4.0,nan,0.0
27796000,0.014712199,0.0012366942,-1.055786,0.0002869617,0.00011457565,-1.1140404,-5.2273273e-05,-4.2364e-05,0.29705575,0.0,0.0,-4.0,nan,0.0
27996000,0.014762388,0.0012565512,-1.194768,0.0002615323,0.00010295047,-1.0574945,-0.00016635656,-6.9245696e-05,0.31812653,0.0,0.0,-4.0,nan,0.0
28196000,0.014807455,0.0012742771,-1.325318,0.00022954786,9.023686e-05,-0.99943346,-0.00017552078,-6.93053e-05,0.31471735,0.0,0.0,-4.0,nan,0.0
28396000,0.014846894,0.0012897761,-1.4637322,0.00019709689,7.742343e-05,-0.9376119,-0.00017552078,-6.93053e-05,0.34444726,0.0,0.0,-4.0,nan,0.0
28596000,0.014880579,0.0013030022,-1.5903615,0.0001672007,6.563779e-05,-0.87391615,1.1667609e-05,5.811453e-06,0.33808267,0.0,0.0,-4.0,nan,0.0
28796000,0.014911136,0.0013150085,-1.7197824,0.00015529961,6.1055805e-05,-0.8073341,-9.229779e-05,-3.607571e-05,0.3606011,0.0,0.0,-4.0,nan,0.0
28996000,0.014938795,0.0013258845,-1.8589116,0.00013624769,5.3584597e-05,-0.71031564,-0.00010116398,-3.9681792e-05,0.8408232,0.0,0.0,4.0,nan,0.0
29196000,0.014963022,0.0013354154,-1.9749297,0.00011669455,4.5906367e-05,-0.48308563,-0.0001065284,-4.194677e-05,1.2804518,0.0,0.0,-4.0,nan,0.0
29396000,0.01498341,0.0013434347,-2.048058,9.374085e-05,3.68694e-05,-0.2942112,-0.00012888014,-5.0738454e-05,0.66441774,0.0,0.0,-4.0,nan,0.0
29596000,0.014999101,0.0013496056,-2.0961318,6.750612e-05,2.6544176e-05,-0.21696539,-0.00013591349,-5.349517e-05,0.15301108,0.0,0.0,-4.0,nan,0.0
29796000,0.015011073,0.0013543123,-2.136228,5.8575606e-05,2.3033845e-05,-0.19484292,-3.351271e-05,-1.3165176e-05,0.07941419,0.0,0.0,-4.0,1.6191314,-0.0007714966
29996000,0.015021956,0.0013585907,-2.1727142,5.2618958e-05,2.0692854e-05,-0.17650923,6.80238e-06,2.6077032e-06,0.07043938,0.0,0.0,-4.0,1.6191314,-0.00029793743
30196000,0.015031944,0.0013625183,-2.2059093,4.807564e-05,1.8905204e-05,-0.1598054,-2.554804e-05,-1.0043383e-05,0.062446393,0.0,0.0,-4.0,1.6191314,-0.000115057825
30396000,0.015040987,0.001366074,-2.2360966,4.3002914e-05,1.6911026e-05,-0.14460272,-2.554804e-05,-1.0043383e-05,0.05516855,0.0,0.0,-4.0,1.6191314,-4.4433156e-05
30596000,0.015049202,0.0013693046,-2.2635758,3.933769e-05,1.5469031e-05,-0.13075146,-2.0358711e-05,-8.005649e-06,0.048698947,0.0,0.0,-4.0,1.6191314,-1.7159246e-05
30796000,0.015056662,0.0013722383,-2.2884402,3.5265937e-05,1.38679015e-05,-0.11819429,-2.0358711e-05,-8.005649e-06,0.04303101,0.0,0.0,-4.0,1.6191314,-6.626577e-06
30996000,0.015063392,0.0013748844,-2.3109138,3.208728e-05,1.2617898e-05,-0.106836624,-1.7087907e-05,-6.7204237e-06,0.038005352,0.0,0.0,-4.0,1.6191314,-2.5590593e-06
31196000,0.01506945,0.001377266,-2.3311603,2.8681503e-05,1.12784555e-05,-0.096590534,-1.7087907e-05,-6.7204237e-06,0.033887457,0.0,0.0,-4.0,1.6191314,-9.882606e-07
31396000,0.015074922,0.0013794184,-2.3494291,2.6137943e-05,1.0278839e-05,-0.0873434,-1.4748424e-05,-5.800277e-06,0.030408368,0.0,0.0,-4.0,1.6191314,-3.8164757e-07
31596000,0.015079852,0.0013813567,-2.3659024,2.3712953e-05,9.32511e-06,-0.07900114,-1.3113022e-05,-5.159527e-06,0.027716998,0.0,0.0,-4.0,1.6191314,-1.473851e-07
31796000,0.015084299,0.0013831056,-2.3807635,2.147401e-05,8.4448075e-06,-0.07147615,-9.801239e-06,-3.8444996e-06,0.026083395,0.0,0.0,-4.0,1.6191314,-5.6917354e-08
31996000,0.015088322,0.0013846868,-2.3941953,1.9398303e-05,7.627946e-06,-0.06467704,4.582107e-07,2.6077032e-07,0.025282735,0.0,0.0,-4.0,1.6191314,-2.1980409e-08
32196000,0.015091972,0.0013861225,-2.4063456,1.7593837e-05,6.9191346e-06,-0.058515858,-6.4969063e-06,-2.5592744e-06,0.023490429,0.0,0.0,-4.0,1.6191314,-8.488418e-09
32396000,0.0150952805,0.0013874234,-2.4173517,1.5909925e-05,6.2570343e-06,-0.052919097,-6.210059e-06,-2.4400651e-06,0.019274903,0.0,0.0,-4.0,1.6191314,-3.2780667e-09
32596000,0.015098278,0.0013886024,-2.4273295,1.4383818e-05,5.656594e-06,-0.047845993,-5.9083104e-06,-2.3208559e-06,0.015168643,0.0,0.0,-4.0,1.6191314,-1.2659275e-09
32796000,0.015100988,0.001389668,-2.4363449,1.3002108e-05,5.1132265e-06,-0.04325766,-5.595386e-06,-2.2053719e-06,0.011370018,0.0,0.0,-4.0,1.6191314,-4.888774e-10
32996000,0.01510343,0.0013906291,-2.4444792,1.17563595e-05,4.623131e-06,-0.039118756,-5.32344e-06,-2.1010637e-06,0.007806152,0.0,0.0,-4.0,1.6191314,-1.887952e-10
33196000,0.015105635,0.0013914969,-2.4518232,1.0631608e-05,4.1803164e-06,-0.03538278,-5.058944e-06,-1.9967556e-06,0.004398942,0.0,0.0,-4.0,1.6191314,-7.2909144e-11
33396000,0.015107626,0.0013922808,-2.4584596,9.615712e-06,3.7803425e-06,-0.0320093,-4.801899e-06,-1.8961728e-06,0.0011981726,0.0,0.0,-4.0,1.6191314,-2.8156135e-11
33596000,0.015109424,0.001392988,-2.4644485,8.699999e-06,3.4201983e-06,-0.028963089,0.0,0.0,0.0,0.0,0.0,0.0,1.6191314,-1.0873369e-11
33796000,0.015111043,0.0013936255,-2.4698503,7.876837e-06,3.0959482e-06,-0.026216505,0.0,0.0,0.0,0.0,0.0,0.0,1.6191314,-4.1990894e-12
33996000,0.015112508,0.0013942015,-2.4747267,7.1307327e-06,2.8029237e-06,-0.023735046,0.0,0.0,0.0,0.0,0.0,0.0,1.6191314,-1.6216092e-12
34196000,0.015113833,0.0013947225,-2.4791358,6.457551e-06,2.5379672e-06,-0.021492958,0.0,0.0,0.0,0.0,0.0,0.0,1.6191314,-6.26235e-13
34396000,0.01511503,0.0013951933,-2.4831254,5.848094e-06,2.2983254e-06,-0.019462585,0.0,0.0,0.0,0.0,0.0,0.0,1.6191314,-2.4184016e-13
34596000,0.015116116,0.0013956195,-2.486739,5.2967725e-06,2.0815733e-06,-0.017624855,0.0,0.0,0.0,0.0,0.0,0.0,1.6191314,-9.339411e-14
34796000,0.015117102,0.0013960056,-2.4900076,4.794271e-06,1.8850034e-06,-0.01595974,0.0,0.0,0.0,0.0,0.0,0.0,1.6191314,-3.6067046e-14
34996000,0.015117994,0.001396355,-2.4929647,4.3402933e-06,1.7071177e-06,-0.014454842,0.0,0.0,0.0,0.0,0.0,0.0,1.6191314,-1.39284124e-14
35196000,0.015118801,0.0013966708,-2.4956417,3.9292217e-06,1.5462047e-06,-0.013091086,0.0,0.0,0.0,0.0,0.0,0.0,1.6191314,-5.37889e-15
35396000,0.015119533,0.0013969573,-2.498067,3.5564797e-06,1.4005119e-06,-0.011857033,0.0,0.0,0.0,0.0,0.0,0.0,1.6191314,-2.077226e-15
35596000,0.0151201915,0.0013972169,-2.500262,3.2206565e-06,1.2681865e-06,-0.010738373,0.0,0.0,0.0,0.0,0.0,0.0,1.6191314,-8.0218546e-16
35796000,0.015120791,0.0013974522,-2.5022523,2.9157293e-06,1.1483718e-06,-0.009725571,0.0,0.0,0.0,0.0,0.0,0.0,1.6191314,-3.097889e-16
35996000,0.015121335,0.0013976654,-2.5040576,2.6389437e-06,1.0398144e-06,-0.008806229,0.0,0.0,0.0,0.0,0.0,0.0,1.6191314,-1.1963463e-16
36196000,0.015121828,0.0013978588,-2.505696,2.3882421e-06,9.41374e-07,-0.007971764,0.0,0.0,0.0,0.0,0.0,0.0,1.6191314,-4.6200635e-17
36396000,0.015122274,0.0013980343,-2.5071797,2.1602468e-06,8.5198786e-07,-0.0072155,0.0,0.0,0.0,0.0,0.0,0.0,1.6191314,-1.7841814e-17
36596000,0.015122676,0.0013981933,-2.5085227,1.9549607e-06,7.7086924e-07,-0.0065307613,0.0,0.0,0.0,0.0,0.0,0.0,1.6191314,-6.8901726e-18
36796000,0.0151230395,0.0013983372,-2.509737,1.7698401e-06,6.9761074e-07,-0.005911827,0.0,0.0,0.0,0.0,0.0,0.0,1.6191314,-2.660855e-18
36996000,0.015123368,0.001398467,-2.5108356,1.6023046e-06,6.3147564e-07,-0.0053520203,0.0,0.0,0.0,0.0,0.0,0.0,1.6191314,-1.0275718e-18
37196000,0.015123666,0.0013985846,-2.51183,1.4504636e-06,5.713853e-07,-0.0048446655,0.0,0.0,0.0,0.0,0.0,0.0,1.6191314,-3.9682889e-19
37396000,0.015123935,0.0013986911,-2.5127316,1.3129193e-06,5.1719763e-07,-0.004385948,0.0,0.0,0.0,0.0,0.0,0.0,1.6191314,-1.5324782e-19
37596000,0.015124179,0.0013987871,-2.5135477,1.1884387e-06,4.6806664e-07,-0.0039691925,0.0,0.0,0.0,0.0,0.0,0.0,1.6191314,-5.918141e-20
37796000,0.0151244,0.0013988743,-2.514287,1.0763216e-06,4.2375584e-07,-0.0035924911,0.0,0.0,0.0,0.0,0.0,0.0,1.6191314,-2.2854743e-20
37996000,0.0151246,0.0013989531,-2.5149548,9.740181e-07,3.835328e-07,-0.0032520294,0.0,0.0,0.0,0.0,0.0,0.0,1.6191314,-8.826071e-21
38196000,0.015124783,0.0013990243,-2.515559,8.813525e-07,3.471519e-07,-0.0029439926,0.0,0.0,0.0,0.0,0.0,0.0,1.6191314,-3.408462e-21
38396000,0.015124945,0.0013990888,-2.5161035,7.981793e-07,3.1439325e-07,-0.0026664734,0.0,0.0,0.0,0.0,0.0,0.0,1.6191314,-1.3162837e-21
38596000,0.015125093,0.0013991469,-2.516596,7.225634e-07,2.8469603e-07,-0.0024147034,0.0,0.0,0.0,0.0,0.0,0.0,1.6191314,-5.0832394e-22
38796000,0.015125226,0.0013991995,-2.517042,6.551863e-07,2.579157e-07,-0.0021877289,0.0,0.0,0.0,0.0,0.0,0.0,1.6191314,-1.9630511e-22
38996000,0.015125348,0.0013992471,-2.5174463,5.928229e-07,2.3360158e-07,-0.0019817352,0.0,0.0,0.0,0.0,0.0,0.0,1.6191314,-7.5809325e-23
39196000,0.015125456,0.0013992904,-2.5178125,5.3783873e-07,2.115269e-07,-0.0017948151,0.0,0.0,0.0,0.0,0.0,0.0,1.6191314,-2.9276133e-23
39396000,0.015125551,0.001399327,-2.5181477,4.4359825e-07,1.7491317e-07,-0.0016241072,0.0,0.0,0.0,0.0,0.0,0.0,1.6191314,-1.1305889e-23
39596000,0.01512564,0.0013993619,-2.5184553,4.4360493e-07,1.7489472e-07,-0.0014677048,0.0,0.0,0.0,0.0,0.0,0.0,1.6191314,-4.3661215e-24
39796000,0.015125725,0.0013993952,-2.5187328,4.003617e-07,1.5816626e-07,-0.0013256073,0.0,0.0,0.0,0.0,0.0,0.0,1.6191314,-1.6861137e-24
39996000,0.0151258,0.001399425,-2.5189846,3.6274938e-07,1.4301648e-07,-0.0011978149,0.0,0.0,0.0,0.0,0.0,0.0,1.6191314,-6.5114527e-25
40196000,0.015125867,0.001399452,-2.5192113,3.2814557e-07,1.2910658e-07,-0.0010814667,0.0,0.0,0.0,0.0,0.0,0.0,1.6191314,-2.5146001e-25
40396000,0.015125928,0.0013994767,-2.519416,2.9709193e-07,1.16647946e-07,-0.0009775162,0.0,0.0,0.0,0.0,0.0,0.0,1.6191314,-9.7109116e-26
40596000,0.015125984,0.0013994987,-2.5196013,2.687227e-07,1.0536965e-07,-0.0008831024,0.0,0.0,0.0,0.0,0.0,0.0,1.6191314,-3.750171e-26
40796000,0.015126038,0.0013995186,-2.519769,2.407109e-07,9.521411e-08,-0.0007972717,0.0,0.0,0.0,0.0,0.0,0.0,1.6191314,-1.4482454e-26
40996000,0.0151260765,0.0013995332,-2.5199206,6.1245453e-13,5.1122995e-13,-0.00072002405,0.0,0.0,0.0,0.0,0.0,0.0,1.6191314,-5.5928505e-27
41196000,0.0151260765,0.0013995332,-2.5200553,6.1245453e-13,3.3890905e-13,-0.0006513595,0.0,0.0,0.0,0.0,0.0,0.0,1.6191314,-2.1598534e-27
41396000,0.0151260765,0.0013995332,-2.5201774,-2.1303968e-13,3.3890905e-13,-0.000588417,0.0,0.0,0.0,0.0,0.0,0.0,1.6191314,-8.340947e-28
41596000,0.0151260765,0.0013995332,-2.5202882,-2.1303968e-13,-6.779369e-13,-0.0005321502,0.0,0.0,0.0,0.0,0.0,0.0,1.6191314,-3.2211166e-28
41796000,0.0151260765,0.0013995332,-2.5203874,-2.1303966e-13,-2.2318958e-13,-0.00048160547,0.0,0.0,0.0,0.0,0.0,0.0,1.6191314,-1.2439346e-28
41996000,0.0151260765,0.0013995332,-2.5204775,-1.0569713e-13,-5.7059804e-13,-0.0004358291,0.0,0.0,0.0,0.0,0.0,0.0,1.6191314,-4.8038407e-29
42196000,0.0151260765,0.0013995332,-2.520559,-1.0569713e-13,-2.3769986e-13,-0.00039386743,0.0,0.0,0.0,0.0,0.0,0.0,1.6191314,-1.8551528e-29
42396000,0.0151260765,0.0013995332,-2.5206327,-1.0569713e-13,-8.497441e-15,-0.00035667408,0.0,0.0,0.0,0.0,0.0,0.0,1.6191314,-7.164249e-30
42596000,0.0151260765,0.0013995332,-2.5206993,-1.0569713e-13,-8.497441e-15,-0.00032234183,0.0,0.0,0.0,0.0,0.0,0.0,1.6191314,-2.7666975e-30
42796000,0.0151260765,0.0013995332,-2.5207596,-1.0569713e-13,-8.497441e-15,-0.00029182428,0.0,0.0,0.0,0.0,0.0,0.0,1.6191314,-1.0684465e-30
42996000,0.0151260765,0.0013995332,-2.5208144,8.26605e-14,-8.497441e-15,-0.000263214,0.0,0.0,0.0,0.0,0.0,0.0,1.6191314,-4.1261394e-31
43196000,0.0151260765,0.0013995332,-2.520864,8.26605e-14,-8.497441e-15,-0.00023841846,0.0,0.0,0.0,0.0,0.0,0.0,1.6191314,-1.593437e-31
43396000,0.0151260765,0.0013995332,-2.5209095,8.26605e-14,-8.497441e-15,-0.00021553028,0.0,0.0,0.0,0.0,0.0,0.0,1.6191314,-6.1535536e-32
43596000,0.0151260765,0.0013995332,-2.5209508,-3.1026336e-14,-8.497441e-15,-0.00019454943,0.0,0.0,0.0,0.0,0.0,0.0,1.6191314,-2.3763863e-32
43796000,0.0151260765,0.0013995332,-2.5209875,8.265788e-14,-8.497441e-15,-0.00017547593,0.0,0.0,0.0,0.0,0.0,0.0,1.6191314,-9.177156e-33
43996000,0.0151260765,0.0013995332,-2.5210187,6.3153096e-14,-8.497441e-15,-0.00015926344,0.0,0.0,0.0,0.0,0.0,0.0,1.6191314,-3.5440442e-33
44196000,0.0151260765,0.0013995332,-2.521047,4.3647072e-14,-8.497441e-15,-0.0001449583,0.0,0.0,0.0,0.0,0.0,0.0,1.6191314,-1.368643e-33
44396000,0.0151260765,0.0013995332,-2.5210726,4.3648827e-14,-8.497441e-15,-0.00013160685,0.0,0.0,0.0,0.0,0.0,0.0,1.6191314,-5.285441e-34
44596000,0.015143636,0.0015787602,-2.5183678,0.00021973826,0.0022655881,0.051070306,0.0013748407,0.014320135,0.64000005,0.0,0.0,4.0,1.6194036,0.0005885659
44796000,0.01521508,0.0023182805,-2.4900205,0.00049470644,0.005129615,0.2590703,0.0013748407,0.014320135,1.44,0.0,0.0,4.0,1.6194036,0.00022729306
44996000,0.0153415175,0.0036306065,-2.4078612,0.0007696745,0.007993641,0.5468327,0.0013748407,0.014320135,1.1069502,0.0,0.0,-4.0,1.6194036,8.7776294e-05
45196000,0.015520348,0.0054898765,-2.281689,0.00094867067,0.009871016,0.6882228,-0.0004606992,-0.0051695257,0.3069501,0.0,0.0,-4.0,1.6194036,3.389755e-05
45396000,0.015692446,0.007275936,-2.14199,0.00079452875,0.008243508,0.7,0.0,0.0,0.0,0.0,0.0,0.0,1.6194036,1.3090595e-05
45596000,0.015840486,0.008811829,-2.0019898,0.0006932895,0.007193134,0.7,0.0,0.0,0.0,0.0,0.0,0.0,1.6194036,5.055341e-06
45796000,0.015969621,0.010151716,-1.8619899,0.0006049555,0.0062766084,0.7,0.0,0.0,0.0,0.0,0.0,0.0,1.6194036,1.9522774e-06
45996000,0.016082281,0.011320604,-1.7219899,0.0005278717,0.0054768445,0.7,0.0,0.0,0.0,0.0,0.0,0.0,1.6194036,7.5393257e-07
46196000,0.01618057,0.012340341,-1.5819899,0.0004606236,0.0047791265,0.7,0.0,0.0,0.0,0.0,0.0,0.0,1.6194036,2.9115452e-07
46396000,0.01626632,0.013229995,-1.4419895,0.00040192678,0.004170167,0.7,0.0,0.0,0.0,0.0,0.0,0.0,1.6194036,1.1243838e-07
46596000,0.016341127,0.014006152,-1.3019897,0.0003507374,0.003639047,0.7,0.0,0.0,0.0,0.0,0.0,0.0,1.6194036,4.342158e-08
46796000,0.016406389,0.014683306,-1.1619898,0.00030604406,0.0031753262,0.7,0.0,0.0,0.0,0.0,0.0,0.0,1.6194036,1.6768595e-08
46996000,0.016463332,0.0152741205,-1.0219898,0.00026707005,0.0027709347,0.7,0.0,0.0,0.0,0.0,0.0,0.0,1.6194036,6.4757155e-09
47196000,0.016513014,0.015789583,-0.88198984,0.00023303364,0.0024178044,0.7,0.0,0.0,0.0,0.0,0.0,0.0,1.6194036,2.500799e-09
47396000,0.01655636,0.016239334,-0.7419898,0.00020334417,0.0021097644,0.7,0.0,0.0,0.0,0.0,0.0,0.0,1.6194036,9.657614e-10
47596000,0.016594186,0.016631749,-0.6019898,0.00017745081,0.0018411196,0.7,0.0,0.0,0.0,0.0,0.0,0.0,1.6194036,3.729588e-10
47796000,0.01662719,0.016974153,-0.46198982,0.00015485179,0.0016066486,0.7,0.0,0.0,0.0,0.0,0.0,0.0,1.6194036,1.4402966e-10
47996000,0.016655989,0.017272929,-0.3219898,0.00013513226,0.00140208,0.7,0.0,0.0,0.0,0.0,0.0,0.0,1.6194036,5.5621546e-11
48196000,0.016681118,0.01753361,-0.18198986,0.00011792806,0.0012236168,0.7,0.0,0.0,0.0,0.0,0.0,0.0,1.6194036,2.1479991e-11
48396000,0.016703043,0.017761089,-0.04198987,0.000102923135,0.0010679355,0.7,0.0,0.0,0.0,0.0,0.0,0.0,1.6194036,8.295167e-12
48596000,0.016722169,0.017959578,0.09801013,8.979805e-05,0.00093171385,0.7,0.0,0.0,0.0,0.0,0.0,0.0,1.6194036,3.2034366e-12
48796000,0.016738858,0.018132772,0.23801011,7.836116e-05,0.0008130546,0.7,0.0,0.0,0.0,0.0,0.0,0.0,1.6194036,1.2371069e-12
48996000,0.016753422,0.018283907,0.3780101,6.839053e-05,0.0007095834,0.7,0.0,0.0,0.0,0.0,0.0,0.0,1.6194036,4.777473e-13
49196000,0.016766135,0.01841579,0.5180102,5.9699265e-05,0.0006194023,0.7,0.0,0.0,0.0,0.0,0.0,0.0,1.6194036,1.84497e-13
49396000,0.016777229,0.018530866,0.65801007,5.2104228e-05,0.0005406124,0.7,0.0,0.0,0.0,0.0,0.0,0.0,1.6194036,7.124927e-14
49596000,0.01678691,0.018631294,0.7980101,4.546822e-05,0.00047179023,0.7,0.0,0.0,0.0,0.0,0.0,0.0,1.6194036,2.751512e-14
49796000,0.016795361,0.018718954,0.9380103,3.9656472e-05,0.0004115114,0.7,0.0,0.0,0.0,0.0,0.0,0.0,1.6194036,1.0625819e-14
49996000,0.016802732,0.01879543,1.0780101,3.4625264e-05,0.00035930116,0.7,0.0,0.0,0.0,0.0,0.0,0.0,1.6194036,4.1034905e-15
50196000,0.01680917,0.018862167,1.21801,3.0184896e-05,0.00031326164,0.7,0.0,0.0,0.0,0.0,0.0,0.0,1.6194036,1.5846908e-15
50396000,0.016814796,0.018920423,1.3580097,2.6335572e-05,0.0002733927,0.7,0.0,0.0,0.0,0.0,0.0,0.0,1.6194036,6.119776e-16
50596000,0.016819704,0.018971251,1.4980092,2.2986269e-05,0.0002387451,0.7,0.0,0.0,0.0,0.0,0.0,0.0,1.6194036,2.3633418e-16
50796000,0.01682398,0.019015627,1.6380087,2.0061007e-05,0.00020836803,0.7,0.0,0.0,0.0,0.0,0.0,0.0,1.6194036,9.12678e-17
50996000,0.016827695,0.019054346,1.7780081,1.7508582e-05,0.00018178741,0.7,0.0,0.0,0.0,0.0,0.0,0.0,1.6194036,3.52459e-17
51196000,0.01683094,0.01908814,1.9180077,1.5276255e-05,0.00015852928,0.7,0.0,0.0,0.0,0.0,0.0,0.0,1.6194036,1.3611302e-17
51396000,0.016833773,0.019117631,2.058008,1.3360743e-05,0.00013859395,0.7,0.0,0.0,0.0,0.0,0.0,0.0,1.6194036,5.2564276e-18
51596000,0.016836248,0.019143363,2.1980088,1.1671236e-05,0.00012103205,0.7,0.0,0.0,0.0,0.0,0.0,0.0,1.6194036,2.029933e-18
51796000,0.016838409,0.019165827,2.3380098,1.01642545e-05,0.00010536873,0.7,0.0,0.0,0.0,0.0,0.0,0.0,1.6194036,7.839219e-19
51996000,0.016840296,0.019185437,2.4780111,8.885645e-06,9.207867e-05,0.7,0.0,0.0,0.0,0.0,0.0,0.0,1.6194036,3.0273585e-19
52196000,0.01684194,0.01920255,2.6180124,7.745931e-06,8.021234e-05,0.7,0.0,0.0,0.0,0.0,0.0,0.0,1.6194036,1.1691086e-19
52396000,0.016843382,0.019217476,2.7580132,6.7834712e-06,7.024512e-05,0.7,0.0,0.0,0.0,0.0,0.0,0.0,1.6194036,4.514877e-20
52596000,0.016844634,0.01923049,2.898014,5.9169956e-06,6.122675e-05,0.7,0.0,0.0,0.0,0.0,0.0,0.0,1.6194036,1.7435605e-20
52796000,0.016845733,0.019241864,3.0380154,5.1373963e-06,5.3158088e-05,0.7,0.0,0.0,0.0,0.0,0.0,0.0,1.6194036,6.7333015e-21
52996000,0.016846692,0.01925179,3.1780164,4.494385e-06,4.651341e-05,0.7,0.0,0.0,0.0,0.0,0.0,0.0,1.6194036,2.600274e-21
53196000,0.016847523,0.019260459,3.318017,3.9469974e-06,4.0817606e-05,0.7,0.0,0.0,0.0,0.0,0.0,0.0,1.6194036,1.0041768e-21
53396000,0.016848253,0.019268027,3.4580178,3.4443838e-06,3.559653e-05,0.7,0.0,0.0,0.0,0.0,0.0,0.0,1.6194036,3.8779415e-22
53596000,0.01684889,0.019274635,3.5980184,2.9878045e-06,3.0850068e-05,0.7,0.0,0.0,0.0,0.0,0.0,0.0,1.6194036,1.4975878e-22
53796000,0.016849447,0.0192804,3.738019,2.6210437e-06,2.7053045e-05,0.7,0.0,0.0,0.0,0.0,0.0,0.0,1.6194036,5.783402e-23
53996000,0.016849935,0.019285435,3.8780198,2.2997033e-06,2.3730689e-05,0.7,0.0,0.0,0.0,0.0,0.0,0.0,1.6194036,2.2334405e-23
54196000,0.01685036,0.01928981,4.0180206,2.0219281e-06,2.088318e-05,0.7,0.0,0.0,0.0,0.0,0.0,0.0,1.6194036,8.625126e-24
54396000,0.016850732,0.019293625,4.15802,1.7452169e-06,1.8035571e-05,0.7,0.0,0.0,0.0,0.0,0.0,0.0,1.6194036,3.330861e-24
54596000,0.016851058,0.019296946,4.2980194,1.5124726e-06,1.566277e-05,0.7,0.0,0.0,0.0,0.0,0.0,0.0,1.6194036,1.2863156e-24
54796000,0.01685134,0.019299865,4.4380198,1.3281282e-06,1.3764351e-05,0.7,0.0,0.0,0.0,0.0,0.0,0.0,1.6194036,4.967508e-25
54996000,0.016851582,0.019302396,4.57802,1.1463829e-06,1.186568e-05,0.7,0.0,0.0,0.0,0.0,0.0,0.0,1.6194036,1.9183576e-25
55196000,0.016851796,0.019304626,4.7180204,1.0106002e-06,1.0441626e-05,0.7,0.0,0.0,0.0,0.0,0.0,0.0,1.6194036,7.4083345e-26
55396000,0.016851982,0.019306565,4.8580203,8.7300253e-07,9.017747e-06,0.7,0.0,0.0,0.0,0.0,0.0,0.0,1.6194036,2.860959e-26
55596000,0.016852144,0.019308254,4.99802,7.82881e-07,8.068339e-06,0.7,0.0,0.0,0.0,0.0,0.0,0.0,1.6194036,1.10484854e-26
55796000,0.016852286,0.019309731,5.13802,6.918963e-07,7.1190143e-06,0.7,0.0,0.0,0.0,0.0,0.0,0.0,1.6194036,4.266717e-27
55996000,0.016852329,0.019310165,5.2773705,0.0,0.0,0.7,0.0,0.0,0.0,0.0,0.0,0.0,1.6194036,1.6477257e-27
56196000,0.016852329,0.019310165,5.4159603,0.0,0.0,0.7,0.0,0.0,0.0,0.0,0.0,0.0,1.6194036,6.363206e-28
56396000,0.016852329,0.019310165,5.55454,0.0,0.0,0.7,0.0,0.0,0.0,0.0,0.0,0.0,1.6194036,2.4573499e-28
56596000,0.031173801,0.036326077,0.9067528,-0.00041242212,-0.0005119383,0.7,-0.035780378,-0.06399614,0.0,0.0,-4.0,0.0,1.6194036,0.0
56796000,0.034187324,0.037614565,0.8496682,-0.00051191135,-0.00051191135,0.7,-0.06399446,-0.06399446,0.0,-4.0,-4.0,0.0,1.6194036,0.0
56996000,0.035338104,0.0374395,0.83003527,-0.0005119631,-0.0005119631,0.7,-0.06399769,-0.06399769,0.0,-4.0,-4.0,0.0,1.6194036,0.0
57196000,0.040981445,0.03774131,0.7731486,-0.00051181985,-0.00051157136,0.7,-0.06398874,-0.06257899,0.0,-4.0,0.0,0.0,1.6194036,0.0
57396000,0.04413287,0.037030116,0.75032413,-0.0005119012,-0.0005119012,0.7,-0.06399383,-0.06399383,0.0,-4.0,-4.0,0.0,1.6194036,0.0
57596000,0.04784358,0.035838638,0.694866,-0.0005118773,-0.0005118773,0.7,-0.06399233,-0.06399233,0.0,-4.0,-4.0,0.0,1.6194036,0.0
57796000,0.049546696,0.033898514,0.6704021,-0.0005118998,-0.0005118998,0.7,-0.06399374,-0.06399374,0.0,-4.0,-4.0,0.0,1.6194036,0.0
57996000,0.050121654,0.03631763,0.62021255,-0.00051193475,-0.00051193475,0.7,-0.06399592,-0.06399592,0.0,-4.0,-4.0,0.0,1.6194036,0.0
58196000,0.04965397,0.037040364,0.59624404,-0.0005119662,-0.0005119662,0.7,-0.06399789,-0.06399789,0.0,-4.0,-4.0,0.0,1.6194036,0.0
58396000,0.045609534,0.037993327,0.5471667,-0.00051183865,-0.00051183865,0.7,-0.063989915,-0.063989915,0.0,-4.0,-4.0,0.0,1.6194036,0.0
58596000,0.041909296,0.037599105,0.52188045,0.00051184854,0.0005110359,0.69948816,0.06399053,0.061440825,-0.06399053,4.0,0.0,-4.0,1.6240399,-0.026525678
58796000,0.03707506,0.036461823,0.47541043,0.000511792,0.000511792,0.6994882,0.063987,0.063987,-0.063987,4.0,4.0,-4.0,1.624215,-0.009362936
58996000,0.032480672,0.034053504,0.44947988,0.0005117798,0.0005117798,0.6994882,0.063986234,0.063986234,-0.063986234,4.0,4.0,-4.0,1.6243073,-0.0029684056
59196000,0.03205662,0.037639577,0.40874508,0.0005119012,0.0005119012,0.6994881,0.06399383,0.06399383,-0.06399383,4.0,4.0,-4.0,1.6245096,-0.00044622304
59396000,0.030913714,0.038725745,0.38494587,0.00051192945,0.00051192945,0.69948804,0.06399559,0.06399559,-0.06399559,4.0,4.0,-4.0,1.6247467,0.0010361325
