timestamp,roll,pitch,yaw,thrust_body[0],thrust_body[1],thrust_body[2],reset_integral
4460000,0.12927356,0.14715832,0.0008315444,0.0,0.0,-0.001,0
4468000,0.12920605,0.1467453,0.000870347,0.0,0.0,-0.001,0
4480000,0.12913999,0.14626297,0.0007314086,0.0,0.0,-0.001,0
4504000,0.12913823,0.14528546,0.0007042885,0.0,0.0,-0.001,0
4524000,0.1290622,0.14451635,0.00077980757,0.0,0.0,-0.001,0
4544000,0.12917902,0.14412709,0.0006542206,0.0,0.0,-0.001,0
4564000,0.12918873,0.14361246,0.0006875992,0.0,0.0,-0.001,0
4580000,0.12923078,0.1433346,0.0007197261,0.0,0.0,-0.001,0
4600000,0.12925455,0.14304301,0.0006596446,0.0,0.0,-0.001,0
4620000,0.12933318,0.14280944,0.00067049265,0.0,0.0,-0.001,0
4644000,0.12924758,0.14288008,0.00069093704,0.0,0.0,-0.001,0
4664000,0.12920293,0.1426198,0.00066673756,0.0,0.0,-0.001,0
4680000,0.12919806,0.14222272,0.00068092346,0.0,0.0,-0.001,0
4700000,0.12886015,0.14181015,0.000715971,0.0,0.0,-0.001,0
4724000,0.12869345,0.14130439,0.0006830096,0.0,0.0,-0.001,0
4744000,0.12844129,0.14082316,0.0008382201,0.0,0.0,-0.001,0
4760000,0.12817882,0.14024054,0.0008202791,0.0,0.0,-0.001,0
4780000,0.12790002,0.1401713,0.0011077523,0.0,0.0,-0.001,0
4804000,0.12734643,0.13980511,0.0010868907,0.0,0.0,-0.001,0
4824000,0.1269141,0.13998322,0.00084865093,0.0,0.0,-0.001,0
4840000,0.12679677,0.13974482,0.00080025196,0.0,0.0,-0.001,0
4864000,0.12611218,0.13945879,0.0007405877,0.0,0.0,-0.001,0
4884000,0.12536785,0.13934284,0.00044476986,0.0,0.0,-0.001,0
4904000,0.12495449,0.13928537,0.00046688318,0.0,0.0,-0.001,0
4924000,0.124239996,0.1392978,0.00034213066,0.0,0.0,-0.001,0
4940000,0.12377881,0.13925885,0.00035631657,0.0,0.0,-0.001,0
4964000,0.12333158,0.13888736,0.00019609928,0.0,0.0,-0.001,0
4984000,0.1229013,0.1388747,0.00039303303,0.0,0.0,-0.001,0
5004000,0.122544125,0.13859743,0.0002194643,0.0,0.0,-0.001,0
5020000,0.12230261,0.13857523,0.00027412176,0.0,0.0,-0.001,0
5044000,0.121749476,0.13821004,0.00034713745,0.0,0.0,-0.001,0
5060000,0.121573485,0.13797274,0.00040847063,0.0,0.0,-0.001,0
5084000,0.12104164,0.13799648,0.000459373,0.0,0.0,-0.001,0
5100000,0.12072988,0.13819197,0.00055742264,0.0,0.0,-0.001,0
5124000,0.12034688,0.13802452,0.0005824566,0.0,0.0,-0.001,0
5144000,0.12017984,0.13798289,0.00059872866,0.0,0.0,-0.001,0
5164000,0.11990928,0.1379812,0.0006867647,0.0,0.0,-0.001,0
5180000,0.1197816,0.13801138,0.0005970597,0.0,0.0,-0.001,0
5204000,0.11951237,0.13824154,0.0006663203,0.0,0.0,-0.001,0
5220000,0.119342014,0.1383072,0.0006412864,0.0,0.0,-0.001,0
5244000,0.11913626,0.13836135,0.0005916357,0.0,0.0,-0.001,0
5264000,0.1191003,0.13829185,0.00055909157,0.0,0.0,-0.001,0
5284000,0.118575394,0.1384732,0.0007238984,0.0,0.0,-0.001,0
5300000,0.11847907,0.13837744,0.0006646514,0.0,0.0,-0.001,0
5320000,0.118090704,0.13824551,0.0007585287,0.0,0.0,-0.001,0
5340000,0.11773907,0.13806869,0.0008620024,0.0,0.0,-0.001,0
5364000,0.117753245,0.13823,0.00084865093,0.0,0.0,-0.001,0
5380000,0.117520384,0.13817023,0.00088870525,0.0,0.0,-0.001,0
5400000,0.117246546,0.13817473,0.00072306395,0.0,0.0,-0.001,0
5424000,0.1169836,0.13809553,0.00071805716,0.0,0.0,-0.001,0
5444000,0.1167966,0.13801436,0.0008494854,0.0,0.0,-0.001,0
5460000,0.11685121,0.13791098,0.00080400705,0.0,0.0,-0.001,0
5484000,0.11696733,0.13796063,0.000841558,0.0,0.0,-0.001,0
5504000,0.11706213,0.13777672,0.000662148,0.0,0.0,-0.001,0
5524000,0.11720255,0.1374694,0.00074225664,0.0,0.0,-0.001,0
5540000,0.11717605,0.13733038,0.000751853,0.0,0.0,-0.001,0
5560000,0.11704148,0.13720909,0.0006300211,0.0,0.0,-0.001,0
5580000,0.11719657,0.13689093,0.0006850958,0.0,0.0,-0.001,0
5600000,0.117357135,0.1369393,0.00031459332,0.0,0.0,-0.001,0
5620000,0.11731921,0.13696456,0.00019735098,0.0,0.0,-0.001,0
5640000,0.11751415,0.13678737,0.0002991557,0.0,0.0,-0.001,0
5660000,0.11756212,0.13669062,7.134676e-05,0.0,0.0,-0.001,0
5684000,0.11780314,0.13640654,-1.66893e-06,0.0,0.0,-0.001,0
5704000,0.1180143,0.13597998,0.00029832125,0.0,0.0,-0.001,0
5720000,0.118328,0.1360049,0.0003170967,0.0,0.0,-0.001,0
5744000,0.11849618,0.13599427,0.00030124187,0.0,0.0,-0.001,0
5764000,0.118677445,0.13585474,1.8775463e-05,0.0,0.0,-0.001,0
5784000,0.118863955,0.13585097,0.00032669306,0.0,0.0,-0.001,0
5804000,0.11913031,0.13588628,0.00022572279,0.0,0.0,-0.001,0
5824000,0.119324975,0.13564019,0.00044435263,0.0,0.0,-0.001,0
5844000,0.119080335,0.13598154,0.00043350458,0.0,0.0,-0.001,0
5864000,0.11891292,0.13620593,0.00053447485,0.0,0.0,-0.001,0
5880000,0.11881316,0.1361942,0.0005161166,0.0,0.0,-0.001,0
5900000,0.11884607,0.13594878,0.0004581213,0.0,0.0,-0.001,0
5924000,0.118873194,0.1357094,0.00046896935,0.0,0.0,-0.001,0
5940000,0.11884309,0.13566619,0.00051653385,0.0,0.0,-0.001,0
5960000,0.11924129,0.13554175,0.00050902367,0.0,0.0,-0.001,0
5980000,0.11947559,0.13552643,0.0005002618,0.0,0.0,-0.001,0
6004000,0.11946737,0.13538702,0.0005386472,0.0,0.0,-0.001,0
6020000,0.119437255,0.1354783,0.00057661533,0.0,0.0,-0.001,0
6044000,0.1194574,0.1354527,0.0005824566,0.0,0.0,-0.001,0
6064000,0.11928032,0.13526574,0.0005899668,0.0,0.0,-0.001,0
6084000,0.11937329,0.13528705,0.0006650686,0.0,0.0,-0.001,0
6100000,0.119303025,0.13540281,0.0006579757,0.0,0.0,-0.001,0
6120000,0.119253375,0.13532361,0.00057953596,0.0,0.0,-0.001,0
6140000,0.119261816,0.13516629,0.0006145835,0.0,0.0,-0.001,0
6160000,0.119292066,0.13489795,0.0005995631,0.0,0.0,-0.001,0
6180000,0.11930023,0.13484347,0.00077980757,0.0,0.0,-0.001,0
6200000,0.11900567,0.1349138,0.0006788373,0.0,0.0,-0.001,0
6220000,0.118899964,0.13512512,0.0007042885,0.0,0.0,-0.001,0
6240000,0.118619576,0.13495912,0.0006404519,0.0,0.0,-0.001,0
6260000,0.11841523,0.13499156,0.0007593632,0.0,0.0,-0.001,0
6284000,0.11814611,0.13523047,0.0007543564,0.0,0.0,-0.001,0
6300000,0.11806895,0.1351512,0.00072932243,0.0,0.0,-0.001,0
6320000,0.11804946,0.13531163,0.00064879656,0.0,0.0,-0.001,0
6344000,0.11794902,0.13545682,0.0006300211,0.0,0.0,-0.001,0
6364000,0.117868155,0.13523519,0.0007251501,0.0,0.0,-0.001,0
6384000,0.11773752,0.13510445,0.0006183386,0.0,0.0,-0.001,0
6404000,0.11762753,0.13534631,0.00063711405,0.0,0.0,-0.001,0
6424000,0.11749487,0.13533889,0.0005707741,0.0,0.0,-0.001,0
6440000,0.117330216,0.13526213,0.0005736947,0.0,0.0,-0.001,0
6464000,0.117315896,0.13501559,0.00048691034,0.0,0.0,-0.001,0
6484000,0.117240876,0.13486624,0.0005878806,0.0,0.0,-0.001,0
6500000,0.117195696,0.13489136,0.0005720258,0.0,0.0,-0.001,0
6524000,0.116854295,0.13497078,0.00054490566,0.0,0.0,-0.001,0
6544000,0.116783835,0.1349277,0.0005315542,0.0,0.0,-0.001,0
6564000,0.116369,0.1348996,0.0004994273,0.0,0.0,-0.001,0
6580000,0.11618603,0.13488692,0.00048315525,0.0,0.0,-0.001,0
6604000,0.116087474,0.13492034,0.00059372187,0.0,0.0,-0.001,0
6620000,0.11587183,0.13505527,0.00029581785,0.0,0.0,-0.001,0
6644000,0.11575883,0.13530403,0.000369668,0.0,0.0,-0.001,0
6664000,0.115397304,0.13541499,0.00044602156,0.0,0.0,-0.001,0
6684000,0.115271114,0.13536958,0.00034672022,0.0,0.0,-0.001,0
6704000,0.1152149,0.13549724,0.00047522783,0.0,0.0,-0.001,0
6724000,0.11501776,0.1355281,0.00043058395,0.0,0.0,-0.001,0
6744000,0.11473974,0.13549735,0.0004889965,0.0,0.0,-0.001,0
6760000,0.11470107,0.13556279,0.0003054142,0.0,0.0,-0.001,0
6780000,0.11458385,0.1355931,6.425381e-05,0.0,0.0,-0.001,0
6804000,0.11441052,0.13578358,0.00012141466,0.0,0.0,-0.001,0
6824000,0.11436711,0.13587187,0.00033169985,0.0,0.0,-0.001,0
6844000,0.114181235,0.13594607,0.00022906065,0.0,0.0,-0.001,0
6860000,0.11407214,0.13591123,0.00020945072,0.0,0.0,-0.001,0
6884000,0.11377325,0.13585386,0.00022655725,0.0,0.0,-0.001,0
6900000,0.113871425,0.13597986,0.0001693964,0.0,0.0,-0.001,0
6920000,0.11392225,0.13633196,0.00038093328,0.0,0.0,-0.001,0
6940000,0.11383551,0.13651662,0.00027912855,0.0,0.0,-0.001,0
6964000,0.11389977,0.1367046,0.00034838915,0.0,0.0,-0.001,0
6980000,0.113932736,0.13660611,0.00043267012,0.0,0.0,-0.001,0
7004000,0.113981366,0.13671134,0.00046354532,0.0,0.0,-0.001,0
7024000,0.11376166,0.13694271,0.00050860643,0.0,0.0,-0.001,0
7044000,0.11375586,0.13687132,0.00031459332,0.0,0.0,-0.001,0
7064000,0.11395494,0.13693804,0.00042182207,0.0,0.0,-0.001,0
7084000,0.11421295,0.1370133,0.0003246069,0.0,0.0,-0.001,0
7104000,0.114175,0.13696708,0.00044685602,0.0,0.0,-0.001,0
7124000,0.11407502,0.13671413,0.00043308735,0.0,0.0,-0.001,0
7140000,0.11382348,0.13665795,0.0004351735,0.0,0.0,-0.001,0
7160000,0.11389262,0.13693145,0.0004710555,0.0,0.0,-0.001,0
7184000,0.11426913,0.1367723,0.0005027652,0.0,0.0,-0.001,0
7200000,0.11429355,0.13665488,0.00059455633,0.0,0.0,-0.001,0
7220000,0.114495285,0.13669842,0.00059747696,0.0,0.0,-0.001,0
7244000,0.11458296,0.13675492,0.0006571412,0.0,0.0,-0.001,0
7264000,0.11426263,0.1368887,0.0005862117,0.0,0.0,-0.001,0
7284000,0.1140658,0.13699044,0.0006517172,0.0,0.0,-0.001,0
7300000,0.11391993,0.13674605,0.0006054044,0.0,0.0,-0.001,0
7320000,0.1137936,0.13648131,0.000567019,0.0,0.0,-0.001,0
7340000,0.11375295,0.13664132,0.00034880638,0.0,0.0,-0.001,0
7364000,0.11408448,0.13673344,0.00036340952,0.0,0.0,-0.001,0
7384000,0.11451861,0.13701549,0.00043267012,0.0,0.0,-0.001,0
7404000,0.11469123,0.13705374,0.00035631657,0.0,0.0,-0.001,0
7420000,0.11499107,0.13730662,0.00039303303,0.0,0.0,-0.001,0
7440000,0.11515725,0.13731794,0.00049108267,0.0,0.0,-0.001,0
7460000,0.11530093,0.13764577,0.0004556179,0.0,0.0,-0.001,0
7484000,0.115215495,0.13773966,0.00047022104,0.0,0.0,-0.001,0
7504000,0.1157474,0.13789827,0.00052279234,0.0,0.0,-0.001,0
7524000,0.11597576,0.13767678,0.0005966425,0.0,0.0,-0.001,0
7544000,0.11596719,0.13749398,0.00055992603,0.0,0.0,-0.001,0
7560000,0.115855426,0.13751382,0.000549078,0.0,0.0,-0.001,0
7580000,0.11606216,0.13747321,0.00063711405,0.0,0.0,-0.001,0
7600000,0.1161765,0.13734135,0.0005469918,0.0,0.0,-0.001,0
7620000,0.11644848,0.13744341,0.00055617094,0.0,0.0,-0.001,0
7644000,0.11676948,0.13728198,0.00052779913,0.0,0.0,-0.001,0
7664000,0.1168364,0.13695867,0.0004981756,0.0,0.0,-0.001,0
7684000,0.1170235,0.13674316,0.00048273802,0.0,0.0,-0.001,0
7704000,0.117254354,0.13680935,0.0005361438,0.0,0.0,-0.001,0
7724000,0.11732651,0.13695377,0.0006583929,0.0,0.0,-0.001,0
7740000,0.11735162,0.1367285,0.0006471276,0.0,0.0,-0.001,0
7764000,0.117252685,0.13668871,0.00062835217,0.0,0.0,-0.001,0
7784000,0.11742531,0.13681635,0.00058203936,0.0,0.0,-0.001,0
7800000,0.117373705,0.1366375,0.0005720258,0.0,0.0,-0.001,0
7824000,0.117299736,0.13633804,0.00052404404,0.0,0.0,-0.001,0
7844000,0.1172338,0.13623251,0.0006170869,0.0,0.0,-0.001,0
7864000,0.117221765,0.13629767,0.00052404404,0.0,0.0,-0.001,0
7884000,0.11738604,0.13618279,0.0005565882,0.0,0.0,-0.001,0
7904000,0.11742523,0.13607006,0.0006275177,0.0,0.0,-0.001,0
7924000,0.11735305,0.13623941,0.00079774857,0.0,0.0,-0.001,0
7944000,0.11726398,0.13625757,0.00064378977,0.0,0.0,-0.001,0
7960000,0.11724469,0.1362649,0.0006350279,0.0,0.0,-0.001,0
7980000,0.11748108,0.1361958,0.00074476004,0.0,0.0,-0.001,0
8004000,0.11761685,0.13610102,0.00071179867,0.0,0.0,-0.001,0
8020000,0.11770559,0.13608335,0.0007289052,0.0,0.0,-0.001,0
8044000,0.117717214,0.13584329,0.0007301569,0.0,0.0,-0.001,0
8064000,0.11762475,0.1357466,0.00052946806,0.0,0.0,-0.001,0
8084000,0.11773374,0.13557531,0.0005519986,0.0,0.0,-0.001,0
8100000,0.11772237,0.1354925,0.0005373955,0.0,0.0,-0.001,0
8124000,0.11761055,0.13520238,0.00056785345,0.0,0.0,-0.001,0
8140000,0.11771978,0.13507666,0.00055617094,0.0,0.0,-0.001,0
8164000,0.11756437,0.13522466,0.0005695224,0.0,0.0,-0.001,0
8184000,0.11741987,0.13528939,0.00052446127,0.0,0.0,-0.001,0
8204000,0.11752706,0.13501064,0.00045895576,0.0,0.0,-0.001,0
8224000,0.1174808,0.13485357,0.0004748106,0.0,0.0,-0.001,0
8244000,0.11758417,0.13472444,0.0005040169,0.0,0.0,-0.001,0
8264000,0.11766762,0.1347145,0.0004543662,0.0,0.0,-0.001,0
8284000,0.117611945,0.13466524,0.00033462048,0.0,0.0,-0.001,0
8304000,0.11769333,0.13473982,0.0004339218,0.0,0.0,-0.001,0
8324000,0.11757218,0.13444698,0.0003412962,0.0,0.0,-0.001,0
8344000,0.117244184,0.13424782,0.0006058216,0.0,0.0,-0.001,0
8364000,0.11702967,0.13409936,0.00074601173,0.0,0.0,-0.001,0
8384000,0.116860196,0.13412689,0.0006145835,0.0,0.0,-0.001,0
8404000,0.116594575,0.13415696,0.0007606149,0.0,0.0,-0.001,0
8424000,0.116566494,0.13435696,0.0006638169,0.0,0.0,-0.001,0
8444000,0.11668175,0.13421884,0.0007289052,0.0,0.0,-0.001,0
8460000,0.116508275,0.13418953,0.00072681904,0.0,0.0,-0.001,0
8484000,0.11648889,0.13405235,0.00067967176,0.0,0.0,-0.001,0
8504000,0.11646485,0.13399367,0.0005891323,0.0,0.0,-0.001,0
8524000,0.11642202,0.1338257,0.00058078766,0.0,0.0,-0.001,0
8540000,0.1164532,0.13390094,0.00059872866,0.0,0.0,-0.001,0
8564000,0.11618903,0.13373324,0.0005303025,0.0,0.0,-0.001,0
8584000,0.116022095,0.13370384,0.00052779913,0.0,0.0,-0.001,0
8604000,0.115855284,0.13373153,0.0004940033,0.0,0.0,-0.001,0
8624000,0.115747266,0.13374281,0.0005328059,0.0,0.0,-0.001,0
8644000,0.11579671,0.13402031,0.0005649328,0.0,0.0,-0.001,0
8664000,0.11579173,0.1342779,0.0005465746,0.0,0.0,-0.001,0
8684000,0.115751475,0.13441557,0.0005557537,0.0,0.0,-0.001,0
8704000,0.11574285,0.13439614,0.0005632639,0.0,0.0,-0.001,0
8724000,0.11578715,0.1342463,0.00053447485,0.0,0.0,-0.001,0
8744000,0.11575631,0.1343299,0.0005261302,0.0,0.0,-0.001,0
8764000,0.11576007,0.1342741,0.0005953908,0.0,0.0,-0.001,0
8784000,0.11570449,0.13414557,0.00048065186,0.0,0.0,-0.001,0
8800000,0.115824014,0.13404065,0.0005081892,0.0,0.0,-0.001,0
8820000,0.115656435,0.13421531,0.00047773123,0.0,0.0,-0.001,0
8840000,0.115747325,0.13409196,0.0005144477,0.0,0.0,-0.001,0
8860000,0.11551481,0.13406084,0.00052654743,0.0,0.0,-0.001,0
8880000,0.11561424,0.13382693,0.0005248785,0.0,0.0,-0.001,0
8900000,0.11529082,0.13393123,0.0004969239,0.0,0.0,-0.001,0
8920000,0.11520945,0.13391025,0.00046771765,0.0,0.0,-0.001,0
8940000,0.11533297,0.13392586,0.00041097403,0.0,0.0,-0.001,0
8960000,0.11536339,0.13383403,0.00045144558,0.0,0.0,-0.001,0
8980000,0.11508321,0.13386622,0.00035464764,0.0,0.0,-0.001,0
9000000,0.11497538,0.13378155,0.00046354532,0.0,0.0,-0.001,0
9024000,0.11524242,0.13339864,0.00046145916,0.0,0.0,-0.001,0
9044000,0.115210265,0.13337752,0.00043183565,0.0,0.0,-0.001,0
9064000,0.11517126,0.13312829,0.0004977584,0.0,0.0,-0.001,0
9080000,0.11512961,0.1331792,0.0005044341,0.0,0.0,-0.001,0
9100000,0.11518356,0.1329488,0.0004877448,0.0,0.0,-0.001,0
9124000,0.11519152,0.13265464,0.0005415678,0.0,0.0,-0.001,0
9144000,0.11524087,0.13273357,0.00048273802,0.0,0.0,-0.001,0
9164000,0.115360074,0.13296443,0.0004956722,0.0,0.0,-0.001,0
9184000,0.11526416,0.13333443,0.000500679,0.0,0.0,-0.001,0
9200000,0.11518063,0.13328986,0.00051277876,0.0,0.0,-0.001,0
9220000,0.11520988,0.13319556,0.0005899668,0.0,0.0,-0.001,0
9240000,0.11503484,0.13323595,0.00049608946,0.0,0.0,-0.001,0
9260000,0.11489312,0.13306467,0.0004543662,0.0,0.0,-0.001,0
9284000,0.11467154,0.13340953,0.0005123615,0.0,0.0,-0.001,0
9300000,0.114431344,0.13324519,0.00049859285,0.0,0.0,-0.001,0
9324000,0.11443795,0.13324502,0.0004568696,0.0,0.0,-0.001,0
9340000,0.11443702,0.13316627,0.0005899668,0.0,0.0,-0.001,0
9364000,0.11444215,0.13344309,0.0005761981,0.0,0.0,-0.001,0
9380000,0.11461826,0.1335963,0.00054490566,0.0,0.0,-0.001,0
9400000,0.11454032,0.13351959,0.0005211234,0.0,0.0,-0.001,0
9420000,0.11441448,0.1332914,0.00047397614,0.0,0.0,-0.001,0
9444000,0.11428733,0.13282648,0.00050234795,0.0,0.0,-0.001,0
9460000,0.11425534,0.13280037,0.0005645156,0.0,0.0,-0.001,0
9484000,0.114156,0.13285376,0.0005119443,0.0,0.0,-0.001,0
9500000,0.11401885,0.13271119,0.0004914999,0.0,0.0,-0.001,0
9524000,0.113915,0.13278443,0.0004810691,0.0,0.0,-0.001,0
9540000,0.11391631,0.1325463,0.00044727325,0.0,0.0,-0.001,0
9560000,0.11363052,0.1324783,0.00047147274,0.0,0.0,-0.001,0
9584000,0.11339032,0.13254593,0.0004823208,0.0,0.0,-0.001,0
9604000,0.11326204,0.13264827,0.0003938675,0.0,0.0,-0.001,0
9620000,0.11312532,0.13272497,0.00046646595,0.0,0.0,-0.001,0
9644000,0.11323891,0.13226819,0.00043350458,0.0,0.0,-0.001,0
9660000,0.11331489,0.1322088,0.00046020746,0.0,0.0,-0.001,0
9680000,0.11354257,0.13190916,0.00049316883,0.0,0.0,-0.001,0
9704000,0.11366061,0.13169123,0.00048607588,0.0,0.0,-0.001,0
9720000,0.11357708,0.13154969,0.00048732758,0.0,0.0,-0.001,0
9740000,0.113569155,0.1313892,0.00043559074,0.0,0.0,-0.001,0
9764000,0.11352148,0.13149679,0.0005323887,0.0,0.0,-0.001,0
9780000,0.11342038,0.13153863,0.0005398989,0.0,0.0,-0.001,0
9804000,0.11339922,0.13171744,0.0005044341,0.0,0.0,-0.001,0
9824000,0.11339361,0.13153815,0.0005111098,0.0,0.0,-0.001,0
9844000,0.11336103,0.1315866,0.00046104193,0.0,0.0,-0.001,0
9860000,0.1133371,0.13156527,0.0005336404,0.0,0.0,-0.001,0
9884000,0.11324375,0.13153493,0.0005348921,0.0,0.0,-0.001,0
9904000,0.112910286,0.13133694,0.0005198717,0.0,0.0,-0.001,0
9924000,0.112766415,0.13125512,0.0005995631,0.0,0.0,-0.001,0
9944000,0.112316936,0.13144606,0.0004518628,0.0,0.0,-0.001,0
9964000,0.11240469,0.13161352,0.0005173683,0.0,0.0,-0.001,0
9980000,0.11223787,0.13152356,0.0005361438,0.0,0.0,-0.001,0
10004000,0.11207823,0.13158691,0.00050610304,0.0,0.0,-0.001,0
10020000,0.112109914,0.13163263,0.00049316883,0.0,0.0,-0.001,0
10040000,0.11218856,0.13175651,0.0004643798,0.0,0.0,-0.001,0
10064000,0.11206587,0.13186875,0.0004506111,0.0,0.0,-0.001,0
10084000,0.11218204,0.13192879,0.0003851056,0.0,0.0,-0.001,0
10100000,0.112111025,0.13197508,0.00040221214,0.0,0.0,-0.001,0
10124000,0.11211989,0.13201205,0.00044727325,0.0,0.0,-0.001,0
10140000,0.1121853,0.13188729,0.00045269728,0.0,0.0,-0.001,0
10160000,0.11228389,0.13213903,0.00047147274,0.0,0.0,-0.001,0
10184000,0.11245132,0.13213632,0.0004760623,0.0,0.0,-0.001,0
10204000,0.11240652,0.13190855,0.00046521425,0.0,0.0,-0.001,0
10224000,0.11256415,0.13179457,0.00048482418,0.0,0.0,-0.001,0
10244000,0.11260198,0.13176562,0.00049108267,0.0,0.0,-0.001,0
10264000,0.112758845,0.131701,0.0005194545,0.0,0.0,-0.001,0
10284000,0.112462424,0.13175704,0.00055241585,0.0,0.0,-0.001,0
10300000,0.11264075,0.1314795,0.00053948164,0.0,0.0,-0.001,0
10320000,0.112712644,0.13108698,0.00050485134,0.0,0.0,-0.001,0
10340000,0.112764366,0.13082309,0.0004902482,0.0,0.0,-0.001,0
10360000,0.11278145,0.13090241,0.00048440695,0.0,0.0,-0.001,0
10380000,0.11302594,0.13105647,0.00048732758,0.0,0.0,-0.001,0
10404000,0.113256544,0.13111717,0.00047564507,0.0,0.0,-0.001,0
10420000,0.1131401,0.13098468,0.00050777197,0.0,0.0,-0.001,0
10444000,0.11311048,0.13077508,0.0004981756,0.0,0.0,-0.001,0
10460000,0.11302553,0.13084431,0.00047022104,0.0,0.0,-0.001,0
10480000,0.11272061,0.1308682,0.000536561,0.0,0.0,-0.001,0
10500000,0.112602666,0.13062604,0.0005044341,0.0,0.0,-0.001,0
10524000,0.11278227,0.1308183,0.00054448843,0.0,0.0,-0.001,0
10544000,0.112766385,0.13080153,0.00048816204,0.0,0.0,-0.001,0
10564000,0.11274418,0.1307213,0.00053197145,0.0,0.0,-0.001,0
10580000,0.112754874,0.13083623,0.00051277876,0.0,0.0,-0.001,0
10604000,0.11253613,0.1310772,0.0005336404,0.0,0.0,-0.001,0
10620000,0.11228882,0.13106932,0.0005649328,0.0,0.0,-0.001,0
10640000,0.11218952,0.13126463,0.0005298853,0.0,0.0,-0.001,0
10660000,0.112116545,0.13114999,0.0005065203,0.0,0.0,-0.001,0
10684000,0.112346604,0.1311478,0.0005336404,0.0,0.0,-0.001,0
10704000,0.11233911,0.13093516,0.00052446127,0.0,0.0,-0.001,0
10724000,0.11202142,0.13056298,0.0005273819,0.0,0.0,-0.001,0
10744000,0.11185342,0.1302653,0.00047272444,0.0,0.0,-0.001,0
10764000,0.1116296,0.13019821,0.00045228004,0.0,0.0,-0.001,0
10780000,0.111509845,0.12984832,0.00046604872,0.0,0.0,-0.001,0
10800000,0.1115662,0.12984985,0.0004748106,0.0,0.0,-0.001,0
10820000,0.11139117,0.12972365,0.00046145916,0.0,0.0,-0.001,0
10840000,0.11122748,0.12976688,0.00047940016,0.0,0.0,-0.001,0
10864000,0.11095702,0.13000204,0.00045770407,0.0,0.0,-0.001,0
10880000,0.11093019,0.13007474,0.000495255,0.0,0.0,-0.001,0
10904000,0.11085284,0.1300756,0.000441432,0.0,0.0,-0.001,0
10920000,0.11088864,0.1300863,0.0004735589,0.0,0.0,-0.001,0
10940000,0.11104071,0.1301556,0.0004543662,0.0,0.0,-0.001,0
10960000,0.111166835,0.13009088,0.00049316883,0.0,0.0,-0.001,0
10980000,0.11104271,0.13026938,0.0004606247,0.0,0.0,-0.001,0
11004000,0.11081247,0.13063155,0.00044435263,0.0,0.0,-0.001,0
11020000,0.11073162,0.13036658,0.00045102835,0.0,0.0,-0.001,0
11040000,0.11073778,0.13003814,0.00046730042,0.0,0.0,-0.001,0
11060000,0.11084046,0.12997985,0.00046771765,0.0,0.0,-0.001,0
11084000,0.1110661,0.13002412,0.00041097403,0.0,0.0,-0.001,0
11104000,0.11123466,0.13013656,0.0004748106,0.0,0.0,-0.001,0
11124000,0.11131067,0.13014929,0.0005507469,0.0,0.0,-0.001,0
11140000,0.11100852,0.13008183,0.00048190355,0.0,0.0,-0.001,0
11164000,0.11103007,0.13004264,0.00052821636,0.0,0.0,-0.001,0
11180000,0.11101614,0.12982301,0.00054198503,0.0,0.0,-0.001,0
11204000,0.11111717,0.12935704,0.0005799532,0.0,0.0,-0.001,0
11220000,0.111050665,0.12937397,0.00055366755,0.0,0.0,-0.001,0
11244000,0.11101058,0.12925531,0.0005453229,0.0,0.0,-0.001,0
11260000,0.11093763,0.12928894,0.0004994273,0.0,0.0,-0.001,0
11280000,0.11105146,0.128854,0.00046229362,0.0,0.0,-0.001,0
11300000,0.11085799,0.1289211,0.0004581213,0.0,0.0,-0.001,0
11320000,0.11086251,0.12863924,0.00046145916,0.0,0.0,-0.001,0
11344000,0.110877246,0.12851407,0.00046730042,0.0,0.0,-0.001,0
11360000,0.11076066,0.12871197,0.00048273802,0.0,0.0,-0.001,0
11384000,0.11061984,0.12849994,0.0004581213,0.0,0.0,-0.001,0
11404000,0.1105794,0.1288173,0.00048357248,0.0,0.0,-0.001,0
11420000,0.11055495,0.1287683,0.00042307377,0.0,0.0,-0.001,0
11444000,0.1103769,0.12897097,0.0003684163,0.0,0.0,-0.001,0
11460000,0.11031808,0.12896281,0.00036549568,0.0,0.0,-0.001,0
11484000,0.110328615,0.12885743,0.00038176775,0.0,0.0,-0.001,0
11500000,0.110318325,0.12873988,0.00036215782,0.0,0.0,-0.001,0
11524000,0.11011822,0.12907428,0.00040346384,0.0,0.0,-0.001,0
11544000,0.11019906,0.12917861,0.00044852495,0.0,0.0,-0.001,0
11564000,0.110152386,0.1290857,0.00040513277,0.0,0.0,-0.001,0
11580000,0.10993002,0.12909713,0.00040596724,0.0,0.0,-0.001,0
11604000,0.10982968,0.12924466,0.0003771782,0.0,0.0,-0.001,0
11620000,0.10963716,0.12903292,0.00039803982,0.0,0.0,-0.001,0
11640000,0.109527834,0.12897743,0.000441432,0.0,0.0,-0.001,0
11660000,0.10936866,0.12886244,0.00038969517,0.0,0.0,-0.001,0
11680000,0.10926866,0.12880604,0.00046104193,0.0,0.0,-0.001,0
11704000,0.10955551,0.12854825,0.0004272461,0.0,0.0,-0.001,0
11720000,0.10971818,0.12859763,0.00046771765,0.0,0.0,-0.001,0
11744000,0.10977619,0.12846503,0.00048691034,0.0,0.0,-0.001,0
11764000,0.10984548,0.12853569,0.00052404404,0.0,0.0,-0.001,0
11780000,0.10966708,0.12818097,0.00054490566,0.0,0.0,-0.001,0
11804000,0.10959375,0.12768307,0.0005031824,0.0,0.0,-0.001,0
11824000,0.10965051,0.12744932,0.00046563148,0.0,0.0,-0.001,0
11844000,0.109733984,0.1274788,0.00046563148,0.0,0.0,-0.001,0
11864000,0.10961888,0.12740782,0.00048607588,0.0,0.0,-0.001,0
11884000,0.109537214,0.1270533,0.00050735474,0.0,0.0,-0.001,0
11900000,0.109514624,0.12696297,0.0004944205,0.0,0.0,-0.001,0
11924000,0.10952894,0.12695532,0.00045728683,0.0,0.0,-0.001,0
11944000,0.10943438,0.12692307,0.00045102835,0.0,0.0,-0.001,0
11960000,0.109217465,0.12680379,0.0004823208,0.0,0.0,-0.001,0
11980000,0.10902843,0.12678105,0.00048607588,0.0,0.0,-0.001,0
12000000,0.10901496,0.12645847,0.0004581213,0.0,0.0,-0.001,0
12020000,0.108976305,0.1261951,0.00042265654,0.0,0.0,-0.001,0
12040000,0.1088312,0.12610722,0.00041598082,0.0,0.0,-0.001,0
12060000,0.108677834,0.12603538,0.00039678812,0.0,0.0,-0.001,0
12084000,0.10853609,0.1260901,0.00039887428,0.0,0.0,-0.001,0
12104000,0.108481824,0.12605704,0.00042557716,0.0,0.0,-0.001,0
12124000,0.108448446,0.12586376,0.00044059753,0.0,0.0,-0.001,0
12140000,0.10841901,0.12598465,0.0004698038,0.0,0.0,-0.001,0
12164000,0.108167715,0.12612748,0.00048273802,0.0,0.0,-0.001,0
12184000,0.10809339,0.12617609,0.00046229362,0.0,0.0,-0.001,0
12204000,0.10816133,0.12634505,0.0004631281,0.0,0.0,-0.001,0
12220000,0.10820556,0.1264694,0.00048983097,0.0,0.0,-0.001,0
12244000,0.108018294,0.12657703,0.0004556179,0.0,0.0,-0.001,0
12260000,0.1079481,0.12656708,0.00045603514,0.0,0.0,-0.001,0
12280000,0.10801705,0.12670574,0.00046354532,0.0,0.0,-0.001,0
12300000,0.108059235,0.12694713,0.0005106926,0.0,0.0,-0.001,0
12324000,0.10808326,0.12707596,0.00048065186,0.0,0.0,-0.001,0
12340000,0.10796509,0.12677784,0.00047272444,0.0,0.0,-0.001,0
12364000,0.10808847,0.127142,0.0004272461,0.0,0.0,-0.001,0
12380000,0.10805116,0.12696758,0.00039929152,0.0,0.0,-0.001,0
12404000,0.10785477,0.1270716,0.00048983097,0.0,0.0,-0.001,0
12424000,0.10783437,0.12707755,0.00052028894,0.0,0.0,-0.001,0
12444000,0.107779555,0.12701297,0.0005540848,0.0,0.0,-0.001,0
12464000,0.10773724,0.12730853,0.00048983097,0.0,0.0,-0.001,0
12484000,0.10781117,0.12745342,0.00053572655,0.0,0.0,-0.001,0
12504000,0.10794241,0.12752567,0.00046813488,0.0,0.0,-0.001,0
12524000,0.10829525,0.12715456,0.00049984455,0.0,0.0,-0.001,0
12540000,0.108251,0.12700014,0.0005027652,0.0,0.0,-0.001,0
12564000,0.10838753,0.12694843,0.0004810691,0.0,0.0,-0.001,0
12584000,0.10848115,0.12690501,0.0005119443,0.0,0.0,-0.001,0
12604000,0.10841434,0.12690403,0.000572443,0.0,0.0,-0.001,0
12620000,0.108353004,0.12682937,0.0006045699,0.0,0.0,-0.001,0
12644000,0.10855305,0.12652342,0.00059330463,0.0,0.0,-0.001,0
12660000,0.10853685,0.12648766,0.0005390644,0.0,0.0,-0.001,0
12684000,0.10883276,0.12631564,0.0005649328,0.0,0.0,-0.001,0
12704000,0.10916148,0.1262618,0.0005069375,0.0,0.0,-0.001,0
12724000,0.1092017,0.12647277,0.0005440712,0.0,0.0,-0.001,0
12740000,0.10935663,0.12634458,0.0004927516,0.0,0.0,-0.001,0
12764000,0.109596714,0.12598655,0.00047522783,0.0,0.0,-0.001,0
12780000,0.109617874,0.12618217,0.00044351816,0.0,0.0,-0.001,0
12804000,0.10970439,0.1260148,0.00042515993,0.0,0.0,-0.001,0
12820000,0.10955452,0.12603451,0.0005056858,0.0,0.0,-0.001,0
12840000,0.109450966,0.12581828,0.0004956722,0.0,0.0,-0.001,0
12864000,0.10929805,0.1258418,0.00046563148,0.0,0.0,-0.001,0
12884000,0.10928863,0.12602584,0.00046563148,0.0,0.0,-0.001,0
12904000,0.10912971,0.1260298,0.00051403046,0.0,0.0,-0.001,0
12920000,0.10901415,0.12596051,0.00045228004,0.0,0.0,-0.001,0
12940000,0.10880047,0.1257804,0.0005052686,0.0,0.0,-0.001,0
12964000,0.10861179,0.12562922,0.00044894218,0.0,0.0,-0.001,0
12980000,0.10864761,0.12579352,0.00049108267,0.0,0.0,-0.001,0
13004000,0.10864333,0.12558194,0.00040721893,0.0,0.0,-0.001,0
13020000,0.10856767,0.12548092,0.00035589933,0.0,0.0,-0.001,0
13040000,0.10888714,0.12540452,0.00042265654,0.0,0.0,-0.001,0
13060000,0.10891614,0.1250995,0.00034588575,0.0,0.0,-0.001,0
13080000,0.10908783,0.1246108,0.00041139126,0.0,0.0,-0.001,0
13100000,0.10902697,0.12462674,0.000423491,0.0,0.0,-0.001,0
13120000,0.10871216,0.124440655,0.00041890144,0.0,0.0,-0.001,0
13140000,0.108666785,0.12453275,0.00045228004,0.0,0.0,-0.001,0
13160000,0.108571224,0.124572754,0.0004464388,0.0,0.0,-0.001,0
13180000,0.10854649,0.12417491,0.0004927516,0.0,0.0,-0.001,0
13200000,0.108453184,0.123992115,0.00046563148,0.0,0.0,-0.001,0
13220000,0.108565964,0.12392646,0.000500679,0.0,0.0,-0.001,0
13244000,0.10861222,0.12378976,0.00048482418,0.0,0.0,-0.001,0
13260000,0.10867579,0.12355982,0.0004977584,0.0,0.0,-0.001,0
13280000,0.10877408,0.12366576,0.00045728683,0.0,0.0,-0.001,0
13300000,0.108769126,0.123748206,0.00055366755,0.0,0.0,-0.001,0
13324000,0.10868957,0.12367452,0.00048023462,0.0,0.0,-0.001,0
13344000,0.108914085,0.12365788,0.00043058395,0.0,0.0,-0.001,0
13364000,0.10891532,0.123713806,0.00044852495,0.0,0.0,-0.001,0
13384000,0.1089128,0.123504296,0.0003838539,0.0,0.0,-0.001,0
13404000,0.10900932,0.12315338,0.0004748106,0.0,0.0,-0.001,0
13420000,0.10895719,0.123250276,0.0004376769,0.0,0.0,-0.001,0
13444000,0.10917326,0.12345674,0.00039094687,0.0,0.0,-0.001,0
13460000,0.10939785,0.12338668,0.00040471554,0.0,0.0,-0.001,0
13484000,0.109523594,0.12337792,0.00042015314,0.0,0.0,-0.001,0
13500000,0.10951365,0.123477586,0.000423491,0.0,0.0,-0.001,0
13520000,0.10938198,0.12357419,0.00043684244,0.0,0.0,-0.001,0
13540000,0.109425046,0.123798184,0.00045269728,0.0,0.0,-0.001,0
13560000,0.10957361,0.123774916,0.00045102835,0.0,0.0,-0.001,0
13580000,0.10943717,0.12389641,0.00035589933,0.0,0.0,-0.001,0
13604000,0.10918185,0.123661555,0.00041806698,0.0,0.0,-0.001,0
13620000,0.10909808,0.12365946,0.00038719177,0.0,0.0,-0.001,0
13640000,0.108920574,0.123735726,0.0004297495,0.0,0.0,-0.001,0
13660000,0.108755164,0.123710796,0.0005069375,0.0,0.0,-0.001,0
13680000,0.10861284,0.12380438,0.0004439354,0.0,0.0,-0.001,0
13700000,0.10853697,0.1238353,0.00042891502,0.0,0.0,-0.001,0
13724000,0.10860087,0.12382902,0.0002824664,0.0,0.0,-0.001,0
13740000,0.10853622,0.12374173,0.00030457973,0.0,0.0,-0.001,0
13764000,0.1085961,0.12377127,0.00036257505,0.0,0.0,-0.001,0
13784000,0.108632036,0.12374765,0.00043475628,0.0,0.0,-0.001,0
13804000,0.10895409,0.12368043,0.00043225288,0.0,0.0,-0.001,0
13824000,0.108889796,0.12353398,0.00042933226,0.0,0.0,-0.001,0
13844000,0.108765945,0.1236687,0.00045853853,0.0,0.0,-0.001,0
13864000,0.108539574,0.12370586,0.00047022104,0.0,0.0,-0.001,0
13884000,0.108494654,0.1235344,0.0005378127,0.0,0.0,-0.001,0
13900000,0.108746305,0.12358271,0.00047022104,0.0,0.0,-0.001,0
13924000,0.10894337,0.12365522,0.00052571297,0.0,0.0,-0.001,0
13940000,0.108750515,0.12355639,0.0005173683,0.0,0.0,-0.001,0
13964000,0.108546294,0.12366928,0.0004864931,0.0,0.0,-0.001,0
13980000,0.10858549,0.12355696,0.0004618764,0.0,0.0,-0.001,0
14000000,0.10862572,0.12327864,0.0005161166,0.0,0.0,-0.001,0
14024000,0.108276725,0.123432666,0.0004965067,0.0,0.0,-0.001,0
14044000,0.10816535,0.12337881,0.00054490566,0.0,0.0,-0.001,0
14060000,0.10849182,0.12335839,0.000613749,0.0,0.0,-0.001,0
14080000,0.108314134,0.123012766,0.0005161166,0.0,0.0,-0.001,0
14100000,0.108392194,0.12301422,0.0005841255,0.0,0.0,-0.001,0
14124000,0.10814972,0.12303284,0.00068342686,0.0,0.0,-0.001,0
14144000,0.10826283,0.12302762,0.00052404404,0.0,0.0,-0.001,0
14164000,0.10810174,0.12291626,0.00058496,0.0,0.0,-0.001,0
14180000,0.1080809,0.12285071,0.0005866289,0.0,0.0,-0.001,0
14204000,0.10780336,0.123015754,0.0005874634,0.0,0.0,-0.001,0
14220000,0.10777302,0.12291872,0.0005378127,0.0,0.0,-0.001,0
14244000,0.10823649,0.12285254,0.00056409836,0.0,0.0,-0.001,0
14260000,0.108291894,0.12259357,0.000495255,0.0,0.0,-0.001,0
14284000,0.10862144,0.12232308,0.00064504147,0.0,0.0,-0.001,0
14300000,0.10856617,0.122076035,0.0006233454,0.0,0.0,-0.001,0
14324000,0.10866241,0.12193536,0.0006066561,0.0,0.0,-0.001,0
14340000,0.10889739,0.121749684,0.0005978942,0.0,0.0,-0.001,0
14364000,0.10890161,0.121854484,0.0005503297,0.0,0.0,-0.001,0
14384000,0.108733796,0.12167841,0.00050777197,0.0,0.0,-0.001,0
14404000,0.10867066,0.121516526,0.0005469918,0.0,0.0,-0.001,0
14424000,0.10872106,0.121748716,0.00045728683,0.0,0.0,-0.001,0
14444000,0.10889291,0.1216632,0.0004944205,0.0,0.0,-0.001,0
14460000,0.10884061,0.12169403,0.0005182028,0.0,0.0,-0.001,0
14484000,0.108840704,0.1212776,0.00045353174,0.0,0.0,-0.001,0
14504000,0.10880992,0.12148027,0.00040262938,0.0,0.0,-0.001,0
14524000,0.108692884,0.12128847,0.00042641163,0.0,0.0,-0.001,0
14544000,0.108569935,0.12107996,0.00041639805,0.0,0.0,-0.001,0
14564000,0.10865166,0.120741636,0.0004105568,0.0,0.0,-0.001,0
14580000,0.108630136,0.120679066,0.00041639805,0.0,0.0,-0.001,0
14604000,0.10859063,0.120558225,0.00041097403,0.0,0.0,-0.001,0
14624000,0.108452074,0.120709844,0.0004351735,0.0,0.0,-0.001,0
14640000,0.10848448,0.12082745,0.0004184842,0.0,0.0,-0.001,0
14660000,0.1084488,0.121072225,0.00041556358,0.0,0.0,-0.001,0
14680000,0.10839449,0.12118456,0.0004439354,0.0,0.0,-0.001,0
14700000,0.10839528,0.12107364,0.0003579855,0.0,0.0,-0.001,0
14724000,0.10822419,0.1212461,0.00048023462,0.0,0.0,-0.001,0
14740000,0.10814883,0.12115793,0.0004172325,0.0,0.0,-0.001,0
14760000,0.10822254,0.121218406,0.0004197359,0.0,0.0,-0.001,0
14784000,0.108233236,0.12098417,0.00043809414,0.0,0.0,-0.001,0
14804000,0.10849285,0.12121427,0.00041139126,0.0,0.0,-0.001,0
14824000,0.10853979,0.1213858,0.0004259944,0.0,0.0,-0.001,0
14840000,0.10834074,0.12132807,0.0005123615,0.0,0.0,-0.001,0
14860000,0.1080492,0.12136696,0.00056660175,0.0,0.0,-0.001,0
14884000,0.1081754,0.121846795,0.0005874634,0.0,0.0,-0.001,0
14904000,0.10832214,0.12194317,0.0005323887,0.0,0.0,-0.001,0
14924000,0.1081415,0.12178876,0.00059622526,0.0,0.0,-0.001,0
14944000,0.108076096,0.121696144,0.00049066544,0.0,0.0,-0.001,0
14964000,0.1079507,0.1217455,0.00053822994,0.0,0.0,-0.001,0
14980000,0.108201,0.12181258,0.00061541796,0.0,0.0,-0.001,0
15004000,0.10815115,0.12177138,0.0005595088,0.0,0.0,-0.001,0
15024000,0.10804187,0.12169107,0.00047439337,0.0,0.0,-0.001,0
15044000,0.10796504,0.12159321,0.00045269728,0.0,0.0,-0.001,0
15064000,0.10778552,0.12152201,0.00043058395,0.0,0.0,-0.001,0
15080000,0.107654996,0.12127809,0.00040972233,0.0,0.0,-0.001,0
15100000,0.107590795,0.12079223,0.0004723072,0.0,0.0,-0.001,0
15124000,0.107479624,0.120534375,0.0004464388,0.0,0.0,-0.001,0
15140000,0.107477956,0.120395504,0.0004631281,0.0,0.0,-0.001,0
15160000,0.10724631,0.12017812,0.00040221214,0.0,0.0,-0.001,0
15180000,0.10687655,0.11987111,0.00044894218,0.0,0.0,-0.001,0
15204000,0.10666664,0.11949821,0.00046604872,0.0,0.0,-0.001,0
15220000,0.106659316,0.1195565,0.0004889965,0.0,0.0,-0.001,0
15244000,0.10650183,0.11972546,0.00047188997,0.0,0.0,-0.001,0
15264000,0.10638645,0.1194764,0.00043058395,0.0,0.0,-0.001,0
15284000,0.10650001,0.11936126,0.00038343668,0.0,0.0,-0.001,0
15300000,0.10653931,0.11936046,0.00045728683,0.0,0.0,-0.001,0
15324000,0.10645625,0.11915723,0.00042682886,0.0,0.0,-0.001,0
15344000,0.106129706,0.119129956,0.00043016672,0.0,0.0,-0.001,0
15364000,0.10591023,0.11905298,0.00038135052,0.0,0.0,-0.001,0
15384000,0.10608955,0.11901363,0.00041931868,0.0,0.0,-0.001,0
15404000,0.10600737,0.11875802,0.00044351816,0.0,0.0,-0.001,0
15420000,0.10592861,0.11858202,0.00039345026,0.0,0.0,-0.001,0
15444000,0.10585141,0.11833122,0.00045728683,0.0,0.0,-0.001,0
15460000,0.106007665,0.11809118,0.00040847063,0.0,0.0,-0.001,0
15480000,0.10595581,0.11774775,0.0004531145,0.0,0.0,-0.001,0
15500000,0.10592266,0.11750276,0.0004889965,0.0,0.0,-0.001,0
15524000,0.10594922,0.117357105,0.00049859285,0.0,0.0,-0.001,0
15540000,0.10584817,0.11726084,0.0003387928,0.0,0.0,-0.001,0
15564000,0.10591598,0.11709357,0.00039720535,0.0,0.0,-0.001,0
15580000,0.106105626,0.11703164,0.00039052963,0.0,0.0,-0.001,0
15600000,0.10605099,0.116951786,0.0003963709,0.0,0.0,-0.001,0
15620000,0.10589943,0.11716309,0.0003387928,0.0,0.0,-0.001,0
15644000,0.10605125,0.116822384,0.00047022104,0.0,0.0,-0.001,0
15660000,0.10606727,0.1166093,0.00034338236,0.0,0.0,-0.001,0
15680000,0.106213465,0.11647498,0.00039428473,0.0,0.0,-0.001,0
15700000,0.105913535,0.11637148,0.00041556358,0.0,0.0,-0.001,0
15724000,0.10583599,0.11629641,0.00042557716,0.0,0.0,-0.001,0
15740000,0.105911076,0.1161495,0.0003617406,0.0,0.0,-0.001,0
15764000,0.10582944,0.11603016,0.0004389286,0.0,0.0,-0.001,0
15780000,0.10562538,0.11604475,0.0004130602,0.0,0.0,-0.001,0
15804000,0.10553351,0.1160046,0.0004364252,0.0,0.0,-0.001,0
15820000,0.105508976,0.115996055,0.00044810772,0.0,0.0,-0.001,0
15844000,0.105579995,0.11573737,0.0004184842,0.0,0.0,-0.001,0
15860000,0.10563799,0.11555627,0.00042766333,0.0,0.0,-0.001,0
15884000,0.10589711,0.11535848,0.00037175417,0.0,0.0,-0.001,0
15904000,0.10595284,0.11537979,0.0004068017,0.0,0.0,-0.001,0
15920000,0.10609668,0.11506591,0.00039178133,0.0,0.0,-0.001,0
15944000,0.10614086,0.115058884,0.0004297495,0.0,0.0,-0.001,0
15964000,0.106195465,0.11496756,0.00041347742,0.0,0.0,-0.001,0
15980000,0.106107794,0.11461833,0.00045728683,0.0,0.0,-0.001,0
16000000,0.10627142,0.11440645,0.00041347742,0.0,0.0,-0.001,0
16020000,0.106204845,0.11419115,0.00037258863,0.0,0.0,-0.001,0
16040000,0.10614471,0.11406743,0.00040638447,0.0,0.0,-0.001,0
16060000,0.106131524,0.11366871,0.00037550926,0.0,0.0,-0.001,0
16080000,0.10643147,0.11382279,0.00043475628,0.0,0.0,-0.001,0
16100000,0.10667141,0.11360827,0.00044977665,0.0,0.0,-0.001,0
16124000,0.1065183,0.11369815,0.0004543662,0.0,0.0,-0.001,0
16140000,0.1062309,0.113733545,0.0004272461,0.0,0.0,-0.001,0
16160000,0.106401585,0.113644645,0.0003951192,0.0,0.0,-0.001,0
16180000,0.106747165,0.11352632,0.00039762259,0.0,0.0,-0.001,0
16204000,0.10675823,0.11370867,0.00049984455,0.0,0.0,-0.001,0
16224000,0.10685045,0.113495,0.0004376769,0.0,0.0,-0.001,0
16244000,0.10686834,0.11365365,0.00047063828,0.0,0.0,-0.001,0
16260000,0.1069868,0.11374708,0.00049191713,0.0,0.0,-0.001,0
16280000,0.107020214,0.11372421,0.0004339218,0.0,0.0,-0.001,0
16300000,0.10701723,0.11368244,0.00044727325,0.0,0.0,-0.001,0
16320000,0.106967844,0.113441385,0.0004568696,0.0,0.0,-0.001,0
16340000,0.10679684,0.11323601,0.00047397614,0.0,0.0,-0.001,0
16360000,0.10675304,0.11330811,0.00045269728,0.0,0.0,-0.001,0
16380000,0.10662348,0.113103196,0.00046646595,0.0,0.0,-0.001,0
16400000,0.10648689,0.11317171,0.00042808056,0.0,0.0,-0.001,0
16420000,0.106687,0.11315033,0.00041890144,0.0,0.0,-0.001,0
16444000,0.10689236,0.113102496,0.00043559074,0.0,0.0,-0.001,0
16464000,0.10699238,0.11271946,0.00040638447,0.0,0.0,-0.001,0
16484000,0.10695781,0.11268464,0.00038468838,0.0,0.0,-0.001,0
16504000,0.10674508,0.112688094,0.0003963709,0.0,0.0,-0.001,0
16524000,0.10684837,0.112783484,0.00036633015,0.0,0.0,-0.001,0
16540000,0.10675927,0.11287609,0.00040763617,0.0,0.0,-0.001,0
16564000,0.106641516,0.11299874,0.00038802624,0.0,0.0,-0.001,0
16580000,0.106606215,0.113113366,0.0003659129,0.0,0.0,-0.001,0
16600000,0.10658823,0.11296219,0.0003838539,0.0,0.0,-0.001,0
16620000,0.106534995,0.11294328,0.000369668,0.0,0.0,-0.001,0
16644000,0.10677068,0.11302059,0.00035631657,0.0,0.0,-0.001,0
16664000,0.1069625,0.11328455,0.0003888607,0.0,0.0,-0.001,0
16684000,0.10686414,0.11313958,0.0003592372,0.0,0.0,-0.001,0
16704000,0.10697759,0.112916395,0.00043016672,0.0,0.0,-0.001,0
16724000,0.10695179,0.11293698,0.0004685521,0.0,0.0,-0.001,0
16744000,0.10700839,0.113042176,0.0004272461,0.0,0.0,-0.001,0
16764000,0.10715457,0.11291982,0.00046563148,0.0,0.0,-0.001,0
16780000,0.10724513,0.1126573,0.0004710555,0.0,0.0,-0.001,0
16804000,0.10720395,0.11280914,0.0004889965,0.0,0.0,-0.001,0
16824000,0.107287556,0.11273589,0.00043308735,0.0,0.0,-0.001,0
16844000,0.1076684,0.11275803,0.00043058395,0.0,0.0,-0.001,0
16864000,0.10758101,0.11277514,0.00040388107,0.0,0.0,-0.001,0
16884000,0.10767873,0.11272148,0.00039345026,0.0,0.0,-0.001,0
16904000,0.1078219,0.112687215,0.0004172325,0.0,0.0,-0.001,0
16924000,0.10775929,0.11240344,0.0003759265,0.0,0.0,-0.001,0
16940000,0.107802816,0.112532526,0.00041639805,0.0,0.0,-0.001,0
16960000,0.10794601,0.11257782,0.0004030466,0.0,0.0,-0.001,0
16980000,0.10794966,0.11243758,0.0004698038,0.0,0.0,-0.001,0
17004000,0.10793322,0.11248545,0.00044852495,0.0,0.0,-0.001,0
17020000,0.107905895,0.11231245,0.00040972233,0.0,0.0,-0.001,0
17044000,0.10785202,0.112317905,0.00044810772,0.0,0.0,-0.001,0
17064000,0.107878886,0.11220418,0.0004105568,0.0,0.0,-0.001,0
17084000,0.107878014,0.111999966,0.00037676096,0.0,0.0,-0.001,0
17100000,0.10781588,0.11200692,0.00040888786,0.0,0.0,-0.001,0
17124000,0.10762118,0.111829035,0.00039219856,0.0,0.0,-0.001,0
17140000,0.10765846,0.11183744,0.00038301945,0.0,0.0,-0.001,0
17164000,0.10748526,0.11159952,0.0004143119,0.0,0.0,-0.001,0
17184000,0.10738368,0.11181664,0.0003709197,0.0,0.0,-0.001,0
17204000,0.107448995,0.11197718,0.00039052963,0.0,0.0,-0.001,0
17224000,0.10747983,0.11199822,0.0003771782,0.0,0.0,-0.001,0
17244000,0.10740904,0.112111725,0.00042557716,0.0,0.0,-0.001,0
17264000,0.10746822,0.11180141,0.0003796816,0.0,0.0,-0.001,0
17284000,0.10769432,0.11156981,0.0003362894,0.0,0.0,-0.001,0
17304000,0.10772711,0.11152724,0.0004030466,0.0,0.0,-0.001,0
17324000,0.107820615,0.111550026,0.00037175417,0.0,0.0,-0.001,0
17344000,0.108125776,0.11161168,0.00037801266,0.0,0.0,-0.001,0
17364000,0.10798299,0.11152626,0.00036507845,0.0,0.0,-0.001,0
17380000,0.1079507,0.1115231,0.0003362894,0.0,0.0,-0.001,0
17404000,0.10796041,0.1114947,0.0004247427,0.0,0.0,-0.001,0
17424000,0.107776746,0.11153983,0.000423491,0.0,0.0,-0.001,0
17444000,0.107362814,0.11130229,0.00047188997,0.0,0.0,-0.001,0
17464000,0.10712482,0.11131778,0.00042390823,0.0,0.0,-0.001,0
17484000,0.10698368,0.111388266,0.00045478344,0.0,0.0,-0.001,0
17500000,0.10683996,0.11147358,0.00045770407,0.0,0.0,-0.001,0
17520000,0.10648525,0.11135,0.0004259944,0.0,0.0,-0.001,0
17544000,0.10648982,0.11143488,0.0004197359,0.0,0.0,-0.001,0
17560000,0.10624789,0.1116569,0.00047814846,0.0,0.0,-0.001,0
17580000,0.10618291,0.11154987,0.00043308735,0.0,0.0,-0.001,0
17604000,0.10606913,0.111260206,0.0004556179,0.0,0.0,-0.001,0
17620000,0.105963126,0.11119692,0.00040847063,0.0,0.0,-0.001,0
17640000,0.10593577,0.11108495,0.0004259944,0.0,0.0,-0.001,0
17660000,0.105839126,0.11100551,0.0004376769,0.0,0.0,-0.001,0
17680000,0.105845675,0.111131035,0.00041347742,0.0,0.0,-0.001,0
17704000,0.10569442,0.11104373,0.00043183565,0.0,0.0,-0.001,0
17720000,0.105719686,0.11093926,0.00043141842,0.0,0.0,-0.001,0
17740000,0.10578331,0.11066018,0.0004272461,0.0,0.0,-0.001,0
17760000,0.10581956,0.11052709,0.0004197359,0.0,0.0,-0.001,0
17780000,0.10576802,0.11035036,0.00044894218,0.0,0.0,-0.001,0
17800000,0.10560595,0.110173635,0.00039428473,0.0,0.0,-0.001,0
17820000,0.10534837,0.110128716,0.00043976307,0.0,0.0,-0.001,0
17840000,0.10523109,0.10996067,0.00041639805,0.0,0.0,-0.001,0
17864000,0.1049987,0.10971843,0.00038719177,0.0,0.0,-0.001,0
17884000,0.10497685,0.10957841,0.00043141842,0.0,0.0,-0.001,0
17900000,0.10493429,0.10931126,0.0004351735,0.0,0.0,-0.001,0
17920000,0.10489959,0.10898306,0.00041556358,0.0,0.0,-0.001,0
17940000,0.10491611,0.10893969,0.00041514635,0.0,0.0,-0.001,0
17960000,0.10501921,0.10895394,0.00042557716,0.0,0.0,-0.001,0
17984000,0.10512728,0.10895552,0.00038176775,0.0,0.0,-0.001,0
18004000,0.10528536,0.10917529,0.0004080534,0.0,0.0,-0.001,0
18020000,0.1053413,0.10916576,0.0003796816,0.0,0.0,-0.001,0
18044000,0.10522038,0.10902212,0.0004118085,0.0,0.0,-0.001,0
18060000,0.10515619,0.10906817,0.00034213066,0.0,0.0,-0.001,0
18080000,0.10497272,0.10918294,0.00037175417,0.0,0.0,-0.001,0
18100000,0.1050706,0.109154195,0.00040596724,0.0,0.0,-0.001,0
18124000,0.10495344,0.10880594,0.00037801266,0.0,0.0,-0.001,0
18144000,0.10538616,0.10878276,0.00033712387,0.0,0.0,-0.001,0
18160000,0.10533698,0.10866609,0.000351727,0.0,0.0,-0.001,0
18184000,0.10527426,0.10860373,0.0003592372,0.0,0.0,-0.001,0
18204000,0.105270185,0.10846704,0.0003079176,0.0,0.0,-0.001,0
18220000,0.105148144,0.1084255,0.00033712387,0.0,0.0,-0.001,0
18244000,0.10479229,0.108372204,0.00039219856,0.0,0.0,-0.001,0
18260000,0.104646616,0.108324975,0.00034797192,0.0,0.0,-0.001,0
18284000,0.10434491,0.10810404,0.00038218498,0.0,0.0,-0.001,0
18300000,0.10425363,0.108126305,0.0003629923,0.0,0.0,-0.001,0
18320000,0.1043514,0.108052716,0.00038218498,0.0,0.0,-0.001,0
18340000,0.10420084,0.10821894,0.00033462048,0.0,0.0,-0.001,0
18360000,0.104121655,0.108423196,0.0004017949,0.0,0.0,-0.001,0
18384000,0.10413808,0.108512975,0.00041013956,0.0,0.0,-0.001,0
18404000,0.10406948,0.108538374,0.00042390823,0.0,0.0,-0.001,0
18424000,0.10415383,0.10829147,0.00039052963,0.0,0.0,-0.001,0
18440000,0.10417684,0.108235516,0.0003671646,0.0,0.0,-0.001,0
18464000,0.104349785,0.108418815,0.0003771782,0.0,0.0,-0.001,0
18484000,0.104586214,0.1082997,0.0004118085,0.0,0.0,-0.001,0
18500000,0.104507826,0.10816466,0.00034838915,0.0,0.0,-0.001,0
18520000,0.10463603,0.1079215,0.0003671646,0.0,0.0,-0.001,0
18540000,0.10477666,0.10783967,0.00039762259,0.0,0.0,-0.001,0
18564000,0.10483568,0.1078755,0.00038260221,0.0,0.0,-0.001,0
18584000,0.10461114,0.10772345,0.00036257505,0.0,0.0,-0.001,0
18604000,0.10482303,0.1075366,0.0004080534,0.0,0.0,-0.001,0
18620000,0.104767665,0.10750258,0.0003296137,0.0,0.0,-0.001,0
18640000,0.10479756,0.10752676,0.00036799908,0.0,0.0,-0.001,0
18660000,0.104872495,0.10725558,0.00040513277,0.0,0.0,-0.001,0
18680000,0.1048239,0.10703823,0.00035756826,0.0,0.0,-0.001,0
18700000,0.104946814,0.10680974,0.00043809414,0.0,0.0,-0.001,0
18724000,0.10480984,0.10687211,0.0003951192,0.0,0.0,-0.001,0
18744000,0.10466314,0.10667112,0.00037300587,0.0,0.0,-0.001,0
18760000,0.10476232,0.106630415,0.0003350377,0.0,0.0,-0.001,0
18780000,0.10480188,0.10691084,0.0004093051,0.0,0.0,-0.001,0
18800000,0.10471041,0.10671555,0.00041139126,0.0,0.0,-0.001,0
18824000,0.104593016,0.10684854,0.00041013956,0.0,0.0,-0.001,0
18844000,0.10448903,0.106785916,0.00038218498,0.0,0.0,-0.001,0
18860000,0.10450302,0.10657783,0.00043433905,0.0,0.0,-0.001,0
18884000,0.104821466,0.10644112,0.0004556179,0.0,0.0,-0.001,0
18900000,0.10463885,0.10630463,0.0005111098,0.0,0.0,-0.001,0
18920000,0.10450211,0.1063046,0.00041264296,0.0,0.0,-0.001,0
18940000,0.10458633,0.106209874,0.00044810772,0.0,0.0,-0.001,0
18964000,0.10452721,0.106212184,0.00041764975,0.0,0.0,-0.001,0
18980000,0.10454784,0.10641722,0.00038427114,0.0,0.0,-0.001,0
19004000,0.10465611,0.10647446,0.00038552284,0.0,0.0,-0.001,0
19024000,0.104726896,0.106240354,0.00039845705,0.0,0.0,-0.001,0
19040000,0.10467058,0.10650092,0.00035464764,0.0,0.0,-0.001,0
19060000,0.10463319,0.10633959,0.00037258863,0.0,0.0,-0.001,0
19080000,0.104435645,0.10624085,0.00034964085,0.0,0.0,-0.001,0
19100000,0.10466405,0.10616653,0.00033420324,0.0,0.0,-0.001,0
19120000,0.104701735,0.105948254,0.00040262938,0.0,0.0,-0.001,0
19144000,0.104754165,0.105659306,0.00038176775,0.0,0.0,-0.001,0
19160000,0.10480643,0.105400406,0.00039970875,0.0,0.0,-0.001,0
19180000,0.10481364,0.10536607,0.00037509203,0.0,0.0,-0.001,0
19204000,0.104882926,0.105258256,0.00041806698,0.0,0.0,-0.001,0
19220000,0.1047599,0.10498514,0.0004760623,0.0,0.0,-0.001,0
19244000,0.104761295,0.10497542,0.00043350458,0.0,0.0,-0.001,0
19260000,0.10481747,0.10498521,0.00038009882,0.0,0.0,-0.001,0
19280000,0.10499507,0.10482648,0.0004222393,0.0,0.0,-0.001,0
19300000,0.10487359,0.10480247,0.00046646595,0.0,0.0,-0.001,0
19320000,0.1048805,0.104824506,0.00039553642,0.0,0.0,-0.001,0
19340000,0.104858026,0.105105236,0.00038260221,0.0,0.0,-0.001,0
19364000,0.1045765,0.10496042,0.00043016672,0.0,0.0,-0.001,0
19380000,0.10470721,0.10497072,0.00040596724,0.0,0.0,-0.001,0
19404000,0.10448909,0.10518571,0.00036382675,0.0,0.0,-0.001,0
19424000,0.10457307,0.10502927,0.00037634373,0.0,0.0,-0.001,0
19444000,0.1044753,0.104714945,0.0004005432,0.0,0.0,-0.001,0
19460000,0.10444525,0.104753,0.00032418966,0.0,0.0,-0.001,0
19480000,0.10424702,0.10481546,0.00038468838,0.0,0.0,-0.001,0
19500000,0.10433599,0.10474295,0.00031626225,0.0,0.0,-0.001,0
19524000,0.10445839,0.1044556,0.00034838915,0.0,0.0,-0.001,0
19544000,0.104608044,0.1043704,0.00034964085,0.0,0.0,-0.001,0
19560000,0.10465857,0.10433471,0.00036633015,0.0,0.0,-0.001,0
19580000,0.1046361,0.104350716,0.00028914213,0.0,0.0,-0.001,0
19604000,0.104812086,0.104308195,0.0002616048,0.0,0.0,-0.001,0
19620000,0.10507219,0.10420746,0.00032293797,0.0,0.0,-0.001,0
19644000,0.10502611,0.10411442,0.000346303,0.0,0.0,-0.001,0
19664000,0.10505056,0.10416855,0.00036674738,0.0,0.0,-0.001,0
19684000,0.105092265,0.10416499,0.00033169985,0.0,0.0,-0.001,0
19700000,0.10511551,0.10427147,0.0003851056,0.0,0.0,-0.001,0
19724000,0.10537779,0.10400044,0.00033921003,0.0,0.0,-0.001,0
19744000,0.10525463,0.10369344,0.00037258863,0.0,0.0,-0.001,0
19764000,0.10528582,0.103786424,0.00039094687,0.0,0.0,-0.001,0
19780000,0.105351895,0.10380344,0.0004118085,0.0,0.0,-0.001,0
19804000,0.1055024,0.10357743,0.00038009882,0.0,0.0,-0.001,0
19820000,0.105312884,0.103515476,0.00038802624,0.0,0.0,-0.001,0
19844000,0.1050493,0.1037066,0.00033044815,0.0,0.0,-0.001,0
19864000,0.105133325,0.1037681,0.00039762259,0.0,0.0,-0.001,0
19884000,0.10513571,0.10356464,0.0003938675,0.0,0.0,-0.001,0
19904000,0.10490651,0.10341486,0.000351727,0.0,0.0,-0.001,0
19924000,0.104867294,0.1033032,0.0004118085,0.0,0.0,-0.001,0
19940000,0.105146766,0.10325452,0.0003734231,0.0,0.0,-0.001,0
19960000,0.10517285,0.10327722,0.0003721714,0.0,0.0,-0.001,0
19980000,0.10518346,0.10319725,0.00033044815,0.0,0.0,-0.001,0
20004000,0.10523333,0.102936,0.00029581785,0.0,0.0,-0.001,0
20024000,0.1048735,0.10280443,0.00034964085,0.0,0.0,-0.001,0
20040000,0.104793586,0.102530494,0.00035715103,0.0,0.0,-0.001,0
20060000,0.10441203,0.10242833,0.0003592372,0.0,0.0,-0.001,0
20084000,0.104415424,0.10236741,0.00032043457,0.0,0.0,-0.001,0
20100000,0.10424282,0.10224291,0.0003091693,0.0,0.0,-0.001,0
20120000,0.104156114,0.102117315,0.00031208992,0.0,0.0,-0.001,0
20140000,0.10395021,0.101938866,0.0003554821,0.0,0.0,-0.001,0
20160000,0.103948064,0.102166265,0.00033003092,0.0,0.0,-0.001,0
20184000,0.10406627,0.102128826,0.000351727,0.0,0.0,-0.001,0
20204000,0.103660025,0.1018121,0.0003375411,0.0,0.0,-0.001,0
20224000,0.103423424,0.10170337,0.00036466122,0.0,0.0,-0.001,0
20244000,0.103136845,0.10156771,0.00036215782,0.0,0.0,-0.001,0
20260000,0.10298914,0.10139101,0.000351727,0.0,0.0,-0.001,0
20280000,0.10279593,0.101417154,0.0003684163,0.0,0.0,-0.001,0
20300000,0.102778725,0.10102692,0.0004272461,0.0,0.0,-0.001,0
20320000,0.10275622,0.1009817,0.0003913641,0.0,0.0,-0.001,0
20340000,0.102500096,0.100956276,0.0004030466,0.0,0.0,-0.001,0
20360000,0.10213274,0.10098221,0.00037801266,0.0,0.0,-0.001,0
20380000,0.10187581,0.101002,0.0003913641,0.0,0.0,-0.001,0
20400000,0.10210525,0.101160035,0.0003784299,0.0,0.0,-0.001,0
20420000,0.102339916,0.10122687,0.00037509203,0.0,0.0,-0.001,0
20440000,0.10216546,0.10124048,0.00040346384,0.0,0.0,-0.001,0
20460000,0.102154166,0.10111657,0.00038594007,0.0,0.0,-0.001,0
20484000,0.10194242,0.10113963,0.00037300587,0.0,0.0,-0.001,0
20504000,0.101728536,0.10108568,0.00035965443,0.0,0.0,-0.001,0
20524000,0.101594135,0.10107512,0.00035756826,0.0,0.0,-0.001,0
20544000,0.101731054,0.10072085,0.00038051605,0.0,0.0,-0.001,0
20564000,0.1018631,0.10107251,0.00036799908,0.0,0.0,-0.001,0
20584000,0.10209638,0.10100004,0.00031667948,0.0,0.0,-0.001,0
20604000,0.10206915,0.101043895,0.0003041625,0.0,0.0,-0.001,0
20624000,0.1020415,0.10107398,0.0002991557,0.0,0.0,-0.001,0
20644000,0.101937294,0.10116588,0.0002670288,0.0,0.0,-0.001,0
20660000,0.10170831,0.101320826,0.0002478361,0.0,0.0,-0.001,0
20680000,0.10168862,0.10138166,0.00030249357,0.0,0.0,-0.001,0
20700000,0.1015606,0.10135795,0.00025868416,0.0,0.0,-0.001,0
20720000,0.10154907,0.101195514,0.0003400445,0.0,0.0,-0.001,0
20740000,0.10144903,0.10101606,0.0002812147,0.0,0.0,-0.001,0
20760000,0.10143239,0.10097456,0.00034338236,0.0,0.0,-0.001,0
20780000,0.101346746,0.100786686,0.00028663874,0.0,0.0,-0.001,0
20800000,0.1012248,0.1008288,0.00035631657,0.0,0.0,-0.001,0
20820000,0.101269946,0.10034104,0.0003629923,0.0,0.0,-0.001,0
20840000,0.10154824,0.10013575,0.00038427114,0.0,0.0,-0.001,0
20860000,0.101465195,0.10010596,0.0004042983,0.0,0.0,-0.001,0
20884000,0.1016655,0.099859536,0.00036382675,0.0,0.0,-0.001,0
20900000,0.101876855,0.09982439,0.00033587217,0.0,0.0,-0.001,0
20920000,0.102046244,0.099764116,0.00035381317,0.0,0.0,-0.001,0
20940000,0.10193503,0.099681936,0.00043225288,0.0,0.0,-0.001,0
20964000,0.102251485,0.09930543,0.000369668,0.0,0.0,-0.001,0
20984000,0.10219765,0.09893261,0.0003450513,0.0,0.0,-0.001,0
21004000,0.10206898,0.09880815,0.00041556358,0.0,0.0,-0.001,0
21020000,0.10182303,0.098859265,0.00036090612,0.0,0.0,-0.001,0
21040000,0.101717725,0.09921344,0.00030708313,0.0,0.0,-0.001,0
21064000,0.10144361,0.0995011,0.0003079176,0.0,0.0,-0.001,0
21084000,0.10118532,0.0994801,0.00039219856,0.0,0.0,-0.001,0
21100000,0.10106427,0.09957153,0.00036466122,0.0,0.0,-0.001,0
21120000,0.10107382,0.09955832,0.0003542304,0.0,0.0,-0.001,0
21144000,0.1008929,0.0997889,0.00034797192,0.0,0.0,-0.001,0
21160000,0.10084499,0.09979437,0.00031751394,0.0,0.0,-0.001,0
21180000,0.10087324,0.099715166,0.0003350377,0.0,0.0,-0.001,0
21200000,0.10067565,0.09941664,0.0003116727,0.0,0.0,-0.001,0
21220000,0.10069512,0.099284366,0.0003529787,0.0,0.0,-0.001,0
21240000,0.10069525,0.09912458,0.00031208992,0.0,0.0,-0.001,0
21264000,0.100931905,0.09900978,0.00030249357,0.0,0.0,-0.001,0
21284000,0.10092171,0.09918494,0.00036340952,0.0,0.0,-0.001,0
21304000,0.10105098,0.09937682,0.0003233552,0.0,0.0,-0.001,0
21324000,0.10118036,0.09952963,0.00037425756,0.0,0.0,-0.001,0
21344000,0.10126019,0.09919386,0.000346303,0.0,0.0,-0.001,0
21360000,0.10128008,0.09918884,0.00033545494,0.0,0.0,-0.001,0
21384000,0.10108426,0.09935888,0.0003400445,0.0,0.0,-0.001,0
21404000,0.101305746,0.09962373,0.00034713745,0.0,0.0,-0.001,0
21424000,0.10115083,0.09980127,0.00038218498,0.0,0.0,-0.001,0
21440000,0.100994185,0.09984626,0.00040096045,0.0,0.0,-0.001,0
21464000,0.100998126,0.09993827,0.00041556358,0.0,0.0,-0.001,0
21484000,0.10098496,0.1000868,0.00035089254,0.0,0.0,-0.001,0
21500000,0.1011187,0.10049693,0.00042390823,0.0,0.0,-0.001,0
21524000,0.10111158,0.10044171,0.00041639805,0.0,0.0,-0.001,0
21540000,0.10100688,0.10040222,0.00044560432,0.0,0.0,-0.001,0
21564000,0.10078436,0.100504085,0.00037634373,0.0,0.0,-0.001,0
21584000,0.10064241,0.100417696,0.00039929152,0.0,0.0,-0.001,0
21600000,0.10074315,0.10048109,0.000369668,0.0,0.0,-0.001,0
21620000,0.10090732,0.10077189,0.00038802624,0.0,0.0,-0.001,0
21640000,0.10076999,0.100830175,0.00034421682,0.0,0.0,-0.001,0
21660000,0.100742154,0.10083199,0.00035464764,0.0,0.0,-0.001,0
21680000,0.10072064,0.1009008,0.0003529787,0.0,0.0,-0.001,0
21700000,0.10065806,0.10077781,0.00038051605,0.0,0.0,-0.001,0
21720000,0.100460745,0.100542575,0.00033462048,0.0,0.0,-0.001,0
21740000,0.100352705,0.10067649,0.00030750036,0.0,0.0,-0.001,0
21764000,0.10038419,0.10051914,0.0004184842,0.0,0.0,-0.001,0
21784000,0.100647405,0.10059453,0.00037175417,0.0,0.0,-0.001,0
21804000,0.10057346,0.10085475,0.0003066659,0.0,0.0,-0.001,0
21820000,0.100413464,0.10058443,0.00034880638,0.0,0.0,-0.001,0
21840000,0.100338645,0.10050361,0.00035381317,0.0,0.0,-0.001,0
21864000,0.10020792,0.10078773,0.00031250715,0.0,0.0,-0.001,0
21880000,0.1000883,0.10071032,0.00028914213,0.0,0.0,-0.001,0
21904000,0.10003949,0.10057018,0.00031292439,0.0,0.0,-0.001,0
21924000,0.09988398,0.100630075,0.00024408102,0.0,0.0,-0.001,0
21940000,0.10005454,0.10056069,0.0003079176,0.0,0.0,-0.001,0
21960000,0.10013319,0.100505285,0.00034964085,0.0,0.0,-0.001,0
21980000,0.10000681,0.10056587,0.0002720356,0.0,0.0,-0.001,0
22004000,0.09984417,0.100447565,0.00029456615,0.0,0.0,-0.001,0
22020000,0.09975663,0.100445315,0.00028288364,0.0,0.0,-0.001,0
22040000,0.09974652,0.100419894,0.0003296137,0.0,0.0,-0.001,0
22060000,0.09977728,0.10044445,0.00035339594,0.0,0.0,-0.001,0
22080000,0.09974134,0.10039793,0.00031083822,0.0,0.0,-0.001,0
22100000,0.09974579,0.10031173,0.0003246069,0.0,0.0,-0.001,0
22124000,0.09959301,0.10026454,0.00030958652,0.0,0.0,-0.001,0
22144000,0.099527314,0.10039484,0.0003437996,0.0,0.0,-0.001,0
22164000,0.09946843,0.10044925,0.0004297495,0.0,0.0,-0.001,0
22180000,0.099394955,0.10046418,0.0003926158,0.0,0.0,-0.001,0
22204000,0.109278604,0.07277549,0.00029665232,0.0,0.0,-0.011156909,0
22220000,0.108651236,0.07450581,0.00031125546,0.0,0.0,-0.013120351,0
22240000,0.106868915,0.0738576,0.00019609928,0.0,0.0,-0.016291915,0
22260000,0.10690629,0.07357083,0.00024032593,0.0,0.0,-0.018445184,0
22280000,0.10566163,0.07392022,0.00024491549,0.0,0.0,-0.021753592,0
22300000,0.1054504,0.075683974,0.0002770424,0.0,0.0,-0.024042163,0
22320000,0.10570414,0.07414692,0.000220716,0.0,0.0,-0.027614415,0
22340000,0.105279915,0.07406738,0.00021362305,0.0,0.0,-0.030029079,0
22360000,0.10345006,0.07482551,0.00027787685,0.0,0.0,-0.033792138,0
22380000,0.10262418,0.0745547,0.0002695322,0.0,0.0,-0.036343716,0
22400000,0.10327473,0.07491179,0.00022780895,0.0,0.0,-0.040181626,0
22420000,0.104601,0.07430066,0.00028830767,0.0,0.0,-0.04279539,0
22444000,0.105679296,0.0736514,0.00035256147,0.0,0.0,-0.046822187,0
22460000,0.10430187,0.07466598,0.0002670288,0.0,0.0,-0.049549166,0
22480000,0.10350697,0.07384873,0.00023657084,0.0,0.0,-0.053813636,0
22500000,0.10276442,0.07267287,0.00023657084,0.0,0.0,-0.05674299,0
22524000,0.104508966,0.07394417,0.00028455257,0.0,0.0,-0.061205193,0
22544000,0.105022036,0.071776696,0.00024700165,0.0,0.0,-0.06580204,0
22560000,0.10360567,0.07094232,0.00023406744,0.0,0.0,-0.06897156,0
22584000,0.1060618,0.07075423,0.00021654367,0.0,0.0,-0.07372395,0
22604000,0.10538233,0.07045824,0.00022697449,0.0,0.0,-0.07690846,0
22624000,0.1050387,0.07417694,0.0002411604,0.0,0.0,-0.08185631,0
22644000,0.10510605,0.07633257,0.00020319223,0.0,0.0,-0.08523355,0
22664000,0.106258176,0.07933985,0.00026994944,0.0,0.0,-0.09033498,0
22684000,0.10470574,0.07943042,0.00029289722,0.0,0.0,-0.09377915,0
22704000,0.1035324,0.081023686,0.00027954578,0.0,0.0,-0.09904384,0
22724000,0.10341399,0.08214387,0.00030207634,0.0,0.0,-0.10253738,0
22740000,0.10364806,0.08387092,0.00022155046,0.0,0.0,-0.10621081,0
22760000,0.103872284,0.0855643,0.00025326014,0.0,0.0,-0.111753926,0
22780000,0.10396859,0.08344147,0.0002553463,0.0,0.0,-0.11552345,0
22804000,0.10355498,0.085882805,0.0003004074,0.0,0.0,-0.121278085,0
22824000,0.104548134,0.085137725,0.00024324656,0.0,0.0,-0.12712233,0
22844000,0.10477854,0.08531008,0.00021404028,0.0,0.0,-0.13107274,0
22860000,0.10491854,0.08494,0.00026410818,0.0,0.0,-0.13503058,0
22884000,0.104838975,0.08466594,0.0002757907,0.0,0.0,-0.14116952,0
22900000,0.10509057,0.082335666,0.000238657,0.0,0.0,-0.14529893,0
22920000,0.10443816,0.08301194,0.00027745962,0.0,0.0,-0.15157849,0
22940000,0.10432702,0.083761714,0.00029540062,0.0,0.0,-0.15582272,0
22964000,0.10584341,0.08473663,0.00023949146,0.0,0.0,-0.16228637,0
22980000,0.10571345,0.08638601,0.00029581785,0.0,0.0,-0.1665343,0
23004000,0.10721559,0.08694434,0.00028580427,0.0,0.0,-0.17306419,0
23020000,0.105614886,0.08817591,0.00030750036,0.0,0.0,-0.17741969,0
23040000,0.10387071,0.08932043,0.00031250715,0.0,0.0,-0.1840537,0
23060000,0.10310455,0.0891039,0.00027495623,0.0,0.0,-0.18861133,0
23080000,0.10485256,0.09036355,0.00029414892,0.0,0.0,-0.19554424,0
23100000,0.104655355,0.0894729,0.00030499697,0.0,0.0,-0.20027351,0
23120000,0.10314186,0.09013288,0.0002899766,0.0,0.0,-0.2073224,0
23140000,0.1026013,0.08965604,0.00029999018,0.0,0.0,-0.21216355,0
23164000,0.10196061,0.08842407,0.00028705597,0.0,0.0,-0.21941532,0
23184000,0.10234154,0.090482645,0.00020903349,0.0,0.0,-0.22685233,0
23204000,0.10157468,0.08884767,0.00028079748,0.0,0.0,-0.23185582,0
23224000,0.100691706,0.08949717,0.00024366379,0.0,0.0,-0.2394324,0
23244000,0.10135376,0.08885236,0.0002578497,0.0,0.0,-0.2445527,0
23264000,0.102174155,0.08872369,0.0002682805,0.0,0.0,-0.25240123,0
23284000,0.10125118,0.08865506,0.0002578497,0.0,0.0,-0.25763503,0
23300000,0.10097886,0.08863554,0.00027412176,0.0,0.0,-0.26286498,0
23320000,0.100412145,0.088330574,0.00024700165,0.0,0.0,-0.27088293,0
23340000,0.1000917,0.088919826,0.00021278858,0.0,0.0,-0.27625334,0
23364000,0.10038675,0.08773448,0.00027996302,0.0,0.0,-0.28441435,0
23384000,0.100828536,0.08785843,0.00026077032,0.0,0.0,-0.292698,0
23404000,0.10094973,0.08688705,0.00019109249,0.0,0.0,-0.29835427,0
23424000,0.10125651,0.09078096,0.00027245283,0.0,0.0,-0.30668586,0
23444000,0.10108463,0.09192285,0.00029832125,0.0,0.0,-0.312309,0
23464000,0.10100994,0.090347834,0.0002782941,0.0,0.0,-0.3207941,0
23484000,0.100735195,0.09048686,0.00024157763,0.0,0.0,-0.32655236,0
23504000,0.10215068,0.090368435,0.0002515912,0.0,0.0,-0.33236417,0
23524000,0.1031145,0.091552936,0.00023573637,0.0,0.0,-0.33409512,0
23540000,0.10343823,0.09189832,0.000166893,0.0,0.0,-0.33403435,0
23564000,0.104165755,0.091343015,0.0002349019,0.0,0.0,-0.3381556,0
23584000,0.10131536,0.09307859,0.0002732873,0.0,0.0,-0.34063318,0
23604000,0.101094715,0.095070876,0.00020903349,0.0,0.0,-0.3424361,0
23624000,0.101518124,0.09486601,0.00026535988,0.0,0.0,-0.34496278,0
23644000,0.10060562,0.09420333,0.00022989511,0.0,0.0,-0.34671956,0
23664000,0.10113148,0.093131006,0.00023782253,0.0,0.0,-0.34933877,0
23684000,0.10092619,0.09293241,0.0002645254,0.0,0.0,-0.35111907,0
23704000,0.10183616,0.09601697,0.0002720356,0.0,0.0,-0.35376915,0
23724000,0.102327496,0.095672436,0.00027412176,0.0,0.0,-0.35550985,0
23740000,0.103749044,0.09513122,0.00023657084,0.0,0.0,-0.35569927,0
23764000,0.101696104,0.09513624,0.0003271103,0.0,0.0,-0.36005604,0
23784000,0.10309502,0.09389659,0.0002670288,0.0,0.0,-0.3629792,0
