timestamp,timestamp_sample,states[0],states[1],states[2],states[3],states[4],states[5],states[6],states[7],states[8],states[9],states[10],states[11],states[12],states[13],states[14],states[15],states[16],states[17],states[18],states[19],states[20],states[21],states[22],states[23],covariances[0],covariances[1],covariances[2],covariances[3],covariances[4],covariances[5],covariances[6],covariances[7],covariances[8],covariances[9],covariances[10],covariances[11],covariances[12],covariances[13],covariances[14],covariances[15],covariances[16],covariances[17],covariances[18],covariances[19],covariances[20],covariances[21],covariances[22],covariances[23],n_states
3212000,3132000,0.9998929,-0.010794854,-0.00989269,-7.059425e-05,-2.0569656e-05,-0.0003916463,-0.021716036,2.1874002e-05,-1.036985e-05,-0.001612426,0.0,0.0,0.0,0.0,0.0,0.0,0.0,0.0,0.0,0.0,0.0,0.0,0.0,0.0,5.4649314e-07,0.0025489538,0.0025484639,0.00021278195,25.02087,25.020859,10.000214,100.43325,100.43325,100.17326,1.0000002e-06,9.999931e-07,9.844555e-07,4.0000004e-06,4.0000004e-06,4.0000004e-06,0.0,0.0,0.0,0.0,0.0,0.0,0.0,0.0,24
3220000,3140000,0.99989253,-0.010802153,-0.009913512,-7.417081e-05,-3.6383696e-12,-2.910487e-11,-1.8626451e-09,2.8426528e-05,4.459225e-05,0.0014496804,-1.6313605e-10,1.3082141e-11,1.0492299e-13,-1.8858529e-10,1.3174031e-10,-9.139724e-09,0.0,0.0,0.0,0.0,0.0,0.0,0.0,0.0,5.490088e-07,0.002553873,0.0025533694,0.00011558224,1.9073486e-06,1.9073486e-06,1e-06,100.000114,100.000114,100.0,9.999958e-07,9.999873e-07,9.815321e-07,4e-06,4e-06,3.9999986e-06,0.0,0.0,0.0,0.0,0.0,0.0,0.0,0.0,24
3228000,3148000,0.6867296,-0.00020651704,-0.014670879,0.7267649,-0.0002183984,-7.572878e-05,-0.0012963563,2.7552935e-05,4.4289332e-05,0.0014444949,-1.6313605e-10,1.3082141e-11,1.0492299e-13,-1.8858529e-10,1.3174031e-10,-9.139724e-09,0.20245628,0.011270454,0.43727282,0.0,0.0,0.0,0.0,0.0,5.510141e-07,0.002561625,0.0025564325,9.590041e-05,8.331576e-05,8.341071e-05,1.755194e-05,100.000114,100.000114,100.0,9.999958e-07,9.999303e-07,9.796106e-07,4e-06,4e-06,3.9999986e-06,0.0,0.0,0.0,0.0,0.0,0.0,0.0,0.0,24
3236000,3156000,0.6867274,-0.00019604039,-0.01468301,0.7267667,-0.00033512164,-0.0002928232,-0.0024197698,2.5338853e-05,4.2815125e-05,0.0014296304,-1.6313605e-10,1.3082141e-11,1.0492299e-13,-1.8858529e-10,1.3174031e-10,-9.139724e-09,0.20245628,0.011270454,0.43727282,0.0,0.0,0.0,0.0,0.0,6.824651e-07,0.002567373,0.0025589115,8.2060105e-05,0.00025291767,0.00025332553,4.2052558e-05,100.000114,100.000114,100.0,9.999959e-07,9.998829e-07,9.753969e-07,4.0000004e-06,4.0000004e-06,3.999999e-06,0.0,0.0,0.0,0.0,0.0,0.0,0.0,0.0,24
3244000,3164000,0.6867276,-0.0001888728,-0.014696372,0.72676635,-3.8211117e-05,-0.00027346416,-0.0035154521,2.3845523e-05,4.0549974e-05,0.0014058895,-1.6313605e-10,1.3082141e-11,1.0492299e-13,-1.8858529e-10,1.3174031e-10,-9.139724e-09,0.20245628,0.011270454,0.43727282,0.0,0.0,0.0,0.0,0.0,1.0661174e-06,0.0025736208,0.0025627692,7.1871924e-05,0.00055983476,0.0005608078,7.449889e-05,100.000114,100.000114,100.0,9.999959e-07,9.998408e-07,9.683414e-07,4.0000004e-06,4.0000004e-06,3.999999e-06,0.0,0.0,0.0,0.0,0.0,0.0,0.0,0.0,24
3252000,3172000,0.6867345,-0.0001707682,-0.014718469,0.7267593,0.00011531613,-0.0005288137,-0.004782811,2.4153944e-05,3.7340862e-05,0.0013726965,-1.6313605e-10,1.3082141e-11,1.0492299e-13,-1.8858529e-10,1.3174031e-10,-9.139724e-09,0.20245628,0.011270454,0.43727282,0.0,0.0,0.0,0.0,0.0,1.6927919e-06,0.0025803691,0.002567706,6.4051215e-05,0.0010054853,0.0010072269,0.00011489785,100.000114,100.000114,100.0,9.999959e-07,9.99802e-07,9.580361e-07,4.0000004e-06,4.0000004e-06,3.999999e-06,0.0,0.0,0.0,0.0,0.0,0.0,0.0,0.0,24
3260000,3180000,0.6867339,-0.00016200409,-0.014735551,0.72675955,0.00035887084,-0.0008070556,-0.005895622,2.6050691e-05,3.1997384e-05,0.0013299828,-1.6313605e-10,1.3082141e-11,1.0492299e-13,-1.8858529e-10,1.3174031e-10,-9.139724e-09,0.20245628,0.011270454,0.43727282,0.0,0.0,0.0,0.0,0.0,2.546171e-06,0.0025876167,0.0025735607,5.7852976e-05,0.0015886766,0.0015914,0.00016324923,100.000114,100.000114,100.0,9.999959e-07,9.997652e-07,9.4420346e-07,4.0000004e-06,4.0000004e-06,3.999999e-06,0.0,0.0,0.0,0.0,0.0,0.0,0.0,0.0,24
3268000,3188000,0.6867348,-0.00015650054,-0.014756115,0.7267583,0.00063908484,-0.0008395935,-0.007064849,3.0042514e-05,2.5410787e-05,0.0012781409,-1.6313605e-10,1.3082141e-11,1.0492299e-13,-1.8858529e-10,1.3174031e-10,-9.139724e-09,0.20245628,0.011270454,0.43727282,0.0,0.0,0.0,0.0,0.0,3.6056435e-06,0.002595364,0.0025802245,5.281392e-05,0.0023112053,0.002315052,0.0002195483,100.000114,100.000114,100.0,9.999959e-07,9.9973e-07,9.267016e-07,4.0000004e-06,4.0000004e-06,3.999999e-06,0.0,0.0,0.0,0.0,0.0,0.0,0.0,0.0,24
3276000,3196000,0.686731,-0.0001442089,-0.014780252,0.72676146,0.00085109053,-0.0009765914,-0.00806056,3.6003217e-05,1.8146047e-05,0.0012176393,-1.6313605e-10,1.3082141e-11,1.0492299e-13,-1.8858529e-10,1.3174031e-10,-9.139724e-09,0.20245628,0.011270454,0.43727282,0.0,0.0,0.0,0.0,0.0,4.8442666e-06,0.0026036117,0.0025876232,4.863072e-05,0.0031713431,0.0031764798,0.00028380047,100.000114,100.000114,100.0,9.999959e-07,9.996959e-07,9.0553027e-07,4.000001e-06,4.000001e-06,3.9999995e-06,0.0,0.0,0.0,0.0,0.0,0.0,0.0,0.0,24
3284000,3204000,0.68673253,-0.00013159047,-0.014798732,0.7267595,0.0010938506,-0.001000438,-0.009163491,4.378298e-05,1.023793e-05,0.0011487431,-1.6313605e-10,1.3082141e-11,1.0492299e-13,-1.8858529e-10,1.3174031e-10,-9.139724e-09,0.20245628,0.011270454,0.43727282,0.0,0.0,0.0,0.0,0.0,6.2296153e-06,0.0026123587,0.002595708,4.5097862e-05,0.00417245,0.004179003,0.00035600303,100.000114,100.000114,100.0,9.999959e-07,9.996629e-07,8.808307e-07,4.000001e-06,4.000001e-06,3.9999995e-06,0.0,0.0,0.0,0.0,0.0,0.0,0.0,0.0,24
3292000,3212000,0.6867366,-0.00012393568,-0.014813213,0.72675544,0.0014222002,-0.0009459646,-0.010186419,5.3847183e-05,2.4523188e-06,0.0010713434,-1.6313605e-10,1.3082141e-11,1.0492299e-13,-1.8858529e-10,1.3174031e-10,-9.139724e-09,0.20245628,0.011270454,0.43727282,0.0,0.0,0.0,0.0,0.0,7.726618e-06,0.002621606,0.002604442,4.2071326e-05,0.0053130426,0.005321141,0.00043615932,100.000114,100.000114,100.0,9.999959e-07,9.996311e-07,8.5287695e-07,4.000001e-06,4.000001e-06,3.9999995e-06,0.0,0.0,0.0,0.0,0.0,0.0,0.0,0.0,24
3300000,3220000,0.6867429,-0.00011468522,-0.014829155,0.7267492,0.0018712415,-0.0007855708,-0.011477746,6.702095e-05,-4.473823e-06,0.0009846868,-1.6313605e-10,1.3082141e-11,1.0492299e-13,-1.8858529e-10,1.3174031e-10,-9.139724e-09,0.20245628,0.011270454,0.43727282,0.0,0.0,0.0,0.0,0.0,9.298543e-06,0.0026313532,0.0026137931,3.9446342e-05,0.006598999,0.0066087637,0.00052427285,100.000114,100.000114,100.0,9.999959e-07,9.996006e-07,8.220583e-07,4.000001e-06,4.000001e-06,3.9999995e-06,0.0,0.0,0.0,0.0,0.0,0.0,0.0,0.0,24
3308000,3228000,0.686748,-0.00011045153,-0.014855034,0.7267438,0.0021266218,-0.0007029773,-0.0126310885,8.3012405e-05,-1.0428015e-05,0.0008882514,-1.6313605e-10,1.3082141e-11,1.0492299e-13,-1.8858529e-10,1.3174031e-10,-9.139724e-09,0.20245628,0.011270454,0.43727282,0.0,0.0,0.0,0.0,0.0,1.0908893e-05,0.0026415999,0.0026237348,3.7147278e-05,0.008025234,0.008036736,0.00062033575,100.000114,100.000114,100.0,9.999959e-07,9.995715e-07,7.888536e-07,4.000001e-06,4.000001e-06,3.9999995e-06,0.0,0.0,0.0,0.0,0.0,0.0,0.0,0.0,24
3316000,3236000,0.68674666,-0.00010503835,-0.014874093,0.7267447,0.0023079244,-0.00052929635,-0.013606839,0.00010075059,-1.5357109e-05,0.0007832997,-1.6313605e-10,1.3082141e-11,1.0492299e-13,-1.8858529e-10,1.3174031e-10,-9.139724e-09,0.20245628,0.011270454,0.43727282,0.0,0.0,0.0,0.0,0.0,1.2521084e-05,0.0026523469,0.0026342499,3.511397e-05,0.009591144,0.009604389,0.0007243484,100.000114,100.000114,100.0,9.999959e-07,9.995439e-07,7.5379984e-07,4.0000014e-06,4.0000014e-06,4e-06,0.0,0.0,0.0,0.0,0.0,0.0,0.0,0.0,24
3324000,3244000,0.68674517,-9.94121e-05,-0.014900682,0.72674555,0.0024754754,-0.0006343317,-0.0146752,0.00011988419,-2.0011621e-05,0.0006701715,-1.6313605e-10,1.3082141e-11,1.0492299e-13,-1.8858529e-10,1.3174031e-10,-9.139724e-09,0.20245628,0.011270454,0.43727282,0.0,0.0,0.0,0.0,0.0,1.4103901e-05,0.002663593,0.002645318,3.3303102e-05,0.0113020465,0.011317299,0.0008363194,100.000114,100.000114,100.0,9.99996e-07,9.99518e-07,7.174606e-07,4.0000014e-06,4.0000014e-06,4e-06,0.0,0.0,0.0,0.0,0.0,0.0,0.0,0.0,24
3332000,3252000,0.6867469,-9.447164e-05,-0.014914106,0.7267436,0.0025905962,-0.00079201825,-0.015760228,0.00014014848,-2.5717021e-05,0.0005484298,-1.6313605e-10,1.3082141e-11,1.0492299e-13,-1.8858529e-10,1.3174031e-10,-9.139724e-09,0.20245628,0.011270454,0.43727282,0.0,0.0,0.0,0.0,0.0,1.5628208e-05,0.002675339,0.0026569297,3.167836e-05,0.013157683,0.013175053,0.0009562438,100.000114,100.000114,100.0,9.99996e-07,9.994937e-07,6.803937e-07,4.0000014e-06,4.0000014e-06,4e-06,0.0,0.0,0.0,0.0,0.0,0.0,0.0,0.0,24
3340000,3260000,0.6867455,-9.011328e-05,-0.014935834,0.72674453,0.0030027663,-0.00079826463,-0.016500615,0.00016252193,-3.2078155e-05,0.00041938643,-1.6313605e-10,1.3082141e-11,1.0492299e-13,-1.8858529e-10,1.3174031e-10,-9.139724e-09,0.20245628,0.011270454,0.43727282,0.0,0.0,0.0,0.0,0.0,1.70728e-05,0.002687585,0.0026690692,3.0213776e-05,0.01515018,0.015169794,0.0010841392,100.000114,100.000114,100.0,9.99996e-07,9.994712e-07,6.431267e-07,4.0000014e-06,4.0000014e-06,4e-06,0.0,0.0,0.0,0.0,0.0,0.0,0.0,0.0,24
3348000,3268000,0.68674403,-8.007639e-05,-0.014958531,0.7267455,0.0030952226,-0.0007598251,-0.01734256,0.0001869139,-3.8310514e-05,0.00028401375,-1.6313605e-10,1.3082141e-11,1.0492299e-13,-1.8858529e-10,1.3174031e-10,-9.139724e-09,0.20245628,0.011270454,0.43727282,0.0,0.0,0.0,0.0,0.0,1.8419725e-05,0.0027003316,0.0026817282,2.888601e-05,0.017290557,0.017312296,0.0012199703,100.000114,100.000114,100.0,9.99996e-07,9.994505e-07,6.061354e-07,4.0000014e-06,4.0000014e-06,4e-06,0.0,0.0,0.0,0.0,0.0,0.0,0.0,0.0,24
3356000,3276000,0.6867492,-6.992177e-05,-0.014967287,0.7267403,0.0033010175,-0.000739996,-0.018455684,0.00021249885,-4.43098e-05,0.00014082076,-1.6313605e-10,1.3082141e-11,1.0492299e-13,-1.8858529e-10,1.3174031e-10,-9.139724e-09,0.20245628,0.011270454,0.43727282,0.0,0.0,0.0,0.0,0.0,1.9656034e-05,0.002713578,0.0026949015,2.7676531e-05,0.019584794,0.019608805,0.0013637663,100.00012,100.00012,100.0,9.99996e-07,9.994317e-07,5.6983e-07,4.000002e-06,4.000002e-06,4.0000004e-06,0.0,0.0,0.0,0.0,0.0,0.0,0.0,0.0,24
3364000,3284000,0.68675363,-6.148432e-05,-0.014982496,0.72673583,0.003677121,-0.0008118008,-0.019667923,0.0002404114,-5.051699e-05,-1.1673677e-05,-1.6313605e-10,1.3082141e-11,1.0492299e-13,-1.8858529e-10,1.3174031e-10,-9.139724e-09,0.20245628,0.011270454,0.43727282,0.0,0.0,0.0,0.0,0.0,2.0775877e-05,0.0027273244,0.0027085796,2.6572268e-05,0.022030031,0.022056583,0.0015155349,100.00014,100.00014,100.0,9.99996e-07,9.994145e-07,5.345497e-07,4.000002e-06,4.000002e-06,4.0000004e-06,0.0,0.0,0.0,0.0,0.0,0.0,0.0,0.0,24
3372000,3292000,0.68675005,-4.7123347e-05,-0.01501298,0.7267386,0.004025983,-0.0008962499,-0.020612843,0.00027122383,-5.7349193e-05,-0.00017279675,-1.6313605e-10,1.3082141e-11,1.0492299e-13,-1.8858529e-10,1.3174031e-10,-9.139724e-09,0.20245628,0.011270454,0.43727282,0.0,0.0,0.0,0.0,0.0,2.1776576e-05,0.0027415708,0.0027227579,2.5560706e-05,0.024616417,0.024645586,0.0016752619,100.00015,100.00015,100.0,9.99996e-07,9.993989e-07,5.0056195e-07,4.000002e-06,4.000002e-06,4.0000004e-06,0.0,0.0,0.0,0.0,0.0,0.0,0.0,0.0,24
3380000,3300000,0.6867502,-2.9501114e-05,-0.015023032,0.72673833,0.0041140886,-0.0009894681,-0.021654487,0.00030378412,-6.489206e-05,-0.00034186608,-1.6313605e-10,1.3082141e-11,1.0492299e-13,-1.8858529e-10,1.3174031e-10,-9.139724e-09,0.20245628,0.011270454,0.43727282,0.0,0.0,0.0,0.0,0.0,2.2656372e-05,0.0027563176,0.0027374374,2.4628827e-05,0.027355857,0.027387561,0.0018429253,100.000175,100.000175,100.0,9.99996e-07,9.99385e-07,4.6806315e-07,4.000002e-06,4.000002e-06,4.0000004e-06,0.0,0.0,0.0,0.0,0.0,0.0,0.0,0.0,24
3388000,3308000,0.6867493,-6.9072576e-07,-0.015042937,0.72673875,0.0041193566,-0.0010940699,-0.022870623,0.0003367179,-7.322621e-05,-0.00051996653,-1.6313605e-10,1.3082141e-11,1.0492299e-13,-1.8858529e-10,1.3174031e-10,-9.139724e-09,0.20245628,0.011270454,0.43727282,0.0,0.0,0.0,0.0,0.0,2.3420205e-05,0.0027715652,0.002752613,2.3769182e-05,0.030252596,0.030286856,0.0020185402,100.000206,100.000206,100.0,9.99996e-07,9.993723e-07,4.3718833e-07,4.000002e-06,4.000002e-06,4.0000004e-06,0.0,0.0,0.0,0.0,0.0,0.0,0.0,0.0,24
3396000,3316000,0.68674624,1.0779351e-05,-0.015064086,0.7267412,0.0044118525,-0.001161286,-0.02392681,3.783498e-10,-8.0035534e-11,-0.0003591552,-1.7485746e-10,1.1723088e-11,8.703263e-15,-1.967203e-10,1.0197394e-10,-9.169886e-09,0.20245628,0.011270454,0.43727282,0.0,0.0,0.0,0.0,0.0,2.4073332e-05,0.002787307,0.0027682777,2.2977312e-05,0.033296112,0.033333134,0.0022021395,9.918213e-05,9.918213e-05,50.0,9.999959e-07,9.99361e-07,4.0801626e-07,4.0000014e-06,4.0000014e-06,4e-06,0.0,0.0,0.0,0.0,0.0,0.0,0.0,0.0,24
3404000,3324000,0.6867458,2.3356954e-05,-0.015073755,0.7267414,0.0045529217,-0.0012843244,-0.02490598,3.5859477e-05,-9.782522e-06,-0.00055448635,-1.7485746e-10,1.1723088e-11,8.703263e-15,-1.967203e-10,1.0197394e-10,-9.169886e-09,0.20245628,0.011270454,0.43727282,0.0,0.0,0.0,0.0,0.0,2.4621457e-05,0.002803553,0.0027844417,2.224278e-05,0.03649017,0.036529973,0.0023936864,0.00010231582,0.00010231929,50.0,9.999959e-07,9.99351e-07,3.8058027e-07,4.000002e-06,4.000002e-06,4.0000004e-06,0.0,0.0,0.0,0.0,0.0,0.0,0.0,0.0,24
3412000,3332000,0.6867426,4.211437e-05,-0.015090781,0.72674406,0.00473144,-0.0012749725,-0.026202515,7.299693e-05,-2.001971e-05,-0.00075892033,-1.7485746e-10,1.1723088e-11,8.703263e-15,-1.967203e-10,1.0197394e-10,-9.169886e-09,0.20245628,0.011270454,0.43727282,0.0,0.0,0.0,0.0,0.0,2.5073205e-05,0.0028202995,0.0028010989,2.1560736e-05,0.039851684,0.03989417,0.0025931934,0.000112286405,0.000112300746,50.0,9.999959e-07,9.993421e-07,3.548774e-07,4.000002e-06,4.000002e-06,4.0000004e-06,0.0,0.0,0.0,0.0,0.0,0.0,0.0,0.0,24
3420000,3340000,0.6867388,4.274425e-05,-0.015106814,0.72674733,0.00452601,-0.0011801238,-0.027222544,0.00011002673,-2.9840096e-05,-0.00097262056,-1.7485746e-10,1.1723088e-11,8.703263e-15,-1.967203e-10,1.0197394e-10,-9.169886e-09,0.20245628,0.011270454,0.43727282,0.0,0.0,0.0,0.0,0.0,2.5436604e-05,0.0028375445,0.0028182468,2.0928814e-05,0.04335865,0.04340341,0.002800618,0.0001299801,0.00013001334,50.0,9.999959e-07,9.993342e-07,3.308746e-07,4.000002e-06,4.000002e-06,4.0000004e-06,0.0,0.0,0.0,0.0,0.0,0.0,0.0,0.0,24
3428000,3348000,0.68674034,0.001050151,-0.014517682,0.72675717,1.2296726e-07,1.2559764e-05,-2.3556873e-05,-2.001724e-05,4.1865833e-06,0.00096449035,-5.286763e-06,-8.9444563e-07,-3.811296e-07,-2.3250574e-05,8.95856e-06,-0.0009745543,0.20245628,0.011270454,0.43727282,0.0,0.0,0.0,0.0,0.0,2.5379064e-05,0.00020921513,0.00020893908,1.7830424e-05,1e-06,1.322478e-06,1.2628734e-06,9.921879e-05,9.921919e-05,49.999985,9.4333774e-07,9.431206e-07,3.0761416e-07,3.7867235e-06,3.7866896e-06,4.1780982e-07,0.0,0.0,0.0,0.0,0.0,0.0,0.0,0.0,24
3436000,3356000,0.6845297,0.001107894,-0.01453179,0.7288393,-8.234256e-06,-3.5293335e-05,-2.9347837e-05,-2.0049685e-05,4.095649e-06,0.0009642787,-5.286763e-06,-8.9444563e-07,-3.811296e-07,-2.3250574e-05,8.95856e-06,-0.0009745543,0.20421128,0.01136816,0.43524188,0.0,0.0,0.0,0.0,0.0,0.0012189519,0.0002168917,0.00021613983,0.0010709482,1.3959716e-05,1.4308434e-05,1.31352635e-05,9.921956e-05,9.9220204e-05,49.999985,9.433377e-07,9.4312054e-07,3.076142e-07,3.7867237e-06,3.7866898e-06,4.1780996e-07,0.0,0.0,0.0,0.0,0.0,0.0,0.0,0.0,24
3444000,3364000,0.6845332,0.0011180233,-0.014538922,0.7288359,-0.00033053404,0.00010578504,-2.091378e-05,-2.1404758e-05,4.377616e-06,0.00096407766,-5.286763e-06,-8.9444563e-07,-3.811296e-07,-2.3250574e-05,8.95856e-06,-0.0009745543,0.20421128,0.01136816,0.43524188,0.0,0.0,0.0,0.0,0.0,0.0012189839,0.00021713323,0.00021638082,0.0010709977,3.455937e-05,3.491008e-05,2.5799283e-05,9.922001e-05,9.9220975e-05,49.999985,9.433377e-07,9.4312054e-07,3.076142e-07,3.7867237e-06,3.7866898e-06,4.1781e-07,0.0,0.0,0.0,0.0,0.0,0.0,0.0,0.0,24
3452000,3372000,0.68453294,0.0011389783,-0.01455702,0.72883576,-0.0004632702,0.00030676654,-0.00010212511,-2.4579975e-05,6.027822e-06,0.0009635855,-5.286763e-06,-8.9444563e-07,-3.811296e-07,-2.3250574e-05,8.95856e-06,-0.0009745543,0.20421128,0.01136816,0.43524188,0.0,0.0,0.0,0.0,0.0,0.0012191085,0.0002178472,0.00021709334,0.0010711077,7.345409e-05,7.380683e-05,3.925534e-05,9.922491e-05,9.922627e-05,49.999985,9.4333774e-07,9.431206e-07,3.076142e-07,3.7867237e-06,3.7866898e-06,4.178101e-07,0.0,0.0,0.0,0.0,0.0,0.0,0.0,0.0,24
3460000,3380000,0.68453383,0.0011503608,-0.014581439,0.72883445,-0.00024617705,0.00037070567,-0.00016445667,-2.7417764e-05,8.737711e-06,0.0009625192,-5.286763e-06,-8.9444563e-07,-3.811296e-07,-2.3250574e-05,8.95856e-06,-0.0009745543,0.20421128,0.01136816,0.43524188,0.0,0.0,0.0,0.0,0.0,0.0012193104,0.0002190332,0.00021827722,0.0010712938,0.00013062112,0.00013097828,5.350356e-05,9.924132e-05,9.924313e-05,49.999985,9.4333774e-07,9.431206e-07,3.076142e-07,3.786724e-06,3.78669e-06,4.1781018e-07,0.0,0.0,0.0,0.0,0.0,0.0,0.0,0.0,24
3468000,3388000,0.6845324,0.0011677082,-0.014593236,0.72883546,-0.00016002051,0.00031007797,-0.00022596866,-2.9042554e-05,1.1460846e-05,0.0009609575,-5.286763e-06,-8.9444563e-07,-3.811296e-07,-2.3250574e-05,8.95856e-06,-0.0009745543,0.20421128,0.01136816,0.43524188,0.0,0.0,0.0,0.0,0.0,0.001219602,0.00022069008,0.00021993277,0.001071545,0.00020608678,0.0002064543,6.854466e-05,9.928126e-05,9.9283585e-05,49.999985,9.4333774e-07,9.431206e-07,3.0761421e-07,3.786724e-06,3.78669e-06,4.1781024e-07,0.0,0.0,0.0,0.0,0.0,0.0,0.0,0.0,24
3476000,3396000,0.6845346,0.0011811748,-0.014599119,0.7288332,-0.00016086092,0.00026694423,-0.00034485757,-3.032608e-05,1.3768935e-05,0.0009586742,-5.286763e-06,-8.9444563e-07,-3.811296e-07,-2.3250574e-05,8.95856e-06,-0.0009745543,0.20421128,0.01136816,0.43524188,0.0,0.0,0.0,0.0,0.0,0.0012199645,0.00022281824,0.00022205984,0.0010718793,0.00029995258,0.00030033296,8.43791e-05,9.936169e-05,9.9364595e-05,49.999985,9.4333774e-07,9.431206e-07,3.0761421e-07,3.786724e-06,3.78669e-06,4.1781033e-07,0.0,0.0,0.0,0.0,0.0,0.0,0.0,0.0,24
3484000,3404000,0.6845355,0.0012021849,-0.014617955,0.728832,-8.055425e-05,0.00014585239,-0.000458017,-3.129174e-05,1.542012e-05,0.0009554627,-5.286763e-06,-8.9444563e-07,-3.811296e-07,-2.3250574e-05,8.95856e-06,-0.0009745543,0.20421128,0.01136816,0.43524188,0.0,0.0,0.0,0.0,0.0,0.001220412,0.00022541895,0.00022465838,0.0010722816,0.00041228023,0.00041267945,0.000101007216,9.95045e-05,9.950805e-05,49.999985,9.4333774e-07,9.431206e-07,3.0761421e-07,3.7867242e-06,3.7866903e-06,4.178104e-07,0.0,0.0,0.0,0.0,0.0,0.0,0.0,0.0,24
3492000,3412000,0.68453854,0.0012100842,-0.014625892,0.72882897,0.000110738125,0.00011857849,-0.0006615445,-3.1171003e-05,1.6477845e-05,0.0009509844,-5.286763e-06,-8.9444563e-07,-3.811296e-07,-2.3250574e-05,8.95856e-06,-0.0009745543,0.20421128,0.01136816,0.43524188,0.0,0.0,0.0,0.0,0.0,0.0012209353,0.00022849055,0.00022772836,0.0010727629,0.0005432934,0.0005437141,0.00011842955,9.9736404e-05,9.974069e-05,49.999985,9.4333774e-07,9.431206e-07,3.0761424e-07,3.7867242e-06,3.7866903e-06,4.1781047e-07,0.0,0.0,0.0,0.0,0.0,0.0,0.0,0.0,24
3500000,3420000,0.68454146,0.0012220797,-0.0146442475,0.72882587,0.00013062268,5.7389552e-05,-0.0008006692,-3.020556e-05,1.7181717e-05,0.00094513554,-5.286763e-06,-8.9444563e-07,-3.811296e-07,-2.3250574e-05,8.95856e-06,-0.0009745543,0.20421128,0.01136816,0.43524188,0.0,0.0,0.0,0.0,0.0,0.0012215398,0.00023203451,0.0002312698,0.0010733159,0.00069302187,0.0006934663,0.00013664643,0.000100089055,0.00010009415,49.999985,9.4333774e-07,9.431206e-07,3.0761424e-07,3.7867242e-06,3.7866903e-06,4.1781055e-07,0.0,0.0,0.0,0.0,0.0,0.0,0.0,0.0,24
3508000,3428000,0.68479276,0.0012336719,-0.014668339,0.7285892,0.00029898863,5.5546137e-05,-0.0010303475,-2.8450839e-05,1.7673181e-05,0.00093781145,-5.274082e-06,-8.8583994e-07,-1.7070536e-07,-2.3244753e-05,8.950219e-06,-0.0009745546,0.20421128,0.01136816,0.43524188,0.0,0.0,0.0,0.0,0.0,0.0011106682,0.00023600706,0.0002352795,0.0009760876,0.00086183,0.0008623026,0.00015565836,0.00010059889,0.00010060487,49.999985,9.433375e-07,9.4312054e-07,3.0753694e-07,3.7867244e-06,3.7866903e-06,4.178106e-07,0.0,0.0,0.0,0.0,0.0,0.0,0.0,0.0,24
3516000,3436000,0.6847881,0.0012406657,-0.014676313,0.7285934,0.00039797972,0.00024403757,-0.0012700409,-2.5662965e-05,1.8871517e-05,0.00092860986,-5.274082e-06,-8.8583994e-07,-1.7070536e-07,-2.3244753e-05,8.950219e-06,-0.0009745546,0.20421128,0.01136816,0.43524188,0.0,0.0,0.0,0.0,0.0,0.001111391,0.00024049362,0.00023976393,0.0009767035,0.0010498887,0.0010503841,0.0001754657,0.00010130727,0.00010131423,49.999985,9.433375e-07,9.4312054e-07,3.0753694e-07,3.7867244e-06,3.7866903e-06,4.178107e-07,0.0,0.0,0.0,0.0,0.0,0.0,0.0,0.0,24
3524000,3444000,0.6847881,0.001247802,-0.014685782,0.72859323,0.00041784495,0.0003540915,-0.0013728067,-2.2399665e-05,2.1264033e-05,0.0009180385,-5.274082e-06,-8.8583994e-07,-1.7070536e-07,-2.3244753e-05,8.950219e-06,-0.0009745546,0.20421128,0.01136816,0.43524188,0.0,0.0,0.0,0.0,0.0,0.0011121823,0.00024545196,0.00024471985,0.0009774046,0.0012572306,0.0012577516,0.00019606878,0.00010226042,0.00010226846,49.999985,9.433375e-07,9.4312054e-07,3.0753696e-07,3.7867244e-06,3.7866903e-06,4.1781075e-07,0.0,0.0,0.0,0.0,0.0,0.0,0.0,0.0,24
3532000,3452000,0.6847861,0.0012579358,-0.014695909,0.7285949,0.00040318337,0.00030999162,-0.0016653761,-1.9115552e-05,2.3920365e-05,0.00090588577,-5.274082e-06,-8.8583994e-07,-1.7070536e-07,-2.3244753e-05,8.950219e-06,-0.0009745546,0.20421128,0.01136816,0.43524188,0.0,0.0,0.0,0.0,0.0,0.0011130605,0.000250882,0.00025014728,0.0009781724,0.0014846554,0.0014852107,0.00021746795,0.00010350938,0.00010351859,49.999985,9.433375e-07,9.4312054e-07,3.0753696e-07,3.7867244e-06,3.7866903e-06,4.1781084e-07,0.0,0.0,0.0,0.0,0.0,0.0,0.0,0.0,24
3540000,3460000,0.68478084,0.0012728289,-0.014715686,0.72859937,0.00024456586,0.0004227239,-0.001950942,-1.6524555e-05,2.6851229e-05,0.0008914205,-5.274082e-06,-8.8583994e-07,-1.7070536e-07,-2.3244753e-05,8.950219e-06,-0.0009745546,0.20421128,0.01136816,0.43524188,0.0,0.0,0.0,0.0,0.0,0.001114029,0.00025678432,0.00025604616,0.0009790033,0.0017322369,0.0017328166,0.00023966367,0.00010511034,0.00010512084,49.999985,9.433375e-07,9.4312054e-07,3.0753696e-07,3.7867246e-06,3.7866905e-06,4.178109e-07,0.0,0.0,0.0,0.0,0.0,0.0,0.0,0.0,24
3548000,3468000,0.6847793,0.0012897282,-0.014748958,0.7286001,0.000100771635,0.00064325647,-0.0022805184,-1.5143205e-05,3.111515e-05,0.00087449467,-5.274082e-06,-8.8583994e-07,-1.7070536e-07,-2.3244753e-05,8.950219e-06,-0.0009745546,0.20421128,0.01136816,0.43524188,0.0,0.0,0.0,0.0,0.0,0.0011150677,0.0002631591,0.0002624164,0.0009799169,0.0020004474,0.0020010474,0.00026265654,0.00010712439,0.00010713629,49.999985,9.433375e-07,9.4312054e-07,3.07537e-07,3.7867246e-06,3.7866905e-06,4.1781098e-07,0.0,0.0,0.0,0.0,0.0,0.0,0.0,0.0,24
3556000,3476000,0.68478024,0.001305279,-0.014773601,0.7285987,2.0527252e-05,0.0007798163,-0.0023175478,-1.465801e-05,3.680744e-05,0.0008561024,-5.274082e-06,-8.8583994e-07,-1.7070536e-07,-2.3244753e-05,8.950219e-06,-0.0009745546,0.20421128,0.01136816,0.43524188,0.0,0.0,0.0,0.0,0.0,0.0011161818,0.00027000505,0.00026925825,0.0009809094,0.0022889525,0.0022895806,0.00028644674,0.000109617766,0.00010963119,49.999985,9.433375e-07,9.4312054e-07,3.07537e-07,3.7867246e-06,3.7866905e-06,4.1781104e-07,0.0,0.0,0.0,0.0,0.0,0.0,0.0,0.0,24
3564000,3484000,0.6847804,0.001317393,-0.014797217,0.728598,9.905858e-05,0.0008029925,-0.0024537668,-1.4179666e-05,4.3138676e-05,0.00083701714,-5.274082e-06,-8.8583994e-07,-1.7070536e-07,-2.3244753e-05,8.950219e-06,-0.0009745546,0.20421128,0.01136816,0.43524188,0.0,0.0,0.0,0.0,0.0,0.0011173796,0.0002773226,0.00027657155,0.0009819722,0.002598984,0.002599656,0.00031103453,0.00011266132,0.00011267639,49.999985,9.4333757e-07,9.431206e-07,3.07537e-07,3.7867248e-06,3.7866907e-06,4.1781112e-07,0.0,0.0,0.0,0.0,0.0,0.0,0.0,0.0,24
3572000,3492000,0.684778,0.0013271022,-0.014817894,0.7285999,-2.1779357e-05,0.00084877014,-0.0026926026,-1.3870549e-05,4.9745726e-05,0.00081643165,-5.274082e-06,-8.8583994e-07,-1.7070536e-07,-2.3244753e-05,8.950219e-06,-0.0009745546,0.20421128,0.01136816,0.43524188,0.0,0.0,0.0,0.0,0.0,0.0011186668,0.00028511163,0.00028435636,0.0009830996,0.0029311,0.0029318102,0.00033642043,0.00011633155,0.000116348405,49.999985,9.4333757e-07,9.431206e-07,3.07537e-07,3.7867248e-06,3.7866907e-06,4.1781118e-07,0.0,0.0,0.0,0.0,0.0,0.0,0.0,0.0,24
3580000,3500000,0.68460286,0.0013422444,-0.014834738,0.7287642,9.195997e-06,0.0007623524,-0.0031748882,-1.4021514e-05,5.6091747e-05,0.0007929615,-5.2929095e-06,-8.9856366e-07,-4.800622e-07,-2.325331e-05,8.962505e-06,-0.0009745541,0.20421128,0.01136816,0.43524188,0.0,0.0,0.0,0.0,0.0,0.0010257262,0.00029333547,0.0002926089,0.00090161804,0.0032862367,0.0032870038,0.00036260462,0.0001207103,0.0001207291,49.999985,9.4333654e-07,9.4312014e-07,3.0725346e-07,3.7867246e-06,3.7866903e-06,4.1781126e-07,0.0,0.0,0.0,0.0,0.0,0.0,0.0,0.0,24
3588000,3508000,0.6845969,0.0013504673,-0.014846028,0.7287695,-1.4300456e-05,0.0006932187,-0.003532119,-1.4041932e-05,6.1914034e-05,0.0007661335,-5.2929095e-06,-8.9856366e-07,-4.800622e-07,-2.325331e-05,8.962505e-06,-0.0009745541,0.20421128,0.01136816,0.43524188,0.0,0.0,0.0,0.0,0.0,0.0010270667,0.00030206723,0.00030133667,0.00090277597,0.0036640053,0.0036648298,0.00038958766,0.0001258853,0.00012590621,49.999985,9.4333654e-07,9.4312014e-07,3.0725346e-07,3.7867248e-06,3.7866905e-06,4.1781132e-07,0.0,0.0,0.0,0.0,0.0,0.0,0.0,0.0,24
3596000,3516000,0.6845885,0.0013605503,-0.014870072,0.7287768,4.7331792e-05,0.00071678736,-0.003812611,-1.3909807e-05,6.755406e-05,0.00073675456,-5.2929095e-06,-8.9856366e-07,-4.800622e-07,-2.325331e-05,8.962505e-06,-0.0009745541,0.20421128,0.01136816,0.43524188,0.0,0.0,0.0,0.0,0.0,0.0010284946,0.00031127135,0.0003105358,0.0009039996,0.0040650694,0.004065952,0.00041737,0.00013194904,0.00013197224,49.999985,9.4333654e-07,9.4312014e-07,3.0725346e-07,3.7867248e-06,3.7866905e-06,4.178114e-07,0.0,0.0,0.0,0.0,0.0,0.0,0.0,0.0,24
3604000,3524000,0.6845899,0.0013574793,-0.014871993,0.7287755,1.414603e-06,0.00078766723,-0.0040280907,-5.777918e-06,3.099581e-05,0.00046653923,-5.2884598e-06,-1.166438e-06,-4.816683e-07,-2.0937467e-05,9.2621185e-06,-0.00097459735,0.20421128,0.01136816,0.43524188,0.0,0.0,0.0,0.0,0.0,0.0010299762,0.00029680223,0.00029609542,0.0009053099,0.003764809,0.0037653227,0.00044595182,5.8158934e-05,5.816343e-05,33.33333,9.4032055e-07,9.4009954e-07,3.0724988e-07,3.5572914e-06,3.5572484e-06,4.1762115e-07,0.0,0.0,0.0,0.0,0.0,0.0,0.0,0.0,24
3612000,3532000,0.68459487,0.0013702199,-0.014878521,0.72877073,0.00016858095,0.00093522936,-0.0041385368,-5.0979356e-06,3.7887396e-05,0.00043387272,-5.2884598e-06,-1.166438e-06,-4.816683e-07,-2.0937467e-05,9.2621185e-06,-0.00097459735,0.20421128,0.01136816,0.43524188,0.0,0.0,0.0,0.0,0.0,0.0010315335,0.00030667914,0.00030596842,0.0009067122,0.0041453014,0.004145848,0.0004753337,6.1728846e-05,6.173413e-05,33.33333,9.4032055e-07,9.4009954e-07,3.072499e-07,3.5572916e-06,3.5572486e-06,4.176212e-07,0.0,0.0,0.0,0.0,0.0,0.0,0.0,0.0,24
3620000,3540000,0.6845959,0.0013811068,-0.014888499,0.72876954,6.433115e-05,0.0010397215,-0.0044981465,-4.166287e-06,4.57872e-05,0.00039932597,-5.2884598e-06,-1.166438e-06,-4.816683e-07,-2.0937467e-05,9.2621185e-06,-0.00097459735,0.20421128,0.01136816,0.43524188,0.0,0.0,0.0,0.0,0.0,0.0010331823,0.0003170264,0.0003163114,0.00090817653,0.004548645,0.004549219,0.0005055158,6.615933e-05,6.616549e-05,33.33333,9.403206e-07,9.400996e-07,3.072499e-07,3.5572916e-06,3.5572486e-06,4.176213e-07,0.0,0.0,0.0,0.0,0.0,0.0,0.0,0.0,24
3628000,3548000,0.6845891,0.001387508,-0.014904651,0.7287755,-1.1934972e-05,0.0011676077,-0.004850805,-3.956702e-06,5.4616517e-05,0.00036193017,-5.2884598e-06,-1.166438e-06,-4.816683e-07,-2.0937467e-05,9.2621185e-06,-0.00097459735,0.20421128,0.01136816,0.43524188,0.0,0.0,0.0,0.0,0.0,0.0010349327,0.00032784414,0.00032712423,0.0009096928,0.004974775,0.0049753776,0.0005364985,7.154875e-05,7.155589e-05,33.33333,9.403206e-07,9.400996e-07,3.072499e-07,3.5572916e-06,3.5572486e-06,4.1762135e-07,0.0,0.0,0.0,0.0,0.0,0.0,0.0,0.0,24
3636000,3556000,0.6845857,0.0013757421,-0.014891696,0.72877896,0.00014770795,0.0011491003,-0.004945245,-4.7415724e-06,5.3431067e-05,0.00032871615,-5.4196726e-06,-1.7009263e-06,-4.8523026e-07,-1.8776062e-05,8.897525e-06,-0.00097599044,0.20421128,0.01136816,0.43524188,0.0,0.0,0.0,0.0,0.0,0.0010367546,0.00031932903,0.00031862865,0.0009112813,0.004776116,0.004776617,0.00056032126,7.471094e-05,7.471815e-05,33.33333,9.3234866e-07,9.321225e-07,3.0724544e-07,3.426268e-06,3.426215e-06,4.1462218e-07,0.0,0.0,0.0,0.0,0.0,0.0,0.0,0.0,24
3644000,3564000,0.684582,0.0013899265,-0.01490551,0.7287822,0.00025619048,0.0013862025,-0.0050297156,-3.1259788e-06,6.357228e-05,0.0002888163,-5.4196726e-06,-1.7009263e-06,-4.8523026e-07,-1.8776062e-05,8.897525e-06,-0.00097599044,0.20421128,0.01136816,0.43524188,0.0,0.0,0.0,0.0,0.0,0.0010386602,0.00033068782,0.00032998272,0.00091294944,0.0051939283,0.005194452,0.0005926,8.14235e-05,8.143168e-05,33.33333,9.3234866e-07,9.321225e-07,3.0724544e-07,3.4262682e-06,3.4262152e-06,4.1462226e-07,0.0,0.0,0.0,0.0,0.0,0.0,0.0,0.0,24
3652000,3572000,0.6849046,0.0013921849,-0.01492144,0.7284786,0.00030870884,0.0014393593,-0.005152141,-6.439709e-07,7.5112235e-05,0.00024808964,-5.368907e-06,-1.6671232e-06,3.8570494e-07,-1.8738723e-05,8.84881e-06,-0.0009759925,0.20421128,0.01136816,0.43524188,0.0,0.0,0.0,0.0,0.0,0.00095884077,0.0003424816,0.0003417985,0.00084295816,0.0056342008,0.005634765,0.00062567403,8.9266854e-05,8.9276095e-05,33.33333,9.3234667e-07,9.3212157e-07,3.0665487e-07,3.426267e-06,3.4262134e-06,4.1462232e-07,0.0,0.0,0.0,0.0,0.0,0.0,0.0,0.0,24
3660000,3580000,0.6849033,0.0014127856,-0.014946384,0.7284793,0.00051080785,0.0012204623,-0.0053249896,2.634096e-06,8.575152e-05,0.00020618111,-5.368907e-06,-1.6671232e-06,3.8570494e-07,-1.8738723e-05,8.84881e-06,-0.0009759925,0.20421128,0.01136816,0.43524188,0.0,0.0,0.0,0.0,0.0,0.0009607414,0.00035477325,0.00035408436,0.0008446368,0.0060977903,0.0060984325,0.0006595437,9.8347395e-05,9.8357814e-05,33.33333,9.3234667e-07,9.3212157e-07,3.0665487e-07,3.426267e-06,3.4262134e-06,4.1462238e-07,0.0,0.0,0.0,0.0,0.0,0.0,0.0,0.0,24
3668000,3588000,0.684907,0.0014391025,-0.01497001,0.7284753,0.0004066173,0.0011621318,-0.0055465773,6.303797e-06,9.5281895e-05,0.00016269484,-5.368907e-06,-1.6671232e-06,3.8570494e-07,-1.8738723e-05,8.84881e-06,-0.0009759925,0.20421128,0.01136816,0.43524188,0.0,0.0,0.0,0.0,0.0,0.0009627113,0.00036753103,0.0003668363,0.0008463995,0.006585589,0.00658628,0.0006942099,0.00010877693,0.00010878866,33.33333,9.3234667e-07,9.3212157e-07,3.066549e-07,3.4262673e-06,3.4262137e-06,4.1462246e-07,0.0,0.0,0.0,0.0,0.0,0.0,0.0,0.0,24
3676000,3596000,0.6849097,0.0014543997,-0.0149913365,0.7284723,0.00021406682,0.0011925452,-0.0056900308,8.786534e-06,0.0001047006,0.0001177484,-5.368907e-06,-1.6671232e-06,3.8570494e-07,-1.8738723e-05,8.84881e-06,-0.0009759925,0.20421128,0.01136816,0.43524188,0.0,0.0,0.0,0.0,0.0,0.0009647651,0.00038075485,0.00038005415,0.00084823195,0.007097905,0.0070986343,0.000729673,0.00012067302,0.000120686214,33.33333,9.3234667e-07,9.3212157e-07,3.066549e-07,3.4262673e-06,3.4262137e-06,4.1462252e-07,0.0,0.0,0.0,0.0,0.0,0.0,0.0,0.0,24
3684000,3604000,0.6849098,0.001458715,-0.015012627,0.72847176,0.00012636569,0.0012254993,-0.0057250857,1.0148264e-05,0.00011437278,7.208793e-05,-5.368907e-06,-1.6671232e-06,3.8570494e-07,-1.8738723e-05,8.84881e-06,-0.0009759925,0.20421128,0.01136816,0.43524188,0.0,0.0,0.0,0.0,0.0,0.00096690655,0.00039444477,0.00039373786,0.0008501303,0.007635409,0.007636186,0.0007659333,0.00013415862,0.0001341734,33.33333,9.323467e-07,9.321216e-07,3.066549e-07,3.4262673e-06,3.4262137e-06,4.1462258e-07,0.0,0.0,0.0,0.0,0.0,0.0,0.0,0.0,24
3692000,3612000,0.68490994,0.001466975,-0.015027386,0.72847134,4.1596126e-05,0.0012792046,-0.0059070736,1.0820111e-05,0.00012439159,2.5559293e-05,-5.368907e-06,-1.6671232e-06,3.8570494e-07,-1.8738723e-05,8.84881e-06,-0.0009759925,0.20421128,0.01136816,0.43524188,0.0,0.0,0.0,0.0,0.0,0.00096912956,0.00040860058,0.0004078877,0.00085210055,0.008200225,0.008201053,0.000802991,0.00014936243,0.00014937896,33.33333,9.323467e-07,9.321216e-07,3.066549e-07,3.4262673e-06,3.4262137e-06,4.1462263e-07,0.0,0.0,0.0,0.0,0.0,0.0,0.0,0.0,24
3700000,3620000,0.68491346,0.0014854833,-0.015042202,0.7284677,-0.00014587701,0.0012856944,-0.006062329,1.0402988e-05,0.00013465119,-2.231832e-05,-5.368907e-06,-1.6671232e-06,3.8570494e-07,-1.8738723e-05,8.84881e-06,-0.0009759925,0.20421128,0.01136816,0.43524188,0.0,0.0,0.0,0.0,0.0,0.0009714257,0.0004232226,0.00042250365,0.00085415103,0.008792501,0.008793381,0.0008408463,0.00016642048,0.00016643891,33.33333,9.323467e-07,9.321216e-07,3.0665493e-07,3.4262675e-06,3.4262139e-06,4.1462272e-07,0.0,0.0,0.0,0.0,0.0,0.0,0.0,0.0,24
3708000,3628000,0.68491614,0.0015047758,-0.015058496,0.7284648,-0.0003022207,0.0014548815,-0.006145008,8.6105965e-06,0.00014561349,-7.114767e-05,-5.368907e-06,-1.6671232e-06,3.8570494e-07,-1.8738723e-05,8.84881e-06,-0.0009759925,0.20421128,0.01136816,0.43524188,0.0,0.0,0.0,0.0,0.0,0.0009738049,0.00043831088,0.00043758555,0.0008562716,0.009412965,0.009413885,0.0008795,0.00018547455,0.00018549507,33.33333,9.323467e-07,9.321216e-07,3.0665493e-07,3.4262675e-06,3.4262139e-06,4.1462278e-07,0.0,0.0,0.0,0.0,0.0,0.0,0.0,0.0,24
3716000,3636000,0.68491566,0.0015280881,-0.015072784,0.72846484,-0.00023704336,0.0015412464,-0.0060281903,6.45354e-06,0.000157598,-0.000119840464,-5.368907e-06,-1.6671232e-06,3.8570494e-07,-1.8738723e-05,8.84881e-06,-0.0009759925,0.20421128,0.01136816,0.43524188,0.0,0.0,0.0,0.0,0.0,0.0009762732,0.0004538652,0.0004531335,0.0008584564,0.010061789,0.010062778,0.00091895164,0.00020667282,0.0002066956,33.33333,9.323467e-07,9.321216e-07,3.0665493e-07,3.4262675e-06,3.4262139e-06,4.1462283e-07,0.0,0.0,0.0,0.0,0.0,0.0,0.0,0.0,24
3724000,3644000,0.6849517,0.0015462624,-0.015101482,0.72843033,-0.00034384785,0.0018166092,-0.006014435,4.1869735e-06,0.00017109649,-0.00016801074,-5.361042e-06,-1.6619366e-06,5.172859e-07,-1.8733586e-05,8.842074e-06,-0.00097599276,0.20421128,0.01136816,0.43524188,0.0,0.0,0.0,0.0,0.0,0.00090617995,0.00046985943,0.00046914077,0.0007969859,0.01074178,0.010742795,0.00095920265,0.00023016916,0.00023019432,33.33333,9.3234326e-07,9.321201e-07,3.056768e-07,3.4262662e-06,3.4262116e-06,4.146229e-07,0.0,0.0,0.0,0.0,0.0,0.0,0.0,0.0,24
3732000,3652000,0.684949,0.0015651275,-0.015119678,0.7284325,-0.00028597045,0.0019921088,-0.0062481686,1.6677002e-06,0.00018633135,-0.00021706116,-5.361042e-06,-1.6619366e-06,5.172859e-07,-1.8733586e-05,8.842074e-06,-0.00097599276,0.20421128,0.01136816,0.43524188,0.0,0.0,0.0,0.0,0.0,0.00090862165,0.00048634622,0.00048562037,0.00079913856,0.0114550525,0.011456132,0.0010002521,0.00025612695,0.00025615472,33.33333,9.3234326e-07,9.321201e-07,3.0567682e-07,3.4262662e-06,3.4262116e-06,4.1462297e-07,0.0,0.0,0.0,0.0,0.0,0.0,0.0,0.0,24
3740000,3660000,0.68494785,0.0015913461,-0.0151308635,0.7284333,-0.00014034059,0.0021234949,-0.0064420626,-3.7544055e-08,0.00020279377,-0.0002678221,-5.361042e-06,-1.6619366e-06,5.172859e-07,-1.8733586e-05,8.842074e-06,-0.00097599276,0.20421128,0.01136816,0.43524188,0.0,0.0,0.0,0.0,0.0,0.0009111413,0.00050329894,0.0005025662,0.00080136635,0.012200971,0.0122021325,0.0010421005,0.00028471765,0.00028474827,33.33333,9.3234326e-07,9.321201e-07,3.0567682e-07,3.4262662e-06,3.4262116e-06,4.1462303e-07,0.0,0.0,0.0,0.0,0.0,0.0,0.0,0.0,24
3748000,3668000,0.6849489,0.0016189633,-0.015149156,0.7284318,8.410949e-06,0.0023209937,-0.006590195,-5.6526267e-07,0.00022057173,-0.00031995113,-5.361042e-06,-1.6619366e-06,5.172859e-07,-1.8733586e-05,8.842074e-06,-0.00097599276,0.20421128,0.01136816,0.43524188,0.0,0.0,0.0,0.0,0.0,0.00091373647,0.00052071817,0.00051997794,0.00080367114,0.012980633,0.012981876,0.0010847488,0.0003161188,0.00031615252,33.33333,9.323433e-07,9.3212014e-07,3.0567682e-07,3.4262662e-06,3.4262116e-06,4.146231e-07,0.0,0.0,0.0,0.0,0.0,0.0,0.0,0.0,24
3756000,3676000,0.68495667,0.0016402623,-0.015165745,0.72842413,0.00012567377,0.0023147683,-0.0067237616,-2.892375e-08,0.00023911479,-0.00037320695,-5.361042e-06,-1.6619366e-06,5.172859e-07,-1.8733586e-05,8.842074e-06,-0.00097599276,0.20421128,0.01136816,0.43524188,0.0,0.0,0.0,0.0,0.0,0.0009163973,0.0005386035,0.00053785555,0.00080606324,0.0137953935,0.013796749,0.0011281958,0.00035051568,0.00035055281,33.33333,9.323433e-07,9.3212014e-07,3.0567682e-07,3.4262664e-06,3.4262118e-06,4.1462314e-07,0.0,0.0,0.0,0.0,0.0,0.0,0.0,0.0,24
3764000,3684000,0.6849575,0.0016605253,-0.015177854,0.72842306,0.00017459312,0.002378781,-0.006803207,1.1721439e-06,0.00025788898,-0.00042731484,-5.361042e-06,-1.6619366e-06,5.172859e-07,-1.8733586e-05,8.842074e-06,-0.00097599276,0.20421128,0.01136816,0.43524188,0.0,0.0,0.0,0.0,0.0,0.00091915537,0.0005569548,0.00055619923,0.0008085112,0.0146461865,0.014647644,0.0011724432,0.000388102,0.00038814286,33.33333,9.323433e-07,9.3212014e-07,3.0567685e-07,3.4262664e-06,3.4262118e-06,4.146232e-07,0.0,0.0,0.0,0.0,0.0,0.0,0.0,0.0,24
3772000,3692000,0.68495756,0.0016778319,-0.015192314,0.72842264,0.00018826575,0.002683493,-0.0068477243,2.6235793e-06,0.0002781381,-0.00048191857,-5.361042e-06,-1.6619366e-06,5.172859e-07,-1.8733586e-05,8.842074e-06,-0.00097599276,0.20421128,0.01136816,0.43524188,0.0,0.0,0.0,0.0,0.0,0.0009219962,0.0005757724,0.0005750088,0.0008110293,0.0155344065,0.015535931,0.0012174925,0.00042907952,0.0004291244,33.333332,9.323433e-07,9.3212014e-07,3.0567685e-07,3.4262664e-06,3.4262118e-06,4.1462326e-07,0.0,0.0,0.0,0.0,0.0,0.0,0.0,0.0,24
3780000,3700000,0.6849623,0.0016938699,-0.015211323,0.72841775,0.00025345193,0.0027440162,-0.007030472,4.39045e-06,0.00029984812,-0.00053743133,-5.361042e-06,-1.6619366e-06,5.172859e-07,-1.8733586e-05,8.842074e-06,-0.00097599276,0.20421128,0.01136816,0.43524188,0.0,0.0,0.0,0.0,0.0,0.00092490716,0.0005950563,0.00059428427,0.00081363,0.01646279,0.016464429,0.0012633407,0.00047365885,0.00047370806,33.33334,9.323433e-07,9.3212014e-07,3.0567685e-07,3.4262664e-06,3.4262118e-06,4.1462332e-07,0.0,0.0,0.0,0.0,0.0,0.0,0.0,0.0,24
3788000,3708000,0.68496114,0.0017099037,-0.015234109,0.7284184,0.00018822314,0.0027016741,-0.007298678,6.1571504e-06,0.00032163088,-0.00059474795,-5.361042e-06,-1.6619366e-06,5.172859e-07,-1.8733586e-05,8.842074e-06,-0.00097599276,0.20421128,0.01136816,0.43524188,0.0,0.0,0.0,0.0,0.0,0.0009279126,0.00061480654,0.00061402563,0.00081628904,0.01743237,0.017434137,0.0013099889,0.0005220616,0.00052211556,33.333347,9.323433e-07,9.3212014e-07,3.0567685e-07,3.4262666e-06,3.426212e-06,4.146234e-07,0.0,0.0,0.0,0.0,0.0,0.0,0.0,0.0,24
3796000,3716000,0.6850202,0.0017317886,-0.015256328,0.72836226,0.0001558806,0.0029149007,-0.007257359,7.728533e-06,0.00034434206,-0.00065297127,-5.3429817e-06,-1.6502153e-06,8.134928e-07,-1.8722725e-05,8.827736e-06,-0.00097599335,0.20421128,0.01136816,0.43524188,0.0,0.0,0.0,0.0,0.0,0.0008651044,0.0006349994,0.0006342231,0.0007611719,0.018440718,0.018442562,0.0013574401,0.00057451776,0.0005745765,33.333355,9.3233797e-07,9.321179e-07,3.0424644e-07,3.4262648e-06,3.4262087e-06,4.1462346e-07,0.0,0.0,0.0,0.0,0.0,0.0,0.0,0.0,24
3804000,3724000,0.68501884,0.0017457831,-0.015274284,0.7283632,-9.693914e-05,0.0030977237,-0.0071959347,7.964299e-06,0.00036839256,-0.00071078446,-5.3429817e-06,-1.6502153e-06,8.134928e-07,-1.8722725e-05,8.827736e-06,-0.00097599335,0.20421128,0.01136816,0.43524188,0.0,0.0,0.0,0.0,0.0,0.00086804864,0.00065568177,0.00065489614,0.000763777,0.019491881,0.019493802,0.0014056928,0.0006312639,0.0006313281,33.333363,9.3233797e-07,9.321179e-07,3.0424647e-07,3.4262648e-06,3.4262087e-06,4.146235e-07,0.0,0.0,0.0,0.0,0.0,0.0,0.0,0.0,24
3812000,3732000,0.6850191,0.0016121492,-0.0151238665,0.7283663,-0.00014416549,0.0015340821,-0.0073074307,9.0482854e-07,4.9712806e-05,-0.0005795641,-5.83437e-06,-5.837863e-06,7.632873e-07,-6.8234426e-06,8.087537e-06,-0.00097626174,0.20421128,0.01136816,0.43524188,0.0,0.0,0.0,0.0,0.0,0.0008710346,0.00045156654,0.00045097695,0.00076640496,0.004463338,0.004463723,0.0014547298,8.738245e-05,8.738361e-05,25.000021,8.416447e-07,8.4139236e-07,3.0420134e-07,2.700799e-06,2.7005733e-06,4.1401705e-07,0.0,0.0,0.0,0.0,0.0,0.0,0.0,0.0,24
3820000,3740000,0.6850209,0.0016240221,-0.015132873,0.72836447,-0.00010747662,0.0016737505,-0.007358633,-1.0173994e-07,6.254414e-05,-0.0006382283,-5.83437e-06,-5.837863e-06,7.632873e-07,-6.8234426e-06,8.087537e-06,-0.00097626174,0.20421128,0.01136816,0.43524188,0.0,0.0,0.0,0.0,0.0,0.00087413273,0.00046863794,0.00046804236,0.0007691592,0.0047820774,0.004782513,0.0015045839,9.587197e-05,9.587321e-05,25.000025,8.4164475e-07,8.413924e-07,3.0420134e-07,2.7007993e-06,2.7005735e-06,4.140171e-07,0.0,0.0,0.0,0.0,0.0,0.0,0.0,0.0,24
3828000,3748000,0.6850227,0.0016348924,-0.015146049,0.7283625,-0.0002856223,0.001685653,-0.0073201433,-1.6741357e-06,7.5981756e-05,-0.00069694343,-5.83437e-06,-5.837863e-06,7.632873e-07,-6.8234426e-06,8.087537e-06,-0.00097626174,0.20421128,0.01136816,0.43524188,0.0,0.0,0.0,0.0,0.0,0.0008773114,0.00048613033,0.00048552832,0.00077198487,0.0051210904,0.005121584,0.0015552399,0.0001053303,0.000105331696,25.000029,8.4164475e-07,8.413924e-07,3.0420134e-07,2.7007993e-06,2.7005735e-06,4.1401717e-07,0.0,0.0,0.0,0.0,0.0,0.0,0.0,0.0,24
3836000,3756000,0.6850272,0.0016421701,-0.015163093,0.72835785,-0.00030410802,0.0018800849,-0.0073740035,-4.033057e-06,9.024471e-05,-0.00075572,-5.83437e-06,-5.837863e-06,7.632873e-07,-6.8234426e-06,8.087537e-06,-0.00097626174,0.20421128,0.01136816,0.43524188,0.0,0.0,0.0,0.0,0.0,0.00088056445,0.0005040437,0.0005034348,0.0007748882,0.005482176,0.005482725,0.0016066986,0.00011583537,0.000115837,25.000032,8.4164475e-07,8.413924e-07,3.0420136e-07,2.7007993e-06,2.7005735e-06,4.1401722e-07,0.0,0.0,0.0,0.0,0.0,0.0,0.0,0.0,24
3844000,3764000,0.6850322,0.001613129,-0.015146376,0.72835356,-0.00032302935,0.0016946269,-0.007425178,-1.0964629e-06,7.642944e-05,-0.0007625812,-5.6379995e-06,-7.5291546e-06,7.3049375e-07,-6.39839e-06,8.3086725e-06,-0.000980241,0.20421128,0.01136816,0.43524188,0.0,0.0,0.0,0.0,0.0,0.0008838959,0.00049296883,0.0004923677,0.0007778563,0.0051168925,0.005117362,0.0015928952,0.000117080126,0.000117081574,25.000034,8.0738306e-07,8.0712914e-07,3.0418573e-07,2.6973669e-06,2.6971406e-06,4.0303465e-07,0.0,0.0,0.0,0.0,0.0,0.0,0.0,0.0,24
3852000,3772000,0.68503284,0.0016202154,-0.015154664,0.7283528,-0.00015284051,0.0019388591,-0.0076125935,-2.9999424e-06,9.096338e-05,-0.0008227323,-5.6379995e-06,-7.5291546e-06,7.3049375e-07,-6.39839e-06,8.3086725e-06,-0.000980241,0.20421128,0.01136816,0.43524188,0.0,0.0,0.0,0.0,0.0,0.000887319,0.00051071093,0.0005101036,0.0007808939,0.0054748342,0.005475356,0.0016442438,0.00012829124,0.00012829292,25.000038,8.0738306e-07,8.0712914e-07,3.0418573e-07,2.6973669e-06,2.6971406e-06,4.030347e-07,0.0,0.0,0.0,0.0,0.0,0.0,0.0,0.0,24
3860000,3780000,0.6850342,0.0016246287,-0.015173579,0.72835106,-0.00020632311,0.0020735166,-0.007508874,-4.436597e-06,0.000107012886,-0.00088321813,-5.6379995e-06,-7.5291546e-06,7.3049375e-07,-6.39839e-06,8.3086725e-06,-0.000980241,0.20421128,0.01136816,0.43524188,0.0,0.0,0.0,0.0,0.0,0.00089082064,0.00052885717,0.00052824273,0.0007840048,0.0058541563,0.005854738,0.0016963736,0.0001406374,0.0001406394,25.000042,8.0738306e-07,8.0712914e-07,3.0418573e-07,2.6973669e-06,2.6971406e-06,4.0303476e-07,0.0,0.0,0.0,0.0,0.0,0.0,0.0,0.0,24
3868000,3788000,0.68563473,0.0016306868,-0.015198278,0.72778535,-0.00028117426,0.0023003481,-0.007560899,-5.8356845e-06,0.0001252426,-0.0009434874,-5.46499e-06,-7.4315208e-06,4.1042276e-06,-6.19231e-06,8.082923e-06,-0.0009802509,0.20421128,0.01136816,0.43524188,0.0,0.0,0.0,0.0,0.0,0.00083343673,0.0005473858,0.0005467773,0.0007336676,0.0062579243,0.0062585557,0.0017492851,0.00015420525,0.00015420762,25.000048,8.07378e-07,8.0712755e-07,3.0225215e-07,2.6973596e-06,2.697132e-06,4.030348e-07,0.0,0.0,0.0,0.0,0.0,0.0,0.0,0.0,24
3876000,3796000,0.6856301,0.0016416186,-0.015226507,0.7277891,-0.00020671549,0.002421897,-0.0074535087,-7.787244e-06,0.00014413158,-0.001003545,-5.46499e-06,-7.4315208e-06,4.1042276e-06,-6.19231e-06,8.082923e-06,-0.0009802509,0.20421128,0.01136816,0.43524188,0.0,0.0,0.0,0.0,0.0,0.0008368592,0.00056633976,0.00056572317,0.0007366907,0.0066857855,0.00668649,0.0018029775,0.00016908864,0.00016909155,25.000055,8.07378e-07,8.0712755e-07,3.0225215e-07,2.6973598e-06,2.6971322e-06,4.0303485e-07,0.0,0.0,0.0,0.0,0.0,0.0,0.0,0.0,24
3884000,3804000,0.6856352,0.0016530785,-0.015240382,0.7277839,-9.347376e-05,0.0024011615,-0.0075875744,-8.988e-06,0.00016342381,-0.0010637094,-5.46499e-06,-7.4315208e-06,4.1042276e-06,-6.19231e-06,8.082923e-06,-0.0009802509,0.20421128,0.01136816,0.43524188,0.0,0.0,0.0,0.0,0.0,0.0008403416,0.00058569683,0.00058507285,0.0007398054,0.007141001,0.007141798,0.0018574508,0.00018538599,0.00018538957,25.000063,8.07378e-07,8.0712755e-07,3.0225215e-07,2.6973598e-06,2.6971322e-06,4.030349e-07,0.0,0.0,0.0,0.0,0.0,0.0,0.0,0.0,24
3892000,3812000,0.6856452,0.0016772557,-0.015260271,0.72777396,4.443276e-05,0.0026315514,-0.0075609013,-9.184165e-06,0.00018355467,-0.0011243033,-5.46499e-06,-7.4315208e-06,4.1042276e-06,-6.19231e-06,8.082923e-06,-0.0009802509,0.20421128,0.01136816,0.43524188,0.0,0.0,0.0,0.0,0.0,0.0008438935,0.0006054578,0.00060482597,0.0007430016,0.0076226545,0.007623529,0.0019127075,0.00020320372,0.00020320814,25.00007,8.0737806e-07,8.071276e-07,3.0225215e-07,2.6973598e-06,2.6971322e-06,4.0303496e-07,0.0,0.0,0.0,0.0,0.0,0.0,0.0,0.0,24
3900000,3820000,0.68565166,0.0016741593,-0.015277961,0.7277675,0.000213194,0.0026497988,-0.0076673925,-8.153658e-06,0.00020468008,-0.0011852165,-5.46499e-06,-7.4315208e-06,4.1042276e-06,-6.19231e-06,8.082923e-06,-0.0009802509,0.20421128,0.01136816,0.43524188,0.0,0.0,0.0,0.0,0.0,0.0008475328,0.0006256224,0.00062498235,0.0007462618,0.008133654,0.008134632,0.0019687454,0.00022265292,0.00022265835,25.000078,8.0737806e-07,8.071276e-07,3.0225215e-07,2.6973598e-06,2.6971322e-06,4.0303502e-07,0.0,0.0,0.0,0.0,0.0,0.0,0.0,0.0,24
3908000,3828000,0.6856527,0.0016863988,-0.015283143,0.72776645,0.00030246476,0.0026347297,-0.0077274144,-6.0910234e-06,0.00022581819,-0.0012467958,-5.46499e-06,-7.4315208e-06,4.1042276e-06,-6.19231e-06,8.082923e-06,-0.0009802509,0.20421128,0.01136816,0.43524188,0.0,0.0,0.0,0.0,0.0,0.0008512642,0.0006461902,0.00064554263,0.0007495812,0.0086742155,0.008675306,0.0020255654,0.00024385293,0.0002438596,25.000086,8.0737806e-07,8.071276e-07,3.0225218e-07,2.69736e-06,2.6971325e-06,4.0303507e-07,0.0,0.0,0.0,0.0,0.0,0.0,0.0,0.0,24
3916000,3836000,0.68565273,0.0017024464,-0.015302903,0.727766,0.000375007,0.003002042,-0.0076338053,-3.3811361e-06,0.00024836528,-0.0013082407,-5.46499e-06,-7.4315208e-06,4.1042276e-06,-6.19231e-06,8.082923e-06,-0.0009802509,0.20421128,0.01136816,0.43524188,0.0,0.0,0.0,0.0,0.0,0.0008550771,0.00066716224,0.0006665062,0.00075297,0.009244862,0.009246033,0.0020831707,0.00026692922,0.00026693736,25.000093,8.0737806e-07,8.071276e-07,3.0225218e-07,2.69736e-06,2.6971325e-06,4.0303513e-07,0.0,0.0,0.0,0.0,0.0,0.0,0.0,0.0,24
3924000,3844000,0.6856556,0.0017123707,-0.015317561,0.727763,0.0002996701,0.0033590202,-0.007743582,-6.8242775e-07,0.00027380954,-0.0013697502,-5.46499e-06,-7.4315208e-06,4.1042276e-06,-6.19231e-06,8.082923e-06,-0.0009802509,0.20421128,0.01136816,0.43524188,0.0,0.0,0.0,0.0,0.0,0.00085896417,0.0006885377,0.0006878732,0.000756436,0.009849435,0.0098506855,0.0021415593,0.00029201372,0.00029202356,25.000101,8.0737806e-07,8.071276e-07,3.0225218e-07,2.69736e-06,2.6971325e-06,4.030352e-07,0.0,0.0,0.0,0.0,0.0,0.0,0.0,0.0,24
3932000,3852000,0.6856514,0.0017225123,-0.015331843,0.7277665,0.00017978979,0.0037399307,-0.007843189,1.2354119e-06,0.00030220533,-0.0014320973,-5.46499e-06,-7.4315208e-06,4.1042276e-06,-6.19231e-06,8.082923e-06,-0.0009802509,0.20421128,0.01136816,0.43524188,0.0,0.0,0.0,0.0,0.0,0.00086294627,0.0007103169,0.00070964376,0.0007599581,0.01048782,0.010489151,0.0022007315,0.0003192486,0.00031926038,25.000109,8.0737806e-07,8.071276e-07,3.0225218e-07,2.69736e-06,2.6971325e-06,4.0303524e-07,0.0,0.0,0.0,0.0,0.0,0.0,0.0,0.0,24
3940000,3860000,0.6860051,0.0017216541,-0.015350841,0.7274328,0.00019187397,0.0038637035,-0.007980782,3.5910277e-06,0.00033377178,-0.047722403,-5.3398694e-06,-7.360892e-06,6.4522474e-06,-6.0560974e-06,7.93482e-06,-0.0009802463,0.20421128,0.01136816,0.43524188,0.0,0.0,0.0,0.0,0.0,0.00080962654,0.0007324808,0.00073180493,0.0007131429,0.0111617325,0.01116317,0.0022606768,0.00034878217,0.00034879587,8.221489,8.07371e-07,8.071254e-07,2.997774e-07,2.697352e-06,2.697123e-06,4.030343e-07,0.0,0.0,0.0,0.0,0.0,0.0,0.0,0.0,24
3948000,3868000,0.68600863,0.0017368839,-0.015366904,0.72742903,0.00036488718,0.003804165,-0.008376472,5.818072e-06,0.00036444326,-0.04778783,-5.3398694e-06,-7.360892e-06,6.4522474e-06,-6.0560974e-06,7.93482e-06,-0.0009802463,0.20421128,0.01136816,0.43524188,0.0,0.0,0.0,0.0,0.0,0.0008134762,0.00075506733,0.0007543822,0.0007165826,0.011874741,0.011876338,0.0023214112,0.00038077254,0.00038078873,8.221493,8.07371e-07,8.071254e-07,2.997774e-07,2.697352e-06,2.697123e-06,4.0303436e-07,0.0,0.0,0.0,0.0,0.0,0.0,0.0,0.0,24
3956000,3876000,0.6860097,0.001762714,-0.015386425,0.72742754,0.0003951965,0.004016717,-0.008676313,8.858407e-06,0.0003957268,-0.04785604,-5.3398694e-06,-7.360892e-06,6.4522474e-06,-6.0560974e-06,7.93482e-06,-0.0009802463,0.20421128,0.01136816,0.43524188,0.0,0.0,0.0,0.0,0.0,0.00081741007,0.0007780577,0.000777363,0.00072008785,0.012625284,0.012627007,0.0023829325,0.0004153879,0.00041540695,8.221497,8.07371e-07,8.071254e-07,2.997774e-07,2.697352e-06,2.697123e-06,4.0303442e-07,0.0,0.0,0.0,0.0,0.0,0.0,0.0,0.0,24
3964000,3884000,0.68600327,0.0017734454,-0.015397732,0.7274334,0.00032299268,0.0044699004,-0.008889869,1.1731165e-05,0.00042967327,-0.047926307,-5.3398694e-06,-7.360892e-06,6.4522474e-06,-6.0560974e-06,7.93482e-06,-0.0009802463,0.20421128,0.01136816,0.43524188,0.0,0.0,0.0,0.0,0.0,0.0008214389,0.00080145145,0.0008007473,0.00072364835,0.013414815,0.013416633,0.0024452412,0.00045280263,0.00045282487,8.2215,8.0737107e-07,8.0712545e-07,2.997774e-07,2.697352e-06,2.697123e-06,4.0303448e-07,0.0,0.0,0.0,0.0,0.0,0.0,0.0,0.0,24
3972000,3892000,0.6860027,0.0017799366,-0.015414424,0.7274336,0.0004509734,0.0046452964,-0.009144142,1.4827029e-05,0.00046613405,-0.047998443,-5.3398694e-06,-7.360892e-06,6.4522474e-06,-6.0560974e-06,7.93482e-06,-0.0009802463,0.20421128,0.01136816,0.43524188,0.0,0.0,0.0,0.0,0.0,0.0008255349,0.000825249,0.0008245349,0.00072729157,0.014246011,0.014247981,0.0025083306,0.0004932001,0.0004932259,8.221504,8.0737107e-07,8.0712545e-07,2.997774e-07,2.697352e-06,2.697123e-06,4.0303453e-07,0.0,0.0,0.0,0.0,0.0,0.0,0.0,0.0,24
3980000,3900000,0.6860036,0.0017904129,-0.015424589,0.7274325,0.00060715154,0.0049361056,-0.009432584,1.905953e-05,0.00050445966,-0.04807275,-5.3398694e-06,-7.360892e-06,6.4522474e-06,-6.0560974e-06,7.93482e-06,-0.0009802463,0.20421128,0.01136816,0.43524188,0.0,0.0,0.0,0.0,0.0,0.0008297072,0.00084945007,0.0008487262,0.00073100853,0.015120469,0.015122582,0.0025722068,0.0005367748,0.00053680455,8.221509,8.0737107e-07,8.0712545e-07,2.9977744e-07,2.6973523e-06,2.6971231e-06,4.030346e-07,0.0,0.0,0.0,0.0,0.0,0.0,0.0,0.0,24
3988000,3908000,0.68601,0.001802122,-0.015434327,0.72742623,0.0006839724,0.0051497617,-0.009608656,2.4224026e-05,0.00054480316,-0.048148915,-5.3398694e-06,-7.360892e-06,6.4522474e-06,-6.0560974e-06,7.93482e-06,-0.0009802463,0.20421128,0.01136816,0.43524188,0.0,0.0,0.0,0.0,0.0,0.00083394744,0.00087405473,0.00087332097,0.00073480746,0.016038056,0.016040327,0.0026368662,0.00058373134,0.00058376556,8.221515,8.0737107e-07,8.0712545e-07,2.9977744e-07,2.6973523e-06,2.6971231e-06,4.0303465e-07,0.0,0.0,0.0,0.0,0.0,0.0,0.0,0.0,24
3996000,3916000,0.6860093,0.0018224173,-0.015446459,0.7274266,0.00052537327,0.005300721,-0.009612627,2.9061408e-05,0.0005866051,-0.0482258,-5.3398694e-06,-7.360892e-06,6.4522474e-06,-6.0560974e-06,7.93482e-06,-0.0009802463,0.20421128,0.01136816,0.43524188,0.0,0.0,0.0,0.0,0.0,0.00083828176,0.0008990632,0.0008983193,0.0007386622,0.016999448,0.017001882,0.0027023088,0.0006342825,0.00063432165,8.22152,8.0737107e-07,8.0712545e-07,2.9977744e-07,2.6973523e-06,2.6971231e-06,4.030347e-07,0.0,0.0,0.0,0.0,0.0,0.0,0.0,0.0,24
4004000,3924000,0.6860054,0.0018420018,-0.015462379,0.7274298,0.00022333817,0.005371339,-0.009675839,3.2056065e-05,0.0006292905,-0.10619107,-5.339877e-06,-7.3609667e-06,6.4522396e-06,-6.0554485e-06,7.934256e-06,-0.0009802192,0.20421128,0.01136816,0.43524188,0.0,0.0,0.0,0.0,0.0,0.0008427018,0.00092447543,0.00092372106,0.0007425811,0.01800898,0.018011598,0.0027685277,0.0006886503,0.00068869494,4.919697,8.0737107e-07,8.0712545e-07,2.9977744e-07,2.6973523e-06,2.6971231e-06,4.0303402e-07,0.0,0.0,0.0,0.0,0.0,0.0,0.0,0.0,24
4012000,3932000,0.68627316,0.0018620811,-0.015480192,0.7271768,0.00027819385,0.0054074745,-0.009922059,3.5441535e-05,0.00067419297,-0.10626946,-5.2295763e-06,-7.2993316e-06,8.4606945e-06,-5.9444706e-06,7.813557e-06,-0.0009802246,0.20421128,0.01136816,0.43524188,0.0,0.0,0.0,0.0,0.0,0.0007923438,0.00095027435,0.00094950694,0.00069835037,0.019070126,0.01907292,0.0028355378,0.0007470698,0.0007471194,4.919701,8.073619e-07,8.071226e-07,2.9673603e-07,2.6973432e-06,2.6971124e-06,4.0303405e-07,0.0,0.0,0.0,0.0,0.0,0.0,0.0,0.0,24
4020000,3940000,0.686276,0.0016031511,-0.015145948,0.72718185,0.00028573195,0.0026788805,-0.010020749,4.217739e-06,7.8955025e-05,-0.1063495,-6.6032057e-06,-1.8320467e-05,8.274313e-06,-2.9019573e-06,7.896e-06,-0.0009802936,0.20421128,0.01136816,0.43524188,0.0,0.0,0.0,0.0,0.0,0.00079658395,0.0006310727,0.00063048425,0.00070209283,0.0047683422,0.0047689676,0.002903304,8.900848e-05,8.9009176e-05,4.919706,5.904962e-07,5.9026326e-07,2.9664065e-07,2.681057e-06,2.6808123e-06,4.0301924e-07,0.0,0.0,0.0,0.0,0.0,0.0,0.0,0.0,24
4028000,3948000,0.6862766,0.0016026675,-0.015146442,0.7271812,0.0002634823,0.0026739035,-0.010021254,6.414596e-06,0.00010036616,-0.10642967,-6.6032057e-06,-1.8320467e-05,8.274313e-06,-2.9019573e-06,7.896e-06,-0.0009802936,0.20421128,0.01136816,0.43524188,0.0,0.0,0.0,0.0,0.0,0.00080093276,0.00064898503,0.00064839015,0.0007059684,0.0051658773,0.0051665795,0.0029718843,9.6600525e-05,9.66016e-05,4.919711,5.904962e-07,5.9026326e-07,2.9664065e-07,2.681057e-06,2.6808123e-06,4.030193e-07,0.0,0.0,0.0,0.0,0.0,0.0,0.0,0.0,24
4036000,3956000,0.68628556,0.0016106443,-0.015159857,0.7271725,0.00014285135,0.0026919064,-0.010185152,8.03993e-06,0.0001218294,-0.10651049,-6.6032057e-06,-1.8320467e-05,8.274313e-06,-2.9019573e-06,7.896e-06,-0.0009802936,0.20421128,0.01136816,0.43524188,0.0,0.0,0.0,0.0,0.0,0.0008053427,0.00066719315,0.00066659093,0.0007099309,0.005590665,0.005591447,0.0030412504,0.0001051559,0.00010515748,4.919717,5.9049626e-07,5.902633e-07,2.9664065e-07,2.681057e-06,2.6808123e-06,4.0301936e-07,0.0,0.0,0.0,0.0,0.0,0.0,0.0,0.0,24
4044000,3964000,0.6862839,0.0016249621,-0.015178751,0.72717357,0.00018948488,0.0027314145,-0.010100402,9.369275e-06,0.00014352269,-0.106591634,-6.6032057e-06,-1.8320467e-05,8.274313e-06,-2.9019573e-06,7.896e-06,-0.0009802936,0.20421128,0.01136816,0.43524188,0.0,0.0,0.0,0.0,0.0,0.00080985215,0.00068569666,0.0006850867,0.000713942,0.0060412963,0.0060421634,0.0031114025,0.000114769675,0.0001147719,4.919723,5.9049626e-07,5.902633e-07,2.9664065e-07,2.6810571e-06,2.6808125e-06,4.030194e-07,0.0,0.0,0.0,0.0,0.0,0.0,0.0,0.0,24
4052000,3972000,0.68628013,0.0015669245,-0.015106716,0.72717875,0.0001388311,0.0024516722,-0.009578728,8.570237e-06,0.00012561992,-0.10657795,-6.983505e-06,-2.1475702e-05,8.215976e-06,-5.024735e-06,8.390283e-06,-0.000987661,0.20421128,0.01136816,0.43524188,0.0,0.0,0.0,0.0,0.0,0.00081444316,0.0006374267,0.0006368369,0.0007180029,0.005608121,0.0056088218,0.0029478157,0.00011618576,0.00011618748,4.919726,5.321499e-07,5.319281e-07,2.9661365e-07,2.658558e-06,2.6583207e-06,3.8080253e-07,0.0,0.0,0.0,0.0,0.0,0.0,0.0,0.0,24
4060000,3980000,0.6862837,0.0015737171,-0.015114489,0.72717524,0.00015761942,0.0024821402,-0.0098107075,9.7560505e-06,0.0001453554,-0.092219554,-6.983504e-06,-2.1475686e-05,8.215979e-06,-5.024994e-06,8.390516e-06,-0.0009876721,0.20421128,0.01136816,0.43524188,0.0,0.0,0.0,0.0,0.0,0.00081909914,0.0006545273,0.000653931,0.0007221639,0.0060490943,0.0060498705,0.0030149429,0.00012653736,0.00012653971,3.510056,5.321499e-07,5.319281e-07,2.9661368e-07,2.658558e-06,2.6583207e-06,3.8080174e-07,0.0,0.0,0.0,0.0,0.0,0.0,0.0,0.0,24
4068000,3988000,0.6862873,0.0015857097,-0.015119844,0.7271718,9.969022e-05,0.00254553,-0.009919204,1.0785289e-05,0.00016546609,-0.09229847,-6.983504e-06,-2.1475686e-05,8.215979e-06,-5.024994e-06,8.390516e-06,-0.0009876721,0.20421128,0.01136816,0.43524188,0.0,0.0,0.0,0.0,0.0,0.0008238336,0.0006718938,0.0006712911,0.00072639476,0.0065163835,0.006517237,0.0030828214,0.0001380613,0.00013806444,3.510061,5.321499e-07,5.319281e-07,2.9661368e-07,2.658558e-06,2.6583207e-06,3.808018e-07,0.0,0.0,0.0,0.0,0.0,0.0,0.0,0.0,24
4076000,3996000,0.68629193,0.0015919828,-0.01513515,0.727167,1.284451e-05,0.0027112358,-0.010072939,1.1235428e-05,0.00018649315,-0.09237844,-6.983504e-06,-2.1475686e-05,8.215979e-06,-5.024994e-06,8.390516e-06,-0.0009876721,0.20421128,0.01136816,0.43524188,0.0,0.0,0.0,0.0,0.0,0.0008286437,0.00068952685,0.0006889168,0.0007306983,0.007012141,0.0070130676,0.0031514429,0.00015086176,0.00015086585,3.5100665,5.321499e-07,5.319281e-07,2.9661368e-07,2.6585583e-06,2.658321e-06,3.8080182e-07,0.0,0.0,0.0,0.0,0.0,0.0,0.0,0.0,24
4084000,4004000,0.6865891,0.0015952017,-0.015152442,0.72688603,-0.00014107265,0.002759185,-0.010235117,1.1183412e-05,0.00020899822,-0.092459664,-6.8863797e-06,-2.14427e-05,1.0660095e-05,-4.8897286e-06,8.251486e-06,-0.0009876785,0.20421128,0.01136816,0.43524188,0.0,0.0,0.0,0.0,0.0,0.00078037946,0.00070740946,0.0007067971,0.0006883037,0.007537182,0.007538175,0.0032208057,0.00016504992,0.00016505503,3.510073,5.3214416e-07,5.319274e-07,2.929938e-07,2.6585471e-06,2.658309e-06,3.8080185e-07,0.0,0.0,0.0,0.0,0.0,0.0,0.0,0.0,24
4092000,4012000,0.68659115,0.001606096,-0.015161246,0.72688395,2.9699426e-05,0.0028098687,-0.010155551,1.0737919e-05,0.00023127443,-0.092541225,-6.8863797e-06,-2.14427e-05,1.0660095e-05,-4.8897286e-06,8.251486e-06,-0.0009876785,0.20421128,0.01136816,0.43524188,0.0,0.0,0.0,0.0,0.0,0.00078503106,0.0007255742,0.0007249546,0.0006924601,0.008090674,0.008091761,0.0032909103,0.00018074403,0.00018075043,3.5100799,5.3214416e-07,5.319274e-07,2.9299383e-07,2.6585471e-06,2.658309e-06,3.808019e-07,0.0,0.0,0.0,0.0,0.0,0.0,0.0,0.0,24
4100000,4020000,0.6865925,0.0016037842,-0.0151700415,0.7268824,8.378389e-05,0.0028070775,-0.010064356,1.11918525e-05,0.0002537422,-0.0926221,-6.8863797e-06,-2.14427e-05,1.0660095e-05,-4.8897286e-06,8.251486e-06,-0.0009876785,0.20421128,0.01136816,0.43524188,0.0,0.0,0.0,0.0,0.0,0.0007897612,0.0007440051,0.00074337784,0.0006966846,0.00867536,0.008676549,0.0033617571,0.00019806727,0.00019807518,3.5100873,5.3214416e-07,5.319274e-07,2.9299383e-07,2.6585471e-06,2.658309e-06,3.8080196e-07,0.0,0.0,0.0,0.0,0.0,0.0,0.0,0.0,24
4108000,4028000,0.68659,0.0016062707,-0.015178324,0.7268846,0.00017535385,0.0028108666,-0.010129698,1.2228404e-05,0.00027621398,-0.09270288,-6.8863797e-06,-2.14427e-05,1.0660095e-05,-4.8897286e-06,8.251486e-06,-0.0009876785,0.20421128,0.01136816,0.43524188,0.0,0.0,0.0,0.0,0.0,0.0007945766,0.00076270197,0.00076206704,0.0007009704,0.009293873,0.009295172,0.003433347,0.00021715126,0.00021716092,3.5100951,5.3214416e-07,5.319274e-07,2.9299383e-07,2.6585471e-06,2.658309e-06,3.8080202e-07,0.0,0.0,0.0,0.0,0.0,0.0,0.0,0.0,24
