timestamp,timestamp_sample,q[0],q[1],q[2],q[3],delta_q_reset[0],delta_q_reset[1],delta_q_reset[2],delta_q_reset[3],quat_reset_counter
3440000,3440000,0.6847053,0.00032315607,-0.015265277,0.72866017,0.9999962,9.313227e-10,8.73115e-10,0.0027974846,1
3444000,3444000,0.68470216,0.00035226805,-0.015254398,0.7286633,0.9999962,9.313227e-10,8.73115e-10,0.0027974846,1
3452000,3452000,0.68469185,0.0004109858,-0.015232389,0.72867334,0.9999962,9.313227e-10,8.73115e-10,0.0027974846,1
3456000,3456000,0.68468475,0.00044138794,-0.015222735,0.7286802,0.9999962,9.313227e-10,8.73115e-10,0.0027974846,1
3460000,3460000,0.6846783,0.0004746637,-0.01522015,0.7286863,0.9999962,9.313227e-10,8.73115e-10,0.0027974846,1
3464000,3464000,0.6846726,0.00050931174,-0.015221724,0.72869164,0.9999962,9.313227e-10,8.73115e-10,0.0027974846,1
3468000,3468000,0.6846685,0.00054054597,-0.01522152,0.7286955,0.9999962,9.313227e-10,8.73115e-10,0.0027974846,1
3472000,3472000,0.6846647,0.0005721995,-0.015219468,0.7286991,0.9999962,9.313227e-10,8.73115e-10,0.0027974846,1
3476000,3476000,0.684661,0.0006052648,-0.015214355,0.72870266,0.9999962,9.313227e-10,8.73115e-10,0.0027974846,1
3484000,3484000,0.6846527,0.0006667218,-0.015206242,0.7287106,0.9999962,9.313227e-10,8.73115e-10,0.0027974846,1
3488000,3488000,0.68464583,0.00069768366,-0.015202776,0.7287171,0.9999962,9.313227e-10,8.73115e-10,0.0027974846,1
3492000,3492000,0.6846418,0.00072593836,-0.015195249,0.728721,0.9999962,9.313227e-10,8.73115e-10,0.0027974846,1
3500000,3500000,0.6846362,0.00078722794,-0.015181598,0.72872645,0.9999962,9.313227e-10,8.73115e-10,0.0027974846,1
3508000,3508000,0.6846218,0.0008452609,-0.01516131,0.7287404,0.9999962,9.313227e-10,8.73115e-10,0.0027974846,1
3512000,3512000,0.6846201,0.0008732663,-0.015157264,0.72874206,0.9999962,9.313227e-10,8.73115e-10,0.0027974846,1
3516000,3516000,0.6846175,0.00090504304,-0.015153854,0.72874445,0.9999962,9.313227e-10,8.73115e-10,0.0027974846,1
3520000,3520000,0.6846181,0.0009366624,-0.015146323,0.72874403,0.9999962,9.313227e-10,8.73115e-10,0.0027974846,1
3524000,3524000,0.68462294,0.00096841756,-0.015140291,0.7287396,0.9999962,9.313227e-10,8.73115e-10,0.0027974846,1
3528000,3528000,0.68462837,0.0009973962,-0.015132851,0.72873455,0.9999962,9.313227e-10,8.73115e-10,0.0027974846,1
3532000,3532000,0.6846323,0.0010261313,-0.015118641,0.7287311,0.9999962,9.313227e-10,8.73115e-10,0.0027974846,1
3536000,3536000,0.68463534,0.0010536995,-0.015107492,0.7287285,0.9999962,9.313227e-10,8.73115e-10,0.0027974846,1
3540000,3540000,0.6846383,0.0010795618,-0.015102048,0.72872573,0.9999962,9.313227e-10,8.73115e-10,0.0027974846,1
3544000,3544000,0.6846388,0.00110342,-0.015098184,0.7287254,0.9999962,9.313227e-10,8.73115e-10,0.0027974846,1
3548000,3548000,0.68463695,0.0011260656,-0.015093229,0.72872716,0.9999962,9.313227e-10,8.73115e-10,0.0027974846,1
3552000,3552000,0.68463767,0.00114596,-0.015086855,0.7287266,0.9999962,9.313227e-10,8.73115e-10,0.0027974846,1
3556000,3556000,0.68463916,0.0011677172,-0.0150792925,0.7287253,0.9999962,9.313227e-10,8.73115e-10,0.0027974846,1
3560000,3560000,0.6846396,0.0011916918,-0.015075054,0.7287249,0.9999962,9.313227e-10,8.73115e-10,0.0027974846,1
3568000,3568000,0.684645,0.00123925,-0.015067339,0.7287199,0.9999962,9.313227e-10,8.73115e-10,0.0027974846,1
3576000,3576000,0.6846493,0.0012811188,-0.015067714,0.7287158,0.9999962,9.313227e-10,8.73115e-10,0.0027974846,1
3580000,3580000,0.6846528,0.0013096672,-0.01507162,0.7287123,0.9999962,9.313227e-10,8.73115e-10,0.0027974846,1
3588000,3588000,0.68465483,0.0013640734,-0.015078323,0.7287103,0.9999962,9.313227e-10,8.73115e-10,0.0027974846,1
3596000,3596000,0.68465614,0.001404969,-0.015084306,0.72870886,0.9999962,9.313227e-10,8.73115e-10,0.0027974846,1
3604000,3604000,0.68465465,0.001432398,-0.015091829,0.72871,0.9999962,9.313227e-10,8.73115e-10,0.0027974846,1
3612000,3612000,0.68465304,0.0014603621,-0.015093518,0.7287115,0.9999962,9.313227e-10,8.73115e-10,0.0027974846,1
3616000,3616000,0.6846546,0.0014755547,-0.015095743,0.72870994,0.9999962,9.313227e-10,8.73115e-10,0.0027974846,1
3620000,3620000,0.68465453,0.0014963258,-0.015096667,0.72870994,0.9999962,9.313227e-10,8.73115e-10,0.0027974846,1
3628000,3628000,0.68465495,0.0015309473,-0.015102624,0.72870934,0.9999962,9.313227e-10,8.73115e-10,0.0027974846,1
3632000,3632000,0.6846539,0.0015485204,-0.015105247,0.7287103,0.9999962,9.313227e-10,8.73115e-10,0.0027974846,1
3636000,3636000,0.684652,0.0015675827,-0.015107823,0.72871196,0.9999962,9.313227e-10,8.73115e-10,0.0027974846,1
3640000,3640000,0.6846503,0.0015813127,-0.015116848,0.7287133,0.9999962,9.313227e-10,8.73115e-10,0.0027974846,1
3644000,3644000,0.68464935,0.0015969761,-0.015126943,0.72871387,0.9999962,9.313227e-10,8.73115e-10,0.0027974846,1
3648000,3648000,0.68464714,0.0016115687,-0.015132311,0.72871584,0.9999962,9.313227e-10,8.73115e-10,0.0027974846,1
3652000,3652000,0.68464345,0.0016246001,-0.015136976,0.7287192,0.9999962,9.313227e-10,8.73115e-10,0.0027974846,1
3656000,3656000,0.6846486,0.0016400224,-0.015140969,0.7287143,0.9999962,9.313227e-10,8.73115e-10,0.0027974846,1
3660000,3660000,0.6846553,0.001657618,-0.015141125,0.72870797,0.9999962,9.313227e-10,8.73115e-10,0.0027974846,1
3664000,3664000,0.6846621,0.0016745795,-0.015145502,0.72870135,0.9999962,9.313227e-10,8.73115e-10,0.0027974846,1
3668000,3668000,0.68466896,0.0016905176,-0.015153304,0.72869474,0.9999962,9.313227e-10,8.73115e-10,0.0027974846,1
3672000,3672000,0.6846782,0.00170425,-0.015160063,0.7286859,0.9999962,9.313227e-10,8.73115e-10,0.0027974846,1
3676000,3676000,0.6846894,0.0017156941,-0.0151646305,0.72867525,0.9999962,9.313227e-10,8.73115e-10,0.0027974846,1
3684000,3684000,0.684703,0.0017385529,-0.015172245,0.72866225,0.9999962,9.313227e-10,8.73115e-10,0.0027974846,1
3688000,3688000,0.68470806,0.0017490159,-0.015177165,0.72865736,0.9999962,9.313227e-10,8.73115e-10,0.0027974846,1
3692000,3692000,0.68471587,0.0017573003,-0.015182901,0.72864985,0.9999962,9.313227e-10,8.73115e-10,0.0027974846,1
3696000,3696000,0.68472487,0.0017659402,-0.015191195,0.7286412,0.9999962,9.313227e-10,8.73115e-10,0.0027974846,1
3700000,3700000,0.6847335,0.0017737958,-0.01519876,0.7286329,0.9999962,9.313227e-10,8.73115e-10,0.0027974846,1
3704000,3704000,0.6847406,0.0017801125,-0.015208536,0.728626,0.9999962,9.313227e-10,8.73115e-10,0.0027974846,1
3712000,3712000,0.6847493,0.0018005306,-0.015228102,0.72861737,0.9999962,9.313227e-10,8.73115e-10,0.0027974846,1
3716000,3716000,0.6847541,0.0018113209,-0.015238367,0.72861266,0.9999962,9.313227e-10,8.73115e-10,0.0027974846,1
3724000,3724000,0.6847658,0.0018234681,-0.0152547145,0.7286012,0.9999962,9.313227e-10,8.73115e-10,0.0027974846,1
3732000,3732000,0.6847798,0.0018256957,-0.015261289,0.728588,0.9999962,9.313227e-10,8.73115e-10,0.0027974846,1
3736000,3736000,0.6847882,0.0018290837,-0.015265263,0.72858,0.9999962,9.313227e-10,8.73115e-10,0.0027974846,1
3740000,3740000,0.684797,0.0018359256,-0.015271013,0.72857165,0.9999962,9.313227e-10,8.73115e-10,0.0027974846,1
3744000,3744000,0.6848054,0.0018422332,-0.015277325,0.7285636,0.9999962,9.313227e-10,8.73115e-10,0.0027974846,1
3748000,3748000,0.6848134,0.0018448151,-0.01528526,0.72855586,0.9999962,9.313227e-10,8.73115e-10,0.0027974846,1
3752000,3752000,0.6848219,0.0018458464,-0.015295653,0.7285477,0.9999962,9.313227e-10,8.73115e-10,0.0027974846,1
3756000,3756000,0.6848319,0.0018498515,-0.015303688,0.7285381,0.9999962,9.313227e-10,8.73115e-10,0.0027974846,1
3760000,3760000,0.68484163,0.0018544663,-0.015310326,0.72852886,0.9999962,9.313227e-10,8.73115e-10,0.0027974846,1
3764000,3764000,0.68485016,0.00185835,-0.015318493,0.7285206,0.9999962,9.313227e-10,8.73115e-10,0.0027974846,1
3768000,3768000,0.6848581,0.0018613156,-0.015323787,0.728513,0.9999962,9.313227e-10,8.73115e-10,0.0027974846,1
3772000,3772000,0.6848637,0.0018634794,-0.0153291095,0.72850764,0.9999962,9.313227e-10,8.73115e-10,0.0027974846,1
3776000,3776000,0.6848685,0.0018650093,-0.01533982,0.72850287,0.9999962,9.313227e-10,8.73115e-10,0.0027974846,1
3780000,3780000,0.6848772,0.0018658682,-0.015350544,0.72849447,0.9999962,9.313227e-10,8.73115e-10,0.0027974846,1
3784000,3784000,0.68488556,0.0018711865,-0.015359702,0.7284864,0.9999962,9.313227e-10,8.73115e-10,0.0027974846,1
3788000,3788000,0.6848914,0.0018810421,-0.015370982,0.7284806,0.9999962,9.313227e-10,8.73115e-10,0.0027974846,1
3792000,3792000,0.6848943,0.0018879797,-0.015386945,0.72847754,0.9999962,9.313227e-10,8.73115e-10,0.0027974846,1
3796000,3796000,0.68489647,0.0018899725,-0.01540193,0.7284752,0.9999962,9.313227e-10,8.73115e-10,0.0027974846,1
3804000,3804000,0.684914,0.0018994204,-0.015418672,0.7284584,0.9999962,9.313227e-10,8.73115e-10,0.0027974846,1
3808000,3808000,0.684924,0.0019115964,-0.0154277915,0.7284486,0.9999962,9.313227e-10,8.73115e-10,0.0027974846,1
3812000,3812000,0.6849357,0.0019216865,-0.015441497,0.7284374,0.9999962,9.313227e-10,8.73115e-10,0.0027974846,1
3816000,3816000,0.6849451,0.0019175396,-0.015449746,0.72842836,0.9999962,9.313227e-10,8.73115e-10,0.0027974846,1
3824000,3824000,0.6849599,0.0019065291,-0.015452755,0.7284144,0.9999962,9.313227e-10,8.73115e-10,0.0027974846,1
3828000,3828000,0.6849643,0.0019110801,-0.015451685,0.7284103,0.9999962,9.313227e-10,8.73115e-10,0.0027974846,1
3832000,3832000,0.6849683,0.0019162302,-0.01545622,0.7284064,0.9999962,9.313227e-10,8.73115e-10,0.0027974846,1
3836000,3836000,0.68497384,0.0019174,-0.015465019,0.72840106,0.9999962,9.313227e-10,8.73115e-10,0.0027974846,1
3840000,3840000,0.68497944,0.0019158949,-0.015470475,0.72839564,0.9999962,9.313227e-10,8.73115e-10,0.0027974846,1
3844000,3844000,0.68498546,0.0019177048,-0.015473191,0.7283899,0.9999962,9.313227e-10,8.73115e-10,0.0027974846,1
3848000,3848000,0.68498915,0.0019190058,-0.015475624,0.72838634,0.9999962,9.313227e-10,8.73115e-10,0.0027974846,1
3852000,3852000,0.6849895,0.001915739,-0.01547896,0.72838604,0.9999962,9.313227e-10,8.73115e-10,0.0027974846,1
3856000,3856000,0.6849902,0.0019113963,-0.015481891,0.72838527,0.9999962,9.313227e-10,8.73115e-10,0.0027974846,1
3860000,3860000,0.6849941,0.001909355,-0.015483993,0.72838163,0.9999962,9.313227e-10,8.73115e-10,0.0027974846,1
3864000,3864000,0.68499917,0.0019092901,-0.015486343,0.72837687,0.9999962,9.313227e-10,8.73115e-10,0.0027974846,1
3868000,3868000,0.68500376,0.001912685,-0.015491223,0.7283724,0.9999962,9.313227e-10,8.73115e-10,0.0027974846,1
3872000,3872000,0.6850227,0.0019192608,-0.015497276,0.72835433,0.9999962,9.313227e-10,8.73115e-10,0.0027974846,1
3876000,3876000,0.68504137,0.0019261704,-0.015502191,0.7283367,0.9999962,9.313227e-10,8.73115e-10,0.0027974846,1
3880000,3880000,0.6850571,0.0019288498,-0.015504535,0.72832185,0.9999962,9.313227e-10,8.73115e-10,0.0027974846,1
3884000,3884000,0.68507105,0.0019246439,-0.015504836,0.7283088,0.9999962,9.313227e-10,8.73115e-10,0.0027974846,1
3888000,3888000,0.6850873,0.001920637,-0.015508066,0.7282934,0.9999962,9.313227e-10,8.73115e-10,0.0027974846,1
3892000,3892000,0.68510586,0.0019189839,-0.0155127235,0.72827584,0.9999962,9.313227e-10,8.73115e-10,0.0027974846,1
3896000,3896000,0.6851238,0.0019180304,-0.015514277,0.72825897,0.9999962,9.313227e-10,8.73115e-10,0.0027974846,1
3904000,3904000,0.68516165,0.0019155518,-0.01551379,0.7282233,0.9999962,9.313227e-10,8.73115e-10,0.0027974846,1
3908000,3908000,0.68518233,0.0019175345,-0.015515032,0.72820383,0.9999962,9.313227e-10,8.73115e-10,0.0027974846,1
3912000,3912000,0.6851997,0.0019231186,-0.015517466,0.7281875,0.9999962,9.313227e-10,8.73115e-10,0.0027974846,1
3916000,3916000,0.6852155,0.0019267533,-0.015518832,0.7281726,0.9999962,9.313227e-10,8.73115e-10,0.0027974846,1
3920000,3920000,0.68523026,0.001929884,-0.015521134,0.72815865,0.9999962,9.313227e-10,8.73115e-10,0.0027974846,1
3924000,3924000,0.6852449,0.001935752,-0.015526744,0.72814465,0.9999962,9.313227e-10,8.73115e-10,0.0027974846,1
3928000,3928000,0.68526137,0.0019433843,-0.015531711,0.7281291,0.9999962,9.313227e-10,8.73115e-10,0.0027974846,1
3932000,3932000,0.6852767,0.0019504669,-0.0155318,0.72811466,0.9999962,9.313227e-10,8.73115e-10,0.0027974846,1
3936000,3936000,0.68529177,0.0019589462,-0.015530934,0.7281004,0.9999962,9.313227e-10,8.73115e-10,0.0027974846,1
3940000,3940000,0.68530846,0.001964128,-0.015532049,0.72808474,0.9999962,9.313227e-10,8.73115e-10,0.0027974846,1
3944000,3944000,0.6853328,0.0019621837,-0.015531127,0.7280618,0.9999962,9.313227e-10,8.73115e-10,0.0027974846,1
3948000,3948000,0.68535906,0.0019576352,-0.0155299045,0.72803706,0.9999962,9.313227e-10,8.73115e-10,0.0027974846,1
3952000,3952000,0.68538857,0.001957381,-0.015534048,0.72800916,0.9999962,9.313227e-10,8.73115e-10,0.0027974846,1
3956000,3956000,0.6854177,0.0019602205,-0.015541114,0.7279817,0.9999962,9.313227e-10,8.73115e-10,0.0027974846,1
3960000,3960000,0.6854431,0.0019637423,-0.015550267,0.7279575,0.9999962,9.313227e-10,8.73115e-10,0.0027974846,1
3964000,3964000,0.6854639,0.001969766,-0.015558225,0.7279377,0.9999962,9.313227e-10,8.73115e-10,0.0027974846,1
3968000,3968000,0.6854827,0.0019755925,-0.015563026,0.72791994,0.9999962,9.313227e-10,8.73115e-10,0.0027974846,1
3972000,3972000,0.68550575,0.0019762402,-0.015567974,0.7278981,0.9999962,9.313227e-10,8.73115e-10,0.0027974846,1
3976000,3976000,0.68553025,0.001976465,-0.015572404,0.72787493,0.9999962,9.313227e-10,8.73115e-10,0.0027974846,1
3980000,3980000,0.6855536,0.0019804067,-0.0155759705,0.7278529,0.9999962,9.313227e-10,8.73115e-10,0.0027974846,1
3984000,3984000,0.6855757,0.0019853713,-0.015578985,0.727832,0.9999962,9.313227e-10,8.73115e-10,0.0027974846,1
3988000,3988000,0.6855997,0.001990377,-0.015581992,0.72780925,0.9999962,9.313227e-10,8.73115e-10,0.0027974846,1
3992000,3992000,0.6856236,0.0019939297,-0.015589411,0.72778654,0.9999962,9.313227e-10,8.73115e-10,0.0027974846,1
3996000,3996000,0.6856452,0.0019952194,-0.015598412,0.72776604,0.9999962,9.313227e-10,8.73115e-10,0.0027974846,1
4004000,4004000,0.6856863,0.002002747,-0.0156129245,0.727727,0.9999962,9.313227e-10,8.73115e-10,0.0027974846,1
4008000,4008000,0.6857062,0.002008616,-0.015618818,0.7277081,0.9999962,9.313227e-10,8.73115e-10,0.0027974846,1
4012000,4012000,0.685725,0.002013297,-0.015623618,0.72769034,0.9999962,9.313227e-10,8.73115e-10,0.0027974846,1
4016000,4016000,0.6857504,0.0020136037,-0.015628895,0.72766626,0.9999962,9.313227e-10,8.73115e-10,0.0027974846,1
4024000,4024000,0.6857976,0.002002373,-0.015630374,0.7276218,0.9999962,9.313227e-10,8.73115e-10,0.0027974846,1
4028000,4028000,0.6858207,0.0019964818,-0.015625272,0.7276001,0.9999962,9.313227e-10,8.73115e-10,0.0027974846,1
4032000,4032000,0.6858461,0.00199047,-0.015621364,0.72757626,0.9999962,9.313227e-10,8.73115e-10,0.0027974846,1
4036000,4036000,0.6858718,0.0019897367,-0.015617299,0.7275521,0.9999962,9.313227e-10,8.73115e-10,0.0027974846,1
4040000,4040000,0.6858955,0.001992384,-0.015609048,0.72752994,0.9999962,9.313227e-10,8.73115e-10,0.0027974846,1
4044000,4044000,0.6859201,0.0019870212,-0.015596887,0.727507,0.9999962,9.313227e-10,8.73115e-10,0.0027974846,1
4048000,4048000,0.6859451,0.0019778332,-0.015590532,0.7274836,0.9999962,9.313227e-10,8.73115e-10,0.0027974846,1
4052000,4052000,0.68596953,0.0019741282,-0.015591552,0.7274605,0.9999962,9.313227e-10,8.73115e-10,0.0027974846,1
4056000,4056000,0.6859905,0.0019689805,-0.01558769,0.72744083,0.9999962,9.313227e-10,8.73115e-10,0.0027974846,1
4060000,4060000,0.6860119,0.001963775,-0.015581569,0.7274208,0.9999962,9.313227e-10,8.73115e-10,0.0027974846,1
4064000,4064000,0.6860341,0.0019632124,-0.015576054,0.7274,0.9999962,9.313227e-10,8.73115e-10,0.0027974846,1
4068000,4068000,0.68605584,0.0019622543,-0.015570176,0.7273796,0.9999962,9.313227e-10,8.73115e-10,0.0027974846,1
4072000,4072000,0.68607855,0.0019565027,-0.015564793,0.72735834,0.9999962,9.313227e-10,8.73115e-10,0.0027974846,1
4076000,4076000,0.68610287,0.0019443961,-0.015559968,0.7273355,0.9999962,9.313227e-10,8.73115e-10,0.0027974846,1
4080000,4080000,0.6861235,0.0019292966,-0.015556712,0.72731614,0.9999962,9.313227e-10,8.73115e-10,0.0027974846,1
4084000,4084000,0.68614376,0.0019153074,-0.015553051,0.7272972,0.9999962,9.313227e-10,8.73115e-10,0.0027974846,1
4088000,4088000,0.6861708,0.0019026677,-0.015547927,0.72727185,0.9999962,9.313227e-10,8.73115e-10,0.0027974846,1
4092000,4092000,0.68619627,0.0018915222,-0.015543514,0.72724795,0.9999962,9.313227e-10,8.73115e-10,0.0027974846,1
4096000,4096000,0.68622124,0.0018780667,-0.015536858,0.7272245,0.9999962,9.313227e-10,8.73115e-10,0.0027974846,1
4100000,4100000,0.6862451,0.0018663921,-0.015527515,0.7272023,0.9999962,9.313227e-10,8.73115e-10,0.0027974846,1
4104000,4104000,0.6862649,0.0018633706,-0.015519742,0.7271838,0.9999962,9.313227e-10,8.73115e-10,0.0027974846,1
4108000,4108000,0.6862854,0.0018615931,-0.015515323,0.72716457,0.9999962,9.313227e-10,8.73115e-10,0.0027974846,1
4116000,4116000,0.6863323,0.0018421678,-0.015509728,0.72712046,0.9999962,9.313227e-10,8.73115e-10,0.0027974846,1
4120000,4120000,0.68635714,0.0018311244,-0.015503842,0.7270971,0.9999962,9.313227e-10,8.73115e-10,0.0027974846,1
4124000,4124000,0.6863781,0.001821848,-0.015496783,0.7270774,0.9999962,9.313227e-10,8.73115e-10,0.0027974846,1
4128000,4128000,0.6863938,0.0018154465,-0.015487465,0.7270628,0.9999962,9.313227e-10,8.73115e-10,0.0027974846,1
4132000,4132000,0.6864095,0.001812444,-0.0154784275,0.7270483,0.9999962,9.313227e-10,8.73115e-10,0.0027974846,1
4136000,4136000,0.68642485,0.0018087825,-0.01547174,0.7270339,0.9999962,9.313227e-10,8.73115e-10,0.0027974846,1
4140000,4140000,0.686441,0.0018017604,-0.015465524,0.7270188,0.9999962,9.313227e-10,8.73115e-10,0.0027974846,1
4148000,4148000,0.68647254,0.0018005805,-0.015459543,0.7269892,0.9999962,9.313227e-10,8.73115e-10,0.0027974846,1
4152000,4152000,0.6864863,0.0018048375,-0.0154583175,0.7269762,0.9999962,9.313227e-10,8.73115e-10,0.0027974846,1
4156000,4156000,0.6865009,0.0018039056,-0.015459499,0.7269624,0.9999962,9.313227e-10,8.73115e-10,0.0027974846,1
4160000,4160000,0.68651575,0.0017944304,-0.015459227,0.7269483,0.9999962,9.313227e-10,8.73115e-10,0.0027974846,1
4164000,4164000,0.6865315,0.0017844125,-0.0154525675,0.72693366,0.9999962,9.313227e-10,8.73115e-10,0.0027974846,1
4168000,4168000,0.68654597,0.001782024,-0.015445896,0.7269202,0.9999962,9.313227e-10,8.73115e-10,0.0027974846,1
4172000,4172000,0.68655807,0.0017826407,-0.01544065,0.72690886,0.9999962,9.313227e-10,8.73115e-10,0.0027974846,1
4176000,4176000,0.6865672,0.0017810082,-0.015433417,0.72690046,0.9999962,9.313227e-10,8.73115e-10,0.0027974846,1
4180000,4180000,0.68657744,0.001775292,-0.015427428,0.72689086,0.9999962,9.313227e-10,8.73115e-10,0.0027974846,1
4184000,4184000,0.686587,0.0017717206,-0.015426482,0.7268819,0.9999962,9.313227e-10,8.73115e-10,0.0027974846,1
4188000,4188000,0.6865952,0.0017713079,-0.015431476,0.72687405,0.9999962,9.313227e-10,8.73115e-10,0.0027974846,1
4192000,4192000,0.6866028,0.0017684583,-0.0154393865,0.7268667,0.9999962,9.313227e-10,8.73115e-10,0.0027974846,1
4196000,4196000,0.686614,0.0017631883,-0.015439071,0.7268561,0.9999962,9.313227e-10,8.73115e-10,0.0027974846,1
4204000,4204000,0.68663335,0.0017597167,-0.01542995,0.72683805,0.9999962,9.313227e-10,8.73115e-10,0.0027974846,1
4208000,4208000,0.686638,0.0017608606,-0.015427928,0.7268337,0.9999962,9.313227e-10,8.73115e-10,0.0027974846,1
4212000,4212000,0.6866442,0.0017598429,-0.0154282255,0.72682786,0.9999962,9.313227e-10,8.73115e-10,0.0027974846,1
4216000,4216000,0.6866499,0.0017563049,-0.015430618,0.7268224,0.9999962,9.313227e-10,8.73115e-10,0.0027974846,1
4220000,4220000,0.68665606,0.001755314,-0.015429548,0.7268166,0.9999962,9.313227e-10,8.73115e-10,0.0027974846,1
4224000,4224000,0.68666255,0.001759242,-0.015427323,0.7268105,0.9999962,9.313227e-10,8.73115e-10,0.0027974846,1
4228000,4228000,0.68666935,0.0017636082,-0.01542697,0.7268041,0.9999962,9.313227e-10,8.73115e-10,0.0027974846,1
4236000,4236000,0.6866771,0.0017488946,-0.015401988,0.7267973,0.9999962,9.313227e-10,8.73115e-10,0.0027974846,1
4240000,4240000,0.68668324,0.0017409108,-0.015388898,0.72679186,0.9999962,9.313227e-10,8.73115e-10,0.0027974846,1
4244000,4244000,0.68669087,0.0017333252,-0.015375414,0.72678494,0.9999962,9.313227e-10,8.73115e-10,0.0027974846,1
4248000,4248000,0.6866963,0.0017256371,-0.015364118,0.72678006,0.9999962,9.313227e-10,8.73115e-10,0.0027974846,1
4252000,4252000,0.6866998,0.0017122506,-0.015352609,0.72677696,0.9999962,9.313227e-10,8.73115e-10,0.0027974846,1
4260000,4260000,0.6867077,0.0016908157,-0.015328092,0.72677016,0.9999962,9.313227e-10,8.73115e-10,0.0027974846,1
4268000,4268000,0.6867108,0.0016722896,-0.015315418,0.7267675,0.9999962,9.313227e-10,8.73115e-10,0.0027974846,1
4272000,4272000,0.68671304,0.0016646588,-0.015306974,0.7267655,0.9999962,9.313227e-10,8.73115e-10,0.0027974846,1
4276000,4276000,0.68671495,0.0016580321,-0.01529436,0.726764,0.9999962,9.313227e-10,8.73115e-10,0.0027974846,1
4284000,4284000,0.6867151,0.0016488308,-0.0152716255,0.7267643,0.9999962,9.313227e-10,8.73115e-10,0.0027974846,1
4288000,4288000,0.68671274,0.0016442596,-0.0152589,0.72676694,0.9999962,9.313227e-10,8.73115e-10,0.0027974846,1
4292000,4292000,0.68671536,0.0016412353,-0.01524386,0.72676474,0.9999962,9.313227e-10,8.73115e-10,0.0027974846,1
4300000,4300000,0.6867231,0.0016254359,-0.015219939,0.72675794,0.9999962,9.313227e-10,8.73115e-10,0.0027974846,1
4308000,4308000,0.686739,0.0016092001,-0.015202034,0.72674334,0.9999962,9.313227e-10,8.73115e-10,0.0027974846,1
4312000,4312000,0.68674517,0.0016048747,-0.01519342,0.72673774,0.9999962,9.313227e-10,8.73115e-10,0.0027974846,1
4316000,4316000,0.68675095,0.0016001328,-0.015183688,0.7267325,0.9999962,9.313227e-10,8.73115e-10,0.0027974846,1
4324000,4324000,0.68676156,0.0015821843,-0.0151609285,0.7267229,0.9999962,9.313227e-10,8.73115e-10,0.0027974846,1
4328000,4328000,0.6867672,0.0015754111,-0.015148833,0.7267179,0.9999962,9.313227e-10,8.73115e-10,0.0027974846,1
4332000,4332000,0.68677473,0.0015720337,-0.015135507,0.72671103,0.9999962,9.313227e-10,8.73115e-10,0.0027974846,1
4340000,4340000,0.68678844,0.0015669225,-0.015118773,0.72669846,0.9999962,9.313227e-10,8.73115e-10,0.0027974846,1
4344000,4344000,0.6867928,0.001566128,-0.01511043,0.7266945,0.9999962,9.313227e-10,8.73115e-10,0.0027974846,1
4348000,4348000,0.68679875,0.0015600743,-0.01510148,0.72668916,0.9999962,9.313227e-10,8.73115e-10,0.0027974846,1
4352000,4352000,0.68680775,0.0015532116,-0.015095475,0.72668076,0.9999962,9.313227e-10,8.73115e-10,0.0027974846,1
4356000,4356000,0.6868179,0.0015468451,-0.015092845,0.7266712,0.9999962,9.313227e-10,8.73115e-10,0.0027974846,1
4360000,4360000,0.6868268,0.0015425205,-0.015090816,0.7266628,0.9999962,9.313227e-10,8.73115e-10,0.0027974846,1
4364000,4364000,0.68683434,0.0015405974,-0.015081565,0.72665596,0.9999962,9.313227e-10,8.73115e-10,0.0027974846,1
4368000,4368000,0.6868408,0.00153686,-0.015069999,0.7266501,0.9999962,9.313227e-10,8.73115e-10,0.0027974846,1
4372000,4372000,0.6868479,0.0015306202,-0.015062647,0.7266435,0.9999962,9.313227e-10,8.73115e-10,0.0027974846,1
4376000,4376000,0.686859,0.0015237667,-0.015055606,0.7266332,0.9999962,9.313227e-10,8.73115e-10,0.0027974846,1
4380000,4380000,0.6868697,0.0015135066,-0.015048286,0.7266233,0.9999962,9.313227e-10,8.73115e-10,0.0027974846,1
4384000,4384000,0.6868804,0.0015020656,-0.015047284,0.72661316,0.9999962,9.313227e-10,8.73115e-10,0.0027974846,1
4388000,4388000,0.68689144,0.0014929759,-0.015049229,0.7266027,0.9999962,9.313227e-10,8.73115e-10,0.0027974846,1
4396000,4396000,0.68691546,0.0014771862,-0.015045262,0.7265801,0.9999962,9.313227e-10,8.73115e-10,0.0027974846,1
4404000,4404000,0.6869367,0.0014612932,-0.015042168,0.7265601,0.9999962,9.313227e-10,8.73115e-10,0.0027974846,1
4408000,4408000,0.68694514,0.0014562419,-0.015040189,0.7265522,0.9999962,9.313227e-10,8.73115e-10,0.0027974846,1
4412000,4412000,0.686952,0.0014526431,-0.0150374165,0.72654575,0.9999962,9.313227e-10,8.73115e-10,0.0027974846,1
4416000,4416000,0.68695706,0.0014507031,-0.015037791,0.726541,0.9999962,9.313227e-10,8.73115e-10,0.0027974846,1
4420000,4420000,0.6869629,0.001450672,-0.015038488,0.7265355,0.9999962,9.313227e-10,8.73115e-10,0.0027974846,1
4424000,4424000,0.6869693,0.0014518502,-0.01503892,0.7265295,0.9999962,9.313227e-10,8.73115e-10,0.0027974846,1
4428000,4428000,0.686976,0.0014508408,-0.01504167,0.726523,0.9999962,9.313227e-10,8.73115e-10,0.0027974846,1
4436000,4436000,0.6869906,0.0014570025,-0.015038882,0.7265093,0.9999962,9.313227e-10,8.73115e-10,0.0027974846,1
4440000,4440000,0.68699515,0.0014482155,-0.015027867,0.7265052,0.9999962,9.313227e-10,8.73115e-10,0.0027974846,1
4444000,4444000,0.6870008,0.0014346322,-0.01501962,0.72650003,0.9999962,9.313227e-10,8.73115e-10,0.0027974846,1
4448000,4448000,0.6870168,0.0014232757,-0.015013597,0.7264851,0.9999962,9.313227e-10,8.73115e-10,0.0027974846,1
4452000,4452000,0.6870327,0.0014150148,-0.0150105,0.7264701,0.9999962,9.313227e-10,8.73115e-10,0.0027974846,1
4460000,4460000,0.68705875,0.0013921256,-0.015002899,0.7264457,0.9999962,9.313227e-10,8.73115e-10,0.0027974846,1
4468000,4468000,0.6870901,0.0013720099,-0.014977352,0.7264165,0.9999962,9.313227e-10,8.73115e-10,0.0027974846,1
4476000,4476000,0.6871204,0.0013557719,-0.0149567975,0.7263884,0.9999962,9.313227e-10,8.73115e-10,0.0027974846,1
4484000,4484000,0.6871472,0.0013359097,-0.014942454,0.7263633,0.9999962,9.313227e-10,8.73115e-10,0.0027974846,1
4492000,4492000,0.68716764,0.0013170426,-0.01492849,0.72634435,0.9999962,9.313227e-10,8.73115e-10,0.0027974846,1
4496000,4496000,0.68717873,0.0013086821,-0.014919951,0.7263341,0.9999962,9.313227e-10,8.73115e-10,0.0027974846,1
4500000,4500000,0.687191,0.0012991015,-0.014907298,0.72632277,0.9999962,9.313227e-10,8.73115e-10,0.0027974846,1
4504000,4504000,0.68720174,0.0012915618,-0.0148966145,0.7263128,0.9999962,9.313227e-10,8.73115e-10,0.0027974846,1
4508000,4508000,0.687214,0.0012830182,-0.014889347,0.7263014,0.9999962,9.313227e-10,8.73115e-10,0.0027974846,1
4512000,4512000,0.687228,0.0012715267,-0.01487926,0.7262883,0.9999962,9.313227e-10,8.73115e-10,0.0027974846,1
4516000,4516000,0.6872409,0.0012622075,-0.014866853,0.72627646,0.9999962,9.313227e-10,8.73115e-10,0.0027974846,1
4520000,4520000,0.68725175,0.0012567914,-0.014857442,0.7262663,0.9999962,9.313227e-10,8.73115e-10,0.0027974846,1
4524000,4524000,0.6872618,0.0012514634,-0.014851799,0.7262569,0.9999962,9.313227e-10,8.73115e-10,0.0027974846,1
4528000,4528000,0.6872708,0.0012436359,-0.014848941,0.72624844,0.9999962,9.313227e-10,8.73115e-10,0.0027974846,1
4532000,4532000,0.6872787,0.0012358262,-0.014847591,0.72624105,0.9999962,9.313227e-10,8.73115e-10,0.0027974846,1
4536000,4536000,0.6872863,0.0012325885,-0.014845418,0.7262339,0.9999962,9.313227e-10,8.73115e-10,0.0027974846,1
4540000,4540000,0.6872943,0.0012289305,-0.014841374,0.7262264,0.9999962,9.313227e-10,8.73115e-10,0.0027974846,1
4544000,4544000,0.68729913,0.0012226456,-0.014837822,0.7262219,0.9999962,9.313227e-10,8.73115e-10,0.0027974846,1
4548000,4548000,0.68730325,0.001215447,-0.014829022,0.7262182,0.9999962,9.313227e-10,8.73115e-10,0.0027974846,1
4552000,4552000,0.68730915,0.0012082943,-0.014818738,0.72621286,0.9999962,9.313227e-10,8.73115e-10,0.0027974846,1
4556000,4556000,0.6873169,0.0012006147,-0.014815248,0.7262056,0.9999962,9.313227e-10,8.73115e-10,0.0027974846,1
4560000,4560000,0.687323,0.001195283,-0.014814015,0.7261999,0.9999962,9.313227e-10,8.73115e-10,0.0027974846,1
4564000,4564000,0.6873263,0.001192866,-0.014811195,0.7261968,0.9999962,9.313227e-10,8.73115e-10,0.0027974846,1
4568000,4568000,0.68733066,0.0011916604,-0.014808765,0.7261928,0.9999962,9.313227e-10,8.73115e-10,0.0027974846,1
4572000,4572000,0.68733776,0.0011878646,-0.014806027,0.72618616,0.9999962,9.313227e-10,8.73115e-10,0.0027974846,1
4580000,4580000,0.68735147,0.0011746446,-0.0147988945,0.72617334,0.9999962,9.313227e-10,8.73115e-10,0.0027974846,1
4588000,4588000,0.687354,0.0011680626,-0.0147924,0.726171,0.9999962,9.313227e-10,8.73115e-10,0.0027974846,1
4596000,4596000,0.6873684,0.0011644934,-0.014790001,0.7261575,0.9999962,9.313227e-10,8.73115e-10,0.0027974846,1
4600000,4600000,0.6873745,0.0011565672,-0.014784843,0.7261519,0.9999962,9.313227e-10,8.73115e-10,0.0027974846,1
4608000,4608000,0.6873857,0.0011476345,-0.014779618,0.72614133,0.9999962,9.313227e-10,8.73115e-10,0.0027974846,1
4612000,4612000,0.6873924,0.0011458652,-0.014778067,0.726135,0.9999962,9.313227e-10,8.73115e-10,0.0027974846,1
4616000,4616000,0.6873971,0.0011440681,-0.01477726,0.72613055,0.9999962,9.313227e-10,8.73115e-10,0.0027974846,1
4620000,4620000,0.6874,0.001138854,-0.014776925,0.72612786,0.9999962,9.313227e-10,8.73115e-10,0.0027974846,1
4628000,4628000,0.6873984,0.00113224,-0.014771943,0.7261295,0.9999962,9.313227e-10,8.73115e-10,0.0027974846,1
4632000,4632000,0.68739814,0.0011328594,-0.014769853,0.7261297,0.9999962,9.313227e-10,8.73115e-10,0.0027974846,1
4636000,4636000,0.68739784,0.0011373257,-0.014770673,0.72613,0.9999962,9.313227e-10,8.73115e-10,0.0027974846,1
4644000,4644000,0.6874081,0.0011471839,-0.014775889,0.7261202,0.9999962,9.313227e-10,8.73115e-10,0.0027974846,1
4648000,4648000,0.6874157,0.0011481986,-0.014773724,0.726113,0.9999962,9.313227e-10,8.73115e-10,0.0027974846,1
4652000,4652000,0.68742263,0.0011483828,-0.014769321,0.7261066,0.9999962,9.313227e-10,8.73115e-10,0.0027974846,1
4656000,4656000,0.6874254,0.0011453626,-0.014765607,0.726104,0.9999962,9.313227e-10,8.73115e-10,0.0027974846,1
4660000,4660000,0.68742424,0.0011407991,-0.0147634465,0.72610515,0.9999962,9.313227e-10,8.73115e-10,0.0027974846,1
4664000,4664000,0.6874316,0.0011345064,-0.014759668,0.7260983,0.9999962,9.313227e-10,8.73115e-10,0.0027974846,1
4668000,4668000,0.687442,0.0011290091,-0.014755112,0.7260885,0.9999962,9.313227e-10,8.73115e-10,0.0027974846,1
4672000,4672000,0.6874499,0.0011255878,-0.01475181,0.72608113,0.9999962,9.313227e-10,8.73115e-10,0.0027974846,1
4676000,4676000,0.68745625,0.0011190618,-0.0147463335,0.72607523,0.9999962,9.313227e-10,8.73115e-10,0.0027974846,1
4680000,4680000,0.6874656,0.0011119099,-0.014738448,0.7260665,0.9999962,9.313227e-10,8.73115e-10,0.0027974846,1
4688000,4688000,0.6874975,0.001111177,-0.014720543,0.72603667,0.9999962,9.313227e-10,8.73115e-10,0.0027974846,1
4692000,4692000,0.6875093,0.001108749,-0.014711906,0.72602564,0.9999962,9.313227e-10,8.73115e-10,0.0027974846,1
4696000,4696000,0.6875167,0.001107181,-0.014704873,0.72601885,0.9999962,9.313227e-10,8.73115e-10,0.0027974846,1
4700000,4700000,0.68752366,0.0011056052,-0.014697839,0.7260124,0.9999962,9.313227e-10,8.73115e-10,0.0027974846,1
4708000,4708000,0.68753827,0.0010950437,-0.0146781355,0.725999,0.9999962,9.313227e-10,8.73115e-10,0.0027974846,1
4712000,4712000,0.68754655,0.001091104,-0.0146709625,0.7259913,0.9999962,9.313227e-10,8.73115e-10,0.0027974846,1
4720000,4720000,0.6875587,0.0010827314,-0.014665737,0.7259799,0.9999962,9.313227e-10,8.73115e-10,0.0027974846,1
4724000,4724000,0.6875641,0.0010853289,-0.014661842,0.7259749,0.9999962,9.313227e-10,8.73115e-10,0.0027974846,1
4728000,4728000,0.687569,0.0010856215,-0.0146535365,0.7259704,0.9999962,9.313227e-10,8.73115e-10,0.0027974846,1
4732000,4732000,0.68757176,0.0010805357,-0.01464312,0.725968,0.9999962,9.313227e-10,8.73115e-10,0.0027974846,1
4736000,4736000,0.6876008,0.0010756034,-0.014637289,0.7259406,0.9999962,9.313227e-10,8.73115e-10,0.0027974846,1
4740000,4740000,0.68763137,0.0010737344,-0.014632128,0.7259118,0.9999962,9.313227e-10,8.73115e-10,0.0027974846,1
4744000,4744000,0.68766236,0.0010699773,-0.014622437,0.7258826,0.9999962,9.313227e-10,8.73115e-10,0.0027974846,1
4752000,4752000,0.6877274,0.0010595244,-0.014599669,0.72582144,0.9999962,9.313227e-10,8.73115e-10,0.0027974846,1
4756000,4756000,0.68775827,0.0010535397,-0.014587331,0.7257924,0.9999962,9.313227e-10,8.73115e-10,0.0027974846,1
4760000,4760000,0.6877874,0.0010488057,-0.014577141,0.72576505,0.9999962,9.313227e-10,8.73115e-10,0.0027974846,1
4768000,4768000,0.6878614,0.0010480008,-0.014570024,0.7256951,0.9999962,9.313227e-10,8.73115e-10,0.0027974846,1
4776000,4776000,0.6879303,0.001053659,-0.014563755,0.72562987,0.9999962,9.313227e-10,8.73115e-10,0.0027974846,1
4780000,4780000,0.6879643,0.0010564445,-0.014558144,0.7255977,0.9999962,9.313227e-10,8.73115e-10,0.0027974846,1
4788000,4788000,0.68803453,0.0010471462,-0.014548695,0.7255314,0.9999962,9.313227e-10,8.73115e-10,0.0027974846,1
4792000,4792000,0.6880679,0.0010457688,-0.014538916,0.7254999,0.9999962,9.313227e-10,8.73115e-10,0.0027974846,1
4796000,4796000,0.688102,0.0010492711,-0.014527877,0.72546774,0.9999962,9.313227e-10,8.73115e-10,0.0027974846,1
4800000,4800000,0.68813485,0.001053571,-0.014517875,0.72543687,0.9999962,9.313227e-10,8.73115e-10,0.0027974846,1
4804000,4804000,0.6881664,0.0010612456,-0.01450816,0.72540706,0.9999962,9.313227e-10,8.73115e-10,0.0027974846,1
4808000,4808000,0.68819845,0.0010694657,-0.014502874,0.7253767,0.9999962,9.313227e-10,8.73115e-10,0.0027974846,1
4812000,4812000,0.6882325,0.0010748119,-0.01450143,0.72534454,0.9999962,9.313227e-10,8.73115e-10,0.0027974846,1
4816000,4816000,0.6882694,0.0010821512,-0.014500603,0.72530955,0.9999962,9.313227e-10,8.73115e-10,0.0027974846,1
4820000,4820000,0.68830776,0.0010898485,-0.01449788,0.7252731,0.9999962,9.313227e-10,8.73115e-10,0.0027974846,1
4824000,4824000,0.68834144,0.0010903307,-0.014493741,0.72524124,0.9999962,9.313227e-10,8.73115e-10,0.0027974846,1
4828000,4828000,0.6883713,0.0010861395,-0.014486715,0.725213,0.9999962,9.313227e-10,8.73115e-10,0.0027974846,1
4832000,4832000,0.6884009,0.0010820617,-0.01448145,0.72518504,0.9999962,9.313227e-10,8.73115e-10,0.0027974846,1
4836000,4836000,0.6884316,0.0010803638,-0.014479889,0.72515595,0.9999962,9.313227e-10,8.73115e-10,0.0027974846,1
4840000,4840000,0.68845934,0.0010808414,-0.014474748,0.7251297,0.9999962,9.313227e-10,8.73115e-10,0.0027974846,1
4844000,4844000,0.688486,0.0010803866,-0.014463604,0.7251047,0.9999962,9.313227e-10,8.73115e-10,0.0027974846,1
4848000,4848000,0.6885116,0.0010806932,-0.014451162,0.7250806,0.9999962,9.313227e-10,8.73115e-10,0.0027974846,1
4852000,4852000,0.6885402,0.0010827229,-0.014444698,0.7250535,0.9999962,9.313227e-10,8.73115e-10,0.0027974846,1
4856000,4856000,0.68856865,0.0010885097,-0.014437313,0.7250266,0.9999962,9.313227e-10,8.73115e-10,0.0027974846,1
4864000,4864000,0.6886137,0.0010980181,-0.0144216465,0.7249841,0.9999962,9.313227e-10,8.73115e-10,0.0027974846,1
4868000,4868000,0.6886377,0.0011037973,-0.014414432,0.72496146,0.9999962,9.313227e-10,8.73115e-10,0.0027974846,1
4872000,4872000,0.6886638,0.001109233,-0.014403984,0.7249369,0.9999962,9.313227e-10,8.73115e-10,0.0027974846,1
4876000,4876000,0.6886879,0.0011168311,-0.014391221,0.7249142,0.9999962,9.313227e-10,8.73115e-10,0.0027974846,1
4884000,4884000,0.6886706,0.0011295577,-0.014374101,0.724931,0.9999962,9.313227e-10,8.73115e-10,0.0027974846,1
4892000,4892000,0.68865067,0.0011352607,-0.014365933,0.7249501,0.9999962,9.313227e-10,8.73115e-10,0.0027974846,1
4896000,4896000,0.6886387,0.0011385443,-0.014362695,0.7249615,0.9999962,9.313227e-10,8.73115e-10,0.0027974846,1
4900000,4900000,0.6886263,0.0011429013,-0.014357545,0.7249734,0.9999962,9.313227e-10,8.73115e-10,0.0027974846,1
4904000,4904000,0.68861204,0.0011494388,-0.014347908,0.7249871,0.9999962,9.313227e-10,8.73115e-10,0.0027974846,1
4908000,4908000,0.688599,0.0011552852,-0.0143397935,0.7249996,0.9999962,9.313227e-10,8.73115e-10,0.0027974846,1
4912000,4912000,0.6885865,0.0011624291,-0.01433511,0.7250117,0.9999962,9.313227e-10,8.73115e-10,0.0027974846,1
4916000,4916000,0.6885735,0.0011735996,-0.014326178,0.72502416,0.9999962,9.313227e-10,8.73115e-10,0.0027974846,1
4924000,4924000,0.68854344,0.0011892143,-0.014308611,0.72505295,0.9999962,9.313227e-10,8.73115e-10,0.0027974846,1
4928000,4928000,0.6885268,0.0011966944,-0.014300638,0.7250689,0.9999962,9.313227e-10,8.73115e-10,0.0027974846,1
4932000,4932000,0.68851054,0.0012068076,-0.014292219,0.7250845,0.9999962,9.313227e-10,8.73115e-10,0.0027974846,1
4936000,4936000,0.68849623,0.0012129245,-0.014285822,0.7250982,0.9999962,9.313227e-10,8.73115e-10,0.0027974846,1
4944000,4944000,0.68846554,0.0012088122,-0.014274869,0.7251276,0.9999962,9.313227e-10,8.73115e-10,0.0027974846,1
4948000,4948000,0.6884483,0.0012041465,-0.014267532,0.7251441,0.9999962,9.313227e-10,8.73115e-10,0.0027974846,1
4952000,4952000,0.68842715,0.0012039446,-0.014260338,0.7251643,0.9999962,9.313227e-10,8.73115e-10,0.0027974846,1
4956000,4956000,0.6884071,0.001209422,-0.01425337,0.7251834,0.9999962,9.313227e-10,8.73115e-10,0.0027974846,1
4960000,4960000,0.68838495,0.0012146868,-0.014245926,0.7252046,0.9999962,9.313227e-10,8.73115e-10,0.0027974846,1
4964000,4964000,0.68835896,0.0012179248,-0.014235902,0.72522944,0.9999962,9.313227e-10,8.73115e-10,0.0027974846,1
4968000,4968000,0.6883307,0.0012254866,-0.0142282965,0.72525644,0.9999962,9.313227e-10,8.73115e-10,0.0027974846,1
4972000,4972000,0.6883024,0.0012338604,-0.014222929,0.7252834,0.9999962,9.313227e-10,8.73115e-10,0.0027974846,1
4976000,4976000,0.6882748,0.001235947,-0.014216495,0.7253097,0.9999962,9.313227e-10,8.73115e-10,0.0027974846,1
4980000,4980000,0.6882479,0.0012381276,-0.01421307,0.7253353,0.9999962,9.313227e-10,8.73115e-10,0.0027974846,1
4984000,4984000,0.6882255,0.001242822,-0.014210975,0.7253566,0.9999962,9.313227e-10,8.73115e-10,0.0027974846,1
4988000,4988000,0.68820435,0.0012452211,-0.014206679,0.7253767,0.9999962,9.313227e-10,8.73115e-10,0.0027974846,1
4996000,4996000,0.6881574,0.0012448417,-0.014195745,0.7254215,0.9999962,9.313227e-10,8.73115e-10,0.0027974846,1
5004000,5004000,0.68811285,0.0012482932,-0.014176189,0.7254641,0.9999962,9.313227e-10,8.73115e-10,0.0027974846,1
5012000,5012000,0.6880851,0.0012544153,-0.01416497,0.7254907,0.9999962,9.313227e-10,8.73115e-10,0.0027974846,1
5020000,5020000,0.6880478,0.0012611651,-0.014161416,0.72552603,0.9999962,9.313227e-10,8.73115e-10,0.0027974846,1
5028000,5028000,0.68801045,0.001260404,-0.014142394,0.72556186,0.9999962,9.313227e-10,8.73115e-10,0.0027974846,1
5036000,5036000,0.6879851,0.0012714866,-0.014125786,0.7255862,0.9999962,9.313227e-10,8.73115e-10,0.0027974846,1
5040000,5040000,0.68797326,0.0012739829,-0.014118357,0.7255977,0.9999962,9.313227e-10,8.73115e-10,0.0027974846,1
5044000,5044000,0.6879579,0.0012718937,-0.0141110495,0.72561234,0.9999962,9.313227e-10,8.73115e-10,0.0027974846,1
5052000,5052000,0.6879303,0.0012681619,-0.014101373,0.7256387,0.9999962,9.313227e-10,8.73115e-10,0.0027974846,1
5056000,5056000,0.68792,0.0012675658,-0.01409406,0.7256486,0.9999962,9.313227e-10,8.73115e-10,0.0027974846,1
5060000,5060000,0.6879112,0.0012689322,-0.014088578,0.72565705,0.9999962,9.313227e-10,8.73115e-10,0.0027974846,1
5064000,5064000,0.6879022,0.00127467,-0.014082583,0.7256657,0.9999962,9.313227e-10,8.73115e-10,0.0027974846,1
5068000,5068000,0.6878932,0.001277843,-0.014079293,0.7256743,0.9999962,9.313227e-10,8.73115e-10,0.0027974846,1
5072000,5072000,0.68788785,0.0012775764,-0.014078893,0.7256794,0.9999962,9.313227e-10,8.73115e-10,0.0027974846,1
5076000,5076000,0.687882,0.0012820855,-0.014074219,0.72568494,0.9999962,9.313227e-10,8.73115e-10,0.0027974846,1
5080000,5080000,0.68787634,0.0012919528,-0.014065412,0.7256905,0.9999962,9.313227e-10,8.73115e-10,0.0027974846,1
5084000,5084000,0.6878699,0.0012992604,-0.014060063,0.72569674,0.9999962,9.313227e-10,8.73115e-10,0.0027974846,1
5088000,5088000,0.6878642,0.0013039119,-0.014059819,0.72570205,0.9999962,9.313227e-10,8.73115e-10,0.0027974846,1
5092000,5092000,0.6878589,0.0013115422,-0.01405799,0.7257071,0.9999962,9.313227e-10,8.73115e-10,0.0027974846,1
5100000,5100000,0.6878594,0.0013269732,-0.014052972,0.7257067,0.9999962,9.313227e-10,8.73115e-10,0.0027974846,1
5108000,5108000,0.6878655,0.0013290561,-0.014048904,0.72570103,0.9999962,9.313227e-10,8.73115e-10,0.0027974846,1
5112000,5112000,0.6878686,0.0013311128,-0.014040349,0.7256983,0.9999962,9.313227e-10,8.73115e-10,0.0027974846,1
5116000,5116000,0.68787163,0.001334349,-0.0140336435,0.7256955,0.9999962,9.313227e-10,8.73115e-10,0.0027974846,1
5124000,5124000,0.6878758,0.0013376041,-0.014022757,0.72569174,0.9999962,9.313227e-10,8.73115e-10,0.0027974846,1
5132000,5132000,0.68788594,0.0013368428,-0.014020033,0.7256822,0.9999962,9.313227e-10,8.73115e-10,0.0027974846,1
5136000,5136000,0.6878892,0.0013392487,-0.014021865,0.72567904,0.9999962,9.313227e-10,8.73115e-10,0.0027974846,1
5140000,5140000,0.68789333,0.0013415891,-0.014020684,0.7256752,0.9999962,9.313227e-10,8.73115e-10,0.0027974846,1
5144000,5144000,0.6878997,0.0013436744,-0.01401127,0.72566926,0.9999962,9.313227e-10,8.73115e-10,0.0027974846,1
5148000,5148000,0.6879073,0.001346515,-0.014001084,0.72566223,0.9999962,9.313227e-10,8.73115e-10,0.0027974846,1
5152000,5152000,0.6879167,0.0013494139,-0.014000819,0.7256534,0.9999962,9.313227e-10,8.73115e-10,0.0027974846,1
5156000,5156000,0.6879256,0.0013519587,-0.014001693,0.72564495,0.9999962,9.313227e-10,8.73115e-10,0.0027974846,1
5160000,5160000,0.6879351,0.0013537791,-0.01399781,0.72563595,0.9999962,9.313227e-10,8.73115e-10,0.0027974846,1
5164000,5164000,0.6879435,0.0013571433,-0.013996148,0.725628,0.9999962,9.313227e-10,8.73115e-10,0.0027974846,1
5168000,5168000,0.6879464,0.0013577045,-0.013995794,0.7256253,0.9999962,9.313227e-10,8.73115e-10,0.0027974846,1
5172000,5172000,0.6879493,0.00135674,-0.013994729,0.7256226,0.9999962,9.313227e-10,8.73115e-10,0.0027974846,1
5176000,5176000,0.687953,0.0013597114,-0.013993286,0.7256191,0.9999962,9.313227e-10,8.73115e-10,0.0027974846,1
5180000,5180000,0.6879555,0.0013652656,-0.013990646,0.7256167,0.9999962,9.313227e-10,8.73115e-10,0.0027974846,1
5188000,5188000,0.687957,0.0013801724,-0.013989622,0.7256153,0.9999962,9.313227e-10,8.73115e-10,0.0027974846,1
5192000,5192000,0.68795973,0.0013861672,-0.01398943,0.7256127,0.9999962,9.313227e-10,8.73115e-10,0.0027974846,1
5196000,5196000,0.6879652,0.0013884897,-0.01399084,0.72560745,0.9999962,9.313227e-10,8.73115e-10,0.0027974846,1
5200000,5200000,0.6879735,0.0013887541,-0.013990509,0.7255996,0.9999962,9.313227e-10,8.73115e-10,0.0027974846,1
5204000,5204000,0.6879806,0.0013919476,-0.013987842,0.7255929,0.9999962,9.313227e-10,8.73115e-10,0.0027974846,1
5212000,5212000,0.6879937,0.0013968869,-0.013984607,0.7255806,0.9999962,9.313227e-10,8.73115e-10,0.0027974846,1
5216000,5216000,0.68800116,0.00139826,-0.0139829125,0.7255735,0.9999962,9.313227e-10,8.73115e-10,0.0027974846,1
5220000,5220000,0.6880059,0.0014041186,-0.013981857,0.72556907,0.9999962,9.313227e-10,8.73115e-10,0.0027974846,1
5224000,5224000,0.68801093,0.001410552,-0.013980111,0.7255643,0.9999962,9.313227e-10,8.73115e-10,0.0027974846,1
5228000,5228000,0.68801713,0.0014150953,-0.013977284,0.72555846,0.9999962,9.313227e-10,8.73115e-10,0.0027974846,1
5232000,5232000,0.68802285,0.0014186961,-0.013973806,0.7255531,0.9999962,9.313227e-10,8.73115e-10,0.0027974846,1
5240000,5240000,0.6880349,0.0014148238,-0.01397138,0.7255418,0.9999962,9.313227e-10,8.73115e-10,0.0027974846,1
5244000,5244000,0.68803483,0.0014174257,-0.0139733,0.7255418,0.9999962,9.313227e-10,8.73115e-10,0.0027974846,1
5248000,5248000,0.6880354,0.0014214679,-0.013977507,0.7255412,0.9999962,9.313227e-10,8.73115e-10,0.0027974846,1
5252000,5252000,0.6880391,0.0014191198,-0.013979995,0.7255376,0.9999962,9.313227e-10,8.73115e-10,0.0027974846,1
5260000,5260000,0.68804747,0.0014119006,-0.0139704645,0.7255299,0.9999962,9.313227e-10,8.73115e-10,0.0027974846,1
5264000,5264000,0.68804914,0.0014151426,-0.013967645,0.7255283,0.9999962,9.313227e-10,8.73115e-10,0.0027974846,1
5268000,5268000,0.68805313,0.0014233133,-0.013964318,0.7255246,0.9999962,9.313227e-10,8.73115e-10,0.0027974846,1
5276000,5276000,0.6880664,0.0014385743,-0.013953853,0.7255122,0.9999962,9.313227e-10,8.73115e-10,0.0027974846,1
5284000,5284000,0.68808955,0.0014524371,-0.013948007,0.7254903,0.9999962,9.313227e-10,8.73115e-10,0.0027974846,1
5288000,5288000,0.6881042,0.0014550202,-0.013945793,0.7254764,0.9999962,9.313227e-10,8.73115e-10,0.0027974846,1
5292000,5292000,0.68811625,0.0014533803,-0.013942565,0.72546506,0.9999962,9.313227e-10,8.73115e-10,0.0027974846,1
5296000,5296000,0.68812436,0.0014515813,-0.013939376,0.72545743,0.9999962,9.313227e-10,8.73115e-10,0.0027974846,1
5300000,5300000,0.688132,0.0014513204,-0.013937654,0.72545016,0.9999962,9.313227e-10,8.73115e-10,0.0027974846,1
5308000,5308000,0.68814486,0.0014549836,-0.013929433,0.7254382,0.9999962,9.313227e-10,8.73115e-10,0.0027974846,1
5312000,5312000,0.6881699,0.0014580913,-0.013922916,0.7254146,0.9999962,9.313227e-10,8.73115e-10,0.0027974846,1
5316000,5316000,0.68819726,0.0014616101,-0.013916007,0.72538877,0.9999962,9.313227e-10,8.73115e-10,0.0027974846,1
5320000,5320000,0.6882254,0.0014628228,-0.013909175,0.7253622,0.9999962,9.313227e-10,8.73115e-10,0.0027974846,1
5324000,5324000,0.6882508,0.0014644294,-0.013904975,0.72533816,0.9999962,9.313227e-10,8.73115e-10,0.0027974846,1
5328000,5328000,0.68827176,0.0014670816,-0.01390265,0.7253183,0.9999962,9.313227e-10,8.73115e-10,0.0027974846,1
5332000,5332000,0.6882912,0.0014703979,-0.01389805,0.72529995,0.9999962,9.313227e-10,8.73115e-10,0.0027974846,1
5336000,5336000,0.6883117,0.001472087,-0.013889733,0.72528064,0.9999962,9.313227e-10,8.73115e-10,0.0027974846,1
5340000,5340000,0.68833303,0.0014696202,-0.013880393,0.72526056,0.9999962,9.313227e-10,8.73115e-10,0.0027974846,1
5348000,5348000,0.68836755,0.0014681565,-0.013873323,0.7252279,0.9999962,9.313227e-10,8.73115e-10,0.0027974846,1
5356000,5356000,0.68840307,0.001475858,-0.013886741,0.72519386,0.9999962,9.313227e-10,8.73115e-10,0.0027974846,1
5364000,5364000,0.6884431,0.0014757455,-0.013889953,0.72515583,0.9999962,9.313227e-10,8.73115e-10,0.0027974846,1
5368000,5368000,0.68846387,0.0014769986,-0.013885188,0.7251363,0.9999962,9.313227e-10,8.73115e-10,0.0027974846,1
5372000,5372000,0.6884853,0.0014786917,-0.013882294,0.72511595,0.9999962,9.313227e-10,8.73115e-10,0.0027974846,1
5380000,5380000,0.6885307,0.0014831105,-0.013873973,0.72507304,0.9999962,9.313227e-10,8.73115e-10,0.0027974846,1
5388000,5388000,0.68858874,0.0014918584,-0.01386343,0.7250181,0.9999962,9.313227e-10,8.73115e-10,0.0027974846,1
5396000,5396000,0.68864346,0.0014969897,-0.013862901,0.7249661,0.9999962,9.313227e-10,8.73115e-10,0.0027974846,1
5400000,5400000,0.68866765,0.0014950867,-0.013859234,0.7249432,0.9999962,9.313227e-10,8.73115e-10,0.0027974846,1
5408000,5408000,0.68870914,0.0014981203,-0.013858567,0.7249038,0.9999962,9.313227e-10,8.73115e-10,0.0027974846,1
5412000,5412000,0.68872887,0.0014991241,-0.013853378,0.72488517,0.9999962,9.313227e-10,8.73115e-10,0.0027974846,1
5416000,5416000,0.68875,0.0014997692,-0.013847119,0.7248652,0.9999962,9.313227e-10,8.73115e-10,0.0027974846,1
5424000,5424000,0.6887982,0.0015021038,-0.013840644,0.7248195,0.9999962,9.313227e-10,8.73115e-10,0.0027974846,1
5428000,5428000,0.6888203,0.0015006664,-0.013839764,0.7247985,0.9999962,9.313227e-10,8.73115e-10,0.0027974846,1
5432000,5432000,0.6888411,0.0015006377,-0.013835132,0.7247788,0.9999962,9.313227e-10,8.73115e-10,0.0027974846,1
5436000,5436000,0.6888624,0.0015028185,-0.013828187,0.72475874,0.9999962,9.313227e-10,8.73115e-10,0.0027974846,1
5444000,5444000,0.6889033,0.0015056146,-0.013826119,0.72471994,0.9999962,9.313227e-10,8.73115e-10,0.0027974846,1
5448000,5448000,0.68892264,0.0015053201,-0.013824989,0.7247015,0.9999962,9.313227e-10,8.73115e-10,0.0027974846,1
5452000,5452000,0.68893975,0.0015027225,-0.013823922,0.7246853,0.9999962,9.313227e-10,8.73115e-10,0.0027974846,1
5456000,5456000,0.6889572,0.0014993192,-0.013823685,0.7246687,0.9999962,9.313227e-10,8.73115e-10,0.0027974846,1
5460000,5460000,0.6889747,0.001495549,-0.013823835,0.72465205,0.9999962,9.313227e-10,8.73115e-10,0.0027974846,1
5464000,5464000,0.6889935,0.001495621,-0.013824681,0.7246341,0.9999962,9.313227e-10,8.73115e-10,0.0027974846,1
5468000,5468000,0.68901354,0.001496873,-0.013826625,0.7246151,0.9999962,9.313227e-10,8.73115e-10,0.0027974846,1
5476000,5476000,0.6890518,0.0014956978,-0.013832191,0.72457856,0.9999962,9.313227e-10,8.73115e-10,0.0027974846,1
5480000,5480000,0.68907124,0.0014913211,-0.013832725,0.7245601,0.9999962,9.313227e-10,8.73115e-10,0.0027974846,1
5484000,5484000,0.6890914,0.0014899711,-0.013833181,0.7245409,0.9999962,9.313227e-10,8.73115e-10,0.0027974846,1
5488000,5488000,0.6891105,0.0014889824,-0.0138325365,0.7245227,0.9999962,9.313227e-10,8.73115e-10,0.0027974846,1
5492000,5492000,0.6891278,0.0014838249,-0.013832376,0.72450626,0.9999962,9.313227e-10,8.73115e-10,0.0027974846,1
5496000,5496000,0.6891437,0.0014787111,-0.013833758,0.7244911,0.9999962,9.313227e-10,8.73115e-10,0.0027974846,1
5500000,5500000,0.68916076,0.001476189,-0.013832437,0.72447497,0.9999962,9.313227e-10,8.73115e-10,0.0027974846,1
5504000,5504000,0.6891773,0.0014728782,-0.013828907,0.7244593,0.9999962,9.313227e-10,8.73115e-10,0.0027974846,1
5508000,5508000,0.68919384,0.0014676568,-0.013824295,0.7244436,0.9999962,9.313227e-10,8.73115e-10,0.0027974846,1
5512000,5512000,0.6892069,0.0014611598,-0.013821877,0.72443134,0.9999962,9.313227e-10,8.73115e-10,0.0027974846,1
5516000,5516000,0.68921715,0.0014536036,-0.013824385,0.7244215,0.9999962,9.313227e-10,8.73115e-10,0.0027974846,1
5520000,5520000,0.68922925,0.0014487184,-0.01382572,0.72441,0.9999962,9.313227e-10,8.73115e-10,0.0027974846,1
5524000,5524000,0.68924403,0.0014471136,-0.013820565,0.72439605,0.9999962,9.313227e-10,8.73115e-10,0.0027974846,1
5528000,5528000,0.6892594,0.0014447115,-0.013815464,0.7243815,0.9999962,9.313227e-10,8.73115e-10,0.0027974846,1
5532000,5532000,0.689274,0.0014412866,-0.013815287,0.7243676,0.9999962,9.313227e-10,8.73115e-10,0.0027974846,1
5536000,5536000,0.6892882,0.0014401389,-0.013815075,0.72435415,0.9999962,9.313227e-10,8.73115e-10,0.0027974846,1
5540000,5540000,0.68930244,0.0014396694,-0.013811834,0.7243407,0.9999962,9.313227e-10,8.73115e-10,0.0027974846,1
5544000,5544000,0.6893139,0.0014376511,-0.0138079,0.7243298,0.9999962,9.313227e-10,8.73115e-10,0.0027974846,1
5548000,5548000,0.68932384,0.0014363751,-0.013804704,0.7243204,0.9999962,9.313227e-10,8.73115e-10,0.0027974846,1
5552000,5552000,0.6893341,0.0014374105,-0.013802219,0.72431076,0.9999962,9.313227e-10,8.73115e-10,0.0027974846,1
5560000,5560000,0.68935883,0.0014388534,-0.013798029,0.7242873,0.9999962,9.313227e-10,8.73115e-10,0.0027974846,1
5568000,5568000,0.6893831,0.0014272577,-0.0137944985,0.72426426,0.9999962,9.313227e-10,8.73115e-10,0.0027974846,1
5572000,5572000,0.6893947,0.0014204502,-0.013788022,0.7242533,0.9999962,9.313227e-10,8.73115e-10,0.0027974846,1
5576000,5576000,0.6894053,0.0014145835,-0.013785234,0.7242433,0.9999962,9.313227e-10,8.73115e-10,0.0027974846,1
5584000,5584000,0.68942297,0.0014122695,-0.013792925,0.7242263,0.9999962,9.313227e-10,8.73115e-10,0.0027974846,1
5588000,5588000,0.68943286,0.001413025,-0.01379481,0.7242169,0.9999962,9.313227e-10,8.73115e-10,0.0027974846,1
5592000,5592000,0.68944335,0.0014117187,-0.013799696,0.7242068,0.9999962,9.313227e-10,8.73115e-10,0.0027974846,1
5596000,5596000,0.6894531,0.0014080831,-0.013802381,0.72419745,0.9999962,9.313227e-10,8.73115e-10,0.0027974846,1
5600000,5600000,0.68942493,0.0014055092,-0.013801468,0.72422427,0.9999962,9.313227e-10,8.73115e-10,0.0027974846,1
5604000,5604000,0.6893968,0.0014059658,-0.013801234,0.72425115,0.9999962,9.313227e-10,8.73115e-10,0.0027974846,1
5608000,5608000,0.68937,0.0014076885,-0.013800512,0.72427666,0.9999962,9.313227e-10,8.73115e-10,0.0027974846,1
5612000,5612000,0.68934584,0.0014097926,-0.013797892,0.72429967,0.9999962,9.313227e-10,8.73115e-10,0.0027974846,1
5620000,5620000,0.68930244,0.0014111467,-0.013800468,0.72434086,0.9999962,9.313227e-10,8.73115e-10,0.0027974846,1
5628000,5628000,0.68925023,0.0013990774,-0.013805493,0.72439045,0.9999962,9.313227e-10,8.73115e-10,0.0027974846,1
5636000,5636000,0.68919504,0.0013952662,-0.013801867,0.72444314,0.9999962,9.313227e-10,8.73115e-10,0.0027974846,1
5640000,5640000,0.68916476,0.0013936593,-0.013801663,0.724472,0.9999962,9.313227e-10,8.73115e-10,0.0027974846,1
5644000,5644000,0.6891356,0.0013887334,-0.013803424,0.72449964,0.9999962,9.313227e-10,8.73115e-10,0.0027974846,1
5648000,5648000,0.68910754,0.0013861853,-0.013804289,0.72452635,0.9999962,9.313227e-10,8.73115e-10,0.0027974846,1
5656000,5656000,0.68904847,0.0013904363,-0.013800808,0.7245825,0.9999962,9.313227e-10,8.73115e-10,0.0027974846,1
5660000,5660000,0.68901885,0.001388279,-0.013798949,0.72461075,0.9999962,9.313227e-10,8.73115e-10,0.0027974846,1
5664000,5664000,0.68899024,0.0013844905,-0.013801951,0.72463787,0.9999962,9.313227e-10,8.73115e-10,0.0027974846,1
5668000,5668000,0.6889609,0.0013798962,-0.013803466,0.7246657,0.9999962,9.313227e-10,8.73115e-10,0.0027974846,1
5672000,5672000,0.68892497,0.0013746043,-0.013802659,0.7246999,0.9999962,9.313227e-10,8.73115e-10,0.0027974846,1
5680000,5680000,0.6888523,0.0013670379,-0.013797883,0.7247691,0.9999962,9.313227e-10,8.73115e-10,0.0027974846,1
5684000,5684000,0.68881905,0.0013634,-0.013796957,0.72480077,0.9999962,9.313227e-10,8.73115e-10,0.0027974846,1
5692000,5692000,0.6887542,0.0013499156,-0.013793121,0.7248625,0.9999962,9.313227e-10,8.73115e-10,0.0027974846,1
5696000,5696000,0.68872225,0.0013429271,-0.013788333,0.7248929,0.9999962,9.313227e-10,8.73115e-10,0.0027974846,1
5700000,5700000,0.6886888,0.0013367588,-0.013787298,0.7249248,0.9999962,9.313227e-10,8.73115e-10,0.0027974846,1
5704000,5704000,0.68865865,0.0013317743,-0.013785805,0.7249534,0.9999962,9.313227e-10,8.73115e-10,0.0027974846,1
5708000,5708000,0.68863165,0.001328007,-0.013785407,0.7249791,0.9999962,9.313227e-10,8.73115e-10,0.0027974846,1
5716000,5716000,0.68857896,0.0013230173,-0.0137950145,0.72502893,0.9999962,9.313227e-10,8.73115e-10,0.0027974846,1
5720000,5720000,0.68855107,0.0013186095,-0.0138044255,0.72505534,0.9999962,9.313227e-10,8.73115e-10,0.0027974846,1
5728000,5728000,0.68849725,0.0013174159,-0.013811335,0.7251063,0.9999962,9.313227e-10,8.73115e-10,0.0027974846,1
5732000,5732000,0.6884725,0.0013187987,-0.013810011,0.72512984,0.9999962,9.313227e-10,8.73115e-10,0.0027974846,1
5736000,5736000,0.68844855,0.0013176051,-0.013811362,0.72515255,0.9999962,9.313227e-10,8.73115e-10,0.0027974846,1
5740000,5740000,0.68842536,0.0013141478,-0.013812019,0.7251745,0.9999962,9.313227e-10,8.73115e-10,0.0027974846,1
5744000,5744000,0.6883952,0.0013120602,-0.013812961,0.72520316,0.9999962,9.313227e-10,8.73115e-10,0.0027974846,1
5748000,5748000,0.68836534,0.0013115641,-0.013816875,0.7252314,0.9999962,9.313227e-10,8.73115e-10,0.0027974846,1
5752000,5752000,0.6883356,0.0013090835,-0.013818186,0.7252596,0.9999962,9.313227e-10,8.73115e-10,0.0027974846,1
5756000,5756000,0.68830323,0.001303461,-0.013816568,0.72529036,0.9999962,9.313227e-10,8.73115e-10,0.0027974846,1
5764000,5764000,0.6882366,0.0012974171,-0.01381543,0.7253536,0.9999962,9.313227e-10,8.73115e-10,0.0027974846,1
5772000,5772000,0.6881832,0.0012946528,-0.013818687,0.7254042,0.9999962,9.313227e-10,8.73115e-10,0.0027974846,1
5780000,5780000,0.68813217,0.0012894701,-0.0138229,0.72545254,0.9999962,9.313227e-10,8.73115e-10,0.0027974846,1
5784000,5784000,0.68810517,0.0012901378,-0.013825373,0.7254781,0.9999962,9.313227e-10,8.73115e-10,0.0027974846,1
5788000,5788000,0.68807584,0.0012926534,-0.013828177,0.7255059,0.9999962,9.313227e-10,8.73115e-10,0.0027974846,1
5792000,5792000,0.6880512,0.0012923381,-0.01383169,0.72552913,0.9999962,9.313227e-10,8.73115e-10,0.0027974846,1
5796000,5796000,0.68803054,0.0012879855,-0.013836436,0.7255487,0.9999962,9.313227e-10,8.73115e-10,0.0027974846,1
5800000,5800000,0.6880106,0.001283333,-0.0138407005,0.7255675,0.9999962,9.313227e-10,8.73115e-10,0.0027974846,1
5804000,5804000,0.6879903,0.0012800993,-0.013841916,0.7255868,0.9999962,9.313227e-10,8.73115e-10,0.0027974846,1
5808000,5808000,0.68797344,0.0012738764,-0.013838569,0.7256028,0.9999962,9.313227e-10,8.73115e-10,0.0027974846,1
5812000,5812000,0.68795705,0.0012646496,-0.013835304,0.7256185,0.9999962,9.313227e-10,8.73115e-10,0.0027974846,1
5816000,5816000,0.6879434,0.0012596836,-0.013837476,0.72563136,0.9999962,9.313227e-10,8.73115e-10,0.0027974846,1
5820000,5820000,0.6879282,0.0012573536,-0.01384071,0.7256457,0.9999962,9.313227e-10,8.73115e-10,0.0027974846,1
5824000,5824000,0.6879162,0.0012576896,-0.013839614,0.72565705,0.9999962,9.313227e-10,8.73115e-10,0.0027974846,1
5828000,5828000,0.6879054,0.001264864,-0.013839841,0.72566736,0.9999962,9.313227e-10,8.73115e-10,0.0027974846,1
5832000,5832000,0.6878957,0.0012756243,-0.013844008,0.72567636,0.9999962,9.313227e-10,8.73115e-10,0.0027974846,1
5836000,5836000,0.68788695,0.0012818417,-0.0138467895,0.7256847,0.9999962,9.313227e-10,8.73115e-10,0.0027974846,1
5840000,5840000,0.6878807,0.0012846894,-0.01384616,0.72569066,0.9999962,9.313227e-10,8.73115e-10,0.0027974846,1
5844000,5844000,0.6878736,0.0012904936,-0.013843945,0.7256974,0.9999962,9.313227e-10,8.73115e-10,0.0027974846,1
5852000,5852000,0.68785864,0.0013000404,-0.013842372,0.7257115,0.9999962,9.313227e-10,8.73115e-10,0.0027974846,1
5856000,5856000,0.6878538,0.0013031301,-0.013844538,0.72571605,0.9999962,9.313227e-10,8.73115e-10,0.0027974846,1
5864000,5864000,0.6878498,0.0013124328,-0.013846418,0.72571975,0.9999962,9.313227e-10,8.73115e-10,0.0027974846,1
5868000,5868000,0.6878469,0.001313342,-0.013847788,0.7257226,0.9999962,9.313227e-10,8.73115e-10,0.0027974846,1
5872000,5872000,0.6878406,0.0013127021,-0.013847602,0.7257286,0.9999962,9.313227e-10,8.73115e-10,0.0027974846,1
5876000,5876000,0.68783426,0.0013146064,-0.013843956,0.7257346,0.9999962,9.313227e-10,8.73115e-10,0.0027974846,1
5880000,5880000,0.6878315,0.0013173884,-0.013840195,0.7257373,0.9999962,9.313227e-10,8.73115e-10,0.0027974846,1
5888000,5888000,0.68782264,0.0013177259,-0.013840623,0.7257456,0.9999962,9.313227e-10,8.73115e-10,0.0027974846,1
5892000,5892000,0.6878148,0.0013127435,-0.013835844,0.7257532,0.9999962,9.313227e-10,8.73115e-10,0.0027974846,1
5896000,5896000,0.6878091,0.0013069857,-0.013832252,0.7257587,0.9999962,9.313227e-10,8.73115e-10,0.0027974846,1
5900000,5900000,0.68780494,0.001302397,-0.013829003,0.72576267,0.9999962,9.313227e-10,8.73115e-10,0.0027974846,1
5904000,5904000,0.6878035,0.0012982343,-0.01382379,0.7257641,0.9999962,9.313227e-10,8.73115e-10,0.0027974846,1
5908000,5908000,0.68780166,0.0012986426,-0.013820716,0.725766,0.9999962,9.313227e-10,8.73115e-10,0.0027974846,1
5912000,5912000,0.68779576,0.001299488,-0.013820959,0.7257715,0.9999962,9.313227e-10,8.73115e-10,0.0027974846,1
5916000,5916000,0.68778807,0.0012938464,-0.013819497,0.7257788,0.9999962,9.313227e-10,8.73115e-10,0.0027974846,1
5924000,5924000,0.6877796,0.0012880915,-0.01381781,0.72578686,0.9999962,9.313227e-10,8.73115e-10,0.0027974846,1
5928000,5928000,0.6877754,0.0012867916,-0.013818001,0.725791,0.9999962,9.313227e-10,8.73115e-10,0.0027974846,1
5932000,5932000,0.6877723,0.0012853921,-0.013813669,0.72579396,0.9999962,9.313227e-10,8.73115e-10,0.0027974846,1
5936000,5936000,0.68777114,0.0012867518,-0.013811099,0.7257951,0.9999962,9.313227e-10,8.73115e-10,0.0027974846,1
5940000,5940000,0.68776995,0.0012875005,-0.01381382,0.72579616,0.9999962,9.313227e-10,8.73115e-10,0.0027974846,1
5944000,5944000,0.6877677,0.0012826021,-0.013816276,0.72579825,0.9999962,9.313227e-10,8.73115e-10,0.0027974846,1
5948000,5948000,0.68776506,0.0012750307,-0.013817674,0.7258007,0.9999962,9.313227e-10,8.73115e-10,0.0027974846,1
5952000,5952000,0.6877631,0.0012702075,-0.013821598,0.7258025,0.9999962,9.313227e-10,8.73115e-10,0.0027974846,1
5956000,5956000,0.6877596,0.0012657212,-0.013825139,0.72580576,0.9999962,9.313227e-10,8.73115e-10,0.0027974846,1
5960000,5960000,0.6877563,0.0012597368,-0.013829447,0.7258089,0.9999962,9.313227e-10,8.73115e-10,0.0027974846,1
5964000,5964000,0.6877544,0.0012542495,-0.013837126,0.72581047,0.9999962,9.313227e-10,8.73115e-10,0.0027974846,1
5968000,5968000,0.6877524,0.0012498396,-0.013842117,0.7258123,0.9999962,9.313227e-10,8.73115e-10,0.0027974846,1
5976000,5976000,0.68774575,0.0012482837,-0.01384359,0.72581863,0.9999962,9.313227e-10,8.73115e-10,0.0027974846,1
5980000,5980000,0.68774384,0.0012467124,-0.013841699,0.7258205,0.9999962,9.313227e-10,8.73115e-10,0.0027974846,1
