timestamp,timestamp_sample,gps_hvel[0],gps_hvel[1],gps_vvel,gps_hpos[0],gps_hpos[1],gps_vpos,ev_hvel[0],ev_hvel[1],ev_vvel,ev_hpos[0],ev_hpos[1],ev_vpos,rng_vpos,baro_vpos,aux_hvel[0],aux_hvel[1],aux_vvel,flow[0],flow[1],terr_flow[0],terr_flow[1],heading,mag_field[0],mag_field[1],mag_field[2],gravity[0],gravity[1],gravity[2],drag[0],drag[1],airspeed,beta,hagl,hagl_rate
3212000,3132000,0.0,0.0,0.0,0.0,0.0,0.0,0.0,0.0,0.0,0.0,0.0,0.0,0.0,0.0,0.0,0.0,nan,0.0,0.0,0.0,0.0,0.0,-0.008418125,0.21180287,-0.4331173,0.012954428,0.022550147,0.0001941376,0.0,0.0,0.0,0.0,0.0,0.0
3220000,3140000,0.0,0.0,0.0,0.0,0.0,0.0,0.0,0.0,0.0,0.0,0.0,0.0,0.0,9.821029e-06,0.0,0.0,nan,0.0,0.0,0.0,0.0,0.0,-0.008418125,0.21180287,-0.4331173,0.003401047,0.0023225273,-1.9599443e-05,0.0,0.0,0.0,0.0,0.0,0.0
3228000,3148000,0.0,0.0,0.0,0.0,0.0,0.0,0.0,0.0,0.0,0.0,0.0,0.0,0.0,9.821029e-06,0.0,0.0,nan,0.0,0.0,0.0,0.0,0.0,-0.008529177,0.21548437,-0.42901635,0.026850514,0.009320319,-0.0003709793,0.0,0.0,0.0,0.0,0.0,0.0
3236000,3156000,0.0,0.0,0.0,0.0,0.0,0.0,0.0,0.0,0.0,0.0,0.0,0.0,0.0,9.821029e-06,0.0,0.0,nan,0.0,0.0,0.0,0.0,0.0,-0.008529177,0.21548437,-0.42901635,0.02588691,-0.015865445,-0.0009050369,0.0,0.0,0.0,0.0,0.0,0.0
3244000,3164000,0.0,0.0,0.0,0.0,0.0,0.0,0.0,0.0,0.0,0.0,0.0,0.0,0.0,9.821029e-06,0.0,0.0,nan,0.0,0.0,0.0,0.0,0.0,-0.008529177,0.21548437,-0.42901635,-0.00030418276,0.036671653,0.00072956085,0.0,0.0,0.0,0.0,0.0,0.0
3252000,3172000,0.0,0.0,0.0,0.0,0.0,0.0,0.0,0.0,0.0,0.0,0.0,0.0,0.0,9.821029e-06,0.0,0.0,nan,0.0,0.0,0.0,0.0,0.0,-0.008529177,0.21548437,-0.42901635,0.032425262,0.017082468,-0.0003466606,0.0,0.0,0.0,0.0,0.0,0.0
3260000,3180000,0.0,0.0,0.0,0.0,0.0,0.0,0.0,0.0,0.0,0.0,0.0,0.0,0.0,9.821029e-06,0.0,0.0,nan,0.0,0.0,0.0,0.0,0.0,-0.008529177,0.21548437,-0.42901635,0.035933867,0.028033063,-0.00021886826,0.0,0.0,0.0,0.0,0.0,0.0
3268000,3188000,0.0,0.0,0.0,0.0,0.0,0.0,0.0,0.0,0.0,0.0,0.0,0.0,0.0,9.821029e-06,0.0,0.0,nan,0.0,0.0,0.0,0.0,0.0,-0.008529177,0.21548437,-0.42901635,0.005958915,0.03422475,0.0005598068,0.0,0.0,0.0,0.0,0.0,0.0
3276000,3196000,0.0,0.0,0.0,0.0,0.0,0.0,0.0,0.0,0.0,0.0,0.0,0.0,0.0,9.821029e-06,0.0,0.0,nan,0.0,0.0,0.0,0.0,0.0,-0.008529177,0.21548437,-0.42901635,0.018364694,0.025168642,0.00012588501,0.0,0.0,0.0,0.0,0.0,0.0
3284000,3204000,0.0,0.0,0.0,0.0,0.0,0.0,0.0,0.0,0.0,0.0,0.0,0.0,0.0,-0.008464294,0.0,0.0,nan,0.0,0.0,0.0,0.0,0.0,-0.008529177,0.21548437,-0.42901635,0.004632828,0.029704913,0.0005054474,0.0,0.0,0.0,0.0,0.0,0.0
3292000,3212000,0.0,0.0,0.0,0.0,0.0,0.0,0.0,0.0,0.0,0.0,0.0,0.0,0.0,-0.008464294,0.0,0.0,nan,0.0,0.0,0.0,0.0,0.0,0.0058573876,-0.00071549416,0.00782752,-0.004410316,0.04082179,0.00088739395,0.0,0.0,0.0,0.0,0.0,0.0
3300000,3220000,0.0,0.0,0.0,0.0,0.0,0.0,0.0,0.0,0.0,0.0,0.0,0.0,0.0,-0.008464294,0.0,0.0,nan,0.0,0.0,0.0,0.0,0.0,0.0058573876,-0.00071549416,0.00782752,-0.016557157,0.056234375,0.0013794899,0.0,0.0,0.0,0.0,0.0,0.0
3308000,3228000,0.0,0.0,0.0,0.0,0.0,0.0,0.0,0.0,0.0,0.0,0.0,0.0,0.0,-0.008464294,0.0,0.0,nan,0.0,0.0,0.0,0.0,0.0,0.0058573876,-0.00071549416,0.00782752,-0.008371719,0.031976655,0.0008087158,0.0,0.0,0.0,0.0,0.0,0.0
3316000,3236000,0.0,0.0,0.0,0.0,0.0,0.0,0.0,0.0,0.0,0.0,0.0,0.0,0.0,-0.008464294,0.0,0.0,nan,0.0,0.0,0.0,0.0,0.0,0.0058573876,-0.00071549416,0.00782752,-0.020134859,0.023552194,0.00087070465,0.0,0.0,0.0,0.0,0.0,0.0
3324000,3244000,0.0,0.0,0.0,0.0,0.0,0.0,0.0,0.0,0.0,0.0,0.0,0.0,0.0,-0.008464294,0.0,0.0,nan,0.0,0.0,0.0,0.0,0.0,0.0058573876,-0.00071549416,0.00782752,0.014101622,0.019895911,0.00011587143,0.0,0.0,0.0,0.0,0.0,0.0
3332000,3252000,0.0,0.0,0.0,0.0,0.0,0.0,0.0,0.0,0.0,0.0,0.0,0.0,0.0,-0.008464294,0.0,0.0,nan,0.0,0.0,0.0,0.0,0.0,0.0058573876,-0.00071549416,0.00782752,0.020211544,0.013073623,-0.00015544891,0.0,0.0,0.0,0.0,0.0,0.0
3340000,3260000,0.0,0.0,0.0,0.0,0.0,0.0,0.0,0.0,0.0,0.0,0.0,0.0,0.0,-0.0033647933,0.0,0.0,nan,0.0,0.0,0.0,0.0,0.0,0.0058573876,-0.00071549416,0.00782752,0.0036663827,0.050905094,0.0009031296,0.0,0.0,0.0,0.0,0.0,0.0
3348000,3268000,0.0,0.0,0.0,0.0,0.0,0.0,0.0,0.0,0.0,0.0,0.0,0.0,0.0,-0.0033647933,0.0,0.0,nan,0.0,0.0,0.0,0.0,0.0,0.0058573876,-0.00071549416,0.00782752,-0.004096374,0.011681333,0.00032949448,0.0,0.0,0.0,0.0,0.0,0.0
3356000,3276000,0.0,0.0,0.0,0.0,0.0,0.0,0.0,0.0,0.0,0.0,0.0,0.0,0.0,-0.0033647933,0.0,0.0,nan,0.0,0.0,0.0,0.0,0.0,0.0058573876,-0.00071549416,0.00782752,-0.0010007173,0.025456384,0.0005450249,0.0,0.0,0.0,0.0,0.0,0.0
3364000,3284000,0.0,0.0,0.0,0.0,0.0,0.0,0.0,0.0,0.0,0.0,0.0,0.0,0.0,-0.0033647933,0.0,0.0,nan,0.0,0.0,0.0,0.0,0.0,-0.0014933432,0.004671648,0.0041480362,0.011447351,0.045717433,0.00065231323,0.0,0.0,0.0,0.0,0.0,0.0
3372000,3292000,0.0,0.0,0.0,0.0,0.0,0.0,0.0,0.0,0.0,0.0,0.0,0.0,0.0,-0.0033647933,0.0,0.0,nan,0.0,0.0,0.0,0.0,0.0,-0.0014933432,0.004671648,0.0041480362,0.012854545,0.04242465,0.00056505203,0.0,0.0,0.0,0.0,0.0,0.0
3380000,3300000,0.0,0.0,0.0,0.0,0.0,0.0,0.0,0.0,0.0,0.0,0.0,0.0,0.0,-0.0033647933,0.0,0.0,nan,0.0,0.0,0.0,0.0,0.0,-0.0014933432,0.004671648,0.0041480362,0.012095099,0.010201886,-3.9100647e-05,0.0,0.0,0.0,0.0,0.0,0.0
3388000,3308000,0.0,0.0,0.0,0.0,0.0,0.0,0.0,0.0,0.0,0.0,0.0,0.0,0.0,-0.0033647933,0.0,0.0,nan,0.0,0.0,0.0,0.0,0.0,-0.0014933432,0.004671648,0.0041480362,0.0128887845,-7.738173e-05,-0.00027608871,0.0,0.0,0.0,0.0,0.0,0.0
3396000,3316000,0.0,0.0,0.0,0.0,0.0,0.0,0.0,0.0,0.0,0.0,0.0,0.0,0.0,-0.0033647933,0.0,0.0,nan,0.0,0.0,0.0,0.0,0.0,-0.0014933432,0.004671648,0.0041480362,0.010322128,0.03554569,0.0004930496,0.0,0.0,0.0,0.0,0.0,0.0
3404000,3324000,0.0045529217,-0.0012843244,-0.04490598,3.5859477e-05,-9.782522e-06,488.1035,0.0,0.0,0.0,0.0,0.0,0.0,0.0,-0.032597944,0.0,0.0,nan,0.0,0.0,0.0,0.0,0.0,-0.0014933432,0.004671648,0.0041480362,0.016150381,0.016529754,-1.4305115e-06,0.0,0.0,0.0,0.0,0.0,0.0
3412000,3332000,0.0045529217,-0.0012843244,-0.04490598,3.5859477e-05,-9.782522e-06,488.1035,0.0,0.0,0.0,0.0,0.0,0.0,0.0,-0.032597944,0.0,0.0,nan,0.0,0.0,0.0,0.0,0.0,-0.0014933432,0.004671648,0.0041480362,9.7753014e-05,0.021977127,0.00045394897,0.0,0.0,0.0,0.0,0.0,0.0
3420000,3340000,0.0045529217,-0.0012843244,-0.04490598,3.5859477e-05,-9.782522e-06,488.1035,0.0,0.0,0.0,0.0,0.0,0.0,0.0,-0.032597944,0.0,0.0,nan,0.0,0.0,0.0,0.0,0.0,-0.0014933432,0.004671648,0.0041480362,-0.013122613,-0.024642706,-0.0003080368,0.0,0.0,0.0,0.0,0.0,0.0
3428000,3348000,0.0045529217,-0.0012843244,-0.04490598,3.5859477e-05,-9.782522e-06,488.1035,0.0,0.0,0.0,0.0,0.0,0.0,0.0,-0.032597944,0.0,0.0,nan,0.0,0.0,0.0,0.0,0.0,-0.0014933432,0.004671648,0.0041480362,0.006548234,0.034614205,0.00055742264,0.0,0.0,0.0,0.0,0.0,0.0
3436000,3356000,0.0045529217,-0.0012843244,-0.04490598,3.5859477e-05,-9.782522e-06,488.1035,0.0,0.0,0.0,0.0,0.0,0.0,0.0,-0.032597944,0.0,0.0,nan,0.0,0.0,0.0,0.0,-0.004692197,0.0022961916,0.0058100075,0.006685853,0.0059191734,-0.0013893098,-0.00015687943,0.0,0.0,0.0,0.0,0.0,0.0
3444000,3364000,0.0045529217,-0.0012843244,-0.04490598,3.5859477e-05,-9.782522e-06,488.1035,0.0,0.0,0.0,0.0,0.0,0.0,0.0,-0.032597944,0.0,0.0,nan,0.0,0.0,0.0,0.0,-0.004692197,0.0022961916,0.0058100075,0.006685853,-0.0201318,-0.03910497,-0.00043439865,0.0,0.0,0.0,0.0,0.0,0.0
3452000,3372000,0.0045529217,-0.0012843244,-0.04490598,3.5859477e-05,-9.782522e-06,488.1035,0.0,0.0,0.0,0.0,0.0,0.0,0.0,-0.032597944,0.0,0.0,nan,0.0,0.0,0.0,0.0,-0.004692197,0.0022961916,0.0058100075,0.006685853,-0.026084384,-0.014974207,0.00022220612,0.0,0.0,0.0,0.0,0.0,0.0
3460000,3380000,0.0045529217,-0.0012843244,-0.04490598,3.5859477e-05,-9.782522e-06,488.1035,0.0,0.0,0.0,0.0,0.0,0.0,0.0,0.06782653,0.0,0.0,nan,0.0,0.0,0.0,0.0,-0.004692197,0.0022961916,0.0058100075,0.006685853,-0.0062662642,0.027554736,0.0006365776,0.0,0.0,0.0,0.0,0.0,0.0
3468000,3388000,0.0045529217,-0.0012843244,-0.04490598,3.5859477e-05,-9.782522e-06,488.1035,0.0,0.0,0.0,0.0,0.0,0.0,0.0,0.06782653,0.0,0.0,nan,0.0,0.0,0.0,0.0,-0.004692197,0.0022961916,0.0058100075,0.006685853,0.008231416,0.010264143,1.3828278e-05,0.0,0.0,0.0,0.0,0.0,0.0
3476000,3396000,0.0045529217,-0.0012843244,-0.04490598,3.5859477e-05,-9.782522e-06,488.1035,0.0,0.0,0.0,0.0,0.0,0.0,0.0,0.06782653,0.0,0.0,nan,0.0,0.0,0.0,0.0,-0.004692197,0.0022961916,0.0058100075,0.006685853,0.0053647906,-0.00044234097,-0.00012683868,0.0,0.0,0.0,0.0,0.0,0.0
3484000,3404000,0.0045529217,-0.0012843244,-0.04490598,3.5859477e-05,-9.782522e-06,488.1035,0.0,0.0,0.0,0.0,0.0,0.0,0.0,0.06782653,0.0,0.0,nan,0.0,0.0,0.0,0.0,-0.004692197,0.0022961916,0.0058100075,0.006685853,0.015710466,0.009058073,-0.00018024445,0.0,0.0,0.0,0.0,0.0,0.0
3492000,3412000,0.0045529217,-0.0012843244,-0.04490598,3.5859477e-05,-9.782522e-06,488.1035,0.0,0.0,0.0,0.0,0.0,0.0,0.0,0.06782653,0.0,0.0,nan,0.0,0.0,0.0,0.0,-0.004692197,0.0022961916,0.0058100075,0.006685853,0.004890034,0.023585662,0.00032758713,0.0,0.0,0.0,0.0,0.0,0.0
3500000,3420000,0.0045529217,-0.0012843244,-0.04490598,3.5859477e-05,-9.782522e-06,488.1035,0.0,0.0,0.0,0.0,0.0,0.0,0.0,0.06782653,0.0,0.0,nan,0.0,0.0,0.0,0.0,-0.004692197,0.0022961916,0.0058100075,0.006685853,0.007773744,0.001998037,-0.00013399124,0.0,0.0,0.0,0.0,0.0,0.0
3508000,3428000,0.0045529217,-0.0012843244,-0.04490598,3.5859477e-05,-9.782522e-06,488.1035,0.0,0.0,0.0,0.0,0.0,0.0,0.0,0.06782653,0.0,0.0,nan,0.0,0.0,0.0,0.0,0.007534504,-0.0014816299,0.0023385137,0.0028082132,0.0016190726,0.020833686,0.00035333633,0.0,0.0,0.0,0.0,0.0,0.0
3516000,3436000,0.0045529217,-0.0012843244,-0.04490598,3.5859477e-05,-9.782522e-06,488.1035,0.0,0.0,0.0,0.0,0.0,0.0,0.0,0.06782653,0.0,0.0,nan,0.0,0.0,0.0,0.0,0.007534504,-0.0014816299,0.0023385137,0.0028082132,-0.022673631,0.013758808,0.0007314682,0.0,0.0,0.0,0.0,0.0,0.0
3524000,3444000,0.0045529217,-0.0012843244,-0.04490598,3.5859477e-05,-9.782522e-06,488.1035,0.0,0.0,0.0,0.0,0.0,0.0,0.0,-0.06991326,0.0,0.0,nan,0.0,0.0,0.0,0.0,0.007534504,-0.0014816299,0.0023385137,0.0028082132,-0.013555558,0.0033209473,0.0003528595,0.0,0.0,0.0,0.0,0.0,0.0
3532000,3452000,0.0045529217,-0.0012843244,-0.04490598,3.5859477e-05,-9.782522e-06,488.1035,0.0,0.0,0.0,0.0,0.0,0.0,0.0,-0.06991326,0.0,0.0,nan,0.0,0.0,0.0,0.0,0.007534504,-0.0014816299,0.0023385137,0.0028082132,0.005366368,-0.0021626055,-0.00016212463,0.0,0.0,0.0,0.0,0.0,0.0
3540000,3460000,0.0045529217,-0.0012843244,-0.04490598,3.5859477e-05,-9.782522e-06,488.1035,0.0,0.0,0.0,0.0,0.0,0.0,0.0,-0.06991326,0.0,0.0,nan,0.0,0.0,0.0,0.0,0.007534504,-0.0014816299,0.0023385137,0.0028082132,-0.015238747,-0.018848538,-6.67572e-05,0.0,0.0,0.0,0.0,0.0,0.0
3548000,3468000,0.0045529217,-0.0012843244,-0.04490598,3.5859477e-05,-9.782522e-06,488.1035,0.0,0.0,0.0,0.0,0.0,0.0,0.0,-0.06991326,0.0,0.0,nan,0.0,0.0,0.0,0.0,0.007534504,-0.0014816299,0.0023385137,0.0028082132,-0.028505694,-0.016167924,0.00025558472,0.0,0.0,0.0,0.0,0.0,0.0
3556000,3476000,0.0045529217,-0.0012843244,-0.04490598,3.5859477e-05,-9.782522e-06,488.1035,0.0,0.0,0.0,0.0,0.0,0.0,0.0,-0.06991326,0.0,0.0,nan,0.0,0.0,0.0,0.0,0.007534504,-0.0014816299,0.0023385137,0.0028082132,-0.017648794,-0.008953139,0.00019407272,0.0,0.0,0.0,0.0,0.0,0.0
3564000,3484000,0.0045529217,-0.0012843244,-0.04490598,3.5859477e-05,-9.782522e-06,488.1035,0.0,0.0,0.0,0.0,0.0,0.0,0.0,-0.06991326,0.0,0.0,nan,0.0,0.0,0.0,0.0,0.007534504,-0.0014816299,0.0023385137,0.0028082132,-0.0022770874,0.009955883,0.00024366379,0.0,0.0,0.0,0.0,0.0,0.0
3572000,3492000,0.0045529217,-0.0012843244,-0.04490598,3.5859477e-05,-9.782522e-06,488.1035,0.0,0.0,0.0,0.0,0.0,0.0,0.0,-0.06991326,0.0,0.0,nan,0.0,0.0,0.0,0.0,0.007534504,-0.0014816299,0.0023385137,0.0028082132,-0.006628977,-0.014676735,-0.00015687943,0.0,0.0,0.0,0.0,0.0,0.0
3580000,3500000,0.0045529217,-0.0012843244,-0.04490598,3.5859477e-05,-9.782522e-06,488.1035,0.0,0.0,0.0,0.0,0.0,0.0,0.0,-0.012207527,0.0,0.0,nan,0.0,0.0,0.0,0.0,-0.0057611465,0.0010938975,-0.00088223815,-0.0032991767,0.010796653,0.003348738,-0.0001821518,0.0,0.0,0.0,0.0,0.0,0.0
3588000,3508000,0.0045529217,-0.0012843244,-0.04490598,3.5859477e-05,-9.782522e-06,488.1035,0.0,0.0,0.0,0.0,0.0,0.0,0.0,-0.012207527,0.0,0.0,nan,0.0,0.0,0.0,0.0,-0.0057611465,0.0010938975,-0.00088223815,-0.0032991767,0.008400116,-0.0034542382,-0.00026082993,0.0,0.0,0.0,0.0,0.0,0.0
3596000,3516000,0.0045529217,-0.0012843244,-0.04490598,3.5859477e-05,-9.782522e-06,488.1035,0.0,0.0,0.0,0.0,0.0,0.0,0.0,-0.012207527,0.0,0.0,nan,0.0,0.0,0.0,0.0,-0.0057611465,0.0010938975,-0.00088223815,-0.0032991767,-0.0024483018,0.007841483,0.00020742416,0.0,0.0,0.0,0.0,0.0,0.0
3604000,3524000,0.0045529217,-0.0012843244,-0.04490598,3.5859477e-05,-9.782522e-06,488.1035,0.0,0.0,0.0,0.0,0.0,0.0,0.0,-0.012207527,0.0,0.0,nan,0.0,0.0,0.0,0.0,-0.0057611465,0.0010938975,-0.00088223815,-0.0032991767,-0.025423462,-0.00713408,0.0003938675,0.0,0.0,0.0,0.0,0.0,0.0
3612000,3532000,0.0045529217,-0.0012843244,-0.04490598,3.5859477e-05,-9.782522e-06,488.1035,0.0,0.0,0.0,0.0,0.0,0.0,0.0,-0.012207527,0.0,0.0,nan,0.0,0.0,0.0,0.0,-0.0057611465,0.0010938975,-0.00088223815,-0.0032991767,-0.017072098,0.02196744,0.0007762909,0.0,0.0,0.0,0.0,0.0,0.0
3620000,3540000,0.0045529217,-0.0012843244,-0.04490598,3.5859477e-05,-9.782522e-06,488.1035,0.0,0.0,0.0,0.0,0.0,0.0,0.0,-0.012207527,0.0,0.0,nan,0.0,0.0,0.0,0.0,-0.0057611465,0.0010938975,-0.00088223815,-0.0032991767,-0.013786318,-0.012136459,4.9114227e-05,0.0,0.0,0.0,0.0,0.0,0.0
3628000,3548000,0.0045529217,-0.0012843244,-0.04490598,3.5859477e-05,-9.782522e-06,488.1035,0.0,0.0,0.0,0.0,0.0,0.0,0.0,-0.012207527,0.0,0.0,nan,0.0,0.0,0.0,0.0,-0.0057611465,0.0010938975,-0.00088223815,-0.0032991767,-0.016474204,-0.008481219,0.00018453598,0.0,0.0,0.0,0.0,0.0,0.0
3636000,3556000,0.0045529217,-0.0012843244,-0.04490598,3.5859477e-05,-9.782522e-06,488.1035,0.0,0.0,0.0,0.0,0.0,0.0,0.0,-0.012207527,0.0,0.0,nan,0.0,0.0,0.0,0.0,-0.0057611465,0.0010938975,-0.00088223815,-0.0032991767,-0.015628448,0.023415789,0.0007748604,0.0,0.0,0.0,0.0,0.0,0.0
3644000,3564000,0.0045529217,-0.0012843244,-0.04490598,3.5859477e-05,-9.782522e-06,488.1035,0.0,0.0,0.0,0.0,0.0,0.0,0.0,-0.0024882832,0.0,0.0,nan,0.0,0.0,0.0,0.0,-0.0057611465,0.0010938975,-0.00088223815,-0.0032991767,-0.028692026,0.015359476,0.00089359283,0.0,0.0,0.0,0.0,0.0,0.0
3652000,3572000,0.0045529217,-0.0012843244,-0.04490598,3.5859477e-05,-9.782522e-06,488.1035,0.0,0.0,0.0,0.0,0.0,0.0,0.0,-0.0024882832,0.0,0.0,nan,0.0,0.0,0.0,0.0,0.011204839,-0.0022363253,0.0032760948,0.0031591356,-0.005859619,0.0065214336,0.0002579689,0.0,0.0,0.0,0.0,0.0,0.0
3660000,3580000,0.0045529217,-0.0012843244,-0.04490598,3.5859477e-05,-9.782522e-06,488.1035,0.0,0.0,0.0,0.0,0.0,0.0,0.0,-0.0024882832,0.0,0.0,nan,0.0,0.0,0.0,0.0,0.011204839,-0.0022363253,0.0032760948,0.0031591356,0.028800003,0.02347894,-0.0002541542,0.0,0.0,0.0,0.0,0.0,0.0
3668000,3588000,0.0045529217,-0.0012843244,-0.04490598,3.5859477e-05,-9.782522e-06,488.1035,0.0,0.0,0.0,0.0,0.0,0.0,0.0,-0.0024882832,0.0,0.0,nan,0.0,0.0,0.0,0.0,0.011204839,-0.0022363253,0.0032760948,0.0031591356,0.00645273,-0.013407677,-0.00042390823,0.0,0.0,0.0,0.0,0.0,0.0
3676000,3596000,0.0045529217,-0.0012843244,-0.04490598,3.5859477e-05,-9.782522e-06,488.1035,0.0,0.0,0.0,0.0,0.0,0.0,0.0,-0.0024882832,0.0,0.0,nan,0.0,0.0,0.0,0.0,0.011204839,-0.0022363253,0.0032760948,0.0031591356,-0.005271353,-0.023743272,-0.00038194656,0.0,0.0,0.0,0.0,0.0,0.0
3684000,3604000,0.0045529217,-0.0012843244,-0.04490598,3.5859477e-05,-9.782522e-06,488.1035,0.0,0.0,0.0,0.0,0.0,0.0,0.0,-0.0024882832,0.0,0.0,nan,0.0,0.0,0.0,0.0,0.011204839,-0.0022363253,0.0032760948,0.0031591356,-0.004785344,-0.010683879,-0.00011110306,0.0,0.0,0.0,0.0,0.0,0.0
3692000,3612000,0.0045529217,-0.0012843244,-0.04490598,3.5859477e-05,-9.782522e-06,488.1035,0.0,0.0,0.0,0.0,0.0,0.0,0.0,-0.0024882832,0.0,0.0,nan,0.0,0.0,0.0,0.0,0.011204839,-0.0022363253,0.0032760948,0.0031591356,-0.0073361564,-0.010140255,-4.4345856e-05,0.0,0.0,0.0,0.0,0.0,0.0
3700000,3620000,0.0045529217,-0.0012843244,-0.04490598,3.5859477e-05,-9.782522e-06,488.1035,0.0,0.0,0.0,0.0,0.0,0.0,0.0,0.01889858,0.0,0.0,nan,0.0,0.0,0.0,0.0,0.011204839,-0.0022363253,0.0032760948,0.0031591356,-0.0022530481,-0.023290664,-0.0004415512,0.0,0.0,0.0,0.0,0.0,0.0
3708000,3628000,0.0045529217,-0.0012843244,-0.04490598,3.5859477e-05,-9.782522e-06,488.1035,0.0,0.0,0.0,0.0,0.0,0.0,0.0,0.01889858,0.0,0.0,nan,0.0,0.0,0.0,0.0,0.011204839,-0.0022363253,0.0032760948,0.0031591356,-0.02228698,-0.018186942,0.00010442734,0.0,0.0,0.0,0.0,0.0,0.0
3716000,3636000,0.0045529217,-0.0012843244,-0.04490598,3.5859477e-05,-9.782522e-06,488.1035,0.0,0.0,0.0,0.0,0.0,0.0,0.0,0.01889858,0.0,0.0,nan,0.0,0.0,0.0,0.0,0.011204839,-0.0022363253,0.0032760948,0.0031591356,-0.010284029,0.008804247,0.0004014969,0.0,0.0,0.0,0.0,0.0,0.0
3724000,3644000,0.0045529217,-0.0012843244,-0.04490598,3.5859477e-05,-9.782522e-06,488.1035,0.0,0.0,0.0,0.0,0.0,0.0,0.0,0.01889858,0.0,0.0,nan,0.0,0.0,0.0,0.0,0.0013122559,-0.00039049145,-0.0001808554,-0.0052615106,-0.03510058,-0.011283681,0.00051164627,0.0,0.0,0.0,0.0,0.0,0.0
3732000,3652000,0.0045529217,-0.0012843244,-0.04490598,3.5859477e-05,-9.782522e-06,488.1035,0.0,0.0,0.0,0.0,0.0,0.0,0.0,0.01889858,0.0,0.0,nan,0.0,0.0,0.0,0.0,0.0013122559,-0.00039049145,-0.0001808554,-0.0052615106,-0.021380307,0.008536726,0.0006337166,0.0,0.0,0.0,0.0,0.0,0.0
3740000,3660000,0.0045529217,-0.0012843244,-0.04490598,3.5859477e-05,-9.782522e-06,488.1035,0.0,0.0,0.0,0.0,0.0,0.0,0.0,0.01889858,0.0,0.0,nan,0.0,0.0,0.0,0.0,0.0013122559,-0.00039049145,-0.0001808554,-0.0052615106,-0.015227433,0.019123793,0.0006990433,0.0,0.0,0.0,0.0,0.0,0.0
3748000,3668000,0.0045529217,-0.0012843244,-0.04490598,3.5859477e-05,-9.782522e-06,488.1035,0.0,0.0,0.0,0.0,0.0,0.0,0.0,0.01889858,0.0,0.0,nan,0.0,0.0,0.0,0.0,0.0013122559,-0.00039049145,-0.0001808554,-0.0052615106,-0.023443347,0.020028919,0.0008907318,0.0,0.0,0.0,0.0,0.0,0.0
3756000,3676000,0.0045529217,-0.0012843244,-0.04490598,3.5859477e-05,-9.782522e-06,488.1035,0.0,0.0,0.0,0.0,0.0,0.0,0.0,0.01889858,0.0,0.0,nan,0.0,0.0,0.0,0.0,0.0013122559,-0.00039049145,-0.0001808554,-0.0052615106,0.0016777664,0.014554039,0.00023889542,0.0,0.0,0.0,0.0,0.0,0.0
3764000,3684000,0.0045529217,-0.0012843244,-0.04490598,3.5859477e-05,-9.782522e-06,488.1035,0.0,0.0,0.0,0.0,0.0,0.0,0.0,0.04235833,0.0,0.0,nan,0.0,0.0,0.0,0.0,0.0013122559,-0.00039049145,-0.0001808554,-0.0052615106,-0.007599162,0.0065841377,0.0003027916,0.0,0.0,0.0,0.0,0.0,0.0
3772000,3692000,0.0045529217,-0.0012843244,-0.04490598,3.5859477e-05,-9.782522e-06,488.1035,0.0,0.0,0.0,0.0,0.0,0.0,0.0,0.04235833,0.0,0.0,nan,0.0,0.0,0.0,0.0,0.0013122559,-0.00039049145,-0.0001808554,-0.0052615106,-0.037880752,0.0040345937,0.0008864403,0.0,0.0,0.0,0.0,0.0,0.0
3780000,3700000,0.0045529217,-0.0012843244,-0.04490598,3.5859477e-05,-9.782522e-06,488.1035,0.0,0.0,0.0,0.0,0.0,0.0,0.0,0.04235833,0.0,0.0,nan,0.0,0.0,0.0,0.0,0.0013122559,-0.00039049145,-0.0001808554,-0.0052615106,-0.0070299394,0.008573234,0.00032901764,0.0,0.0,0.0,0.0,0.0,0.0
3788000,3708000,0.0045529217,-0.0012843244,-0.04490598,3.5859477e-05,-9.782522e-06,488.1035,0.0,0.0,0.0,0.0,0.0,0.0,0.0,0.04235833,0.0,0.0,nan,0.0,0.0,0.0,0.0,0.0013122559,-0.00039049145,-0.0001808554,-0.0052615106,0.0047626905,-0.008433044,-0.00028562546,0.0,0.0,0.0,0.0,0.0,0.0
3796000,3716000,0.0045529217,-0.0012843244,-0.04490598,3.5859477e-05,-9.782522e-06,488.1035,0.0,0.0,0.0,0.0,0.0,0.0,0.0,0.04235833,0.0,0.0,nan,0.0,0.0,0.0,0.0,0.0024383068,-0.00045653805,0.0043260306,0.0012111664,-0.026652869,-0.0025976002,0.0005378723,0.0,0.0,0.0,0.0,0.0,0.0
3804000,3724000,-9.693914e-05,0.0030977237,0.012804065,7.964299e-06,0.00036839256,488.11032,0.0,0.0,0.0,0.0,0.0,0.0,0.0,0.04235833,0.0,0.0,nan,0.0,0.0,0.0,0.0,0.0024383068,-0.00045653805,0.0043260306,0.0012111664,-0.024767494,-0.030166075,-9.679794e-05,0.0,0.0,0.0,0.0,0.0,0.0
3812000,3732000,-9.693914e-05,0.0030977237,0.012804065,7.964299e-06,0.00036839256,488.11032,0.0,0.0,0.0,0.0,0.0,0.0,0.0,0.04235833,0.0,0.0,nan,0.0,0.0,0.0,0.0,0.0024383068,-0.00045653805,0.0043260306,0.0012111664,-0.026696285,0.00027365983,0.0005955696,0.0,0.0,0.0,0.0,0.0,0.0
3820000,3740000,-9.693914e-05,0.0030977237,0.012804065,7.964299e-06,0.00036839256,488.11032,0.0,0.0,0.0,0.0,0.0,0.0,0.0,-0.07171367,0.0,0.0,nan,0.0,0.0,0.0,0.0,0.0024383068,-0.00045653805,0.0043260306,0.0012111664,-0.01712632,0.005637586,0.0004901886,0.0,0.0,0.0,0.0,0.0,0.0
3828000,3748000,-9.693914e-05,0.0030977237,0.012804065,7.964299e-06,0.00036839256,488.11032,0.0,0.0,0.0,0.0,0.0,0.0,0.0,-0.07171367,0.0,0.0,nan,0.0,0.0,0.0,0.0,0.0024383068,-0.00045653805,0.0043260306,0.0012111664,-0.0028537791,-0.022143424,-0.00039958954,0.0,0.0,0.0,0.0,0.0,0.0
3836000,3756000,-9.693914e-05,0.0030977237,0.012804065,7.964299e-06,0.00036839256,488.11032,0.0,0.0,0.0,0.0,0.0,0.0,0.0,-0.07171367,0.0,0.0,nan,0.0,0.0,0.0,0.0,0.0024383068,-0.00045653805,0.0043260306,0.0012111664,-0.02437575,-0.00082327425,0.000518322,0.0,0.0,0.0,0.0,0.0,0.0
3844000,3764000,-9.693914e-05,0.0030977237,0.012804065,7.964299e-06,0.00036839256,488.11032,0.0,0.0,0.0,0.0,0.0,0.0,0.0,-0.07171367,0.0,0.0,nan,0.0,0.0,0.0,0.0,0.0024383068,-0.00045653805,0.0043260306,0.0012111664,-0.008215798,-0.00774695,3.0040741e-05,0.0,0.0,0.0,0.0,0.0,0.0
3852000,3772000,-9.693914e-05,0.0030977237,0.012804065,7.964299e-06,0.00036839256,488.11032,0.0,0.0,0.0,0.0,0.0,0.0,0.0,-0.07171367,0.0,0.0,nan,0.0,0.0,0.0,0.0,0.0024383068,-0.00045653805,0.0043260306,0.0012111664,-0.029086102,0.023037195,0.0010595322,0.0,0.0,0.0,0.0,0.0,0.0
3860000,3780000,-9.693914e-05,0.0030977237,0.012804065,7.964299e-06,0.00036839256,488.11032,0.0,0.0,0.0,0.0,0.0,0.0,0.0,-0.07171367,0.0,0.0,nan,0.0,0.0,0.0,0.0,0.0024383068,-0.00045653805,0.0043260306,0.0012111664,-0.017228061,-0.005653441,0.00026988983,0.0,0.0,0.0,0.0,0.0,0.0
3868000,3788000,-9.693914e-05,0.0030977237,0.012804065,7.964299e-06,0.00036839256,488.11032,0.0,0.0,0.0,0.0,0.0,0.0,0.0,-0.07171367,0.0,0.0,nan,0.0,0.0,0.0,0.0,0.023852706,-0.004872312,0.001972258,0.0019359887,-0.027661772,-0.008679554,0.00042581558,0.0,0.0,0.0,0.0,0.0,0.0
3876000,3796000,-9.693914e-05,0.0030977237,0.012804065,7.964299e-06,0.00036839256,488.11032,0.0,0.0,0.0,0.0,0.0,0.0,0.0,-0.07171367,0.0,0.0,nan,0.0,0.0,0.0,0.0,0.023852706,-0.004872312,0.001972258,0.0019359887,-0.014624165,0.010204047,0.00052547455,0.0,0.0,0.0,0.0,0.0,0.0
3884000,3804000,-9.693914e-05,0.0030977237,0.012804065,7.964299e-06,0.00036839256,488.11032,0.0,0.0,0.0,0.0,0.0,0.0,0.0,-0.04867113,0.0,0.0,nan,0.0,0.0,0.0,0.0,0.023852706,-0.004872312,0.001972258,0.0019359887,0.0034289695,0.013948858,0.000187397,0.0,0.0,0.0,0.0,0.0,0.0
3892000,3812000,-9.693914e-05,0.0030977237,0.012804065,7.964299e-06,0.00036839256,488.11032,0.0,0.0,0.0,0.0,0.0,0.0,0.0,-0.04867113,0.0,0.0,nan,0.0,0.0,0.0,0.0,0.023852706,-0.004872312,0.001972258,0.0019359887,-0.02771787,0.01891911,0.00096845627,0.0,0.0,0.0,0.0,0.0,0.0
3900000,3820000,-9.693914e-05,0.0030977237,0.012804065,7.964299e-06,0.00036839256,488.11032,0.0,0.0,0.0,0.0,0.0,0.0,0.0,-0.04867113,0.0,0.0,nan,0.0,0.0,0.0,0.0,0.023852706,-0.004872312,0.001972258,0.0019359887,-0.0010128692,0.021159708,0.00042247772,0.0,0.0,0.0,0.0,0.0,0.0
3908000,3828000,-9.693914e-05,0.0030977237,0.012804065,7.964299e-06,0.00036839256,488.11032,0.0,0.0,0.0,0.0,0.0,0.0,0.0,-0.04867113,0.0,0.0,nan,0.0,0.0,0.0,0.0,0.023852706,-0.004872312,0.001972258,0.0019359887,0.0025463179,0.011015847,0.00015306473,0.0,0.0,0.0,0.0,0.0,0.0
3916000,3836000,-9.693914e-05,0.0030977237,0.012804065,7.964299e-06,0.00036839256,488.11032,0.0,0.0,0.0,0.0,0.0,0.0,0.0,-0.04867113,0.0,0.0,nan,0.0,0.0,0.0,0.0,0.023852706,-0.004872312,0.001972258,0.0019359887,-0.04533235,0.011787385,0.001185894,0.0,0.0,0.0,0.0,0.0,0.0
3924000,3844000,-9.693914e-05,0.0030977237,0.012804065,7.964299e-06,0.00036839256,488.11032,0.0,0.0,0.0,0.0,0.0,0.0,0.0,-0.04867113,0.0,0.0,nan,0.0,0.0,0.0,0.0,0.023852706,-0.004872312,0.001972258,0.0019359887,-0.045030504,-0.0067430437,0.00081682205,0.0,0.0,0.0,0.0,0.0,0.0
3932000,3852000,-9.693914e-05,0.0030977237,0.012804065,7.964299e-06,0.00036839256,488.11032,0.0,0.0,0.0,0.0,0.0,0.0,0.0,-0.04867113,0.0,0.0,nan,0.0,0.0,0.0,0.0,0.023852706,-0.004872312,0.001972258,0.0019359887,-0.048350617,-0.012115836,0.00076913834,0.0,0.0,0.0,0.0,0.0,0.0
3940000,3860000,-9.693914e-05,0.0030977237,0.012804065,7.964299e-06,0.00036839256,488.11032,0.0,0.0,0.0,0.0,0.0,0.0,0.0,0.06887816,0.0,0.0,nan,0.0,0.0,0.0,0.0,0.014658332,-0.002998353,0.0028952658,0.0013812184,-0.014119605,0.0012831688,0.00034713745,0.0,0.0,0.0,0.0,0.0,0.0
3948000,3868000,-9.693914e-05,0.0030977237,0.012804065,7.964299e-06,0.00036839256,488.11032,0.0,0.0,0.0,0.0,0.0,0.0,0.0,0.06887816,0.0,0.0,nan,0.0,0.0,0.0,0.0,0.014658332,-0.002998353,0.0028952658,0.0013812184,0.008656204,0.021044835,0.00018930435,0.0,0.0,0.0,0.0,0.0,0.0
3956000,3876000,-9.693914e-05,0.0030977237,0.012804065,7.964299e-06,0.00036839256,488.11032,0.0,0.0,0.0,0.0,0.0,0.0,0.0,0.06887816,0.0,0.0,nan,0.0,0.0,0.0,0.0,0.014658332,-0.002998353,0.0028952658,0.0013812184,-0.026192037,0.00530985,0.0006904602,0.0,0.0,0.0,0.0,0.0,0.0
3964000,3884000,-9.693914e-05,0.0030977237,0.012804065,7.964299e-06,0.00036839256,488.11032,0.0,0.0,0.0,0.0,0.0,0.0,0.0,0.06887816,0.0,0.0,nan,0.0,0.0,0.0,0.0,0.014658332,-0.002998353,0.0028952658,0.0013812184,-0.056911506,-0.0056867003,0.0010685921,0.0,0.0,0.0,0.0,0.0,0.0
3972000,3892000,-9.693914e-05,0.0030977237,0.012804065,7.964299e-06,0.00036839256,488.11032,0.0,0.0,0.0,0.0,0.0,0.0,0.0,0.06887816,0.0,0.0,nan,0.0,0.0,0.0,0.0,0.014658332,-0.002998353,0.0028952658,0.0013812184,-0.020871403,0.01718983,0.0008010864,0.0,0.0,0.0,0.0,0.0,0.0
3980000,3900000,-9.693914e-05,0.0030977237,0.012804065,7.964299e-06,0.00036839256,488.11032,0.0,0.0,0.0,0.0,0.0,0.0,0.0,0.06887816,0.0,0.0,nan,0.0,0.0,0.0,0.0,0.014658332,-0.002998353,0.0028952658,0.0013812184,-0.03500186,0.021526635,0.0011744499,0.0,0.0,0.0,0.0,0.0,0.0
3988000,3908000,-9.693914e-05,0.0030977237,0.012804065,7.964299e-06,0.00036839256,488.11032,0.0,0.0,0.0,0.0,0.0,0.0,0.0,0.06887816,0.0,0.0,nan,0.0,0.0,0.0,0.0,0.014658332,-0.002998353,0.0028952658,0.0013812184,-0.026029784,0.011116207,0.0007996559,0.0,0.0,0.0,0.0,0.0,0.0
3996000,3916000,-9.693914e-05,0.0030977237,0.012804065,7.964299e-06,0.00036839256,488.11032,0.0,0.0,0.0,0.0,0.0,0.0,0.0,0.06887816,0.0,0.0,nan,0.0,0.0,0.0,0.0,0.014658332,-0.002998353,0.0028952658,0.0013812184,-0.019995421,-0.018686578,6.4373016e-05,0.0,0.0,0.0,0.0,0.0,0.0
4004000,3924000,-9.693914e-05,0.0030977237,0.012804065,7.964299e-06,0.00036839256,488.11032,0.0,0.0,0.0,0.0,0.0,0.0,0.0,0.1441409,0.0,0.0,nan,0.0,0.0,0.0,0.0,0.014658332,-0.002998353,0.0028952658,0.0013812184,-0.011022303,-0.0371387,-0.0005545616,0.0,0.0,0.0,0.0,0.0,0.0
4012000,3932000,-9.693914e-05,0.0030977237,0.012804065,7.964299e-06,0.00036839256,488.11032,0.0,0.0,0.0,0.0,0.0,0.0,0.0,0.1441409,0.0,0.0,nan,0.0,0.0,0.0,0.0,0.011301756,-0.0022416813,-0.0035363138,0.0016944706,-0.0026086457,0.005735323,0.00017499924,0.0,0.0,0.0,0.0,0.0,0.0
4020000,3940000,-9.693914e-05,0.0030977237,0.012804065,7.964299e-06,0.00036839256,488.11032,0.0,0.0,0.0,0.0,0.0,0.0,0.0,0.1441409,0.0,0.0,nan,0.0,0.0,0.0,0.0,0.011301756,-0.0022416813,-0.0035363138,0.0016944706,-0.027139276,0.023093536,0.0010480881,0.0,0.0,0.0,0.0,0.0,0.0
4028000,3948000,-9.693914e-05,0.0030977237,0.012804065,7.964299e-06,0.00036839256,488.11032,0.0,0.0,0.0,0.0,0.0,0.0,0.0,0.1441409,0.0,0.0,nan,0.0,0.0,0.0,0.0,0.011301756,-0.0022416813,-0.0035363138,0.0016944706,0.0004614126,-0.0028129816,-6.771088e-05,0.0,0.0,0.0,0.0,0.0,0.0
4036000,3956000,-9.693914e-05,0.0030977237,0.012804065,7.964299e-06,0.00036839256,488.11032,0.0,0.0,0.0,0.0,0.0,0.0,0.0,0.1441409,0.0,0.0,nan,0.0,0.0,0.0,0.0,0.011301756,-0.0022416813,-0.0035363138,0.0016944706,-0.0031126663,-0.014891282,-0.0002360344,0.0,0.0,0.0,0.0,0.0,0.0
4044000,3964000,-9.693914e-05,0.0030977237,0.012804065,7.964299e-06,0.00036839256,488.11032,0.0,0.0,0.0,0.0,0.0,0.0,0.0,0.1441409,0.0,0.0,nan,0.0,0.0,0.0,0.0,0.011301756,-0.0022416813,-0.0035363138,0.0016944706,-0.0045937262,0.0061082393,0.00022411346,0.0,0.0,0.0,0.0,0.0,0.0
4052000,3972000,-9.693914e-05,0.0030977237,0.012804065,7.964299e-06,0.00036839256,488.11032,0.0,0.0,0.0,0.0,0.0,0.0,0.0,0.1441409,0.0,0.0,nan,0.0,0.0,0.0,0.0,0.011301756,-0.0022416813,-0.0035363138,0.0016944706,-0.014865696,-0.0026446432,0.00028181076,0.0,0.0,0.0,0.0,0.0,0.0
4060000,3980000,-9.693914e-05,0.0030977237,0.012804065,7.964299e-06,0.00036839256,488.11032,0.0,0.0,0.0,0.0,0.0,0.0,0.0,-0.050381094,0.0,0.0,nan,0.0,0.0,0.0,0.0,0.011301756,-0.0022416813,-0.0035363138,0.0016944706,-0.0036520716,0.0025548488,0.00013303757,0.0,0.0,0.0,0.0,0.0,0.0
4068000,3988000,-9.693914e-05,0.0030977237,0.012804065,7.964299e-06,0.00036839256,488.11032,0.0,0.0,0.0,0.0,0.0,0.0,0.0,-0.050381094,0.0,0.0,nan,0.0,0.0,0.0,0.0,0.011301756,-0.0022416813,-0.0035363138,0.0016944706,-0.008315394,-0.0067632794,5.1498413e-05,0.0,0.0,0.0,0.0,0.0,0.0
4076000,3996000,-9.693914e-05,0.0030977237,0.012804065,7.964299e-06,0.00036839256,488.11032,0.0,0.0,0.0,0.0,0.0,0.0,0.0,-0.050381094,0.0,0.0,nan,0.0,0.0,0.0,0.0,0.011301756,-0.0022416813,-0.0035363138,0.0016944706,-0.021259885,-0.009625301,0.00027227402,0.0,0.0,0.0,0.0,0.0,0.0
4084000,4004000,-9.693914e-05,0.0030977237,0.012804065,7.964299e-06,0.00036839256,488.11032,0.0,0.0,0.0,0.0,0.0,0.0,0.0,-0.050381094,0.0,0.0,nan,0.0,0.0,0.0,0.0,0.012599945,-0.0025654929,0.0032806247,0.002059728,-0.0060898475,-0.019609839,-0.00026988983,0.0,0.0,0.0,0.0,0.0,0.0
4092000,4012000,-9.693914e-05,0.0030977237,0.012804065,7.964299e-06,0.00036839256,488.11032,0.0,0.0,0.0,0.0,0.0,0.0,0.0,-0.050381094,0.0,0.0,nan,0.0,0.0,0.0,0.0,0.012599945,-0.0025654929,0.0032806247,0.002059728,-0.005106885,0.021688923,0.00052165985,0.0,0.0,0.0,0.0,0.0,0.0
4100000,4020000,-9.693914e-05,0.0030977237,0.012804065,7.964299e-06,0.00036839256,488.11032,0.0,0.0,0.0,0.0,0.0,0.0,0.0,-0.050381094,0.0,0.0,nan,0.0,0.0,0.0,0.0,0.012599945,-0.0025654929,0.0032806247,0.002059728,0.0007372461,0.0067354143,0.00011396408,0.0,0.0,0.0,0.0,0.0,0.0
4108000,4028000,-9.693914e-05,0.0030977237,0.012804065,7.964299e-06,0.00036839256,488.11032,0.0,0.0,0.0,0.0,0.0,0.0,0.0,-0.050381094,0.0,0.0,nan,0.0,0.0,0.0,0.0,0.012599945,-0.0025654929,0.0032806247,0.002059728,0.00018312223,0.01144208,0.00021648407,0.0,0.0,0.0,0.0,0.0,0.0
4116000,4036000,-9.693914e-05,0.0030977237,0.012804065,7.964299e-06,0.00036839256,488.11032,0.0,0.0,0.0,0.0,0.0,0.0,0.0,-0.050381094,0.0,0.0,nan,0.0,0.0,0.0,0.0,0.012599945,-0.0025654929,0.0032806247,0.002059728,-0.013390614,-0.00081317127,0.00028562546,0.0,0.0,0.0,0.0,0.0,0.0
4124000,4044000,-9.693914e-05,0.0030977237,0.012804065,7.964299e-06,0.00036839256,488.11032,0.0,0.0,0.0,0.0,0.0,0.0,0.0,-0.027190588,0.0,0.0,nan,0.0,0.0,0.0,0.0,0.012599945,-0.0025654929,0.0032806247,0.002059728,-0.0057537258,-0.01727669,-0.00022649765,0.0,0.0,0.0,0.0,0.0,0.0
4132000,4052000,-9.693914e-05,0.0030977237,0.012804065,7.964299e-06,0.00036839256,488.11032,0.0,0.0,0.0,0.0,0.0,0.0,0.0,-0.027190588,0.0,0.0,nan,0.0,0.0,0.0,0.0,0.012599945,-0.0025654929,0.0032806247,0.002059728,-0.007313378,0.019956455,0.00054216385,0.0,0.0,0.0,0.0,0.0,0.0
4140000,4060000,-9.693914e-05,0.0030977237,0.012804065,7.964299e-06,0.00036839256,488.11032,0.0,0.0,0.0,0.0,0.0,0.0,0.0,-0.027190588,0.0,0.0,nan,0.0,0.0,0.0,0.0,0.012599945,-0.0025654929,0.0032806247,0.002059728,-0.001275327,0.010085046,0.00022363663,0.0,0.0,0.0,0.0,0.0,0.0
4148000,4068000,-9.693914e-05,0.0030977237,0.012804065,7.964299e-06,0.00036839256,488.11032,0.0,0.0,0.0,0.0,0.0,0.0,0.0,-0.027190588,0.0,0.0,nan,0.0,0.0,0.0,0.0,0.012599945,-0.0025654929,0.0032806247,0.002059728,0.0027377084,0.0022355765,-2.1457672e-05,0.0,0.0,0.0,0.0,0.0,0.0
4156000,4076000,-9.693914e-05,0.0030977237,0.012804065,7.964299e-06,0.00036839256,488.11032,0.0,0.0,0.0,0.0,0.0,0.0,0.0,-0.027190588,0.0,0.0,nan,0.0,0.0,0.0,0.0,-0.0016014576,0.00041381922,-0.001982361,0.0039056838,-0.0056457184,-0.015464023,-0.00019025803,0.0,0.0,0.0,0.0,0.0,0.0
4164000,4084000,-9.693914e-05,0.0030977237,0.012804065,7.964299e-06,0.00036839256,488.11032,0.0,0.0,0.0,0.0,0.0,0.0,0.0,-0.027190588,0.0,0.0,nan,0.0,0.0,0.0,0.0,-0.0016014576,0.00041381922,-0.001982361,0.0039056838,-0.027691001,0.0102879405,0.0008049011,0.0,0.0,0.0,0.0,0.0,0.0
4172000,4092000,-9.693914e-05,0.0030977237,0.012804065,7.964299e-06,0.00036839256,488.11032,0.0,0.0,0.0,0.0,0.0,0.0,0.0,-0.027190588,0.0,0.0,nan,0.0,0.0,0.0,0.0,-0.0016014576,0.00041381922,-0.001982361,0.0039056838,-0.00745924,0.020215273,0.0005531311,0.0,0.0,0.0,0.0,0.0,0.0
4180000,4100000,-9.693914e-05,0.0030977237,0.012804065,7.964299e-06,0.00036839256,488.11032,0.0,0.0,0.0,0.0,0.0,0.0,0.0,-0.05929882,0.0,0.0,nan,0.0,0.0,0.0,0.0,-0.0016014576,0.00041381922,-0.001982361,0.0039056838,-0.031563945,0.018043905,0.0010290146,0.0,0.0,0.0,0.0,0.0,0.0
4188000,4108000,-9.693914e-05,0.0030977237,0.012804065,7.964299e-06,0.00036839256,488.11032,0.0,0.0,0.0,0.0,0.0,0.0,0.0,-0.05929882,0.0,0.0,nan,0.0,0.0,0.0,0.0,-0.0016014576,0.00041381922,-0.001982361,0.0039056838,-0.008138141,0.013624713,0.0004491806,0.0,0.0,0.0,0.0,0.0,0.0
4196000,4116000,-9.693914e-05,0.0030977237,0.012804065,7.964299e-06,0.00036839256,488.11032,0.0,0.0,0.0,0.0,0.0,0.0,0.0,-0.05929882,0.0,0.0,nan,0.0,0.0,0.0,0.0,-0.0016014576,0.00041381922,-0.001982361,0.0039056838,-0.024415834,-0.03897588,-0.00031518936,0.0,0.0,0.0,0.0,0.0,0.0
4204000,4124000,5.5082783e-05,-0.0059251646,-0.021852398,3.7518443e-05,0.0005898628,-9.775162e-05,0.0,0.0,0.0,0.0,0.0,0.0,0.0,-0.05929882,0.0,0.0,nan,0.0,0.0,0.0,0.0,-0.0016014576,0.00041381922,-0.001982361,0.0039056838,-0.02842072,-0.027779087,2.9087067e-05,0.0,0.0,0.0,0.0,0.0,0.0
4212000,4132000,5.5082783e-05,-0.0059251646,-0.021852398,3.7518443e-05,0.0005898628,-9.775162e-05,0.0,0.0,0.0,0.0,0.0,0.0,0.0,-0.05929882,0.0,0.0,nan,0.0,0.0,0.0,0.0,-0.0016014576,0.00041381922,-0.001982361,0.0039056838,-0.007931439,-0.016088232,-0.00015258789,0.0,0.0,0.0,0.0,0.0,0.0
4220000,4140000,5.5082783e-05,-0.0059251646,-0.021852398,3.7518443e-05,0.0005898628,-9.775162e-05,0.0,0.0,0.0,0.0,0.0,0.0,0.0,-0.05929882,0.0,0.0,nan,0.0,0.0,0.0,0.0,-0.0016014576,0.00041381922,-0.001982361,0.0039056838,-0.028094174,-0.004536003,0.00052690506,0.0,0.0,0.0,0.0,0.0,0.0
4228000,4148000,5.5082783e-05,-0.0059251646,-0.021852398,3.7518443e-05,0.0005898628,-9.775162e-05,0.0,0.0,0.0,0.0,0.0,0.0,0.0,-0.05929882,0.0,0.0,nan,0.0,0.0,0.0,0.0,-0.00220263,0.0005184412,0.003932774,0.0023379028,-0.033918064,0.011244848,0.0009589195,0.0,0.0,0.0,0.0,0.0,0.0
4236000,4156000,5.5082783e-05,-0.0059251646,-0.021852398,3.7518443e-05,0.0005898628,-9.775162e-05,0.0,0.0,0.0,0.0,0.0,0.0,0.0,-0.05929882,0.0,0.0,nan,0.0,0.0,0.0,0.0,-0.00220263,0.0005184412,0.003932774,0.0023379028,-0.023486199,0.0054005533,0.00060510635,0.0,0.0,0.0,0.0,0.0,0.0
4244000,4164000,5.5082783e-05,-0.0059251646,-0.021852398,3.7518443e-05,0.0005898628,-9.775162e-05,0.0,0.0,0.0,0.0,0.0,0.0,0.0,-0.2511266,0.0,0.0,nan,0.0,0.0,0.0,0.0,-0.00220263,0.0005184412,0.003932774,0.0023379028,0.019460008,-0.014928877,-0.0007662773,0.0,0.0,0.0,0.0,0.0,0.0
4252000,4172000,5.5082783e-05,-0.0059251646,-0.021852398,3.7518443e-05,0.0005898628,-9.775162e-05,0.0,0.0,0.0,0.0,0.0,0.0,0.0,-0.2511266,0.0,0.0,nan,0.0,0.0,0.0,0.0,-0.00220263,0.0005184412,0.003932774,0.0023379028,0.008497667,-0.0073874593,-0.00034427643,0.0,0.0,0.0,0.0,0.0,0.0
4260000,4180000,5.5082783e-05,-0.0059251646,-0.021852398,3.7518443e-05,0.0005898628,-9.775162e-05,0.0,0.0,0.0,0.0,0.0,0.0,0.0,-0.2511266,0.0,0.0,nan,0.0,0.0,0.0,0.0,-0.00220263,0.0005184412,0.003932774,0.0023379028,0.013834864,-0.005704686,-0.00043535233,0.0,0.0,0.0,0.0,0.0,0.0
4268000,4188000,5.5082783e-05,-0.0059251646,-0.021852398,3.7518443e-05,0.0005898628,-9.775162e-05,0.0,0.0,0.0,0.0,0.0,0.0,0.0,-0.2511266,0.0,0.0,nan,0.0,0.0,0.0,0.0,-0.00220263,0.0005184412,0.003932774,0.0023379028,-0.02553229,-0.022723362,6.0081482e-05,0.0,0.0,0.0,0.0,0.0,0.0
4276000,4196000,5.5082783e-05,-0.0059251646,-0.021852398,3.7518443e-05,0.0005898628,-9.775162e-05,0.0,0.0,0.0,0.0,0.0,0.0,0.0,-0.2511266,0.0,0.0,nan,0.0,0.0,0.0,0.0,-0.00220263,0.0005184412,0.003932774,0.0023379028,-0.020963164,0.0055496544,0.0005555153,0.0,0.0,0.0,0.0,0.0,0.0
4284000,4204000,5.5082783e-05,-0.0059251646,-0.021852398,3.7518443e-05,0.0005898628,-9.775162e-05,0.0,0.0,0.0,0.0,0.0,0.0,0.0,-0.2511266,0.0,0.0,nan,0.0,0.0,0.0,0.0,-0.00220263,0.0005184412,0.003932774,0.0023379028,-0.018643033,0.015854314,0.0007033348,0.0,0.0,0.0,0.0,0.0,0.0
4292000,4212000,5.5082783e-05,-0.0059251646,-0.021852398,3.7518443e-05,0.0005898628,-9.775162e-05,0.0,0.0,0.0,0.0,0.0,0.0,0.0,-0.2511266,0.0,0.0,nan,0.0,0.0,0.0,0.0,-0.00220263,0.0005184412,0.003932774,0.0023379028,-0.02524101,0.0073529333,0.00067710876,0.0,0.0,0.0,0.0,0.0,0.0
4300000,4220000,5.5082783e-05,-0.0059251646,-0.021852398,3.7518443e-05,0.0005898628,-9.775162e-05,0.0,0.0,0.0,0.0,0.0,0.0,0.0,0.050081737,0.0,0.0,nan,0.0,0.0,0.0,0.0,0.011516213,-0.0024126042,0.008541003,0.0014373064,-0.024794847,-0.008662686,0.0003476143,0.0,0.0,0.0,0.0,0.0,0.0
4308000,4228000,5.5082783e-05,-0.0059251646,-0.021852398,3.7518443e-05,0.0005898628,-9.775162e-05,0.0,0.0,0.0,0.0,0.0,0.0,0.0,0.050081737,0.0,0.0,nan,0.0,0.0,0.0,0.0,0.011516213,-0.0024126042,0.008541003,0.0014373064,-0.024359372,0.0069111437,0.00064992905,0.0,0.0,0.0,0.0,0.0,0.0
4316000,4236000,5.5082783e-05,-0.0059251646,-0.021852398,3.7518443e-05,0.0005898628,-9.775162e-05,0.0,0.0,0.0,0.0,0.0,0.0,0.0,0.050081737,0.0,0.0,nan,0.0,0.0,0.0,0.0,0.011516213,-0.0024126042,0.008541003,0.0014373064,-0.013337987,0.022566244,0.00071144104,0.0,0.0,0.0,0.0,0.0,0.0
4324000,4244000,5.5082783e-05,-0.0059251646,-0.021852398,3.7518443e-05,0.0005898628,-9.775162e-05,0.0,0.0,0.0,0.0,0.0,0.0,0.0,0.050081737,0.0,0.0,nan,0.0,0.0,0.0,0.0,0.011516213,-0.0024126042,0.008541003,0.0014373064,-0.0015104897,0.024902895,0.0004968643,0.0,0.0,0.0,0.0,0.0,0.0
4332000,4252000,5.5082783e-05,-0.0059251646,-0.021852398,3.7518443e-05,0.0005898628,-9.775162e-05,0.0,0.0,0.0,0.0,0.0,0.0,0.0,0.050081737,0.0,0.0,nan,0.0,0.0,0.0,0.0,0.011516213,-0.0024126042,0.008541003,0.0014373064,-0.016668048,0.0034420788,0.00042772293,0.0,0.0,0.0,0.0,0.0,0.0
4340000,4260000,5.5082783e-05,-0.0059251646,-0.021852398,3.7518443e-05,0.0005898628,-9.775162e-05,0.0,0.0,0.0,0.0,0.0,0.0,0.0,0.050081737,0.0,0.0,nan,0.0,0.0,0.0,0.0,0.011516213,-0.0024126042,0.008541003,0.0014373064,-0.02370012,-0.016943902,0.00015211105,0.0,0.0,0.0,0.0,0.0,0.0
4348000,4268000,5.5082783e-05,-0.0059251646,-0.021852398,3.7518443e-05,0.0005898628,-9.775162e-05,0.0,0.0,0.0,0.0,0.0,0.0,0.0,0.050081737,0.0,0.0,nan,0.0,0.0,0.0,0.0,0.011516213,-0.0024126042,0.008541003,0.0014373064,0.005744407,-0.025530502,-0.00067281723,0.0,0.0,0.0,0.0,0.0,0.0
4356000,4276000,5.5082783e-05,-0.0059251646,-0.021852398,3.7518443e-05,0.0005898628,-9.775162e-05,0.0,0.0,0.0,0.0,0.0,0.0,0.0,0.050081737,0.0,0.0,nan,0.0,0.0,0.0,0.0,0.011516213,-0.0024126042,0.008541003,0.0014373064,-0.008163929,-0.002239272,0.00013494492,0.0,0.0,0.0,0.0,0.0,0.0
4364000,4284000,5.5082783e-05,-0.0059251646,-0.021852398,3.7518443e-05,0.0005898628,-9.775162e-05,0.0,0.0,0.0,0.0,0.0,0.0,0.0,-0.03243858,0.0,0.0,nan,0.0,0.0,0.0,0.0,0.011516213,-0.0024126042,0.008541003,0.0014373064,-0.013125971,3.1501055e-05,0.0002861023,0.0,0.0,0.0,0.0,0.0,0.0
4372000,4292000,5.5082783e-05,-0.0059251646,-0.021852398,3.7518443e-05,0.0005898628,-9.775162e-05,0.0,0.0,0.0,0.0,0.0,0.0,0.0,-0.03243858,0.0,0.0,nan,0.0,0.0,0.0,0.0,0.0042282343,-0.0008358536,0.0028906465,0.0018016994,-0.014850754,0.018146038,0.000667572,0.0,0.0,0.0,0.0,0.0,0.0
4380000,4300000,5.5082783e-05,-0.0059251646,-0.021852398,3.7518443e-05,0.0005898628,-9.775162e-05,0.0,0.0,0.0,0.0,0.0,0.0,0.0,-0.03243858,0.0,0.0,nan,0.0,0.0,0.0,0.0,0.0042282343,-0.0008358536,0.0028906465,0.0018016994,0.0016096532,0.007318154,0.000104904175,0.0,0.0,0.0,0.0,0.0,0.0
4388000,4308000,5.5082783e-05,-0.0059251646,-0.021852398,3.7518443e-05,0.0005898628,-9.775162e-05,0.0,0.0,0.0,0.0,0.0,0.0,0.0,-0.03243858,0.0,0.0,nan,0.0,0.0,0.0,0.0,0.0042282343,-0.0008358536,0.0028906465,0.0018016994,-0.00941617,-0.0074961334,5.6266785e-05,0.0,0.0,0.0,0.0,0.0,0.0
4396000,4316000,5.5082783e-05,-0.0059251646,-0.021852398,3.7518443e-05,0.0005898628,-9.775162e-05,0.0,0.0,0.0,0.0,0.0,0.0,0.0,-0.03243858,0.0,0.0,nan,0.0,0.0,0.0,0.0,0.0042282343,-0.0008358536,0.0028906465,0.0018016994,0.015536327,-0.008293062,-0.0005335808,0.0,0.0,0.0,0.0,0.0,0.0
4404000,4324000,5.5082783e-05,-0.0059251646,-0.021852398,3.7518443e-05,0.0005898628,-9.775162e-05,0.0,0.0,0.0,0.0,0.0,0.0,0.0,-0.03243858,0.0,0.0,nan,0.0,0.0,0.0,0.0,0.0042282343,-0.0008358536,0.0028906465,0.0018016994,0.026464114,0.02179426,-0.00022792816,0.0,0.0,0.0,0.0,0.0,0.0
4412000,4332000,5.5082783e-05,-0.0059251646,-0.021852398,3.7518443e-05,0.0005898628,-9.775162e-05,0.0,0.0,0.0,0.0,0.0,0.0,0.0,-0.03243858,0.0,0.0,nan,0.0,0.0,0.0,0.0,0.0042282343,-0.0008358536,0.0028906465,0.0018016994,-0.014159536,-0.0033539236,0.00024080276,0.0,0.0,0.0,0.0,0.0,0.0
4420000,4340000,5.5082783e-05,-0.0059251646,-0.021852398,3.7518443e-05,0.0005898628,-9.775162e-05,0.0,0.0,0.0,0.0,0.0,0.0,0.0,0.0035646968,0.0,0.0,nan,0.0,0.0,0.0,0.0,0.0042282343,-0.0008358536,0.0028906465,0.0018016994,-0.00968807,0.016964734,0.0005340576,0.0,0.0,0.0,0.0,0.0,0.0
4428000,4348000,5.5082783e-05,-0.0059251646,-0.021852398,3.7518443e-05,0.0005898628,-9.775162e-05,0.0,0.0,0.0,0.0,0.0,0.0,0.0,0.0035646968,0.0,0.0,nan,0.0,0.0,0.0,0.0,0.0042282343,-0.0008358536,0.0028906465,0.0018016994,-0.0058155283,0.016884476,0.00044870377,0.0,0.0,0.0,0.0,0.0,0.0
4436000,4356000,5.5082783e-05,-0.0059251646,-0.021852398,3.7518443e-05,0.0005898628,-9.775162e-05,0.0,0.0,0.0,0.0,0.0,0.0,0.0,0.0035646968,0.0,0.0,nan,0.0,0.0,0.0,0.0,0.0042282343,-0.0008358536,0.0028906465,0.0018016994,-0.0028639957,0.009011269,0.00023937225,0.0,0.0,0.0,0.0,0.0,0.0
4444000,4364000,5.5082783e-05,-0.0059251646,-0.021852398,3.7518443e-05,0.0005898628,-9.775162e-05,0.0,0.0,0.0,0.0,0.0,0.0,0.0,0.0035646968,0.0,0.0,nan,0.0,0.0,0.0,0.0,0.010100722,-0.0020498456,-0.00080634654,0.0003862083,-0.030887654,-0.00069126487,0.0006146431,0.0,0.0,0.0,0.0,0.0,0.0
4452000,4372000,5.5082783e-05,-0.0059251646,-0.021852398,3.7518443e-05,0.0005898628,-9.775162e-05,0.0,0.0,0.0,0.0,0.0,0.0,0.0,0.0035646968,0.0,0.0,nan,0.0,0.0,0.0,0.0,0.010100722,-0.0020498456,-0.00080634654,0.0003862083,-0.012292918,-0.00092597306,0.00024271011,0.0,0.0,0.0,0.0,0.0,0.0
4460000,4380000,5.5082783e-05,-0.0059251646,-0.021852398,3.7518443e-05,0.0005898628,-9.775162e-05,0.0,0.0,0.0,0.0,0.0,0.0,0.0,0.0035646968,0.0,0.0,nan,0.0,0.0,0.0,0.0,0.010100722,-0.0020498456,-0.00080634654,0.0003862083,-0.0025160667,0.025231242,0.000521183,0.0,0.0,0.0,0.0,0.0,0.0
4468000,4388000,5.5082783e-05,-0.0059251646,-0.021852398,3.7518443e-05,0.0005898628,-9.775162e-05,0.0,0.0,0.0,0.0,0.0,0.0,0.0,0.0035646968,0.0,0.0,nan,0.0,0.0,0.0,0.0,0.010100722,-0.0020498456,-0.00080634654,0.0003862083,-0.04063277,-0.013531685,0.00052928925,0.0,0.0,0.0,0.0,0.0,0.0
4476000,4396000,5.5082783e-05,-0.0059251646,-0.021852398,3.7518443e-05,0.0005898628,-9.775162e-05,0.0,0.0,0.0,0.0,0.0,0.0,0.0,0.0035646968,0.0,0.0,nan,0.0,0.0,0.0,0.0,0.010100722,-0.0020498456,-0.00080634654,0.0003862083,-0.030278374,0.006003499,0.0007324219,0.0,0.0,0.0,0.0,0.0,0.0
4484000,4404000,5.5082783e-05,-0.0059251646,-0.021852398,3.7518443e-05,0.0005898628,-9.775162e-05,0.0,0.0,0.0,0.0,0.0,0.0,0.0,-0.08165151,0.0,0.0,nan,0.0,0.0,0.0,0.0,0.010100722,-0.0020498456,-0.00080634654,0.0003862083,-0.0012291297,0.013085395,0.00027751923,0.0,0.0,0.0,0.0,0.0,0.0
4492000,4412000,5.5082783e-05,-0.0059251646,-0.021852398,3.7518443e-05,0.0005898628,-9.775162e-05,0.0,0.0,0.0,0.0,0.0,0.0,0.0,-0.08165151,0.0,0.0,nan,0.0,0.0,0.0,0.0,0.010100722,-0.0020498456,-0.00080634654,0.0003862083,-0.012911495,-0.0103711635,6.2942505e-05,0.0,0.0,0.0,0.0,0.0,0.0
4500000,4420000,5.5082783e-05,-0.0059251646,-0.021852398,3.7518443e-05,0.0005898628,-9.775162e-05,0.0,0.0,0.0,0.0,0.0,0.0,0.0,-0.08165151,0.0,0.0,nan,0.0,0.0,0.0,0.0,0.010100722,-0.0020498456,-0.00080634654,0.0003862083,0.008975863,0.017509893,0.00013113022,0.0,0.0,0.0,0.0,0.0,0.0
4508000,4428000,5.5082783e-05,-0.0059251646,-0.021852398,3.7518443e-05,0.0005898628,-9.775162e-05,0.0,0.0,0.0,0.0,0.0,0.0,0.0,-0.08165151,0.0,0.0,nan,0.0,0.0,0.0,0.0,0.010100722,-0.0020498456,-0.00080634654,0.0003862083,-0.00886609,0.016581938,0.0005054474,0.0,0.0,0.0,0.0,0.0,0.0
4516000,4436000,5.5082783e-05,-0.0059251646,-0.021852398,3.7518443e-05,0.0005898628,-9.775162e-05,0.0,0.0,0.0,0.0,0.0,0.0,0.0,-0.08165151,0.0,0.0,nan,0.0,0.0,0.0,0.0,-0.00014746189,0.00010553934,0.0035541058,0.0035598278,-0.012736963,0.008849859,0.0004415512,0.0,0.0,0.0,0.0,0.0,0.0
4524000,4444000,5.5082783e-05,-0.0059251646,-0.021852398,3.7518443e-05,0.0005898628,-9.775162e-05,0.0,0.0,0.0,0.0,0.0,0.0,0.0,-0.08165151,0.0,0.0,nan,0.0,0.0,0.0,0.0,-0.00014746189,0.00010553934,0.0035541058,0.0035598278,-0.006289916,0.034485906,0.00075912476,0.0,0.0,0.0,0.0,0.0,0.0
4532000,4452000,5.5082783e-05,-0.0059251646,-0.021852398,3.7518443e-05,0.0005898628,-9.775162e-05,0.0,0.0,0.0,0.0,0.0,0.0,0.0,-0.08165151,0.0,0.0,nan,0.0,0.0,0.0,0.0,-0.00014746189,0.00010553934,0.0035541058,0.0035598278,-0.0055629853,-0.010864913,-0.00010251999,0.0,0.0,0.0,0.0,0.0,0.0
4540000,4460000,5.5082783e-05,-0.0059251646,-0.021852398,3.7518443e-05,0.0005898628,-9.775162e-05,0.0,0.0,0.0,0.0,0.0,0.0,0.0,-0.00878191,0.0,0.0,nan,0.0,0.0,0.0,0.0,-0.00014746189,0.00010553934,0.0035541058,0.0035598278,0.010350049,-0.007575944,-0.0003876686,0.0,0.0,0.0,0.0,0.0,0.0
4548000,4468000,5.5082783e-05,-0.0059251646,-0.021852398,3.7518443e-05,0.0005898628,-9.775162e-05,0.0,0.0,0.0,0.0,0.0,0.0,0.0,-0.00878191,0.0,0.0,nan,0.0,0.0,0.0,0.0,-0.00014746189,0.00010553934,0.0035541058,0.0035598278,0.013268219,0.024159193,0.0001502037,0.0,0.0,0.0,0.0,0.0,0.0
4556000,4476000,5.5082783e-05,-0.0059251646,-0.021852398,3.7518443e-05,0.0005898628,-9.775162e-05,0.0,0.0,0.0,0.0,0.0,0.0,0.0,-0.00878191,0.0,0.0,nan,0.0,0.0,0.0,0.0,-0.00014746189,0.00010553934,0.0035541058,0.0035598278,0.017705869,-0.00042530894,-0.00041294098,0.0,0.0,0.0,0.0,0.0,0.0
4564000,4484000,5.5082783e-05,-0.0059251646,-0.021852398,3.7518443e-05,0.0005898628,-9.775162e-05,0.0,0.0,0.0,0.0,0.0,0.0,0.0,-0.00878191,0.0,0.0,nan,0.0,0.0,0.0,0.0,-0.00014746189,0.00010553934,0.0035541058,0.0035598278,0.01711433,0.0031365007,-0.0003285408,0.0,0.0,0.0,0.0,0.0,0.0
4572000,4492000,5.5082783e-05,-0.0059251646,-0.021852398,3.7518443e-05,0.0005898628,-9.775162e-05,0.0,0.0,0.0,0.0,0.0,0.0,0.0,-0.00878191,0.0,0.0,nan,0.0,0.0,0.0,0.0,-0.00014746189,0.00010553934,0.0035541058,0.0035598278,0.0006165635,-0.017360792,-0.00037574768,0.0,0.0,0.0,0.0,0.0,0.0
4580000,4500000,5.5082783e-05,-0.0059251646,-0.021852398,3.7518443e-05,0.0005898628,-9.775162e-05,0.0,0.0,0.0,0.0,0.0,0.0,0.0,-0.00878191,0.0,0.0,nan,0.0,0.0,0.0,0.0,-0.00014746189,0.00010553934,0.0035541058,0.0035598278,0.0058380943,0.010959372,8.1539154e-05,0.0,0.0,0.0,0.0,0.0,0.0
4588000,4508000,5.5082783e-05,-0.0059251646,-0.021852398,3.7518443e-05,0.0005898628,-9.775162e-05,0.0,0.0,0.0,0.0,0.0,0.0,0.0,-0.00878191,0.0,0.0,nan,0.0,0.0,0.0,0.0,0.00058329105,3.9879233e-05,0.0022477657,0.0074465275,-0.006596651,0.028803214,0.0006723404,0.0,0.0,0.0,0.0,0.0,0.0
4596000,4516000,5.5082783e-05,-0.0059251646,-0.021852398,3.7518443e-05,0.0005898628,-9.775162e-05,0.0,0.0,0.0,0.0,0.0,0.0,0.0,-0.00878191,0.0,0.0,nan,0.0,0.0,0.0,0.0,0.00058329105,3.9879233e-05,0.0022477657,0.0074465275,-0.004446728,0.03802435,0.00077819824,0.0,0.0,0.0,0.0,0.0,0.0
4604000,4524000,-0.018213356,-0.008584951,0.02755355,0.00012758601,-0.0072400593,0.050992742,0.0,0.0,0.0,0.0,0.0,0.0,0.0,-0.12616856,0.0,0.0,nan,0.0,0.0,0.0,0.0,0.00058329105,3.9879233e-05,0.0022477657,0.0074465275,0.005152518,0.023015022,0.00031661987,0.0,0.0,0.0,0.0,0.0,0.0
4612000,4532000,-0.018213356,-0.008584951,0.02755355,0.00012758601,-0.0072400593,0.050992742,0.0,0.0,0.0,0.0,0.0,0.0,0.0,-0.12616856,0.0,0.0,nan,0.0,0.0,0.0,0.0,0.00058329105,3.9879233e-05,0.0022477657,0.0074465275,-0.0017629322,-0.011977747,-0.00020599365,0.0,0.0,0.0,0.0,0.0,0.0
4620000,4540000,-0.018213356,-0.008584951,0.02755355,0.00012758601,-0.0072400593,0.050992742,0.0,0.0,0.0,0.0,0.0,0.0,0.0,-0.12616856,0.0,0.0,nan,0.0,0.0,0.0,0.0,0.00058329105,3.9879233e-05,0.0022477657,0.0074465275,0.0046391618,0.0067012757,2.8133392e-05,0.0,0.0,0.0,0.0,0.0,0.0
4628000,4548000,-0.018213356,-0.008584951,0.02755355,0.00012758601,-0.0072400593,0.050992742,0.0,0.0,0.0,0.0,0.0,0.0,0.0,-0.12616856,0.0,0.0,nan,0.0,0.0,0.0,0.0,0.00058329105,3.9879233e-05,0.0022477657,0.0074465275,-0.0047553945,0.046451733,0.00091552734,0.0,0.0,0.0,0.0,0.0,0.0
4636000,4556000,-0.018213356,-0.008584951,0.02755355,0.00012758601,-0.0072400593,0.050992742,0.0,0.0,0.0,0.0,0.0,0.0,0.0,-0.12616856,0.0,0.0,nan,0.0,0.0,0.0,0.0,0.00058329105,3.9879233e-05,0.0022477657,0.0074465275,-0.005362477,0.02027987,0.000497818,0.0,0.0,0.0,0.0,0.0,0.0
4644000,4564000,-0.018213356,-0.008584951,0.02755355,0.00012758601,-0.0072400593,0.050992742,0.0,0.0,0.0,0.0,0.0,0.0,0.0,-0.12616856,0.0,0.0,nan,0.0,0.0,0.0,0.0,0.00058329105,3.9879233e-05,0.0022477657,0.0074465275,-0.006892143,0.030158281,0.00069999695,0.0,0.0,0.0,0.0,0.0,0.0
4652000,4572000,-0.018213356,-0.008584951,0.02755355,0.00012758601,-0.0072400593,0.050992742,0.0,0.0,0.0,0.0,0.0,0.0,0.0,-0.12616856,0.0,0.0,nan,0.0,0.0,0.0,0.0,0.00058329105,3.9879233e-05,0.0022477657,0.0074465275,-0.012016981,-0.0082080215,8.773804e-05,0.0,0.0,0.0,0.0,0.0,0.0
4660000,4580000,-0.018213356,-0.008584951,0.02755355,0.00012758601,-0.0072400593,0.050992742,0.0,0.0,0.0,0.0,0.0,0.0,0.0,-0.0040936675,0.0,0.0,nan,0.0,0.0,0.0,0.0,0.008071661,-0.0016856752,0.0035433024,-9.569526e-05,-0.04064639,-0.02847384,0.00019025803,0.0,0.0,0.0,0.0,0.0,0.0
4668000,4588000,-0.018213356,-0.008584951,0.02755355,0.00012758601,-0.0072400593,0.050992742,0.0,0.0,0.0,0.0,0.0,0.0,0.0,-0.0040936675,0.0,0.0,nan,0.0,0.0,0.0,0.0,0.008071661,-0.0016856752,0.0035433024,-9.569526e-05,0.00020558015,0.009479761,0.00017786026,0.0,0.0,0.0,0.0,0.0,0.0
4676000,4596000,-0.018213356,-0.008584951,0.02755355,0.00012758601,-0.0072400593,0.050992742,0.0,0.0,0.0,0.0,0.0,0.0,0.0,-0.0040936675,0.0,0.0,nan,0.0,0.0,0.0,0.0,0.008071661,-0.0016856752,0.0035433024,-9.569526e-05,-0.0032873852,0.023005202,0.00049591064,0.0,0.0,0.0,0.0,0.0,0.0
4684000,4604000,-0.018213356,-0.008584951,0.02755355,0.00012758601,-0.0072400593,0.050992742,0.0,0.0,0.0,0.0,0.0,0.0,0.0,-0.0040936675,0.0,0.0,nan,0.0,0.0,0.0,0.0,0.008071661,-0.0016856752,0.0035433024,-9.569526e-05,-0.0020733904,0.015010342,0.00032567978,0.0,0.0,0.0,0.0,0.0,0.0
4692000,4612000,-0.018213356,-0.008584951,0.02755355,0.00012758601,-0.0072400593,0.050992742,0.0,0.0,0.0,0.0,0.0,0.0,0.0,-0.0040936675,0.0,0.0,nan,0.0,0.0,0.0,0.0,0.008071661,-0.0016856752,0.0035433024,-9.569526e-05,0.0041911798,0.038917467,0.0005931854,0.0,0.0,0.0,0.0,0.0,0.0
4700000,4620000,-0.018213356,-0.008584951,0.02755355,0.00012758601,-0.0072400593,0.050992742,0.0,0.0,0.0,0.0,0.0,0.0,0.0,-0.0040936675,0.0,0.0,nan,0.0,0.0,0.0,0.0,0.008071661,-0.0016856752,0.0035433024,-9.569526e-05,-0.008748035,0.031974792,0.0007581711,0.0,0.0,0.0,0.0,0.0,0.0
4708000,4628000,-0.018213356,-0.008584951,0.02755355,0.00012758601,-0.0072400593,0.050992742,0.0,0.0,0.0,0.0,0.0,0.0,0.0,-0.0040936675,0.0,0.0,nan,0.0,0.0,0.0,0.0,0.008071661,-0.0016856752,0.0035433024,-9.569526e-05,0.02828245,0.007452801,-0.0005078316,0.0,0.0,0.0,0.0,0.0,0.0
4716000,4636000,-0.018213356,-0.008584951,0.02755355,0.00012758601,-0.0072400593,0.050992742,0.0,0.0,0.0,0.0,0.0,0.0,0.0,-0.0040936675,0.0,0.0,nan,0.0,0.0,0.0,0.0,0.008071661,-0.0016856752,0.0035433024,-9.569526e-05,0.031890225,0.0013696551,-0.0007133484,0.0,0.0,0.0,0.0,0.0,0.0
4724000,4644000,-0.018213356,-0.008584951,0.02755355,0.00012758601,-0.0072400593,0.050992742,0.0,0.0,0.0,0.0,0.0,0.0,0.0,0.07601274,0.0,0.0,nan,0.0,0.0,0.0,0.0,0.008071661,-0.0016856752,0.0035433024,-9.569526e-05,0.007025089,0.021063522,0.0002360344,0.0,0.0,0.0,0.0,0.0,0.0
4732000,4652000,-0.018213356,-0.008584951,0.02755355,0.00012758601,-0.0072400593,0.050992742,0.0,0.0,0.0,0.0,0.0,0.0,0.0,0.07601274,0.0,0.0,nan,0.0,0.0,0.0,0.0,0.039592505,-0.007980244,-0.0011780411,0.003623277,0.004088524,0.0035439432,-2.002716e-05,0.0,0.0,0.0,0.0,0.0,0.0
4740000,4660000,-0.018213356,-0.008584951,0.02755355,0.00012758601,-0.0072400593,0.050992742,0.0,0.0,0.0,0.0,0.0,0.0,0.0,0.07601274,0.0,0.0,nan,0.0,0.0,0.0,0.0,0.039592505,-0.007980244,-0.0011780411,0.003623277,0.008112399,0.013941228,8.2969666e-05,0.0,0.0,0.0,0.0,0.0,0.0
4748000,4668000,-0.018213356,-0.008584951,0.02755355,0.00012758601,-0.0072400593,0.050992742,0.0,0.0,0.0,0.0,0.0,0.0,0.0,0.07601274,0.0,0.0,nan,0.0,0.0,0.0,0.0,0.039592505,-0.007980244,-0.0011780411,0.003623277,0.010566359,-0.014224172,-0.00052547455,0.0,0.0,0.0,0.0,0.0,0.0
4756000,4676000,-0.018213356,-0.008584951,0.02755355,0.00012758601,-0.0072400593,0.050992742,0.0,0.0,0.0,0.0,0.0,0.0,0.0,0.07601274,0.0,0.0,nan,0.0,0.0,0.0,0.0,0.039592505,-0.007980244,-0.0011780411,0.003623277,0.007854845,0.0195937,0.00019025803,0.0,0.0,0.0,0.0,0.0,0.0
4764000,4684000,-0.018213356,-0.008584951,0.02755355,0.00012758601,-0.0072400593,0.050992742,0.0,0.0,0.0,0.0,0.0,0.0,0.0,0.07601274,0.0,0.0,nan,0.0,0.0,0.0,0.0,0.039592505,-0.007980244,-0.0011780411,0.003623277,-0.012596986,0.030172065,0.00080919266,0.0,0.0,0.0,0.0,0.0,0.0
4772000,4692000,-0.018213356,-0.008584951,0.02755355,0.00012758601,-0.0072400593,0.050992742,0.0,0.0,0.0,0.0,0.0,0.0,0.0,0.07601274,0.0,0.0,nan,0.0,0.0,0.0,0.0,0.039592505,-0.007980244,-0.0011780411,0.003623277,-0.018284854,0.01016134,0.0005712509,0.0,0.0,0.0,0.0,0.0,0.0
4780000,4700000,-0.018213356,-0.008584951,0.02755355,0.00012758601,-0.0072400593,0.050992742,0.0,0.0,0.0,0.0,0.0,0.0,0.0,0.013786364,0.0,0.0,nan,0.0,0.0,0.0,0.0,0.039592505,-0.007980244,-0.0011780411,0.003623277,-0.017452223,0.0027573705,0.00041532516,0.0,0.0,0.0,0.0,0.0,0.0
4788000,4708000,-0.018213356,-0.008584951,0.02755355,0.00012758601,-0.0072400593,0.050992742,0.0,0.0,0.0,0.0,0.0,0.0,0.0,0.013786364,0.0,0.0,nan,0.0,0.0,0.0,0.0,0.039592505,-0.007980244,-0.0011780411,0.003623277,-0.00019701198,0.036461145,0.0006504059,0.0,0.0,0.0,0.0,0.0,0.0
4796000,4716000,-0.018213356,-0.008584951,0.02755355,0.00012758601,-0.0072400593,0.050992742,0.0,0.0,0.0,0.0,0.0,0.0,0.0,0.013786364,0.0,0.0,nan,0.0,0.0,0.0,0.0,0.039592505,-0.007980244,-0.0011780411,0.003623277,0.02915977,0.032592326,-8.678436e-05,0.0,0.0,0.0,0.0,0.0,0.0
4804000,4724000,-0.018213356,-0.008584951,0.02755355,0.00012758601,-0.0072400593,0.050992742,0.0,0.0,0.0,0.0,0.0,0.0,0.0,0.013786364,0.0,0.0,nan,0.0,0.0,0.0,0.0,-0.00014841557,5.3599477e-05,0.0030658394,0.0016975403,0.0032512778,0.010061815,0.00012207031,0.0,0.0,0.0,0.0,0.0,0.0
4812000,4732000,-0.018213356,-0.008584951,0.02755355,0.00012758601,-0.0072400593,0.050992742,0.0,0.0,0.0,0.0,0.0,0.0,0.0,0.013786364,0.0,0.0,nan,0.0,0.0,0.0,0.0,-0.00014841557,5.3599477e-05,0.0030658394,0.0016975403,-0.009530747,0.022758082,0.000620842,0.0,0.0,0.0,0.0,0.0,0.0
4820000,4740000,-0.018213356,-0.008584951,0.02755355,0.00012758601,-0.0072400593,0.050992742,0.0,0.0,0.0,0.0,0.0,0.0,0.0,0.013786364,0.0,0.0,nan,0.0,0.0,0.0,0.0,-0.00014841557,5.3599477e-05,0.0030658394,0.0016975403,0.023043908,0.026290387,-4.339218e-05,0.0,0.0,0.0,0.0,0.0,0.0
4828000,4748000,-0.018213356,-0.008584951,0.02755355,0.00012758601,-0.0072400593,0.050992742,0.0,0.0,0.0,0.0,0.0,0.0,0.0,0.013786364,0.0,0.0,nan,0.0,0.0,0.0,0.0,-0.00014841557,5.3599477e-05,0.0030658394,0.0016975403,-0.0015098378,0.0023916662,7.867813e-05,0.0,0.0,0.0,0.0,0.0,0.0
4836000,4756000,-0.018213356,-0.008584951,0.02755355,0.00012758601,-0.0072400593,0.050992742,0.0,0.0,0.0,0.0,0.0,0.0,0.0,0.013786364,0.0,0.0,nan,0.0,0.0,0.0,0.0,-0.00014841557,5.3599477e-05,0.0030658394,0.0016975403,0.030963201,-0.019650966,-0.0011210442,0.0,0.0,0.0,0.0,0.0,0.0
4844000,4764000,-0.018213356,-0.008584951,0.02755355,0.00012758601,-0.0072400593,0.050992742,0.0,0.0,0.0,0.0,0.0,0.0,0.0,-0.15687774,0.0,0.0,nan,0.0,0.0,0.0,0.0,-0.00014841557,5.3599477e-05,0.0030658394,0.0016975403,0.004602219,-0.0128136575,-0.00035858154,0.0,0.0,0.0,0.0,0.0,0.0
4852000,4772000,-0.018213356,-0.008584951,0.02755355,0.00012758601,-0.0072400593,0.050992742,0.0,0.0,0.0,0.0,0.0,0.0,0.0,-0.15687774,0.0,0.0,nan,0.0,0.0,0.0,0.0,-0.00014841557,5.3599477e-05,0.0030658394,0.0016975403,0.0131830955,-0.006408155,-0.0004196167,0.0,0.0,0.0,0.0,0.0,0.0
4860000,4780000,-0.018213356,-0.008584951,0.02755355,0.00012758601,-0.0072400593,0.050992742,0.0,0.0,0.0,0.0,0.0,0.0,0.0,-0.15687774,0.0,0.0,nan,0.0,0.0,0.0,0.0,-0.00014841557,5.3599477e-05,0.0030658394,0.0016975403,0.0064450186,-0.008860573,-0.0003142357,0.0,0.0,0.0,0.0,0.0,0.0
4868000,4788000,-0.018213356,-0.008584951,0.02755355,0.00012758601,-0.0072400593,0.050992742,0.0,0.0,0.0,0.0,0.0,0.0,0.0,-0.15687774,0.0,0.0,nan,0.0,0.0,0.0,0.0,-0.00014841557,5.3599477e-05,0.0030658394,0.0016975403,-0.036343366,-0.008032396,0.0005559921,0.0,0.0,0.0,0.0,0.0,0.0
4876000,4796000,-0.018213356,-0.008584951,0.02755355,0.00012758601,-0.0072400593,0.050992742,0.0,0.0,0.0,0.0,0.0,0.0,0.0,-0.15687774,0.0,0.0,nan,0.0,0.0,0.0,0.0,-0.043673396,0.008772637,0.00094641745,-0.009144574,-0.012905382,0.02014789,0.0006327629,0.0,0.0,0.0,0.0,0.0,0.0
4884000,4804000,-0.018213356,-0.008584951,0.02755355,0.00012758601,-0.0072400593,0.050992742,0.0,0.0,0.0,0.0,0.0,0.0,0.0,-0.15687774,0.0,0.0,nan,0.0,0.0,0.0,0.0,-0.043673396,0.008772637,0.00094641745,-0.009144574,0.02478129,0.0011972189,-0.00053977966,0.0,0.0,0.0,0.0,0.0,0.0
4892000,4812000,-0.018213356,-0.008584951,0.02755355,0.00012758601,-0.0072400593,0.050992742,0.0,0.0,0.0,0.0,0.0,0.0,0.0,-0.15687774,0.0,0.0,nan,0.0,0.0,0.0,0.0,-0.043673396,0.008772637,0.00094641745,-0.009144574,0.0529664,0.012258887,-0.001054287,0.0,0.0,0.0,0.0,0.0,0.0
4900000,4820000,-0.018213356,-0.008584951,0.02755355,0.00012758601,-0.0072400593,0.050992742,0.0,0.0,0.0,0.0,0.0,0.0,0.0,0.06418088,0.0,0.0,nan,0.0,0.0,0.0,0.0,-0.043673396,0.008772637,0.00094641745,-0.009144574,0.02604789,-0.034797728,-0.0013179779,0.0,0.0,0.0,0.0,0.0,0.0
4908000,4828000,-0.018213356,-0.008584951,0.02755355,0.00012758601,-0.0072400593,0.050992742,0.0,0.0,0.0,0.0,0.0,0.0,0.0,0.06418088,0.0,0.0,nan,0.0,0.0,0.0,0.0,-0.043673396,0.008772637,0.00094641745,-0.009144574,0.0030686967,-0.010901123,-0.00027942657,0.0,0.0,0.0,0.0,0.0,0.0
4916000,4836000,-0.018213356,-0.008584951,0.02755355,0.00012758601,-0.0072400593,0.050992742,0.0,0.0,0.0,0.0,0.0,0.0,0.0,0.06418088,0.0,0.0,nan,0.0,0.0,0.0,0.0,-0.043673396,0.008772637,0.00094641745,-0.009144574,-0.004998086,0.019475386,0.00045681,0.0,0.0,0.0,0.0,0.0,0.0
4924000,4844000,-0.018213356,-0.008584951,0.02755355,0.00012758601,-0.0072400593,0.050992742,0.0,0.0,0.0,0.0,0.0,0.0,0.0,0.06418088,0.0,0.0,nan,0.0,0.0,0.0,0.0,-0.043673396,0.008772637,0.00094641745,-0.009144574,-0.020573178,-0.015817225,0.000106334686,0.0,0.0,0.0,0.0,0.0,0.0
4932000,4852000,-0.018213356,-0.008584951,0.02755355,0.00012758601,-0.0072400593,0.050992742,0.0,0.0,0.0,0.0,0.0,0.0,0.0,0.06418088,0.0,0.0,nan,0.0,0.0,0.0,0.0,-0.043673396,0.008772637,0.00094641745,-0.009144574,-0.00981459,-0.008667454,3.71933e-05,0.0,0.0,0.0,0.0,0.0,0.0
4940000,4860000,-0.018213356,-0.008584951,0.02755355,0.00012758601,-0.0072400593,0.050992742,0.0,0.0,0.0,0.0,0.0,0.0,0.0,0.06418088,0.0,0.0,nan,0.0,0.0,0.0,0.0,-0.043673396,0.008772637,0.00094641745,-0.009144574,0.001111811,0.010225683,0.00016355515,0.0,0.0,0.0,0.0,0.0,0.0
4948000,4868000,-0.018213356,-0.008584951,0.02755355,0.00012758601,-0.0072400593,0.050992742,0.0,0.0,0.0,0.0,0.0,0.0,0.0,0.06418088,0.0,0.0,nan,0.0,0.0,0.0,0.0,-0.006586194,0.0014689881,0.004012078,0.0047882795,-0.0069962256,0.01628524,0.00044250488,0.0,0.0,0.0,0.0,0.0,0.0
4956000,4876000,-0.018213356,-0.008584951,0.02755355,0.00012758601,-0.0072400593,0.050992742,0.0,0.0,0.0,0.0,0.0,0.0,0.0,0.06418088,0.0,0.0,nan,0.0,0.0,0.0,0.0,-0.006586194,0.0014689881,0.004012078,0.0047882795,0.015344217,0.020706609,2.8133392e-05,0.0,0.0,0.0,0.0,0.0,0.0
4964000,4884000,-0.018213356,-0.008584951,0.02755355,0.00012758601,-0.0072400593,0.050992742,0.0,0.0,0.0,0.0,0.0,0.0,0.0,0.036385633,0.0,0.0,nan,0.0,0.0,0.0,0.0,-0.006586194,0.0014689881,0.004012078,0.0047882795,-0.009481233,0.011911631,0.00041389465,0.0,0.0,0.0,0.0,0.0,0.0
