timestamp,timestamp_sample,ref_timestamp,ref_lat,ref_lon,x,y,z,delta_xy[0],delta_xy[1],delta_z,vx,vy,vz,z_deriv,delta_vxy[0],delta_vxy[1],delta_vz,ax,ay,az,heading,delta_heading,ref_alt,dist_bottom,eph,epv,evh,evv,vxy_max,vz_max,hagl_min,hagl_max,xy_valid,z_valid,v_xy_valid,v_z_valid,xy_reset_counter,z_reset_counter,vxy_reset_counter,vz_reset_counter,heading_reset_counter,heading_good_for_control,xy_global,z_global,dist_bottom_valid,dist_bottom_sensor_bitfield,dead_reckoning
3628000,3628000,0,nan,nan,0.001020334,-0.00024946942,-0.006501506,-3.6619138e-08,1.2283679e-08,0.0,0.003445794,0.00067054847,-0.022446038,-0.017935436,-6.1031897e-06,2.0472798e-06,0.0018590242,-0.015146375,0.016921185,-0.016738659,1.633344,0.005594976,nan,0.10686343,0.011962635,5.7735023,0.09975045,0.023162438,inf,inf,inf,inf,0,0,0,0,1,1,1,1,1,0,0,0,0,0,1
4124000,4124000,0,nan,nan,0.00037754932,0.002140308,-0.05165494,-3.6619138e-08,1.2283679e-08,0.0,0.00036031666,0.0087375,-0.012823483,-0.04876431,-6.1031897e-06,2.0472798e-06,0.0018590242,-0.024121298,0.028405467,-0.020135192,1.6286085,0.005594976,nan,0.1,0.022855012,1.6517675,0.14582779,0.059822556,inf,inf,inf,inf,0,1,0,1,1,1,1,1,1,0,0,0,0,0,1
4628000,4628000,4200000,47.3977508,8.5456073,0.00022523609,0.0023855902,-0.048938368,-3.6619138e-08,1.2283679e-08,0.0,0.0030031935,0.005276519,-0.012595802,-0.02568134,-6.1031897e-06,2.0472798e-06,0.0018590242,0.012748364,-0.0251702,-0.02994295,1.6258017,0.005594976,488.02423,0.12183978,0.033429343,0.9907212,0.15657231,0.086458765,inf,inf,inf,inf,0,1,0,1,1,1,1,1,1,0,1,1,0,0,1
5124000,5124000,4200000,47.3977508,8.5456073,0.0010430323,0.000119919394,-0.03622318,-3.6619138e-08,1.2283679e-08,0.0,0.0026853965,0.00028689654,-0.010899773,-0.0044968184,-6.1031897e-06,2.0472798e-06,0.0018590242,-0.0017315032,0.008983566,-0.010657123,1.6244844,0.005594976,488.02423,0.1060416,0.01574209,0.7744712,0.069223136,0.08979811,inf,inf,inf,inf,0,1,0,1,1,1,1,1,1,0,1,1,0,0,1
5628000,5628000,4200000,47.3977508,8.5456073,-0.00112088,-0.00062978425,-0.037877057,-3.6619138e-08,1.2283679e-08,0.0,-0.0040522455,-0.00064283586,-0.009170534,-0.0030163745,-6.1031897e-06,2.0472798e-06,0.0018590242,0.0156319,0.007178547,-0.014089047,1.6206924,0.005594976,488.02423,0.10485016,0.019497372,0.647363,0.068282455,0.09423143,inf,inf,inf,inf,0,1,0,1,1,1,1,1,1,0,1,1,0,0,1
6124000,6124000,4200000,47.3977508,8.5456073,-0.0012692832,-0.000590534,-0.037154254,-3.6619138e-08,1.2283679e-08,0.0,-0.0018896989,-0.00062200177,-0.008575346,-0.0013353591,-6.1031897e-06,2.0472798e-06,0.0018590242,-0.019033598,0.022191495,-0.014482996,1.6244295,0.005594976,488.02423,0.10166909,0.012585369,0.5767177,0.04655654,0.09480043,inf,inf,inf,inf,0,1,0,1,1,1,1,1,1,0,1,1,0,0,1
6628000,6628000,4200000,47.3977508,8.5456073,-0.0006127407,-0.001873635,-0.03397333,-3.6619138e-08,1.2283679e-08,0.0,-0.0019710353,-0.0054103704,-0.005340405,0.0037040098,-6.1031897e-06,2.0472798e-06,0.0018590242,-0.039791614,0.0008085189,-0.025199724,1.621823,0.005594976,488.02423,0.10260957,0.0154361585,0.51974005,0.04998081,0.085670665,inf,inf,inf,inf,0,1,0,1,1,1,1,1,1,0,1,1,0,0,1
7124000,7124000,4200000,47.3977508,8.5456073,-0.0021095602,-0.0019326458,-0.031857375,-3.6619138e-08,1.2283679e-08,0.0,-0.008667093,-0.0033700485,-0.0003850538,0.007517465,-6.1031897e-06,2.0472798e-06,0.0018590242,-0.024136852,-0.007502487,-0.023209488,1.6264836,0.005594976,488.02423,0.10049535,0.018410403,0.48324418,0.053261288,0.084925726,inf,inf,inf,inf,0,1,0,1,1,1,1,1,1,0,1,1,0,0,1
7628000,7628000,4200000,47.3977508,8.5456073,-0.0031883896,-0.00027988123,-0.029407833,-3.6619138e-08,1.2283679e-08,0.0,-0.006393285,0.00039561698,0.0018720769,0.007841318,-6.1031897e-06,2.0472798e-06,0.0018590242,0.017608456,0.0012368836,-0.011355615,1.6267029,0.005594976,488.02423,0.1,0.01333796,0.44966325,0.042520646,0.07782929,inf,inf,inf,inf,0,1,0,1,1,1,1,1,1,0,1,1,0,0,1
8124000,8124000,4200000,47.3977508,8.5456073,-0.0013765676,-1.1872652e-05,-0.030342147,-3.6619138e-08,1.2283679e-08,0.0,-0.0024133585,-0.0019339252,0.00042265584,0.002776237,-6.1031897e-06,2.0472798e-06,0.0018590242,-0.03469332,-0.016125195,0.0054370607,1.6245493,0.005594976,488.02423,0.1,0.01596445,0.42734307,0.04632308,0.077741355,inf,inf,inf,inf,0,1,0,1,1,1,1,1,1,0,1,1,0,0,1
8628000,8628000,4200000,47.3977508,8.5456073,9.7986056e-05,0.00719865,-0.07586164,7.9501064e-05,0.007677256,-0.041857377,-0.0006103994,-0.00048806364,-0.008606848,-0.00981461,0.00080800673,0.00037262327,-0.009982789,-0.010691263,-0.0026058985,-0.0020349396,1.6234584,0.005594976,488.02423,0.1,1.4142503,1.0000584,0.42432138,0.45002663,inf,inf,inf,inf,1,1,1,1,2,2,2,2,1,0,1,1,0,0,0
9124000,9124000,4200000,47.3977508,8.5456073,1.1394054e-05,0.0083450135,-0.08100691,7.9501064e-05,0.007677256,-0.041857377,-0.0027000709,0.003549441,-0.0054501593,-0.006565873,0.00080800673,0.00037262327,-0.009982789,-0.03331863,0.028249165,-0.013650394,1.6239694,0.005594976,488.02423,0.1,1.0063984,0.61222583,0.30073553,0.3170618,inf,inf,inf,inf,1,1,1,1,2,2,2,2,1,0,1,1,0,0,0
9628000,9628000,4200000,47.3977508,8.5456073,-0.00257385,0.009220275,-0.078219,7.9501064e-05,0.007677256,-0.041857377,-0.0073725306,0.0055021895,0.0057912543,0.008831073,0.00080800673,0.00037262327,-0.009982789,-0.02597447,0.0041245944,0.0052489336,1.6239238,0.005594976,488.02423,0.10533514,0.83234084,0.5008998,0.24865364,0.2574033,inf,inf,inf,inf,1,1,1,1,2,2,2,2,1,0,1,1,0,0,0
10124000,10124000,4200000,47.3977508,8.5456073,-0.009547195,0.012224845,-0.07404162,7.9501064e-05,0.007677256,-0.041857377,-0.012345255,0.0071748667,0.007724184,0.00841497,0.00080800673,0.00037262327,-0.009982789,-0.018455043,-0.028657855,0.0046342607,1.6239699,0.005594976,488.02423,0.1,0.7350025,0.4458469,0.22228071,0.22106072,inf,inf,inf,inf,1,1,1,1,2,2,2,2,1,0,1,1,0,0,0
10628000,10628000,4200000,47.3977508,8.5456073,-0.006000353,0.017028175,-0.07456057,7.9501064e-05,0.007677256,-0.041857377,-0.007199043,0.009308065,0.007101174,0.0050646225,0.00080800673,0.00037262327,-0.009982789,-0.01113188,0.04646055,-0.018889083,1.6235678,0.005594976,488.02423,0.1,0.60455734,0.38125214,0.18795638,0.1770906,inf,inf,inf,inf,1,1,1,1,2,2,2,2,1,0,1,1,0,0,0
11124000,11124000,4200000,47.3977508,8.5456073,-0.00356656,0.017329672,-0.07498164,7.9501064e-05,0.007677256,-0.041857377,-0.0031954711,0.008824973,0.010570858,0.0062235375,0.00080800673,0.00037262327,-0.009982789,0.0011196533,0.024530308,0.017949378,1.6233661,0.005594976,488.02423,0.1,0.5753259,0.37148306,0.1889407,0.16314086,inf,inf,inf,inf,1,1,1,1,2,2,2,2,1,0,1,1,0,0,0
11628000,11628000,4200000,47.3977508,8.5456073,-0.005594673,0.016088402,-0.072685525,7.9501064e-05,0.007677256,-0.041857377,-0.0023248577,0.004968771,0.016746381,0.011185901,0.00080800673,0.00037262327,-0.009982789,0.00011608062,0.0051698443,0.052235086,1.6238654,0.005594976,488.02423,0.1,0.55739075,0.36599907,0.19688407,0.15232596,inf,inf,inf,inf,1,1,1,1,2,2,2,2,1,0,1,1,0,0,0
12124000,12124000,4200000,47.3977508,8.5456073,-0.009168081,0.014337694,-0.06965663,7.9501064e-05,0.007677256,-0.041857377,-0.0041700415,0.0014392488,0.017861675,0.010684737,0.00080800673,0.00037262327,-0.009982789,0.020649428,-0.018043078,0.020959413,1.623705,0.005594976,488.02423,0.1,0.5475209,0.36497545,0.20858027,0.14439481,inf,inf,inf,inf,1,1,1,1,2,2,2,2,1,0,1,1,0,0,0
12628000,12628000,4200000,47.3977508,8.5456073,-0.008582819,0.012631386,-0.06587316,7.9501064e-05,0.007677256,-0.041857377,-0.0065424987,0.0019910482,0.021700965,0.013212961,0.00080800673,0.00037262327,-0.009982789,-0.016712902,-0.0047593783,0.040910203,1.6228716,0.005594976,488.02423,0.1,0.49807394,0.3366459,0.19535068,0.12916179,inf,inf,inf,inf,1,1,1,1,2,2,2,2,1,0,1,1,0,0,0
13124000,13124000,4200000,47.3977508,8.5456073,-0.0029017364,0.006261619,-0.0591851,7.9501064e-05,0.007677256,-0.041857377,-0.0036855447,-0.0030798572,0.0262998,0.016889669,0.00080800673,0.00037262327,-0.009982789,-0.051057894,0.0064265183,0.010476447,1.6226066,0.005594976,488.02423,0.1,0.49877253,0.3375552,0.20628254,0.1258619,inf,inf,inf,inf,1,1,1,1,2,2,2,2,1,0,1,1,0,0,0
13628000,13628000,4200000,47.3977508,8.5456073,-0.002028308,0.0013858246,-0.05713976,7.9501064e-05,0.007677256,-0.041857377,-0.0045545306,-0.0030489617,0.026075102,0.011103349,0.00080800673,0.00037262327,-0.009982789,0.017218828,0.016060002,0.006456859,1.622721,0.005594976,488.02423,0.1,0.5044222,0.341455,0.21697453,0.12434254,inf,inf,inf,inf,1,1,1,1,2,2,2,2,1,0,1,1,0,0,0
14124000,14124000,4200000,47.3977508,8.5456073,-0.0045874245,0.0021646789,-0.057814993,7.9501064e-05,0.007677256,-0.041857377,-0.0042166384,-0.0026046268,0.026274867,0.007268963,0.00080800673,0.00037262327,-0.009982789,0.042735282,-0.024838576,-0.02899952,1.6220701,0.005594976,488.02423,0.1,0.51263064,0.34521866,0.22565548,0.123789154,inf,inf,inf,inf,1,1,1,1,2,2,2,2,1,0,1,1,0,0,0
14628000,14628000,4200000,47.3977508,8.5456073,-0.0016799271,0.0037807443,-0.05286386,7.9501064e-05,0.007677256,-0.041857377,-0.0011617343,0.0019768025,0.026021346,0.008921171,0.00080800673,0.00037262327,-0.009982789,0.0064675547,0.03288571,-0.012242234,1.620193,0.005594976,488.02423,0.1,0.47406676,0.32407776,0.20171331,0.11657718,inf,inf,inf,inf,1,1,1,1,2,2,2,2,1,0,1,1,0,0,0
15124000,15124000,4200000,47.3977508,8.5456073,-0.0020652465,0.010250762,-0.05274625,7.9501064e-05,0.007677256,-0.041857377,-0.0027173413,0.005144517,0.02596287,0.005708246,0.00080800673,0.00037262327,-0.009982789,0.027644083,-0.036863275,-0.015085562,1.619236,0.005594976,488.02423,0.1,0.4832028,0.32871592,0.20718803,0.117709324,inf,inf,inf,inf,1,1,1,1,2,2,2,2,1,0,1,1,0,0,0
15628000,15628000,4200000,47.3977508,8.5456073,-0.0042095194,0.00917609,-0.054671984,7.9501064e-05,0.007677256,-0.041857377,-0.002693421,0.0038488987,0.02715699,0.0035780878,0.00080800673,0.00037262327,-0.009982789,-0.0035509728,-0.026518347,-0.03597885,1.6189705,0.005594976,488.02423,0.1,0.49488178,0.3329761,0.21240208,0.119165175,inf,inf,inf,inf,1,1,1,1,2,2,2,2,1,0,1,1,0,0,0
16124000,16124000,4200000,47.3977508,8.5456073,-0.0034048178,0.008370138,-0.052136358,7.9501064e-05,0.007677256,-0.041857377,-0.00041053366,0.0045958455,0.028724337,0.006156249,0.00080800673,0.00037262327,-0.009982789,0.009510142,-0.013255237,0.056271438,1.6187127,0.005594976,488.02423,0.1,0.50681543,0.3384923,0.21639095,0.12095379,inf,inf,inf,inf,1,1,1,1,2,2,2,2,1,0,1,1,0,0,0
16628000,16628000,4200000,47.3977508,8.5456073,-0.0016882691,0.011047846,-0.049049854,7.9501064e-05,0.007677256,-0.041857377,0.0036709164,0.005685197,0.033174098,0.010510274,0.00080800673,0.00037262327,-0.009982789,0.015303623,0.03582709,0.013130716,1.6180009,0.005594976,488.02423,0.1,0.46942437,0.31983283,0.19207785,0.1154881,inf,inf,inf,inf,1,1,1,1,2,2,2,2,1,0,1,1,0,0,0
17124000,17124000,4200000,47.3977508,8.5456073,-0.00041932575,0.010773859,-0.045212388,7.9501064e-05,0.007677256,-0.041857377,0.006638926,0.004615902,0.035888094,0.012344015,0.00080800673,0.00037262327,-0.009982789,0.010645642,0.007236958,0.0384869,1.6173258,0.005594976,488.02423,0.1,0.48022413,0.32575333,0.19547969,0.117492035,inf,inf,inf,inf,1,1,1,1,2,2,2,2,1,0,1,1,0,0,0
17628000,17628000,4200000,47.3977508,8.5456073,0.0003758223,0.009987798,-0.038234185,7.9501064e-05,0.007677256,-0.041857377,0.0073806383,0.0021046316,0.035929907,0.012761885,0.00080800673,0.00037262327,-0.009982789,-0.025236962,0.037431803,0.01647137,1.6167792,0.005594976,488.02423,0.1,0.49270365,0.3327367,0.19919148,0.11968455,inf,inf,inf,inf,1,1,1,1,2,2,2,2,1,0,1,1,0,0,0
18124000,18124000,4200000,47.3977508,8.5456073,-0.0021661408,0.006775834,-0.038103208,7.9501064e-05,0.007677256,-0.041857377,0.0076025566,0.0030174847,0.036823817,0.008856447,0.00080800673,0.00037262327,-0.009982789,0.037959788,0.024023697,-0.0029969958,1.61599,0.005594976,488.02423,0.1,0.5047807,0.337902,0.2022913,0.121389724,inf,inf,inf,inf,1,1,1,1,2,2,2,2,1,0,1,1,0,0,0
18628000,18628000,4200000,47.3977508,8.5456073,-0.001395451,0.006576785,-0.03193841,7.9501064e-05,0.007677256,-0.041857377,0.012339918,0.0050038937,0.038956992,0.0129893115,0.00080800673,0.00037262327,-0.009982789,-0.0058472212,0.027034808,0.027651897,1.6161519,0.005594976,488.02423,0.1,0.46838555,0.32114968,0.18146427,0.11592185,inf,inf,inf,inf,1,1,1,1,2,2,2,2,1,0,1,1,0,0,0
19124000,19124000,4200000,47.3977508,8.5456073,0.0015323749,0.005987278,-0.029310834,7.9501064e-05,0.007677256,-0.041857377,0.016649494,0.002569684,0.039836574,0.011425526,0.00080800673,0.00037262327,-0.009982789,0.0278356,-0.023945801,0.0088308,1.6153986,0.005594976,488.02423,0.1,0.47913095,0.3262571,0.18472771,0.11751313,inf,inf,inf,inf,1,1,1,1,2,2,2,2,1,0,1,1,0,0,0
19628000,19628000,4200000,47.3977508,8.5456073,0.009632719,0.006438963,-0.02295841,7.9501064e-05,0.007677256,-0.041857377,0.021742243,0.003913945,0.03975239,0.011797277,0.00080800673,0.00037262327,-0.009982789,0.0014157121,0.015303753,0.015595927,1.6148955,0.005594976,488.02423,0.1,0.49128264,0.33355922,0.18845771,0.11948274,inf,inf,inf,inf,1,1,1,1,2,2,2,2,1,0,1,1,0,0,0
20124000,20124000,4200000,47.3977508,8.5456073,0.019844621,0.0073354915,-0.023162523,7.9501064e-05,0.007677256,-0.041857377,0.026524743,0.0053696395,0.03790184,0.0058141807,0.00080800673,0.00037262327,-0.009982789,-0.0064778137,0.03368288,0.004101544,1.614783,0.005594976,488.02423,0.1,0.5029046,0.3403435,0.19182515,0.12123139,inf,inf,inf,inf,1,1,1,1,2,2,2,2,1,0,1,1,0,0,0
20628000,20628000,4200000,47.3977508,8.5456073,0.018187085,0.006495517,-0.022382364,7.9501064e-05,0.007677256,-0.041857377,0.023843212,-0.00063899,0.038329773,0.005362254,0.00080800673,0.00037262327,-0.009982789,0.038248956,-0.038470693,-0.00036973503,1.6141661,0.005594976,488.02423,0.1,0.46762455,0.3217092,0.17402135,0.11521355,inf,inf,inf,inf,1,1,1,1,2,2,2,2,1,0,1,1,0,0,0
21124000,21124000,4200000,47.3977508,8.5456073,0.015864229,0.001650689,-0.022110905,7.9501064e-05,0.007677256,-0.041857377,0.018308118,-0.007964825,0.03890145,0.005408209,0.00080800673,0.00037262327,-0.009982789,-0.027569722,-0.0059005828,0.044384036,1.6138604,0.005594976,488.02423,0.1,0.4780245,0.32812363,0.17759266,0.11693529,inf,inf,inf,inf,1,1,1,1,2,2,2,2,1,0,1,1,0,0,0
21628000,21628000,4200000,47.3977508,8.5456073,0.009113581,-0.00017788165,-0.017820373,7.9501064e-05,0.007677256,-0.041857377,0.013240753,-0.012967745,0.038466655,0.00624449,0.00080800673,0.00037262327,-0.009982789,-0.02689578,-0.014239601,0.015963798,1.6129507,0.005594976,488.02423,0.1,0.4897631,0.33380416,0.18166494,0.1185426,inf,inf,inf,inf,1,1,1,1,2,2,2,2,1,0,1,1,0,0,0
22124000,22124000,4200000,47.3977508,8.5456073,0.00611452,-0.0012913736,-0.01526578,7.9501064e-05,0.007677256,-0.041857377,0.010384269,-0.018487152,0.039527424,0.0071331286,0.00080800673,0.00037262327,-0.009982789,-0.0009116192,-0.019951183,0.016734933,1.6132396,0.005594976,488.02423,0.1,0.5009987,0.34041554,0.1854425,0.120268725,inf,inf,inf,inf,1,1,1,1,2,2,2,2,1,0,1,1,0,0,0
22628000,22628000,4200000,47.3977508,8.5456073,0.0050276406,-0.002184242,-0.009654635,7.9501064e-05,0.007677256,-0.041857377,0.0089964,-0.022177445,0.044394955,0.013650048,0.00080800673,0.00037262327,-0.009982789,0.01770674,-0.0004070898,0.040608454,1.6122297,0.005594976,488.02423,0.1,0.4667077,0.32163677,0.16958119,0.11435346,inf,inf,inf,inf,1,1,1,1,2,2,2,2,1,0,1,1,0,0,0
23124000,23124000,4200000,47.3977508,8.5456073,0.004693169,0.004878495,-0.0017756391,7.9501064e-05,0.007677256,-0.041857377,0.009373424,-0.016077336,0.049678527,0.018136343,0.00080800673,0.00037262327,-0.009982789,0.00075051497,-0.006616013,0.039445233,1.6118557,0.005594976,488.02423,0.1,0.4768432,0.32793584,0.17344977,0.11614171,inf,inf,inf,inf,1,1,1,1,2,2,2,2,1,0,1,1,0,0,0
23628000,23628000,4200000,47.3977508,8.5456073,0.0064479196,0.0076166173,0.0015125349,7.9501064e-05,0.007677256,-0.041857377,0.0075053805,-0.014147826,0.05131071,0.014569037,0.00080800673,0.00037262327,-0.009982789,-0.0215163,-0.018020684,0.0069141383,1.6126097,0.005594976,488.02423,0.10019517,0.48831657,0.33505362,0.17779559,0.11813296,inf,inf,inf,inf,1,1,1,1,2,2,2,2,1,0,1,1,0,0,0
24124000,24124000,4200000,47.3977508,8.5456073,0.0104211345,0.012871883,0.004304125,7.9501064e-05,0.007677256,-0.041857377,0.009395344,-0.011973239,0.049092952,0.009654335,0.00080800673,0.00037262327,-0.009982789,-0.004630972,-0.029716058,0.0036656854,1.6128572,0.005594976,488.02423,0.1,0.49933976,0.3399763,0.1818606,0.119628094,inf,inf,inf,inf,1,1,1,1,2,2,2,2,1,0,1,1,0,0,0
24628000,24628000,4200000,47.3977508,8.5456073,0.008514733,0.008552456,-0.0014001725,7.9501064e-05,0.007677256,-0.041857377,0.009971147,-0.017561605,0.04682351,0.00092709204,0.00080800673,0.00037262327,-0.009982789,-0.015239085,0.006390604,0.006783753,1.6118125,0.005594976,488.02423,0.107375674,0.46580717,0.32251728,0.16712135,0.114103675,inf,inf,inf,inf,1,1,1,1,2,2,2,2,1,0,1,1,0,0,0
25124000,25124000,4200000,47.3977508,8.5456073,0.006833854,0.0046438305,-0.002564303,7.9501064e-05,0.007677256,-0.041857377,0.007878404,-0.02082901,0.04780896,0.0017181489,0.00080800673,0.00037262327,-0.009982789,0.0009521754,-0.036425654,0.025866551,1.6113776,0.005594976,488.02423,0.108539805,0.47580767,0.3287239,0.17115743,0.11595487,inf,inf,inf,inf,1,1,1,1,2,2,2,2,1,0,1,1,0,0,0
25628000,25628000,4200000,47.3977508,8.5456073,0.0054454817,0.0063984403,0.0007761357,7.9501064e-05,0.007677256,-0.041857377,0.0036004111,-0.022302704,0.048244715,0.004687477,0.00080800673,0.00037262327,-0.009982789,-0.024559528,-0.024206746,-0.0014388933,1.6115551,0.005594976,488.02423,0.10519937,0.48715684,0.33423045,0.17564954,0.11771033,inf,inf,inf,inf,1,1,1,1,2,2,2,2,1,0,1,1,0,0,0
26124000,26124000,4200000,47.3977508,8.5456073,-0.011142537,-0.0060724,-0.041093145,7.9501064e-05,0.007677256,-0.041857377,-0.1103054,-0.109203205,-0.17795156,-0.22199452,0.00080800673,0.00037262327,-0.009982789,-0.4081113,-0.39824936,-0.8095158,1.6168523,0.005594976,488.02423,0.14706865,0.49813324,0.3406199,0.1806291,0.11955672,inf,inf,inf,inf,1,1,1,1,2,2,2,2,1,0,1,1,0,0,0
26628000,26628000,4200000,47.3977508,8.5456073,-0.07172378,-0.06465746,-0.26591584,7.9501064e-05,0.007677256,-0.041857377,-0.13348801,-0.13736698,-0.59251827,-0.6355878,0.00080800673,0.00037262327,-0.009982789,0.09752868,0.07421996,-0.23176055,1.6159234,0.005594976,488.02423,0.37189135,0.46505538,0.32173994,0.16818544,0.11384918,inf,inf,inf,inf,1,1,1,1,2,2,2,2,1,0,1,1,0,0,0
27124000,27124000,4200000,47.3977508,8.5456073,-0.12887569,-0.09992521,-0.5853622,7.9501064e-05,0.007677256,-0.041857377,-0.06299307,-0.074087165,-0.6077102,-0.6551846,0.00080800673,0.00037262327,-0.009982789,0.21256386,0.15539488,-0.089016736,1.6152217,0.005594976,488.02423,0.6913377,0.47514945,0.32797801,0.1718619,0.115760356,inf,inf,inf,inf,1,1,1,1,2,2,2,2,1,0,1,1,0,0,0
27628000,27628000,4200000,47.3977508,8.5456073,-0.14318234,-0.10686142,-0.92715627,7.9501064e-05,0.007677256,-0.041857377,0.016876785,-0.00881947,-0.6388198,-0.6864013,0.00080800673,0.00037262327,-0.009982789,0.10282742,0.09920096,-0.0023618338,1.615138,0.005594976,488.02423,1.0331317,0.48657632,0.33351666,0.17605588,0.117555626,inf,inf,inf,inf,1,1,1,1,2,2,2,2,1,0,1,1,0,0,0
28124000,28124000,4200000,47.3977508,8.5456073,-0.1201321,-0.09138864,-1.2641308,7.9501064e-05,0.007677256,-0.041857377,0.061826404,0.0262879,-0.62575555,-0.67064244,0.00080800673,0.00037262327,-0.009982789,0.03311358,0.017984783,0.11477898,1.6149454,0.005594976,488.02423,1.3701063,0.49756366,0.33992264,0.17974818,0.119425066,inf,inf,inf,inf,1,1,1,1,2,2,2,2,1,0,1,1,0,0,0
28628000,28628000,4200000,47.3977508,8.5456073,-0.085641645,-0.07801476,-1.599265,7.9501064e-05,0.007677256,-0.041857377,0.07092657,0.03181114,-0.5711901,-0.62223417,0.00080800673,0.00037262327,-0.009982789,-0.009115363,-0.0029282235,0.14407839,1.6147013,0.005594976,488.02423,1.7052405,0.4647734,0.32251123,0.16513026,0.114002794,inf,inf,inf,inf,1,1,1,1,2,2,2,2,1,0,1,1,0,0,0
29124000,29124000,4200000,47.3977508,8.5456073,-0.041596193,-0.059987713,-1.8948295,7.9501064e-05,0.007677256,-0.041857377,0.061680797,0.0323529,-0.40031996,-0.46149105,0.00080800673,0.00037262327,-0.009982789,-0.046691503,-0.055943888,1.0338304,1.6174833,0.0007503629,488.02423,2.000805,0.47452468,0.32735834,0.21671522,0.11565839,inf,inf,inf,inf,1,1,1,1,2,2,2,2,2,0,1,1,0,0,0
29628000,29628000,4200000,47.3977508,8.5456073,-0.011131738,-0.038819615,-2.0200605,7.9501064e-05,0.007677256,-0.041857377,0.038149614,0.029662982,-0.115771465,-0.17708287,0.00080800673,0.00037262327,-0.009982789,-0.014973556,-0.03811161,-0.18448567,1.6191483,0.0007503629,488.02423,2.126036,0.4857991,0.33437008,0.29829758,0.117745526,inf,inf,inf,inf,1,1,1,1,2,2,2,2,2,0,1,1,0,0,0
30124000,30124000,4200000,47.3977508,8.5456073,0.008352089,-0.020660505,-2.1205316,7.9501064e-05,0.007677256,-0.041857377,0.024808068,0.020468792,-0.14897919,-0.2063315,0.00080800673,0.00037262327,-0.009982789,-0.0060809683,-0.051312234,0.07459055,1.6195092,0.0007503629,488.02423,2.226507,0.50078154,0.33931774,0.34220344,0.11935695,inf,inf,inf,inf,1,1,1,1,2,2,2,2,2,1,1,1,0,0,0
30628000,30628000,4200000,47.3977508,8.5456073,0.020603549,-0.0011735813,-2.221545,7.9501064e-05,0.007677256,-0.041857377,0.010550222,0.012957066,-0.11102996,-0.17199108,0.00080800673,0.00037262327,-0.009982789,-0.035167344,-0.06696289,0.082741484,1.6198702,0.0007503629,488.02423,2.3275204,0.464617,0.32212728,0.2703844,0.11400519,inf,inf,inf,inf,1,1,1,1,2,2,2,2,2,1,1,1,0,0,0
31124000,31124000,4200000,47.3977508,8.5456073,0.014382946,-0.005610002,-2.3132474,7.9501064e-05,0.007677256,-0.041857377,-0.007229518,-0.004676261,-0.076154195,-0.14895001,0.00080800673,0.00037262327,-0.009982789,-0.03363455,-0.031195827,0.13362242,1.6189873,0.0007503629,488.02423,2.4192228,0.47680348,0.32704598,0.2717835,0.11569189,inf,inf,inf,inf,1,1,1,1,2,2,2,2,2,1,1,1,0,0,0
31628000,31628000,4200000,47.3977508,8.5456073,0.0035047007,-0.014964789,-2.3795142,7.9501064e-05,0.007677256,-0.041857377,-0.004923418,-0.008141304,-0.03435732,-0.10770883,0.00080800673,0.00037262327,-0.009982789,0.023889238,0.03636653,0.09337346,1.6198086,0.0007503629,488.02423,2.4854896,0.4917045,0.33412164,0.2695983,0.117808186,inf,inf,inf,inf,1,1,1,1,2,2,2,2,2,1,1,1,0,0,0
32124000,32124000,4200000,47.3977508,8.5456073,-0.0038523588,-0.012914526,-2.4200175,7.9501064e-05,0.007677256,-0.041857377,0.0012587367,0.0011187005,-0.014246969,-0.07996698,0.00080800673,0.00037262327,-0.009982789,0.030739304,-0.013500961,0.055605542,1.6197778,0.0007503629,488.02423,2.5259929,0.50638384,0.3406238,0.26461738,0.11972349,inf,inf,inf,inf,1,1,1,1,2,2,2,2,2,1,1,1,0,0,0
32628000,32628000,4200000,47.3977508,8.5456073,0.0056694234,-0.010852037,-2.4589822,7.9501064e-05,0.007677256,-0.041857377,0.015507119,0.0018017167,0.0007687784,-0.065514565,0.00080800673,0.00037262327,-0.009982789,-0.0009769427,-0.004113797,0.004130415,1.6192575,0.0007503629,488.02423,2.5649576,0.4676278,0.32177275,0.2182769,0.11402686,inf,inf,inf,inf,1,1,1,1,2,2,2,2,2,1,1,1,0,0,0
33124000,33124000,4200000,47.3977508,8.5456073,0.00047606896,-0.019671137,-2.4913623,7.9501064e-05,0.007677256,-0.041857377,0.0113149425,-0.001953665,0.016305689,-0.052184,0.00080800673,0.00037262327,-0.009982789,0.00089191593,0.0046771164,0.065095715,1.619386,0.0007503629,488.02423,2.5973377,0.47963125,0.32804942,0.21612762,0.11596441,inf,inf,inf,inf,1,1,1,1,2,2,2,2,2,1,1,1,0,0,0
33628000,33628000,4200000,47.3977508,8.5456073,-0.012186108,-0.023727622,-2.5128586,7.9501064e-05,0.007677256,-0.041857377,0.0079255635,0.0040996578,0.025660472,-0.040804967,0.00080800673,0.00037262327,-0.009982789,0.045453515,0.002730492,0.055894252,1.6194075,0.0007503629,488.02423,2.618834,0.49306428,0.33362526,0.21427752,0.11778663,inf,inf,inf,inf,1,1,1,1,2,2,2,2,2,1,1,1,0,0,0
34124000,34124000,4200000,47.3977508,8.5456073,-0.022123141,-0.02606482,-2.5387204,7.9501064e-05,0.007677256,-0.041857377,0.019190766,0.0060729864,0.041180067,-0.031671584,0.00080800673,0.00037262327,-0.009982789,0.037851654,0.038768,0.064617015,1.6189696,0.0007503629,488.02423,2.6446958,0.5056575,0.34006697,0.21196665,0.119679354,inf,inf,inf,inf,1,1,1,1,2,2,2,2,2,1,1,1,0,0,0
34628000,34628000,4200000,47.3977508,8.5456073,-0.023815883,-0.02426169,-2.5514421,7.9501064e-05,0.007677256,-0.041857377,0.026902312,0.008006484,0.053968277,-0.017182883,0.00080800673,0.00037262327,-0.009982789,0.009666371,-0.0026149063,-0.008386559,1.6188073,0.0007503629,488.02423,2.6574175,0.46873495,0.32260346,0.18475866,0.114225596,inf,inf,inf,inf,1,1,1,1,2,2,2,2,2,1,1,1,0,0,0
35124000,35124000,4200000,47.3977508,8.5456073,-0.032414243,-0.017259782,-2.5552113,7.9501064e-05,0.007677256,-0.041857377,0.028420206,0.0074306317,0.05481414,-0.011090293,0.00080800673,0.00037262327,-0.009982789,0.059003036,-0.012614167,-0.0035157425,1.6193672,0.0007503629,488.02423,2.6611867,0.47955275,0.3288407,0.18456447,0.11613934,inf,inf,inf,inf,1,1,1,1,2,2,2,2,2,1,1,1,0,0,0
35628000,35628000,4200000,47.3977508,8.5456073,-0.03331338,-0.0099456115,-2.5501332,7.9501064e-05,0.007677256,-0.041857377,0.031862386,0.0042550177,0.044716,-0.010787736,0.00080800673,0.00037262327,-0.009982789,0.01720764,-0.018928315,-0.0025453044,1.6194246,0.0007503629,488.02423,2.6561086,0.491466,0.3343886,0.18514328,0.11794463,inf,inf,inf,inf,1,1,1,1,2,2,2,2,2,1,1,1,0,0,0
36124000,36124000,4200000,47.3977508,8.5456073,-0.023438241,0.0061980137,-2.5533624,7.9501064e-05,0.007677256,-0.041857377,0.03896196,0.0024342276,0.042791728,-0.01003426,0.00080800673,0.00037262327,-0.009982789,-0.015709752,-0.06647569,0.0075064595,1.6189696,0.0007503629,488.02423,2.6593378,0.5025455,0.3408067,0.18581183,0.119822815,inf,inf,inf,inf,1,1,1,1,2,2,2,2,2,1,1,1,0,0,0
36628000,36628000,4200000,47.3977508,8.5456073,-0.022274384,0.013386535,-2.5534213,7.9501064e-05,0.007677256,-0.041857377,0.030648949,-0.010520076,0.04399312,-0.004642715,0.00080800673,0.00037262327,-0.009982789,0.0025149928,-0.026872497,-0.015800817,1.619702,0.0007503629,488.02423,2.6593966,0.4677635,0.3218293,0.16776015,0.11407286,inf,inf,inf,inf,1,1,1,1,2,2,2,2,2,1,1,1,0,0,0
37124000,37124000,4200000,47.3977508,8.5456073,-0.023934986,0.01666482,-2.5505533,7.9501064e-05,0.007677256,-0.041857377,0.028398393,-0.015875774,0.036161672,-0.0075133787,0.00080800673,0.00037262327,-0.009982789,0.016641686,-0.0015141994,0.025904736,1.6192144,0.0007503629,488.02423,2.6565287,0.4775832,0.32799146,0.17001255,0.115965225,inf,inf,inf,inf,1,1,1,1,2,2,2,2,2,1,1,1,0,0,0
37628000,37628000,4200000,47.3977508,8.5456073,-0.016927682,0.023913383,-2.5491943,7.9501064e-05,0.007677256,-0.041857377,0.031194028,-0.017666869,0.03528163,-0.004425044,0.00080800673,0.00037262327,-0.009982789,0.0066859787,0.008701477,0.024529172,1.6190835,0.0007503629,488.02423,2.6551697,0.4885102,0.33500388,0.17313865,0.11804986,inf,inf,inf,inf,1,1,1,1,2,2,2,2,2,1,1,1,0,0,0
38124000,38124000,4200000,47.3977508,8.5456073,-0.0062154895,0.03875446,-2.5477667,7.9501064e-05,0.007677256,-0.041857377,0.026836874,-0.019345526,0.034742042,-0.0016528367,0.00080800673,0.00037262327,-0.009982789,-0.019640587,-0.02938682,0.02816878,1.6191242,0.0007503629,488.02423,2.653742,0.49883273,0.33990103,0.17648177,0.119637355,inf,inf,inf,inf,1,1,1,1,2,2,2,2,2,1,1,1,0,0,0
38628000,38628000,4200000,47.3977508,8.5456073,-0.010821161,0.046573937,-2.551156,7.9501064e-05,0.007677256,-0.041857377,0.022317294,-0.03280412,0.0355929,-0.0021876835,0.00080800673,0.00037262327,-0.009982789,0.022838749,-0.03553157,0.016326083,1.6189916,0.0007503629,488.02423,2.6571314,0.46575677,0.32245177,0.16284613,0.11418364,inf,inf,inf,inf,1,1,1,1,2,2,2,2,2,1,1,1,0,0,0
39124000,39124000,4200000,47.3977508,8.5456073,-0.007569101,0.048806086,-2.5521374,7.9501064e-05,0.007677256,-0.041857377,0.026637007,-0.03818229,0.033530116,-0.0046971994,0.00080800673,0.00037262327,-0.009982789,0.017766912,-0.0016621342,0.030132009,1.6190667,0.0007503629,488.02423,2.6581128,0.47516382,0.32866973,0.16704345,0.116087556,inf,inf,inf,inf,1,1,1,1,2,2,2,2,2,1,1,1,0,0,0
39628000,39628000,4200000,47.3977508,8.5456073,-0.0016583517,0.049619142,-2.5581737,7.9501064e-05,0.007677256,-0.041857377,0.022313736,-0.040055502,0.03795637,-0.00421478,0.00080800673,0.00037262327,-0.009982789,-0.005891735,-0.00023016763,0.012032687,1.6189966,0.0007503629,488.02423,2.664149,0.48586014,0.33419463,0.17196342,0.11788182,inf,inf,inf,inf,1,1,1,1,2,2,2,2,2,1,1,1,0,0,0
40124000,40124000,4200000,47.3977508,8.5456073,0.002720421,0.046710305,-2.5622783,7.9501064e-05,0.007677256,-0.041857377,0.020212797,-0.04250239,0.044917256,0.000329379,0.00080800673,0.00037262327,-0.009982789,0.0006562913,-0.0019190046,-0.011681578,1.6194065,0.0007503629,488.02423,2.6682537,0.4962074,0.34059393,0.17679891,0.11975148,inf,inf,inf,inf,1,1,1,1,2,2,2,2,2,1,1,1,0,0,0
40628000,40628000,4200000,47.3977508,8.5456073,0.0035933014,0.041518908,-2.5626385,7.9501064e-05,0.007677256,-0.041857377,0.017608473,-0.043729432,0.046949543,0.0022385886,0.00080800673,0.00037262327,-0.009982789,-0.027365427,0.019939644,0.007262453,1.6193714,0.0007503629,488.02423,2.668614,0.46409237,0.3230029,0.16423035,0.114260554,inf,inf,inf,inf,1,1,1,1,2,2,2,2,2,1,1,1,0,0,0
41124000,41124000,4200000,47.3977508,8.5456073,0.0019485636,0.03699049,-2.5739663,7.9501064e-05,0.007677256,-0.041857377,0.015364771,-0.0417797,0.05074108,-0.0033740532,0.00080800673,0.00037262327,-0.009982789,0.01252233,0.0367881,0.08202157,1.6192099,0.0007503629,488.02423,2.6799417,0.47364792,0.32779005,0.16912462,0.11589416,inf,inf,inf,inf,1,1,1,1,2,2,2,2,2,1,1,1,0,0,0
41628000,41628000,4200000,47.3977508,8.5456073,0.00017648062,0.03833108,-2.5795004,7.9501064e-05,0.007677256,-0.041857377,0.011832144,-0.0375347,0.057228286,-0.001208262,0.00080800673,0.00037262327,-0.009982789,0.015551427,-0.036293812,0.05558319,1.619342,0.0007503629,488.02423,2.6854758,0.48463252,0.33475655,0.17449401,0.11796353,inf,inf,inf,inf,1,1,1,1,2,2,2,2,2,1,1,1,0,0,0
42124000,42124000,4200000,47.3977508,8.5456073,-0.0013221157,0.038430307,-2.5856616,7.9501064e-05,0.007677256,-0.041857377,0.011877103,-0.033860527,0.0660739,0.0028994712,0.00080800673,0.00037262327,-0.009982789,-0.007273876,-0.007944516,0.030283814,1.6191449,0.0007503629,488.02423,2.691637,0.49537167,0.34116262,0.1795425,0.11983686,inf,inf,inf,inf,1,1,1,1,2,2,2,2,2,1,1,1,0,0,0
42628000,42628000,4200000,47.3977508,8.5456073,-0.0027635852,0.03531896,-2.5948248,7.9501064e-05,0.007677256,-0.041857377,0.0130349565,-0.035367236,0.07327647,0.002300525,0.00080800673,0.00037262327,-0.009982789,0.032287207,-0.027699219,0.015834345,1.619312,0.0007503629,488.02423,2.7008002,0.4634721,0.32217273,0.1663132,0.114094175,inf,inf,inf,inf,1,1,1,1,2,2,2,2,2,1,1,1,0,0,0
43124000,43124000,4200000,47.3977508,8.5456073,-0.00543947,0.03781175,-2.606907,7.9501064e-05,0.007677256,-0.041857377,0.015823279,-0.032064978,0.08209902,0.0006024577,0.00080800673,0.00037262327,-0.009982789,0.013986412,-0.01224903,0.06694346,1.6190615,0.0007503629,488.02423,2.7128823,0.47333178,0.32838994,0.17099564,0.11600275,inf,inf,inf,inf,1,1,1,1,2,2,2,2,2,1,1,1,0,0,0
43628000,43628000,4200000,47.3977508,8.5456073,-0.001642212,0.034924027,-2.609306,7.9501064e-05,0.007677256,-0.041857377,0.016646435,-0.030926015,0.08617494,0.002431812,0.00080800673,0.00037262327,-0.009982789,0.010381365,-0.01268486,0.06303842,1.6192963,0.0007503629,488.02423,2.7152815,0.4846364,0.3339106,0.17609707,0.117799684,inf,inf,inf,inf,1,1,1,1,2,2,2,2,2,1,1,1,0,0,0
44124000,44124000,4200000,47.3977508,8.5456073,0.010120115,0.02408444,-2.6087666,7.9501064e-05,0.007677256,-0.041857377,0.015607388,-0.03263675,0.09177111,0.008591561,0.00080800673,0.00037262327,-0.009982789,-0.029166445,0.011860829,0.036832873,1.6193088,0.0007503629,488.02423,2.714742,0.4956609,0.3403082,0.18079154,0.119672425,inf,inf,inf,inf,1,1,1,1,2,2,2,2,2,1,1,1,0,0,0
44628000,44628000,4200000,47.3977508,8.5456073,0.02070582,0.016475597,-2.6130629,7.9501064e-05,0.007677256,-0.041857377,0.009285298,-0.02751422,0.16149239,0.071689814,0.00080800673,0.00037262327,-0.009982789,-0.040558413,-0.030626338,0.99080235,1.619398,0.0007503629,488.02423,2.7190382,0.4635842,0.32277295,0.16684797,0.11420047,inf,inf,inf,inf,1,1,1,1,2,2,2,2,2,1,1,1,0,0,0
45124000,45124000,4200000,47.3977508,8.5456073,0.030527001,0.018586831,-2.3969479,7.9501064e-05,0.007677256,-0.041857377,-0.0020444533,-0.022572255,0.88143903,0.7812968,0.00080800673,0.00037262327,-0.009982789,0.009276002,0.04242628,0.33573338,1.6196796,0.0007503629,488.02423,2.5029233,0.4736132,0.32755363,0.16881208,0.11583287,inf,inf,inf,inf,1,1,1,1,2,2,2,2,2,1,1,1,0,0,0
45628000,45628000,4200000,47.3977508,8.5456073,0.03457128,0.026697805,-2.0400743,7.9501064e-05,0.007677256,-0.041857377,-0.0050349277,-0.01127382,0.7469078,0.6482788,0.00080800673,0.00037262327,-0.009982789,-0.027863787,-0.013609314,0.052662563,1.6196824,0.0007503629,488.02423,2.1460497,0.48485953,0.33451468,0.17427301,0.11790292,inf,inf,inf,inf,1,1,1,1,2,2,2,2,2,1,1,1,0,0,0
46124000,46124000,4200000,47.3977508,8.5456073,0.034938913,0.031536665,-1.7091836,7.9501064e-05,0.007677256,-0.041857377,-0.006448668,-0.011711484,0.76707166,0.67426926,0.00080800673,0.00037262327,-0.009982789,-0.03138545,-0.030023307,0.08406489,1.6194637,0.0007503629,488.02423,1.8151591,0.4958418,0.33943307,0.17898616,0.119501956,inf,inf,inf,inf,1,1,1,1,2,2,2,2,2,1,1,1,0,0,0
46628000,46628000,4200000,47.3977508,8.5456073,0.041883945,0.031998057,-1.3608916,7.9501064e-05,0.007677256,-0.041857377,-0.0037893918,-0.015377279,0.77740127,0.68958056,0.00080800673,0.00037262327,-0.009982789,-0.01652538,-0.040067997,-0.011340714,1.6194053,0.0007503629,488.02423,1.4668671,0.46369696,0.3221204,0.16549648,0.11409326,inf,inf,inf,inf,1,1,1,1,2,2,2,2,2,1,1,1,0,0,0
47124000,47124000,4200000,47.3977508,8.5456073,0.044331454,0.030965889,-1.0262704,7.9501064e-05,0.007677256,-0.041857377,-0.008781023,-0.016770544,0.7857431,0.6923505,0.00080800673,0.00037262327,-0.009982789,-0.0029123982,0.016806152,0.051697712,1.6197872,0.0007503629,488.02423,1.1322459,0.4737082,0.32842895,0.16990168,0.116028115,inf,inf,inf,inf,1,1,1,1,2,2,2,2,2,1,1,1,0,0,0
47628000,47628000,4200000,47.3977508,8.5456073,0.04345489,0.033228572,-0.6717472,7.9501064e-05,0.007677256,-0.041857377,-0.012386451,-0.015712146,0.7887089,0.6989345,0.00080800673,0.00037262327,-0.009982789,0.0028188222,-0.031938307,0.060196962,1.6196276,0.0007503629,488.02423,0.7777227,0.4851115,0.33408433,0.17470573,0.11786261,inf,inf,inf,inf,1,1,1,1,2,2,2,2,2,1,1,1,0,0,0
48124000,48124000,4200000,47.3977508,8.5456073,0.036034293,0.035307564,-0.3278888,7.9501064e-05,0.007677256,-0.041857377,-0.013291514,-0.016603192,0.7935652,0.70228744,0.00080800673,0.00037262327,-0.009982789,0.00023134633,0.008078365,0.051467676,1.619702,0.0007503629,488.02423,0.4338643,0.4961617,0.3406341,0.17910615,0.11977468,inf,inf,inf,inf,1,1,1,1,2,2,2,2,2,1,1,1,0,0,0
48628000,48628000,4200000,47.3977508,8.5456073,0.028993107,0.036127053,0.029878512,7.9501064e-05,0.007677256,-0.041857377,-0.009802017,-0.019883588,0.79166573,0.7050143,0.00080800673,0.00037262327,-0.009982789,0.018836137,-0.015922152,-0.009357928,1.619657,0.0007503629,488.02423,0.1,0.4638834,0.32178622,0.16531982,0.11405252,inf,inf,inf,inf,1,1,1,1,2,2,2,2,2,1,1,1,0,0,0
49124000,49124000,4200000,47.3977508,8.5456073,0.021158475,0.03727967,0.34075788,7.9501064e-05,0.007677256,-0.041857377,-0.00015763182,-0.013476668,0.6855282,0.5229542,0.00080800673,0.00037262327,-0.009982789,0.008398507,-0.027598448,0.5246466,1.6194713,0.0007503629,488.02423,0.1,0.47384676,0.3278232,0.18056539,0.110227086,inf,inf,inf,inf,1,1,1,1,2,2,2,2,2,1,1,1,0,0,0
49628000,49628000,4200000,47.3977508,8.5456073,0.019783031,0.037424933,0.4424023,7.9501064e-05,0.007677256,-0.041857377,-0.006294134,-0.022989018,0.9338273,0.59438336,0.00080800673,0.00037262327,-0.009982789,0.02985235,-0.008802308,0.9278785,1.6193602,0.0007503629,488.02423,0.1,0.4855848,0.33162796,0.23387785,0.10488972,inf,inf,inf,inf,1,1,1,1,2,2,2,2,2,1,1,1,0,0,0
50124000,50124000,4200000,47.3977508,8.5456073,0.016347801,0.03753159,0.6136736,7.9501064e-05,0.007677256,-0.041857377,-0.010363659,-0.021033674,1.175457,0.70383203,0.00080800673,0.00037262327,-0.009982789,-0.0205112,0.008350922,0.63786745,1.6195095,0.0007503629,488.02423,0.1,0.4990644,0.33501738,0.285074,0.10239131,inf,inf,inf,inf,1,1,1,1,2,2,2,2,2,1,1,1,0,0,0
50628000,50628000,4200000,47.3977508,8.5456073,0.0154310325,0.038496207,0.8553622,7.9501064e-05,0.007677256,-0.041857377,-0.008388824,-0.021747902,1.3415991,0.76737005,0.00080800673,0.00037262327,-0.009982789,0.05296106,-0.05528799,0.20418595,1.6195587,0.0007503629,488.02423,0.1,0.46445104,0.3168201,0.2524053,0.0972214,inf,inf,inf,inf,1,1,1,1,2,2,2,2,2,1,1,1,0,0,0
51124000,51124000,4200000,47.3977508,8.5456073,0.025574582,0.036395743,1.1281917,7.9501064e-05,0.007677256,-0.041857377,7.224732e-05,-0.019288532,1.4050101,0.7459348,0.00080800673,0.00037262327,-0.009982789,0.00440987,-0.0073079425,0.37449595,1.6196927,0.0007503629,488.02423,0.1,0.4762717,0.31834275,0.26248348,0.098991655,inf,inf,inf,inf,1,1,1,1,2,2,2,2,2,1,1,1,0,0,0
51628000,51628000,4200000,47.3977508,8.5456073,0.039229482,0.044839386,1.334273,7.9501064e-05,0.007677256,-0.041857377,-0.010895337,0.015434639,0.8037124,0.119208515,0.00080800673,0.00037262327,-0.009982789,0.020084415,0.024671927,0.012494623,1.6194568,0.0007503629,488.02423,0.1,0.49101332,0.32196897,0.26241893,0.100164965,inf,inf,inf,inf,1,1,1,1,2,2,2,2,2,1,1,1,0,0,0
52124000,52124000,4200000,47.3977508,8.5456073,0.044142544,0.052574456,1.3669096,7.9501064e-05,0.007677256,-0.041857377,-0.003752348,0.023506595,0.7150954,0.044129707,0.00080800673,0.00037262327,-0.009982789,0.010528631,0.031785615,-0.031759027,1.6196952,0.0007503629,488.02423,0.1,0.50518763,0.3236673,0.25398687,0.09635177,inf,inf,inf,inf,1,1,1,1,2,2,2,2,2,1,1,1,0,0,0
52628000,52628000,4200000,47.3977508,8.5456073,0.046506878,0.057453755,1.3690639,7.9501064e-05,0.007677256,-0.041857377,0.0034979691,0.029030565,0.6325699,-0.019758776,0.00080800673,0.00037262327,-0.009982789,0.008644332,0.016448276,0.037138347,1.6202824,0.0007503629,488.02423,0.1253103,0.46781075,0.30786252,0.22637951,0.09072399,inf,inf,inf,inf,1,1,1,1,2,2,2,2,2,1,1,1,0,0,0
53124000,53124000,4200000,47.3977508,8.5456073,0.04556188,0.055476822,1.329762,7.9501064e-05,0.007677256,-0.041857377,0.0016548878,0.02830365,0.55502754,-0.09420322,0.00080800673,0.00037262327,-0.009982789,0.0016811244,0.016372751,-0.0037755815,1.6203985,0.0007503629,488.02423,0.16461217,0.47920513,0.31069845,0.24448884,0.09167488,inf,inf,inf,inf,1,1,1,1,2,2,2,2,2,1,1,1,0,0,0
53628000,53628000,4200000,47.3977508,8.5456073,0.042300303,0.049152367,1.2991344,7.9501064e-05,0.007677256,-0.041857377,0.0005898002,0.020291347,0.4869405,-0.13043067,0.00080800673,0.00037262327,-0.009982789,0.00089763483,0.012565127,0.047671605,1.6205401,0.0007503629,488.02423,0.19523978,0.49247298,0.31298628,0.26008487,0.09437987,inf,inf,inf,inf,1,1,1,1,2,2,2,2,2,1,1,1,0,0,0
54124000,54124000,4200000,47.3977508,8.5456073,0.044940703,0.043956395,1.2691892,7.9501064e-05,0.007677256,-0.041857377,0.0028872208,0.01411946,0.42698509,-0.14449565,0.00080800673,0.00037262327,-0.009982789,0.012422431,0.009375784,0.013442709,1.620996,0.0007503629,488.02423,0.22518492,0.5059257,0.3164976,0.26901883,0.098425396,inf,inf,inf,inf,1,1,1,1,2,2,2,2,2,1,1,1,0,0,0
54628000,54628000,4200000,47.3977508,8.5456073,0.045562044,0.044247895,1.2163178,7.9501064e-05,0.007677256,-0.041857377,1.32042405e-05,0.010977481,0.36326241,-0.17182578,0.00080800673,0.00037262327,-0.009982789,-0.038930606,0.026472624,-0.012361444,1.6218684,0.0007503629,488.02423,0.27805638,0.46843424,0.30190587,0.22771908,0.09874604,inf,inf,inf,inf,1,1,1,1,2,2,2,2,2,1,1,1,0,0,0
55124000,55124000,4200000,47.3977508,8.5456073,0.044758834,0.042598523,1.129148,7.9501064e-05,0.007677256,-0.041857377,-0.0038199604,0.005844398,0.29304737,-0.226025,0.00080800673,0.00037262327,-0.009982789,-0.009740339,-0.008063769,-0.0018673016,1.6221075,0.0007503629,488.02423,0.36522615,0.4796389,0.30685088,0.23039928,0.103757665,inf,inf,inf,inf,1,1,1,1,2,2,2,2,2,1,1,1,0,0,0
55628000,55628000,4200000,47.3977508,8.5456073,0.04143678,0.035620492,1.0458151,7.9501064e-05,0.007677256,-0.041857377,-0.0054625603,-0.0023445839,0.22788648,-0.25342113,0.00080800673,0.00037262327,-0.009982789,0.034820955,4.9389197e-05,-0.0031348316,1.6226125,0.0007503629,488.02423,0.44855905,0.4927388,0.3134704,0.2319797,0.10899297,inf,inf,inf,inf,1,1,1,1,2,2,2,2,2,1,1,1,0,0,0
56124000,56124000,4200000,47.3977508,8.5456073,0.033115257,0.030587552,0.9679831,7.9501064e-05,0.007677256,-0.041857377,-0.010785109,-0.009515928,0.1709309,-0.25901046,0.00080800673,0.00037262327,-0.009982789,-0.004093395,-0.02416875,-0.022674909,1.6225884,0.0007503629,488.02423,0.526391,0.5054913,0.31940156,0.2318032,0.113643,inf,inf,inf,inf,1,1,1,1,2,2,2,2,2,1,1,1,0,0,0
56628000,56628000,4200000,47.3977508,8.5456073,0.031809792,0.03673204,0.88169795,7.9501064e-05,0.007677256,-0.041857377,-0.00995725,-0.010448807,0.1181752,-0.26309788,0.00080800673,0.00037262327,-0.009982789,0.01104299,-0.034928698,-0.0039646397,1.6226686,0.0007503629,488.02423,0.1,0.46856686,0.30758834,0.20001778,0.11196322,inf,inf,inf,inf,1,1,1,1,2,2,2,2,2,0,1,1,0,0,0
57124000,57124000,4200000,47.3977508,8.5456073,0.03960321,0.037778232,0.774503,7.9501064e-05,0.007677256,-0.041857377,-0.006042434,-0.012478891,0.06055013,-0.29076576,0.00080800673,0.00037262327,-0.009982789,-0.032523498,0.0011539668,-0.035279427,1.6229633,0.0007503629,488.02423,0.12563103,0.47947693,0.31423232,0.20054832,0.11546245,inf,inf,inf,inf,1,1,1,1,2,2,2,2,2,0,1,1,0,0,0
57628000,57628000,4200000,47.3977508,8.5456073,0.0484182,0.035448164,0.6752586,7.9501064e-05,0.007677256,-0.041857377,-0.0031081182,-0.013000301,0.010889182,-0.29549935,0.00080800673,0.00037262327,-0.009982789,0.024839688,0.017227313,-0.023081897,1.6232569,0.0007503629,488.02423,0.15730458,0.491794,0.32323685,0.20140721,0.11890602,inf,inf,inf,inf,1,1,1,1,2,2,2,2,2,0,1,1,0,0,0
58124000,58124000,4200000,47.3977508,8.5456073,0.04985196,0.037035756,0.5896571,7.9501064e-05,0.007677256,-0.041857377,-0.0045769936,-0.011865374,-0.029781753,-0.2815503,0.00080800673,0.00037262327,-0.009982789,-0.017193945,0.016827077,-0.018497927,1.6236122,0.0007503629,488.02423,0.17557955,0.5034801,0.33050644,0.20189415,0.12147056,inf,inf,inf,inf,1,1,1,1,2,2,2,2,2,0,1,1,0,0,0
58628000,58628000,4200000,47.3977508,8.5456073,0.040782165,0.037433147,0.49931756,7.9501064e-05,0.007677256,-0.041857377,-0.011563538,-0.012040596,-0.06841686,-0.27394187,0.00080800673,0.00037262327,-0.009982789,0.0006970876,-0.014195058,-0.039262693,1.624055,0.0007503629,488.02423,0.12611857,0.4680326,0.31655082,0.17962761,0.11657013,inf,inf,inf,inf,1,1,1,1,2,2,2,2,2,0,1,1,0,0,0
59124000,59124000,4200000,47.3977508,8.5456073,0.03222825,0.036813438,0.4072856,7.9501064e-05,0.007677256,-0.041857377,-0.016340105,-0.01489868,-0.10198677,-0.26905376,0.00080800673,0.00037262327,-0.009982789,0.010006165,-0.009873503,-0.02852082,1.624473,0.0007503629,488.02423,0.15611586,0.4782902,0.32316744,0.18131648,0.11839809,inf,inf,inf,inf,1,1,1,1,2,2,2,2,2,0,1,1,0,0,0
