timestamp,timestamp_sample,ref_timestamp,ref_lat,ref_lon,x,y,z,delta_xy[0],delta_xy[1],delta_z,vx,vy,vz,z_deriv,delta_vxy[0],delta_vxy[1],delta_vz,ax,ay,az,heading,delta_heading,ref_alt,dist_bottom,eph,epv,evh,evv,vxy_max,vz_max,hagl_min,hagl_max,xy_valid,z_valid,v_xy_valid,v_z_valid,xy_reset_counter,z_reset_counter,vxy_reset_counter,vz_reset_counter,heading_reset_counter,heading_good_for_control,xy_global,z_global,dist_bottom_valid,dist_bottom_sensor_bitfield,dead_reckoning
3612000,3612000,0,nan,nan,-0.00031157947,-0.0014934306,-0.007225232,-3.6619138e-08,1.2283679e-08,0.0,0.0005518701,-0.0047741104,-0.024170043,-0.019136308,-6.1031897e-06,2.0472798e-06,0.0018590242,0.012543154,0.015092081,-0.033969987,8.81831e-05,0.0,nan,0.107658915,0.0105147045,5.7735023,0.06608455,0.021803467,inf,inf,inf,inf,0,0,0,0,1,1,1,1,0,0,0,0,0,0,1
4116000,4116000,0,nan,nan,0.0021673082,-0.00045515285,-0.050157513,-3.6619138e-08,1.2283679e-08,0.0,0.0075713317,-0.00097167183,-0.012526394,-0.047568683,-6.1031897e-06,2.0472798e-06,0.0018590242,0.031248474,0.0449162,-0.04808232,3.5312107e-05,0.0,nan,0.1,0.020683503,1.873527,0.1025708,0.05921061,inf,inf,inf,inf,0,1,0,1,1,1,1,1,0,0,0,0,0,0,1
4620000,4620000,4200000,47.3977508,8.5456073,0.0022538814,-0.00039641943,-0.04920068,-3.6619138e-08,1.2283679e-08,0.0,0.006081835,-0.0037876617,-0.01211106,-0.02625224,-6.1031897e-06,2.0472798e-06,0.0018590242,0.012149379,-0.024594888,-0.0062827016,0.00027204363,0.0,488.02423,0.12220292,0.025934877,0.9907019,0.103683986,0.085910805,inf,inf,inf,inf,0,1,0,1,1,1,1,1,0,0,1,1,0,0,1
5116000,5116000,4200000,47.3977508,8.5456073,0.0009026597,-0.001451385,-0.036065448,-3.6619138e-08,1.2283679e-08,0.0,0.0025526404,-0.0043234774,-0.010573868,-0.0045707882,-6.1031897e-06,2.0472798e-06,0.0018590242,0.04398559,-0.0037858842,-0.017177312,8.0418315e-05,0.0,488.02423,0.10595645,0.014723107,0.7744305,0.060880076,0.089368284,inf,inf,inf,inf,0,1,0,1,1,1,1,1,0,0,1,1,0,0,1
5620000,5620000,4200000,47.3977508,8.5456073,0.00013148345,0.00056358514,-0.03776488,-3.6619138e-08,1.2283679e-08,0.0,0.0011135951,0.0027284005,-0.008987208,-0.003140933,-6.1031897e-06,2.0472798e-06,0.0018590242,-0.022509672,-0.021970043,0.017664393,0.0001706584,0.0,488.02423,0.10480903,0.018391795,0.6472937,0.06290878,0.093869336,inf,inf,inf,inf,0,1,0,1,1,1,1,1,0,0,1,1,0,0,1
6116000,6116000,4200000,47.3977508,8.5456073,-0.00019673753,0.0010737758,-0.03700574,-3.6619138e-08,1.2283679e-08,0.0,9.160212e-05,0.0012979669,-0.008408891,-0.0013313318,-6.1031897e-06,2.0472798e-06,0.0018590242,-0.0017153942,0.004638568,0.029501503,0.00010526456,0.0,488.02423,0.10159755,0.012196454,0.57662004,0.04451378,0.094491504,inf,inf,inf,inf,0,1,0,1,1,1,1,1,0,0,1,1,0,0,1
6612000,6612000,4200000,47.3977508,8.5456073,-0.0017164932,0.0007359113,-0.034022532,-3.6619138e-08,1.2283679e-08,0.0,-0.0049263863,0.0017176494,-0.0048273494,0.0040066754,-6.1031897e-06,2.0472798e-06,0.0018590242,-0.0035814445,-0.0013603129,0.006495043,8.849413e-05,0.0,488.02423,0.10192968,0.014647981,0.5253581,0.047610953,0.085187525,inf,inf,inf,inf,0,1,0,1,1,1,1,1,0,0,1,1,0,0,1
7116000,7116000,4200000,47.3977508,8.5456073,-0.0019051695,0.0022772942,-0.0318409,-3.6619138e-08,1.2283679e-08,0.0,-0.0029160134,0.008678417,-0.00014451344,0.0076582646,-6.1031897e-06,2.0472798e-06,0.0018590242,-0.0027908825,0.03674111,0.010156072,-4.539374e-05,0.0,488.02423,0.100498095,0.017862491,0.4831197,0.05166538,0.08470073,inf,inf,inf,inf,0,1,0,1,1,1,1,1,0,0,1,1,0,0,1
7612000,7612000,4200000,47.3977508,8.5456073,-0.00029794572,0.0034117128,-0.029343134,-3.6619138e-08,1.2283679e-08,0.0,0.0005778314,0.007163762,0.0020647126,0.008086499,-6.1031897e-06,2.0472798e-06,0.0018590242,0.029414322,0.018424165,-0.024564562,-0.00033227273,0.0,488.02423,0.1,0.012774112,0.4531719,0.041055966,0.07744156,inf,inf,inf,inf,0,1,0,1,1,1,1,1,0,0,1,1,0,0,1
8116000,8116000,4200000,47.3977508,8.5456073,-6.5887114e-05,0.0016214921,-0.030229619,-3.6619138e-08,1.2283679e-08,0.0,-0.0017365458,0.0027178172,0.00045483696,0.0028313564,-6.1031897e-06,2.0472798e-06,0.0018590242,-0.030427368,0.013923636,-0.006482936,-0.0005069671,0.0,488.02423,0.1,0.015586664,0.42720112,0.04538097,0.07749221,inf,inf,inf,inf,0,1,0,1,1,1,1,1,0,0,1,1,0,0,1
8612000,8612000,4200000,47.3977508,8.5456073,-0.00061963504,0.00025693674,-0.07548938,-3.6619138e-08,1.2283679e-08,-0.04185904,-0.0009373134,0.0018269293,0.0013438675,0.00016498228,-6.1031897e-06,2.0472798e-06,0.0018590242,0.0046731,0.046006605,0.017835757,-0.0005541116,0.0,488.02423,0.1,0.011492597,1.0000001,0.037303474,0.077723324,inf,inf,inf,inf,0,1,0,1,1,2,1,1,0,0,1,1,0,0,1
9116000,9116000,4200000,47.3977508,8.5456073,0.0007229608,0.00054884824,-0.07660979,-3.6619138e-08,1.2283679e-08,-0.04185904,0.0035300362,0.0031117576,0.0026295113,0.00013337535,-6.1031897e-06,2.0472798e-06,0.0018590242,0.015636513,0.018189413,-0.0065974887,-0.00051928934,0.0,488.02423,0.1,0.013912654,0.6050718,0.041263487,0.0735364,inf,inf,inf,inf,0,1,0,1,1,2,1,1,0,0,1,1,0,0,1
9612000,9612000,4200000,47.3977508,8.5456073,0.0018822514,0.0009862274,-0.078859635,-3.6619138e-08,1.2283679e-08,-0.04185904,0.00498717,0.003523581,0.0037344738,0.00026629493,-6.1031897e-06,2.0472798e-06,0.0018590242,-0.0010602524,0.02321592,0.01814775,-0.0003747281,0.0,488.02423,0.10197343,0.016552357,0.4789476,0.044964932,0.07470845,inf,inf,inf,inf,0,1,0,1,1,2,1,1,0,0,1,1,0,0,1
10116000,10116000,4200000,47.3977508,8.5456073,0.0016050347,0.0005856257,-0.074755326,-3.6619138e-08,1.2283679e-08,-0.04185904,0.0018174528,0.0008199138,0.0071604443,0.0066682096,-6.1031897e-06,2.0472798e-06,0.0018590242,-0.026580468,-0.0151509,-0.014242715,-0.00050278654,0.0,488.02423,0.1,0.012564479,0.41019475,0.038142238,0.07134755,inf,inf,inf,inf,0,1,0,1,1,2,1,1,0,0,1,1,0,0,1
10612000,10612000,4200000,47.3977508,8.5456073,-0.00032505524,-0.0010095243,-0.0729901,-3.6619138e-08,1.2283679e-08,-0.04185904,-0.0018563053,-0.0023430986,0.008188315,0.0068595908,-6.1031897e-06,2.0472798e-06,0.0018590242,0.003557361,-0.034238778,0.019961035,-0.0005742451,0.0,488.02423,0.1,0.014953887,0.34257284,0.041843798,0.07271026,inf,inf,inf,inf,0,1,0,1,1,2,1,1,0,0,1,1,0,0,1
11116000,11116000,4200000,47.3977508,8.5456073,-0.000944055,-0.002351183,-0.06950999,-3.6619138e-08,1.2283679e-08,-0.04185904,-0.0021106922,-0.005174513,0.013243646,0.011168819,-6.1031897e-06,2.0472798e-06,0.0018590242,0.044980563,-0.0138978055,0.01402758,-0.00055449817,0.0,488.02423,0.1,0.011478185,0.31813726,0.035826854,0.07445083,inf,inf,inf,inf,0,1,0,1,1,2,1,1,0,0,1,1,0,0,1
11620000,11620000,4200000,47.3977508,8.5456073,-0.0015846316,-0.0028583154,-0.06653507,-3.6619138e-08,1.2283679e-08,-0.04185904,-0.0044652917,-0.006182818,0.017819198,0.013050651,-6.1031897e-06,2.0472798e-06,0.0018590242,-0.004944828,0.026381617,0.019748693,-0.0005066297,0.0,488.02423,0.1,0.013824507,0.29809213,0.039610434,0.0715363,inf,inf,inf,inf,0,1,0,1,1,2,1,1,0,0,1,1,0,0,1
12116000,12116000,4200000,47.3977508,8.5456073,-0.0023120965,-0.0017117587,-0.06552425,-3.6619138e-08,1.2283679e-08,-0.04185904,-0.005356029,-0.002101477,0.016036589,0.007711842,-6.1031897e-06,2.0472798e-06,0.0018590242,0.018432982,-0.03721997,-0.00102818,-0.00056054303,0.0,488.02423,0.1,0.016389687,0.28477737,0.043188363,0.073213615,inf,inf,inf,inf,0,1,0,1,1,2,1,1,0,0,1,1,0,0,1
12620000,12620000,4200000,47.3977508,8.5456073,-0.0014926333,-0.00011750198,-0.065915145,-3.6619138e-08,1.2283679e-08,-0.04185904,-0.0006444102,0.0030297907,0.015816862,0.004871155,-6.1031897e-06,2.0472798e-06,0.0018590242,0.035687696,0.014759221,0.027122905,-0.0004997474,0.0,488.02423,0.1,0.012607383,0.26284295,0.037301064,0.07020764,inf,inf,inf,inf,0,1,0,1,1,2,1,1,0,0,1,1,0,0,1
13116000,13116000,4200000,47.3977508,8.5456073,8.9238056e-05,0.0023573926,-0.066925555,-3.6619138e-08,1.2283679e-08,-0.04185904,0.0009262261,0.0051173223,0.015265238,0.0023995743,-6.1031897e-06,2.0472798e-06,0.0018590242,0.024146326,-0.0073205587,0.018085351,-0.0005409024,0.0,488.02423,0.1,0.014960335,0.25623986,0.040872872,0.07193532,inf,inf,inf,inf,0,1,0,1,1,2,1,1,0,0,1,1,0,0,1
13612000,13612000,4200000,47.3977508,8.5456073,0.0013652422,0.0026114064,-0.06730591,-3.6619138e-08,1.2283679e-08,-0.04185904,0.004271239,0.0042689247,0.013254911,0.00019574829,-6.1031897e-06,2.0472798e-06,0.0018590242,0.006467758,0.00016928242,0.008433125,-0.00041770271,0.0,488.02423,0.1,0.011382309,0.2508737,0.035052966,0.07367783,inf,inf,inf,inf,0,1,0,1,1,2,1,1,0,0,1,1,0,0,1
14116000,14116000,4200000,47.3977508,8.5456073,0.0015769268,0.0008277612,-0.06917406,-3.6619138e-08,1.2283679e-08,-0.04185904,0.002937451,-0.0006611996,0.011774922,-0.0017503152,-6.1031897e-06,2.0472798e-06,0.0018590242,0.0028216743,0.021321975,0.016639007,-0.00035966444,0.0,488.02423,0.1,0.013675964,0.24529949,0.03873682,0.07105637,inf,inf,inf,inf,0,1,0,1,1,2,1,1,0,0,1,1,0,0,1
14612000,14612000,4200000,47.3977508,8.5456073,0.0013747792,-0.0008691427,-0.068337105,-3.6619138e-08,1.2283679e-08,-0.04185904,0.0041035544,-0.0024002318,0.009064084,-0.002123273,-6.1031897e-06,2.0472798e-06,0.0018590242,0.053088527,-0.041896664,-0.032166947,-0.0005225726,0.0,488.02423,0.1,0.01618601,0.23556124,0.042222124,0.0724721,inf,inf,inf,inf,0,1,0,1,1,2,1,1,0,0,1,1,0,0,1
15116000,15116000,4200000,47.3977508,8.5456073,0.0012969642,-0.0005803666,-0.06970286,-3.6619138e-08,1.2283679e-08,-0.04185904,0.0024029815,-0.00015477795,0.008202969,-0.0024291396,-6.1031897e-06,2.0472798e-06,0.0018590242,0.025999207,-0.002796485,-0.0076480205,-0.00036249732,0.0,488.02423,0.1,0.012520316,0.23203142,0.03671712,0.069941,inf,inf,inf,inf,0,1,0,1,1,2,1,1,0,0,1,1,0,0,1
15612000,15612000,4200000,47.3977508,8.5456073,0.0009989388,-0.00012236122,-0.071362115,-3.6619138e-08,1.2283679e-08,-0.04185904,0.001184169,-0.00081606343,0.009355655,-0.0015382762,-6.1031897e-06,2.0472798e-06,0.0018590242,-0.0325415,0.023160158,0.028847715,-0.0003165881,0.0,488.02423,0.1,0.014834296,0.23140746,0.040214296,0.07175577,inf,inf,inf,inf,0,1,0,1,1,2,1,1,0,0,1,1,0,0,1
16116000,16116000,4200000,47.3977508,8.5456073,9.679745e-05,-0.0008763159,-0.07158755,-3.6619138e-08,1.2283679e-08,-0.04185904,0.00042266218,-0.0026316256,0.009005063,-0.0010518411,-6.1031897e-06,2.0472798e-06,0.0018590242,-0.02592601,-0.0051075327,0.029028391,-0.00020344999,0.0,488.02423,0.1,0.011483722,0.22827566,0.034756903,0.06919567,inf,inf,inf,inf,0,1,0,1,1,2,1,1,0,0,1,1,0,0,1
16612000,16612000,4200000,47.3977508,8.5456073,-0.00021550887,-0.0018365792,-0.07139193,-3.6619138e-08,1.2283679e-08,-0.04185904,-0.000997194,-0.0044833655,0.012841548,0.0028596083,-6.1031897e-06,2.0472798e-06,0.0018590242,-0.009565017,-0.011430063,0.020214355,-0.0001619875,0.0,488.02423,0.1,0.013597932,0.22282565,0.038280692,0.07065545,inf,inf,inf,inf,0,1,0,1,1,2,1,1,0,0,1,1,0,0,1
17116000,17116000,4200000,47.3977508,8.5456073,-0.00075376814,-0.0022767377,-0.07074728,-3.6619138e-08,1.2283679e-08,-0.04185904,-0.0016084142,-0.0051476955,0.013805236,0.0030710218,-6.1031897e-06,2.0472798e-06,0.0018590242,0.0043796604,-0.022373961,-0.007666647,6.607354e-05,0.0,488.02423,0.1,0.016345177,0.22351909,0.042055827,0.07266594,inf,inf,inf,inf,0,1,0,1,1,2,1,1,0,0,1,1,0,0,1
17612000,17612000,4200000,47.3977508,8.5456073,-0.0010762918,-0.0017220349,-0.071034305,-3.6619138e-08,1.2283679e-08,-0.04185904,-0.0028581428,-0.0030148767,0.01065129,-0.0010527687,-6.1031897e-06,2.0472798e-06,0.0018590242,-0.018939098,-0.011222436,0.00509154,-5.4122804e-05,0.0,488.02423,0.1,0.01247273,0.22165021,0.036408,0.06998893,inf,inf,inf,inf,0,1,0,1,1,2,1,1,0,0,1,1,0,0,1
18116000,18116000,4200000,47.3977508,8.5456073,-0.00076980295,-0.00040703328,-0.071537346,-3.6619138e-08,1.2283679e-08,-0.04185904,0.0012307385,-0.0020019119,0.012446198,0.0011166821,-6.1031897e-06,2.0472798e-06,0.0018590242,0.0044453186,-0.001676235,-0.009566545,5.1550756e-05,0.0,488.02423,0.1,0.015016369,0.22281979,0.04020768,0.071998976,inf,inf,inf,inf,0,1,0,1,1,2,1,1,0,0,1,1,0,0,1
18620000,18620000,4200000,47.3977508,8.5456073,0.0014052442,-0.0014967555,-0.06944566,-3.6619138e-08,1.2283679e-08,-0.04185904,0.0042962576,-0.0061982265,0.013214153,0.0032784897,-6.1031897e-06,2.0472798e-06,0.0018590242,-0.006396483,-0.028111462,0.010039656,0.00018696755,0.0,488.02423,0.1,0.01164846,0.21630697,0.03489714,0.069136135,inf,inf,inf,inf,0,1,0,1,1,2,1,1,0,0,1,1,0,0,1
19116000,19116000,4200000,47.3977508,8.5456073,0.00097051763,-0.0026586337,-0.06926038,-3.6619138e-08,1.2283679e-08,-0.04185904,0.00015068613,-0.006737467,0.013507121,0.0025218981,-6.1031897e-06,2.0472798e-06,0.0018590242,0.02521467,-0.018240023,0.009712762,0.00021015428,0.0,488.02423,0.1,0.013785776,0.21798733,0.03838162,0.070991315,inf,inf,inf,inf,0,1,0,1,1,2,1,1,0,0,1,1,0,0,1
19612000,19612000,4200000,47.3977508,8.5456073,9.782458e-05,-0.002247164,-0.068622254,-3.6619138e-08,1.2283679e-08,-0.04185904,0.0005241487,-0.004720101,0.011545869,0.00070277986,-6.1031897e-06,2.0472798e-06,0.0018590242,-0.020219564,-0.007054186,0.0033648682,9.6281765e-06,0.0,488.02423,0.1,0.016284047,0.21948552,0.041778482,0.07283258,inf,inf,inf,inf,0,1,0,1,1,2,1,1,0,0,1,1,0,0,1
20116000,20116000,4200000,47.3977508,8.5456073,0.00033034163,-0.0007741304,-0.0692061,-3.6619138e-08,1.2283679e-08,-0.04185904,0.0012476995,-0.0019385611,0.010468604,-0.0006535645,-6.1031897e-06,2.0472798e-06,0.0018590242,-0.0014053074,0.0122752525,-0.0082440665,0.00025954473,0.0,488.02423,0.1,0.012658191,0.21857019,0.036579043,0.07032515,inf,inf,inf,inf,0,1,0,1,1,2,1,1,0,0,1,1,0,0,1
20620000,20620000,4200000,47.3977508,8.5456073,-0.0005524664,0.0005773723,-0.06877581,-3.6619138e-08,1.2283679e-08,-0.04185904,-0.004421935,0.0009098344,0.011461913,0.0010782415,-6.1031897e-06,2.0472798e-06,0.0018590242,-0.0047485805,-0.026993096,0.014488584,0.0003941931,0.0,488.02423,0.1,0.015226242,0.21533756,0.040339112,0.071953826,inf,inf,inf,inf,0,1,0,1,1,2,1,1,0,0,1,1,0,0,1
21116000,21116000,4200000,47.3977508,8.5456073,-0.0030872296,0.0020830457,-0.06759722,-3.6619138e-08,1.2283679e-08,-0.04185904,-0.009136841,0.0045013055,0.012900988,0.0030293139,-6.1031897e-06,2.0472798e-06,0.0018590242,-0.022366205,0.0089094965,0.011505558,0.0004897719,0.0,488.02423,0.1,0.011631062,0.21446578,0.034769673,0.069299765,inf,inf,inf,inf,0,1,0,1,1,2,1,1,0,0,1,1,0,0,1
21612000,21612000,4200000,47.3977508,8.5456073,-0.0043071937,0.00285938,-0.067446925,-3.6619138e-08,1.2283679e-08,-0.04185904,-0.009447003,0.0039513824,0.011189929,0.00063462637,-6.1031897e-06,2.0472798e-06,0.0018590242,-0.029737564,0.014240358,0.032041218,0.00035909266,0.0,488.02423,0.1,0.0137591455,0.21661031,0.038231708,0.07115659,inf,inf,inf,inf,0,1,0,1,1,2,1,1,0,0,1,1,0,0,1
22116000,22116000,4200000,47.3977508,8.5456073,-0.0041025276,0.0018242721,-0.067243844,-3.6619138e-08,1.2283679e-08,-0.04185904,-0.009750843,0.0020509018,0.012083264,0.0016352893,-6.1031897e-06,2.0472798e-06,0.0018590242,-0.0076733264,-0.010863936,0.017721204,0.0002860742,0.0,488.02423,0.1,0.0107415235,0.21880288,0.033215232,0.073189534,inf,inf,inf,inf,0,1,0,1,1,2,1,1,0,0,1,1,0,0,1
22620000,22620000,4200000,47.3977508,8.5456073,-0.0036519007,0.0007571446,-0.06639436,-3.6619138e-08,1.2283679e-08,-0.04185904,-0.00793177,0.00048955594,0.015193842,0.004449002,-6.1031897e-06,2.0472798e-06,0.0018590242,-0.019497702,-0.009074428,0.051127743,0.0002640278,0.0,488.02423,0.1,0.012854848,0.21315165,0.036807477,0.07029049,inf,inf,inf,inf,0,1,0,1,1,2,1,1,0,0,1,1,0,0,1
23116000,23116000,4200000,47.3977508,8.5456073,-0.001104684,-0.0005070268,-0.06588063,-3.6619138e-08,1.2283679e-08,-0.04185904,-0.0003243112,-0.0019877346,0.017600087,0.0049541295,-6.1031897e-06,2.0472798e-06,0.0018590242,0.010938441,0.004761765,0.024086794,0.00018653453,0.0,488.02423,0.1,0.015211662,0.21510744,0.046402346,0.07213853,inf,inf,inf,inf,0,1,0,1,1,2,1,1,0,0,1,1,0,0,1
23612000,23612000,4200000,47.3977508,8.5456073,0.00022415123,-0.0011388215,-0.06043545,-3.6619138e-08,1.2283679e-08,-0.04185904,0.0012289505,-0.00041870974,0.021740621,0.011154512,-6.1031897e-06,2.0472798e-06,0.0018590242,0.02176748,0.0073849363,0.006249174,0.00029205004,0.0,488.02423,0.100355566,0.06465215,0.22602439,0.20213056,0.08335115,inf,inf,inf,inf,0,1,0,1,1,2,1,1,0,0,1,1,0,0,1
24116000,24116000,4200000,47.3977508,8.5456073,0.00029521098,-0.0012868479,-0.049745772,-3.6619138e-08,1.2283679e-08,-0.04185904,-6.589346e-05,-0.0011273995,0.025005555,0.017605687,-6.1031897e-06,2.0472798e-06,0.0018590242,-0.0064160554,-0.008501155,-0.03585219,0.00017368983,0.0,488.02423,0.10035079,0.20492557,0.24127841,0.3742261,0.094754204,inf,inf,inf,inf,0,1,0,1,1,2,1,1,0,0,1,1,0,0,1
24620000,24620000,4200000,47.3977508,8.5456073,-0.0023232105,-0.0024997883,-0.038385503,-3.6619138e-08,1.2283679e-08,-0.04185904,-0.00581135,-0.0040473444,0.031008912,0.024324678,-6.1031897e-06,2.0472798e-06,0.0018590242,-0.012570482,-0.0040948796,0.015286728,0.00026405917,0.0,488.02423,0.1,0.43385082,0.2531975,0.5469895,0.10431227,inf,inf,inf,inf,0,1,0,1,1,2,1,1,0,0,1,1,0,0,1
25116000,25116000,4200000,47.3977508,8.5456073,-0.007347042,-0.0042548934,-0.025992956,-3.6619138e-08,1.2283679e-08,-0.04185904,-0.01044926,-0.003800485,0.03796609,0.03000573,-6.1031897e-06,2.0472798e-06,0.0018590242,-0.020962818,0.0010989751,0.016060656,0.0004574304,0.0,488.02423,0.1,0.74372625,0.2750555,0.71633345,0.113927,inf,inf,inf,inf,0,1,0,1,1,2,1,1,0,0,1,1,0,0,1
25612000,25612000,4200000,47.3977508,8.5456073,-0.015298254,-0.0049834005,-0.012866791,-3.6619138e-08,1.2283679e-08,-0.04185904,-0.017411845,-0.00087786483,0.04272394,0.032182645,-6.1031897e-06,2.0472798e-06,0.0018590242,-0.027182452,0.039475095,-0.006500631,0.00070891,0.0,488.02423,0.1,1.1344776,0.2980289,0.88337344,0.122118086,inf,inf,inf,inf,0,1,0,1,1,2,1,1,0,0,1,1,0,0,1
26116000,26116000,4200000,47.3977508,8.5456073,-0.034862306,0.012570861,-0.042712115,-3.6619138e-08,1.2283679e-08,-0.04185904,-0.10099242,0.11425724,-0.17310797,-0.18831949,-6.1031897e-06,2.0472798e-06,0.0018590242,-0.41693273,0.42211914,-0.7575741,0.005940999,0.0,488.02423,0.13078895,1.5994468,0.323382,1.0472243,0.12910537,inf,inf,inf,inf,0,1,0,1,1,2,1,1,0,0,1,1,0,0,1
26620000,26620000,4200000,47.3977508,8.5456073,-0.10735821,0.09091194,-0.2547933,-3.6619138e-08,1.2283679e-08,-0.04185904,-0.1395158,0.1500574,-0.5884319,-0.60745764,-6.1031897e-06,2.0472798e-06,0.0018590242,0.09313837,-0.07778512,-0.27833784,0.0055130036,0.0,488.02423,0.34287012,2.1337094,0.3275493,1.2116749,0.12927242,inf,inf,inf,inf,0,1,0,1,1,2,1,1,0,0,1,1,0,0,1
27116000,27116000,4200000,47.3977508,8.5456073,-0.16325898,0.14795122,-0.56530774,-3.6619138e-08,1.2283679e-08,-0.04185904,-0.08853762,0.075805455,-0.6013941,-0.6285943,-6.1031897e-06,2.0472798e-06,0.0018590242,0.13417323,-0.2005749,-0.11324137,0.005290176,0.0,488.02423,0.65338457,2.652507,0.34708855,1.3183938,0.132943,inf,inf,inf,inf,0,1,0,1,1,2,1,1,0,0,1,1,0,0,1
27612000,27612000,4200000,47.3977508,8.5456073,-0.18028745,0.1531463,-0.8925918,-3.6619138e-08,1.2283679e-08,-0.04185904,-0.029605381,-0.011110327,-0.62973195,-0.6609875,-6.1031897e-06,2.0472798e-06,0.0018590242,0.11501756,-0.16098055,0.030850058,0.0049326145,0.0,488.02423,0.9806686,3.196328,0.36455557,1.4132015,0.13560513,inf,inf,inf,inf,0,1,0,1,1,2,1,1,0,0,1,1,0,0,1
28116000,28116000,4200000,47.3977508,8.5456073,-0.16753806,0.11739023,-1.230376,-3.6619138e-08,1.2283679e-08,-0.04185904,0.0049809525,-0.06368166,-0.61598957,-0.6513227,-6.1031897e-06,2.0472798e-06,0.0018590242,0.044664294,-0.03086231,0.13561918,0.004871729,0.0,488.02423,1.3184528,3.7205286,0.37845588,1.4784387,0.13696694,inf,inf,inf,inf,0,1,0,1,1,2,1,1,0,0,1,1,0,0,1
28620000,28620000,4200000,47.3977508,8.5456073,-0.13972808,0.066514,-1.5575408,-3.6619138e-08,1.2283679e-08,-0.04185904,0.017423602,-0.07843906,-0.55797976,-0.60142684,-6.1031897e-06,2.0472798e-06,0.0018590242,0.023771105,0.019123996,0.1718886,0.004815182,0.0,488.02423,1.6456176,4.0215034,0.36530942,1.4511402,0.13150217,inf,inf,inf,inf,0,1,0,1,1,2,1,1,0,0,1,1,0,0,1
29116000,29116000,4200000,47.3977508,8.5456073,-0.1109221,0.024860594,-1.844061,-3.6619138e-08,1.2283679e-08,-0.04185904,0.02223265,-0.06457897,-0.38933432,-0.4437136,-6.1031897e-06,2.0472798e-06,0.0018590242,-0.043772608,0.0565662,1.0503027,0.004858108,0.0,488.02423,1.9321378,4.365109,0.3733795,1.443759,0.13180022,inf,inf,inf,inf,0,1,0,1,1,2,1,1,0,0,1,1,0,0,1
29620000,29620000,4200000,47.3977508,8.5456073,-0.08671723,0.0036746194,-1.9673179,-3.6619138e-08,1.2283679e-08,-0.04185904,0.014683399,-0.033745382,-0.09333331,-0.15615048,-6.1031897e-06,2.0472798e-06,0.0018590242,-0.026849898,0.04902649,-0.2021091,0.0050501693,0.0,488.02423,2.055395,4.4146357,0.38297987,1.3427113,0.13270602,inf,inf,inf,inf,0,1,0,1,1,2,1,1,0,0,1,1,0,0,1
30116000,30116000,4200000,47.3977508,8.5456073,-0.07140712,0.0010799018,-2.068992,-3.6619138e-08,1.2283679e-08,-0.04185904,-0.003794329,-0.008247327,-0.12927373,-0.19627595,-6.1031897e-06,2.0472798e-06,0.0018590242,-0.024011081,0.030843524,0.07664505,0.0050354158,0.0,488.02423,2.1570687,4.596596,0.38854158,1.3041441,0.13308549,inf,inf,inf,inf,0,1,0,1,1,2,1,1,0,0,1,1,0,0,1
30612000,30612000,4200000,47.3977508,8.5456073,-0.0703152,0.012147341,-2.1656237,-3.6619138e-08,1.2283679e-08,-0.04185904,-0.030364238,0.017327359,-0.08996506,-0.16133675,-6.1031897e-06,2.0472798e-06,0.0018590242,-0.08100039,0.07246506,0.07901433,0.004233183,0.0,488.02423,2.2537005,4.7287993,0.36823717,1.2564512,0.12796886,inf,inf,inf,inf,0,1,0,1,1,2,1,1,0,0,1,1,0,0,1
31116000,31116000,4200000,47.3977508,8.5456073,-0.08254329,0.03282992,-2.250505,-3.6619138e-08,1.2283679e-08,-0.04185904,-0.050189286,0.03511209,-0.0503937,-0.13086726,-6.1031897e-06,2.0472798e-06,0.0018590242,-0.02267635,0.018316364,0.129343,0.0037736478,0.0,488.02423,2.3385818,4.577601,0.3760126,1.144372,0.12971362,inf,inf,inf,inf,0,1,0,1,1,2,1,1,0,0,1,1,0,0,1
31620000,31620000,4200000,47.3977508,8.5456073,-0.097151436,0.049117785,-2.3080032,-3.6619138e-08,1.2283679e-08,-0.04185904,-0.05612162,0.02943529,-0.0046847225,-0.08779607,-6.1031897e-06,2.0472798e-06,0.0018590242,0.008763687,-0.022814142,0.09149219,0.0039491877,0.0,488.02423,2.39608,4.6455126,0.3814553,1.0970879,0.13115199,inf,inf,inf,inf,0,1,0,1,1,2,1,1,0,0,1,1,0,0,1
32116000,32116000,4200000,47.3977508,8.5456073,-0.10685698,0.054961912,-2.3472216,-3.6619138e-08,1.2283679e-08,-0.04185904,-0.05553005,0.01799062,0.0156619,-0.066617616,-6.1031897e-06,2.0472798e-06,0.0018590242,-0.017839424,-0.050205268,0.06530806,0.0036982668,0.0,488.02423,2.4352984,4.446971,0.3882063,0.99882346,0.13300654,inf,inf,inf,inf,0,1,0,1,1,2,1,1,0,0,1,1,0,0,1
32612000,32612000,4200000,47.3977508,8.5456073,-0.11467469,0.051486123,-2.3819826,-3.6619138e-08,1.2283679e-08,-0.04185904,-0.06023873,0.0065520457,0.032341216,-0.05215937,-6.1031897e-06,2.0472798e-06,0.0018590242,-0.006542264,0.022201274,0.033983957,0.0035194077,0.0,488.02423,2.4700594,4.4721575,0.36557618,0.9583852,0.12848464,inf,inf,inf,inf,0,1,0,1,1,2,1,1,0,0,1,1,0,0,1
33116000,33116000,4200000,47.3977508,8.5456073,-0.12420793,0.047202207,-2.4156141,-3.6619138e-08,1.2283679e-08,-0.04185904,-0.06259815,0.0034416558,0.047319237,-0.04507148,-6.1031897e-06,2.0472798e-06,0.0018590242,-0.035205767,-0.011597133,0.04866812,0.003893684,0.0,488.02423,2.503691,4.4934063,0.37339127,0.92182237,0.13082671,inf,inf,inf,inf,0,1,0,1,1,2,1,1,0,0,1,1,0,0,1
33612000,33612000,4200000,47.3977508,8.5456073,-0.1287853,0.039237715,-2.4390728,-3.6619138e-08,1.2283679e-08,-0.04185904,-0.05722718,-0.005283141,0.054978006,-0.038827036,-6.1031897e-06,2.0472798e-06,0.0018590242,-0.008380579,-0.04734349,0.08421018,0.003994108,0.0,488.02423,2.5271497,4.2912908,0.3805839,0.8489102,0.13297419,inf,inf,inf,inf,0,1,0,1,1,2,1,1,0,0,1,1,0,0,1
34116000,34116000,4200000,47.3977508,8.5456073,-0.13102603,0.024774713,-2.4500332,-3.6619138e-08,1.2283679e-08,-0.04185904,-0.05530469,-0.027973883,0.07688014,-0.0120924385,-6.1031897e-06,2.0472798e-06,0.0018590242,-0.0012893723,-0.03428281,0.1148302,0.00414135,0.0,488.02423,2.53811,4.30256,0.38648742,0.82192343,0.1347646,inf,inf,inf,inf,0,1,0,1,1,2,1,1,0,0,1,1,0,0,1
34612000,34612000,4200000,47.3977508,8.5456073,-0.13245529,0.0029787773,-2.4520717,-3.6619138e-08,1.2283679e-08,-0.04185904,-0.054515254,-0.04515301,0.09359972,0.0060133,-6.1031897e-06,2.0472798e-06,0.0018590242,0.0035687988,-0.04729174,0.009995884,0.0049874005,0.0,488.02423,2.5401485,4.1176457,0.36663744,0.76591074,0.1307604,inf,inf,inf,inf,0,1,0,1,1,2,1,1,0,0,1,1,0,0,1
35116000,35116000,4200000,47.3977508,8.5456073,-0.13416404,-0.021826634,-2.4578516,-3.6619138e-08,1.2283679e-08,-0.04185904,-0.058430996,-0.060226936,0.09230372,-0.0009508126,-6.1031897e-06,2.0472798e-06,0.0018590242,-0.036365774,-0.05783009,-0.00035762784,0.005670815,0.0,488.02423,2.5459285,4.125996,0.37494037,0.7481296,0.13300857,inf,inf,inf,inf,0,1,0,1,1,2,1,1,0,0,1,1,0,0,1
35612000,35612000,4200000,47.3977508,8.5456073,-0.14056736,-0.049914505,-2.4623709,-3.6619138e-08,1.2283679e-08,-0.04185904,-0.06597683,-0.07434139,0.07711789,-0.016010543,-6.1031897e-06,2.0472798e-06,0.0018590242,-0.05357552,-0.032696098,0.021601094,0.005783214,0.0,488.02423,2.5504477,4.126762,0.38030973,0.73313224,0.13448106,inf,inf,inf,inf,0,1,0,1,1,2,1,1,0,0,1,1,0,0,1
36116000,36116000,4200000,47.3977508,8.5456073,-0.1488667,-0.07982761,-2.4667192,-3.6619138e-08,1.2283679e-08,-0.04185904,-0.07717377,-0.0872029,0.07398681,-0.013500338,-6.1031897e-06,2.0472798e-06,0.0018590242,-0.07332361,-0.023149127,0.026763415,0.0058243475,0.0,488.02423,2.554796,3.9695692,0.3887753,0.69748473,0.13653699,inf,inf,inf,inf,0,1,0,1,1,2,1,1,0,0,1,1,0,0,1
36612000,36612000,4200000,47.3977508,8.5456073,-0.1654112,-0.10708941,-2.4668791,-3.6619138e-08,1.2283679e-08,-0.04185904,-0.09686424,-0.08755775,0.07430765,-0.0066795135,-6.1031897e-06,2.0472798e-06,0.0018590242,-0.049404405,-0.0038981668,0.002951361,0.0062166317,0.0,488.02423,2.554956,3.9734094,0.36864874,0.6904395,0.13209942,inf,inf,inf,inf,0,1,0,1,1,2,1,1,0,0,1,1,0,0,1
37116000,37116000,4200000,47.3977508,8.5456073,-0.18814284,-0.13214181,-2.4723287,-3.6619138e-08,1.2283679e-08,-0.04185904,-0.1100338,-0.09465848,0.062081818,-0.017660575,-6.1031897e-06,2.0472798e-06,0.0018590242,-0.026596082,0.02589033,-0.0008679926,0.005836355,0.0,488.02423,2.5604055,3.8347971,0.37491387,0.66638386,0.13362142,inf,inf,inf,inf,0,1,0,1,1,2,1,1,0,0,1,1,0,0,1
37620000,37620000,4200000,47.3977508,8.5456073,-0.21213862,-0.1568891,-2.4764128,-3.6619138e-08,1.2283679e-08,-0.04185904,-0.12144118,-0.10235684,0.05820029,-0.01694345,-6.1031897e-06,2.0472798e-06,0.0018590242,-0.033647154,-0.020461055,0.024516134,0.006079791,0.0,488.02423,2.5644896,3.848169,0.38333404,0.6672071,0.13554733,inf,inf,inf,inf,0,1,0,1,1,2,1,1,0,0,1,1,0,0,1
38116000,38116000,4200000,47.3977508,8.5456073,-0.24050446,-0.18108813,-2.4775844,-3.6619138e-08,1.2283679e-08,-0.04185904,-0.1364919,-0.10119422,0.055938978,-0.01205058,-6.1031897e-06,2.0472798e-06,0.0018590242,-0.06616859,0.03990384,0.02766121,0.006365791,0.0,488.02423,2.5656612,3.8585796,0.38859305,0.6701364,0.13669746,inf,inf,inf,inf,0,1,0,1,1,2,1,1,0,0,1,1,0,0,1
38612000,38612000,4200000,47.3977508,8.5456073,-0.27201948,-0.19909106,-2.479535,-3.6619138e-08,1.2283679e-08,-0.04185904,-0.16112511,-0.10410451,0.057092167,-0.0066029513,-6.1031897e-06,2.0472798e-06,0.0018590242,-0.07548755,-0.044386175,0.005703419,0.0066953315,0.0,488.02423,2.567612,3.7365851,0.36839122,0.6581889,0.13209121,inf,inf,inf,inf,0,1,0,1,1,2,1,1,0,0,1,1,0,0,1
39116000,39116000,4200000,47.3977508,8.5456073,-0.31251404,-0.2199388,-2.482642,-3.6619138e-08,1.2283679e-08,-0.04185904,-0.17946085,-0.11357269,0.053800415,-0.009470338,-6.1031897e-06,2.0472798e-06,0.0018590242,-0.04273433,-0.024985332,0.013201497,0.007041716,0.0,488.02423,2.5707188,3.7585967,0.37664822,0.6674886,0.13396643,inf,inf,inf,inf,0,1,0,1,1,2,1,1,0,0,1,1,0,0,1
39612000,39612000,4200000,47.3977508,8.5456073,-0.35426226,-0.24040507,-2.4851167,-3.6619138e-08,1.2283679e-08,-0.04185904,-0.19359247,-0.1135269,0.059200764,-0.0034567222,-6.1031897e-06,2.0472798e-06,0.0018590242,0.003645473,-0.022207182,0.062262636,0.00748162,0.0,488.02423,2.5731936,3.652226,0.3840955,0.6622962,0.1356147,inf,inf,inf,inf,0,1,0,1,1,2,1,1,0,0,1,1,0,0,1
40116000,40116000,4200000,47.3977508,8.5456073,-0.39547956,-0.25732753,-2.484227,-3.6619138e-08,1.2283679e-08,-0.04185904,-0.2064366,-0.114652,0.06832595,0.0061169295,-6.1031897e-06,2.0472798e-06,0.0018590242,-0.040132523,0.0026550258,0.03878865,0.008041522,0.0,488.02423,2.5723038,3.682038,0.3900417,0.67599607,0.13688509,inf,inf,inf,inf,0,1,0,1,1,2,1,1,0,0,1,1,0,0,1
40612000,40612000,4200000,47.3977508,8.5456073,-0.43941066,-0.27448085,-2.481528,-3.6619138e-08,1.2283679e-08,-0.04185904,-0.21807127,-0.11683435,0.07143734,0.00958372,-6.1031897e-06,2.0472798e-06,0.0018590242,-0.03596161,-0.0036539421,-0.016863456,0.007971486,0.0,488.02423,2.5696049,3.7115552,0.3694326,0.6907204,0.13218218,inf,inf,inf,inf,0,1,0,1,1,2,1,1,0,0,1,1,0,0,1
41116000,41116000,4200000,47.3977508,8.5456073,-0.47804376,-0.28758967,-2.4845965,-3.6619138e-08,1.2283679e-08,-0.04185904,-0.22588766,-0.11834626,0.077935055,0.009161791,-6.1031897e-06,2.0472798e-06,0.0018590242,-0.00911788,-0.0031929375,0.06951205,0.008118483,0.0,488.02423,2.5726733,3.6275728,0.37543187,0.6925078,0.13356616,inf,inf,inf,inf,0,1,0,1,1,2,1,1,0,0,1,1,0,0,1
41620000,41620000,4200000,47.3977508,8.5456073,-0.5171319,-0.3016229,-2.4858923,-3.6619138e-08,1.2283679e-08,-0.04185904,-0.23268464,-0.118386775,0.08614011,0.010177068,-6.1031897e-06,2.0472798e-06,0.0018590242,-0.06154361,-0.018158766,0.043962147,0.008486511,0.0,488.02423,2.5739691,3.6704938,0.38355976,0.7106548,0.13538995,inf,inf,inf,inf,0,1,0,1,1,2,1,1,0,0,1,1,0,0,1
42116000,42116000,4200000,47.3977508,8.5456073,-0.55165833,-0.31339428,-2.4885657,-3.6619138e-08,1.2283679e-08,-0.04185904,-0.23862271,-0.12104171,0.0963022,0.013280159,-6.1031897e-06,2.0472798e-06,0.0018590242,-0.06638851,-0.01785095,0.07014721,0.008455368,0.0,488.02423,2.5766425,3.5931866,0.3908804,0.7137626,0.13700143,inf,inf,inf,inf,0,1,0,1,1,2,1,1,0,0,1,1,0,0,1
42620000,42620000,4200000,47.3977508,8.5456073,-0.58423877,-0.32475463,-2.4889977,-3.6619138e-08,1.2283679e-08,-0.04185904,-0.24718365,-0.12408702,0.10716903,0.018668745,-6.1031897e-06,2.0472798e-06,0.0018590242,-0.022917258,-0.029607078,0.04314724,0.008855762,0.0,488.02423,2.5770745,3.6446474,0.36897057,0.73329335,0.13206407,inf,inf,inf,inf,0,1,0,1,1,2,1,1,0,0,1,1,0,0,1
43116000,43116000,4200000,47.3977508,8.5456073,-0.6187321,-0.33835176,-2.4919171,-3.6619138e-08,1.2283679e-08,-0.04185904,-0.253469,-0.13015458,0.11990652,0.02007718,-6.1031897e-06,2.0472798e-06,0.0018590242,-0.03139842,-0.04370848,0.03342982,0.009044004,0.0,488.02423,2.579994,3.6963415,0.37629133,0.75244004,0.13377042,inf,inf,inf,inf,0,1,0,1,1,2,1,1,0,0,1,1,0,0,1
43620000,43620000,4200000,47.3977508,8.5456073,-0.64316964,-0.34837204,-2.4907613,-3.6619138e-08,1.2283679e-08,-0.04185904,-0.25652513,-0.13141693,0.12516397,0.017360948,-6.1031897e-06,2.0472798e-06,0.0018590242,-0.027456116,-0.014164644,0.054310072,0.009358784,0.0,488.02423,2.578838,3.6348946,0.38452867,0.75669897,0.13564421,inf,inf,inf,inf,0,1,0,1,1,2,1,1,0,0,1,1,0,0,1
44116000,44116000,4200000,47.3977508,8.5456073,-0.669537,-0.35822973,-2.4841754,-3.6619138e-08,1.2283679e-08,-0.04185904,-0.2581969,-0.12620899,0.13301983,0.024392921,-6.1031897e-06,2.0472798e-06,0.0018590242,-0.047496226,-0.01781118,0.05107652,0.009364996,0.0,488.02423,2.5722523,3.6935976,0.38955942,0.7757411,0.13675605,inf,inf,inf,inf,0,1,0,1,1,2,1,1,0,0,1,1,0,0,1
44612000,44612000,4200000,47.3977508,8.5456073,-0.6874809,-0.36100465,-2.4770384,-3.6619138e-08,1.2283679e-08,-0.04185904,-0.2517402,-0.114914015,0.19284773,0.080662355,-6.1031897e-06,2.0472798e-06,0.0018590242,-0.07085407,-0.0020236038,0.8565634,0.009498958,0.0,488.02423,2.5651152,3.6318698,0.36902776,0.77753437,0.13211975,inf,inf,inf,inf,0,1,0,1,1,2,1,1,0,0,1,1,0,0,1
45116000,45116000,4200000,47.3977508,8.5456073,-0.69897854,-0.35354304,-2.2581573,-3.6619138e-08,1.2283679e-08,-0.04185904,-0.24703935,-0.093430385,0.9285864,0.80362296,-6.1031897e-06,2.0472798e-06,0.0018590242,0.0021592858,-0.005469468,0.43029615,0.009925259,0.0,488.02423,2.346234,3.699591,0.37718135,0.78866136,0.13401216,inf,inf,inf,inf,0,1,0,1,1,2,1,1,0,0,1,1,0,0,1
45612000,45612000,4200000,47.3977508,8.5456073,-0.70693046,-0.34232593,-1.9014515,-3.6619138e-08,1.2283679e-08,-0.04185904,-0.23742923,-0.08324082,0.7973424,0.6647608,-6.1031897e-06,2.0472798e-06,0.0018590242,-0.03732531,0.005501264,0.020321457,0.009818479,0.0,488.02423,1.9895283,3.764463,0.38229293,0.8071698,0.13517955,inf,inf,inf,inf,0,1,0,1,1,2,1,1,0,0,1,1,0,0,1
46116000,46116000,4200000,47.3977508,8.5456073,-0.70269287,-0.32261974,-1.5657407,-3.6619138e-08,1.2283679e-08,-0.04185904,-0.23567642,-0.073666245,0.8161724,0.6837261,-6.1031897e-06,2.0472798e-06,0.0018590242,-0.024461243,0.013189185,0.086974345,0.009799211,0.0,488.02423,1.6538175,3.7077174,0.39066973,0.80661035,0.13705814,inf,inf,inf,inf,0,1,0,1,1,2,1,1,0,0,1,1,0,0,1
46620000,46620000,4200000,47.3977508,8.5456073,-0.70461816,-0.30450445,-1.2214937,-3.6619138e-08,1.2283679e-08,-0.04185904,-0.23570877,-0.06500633,0.82442826,0.69176,-6.1031897e-06,2.0472798e-06,0.0018590242,-0.043434583,0.009150775,0.020983627,0.010073958,0.0,488.02423,1.3095706,3.7808063,0.36891806,0.8232136,0.13216187,inf,inf,inf,inf,0,1,0,1,1,2,1,1,0,0,1,1,0,0,1
47116000,47116000,4200000,47.3977508,8.5456073,-0.7008062,-0.2822734,-0.89041674,-3.6619138e-08,1.2283679e-08,-0.04185904,-0.2322976,-0.050438114,0.8308449,0.6898549,-6.1031897e-06,2.0472798e-06,0.0018590242,-0.028062655,0.012707197,0.076475546,0.0103108175,0.0,488.02423,0.9784936,3.7173736,0.37640706,0.81886315,0.13391106,inf,inf,inf,inf,0,1,0,1,1,2,1,1,0,0,1,1,0,0,1
47612000,47612000,4200000,47.3977508,8.5456073,-0.6942389,-0.25661016,-0.5473188,-3.6619138e-08,1.2283679e-08,-0.04185904,-0.22617115,-0.037152868,0.83047485,0.69055825,-6.1031897e-06,2.0472798e-06,0.0018590242,-0.060441114,0.020134188,0.08256453,0.010213679,0.0,488.02423,0.63539565,3.785613,0.3817256,0.83269006,0.13513224,inf,inf,inf,inf,0,1,0,1,1,2,1,1,0,0,1,1,0,0,1
48116000,48116000,4200000,47.3977508,8.5456073,-0.69085526,-0.2304302,-0.1942865,-3.6619138e-08,1.2283679e-08,-0.04185904,-0.22387947,-0.029116753,0.83677965,0.70223653,-6.1031897e-06,2.0472798e-06,0.0018590242,-0.068074204,-0.008655472,0.060535032,0.010226186,0.0,488.02423,0.28236333,3.724454,0.39016023,0.82615715,0.13700885,inf,inf,inf,inf,0,1,0,1,1,2,1,1,0,0,1,1,0,0,1
48612000,48612000,4200000,47.3977508,8.5456073,-0.6784917,-0.20359173,0.15748622,-3.6619138e-08,1.2283679e-08,-0.04185904,-0.22131465,-0.024942106,0.8345868,0.7056682,-6.1031897e-06,2.0472798e-06,0.0018590242,-0.0601296,0.0103743505,-0.035236586,0.010171909,0.0,488.02423,0.1,3.7915857,0.36968693,0.8377909,0.13236146,inf,inf,inf,inf,0,1,0,1,1,2,1,1,0,0,1,1,0,0,1
49116000,49116000,4200000,47.3977508,8.5456073,-0.67142004,-0.18635136,0.5339314,-3.6619138e-08,1.2283679e-08,-0.04185904,-0.21098799,-0.032280993,0.75081956,0.6027601,-6.1031897e-06,2.0472798e-06,0.0018590242,-0.029116416,-0.005345224,0.4457952,0.010260203,0.0,488.02423,0.1,3.8645973,0.37529802,0.85046047,0.1275965,inf,inf,inf,inf,0,1,0,1,1,2,1,1,0,0,1,1,0,0,1
49620000,49620000,4200000,47.3977508,8.5456073,-0.657355,-0.1683363,0.8089719,-3.6619138e-08,1.2283679e-08,-0.04185904,-0.21458222,-0.020018803,1.061856,0.8252619,-6.1031897e-06,2.0472798e-06,0.0018590242,-0.04092998,-0.012058131,0.91565955,0.010409434,0.0,488.02423,0.1,3.796388,0.38055244,0.8370685,0.121021666,inf,inf,inf,inf,0,1,0,1,1,2,1,1,0,0,1,1,0,0,1
50116000,50116000,4200000,47.3977508,8.5456073,-0.6444395,-0.14848258,1.1204784,-3.6619138e-08,1.2283679e-08,-0.04185904,-0.210796,-0.0102488035,1.352225,0.98234487,-6.1031897e-06,2.0472798e-06,0.0018590242,-0.023929503,0.006765738,0.6470456,0.010625325,0.0,488.02423,0.1,3.8602853,0.380822,0.84238017,0.11645005,inf,inf,inf,inf,0,1,0,1,1,2,1,1,0,0,1,1,0,0,1
50612000,50612000,4200000,47.3977508,8.5456073,-0.63439924,-0.12944746,1.4691143,-3.6619138e-08,1.2283679e-08,-0.04185904,-0.2115893,-0.003199112,1.5577626,1.0494561,-6.1031897e-06,2.0472798e-06,0.0018590242,-0.07019423,-0.02393186,0.25555024,0.0107751405,0.0,488.02423,0.1,3.7803593,0.3571218,0.82609725,0.11026515,inf,inf,inf,inf,0,1,0,1,1,2,1,1,0,0,1,1,0,0,1
51116000,51116000,4200000,47.3977508,8.5456073,-0.6172483,-0.10915727,1.8038589,-3.6619138e-08,1.2283679e-08,-0.04185904,-0.20783675,0.0045909067,1.644336,0.97349876,-6.1031897e-06,2.0472798e-06,0.0018590242,-0.012062096,0.023499232,0.38968116,0.010903404,0.0,488.02423,0.1,3.8453162,0.35974866,0.8327642,0.11142838,inf,inf,inf,inf,0,1,0,1,1,2,1,1,0,0,1,1,0,0,1
51620000,51620000,4200000,47.3977508,8.5456073,-0.6003738,-0.08352131,2.0491621,-3.6619138e-08,1.2283679e-08,-0.04185904,-0.1761486,0.03662402,1.0619518,0.29603583,-6.1031897e-06,2.0472798e-06,0.0018590242,-0.038896088,-0.00033403918,0.040677372,0.010493185,0.0,488.02423,0.1,3.9105327,0.36097503,0.8459075,0.11194162,inf,inf,inf,inf,0,1,0,1,1,2,1,1,0,0,1,1,0,0,1
52116000,52116000,4200000,47.3977508,8.5456073,-0.5684161,-0.051416107,2.1079283,-3.6619138e-08,1.2283679e-08,-0.04185904,-0.1595661,0.0448511,0.9832154,0.1803473,-6.1031897e-06,2.0472798e-06,0.0018590242,0.0018025602,-0.003314264,0.05587935,0.0105907405,0.0,488.02423,0.1,3.8259654,0.36348236,0.8307214,0.10788316,inf,inf,inf,inf,0,1,0,1,1,2,1,1,0,0,1,1,0,0,1
52620000,52620000,4200000,47.3977508,8.5456073,-0.53437203,-0.021844896,2.1315365,-3.6619138e-08,1.2283679e-08,-0.04185904,-0.14231537,0.049482547,0.9050297,0.087158315,-6.1031897e-06,2.0472798e-06,0.0018590242,-0.0537423,-0.019721597,0.08206348,0.0107354205,0.0,488.02423,0.1,3.8897688,0.34243482,0.8377615,0.10181837,inf,inf,inf,inf,0,1,0,1,1,2,1,1,0,0,1,1,0,0,1
53116000,53116000,4200000,47.3977508,8.5456073,-0.49932194,0.004249742,2.085434,-3.6619138e-08,1.2283679e-08,-0.04185904,-0.1241065,0.058329303,0.8263841,-0.03056962,-6.1031897e-06,2.0472798e-06,0.0018590242,-0.015062861,0.023529056,0.024998559,0.011029951,0.0,488.02423,0.13647175,3.8027334,0.34487975,0.8217047,0.102056995,inf,inf,inf,inf,0,1,0,1,1,2,1,1,0,0,1,1,0,0,1
53612000,53612000,4200000,47.3977508,8.5456073,-0.45816198,0.029657518,2.0506587,-3.6619138e-08,1.2283679e-08,-0.04185904,-0.10753172,0.06528018,0.7567678,-0.09288089,-6.1031897e-06,2.0472798e-06,0.0018590242,0.012741205,0.04830617,0.023404134,0.011164783,0.0,488.02423,0.171247,3.85819,0.34592175,0.8272159,0.104005694,inf,inf,inf,inf,0,1,0,1,1,2,1,1,0,0,1,1,0,0,1
54116000,54116000,4200000,47.3977508,8.5456073,-0.421349,0.054640833,2.0249891,-3.6619138e-08,1.2283679e-08,-0.04185904,-0.09194742,0.07234634,0.69628984,-0.11294239,-6.1031897e-06,2.0472798e-06,0.0018590242,-0.011031224,0.039924618,0.030965542,0.011207657,0.0,488.02423,0.19691658,3.9190013,0.34994003,0.83330184,0.107963,inf,inf,inf,inf,0,1,0,1,1,2,1,1,0,0,1,1,0,0,1
54612000,54612000,4200000,47.3977508,8.5456073,-0.38226163,0.07826747,1.9855595,-3.6619138e-08,1.2283679e-08,-0.04185904,-0.07884102,0.08154501,0.63568014,-0.13266158,-6.1031897e-06,2.0472798e-06,0.0018590242,-0.003423105,0.025904598,0.03812555,0.011436596,0.0,488.02423,0.23634624,3.8282146,0.33422908,0.8166828,0.10971906,inf,inf,inf,inf,0,1,0,1,1,2,1,1,0,0,1,1,0,0,1
55116000,55116000,4200000,47.3977508,8.5456073,-0.3439759,0.102083035,1.8825629,-3.6619138e-08,1.2283679e-08,-0.04185904,-0.06551777,0.091193,0.56095093,-0.2108988,-6.1031897e-06,2.0472798e-06,0.0018590242,-0.030815309,0.060843118,0.023218801,0.011557358,0.0,488.02423,0.33934283,3.8867016,0.33931366,0.82251686,0.11532178,inf,inf,inf,inf,0,1,0,1,1,2,1,1,0,0,1,1,0,0,1
55620000,55620000,4200000,47.3977508,8.5456073,-0.30874878,0.12647325,1.7956316,-3.6619138e-08,1.2283679e-08,-0.04185904,-0.054146975,0.09723618,0.4915368,-0.2481462,-6.1031897e-06,2.0472798e-06,0.0018590242,0.0007087364,0.031057999,0.016747972,0.011959483,0.0,488.02423,0.42627406,3.8008878,0.34762168,0.80684954,0.121459246,inf,inf,inf,inf,0,1,0,1,1,2,1,1,0,0,1,1,0,0,1
56116000,56116000,4200000,47.3977508,8.5456073,-0.27390012,0.14829558,1.7118379,-3.6619138e-08,1.2283679e-08,-0.04185904,-0.04588337,0.10248333,0.42573276,-0.26417604,-6.1031897e-06,2.0472798e-06,0.0018590242,-0.008360977,0.029962486,0.0011632218,0.011948261,0.0,488.02423,0.5100678,3.8521113,0.3552072,0.8118558,0.12704462,inf,inf,inf,inf,0,1,0,1,1,2,1,1,0,0,1,1,0,0,1
56620000,56620000,4200000,47.3977508,8.5456073,-0.21689755,0.10361286,1.5659581,-3.6619138e-08,1.2283679e-08,-0.04185904,-0.03440262,0.09049781,0.33569807,-0.34841946,-6.1031897e-06,2.0472798e-06,0.0018590242,-0.0026408087,0.0077423532,-0.0076266,0.012035082,0.0,488.02423,0.1,2.3625154,0.3170383,0.26892406,0.108362876,inf,inf,inf,inf,0,1,0,1,1,2,1,1,0,0,1,1,0,0,1
57116000,57116000,4200000,47.3977508,8.5456073,0.015440094,0.005279957,1.1424469,-3.6619138e-08,1.2283679e-08,-0.04185904,0.001942334,0.011464196,0.13008687,-0.6900956,-6.1031897e-06,2.0472798e-06,0.0018590242,-0.014595381,0.017019497,-0.043615695,0.012167942,0.0,488.02423,0.1,0.016082233,0.29315284,0.0934029,0.09131062,inf,inf,inf,inf,0,1,0,1,1,2,1,1,0,0,1,1,0,0,1
57620000,57620000,4200000,47.3977508,8.5456073,0.04830896,-0.017651852,0.9035207,-3.6619138e-08,1.2283679e-08,-0.04185904,0.008719262,-0.0067956257,0.021583512,-0.6657021,-6.1031897e-06,2.0472798e-06,0.0018590242,-0.002734654,0.038403362,-0.0130338585,0.012239582,0.0,488.02423,0.19809425,0.020708311,0.27463257,0.08303211,0.07755767,inf,inf,inf,inf,0,1,0,1,1,2,1,1,0,0,1,1,0,0,1
58116000,58116000,4200000,47.3977508,8.5456073,0.04501834,-0.01870806,0.79189944,-3.6619138e-08,1.2283679e-08,-0.04185904,0.008418594,-0.006985554,-0.030857092,-0.5243384,-6.1031897e-06,2.0472798e-06,0.0018590242,-0.00409779,-0.015178055,-0.0059986482,0.012253501,0.0,488.02423,0.24876153,0.012326387,0.2667116,0.04418605,0.07540172,inf,inf,inf,inf,0,1,0,1,1,2,1,1,0,0,1,1,0,0,1
58620000,58620000,4200000,47.3977508,8.5456073,0.03675146,-0.015427932,0.7287352,-3.6619138e-08,1.2283679e-08,-0.04185904,0.006396165,-0.0052842004,-0.0591362,-0.38915804,-6.1031897e-06,2.0472798e-06,0.0018590242,0.000565531,0.030001776,-0.056917775,0.012481142,0.0,488.02423,0.19566798,0.014463103,0.25305057,0.042917736,0.07481824,inf,inf,inf,inf,0,1,0,1,1,2,1,1,0,0,1,1,0,0,1
59116000,59116000,4200000,47.3977508,8.5456073,0.028060561,-0.011813734,0.6779964,-3.6619138e-08,1.2283679e-08,-0.04185904,0.0014730468,-0.003755044,-0.074782535,-0.2976533,-6.1031897e-06,2.0472798e-06,0.0018590242,0.030605135,0.0015565674,-0.05835667,0.012540499,0.0,488.02423,0.2111525,0.016406175,0.24574049,0.04328802,0.07092882,inf,inf,inf,inf,0,1,0,1,1,2,1,1,0,0,1,1,0,0,1
