timestamp,timestamp_sample,xyz[0],xyz[1],xyz[2]
3212000,3212000,0.00018364761,3.6593643e-05,0.0003521473
3216000,3216000,0.00027553935,0.00019461417,0.0005392537
3232000,3232000,0.00067405956,0.0005917111,0.00014466389
3252000,3252000,-0.00025607774,3.8237253e-05,0.00013838003
3268000,3268000,0.0002662327,0.0012611249,-8.060117e-05
3288000,3288000,0.0014835636,0.0018819016,-2.9551424e-05
3308000,3308000,-0.00053190463,0.002103016,-5.3547637e-06
3332000,3332000,-2.961095e-05,0.001263672,-0.00017677384
3352000,3352000,-1.7027764e-05,0.001459499,-7.6315715e-05
3372000,3372000,7.127777e-05,0.001929983,7.86493e-05
3392000,3392000,-0.0006817591,-0.0002027427,0.00011095158
3412000,3412000,0.00031451712,-0.00035392647,0.0002587151
3432000,3432000,-5.055555e-05,0.0005125747,-0.00016690462
3452000,3452000,0.021062829,0.02163891,2.4599269e-05
3472000,3472000,0.021689303,0.02242064,0.00019861815
3492000,3492000,0.020996312,0.021625917,-8.517376e-06
3512000,3512000,0.02117271,0.021977564,-0.0004137929
3532000,3532000,0.019359957,0.021416074,0.0005624733
3552000,3552000,0.020507675,0.02187888,-0.00030749338
3572000,3572000,0.020181973,0.02247543,9.8332785e-05
3592000,3592000,0.019571915,0.023068186,0.00043715825
3612000,3612000,0.019487023,0.022470608,0.00015293573
3632000,3632000,0.019291056,0.023409279,0.00023350712
3648000,3648000,0.019634917,0.023746395,0.000118719465
3668000,3668000,0.01915023,0.024232144,0.00025361634
3688000,3688000,0.019034576,0.023524504,-1.5953603e-05
3712000,3712000,0.019072799,0.024400357,-0.00012599063
3732000,3732000,0.019332081,0.022198843,9.451291e-05
3752000,3752000,0.020249447,0.0237886,0.0003401073
3772000,3772000,0.01922416,0.023303622,0.00017481587
3792000,3792000,0.01958904,0.02533005,4.6276185e-05
3812000,3812000,0.018965112,0.02524751,0.0008745448
3832000,3832000,0.01841311,0.024842625,-1.4927459e-05
3852000,3852000,0.019625925,0.02379887,-0.00020549694
3872000,3872000,0.019026943,0.025489427,0.00026244327
3892000,3892000,0.020245824,0.023769481,-1.8336474e-05
3912000,3912000,0.018947408,0.024855517,0.00036020967
3932000,3932000,0.01876092,0.024589753,3.265089e-05
3952000,3952000,0.020292733,0.02358377,0.0005699666
3972000,3972000,0.019458665,0.023990272,-0.00022652563
3992000,3992000,0.019672018,0.024656085,0.0005618175
4012000,4012000,0.019112866,0.024397697,0.00022097428
4032000,4032000,0.019492017,0.02438437,0.00031907094
4052000,4052000,0.02059864,0.024426185,0.0007546598
4072000,4072000,0.019469712,0.024196487,0.00088507537
4092000,4092000,0.01984863,0.023809113,0.00058796396
4112000,4112000,0.019865194,0.024753217,0.00034479992
4132000,4132000,0.018493336,0.023741173,-9.0425834e-05
4152000,4152000,0.019014174,0.02517854,0.0002328394
4172000,4172000,0.018547755,0.023609862,0.0004058146
4188000,4188000,0.020528186,0.024617182,8.638459e-05
4208000,4208000,0.018730072,0.023469053,8.553881e-05
4232000,4232000,0.019023662,0.02371817,0.00035844135
4252000,4252000,0.020048914,0.022751663,0.0005782187
4268000,4268000,0.020094195,0.024188496,0.0003174039
4288000,4288000,0.018770607,0.02317496,-4.4499525e-06
4312000,4312000,0.01934048,0.023576982,0.00032905635
4328000,4328000,0.019130105,0.022132896,0.0001539026
4348000,4348000,0.0193302,0.022647964,0.00016447774
4368000,4368000,0.01818677,0.022003185,0.00040431265
4388000,4388000,0.020875957,0.022787876,0.0006585301
4412000,4412000,0.0190576,0.022544831,0.00025785228
4432000,4432000,0.019368842,0.022888426,0.00035339408
4452000,4452000,0.020171767,0.022806352,0.00070371147
4472000,4472000,0.018630154,0.021542843,0.00094638905
4492000,4492000,0.019569384,0.0220502,0.0001714095
4508000,4508000,0.019356808,0.02181141,0.0005304318
4532000,4532000,0.020347668,0.02241847,0.000127265
4548000,4548000,0.019080559,0.0209334,-0.00022584472
4572000,4572000,0.019272497,0.021971388,0.00014647962
4592000,4592000,0.019127974,0.02267831,-6.544318e-05
4612000,4612000,0.019311046,0.02189116,0.00051326404
4628000,4628000,0.019156137,0.021204334,-0.00040375427
4648000,4648000,0.019844577,0.02212225,0.00094887096
4672000,4672000,0.019639779,0.021344867,0.00048308817
4692000,4692000,0.01880879,0.021268466,0.0013788559
4712000,4712000,0.019500382,0.020736385,0.00050969224
4732000,4732000,0.018797982,0.020281348,-6.53185e-05
4752000,4752000,0.018868215,0.02002345,0.00078763685
4768000,4768000,0.019574339,0.022137057,0.0014581106
4792000,4792000,0.019025797,0.019907247,0.0011067068
4812000,4812000,0.019144207,0.022099117,0.0010017605
4832000,4832000,0.019504998,0.01948577,0.0009030113
4848000,4848000,0.017563345,0.019925028,0.0007794741
4868000,4868000,0.018987052,0.021220084,0.0007275801
4892000,4892000,0.019878319,0.021057716,0.0003899769
4912000,4912000,0.01839474,0.021170015,0.00051132444
4932000,4932000,0.018178096,0.021061458,0.00046318388
4952000,4952000,0.018896485,0.019997226,0.0007335288
4972000,4972000,0.017919656,0.021466946,-9.949734e-05
4992000,4992000,0.018821023,0.020267494,0.0005841683
5012000,5012000,0.018343562,0.021219894,0.0014560344
5032000,5032000,0.01715818,0.019916935,0.00054243434
5052000,5052000,0.01874331,0.020175178,0.0003357041
5068000,5068000,0.018400509,0.020993406,0.0006922682
5092000,5092000,0.01838266,0.021291688,0.0006249477
5112000,5112000,0.017716384,0.019519344,0.0007670158
5132000,5132000,0.018923309,0.020767491,0.0007070317
5152000,5152000,0.017770119,0.020621594,0.0009922043
5172000,5172000,0.018467871,0.02040715,0.00043657687
5192000,5192000,0.017669916,0.02132105,0.0001937216
5212000,5212000,0.017787527,0.020592602,0.00090517214
5228000,5228000,0.01729677,0.020994416,0.0007238698
5252000,5252000,0.01844177,0.021140978,-0.00021504248
5268000,5268000,0.016479498,0.021578806,1.555751e-05
5288000,5288000,0.018046914,0.020823354,0.0015966439
5308000,5308000,0.017097846,0.020748781,0.00044490225
5332000,5332000,0.017456641,0.021040505,0.00013339403
5348000,5348000,0.018071707,0.020904547,-0.0002081071
5372000,5372000,0.016842794,0.020132236,0.00038979374
5392000,5392000,0.01783218,0.021750763,0.0011482439
5412000,5412000,0.01703025,0.020599686,0.000105036095
5432000,5432000,0.017561544,0.0204696,0.0007901621
5452000,5452000,0.017993866,0.02047674,0.0005560249
5472000,5472000,0.017727824,0.021368075,0.0006980234
5492000,5492000,0.017455379,0.020248419,0.0008615645
5512000,5512000,0.017518846,0.019815901,0.0007413708
5532000,5532000,0.017207481,0.020468283,0.0007998558
5552000,5552000,0.017020475,0.020630239,0.00036264185
5572000,5572000,0.017639793,0.019193754,0.00082407315
5588000,5588000,0.017402207,0.021555448,0.0006552596
5612000,5612000,0.016772311,0.020594692,0.0006079161
5632000,5632000,0.017949646,0.020113248,0.0005613863
5652000,5652000,0.01733585,0.020935003,0.00056220184
5668000,5668000,0.018612726,0.020219885,0.00061006093
5692000,5692000,0.017359417,0.019575303,0.0005728562
5708000,5708000,0.017627452,0.02052865,0.0006791604
5728000,5728000,0.017133366,0.020592554,0.00035608406
5752000,5752000,0.017912187,0.020482337,0.0006576623
5772000,5772000,0.017831491,0.020783171,0.00049877906
5792000,5792000,0.017758325,0.02086925,-9.3173985e-05
5812000,5812000,0.017836932,0.018769974,0.00077634753
5832000,5832000,0.01658687,0.022305438,0.00062359386
5852000,5852000,0.01752297,0.020511614,0.00047582138
5868000,5868000,0.017891657,0.020488005,0.0008677155
5888000,5888000,0.018171348,0.020398015,0.00043770584
5912000,5912000,0.017375134,0.021098066,0.0005193962
5928000,5928000,0.017775707,0.020660771,0.00018851002
5948000,5948000,0.018944046,0.019769136,0.00030780767
5972000,5972000,0.017660677,0.020418229,-4.417328e-05
5992000,5992000,0.017568586,0.020006582,0.000256295
6012000,6012000,0.017204605,0.02133833,-2.4277973e-05
6032000,6032000,0.01744903,0.021587934,2.1374087e-06
6052000,6052000,0.016868036,0.020056559,-0.00031116355
6072000,6072000,0.01804952,0.020749742,0.00043032874
6092000,6092000,0.017994937,0.021276012,0.00076608325
6108000,6108000,0.01742383,0.019349819,0.00042383635
6128000,6128000,0.017334498,0.01888528,0.00027934142
6148000,6148000,0.018524852,0.018925918,0.0006037502
6172000,6172000,0.018522464,0.020420376,0.00014089349
6188000,6188000,0.016807241,0.020684082,0.0011123094
6208000,6208000,0.018031077,0.020869229,0.00042267787
6232000,6232000,0.017331552,0.019761426,0.00096592115
6248000,6248000,0.018114928,0.019971596,0.0002769282
6268000,6268000,0.018233802,0.02176323,0.00041645006
6292000,6292000,0.018101169,0.019794531,0.00068350136
6312000,6312000,0.018370004,0.02084757,0.00014484352
6332000,6332000,0.017896354,0.019794246,0.0006575863
6352000,6352000,0.018080162,0.019319493,0.00026018824
6368000,6368000,0.01702737,0.021284595,0.00017338374
6392000,6392000,0.017534444,0.020995246,0.0009528097
6412000,6412000,0.017394725,0.020510694,0.00064889214
6432000,6432000,0.01711839,0.020303713,0.0008065655
6448000,6448000,0.017926862,0.020373324,0.00081135484
6472000,6472000,0.017166875,0.019865105,0.0001378621
6492000,6492000,0.017463002,0.020624304,0.0008452041
6512000,6512000,0.016591752,0.02071905,0.00064338
6532000,6532000,0.017661212,0.0197308,0.00062955474
6552000,6552000,0.016887525,0.020281082,5.472256e-05
6572000,6572000,0.017575694,0.020661859,0.0010688888
6588000,6588000,0.016925525,0.020912403,0.00036101128
6608000,6608000,0.01681884,0.020299222,0.0010816193
6628000,6628000,0.017273143,0.02088706,-0.00029194952
6652000,6652000,0.016724171,0.020278756,0.00056877284
6672000,6672000,0.017466892,0.019248024,0.00034347177
6692000,6692000,0.017536635,0.020109976,0.00047241835
6712000,6712000,0.017449697,0.019963896,0.00034261352
6728000,6728000,0.015900664,0.019654308,0.00052187213
6752000,6752000,0.01678335,0.020691527,0.0007036123
6772000,6772000,0.01615084,0.020542722,-0.0004882321
6792000,6792000,0.017154511,0.020339483,-0.00013255332
6812000,6812000,0.017582312,0.019884551,0.0009657053
6832000,6832000,0.017109135,0.020040564,-7.785686e-05
6852000,6852000,0.016976673,0.019735465,0.00020450319
6872000,6872000,0.01674607,0.020266768,-0.00011846681
6892000,6892000,0.017950246,0.021548843,-4.3010223e-06
6912000,6912000,0.0170338,0.021520736,1.3201463e-05
6932000,6932000,0.01691455,0.019211208,0.0003981008
6948000,6948000,0.017345008,0.020564584,-0.00023329277
6972000,6972000,0.017167807,0.020335976,3.1011587e-05
6992000,6992000,0.01745082,0.021415144,0.0009783949
7012000,7012000,0.016053507,0.020436589,0.0003152338
7032000,7032000,0.016840726,0.019780936,6.828597e-05
7052000,7052000,0.017536886,0.021304296,0.00030156446
7072000,7072000,0.017443426,0.020915674,0.0005411051
7092000,7092000,0.016920192,0.0210264,0.00036958637
7112000,7112000,0.016660115,0.020722646,0.0005054994
7132000,7132000,0.016119171,0.02058126,0.00029064016
7152000,7152000,0.017107887,0.02054496,0.0007240434
7172000,7172000,0.01750535,0.019749615,-0.00010647611
7192000,7192000,0.016363146,0.019636301,0.00022111247
7212000,7212000,0.017372305,0.019828651,0.00031455766
7232000,7232000,0.016795047,0.020734783,0.0005727698
7252000,7252000,0.015743388,0.020782566,0.00034505015
7272000,7272000,0.016439606,0.020676183,0.00030310088
7288000,7288000,0.017410973,0.019879295,0.000484952
7312000,7312000,0.017240673,0.019624727,-0.00027864505
7332000,7332000,0.017636992,0.021358443,9.4255316e-05
7352000,7352000,0.018425524,0.02040247,9.248434e-05
7372000,7372000,0.017033981,0.021298056,-0.0002716819
7392000,7392000,0.016698815,0.020477107,0.00029163065
7412000,7412000,0.01793985,0.021160034,-0.00014623195
7432000,7432000,0.017235672,0.020239012,-0.0002335026
7452000,7452000,0.017718146,0.021937346,4.0307525e-05
7472000,7472000,0.016667582,0.02065751,0.00023598305
7492000,7492000,0.019294329,0.021616323,0.00032045666
7512000,7512000,0.017757744,0.019873207,0.00038259936
7532000,7532000,0.01733556,0.020378321,0.0006601011
7552000,7552000,0.016717352,0.02090331,0.0004899594
7568000,7568000,0.018082066,0.019855248,-0.00030336325
7588000,7588000,0.017185455,0.0201025,0.0010797329
7612000,7612000,0.017676717,0.02177534,0.00012083939
7632000,7632000,0.018151304,0.020488122,0.00014155205
7652000,7652000,0.017600557,0.019807229,8.5475636e-05
7672000,7672000,0.018099494,0.020522952,0.00027791527
7692000,7692000,0.018052096,0.020401299,9.606243e-07
7712000,7712000,0.017143114,0.02123642,-0.00065892056
7732000,7732000,0.017381942,0.019302415,0.00026902402
7752000,7752000,0.017244976,0.020801753,-0.00015034902
7772000,7772000,0.018436024,0.021273693,-6.0216476e-05
7792000,7792000,0.017378345,0.020406809,0.00043582675
7812000,7812000,0.016499178,0.021205544,0.0005530724
7832000,7832000,0.017442713,0.020653587,-0.00019094755
7852000,7852000,0.018361647,0.020805113,0.000384915
7872000,7872000,0.017749399,0.020218644,-1.8219313e-05
7892000,7892000,0.017622039,0.020590423,0.00054651755
7912000,7912000,0.017339816,0.021582417,0.0006759897
7932000,7932000,0.017577516,0.020700963,0.00029078135
7952000,7952000,0.017891329,0.020491118,-5.556452e-05
7968000,7968000,0.01815036,0.020104844,-2.2036862e-05
7992000,7992000,0.017234387,0.020992722,0.00026055254
8012000,8012000,0.017628595,0.020458361,0.0004886356
8032000,8032000,0.017467594,0.019178793,0.00015104594
8052000,8052000,0.017330457,0.020408997,0.0001439512
8068000,8068000,0.018437246,0.019823045,-7.416504e-05
8088000,8088000,0.017492175,0.020757707,0.00035496795
8112000,8112000,0.017295161,0.020247407,0.00026076098
8132000,8132000,0.018239211,0.020649197,-6.521126e-05
8148000,8148000,0.017840037,0.02104296,0.00048427912
8172000,8172000,0.018014949,0.021176387,0.00025818803
8192000,8192000,0.01835464,0.020045798,-0.00028191376
8212000,8212000,0.017288953,0.020759383,9.756674e-05
8232000,8232000,0.017993245,0.02031762,-0.0004548632
8252000,8252000,0.018182795,0.019971423,0.0007772326
8272000,8272000,0.016677648,0.019074984,0.00039843936
8292000,8292000,0.018255541,0.020482337,-8.3458006e-05
8312000,8312000,0.018193174,0.019478278,-6.159647e-05
8332000,8332000,0.017381009,0.020424247,7.677537e-05
8352000,8352000,0.017216068,0.019755885,0.0004924658
8372000,8372000,0.016893543,0.020003937,0.00055882003
8392000,8392000,0.016629554,0.01964283,0.000545619
8412000,8412000,0.017834617,0.020308705,0.0006170409
8432000,8432000,0.01842789,0.018996324,0.00049419247
8452000,8452000,0.016620018,0.02017004,-9.215947e-05
8472000,8472000,0.017746989,0.01987423,0.00045778902
8492000,8492000,0.018338518,0.020534111,0.00013224363
8512000,8512000,0.017602837,0.019828822,3.4564084e-05
8532000,8532000,0.018192602,0.020897223,0.00024274438
8552000,8552000,0.016825441,0.019285558,0.00011773234
8572000,8572000,0.017476082,0.01968422,0.00032327275
8592000,8592000,0.01753406,0.019658273,0.00017027871
8612000,8612000,0.017280085,0.019536883,0.00030689142
8632000,8632000,0.017071884,0.020688597,0.00020318425
8652000,8652000,0.017689152,0.0206236,0.00045338506
8672000,8672000,0.017075103,0.020986209,0.00058508303
8692000,8692000,0.016763749,0.020116618,-0.00010510132
8712000,8712000,0.017007502,0.019552989,0.00061302533
8732000,8732000,0.017079247,0.020087695,-0.00023419262
8752000,8752000,0.017603828,0.01996447,0.00014821146
8772000,8772000,0.016992737,0.019821309,0.00028190133
8792000,8792000,0.017584274,0.020157127,0.00018646223
8812000,8812000,0.016542062,0.020785378,0.00031246923
8832000,8832000,0.018107768,0.01861705,0.0008143498
8852000,8852000,0.016611002,0.020674936,0.00025837854
8872000,8872000,0.018038183,0.018838221,0.00011375622
8892000,8892000,0.016604783,0.019995367,0.00045751964
8912000,8912000,0.018888362,0.019728338,0.000116702104
8932000,8932000,0.017456252,0.019835943,0.0005139383
8952000,8952000,0.01733608,0.01971359,0.00010220766
8972000,8972000,0.016512427,0.020158416,-9.978749e-06
8992000,8992000,0.017461352,0.019056628,4.7582434e-06
9012000,9012000,0.017713858,0.018809376,0.00036268876
9032000,9032000,0.017100379,0.020010471,0.0002367534
9052000,9052000,0.016851569,0.018943287,0.0005326592
9072000,9072000,0.017672569,0.0207376,0.00021882933
9092000,9092000,0.017875997,0.01880011,8.3536666e-05
9108000,9108000,0.017008219,0.019789336,0.0002641881
9132000,9132000,0.016601754,0.019900016,0.0009856893
9152000,9152000,0.017490257,0.02037956,0.0004842452
9172000,9172000,0.01692569,0.021395123,0.00044435132
9192000,9192000,0.017021146,0.019234134,0.0004170255
9212000,9212000,0.017475123,0.019469379,0.00034856025
9232000,9232000,0.016420258,0.020054156,0.0010232978
9252000,9252000,0.017529503,0.019037616,-0.00046842272
9272000,9272000,0.017073052,0.021172713,0.00031962196
9292000,9292000,0.016223535,0.018565383,-0.00010738908
9312000,9312000,0.017128492,0.02089857,-0.0002119971
9332000,9332000,0.017066829,0.0199448,0.0005390783
9352000,9352000,0.017134381,0.020603795,0.00047133063
9368000,9368000,0.016870767,0.020544302,5.760803e-05
9388000,9388000,0.015906498,0.020744322,0.0002705635
9408000,9408000,0.016902385,0.020226248,-0.00015258566
9428000,9428000,0.01690325,0.018705226,-9.741343e-06
9452000,9452000,0.017402006,0.019904897,4.7189744e-05
9472000,9472000,0.017586173,0.02026762,0.00024298688
9492000,9492000,0.016762316,0.019866314,0.00024199777
9508000,9508000,0.016737923,0.020326562,0.00022902463
9532000,9532000,0.017521692,0.01888931,0.0004947916
9548000,9548000,0.015944865,0.019850967,0.00015278849
9572000,9572000,0.016854057,0.019351631,0.00025068826
9592000,9592000,0.017543804,0.02040423,0.00011193956
9612000,9612000,0.016844928,0.02041203,-0.00044595936
9632000,9632000,0.017482985,0.01831184,0.00067894853
9652000,9652000,0.017675051,0.019985888,0.00017589408
9672000,9672000,0.017541774,0.018823711,-0.0002317532
9692000,9692000,0.017302664,0.020285735,0.0007666358
9708000,9708000,0.016980032,0.019215142,0.00023865198
9732000,9732000,0.01770154,0.01909897,-0.00012355503
9748000,9748000,0.017062923,0.019614134,0.00092021713
9772000,9772000,0.01620502,0.019259106,0.0007237814
9792000,9792000,0.016258802,0.019911502,0.00019650623
9812000,9812000,0.017572368,0.018980859,0.000188202
9832000,9832000,0.01667827,0.020309458,0.0007137063
9852000,9852000,0.017268911,0.020282846,-8.5061685e-05
9872000,9872000,0.01655938,0.020145604,3.8182876e-05
9892000,9892000,0.015675368,0.018879673,0.0003366894
9912000,9912000,0.017070496,0.018412303,-2.7943717e-05
9932000,9932000,0.015931008,0.020222694,0.0004677874
9952000,9952000,0.018348072,0.019230358,-0.00047988692
9972000,9972000,0.01594244,0.019728942,0.00024519194
9992000,9992000,0.016548244,0.020258123,0.00012963229
10012000,10012000,0.017125897,0.019520089,0.0001077143
10032000,10032000,0.01697687,0.01952452,0.00062746904
10052000,10052000,0.016621465,0.020129183,0.00027708514
10072000,10072000,0.01707237,0.019702168,0.0008209048
10088000,10088000,0.016725017,0.019721434,0.00037135184
10112000,10112000,0.016749116,0.020080613,0.00061895105
10132000,10132000,0.016826797,0.019767689,0.00071175
10152000,10152000,0.016939966,0.020270653,0.00038502528
10172000,10172000,0.01680204,0.018944189,8.725418e-05
10192000,10192000,0.016743083,0.0191529,0.00020516073
10212000,10212000,0.017158726,0.01923844,0.00046317696
10232000,10232000,0.016150013,0.020220324,0.0006255016
10252000,10252000,0.017292932,0.020497078,0.00010219693
10272000,10272000,0.016252402,0.02097422,0.0005190449
10292000,10292000,0.018276125,0.018651003,8.0247286e-05
10312000,10312000,0.01702608,0.019284278,0.00072607526
10328000,10328000,0.016703859,0.019956516,0.00045834781
10352000,10352000,0.017087854,0.020420782,0.00013592443
10372000,10372000,0.018194258,0.01967702,4.0440984e-05
10392000,10392000,0.017395731,0.019666443,0.00011475419
10412000,10412000,0.016297618,0.019230496,0.0005076164
10432000,10432000,0.017222688,0.019802412,-0.000111873895
10452000,10452000,0.016781965,0.01977965,-0.00039724787
10472000,10472000,0.01674691,0.018882027,0.00015132956
10492000,10492000,0.016694658,0.019331884,-0.00012188833
10512000,10512000,0.017577048,0.020096613,0.00013042524
10532000,10532000,0.015989836,0.019323586,0.00065194874
10552000,10552000,0.016918262,0.019167958,0.00040894593
10572000,10572000,0.017479075,0.020122498,0.00033294986
10592000,10592000,0.016478132,0.020198654,0.00055793714
10612000,10612000,0.016224854,0.019202562,-0.00010357744
10632000,10632000,0.01695623,0.020457631,0.00057538244
10652000,10652000,0.01661885,0.018947108,0.0010698449
10672000,10672000,0.018083204,0.020501954,0.00035228123
10692000,10692000,0.017158244,0.019661393,0.00015260516
10712000,10712000,0.016911509,0.018985156,0.00067933527
10732000,10732000,0.016997637,0.019627307,0.00025985666
10752000,10752000,0.016321566,0.020557107,5.7312103e-05
10772000,10772000,0.016428357,0.019127103,-0.0003352696
10792000,10792000,0.017741958,0.020417644,0.00013234424
10812000,10812000,0.01664387,0.019183708,5.864471e-05
10832000,10832000,0.016807092,0.019101124,0.00016501045
10852000,10852000,0.01627546,0.020121025,0.00021243286
10872000,10872000,0.016491704,0.019048298,0.000102847094
10888000,10888000,0.016797276,0.019530147,0.0003187799
10908000,10908000,0.016851308,0.019640813,-0.00021382899
10928000,10928000,0.016969506,0.01922819,-0.00025477723
10948000,10948000,0.017106775,0.01912293,0.0005502988
10968000,10968000,0.016177136,0.020251129,0.0005929064
10988000,10988000,0.01588816,0.020186203,0.00026449034
11008000,11008000,0.015755836,0.019556094,-9.739302e-05
11032000,11032000,0.016940193,0.01963462,0.00035552765
11048000,11048000,0.016103696,0.019978542,0.00032898952
11068000,11068000,0.01700345,0.019709293,0.00021526651
11088000,11088000,0.016956922,0.01931844,-0.00025455395
11112000,11112000,0.016866604,0.019386116,0.0003197904
11128000,11128000,0.015386108,0.019194392,0.00039641644
11152000,11152000,0.016758624,0.01900376,0.00015652482
11172000,11172000,0.016534714,0.01929571,0.00020886883
11192000,11192000,0.017170645,0.018966958,0.00047706073
11212000,11212000,0.016375761,0.020140054,0.00031164242
11232000,11232000,0.016888333,0.019480439,0.0005569122
11252000,11252000,0.016519928,0.019933121,0.00022260584
11272000,11272000,0.017811365,0.018531375,-8.128117e-05
11288000,11288000,0.01662394,0.02002337,7.921698e-05
11312000,11312000,0.016891344,0.01797582,-0.00042696096
11332000,11332000,0.016738804,0.020088695,0.00030766398
11352000,11352000,0.016768102,0.02007275,0.00020205481
11368000,11368000,0.016288433,0.018114438,0.00059669686
11388000,11388000,0.01655944,0.0208182,-0.00031059427
11412000,11412000,0.017013527,0.019412983,0.0005227343
11432000,11432000,0.016717905,0.020509418,1.3789157e-05
11452000,11452000,0.016712418,0.01890736,-0.00010838821
11472000,11472000,0.017011061,0.019108864,0.00037192943
11492000,11492000,0.016951494,0.019120721,0.0001360409
11508000,11508000,0.015948854,0.020158555,-8.332747e-06
11532000,11532000,0.01734188,0.01909308,0.0003174182
11552000,11552000,0.01631118,0.018769836,0.00031282206
11572000,11572000,0.015557216,0.0186596,-1.863169e-05
11592000,11592000,0.01632768,0.01944879,3.765182e-05
11612000,11612000,0.016026314,0.018547198,0.0003730326
11632000,11632000,0.017427864,0.020223388,0.00029645328
11652000,11652000,0.015614866,0.018492065,0.0003011978
11672000,11672000,0.016230986,0.01945086,0.00047767954
11692000,11692000,0.017222086,0.019348627,0.00060013344
11712000,11712000,0.016791312,0.019615076,-8.61524e-06
11732000,11732000,0.016030367,0.018404013,0.0006082708
11752000,11752000,0.016776565,0.018659947,0.0002793099
11772000,11772000,0.015325276,0.01792016,0.00045953676
11792000,11792000,0.016360676,0.01941075,0.00051229744
11812000,11812000,0.016230294,0.01966115,-4.0865503e-05
11832000,11832000,0.016753739,0.019563125,9.6316646e-05
11852000,11852000,0.01615539,0.019018853,0.0002130589
11868000,11868000,0.016363943,0.01812113,0.0005064049
11888000,11888000,0.016180512,0.01867966,0.0004084148
11908000,11908000,0.016081385,0.018614264,0.0001773769
11928000,11928000,0.016257191,0.018853182,-0.00011979258
11952000,11952000,0.015268356,0.018901093,0.00043001203
11972000,11972000,0.016169926,0.018952359,0.0008513168
11992000,11992000,0.016834563,0.018258702,7.3436204e-05
12012000,12012000,0.016351027,0.01877741,0.00037672775
12028000,12028000,0.01581712,0.018924706,0.00052095775
12052000,12052000,0.015643895,0.019045016,-0.00066420366
12072000,12072000,0.016193513,0.02010311,0.00025496646
12092000,12092000,0.016165562,0.018250555,-0.00037057535
12112000,12112000,0.015714172,0.018122539,0.00024777438
12132000,12132000,0.016130947,0.01923137,0.00012366717
12152000,12152000,0.01597481,0.019010663,-1.2672669e-05
12172000,12172000,0.016496947,0.01961881,0.0002655731
12192000,12192000,0.016583586,0.019335512,0.00066896895
12212000,12212000,0.016462114,0.019244377,0.00010329972
12232000,12232000,0.015589623,0.018894577,0.0005407708
12248000,12248000,0.016414642,0.01858345,4.9479742e-05
12268000,12268000,0.016805377,0.01967097,0.00013358126
12292000,12292000,0.016602619,0.020262549,-3.4933503e-06
12312000,12312000,0.01710773,0.020099264,0.00042234673
12332000,12332000,0.014924078,0.017140618,-1.7523347e-05
12348000,12348000,0.016896531,0.021062233,0.00032313875
12372000,12372000,0.01564167,0.01843286,-0.00013044798
12392000,12392000,0.0149089135,0.020257885,-7.689384e-06
12412000,12412000,0.016254373,0.019336311,0.00021019064
12432000,12432000,0.015747737,0.017866429,0.00051371864
12448000,12448000,0.01645623,0.020649264,0.00033581513
12472000,12472000,0.016252989,0.019124815,-0.00068371376
12492000,12492000,0.01661374,0.019772256,0.000120408535
12512000,12512000,0.016817937,0.018321097,8.212391e-06
12528000,12528000,0.016048195,0.018968612,-0.000458156
12548000,12548000,0.016455827,0.019369036,0.00052061834
12572000,12572000,0.01601431,0.018446157,-7.542932e-05
12592000,12592000,0.016166689,0.019314364,0.00026070053
12612000,12612000,0.015621425,0.019970734,0.0006726051
12628000,12628000,0.016246317,0.018089445,0.0002489187
12652000,12652000,0.015232158,0.01915028,0.0007922539
12672000,12672000,0.017015817,0.01840732,5.0715265e-05
12692000,12692000,0.017119227,0.018366998,0.00012416986
12712000,12712000,0.015995087,0.02035958,-0.00027729524
12732000,12732000,0.016595894,0.018315772,0.00018947909
12752000,12752000,0.016524429,0.018372608,-5.5490727e-05
12772000,12772000,0.016608065,0.020230472,0.0006622647
12792000,12792000,0.016996197,0.01787355,-0.00019458607
12812000,12812000,0.01562326,0.019531146,-0.0007311349
12832000,12832000,0.016320074,0.01856953,0.0004764595
12852000,12852000,0.015933644,0.018498177,0.00010559553
12872000,12872000,0.016334383,0.019808486,-7.9516336e-05
12892000,12892000,0.01602764,0.018238649,-7.264141e-05
12912000,12912000,0.016856324,0.019135892,0.00026792428
12932000,12932000,0.016326655,0.018424826,0.00018430132
12952000,12952000,0.016171707,0.018391276,0.00074788387
12972000,12972000,0.017131297,0.01892152,0.0002765943
12992000,12992000,0.016902817,0.016763145,0.0003546156
13012000,13012000,0.016021792,0.019144816,7.265449e-05
13028000,13028000,0.017488677,0.018889107,-6.225788e-05
13052000,13052000,0.015532088,0.017277142,0.00018482957
13068000,13068000,0.01674292,0.01850122,0.00013474902
13092000,13092000,0.01579001,0.020695757,0.0002786646
13112000,13112000,0.015197816,0.018564593,-0.00019181539
13132000,13132000,0.016136551,0.018671546,-0.00018296285
13152000,13152000,0.015732676,0.019185606,-0.00013194853
13172000,13172000,0.016037332,0.01830039,0.00026666347
13192000,13192000,0.015275563,0.019073788,-0.000107732885
13212000,13212000,0.016440019,0.018925767,-6.632181e-08
13232000,13232000,0.0154098775,0.018615644,0.00014824611
13252000,13252000,0.016602961,0.018237667,-8.425351e-05
13272000,13272000,0.016809644,0.019421814,0.00045572213
13288000,13288000,0.015874494,0.019021496,-0.000266268
13312000,13312000,0.015872942,0.019196624,0.00020977731
13332000,13332000,0.016473383,0.01848124,0.00095601194
13352000,13352000,0.015931658,0.0186458,-0.00012389424
13372000,13372000,0.016117116,0.018343823,0.000107499356
13392000,13392000,0.017013228,0.017322673,-0.00032966677
13412000,13412000,0.015760735,0.019301856,9.405318e-05
13432000,13432000,0.016712544,0.019266529,0.0007391778
13448000,13448000,0.016740799,0.017746171,6.25807e-05
13468000,13468000,0.015885845,0.017533185,-0.00014919542
13488000,13488000,0.017057683,0.01875678,0.0002760222
13508000,13508000,0.016374731,0.01782511,-0.00016004436
13528000,13528000,0.017043944,0.018497625,-9.569258e-05
13548000,13548000,0.01705596,0.018454684,0.00015197966
13568000,13568000,0.015698262,0.019022733,-7.156453e-05
13588000,13588000,0.016056137,0.017420013,-3.2835874e-06
13612000,13612000,0.016547628,0.019188417,-9.754812e-05
13632000,13632000,0.015657973,0.018558994,-3.364133e-05
13648000,13648000,0.01619929,0.019075457,0.00036682628
13668000,13668000,0.016569538,0.019283859,0.00030564066
13688000,13688000,0.01689356,0.018229667,0.0004015416
13712000,13712000,0.017190507,0.018201146,-8.044869e-06
13732000,13732000,0.015556015,0.01878998,0.00018087767
13752000,13752000,0.016341718,0.018815344,4.162158e-05
13772000,13772000,0.01600875,0.018316891,0.0008548012
13792000,13792000,0.016762221,0.018234089,0.0003047355
13812000,13812000,0.015276878,0.017466828,0.00011502254
13832000,13832000,0.016123243,0.018928437,0.000273214
13852000,13852000,0.016257234,0.018199103,0.0003380809
13872000,13872000,0.016288385,0.01818014,5.7494985e-05
13888000,13888000,0.016774854,0.018286832,0.00050394086
13908000,13908000,0.015597881,0.018386424,-4.0536423e-05
13932000,13932000,0.015281102,0.01834217,0.00048445523
13948000,13948000,0.01582989,0.019565914,-8.439061e-05
13972000,13972000,0.017143615,0.018216446,0.00025796756
13992000,13992000,0.016606262,0.01845811,-0.00020689987
14012000,14012000,0.014505111,0.020332659,0.000121851706
14032000,14032000,0.016265137,0.01829104,6.2881234e-05
14052000,14052000,0.017870735,0.018850472,0.00025331092
14072000,14072000,0.015311781,0.017379342,-0.0003252443
14092000,14092000,0.017173775,0.018714568,5.543445e-05
14112000,14112000,0.015028532,0.018891823,1.8086843e-05
14132000,14132000,0.016498975,0.018488323,0.0002694696
14152000,14152000,0.015291523,0.01798927,1.5474461e-05
14172000,14172000,0.016318731,0.018312076,-0.00012099818
14188000,14188000,0.016096652,0.018915359,0.00029445344
14212000,14212000,0.016079959,0.017339142,0.00012474418
14232000,14232000,0.01692768,0.018623674,0.0003512698
14252000,14252000,0.0153192375,0.017746225,0.0010740671
14272000,14272000,0.017225875,0.018949565,0.00010997235
14292000,14292000,0.015903171,0.01765124,0.00037499677
14312000,14312000,0.016835338,0.018511431,0.00064546906
14332000,14332000,0.017001651,0.017565532,0.00028201306
14352000,14352000,0.016566183,0.018836468,0.00033317908
14372000,14372000,0.015945418,0.017562196,-5.686551e-06
14392000,14392000,0.01646922,0.017585011,0.00036393988
14412000,14412000,0.016881123,0.018460698,0.00020532911
14432000,14432000,0.016903553,0.017617943,0.0004222746
14452000,14452000,0.016323522,0.018162293,0.00061624
14472000,14472000,0.01618744,0.01626035,2.7887594e-05
14492000,14492000,0.016533524,0.018698536,0.0005198849
14512000,14512000,0.015738027,0.017634949,0.00020061005
14532000,14532000,0.016101405,0.018507237,0.0002466312
14552000,14552000,0.016972622,0.017053414,0.00017994706
14572000,14572000,0.01569339,0.018170998,0.0005134148
14592000,14592000,0.015850535,0.017852576,3.438799e-05
14612000,14612000,0.0155107,0.017812658,0.0004715147
14632000,14632000,0.01661561,0.017723268,-2.7492084e-05
14652000,14652000,0.016319575,0.017923703,4.879e-05
14672000,14672000,0.016168576,0.017352613,-0.00015261411
14692000,14692000,0.016590536,0.017938277,1.1080667e-05
14712000,14712000,0.01701188,0.01917913,0.00037112515
14732000,14732000,0.015665978,0.017534157,0.00032063792
14752000,14752000,0.015966332,0.018699296,-0.000291701
14772000,14772000,0.016269447,0.016918555,0.00040469808
14792000,14792000,0.017018199,0.019391494,0.00037343148
14812000,14812000,0.016182724,0.018197892,-0.0001538021
14832000,14832000,0.015846988,0.017652161,0.0002768474
14852000,14852000,0.015639499,0.018782666,0.00027022205
14872000,14872000,0.017158192,0.019195545,0.00032067168
14892000,14892000,0.016473092,0.017730612,0.00022526577
14908000,14908000,0.01600708,0.018098794,0.0004350509
14932000,14932000,0.016184496,0.019065473,0.00040059598
14952000,14952000,0.015624642,0.019590138,0.00015665477
14972000,14972000,0.01681012,0.018419936,0.00080548524
14992000,14992000,0.0148656955,0.018047815,0.0002115895
15012000,15012000,0.016217103,0.018504957,4.4517696e-05
15032000,15032000,0.016186185,0.018596543,-0.00015299376
15052000,15052000,0.016393887,0.017061312,0.0005344948
15072000,15072000,0.016062906,0.017152598,0.00034843138
15092000,15092000,0.015714698,0.016946515,-0.0003417233
15112000,15112000,0.016480362,0.018268349,-0.00025487607
15132000,15132000,0.016033007,0.017444337,0.00035462316
15148000,15148000,0.015311166,0.017593516,3.9918617e-05
15172000,15172000,0.015627626,0.017397055,0.00020075198
15192000,15192000,0.015347047,0.017417595,0.0010888055
15212000,15212000,0.016145226,0.018514914,0.00012813012
15232000,15232000,0.015803326,0.018625984,0.00028646318
15252000,15252000,0.015922591,0.016991165,0.0002458253
15272000,15272000,0.016480554,0.018271292,0.00025490823
15292000,15292000,0.015575159,0.018718442,0.00017468438
15312000,15312000,0.015753912,0.017151559,0.0005952089
15332000,15332000,0.015328195,0.017463746,0.0005801033
15352000,15352000,0.015821273,0.01800463,0.00033143218
15372000,15372000,0.016969945,0.018343015,0.00042700776
15392000,15392000,0.015180545,0.01757761,4.9641265e-05
15412000,15412000,0.015839096,0.017656788,0.0002608763
15432000,15432000,0.016181936,0.017814092,-0.00011983989
15448000,15448000,0.016421702,0.01701468,0.00036361042
15468000,15468000,0.01597175,0.017288191,0.00032660566
15488000,15488000,0.01648752,0.017593918,-0.0002758937
15512000,15512000,0.016800106,0.018418556,-0.00028972002
15528000,15528000,0.016080664,0.017511101,0.0004168082
15548000,15548000,0.015932398,0.01770253,0.0002934475
15568000,15568000,0.015876714,0.017502047,7.667891e-05
15588000,15588000,0.015058026,0.016474273,0.00017916894
15612000,15612000,0.015260742,0.018195195,-0.00023103916
15628000,15628000,0.016541807,0.015840277,-0.00015656478
15652000,15652000,0.01615435,0.01731732,0.00023175916
15672000,15672000,0.017139036,0.017621957,0.00011940415
15692000,15692000,0.014897152,0.016543044,0.00010872954
15712000,15712000,0.016344786,0.017030837,-0.00056942826
15728000,15728000,0.016548542,0.018031988,0.0005290259
15748000,15748000,0.015722571,0.018178614,5.3244887e-05
15772000,15772000,0.014886309,0.017587483,0.0006050836
15792000,15792000,0.015853511,0.017684404,0.0005709061
15812000,15812000,0.015682384,0.017651455,0.00037435707
15832000,15832000,0.01617494,0.01684262,-9.442774e-05
15852000,15852000,0.016042842,0.016300691,0.00059659244
15872000,15872000,0.0170721,0.016197786,8.814846e-05
15892000,15892000,0.01604633,0.017326815,0.0001845035
15912000,15912000,0.0166885,0.016036622,-3.648725e-05
15932000,15932000,0.01567693,0.017449917,1.1215301e-05
15952000,15952000,0.015067072,0.016798072,0.0003680829
15972000,15972000,0.015088862,0.01612353,0.0003900176
15992000,15992000,0.016555477,0.016944971,0.0007540773
16012000,16012000,0.015575845,0.016872346,9.710296e-06
16032000,16032000,0.01559025,0.017475089,0.00010431486
16048000,16048000,0.015837532,0.016249128,0.0002648343
16068000,16068000,0.016978428,0.018038962,0.00041785068
16088000,16088000,0.01669989,0.0150427455,0.00013372044
16108000,16108000,0.015402722,0.017738314,0.00043368852
16128000,16128000,0.015760273,0.016427608,0.0005946004
16148000,16148000,0.016511736,0.0173218,0.00032311326
16172000,16172000,0.016550351,0.016742554,-2.563136e-05
16192000,16192000,0.01585251,0.01746991,0.0004274263
16212000,16212000,0.015863013,0.015326791,0.00051665166
16232000,16232000,0.015770035,0.017920645,0.00027878775
16252000,16252000,0.015913483,0.016759606,0.0002525117
16268000,16268000,0.016280586,0.01667515,0.0004263982
16288000,16288000,0.014738382,0.01688754,-0.00012080395
16308000,16308000,0.015477038,0.01681794,0.00019442754
16328000,16328000,0.015194932,0.016409202,7.736991e-05
16348000,16348000,0.016200582,0.017635636,9.006789e-05
16368000,16368000,0.015484998,0.0160468,-0.00015432858
16388000,16388000,0.015270827,0.017139511,0.0007202454
16412000,16412000,0.016158815,0.016781697,0.00017093569
16428000,16428000,0.016401742,0.016498452,-0.000121474084
16452000,16452000,0.015984982,0.016729178,0.00043033846
16472000,16472000,0.015932044,0.016930792,8.317591e-05
16492000,16492000,0.01549818,0.016229825,0.00069812563
16508000,16508000,0.015772827,0.01730921,2.7077518e-05
16532000,16532000,0.015217985,0.017061448,-3.5692043e-05
16552000,16552000,0.016525917,0.017057575,0.00044025664
16572000,16572000,0.016282003,0.017007828,0.00013914281
16588000,16588000,0.015029923,0.01583685,0.00034244359
16608000,16608000,0.015362908,0.017120415,4.6707017e-05
16632000,16632000,0.016602283,0.01744127,-2.6776606e-05
16652000,16652000,0.015872622,0.017687205,0.00013236837
16672000,16672000,0.015317131,0.016015584,0.00019506643
16692000,16692000,0.01658252,0.01612605,0.00089044153
16712000,16712000,0.015961004,0.016696205,-3.7792594e-05
16732000,16732000,0.01638734,0.01817317,0.00037419065
16748000,16748000,0.0166041,0.016845409,5.6445915e-05
16772000,16772000,0.016298527,0.016258314,-0.00023738449
16792000,16792000,0.015780894,0.017946932,0.00023788666
16812000,16812000,0.01712724,0.017185459,0.00031725192
16832000,16832000,0.016685892,0.016941274,0.0004704298
16852000,16852000,0.015125874,0.016630558,0.00020246767
16872000,16872000,0.015646841,0.016426023,-0.0002494224
16892000,16892000,0.016183307,0.017431753,0.00012339836
16912000,16912000,0.015546997,0.016926214,0.00022897046
16932000,16932000,0.016419267,0.017816244,-0.00010257474
16948000,16948000,0.016812867,0.016933277,0.00030812007
16968000,16968000,0.01570832,0.016332816,0.0003231391
16988000,16988000,0.016244048,0.016590383,-0.0001023051
17012000,17012000,0.01656279,0.015090004,-0.00014763205
17032000,17032000,0.015951226,0.017649624,0.0005429818
17052000,17052000,0.01678675,0.016856201,-0.00018260507
17072000,17072000,0.016419873,0.016663594,0.00023974924
17092000,17092000,0.015838709,0.01722347,-3.104167e-05
17112000,17112000,0.016057774,0.01603663,0.00030681232
17128000,17128000,0.016224144,0.017186487,0.00019550307
17148000,17148000,0.015658278,0.015488604,0.000121194265
17168000,17168000,0.015389151,0.017474174,0.0007984411
17188000,17188000,0.017165668,0.016507987,-0.00028361613
17212000,17212000,0.015389441,0.016170144,0.00042454115
17232000,17232000,0.0153946625,0.017639125,-8.487369e-05
17252000,17252000,0.01632431,0.015998539,0.0009985125
17272000,17272000,0.016751232,0.016987355,1.819986e-05
17292000,17292000,0.016385201,0.017144347,-5.386856e-05
17312000,17312000,0.016694004,0.015786532,0.00044536163
17332000,17332000,0.017248603,0.017342947,9.915524e-05
17352000,17352000,0.016044632,0.016377453,0.0008510772
17368000,17368000,0.016151927,0.017494436,-3.6890084e-05
17392000,17392000,0.016346207,0.016606407,0.00019835327
17412000,17412000,0.016096758,0.01764802,0.00052858435
17428000,17428000,0.014918311,0.01562786,0.00028465193
17452000,17452000,0.016453512,0.017429998,0.0002654313
17472000,17472000,0.015797913,0.017578201,0.000336644
17492000,17492000,0.01564587,0.01719817,6.028642e-05
17512000,17512000,0.014922999,0.01614871,0.00078052015
17528000,17528000,0.016566586,0.017150246,0.0002915732
17552000,17552000,0.014659027,0.018093487,0.00089392666
17572000,17572000,0.015402456,0.016110044,0.00021116459
17588000,17588000,0.016239919,0.016156841,0.00018530559
17612000,17612000,0.015546767,0.016536014,0.00034607816
17628000,17628000,0.015654884,0.016712595,0.00051495235
17652000,17652000,0.015298801,0.016382748,-0.00010833384
17672000,17672000,0.016358342,0.0172603,0.00041472827
17688000,17688000,0.015674366,0.015899714,0.00036542947
17712000,17712000,0.016138753,0.016760217,0.00051799626
17728000,17728000,0.016552765,0.01535995,-0.00013384696
17752000,17752000,0.01610215,0.016134083,-0.00012143573
17768000,17768000,0.015406618,0.016182985,0.0006830097
17788000,17788000,0.016175346,0.016300302,-2.7084421e-05
17808000,17808000,0.016147375,0.016646227,-2.343551e-05
17828000,17828000,0.016199265,0.015804902,0.00012190903
17852000,17852000,0.015810555,0.016844038,0.0002212818
17868000,17868000,0.01526116,0.016359523,-5.6415414e-05
17892000,17892000,0.01583741,0.015537774,0.00027351882
17912000,17912000,0.016060388,0.015411254,-0.00027355234
17928000,17928000,0.0153731825,0.015759276,0.0011926566
17952000,17952000,0.01566439,0.016069781,-0.00028756313
17972000,17972000,0.01588235,0.016117599,0.00044237502
17992000,17992000,0.016167248,0.016676359,7.80638e-05
18012000,18012000,0.015254803,0.016425148,0.00016953512
18032000,18032000,0.014671692,0.015997691,-0.00014283117
18052000,18052000,0.016045915,0.017031448,0.00025210375
18072000,18072000,0.01569805,0.01699011,0.0006090744
18092000,18092000,0.016611317,0.01618852,0.00013814097
18108000,18108000,0.01509671,0.01518459,0.0004992463
18132000,18132000,0.016622754,0.017476358,-7.498191e-05
18152000,18152000,0.01488583,0.015801396,0.0005089524
18172000,18172000,0.015487295,0.016746962,0.00021494486
18192000,18192000,0.015684992,0.016187746,-7.695192e-05
18212000,18212000,0.015262321,0.016119959,0.0001269705
18232000,18232000,0.014696389,0.016729346,0.00014794285
18252000,18252000,0.015107374,0.015984798,0.00048597713
18272000,18272000,0.015112543,0.015530568,0.00042671172
18292000,18292000,0.015779423,0.01663092,0.00069779315
18308000,18308000,0.016376432,0.01624764,0.00040990306
18332000,18332000,0.015536122,0.016842525,-5.028908e-05
18352000,18352000,0.016220337,0.016945545,0.0002097517
18372000,18372000,0.015203214,0.017120773,-3.4768753e-05
18388000,18388000,0.01542751,0.016106095,0.0006846967
18408000,18408000,0.015350683,0.015506841,0.00028090688
18432000,18432000,0.015599119,0.016581658,9.132644e-05
18452000,18452000,0.016797615,0.017374555,-8.428736e-05
18472000,18472000,0.016963542,0.015621334,7.0389324e-05
18492000,18492000,0.014886623,0.016140208,0.00041624173
18512000,18512000,0.015868817,0.015913637,0.00036654403
18532000,18532000,0.015242291,0.016676279,0.0005880702
18552000,18552000,0.015999625,0.016603068,-4.084321e-05
18572000,18572000,0.014723296,0.015587379,0.00027809528
18588000,18588000,0.017371692,0.016475933,-0.00012828317
18612000,18612000,0.0154871205,0.016716162,4.928387e-05
18632000,18632000,0.015485891,0.016500998,-7.293377e-05
18652000,18652000,0.015801145,0.01604567,0.00024933403
18668000,18668000,0.015411901,0.015828595,-3.2540353e-05
18692000,18692000,0.015911562,0.015293861,0.00020879674
18712000,18712000,0.014479962,0.016000511,0.000297313
18732000,18732000,0.015002712,0.015298372,0.0004846469
18752000,18752000,0.016805636,0.01643469,0.00016979848
18772000,18772000,0.01611446,0.017457899,0.00023231712
18792000,18792000,0.01522059,0.015454532,0.00055327103
18812000,18812000,0.01602833,0.017045477,0.0002378235
18832000,18832000,0.015386417,0.015037397,0.000344287
18852000,18852000,0.015497686,0.015587156,8.070774e-05
18872000,18872000,0.01602915,0.016247503,0.00038768892
18892000,18892000,0.014882457,0.015351634,0.00094535446
18912000,18912000,0.015673634,0.015953926,1.9288214e-05
18932000,18932000,0.016209664,0.014837248,0.00047519614
18952000,18952000,0.016126335,0.015784087,1.97495e-05
18972000,18972000,0.01608022,0.017350515,0.0003488705
18992000,18992000,0.015596292,0.01655305,-0.00012030695
19012000,19012000,0.0155425,0.015244844,0.00042504584
19032000,19032000,0.015260231,0.01780437,0.00019381025
19052000,19052000,0.015955783,0.015278548,9.84962e-05
19068000,19068000,0.014743507,0.015867697,0.0003846938
19092000,19092000,0.017042505,0.016610827,-2.0669017e-05
19112000,19112000,0.015475813,0.0152983805,0.000498379
19132000,19132000,0.015629474,0.015967736,0.0007876226
19152000,19152000,0.016170826,0.015327673,0.00016611235
19172000,19172000,0.015590119,0.016567444,0.00054089463
19192000,19192000,0.016105166,0.01660949,0.0003742694
19208000,19208000,0.013753305,0.014378798,0.0005384423
19228000,19228000,0.015974075,0.016185947,0.0009931964
19248000,19248000,0.016366454,0.01585992,0.00050502847
19272000,19272000,0.01599168,0.014802519,0.00045489738
19292000,19292000,0.015187733,0.016161451,0.0007086846
19312000,19312000,0.015738035,0.015321269,0.0003108369
19332000,19332000,0.015602697,0.016251042,-0.00019457532
19352000,19352000,0.015167514,0.014835504,0.00088568864
19372000,19372000,0.016829874,0.015055963,-8.865201e-05
19392000,19392000,0.015345914,0.016198827,-3.3084874e-05
19412000,19412000,0.016218232,0.015140746,2.1247926e-05
19432000,19432000,0.01508029,0.015854308,0.00011967592
19452000,19452000,0.016004657,0.017173083,-0.00013475554
19472000,19472000,0.015049791,0.016095515,0.0006432887
19492000,19492000,0.015877068,0.01581408,0.00026167688
19512000,19512000,0.015500635,0.015497969,0.00013082629
19532000,19532000,0.015378562,0.015896857,0.00050332025
19548000,19548000,0.01550618,0.016082073,0.0002151243
19572000,19572000,0.015682405,0.01571628,0.00042970027
19592000,19592000,0.01618899,0.015292557,-0.00044190604
19612000,19612000,0.016805695,0.015135796,-1.658391e-05
19632000,19632000,0.015054621,0.015159994,0.00053576345
19652000,19652000,0.016582435,0.015479711,0.00045489284
19672000,19672000,0.016300952,0.01521273,0.00024830506
19692000,19692000,0.015654279,0.015854482,0.00017694882
19708000,19708000,0.017073773,0.0150281405,0.0002670919
19728000,19728000,0.013806132,0.014898412,-0.00012946893
19748000,19748000,0.01560798,0.01625031,1.2454751e-05
19768000,19768000,0.015938234,0.015619824,0.0001833029
19788000,19788000,0.016558394,0.015270169,0.00031704127
19812000,19812000,0.015659861,0.015956093,-6.25704e-05
19832000,19832000,0.015913578,0.015883809,-0.00023043121
19852000,19852000,0.015786707,0.015071183,0.00025808354
19872000,19872000,0.01608236,0.014339058,0.00025445037
19892000,19892000,0.015589361,0.014534955,7.939666e-05
19912000,19912000,0.016322281,0.015300395,-0.00052504253
19932000,19932000,0.017242536,0.015388219,0.00020329018
19948000,19948000,0.015691975,0.01595111,0.00016691333
19972000,19972000,0.01608244,0.016285487,0.00019597849
19988000,19988000,0.015606798,0.014474208,0.0007667361
20012000,20012000,0.014779098,0.015967239,0.00044005798
20032000,20032000,0.016276155,0.014562511,-0.0004477745
20048000,20048000,0.0148056485,0.015257456,6.461956e-05
20072000,20072000,0.01665355,0.015307893,0.00044926564
20088000,20088000,0.014974415,0.015738305,-0.00019779055
20108000,20108000,0.015819352,0.016032748,0.00038057347
20132000,20132000,0.015221923,0.015618131,0.00057820056
20152000,20152000,0.016509242,0.015697673,9.224193e-05
20172000,20172000,0.016404102,0.014840864,0.0002961085
20192000,20192000,0.014447196,0.014537027,0.00042281952
20212000,20212000,0.016652424,0.015513099,-2.6973617e-05
20232000,20232000,0.014949564,0.015470579,0.00012735352
20252000,20252000,0.015370208,0.0156291,-0.00016479647
20272000,20272000,0.014947789,0.016278973,0.00053440843
20292000,20292000,0.015804434,0.013479982,0.00041163276
20308000,20308000,0.0152045945,0.015790109,-0.0003183535
20328000,20328000,0.014933606,0.015191392,0.0005256395
20348000,20348000,0.015130981,0.01543238,4.865235e-05
20372000,20372000,0.015575503,0.015256864,1.43687475e-05
20388000,20388000,0.017119376,0.015124875,0.0004805595
20408000,20408000,0.01615143,0.01560165,8.762339e-05
20428000,20428000,0.015111802,0.015570258,-6.33714e-05
20448000,20448000,0.016397182,0.014691007,0.00030242125
20472000,20472000,0.014981386,0.015407674,7.202542e-05
20492000,20492000,0.015046059,0.015972862,-0.00020497435
20512000,20512000,0.015244872,0.015344684,0.000190109
20532000,20532000,0.016081693,0.013726706,-8.171243e-05
20552000,20552000,0.015890183,0.016234426,0.00027191974
20572000,20572000,0.015807822,0.01453442,-0.00036999324
20588000,20588000,0.014652587,0.015805718,0.0002984204
20612000,20612000,0.015529047,0.015220477,0.00059809285
20632000,20632000,0.015257413,0.015454383,7.0952425e-05
20652000,20652000,0.015073209,0.015401991,0.00021359662
20672000,20672000,0.015638221,0.015022355,-0.00019692261
20692000,20692000,0.014080658,0.015440506,0.00046474484
20712000,20712000,0.015395447,0.014901361,0.0004436092
20732000,20732000,0.01580061,0.01583713,0.00024544596
20752000,20752000,0.01612024,0.015318874,0.00022125938
20772000,20772000,0.014995561,0.014753678,0.00028879713
20792000,20792000,0.014554078,0.016415996,0.00054822094
20812000,20812000,0.015426902,0.014043695,9.108986e-05
20832000,20832000,0.016726729,0.0152469985,1.7853816e-05
20852000,20852000,0.014536902,0.015584914,0.0011482689
20872000,20872000,0.016166765,0.014635107,0.00021295389
20888000,20888000,0.01465549,0.015501969,1.0034174e-05
20912000,20912000,0.014848317,0.015220448,-8.417048e-05
20932000,20932000,0.014877557,0.014880327,0.00041860537
20952000,20952000,0.016578607,0.013565562,0.0006168037
20972000,20972000,0.014925185,0.014081376,-0.00057744124
20992000,20992000,0.014904284,0.015048285,-3.6410907e-05
21012000,21012000,0.015316101,0.014662106,0.00056607637
21032000,21032000,0.016414361,0.015132512,0.0005502074
21052000,21052000,0.015666643,0.015151164,-2.9660878e-06
21072000,21072000,0.0154054845,0.015164437,-3.646404e-05
21088000,21088000,0.015745847,0.015620371,0.0005968945
21112000,21112000,0.015692152,0.0150573775,0.00068021007
21132000,21132000,0.014752677,0.015157484,0.00028138785
21152000,21152000,0.014978081,0.0143610295,3.7460635e-05
21172000,21172000,0.014688537,0.014570214,0.00039508674
21192000,21192000,0.0140344715,0.014465767,0.00015196786
21212000,21212000,0.015752047,0.015526909,0.00040323145
21232000,21232000,0.01509381,0.015133201,-0.00029203884
21252000,21252000,0.015821705,0.0155232195,0.00049190776
21272000,21272000,0.014966122,0.015578044,0.00040337007
21292000,21292000,0.015473476,0.014584208,0.00014375882
21312000,21312000,0.015176723,0.014695471,0.0003204927
21332000,21332000,0.015248322,0.013462193,-0.00023496138
21352000,21352000,0.015224595,0.01588239,0.00022006714
21372000,21372000,0.014890177,0.015457066,0.00010603528
21392000,21392000,0.016115375,0.015867868,-0.00021288046
21412000,21412000,0.014814018,0.015010224,0.0008069534
21432000,21432000,0.0150106065,0.014501961,0.00021108049
21452000,21452000,0.0153633505,0.015033981,0.00023471592
21472000,21472000,0.015518009,0.014905628,0.0007217057
21492000,21492000,0.016230015,0.0165035,0.00043552424
21512000,21512000,0.01441051,0.014306059,0.0002493456
21532000,21532000,0.0143004265,0.01500692,0.00017832423
21552000,21552000,0.014568404,0.0151317855,0.00039420137
21572000,21572000,0.014934513,0.015053662,0.00062890974
21592000,21592000,0.015866084,0.015257623,0.00073091657
21612000,21612000,0.015492386,0.015649254,0.0002398544
21632000,21632000,0.014066237,0.0152635025,0.00017820337
21652000,21652000,0.01481368,0.015415624,0.00031028106
21672000,21672000,0.015438495,0.015265344,9.924021e-05
21692000,21692000,0.014691241,0.014477318,0.0006842633
21712000,21712000,0.014782468,0.01414611,0.0004840295
21732000,21732000,0.015188814,0.015859695,-6.901333e-06
21752000,21752000,0.015324013,0.014788743,0.00030810185
21772000,21772000,0.0153490035,0.016228532,0.00019197223
21788000,21788000,0.014532511,0.015491439,0.0006988635
21812000,21812000,0.015171404,0.013260306,-4.1100455e-05
21832000,21832000,0.015389599,0.015537941,-0.0004044843
21852000,21852000,0.014139274,0.015340196,0.00012790531
21872000,21872000,0.014781005,0.014091261,-0.00013358146
21892000,21892000,0.015023771,0.014475028,-0.00019446065
21912000,21912000,0.014568917,0.015257635,0.00015534004
21932000,21932000,0.015691001,0.014334177,0.00021074805
21952000,21952000,0.014869075,0.014421971,0.000386795
21968000,21968000,0.014224492,0.016172467,0.0003376852
21988000,21988000,0.014822498,0.01493557,0.00050411525
22012000,22012000,0.015060235,0.0155750355,0.00020731674
22032000,22032000,0.015465306,0.014988469,0.00054353586
22052000,22052000,0.015590055,0.01630638,0.00014051725
22072000,22072000,0.014385477,0.01459003,0.00036734427
22088000,22088000,0.014905819,0.014842824,4.3287502e-05
22112000,22112000,0.01488429,0.014981373,0.00053611497
22132000,22132000,0.015888892,0.015500282,0.000587066
22152000,22152000,0.014811042,0.014940893,0.00037221782
22172000,22172000,0.014499645,0.014638051,-6.675823e-05
22192000,22192000,0.015013515,0.014293683,0.00039781604
22212000,22212000,0.016491542,0.012029117,0.00083497056
22232000,22232000,0.016295651,0.010848531,0.00028820598
22252000,22252000,0.01643204,0.010078343,0.00050647353
22268000,22268000,0.015978258,0.010793734,3.8868397e-06
22288000,22288000,0.015822941,0.011259344,5.3940563e-05
22312000,22312000,0.014822807,0.012323857,0.00011161976
22328000,22328000,0.016013805,0.011643109,-1.5295042e-05
22348000,22348000,0.015162998,0.010948039,0.00010382605
22372000,22372000,0.01599877,0.010443837,-0.00039895132
22388000,22388000,0.015328118,0.0115463175,-2.287836e-05
22412000,22412000,0.015762834,0.010904882,0.00055746257
22428000,22428000,0.015254026,0.011477483,0.00035891138
22448000,22448000,0.015740715,0.010347699,0.0006135704
22468000,22468000,0.015186871,0.011047004,0.00047896834
22488000,22488000,0.01574358,0.009530222,0.00021402254
22508000,22508000,0.01591244,0.009922106,-8.245949e-05
22532000,22532000,0.015254935,0.0107853655,0.0002990639
22552000,22552000,0.0152754625,0.010579056,0.00019275992
22572000,22572000,0.015593659,0.010493473,6.572413e-05
22592000,22592000,0.016350606,0.010004576,0.00079141883
22612000,22612000,0.016375488,0.010319233,-0.0003613253
22632000,22632000,0.015280178,0.011508119,-5.220736e-05
22652000,22652000,0.016274653,0.010683848,-0.00030337754
22672000,22672000,0.014864904,0.012819327,0.0008751549
22692000,22692000,0.016751558,0.011804567,0.00024883973
22712000,22712000,0.014992993,0.011831753,0.0006443825
22732000,22732000,0.015801629,0.0115629425,0.0002996088
22752000,22752000,0.016398985,0.014026241,-3.0109613e-05
22772000,22772000,0.015285947,0.011809836,0.000569937
22792000,22792000,0.016010342,0.012566416,0.00032296692
22812000,22812000,0.01656523,0.013854398,0.00020752403
22832000,22832000,0.015470644,0.011861443,0.000290119
22852000,22852000,0.016525824,0.0130363,0.00045028861
22872000,22872000,0.015941495,0.012860054,0.00015188295
22892000,22892000,0.015476332,0.01267417,-0.00013692118
22908000,22908000,0.01548338,0.012693631,0.00036037588
22928000,22928000,0.015200531,0.011607512,0.0002751758
22952000,22952000,0.016931126,0.013111998,-0.00022992767
22972000,22972000,0.016173046,0.012579788,-5.068322e-05
22988000,22988000,0.016406335,0.012589201,0.00027316477
23012000,23012000,0.017288467,0.014679555,0.00047235115
23032000,23032000,0.017241638,0.015397362,0.00067414285
23052000,23052000,0.017602248,0.013643988,-6.141971e-05
23072000,23072000,0.01748003,0.016239889,0.00015951681
23092000,23092000,0.01849685,0.016855907,0.00013877475
23112000,23112000,0.019227924,0.015378299,0.0005483796
23132000,23132000,0.019360613,0.015774626,0.00043977908
23152000,23152000,0.018876432,0.017315688,0.0002718522
23172000,23172000,0.019379938,0.017799024,0.00048426655
23192000,23192000,0.020233123,0.0167206,-0.00012786046
23212000,23212000,0.020671751,0.01875482,0.001131035
23232000,23232000,0.019745434,0.018606102,-0.00022167969
23252000,23252000,0.021823177,0.01814813,-0.000112007125
23272000,23272000,0.021644395,0.020587178,0.00015705333
23292000,23292000,0.021815477,0.018112453,0.000444268
23312000,23312000,0.02236209,0.019404195,-7.1589224e-05
23332000,23332000,0.023270624,0.019449878,-5.333472e-05
23352000,23352000,0.02353109,0.019173155,0.00033692835
23372000,23372000,0.0231107,0.019869188,0.00049159955
23392000,23392000,0.024796495,0.021219084,0.00062309235
23412000,23412000,0.024820236,0.020771267,0.00026280084
23432000,23432000,0.023832377,0.021234425,0.00018359518
23452000,23452000,0.02593077,0.023411855,0.00051211397
23472000,23472000,0.025148697,0.02173959,0.00041776933
23492000,23492000,0.02665986,0.022380264,0.00023933861
23512000,23512000,0.027280834,0.024690835,0.0002431361
23532000,23532000,0.027146718,0.023147898,0.00016718046
23552000,23552000,0.02769497,0.024372973,0.00017648964
23572000,23572000,0.02746404,0.024139738,0.00045065652
23592000,23592000,0.02849291,0.024856588,-0.00026563642
23612000,23612000,0.029223016,0.02652923,0.0004372527
23632000,23632000,0.028891927,0.027397783,0.0003305737
23652000,23652000,0.028871292,0.027203403,0.00013837987
23672000,23672000,0.029884024,0.025688676,9.521842e-05
23692000,23692000,0.029631726,0.027074147,0.000933635
23712000,23712000,0.031123154,0.027326472,6.458573e-05
23732000,23732000,0.03094999,0.02883291,0.00023347716
23752000,23752000,0.032190025,0.028511543,0.0006690752
23772000,23772000,0.030807285,0.028949706,0.00018385844
23792000,23792000,0.031750318,0.029223127,-3.0207731e-05
23812000,23812000,0.03264261,0.030162977,0.0003521106
23832000,23832000,0.033776503,0.02991344,0.00039530938
23852000,23852000,0.03368154,0.03059725,-3.8587932e-05
23872000,23872000,0.033444073,0.030963508,0.00028340484
23892000,23892000,0.035297364,0.030549094,0.00024752383
23912000,23912000,0.03562629,0.032577105,0.00022093943
23932000,23932000,0.035668716,0.031607192,0.0006612628
23952000,23952000,0.0357799,0.031588,0.0007697062
23972000,23972000,0.036532737,0.033179652,-2.290521e-05
23992000,23992000,0.036510527,0.032807913,0.00031201844
24008000,24008000,0.03666014,0.03437453,0.00023975957
24028000,24028000,0.037993558,0.03452431,-0.00044113948
24052000,24052000,0.037838574,0.035621617,0.0006188239
24072000,24072000,0.039419096,0.036722526,0.00083455315
24088000,24088000,0.039966192,0.035330627,-9.34899e-05
24108000,24108000,0.03971002,0.035387903,0.00021266949
24128000,24128000,0.038890354,0.036094356,0.00017645802
24148000,24148000,0.042326484,0.037411693,0.00019923289
24168000,24168000,0.041387558,0.037086822,0.00036079474
24188000,24188000,0.040803634,0.037462797,0.0003731409
24208000,24208000,0.042390607,0.036617592,0.00040408497
24232000,24232000,0.042442393,0.038364753,0.0002601107
24252000,24252000,0.042385105,0.03811736,0.00073748204
24272000,24272000,0.041720748,0.03873655,0.0005966816
24292000,24292000,0.043737676,0.039031077,1.41938945e-05
24312000,24312000,0.04410634,0.04014531,0.0005053161
24332000,24332000,0.043212872,0.039713614,0.00014406425
24352000,24352000,0.045199387,0.039728973,0.0008481252
24372000,24372000,0.044403076,0.03973874,0.00014298744
24392000,24392000,0.045671064,0.04081488,0.00022429666
24412000,24412000,0.045896206,0.040332954,0.00048800727
24432000,24432000,0.045792405,0.040898755,0.0008220825
24452000,24452000,0.04615755,0.04139476,0.00036485802
24472000,24472000,0.04661968,0.0414824,3.9823368e-05
24492000,24492000,0.04810789,0.041488536,0.00023478983
24512000,24512000,0.04725419,0.04258533,0.000110298955
24532000,24532000,0.048590817,0.0421151,0.00028895494
24552000,24552000,0.047443,0.042646892,0.0004045869
24568000,24568000,0.049943242,0.041958407,0.00042872535
24588000,24588000,0.050485022,0.04335647,0.00020740794
24612000,24612000,0.049212854,0.043120317,-0.00025681322
24632000,24632000,0.050324704,0.042581838,0.0004499411
24652000,24652000,0.05046209,0.045802124,0.00033605896
24672000,24672000,0.04892447,0.04465905,0.00034280308
24692000,24692000,0.050358668,0.043350648,0.000595757
24712000,24712000,0.050732818,0.044941414,0.00028808432
24728000,24728000,0.051493164,0.04555837,0.00034496415
24748000,24748000,0.051438622,0.04467115,0.00033705193
24772000,24772000,0.052278783,0.04438416,0.00029148246
24792000,24792000,0.052330606,0.04574014,-0.0004139644
24812000,24812000,0.053289257,0.04663786,0.00035542095
24832000,24832000,0.05362662,0.046083886,-0.00014006556
24852000,24852000,0.053534407,0.045715325,0.00030659797
24872000,24872000,0.0547704,0.04601578,0.00024144456
24892000,24892000,0.054641314,0.04658773,0.0004618639
24912000,24912000,0.055224404,0.047531325,0.0003235424
24932000,24932000,0.055147674,0.04544874,0.00026836255
24952000,24952000,0.056235064,0.047749706,-9.663934e-05
24972000,24972000,0.05667009,0.047700543,0.0003911584
24992000,24992000,0.057257347,0.047696467,0.0004172685
25012000,25012000,0.056113593,0.04908613,0.0005994578
