timestamp,timestamp_sample,time_last_fuse,device_id,observation[0],observation[1],observation[2],observation_variance[0],observation_variance[1],observation_variance[2],innovation[0],innovation[1],innovation[2],innovation_variance[0],innovation_variance[1],innovation_variance[2],test_ratio[0],test_ratio[1],test_ratio[2],estimator_instance,fusion_enabled,innovation_rejected,fused
3076000,3047000,0,0,0.012685265,-0.21847832,0.42673162,0.0,0.0,0.0,-0.012685265,0.21847832,-0.42673162,0.0,0.0,0.0,0.0,0.0,0.0,0,0,0,0
3204000,3118190,0,0,0.009413962,-0.21674828,0.43056583,0.0,0.0,0.0,-0.009413962,0.21674828,-0.43056583,0.0,0.0,0.0,inf,inf,inf,0,0,1,0
3276000,3190939,0,0,0.0033419938,-0.21002601,0.4268649,0.0,0.0,0.0,0.009170422,-0.008324191,0.00022271276,0.0,0.0,0.0,inf,inf,inf,0,0,1,0
3348000,3262742,0,0,0.009160675,-0.2161429,0.42814642,0.0,0.0,0.0,0.0035041943,-0.00228104,-0.001101017,0.0,0.0,0.0,inf,inf,inf,0,0,1,0
3420000,3335124,0,0,0.012660593,-0.21598403,0.42978668,0.0,0.0,0.0,-0.00040487945,-0.0022087842,-0.0026112199,0.0,0.0,0.0,inf,inf,inf,0,0,1,0
3492000,3406156,0,0,0.01013486,-0.21591681,0.42817792,0.0,0.0,0.0,0.0015181014,-0.0013087541,-0.00073972344,0.0,0.0,0.0,inf,inf,inf,0,0,1,0
3564000,3479262,0,0,0.011749654,-0.21494421,0.4287155,0.0,0.0,0.0,-8.627679e-05,-0.0023368,-0.0013057888,0.0,0.0,0.0,inf,inf,inf,0,0,1,0
3636000,3551014,0,0,0.009104835,-0.21554255,0.42772767,0.0,0.0,0.0,0.002652606,-0.0018075705,-0.00035569072,0.0,0.0,0.0,inf,inf,inf,0,0,1,0
3700000,3619384,0,0,0.0123511525,-0.21878135,0.4332559,0.0,0.0,0.0,-0.00066019315,0.001383692,-0.005906284,0.0,0.0,0.0,inf,inf,inf,0,0,1,0
3772000,3688275,0,0,0.009235315,-0.2161175,0.43094608,0.0,0.0,0.0,0.0027002096,-0.0012765527,-0.0036013424,0.0,0.0,0.0,inf,inf,inf,0,0,1,0
3836000,3755481,0,0,0.013743717,-0.22415705,0.42743188,0.0,0.0,0.0,-0.0021091737,0.0067191273,-0.00010114908,0.0,0.0,0.0,inf,inf,inf,0,0,1,0
3908000,3826471,0,0,0.0113577815,-0.21712297,0.4292258,0.0,0.0,0.0,0.000560428,-0.00037322938,-0.001932621,0.0,0.0,0.0,inf,inf,inf,0,0,1,0
3980000,3895567,0,0,0.01636749,-0.21190172,0.4328792,0.0,0.0,0.0,-0.0043629277,-0.0056322217,-0.0056076646,0.0,0.0,0.0,inf,inf,inf,0,0,1,0
4052000,3964024,0,0,0.013008857,-0.21459348,0.42904076,0.0,0.0,0.0,-0.0010131095,-0.0028284043,-0.0017119348,0.0,0.0,0.0,inf,inf,inf,0,0,1,0
4116000,4031631,0,0,0.012808267,-0.22182585,0.42728752,0.0,0.0,0.0,-0.000673797,0.004371956,2.1159649e-05,0.0,0.0,0.0,inf,inf,inf,0,0,1,0
4188000,4102958,0,0,0.008621911,-0.21623993,0.42939308,0.0,0.0,0.0,0.0036551934,-0.0012586862,-0.0021112561,0.0,0.0,0.0,inf,inf,inf,0,0,1,0
4260000,4175692,0,0,0.013723361,-0.21311402,0.43066972,0.0,0.0,0.0,-0.0021273745,-0.004235074,-0.0032928586,0.0,0.0,0.0,inf,inf,inf,0,0,1,0
4332000,4245919,0,0,0.012100953,-0.21703099,0.42799535,0.0,0.0,0.0,-0.0003389446,-0.00032389164,-0.0006258786,0.0,0.0,0.0,inf,inf,inf,0,0,1,0
4404000,4319743,0,0,0.008135787,-0.21868804,0.42701617,0.0,0.0,0.0,0.0037091682,0.0013459921,0.00035753846,0.0,0.0,0.0,inf,inf,inf,0,0,1,0
4476000,4391420,0,0,0.00929907,-0.21568088,0.42799404,0.0,0.0,0.0,0.0020333081,-0.0015976578,-0.00057420135,0.0,0.0,0.0,inf,inf,inf,0,0,1,0
4548000,4463786,0,0,0.009546011,-0.220509,0.42202428,0.0,0.0,0.0,0.0016564885,0.0032027662,0.005384952,0.0,0.0,0.0,inf,inf,inf,0,0,1,0
4620000,4534727,0,0,0.010205589,-0.2169486,0.4301982,0.0,0.0,0.0,0.0007390976,-0.00026476383,-0.0027351081,0.0,0.0,0.0,inf,inf,inf,0,0,1,0
4692000,4607821,0,0,0.010164719,-0.21258825,0.4332285,0.0,0.0,0.0,0.00069151446,-0.004604742,-0.005752802,0.0,0.0,0.0,inf,inf,inf,0,0,1,0
4764000,4679486,0,0,0.011994468,-0.21553414,0.4292044,0.0,0.0,0.0,-0.001203591,-0.0016738772,-0.0017346442,0.0,0.0,0.0,inf,inf,inf,0,0,1,0
4836000,4751851,0,0,0.0069941115,-0.21392806,0.42504522,0.0,0.0,0.0,0.0037852023,-0.0030941516,0.0025191903,0.0,0.0,0.0,inf,inf,inf,0,0,1,0
4908000,4822419,0,0,0.007598437,-0.21642406,0.42914274,0.0,0.0,0.0,0.0029333686,-0.0005169958,-0.0015309751,0.0,0.0,0.0,inf,inf,inf,0,0,1,0
4980000,4895876,0,0,0.010195808,-0.20989199,0.433321,0.0,0.0,0.0,8.342322e-05,-0.007004574,-0.005680561,0.0,0.0,0.0,inf,inf,inf,0,0,1,0
5052000,4967166,0,0,0.010904264,-0.21752152,0.428917,0.0,0.0,0.0,-0.00063891336,0.000790745,-0.0011921525,0.0,0.0,0.0,inf,inf,inf,0,0,1,0
5124000,5039897,0,0,0.0074450066,-0.21399981,0.42868078,0.0,0.0,0.0,0.002800838,-0.0026901811,-0.00093483925,0.0,0.0,0.0,inf,inf,inf,0,0,1,0
5196000,5111185,0,0,0.009766013,-0.21733555,0.42686355,0.0,0.0,0.0,0.000239118,0.00067049265,0.0009006858,0.0,0.0,0.0,inf,inf,inf,0,0,1,0
5268000,5183914,0,0,0.011537077,-0.21643636,0.43498546,0.0,0.0,0.0,-0.0016142372,-0.00017592311,-0.007192552,0.0,0.0,0.0,inf,inf,inf,0,0,1,0
5340000,5254472,0,0,0.012014216,-0.2150916,0.43067408,0.0,0.0,0.0,-0.0020224433,-0.0015086383,-0.0028766394,0.0,0.0,0.0,inf,inf,inf,0,0,1,0
5412000,5327928,0,0,0.011853095,-0.21234015,0.4277736,0.0,0.0,0.0,-0.0017454885,-0.0041987896,5.2124262e-05,0.0,0.0,0.0,inf,inf,inf,0,0,1,0
5484000,5398484,0,0,0.010476698,-0.2164673,0.42853686,0.0,0.0,0.0,-0.0002970295,-0.00010223687,-0.00072830915,0.0,0.0,0.0,inf,inf,inf,0,0,1,0
5556000,5471940,0,0,0.008566035,-0.2120963,0.43500993,0.0,0.0,0.0,0.0015856344,-0.0044558346,-0.0071919262,0.0,0.0,0.0,inf,inf,inf,0,0,1,0
5628000,5542494,0,0,0.009326612,-0.2141454,0.43066025,0.0,0.0,0.0,0.000633697,-0.0023898482,-0.002829194,0.0,0.0,0.0,inf,inf,inf,0,0,1,0
5700000,5615950,0,0,-0.0021378382,-0.21789359,0.431334,0.0,0.0,0.0,0.011993585,0.0012672246,-0.0035466254,0.0,0.0,0.0,inf,inf,inf,0,0,1,0
5772000,5686867,0,0,0.010801426,-0.21736458,0.4280176,0.0,0.0,0.0,-0.001847065,0.0007170141,-0.00022113323,0.0,0.0,0.0,inf,inf,inf,0,0,1,0
5844000,5759958,0,0,0.009518993,-0.22132732,0.4288793,0.0,0.0,0.0,-0.00051194895,0.0046830326,-0.001082331,0.0,0.0,0.0,inf,inf,inf,0,0,1,0
5916000,5830874,0,0,0.009027538,-0.21568291,0.42874545,0.0,0.0,0.0,-4.712958e-05,-0.0010331124,-0.0009841919,0.0,0.0,0.0,inf,inf,inf,0,0,1,0
5988000,5903965,0,0,0.015113272,-0.21213068,0.42134902,0.0,0.0,0.0,-0.0061688498,-0.0045381933,0.006436795,0.0,0.0,0.0,inf,inf,inf,0,0,1,0
6060000,5974880,0,0,0.009543935,-0.21459997,0.42882296,0.0,0.0,0.0,-0.00023166277,-0.0020779967,-0.0010495484,0.0,0.0,0.0,inf,inf,inf,0,0,1,0
6132000,6047971,0,0,0.011429091,-0.21676148,0.42689377,0.0,0.0,0.0,-0.0021781297,7.842481e-05,0.00087839365,0.0,0.0,0.0,inf,inf,inf,0,0,1,0
6204000,6118885,0,0,0.009533843,-0.21378663,0.4298534,0.0,0.0,0.0,-0.00016720407,-0.0028756857,-0.002073288,0.0,0.0,0.0,inf,inf,inf,0,0,1,0
6276000,6191976,0,0,0.014029706,-0.21748877,0.42580673,0.0,0.0,0.0,-0.0046978835,0.0008494854,0.0019858181,0.0,0.0,0.0,inf,inf,inf,0,0,1,0
6348000,6262889,0,0,0.009732823,-0.21576111,0.4281266,0.0,0.0,0.0,-0.000105882995,-0.00083617866,-0.00031933188,0.0,0.0,0.0,inf,inf,inf,0,0,1,0
6420000,6335980,0,0,0.0040869275,-0.21992612,0.42827982,0.0,0.0,0.0,0.0055308407,0.0033552647,-0.00045892596,0.0,0.0,0.0,inf,inf,inf,0,0,1,0
6492000,6406164,0,0,0.011197588,-0.21658924,0.42933846,0.0,0.0,0.0,-0.0019200211,3.8400292e-05,-0.0015000105,0.0,0.0,0.0,inf,inf,inf,0,0,1,0
6564000,6479983,0,0,0.0079702465,-0.21798606,0.4292184,0.0,0.0,0.0,0.0013686838,0.0014594048,-0.0013689697,0.0,0.0,0.0,inf,inf,inf,0,0,1,0
6636000,6550167,0,0,0.010373315,-0.2153077,0.42815194,0.0,0.0,0.0,-0.0011593159,-0.001179859,-0.00028005242,0.0,0.0,0.0,inf,inf,inf,0,0,1,0
6708000,6623986,0,0,0.0036997308,-0.21806319,0.42513877,0.0,0.0,0.0,0.0056034066,0.0016258061,0.002756536,0.0,0.0,0.0,inf,inf,inf,0,0,1,0
6780000,6695261,0,0,0.009720385,-0.21719544,0.4316461,0.0,0.0,0.0,-0.0008044541,0.0007941723,-0.003724277,0.0,0.0,0.0,inf,inf,inf,0,0,1,0
6852000,6767989,0,0,0.013847364,-0.21740998,0.42754683,0.0,0.0,0.0,-0.004934972,0.0010539442,0.0003979504,0.0,0.0,0.0,inf,inf,inf,0,0,1,0
6924000,6838535,0,0,0.009425482,-0.21647069,0.42916837,0.0,0.0,0.0,-0.00018779747,0.00010865927,-0.0012334585,0.0,0.0,0.0,inf,inf,inf,0,0,1,0
6996000,6911991,0,0,0.009257532,-0.21588933,0.4293177,0.0,0.0,0.0,-6.0766004e-05,-0.00045767426,-0.0013743639,0.0,0.0,0.0,inf,inf,inf,0,0,1,0
7068000,6983628,0,0,0.0114482725,-0.21423253,0.42768463,0.0,0.0,0.0,-0.0022725174,-0.002090007,0.00027158856,0.0,0.0,0.0,inf,inf,inf,0,0,1,0
7140000,7055992,0,0,0.007461725,-0.21874861,0.4360076,0.0,0.0,0.0,0.0018709172,0.0023654401,-0.0080854595,0.0,0.0,0.0,inf,inf,inf,0,0,1,0
7212000,7127630,0,0,0.010235406,-0.21499185,0.4299094,0.0,0.0,0.0,-0.0010625422,-0.0013925582,-0.0019844174,0.0,0.0,0.0,inf,inf,inf,0,0,1,0
7284000,7199994,0,0,0.008166374,-0.2190806,0.43064633,0.0,0.0,0.0,0.0010256087,0.0027171671,-0.002711147,0.0,0.0,0.0,inf,inf,inf,0,0,1,0
7356000,7270904,0,0,0.008972378,-0.21351478,0.43254706,0.0,0.0,0.0,0.00015957467,-0.0029197037,-0.00464651,0.0,0.0,0.0,inf,inf,inf,0,0,1,0
7428000,7343995,0,0,0.009379464,-0.21451321,0.4349738,0.0,0.0,0.0,-0.0003265692,-0.0018752217,-0.007048279,0.0,0.0,0.0,inf,inf,inf,0,0,1,0
7500000,7415268,0,0,0.010664019,-0.21688731,0.43118092,0.0,0.0,0.0,-0.0016073836,0.0004759282,-0.0032671392,0.0,0.0,0.0,inf,inf,inf,0,0,1,0
7572000,7487996,0,0,0.007750586,-0.21237479,0.4320271,0.0,0.0,0.0,0.0013970952,-0.0041354,-0.004165232,0.0,0.0,0.0,inf,inf,inf,0,0,1,0
7644000,7559268,0,0,0.0109952325,-0.21463951,0.429365,0.0,0.0,0.0,-0.0019539231,-0.0018776059,-0.0015043616,0.0,0.0,0.0,inf,inf,inf,0,0,1,0
7716000,7631996,0,0,0.011102006,-0.22008337,0.42161456,0.0,0.0,0.0,-0.0019688755,0.003563866,0.006242901,0.0,0.0,0.0,inf,inf,inf,0,0,1,0
7788000,7703633,0,0,0.010642466,-0.21584618,0.42711434,0.0,0.0,0.0,-0.0014771568,-0.00074884295,0.0007041693,0.0,0.0,0.0,inf,inf,inf,0,0,1,0
7860000,7775997,0,0,0.008626935,-0.21267502,0.43231097,0.0,0.0,0.0,0.0005903272,-0.00390999,-0.004488468,0.0,0.0,0.0,inf,inf,inf,0,0,1,0
7932000,7846907,0,0,0.0105048,-0.2154045,0.42989948,0.0,0.0,0.0,-0.0013658805,-0.0011289567,-0.0020492375,0.0,0.0,0.0,inf,inf,inf,0,0,1,0
8004000,7919998,0,0,0.009429914,-0.21742743,0.4275865,0.0,0.0,0.0,-0.00023412425,0.0008559227,0.00024324656,0.0,0.0,0.0,inf,inf,inf,0,0,1,0
8076000,7991634,0,0,0.011208836,-0.21747126,0.42805466,0.0,0.0,0.0,-0.0020216294,0.00090540946,-0.00022181869,0.0,0.0,0.0,inf,inf,inf,0,0,1,0
8148000,8063998,0,0,0.007395983,-0.21672158,0.4245603,0.0,0.0,0.0,0.0018576826,0.00017483532,0.0032807887,0.0,0.0,0.0,inf,inf,inf,0,0,1,0
8220000,8135635,0,0,0.008904506,-0.21656945,0.42986426,0.0,0.0,0.0,0.00021387916,1.4007092e-06,-0.0020310283,0.0,0.0,0.0,inf,inf,inf,0,0,1,0
8292000,8207999,0,0,0.0049069147,-0.21572159,0.43026227,0.0,0.0,0.0,0.0041713347,-0.0008248538,-0.0024172664,0.0,0.0,0.0,inf,inf,inf,0,0,1,0
8364000,8278908,0,0,0.008257013,-0.21608083,0.42908865,0.0,0.0,0.0,0.0005998947,-0.00047929585,-0.0012459159,0.0,0.0,0.0,inf,inf,inf,0,0,1,0
8428000,8347999,0,0,0.00885609,-0.21539323,0.42848945,0.0,0.0,0.0,-8.616783e-05,-0.0011381954,-0.0006304383,0.0,0.0,0.0,inf,inf,inf,0,0,1,0
8500000,8417599,0,0,0.010284337,-0.21431075,0.42745015,0.0,0.0,0.0,-0.0015228866,-0.0021709949,0.00043419003,0.0,0.0,0.0,inf,inf,inf,0,0,1,0
8572000,8487999,0,0,0.0077674203,-0.21447319,0.43379056,0.0,0.0,0.0,0.0010348521,-0.0020090342,-0.005907297,0.0,0.0,0.0,inf,inf,inf,0,0,1,0
8636000,8555110,0,0,0.009003204,-0.21694379,0.42819804,0.0,0.0,0.0,-0.00030596275,0.00048153102,-0.00030252337,0.0,0.0,0.0,inf,inf,inf,0,0,1,0
8708000,8621999,0,0,0.009571435,-0.21473172,0.4317967,0.0,0.0,0.0,-0.00089544244,-0.0016897321,-0.0038801134,0.0,0.0,0.0,inf,inf,inf,0,0,1,0
8780000,8693600,0,0,0.009730452,-0.21711989,0.42788678,0.0,0.0,0.0,-0.0010095099,0.0007086843,3.4093857e-05,0.0,0.0,0.0,inf,inf,inf,0,0,1,0
8844000,8764000,0,0,0.011253784,-0.214477,0.42967057,0.0,0.0,0.0,-0.0025176955,-0.0019389689,-0.0017524064,0.0,0.0,0.0,inf,inf,inf,0,0,1,0
8916000,8831111,0,0,0.009130081,-0.21542405,0.4282136,0.0,0.0,0.0,-0.00030185096,-0.000984475,-0.00029355288,0.0,0.0,0.0,inf,inf,inf,0,0,1,0
8980000,8898000,0,0,0.0051717907,-0.21540768,0.42854846,0.0,0.0,0.0,0.0036379173,-0.0009844452,-0.0006197989,0.0,0.0,0.0,inf,inf,inf,0,0,1,0
9052000,8968400,0,0,0.009131758,-0.214407,0.42825982,0.0,0.0,0.0,-0.00051596574,-0.0019772947,-0.0003232658,0.0,0.0,0.0,inf,inf,inf,0,0,1,0
9116000,9036000,0,0,0.011579174,-0.2150205,0.43153834,0.0,0.0,0.0,-0.0029908745,-0.0013649911,-0.0036017895,0.0,0.0,0.0,inf,inf,inf,0,0,1,0
9188000,9107272,0,0,0.008757407,-0.21736887,0.42945164,0.0,0.0,0.0,-9.022094e-05,0.0009897947,-0.0015134513,0.0,0.0,0.0,inf,inf,inf,0,0,1,0
9260000,9180000,0,0,0.008844201,-0.22019699,0.42400545,0.0,0.0,0.0,-0.00016265083,0.003809005,0.0039280057,0.0,0.0,0.0,inf,inf,inf,0,0,1,0
9332000,9250909,0,0,0.00974301,-0.21589588,0.42948768,0.0,0.0,0.0,-0.0010706531,-0.00047330558,-0.001544565,0.0,0.0,0.0,inf,inf,inf,0,0,1,0
9404000,9324000,0,0,0.011457771,-0.21103674,0.43208027,0.0,0.0,0.0,-0.0027748048,-0.0052894056,-0.004115641,0.0,0.0,0.0,inf,inf,inf,0,0,1,0
9476000,9394545,0,0,0.008692105,-0.2165069,0.43012413,0.0,0.0,0.0,9.712111e-05,0.00016798079,-0.002168119,0.0,0.0,0.0,inf,inf,inf,0,0,1,0
9548000,9464000,0,0,0.004702518,-0.21649283,0.43242025,0.0,0.0,0.0,0.0039883605,0.00017249584,-0.0044528246,0.0,0.0,0.0,inf,inf,inf,0,0,1,0
9620000,9533200,0,0,0.0071843597,-0.21673048,0.43012723,0.0,0.0,0.0,0.001315516,0.00042654574,-0.0021476746,0.0,0.0,0.0,inf,inf,inf,0,0,1,0
9684000,9600000,0,0,0.007931109,-0.20990852,0.42164233,0.0,0.0,0.0,0.00050141383,-0.0063566864,0.0063581467,0.0,0.0,0.0,inf,inf,inf,0,0,1,0
9756000,9670181,0,0,0.010841096,-0.21569261,0.42850146,0.0,0.0,0.0,-0.0024921838,-0.0005786717,-0.00050249696,0.0,0.0,0.0,inf,inf,inf,0,0,1,0
9828000,9744000,0,0,0.009137221,-0.2152877,0.42614627,0.0,0.0,0.0,-0.00074599683,-0.0009866804,0.001850307,0.0,0.0,0.0,inf,inf,inf,0,0,1,0
9900000,9814545,0,0,0.009385389,-0.2156311,0.42631269,0.0,0.0,0.0,-0.00095291156,-0.0006378889,0.0016858578,0.0,0.0,0.0,inf,inf,inf,0,0,1,0
9972000,9888000,0,0,0.009090688,-0.21961771,0.43034086,0.0,0.0,0.0,-0.0006563179,0.0033641756,-0.0023345053,0.0,0.0,0.0,inf,inf,inf,0,0,1,0
10044000,9958545,0,0,0.009048829,-0.21858871,0.43105677,0.0,0.0,0.0,-0.00061140396,0.0023832172,-0.003026247,0.0,0.0,0.0,inf,inf,inf,0,0,1,0
10116000,10032000,0,0,0.008744879,-0.21985887,0.42847654,0.0,0.0,0.0,-0.0002823975,0.0036669225,-0.00043967366,0.0,0.0,0.0,inf,inf,inf,0,0,1,0
10188000,10102545,0,0,0.009711669,-0.2145676,0.42842278,0.0,0.0,0.0,-0.00123112,-0.0016208887,-0.00038453937,0.0,0.0,0.0,inf,inf,inf,0,0,1,0
10260000,10176000,0,0,0.012234588,-0.21588172,0.4298599,0.0,0.0,0.0,-0.00370228,-0.00036771595,-0.0018534958,0.0,0.0,0.0,inf,inf,inf,0,0,1,0
10332000,10246909,0,0,0.00939418,-0.21636686,0.43067166,0.0,0.0,0.0,-0.000764098,0.000110417604,-0.0026707351,0.0,0.0,0.0,inf,inf,inf,0,0,1,0
10404000,10320000,0,0,0.010318276,-0.21240799,0.42573944,0.0,0.0,0.0,-0.0017079078,-0.0038348287,0.0022687614,0.0,0.0,0.0,inf,inf,inf,0,0,1,0
10476000,10390181,0,0,0.010326668,-0.21410966,0.42961594,0.0,0.0,0.0,-0.0016659638,-0.0021549761,-0.0016197562,0.0,0.0,0.0,inf,inf,inf,0,0,1,0
10548000,10464000,0,0,0.012401652,-0.21705043,0.42542174,0.0,0.0,0.0,-0.0037188865,0.0008073598,0.0025848746,0.0,0.0,0.0,inf,inf,inf,0,0,1,0
10620000,10535272,0,0,0.0090051135,-0.21594213,0.42879063,0.0,0.0,0.0,-0.00020424929,-0.0002977699,-0.00078478456,0.0,0.0,0.0,inf,inf,inf,0,0,1,0
10692000,10608000,0,0,0.0046344297,-0.2197254,0.43494776,0.0,0.0,0.0,0.004179458,0.0034965277,-0.0069366395,0.0,0.0,0.0,inf,inf,inf,0,0,1,0
10764000,10678909,0,0,0.009950218,-0.21425828,0.43062028,0.0,0.0,0.0,-0.0012757378,-0.001953125,-0.0025974512,0.0,0.0,0.0,inf,inf,inf,0,0,1,0
10836000,10752000,0,0,0.0069899526,-0.21459505,0.4348427,0.0,0.0,0.0,0.0016721967,-0.0015769005,-0.006799698,0.0,0.0,0.0,inf,inf,inf,0,0,1,0
10908000,10822181,0,0,0.008621249,-0.21579608,0.42798114,0.0,0.0,0.0,-8.164719e-05,-0.00034809113,7.83205e-05,0.0,0.0,0.0,inf,inf,inf,0,0,1,0
10980000,10896000,0,0,0.007932492,-0.21861628,0.43428868,0.0,0.0,0.0,0.0006186068,0.0025032759,-0.006213665,0.0,0.0,0.0,inf,inf,inf,0,0,1,0
11052000,10966909,0,0,0.008997373,-0.21531844,0.42897606,0.0,0.0,0.0,-0.00053402036,-0.000839442,-0.00092202425,0.0,0.0,0.0,inf,inf,inf,0,0,1,0
11116000,11036000,0,0,0.012414922,-0.21370581,0.4274548,0.0,0.0,0.0,-0.0039452584,-0.0024252832,0.00061261654,0.0,0.0,0.0,inf,inf,inf,0,0,1,0
11188000,11104400,0,0,0.009390572,-0.21755393,0.431394,0.0,0.0,0.0,-0.00079857,0.0013926625,-0.0033442378,0.0,0.0,0.0,inf,inf,inf,0,0,1,0
11260000,11176000,0,0,0.008793415,-0.21597102,0.42651737,0.0,0.0,0.0,-0.00018618349,-0.00017471611,0.0015399456,0.0,0.0,0.0,inf,inf,inf,0,0,1,0
11324000,11243111,0,0,0.008962825,-0.21750435,0.43060446,0.0,0.0,0.0,-0.00038000196,0.0013604611,-0.0025457144,0.0,0.0,0.0,inf,inf,inf,0,0,1,0
11396000,11314666,0,0,0.013102166,-0.21383682,0.42986053,0.0,0.0,0.0,-0.0045765564,-0.0022952706,-0.0017946959,0.0,0.0,0.0,inf,inf,inf,0,0,1,0
11468000,11386666,0,0,0.0096983705,-0.21631685,0.4295505,0.0,0.0,0.0,-0.001046354,0.00016993284,-0.0014946759,0.0,0.0,0.0,inf,inf,inf,0,0,1,0
11540000,11454000,0,0,0.0061205016,-0.21261182,0.43092668,0.0,0.0,0.0,0.0025714948,-0.003533274,-0.0028707385,0.0,0.0,0.0,inf,inf,inf,0,0,1,0
11612000,11525200,0,0,0.008999025,-0.21638052,0.42891294,0.0,0.0,0.0,-0.00037391298,0.00022648275,-0.00086021423,0.0,0.0,0.0,inf,inf,inf,0,0,1,0
11676000,11592000,0,0,0.014233502,-0.2174245,0.42657566,0.0,0.0,0.0,-0.0056032035,0.0012805313,0.0014820695,0.0,0.0,0.0,inf,inf,inf,0,0,1,0
11748000,11662545,0,0,0.007473845,-0.21521287,0.42940903,0.0,0.0,0.0,0.0013012029,-0.0009056777,-0.0013414025,0.0,0.0,0.0,inf,inf,inf,0,0,1,0
11820000,11736000,0,0,0.014352168,-0.2186129,0.42900628,0.0,0.0,0.0,-0.0056383265,0.0024780482,-0.0009456575,0.0,0.0,0.0,inf,inf,inf,0,0,1,0
11892000,11807636,0,0,0.009521894,-0.21451259,0.42944154,0.0,0.0,0.0,-0.0006914139,-0.0016132742,-0.0013787448,0.0,0.0,0.0,inf,inf,inf,0,0,1,0
11964000,11880000,0,0,0.007698201,-0.21115062,0.42961368,0.0,0.0,0.0,0.0011232118,-0.0049655885,-0.0015458465,0.0,0.0,0.0,inf,inf,inf,0,0,1,0
12036000,11950545,0,0,0.009994189,-0.2152944,0.4272869,0.0,0.0,0.0,-0.0012192382,-0.0007978827,0.0007940233,0.0,0.0,0.0,inf,inf,inf,0,0,1,0
12108000,12024000,0,0,0.0047616363,-0.20755473,0.4311612,0.0,0.0,0.0,0.004011944,-0.008514896,-0.0030688345,0.0,0.0,0.0,inf,inf,inf,0,0,1,0
12180000,12095272,0,0,0.008402842,-0.2155394,0.4285234,0.0,0.0,0.0,0.0002058046,-0.0005014241,-0.0004131496,0.0,0.0,0.0,inf,inf,inf,0,0,1,0
12252000,12168000,0,0,0.009083634,-0.21734974,0.42223367,0.0,0.0,0.0,-0.00046243332,0.0013369173,0.005890459,0.0,0.0,0.0,inf,inf,inf,0,0,1,0
12324000,12238545,0,0,0.010474645,-0.21794608,0.42930883,0.0,0.0,0.0,-0.0018028244,0.0019460171,-0.0011792779,0.0,0.0,0.0,inf,inf,inf,0,0,1,0
12396000,12312000,0,0,0.0037972124,-0.22030762,0.42872402,0.0,0.0,0.0,0.004945418,0.0043052733,-0.0005970895,0.0,0.0,0.0,inf,inf,inf,0,0,1,0
12468000,12382545,0,0,0.009739732,-0.21834199,0.42894208,0.0,0.0,0.0,-0.0011659991,0.002347961,-0.0008075237,0.0,0.0,0.0,inf,inf,inf,0,0,1,0
12540000,12456000,0,0,0.012176097,-0.21413982,0.42755336,0.0,0.0,0.0,-0.0035501728,-0.0018354505,0.00058954954,0.0,0.0,0.0,inf,inf,inf,0,0,1,0
12612000,12526909,0,0,0.010735055,-0.21555851,0.42782515,0.0,0.0,0.0,-0.0020354893,-0.00044950843,0.00029981136,0.0,0.0,0.0,inf,inf,inf,0,0,1,0
12684000,12600000,0,0,0.013932921,-0.21851276,0.4245472,0.0,0.0,0.0,-0.005154416,0.0025301725,0.0035890043,0.0,0.0,0.0,inf,inf,inf,0,0,1,0
12756000,12670909,0,0,0.0096336,-0.21626306,0.4287498,0.0,0.0,0.0,-0.00071508344,0.00030204654,-0.000605613,0.0,0.0,0.0,inf,inf,inf,0,0,1,0
12828000,12744000,0,0,0.012623851,-0.21337263,0.4262542,0.0,0.0,0.0,-0.0036668302,-0.0026019067,0.0018823445,0.0,0.0,0.0,inf,inf,inf,0,0,1,0
12900000,12814545,0,0,0.008602196,-0.216248,0.42769876,0.0,0.0,0.0,0.00044204108,0.0002875626,0.00044301152,0.0,0.0,0.0,inf,inf,inf,0,0,1,0
12972000,12888000,0,0,0.005921521,-0.21340752,0.42840385,0.0,0.0,0.0,0.0031087836,-0.0025295615,-0.00024995208,0.0,0.0,0.0,inf,inf,inf,0,0,1,0
13044000,12959272,0,0,0.008033385,-0.21460673,0.4305449,0.0,0.0,0.0,0.0008773757,-0.0013485253,-0.0023976862,0.0,0.0,0.0,inf,inf,inf,0,0,1,0
13116000,13032000,0,0,0.012069772,-0.22282352,0.42681795,0.0,0.0,0.0,-0.0031867502,0.006860003,0.0013257265,0.0,0.0,0.0,inf,inf,inf,0,0,1,0
13188000,13102909,0,0,0.010813228,-0.2156862,0.42698002,0.0,0.0,0.0,-0.001870445,-0.00028640032,0.0011578202,0.0,0.0,0.0,inf,inf,inf,0,0,1,0
13260000,13176000,0,0,0.011553577,-0.216384,0.4315438,0.0,0.0,0.0,-0.002569235,0.00044316053,-0.0033908784,0.0,0.0,0.0,inf,inf,inf,0,0,1,0
13332000,13247636,0,0,0.007920369,-0.21685681,0.4291888,0.0,0.0,0.0,0.0011011893,0.0009082407,-0.0010405183,0.0,0.0,0.0,inf,inf,inf,0,0,1,0
13404000,13320000,0,0,0.012132491,-0.21428782,0.43350455,0.0,0.0,0.0,-0.0031390218,-0.0016598552,-0.005355209,0.0,0.0,0.0,inf,inf,inf,0,0,1,0
13476000,13390909,0,0,0.010340861,-0.21758832,0.4320044,0.0,0.0,0.0,-0.0013060337,0.0017186254,-0.0038166642,0.0,0.0,0.0,inf,inf,inf,0,0,1,0
13548000,13464000,0,0,0.0035152293,-0.21214668,0.4317962,0.0,0.0,0.0,0.005559846,-0.0037432164,-0.0036194623,0.0,0.0,0.0,inf,inf,inf,0,0,1,0
13620000,13535636,0,0,0.009249264,-0.21722974,0.42972314,0.0,0.0,0.0,-0.0003205333,0.0013451725,-0.0015406609,0.0,0.0,0.0,inf,inf,inf,0,0,1,0
13692000,13608000,0,0,0.0047227303,-0.21355309,0.43050015,0.0,0.0,0.0,0.0041934913,-0.0023088902,-0.0023059845,0.0,0.0,0.0,inf,inf,inf,0,0,1,0
13764000,13680000,0,0,0.008842681,-0.21724176,0.4293694,0.0,0.0,0.0,-2.6416034e-05,0.0014183521,-0.0011537075,0.0,0.0,0.0,inf,inf,inf,0,0,1,0
13836000,13752000,0,0,0.013136447,-0.20814629,0.43353578,0.0,0.0,0.0,-0.004358762,-0.0076774806,-0.005319506,0.0,0.0,0.0,inf,inf,inf,0,0,1,0
13908000,13824000,0,0,0.009417397,-0.21607675,0.428676,0.0,0.0,0.0,-0.0005257474,0.0002245903,-0.00047639012,0.0,0.0,0.0,inf,inf,inf,0,0,1,0
13980000,13896000,0,0,0.016069463,-0.21492957,0.43688118,0.0,0.0,0.0,-0.00715976,-0.00091792643,-0.008679569,0.0,0.0,0.0,inf,inf,inf,0,0,1,0
14052000,13968000,0,0,0.010773467,-0.21756414,0.42852026,0.0,0.0,0.0,-0.0016905088,0.0017175972,-0.00032183528,0.0,0.0,0.0,inf,inf,inf,0,0,1,0
14124000,14040000,0,0,0.0133069735,-0.2134177,0.435527,0.0,0.0,0.0,-0.0042223167,-0.0024035126,-0.0073158145,0.0,0.0,0.0,inf,inf,inf,0,0,1,0
14196000,14111636,0,0,0.010215095,-0.2156249,0.4300829,0.0,0.0,0.0,-0.0010584882,-0.0002039969,-0.0018770993,0.0,0.0,0.0,inf,inf,inf,0,0,1,0
14268000,14184000,0,0,0.01622871,-0.21813937,0.4256124,0.0,0.0,0.0,-0.0070778094,0.0022440106,0.0025599897,0.0,0.0,0.0,inf,inf,inf,0,0,1,0
14340000,14255636,0,0,0.00932343,-0.21472228,0.4270371,0.0,0.0,0.0,7.855706e-06,-0.0011637211,0.0011361539,0.0,0.0,0.0,inf,inf,inf,0,0,1,0
14412000,14328000,0,0,0.0074708005,-0.21415,0.4226811,0.0,0.0,0.0,0.0018160725,-0.0017426759,0.005489707,0.0,0.0,0.0,inf,inf,inf,0,0,1,0
14484000,14399272,0,0,0.009851848,-0.21635497,0.43044508,0.0,0.0,0.0,-0.0006219717,0.00047814846,-0.002265036,0.0,0.0,0.0,inf,inf,inf,0,0,1,0
14556000,14472000,0,0,0.008326911,-0.20816076,0.42964646,0.0,0.0,0.0,0.00092313346,-0.0077118278,-0.0014647543,0.0,0.0,0.0,inf,inf,inf,0,0,1,0
14628000,14543272,0,0,0.00956249,-0.21513498,0.42960304,0.0,0.0,0.0,-0.00042498577,-0.00078722835,-0.0014439225,0.0,0.0,0.0,inf,inf,inf,0,0,1,0
14700000,14616000,0,0,0.008210754,-0.21375525,0.42775387,0.0,0.0,0.0,0.0009032879,-0.002159655,0.0004094541,0.0,0.0,0.0,inf,inf,inf,0,0,1,0
14772000,14688000,0,0,0.009370925,-0.21719682,0.4293699,0.0,0.0,0.0,-0.00027650036,0.0012907684,-0.0012016892,0.0,0.0,0.0,inf,inf,inf,0,0,1,0
14844000,14760000,0,0,0.017240765,-0.21306477,0.4214883,0.0,0.0,0.0,-0.008174071,-0.0028265715,0.0066878498,0.0,0.0,0.0,inf,inf,inf,0,0,1,0
14916000,14832000,0,0,0.011183634,-0.21533813,0.4310719,0.0,0.0,0.0,-0.001923196,-0.0005695969,-0.0029081404,0.0,0.0,0.0,inf,inf,inf,0,0,1,0
14988000,14904000,0,0,0.008351532,-0.2102828,0.43180278,0.0,0.0,0.0,0.0010016365,-0.0056134462,-0.0036351979,0.0,0.0,0.0,inf,inf,inf,0,0,1,0
15060000,14974909,0,0,0.008004162,-0.21557029,0.43059596,0.0,0.0,0.0,0.0012929849,-0.0003912598,-0.0024600923,0.0,0.0,0.0,inf,inf,inf,0,0,1,0
15132000,15048000,0,0,0.01192475,-0.21058136,0.43159267,0.0,0.0,0.0,-0.0026596924,-0.0053844303,-0.0034582913,0.0,0.0,0.0,inf,inf,inf,0,0,1,0
15204000,15118909,0,0,0.009907832,-0.21565747,0.43002766,0.0,0.0,0.0,-0.0006183442,-0.00029444695,-0.0018868148,0.0,0.0,0.0,inf,inf,inf,0,0,1,0
15276000,15192000,0,0,0.0071652117,-0.22200783,0.43025264,0.0,0.0,0.0,0.0021039885,0.0061066,-0.0020857751,0.0,0.0,0.0,inf,inf,inf,0,0,1,0
15348000,15262181,0,0,0.01106223,-0.21407533,0.43077388,0.0,0.0,0.0,-0.0018356917,-0.0018117875,-0.0025989711,0.0,0.0,0.0,inf,inf,inf,0,0,1,0
15420000,15336000,0,0,0.008473936,-0.21500127,0.42907116,0.0,0.0,0.0,0.00072604883,-0.0008355826,-0.0008703172,0.0,0.0,0.0,inf,inf,inf,0,0,1,0
15492000,15406181,0,0,0.011883266,-0.21545231,0.43068463,0.0,0.0,0.0,-0.002731599,-0.00036486983,-0.0024728775,0.0,0.0,0.0,inf,inf,inf,0,0,1,0
15564000,15480000,0,0,0.006318669,-0.2150651,0.42956024,0.0,0.0,0.0,0.002837737,-0.0007413775,-0.0013432205,0.0,0.0,0.0,inf,inf,inf,0,0,1,0
15636000,15551272,0,0,0.0111682685,-0.21537784,0.43002966,0.0,0.0,0.0,-0.0021129744,-0.0004120469,-0.0018020868,0.0,0.0,0.0,inf,inf,inf,0,0,1,0
15708000,15624000,0,0,0.0123875905,-0.21692568,0.42989528,0.0,0.0,0.0,-0.003292041,0.0011298358,-0.0016715825,0.0,0.0,0.0,inf,inf,inf,0,0,1,0
15780000,15695636,0,0,0.01013703,-0.21613815,0.4296369,0.0,0.0,0.0,-0.0010187486,0.00034111738,-0.0014142692,0.0,0.0,0.0,inf,inf,inf,0,0,1,0
15852000,15768000,0,0,0.004807344,-0.22039637,0.43075007,0.0,0.0,0.0,0.004294732,0.0046177506,-0.0025177896,0.0,0.0,0.0,inf,inf,inf,0,0,1,0
15924000,15839636,0,0,0.009728334,-0.21634163,0.43030277,0.0,0.0,0.0,-0.0007297611,0.0005734414,-0.0020630658,0.0,0.0,0.0,inf,inf,inf,0,0,1,0
15996000,15912000,0,0,0.01590277,-0.21358818,0.4247178,0.0,0.0,0.0,-0.006923748,-0.002207622,0.0035082996,0.0,0.0,0.0,inf,inf,inf,0,0,1,0
16068000,15982545,0,0,0.010609915,-0.21632223,0.4294339,0.0,0.0,0.0,-0.0015060725,0.00052532554,-0.001210928,0.0,0.0,0.0,inf,inf,inf,0,0,1,0
16140000,16056000,0,0,0.015953347,-0.2184671,0.43566838,0.0,0.0,0.0,-0.0068700463,0.0026726574,-0.0074436665,0.0,0.0,0.0,inf,inf,inf,0,0,1,0
16212000,16126181,0,0,0.01056647,-0.21536082,0.4303658,0.0,0.0,0.0,-0.0013166266,-0.0004505813,-0.0021532774,0.0,0.0,0.0,inf,inf,inf,0,0,1,0
16284000,16200000,0,0,0.015912347,-0.21495536,0.43684384,0.0,0.0,0.0,-0.0066236258,-0.0008727312,-0.008640498,0.0,0.0,0.0,inf,inf,inf,0,0,1,0
16356000,16271636,0,0,0.010155191,-0.21508059,0.4303497,0.0,0.0,0.0,-0.0007150518,-0.00076949596,-0.0021608174,0.0,0.0,0.0,inf,inf,inf,0,0,1,0
16428000,16344000,0,0,0.011514748,-0.21260999,0.4298835,0.0,0.0,0.0,-0.0020994274,-0.0032231659,-0.00168553,0.0,0.0,0.0,inf,inf,inf,0,0,1,0
16500000,16414909,0,0,0.009273772,-0.21887554,0.4283999,0.0,0.0,0.0,0.00018269848,0.0030538738,-0.00019702315,0.0,0.0,0.0,inf,inf,inf,0,0,1,0
16572000,16488000,0,0,0.008715948,-0.21538922,0.4281977,0.0,0.0,0.0,0.00070283003,-0.00044971704,-2.7120113e-06,0.0,0.0,0.0,inf,inf,inf,0,0,1,0
16644000,16558181,0,0,0.008886689,-0.21769428,0.42773408,0.0,0.0,0.0,0.00052636676,0.0018889308,0.00047796965,0.0,0.0,0.0,inf,inf,inf,0,0,1,0
16716000,16632000,0,0,0.0068656574,-0.21382633,0.42903262,0.0,0.0,0.0,0.0025461023,-0.0019794405,-0.00082069635,0.0,0.0,0.0,inf,inf,inf,0,0,1,0
16788000,16702181,0,0,0.010212304,-0.21660998,0.43009967,0.0,0.0,0.0,-0.0008353088,0.00077684224,-0.0019007921,0.0,0.0,0.0,inf,inf,inf,0,0,1,0
16860000,16776000,0,0,0.0062095798,-0.21081576,0.4329063,0.0,0.0,0.0,0.0031769448,-0.0050366223,-0.00471732,0.0,0.0,0.0,inf,inf,inf,0,0,1,0
16932000,16846181,0,0,0.0107861785,-0.21537331,0.42933196,0.0,0.0,0.0,-0.0014557792,-0.0005078912,-0.0011563301,0.0,0.0,0.0,inf,inf,inf,0,0,1,0
17004000,16920000,0,0,0.0067601013,-0.21407738,0.431637,0.0,0.0,0.0,0.0025725854,-0.0018105209,-0.0034647882,0.0,0.0,0.0,inf,inf,inf,0,0,1,0
17076000,16990181,0,0,0.008984855,-0.21391492,0.42847323,0.0,0.0,0.0,0.00027313922,-0.001967743,-0.00029677153,0.0,0.0,0.0,inf,inf,inf,0,0,1,0
17148000,17064000,0,0,0.012721281,-0.21950454,0.42850155,0.0,0.0,0.0,-0.0034715114,0.0036241412,-0.00032377243,0.0,0.0,0.0,inf,inf,inf,0,0,1,0
17220000,17134909,0,0,0.009722846,-0.2148641,0.43069664,0.0,0.0,0.0,-0.00042105652,-0.0010081828,-0.0025158823,0.0,0.0,0.0,inf,inf,inf,0,0,1,0
17292000,17208000,0,0,0.013424717,-0.20936175,0.4267804,0.0,0.0,0.0,-0.004098065,-0.0064959675,0.0014071465,0.0,0.0,0.0,inf,inf,inf,0,0,1,0
17364000,17278545,0,0,0.00835717,-0.2169919,0.43043923,0.0,0.0,0.0,0.0010441812,0.0011169463,-0.0022619963,0.0,0.0,0.0,inf,inf,inf,0,0,1,0
17436000,17352000,0,0,0.010939969,-0.21191885,0.4314718,0.0,0.0,0.0,-0.0015683156,-0.003968671,-0.0033002496,0.0,0.0,0.0,inf,inf,inf,0,0,1,0
17508000,17423272,0,0,0.009603632,-0.21599714,0.4294198,0.0,0.0,0.0,-0.00019609649,0.00013269484,-0.0012373626,0.0,0.0,0.0,inf,inf,inf,0,0,1,0
17580000,17496000,0,0,0.011166375,-0.2151119,0.43126166,0.0,0.0,0.0,-0.0017434917,-0.00070236623,-0.0030543208,0.0,0.0,0.0,inf,inf,inf,0,0,1,0
17652000,17566909,0,0,0.009389915,-0.21657869,0.43026656,0.0,0.0,0.0,0.000110819936,0.00079390407,-0.0020460784,0.0,0.0,0.0,inf,inf,inf,0,0,1,0
17724000,17640000,0,0,0.009874548,-0.2212869,0.43400985,0.0,0.0,0.0,-0.0004062904,0.005519241,-0.0057799816,0.0,0.0,0.0,inf,inf,inf,0,0,1,0
17796000,17710909,0,0,0.008882719,-0.21563765,0.42848152,0.0,0.0,0.0,0.000597951,-0.00011585653,-0.00024479628,0.0,0.0,0.0,inf,inf,inf,0,0,1,0
17868000,17784000,0,0,0.014839417,-0.21767879,0.42950404,0.0,0.0,0.0,-0.0054447195,0.0019693673,-0.0012432337,0.0,0.0,0.0,inf,inf,inf,0,0,1,0
17940000,17854545,0,0,0.008683664,-0.21836598,0.42897162,0.0,0.0,0.0,0.00078133773,0.0026874691,-0.0006967783,0.0,0.0,0.0,inf,inf,inf,0,0,1,0
18012000,17928000,0,0,0.012436471,-0.20942244,0.43115816,0.0,0.0,0.0,-0.0030295243,-0.006256968,-0.0028824806,0.0,0.0,0.0,inf,inf,inf,0,0,1,0
18084000,17998909,0,0,0.008614557,-0.21459603,0.43146768,0.0,0.0,0.0,0.00088619255,-0.00059843063,-0.0029502213,0.0,0.0,0.0,inf,inf,inf,0,0,1,0
18156000,18072000,0,0,0.010679984,-0.21168786,0.43367735,0.0,0.0,0.0,-0.0012506712,-0.00071901083,-0.0037697256,0.0,0.0,0.0,inf,inf,inf,0,0,1,0
18228000,18142545,0,0,0.0070608044,-0.20628574,0.43381286,0.0,0.0,0.0,0.000578179,-0.0014178753,-0.0015779734,0.0,0.0,0.0,inf,inf,inf,0,0,1,0
18300000,18216000,0,0,0.004256128,-0.1969462,0.43424806,0.0,0.0,0.0,-0.0019088448,-0.0048543215,0.00083491206,0.0,0.0,0.0,inf,inf,inf,0,0,1,0
18372000,18287636,0,0,-0.006440809,-0.19425397,0.4421484,0.0,0.0,0.0,0.00011266582,-0.0006291121,-0.0039627254,0.0,0.0,0.0,inf,inf,inf,0,0,1,0
18444000,18360000,0,0,-0.011589532,-0.19040753,0.43656284,0.0,0.0,0.0,-0.0029976396,0.00062173605,0.0036583543,0.0,0.0,0.0,inf,inf,inf,0,0,1,0
18516000,18430909,0,0,-0.017294858,-0.19160633,0.44069967,0.0,0.0,0.0,0.00031726435,0.0010918081,-0.0008791387,0.0,0.0,0.0,inf,inf,inf,0,0,1,0
18588000,18504000,0,0,-0.005924063,-0.19574748,0.4350102,0.0,0.0,0.0,-0.0076345634,0.0002644956,0.0027439594,0.0,0.0,0.0,inf,inf,inf,0,0,1,0
18660000,18574545,0,0,-0.006678855,-0.20238797,0.43583912,0.0,0.0,0.0,-0.00011688657,0.00045998394,-0.000862062,0.0,0.0,0.0,inf,inf,inf,0,0,1,0
18732000,18648000,0,0,0.0024277861,-0.20322946,0.43546647,0.0,0.0,0.0,-0.0025177668,-0.0044504255,-0.003152728,0.0,0.0,0.0,inf,inf,inf,0,0,1,0
18804000,18718545,0,0,0.004310706,-0.21055846,0.43071842,0.0,0.0,0.0,0.0005430565,-0.0013268441,-0.00047761202,0.0,0.0,0.0,inf,inf,inf,0,0,1,0
18876000,18792000,0,0,0.0051147104,-0.21911827,0.43254277,0.0,0.0,0.0,0.0026041954,0.004372284,-0.0037645996,0.0,0.0,0.0,inf,inf,inf,0,0,1,0
18948000,18864000,0,0,0.00883969,-0.21602897,0.42843184,0.0,0.0,0.0,0.00015187915,-0.0006823689,-0.0006684959,0.0,0.0,0.0,inf,inf,inf,0,0,1,0
19020000,18936000,0,0,0.011301998,-0.21743514,0.43163455,0.0,0.0,0.0,-0.0016823001,-0.00053185225,-0.004523337,0.0,0.0,0.0,inf,inf,inf,0,0,1,0
19092000,19007636,0,0,0.010622178,-0.22013552,0.42795563,0.0,0.0,0.0,-0.00025806297,0.0009519607,-0.0014848709,0.0,0.0,0.0,inf,inf,inf,0,0,1,0
19164000,19080000,0,0,0.012490957,-0.22541745,0.42472243,0.0,0.0,0.0,-0.0011948636,0.0049963444,0.0010862947,0.0,0.0,0.0,inf,inf,inf,0,0,1,0
19236000,19151636,0,0,0.013025044,-0.22307295,0.42551294,0.0,0.0,0.0,-0.00061163213,0.0011692941,-0.00050607324,0.0,0.0,0.0,inf,inf,inf,0,0,1,0
19308000,19224000,0,0,0.015327539,-0.22404961,0.42241183,0.0,0.0,0.0,-0.0017627217,0.00076696277,0.0018369257,0.0,0.0,0.0,inf,inf,inf,0,0,1,0
19380000,19295636,0,0,0.0143308,-0.2236714,0.42381293,0.0,0.0,0.0,0.0002212124,-0.0007340759,-0.00018978119,0.0,0.0,0.0,inf,inf,inf,0,0,1,0
19452000,19368000,0,0,0.016792793,-0.22367446,0.4216735,0.0,0.0,0.0,-0.0017235316,-0.0013880581,0.0015828311,0.0,0.0,0.0,inf,inf,inf,0,0,1,0
19524000,19438181,0,0,0.013785937,-0.22471957,0.42416102,0.0,0.0,0.0,0.0014856821,-0.00060628355,-0.0010520816,0.0,0.0,0.0,inf,inf,inf,0,0,1,0
19596000,19512000,0,0,0.014318705,-0.21909335,0.42894298,0.0,0.0,0.0,0.0009827912,-0.006223142,-0.0058301687,0.0,0.0,0.0,inf,inf,inf,0,0,1,0
19668000,19582909,0,0,0.01586607,-0.22612679,0.4237182,0.0,0.0,0.0,-0.0004780423,0.0008930266,-0.0005644858,0.0,0.0,0.0,inf,inf,inf,0,0,1,0
19740000,19656000,0,0,0.018332718,-0.2225563,0.4311449,0.0,0.0,0.0,-0.002817696,-0.0024926811,-0.007897496,0.0,0.0,0.0,inf,inf,inf,0,0,1,0
19812000,19726181,0,0,0.014726897,-0.2247671,0.42481917,0.0,0.0,0.0,0.00092838984,-2.2903085e-05,-0.001439333,0.0,0.0,0.0,inf,inf,inf,0,0,1,0
19884000,19800000,0,0,0.018761234,-0.22371975,0.41755804,0.0,0.0,0.0,-0.0032193232,-0.0006840527,0.0060308278,0.0,0.0,0.0,inf,inf,inf,0,0,1,0
19956000,19870909,0,0,0.013707246,-0.22387645,0.42469496,0.0,0.0,0.0,0.0017363252,-7.033348e-05,-0.0008607209,0.0,0.0,0.0,inf,inf,inf,0,0,1,0
20028000,19944000,0,0,0.01391121,-0.22098297,0.43014258,0.0,0.0,0.0,0.0013063625,-0.0025229156,-0.0060675144,0.0,0.0,0.0,inf,inf,inf,0,0,1,0
20100000,20014181,0,0,0.013570889,-0.2233035,0.42552394,0.0,0.0,0.0,0.0015069777,0.00027155876,-0.0011944175,0.0,0.0,0.0,inf,inf,inf,0,0,1,0
20172000,20088000,0,0,0.018813161,-0.22415735,0.4260847,0.0,0.0,0.0,-0.0039230045,0.0017108768,-0.0014413595,0.0,0.0,0.0,inf,inf,inf,0,0,1,0
20244000,20158909,0,0,0.015034428,-0.22218847,0.4274474,0.0,0.0,0.0,-0.0003383886,0.0004478395,-0.0024282634,0.0,0.0,0.0,inf,inf,inf,0,0,1,0
20316000,20232000,0,0,0.014508386,-0.22124524,0.4329277,0.0,0.0,0.0,-9.408314e-05,3.041327e-05,-0.0076250434,0.0,0.0,0.0,inf,inf,inf,0,0,1,0
20388000,20303272,0,0,0.014807309,-0.22067131,0.42537913,0.0,0.0,0.0,-0.0007401882,-0.00016127527,0.00013372302,0.0,0.0,0.0,inf,inf,inf,0,0,1,0
20460000,20376000,0,0,0.012375168,-0.22037403,0.42504454,0.0,0.0,0.0,0.001503692,-0.00017593801,0.0006210208,0.0,0.0,0.0,inf,inf,inf,0,0,1,0
20532000,20447636,0,0,0.011551286,-0.21869454,0.42739683,0.0,0.0,0.0,0.002171223,-0.0018424243,-0.001719445,0.0,0.0,0.0,inf,inf,inf,0,0,1,0
20604000,20520000,0,0,0.013715318,-0.22398862,0.4270675,0.0,0.0,0.0,-0.00024788734,0.0035231858,-0.0013449192,0.0,0.0,0.0,inf,inf,inf,0,0,1,0
20676000,20591272,0,0,0.011546192,-0.22087291,0.4269301,0.0,0.0,0.0,0.0015757335,0.0006079674,-0.001092881,0.0,0.0,0.0,inf,inf,inf,0,0,1,0
20748000,20664000,0,0,0.010999633,-0.22317559,0.43214092,0.0,0.0,0.0,0.0017764065,0.0033706278,-0.0060556233,0.0,0.0,0.0,inf,inf,inf,0,0,1,0
20820000,20736000,0,0,0.012856548,-0.21836813,0.42621374,0.0,0.0,0.0,-0.0003674375,-0.00094370544,0.00013414025,0.0,0.0,0.0,inf,inf,inf,0,0,1,0
20892000,20808000,0,0,0.013076989,-0.22057444,0.42264563,0.0,0.0,0.0,-0.00072052144,0.0017225742,0.003942311,0.0,0.0,0.0,inf,inf,inf,0,0,1,0
20964000,20880000,0,0,0.013349204,-0.2162877,0.427879,0.0,0.0,0.0,-0.0010592854,-0.002254665,-0.0011304319,0.0,0.0,0.0,inf,inf,inf,0,0,1,0
21036000,20952000,0,0,0.010195851,-0.21231759,0.42875051,0.0,0.0,0.0,0.0026988164,-0.0077305734,-0.001534462,0.0,0.0,0.0,inf,inf,inf,0,0,1,0
21108000,21024000,0,0,0.011988752,-0.21597052,0.42853007,0.0,0.0,0.0,0.00041065365,-0.003674537,-0.0010919869,0.0,0.0,0.0,inf,inf,inf,0,0,1,0
21180000,21096000,0,0,0.016481457,-0.21732812,0.42662498,0.0,0.0,0.0,-0.0043663513,-0.0019128472,0.0010286868,0.0,0.0,0.0,inf,inf,inf,0,0,1,0
21252000,21166909,0,0,0.010419381,-0.21574585,0.42939144,0.0,0.0,0.0,0.0017848043,-0.0031693429,-0.001573503,0.0,0.0,0.0,inf,inf,inf,0,0,1,0
21324000,21240000,0,0,0.013181855,-0.21808757,0.42872995,0.0,0.0,0.0,-0.0015039565,-0.0005835891,-0.0007724762,0.0,0.0,0.0,inf,inf,inf,0,0,1,0
21396000,21309818,0,0,0.010334206,-0.21717419,0.4270031,0.0,0.0,0.0,0.0012400551,-0.0013632774,0.0010254383,0.0,0.0,0.0,inf,inf,inf,0,0,1,0
21468000,21384000,0,0,0.011988571,-0.21237254,0.4309543,0.0,0.0,0.0,-0.00076559745,-0.005732864,-0.0026961267,0.0,0.0,0.0,inf,inf,inf,0,0,1,0
21540000,21454545,0,0,0.009334848,-0.21662281,0.42945564,0.0,0.0,0.0,0.0016879728,-0.001248613,-0.0010730922,0.0,0.0,0.0,inf,inf,inf,0,0,1,0
21612000,21528000,0,0,0.0048677535,-0.21900743,0.42781436,0.0,0.0,0.0,0.0057691424,0.0012589693,0.0006404221,0.0,0.0,0.0,inf,inf,inf,0,0,1,0
21684000,21598909,0,0,0.00845847,-0.21561606,0.42985138,0.0,0.0,0.0,0.0016204221,-0.0021917373,-0.0014133155,0.0,0.0,0.0,inf,inf,inf,0,0,1,0
21756000,21672000,0,0,0.011670908,-0.21756619,0.4297512,0.0,0.0,0.0,-0.0018195566,-0.00040513277,-0.0013910234,0.0,0.0,0.0,inf,inf,inf,0,0,1,0
21828000,21743636,0,0,0.008024739,-0.21451296,0.42832676,0.0,0.0,0.0,0.0018250328,-0.0035589933,-1.7672777e-05,0.0,0.0,0.0,inf,inf,inf,0,0,1,0
21900000,21816000,0,0,0.013709947,-0.21741483,0.42769778,0.0,0.0,0.0,-0.0040090745,-0.00078722835,0.00054842234,0.0,0.0,0.0,inf,inf,inf,0,0,1,0
21972000,21888000,0,0,0.007051695,-0.21517208,0.4296741,0.0,0.0,0.0,0.0027685426,-0.0030030757,-0.001417011,0.0,0.0,0.0,inf,inf,inf,0,0,1,0
22044000,21960000,0,0,0.013750832,-0.21353032,0.42130595,0.0,0.0,0.0,-0.004111628,-0.0046191216,0.006968409,0.0,0.0,0.0,inf,inf,inf,0,0,1,0
22116000,22030909,0,0,0.009094881,-0.21634807,0.42854774,0.0,0.0,0.0,0.0006060954,-0.0016786903,-0.00021225214,0.0,0.0,0.0,inf,inf,inf,0,0,1,0
22188000,22104000,0,0,0.0030146078,-0.21489397,0.42784485,0.0,0.0,0.0,0.0065249964,-0.0029705614,0.00057676435,0.0,0.0,0.0,inf,inf,inf,0,0,1,0
22260000,22174545,0,0,0.0076810657,-0.21351603,0.43088546,0.0,0.0,0.0,0.0015018047,-0.0040712655,-0.0023152232,0.0,0.0,0.0,inf,inf,inf,0,0,1,0
22332000,22248000,0,0,0.019268442,-0.21858546,0.43197155,0.0,0.0,0.0,-0.010326926,0.0011912882,-0.003298223,0.0,0.0,0.0,inf,inf,inf,0,0,1,0
22404000,22318909,0,0,0.00747392,-0.21579719,0.4295716,0.0,0.0,0.0,0.001689251,-0.001496613,-0.0008520782,0.0,0.0,0.0,inf,inf,inf,0,0,1,0
22476000,22392000,0,0,0.0060294294,-0.21228561,0.43425202,0.0,0.0,0.0,0.0029615886,-0.005003184,-0.0055263042,0.0,0.0,0.0,inf,inf,inf,0,0,1,0
22548000,22463272,0,0,0.00863195,-0.21537612,0.4283609,0.0,0.0,0.0,0.00014448352,-0.0019565374,0.00034707785,0.0,0.0,0.0,inf,inf,inf,0,0,1,0
22620000,22536000,0,0,-0.000388747,-0.21431707,0.4328677,0.0,0.0,0.0,0.009174479,-0.0029212832,-0.0041121244,0.0,0.0,0.0,inf,inf,inf,0,0,1,0
22692000,22606181,0,0,0.0077283573,-0.21546257,0.42877975,0.0,0.0,0.0,0.0006589326,-0.0017379224,2.95043e-06,0.0,0.0,0.0,inf,inf,inf,0,0,1,0
22764000,22680000,0,0,0.009586679,-0.21481477,0.435225,0.0,0.0,0.0,-0.0013345648,-0.0022756308,-0.006383896,0.0,0.0,0.0,inf,inf,inf,0,0,1,0
22836000,22750909,0,0,0.0060894727,-0.21471772,0.42879072,0.0,0.0,0.0,0.0019264207,-0.002349943,6.636977e-05,0.0,0.0,0.0,inf,inf,inf,0,0,1,0
22908000,22824000,0,0,0.00032365156,-0.22127843,0.43516165,0.0,0.0,0.0,0.0072131474,0.004145205,-0.0063290596,0.0,0.0,0.0,inf,inf,inf,0,0,1,0
22980000,22894909,0,0,0.005790235,-0.21469386,0.42961216,0.0,0.0,0.0,0.0011243881,-0.002513364,-0.00080657005,0.0,0.0,0.0,inf,inf,inf,0,0,1,0
23052000,22968000,0,0,0.008113115,-0.22071196,0.430521,0.0,0.0,0.0,-0.001456215,0.0033535212,-0.0017879605,0.0,0.0,0.0,inf,inf,inf,0,0,1,0
23124000,23038545,0,0,0.0035389839,-0.21527931,0.42802787,0.0,0.0,0.0,0.003071946,-0.0020673424,0.00071182847,0.0,0.0,0.0,inf,inf,inf,0,0,1,0
23196000,23112000,0,0,0.0044131884,-0.21662436,0.42750934,0.0,0.0,0.0,0.0021410277,-0.0006707758,0.0012573302,0.0,0.0,0.0,inf,inf,inf,0,0,1,0
23268000,23183272,0,0,0.0058852634,-0.21543907,0.42975384,0.0,0.0,0.0,0.0007668608,-0.0015187413,-0.00081783533,0.0,0.0,0.0,inf,inf,inf,0,0,1,0
23340000,23256000,0,0,0.0029743882,-0.21274655,0.43045333,0.0,0.0,0.0,0.003805953,-0.0037898868,-0.0013064444,0.0,0.0,0.0,inf,inf,inf,0,0,1,0
23412000,23327636,0,0,0.0052668853,-0.21178545,0.43099436,0.0,0.0,0.0,0.0015705945,-0.004462436,-0.0017029345,0.0,0.0,0.0,inf,inf,inf,0,0,1,0
23484000,23400000,0,0,0.0035878532,-0.21381955,0.43229654,0.0,0.0,0.0,0.0033674128,-0.0022288412,-0.0029065907,0.0,0.0,0.0,inf,inf,inf,0,0,1,0
23556000,23470545,0,0,0.003414957,-0.21467704,0.43119544,0.0,0.0,0.0,0.0035931484,-0.001310572,-0.0017757416,0.0,0.0,0.0,inf,inf,inf,0,0,1,0
23628000,23544000,0,0,0.008239282,-0.21150209,0.4387343,0.0,0.0,0.0,-0.0011262577,-0.0044908673,-0.009319067,0.0,0.0,0.0,inf,inf,inf,0,0,1,0
23700000,23615272,0,0,0.0060254885,-0.2148578,0.4316326,0.0,0.0,0.0,0.0013697939,-0.0012615472,-0.002285689,0.0,0.0,0.0,inf,inf,inf,0,0,1,0
23772000,23688000,0,0,0.0076795756,-0.2169724,0.42849836,0.0,0.0,0.0,-0.00010116538,0.00072452426,0.00078061223,0.0,0.0,0.0,inf,inf,inf,0,0,1,0
23844000,23758909,0,0,0.0071617896,-0.21557924,0.42836237,0.0,0.0,0.0,0.00064333435,-0.00091934204,0.00078615546,0.0,0.0,0.0,inf,inf,inf,0,0,1,0
23916000,23832000,0,0,0.009921168,-0.21161923,0.42850843,0.0,0.0,0.0,-0.0020004706,-0.0049759746,0.0005892813,0.0,0.0,0.0,inf,inf,inf,0,0,1,0
23988000,23902909,0,0,0.0074181035,-0.21419929,0.43025765,0.0,0.0,0.0,0.0006626919,-0.0024241358,-0.0011771917,0.0,0.0,0.0,inf,inf,inf,0,0,1,0
24060000,23976000,0,0,0.00419046,-0.21712863,0.42737624,0.0,0.0,0.0,0.004012868,0.00049456954,0.0016964972,0.0,0.0,0.0,inf,inf,inf,0,0,1,0
24132000,24048000,0,0,0.0069985953,-0.21479575,0.42770764,0.0,0.0,0.0,0.0013510245,-0.0017846078,0.0013894141,0.0,0.0,0.0,inf,inf,inf,0,0,1,0
24204000,24120000,0,0,0.011397631,-0.21325459,0.42793807,0.0,0.0,0.0,-0.0028886208,-0.0032725185,0.0011827052,0.0,0.0,0.0,inf,inf,inf,0,0,1,0
24276000,24190545,0,0,0.008349312,-0.21452187,0.42877805,0.0,0.0,0.0,0.00026867073,-0.0019333959,0.00037682056,0.0,0.0,0.0,inf,inf,inf,0,0,1,0
24348000,24264000,0,0,0.014345083,-0.21569383,0.4251115,0.0,0.0,0.0,-0.0055983327,-0.0007633865,0.0040397346,0.0,0.0,0.0,inf,inf,inf,0,0,1,0
24420000,24334181,0,0,0.01041752,-0.2137439,0.4300662,0.0,0.0,0.0,-0.0012620827,-0.002871275,-0.001003176,0.0,0.0,0.0,inf,inf,inf,0,0,1,0
24492000,24408000,0,0,0.00426263,-0.21105863,0.42456856,0.0,0.0,0.0,0.005349476,-0.0059461743,0.004287541,0.0,0.0,0.0,inf,inf,inf,0,0,1,0
24564000,24479636,0,0,0.010403695,-0.21620864,0.4306299,0.0,0.0,0.0,-0.00038408674,-0.0012041032,-0.0019898415,0.0,0.0,0.0,inf,inf,inf,0,0,1,0
24636000,24552000,0,0,0.013007313,-0.22062132,0.41879463,0.0,0.0,0.0,-0.0026629493,0.0029291809,0.009695888,0.0,0.0,0.0,inf,inf,inf,0,0,1,0
24708000,24623272,0,0,0.010331158,-0.2154157,0.42933214,0.0,0.0,0.0,0.00029313192,-0.002415374,-0.0009190738,0.0,0.0,0.0,inf,inf,inf,0,0,1,0
24780000,24696000,0,0,0.008848279,-0.21166904,0.4260011,0.0,0.0,0.0,0.0018965239,-0.0062832832,0.0023473203,0.0,0.0,0.0,inf,inf,inf,0,0,1,0
24852000,24766909,0,0,0.01161985,-0.21564311,0.43015862,0.0,0.0,0.0,-0.0007560393,-0.0024623275,-0.001891166,0.0,0.0,0.0,inf,inf,inf,0,0,1,0
24924000,24840000,0,0,0.009489476,-0.22365363,0.43382382,0.0,0.0,0.0,0.0015609944,0.005407393,-0.0056328177,0.0,0.0,0.0,inf,inf,inf,0,0,1,0
24996000,24911636,0,0,0.0108584985,-0.21611087,0.42873725,0.0,0.0,0.0,0.00031735748,-0.0021756291,-0.0005700886,0.0,0.0,0.0,inf,inf,inf,0,0,1,0
25068000,24984000,0,0,0.011811992,-0.21362965,0.42847693,0.0,0.0,0.0,-0.0005215313,-0.004671186,-0.00032007694,0.0,0.0,0.0,inf,inf,inf,0,0,1,0
25140000,25054909,0,0,0.010434573,-0.21473858,0.42868876,0.0,0.0,0.0,0.000923085,-0.0034873486,-0.0004954934,0.0,0.0,0.0,inf,inf,inf,0,0,1,0
25212000,25128000,0,0,0.013128111,-0.21526437,0.42762965,0.0,0.0,0.0,-0.0017623845,-0.0029481053,0.00057023764,0.0,0.0,0.0,inf,inf,inf,0,0,1,0
25284000,25198545,0,0,0.012010881,-0.21680021,0.42979506,0.0,0.0,0.0,-0.0005263919,-0.0014208555,-0.0016026795,0.0,0.0,0.0,inf,inf,inf,0,0,1,0
25356000,25272000,0,0,0.014059705,-0.21794902,0.42923284,0.0,0.0,0.0,-0.0024926262,-0.000252679,-0.0010328293,0.0,0.0,0.0,inf,inf,inf,0,0,1,0
25428000,25343272,0,0,0.010607588,-0.21671666,0.42961097,0.0,0.0,0.0,0.0010797651,-0.0014487952,-0.0013957322,0.0,0.0,0.0,inf,inf,inf,0,0,1,0
25500000,25416000,0,0,0.015506042,-0.21877003,0.43092564,0.0,0.0,0.0,-0.0038465392,0.0006611496,-0.0026808083,0.0,0.0,0.0,inf,inf,inf,0,0,1,0
25572000,25487272,0,0,0.010978999,-0.21464758,0.4269465,0.0,0.0,0.0,0.0006736871,-0.0034583658,0.0013000071,0.0,0.0,0.0,inf,inf,inf,0,0,1,0
25644000,25560000,0,0,0.0128371,-0.21740732,0.4353124,0.0,0.0,0.0,-0.0012662215,-0.00077059865,-0.0071004033,0.0,0.0,0.0,inf,inf,inf,0,0,1,0
25716000,25631272,0,0,0.010805069,-0.21599096,0.42839974,0.0,0.0,0.0,0.0006372649,-0.0022898763,-0.00023674965,0.0,0.0,0.0,inf,inf,inf,0,0,1,0
25788000,25704000,0,0,0.011752239,-0.2189776,0.42577654,0.0,0.0,0.0,-0.0004317453,0.0005636513,0.0023218393,0.0,0.0,0.0,inf,inf,inf,0,0,1,0
25860000,25774909,0,0,0.010040413,-0.21726978,0.43034437,0.0,0.0,0.0,0.0011367472,-0.0012010932,-0.0022712648,0.0,0.0,0.0,inf,inf,inf,0,0,1,0
25932000,25848000,0,0,0.007547583,-0.22128408,0.4262015,0.0,0.0,0.0,0.0034997654,0.0027600229,0.0018478334,0.0,0.0,0.0,inf,inf,inf,0,0,1,0
26004000,25918545,0,0,0.010141581,-0.21737082,0.42814013,0.0,0.0,0.0,0.0007184744,-0.0011298507,-7.4118376e-05,0.0,0.0,0.0,inf,inf,inf,0,0,1,0
26076000,25992000,0,0,0.011761795,-0.21640575,0.42801854,0.0,0.0,0.0,-0.0008852957,-0.0020963252,4.6372414e-05,0.0,0.0,0.0,inf,inf,inf,0,0,1,0
26148000,26062909,0,0,0.010187316,-0.21556787,0.4287519,0.0,0.0,0.0,0.00072553474,-0.0030501336,-0.0007470846,0.0,0.0,0.0,inf,inf,inf,0,0,1,0
26220000,26136000,0,0,0.014206675,-0.21532373,0.42663747,0.0,0.0,0.0,-0.0033185082,-0.0034003854,0.0013137162,0.0,0.0,0.0,inf,inf,inf,0,0,1,0
26292000,26207636,0,0,0.010541866,-0.21608889,0.4267781,0.0,0.0,0.0,0.00036144815,-0.0026548952,0.0011626482,0.0,0.0,0.0,inf,inf,inf,0,0,1,0
26364000,26280000,0,0,0.0076299226,-0.21652988,0.4271363,0.0,0.0,0.0,0.0031574825,-0.002153039,0.00083851814,0.0,0.0,0.0,inf,inf,inf,0,0,1,0
26436000,26351272,0,0,0.010115104,-0.21564879,0.42627123,0.0,0.0,0.0,0.00055771135,-0.002851978,0.0017995238,0.0,0.0,0.0,inf,inf,inf,0,0,1,0
26508000,26424000,0,0,0.011587518,-0.21580915,0.43105552,0.0,0.0,0.0,-0.0009561954,-0.0023981482,-0.0028340518,0.0,0.0,0.0,inf,inf,inf,0,0,1,0
26580000,26494909,0,0,0.011066236,-0.21604575,0.42876753,0.0,0.0,0.0,-0.00043482333,-0.0018684417,-0.00039687753,0.0,0.0,0.0,inf,inf,inf,0,0,1,0
26652000,26568000,0,0,0.012933986,-0.21433876,0.43445444,0.0,0.0,0.0,-0.002218062,-0.0034856647,-0.0060402453,0.0,0.0,0.0,inf,inf,inf,0,0,1,0
26724000,26639272,0,0,0.00963276,-0.21442947,0.42697892,0.0,0.0,0.0,0.0010761386,-0.0033854097,0.0014403164,0.0,0.0,0.0,inf,inf,inf,0,0,1,0
26796000,26712000,0,0,0.0040895897,-0.21765357,0.43686348,0.0,0.0,0.0,0.006541979,-0.0002245009,-0.008474469,0.0,0.0,0.0,inf,inf,inf,0,0,1,0
26868000,26783636,0,0,0.009575726,-0.21415207,0.42883262,0.0,0.0,0.0,0.0007137563,-0.0038115978,-0.0004788041,0.0,0.0,0.0,inf,inf,inf,0,0,1,0
26940000,26856000,0,0,0.013292538,-0.21983603,0.42181808,0.0,0.0,0.0,-0.0033078585,0.001701504,0.0064560175,0.0,0.0,0.0,inf,inf,inf,0,0,1,0
27012000,26926909,0,0,0.007463504,-0.2163359,0.42670354,0.0,0.0,0.0,0.0023274007,-0.0019017607,0.0015225112,0.0,0.0,0.0,inf,inf,inf,0,0,1,0
27084000,27000000,0,0,0.0054175416,-0.21625365,0.43062335,0.0,0.0,0.0,0.004185437,-0.0020309389,-0.002417028,0.0,0.0,0.0,inf,inf,inf,0,0,1,0
27156000,27069818,0,0,0.009461304,-0.21645829,0.43026236,0.0,0.0,0.0,2.256222e-05,-0.0019043684,-0.0020932257,0.0,0.0,0.0,inf,inf,inf,0,0,1,0
27220000,27140000,0,0,0.013638017,-0.21904947,0.4231238,0.0,0.0,0.0,-0.004196738,0.0006621033,0.0050337017,0.0,0.0,0.0,inf,inf,inf,0,0,1,0
27292000,27209600,0,0,0.0075988113,-0.21609648,0.42793083,0.0,0.0,0.0,0.0019120262,-0.0023360997,0.00020205975,0.0,0.0,0.0,inf,inf,inf,0,0,1,0
27364000,27282000,0,0,0.0041764667,-0.2177275,0.4253795,0.0,0.0,0.0,0.005264112,-0.0008023679,0.0027053058,0.0,0.0,0.0,inf,inf,inf,0,0,1,0
27436000,27352800,0,0,0.008853673,-0.21625605,0.42599878,0.0,0.0,0.0,0.0005190158,-0.0023817718,0.0020323694,0.0,0.0,0.0,inf,inf,inf,0,0,1,0
27500000,27420000,0,0,0.009489249,-0.221581,0.42548355,0.0,0.0,0.0,-8.6743385e-05,0.0028559417,0.0025024116,0.0,0.0,0.0,inf,inf,inf,0,0,1,0
27572000,27491636,0,0,0.008648949,-0.22033922,0.42790678,0.0,0.0,0.0,0.0008083787,0.0014781207,8.374453e-06,0.0,0.0,0.0,inf,inf,inf,0,0,1,0
27644000,27564000,0,0,0.006101839,-0.21452686,0.44010335,0.0,0.0,0.0,0.0032225628,-0.004277438,-0.012156218,0.0,0.0,0.0,inf,inf,inf,0,0,1,0
27716000,27636000,0,0,0.008819918,-0.21789965,0.4283027,0.0,0.0,0.0,0.00031398702,-0.0007842183,-0.0002898574,0.0,0.0,0.0,inf,inf,inf,0,0,1,0
27788000,27704000,0,0,0.01557696,-0.22050229,0.42769054,0.0,0.0,0.0,-0.0066199536,0.0019489527,0.0003926754,0.0,0.0,0.0,inf,inf,inf,0,0,1,0
27860000,27772800,0,0,0.009770688,-0.21596849,0.42912278,0.0,0.0,0.0,-0.00081664696,-0.0025883317,-0.001041323,0.0,0.0,0.0,inf,inf,inf,0,0,1,0
27924000,27840000,0,0,0.00424814,-0.2117723,0.43013456,0.0,0.0,0.0,0.004740263,-0.0067817867,-0.002052337,0.0,0.0,0.0,inf,inf,inf,0,0,1,0
27996000,27911272,0,0,0.007803855,-0.21752995,0.43188027,0.0,0.0,0.0,0.0011431971,-0.0009797066,-0.0037745535,0.0,0.0,0.0,inf,inf,inf,0,0,1,0
28068000,27984000,0,0,0.011436801,-0.21403426,0.42590165,0.0,0.0,0.0,-0.002594728,-0.004322529,0.0022842288,0.0,0.0,0.0,inf,inf,inf,0,0,1,0
28140000,28055272,0,0,0.0112296445,-0.2179542,0.42809576,0.0,0.0,0.0,-0.0025282009,-0.0002283901,0.00018179417,0.0,0.0,0.0,inf,inf,inf,0,0,1,0
28212000,28128000,0,0,0.0023547753,-0.21585028,0.4256709,0.0,0.0,0.0,0.0062730117,-0.0021452755,0.0027033985,0.0,0.0,0.0,inf,inf,inf,0,0,1,0
28284000,28200000,0,0,0.009218186,-0.21552156,0.43010324,0.0,0.0,0.0,-0.0007530749,-0.0024435073,-0.0017102361,0.0,0.0,0.0,inf,inf,inf,0,0,1,0
28356000,28272000,0,0,0.008275046,-0.21095386,0.4338006,0.0,0.0,0.0,0.0001754025,-0.0070679784,-0.005436152,0.0,0.0,0.0,inf,inf,inf,0,0,1,0
28428000,28343636,0,0,0.00714536,-0.2167407,0.42854294,0.0,0.0,0.0,0.0013627186,-0.0013527274,-0.00021603703,0.0,0.0,0.0,inf,inf,inf,0,0,1,0
28500000,28416000,0,0,0.0121597415,-0.21119039,0.42688704,0.0,0.0,0.0,-0.0033572083,-0.00687699,0.0014470816,0.0,0.0,0.0,inf,inf,inf,0,0,1,0
28572000,28487636,0,0,0.010754406,-0.21650313,0.42955208,0.0,0.0,0.0,-0.0015644208,-0.0016299337,-0.001259476,0.0,0.0,0.0,inf,inf,inf,0,0,1,0
28644000,28560000,0,0,0.009353187,-0.2259355,0.427211,0.0,0.0,0.0,0.000114466995,0.0076383054,0.0009919107,0.0,0.0,0.0,inf,inf,inf,0,0,1,0
28716000,28632000,0,0,0.0079981135,-0.21846876,0.4289335,0.0,0.0,0.0,0.0016374467,5.9470534e-05,-0.0007915199,0.0,0.0,0.0,inf,inf,inf,0,0,1,0
28788000,28704000,0,0,0.0139004495,-0.2159484,0.42714518,0.0,0.0,0.0,-0.004197268,-0.002540052,0.0009548962,0.0,0.0,0.0,inf,inf,inf,0,0,1,0
28860000,28775272,0,0,0.009570732,-0.21647042,0.42763993,0.0,0.0,0.0,0.000342899,-0.0018734038,0.00052908063,0.0,0.0,0.0,inf,inf,inf,0,0,1,0
28932000,28848000,0,0,0.0044341274,-0.21319543,0.42719132,0.0,0.0,0.0,0.005534809,-0.00484778,0.0011295676,0.0,0.0,0.0,inf,inf,inf,0,0,1,0
29004000,28918545,0,0,0.010190916,-0.2175228,0.42946467,0.0,0.0,0.0,-0.0002199756,-0.00024467707,-0.0010035336,0.0,0.0,0.0,inf,inf,inf,0,0,1,0
29076000,28992000,0,0,0.003176161,-0.2134511,0.42483866,0.0,0.0,0.0,0.006788901,-0.0041822046,0.0036907792,0.0,0.0,0.0,inf,inf,inf,0,0,1,0
29148000,29062909,0,0,0.009826076,-0.21613596,0.43033332,0.0,0.0,0.0,0.00011182856,-0.0015051812,-0.0018072426,0.0,0.0,0.0,inf,inf,inf,0,0,1,0
29220000,29136000,0,0,0.007878119,-0.21561536,0.4351186,0.0,0.0,0.0,0.0021097567,-0.0020968318,-0.006629795,0.0,0.0,0.0,inf,inf,inf,0,0,1,0
29292000,29206181,0,0,0.011379363,-0.21633142,0.43147427,0.0,0.0,0.0,-0.0013805423,-0.0013751239,-0.0029827952,0.0,0.0,0.0,inf,inf,inf,0,0,1,0
29364000,29280000,0,0,0.008977102,-0.21166812,0.43471023,0.0,0.0,0.0,0.0011263471,-0.005958095,-0.0061804354,0.0,0.0,0.0,inf,inf,inf,0,0,1,0
29436000,29351272,0,0,0.009278069,-0.21603763,0.4314611,0.0,0.0,0.0,0.0009542899,-0.0014244914,-0.0028510988,0.0,0.0,0.0,inf,inf,inf,0,0,1,0
29508000,29424000,0,0,0.010757947,-0.21498658,0.43336916,0.0,0.0,0.0,-0.00047398545,-0.0023904294,-0.004717171,0.0,0.0,0.0,inf,inf,inf,0,0,1,0
29580000,29494181,0,0,0.010690773,-0.21494897,0.42809358,0.0,0.0,0.0,-0.00032751448,-0.0025523156,0.00049343705,0.0,0.0,0.0,inf,inf,inf,0,0,1,0
29644000,29564000,0,0,0.0088052545,-0.21449827,0.43108124,0.0,0.0,0.0,0.0015570503,-0.0031154603,-0.0025513172,0.0,0.0,0.0,inf,inf,inf,0,0,1,0
29716000,29632800,0,0,0.009651554,-0.21559563,0.42988798,0.0,0.0,0.0,0.0006190641,-0.002053082,-0.0013736188,0.0,0.0,0.0,inf,inf,inf,0,0,1,0
29780000,29700000,0,0,0.009388762,-0.21780847,0.42696458,0.0,0.0,0.0,0.00083146803,0.00020831823,0.0015756488,0.0,0.0,0.0,inf,inf,inf,0,0,1,0
29852000,29771272,0,0,0.008651327,-0.21556734,0.43050268,0.0,0.0,0.0,0.0016388334,-0.0020457357,-0.0019706488,0.0,0.0,0.0,inf,inf,inf,0,0,1,0
29924000,29840000,0,0,0.017893462,-0.22161974,0.42998055,0.0,0.0,0.0,-0.0075566527,0.00394319,-0.0014818907,0.0,0.0,0.0,inf,inf,inf,0,0,1,0
29996000,29909600,0,0,0.0080173155,-0.2157032,0.43059522,0.0,0.0,0.0,0.0025398144,-0.0020806938,-0.002156496,0.0,0.0,0.0,inf,inf,inf,0,0,1,0
30060000,29980000,0,0,0.006026036,-0.2195116,0.4320873,0.0,0.0,0.0,0.0046004737,0.0016538203,-0.0036878586,0.0,0.0,0.0,inf,inf,inf,0,0,1,0
30132000,30047111,0,0,0.011228414,-0.21494874,0.42712107,0.0,0.0,0.0,-0.00061179884,-0.0029264688,0.0012697875,0.0,0.0,0.0,inf,inf,inf,0,0,1,0
30204000,30118666,0,0,0.0070919804,-0.2138472,0.42789996,0.0,0.0,0.0,0.0035179816,-0.0040011257,0.00050473213,0.0,0.0,0.0,inf,inf,inf,0,0,1,0
30276000,30190666,0,0,0.009183059,-0.2169536,0.42922583,0.0,0.0,0.0,0.0013187053,-0.0008998513,-0.000821054,0.0,0.0,0.0,inf,inf,inf,0,0,1,0
30348000,30261333,0,0,0.011340426,-0.21791485,0.4306187,0.0,0.0,0.0,-0.00087156333,0.00011959672,-0.0021835864,0.0,0.0,0.0,inf,inf,inf,0,0,1,0
30412000,30329500,0,0,0.01043843,-0.2164956,0.42881954,0.0,0.0,0.0,-2.664607e-05,-0.0012538731,-0.00035977364,0.0,0.0,0.0,inf,inf,inf,0,0,1,0
30484000,30400000,0,0,0.008095281,-0.21628752,0.42695606,0.0,0.0,0.0,0.0020839032,-0.0014427006,0.001519084,0.0,0.0,0.0,inf,inf,inf,0,0,1,0
30548000,30468000,0,0,0.007282124,-0.21483219,0.42772642,0.0,0.0,0.0,0.002673938,-0.0028281063,0.0007894933,0.0,0.0,0.0,inf,inf,inf,0,0,1,0
30620000,30538400,0,0,0.009756436,-0.21612437,0.42821667,0.0,0.0,0.0,-3.2382086e-06,-0.0014537424,0.00034564734,0.0,0.0,0.0,inf,inf,inf,0,0,1,0
30692000,30605333,0,0,0.010922411,-0.21533144,0.43281782,0.0,0.0,0.0,-0.0012238342,-0.002205044,-0.004233122,0.0,0.0,0.0,inf,inf,inf,0,0,1,0
30764000,30676666,0,0,0.008606184,-0.21428876,0.43242735,0.0,0.0,0.0,0.0011994205,-0.0032488108,-0.003845632,0.0,0.0,0.0,inf,inf,inf,0,0,1,0
30836000,30748666,0,0,0.009383456,-0.21599148,0.4315009,0.0,0.0,0.0,0.00050457474,-0.0015901327,-0.002943486,0.0,0.0,0.0,inf,inf,inf,0,0,1,0
30908000,30820666,0,0,0.012342012,-0.21572767,0.4288448,0.0,0.0,0.0,-0.0024282467,-0.0019694269,-0.0003465712,0.0,0.0,0.0,inf,inf,inf,0,0,1,0
30980000,30893333,0,0,0.009215336,-0.21567631,0.42950666,0.0,0.0,0.0,0.00063953176,-0.0020997077,-0.001047194,0.0,0.0,0.0,inf,inf,inf,0,0,1,0
31044000,30960000,0,0,0.009049623,-0.2166264,0.42655954,0.0,0.0,0.0,0.0008696178,-0.0012729466,0.0018357038,0.0,0.0,0.0,inf,inf,inf,0,0,1,0
31116000,31030285,0,0,0.008016079,-0.21649648,0.42689002,0.0,0.0,0.0,0.0019797245,-0.001480028,0.0014641881,0.0,0.0,0.0,inf,inf,inf,0,0,1,0
31180000,31098000,0,0,0.008905942,-0.21319798,0.42749834,0.0,0.0,0.0,0.0012151729,-0.004796535,0.00084379315,0.0,0.0,0.0,inf,inf,inf,0,0,1,0
31252000,31169000,0,0,0.008730207,-0.21671067,0.42812863,0.0,0.0,0.0,0.0013164692,-0.001225993,0.00024470687,0.0,0.0,0.0,inf,inf,inf,0,0,1,0
31316000,31236000,0,0,0.011845424,-0.21426275,0.42994544,0.0,0.0,0.0,-0.0019405028,-0.0035226345,-0.0014918745,0.0,0.0,0.0,inf,inf,inf,0,0,1,0
31388000,31308000,0,0,0.007820538,-0.21529083,0.43060577,0.0,0.0,0.0,0.0020199725,-0.002362296,-0.0020835102,0.0,0.0,0.0,inf,inf,inf,0,0,1,0
31460000,31378666,0,0,0.009613391,-0.21552667,0.4309418,0.0,0.0,0.0,0.00027332082,-0.002026692,-0.00236997,0.0,0.0,0.0,inf,inf,inf,0,0,1,0
31532000,31450666,0,0,0.010507987,-0.21402162,0.42973715,0.0,0.0,0.0,-0.0006132731,-0.0034133494,-0.0011054277,0.0,0.0,0.0,inf,inf,inf,0,0,1,0
31604000,31522666,0,0,0.0076889484,-0.21170172,0.43064564,0.0,0.0,0.0,0.0023460523,-0.005793035,-0.0020475388,0.0,0.0,0.0,inf,inf,inf,0,0,1,0
31676000,31589500,0,0,0.011023341,-0.21406253,0.42960986,0.0,0.0,0.0,-0.0009646546,-0.0034866184,-0.0010399222,0.0,0.0,0.0,inf,inf,inf,0,0,1,0
31748000,31662000,0,0,0.009759828,-0.21641736,0.42738667,0.0,0.0,0.0,0.00022725761,-0.0011246055,0.001188606,0.0,0.0,0.0,inf,inf,inf,0,0,1,0
31820000,31733500,0,0,0.009855525,-0.21581316,0.42884976,0.0,0.0,0.0,0.0002083024,-0.0017728806,-0.00029864907,0.0,0.0,0.0,inf,inf,inf,0,0,1,0
31892000,31805000,0,0,0.0060858633,-0.21459967,0.43134445,0.0,0.0,0.0,0.004004063,-0.0030618608,-0.0028323233,0.0,0.0,0.0,inf,inf,inf,0,0,1,0
31964000,31877000,0,0,0.010700734,-0.21646236,0.43059826,0.0,0.0,0.0,-0.00054390915,-0.001210764,-0.0020935535,0.0,0.0,0.0,inf,inf,inf,0,0,1,0
32028000,31948000,0,0,0.008440616,-0.21504869,0.43016553,0.0,0.0,0.0,0.0017332714,-0.0026299655,-0.0016640723,0.0,0.0,0.0,inf,inf,inf,0,0,1,0
32108000,32020500,0,0,0.009294543,-0.21697465,0.42838183,0.0,0.0,0.0,0.0007085614,-0.00075121224,9.971857e-05,0.0,0.0,0.0,inf,inf,inf,0,0,1,0
32172000,32088000,0,0,0.011363132,-0.21468888,0.42849267,0.0,0.0,0.0,-0.0015204679,-0.0031191409,-4.9173832e-05,0.0,0.0,0.0,inf,inf,inf,0,0,1,0
32244000,32159111,0,0,0.009492212,-0.21461597,0.4282085,0.0,0.0,0.0,0.00035229977,-0.0032658875,0.00019738078,0.0,0.0,0.0,inf,inf,inf,0,0,1,0
32316000,32229333,0,0,0.010800625,-0.2186657,0.42700052,0.0,0.0,0.0,-0.00090878736,0.00068964064,0.0013563633,0.0,0.0,0.0,inf,inf,inf,0,0,1,0
32380000,32297000,0,0,0.011546266,-0.2158203,0.42909545,0.0,0.0,0.0,-0.0016377317,-0.0021467656,-0.0007343888,0.0,0.0,0.0,inf,inf,inf,0,0,1,0
32444000,32364000,0,0,0.007427664,-0.21312544,0.4293139,0.0,0.0,0.0,0.0024770186,-0.004718095,-0.00088992715,0.0,0.0,0.0,inf,inf,inf,0,0,1,0
32516000,32435555,0,0,0.007409929,-0.21644424,0.42837468,0.0,0.0,0.0,0.0024045943,-0.0012837946,0.00011005998,0.0,0.0,0.0,inf,inf,inf,0,0,1,0
32588000,32508000,0,0,0.0070867576,-0.2168028,0.4311808,0.0,0.0,0.0,0.0026477315,-0.00094407797,-0.002703756,0.0,0.0,0.0,inf,inf,inf,0,0,1,0
32660000,32578222,0,0,0.010172275,-0.21487449,0.428859,0.0,0.0,0.0,-0.0004093917,-0.002877012,-0.0003849864,0.0,0.0,0.0,inf,inf,inf,0,0,1,0
32732000,32650666,0,0,0.010698726,-0.21376011,0.43081862,0.0,0.0,0.0,-0.0008486938,-0.0040252656,-0.0023638308,0.0,0.0,0.0,inf,inf,inf,0,0,1,0
32804000,32722222,0,0,0.007003194,-0.21521713,0.43028006,0.0,0.0,0.0,0.0029290407,-0.0026462227,-0.0018667877,0.0,0.0,0.0,inf,inf,inf,0,0,1,0
32876000,32794666,0,0,0.00743225,-0.21517232,0.43082258,0.0,0.0,0.0,0.0024111741,-0.0027184784,-0.00242123,0.0,0.0,0.0,inf,inf,inf,0,0,1,0
32948000,32866222,0,0,0.0077951187,-0.21646817,0.43124837,0.0,0.0,0.0,0.0019042334,-0.0012970418,-0.0027798414,0.0,0.0,0.0,inf,inf,inf,0,0,1,0
33020000,32934000,0,0,0.0053168396,-0.2124762,0.4290699,0.0,0.0,0.0,0.0042871526,-0.0051047355,-0.000505656,0.0,0.0,0.0,inf,inf,inf,0,0,1,0
33092000,33005600,0,0,0.008293294,-0.21655326,0.4287243,0.0,0.0,0.0,0.0013599014,-0.00090046227,-9.661913e-05,0.0,0.0,0.0,inf,inf,inf,0,0,1,0
33164000,33078000,0,0,0.00773622,-0.21376774,0.4292141,0.0,0.0,0.0,0.0021155262,-0.0036076903,-0.00055119395,0.0,0.0,0.0,inf,inf,inf,0,0,1,0
33236000,33148800,0,0,0.009065144,-0.21652947,0.43078518,0.0,0.0,0.0,0.00088480115,-0.00090397894,-0.0021539927,0.0,0.0,0.0,inf,inf,inf,0,0,1,0
