timestamp,timestamp_sample,gps_hvel[0],gps_hvel[1],gps_vvel,gps_hpos[0],gps_hpos[1],gps_vpos,ev_hvel[0],ev_hvel[1],ev_vvel,ev_hpos[0],ev_hpos[1],ev_vpos,rng_vpos,baro_vpos,aux_hvel[0],aux_hvel[1],aux_vvel,flow[0],flow[1],terr_flow[0],terr_flow[1],heading,mag_field[0],mag_field[1],mag_field[2],gravity[0],gravity[1],gravity[2],drag[0],drag[1],airspeed,beta,hagl,hagl_rate
3180000,3100000,0.0,0.0,0.0,0.0,0.0,0.0,0.0,0.0,0.0,0.0,0.0,0.0,0.0,0.0,0.0,0.0,nan,0.0,0.0,0.0,0.0,0.0,-0.012685265,0.21847832,-0.42673162,0.0087023815,-0.006303781,-0.00032250004,0.0,0.0,0.0,0.0,0.0,0.0
3188000,3108000,0.0,0.0,0.0,0.0,0.0,0.0,0.0,0.0,0.0,0.0,0.0,0.0,0.0,0.0,0.0,0.0,nan,0.0,0.0,0.0,0.0,0.0,-0.012685265,0.21847832,-0.42673162,-0.027613038,-0.01795602,0.00019425403,0.0,0.0,0.0,0.0,0.0,0.0
3196000,3116000,0.0,0.0,0.0,0.0,0.0,0.0,0.0,0.0,0.0,0.0,0.0,0.0,0.0,0.0,0.0,0.0,nan,0.0,0.0,0.0,0.0,0.0,-0.012685265,0.21847832,-0.42673162,-0.017617518,-0.018099202,-6.1982746e-06,0.0,0.0,0.0,0.0,0.0,0.0
3204000,3124000,0.0,0.0,0.0,0.0,0.0,0.0,0.0,0.0,0.0,0.0,0.0,0.0,0.0,0.0,0.0,0.0,nan,0.0,0.0,0.0,0.0,0.0,-0.009413962,0.21674828,-0.43056583,0.00041684043,-0.018707395,-0.00039672852,0.0,0.0,0.0,0.0,0.0,0.0
3212000,3132000,0.0,0.0,0.0,0.0,0.0,0.0,0.0,0.0,0.0,0.0,0.0,0.0,0.0,0.0,0.0,0.0,nan,0.0,0.0,0.0,0.0,0.0,-0.009413962,0.21674828,-0.43056583,-0.0002874639,0.01179634,0.0002322197,0.0,0.0,0.0,0.0,0.0,0.0
3220000,3140000,0.0,0.0,0.0,0.0,0.0,0.0,0.0,0.0,0.0,0.0,0.0,0.0,0.0,0.0,0.0,0.0,nan,0.0,0.0,0.0,0.0,0.0,-0.009413962,0.21674828,-0.43056583,-0.022811435,-0.011535674,0.00023937225,0.0,0.0,0.0,0.0,0.0,0.0
3228000,3148000,0.0,0.0,0.0,0.0,0.0,0.0,0.0,0.0,0.0,0.0,0.0,0.0,0.0,0.0,0.0,0.0,nan,0.0,0.0,0.0,0.0,0.0,-0.009413962,0.21674828,-0.43056583,-0.00330537,-0.010050118,-0.00013399124,0.0,0.0,0.0,0.0,0.0,0.0
3236000,3156000,0.0,0.0,0.0,0.0,0.0,0.0,0.0,0.0,0.0,0.0,0.0,0.0,0.0,0.0,0.0,0.0,nan,0.0,0.0,0.0,0.0,0.0,-0.009413962,0.21674828,-0.43056583,0.008085545,-0.023982108,-0.00068712234,0.0,0.0,0.0,0.0,0.0,0.0
3244000,3164000,0.0,0.0,0.0,0.0,0.0,0.0,0.0,0.0,0.0,0.0,0.0,0.0,0.0,0.0,0.0,0.0,nan,0.0,0.0,0.0,0.0,0.0,-0.009413962,0.21674828,-0.43056583,-0.011126289,-0.007364139,9.10759e-05,0.0,0.0,0.0,0.0,0.0,0.0
3252000,3172000,0.0,0.0,0.0,0.0,0.0,0.0,0.0,0.0,0.0,0.0,0.0,0.0,0.0,0.0,0.0,0.0,nan,0.0,0.0,0.0,0.0,0.0,-0.009413962,0.21674828,-0.43056583,-0.008300737,0.010782525,0.00038862228,0.0,0.0,0.0,0.0,0.0,0.0
3260000,3180000,0.0,0.0,0.0,0.0,0.0,0.0,0.0,0.0,0.0,0.0,0.0,0.0,0.0,0.0,0.0,0.0,nan,0.0,0.0,0.0,0.0,0.0,-0.009413962,0.21674828,-0.43056583,0.015384881,0.003175497,-0.0002913475,0.0,0.0,0.0,0.0,0.0,0.0
3268000,3188000,0.0,0.0,0.0,0.0,0.0,0.0,0.0,0.0,0.0,0.0,0.0,0.0,0.0,0.0,0.0,0.0,nan,0.0,0.0,0.0,0.0,0.0,-0.009413962,0.21674828,-0.43056583,0.002184257,0.01380533,0.00021505356,0.0,0.0,0.0,0.0,0.0,0.0
3276000,3196000,0.0,0.0,0.0,0.0,0.0,0.0,0.0,0.0,0.0,0.0,0.0,0.0,0.0,0.0,0.0,0.0,nan,0.0,0.0,0.0,0.0,0.0,0.009170422,-0.008324191,0.00022271276,-0.013330398,0.014424741,0.00056266785,0.0,0.0,0.0,0.0,0.0,0.0
3284000,3204000,0.0,0.0,0.0,0.0,0.0,0.0,0.0,0.0,0.0,0.0,0.0,0.0,0.0,0.0,0.0,0.0,nan,0.0,0.0,0.0,0.0,0.0,0.009170422,-0.008324191,0.00022271276,-0.009632036,0.0039369464,0.00028800964,0.0,0.0,0.0,0.0,0.0,0.0
3292000,3212000,0.0,0.0,0.0,0.0,0.0,0.0,0.0,0.0,0.0,0.0,0.0,0.0,0.0,0.0,0.0,0.0,nan,0.0,0.0,0.0,0.0,0.0,0.009170422,-0.008324191,0.00022271276,-0.01890711,0.021157116,0.0008020401,0.0,0.0,0.0,0.0,0.0,0.0
3300000,3220000,0.0,0.0,0.0,0.0,0.0,0.0,0.0,0.0,0.0,0.0,0.0,0.0,0.0,0.0,0.0,0.0,nan,0.0,0.0,0.0,0.0,0.0,0.009170422,-0.008324191,0.00022271276,-0.033700757,0.029781193,0.0012431145,0.0,0.0,0.0,0.0,0.0,0.0
3308000,3228000,0.0,0.0,0.0,0.0,0.0,0.0,0.0,0.0,0.0,0.0,0.0,0.0,0.0,0.0,0.0,0.0,nan,0.0,0.0,0.0,0.0,0.0,0.009170422,-0.008324191,0.00022271276,-0.03888138,0.0311964,0.0013661385,0.0,0.0,0.0,0.0,0.0,0.0
3316000,3236000,0.0,0.0,0.0,0.0,0.0,0.0,0.0,0.0,0.0,0.0,0.0,0.0,0.0,0.0,0.0,0.0,nan,0.0,0.0,0.0,0.0,0.0,0.009170422,-0.008324191,0.00022271276,-0.028254747,0.0021728277,0.0006365776,0.0,0.0,0.0,0.0,0.0,0.0
3324000,3244000,0.0,0.0,0.0,0.0,0.0,0.0,0.0,0.0,0.0,0.0,0.0,0.0,0.0,0.0,0.0,0.0,nan,0.0,0.0,0.0,0.0,0.0,0.009170422,-0.008324191,0.00022271276,-0.03802183,0.012993827,0.0010323524,0.0,0.0,0.0,0.0,0.0,0.0
3332000,3252000,0.0,0.0,0.0,0.0,0.0,0.0,0.0,0.0,0.0,0.0,0.0,0.0,0.0,0.0,0.0,0.0,nan,0.0,0.0,0.0,0.0,0.0,0.009170422,-0.008324191,0.00022271276,0.011665668,-0.011434719,-0.0005068779,0.0,0.0,0.0,0.0,0.0,0.0
3340000,3260000,0.0,0.0,0.0,0.0,0.0,0.0,0.0,0.0,0.0,0.0,0.0,0.0,0.0,0.0,0.0,0.0,nan,0.0,0.0,0.0,0.0,0.0,0.009170422,-0.008324191,0.00022271276,-0.020718098,0.013766155,0.0007123947,0.0,0.0,0.0,0.0,0.0,0.0
3348000,3268000,0.0,0.0,0.0,0.0,0.0,0.0,0.0,0.0,0.0,0.0,0.0,0.0,0.0,0.0,0.0,0.0,nan,0.0,0.0,0.0,0.0,0.0,0.0035041943,-0.00228104,-0.001101017,-0.015195815,0.027148545,0.0008378029,0.0,0.0,0.0,0.0,0.0,0.0
3356000,3276000,0.0,0.0,0.0,0.0,0.0,0.0,0.0,0.0,0.0,0.0,0.0,0.0,0.0,0.0,0.0,0.0,nan,0.0,0.0,0.0,0.0,0.0,0.0035041943,-0.00228104,-0.001101017,-0.026986336,-0.01697509,0.00021791458,0.0,0.0,0.0,0.0,0.0,0.0
3364000,3284000,0.0,0.0,0.0,0.0,0.0,0.0,0.0,0.0,0.0,0.0,0.0,0.0,0.0,0.0,0.0,0.0,nan,0.0,0.0,0.0,0.0,0.0,0.0035041943,-0.00228104,-0.001101017,-0.019462401,0.026557565,0.00091695786,0.0,0.0,0.0,0.0,0.0,0.0
3372000,3292000,0.0,0.0,0.0,0.0,0.0,0.0,0.0,0.0,0.0,0.0,0.0,0.0,0.0,0.0,0.0,0.0,nan,0.0,0.0,0.0,0.0,0.0,0.0035041943,-0.00228104,-0.001101017,-0.0066255108,0.02944377,0.00069379807,0.0,0.0,0.0,0.0,0.0,0.0
3380000,3300000,0.0,0.0,0.0,0.0,0.0,0.0,0.0,0.0,0.0,0.0,0.0,0.0,0.0,0.0,0.0,0.0,nan,0.0,0.0,0.0,0.0,0.0,0.0035041943,-0.00228104,-0.001101017,-0.008525737,0.0068380386,0.0003247261,0.0,0.0,0.0,0.0,0.0,0.0
3388000,3308000,0.0,0.0,0.0,0.0,0.0,0.0,0.0,0.0,0.0,0.0,0.0,0.0,0.0,0.0,0.0,0.0,nan,0.0,0.0,0.0,0.0,0.0,0.0035041943,-0.00228104,-0.001101017,-0.011260599,-0.01695621,-0.0001039505,0.0,0.0,0.0,0.0,0.0,0.0
3396000,3316000,0.0,0.0,0.0,0.0,0.0,0.0,0.0,0.0,0.0,0.0,0.0,0.0,0.0,0.0,0.0,0.0,nan,0.0,0.0,0.0,0.0,0.0,0.0035041943,-0.00228104,-0.001101017,-0.0049590357,-0.0027454644,5.722046e-05,0.0,0.0,0.0,0.0,0.0,0.0
3404000,3324000,0.0,0.0,0.0,0.0,0.0,0.0,0.0,0.0,0.0,0.0,0.0,0.0,0.0,0.0,0.0,0.0,nan,0.0,0.0,0.0,0.0,0.0,0.0035041943,-0.00228104,-0.001101017,-0.00092161354,0.012776494,0.00025987625,0.0,0.0,0.0,0.0,0.0,0.0
3412000,3332000,8.7029985e-06,-4.5757843e-05,-0.020477455,-1.6516433e-06,-1.172562e-05,488.105,0.0,0.0,0.0,0.0,0.0,0.0,0.0,0.0,0.0,0.0,nan,0.0,0.0,0.0,0.0,0.0,0.0035041943,-0.00228104,-0.001101017,0.0060615055,-0.011881694,-0.00037145615,0.0,0.0,0.0,0.0,0.0,0.0
3420000,3340000,8.7029985e-06,-4.5757843e-05,-0.020477455,-1.6516433e-06,-1.172562e-05,488.105,0.0,0.0,0.0,0.0,0.0,0.0,0.0,0.0,0.0,0.0,nan,0.0,0.0,0.0,0.0,0.0060322285,-0.00040487945,-0.0022087842,-0.0026112199,-0.018992953,-0.022394538,-6.914139e-05,0.0,0.0,0.0,0.0,0.0,0.0
3428000,3348000,8.7029985e-06,-4.5757843e-05,-0.020477455,-1.6516433e-06,-1.172562e-05,488.105,0.0,0.0,0.0,0.0,0.0,0.0,0.0,0.0,0.0,0.0,nan,0.0,0.0,0.0,0.0,0.0060322285,-0.00040487945,-0.0022087842,-0.0026112199,-0.009240268,-0.026290923,-0.0003528595,0.0,0.0,0.0,0.0,0.0,0.0
3436000,3356000,8.7029985e-06,-4.5757843e-05,-0.020477455,-1.6516433e-06,-1.172562e-05,488.105,0.0,0.0,0.0,0.0,0.0,0.0,0.0,0.0,0.0,0.0,nan,0.0,0.0,0.0,0.0,0.0060322285,-0.00040487945,-0.0022087842,-0.0026112199,0.00016355515,0.009942263,0.00018405914,0.0,0.0,0.0,0.0,0.0,0.0
3444000,3364000,8.7029985e-06,-4.5757843e-05,-0.020477455,-1.6516433e-06,-1.172562e-05,488.105,0.0,0.0,0.0,0.0,0.0,0.0,0.0,0.0,0.0,0.0,nan,0.0,0.0,0.0,0.0,0.0060322285,-0.00040487945,-0.0022087842,-0.0026112199,-0.0028276388,-0.014862403,-0.00024271011,0.0,0.0,0.0,0.0,0.0,0.0
3452000,3372000,8.7029985e-06,-4.5757843e-05,-0.020477455,-1.6516433e-06,-1.172562e-05,488.105,0.0,0.0,0.0,0.0,0.0,0.0,0.0,0.0,0.0,0.0,nan,0.0,0.0,0.0,0.0,0.0060322285,-0.00040487945,-0.0022087842,-0.0026112199,-0.03199058,-0.041591987,-0.0002541542,0.0,0.0,0.0,0.0,0.0,0.0
3460000,3380000,8.7029985e-06,-4.5757843e-05,-0.020477455,-1.6516433e-06,-1.172562e-05,488.105,0.0,0.0,0.0,0.0,0.0,0.0,0.0,0.0,0.0,0.0,nan,0.0,0.0,0.0,0.0,0.0060322285,-0.00040487945,-0.0022087842,-0.0026112199,-0.016345197,0.008147702,0.00049877167,0.0,0.0,0.0,0.0,0.0,0.0
3468000,3388000,8.7029985e-06,-4.5757843e-05,-0.020477455,-1.6516433e-06,-1.172562e-05,488.105,0.0,0.0,0.0,0.0,0.0,0.0,0.0,0.0,0.0,0.0,nan,0.0,0.0,0.0,0.0,0.0060322285,-0.00040487945,-0.0022087842,-0.0026112199,0.0009806324,0.025190651,0.0004386902,0.0,0.0,0.0,0.0,0.0,0.0
3476000,3396000,8.7029985e-06,-4.5757843e-05,-0.020477455,-1.6516433e-06,-1.172562e-05,488.105,0.0,0.0,0.0,0.0,0.0,0.0,0.0,0.0,0.0,0.0,nan,0.0,0.0,0.0,0.0,0.0060322285,-0.00040487945,-0.0022087842,-0.0026112199,0.0061581526,0.0047264397,-4.673004e-05,0.0,0.0,0.0,0.0,0.0,0.0
3484000,3404000,8.7029985e-06,-4.5757843e-05,-0.020477455,-1.6516433e-06,-1.172562e-05,488.105,0.0,0.0,0.0,0.0,0.0,0.0,0.0,0.0,0.0,0.0,nan,0.0,0.0,0.0,0.0,0.0060322285,-0.00040487945,-0.0022087842,-0.0026112199,0.0043841098,-0.0034350753,-0.00016593933,0.0,0.0,0.0,0.0,0.0,0.0
3492000,3412000,8.7029985e-06,-4.5757843e-05,-0.020477455,-1.6516433e-06,-1.172562e-05,488.105,0.0,0.0,0.0,0.0,0.0,0.0,0.0,0.0,0.0,0.0,nan,0.0,0.0,0.0,0.0,-0.0073235035,0.0015181014,-0.0013087541,-0.00073972344,0.02002314,0.019911766,-9.441376e-05,0.0,0.0,0.0,0.0,0.0,0.0
3500000,3420000,8.7029985e-06,-4.5757843e-05,-0.020477455,-1.6516433e-06,-1.172562e-05,488.105,0.0,0.0,0.0,0.0,0.0,0.0,0.0,0.0,0.0,0.0,nan,0.0,0.0,0.0,0.0,-0.0073235035,0.0015181014,-0.0013087541,-0.00073972344,-0.0053674337,0.012238696,0.00034713745,0.0,0.0,0.0,0.0,0.0,0.0
3508000,3428000,8.7029985e-06,-4.5757843e-05,-0.020477455,-1.6516433e-06,-1.172562e-05,488.105,0.0,0.0,0.0,0.0,0.0,0.0,0.0,0.0,0.0,0.0,nan,0.0,0.0,0.0,0.0,-0.0073235035,0.0015181014,-0.0013087541,-0.00073972344,0.010232983,0.010701701,-2.9563904e-05,0.0,0.0,0.0,0.0,0.0,0.0
3516000,3436000,8.7029985e-06,-4.5757843e-05,-0.020477455,-1.6516433e-06,-1.172562e-05,488.105,0.0,0.0,0.0,0.0,0.0,0.0,0.0,0.0,0.0,0.0,nan,0.0,0.0,0.0,0.0,-0.0073235035,0.0015181014,-0.0013087541,-0.00073972344,-0.012952553,0.017416969,0.00060367584,0.0,0.0,0.0,0.0,0.0,0.0
3524000,3444000,8.7029985e-06,-4.5757843e-05,-0.020477455,-1.6516433e-06,-1.172562e-05,488.105,0.0,0.0,0.0,0.0,0.0,0.0,0.0,0.0,0.0,0.0,nan,0.0,0.0,0.0,0.0,-0.0073235035,0.0015181014,-0.0013087541,-0.00073972344,-0.02196037,0.008387163,0.0006227493,0.0,0.0,0.0,0.0,0.0,0.0
3532000,3452000,8.7029985e-06,-4.5757843e-05,-0.020477455,-1.6516433e-06,-1.172562e-05,488.105,0.0,0.0,0.0,0.0,0.0,0.0,0.0,0.0,0.0,0.0,nan,0.0,0.0,0.0,0.0,-0.0073235035,0.0015181014,-0.0013087541,-0.00073972344,-0.009847224,0.00091665983,0.00023126602,0.0,0.0,0.0,0.0,0.0,0.0
3540000,3460000,8.7029985e-06,-4.5757843e-05,-0.020477455,-1.6516433e-06,-1.172562e-05,488.105,0.0,0.0,0.0,0.0,0.0,0.0,0.0,0.0,0.0,0.0,nan,0.0,0.0,0.0,0.0,-0.0073235035,0.0015181014,-0.0013087541,-0.00073972344,0.007764358,-0.009744793,-0.0003709793,0.0,0.0,0.0,0.0,0.0,0.0
3548000,3468000,8.7029985e-06,-4.5757843e-05,-0.020477455,-1.6516433e-06,-1.172562e-05,488.105,0.0,0.0,0.0,0.0,0.0,0.0,0.0,0.0,0.0,0.0,nan,0.0,0.0,0.0,0.0,-0.0073235035,0.0015181014,-0.0013087541,-0.00073972344,-0.033572696,-0.023589253,0.0002002716,0.0,0.0,0.0,0.0,0.0,0.0
3556000,3476000,8.7029985e-06,-4.5757843e-05,-0.020477455,-1.6516433e-06,-1.172562e-05,488.105,0.0,0.0,0.0,0.0,0.0,0.0,0.0,0.0,0.0,0.0,nan,0.0,0.0,0.0,0.0,-0.0073235035,0.0015181014,-0.0013087541,-0.00073972344,-0.025905289,-0.009606048,0.000351429,0.0,0.0,0.0,0.0,0.0,0.0
3564000,3484000,8.7029985e-06,-4.5757843e-05,-0.020477455,-1.6516433e-06,-1.172562e-05,488.105,0.0,0.0,0.0,0.0,0.0,0.0,0.0,0.0,0.0,0.0,nan,0.0,0.0,0.0,0.0,0.0003912449,-8.627679e-05,-0.0023368,-0.0013057888,-0.004222203,0.0012640655,0.00011873245,0.0,0.0,0.0,0.0,0.0,0.0
3572000,3492000,8.7029985e-06,-4.5757843e-05,-0.020477455,-1.6516433e-06,-1.172562e-05,488.105,0.0,0.0,0.0,0.0,0.0,0.0,0.0,0.0,0.0,0.0,nan,0.0,0.0,0.0,0.0,0.0003912449,-8.627679e-05,-0.0023368,-0.0013057888,-0.011426769,-0.0055559576,0.00013875961,0.0,0.0,0.0,0.0,0.0,0.0
3580000,3500000,8.7029985e-06,-4.5757843e-05,-0.020477455,-1.6516433e-06,-1.172562e-05,488.105,0.0,0.0,0.0,0.0,0.0,0.0,0.0,0.0,0.0,0.0,nan,0.0,0.0,0.0,0.0,0.0003912449,-8.627679e-05,-0.0023368,-0.0013057888,0.0024740938,0.0009884536,-3.671646e-05,0.0,0.0,0.0,0.0,0.0,0.0
3588000,3508000,8.7029985e-06,-4.5757843e-05,-0.020477455,-1.6516433e-06,-1.172562e-05,488.105,0.0,0.0,0.0,0.0,0.0,0.0,0.0,0.0,0.0,0.0,nan,0.0,0.0,0.0,0.0,0.0003912449,-8.627679e-05,-0.0023368,-0.0013057888,0.013289442,-0.012449399,-0.0005617142,0.0,0.0,0.0,0.0,0.0,0.0
3596000,3516000,8.7029985e-06,-4.5757843e-05,-0.020477455,-1.6516433e-06,-1.172562e-05,488.105,0.0,0.0,0.0,0.0,0.0,0.0,0.0,0.0,0.0,0.0,nan,0.0,0.0,0.0,0.0,0.0003912449,-8.627679e-05,-0.0023368,-0.0013057888,0.0036608055,0.019685522,0.00028467178,0.0,0.0,0.0,0.0,0.0,0.0
3604000,3524000,8.7029985e-06,-4.5757843e-05,-0.020477455,-1.6516433e-06,-1.172562e-05,488.105,0.0,0.0,0.0,0.0,0.0,0.0,0.0,0.0,0.0,0.0,nan,0.0,0.0,0.0,0.0,0.0003912449,-8.627679e-05,-0.0023368,-0.0013057888,-0.016558358,-0.013914421,7.200241e-05,0.0,0.0,0.0,0.0,0.0,0.0
3612000,3532000,8.7029985e-06,-4.5757843e-05,-0.020477455,-1.6516433e-06,-1.172562e-05,488.105,0.0,0.0,0.0,0.0,0.0,0.0,0.0,0.0,0.0,0.0,nan,0.0,0.0,0.0,0.0,0.0003912449,-8.627679e-05,-0.0023368,-0.0013057888,-0.02651794,0.01679267,0.00087833405,0.0,0.0,0.0,0.0,0.0,0.0
3620000,3540000,8.7029985e-06,-4.5757843e-05,-0.020477455,-1.6516433e-06,-1.172562e-05,488.105,0.0,0.0,0.0,0.0,0.0,0.0,0.0,0.0,0.0,0.0,nan,0.0,0.0,0.0,0.0,0.0003912449,-8.627679e-05,-0.0023368,-0.0013057888,-0.008802816,0.007161021,0.00033283234,0.0,0.0,0.0,0.0,0.0,0.0
3628000,3548000,8.7029985e-06,-4.5757843e-05,-0.020477455,-1.6516433e-06,-1.172562e-05,488.105,0.0,0.0,0.0,0.0,0.0,0.0,0.0,0.0,0.0,0.0,nan,0.0,0.0,0.0,0.0,0.0003912449,-8.627679e-05,-0.0023368,-0.0013057888,-0.01820591,-0.017071217,4.053116e-05,0.0,0.0,0.0,0.0,0.0,0.0
3636000,3556000,8.7029985e-06,-4.5757843e-05,-0.020477455,-1.6516433e-06,-1.172562e-05,488.105,0.0,0.0,0.0,0.0,0.0,0.0,0.0,0.0,0.0,0.0,nan,0.0,0.0,0.0,0.0,-0.012760043,0.002652606,-0.0018075705,-0.00035569072,-0.016529998,0.009227976,0.0005373955,0.0,0.0,0.0,0.0,0.0,0.0
3644000,3564000,8.7029985e-06,-4.5757843e-05,-0.020477455,-1.6516433e-06,-1.172562e-05,488.105,0.0,0.0,0.0,0.0,0.0,0.0,0.0,0.0,0.0,0.0,nan,0.0,0.0,0.0,0.0,-0.012760043,0.002652606,-0.0018075705,-0.00035569072,-0.023865966,0.023080274,0.00094127655,0.0,0.0,0.0,0.0,0.0,0.0
3652000,3572000,8.7029985e-06,-4.5757843e-05,-0.020477455,-1.6516433e-06,-1.172562e-05,488.105,0.0,0.0,0.0,0.0,0.0,0.0,0.0,0.0,0.0,0.0,nan,0.0,0.0,0.0,0.0,-0.012760043,0.002652606,-0.0018075705,-0.00035569072,-0.021434516,0.012051776,0.0006914139,0.0,0.0,0.0,0.0,0.0,0.0
3660000,3580000,8.7029985e-06,-4.5757843e-05,-0.020477455,-1.6516433e-06,-1.172562e-05,488.105,0.0,0.0,0.0,0.0,0.0,0.0,0.0,0.0,0.0,0.0,nan,0.0,0.0,0.0,0.0,-0.012760043,0.002652606,-0.0018075705,-0.00035569072,0.017005194,0.016316667,-9.1552734e-05,0.0,0.0,0.0,0.0,0.0,0.0
3668000,3588000,8.7029985e-06,-4.5757843e-05,-0.020477455,-1.6516433e-06,-1.172562e-05,488.105,0.0,0.0,0.0,0.0,0.0,0.0,0.0,0.0,0.0,0.0,nan,0.0,0.0,0.0,0.0,-0.012760043,0.002652606,-0.0018075705,-0.00035569072,0.011598993,0.009450927,-8.869171e-05,0.0,0.0,0.0,0.0,0.0,0.0
3676000,3596000,8.7029985e-06,-4.5757843e-05,-0.020477455,-1.6516433e-06,-1.172562e-05,488.105,0.0,0.0,0.0,0.0,0.0,0.0,0.0,0.0,0.0,0.0,nan,0.0,0.0,0.0,0.0,-0.012760043,0.002652606,-0.0018075705,-0.00035569072,0.005003039,-0.021675378,-0.0005722046,0.0,0.0,0.0,0.0,0.0,0.0
3684000,3604000,8.7029985e-06,-4.5757843e-05,-0.020477455,-1.6516433e-06,-1.172562e-05,488.105,0.0,0.0,0.0,0.0,0.0,0.0,0.0,0.0,0.0,0.0,nan,0.0,0.0,0.0,0.0,-0.012760043,0.002652606,-0.0018075705,-0.00035569072,-0.009181548,-0.018544331,-0.00018119812,0.0,0.0,0.0,0.0,0.0,0.0
3692000,3612000,8.7029985e-06,-4.5757843e-05,-0.020477455,-1.6516433e-06,-1.172562e-05,488.105,0.0,0.0,0.0,0.0,0.0,0.0,0.0,0.0,0.0,0.0,nan,0.0,0.0,0.0,0.0,-0.012760043,0.002652606,-0.0018075705,-0.00035569072,-0.0060202535,-0.0038394928,5.7697296e-05,0.0,0.0,0.0,0.0,0.0,0.0
3700000,3620000,8.7029985e-06,-4.5757843e-05,-0.020477455,-1.6516433e-06,-1.172562e-05,488.105,0.0,0.0,0.0,0.0,0.0,0.0,0.0,0.0,0.0,0.0,nan,0.0,0.0,0.0,0.0,0.0024421215,-0.00066019315,0.001383692,-0.005906284,-0.005070323,-0.018119588,-0.00026464462,0.0,0.0,0.0,0.0,0.0,0.0
3708000,3628000,8.7029985e-06,-4.5757843e-05,-0.020477455,-1.6516433e-06,-1.172562e-05,488.105,0.0,0.0,0.0,0.0,0.0,0.0,0.0,0.0,0.0,0.0,nan,0.0,0.0,0.0,0.0,0.0024421215,-0.00066019315,0.001383692,-0.005906284,-0.01743877,-0.021092802,-5.7697296e-05,0.0,0.0,0.0,0.0,0.0,0.0
3716000,3636000,8.7029985e-06,-4.5757843e-05,-0.020477455,-1.6516433e-06,-1.172562e-05,488.105,0.0,0.0,0.0,0.0,0.0,0.0,0.0,0.0,0.0,0.0,nan,0.0,0.0,0.0,0.0,0.0024421215,-0.00066019315,0.001383692,-0.005906284,-0.011302765,-0.0019741654,0.00021362305,0.0,0.0,0.0,0.0,0.0,0.0
3724000,3644000,8.7029985e-06,-4.5757843e-05,-0.020477455,-1.6516433e-06,-1.172562e-05,488.105,0.0,0.0,0.0,0.0,0.0,0.0,0.0,0.0,0.0,0.0,nan,0.0,0.0,0.0,0.0,0.0024421215,-0.00066019315,0.001383692,-0.005906284,-0.023373526,0.00062699616,0.00052309036,0.0,0.0,0.0,0.0,0.0,0.0
3732000,3652000,8.7029985e-06,-4.5757843e-05,-0.020477455,-1.6516433e-06,-1.172562e-05,488.105,0.0,0.0,0.0,0.0,0.0,0.0,0.0,0.0,0.0,0.0,nan,0.0,0.0,0.0,0.0,0.0024421215,-0.00066019315,0.001383692,-0.005906284,-0.037176155,0.00020325184,0.00079488754,0.0,0.0,0.0,0.0,0.0,0.0
3740000,3660000,8.7029985e-06,-4.5757843e-05,-0.020477455,-1.6516433e-06,-1.172562e-05,488.105,0.0,0.0,0.0,0.0,0.0,0.0,0.0,0.0,0.0,0.0,nan,0.0,0.0,0.0,0.0,0.0024421215,-0.00066019315,0.001383692,-0.005906284,-0.014154993,0.0101490915,0.0005145073,0.0,0.0,0.0,0.0,0.0,0.0
3748000,3668000,8.7029985e-06,-4.5757843e-05,-0.020477455,-1.6516433e-06,-1.172562e-05,488.105,0.0,0.0,0.0,0.0,0.0,0.0,0.0,0.0,0.0,0.0,nan,0.0,0.0,0.0,0.0,0.0024421215,-0.00066019315,0.001383692,-0.005906284,-0.017340256,0.03307222,0.0009903908,0.0,0.0,0.0,0.0,0.0,0.0
3756000,3676000,8.7029985e-06,-4.5757843e-05,-0.020477455,-1.6516433e-06,-1.172562e-05,488.105,0.0,0.0,0.0,0.0,0.0,0.0,0.0,0.0,0.0,0.0,nan,0.0,0.0,0.0,0.0,0.0024421215,-0.00066019315,0.001383692,-0.005906284,-0.01916411,0.007335469,0.0005707741,0.0,0.0,0.0,0.0,0.0,0.0
3764000,3684000,8.7029985e-06,-4.5757843e-05,-0.020477455,-1.6516433e-06,-1.172562e-05,488.105,0.0,0.0,0.0,0.0,0.0,0.0,0.0,0.0,0.0,0.0,nan,0.0,0.0,0.0,0.0,0.0024421215,-0.00066019315,0.001383692,-0.005906284,0.004971916,0.021558046,0.0002875328,0.0,0.0,0.0,0.0,0.0,0.0
3772000,3692000,8.7029985e-06,-4.5757843e-05,-0.020477455,-1.6516433e-06,-1.172562e-05,488.105,0.0,0.0,0.0,0.0,0.0,0.0,0.0,0.0,0.0,0.0,nan,0.0,0.0,0.0,0.0,-0.013355613,0.0027002096,-0.0012765527,-0.0036013424,-0.027017584,0.0016981065,0.000626564,0.0,0.0,0.0,0.0,0.0,0.0
3780000,3700000,8.7029985e-06,-4.5757843e-05,-0.020477455,-1.6516433e-06,-1.172562e-05,488.105,0.0,0.0,0.0,0.0,0.0,0.0,0.0,0.0,0.0,0.0,nan,0.0,0.0,0.0,0.0,-0.013355613,0.0027002096,-0.0012765527,-0.0036013424,-0.0292426,0.008298397,0.00080156326,0.0,0.0,0.0,0.0,0.0,0.0
3788000,3708000,8.7029985e-06,-4.5757843e-05,-0.020477455,-1.6516433e-06,-1.172562e-05,488.105,0.0,0.0,0.0,0.0,0.0,0.0,0.0,0.0,0.0,0.0,nan,0.0,0.0,0.0,0.0,-0.013355613,0.0027002096,-0.0012765527,-0.0036013424,0.016104376,0.008093759,-0.000228405,0.0,0.0,0.0,0.0,0.0,0.0
3796000,3716000,8.7029985e-06,-4.5757843e-05,-0.020477455,-1.6516433e-06,-1.172562e-05,488.105,0.0,0.0,0.0,0.0,0.0,0.0,0.0,0.0,0.0,0.0,nan,0.0,0.0,0.0,0.0,-0.013355613,0.0027002096,-0.0012765527,-0.0036013424,-0.013290361,-0.011746854,5.6266785e-05,0.0,0.0,0.0,0.0,0.0,0.0
3804000,3724000,8.7029985e-06,-4.5757843e-05,-0.020477455,-1.6516433e-06,-1.172562e-05,488.105,0.0,0.0,0.0,0.0,0.0,0.0,0.0,0.0,0.0,0.0,nan,0.0,0.0,0.0,0.0,-0.013355613,0.0027002096,-0.0012765527,-0.0036013424,-0.020698689,-0.0035883337,0.0003848076,0.0,0.0,0.0,0.0,0.0,0.0
3812000,3732000,9.688109e-05,0.0017054008,0.012058768,5.3732547e-06,0.00010190731,488.11014,0.0,0.0,0.0,0.0,0.0,0.0,0.0,0.0,0.0,0.0,nan,0.0,0.0,0.0,0.0,-0.013355613,0.0027002096,-0.0012765527,-0.0036013424,-0.012847044,-0.029655665,-0.00034999847,0.0,0.0,0.0,0.0,0.0,0.0
3820000,3740000,9.688109e-05,0.0017054008,0.012058768,5.3732547e-06,0.00010190731,488.11014,0.0,0.0,0.0,0.0,0.0,0.0,0.0,0.0,0.0,0.0,nan,0.0,0.0,0.0,0.0,-0.013355613,0.0027002096,-0.0012765527,-0.0036013424,-0.03053797,0.024051398,0.0011096001,0.0,0.0,0.0,0.0,0.0,0.0
3828000,3748000,9.688109e-05,0.0017054008,0.012058768,5.3732547e-06,0.00010190731,488.11014,0.0,0.0,0.0,0.0,0.0,0.0,0.0,0.0,0.0,0.0,nan,0.0,0.0,0.0,0.0,-0.013355613,0.0027002096,-0.0012765527,-0.0036013424,-0.00069316477,-0.01795362,-0.0003604889,0.0,0.0,0.0,0.0,0.0,0.0
3836000,3756000,9.688109e-05,0.0017054008,0.012058768,5.3732547e-06,0.00010190731,488.11014,0.0,0.0,0.0,0.0,0.0,0.0,0.0,0.0,0.0,0.0,nan,0.0,0.0,0.0,0.0,0.009511113,-0.0021091737,0.0067191273,-0.00010114908,-0.016563253,-0.0004936904,0.00036001205,0.0,0.0,0.0,0.0,0.0,0.0
3844000,3764000,9.688109e-05,0.0017054008,0.012058768,5.3732547e-06,0.00010190731,488.11014,0.0,0.0,0.0,0.0,0.0,0.0,0.0,0.0,0.0,0.0,nan,0.0,0.0,0.0,0.0,0.009511113,-0.0021091737,0.0067191273,-0.00010114908,-0.010127623,-0.010055572,2.2411346e-05,0.0,0.0,0.0,0.0,0.0,0.0
3852000,3772000,9.688109e-05,0.0017054008,0.012058768,5.3732547e-06,0.00010190731,488.11014,0.0,0.0,0.0,0.0,0.0,0.0,0.0,0.0,0.0,0.0,nan,0.0,0.0,0.0,0.0,0.009511113,-0.0021091737,0.0067191273,-0.00010114908,-0.022980455,0.016273707,0.0008196831,0.0,0.0,0.0,0.0,0.0,0.0
3860000,3780000,9.688109e-05,0.0017054008,0.012058768,5.3732547e-06,0.00010190731,488.11014,0.0,0.0,0.0,0.0,0.0,0.0,0.0,0.0,0.0,0.0,nan,0.0,0.0,0.0,0.0,0.009511113,-0.0021091737,0.0067191273,-0.00010114908,-0.020850852,0.015966564,0.00076913834,0.0,0.0,0.0,0.0,0.0,0.0
3868000,3788000,9.688109e-05,0.0017054008,0.012058768,5.3732547e-06,0.00010190731,488.11014,0.0,0.0,0.0,0.0,0.0,0.0,0.0,0.0,0.0,0.0,nan,0.0,0.0,0.0,0.0,0.009511113,-0.0021091737,0.0067191273,-0.00010114908,-0.02484168,-0.011251941,0.00031375885,0.0,0.0,0.0,0.0,0.0,0.0
3876000,3796000,9.688109e-05,0.0017054008,0.012058768,5.3732547e-06,0.00010190731,488.11014,0.0,0.0,0.0,0.0,0.0,0.0,0.0,0.0,0.0,0.0,nan,0.0,0.0,0.0,0.0,0.009511113,-0.0021091737,0.0067191273,-0.00010114908,-0.019814964,0.0031522065,0.0005054474,0.0,0.0,0.0,0.0,0.0,0.0
3884000,3804000,9.688109e-05,0.0017054008,0.012058768,5.3732547e-06,0.00010190731,488.11014,0.0,0.0,0.0,0.0,0.0,0.0,0.0,0.0,0.0,0.0,nan,0.0,0.0,0.0,0.0,0.009511113,-0.0021091737,0.0067191273,-0.00010114908,-0.005480036,0.020303622,0.0005121231,0.0,0.0,0.0,0.0,0.0,0.0
3892000,3812000,9.688109e-05,0.0017054008,0.012058768,5.3732547e-06,0.00010190731,488.11014,0.0,0.0,0.0,0.0,0.0,0.0,0.0,0.0,0.0,0.0,nan,0.0,0.0,0.0,0.0,0.009511113,-0.0021091737,0.0067191273,-0.00010114908,-0.011976816,0.013950646,0.0005431175,0.0,0.0,0.0,0.0,0.0,0.0
3900000,3820000,9.688109e-05,0.0017054008,0.012058768,5.3732547e-06,0.00010190731,488.11014,0.0,0.0,0.0,0.0,0.0,0.0,0.0,0.0,0.0,0.0,nan,0.0,0.0,0.0,0.0,0.009511113,-0.0021091737,0.0067191273,-0.00010114908,-0.016579207,0.030061439,0.00093364716,0.0,0.0,0.0,0.0,0.0,0.0
3908000,3828000,9.688109e-05,0.0017054008,0.012058768,5.3732547e-06,0.00010190731,488.11014,0.0,0.0,0.0,0.0,0.0,0.0,0.0,0.0,0.0,0.0,nan,0.0,0.0,0.0,0.0,-0.002887845,0.000560428,-0.00037322938,-0.001932621,0.009206144,0.014437124,6.055832e-05,0.0,0.0,0.0,0.0,0.0,0.0
3916000,3836000,9.688109e-05,0.0017054008,0.012058768,5.3732547e-06,0.00010190731,488.11014,0.0,0.0,0.0,0.0,0.0,0.0,0.0,0.0,0.0,0.0,nan,0.0,0.0,0.0,0.0,-0.002887845,0.000560428,-0.00037322938,-0.001932621,-0.026336761,0.019359365,0.0009560585,0.0,0.0,0.0,0.0,0.0,0.0
3924000,3844000,9.688109e-05,0.0017054008,0.012058768,5.3732547e-06,0.00010190731,488.11014,0.0,0.0,0.0,0.0,0.0,0.0,0.0,0.0,0.0,0.0,nan,0.0,0.0,0.0,0.0,-0.002887845,0.000560428,-0.00037322938,-0.001932621,-0.042023014,0.003561616,0.0009703636,0.0,0.0,0.0,0.0,0.0,0.0
3932000,3852000,9.688109e-05,0.0017054008,0.012058768,5.3732547e-06,0.00010190731,488.11014,0.0,0.0,0.0,0.0,0.0,0.0,0.0,0.0,0.0,0.0,nan,0.0,0.0,0.0,0.0,-0.002887845,0.000560428,-0.00037322938,-0.001932621,-0.056348417,-0.0062181056,0.0010404587,0.0,0.0,0.0,0.0,0.0,0.0
3940000,3860000,9.688109e-05,0.0017054008,0.012058768,5.3732547e-06,0.00010190731,488.11014,0.0,0.0,0.0,0.0,0.0,0.0,0.0,0.0,0.0,0.0,nan,0.0,0.0,0.0,0.0,-0.002887845,0.000560428,-0.00037322938,-0.001932621,-0.022395074,-0.0050836205,0.00039958954,0.0,0.0,0.0,0.0,0.0,0.0
3948000,3868000,9.688109e-05,0.0017054008,0.012058768,5.3732547e-06,0.00010190731,488.11014,0.0,0.0,0.0,0.0,0.0,0.0,0.0,0.0,0.0,0.0,nan,0.0,0.0,0.0,0.0,-0.002887845,0.000560428,-0.00037322938,-0.001932621,-0.010157641,0.017761871,0.0005764961,0.0,0.0,0.0,0.0,0.0,0.0
3956000,3876000,9.688109e-05,0.0017054008,0.012058768,5.3732547e-06,0.00010190731,488.11014,0.0,0.0,0.0,0.0,0.0,0.0,0.0,0.0,0.0,0.0,nan,0.0,0.0,0.0,0.0,-0.002887845,0.000560428,-0.00037322938,-0.001932621,0.00953244,0.0179656,0.00011634827,0.0,0.0,0.0,0.0,0.0,0.0
3964000,3884000,9.688109e-05,0.0017054008,0.012058768,5.3732547e-06,0.00010190731,488.11014,0.0,0.0,0.0,0.0,0.0,0.0,0.0,0.0,0.0,0.0,nan,0.0,0.0,0.0,0.0,-0.002887845,0.000560428,-0.00037322938,-0.001932621,-0.05999635,0.0010863543,0.0012631416,0.0,0.0,0.0,0.0,0.0,0.0
3972000,3892000,9.688109e-05,0.0017054008,0.012058768,5.3732547e-06,0.00010190731,488.11014,0.0,0.0,0.0,0.0,0.0,0.0,0.0,0.0,0.0,0.0,nan,0.0,0.0,0.0,0.0,-0.002887845,0.000560428,-0.00037322938,-0.001932621,-0.030891603,0.008143261,0.00084733963,0.0,0.0,0.0,0.0,0.0,0.0
3980000,3900000,9.688109e-05,0.0017054008,0.012058768,5.3732547e-06,0.00010190731,488.11014,0.0,0.0,0.0,0.0,0.0,0.0,0.0,0.0,0.0,0.0,nan,0.0,0.0,0.0,0.0,0.021057844,-0.0043629277,-0.0056322217,-0.0056076646,-0.027857168,0.025226891,0.0011029243,0.0,0.0,0.0,0.0,0.0,0.0
3988000,3908000,9.688109e-05,0.0017054008,0.012058768,5.3732547e-06,0.00010190731,488.11014,0.0,0.0,0.0,0.0,0.0,0.0,0.0,0.0,0.0,0.0,nan,0.0,0.0,0.0,0.0,0.021057844,-0.0043629277,-0.0056322217,-0.0056076646,-0.030419834,0.02403441,0.0011353493,0.0,0.0,0.0,0.0,0.0,0.0
3996000,3916000,9.688109e-05,0.0017054008,0.012058768,5.3732547e-06,0.00010190731,488.11014,0.0,0.0,0.0,0.0,0.0,0.0,0.0,0.0,0.0,0.0,nan,0.0,0.0,0.0,0.0,0.021057844,-0.0043629277,-0.0056322217,-0.0056076646,-0.017210316,-0.0026600957,0.00032901764,0.0,0.0,0.0,0.0,0.0,0.0
4004000,3924000,9.688109e-05,0.0017054008,0.012058768,5.3732547e-06,0.00010190731,488.11014,0.0,0.0,0.0,0.0,0.0,0.0,0.0,0.0,0.0,0.0,nan,0.0,0.0,0.0,0.0,0.021057844,-0.0043629277,-0.0056322217,-0.0056076646,-0.0058333706,-0.031175062,-0.00054073334,0.0,0.0,0.0,0.0,0.0,0.0
4012000,3932000,9.688109e-05,0.0017054008,0.012058768,5.3732547e-06,0.00010190731,488.11014,0.0,0.0,0.0,0.0,0.0,0.0,0.0,0.0,0.0,0.0,nan,0.0,0.0,0.0,0.0,0.021057844,-0.0043629277,-0.0056322217,-0.0056076646,0.006742431,-0.014882997,-0.00046873093,0.0,0.0,0.0,0.0,0.0,0.0
4020000,3940000,9.688109e-05,0.0017054008,0.012058768,5.3732547e-06,0.00010190731,488.11014,0.0,0.0,0.0,0.0,0.0,0.0,0.0,0.0,0.0,0.0,nan,0.0,0.0,0.0,0.0,0.021057844,-0.0043629277,-0.0056322217,-0.0056076646,-0.01314863,0.017644405,0.00063467026,0.0,0.0,0.0,0.0,0.0,0.0
4028000,3948000,9.688109e-05,0.0017054008,0.012058768,5.3732547e-06,0.00010190731,488.11014,0.0,0.0,0.0,0.0,0.0,0.0,0.0,0.0,0.0,0.0,nan,0.0,0.0,0.0,0.0,0.021057844,-0.0043629277,-0.0056322217,-0.0056076646,-0.004609473,0.0207797,0.0004968643,0.0,0.0,0.0,0.0,0.0,0.0
4036000,3956000,9.688109e-05,0.0017054008,0.012058768,5.3732547e-06,0.00010190731,488.11014,0.0,0.0,0.0,0.0,0.0,0.0,0.0,0.0,0.0,0.0,nan,0.0,0.0,0.0,0.0,0.021057844,-0.0043629277,-0.0056322217,-0.0056076646,-0.0013358667,-0.013623804,-0.00025081635,0.0,0.0,0.0,0.0,0.0,0.0
4044000,3964000,9.688109e-05,0.0017054008,0.012058768,5.3732547e-06,0.00010190731,488.11014,0.0,0.0,0.0,0.0,0.0,0.0,0.0,0.0,0.0,0.0,nan,0.0,0.0,0.0,0.0,0.021057844,-0.0043629277,-0.0056322217,-0.0056076646,0.0011471715,-0.0018328428,-6.2942505e-05,0.0,0.0,0.0,0.0,0.0,0.0
4052000,3972000,9.688109e-05,0.0017054008,0.012058768,5.3732547e-06,0.00010190731,488.11014,0.0,0.0,0.0,0.0,0.0,0.0,0.0,0.0,0.0,0.0,nan,0.0,0.0,0.0,0.0,0.004864335,-0.0010131095,-0.0028284043,-0.0017119348,-0.010062285,0.006669104,0.00035953522,0.0,0.0,0.0,0.0,0.0,0.0
4060000,3980000,9.688109e-05,0.0017054008,0.012058768,5.3732547e-06,0.00010190731,488.11014,0.0,0.0,0.0,0.0,0.0,0.0,0.0,0.0,0.0,0.0,nan,0.0,0.0,0.0,0.0,0.004864335,-0.0010131095,-0.0028284043,-0.0017119348,-0.007006757,-0.0020671338,0.000118255615,0.0,0.0,0.0,0.0,0.0,0.0
4068000,3988000,9.688109e-05,0.0017054008,0.012058768,5.3732547e-06,0.00010190731,488.11014,0.0,0.0,0.0,0.0,0.0,0.0,0.0,0.0,0.0,0.0,nan,0.0,0.0,0.0,0.0,0.004864335,-0.0010131095,-0.0028284043,-0.0017119348,-0.009024071,0.00942792,0.00038814545,0.0,0.0,0.0,0.0,0.0,0.0
4076000,3996000,9.688109e-05,0.0017054008,0.012058768,5.3732547e-06,0.00010190731,488.11014,0.0,0.0,0.0,0.0,0.0,0.0,0.0,0.0,0.0,0.0,nan,0.0,0.0,0.0,0.0,0.004864335,-0.0010131095,-0.0028284043,-0.0017119348,-0.009352608,-0.009637266,1.4781952e-05,0.0,0.0,0.0,0.0,0.0,0.0
4084000,4004000,9.688109e-05,0.0017054008,0.012058768,5.3732547e-06,0.00010190731,488.11014,0.0,0.0,0.0,0.0,0.0,0.0,0.0,0.0,0.0,0.0,nan,0.0,0.0,0.0,0.0,0.004864335,-0.0010131095,-0.0028284043,-0.0017119348,-0.025122458,-0.014320552,0.00025367737,0.0,0.0,0.0,0.0,0.0,0.0
4092000,4012000,9.688109e-05,0.0017054008,0.012058768,5.3732547e-06,0.00010190731,488.11014,0.0,0.0,0.0,0.0,0.0,0.0,0.0,0.0,0.0,0.0,nan,0.0,0.0,0.0,0.0,0.004864335,-0.0010131095,-0.0028284043,-0.0017119348,0.0057177637,0.0024854988,-8.4877014e-05,0.0,0.0,0.0,0.0,0.0,0.0
4100000,4020000,9.688109e-05,0.0017054008,0.012058768,5.3732547e-06,0.00010190731,488.11014,0.0,0.0,0.0,0.0,0.0,0.0,0.0,0.0,0.0,0.0,nan,0.0,0.0,0.0,0.0,0.004864335,-0.0010131095,-0.0028284043,-0.0017119348,-0.00918559,0.026945308,0.00071144104,0.0,0.0,0.0,0.0,0.0,0.0
4108000,4028000,9.688109e-05,0.0017054008,0.012058768,5.3732547e-06,0.00010190731,488.11014,0.0,0.0,0.0,0.0,0.0,0.0,0.0,0.0,0.0,0.0,nan,0.0,0.0,0.0,0.0,0.004864335,-0.0010131095,-0.0028284043,-0.0017119348,0.0031939875,0.00072187185,-6.1035156e-05,0.0,0.0,0.0,0.0,0.0,0.0
4116000,4036000,9.688109e-05,0.0017054008,0.012058768,5.3732547e-06,0.00010190731,488.11014,0.0,0.0,0.0,0.0,0.0,0.0,0.0,0.0,0.0,0.0,nan,0.0,0.0,0.0,0.0,0.0029480457,-0.000673797,0.004371956,2.1159649e-05,-0.0034252275,0.024119273,0.00053453445,0.0,0.0,0.0,0.0,0.0,0.0
4124000,4044000,9.688109e-05,0.0017054008,0.012058768,5.3732547e-06,0.00010190731,488.11014,0.0,0.0,0.0,0.0,0.0,0.0,0.0,8.047558e-06,0.0,0.0,nan,0.0,0.0,0.0,0.0,0.0029480457,-0.000673797,0.004371956,2.1159649e-05,-0.017867995,-0.02213876,-6.914139e-05,0.0,0.0,0.0,0.0,0.0,0.0
4132000,4052000,9.688109e-05,0.0017054008,0.012058768,5.3732547e-06,0.00010190731,488.11014,0.0,0.0,0.0,0.0,0.0,0.0,0.0,8.047558e-06,0.0,0.0,nan,0.0,0.0,0.0,0.0,0.0029480457,-0.000673797,0.004371956,2.1159649e-05,0.0004349053,0.010062352,0.00018548965,0.0,0.0,0.0,0.0,0.0,0.0
4140000,4060000,9.688109e-05,0.0017054008,0.012058768,5.3732547e-06,0.00010190731,488.11014,0.0,0.0,0.0,0.0,0.0,0.0,0.0,8.047558e-06,0.0,0.0,nan,0.0,0.0,0.0,0.0,0.0029480457,-0.000673797,0.004371956,2.1159649e-05,-0.0076850187,0.022262737,0.00059747696,0.0,0.0,0.0,0.0,0.0,0.0
4148000,4068000,9.688109e-05,0.0017054008,0.012058768,5.3732547e-06,0.00010190731,488.11014,0.0,0.0,0.0,0.0,0.0,0.0,0.0,8.047558e-06,0.0,0.0,nan,0.0,0.0,0.0,0.0,0.0029480457,-0.000673797,0.004371956,2.1159649e-05,0.0013756864,0.0058744103,8.2969666e-05,0.0,0.0,0.0,0.0,0.0,0.0
4156000,4076000,9.688109e-05,0.0017054008,0.012058768,5.3732547e-06,0.00010190731,488.11014,0.0,0.0,0.0,0.0,0.0,0.0,0.0,8.047558e-06,0.0,0.0,nan,0.0,0.0,0.0,0.0,0.0029480457,-0.000673797,0.004371956,2.1159649e-05,0.0011079498,0.00038081408,-1.9073486e-05,0.0,0.0,0.0,0.0,0.0,0.0
4164000,4084000,9.688109e-05,0.0017054008,0.012058768,5.3732547e-06,0.00010190731,488.11014,0.0,0.0,0.0,0.0,0.0,0.0,0.0,8.047558e-06,0.0,0.0,nan,0.0,0.0,0.0,0.0,0.0029480457,-0.000673797,0.004371956,2.1159649e-05,-0.01785523,-0.0058119744,0.0002822876,0.0,0.0,0.0,0.0,0.0,0.0
4172000,4092000,9.688109e-05,0.0017054008,0.012058768,5.3732547e-06,0.00010190731,488.11014,0.0,0.0,0.0,0.0,0.0,0.0,0.0,8.047558e-06,0.0,0.0,nan,0.0,0.0,0.0,0.0,0.0029480457,-0.000673797,0.004371956,2.1159649e-05,-0.02215872,0.022071734,0.00091409683,0.0,0.0,0.0,0.0,0.0,0.0
4180000,4100000,9.688109e-05,0.0017054008,0.012058768,5.3732547e-06,0.00010190731,488.11014,0.0,0.0,0.0,0.0,0.0,0.0,0.0,8.047558e-06,0.0,0.0,nan,0.0,0.0,0.0,0.0,0.0029480457,-0.000673797,0.004371956,2.1159649e-05,-0.012081156,0.0241324,0.00073337555,0.0,0.0,0.0,0.0,0.0,0.0
4188000,4108000,9.688109e-05,0.0017054008,0.012058768,5.3732547e-06,0.00010190731,488.11014,0.0,0.0,0.0,0.0,0.0,0.0,0.0,-0.0337996,0.0,0.0,nan,0.0,0.0,0.0,0.0,-0.017778635,0.0036551934,-0.0012586862,-0.0021112561,-0.028480833,0.021546483,0.0010375977,0.0,0.0,0.0,0.0,0.0,0.0
4196000,4116000,9.688109e-05,0.0017054008,0.012058768,5.3732547e-06,0.00010190731,488.11014,0.0,0.0,0.0,0.0,0.0,0.0,0.0,-0.0337996,0.0,0.0,nan,0.0,0.0,0.0,0.0,-0.017778635,0.0036551934,-0.0012586862,-0.0021112561,-0.0077930056,-0.008350655,6.198883e-06,0.0,0.0,0.0,0.0,0.0,0.0
4204000,4124000,0.00037573354,-0.00873179,-0.021943705,2.6829732e-05,8.395512e-05,-9.094202e-05,0.0,0.0,0.0,0.0,0.0,0.0,0.0,-0.0337996,0.0,0.0,nan,0.0,0.0,0.0,0.0,-0.017778635,0.0036551934,-0.0012586862,-0.0021112561,-0.022695834,-0.039226696,-0.00037193298,0.0,0.0,0.0,0.0,0.0,0.0
4212000,4132000,0.00037573354,-0.00873179,-0.021943705,2.6829732e-05,8.395512e-05,-9.094202e-05,0.0,0.0,0.0,0.0,0.0,0.0,0.0,-0.0337996,0.0,0.0,nan,0.0,0.0,0.0,0.0,-0.017778635,0.0036551934,-0.0012586862,-0.0021112561,-0.0055461954,-0.020442799,-0.00030517578,0.0,0.0,0.0,0.0,0.0,0.0
4220000,4140000,0.00037573354,-0.00873179,-0.021943705,2.6829732e-05,8.395512e-05,-9.094202e-05,0.0,0.0,0.0,0.0,0.0,0.0,0.0,-0.0337996,0.0,0.0,nan,0.0,0.0,0.0,0.0,-0.017778635,0.0036551934,-0.0012586862,-0.0021112561,-0.009925315,-0.0113554895,-1.66893e-05,0.0,0.0,0.0,0.0,0.0,0.0
4228000,4148000,0.00037573354,-0.00873179,-0.021943705,2.6829732e-05,8.395512e-05,-9.094202e-05,0.0,0.0,0.0,0.0,0.0,0.0,0.0,-0.0337996,0.0,0.0,nan,0.0,0.0,0.0,0.0,-0.017778635,0.0036551934,-0.0012586862,-0.0021112561,-0.019018358,0.0054422617,0.00051546097,0.0,0.0,0.0,0.0,0.0,0.0
4236000,4156000,0.00037573354,-0.00873179,-0.021943705,2.6829732e-05,8.395512e-05,-9.094202e-05,0.0,0.0,0.0,0.0,0.0,0.0,0.0,-0.0337996,0.0,0.0,nan,0.0,0.0,0.0,0.0,-0.017778635,0.0036551934,-0.0012586862,-0.0021112561,-0.026243843,0.012606025,0.00079488754,0.0,0.0,0.0,0.0,0.0,0.0
4244000,4164000,0.00037573354,-0.00873179,-0.021943705,2.6829732e-05,8.395512e-05,-9.094202e-05,0.0,0.0,0.0,0.0,0.0,0.0,0.0,-0.21209706,0.0,0.0,nan,0.0,0.0,0.0,0.0,-0.017778635,0.0036551934,-0.0012586862,-0.0021112561,-0.0034459252,-0.006313175,-5.054474e-05,0.0,0.0,0.0,0.0,0.0,0.0
4252000,4172000,0.00037573354,-0.00873179,-0.021943705,2.6829732e-05,8.395512e-05,-9.094202e-05,0.0,0.0,0.0,0.0,0.0,0.0,0.0,-0.21209706,0.0,0.0,nan,0.0,0.0,0.0,0.0,-0.017778635,0.0036551934,-0.0012586862,-0.0021112561,0.023362469,-0.012638167,-0.00081014633,0.0,0.0,0.0,0.0,0.0,0.0
4260000,4180000,0.00037573354,-0.00873179,-0.021943705,2.6829732e-05,8.395512e-05,-9.094202e-05,0.0,0.0,0.0,0.0,0.0,0.0,0.0,-0.21209706,0.0,0.0,nan,0.0,0.0,0.0,0.0,0.010235667,-0.0021273745,-0.004235074,-0.0032928586,0.007599693,0.0007619411,-0.00015926361,0.0,0.0,0.0,0.0,0.0,0.0
4268000,4188000,0.00037573354,-0.00873179,-0.021943705,2.6829732e-05,8.395512e-05,-9.094202e-05,0.0,0.0,0.0,0.0,0.0,0.0,0.0,-0.21209706,0.0,0.0,nan,0.0,0.0,0.0,0.0,0.010235667,-0.0021273745,-0.004235074,-0.0032928586,0.004484197,-0.01778686,-0.0004711151,0.0,0.0,0.0,0.0,0.0,0.0
4276000,4196000,0.00037573354,-0.00873179,-0.021943705,2.6829732e-05,8.395512e-05,-9.094202e-05,0.0,0.0,0.0,0.0,0.0,0.0,0.0,-0.21209706,0.0,0.0,nan,0.0,0.0,0.0,0.0,0.010235667,-0.0021273745,-0.004235074,-0.0032928586,-0.035844803,-0.009756252,0.00054073334,0.0,0.0,0.0,0.0,0.0,0.0
4284000,4204000,0.00037573354,-0.00873179,-0.021943705,2.6829732e-05,8.395512e-05,-9.094202e-05,0.0,0.0,0.0,0.0,0.0,0.0,0.0,-0.21209706,0.0,0.0,nan,0.0,0.0,0.0,0.0,0.010235667,-0.0021273745,-0.004235074,-0.0032928586,-0.014350658,0.015528679,0.00060892105,0.0,0.0,0.0,0.0,0.0,0.0
4292000,4212000,0.00037573354,-0.00873179,-0.021943705,2.6829732e-05,8.395512e-05,-9.094202e-05,0.0,0.0,0.0,0.0,0.0,0.0,0.0,-0.21209706,0.0,0.0,nan,0.0,0.0,0.0,0.0,0.010235667,-0.0021273745,-0.004235074,-0.0032928586,-0.018037597,0.014925599,0.0006737709,0.0,0.0,0.0,0.0,0.0,0.0
4300000,4220000,0.00037573354,-0.00873179,-0.021943705,2.6829732e-05,8.395512e-05,-9.094202e-05,0.0,0.0,0.0,0.0,0.0,0.0,0.0,-0.21209706,0.0,0.0,nan,0.0,0.0,0.0,0.0,0.010235667,-0.0021273745,-0.004235074,-0.0032928586,-0.03235534,-0.0025024414,0.00062322617,0.0,0.0,0.0,0.0,0.0,0.0
4308000,4228000,0.00037573354,-0.00873179,-0.021943705,2.6829732e-05,8.395512e-05,-9.094202e-05,0.0,0.0,0.0,0.0,0.0,0.0,0.0,0.04574517,0.0,0.0,nan,0.0,0.0,0.0,0.0,0.010235667,-0.0021273745,-0.004235074,-0.0032928586,-0.018032353,0.0005365759,0.00039863586,0.0,0.0,0.0,0.0,0.0,0.0
4316000,4236000,0.00037573354,-0.00873179,-0.021943705,2.6829732e-05,8.395512e-05,-9.094202e-05,0.0,0.0,0.0,0.0,0.0,0.0,0.0,0.04574517,0.0,0.0,nan,0.0,0.0,0.0,0.0,0.010235667,-0.0021273745,-0.004235074,-0.0032928586,-0.023236748,0.011474311,0.00071668625,0.0,0.0,0.0,0.0,0.0,0.0
4324000,4244000,0.00037573354,-0.00873179,-0.021943705,2.6829732e-05,8.395512e-05,-9.094202e-05,0.0,0.0,0.0,0.0,0.0,0.0,0.0,0.04574517,0.0,0.0,nan,0.0,0.0,0.0,0.0,0.010235667,-0.0021273745,-0.004235074,-0.0032928586,-0.002626121,0.033787087,0.00066947937,0.0,0.0,0.0,0.0,0.0,0.0
4332000,4252000,0.00037573354,-0.00873179,-0.021943705,2.6829732e-05,8.395512e-05,-9.094202e-05,0.0,0.0,0.0,0.0,0.0,0.0,0.0,0.04574517,0.0,0.0,nan,0.0,0.0,0.0,0.0,0.0015739202,-0.0003389446,-0.00032389164,-0.0006258786,-0.008333381,0.011180177,0.00039815903,0.0,0.0,0.0,0.0,0.0,0.0
4340000,4260000,0.00037573354,-0.00873179,-0.021943705,2.6829732e-05,8.395512e-05,-9.094202e-05,0.0,0.0,0.0,0.0,0.0,0.0,0.0,0.04574517,0.0,0.0,nan,0.0,0.0,0.0,0.0,0.0015739202,-0.0003389446,-0.00032389164,-0.0006258786,-0.019122941,0.00046481192,0.00042152405,0.0,0.0,0.0,0.0,0.0,0.0
4348000,4268000,0.00037573354,-0.00873179,-0.021943705,2.6829732e-05,8.395512e-05,-9.094202e-05,0.0,0.0,0.0,0.0,0.0,0.0,0.0,0.04574517,0.0,0.0,nan,0.0,0.0,0.0,0.0,0.0015739202,-0.0003389446,-0.00032389164,-0.0006258786,-0.019320954,-0.031021938,-0.000248909,0.0,0.0,0.0,0.0,0.0,0.0
4356000,4276000,0.00037573354,-0.00873179,-0.021943705,2.6829732e-05,8.395512e-05,-9.094202e-05,0.0,0.0,0.0,0.0,0.0,0.0,0.0,0.04574517,0.0,0.0,nan,0.0,0.0,0.0,0.0,0.0015739202,-0.0003389446,-0.00032389164,-0.0006258786,0.015907023,-0.006532386,-0.00050258636,0.0,0.0,0.0,0.0,0.0,0.0
4364000,4284000,0.00037573354,-0.00873179,-0.021943705,2.6829732e-05,8.395512e-05,-9.094202e-05,0.0,0.0,0.0,0.0,0.0,0.0,0.0,-0.026426505,0.0,0.0,nan,0.0,0.0,0.0,0.0,0.0015739202,-0.0003389446,-0.00032389164,-0.0006258786,-0.020771004,-0.0053263754,0.0003399849,0.0,0.0,0.0,0.0,0.0,0.0
4372000,4292000,0.00037573354,-0.00873179,-0.021943705,2.6829732e-05,8.395512e-05,-9.094202e-05,0.0,0.0,0.0,0.0,0.0,0.0,0.0,-0.026426505,0.0,0.0,nan,0.0,0.0,0.0,0.0,0.0015739202,-0.0003389446,-0.00032389164,-0.0006258786,-0.009583045,0.015434787,0.0005054474,0.0,0.0,0.0,0.0,0.0,0.0
4380000,4300000,0.00037573354,-0.00873179,-0.021943705,2.6829732e-05,8.395512e-05,-9.094202e-05,0.0,0.0,0.0,0.0,0.0,0.0,0.0,-0.026426505,0.0,0.0,nan,0.0,0.0,0.0,0.0,0.0015739202,-0.0003389446,-0.00032389164,-0.0006258786,-0.006615516,0.015717119,0.00044584274,0.0,0.0,0.0,0.0,0.0,0.0
4388000,4308000,0.00037573354,-0.00873179,-0.021943705,2.6829732e-05,8.395512e-05,-9.094202e-05,0.0,0.0,0.0,0.0,0.0,0.0,0.0,-0.026426505,0.0,0.0,nan,0.0,0.0,0.0,0.0,0.0015739202,-0.0003389446,-0.00032389164,-0.0006258786,-0.0061667003,0.00013244152,0.00013875961,0.0,0.0,0.0,0.0,0.0,0.0
4396000,4316000,0.00037573354,-0.00873179,-0.021943705,2.6829732e-05,8.395512e-05,-9.094202e-05,0.0,0.0,0.0,0.0,0.0,0.0,0.0,-0.026426505,0.0,0.0,nan,0.0,0.0,0.0,0.0,0.0015739202,-0.0003389446,-0.00032389164,-0.0006258786,0.0038857572,-0.013102844,-0.00035762787,0.0,0.0,0.0,0.0,0.0,0.0
4404000,4324000,0.00037573354,-0.00873179,-0.021943705,2.6829732e-05,8.395512e-05,-9.094202e-05,0.0,0.0,0.0,0.0,0.0,0.0,0.0,-0.026426505,0.0,0.0,nan,0.0,0.0,0.0,0.0,-0.017669559,0.0037091682,0.0013459921,0.00035753846,0.02510046,0.013735503,-0.00034189224,0.0,0.0,0.0,0.0,0.0,0.0
4412000,4332000,0.00037573354,-0.00873179,-0.021943705,2.6829732e-05,8.395512e-05,-9.094202e-05,0.0,0.0,0.0,0.0,0.0,0.0,0.0,0.031157313,0.0,0.0,nan,0.0,0.0,0.0,0.0,-0.017669559,0.0037091682,0.0013459921,0.00035753846,0.016694333,0.007944852,-0.00022888184,0.0,0.0,0.0,0.0,0.0,0.0
4420000,4340000,0.00037573354,-0.00873179,-0.021943705,2.6829732e-05,8.395512e-05,-9.094202e-05,0.0,0.0,0.0,0.0,0.0,0.0,0.0,0.031157313,0.0,0.0,nan,0.0,0.0,0.0,0.0,-0.017669559,0.0037091682,0.0013459921,0.00035753846,-0.012969486,0.0069541186,0.00041007996,0.0,0.0,0.0,0.0,0.0,0.0
4428000,4348000,0.00037573354,-0.00873179,-0.021943705,2.6829732e-05,8.395512e-05,-9.094202e-05,0.0,0.0,0.0,0.0,0.0,0.0,0.0,0.031157313,0.0,0.0,nan,0.0,0.0,0.0,0.0,-0.017669559,0.0037091682,0.0013459921,0.00035753846,0.0021968912,0.01837638,0.0002951622,0.0,0.0,0.0,0.0,0.0,0.0
4436000,4356000,0.00037573354,-0.00873179,-0.021943705,2.6829732e-05,8.395512e-05,-9.094202e-05,0.0,0.0,0.0,0.0,0.0,0.0,0.0,0.031157313,0.0,0.0,nan,0.0,0.0,0.0,0.0,-0.017669559,0.0037091682,0.0013459921,0.00035753846,0.0014502257,0.013516873,0.00022315979,0.0,0.0,0.0,0.0,0.0,0.0
4444000,4364000,0.00037573354,-0.00873179,-0.021943705,2.6829732e-05,8.395512e-05,-9.094202e-05,0.0,0.0,0.0,0.0,0.0,0.0,0.0,0.031157313,0.0,0.0,nan,0.0,0.0,0.0,0.0,-0.017669559,0.0037091682,0.0013459921,0.00035753846,-0.00724715,0.00669311,0.00028514862,0.0,0.0,0.0,0.0,0.0,0.0
4452000,4372000,0.00037573354,-0.00873179,-0.021943705,2.6829732e-05,8.395512e-05,-9.094202e-05,0.0,0.0,0.0,0.0,0.0,0.0,0.0,0.031157313,0.0,0.0,nan,0.0,0.0,0.0,0.0,-0.017669559,0.0037091682,0.0013459921,0.00035753846,-0.032306194,-0.0108511,0.00043916702,0.0,0.0,0.0,0.0,0.0,0.0
4460000,4380000,0.00037573354,-0.00873179,-0.021943705,2.6829732e-05,8.395512e-05,-9.094202e-05,0.0,0.0,0.0,0.0,0.0,0.0,0.0,0.031157313,0.0,0.0,nan,0.0,0.0,0.0,0.0,-0.017669559,0.0037091682,0.0013459921,0.00035753846,0.0002465397,0.021081388,0.00038433075,0.0,0.0,0.0,0.0,0.0,0.0
4468000,4388000,0.00037573354,-0.00873179,-0.021943705,2.6829732e-05,8.395512e-05,-9.094202e-05,0.0,0.0,0.0,0.0,0.0,0.0,0.0,0.031157313,0.0,0.0,nan,0.0,0.0,0.0,0.0,-0.017669559,0.0037091682,0.0013459921,0.00035753846,-0.016174426,0.006605059,0.00046873093,0.0,0.0,0.0,0.0,0.0,0.0
4476000,4396000,0.00037573354,-0.00873179,-0.021943705,2.6829732e-05,8.395512e-05,-9.094202e-05,0.0,0.0,0.0,0.0,0.0,0.0,0.0,-0.06915407,0.0,0.0,nan,0.0,0.0,0.0,0.0,-0.009798408,0.0020333081,-0.0015976578,-0.00057420135,-0.048668012,-0.011436328,0.0007171631,0.0,0.0,0.0,0.0,0.0,0.0
4484000,4404000,0.00037573354,-0.00873179,-0.021943705,2.6829732e-05,8.395512e-05,-9.094202e-05,0.0,0.0,0.0,0.0,0.0,0.0,0.0,-0.06915407,0.0,0.0,nan,0.0,0.0,0.0,0.0,-0.009798408,0.0020333081,-0.0015976578,-0.00057420135,-0.00691003,0.017548665,0.00047779083,0.0,0.0,0.0,0.0,0.0,0.0
4492000,4412000,0.00037573354,-0.00873179,-0.021943705,2.6829732e-05,8.395512e-05,-9.094202e-05,0.0,0.0,0.0,0.0,0.0,0.0,0.0,-0.06915407,0.0,0.0,nan,0.0,0.0,0.0,0.0,-0.009798408,0.0020333081,-0.0015976578,-0.00057420135,-0.01146134,-0.0027610362,0.00018978119,0.0,0.0,0.0,0.0,0.0,0.0
4500000,4420000,0.00037573354,-0.00873179,-0.021943705,2.6829732e-05,8.395512e-05,-9.094202e-05,0.0,0.0,0.0,0.0,0.0,0.0,0.0,-0.06915407,0.0,0.0,nan,0.0,0.0,0.0,0.0,-0.009798408,0.0020333081,-0.0015976578,-0.00057420135,0.0010987427,0.0026862174,2.8133392e-05,0.0,0.0,0.0,0.0,0.0,0.0
4508000,4428000,0.00037573354,-0.00873179,-0.021943705,2.6829732e-05,8.395512e-05,-9.094202e-05,0.0,0.0,0.0,0.0,0.0,0.0,0.0,-0.06915407,0.0,0.0,nan,0.0,0.0,0.0,0.0,-0.009798408,0.0020333081,-0.0015976578,-0.00057420135,0.0019242875,0.019911036,0.00032949448,0.0,0.0,0.0,0.0,0.0,0.0
4516000,4436000,0.00037573354,-0.00873179,-0.021943705,2.6829732e-05,8.395512e-05,-9.094202e-05,0.0,0.0,0.0,0.0,0.0,0.0,0.0,-0.06915407,0.0,0.0,nan,0.0,0.0,0.0,0.0,-0.009798408,0.0020333081,-0.0015976578,-0.00057420135,-0.014380824,0.01075083,0.0005121231,0.0,0.0,0.0,0.0,0.0,0.0
4524000,4444000,0.00037573354,-0.00873179,-0.021943705,2.6829732e-05,8.395512e-05,-9.094202e-05,0.0,0.0,0.0,0.0,0.0,0.0,0.0,-0.06915407,0.0,0.0,nan,0.0,0.0,0.0,0.0,-0.009798408,0.0020333081,-0.0015976578,-0.00057420135,-0.006729264,0.02498956,0.0006055832,0.0,0.0,0.0,0.0,0.0,0.0
4532000,4452000,0.00037573354,-0.00873179,-0.021943705,2.6829732e-05,8.395512e-05,-9.094202e-05,0.0,0.0,0.0,0.0,0.0,0.0,0.0,0.0054016686,0.0,0.0,nan,0.0,0.0,0.0,0.0,-0.009798408,0.0020333081,-0.0015976578,-0.00057420135,-0.010885045,0.012466595,0.00047063828,0.0,0.0,0.0,0.0,0.0,0.0
4540000,4460000,0.00037573354,-0.00873179,-0.021943705,2.6829732e-05,8.395512e-05,-9.094202e-05,0.0,0.0,0.0,0.0,0.0,0.0,0.0,0.0054016686,0.0,0.0,nan,0.0,0.0,0.0,0.0,-0.009798408,0.0020333081,-0.0015976578,-0.00057420135,0.004780138,-0.013230354,-0.00037765503,0.0,0.0,0.0,0.0,0.0,0.0
4548000,4468000,0.00037573354,-0.00873179,-0.021943705,2.6829732e-05,8.395512e-05,-9.094202e-05,0.0,0.0,0.0,0.0,0.0,0.0,0.0,0.0054016686,0.0,0.0,nan,0.0,0.0,0.0,0.0,-0.007380247,0.0016564885,0.0032027662,0.005384952,0.012824291,0.009843856,-0.00010251999,0.0,0.0,0.0,0.0,0.0,0.0
4556000,4476000,0.00037573354,-0.00873179,-0.021943705,2.6829732e-05,8.395512e-05,-9.094202e-05,0.0,0.0,0.0,0.0,0.0,0.0,0.0,0.0054016686,0.0,0.0,nan,0.0,0.0,0.0,0.0,-0.007380247,0.0016564885,0.0032027662,0.005384952,0.015384123,0.015132636,-6.484985e-05,0.0,0.0,0.0,0.0,0.0,0.0
4564000,4484000,0.00037573354,-0.00873179,-0.021943705,2.6829732e-05,8.395512e-05,-9.094202e-05,0.0,0.0,0.0,0.0,0.0,0.0,0.0,0.0054016686,0.0,0.0,nan,0.0,0.0,0.0,0.0,-0.007380247,0.0016564885,0.0032027662,0.005384952,0.019717017,-0.0028472692,-0.00051164627,0.0,0.0,0.0,0.0,0.0,0.0
4572000,4492000,0.00037573354,-0.00873179,-0.021943705,2.6829732e-05,8.395512e-05,-9.094202e-05,0.0,0.0,0.0,0.0,0.0,0.0,0.0,0.0054016686,0.0,0.0,nan,0.0,0.0,0.0,0.0,-0.007380247,0.0016564885,0.0032027662,0.005384952,0.0044251885,-0.0025034398,-0.00014829636,0.0,0.0,0.0,0.0,0.0,0.0
4580000,4500000,0.00037573354,-0.00873179,-0.021943705,2.6829732e-05,8.395512e-05,-9.094202e-05,0.0,0.0,0.0,0.0,0.0,0.0,0.0,0.0054016686,0.0,0.0,nan,0.0,0.0,0.0,0.0,-0.007380247,0.0016564885,0.0032027662,0.005384952,0.009546258,-0.009975582,-0.00041675568,0.0,0.0,0.0,0.0,0.0,0.0
4588000,4508000,0.00037573354,-0.00873179,-0.021943705,2.6829732e-05,8.395512e-05,-9.094202e-05,0.0,0.0,0.0,0.0,0.0,0.0,0.0,0.0054016686,0.0,0.0,nan,0.0,0.0,0.0,0.0,-0.007380247,0.0016564885,0.0032027662,0.005384952,-0.004614936,0.021658927,0.00050258636,0.0,0.0,0.0,0.0,0.0,0.0
4596000,4516000,0.00037573354,-0.00873179,-0.021943705,2.6829732e-05,8.395512e-05,-9.094202e-05,0.0,0.0,0.0,0.0,0.0,0.0,0.0,-0.075408705,0.0,0.0,nan,0.0,0.0,0.0,0.0,-0.007380247,0.0016564885,0.0032027662,0.005384952,-0.0068028383,0.036345795,0.0007944107,0.0,0.0,0.0,0.0,0.0,0.0
4604000,4524000,0.00037573354,-0.00873179,-0.021943705,2.6829732e-05,8.395512e-05,-9.094202e-05,0.0,0.0,0.0,0.0,0.0,0.0,0.0,-0.075408705,0.0,0.0,nan,0.0,0.0,0.0,0.0,-0.007380247,0.0016564885,0.0032027662,0.005384952,0.0016339459,0.035748303,0.0006008148,0.0,0.0,0.0,0.0,0.0,0.0
4612000,4532000,-0.018059332,-0.008564442,0.027682938,0.0001818285,-0.0072108093,-0.0019342834,0.0,0.0,0.0,0.0,0.0,0.0,0.0,-0.075408705,0.0,0.0,nan,0.0,0.0,0.0,0.0,-0.007380247,0.0016564885,0.0032027662,0.005384952,0.0014162157,0.003561154,3.862381e-05,0.0,0.0,0.0,0.0,0.0,0.0
4620000,4540000,-0.018059332,-0.008564442,0.027682938,0.0001818285,-0.0072108093,-0.0019342834,0.0,0.0,0.0,0.0,0.0,0.0,0.0,-0.075408705,0.0,0.0,nan,0.0,0.0,0.0,0.0,-0.003815651,0.0007390976,-0.00026476383,-0.0027351081,0.006126767,-0.013262808,-0.00040340424,0.0,0.0,0.0,0.0,0.0,0.0
4628000,4548000,-0.018059332,-0.008564442,0.027682938,0.0001818285,-0.0072108093,-0.0019342834,0.0,0.0,0.0,0.0,0.0,0.0,0.0,-0.075408705,0.0,0.0,nan,0.0,0.0,0.0,0.0,-0.003815651,0.0007390976,-0.00026476383,-0.0027351081,0.0007171612,0.028517857,0.0004963875,0.0,0.0,0.0,0.0,0.0,0.0
4636000,4556000,-0.018059332,-0.008564442,0.027682938,0.0001818285,-0.0072108093,-0.0019342834,0.0,0.0,0.0,0.0,0.0,0.0,0.0,-0.075408705,0.0,0.0,nan,0.0,0.0,0.0,0.0,-0.003815651,0.0007390976,-0.00026476383,-0.0027351081,0.002722839,0.03793712,0.00060510635,0.0,0.0,0.0,0.0,0.0,0.0
4644000,4564000,-0.018059332,-0.008564442,0.027682938,0.0001818285,-0.0072108093,-0.0019342834,0.0,0.0,0.0,0.0,0.0,0.0,0.0,-0.075408705,0.0,0.0,nan,0.0,0.0,0.0,0.0,-0.003815651,0.0007390976,-0.00026476383,-0.0027351081,-0.01149364,0.017501205,0.0005674362,0.0,0.0,0.0,0.0,0.0,0.0
4652000,4572000,-0.018059332,-0.008564442,0.027682938,0.0001818285,-0.0072108093,-0.0019342834,0.0,0.0,0.0,0.0,0.0,0.0,0.0,-0.01713884,0.0,0.0,nan,0.0,0.0,0.0,0.0,-0.003815651,0.0007390976,-0.00026476383,-0.0027351081,0.0017790459,0.017542005,0.00028467178,0.0,0.0,0.0,0.0,0.0,0.0
4660000,4580000,-0.018059332,-0.008564442,0.027682938,0.0001818285,-0.0072108093,-0.0019342834,0.0,0.0,0.0,0.0,0.0,0.0,0.0,-0.01713884,0.0,0.0,nan,0.0,0.0,0.0,0.0,-0.003815651,0.0007390976,-0.00026476383,-0.0027351081,-0.029896222,-0.021584794,0.00016069412,0.0,0.0,0.0,0.0,0.0,0.0
4668000,4588000,-0.018059332,-0.008564442,0.027682938,0.0001818285,-0.0072108093,-0.0019342834,0.0,0.0,0.0,0.0,0.0,0.0,0.0,-0.01713884,0.0,0.0,nan,0.0,0.0,0.0,0.0,-0.003815651,0.0007390976,-0.00026476383,-0.0027351081,-0.029337037,-0.020764962,0.000166893,0.0,0.0,0.0,0.0,0.0,0.0
4676000,4596000,-0.018059332,-0.008564442,0.027682938,0.0001818285,-0.0072108093,-0.0019342834,0.0,0.0,0.0,0.0,0.0,0.0,0.0,-0.01713884,0.0,0.0,nan,0.0,0.0,0.0,0.0,-0.003815651,0.0007390976,-0.00026476383,-0.0027351081,0.011836005,0.025811821,0.00020313263,0.0,0.0,0.0,0.0,0.0,0.0
4684000,4604000,-0.018059332,-0.008564442,0.027682938,0.0001818285,-0.0072108093,-0.0019342834,0.0,0.0,0.0,0.0,0.0,0.0,0.0,-0.01713884,0.0,0.0,nan,0.0,0.0,0.0,0.0,-0.003815651,0.0007390976,-0.00026476383,-0.0027351081,-0.012407389,0.018248156,0.000600338,0.0,0.0,0.0,0.0,0.0,0.0
4692000,4612000,-0.018059332,-0.008564442,0.027682938,0.0001818285,-0.0072108093,-0.0019342834,0.0,0.0,0.0,0.0,0.0,0.0,0.0,-0.01713884,0.0,0.0,nan,0.0,0.0,0.0,0.0,-0.003823638,0.00069151446,-0.004604742,-0.005752802,0.0061422046,0.022663683,0.00027942657,0.0,0.0,0.0,0.0,0.0,0.0
4700000,4620000,-0.018059332,-0.008564442,0.027682938,0.0001818285,-0.0072108093,-0.0019342834,0.0,0.0,0.0,0.0,0.0,0.0,0.0,-0.01713884,0.0,0.0,nan,0.0,0.0,0.0,0.0,-0.003823638,0.00069151446,-0.004604742,-0.005752802,-0.006212555,0.045844257,0.000916481,0.0,0.0,0.0,0.0,0.0,0.0
4708000,4628000,-0.018059332,-0.008564442,0.027682938,0.0001818285,-0.0072108093,-0.0019342834,0.0,0.0,0.0,0.0,0.0,0.0,0.0,-0.01713884,0.0,0.0,nan,0.0,0.0,0.0,0.0,-0.003823638,0.00069151446,-0.004604742,-0.005752802,0.011718361,0.013440222,-9.059906e-06,0.0,0.0,0.0,0.0,0.0,0.0
4716000,4636000,-0.018059332,-0.008564442,0.027682938,0.0001818285,-0.0072108093,-0.0019342834,0.0,0.0,0.0,0.0,0.0,0.0,0.0,0.04794779,0.0,0.0,nan,0.0,0.0,0.0,0.0,-0.003823638,0.00069151446,-0.004604742,-0.005752802,0.029477453,0.0034454316,-0.00061798096,0.0,0.0,0.0,0.0,0.0,0.0
4724000,4644000,-0.018059332,-0.008564442,0.027682938,0.0001818285,-0.0072108093,-0.0019342834,0.0,0.0,0.0,0.0,0.0,0.0,0.0,0.04794779,0.0,0.0,nan,0.0,0.0,0.0,0.0,-0.003823638,0.00069151446,-0.004604742,-0.005752802,0.026049947,0.017882124,-0.0002708435,0.0,0.0,0.0,0.0,0.0,0.0
4732000,4652000,-0.018059332,-0.008564442,0.027682938,0.0001818285,-0.0072108093,-0.0019342834,0.0,0.0,0.0,0.0,0.0,0.0,0.0,0.04794779,0.0,0.0,nan,0.0,0.0,0.0,0.0,-0.003823638,0.00069151446,-0.004604742,-0.005752802,-0.004605243,0.004724577,0.00018882751,0.0,0.0,0.0,0.0,0.0,0.0
4740000,4660000,-0.018059332,-0.008564442,0.027682938,0.0001818285,-0.0072108093,-0.0019342834,0.0,0.0,0.0,0.0,0.0,0.0,0.0,0.04794779,0.0,0.0,nan,0.0,0.0,0.0,0.0,-0.003823638,0.00069151446,-0.004604742,-0.005752802,0.012649247,0.013773024,-2.670288e-05,0.0,0.0,0.0,0.0,0.0,0.0
4748000,4668000,-0.018059332,-0.008564442,0.027682938,0.0001818285,-0.0072108093,-0.0019342834,0.0,0.0,0.0,0.0,0.0,0.0,0.0,0.04794779,0.0,0.0,nan,0.0,0.0,0.0,0.0,-0.003823638,0.00069151446,-0.004604742,-0.005752802,0.0060065556,-0.0011167228,-0.00015497208,0.0,0.0,0.0,0.0,0.0,0.0
4756000,4676000,-0.018059332,-0.008564442,0.027682938,0.0001818285,-0.0072108093,-0.0019342834,0.0,0.0,0.0,0.0,0.0,0.0,0.0,0.04794779,0.0,0.0,nan,0.0,0.0,0.0,0.0,-0.003823638,0.00069151446,-0.004604742,-0.005752802,0.013705738,-0.0009533614,-0.00032806396,0.0,0.0,0.0,0.0,0.0,0.0
4764000,4684000,-0.018059332,-0.008564442,0.027682938,0.0001818285,-0.0072108093,-0.0019342834,0.0,0.0,0.0,0.0,0.0,0.0,0.0,0.04794779,0.0,0.0,nan,0.0,0.0,0.0,0.0,0.005685568,-0.001203591,-0.0016738772,-0.0017346442,-0.0052155294,0.030006751,0.00064992905,0.0,0.0,0.0,0.0,0.0,0.0
4772000,4692000,-0.018059332,-0.008564442,0.027682938,0.0001818285,-0.0072108093,-0.0019342834,0.0,0.0,0.0,0.0,0.0,0.0,0.0,0.033255175,0.0,0.0,nan,0.0,0.0,0.0,0.0,0.005685568,-0.001203591,-0.0016738772,-0.0017346442,-0.015697524,0.02093342,0.0007133484,0.0,0.0,0.0,0.0,0.0,0.0
4780000,4700000,-0.018059332,-0.008564442,0.027682938,0.0001818285,-0.0072108093,-0.0019342834,0.0,0.0,0.0,0.0,0.0,0.0,0.0,0.033255175,0.0,0.0,nan,0.0,0.0,0.0,0.0,0.005685568,-0.001203591,-0.0016738772,-0.0017346442,-0.019655425,0.0045754462,0.00049495697,0.0,0.0,0.0,0.0,0.0,0.0
4788000,4708000,-0.018059332,-0.008564442,0.027682938,0.0001818285,-0.0072108093,-0.0019342834,0.0,0.0,0.0,0.0,0.0,0.0,0.0,0.033255175,0.0,0.0,nan,0.0,0.0,0.0,0.0,0.005685568,-0.001203591,-0.0016738772,-0.0017346442,-0.011903312,0.015369073,0.0005378723,0.0,0.0,0.0,0.0,0.0,0.0
4796000,4716000,-0.018059332,-0.008564442,0.027682938,0.0001818285,-0.0072108093,-0.0019342834,0.0,0.0,0.0,0.0,0.0,0.0,0.0,0.033255175,0.0,0.0,nan,0.0,0.0,0.0,0.0,0.005685568,-0.001203591,-0.0016738772,-0.0017346442,0.018247621,0.04362935,0.00033855438,0.0,0.0,0.0,0.0,0.0,0.0
4804000,4724000,-0.018059332,-0.008564442,0.027682938,0.0001818285,-0.0072108093,-0.0019342834,0.0,0.0,0.0,0.0,0.0,0.0,0.0,0.033255175,0.0,0.0,nan,0.0,0.0,0.0,0.0,0.005685568,-0.001203591,-0.0016738772,-0.0017346442,0.024139509,0.019301176,-0.00019741058,0.0,0.0,0.0,0.0,0.0,0.0
4812000,4732000,-0.018059332,-0.008564442,0.027682938,0.0001818285,-0.0072108093,-0.0019342834,0.0,0.0,0.0,0.0,0.0,0.0,0.0,0.033255175,0.0,0.0,nan,0.0,0.0,0.0,0.0,0.005685568,-0.001203591,-0.0016738772,-0.0017346442,-0.016059382,0.010974616,0.00054216385,0.0,0.0,0.0,0.0,0.0,0.0
4820000,4740000,-0.018059332,-0.008564442,0.027682938,0.0001818285,-0.0072108093,-0.0019342834,0.0,0.0,0.0,0.0,0.0,0.0,0.0,0.033255175,0.0,0.0,nan,0.0,0.0,0.0,0.0,0.005685568,-0.001203591,-0.0016738772,-0.0017346442,0.012700552,0.032566994,0.0002951622,0.0,0.0,0.0,0.0,0.0,0.0
4828000,4748000,-0.018059332,-0.008564442,0.027682938,0.0001818285,-0.0072108093,-0.0019342834,0.0,0.0,0.0,0.0,0.0,0.0,0.0,0.033255175,0.0,0.0,nan,0.0,0.0,0.0,0.0,0.005685568,-0.001203591,-0.0016738772,-0.0017346442,0.010777144,0.009347022,-6.723404e-05,0.0,0.0,0.0,0.0,0.0,0.0
4836000,4756000,-0.018059332,-0.008564442,0.027682938,0.0001818285,-0.0072108093,-0.0019342834,0.0,0.0,0.0,0.0,0.0,0.0,0.0,-0.106407836,0.0,0.0,nan,0.0,0.0,0.0,0.0,-0.018013954,0.0037852023,-0.0030941516,0.0025191903,0.011731677,-0.0106408,-0.00046873093,0.0,0.0,0.0,0.0,0.0,0.0
4844000,4764000,-0.018059332,-0.008564442,0.027682938,0.0001818285,-0.0072108093,-0.0019342834,0.0,0.0,0.0,0.0,0.0,0.0,0.0,-0.106407836,0.0,0.0,nan,0.0,0.0,0.0,0.0,-0.018013954,0.0037852023,-0.0030941516,0.0025191903,0.027787516,-0.026995927,-0.0011911392,0.0,0.0,0.0,0.0,0.0,0.0
4852000,4772000,-0.018059332,-0.008564442,0.027682938,0.0001818285,-0.0072108093,-0.0019342834,0.0,0.0,0.0,0.0,0.0,0.0,0.0,-0.106407836,0.0,0.0,nan,0.0,0.0,0.0,0.0,-0.018013954,0.0037852023,-0.0030941516,0.0025191903,-0.0017261617,-0.008160397,-0.00012302399,0.0,0.0,0.0,0.0,0.0,0.0
4860000,4780000,-0.018059332,-0.008564442,0.027682938,0.0001818285,-0.0072108093,-0.0019342834,0.0,0.0,0.0,0.0,0.0,0.0,0.0,-0.106407836,0.0,0.0,nan,0.0,0.0,0.0,0.0,-0.018013954,0.0037852023,-0.0030941516,0.0025191903,0.022695769,-0.009886518,-0.00070905685,0.0,0.0,0.0,0.0,0.0,0.0
4868000,4788000,-0.018059332,-0.008564442,0.027682938,0.0001818285,-0.0072108093,-0.0019342834,0.0,0.0,0.0,0.0,0.0,0.0,0.0,-0.106407836,0.0,0.0,nan,0.0,0.0,0.0,0.0,-0.018013954,0.0037852023,-0.0030941516,0.0025191903,-0.022704158,-0.013770476,0.00019359589,0.0,0.0,0.0,0.0,0.0,0.0
4876000,4796000,-0.018059332,-0.008564442,0.027682938,0.0001818285,-0.0072108093,-0.0019342834,0.0,0.0,0.0,0.0,0.0,0.0,0.0,-0.106407836,0.0,0.0,nan,0.0,0.0,0.0,0.0,-0.018013954,0.0037852023,-0.0030941516,0.0025191903,-0.027756104,0.01116775,0.0007658005,0.0,0.0,0.0,0.0,0.0,0.0
4884000,4804000,-0.018059332,-0.008564442,0.027682938,0.0001818285,-0.0072108093,-0.0019342834,0.0,0.0,0.0,0.0,0.0,0.0,0.0,-0.106407836,0.0,0.0,nan,0.0,0.0,0.0,0.0,-0.018013954,0.0037852023,-0.0030941516,0.0025191903,0.0020634457,0.013452947,0.00020074844,0.0,0.0,0.0,0.0,0.0,0.0
4892000,4812000,-0.018059332,-0.008564442,0.027682938,0.0001818285,-0.0072108093,-0.0019342834,0.0,0.0,0.0,0.0,0.0,0.0,0.0,0.10235347,0.0,0.0,nan,0.0,0.0,0.0,0.0,-0.018013954,0.0037852023,-0.0030941516,0.0025191903,0.049584,0.005052641,-0.0011029243,0.0,0.0,0.0,0.0,0.0,0.0
4900000,4820000,-0.018059332,-0.008564442,0.027682938,0.0001818285,-0.0072108093,-0.0019342834,0.0,0.0,0.0,0.0,0.0,0.0,0.0,0.10235347,0.0,0.0,nan,0.0,0.0,0.0,0.0,-0.018013954,0.0037852023,-0.0030941516,0.0025191903,0.040113024,-0.009909019,-0.0011405945,0.0,0.0,0.0,0.0,0.0,0.0
4908000,4828000,-0.018059332,-0.008564442,0.027682938,0.0001818285,-0.0072108093,-0.0019342834,0.0,0.0,0.0,0.0,0.0,0.0,0.0,0.10235347,0.0,0.0,nan,0.0,0.0,0.0,0.0,-0.01422143,0.0029333686,-0.0005169958,-0.0015309751,0.008626934,-0.029589608,-0.00079250336,0.0,0.0,0.0,0.0,0.0,0.0
4916000,4836000,-0.018059332,-0.008564442,0.027682938,0.0001818285,-0.0072108093,-0.0019342834,0.0,0.0,0.0,0.0,0.0,0.0,0.0,0.10235347,0.0,0.0,nan,0.0,0.0,0.0,0.0,-0.01422143,0.0029333686,-0.0005169958,-0.0015309751,0.006357748,0.013236806,0.0001001358,0.0,0.0,0.0,0.0,0.0,0.0
4924000,4844000,-0.018059332,-0.008564442,0.027682938,0.0001818285,-0.0072108093,-0.0019342834,0.0,0.0,0.0,0.0,0.0,0.0,0.0,0.10235347,0.0,0.0,nan,0.0,0.0,0.0,0.0,-0.01422143,0.0029333686,-0.0005169958,-0.0015309751,-0.020006953,-0.00023844838,0.00040483475,0.0,0.0,0.0,0.0,0.0,0.0
4932000,4852000,-0.018059332,-0.008564442,0.027682938,0.0001818285,-0.0072108093,-0.0019342834,0.0,0.0,0.0,0.0,0.0,0.0,0.0,0.10235347,0.0,0.0,nan,0.0,0.0,0.0,0.0,-0.01422143,0.0029333686,-0.0005169958,-0.0015309751,-0.010957189,-0.015328035,-7.104874e-05,0.0,0.0,0.0,0.0,0.0,0.0
4940000,4860000,-0.018059332,-0.008564442,0.027682938,0.0001818285,-0.0072108093,-0.0019342834,0.0,0.0,0.0,0.0,0.0,0.0,0.0,0.086337544,0.0,0.0,nan,0.0,0.0,0.0,0.0,-0.01422143,0.0029333686,-0.0005169958,-0.0015309751,-0.009598937,0.005371526,0.00030136108,0.0,0.0,0.0,0.0,0.0,0.0
4948000,4868000,-0.018059332,-0.008564442,0.027682938,0.0001818285,-0.0072108093,-0.0019342834,0.0,0.0,0.0,0.0,0.0,0.0,0.0,0.086337544,0.0,0.0,nan,0.0,0.0,0.0,0.0,-0.01422143,0.0029333686,-0.0005169958,-0.0015309751,-0.0010294206,0.008001745,0.00016784668,0.0,0.0,0.0,0.0,0.0,0.0
4956000,4876000,-0.018059332,-0.008564442,0.027682938,0.0001818285,-0.0072108093,-0.0019342834,0.0,0.0,0.0,0.0,0.0,0.0,0.0,0.086337544,0.0,0.0,nan,0.0,0.0,0.0,0.0,-0.01422143,0.0029333686,-0.0005169958,-0.0015309751,0.007277349,0.028096616,0.00032615662,0.0,0.0,0.0,0.0,0.0,0.0
