timestamp,timestamp_sample,control_mode_flags,output_tracking_error[0],output_tracking_error[1],output_tracking_error[2],filter_fault_flags,pos_horiz_accuracy,pos_vert_accuracy,mag_test_ratio,vel_test_ratio,pos_test_ratio,hgt_test_ratio,tas_test_ratio,hagl_test_ratio,beta_test_ratio,time_slip,accel_device_id,gyro_device_id,baro_device_id,mag_device_id,gps_check_fail_flags,innovation_check_flags,solution_status_flags,reset_count_vel_ne,reset_count_vel_d,reset_count_pos_ne,reset_count_pod_d,reset_count_quat,pre_flt_fail_innov_heading,pre_flt_fail_innov_vel_horiz,pre_flt_fail_innov_vel_vert,pre_flt_fail_innov_height,pre_flt_fail_mag_field_disturbed,health_flags,timeout_flags
3180000,3100000,13488881664,0.0005983885,0.018663295,0.0015434768,0,14.172738,10.008659,nan,nan,nan,nan,0.0,0.0,0.0,0.0,1310988,1310988,0,0,0,0,128,1,1,1,1,0,0,0,0,0,0,0,0
3188000,3108000,13488881664,0.0005448642,0.0048799813,0.0016138076,0,14.142143,10.0,nan,nan,nan,nan,0.0,0.0,0.0,0.0,1310988,1310988,0,0,0,0,128,1,1,1,1,0,0,0,0,0,0,0,0
3380000,3300000,13488881664,5.576997e-05,0.0025447032,0.0016288026,0,0.015024535,7.071068,nan,nan,nan,nan,0.0,0.0,0.0,0.0,1310988,1310988,0,0,0,0,128,1,1,1,1,0,0,0,0,0,0,0,0
3580000,3500000,13488881665,0.00053288013,0.019078065,0.005780449,0,0.010514675,5.7735023,nan,nan,nan,nan,0.0,0.0,0.0,0.0,1310988,1310988,0,0,0,0,128,1,1,1,1,0,0,0,0,0,0,0,0
3780000,3700000,13488881665,0.0010184858,0.008165601,0.0047729667,0,0.01288896,5.000002,nan,nan,nan,nan,0.0,0.0,0.0,0.0,1310988,1310988,0,0,0,0,128,1,1,1,1,0,0,0,0,0,0,0,0
3980000,3900000,13488881665,0.0004020146,0.003311907,0.002597009,0,0.039206006,5.0000224,nan,nan,nan,nan,0.0,0.0,0.0,0.0,1310988,1310988,0,0,0,0,128,1,1,1,1,0,0,0,0,0,0,0,0
4180000,4100000,13488881665,0.00025878273,0.0029219985,0.001622618,0,0.03187082,4.4722004,nan,nan,nan,nan,0.0,0.0,0.0,0.0,1310988,1310988,6620172,0,0,0,128,1,1,1,1,0,0,0,0,0,0,0,0
4372000,4292000,13488881665,0.00017325669,0.0023484542,0.001269738,0,0.02670456,4.082614,nan,nan,nan,nan,0.0,0.0,0.0,0.0,1310988,1310988,6620172,0,0,0,128,1,1,1,1,0,0,0,0,0,0,0,0
4580000,4500000,13488881665,0.00015066848,0.0017280073,0.0009481753,0,0.025163502,3.7798831,nan,nan,nan,nan,0.0,0.0,0.0,0.0,1310988,1310988,6620172,0,0,0,128,1,1,1,1,0,0,0,0,0,0,0,0
4780000,4700000,4898947585,0.00019041332,0.0015046382,0.00080503337,0,0.023342459,3.535899,nan,nan,nan,0.0013368523,0.0,0.0,0.0,0.0,1310988,1310988,6620172,0,0,0,164,1,1,1,1,0,0,0,0,0,0,0,0
4972000,4892000,4898947585,0.0002677348,0.0018497773,0.013677894,0,0.021120317,1.7545191,nan,nan,nan,0.004268939,0.0,0.0,0.0,0.0,1310988,1310988,6620172,0,0,0,164,1,1,1,1,0,0,0,0,0,0,0,0
5172000,5092000,4898947585,0.00021511715,0.002020395,0.0027282997,0,0.019734738,1.3250134,nan,nan,nan,0.0032812336,0.0,0.0,0.0,0.0,1310988,1310988,6620172,0,0,0,164,1,1,1,1,0,0,0,0,0,0,0,0
5372000,5292000,4898947585,0.0001482638,0.0014955001,0.008149564,0,0.018543016,1.0566554,nan,nan,nan,0.0016131524,0.0,0.0,0.0,0.0,1310988,1310988,6620172,0,0,0,164,1,1,1,1,0,0,0,0,0,0,0,0
5580000,5500000,4898947585,6.835529e-05,0.0008367804,0.0032285817,0,0.017961046,0.936825,nan,nan,nan,0.0010544766,0.0,0.0,0.0,0.0,1310988,1310988,6620172,0,0,0,164,1,1,1,1,0,0,0,0,0,0,0,0
5772000,5692000,4898947585,0.00013375418,0.0015086257,0.0059601744,0,0.016694915,0.82643366,nan,nan,nan,0.0068692807,0.0,0.0,0.0,0.0,1310988,1310988,6620172,0,0,0,164,1,1,1,1,0,0,0,0,0,0,0,0
5972000,5892000,4898947585,9.846237e-05,0.0018378899,0.004213117,0,0.01597925,0.76559937,nan,nan,nan,0.0015371353,0.0,0.0,0.0,0.0,1310988,1310988,6620172,0,0,0,164,1,1,1,1,0,0,0,0,0,0,0,0
6180000,6100000,4898947585,5.3691932e-05,0.0015760218,0.00274482,0,0.015700085,0.7167785,nan,nan,nan,0.00066109723,0.0,0.0,0.0,0.0,1310988,1310988,6620172,0,0,0,164,1,1,1,1,0,0,0,0,0,0,0,0
6372000,6292000,4898947585,2.6820233e-05,0.0013724925,0.0011411479,0,0.014825337,0.6641102,nan,nan,nan,0.0009797225,0.0,0.0,0.0,0.0,1310988,1310988,6620172,0,0,0,164,1,1,1,1,0,0,0,0,0,0,0,0
6572000,6492000,4898947585,9.298464e-05,0.0020209728,0.0022152648,0,0.014347593,0.63187486,nan,nan,nan,0.00060861505,0.0,0.0,0.0,0.0,1310988,1310988,6620172,0,0,0,164,1,1,1,1,0,0,0,0,0,0,0,0
6772000,6692000,4898947585,0.00015288958,0.0027131147,0.0026535112,0,0.013918739,0.6041368,nan,nan,nan,0.0013373055,0.0,0.0,0.0,0.0,1310988,1310988,6620172,0,0,0,164,1,1,1,1,0,0,0,0,0,0,0,0
6972000,6892000,4898947585,0.00016158477,0.003226047,0.0017159885,0,0.013528432,0.57218003,nan,nan,nan,0.0016869463,0.0,0.0,0.0,0.0,1310988,1310988,6620172,0,0,0,164,1,1,1,1,0,0,0,0,0,0,0,0
7180000,7100000,4898947585,0.0002009943,0.0034991312,0.0018638143,0,0.013432991,0.5518174,nan,nan,nan,0.00090738526,0.0,0.0,0.0,0.0,1310988,1310988,6620172,0,0,0,164,1,1,1,1,0,0,0,0,0,0,0,0
7380000,7300000,4898947585,0.0002575569,0.003960415,0.00204538,0,0.01309187,0.52753365,nan,nan,nan,0.00058964407,0.0,0.0,0.0,0.0,1310988,1310988,6620172,0,0,0,164,1,1,1,1,0,0,0,0,0,0,0,0
7580000,7500000,4898947585,0.00026056208,0.004256974,0.0034873388,0,0.012774171,0.5117609,nan,nan,nan,0.0050808587,0.0,0.0,0.0,0.0,1310988,1310988,6620172,0,0,0,164,1,1,1,1,0,0,0,0,0,0,0,0
7780000,7700000,4898947585,0.00020247966,0.0038592634,0.0036129404,0,0.012476704,0.4975024,nan,nan,nan,0.003701479,0.0,0.0,0.0,0.0,1310988,1310988,6620172,0,0,0,164,1,1,1,1,0,0,0,0,0,0,0,0
7980000,7900000,4898947585,0.00013845232,0.0030923171,0.0023817786,0,0.012196964,0.4799711,nan,nan,nan,0.0024965184,0.0,0.0,0.0,0.0,1310988,1310988,6620172,0,0,0,164,1,1,1,1,0,0,0,0,0,0,0,0
8172000,8092000,4898947585,8.949287e-05,0.002400255,0.0038041177,0,0.011769442,0.4695531,nan,nan,nan,0.0019465027,0.0,0.0,0.0,0.0,1310988,1310988,6620172,0,0,0,164,1,1,1,1,0,0,0,0,0,0,0,0
8372000,8292000,4898947585,8.8241424e-05,0.00202653,0.0035894357,0,0.011521874,0.45906594,nan,nan,nan,0.0051087965,0.0,0.0,0.0,0.0,1310988,1310988,6620172,0,0,0,164,1,1,1,1,0,0,0,0,0,0,0,0
8580000,8500000,4898947585,7.5117954e-05,0.0018144125,0.0033914405,0,0.011492644,0.44588348,nan,nan,nan,0.0033779205,0.0,0.0,0.0,0.0,1310988,1310988,6620172,0,0,0,164,1,1,1,1,0,0,0,0,0,0,0,0
8780000,8700000,4898949633,6.556797e-05,0.0015903303,0.0022503485,0,0.011261179,0.8963409,nan,nan,nan,0.0003224063,0.0,0.0,0.0,0.0,1310988,1310988,6620172,0,0,0,164,1,1,1,2,0,0,0,0,0,0,0,0
8972000,8892000,4898949633,3.933204e-05,0.0014208694,0.001298953,0,0.017354736,0.8196145,nan,nan,nan,0.0008052914,0.0,0.0,0.0,0.0,1310988,1310988,6620172,0,0,0,164,1,1,1,2,0,0,0,0,0,0,0,0
9172000,9092000,4898949633,4.934427e-05,0.0012480542,0.004219098,0,0.016974648,0.5963845,nan,nan,nan,0.0014593625,0.0,0.0,0.0,0.0,1310988,1310988,6620172,0,0,0,164,1,1,1,2,0,0,0,0,0,0,0,0
9372000,9292000,4898949633,5.733263e-05,0.0012316777,0.0011522345,0,0.016611129,0.5726128,nan,nan,nan,0.001117215,0.0,0.0,0.0,0.0,1310988,1310988,6620172,0,0,0,164,1,1,1,2,0,0,0,0,0,0,0,0
9572000,9492000,4898949633,6.3084415e-05,0.0013098932,0.0007697595,0,0.01626211,0.4832848,nan,nan,nan,0.00020922383,0.0,0.0,0.0,0.0,1310988,1310988,6620172,0,0,0,164,1,1,1,2,0,0,0,0,0,0,0,0
9772000,9692000,4898949633,6.331768e-05,0.0013782252,0.001758012,0,0.015925918,0.466833,nan,nan,nan,0.0009488567,0.0,0.0,0.0,0.0,1310988,1310988,6620172,0,0,0,164,1,1,1,2,0,0,0,0,0,0,0,0
9972000,9892000,4898949633,7.148025e-05,0.0015170209,0.0013487696,0,0.015601536,0.41512573,nan,nan,nan,0.0022011315,0.0,0.0,0.0,0.0,1310988,1310988,6620172,0,0,0,164,1,1,1,2,0,0,0,0,0,0,0,0
10180000,10100000,4898949633,6.0643775e-05,0.00144186,0.000883819,0,0.015560811,0.40531507,nan,nan,nan,0.0010873191,0.0,0.0,0.0,0.0,1310988,1310988,6620172,0,0,0,164,1,1,1,2,0,0,0,0,0,0,0,0
10372000,10292000,4898949633,5.680795e-05,0.0013580633,0.0007279142,0,0.014985549,0.37066534,nan,nan,nan,0.00084394554,0.0,0.0,0.0,0.0,1310988,1310988,6620172,0,0,0,164,1,1,1,2,0,0,0,0,0,0,0,0
10572000,10492000,4898949633,5.2574967e-05,0.0013735713,0.0013758567,0,0.0146926055,0.36622652,nan,nan,nan,0.0015088776,0.0,0.0,0.0,0.0,1310988,1310988,6620172,0,0,0,164,1,1,1,2,0,0,0,0,0,0,0,0
10780000,10700000,4898949633,5.403684e-05,0.0017682401,0.0010663243,0,0.014664401,0.33924517,nan,nan,nan,0.00084438163,0.0,0.0,0.0,0.0,1310988,1310988,6620172,0,0,0,164,1,1,1,2,0,0,0,0,0,0,0,0
10972000,10892000,4898949633,5.9035072e-05,0.0022641853,0.0026767156,0,0.0141317425,0.33637106,nan,nan,nan,0.0021904686,0.0,0.0,0.0,0.0,1310988,1310988,6620172,0,0,0,164,1,1,1,2,0,0,0,0,0,0,0,0
11172000,11092000,4898949633,6.851534e-05,0.0026251315,0.003146043,0,0.013863214,0.31690577,nan,nan,nan,0.003366087,0.0,0.0,0.0,0.0,1310988,1310988,6620172,0,0,0,164,1,1,1,2,0,0,0,0,0,0,0,0
11372000,11292000,4898949633,8.268383e-05,0.0029629022,0.0031096553,0,0.013602291,0.31397516,nan,nan,nan,0.003273794,0.0,0.0,0.0,0.0,1310988,1310988,6620172,0,0,0,164,1,1,1,2,0,0,0,0,0,0,0,0
11572000,11492000,4898949633,8.971238e-05,0.0033074822,0.003427579,0,0.013348498,0.29852015,nan,nan,nan,0.0021454312,0.0,0.0,0.0,0.0,1310988,1310988,6620172,0,0,0,164,1,1,1,2,0,0,0,0,0,0,0,0
11780000,11700000,4898949633,9.419064e-05,0.0034969856,0.0039497903,0,0.013332721,0.29675058,nan,nan,nan,0.0023319349,0.0,0.0,0.0,0.0,1310988,1310988,6620172,0,0,0,164,1,1,1,2,0,0,0,0,0,0,0,0
11972000,11892000,4898949633,0.000106034415,0.0036242448,0.0044753365,0,0.012861586,0.2839664,nan,nan,nan,0.0021981588,0.0,0.0,0.0,0.0,1310988,1310988,6620172,0,0,0,164,1,1,1,2,0,0,0,0,0,0,0,0
12180000,12100000,4898949633,9.904218e-05,0.0032099448,0.0038742216,0,0.012849752,0.28388143,nan,nan,nan,0.0039731553,0.0,0.0,0.0,0.0,1310988,1310988,6620172,0,0,0,164,1,1,1,2,0,0,0,0,0,0,0,0
12372000,12292000,4898949633,9.329283e-05,0.00299182,0.0036288768,0,0.012400482,0.2722216,nan,nan,nan,0.0025201754,0.0,0.0,0.0,0.0,1310988,1310988,6620172,0,0,0,164,1,1,1,2,0,0,0,0,0,0,0,0
12572000,12492000,4898949633,7.8564764e-05,0.0026932093,0.0032828234,0,0.012178539,0.27243543,nan,nan,nan,0.003255059,0.0,0.0,0.0,0.0,1310988,1310988,6620172,0,0,0,164,1,1,1,2,0,0,0,0,0,0,0,0
12772000,12692000,4898949633,5.8896298e-05,0.0023116602,0.0037556463,0,0.011962154,0.26333088,nan,nan,nan,0.001219819,0.0,0.0,0.0,0.0,1310988,1310988,6620172,0,0,0,164,1,1,1,2,0,0,0,0,0,0,0,0
12972000,12892000,4898949633,8.4190266e-05,0.0025227447,0.0032794843,0,0.011751345,0.26317012,nan,nan,nan,0.0031135983,0.0,0.0,0.0,0.0,1310988,1310988,6620172,0,0,0,164,1,1,1,2,0,0,0,0,0,0,0,0
13172000,13092000,4898949633,0.000103520775,0.0029962235,0.0032054046,0,0.011546101,0.25530714,nan,nan,nan,0.0035151842,0.0,0.0,0.0,0.0,1310988,1310988,6620172,0,0,0,164,1,1,1,2,0,0,0,0,0,0,0,0
13372000,13292000,4898949633,0.000100443875,0.0025268088,0.00176097,0,0.011387889,0.25766957,nan,nan,nan,0.0012995673,0.0,0.0,0.0,0.0,1310988,1310988,6620172,0,0,0,164,1,1,1,2,0,0,0,0,0,0,0,0
13572000,13492000,4898949633,0.00010311871,0.002686608,0.0020979356,0,0.011190905,0.2507345,nan,nan,nan,0.0035930595,0.0,0.0,0.0,0.0,1310988,1310988,6620172,0,0,0,164,1,1,1,2,0,0,0,0,0,0,0,0
13780000,13700000,4898949633,0.000103023674,0.002672518,0.0019682373,0,0.011185987,0.25223923,nan,nan,nan,0.002338973,0.0,0.0,0.0,0.0,1310988,1310988,6620172,0,0,0,164,1,1,1,2,0,0,0,0,0,0,0,0
13980000,13900000,4898949633,8.223551e-05,0.0023090972,0.0018674883,0,0.0109949,0.24542746,nan,nan,nan,0.0037814328,0.0,0.0,0.0,0.0,1310988,1310988,6620172,0,0,0,164,1,1,1,2,0,0,0,0,0,0,0,0
14172000,14092000,4898949633,2.8327484e-05,0.0010586691,0.0011713438,0,0.016484678,0.24665011,nan,nan,nan,0.0023365938,0.0,0.0,0.0,0.0,1310988,1310988,6620172,0,0,0,164,1,1,1,2,0,0,0,0,0,0,0,0
14372000,14292000,4898949633,2.0953219e-05,0.0008163051,0.0014659569,0,0.016198361,0.24104396,nan,nan,nan,0.0047114952,0.0,0.0,0.0,0.0,1310988,1310988,6620172,0,0,0,164,1,1,1,2,0,0,0,0,0,0,0,0
14580000,14500000,4898949633,2.4123892e-05,0.0008839883,0.0012656506,0,0.016186224,0.24231775,nan,nan,nan,0.0023571725,0.0,0.0,0.0,0.0,1310988,1310988,6620172,0,0,0,164,1,1,1,2,0,0,0,0,0,0,0,0
14780000,14700000,4898949633,2.6418407e-05,0.0009943013,0.000879799,0,0.015906474,0.23721921,nan,nan,nan,0.001851335,0.0,0.0,0.0,0.0,1310988,1310988,6620172,0,0,0,164,1,1,1,2,0,0,0,0,0,0,0,0
14972000,14892000,4898949633,3.133052e-05,0.0011514286,0.0011520955,0,0.01537073,0.23870452,nan,nan,nan,0.0018355594,0.0,0.0,0.0,0.0,1310988,1310988,6620172,0,0,0,164,1,1,1,2,0,0,0,0,0,0,0,0
15180000,15100000,4898949633,2.9942554e-05,0.0010405582,0.00094604364,0,0.015361253,0.23373537,nan,nan,nan,0.002174118,0.0,0.0,0.0,0.0,1310988,1310988,6620172,0,0,0,164,1,1,1,2,0,0,0,0,0,0,0,0
15372000,15292000,4898949633,2.9139439e-05,0.0007569058,0.00103987,0,0.014842282,0.23531456,nan,nan,nan,0.0014694129,0.0,0.0,0.0,0.0,1310988,1310988,6620172,0,0,0,164,1,1,1,2,0,0,0,0,0,0,0,0
15572000,15492000,4832889473,1.1102529e-05,0.00090141845,0.0007964566,0,0.022924064,0.23402914,nan,nan,nan,0.0035872192,0.0,0.0,0.0,0.0,1310988,1310988,6620172,0,0,0,164,1,1,1,2,0,0,0,0,0,0,0,0
15780000,15700000,4832889473,1.1499693e-05,0.0012214613,0.0019194643,0,0.04127614,0.23964922,nan,nan,nan,0.002468849,0.0,0.0,0.0,0.0,1310988,1310988,6620172,0,0,0,164,1,1,1,2,0,0,0,0,0,0,0,0
15972000,15892000,4832889473,1.1585663e-05,0.0012480994,0.001958734,0,0.072137564,0.23930039,nan,nan,nan,0.0010384632,0.0,0.0,0.0,0.0,1310988,1310988,6620172,0,0,0,164,1,1,1,2,0,0,0,0,0,0,0,0
16172000,16092000,4832889473,1.1473375e-05,0.0012051376,0.0019218741,0,0.11874993,0.24688633,nan,nan,nan,0.0007669965,0.0,0.0,0.0,0.0,1310988,1310988,6620172,0,0,0,164,1,1,1,2,0,0,0,0,0,0,0,0
16380000,16300000,4832889473,1.1250935e-05,0.0010690682,0.0015508725,0,0.1824441,0.24786592,nan,nan,nan,0.0025433633,0.0,0.0,0.0,0.0,1310988,1310988,6620172,0,0,0,164,1,1,1,2,0,0,0,0,0,0,0,0
16572000,16492000,4832889473,1.1298127e-05,0.0010312014,0.0016640964,0,0.25476277,0.256855,nan,nan,nan,0.0017087715,0.0,0.0,0.0,0.0,1310988,1310988,6620172,0,0,0,164,1,1,1,2,0,0,0,0,0,0,0,0
16772000,16692000,4832889473,1.0423188e-05,0.0005618992,0.0002977329,0,0.34374636,0.25820827,nan,nan,nan,0.0054616323,0.0,0.0,0.0,0.0,1310988,1310988,6620172,0,0,0,164,1,1,1,2,0,0,0,0,0,0,0,0
16972000,16892000,4832889473,1.1312817e-05,0.0008034104,0.0011411385,0,0.44654793,0.26944995,nan,nan,nan,0.0026514996,0.0,0.0,0.0,0.0,1310988,1310988,6620172,0,0,0,164,1,1,1,2,0,0,0,0,0,0,0,0
17180000,17100000,4832889473,1.0322379e-05,0.00048653415,0.00019746998,0,0.5679684,0.27262908,nan,nan,nan,0.0068664667,0.0,0.0,0.0,0.0,1310988,1310988,6620172,0,0,0,164,1,1,1,2,0,0,0,0,0,0,0,0
17372000,17292000,4832889473,1.0549928e-05,0.00061358855,0.0007822829,0,0.69293636,0.28410226,nan,nan,nan,0.002135178,0.0,0.0,0.0,0.0,1310988,1310988,6620172,0,0,0,164,1,1,1,2,0,0,0,0,0,0,0,0
17572000,17492000,4832889473,1.0926387e-05,0.0002848881,0.0006754862,0,0.8359848,0.28661495,nan,nan,nan,0.003467124,0.0,0.0,0.0,0.0,1310988,1310988,6620172,0,0,0,164,1,1,1,2,0,0,0,0,0,0,0,0
17772000,17692000,4832889473,1.0399751e-05,0.00055649545,0.00081160234,0,0.9917632,0.3010245,nan,nan,nan,0.0032434058,0.0,0.0,0.0,0.0,1310988,1310988,6620172,0,0,0,164,1,1,1,2,0,0,0,0,0,0,0,0
17972000,17892000,4832889473,1.1308199e-05,0.00032572655,0.0007348275,0,1.159523,0.30175433,nan,nan,nan,0.0051752958,0.0,0.0,0.0,0.0,1310988,1310988,6620172,0,0,0,164,1,1,1,2,0,0,0,0,0,0,0,0
18180000,18100000,4832889473,9.607488e-06,0.0002808755,0.0004140799,0,1.3462434,0.31800565,nan,nan,nan,0.004163265,0.0,0.0,0.0,0.0,1310988,1310988,6620172,0,0,0,164,1,1,1,2,0,0,0,0,0,0,0,0
18372000,18292000,4832889473,1.3046491e-05,0.00044744438,0.0013189377,0,1.5280132,0.3178183,nan,nan,nan,0.0049139205,0.0,0.0,0.0,0.0,1310988,1310988,6620172,0,0,0,164,1,1,1,2,0,0,0,0,0,0,0,0
18572000,18492000,4832889473,1.0740013e-05,0.00058379176,0.0006414283,0,1.7267325,0.33262387,nan,nan,nan,0.004795974,0.0,0.0,0.0,0.0,1310988,1310988,6620172,0,0,0,164,1,1,1,2,0,0,0,0,0,0,0,0
18772000,18692000,4832889473,1.013067e-05,0.0011234317,0.0028493262,0,1.9330171,0.33147025,nan,nan,nan,0.0072980337,0.0,0.0,0.0,0.0,1310988,1310988,6620172,0,0,0,164,1,1,1,2,0,0,0,0,0,0,0,0
18972000,18892000,4832889473,4.014965e-05,0.000555305,0.0018843261,0,2.1452007,0.3480845,nan,nan,nan,0.0035353438,0.0,0.0,0.0,0.0,1310988,1310988,6620172,0,0,0,164,1,1,1,2,0,0,0,0,0,0,0,0
19172000,19092000,4832889473,5.5502704e-05,0.0018482681,0.0042787855,0,2.3596363,0.3433077,nan,nan,nan,0.0035942285,0.0,0.0,0.0,0.0,1310988,1310988,6620172,0,0,0,164,1,1,1,2,0,0,0,0,0,0,0,0
19380000,19300000,4832889473,8.804689e-05,0.0035812329,0.007526625,0,2.5838528,0.3609069,nan,nan,nan,0.003560921,0.0,0.0,0.0,0.0,1310988,1310988,6620172,0,0,0,164,1,1,1,2,0,0,0,0,0,0,0,0
19572000,19492000,4832889473,1.3426864e-05,0.0011255052,0.003133597,0,2.8396902,0.35484403,nan,nan,nan,0.0049924967,0.0,0.0,0.0,0.0,1310988,1310988,6620172,0,0,0,164,1,1,1,2,0,0,0,0,0,0,0,0
19780000,19700000,4832889473,2.4835177e-05,0.0017589382,0.004015686,0,3.0685952,0.3705249,nan,nan,nan,0.0075506778,0.0,0.0,0.0,0.0,1310988,1310988,6620172,0,0,0,164,1,1,1,2,0,0,0,0,0,0,0,0
19972000,19892000,4832889473,2.3431581e-05,0.0019819902,0.0049802996,0,3.266659,0.36257187,nan,nan,nan,0.0056651663,0.0,0.0,0.0,0.0,1310988,1310988,6620172,0,0,0,164,1,1,1,2,0,0,0,0,0,0,0,0
20180000,20100000,4832889473,2.712992e-05,0.0020501432,0.0050863186,0,3.4771714,0.38005498,nan,nan,nan,0.007747761,0.0,0.0,0.0,0.0,1310988,1310988,6620172,0,0,0,164,1,1,1,2,0,0,0,0,0,0,0,0
20380000,20300000,4832889473,1.2945259e-05,0.0017755089,0.0059035895,0,3.6620665,0.3691504,nan,nan,nan,0.011964455,0.0,0.0,0.0,0.0,1310988,1310988,6620172,0,0,0,164,1,1,1,2,0,0,0,0,0,0,0,0
20572000,20492000,4832889473,2.2265254e-05,0.0013561104,0.0042367103,0,3.8200784,0.3844203,nan,nan,nan,0.008401422,0.0,0.0,0.0,0.0,1310988,1310988,6620172,0,0,0,164,1,1,1,2,0,0,0,0,0,0,0,0
20780000,20700000,4832889473,1.0034345e-05,0.0013515886,0.0048829243,0,3.9839861,0.37523603,nan,nan,nan,0.0097098155,0.0,0.0,0.0,0.0,1310988,1310988,6620172,0,0,0,164,1,1,1,2,0,0,0,0,0,0,0,0
20980000,20900000,4832889473,1.5417052e-05,0.00092304096,0.0026022694,0,4.118569,0.38886946,nan,nan,nan,0.005881143,0.0,0.0,0.0,0.0,1310988,1310988,6620172,0,0,0,164,1,1,1,2,0,0,0,0,0,0,0,0
21172000,21092000,4832889473,2.3550803e-05,0.0024191123,0.007380788,0,4.222504,0.37667033,nan,nan,nan,0.0066644284,0.0,0.0,0.0,0.0,1310988,1310988,6620172,0,0,0,164,1,1,1,2,0,0,0,0,0,0,0,0
21380000,21300000,4832889473,2.0777225e-05,0.0027358653,0.008220913,0,4.332463,0.39314735,nan,nan,nan,0.011290587,0.0,0.0,0.0,0.0,1310988,1310988,6620172,0,0,0,164,1,1,1,2,0,0,0,0,0,0,0,0
21572000,21492000,4832889473,5.6547808e-05,0.005061416,0.016078869,0,4.4011655,0.3777568,nan,nan,nan,0.009820098,0.0,0.0,0.0,0.0,1310988,1310988,6620172,0,0,0,164,1,1,1,2,0,0,0,0,0,0,0,0
21772000,21692000,4832889473,4.9511913e-05,0.0050020744,0.016156325,0,4.4653373,0.39289975,nan,nan,nan,0.009049927,0.0,0.0,0.0,0.0,1310988,1310988,6620172,0,0,0,164,1,1,1,2,0,0,0,0,0,0,0,0
21972000,21892000,4832889473,7.361186e-05,0.0064047896,0.02148946,0,4.513695,0.38025394,nan,nan,nan,0.011701448,0.0,0.0,0.0,0.0,1310988,1310988,6620172,0,0,0,164,1,1,1,2,0,0,0,0,0,0,0,0
22180000,22100000,4832889473,6.6236586e-05,0.0060238396,0.020863526,0,4.560174,0.39369982,nan,nan,nan,0.0093551595,0.0,0.0,0.0,0.0,1310988,1310988,6620172,0,0,0,164,1,1,1,2,0,0,0,0,0,0,0,0
22380000,22300000,4832889473,8.297341e-05,0.006794314,0.024353977,0,4.583806,0.38065323,nan,nan,nan,0.0103937,0.0,0.0,0.0,0.0,1310988,1310988,6620172,0,0,0,164,1,1,1,2,0,0,0,0,0,0,0,0
22572000,22492000,4832889473,7.926972e-05,0.0066152527,0.024361698,0,4.587516,0.39455828,nan,nan,nan,0.010991458,0.0,0.0,0.0,0.0,1310988,1310988,6620172,0,0,0,164,1,1,1,2,0,0,0,0,0,0,0,0
22772000,22692000,4832889473,8.836985e-05,0.0070603043,0.026830176,0,4.592385,0.37894678,nan,nan,nan,0.009407469,0.0,0.0,0.0,0.0,1310988,1310988,6620172,0,0,0,164,1,1,1,2,0,0,0,0,0,0,0,0
22972000,22892000,4832889473,7.768887e-05,0.006352021,0.024970803,0,4.590081,0.39346194,nan,nan,nan,0.00903087,0.0,0.0,0.0,0.0,1310988,1310988,6620172,0,0,0,164,1,1,1,2,0,0,0,0,0,0,0,0
23180000,23100000,4832889473,8.164692e-05,0.006342965,0.025750076,0,4.590439,0.37872612,nan,nan,nan,0.012371942,0.0,0.0,0.0,0.0,1310988,1310988,6620172,0,0,0,164,1,1,1,2,0,0,0,0,0,0,0,0
23380000,23300000,4832889473,6.7683264e-05,0.0052401396,0.022155194,0,4.576027,0.3931566,nan,nan,nan,0.009380704,0.0,0.0,0.0,0.0,1310988,1310988,6620172,0,0,0,164,1,1,1,2,0,0,0,0,0,0,0,0
23572000,23492000,4832889473,7.217914e-05,0.0053364392,0.023258738,0,4.5479674,0.37903383,nan,nan,nan,0.011014106,0.0,0.0,0.0,0.0,1310988,1310988,6620172,0,0,0,164,1,1,1,2,0,0,0,0,0,0,0,0
23780000,23700000,4832889473,5.9421272e-05,0.00423315,0.019132538,0,4.534288,0.39195824,nan,nan,nan,0.011198323,0.0,0.0,0.0,0.0,1310988,1310988,6620172,0,0,0,164,1,1,1,2,0,0,0,0,0,0,0,0
23980000,23900000,4832889473,5.952486e-05,0.0038440435,0.018234316,0,4.5085554,0.37878022,nan,nan,nan,0.011132016,0.0,0.0,0.0,0.0,1310988,1310988,6620172,0,0,0,164,1,1,1,2,0,0,0,0,0,0,0,0
24180000,24100000,4832889473,4.9843406e-05,0.0032412799,0.015763773,0,4.48061,0.39074373,nan,nan,nan,0.010622566,0.0,0.0,0.0,0.0,1310988,1310988,6620172,0,0,0,164,1,1,1,2,0,0,0,0,0,0,0,0
24380000,24300000,4832889473,5.0290524e-05,0.002831356,0.0148491785,0,4.4506955,0.3778249,nan,nan,nan,0.010704808,0.0,0.0,0.0,0.0,1310988,1310988,6620172,0,0,0,164,1,1,1,2,0,0,0,0,0,0,0,0
24572000,24492000,4832889473,9.118553e-06,0.0017181253,0.0055063167,0,4.6443295,0.3912877,nan,nan,nan,0.0109212585,0.0,0.0,0.0,0.0,1310988,1310988,6620172,0,0,0,164,1,1,1,2,0,0,0,0,0,0,0,0
24780000,24700000,4832889473,1.0457063e-05,0.0016491264,0.0053916653,0,4.615627,0.37692502,nan,nan,nan,0.0120209735,0.0,0.0,0.0,0.0,1310988,1310988,6620172,0,0,0,164,1,1,1,2,0,0,0,0,0,0,0,0
24980000,24900000,4832889473,9.001522e-06,0.0022307646,0.0076962467,0,4.578041,0.39120674,nan,nan,nan,0.010365185,0.0,0.0,0.0,0.0,1310988,1310988,6620172,0,0,0,164,1,1,1,2,0,0,0,0,0,0,0,0
25180000,25100000,4832889473,1.0081832e-05,0.0020307845,0.0069294213,0,4.5398684,0.37619394,nan,nan,nan,0.012749963,0.0,0.0,0.0,0.0,1310988,1310988,6620172,0,0,0,164,1,1,1,2,0,0,0,0,0,0,0,0
25380000,25300000,4832889473,9.361776e-06,0.0024771173,0.008785119,0,4.5015316,0.39053634,nan,nan,nan,0.010296542,0.0,0.0,0.0,0.0,1310988,1310988,6620172,0,0,0,164,1,1,1,2,0,0,0,0,0,0,0,0
25572000,25492000,4832889473,1.1715974e-05,0.0021175242,0.007234685,0,4.455993,0.3769119,nan,nan,nan,0.013058395,0.0,0.0,0.0,0.0,1310988,1310988,6620172,0,0,0,164,1,1,1,2,0,0,0,0,0,0,0,0
25772000,25692000,4832889473,1.0647226e-05,0.0022966505,0.007981181,0,4.417963,0.38905424,nan,nan,nan,0.011562855,0.0,0.0,0.0,0.0,1310988,1310988,6620172,0,0,0,164,1,1,1,2,0,0,0,0,0,0,0,0
25980000,25900000,4832889473,1.137603e-05,0.0021265899,0.007233834,0,4.386966,0.37734765,nan,nan,nan,0.01426789,0.0,0.0,0.0,0.0,1310988,1310988,6620172,0,0,0,164,1,1,1,2,0,0,0,0,0,0,0,0
26180000,26100000,4832889473,1.0703971e-05,0.0023311165,0.0080316095,0,4.349473,0.3894827,nan,nan,nan,0.012033476,0.0,0.0,0.0,0.0,1310988,1310988,6620172,0,0,0,164,1,1,1,2,0,0,0,0,0,0,0,0
26372000,26292000,4832889473,1.3176567e-05,0.0017892091,0.005592543,0,4.306022,0.376138,nan,nan,nan,0.013160182,0.0,0.0,0.0,0.0,1310988,1310988,6620172,0,0,0,164,1,1,1,2,0,0,0,0,0,0,0,0
26580000,26500000,4832889473,1.2166817e-05,0.0019439305,0.006209294,0,4.276106,0.39151222,nan,nan,nan,0.015684966,0.0,0.0,0.0,0.0,1310988,1310988,6620172,0,0,0,164,1,1,1,2,0,0,0,0,0,0,0,0
26780000,26700000,4832889473,1.3755014e-05,0.002008952,0.0064458246,0,4.24039,0.37652513,nan,nan,nan,0.015066371,0.0,0.0,0.0,0.0,1310988,1310988,6620172,0,0,0,164,1,1,1,2,0,0,0,0,0,0,0,0
26980000,26900000,4832889473,1.3450378e-05,0.0016699571,0.004938462,0,4.2054234,0.39102924,nan,nan,nan,0.012736318,0.0,0.0,0.0,0.0,1310988,1310988,6620172,0,0,0,164,1,1,1,2,0,0,0,0,0,0,0,0
27172000,27092000,4832889473,1.5826638e-05,0.0013932992,0.003874101,0,4.1653147,0.37756163,nan,nan,nan,0.013683106,0.0,0.0,0.0,0.0,1310988,1310988,6620172,0,0,0,164,1,1,1,2,0,0,0,0,0,0,0,0
27372000,27292000,4832889473,1.586571e-05,0.0015191397,0.004408843,0,4.1320553,0.39224285,nan,nan,nan,0.01501766,0.0,0.0,0.0,0.0,1310988,1310988,6620172,0,0,0,164,1,1,1,2,0,0,0,0,0,0,0,0
27572000,27492000,4831840897,1.7016951e-05,0.0009892213,0.0021019047,0,4.099626,0.37725487,nan,nan,nan,0.0129413195,0.0,0.0,0.0,0.0,1310988,1310988,6620172,0,0,0,164,1,1,1,2,0,0,0,0,0,0,0,0
27772000,27692000,4831840897,1.6478692e-05,0.0012243129,0.0034777164,0,4.0680676,0.39190692,nan,nan,nan,0.016644515,0.0,0.0,0.0,0.0,1310988,1310988,6620172,0,0,0,164,1,1,1,2,0,0,0,0,0,0,0,0
27972000,27892000,4831840897,1.6529335e-05,0.000963563,0.0026014766,0,4.037382,0.37912777,nan,nan,nan,0.013907571,0.0,0.0,0.0,0.0,1310988,1310988,6620172,0,0,0,164,1,1,1,2,0,0,0,0,0,0,0,0
28180000,28100000,4831840897,1.5707594e-05,0.0015642674,0.005110852,0,4.0129642,0.39241812,nan,nan,nan,0.015259747,0.0,0.0,0.0,0.0,1310988,1310988,6620172,0,0,0,164,1,1,1,2,0,0,0,0,0,0,0,0
28372000,28292000,4831840897,1.5998485e-05,0.0011332834,0.0038999051,0,3.9787097,0.37879267,nan,nan,nan,0.017173218,0.0,0.0,0.0,0.0,1310988,1310988,6620172,0,0,0,164,1,1,1,2,0,0,0,0,0,0,0,0
28580000,28500000,4831840897,1.5195145e-05,0.0008010402,0.0023750518,0,3.9559374,0.3920126,nan,nan,nan,0.017140158,0.0,0.0,0.0,0.0,1310988,1310988,6620172,0,0,0,164,1,1,1,2,0,0,0,0,0,0,0,0
28780000,28700000,4831840897,1.5011576e-05,0.0014128174,0.0051961,0,3.9288034,0.37915072,nan,nan,nan,0.01848801,0.0,0.0,0.0,0.0,1310988,1310988,6620172,0,0,0,164,1,1,1,2,0,0,0,0,0,0,0,0
28972000,28892000,4831840897,1.4976672e-05,0.00090101064,0.0037363356,0,3.8975465,0.39303163,nan,nan,nan,0.019061698,0.0,0.0,0.0,0.0,1310988,1310988,6620172,0,0,0,164,1,1,1,2,0,0,0,0,0,0,0,0
29172000,29092000,4831840897,1.4878817e-05,0.0016982944,0.006842046,0,3.8723345,0.3779202,nan,nan,nan,0.018653125,0.0,0.0,0.0,0.0,1310988,1310988,6620172,0,0,0,164,1,1,1,2,0,0,0,0,0,0,0,0
29372000,29292000,4831840897,1.4670447e-05,0.0011112698,0.0049994583,0,3.848052,0.3926379,nan,nan,nan,0.01697392,0.0,0.0,0.0,0.0,1310988,1310988,6620172,0,0,0,164,1,1,1,2,0,0,0,0,0,0,0,0
29580000,29500000,4831840897,1.4174797e-05,0.0014929665,0.0063797394,0,3.8295639,0.37846342,nan,nan,nan,0.02141527,0.0,0.0,0.0,0.0,1310988,1310988,6620172,0,0,0,164,1,1,1,2,0,0,0,0,0,0,0,0
29772000,29692000,4831840897,9.689162e-06,0.002130345,0.009241409,0,3.9480212,0.39230764,nan,nan,nan,0.018298417,0.0,0.0,0.0,0.0,1310988,1310988,6620172,0,0,0,164,1,1,1,2,0,0,0,0,0,0,0,0
29972000,29892000,4831840897,9.514754e-06,0.0022619588,0.00962722,0,3.9243698,0.379368,nan,nan,nan,0.02030129,0.0,0.0,0.0,0.0,1310988,1310988,6620172,0,0,0,164,1,1,1,2,0,0,0,0,0,0,0,0
30172000,30092000,4831840897,9.302311e-06,0.002069226,0.0090289535,0,3.9017818,0.3942299,nan,nan,nan,0.020951074,0.0,0.0,0.0,0.0,1310988,1310988,6620172,0,0,0,164,1,1,1,2,0,0,0,0,0,0,0,0
30380000,30300000,4831840897,9.384464e-06,0.0021311655,0.009285196,0,3.8851225,0.37971884,nan,nan,nan,0.021657934,0.0,0.0,0.0,0.0,1310988,1310988,6620172,0,0,0,164,1,1,1,2,0,0,0,0,0,0,0,0
30572000,30492000,4831840897,8.99979e-06,0.0019445766,0.008537225,0,3.859765,0.3936376,nan,nan,nan,0.023271099,0.0,0.0,0.0,0.0,1310988,1310988,6620172,0,0,0,164,1,1,1,2,0,0,0,0,0,0,0,0
30772000,30692000,4831840897,8.906736e-06,0.0018380642,0.008184254,0,3.8403213,0.38051465,nan,nan,nan,0.021029154,0.0,0.0,0.0,0.0,1310988,1310988,6620172,0,0,0,164,1,1,1,2,0,0,0,0,0,0,0,0
30980000,30900000,4831840897,8.89601e-06,0.0018269547,0.00820458,0,3.8267,0.39387828,nan,nan,nan,0.022342745,0.0,0.0,0.0,0.0,1310988,1310988,6620172,0,0,0,164,1,1,1,2,0,0,0,0,0,0,0,0
31172000,31092000,4831840897,8.813981e-06,0.0020044483,0.008667388,0,3.8045323,0.37991172,nan,nan,nan,0.0219107,0.0,0.0,0.0,0.0,1310988,1310988,6620172,0,0,0,164,1,1,1,2,0,0,0,0,0,0,0,0
31372000,31292000,4831840897,8.787214e-06,0.0022050713,0.00908867,0,3.7881718,0.39476207,nan,nan,nan,0.023599511,0.0,0.0,0.0,0.0,1310988,1310988,6620172,0,0,0,164,1,1,1,2,0,0,0,0,0,0,0,0
31572000,31492000,4831840897,8.972172e-06,0.0018056781,0.007899898,0,3.7728267,0.3792791,nan,nan,nan,0.024600673,0.0,0.0,0.0,0.0,1310988,1310988,6620172,0,0,0,164,1,1,1,2,0,0,0,0,0,0,0,0
31772000,31692000,4831840897,9.085379e-06,0.0023758751,0.009639559,0,3.758486,0.39408985,nan,nan,nan,0.022757586,0.0,0.0,0.0,0.0,1310988,1310988,6620172,0,0,0,164,1,1,1,2,0,0,0,0,0,0,0,0
31972000,31892000,4831840897,9.533639e-06,0.001770399,0.007779377,0,3.7451327,0.37869376,nan,nan,nan,0.02345601,0.0,0.0,0.0,0.0,1310988,1310988,6620172,0,0,0,164,1,1,1,2,0,0,0,0,0,0,0,0
32172000,32092000,4831840897,9.859899e-06,0.0019580857,0.008362578,0,3.732753,0.39341336,nan,nan,nan,0.02574727,0.0,0.0,0.0,0.0,1310988,1310988,6620172,0,0,0,164,1,1,1,2,0,0,0,0,0,0,0,0
32380000,32300000,4831840897,1.0281282e-05,0.0016404326,0.0075673633,0,3.7260602,0.37903503,nan,nan,nan,0.02426326,0.0,0.0,0.0,0.0,1310988,1310988,6620172,0,0,0,164,1,1,1,2,0,0,0,0,0,0,0,0
32580000,32500000,4831840897,1.0892435e-05,0.002290373,0.009469327,0,3.715583,0.393752,nan,nan,nan,0.025096804,0.0,0.0,0.0,0.0,1310988,1310988,6620172,0,0,0,164,1,1,1,2,0,0,0,0,0,0,0,0
32772000,32692000,4831840897,1.2789268e-05,0.0014840715,0.0073374654,0,3.7012804,0.37981048,nan,nan,nan,0.024165448,0.0,0.0,0.0,0.0,1310988,1310988,6620172,0,0,0,164,1,1,1,2,0,0,0,0,0,0,0,0
32980000,32900000,4831840897,1.3291091e-05,0.0019953852,0.008843758,0,3.697376,0.3930841,nan,nan,nan,0.026351264,0.0,0.0,0.0,0.0,1310988,1310988,6620172,0,0,0,164,1,1,1,2,0,0,0,0,0,0,0,0
33172000,33092000,4831840897,1.48261815e-05,0.0018172781,0.008743081,0,3.684824,0.37924033,nan,nan,nan,0.025324393,0.0,0.0,0.0,0.0,1310988,1310988,6620172,0,0,0,164,1,1,1,2,0,0,0,0,0,0,0,0
33372000,33292000,4831840897,1.5645905e-05,0.002778599,0.011759583,0,3.677882,0.39404592,nan,nan,nan,0.022217812,0.0,0.0,0.0,0.0,1310988,1310988,6620172,0,0,0,164,1,1,1,2,0,0,0,0,0,0,0,0
33572000,33492000,4831840897,1.7625818e-05,0.0015758936,0.00896028,0,3.6717558,0.37866417,nan,nan,nan,0.023471097,0.0,0.0,0.0,0.0,1310988,1310988,6620172,0,0,0,164,1,1,1,2,0,0,0,0,0,0,0,0
33772000,33692000,4831840897,1.8861461e-05,0.0031948143,0.01389689,0,3.6664238,0.39339206,nan,nan,nan,0.025000347,0.0,0.0,0.0,0.0,1310988,1310988,6620172,0,0,0,164,1,1,1,2,0,0,0,0,0,0,0,0
33980000,33900000,4831840897,2.0988487e-05,0.0017488932,0.010355963,0,3.666719,0.37901658,nan,nan,nan,0.025050953,0.0,0.0,0.0,0.0,1310988,1310988,6620172,0,0,0,164,1,1,1,2,0,0,0,0,0,0,0,0
34180000,34100000,4831840897,2.2673088e-05,0.0035313664,0.015809292,0,3.6629136,0.39369136,nan,nan,nan,0.025818394,0.0,0.0,0.0,0.0,1310988,1310988,6620172,0,0,0,164,1,1,1,2,0,0,0,0,0,0,0,0
34372000,34292000,4831840897,2.6509546e-05,0.0024478005,0.013951232,0,3.6548872,0.3797338,nan,nan,nan,0.027553983,0.0,0.0,0.0,0.0,1310988,1310988,6620172,0,0,0,164,1,1,1,2,0,0,0,0,0,0,0,0
34572000,34492000,4831840897,2.8611483e-05,0.0035937466,0.017678786,0,3.6524127,0.39212543,nan,nan,nan,0.026877083,0.0,0.0,0.0,0.0,1310988,1310988,6620172,0,0,0,164,1,1,1,2,0,0,0,0,0,0,0,0
34772000,34692000,4831840897,3.2469987e-05,0.0029670016,0.017097238,0,3.6505525,0.37925988,nan,nan,nan,0.024363361,0.0,0.0,0.0,0.0,1310988,1310988,6620172,0,0,0,164,1,1,1,2,0,0,0,0,0,0,0,0
34980000,34900000,4831840897,3.423594e-05,0.0044342307,0.021345833,0,3.6542828,0.3949184,nan,nan,nan,0.024793565,0.0,0.0,0.0,0.0,1310988,1310988,6620172,0,0,0,164,1,1,1,2,0,0,0,0,0,0,0,0
35180000,35100000,4831840897,1.0707982e-05,0.00077708944,0.004642698,0,3.7823267,0.3794942,nan,nan,nan,0.02316504,0.0,0.0,0.0,0.0,1310988,1310988,6620172,0,0,0,164,1,1,1,2,0,0,0,0,0,0,0,0
35380000,35300000,4831840897,1.1180888e-05,0.003205212,0.012245631,0,3.7824585,0.39426285,nan,nan,nan,0.02477163,0.0,0.0,0.0,0.0,1310988,1310988,6620172,0,0,0,164,1,1,1,2,0,0,0,0,0,0,0,0
35580000,35500000,4831840897,1.2542819e-05,0.00082913274,0.0047354973,0,3.7830927,0.37890732,nan,nan,nan,0.022718515,0.0,0.0,0.0,0.0,1310988,1310988,6620172,0,0,0,164,1,1,1,2,0,0,0,0,0,0,0,0
35780000,35700000,4831840897,1.3552406e-05,0.0035955317,0.013610997,0,3.7841833,0.3936007,nan,nan,nan,0.02194846,0.0,0.0,0.0,0.0,1310988,1310988,6620172,0,0,0,164,1,1,1,2,0,0,0,0,0,0,0,0
35980000,35900000,4831840897,1.6117945e-05,0.0011266564,0.005693902,0,3.785677,0.38063216,nan,nan,nan,0.021364145,0.0,0.0,0.0,0.0,1310988,1310988,6620172,0,0,0,164,1,1,1,2,0,0,0,0,0,0,0,0
36172000,36092000,4831840897,1.9795443e-05,0.003731602,0.014372212,0,3.7821248,0.39460015,nan,nan,nan,0.02129272,0.0,0.0,0.0,0.0,1310988,1310988,6620172,0,0,0,164,1,1,1,2,0,0,0,0,0,0,0,0
36380000,36300000,4831840897,2.1715088e-05,0.0014879846,0.0071501047,0,3.7896748,0.37997556,nan,nan,nan,0.023957964,0.0,0.0,0.0,0.0,1310988,1310988,6620172,0,0,0,164,1,1,1,2,0,0,0,0,0,0,0,0
36580000,36500000,4831840897,2.4432413e-05,0.0037903944,0.014797657,0,3.7920742,0.39474532,nan,nan,nan,0.022956938,0.0,0.0,0.0,0.0,1310988,1310988,6620172,0,0,0,164,1,1,1,2,0,0,0,0,0,0,0,0
36772000,36692000,4831840897,3.18251e-05,0.0018910264,0.009455459,0,3.7891648,0.38077298,nan,nan,nan,0.019914081,0.0,0.0,0.0,0.0,1310988,1310988,6620172,0,0,0,164,1,1,1,2,0,0,0,0,0,0,0,0
36972000,36892000,4831840897,3.561823e-05,0.0039986684,0.016383884,0,3.7918725,0.39321285,nan,nan,nan,0.022054598,0.0,0.0,0.0,0.0,1310988,1310988,6620172,0,0,0,164,1,1,1,2,0,0,0,0,0,0,0,0
37180000,37100000,4831840897,3.8588223e-05,0.002579357,0.012150211,0,3.8002455,0.38108328,nan,nan,nan,0.02196108,0.0,0.0,0.0,0.0,1310988,1310988,6620172,0,0,0,164,1,1,1,2,0,0,0,0,0,0,0,0
37372000,37292000,4831840897,4.6477322e-05,0.0049198605,0.020349596,0,3.7975466,0.3926343,nan,nan,nan,0.020194845,0.0,0.0,0.0,0.0,1310988,1310988,6620172,0,0,0,164,1,1,1,2,0,0,0,0,0,0,0,0
37572000,37492000,4831840897,5.38992e-05,0.0031648919,0.015774144,0,3.8004258,0.3796842,nan,nan,nan,0.018558947,0.0,0.0,0.0,0.0,1310988,1310988,6620172,0,0,0,164,1,1,1,2,0,0,0,0,0,0,0,0
37780000,37700000,4831840897,5.5520588e-05,0.005148834,0.021857608,0,3.8089228,0.39536947,nan,nan,nan,0.01881755,0.0,0.0,0.0,0.0,1310988,1310988,6620172,0,0,0,164,1,1,1,2,0,0,0,0,0,0,0,0
37980000,37900000,4831840897,6.36074e-05,0.003591364,0.018037088,0,3.8117173,0.3799598,nan,nan,nan,0.020280715,0.0,0.0,0.0,0.0,1310988,1310988,6620172,0,0,0,164,1,1,1,2,0,0,0,0,0,0,0,0
38180000,38100000,4831840897,6.987153e-05,0.005246509,0.023557404,0,3.8144004,0.39470264,nan,nan,nan,0.018996922,0.0,0.0,0.0,0.0,1310988,1310988,6620172,0,0,0,164,1,1,1,2,0,0,0,0,0,0,0,0
38380000,38300000,4831840897,7.517989e-05,0.004120833,0.021495441,0,3.8169065,0.38145643,nan,nan,nan,0.019446034,0.0,0.0,0.0,0.0,1310988,1310988,6620172,0,0,0,164,1,1,1,2,0,0,0,0,0,0,0,0
38572000,38492000,4832889473,7.881885e-05,0.00574175,0.027641235,0,3.813237,0.39299834,nan,nan,nan,0.018361183,0.0,0.0,0.0,0.0,1310988,1310988,6620172,0,0,0,164,1,1,1,2,0,0,0,0,0,0,0,0
38772000,38692000,4832889473,8.438877e-05,0.0052323393,0.02744513,0,3.814547,0.37985957,nan,nan,nan,0.018595202,0.0,0.0,0.0,0.0,1310988,1310988,6620172,0,0,0,164,1,1,1,2,0,0,0,0,0,0,0,0
38972000,38892000,4832889473,8.694042e-05,0.006236985,0.031070521,0,3.815351,0.39464834,nan,nan,nan,0.020119084,0.0,0.0,0.0,0.0,1310988,1310988,6620172,0,0,0,164,1,1,1,2,0,0,0,0,0,0,0,0
39172000,39092000,4832889473,9.2067596e-05,0.006153056,0.031654257,0,3.8160474,0.37923074,nan,nan,nan,0.022543143,0.0,0.0,0.0,0.0,1310988,1310988,6620172,0,0,0,164,1,1,1,2,0,0,0,0,0,0,0,0
39372000,39292000,4832889473,9.43806e-05,0.007025177,0.034925427,0,3.8166718,0.39393392,nan,nan,nan,0.020316044,0.0,0.0,0.0,0.0,1310988,1310988,6620172,0,0,0,164,1,1,1,2,0,0,0,0,0,0,0,0
39572000,39492000,4832889473,9.9670666e-05,0.0068610427,0.03564834,0,3.817067,0.38080344,nan,nan,nan,0.019288652,0.0,0.0,0.0,0.0,1310988,1310988,6620172,0,0,0,164,1,1,1,2,0,0,0,0,0,0,0,0
39780000,39700000,4832889473,9.994397e-05,0.0073920847,0.03670475,0,3.8229682,0.3940835,nan,nan,nan,0.022407718,0.0,0.0,0.0,0.0,1310988,1310988,6620172,0,0,0,164,1,1,1,2,0,0,0,0,0,0,0,0
39972000,39892000,4832889473,0.00010832349,0.0077398275,0.039994393,0,3.8170538,0.38001648,nan,nan,nan,0.019868897,0.0,0.0,0.0,0.0,1310988,1310988,6620172,0,0,0,164,1,1,1,2,0,0,0,0,0,0,0,0
40172000,40092000,4832889473,2.0202926e-05,0.002476958,0.0096847825,0,3.9641776,0.39480186,nan,nan,nan,0.024736606,0.0,0.0,0.0,0.0,1310988,1310988,6620172,0,0,0,164,1,1,1,2,0,0,0,0,0,0,0,0
40372000,40292000,4832889473,2.4398058e-05,0.0007220146,0.00456236,0,3.9638553,0.37934893,nan,nan,nan,0.021127963,0.0,0.0,0.0,0.0,1310988,1310988,6620172,0,0,0,164,1,1,1,2,0,0,0,0,0,0,0,0
40580000,40500000,4832889473,2.374436e-05,0.0031715736,0.012100139,0,3.969218,0.39493662,nan,nan,nan,0.021543337,0.0,0.0,0.0,0.0,1310988,1310988,6620172,0,0,0,164,1,1,1,2,0,0,0,0,0,0,0,0
40772000,40692000,4832889473,3.271793e-05,0.00063673337,0.0039238646,0,3.9622269,0.380776,nan,nan,nan,0.021412024,0.0,0.0,0.0,0.0,1310988,1310988,6620172,0,0,0,164,1,1,1,2,0,0,0,0,0,0,0,0
40980000,40900000,4832889473,3.205476e-05,0.0026858195,0.0102297375,0,3.9669223,0.39404935,nan,nan,nan,0.020510891,0.0,0.0,0.0,0.0,1310988,1310988,6620172,0,0,0,164,1,1,1,2,0,0,0,0,0,0,0,0
41172000,41092000,4832889473,4.2617823e-05,0.0007315013,0.0038358348,0,3.959257,0.37998345,nan,nan,nan,0.021507213,0.0,0.0,0.0,0.0,1310988,1310988,6620172,0,0,0,164,1,1,1,2,0,0,0,0,0,0,0,0
41380000,41300000,4832889473,4.2004038e-05,0.0025033106,0.009376358,0,3.9632576,0.3956526,nan,nan,nan,0.024738349,0.0,0.0,0.0,0.0,1310988,1310988,6620172,0,0,0,164,1,1,1,2,0,0,0,0,0,0,0,0
41572000,41492000,4832889473,5.3501553e-05,0.001245819,0.005480184,0,3.954907,0.37919882,nan,nan,nan,0.023014829,0.0,0.0,0.0,0.0,1310988,1310988,6620172,0,0,0,164,1,1,1,2,0,0,0,0,0,0,0,0
41780000,41700000,4832889473,5.2552994e-05,0.002591952,0.009569308,0,3.9582102,0.39480028,nan,nan,nan,0.023475878,0.0,0.0,0.0,0.0,1310988,1310988,6620172,0,0,0,164,1,1,1,2,0,0,0,0,0,0,0,0
41972000,41892000,4832889473,6.471666e-05,0.0017907608,0.0077622854,0,3.9492023,0.3784873,nan,nan,nan,0.025143633,0.0,0.0,0.0,0.0,1310988,1310988,6620172,0,0,0,164,1,1,1,2,0,0,0,0,0,0,0,0
42172000,42092000,4832889473,6.88513e-05,0.0025592376,0.009986619,0,3.945855,0.39314798,nan,nan,nan,0.023877786,0.0,0.0,0.0,0.0,1310988,1310988,6620172,0,0,0,164,1,1,1,2,0,0,0,0,0,0,0,0
42372000,42292000,4832889473,7.561235e-05,0.001600226,0.007924074,0,3.942177,0.3801718,nan,nan,nan,0.023615476,0.0,0.0,0.0,0.0,1310988,1310988,6620172,0,0,0,164,1,1,1,2,0,0,0,0,0,0,0,0
42572000,42492000,4832889473,8.048403e-05,0.0019518723,0.009278805,0,3.9377356,0.39241856,nan,nan,nan,0.031702794,0.0,0.0,0.0,0.0,1310988,1310988,6620172,0,0,0,164,1,1,1,2,0,0,0,0,0,0,0,0
42772000,42692000,4832889473,8.846307e-05,0.00807563,0.0323641,0,3.9335542,0.37875962,nan,nan,nan,0.05639524,0.0,0.0,0.0,0.0,1310988,1310988,6620172,0,0,0,164,1,1,1,2,0,0,0,0,0,0,0,0
42972000,42892000,4832889473,9.1746464e-05,0.0038579514,0.018150188,0,3.9290385,0.3923628,nan,nan,nan,0.062291086,0.0,0.0,0.0,0.0,1310988,1310988,6620172,0,0,0,164,1,1,1,2,0,0,0,0,0,0,0,0
43180000,43100000,4832889473,9.561664e-05,0.019242026,0.08004129,0,3.9299219,0.3765362,nan,nan,nan,0.11040352,0.0,0.0,0.0,0.0,1310988,1310988,6620172,0,0,0,164,1,1,1,2,0,0,0,0,0,0,0,0
43372000,43292000,4832889473,9.839551e-05,0.009922057,0.04536305,0,3.918561,0.38837582,nan,nan,nan,0.11604288,0.0,0.0,0.0,0.0,1310988,1310988,6620172,0,0,0,164,1,1,1,2,0,0,0,0,0,0,0,0
43580000,43500000,4832889473,0.00010336382,0.027291661,0.11916024,0,3.9184809,0.3724612,nan,nan,nan,0.14918739,0.0,0.0,0.0,0.0,1310988,1310988,6620172,0,0,0,164,1,1,1,2,0,0,0,0,0,0,0,0
43780000,43700000,4832889473,9.833487e-05,0.011717758,0.056801464,0,3.9121537,0.38426444,nan,nan,nan,0.14880688,0.0,0.0,0.0,0.0,1310988,1310988,6620172,0,0,0,164,1,1,1,2,0,0,0,0,0,0,0,0
43972000,43892000,4832889473,0.000106565385,0.027546909,0.12664133,0,3.8996875,0.36931607,nan,nan,nan,0.17544167,0.0,0.0,0.0,0.0,1310988,1310988,6620172,0,0,0,164,1,1,1,2,0,0,0,0,0,0,0,0
44180000,44100000,4832889473,9.997855e-05,0.012429278,0.06303104,0,3.898493,0.37917662,nan,nan,nan,0.18517208,0.0,0.0,0.0,0.0,1310988,1310988,6620172,0,0,0,164,1,1,1,2,0,0,0,0,0,0,0,0
44380000,44300000,4832889473,0.00010726122,0.028078847,0.13325632,0,3.8912559,0.3653117,nan,nan,nan,0.20266694,0.0,0.0,0.0,0.0,1310988,1310988,6620172,0,0,0,164,1,1,1,2,0,0,0,0,0,0,0,0
44580000,44500000,4832889473,0.00010032119,0.007892869,0.045394424,0,3.8838227,0.3763119,nan,nan,nan,0.2041012,0.0,0.0,0.0,0.0,1310988,1310988,6620172,0,0,0,164,1,1,1,2,0,0,0,0,0,0,0,0
44772000,44692000,4832889473,0.00011091274,0.024331124,0.11909978,0,3.8705235,0.3622734,nan,nan,nan,0.21294577,0.0,0.0,0.0,0.0,1310988,1310988,6620172,0,0,0,164,1,1,1,2,0,0,0,0,0,0,0,0
44972000,44892000,4832889473,0.00010519972,0.007501701,0.04385419,0,3.862793,0.37117204,nan,nan,nan,0.22331282,0.0,0.0,0.0,0.0,1310988,1310988,6620172,0,0,0,164,1,1,1,2,0,0,0,0,0,0,0,0
45172000,45092000,4832889473,0.00011415853,0.023194255,0.11327765,0,3.8549323,0.35855916,nan,nan,nan,0.22940576,0.0,0.0,0.0,0.0,1310988,1310988,6620172,0,0,0,164,1,1,1,2,0,0,0,0,0,0,0,0
45372000,45292000,4832889473,2.1922135e-05,0.0038026492,0.022989057,0,3.9988954,0.36950764,nan,nan,nan,0.23324004,0.0,0.0,0.0,0.0,1310988,1310988,6620172,0,0,0,164,1,1,1,2,0,0,0,0,0,0,0,0
45580000,45500000,4832889473,2.9214258e-05,0.018918782,0.093624935,0,3.9970832,0.3560074,nan,nan,nan,0.235588,0.0,0.0,0.0,0.0,1310988,1310988,6620172,0,0,0,164,1,1,1,2,0,0,0,0,0,0,0,0
45780000,45700000,4832889473,2.4426485e-05,0.005378767,0.023261584,0,3.989286,0.36667007,nan,nan,nan,0.23939335,0.0,0.0,0.0,0.0,1310988,1310988,6620172,0,0,0,164,1,1,1,2,0,0,0,0,0,0,0,0
45972000,45892000,4832889473,3.8894927e-05,0.014582696,0.075270854,0,3.9755766,0.35396442,nan,nan,nan,0.23774572,0.0,0.0,0.0,0.0,1310988,1310988,6620172,0,0,0,164,1,1,1,2,0,0,0,0,0,0,0,0
46172000,46092000,4832889473,3.4091958e-05,0.006350217,0.024903119,0,3.9676013,0.36247846,nan,nan,nan,0.24347748,0.0,0.0,0.0,0.0,1310988,1310988,6620172,0,0,0,164,1,1,1,2,0,0,0,0,0,0,0,0
46380000,46300000,4832889473,4.139642e-05,0.010337,0.05746156,0,3.9653003,0.35133615,nan,nan,nan,0.24180172,0.0,0.0,0.0,0.0,1310988,1310988,6620172,0,0,0,164,1,1,1,2,0,0,0,0,0,0,0,0
46572000,46492000,4832889473,3.9924336e-05,0.010980953,0.043556385,0,3.9513988,0.360856,nan,nan,nan,0.24173291,0.0,0.0,0.0,0.0,1310988,1310988,6620172,0,0,0,164,1,1,1,2,0,0,0,0,0,0,0,0
46772000,46692000,4832889473,5.3467353e-05,0.00933157,0.05353264,0,3.9431894,0.34754542,nan,nan,nan,0.24163932,0.0,0.0,0.0,0.0,1310988,1310988,6620172,0,0,0,164,1,1,1,2,0,0,0,0,0,0,0,0
46980000,46900000,4832889473,4.263122e-05,0.013723544,0.056482427,0,3.9406183,0.35810328,nan,nan,nan,0.24098787,0.0,0.0,0.0,0.0,1310988,1310988,6620172,0,0,0,164,1,1,1,2,0,0,0,0,0,0,0,0
47172000,47092000,4832889473,6.047938e-05,0.0054962174,0.034817,0,3.9266133,0.34624052,nan,nan,nan,0.23722906,0.0,0.0,0.0,0.0,1310988,1310988,6620172,0,0,0,164,1,1,1,2,0,0,0,0,0,0,0,0
47372000,47292000,4832889473,5.3316948e-05,0.013681025,0.0572441,0,3.918264,0.35444304,nan,nan,nan,0.23977694,0.0,0.0,0.0,0.0,1310988,1310988,6620172,0,0,0,164,1,1,1,2,0,0,0,0,0,0,0,0
47580000,47500000,4832889473,6.127831e-05,0.002383487,0.016987367,0,3.9155073,0.34438598,nan,nan,nan,0.2335582,0.0,0.0,0.0,0.0,1310988,1310988,6620172,0,0,0,164,1,1,1,2,0,0,0,0,0,0,0,0
47772000,47692000,4832889473,5.8940535e-05,0.017412886,0.07643493,0,3.9014735,0.35389355,nan,nan,nan,0.23256522,0.0,0.0,0.0,0.0,1310988,1310988,6620172,0,0,0,164,1,1,1,2,0,0,0,0,0,0,0,0
47972000,47892000,4832889473,7.452901e-05,0.002993447,0.017112648,0,3.8930476,0.34192944,nan,nan,nan,0.22906731,0.0,0.0,0.0,0.0,1310988,1310988,6620172,0,0,0,164,1,1,1,2,0,0,0,0,0,0,0,0
48172000,48092000,4832889473,6.5887376e-05,0.017307064,0.07849678,0,3.8846128,0.35229084,nan,nan,nan,0.23128799,0.0,0.0,0.0,0.0,1310988,1310988,6620172,0,0,0,164,1,1,1,2,0,0,0,0,0,0,0,0
48372000,48292000,4832889473,7.964815e-05,0.00096831104,0.005202038,0,3.8761737,0.34258693,nan,nan,nan,0.21912175,0.0,0.0,0.0,0.0,1310988,1310988,6620172,0,0,0,164,1,1,1,2,0,0,0,0,0,0,0,0
48580000,48500000,4832889473,6.876234e-05,0.018560598,0.08710456,0,3.8732586,0.3523664,nan,nan,nan,0.22410937,0.0,0.0,0.0,0.0,1310988,1310988,6620172,0,0,0,164,1,1,1,2,0,0,0,0,0,0,0,0
48780000,48700000,4832889473,7.838486e-05,0.0016995405,0.013605687,0,3.8648133,0.3431873,nan,nan,nan,0.21804279,0.0,0.0,0.0,0.0,1310988,1310988,6620172,0,0,0,164,1,1,1,2,0,0,0,0,0,0,0,0
48980000,48900000,4832889473,6.940165e-05,0.018210113,0.08820272,0,3.8563867,0.35283083,nan,nan,nan,0.21712613,0.0,0.0,0.0,0.0,1310988,1310988,6620172,0,0,0,164,1,1,1,2,0,0,0,0,0,0,0,0
49172000,49092000,4832889473,8.2671555e-05,0.0014609168,0.009909517,0,3.842527,0.34335566,nan,nan,nan,0.20684405,0.0,0.0,0.0,0.0,1310988,1310988,6620172,0,0,0,164,1,1,1,2,0,0,0,0,0,0,0,0
49380000,49300000,4832889473,6.9678936e-05,0.01976236,0.09639905,0,3.839606,0.35604057,nan,nan,nan,0.20879838,0.0,0.0,0.0,0.0,1310988,1310988,6620172,0,0,0,164,1,1,1,2,0,0,0,0,0,0,0,0
49572000,49492000,4832889473,8.2639206e-05,0.0016936106,0.020406898,0,3.825847,0.34680998,nan,nan,nan,0.19919522,0.0,0.0,0.0,0.0,1310988,1310988,6620172,0,0,0,164,1,1,1,2,0,0,0,0,0,0,0,0
49780000,49700000,4832889473,7.163828e-05,0.019737378,0.09741115,0,3.8229573,0.35844815,nan,nan,nan,0.20156121,0.0,0.0,0.0,0.0,1310988,1310988,6620172,0,0,0,164,1,1,1,2,0,0,0,0,0,0,0,0
49980000,49900000,4832889473,8.2044295e-05,0.002508766,0.028091855,0,3.8146956,0.35011613,nan,nan,nan,0.18999867,0.0,0.0,0.0,0.0,1310988,1310988,6620172,0,0,0,164,1,1,1,2,0,0,0,0,0,0,0,0
50180000,50100000,4832889473,7.41532e-05,0.019777475,0.09799231,0,3.8064842,0.3615883,nan,nan,nan,0.18753979,0.0,0.0,0.0,0.0,1310988,1310988,6620172,0,0,0,164,1,1,1,2,0,0,0,0,0,0,0,0
50380000,50300000,4898949633,0.0018573425,0.120732464,0.28716657,0,0.0142739285,0.32398885,nan,nan,nan,0.17503163,0.0,0.0,0.0,0.0,1310988,1310988,6620172,0,0,0,164,1,1,1,2,0,0,0,0,0,0,0,0
50580000,50500000,4898949633,0.0004139252,0.07444345,0.09450068,0,0.013393753,0.31501678,nan,nan,nan,0.1706185,0.0,0.0,0.0,0.0,1310988,1310988,6620172,0,0,0,164,1,1,1,2,0,0,0,0,0,0,0,0
50780000,50700000,4898949633,3.9519728e-05,0.028867468,0.019630658,0,0.030258799,0.29531902,nan,nan,nan,0.13250351,0.0,0.0,0.0,0.0,1310988,1310988,6620172,0,0,0,164,1,1,1,2,0,0,0,0,0,0,0,0
50972000,50892000,4898949633,2.4693738e-05,0.0061890073,0.08101734,0,0.02618446,0.29236722,nan,nan,nan,0.13192108,0.0,0.0,0.0,0.0,1310988,1310988,6620172,0,0,0,164,1,1,1,2,0,0,0,0,0,0,0,0
51172000,51092000,4898949633,1.0081701e-05,0.019704215,0.100960076,0,0.02469681,0.2796882,nan,nan,nan,0.121845126,0.0,0.0,0.0,0.0,1310988,1310988,6620172,0,0,0,164,1,1,1,2,0,0,0,0,0,0,0,0
51380000,51300000,4898949633,2.0706011e-05,0.034260247,0.1514653,0,0.0231691,0.27869424,nan,nan,nan,0.12137081,0.0,0.0,0.0,0.0,1310988,1310988,6620172,0,0,0,164,1,1,1,2,0,0,0,0,0,0,0,0
51572000,51492000,4898949633,1.5329393e-05,0.036439262,0.13784494,0,0.02035317,0.26842418,nan,nan,nan,0.108733445,0.0,0.0,0.0,0.0,1310988,1310988,6620172,0,0,0,164,1,1,1,2,0,0,0,0,0,0,0,0
51780000,51700000,4898949633,1.3861899e-05,0.042459838,0.16579673,0,0.018936334,0.26916602,nan,nan,nan,0.11175906,0.0,0.0,0.0,0.0,1310988,1310988,6620172,0,0,0,164,1,1,1,2,0,0,0,0,0,0,0,0
51980000,51900000,4898949633,1.3369537e-05,0.04090394,0.1446739,0,0.017455176,0.26003125,nan,nan,nan,0.10995989,0.0,0.0,0.0,0.0,1310988,1310988,6620172,0,0,0,164,1,1,1,2,0,0,0,0,0,0,0,0
52180000,52100000,4898949633,1.0285552e-05,0.042809643,0.16030034,0,0.01632931,0.26092803,nan,nan,nan,0.10991954,0.0,0.0,0.0,0.0,1310988,1310988,6620172,0,0,0,164,1,1,1,2,0,0,0,0,0,0,0,0
52372000,52292000,4898949633,2.305904e-05,0.039656706,0.13492921,0,0.015189804,0.25337473,nan,nan,nan,0.10108044,0.0,0.0,0.0,0.0,1310988,1310988,6620172,0,0,0,164,1,1,1,2,0,0,0,0,0,0,0,0
52580000,52500000,4898949633,2.915172e-05,0.040543776,0.14809796,0,0.014812625,0.25411782,nan,nan,nan,0.10303719,0.0,0.0,0.0,0.0,1310988,1310988,6620172,0,0,0,164,1,1,1,2,0,0,0,0,0,0,0,0
52772000,52692000,4898949633,2.5628773e-05,0.03706511,0.12260694,0,0.014045359,0.24738792,nan,nan,nan,0.10161586,0.0,0.0,0.0,0.0,1310988,1310988,6620172,0,0,0,164,1,1,1,2,0,0,0,0,0,0,0,0
52972000,52892000,4898949633,1.0676736e-05,0.035122946,0.12859492,0,0.013712638,0.2516237,nan,nan,nan,0.0973638,0.0,0.0,0.0,0.0,1310988,1310988,6620172,0,0,0,164,1,1,1,2,0,0,0,0,0,0,0,0
53172000,53092000,4898949633,1.3750206e-05,0.031131573,0.10482848,0,0.0133624105,0.24488373,nan,nan,nan,0.0961173,0.0,0.0,0.0,0.0,1310988,1310988,6620172,0,0,0,164,1,1,1,2,0,0,0,0,0,0,0,0
