timestamp,timestamp_sample,gps_hvel[0],gps_hvel[1],gps_vvel,gps_hpos[0],gps_hpos[1],gps_vpos,ev_hvel[0],ev_hvel[1],ev_vvel,ev_hpos[0],ev_hpos[1],ev_vpos,rng_vpos,baro_vpos,aux_hvel[0],aux_hvel[1],aux_vvel,flow[0],flow[1],terr_flow[0],terr_flow[1],heading,mag_field[0],mag_field[1],mag_field[2],gravity[0],gravity[1],gravity[2],drag[0],drag[1],airspeed,beta,hagl,hagl_rate
3180000,3100000,0.0,0.0,0.0,0.0,0.0,0.0,0.0,0.0,0.0,0.0,0.0,0.0,0.0,0.0,0.0,0.0,nan,0.0,0.0,0.0,0.0,0.0,0.0,0.0,0.0,1.9799522,1.9801686,1.0008472,0.0,0.0,0.0,0.0,0.0,0.0
3188000,3108000,0.0,0.0,0.0,0.0,0.0,0.0,0.0,0.0,0.0,0.0,0.0,0.0,0.0,0.0,0.0,0.0,nan,0.0,0.0,0.0,0.0,0.0,0.0,0.0,0.0,1.982692,1.9829577,1.0008516,0.0,0.0,0.0,0.0,0.0,0.0
3196000,3116000,0.0,0.0,0.0,0.0,0.0,0.0,0.0,0.0,0.0,0.0,0.0,0.0,0.0,0.0,0.0,0.0,nan,0.0,0.0,0.0,0.0,0.0,0.0,0.0,0.0,1.9847684,1.9850402,1.0008552,0.0,0.0,0.0,0.0,0.0,0.0
3204000,3124000,0.0,0.0,0.0,0.0,0.0,0.0,0.0,0.0,0.0,0.0,0.0,0.0,0.0,0.0,0.0,0.0,nan,0.0,0.0,0.0,0.0,0.0,0.0,0.0,0.0,1.9884281,1.9885485,1.0163045,0.0,0.0,0.0,0.0,0.0,0.0
3212000,3132000,0.0,0.0,0.0,0.0,0.0,0.0,0.0,0.0,0.0,0.0,0.0,0.0,0.0,0.0,0.0,0.0,nan,0.0,0.0,0.0,0.0,0.0,0.0,0.0,0.0,1.9898852,1.9900281,1.0141608,0.0,0.0,0.0,0.0,0.0,0.0
3220000,3140000,0.0,0.0,0.0,0.0,0.0,0.0,0.0,0.0,0.0,0.0,0.0,0.0,0.0,0.0,0.0,0.0,nan,0.0,0.0,0.0,0.0,0.0,0.0,0.0,0.0,1.9917499,1.9919078,1.0124958,0.0,0.0,0.0,0.0,0.0,0.0
3228000,3148000,0.0,0.0,0.0,0.0,0.0,0.0,0.0,0.0,0.0,0.0,0.0,0.0,0.0,0.0,0.0,0.0,nan,0.0,0.0,0.0,0.0,0.0,0.0,0.0,0.0,1.9939575,1.994128,1.0111724,0.0,0.0,0.0,0.0,0.0,0.0
3236000,3156000,0.0,0.0,0.0,0.0,0.0,0.0,0.0,0.0,0.0,0.0,0.0,0.0,0.0,0.0,0.0,0.0,nan,0.0,0.0,0.0,0.0,0.0,0.0,0.0,0.0,1.9964702,1.9966512,1.0101067,0.0,0.0,0.0,0.0,0.0,0.0
3244000,3164000,0.0,0.0,0.0,0.0,0.0,0.0,0.0,0.0,0.0,0.0,0.0,0.0,0.0,0.0,0.0,0.0,nan,0.0,0.0,0.0,0.0,0.0,0.0,0.0,0.0,1.9992638,1.9994526,1.0092438,0.0,0.0,0.0,0.0,0.0,0.0
3252000,3172000,0.0,0.0,0.0,0.0,0.0,0.0,0.0,0.0,0.0,0.0,0.0,0.0,0.0,0.0,0.0,0.0,nan,0.0,0.0,0.0,0.0,0.0,0.0,0.0,0.0,2.0023189,2.0025148,1.0085454,0.0,0.0,0.0,0.0,0.0,0.0
3260000,3180000,0.0,0.0,0.0,0.0,0.0,0.0,0.0,0.0,0.0,0.0,0.0,0.0,0.0,0.0,0.0,0.0,nan,0.0,0.0,0.0,0.0,0.0,0.0,0.0,0.0,2.0056229,2.0058246,1.0079833,0.0,0.0,0.0,0.0,0.0,0.0
3268000,3188000,0.0,0.0,0.0,0.0,0.0,0.0,0.0,0.0,0.0,0.0,0.0,0.0,0.0,0.0,0.0,0.0,nan,0.0,0.0,0.0,0.0,0.0,0.0,0.0,0.0,2.0091643,2.009372,1.0075349,0.0,0.0,0.0,0.0,0.0,0.0
3276000,3196000,0.0,0.0,0.0,0.0,0.0,0.0,0.0,0.0,0.0,0.0,0.0,0.0,0.0,0.0,0.0,0.0,nan,0.0,0.0,0.0,0.0,0.0,0.0,0.0,0.0,2.0129347,2.0131478,1.0071825,0.0,0.0,0.0,0.0,0.0,0.0
3284000,3204000,0.0,0.0,0.0,0.0,0.0,0.0,0.0,0.0,0.0,0.0,0.0,0.0,0.0,0.0,0.0,0.0,nan,0.0,0.0,0.0,0.0,0.0,0.0,0.0,0.0,2.0169268,2.0171456,1.0069104,0.0,0.0,0.0,0.0,0.0,0.0
3292000,3212000,0.0,0.0,0.0,0.0,0.0,0.0,0.0,0.0,0.0,0.0,0.0,0.0,0.0,0.0,0.0,0.0,nan,0.0,0.0,0.0,0.0,0.0,0.0,0.0,0.0,2.021135,2.021359,1.0067042,0.0,0.0,0.0,0.0,0.0,0.0
3300000,3220000,0.0,0.0,0.0,0.0,0.0,0.0,0.0,0.0,0.0,0.0,0.0,0.0,0.0,0.0,0.0,0.0,nan,0.0,0.0,0.0,0.0,0.0,0.0,0.0,0.0,2.0255551,2.0257819,1.0065527,0.0,0.0,0.0,0.0,0.0,0.0
3308000,3228000,0.0,0.0,0.0,0.0,0.0,0.0,0.0,0.0,0.0,0.0,0.0,0.0,0.0,0.0,0.0,0.0,nan,0.0,0.0,0.0,0.0,0.0,0.0,0.0,0.0,2.030182,2.0304103,1.0064454,0.0,0.0,0.0,0.0,0.0,0.0
3316000,3236000,0.0,0.0,0.0,0.0,0.0,0.0,0.0,0.0,0.0,0.0,0.0,0.0,0.0,0.0,0.0,0.0,nan,0.0,0.0,0.0,0.0,0.0,0.0,0.0,0.0,2.035011,2.0352397,1.0063729,0.0,0.0,0.0,0.0,0.0,0.0
3324000,3244000,0.0,0.0,0.0,0.0,0.0,0.0,0.0,0.0,0.0,0.0,0.0,0.0,0.0,0.0,0.0,0.0,nan,0.0,0.0,0.0,0.0,0.0,0.0,0.0,0.0,2.04004,2.0402672,1.0063269,0.0,0.0,0.0,0.0,0.0,0.0
3332000,3252000,0.0,0.0,0.0,0.0,0.0,0.0,0.0,0.0,0.0,0.0,0.0,0.0,0.0,0.0,0.0,0.0,nan,0.0,0.0,0.0,0.0,0.0,0.0,0.0,0.0,2.0452662,2.0454907,1.0063004,0.0,0.0,0.0,0.0,0.0,0.0
3340000,3260000,0.0,0.0,0.0,0.0,0.0,0.0,0.0,0.0,0.0,0.0,0.0,0.0,0.0,0.0,0.0,0.0,nan,0.0,0.0,0.0,0.0,0.0,0.0,0.0,0.0,2.0506883,2.050908,1.0062877,0.0,0.0,0.0,0.0,0.0,0.0
3348000,3268000,0.0,0.0,0.0,0.0,0.0,0.0,0.0,0.0,0.0,0.0,0.0,0.0,0.0,0.0,0.0,0.0,nan,0.0,0.0,0.0,0.0,0.0,0.0,0.0,0.0,2.056304,2.0565171,1.006285,0.0,0.0,0.0,0.0,0.0,0.0
3356000,3276000,0.0,0.0,0.0,0.0,0.0,0.0,0.0,0.0,0.0,0.0,0.0,0.0,0.0,0.0,0.0,0.0,nan,0.0,0.0,0.0,0.0,0.0,0.0,0.0,0.0,2.0621128,2.0623174,1.0062872,0.0,0.0,0.0,0.0,0.0,0.0
3364000,3284000,0.0,0.0,0.0,0.0,0.0,0.0,0.0,0.0,0.0,0.0,0.0,0.0,0.0,0.0,0.0,0.0,nan,0.0,0.0,0.0,0.0,0.0,0.0,0.0,0.0,2.0681138,2.068308,1.0062914,0.0,0.0,0.0,0.0,0.0,0.0
3372000,3292000,0.0,0.0,0.0,0.0,0.0,0.0,0.0,0.0,0.0,0.0,0.0,0.0,0.0,0.0,0.0,0.0,nan,0.0,0.0,0.0,0.0,0.0,0.0,0.0,0.0,2.074304,2.0744867,1.0062982,0.0,0.0,0.0,0.0,0.0,0.0
3380000,3300000,0.0,0.0,0.0,0.0,0.0,0.0,0.0,0.0,0.0,0.0,0.0,0.0,0.0,0.0,0.0,0.0,nan,0.0,0.0,0.0,0.0,0.0,0.0,0.0,0.0,2.080687,2.0808558,1.0063032,0.0,0.0,0.0,0.0,0.0,0.0
3388000,3308000,0.0,0.0,0.0,0.0,0.0,0.0,0.0,0.0,0.0,0.0,0.0,0.0,0.0,0.0,0.0,0.0,nan,0.0,0.0,0.0,0.0,0.0,0.0,0.0,0.0,2.08726,2.0874152,1.0063056,0.0,0.0,0.0,0.0,0.0,0.0
3396000,3316000,0.0,0.0,0.0,0.0,0.0,0.0,0.0,0.0,0.0,0.0,0.0,0.0,0.0,0.0,0.0,0.0,nan,0.0,0.0,0.0,0.0,0.0,0.0,0.0,0.0,2.094023,2.0941634,1.0063062,0.0,0.0,0.0,0.0,0.0,0.0
3404000,3324000,0.0,0.0,0.0,0.0,0.0,0.0,0.0,0.0,0.0,0.0,0.0,0.0,0.0,0.0,0.0,0.0,nan,0.0,0.0,0.0,0.0,0.0,0.0,0.0,0.0,1.0799359,1.0798696,1.005968,0.0,0.0,0.0,0.0,0.0,0.0
3412000,3332000,0.09003024,0.090030976,0.20252562,1.0000992,1.0000992,50.999985,0.0,0.0,0.0,0.0,0.0,0.0,0.0,0.0,0.0,0.0,nan,0.0,0.0,0.0,0.0,0.0,0.0,0.0,0.0,1.0828421,1.0827775,1.005971,0.0,0.0,0.0,0.0,0.0,0.0
3420000,3340000,0.09003024,0.090030976,0.20252562,1.0000992,1.0000992,50.999985,0.0,0.0,0.0,0.0,0.0,0.0,0.0,0.0,0.0,0.0,nan,0.0,0.0,0.0,0.0,0.10012682,0.0,0.0,0.0,1.0859296,1.0858666,1.0059655,0.0,0.0,0.0,0.0,0.0,0.0
3428000,3348000,0.09003024,0.090030976,0.20252562,1.0000992,1.0000992,50.999985,0.0,0.0,0.0,0.0,0.0,0.0,0.0,0.0,0.0,0.0,nan,0.0,0.0,0.0,0.0,0.10012682,0.0,0.0,0.0,1.0860221,1.0859591,1.0059655,0.0,0.0,0.0,0.0,0.0,0.0
3436000,3356000,0.09003024,0.090030976,0.20252562,1.0000992,1.0000992,50.999985,0.0,0.0,0.0,0.0,0.0,0.0,0.0,0.0,0.0,0.0,nan,0.0,0.0,0.0,0.0,0.10012682,0.0,0.0,0.0,1.086296,1.086233,1.0059661,0.0,0.0,0.0,0.0,0.0,0.0
3444000,3364000,0.09003024,0.090030976,0.20252562,1.0000992,1.0000992,50.999985,0.0,0.0,0.0,0.0,0.0,0.0,0.0,0.0,0.0,0.0,nan,0.0,0.0,0.0,0.0,0.10012682,0.0,0.0,0.0,1.0867509,1.086688,1.0059665,0.0,0.0,0.0,0.0,0.0,0.0
3452000,3372000,0.09003024,0.090030976,0.20252562,1.0000992,1.0000992,50.999985,0.0,0.0,0.0,0.0,0.0,0.0,0.0,0.0,0.0,0.0,nan,0.0,0.0,0.0,0.0,0.10012682,0.0,0.0,0.0,1.0873872,1.0873246,1.0059671,0.0,0.0,0.0,0.0,0.0,0.0
3460000,3380000,0.09003024,0.090030976,0.20252562,1.0000992,1.0000992,50.999985,0.0,0.0,0.0,0.0,0.0,0.0,0.0,0.0,0.0,0.0,nan,0.0,0.0,0.0,0.0,0.10012682,0.0,0.0,0.0,1.0882046,1.0881424,1.0059679,0.0,0.0,0.0,0.0,0.0,0.0
3468000,3388000,0.09003024,0.090030976,0.20252562,1.0000992,1.0000992,50.999985,0.0,0.0,0.0,0.0,0.0,0.0,0.0,0.0,0.0,0.0,nan,0.0,0.0,0.0,0.0,0.10012682,0.0,0.0,0.0,1.0892032,1.0891412,1.0059688,0.0,0.0,0.0,0.0,0.0,0.0
3476000,3396000,0.09003024,0.090030976,0.20252562,1.0000992,1.0000992,50.999985,0.0,0.0,0.0,0.0,0.0,0.0,0.0,0.0,0.0,0.0,nan,0.0,0.0,0.0,0.0,0.10012682,0.0,0.0,0.0,1.0903832,1.0903217,1.0059698,0.0,0.0,0.0,0.0,0.0,0.0
3484000,3404000,0.09003024,0.090030976,0.20252562,1.0000992,1.0000992,50.999985,0.0,0.0,0.0,0.0,0.0,0.0,0.0,0.0,0.0,0.0,nan,0.0,0.0,0.0,0.0,0.10012682,0.0,0.0,0.0,1.0917443,1.0916834,1.0059711,0.0,0.0,0.0,0.0,0.0,0.0
3492000,3412000,0.09003024,0.090030976,0.20252562,1.0000992,1.0000992,50.999985,0.0,0.0,0.0,0.0,0.0,0.0,0.0,0.0,0.0,0.0,nan,0.0,0.0,0.0,0.0,0.09912701,0.0,0.0,0.0,1.0932868,1.0932262,1.0059711,0.0,0.0,0.0,0.0,0.0,0.0
3500000,3420000,0.09003024,0.090030976,0.20252562,1.0000992,1.0000992,50.999985,0.0,0.0,0.0,0.0,0.0,0.0,0.0,0.0,0.0,0.0,nan,0.0,0.0,0.0,0.0,0.09912701,0.0,0.0,0.0,1.0950104,1.0949504,1.0059726,0.0,0.0,0.0,0.0,0.0,0.0
3508000,3428000,0.09003024,0.090030976,0.20252562,1.0000992,1.0000992,50.999985,0.0,0.0,0.0,0.0,0.0,0.0,0.0,0.0,0.0,0.0,nan,0.0,0.0,0.0,0.0,0.09912701,0.0,0.0,0.0,1.0969151,1.0968559,1.0059744,0.0,0.0,0.0,0.0,0.0,0.0
3516000,3436000,0.09003024,0.090030976,0.20252562,1.0000992,1.0000992,50.999985,0.0,0.0,0.0,0.0,0.0,0.0,0.0,0.0,0.0,0.0,nan,0.0,0.0,0.0,0.0,0.09912701,0.0,0.0,0.0,1.099001,1.0989425,1.0059766,0.0,0.0,0.0,0.0,0.0,0.0
3524000,3444000,0.09003024,0.090030976,0.20252562,1.0000992,1.0000992,50.999985,0.0,0.0,0.0,0.0,0.0,0.0,0.0,0.0,0.0,0.0,nan,0.0,0.0,0.0,0.0,0.09912701,0.0,0.0,0.0,1.1012683,1.1012106,1.0059786,0.0,0.0,0.0,0.0,0.0,0.0
3532000,3452000,0.09003024,0.090030976,0.20252562,1.0000992,1.0000992,50.999985,0.0,0.0,0.0,0.0,0.0,0.0,0.0,0.0,0.0,0.0,nan,0.0,0.0,0.0,0.0,0.09912701,0.0,0.0,0.0,1.103717,1.1036597,1.0059808,0.0,0.0,0.0,0.0,0.0,0.0
3540000,3460000,0.09003024,0.090030976,0.20252562,1.0000992,1.0000992,50.999985,0.0,0.0,0.0,0.0,0.0,0.0,0.0,0.0,0.0,0.0,nan,0.0,0.0,0.0,0.0,0.09912701,0.0,0.0,0.0,1.1063467,1.1062905,1.0059835,0.0,0.0,0.0,0.0,0.0,0.0
3548000,3468000,0.09003024,0.090030976,0.20252562,1.0000992,1.0000992,50.999985,0.0,0.0,0.0,0.0,0.0,0.0,0.0,0.0,0.0,0.0,nan,0.0,0.0,0.0,0.0,0.09912701,0.0,0.0,0.0,1.1091576,1.1091022,1.0059861,0.0,0.0,0.0,0.0,0.0,0.0
3556000,3476000,0.09003024,0.090030976,0.20252562,1.0000992,1.0000992,50.999985,0.0,0.0,0.0,0.0,0.0,0.0,0.0,0.0,0.0,0.0,nan,0.0,0.0,0.0,0.0,0.09912701,0.0,0.0,0.0,1.1121496,1.1120954,1.005989,0.0,0.0,0.0,0.0,0.0,0.0
3564000,3484000,0.09003024,0.090030976,0.20252562,1.0000992,1.0000992,50.999985,0.0,0.0,0.0,0.0,0.0,0.0,0.0,0.0,0.0,0.0,nan,0.0,0.0,0.0,0.0,0.09835512,0.0,0.0,0.0,1.1153228,1.1152698,1.0059918,0.0,0.0,0.0,0.0,0.0,0.0
3572000,3492000,0.09003024,0.090030976,0.20252562,1.0000992,1.0000992,50.999985,0.0,0.0,0.0,0.0,0.0,0.0,0.0,0.0,0.0,0.0,nan,0.0,0.0,0.0,0.0,0.09835512,0.0,0.0,0.0,1.1186774,1.1186254,1.0059949,0.0,0.0,0.0,0.0,0.0,0.0
3580000,3500000,0.09003024,0.090030976,0.20252562,1.0000992,1.0000992,50.999985,0.0,0.0,0.0,0.0,0.0,0.0,0.0,0.0,0.0,0.0,nan,0.0,0.0,0.0,0.0,0.09835512,0.0,0.0,0.0,1.1147302,1.1146816,1.005994,0.0,0.0,0.0,0.0,0.0,0.0
3588000,3508000,0.09003024,0.090030976,0.20252562,1.0000992,1.0000992,50.999985,0.0,0.0,0.0,0.0,0.0,0.0,0.0,0.0,0.0,0.0,nan,0.0,0.0,0.0,0.0,0.09835512,0.0,0.0,0.0,1.1183308,1.1182834,1.0059973,0.0,0.0,0.0,0.0,0.0,0.0
3596000,3516000,0.09003024,0.090030976,0.20252562,1.0000992,1.0000992,50.999985,0.0,0.0,0.0,0.0,0.0,0.0,0.0,0.0,0.0,0.0,nan,0.0,0.0,0.0,0.0,0.09835512,0.0,0.0,0.0,1.1221117,1.1220657,1.0060009,0.0,0.0,0.0,0.0,0.0,0.0
3604000,3524000,0.09003024,0.090030976,0.20252562,1.0000992,1.0000992,50.999985,0.0,0.0,0.0,0.0,0.0,0.0,0.0,0.0,0.0,0.0,nan,0.0,0.0,0.0,0.0,0.09835512,0.0,0.0,0.0,1.1260728,1.1260282,1.0060047,0.0,0.0,0.0,0.0,0.0,0.0
3612000,3532000,0.09003024,0.090030976,0.20252562,1.0000992,1.0000992,50.999985,0.0,0.0,0.0,0.0,0.0,0.0,0.0,0.0,0.0,0.0,nan,0.0,0.0,0.0,0.0,0.09835512,0.0,0.0,0.0,1.1229178,1.1228766,1.0060042,0.0,0.0,0.0,0.0,0.0,0.0
3620000,3540000,0.09003024,0.090030976,0.20252562,1.0000992,1.0000992,50.999985,0.0,0.0,0.0,0.0,0.0,0.0,0.0,0.0,0.0,0.0,nan,0.0,0.0,0.0,0.0,0.09835512,0.0,0.0,0.0,1.1270974,1.127058,1.006008,0.0,0.0,0.0,0.0,0.0,0.0
3628000,3548000,0.09003024,0.090030976,0.20252562,1.0000992,1.0000992,50.999985,0.0,0.0,0.0,0.0,0.0,0.0,0.0,0.0,0.0,0.0,nan,0.0,0.0,0.0,0.0,0.09835512,0.0,0.0,0.0,1.1314561,1.1314183,1.0060123,0.0,0.0,0.0,0.0,0.0,0.0
3636000,3556000,0.09003024,0.090030976,0.20252562,1.0000992,1.0000992,50.999985,0.0,0.0,0.0,0.0,0.0,0.0,0.0,0.0,0.0,0.0,nan,0.0,0.0,0.0,0.0,0.097754434,0.0,0.0,0.0,1.135994,1.1359575,1.0060153,0.0,0.0,0.0,0.0,0.0,0.0
3644000,3564000,0.09003024,0.090030976,0.20252562,1.0000992,1.0000992,50.999985,0.0,0.0,0.0,0.0,0.0,0.0,0.0,0.0,0.0,0.0,nan,0.0,0.0,0.0,0.0,0.097754434,0.0,0.0,0.0,1.1407107,1.1406759,1.0060196,0.0,0.0,0.0,0.0,0.0,0.0
3652000,3572000,0.09003024,0.090030976,0.20252562,1.0000992,1.0000992,50.999985,0.0,0.0,0.0,0.0,0.0,0.0,0.0,0.0,0.0,0.0,nan,0.0,0.0,0.0,0.0,0.097754434,0.0,0.0,0.0,1.145606,1.1455731,1.0060244,0.0,0.0,0.0,0.0,0.0,0.0
3660000,3580000,0.09003024,0.090030976,0.20252562,1.0000992,1.0000992,50.999985,0.0,0.0,0.0,0.0,0.0,0.0,0.0,0.0,0.0,0.0,nan,0.0,0.0,0.0,0.0,0.097754434,0.0,0.0,0.0,1.1506807,1.1506494,1.0060292,0.0,0.0,0.0,0.0,0.0,0.0
3668000,3588000,0.09003024,0.090030976,0.20252562,1.0000992,1.0000992,50.999985,0.0,0.0,0.0,0.0,0.0,0.0,0.0,0.0,0.0,0.0,nan,0.0,0.0,0.0,0.0,0.097754434,0.0,0.0,0.0,1.1559337,1.1559049,1.0060345,0.0,0.0,0.0,0.0,0.0,0.0
3676000,3596000,0.09003024,0.090030976,0.20252562,1.0000992,1.0000992,50.999985,0.0,0.0,0.0,0.0,0.0,0.0,0.0,0.0,0.0,0.0,nan,0.0,0.0,0.0,0.0,0.097754434,0.0,0.0,0.0,1.161366,1.1613392,1.00604,0.0,0.0,0.0,0.0,0.0,0.0
3684000,3604000,0.09003024,0.090030976,0.20252562,1.0000992,1.0000992,50.999985,0.0,0.0,0.0,0.0,0.0,0.0,0.0,0.0,0.0,0.0,nan,0.0,0.0,0.0,0.0,0.097754434,0.0,0.0,0.0,1.1669773,1.1669525,1.0060456,0.0,0.0,0.0,0.0,0.0,0.0
3692000,3612000,0.09003024,0.090030976,0.20252562,1.0000992,1.0000992,50.999985,0.0,0.0,0.0,0.0,0.0,0.0,0.0,0.0,0.0,0.0,nan,0.0,0.0,0.0,0.0,0.097754434,0.0,0.0,0.0,1.1727674,1.1727448,1.0060513,0.0,0.0,0.0,0.0,0.0,0.0
3700000,3620000,0.09003024,0.090030976,0.20252562,1.0000992,1.0000992,50.999985,0.0,0.0,0.0,0.0,0.0,0.0,0.0,0.0,0.0,0.0,nan,0.0,0.0,0.0,0.0,0.09726751,0.0,0.0,0.0,1.1787364,1.1787161,1.0060571,0.0,0.0,0.0,0.0,0.0,0.0
3708000,3628000,0.09003024,0.090030976,0.20252562,1.0000992,1.0000992,50.999985,0.0,0.0,0.0,0.0,0.0,0.0,0.0,0.0,0.0,0.0,nan,0.0,0.0,0.0,0.0,0.09726751,0.0,0.0,0.0,1.1848843,1.1848665,1.0060633,0.0,0.0,0.0,0.0,0.0,0.0
3716000,3636000,0.09003024,0.090030976,0.20252562,1.0000992,1.0000992,50.999985,0.0,0.0,0.0,0.0,0.0,0.0,0.0,0.0,0.0,0.0,nan,0.0,0.0,0.0,0.0,0.09726751,0.0,0.0,0.0,1.1912111,1.191196,1.0060695,0.0,0.0,0.0,0.0,0.0,0.0
3724000,3644000,0.09003024,0.090030976,0.20252562,1.0000992,1.0000992,50.999985,0.0,0.0,0.0,0.0,0.0,0.0,0.0,0.0,0.0,0.0,nan,0.0,0.0,0.0,0.0,0.09726751,0.0,0.0,0.0,1.1977171,1.1977044,1.0060759,0.0,0.0,0.0,0.0,0.0,0.0
3732000,3652000,0.09003024,0.090030976,0.20252562,1.0000992,1.0000992,50.999985,0.0,0.0,0.0,0.0,0.0,0.0,0.0,0.0,0.0,0.0,nan,0.0,0.0,0.0,0.0,0.09726751,0.0,0.0,0.0,1.2044016,1.2043918,1.006083,0.0,0.0,0.0,0.0,0.0,0.0
3740000,3660000,0.09003024,0.090030976,0.20252562,1.0000992,1.0000992,50.999985,0.0,0.0,0.0,0.0,0.0,0.0,0.0,0.0,0.0,0.0,nan,0.0,0.0,0.0,0.0,0.09726751,0.0,0.0,0.0,1.2112652,1.2112584,1.0060897,0.0,0.0,0.0,0.0,0.0,0.0
3748000,3668000,0.09003024,0.090030976,0.20252562,1.0000992,1.0000992,50.999985,0.0,0.0,0.0,0.0,0.0,0.0,0.0,0.0,0.0,0.0,nan,0.0,0.0,0.0,0.0,0.09726751,0.0,0.0,0.0,1.2183077,1.218304,1.0060967,0.0,0.0,0.0,0.0,0.0,0.0
3756000,3676000,0.09003024,0.090030976,0.20252562,1.0000992,1.0000992,50.999985,0.0,0.0,0.0,0.0,0.0,0.0,0.0,0.0,0.0,0.0,nan,0.0,0.0,0.0,0.0,0.09726751,0.0,0.0,0.0,1.225529,1.2255286,1.0061039,0.0,0.0,0.0,0.0,0.0,0.0
3764000,3684000,0.09003024,0.090030976,0.20252562,1.0000992,1.0000992,50.999985,0.0,0.0,0.0,0.0,0.0,0.0,0.0,0.0,0.0,0.0,nan,0.0,0.0,0.0,0.0,0.09726751,0.0,0.0,0.0,1.2329295,1.2329322,1.0061114,0.0,0.0,0.0,0.0,0.0,0.0
3772000,3692000,0.09003024,0.090030976,0.20252562,1.0000992,1.0000992,50.999985,0.0,0.0,0.0,0.0,0.0,0.0,0.0,0.0,0.0,0.0,nan,0.0,0.0,0.0,0.0,0.09690194,0.0,0.0,0.0,1.2405088,1.2405146,1.0061182,0.0,0.0,0.0,0.0,0.0,0.0
3780000,3700000,0.09003024,0.090030976,0.20252562,1.0000992,1.0000992,50.999985,0.0,0.0,0.0,0.0,0.0,0.0,0.0,0.0,0.0,0.0,nan,0.0,0.0,0.0,0.0,0.09690194,0.0,0.0,0.0,1.248267,1.2482761,1.006126,0.0,0.0,0.0,0.0,0.0,0.0
3788000,3708000,0.09003024,0.090030976,0.20252562,1.0000992,1.0000992,50.999985,0.0,0.0,0.0,0.0,0.0,0.0,0.0,0.0,0.0,0.0,nan,0.0,0.0,0.0,0.0,0.09690194,0.0,0.0,0.0,1.1687899,1.1688038,1.0060698,0.0,0.0,0.0,0.0,0.0,0.0
3796000,3716000,0.09003024,0.090030976,0.20252562,1.0000992,1.0000992,50.999985,0.0,0.0,0.0,0.0,0.0,0.0,0.0,0.0,0.0,0.0,nan,0.0,0.0,0.0,0.0,0.09690194,0.0,0.0,0.0,1.1751827,1.1751995,1.0060765,0.0,0.0,0.0,0.0,0.0,0.0
3804000,3724000,0.09003024,0.090030976,0.20252562,1.0000992,1.0000992,50.999985,0.0,0.0,0.0,0.0,0.0,0.0,0.0,0.0,0.0,0.0,nan,0.0,0.0,0.0,0.0,0.09690194,0.0,0.0,0.0,1.1817378,1.1817575,1.0060833,0.0,0.0,0.0,0.0,0.0,0.0
3812000,3732000,0.09579851,0.09579893,0.20415762,1.000127,1.000127,26.000036,0.0,0.0,0.0,0.0,0.0,0.0,0.0,0.0,0.0,0.0,nan,0.0,0.0,0.0,0.0,0.09690194,0.0,0.0,0.0,1.188455,1.1884776,1.0060903,0.0,0.0,0.0,0.0,0.0,0.0
3820000,3740000,0.09579851,0.09579893,0.20415762,1.000127,1.000127,26.000036,0.0,0.0,0.0,0.0,0.0,0.0,0.0,0.0,0.0,0.0,nan,0.0,0.0,0.0,0.0,0.09690194,0.0,0.0,0.0,1.1850864,1.1851112,1.0060878,0.0,0.0,0.0,0.0,0.0,0.0
3828000,3748000,0.09579851,0.09579893,0.20415762,1.000127,1.000127,26.000036,0.0,0.0,0.0,0.0,0.0,0.0,0.0,0.0,0.0,0.0,nan,0.0,0.0,0.0,0.0,0.09690194,0.0,0.0,0.0,1.1917869,1.1918147,1.0060946,0.0,0.0,0.0,0.0,0.0,0.0
3836000,3756000,0.09579851,0.09579893,0.20415762,1.000127,1.000127,26.000036,0.0,0.0,0.0,0.0,0.0,0.0,0.0,0.0,0.0,0.0,nan,0.0,0.0,0.0,0.0,0.09659567,0.0,0.0,0.0,1.1986438,1.1986746,1.006102,0.0,0.0,0.0,0.0,0.0,0.0
3844000,3764000,0.09579851,0.09579893,0.20415762,1.000127,1.000127,26.000036,0.0,0.0,0.0,0.0,0.0,0.0,0.0,0.0,0.0,0.0,nan,0.0,0.0,0.0,0.0,0.09659567,0.0,0.0,0.0,1.2056574,1.2056911,1.0061094,0.0,0.0,0.0,0.0,0.0,0.0
3852000,3772000,0.09579851,0.09579893,0.20415762,1.000127,1.000127,26.000036,0.0,0.0,0.0,0.0,0.0,0.0,0.0,0.0,0.0,0.0,nan,0.0,0.0,0.0,0.0,0.09659567,0.0,0.0,0.0,1.2128277,1.2128645,1.0061165,0.0,0.0,0.0,0.0,0.0,0.0
3860000,3780000,0.09579851,0.09579893,0.20415762,1.000127,1.000127,26.000036,0.0,0.0,0.0,0.0,0.0,0.0,0.0,0.0,0.0,0.0,nan,0.0,0.0,0.0,0.0,0.09659567,0.0,0.0,0.0,1.2201544,1.2201943,1.0061241,0.0,0.0,0.0,0.0,0.0,0.0
3868000,3788000,0.09579851,0.09579893,0.20415762,1.000127,1.000127,26.000036,0.0,0.0,0.0,0.0,0.0,0.0,0.0,0.0,0.0,0.0,nan,0.0,0.0,0.0,0.0,0.09659567,0.0,0.0,0.0,1.2276375,1.2276806,1.006132,0.0,0.0,0.0,0.0,0.0,0.0
3876000,3796000,0.09579851,0.09579893,0.20415762,1.000127,1.000127,26.000036,0.0,0.0,0.0,0.0,0.0,0.0,0.0,0.0,0.0,0.0,nan,0.0,0.0,0.0,0.0,0.09659567,0.0,0.0,0.0,1.2352768,1.2353235,1.0061404,0.0,0.0,0.0,0.0,0.0,0.0
3884000,3804000,0.09579851,0.09579893,0.20415762,1.000127,1.000127,26.000036,0.0,0.0,0.0,0.0,0.0,0.0,0.0,0.0,0.0,0.0,nan,0.0,0.0,0.0,0.0,0.09659567,0.0,0.0,0.0,1.243073,1.243123,1.0061487,0.0,0.0,0.0,0.0,0.0,0.0
3892000,3812000,0.09579851,0.09579893,0.20415762,1.000127,1.000127,26.000036,0.0,0.0,0.0,0.0,0.0,0.0,0.0,0.0,0.0,0.0,nan,0.0,0.0,0.0,0.0,0.09659567,0.0,0.0,0.0,1.2510256,1.2510792,1.0061569,0.0,0.0,0.0,0.0,0.0,0.0
3900000,3820000,0.09579851,0.09579893,0.20415762,1.000127,1.000127,26.000036,0.0,0.0,0.0,0.0,0.0,0.0,0.0,0.0,0.0,0.0,nan,0.0,0.0,0.0,0.0,0.09659567,0.0,0.0,0.0,1.2591345,1.259192,1.0061659,0.0,0.0,0.0,0.0,0.0,0.0
3908000,3828000,0.09579851,0.09579893,0.20415762,1.000127,1.000127,26.000036,0.0,0.0,0.0,0.0,0.0,0.0,0.0,0.0,0.0,0.0,nan,0.0,0.0,0.0,0.0,0.09638333,0.0,0.0,0.0,1.2674003,1.2674612,1.0061742,0.0,0.0,0.0,0.0,0.0,0.0
3916000,3836000,0.09579851,0.09579893,0.20415762,1.000127,1.000127,26.000036,0.0,0.0,0.0,0.0,0.0,0.0,0.0,0.0,0.0,0.0,nan,0.0,0.0,0.0,0.0,0.09638333,0.0,0.0,0.0,1.2758224,1.2758873,1.006183,0.0,0.0,0.0,0.0,0.0,0.0
3924000,3844000,0.09579851,0.09579893,0.20415762,1.000127,1.000127,26.000036,0.0,0.0,0.0,0.0,0.0,0.0,0.0,0.0,0.0,0.0,nan,0.0,0.0,0.0,0.0,0.09638333,0.0,0.0,0.0,1.284401,1.2844696,1.0061923,0.0,0.0,0.0,0.0,0.0,0.0
3932000,3852000,0.09579851,0.09579893,0.20415762,1.000127,1.000127,26.000036,0.0,0.0,0.0,0.0,0.0,0.0,0.0,0.0,0.0,0.0,nan,0.0,0.0,0.0,0.0,0.09638333,0.0,0.0,0.0,1.2931362,1.2932088,1.0062016,0.0,0.0,0.0,0.0,0.0,0.0
3940000,3860000,0.09579851,0.09579893,0.20415762,1.000127,1.000127,26.000036,0.0,0.0,0.0,0.0,0.0,0.0,0.0,0.0,0.0,0.0,nan,0.0,0.0,0.0,0.0,0.09638333,0.0,0.0,0.0,1.3020281,1.3021045,1.006211,0.0,0.0,0.0,0.0,0.0,0.0
3948000,3868000,0.09579851,0.09579893,0.20415762,1.000127,1.000127,26.000036,0.0,0.0,0.0,0.0,0.0,0.0,0.0,0.0,0.0,0.0,nan,0.0,0.0,0.0,0.0,0.09638333,0.0,0.0,0.0,1.3110764,1.3111567,1.0062206,0.0,0.0,0.0,0.0,0.0,0.0
3956000,3876000,0.09579851,0.09579893,0.20415762,1.000127,1.000127,26.000036,0.0,0.0,0.0,0.0,0.0,0.0,0.0,0.0,0.0,0.0,nan,0.0,0.0,0.0,0.0,0.09638333,0.0,0.0,0.0,1.3202808,1.3203655,1.0062306,0.0,0.0,0.0,0.0,0.0,0.0
3964000,3884000,0.09579851,0.09579893,0.20415762,1.000127,1.000127,26.000036,0.0,0.0,0.0,0.0,0.0,0.0,0.0,0.0,0.0,0.0,nan,0.0,0.0,0.0,0.0,0.09638333,0.0,0.0,0.0,1.3296418,1.3297313,1.0062408,0.0,0.0,0.0,0.0,0.0,0.0
3972000,3892000,0.09579851,0.09579893,0.20415762,1.000127,1.000127,26.000036,0.0,0.0,0.0,0.0,0.0,0.0,0.0,0.0,0.0,0.0,nan,0.0,0.0,0.0,0.0,0.09638333,0.0,0.0,0.0,1.3391597,1.3392532,1.0062509,0.0,0.0,0.0,0.0,0.0,0.0
3980000,3900000,0.09579851,0.09579893,0.20415762,1.000127,1.000127,26.000036,0.0,0.0,0.0,0.0,0.0,0.0,0.0,0.0,0.0,0.0,nan,0.0,0.0,0.0,0.0,0.096228816,0.0,0.0,0.0,1.3488334,1.3489318,1.0062625,0.0,0.0,0.0,0.0,0.0,0.0
3988000,3908000,0.09579851,0.09579893,0.20415762,1.000127,1.000127,26.000036,0.0,0.0,0.0,0.0,0.0,0.0,0.0,0.0,0.0,0.0,nan,0.0,0.0,0.0,0.0,0.096228816,0.0,0.0,0.0,1.3586645,1.3587672,1.0062728,0.0,0.0,0.0,0.0,0.0,0.0
3996000,3916000,0.09579851,0.09579893,0.20415762,1.000127,1.000127,26.000036,0.0,0.0,0.0,0.0,0.0,0.0,0.0,0.0,0.0,0.0,nan,0.0,0.0,0.0,0.0,0.096228816,0.0,0.0,0.0,1.2455201,1.2455935,1.0061632,0.0,0.0,0.0,0.0,0.0,0.0
4004000,3924000,0.09579851,0.09579893,0.20415762,1.000127,1.000127,26.000036,0.0,0.0,0.0,0.0,0.0,0.0,0.0,0.0,0.0,0.0,nan,0.0,0.0,0.0,0.0,0.096228816,0.0,0.0,0.0,1.2526097,1.2526863,1.0061707,0.0,0.0,0.0,0.0,0.0,0.0
4012000,3932000,0.09579851,0.09579893,0.20415762,1.000127,1.000127,26.000036,0.0,0.0,0.0,0.0,0.0,0.0,0.0,0.0,0.0,0.0,nan,0.0,0.0,0.0,0.0,0.096228816,0.0,0.0,0.0,1.2598181,1.2598984,1.0061785,0.0,0.0,0.0,0.0,0.0,0.0
4020000,3940000,0.09579851,0.09579893,0.20415762,1.000127,1.000127,26.000036,0.0,0.0,0.0,0.0,0.0,0.0,0.0,0.0,0.0,0.0,nan,0.0,0.0,0.0,0.0,0.096228816,0.0,0.0,0.0,1.2671458,1.2672298,1.006186,0.0,0.0,0.0,0.0,0.0,0.0
4028000,3948000,0.09579851,0.09579893,0.20415762,1.000127,1.000127,26.000036,0.0,0.0,0.0,0.0,0.0,0.0,0.0,0.0,0.0,0.0,nan,0.0,0.0,0.0,0.0,0.096228816,0.0,0.0,0.0,1.2501043,1.2501781,1.0061667,0.0,0.0,0.0,0.0,0.0,0.0
4036000,3956000,0.09579851,0.09579893,0.20415762,1.000127,1.000127,26.000036,0.0,0.0,0.0,0.0,0.0,0.0,0.0,0.0,0.0,0.0,nan,0.0,0.0,0.0,0.0,0.096228816,0.0,0.0,0.0,1.2569361,1.2570124,1.0061736,0.0,0.0,0.0,0.0,0.0,0.0
4044000,3964000,0.09579851,0.09579893,0.20415762,1.000127,1.000127,26.000036,0.0,0.0,0.0,0.0,0.0,0.0,0.0,0.0,0.0,0.0,nan,0.0,0.0,0.0,0.0,0.096228816,0.0,0.0,0.0,1.2638754,1.263955,1.0061812,0.0,0.0,0.0,0.0,0.0,0.0
4052000,3972000,0.09579851,0.09579893,0.20415762,1.000127,1.000127,26.000036,0.0,0.0,0.0,0.0,0.0,0.0,0.0,0.0,0.0,0.0,nan,0.0,0.0,0.0,0.0,0.09612202,0.0,0.0,0.0,1.2709229,1.2710059,1.0061888,0.0,0.0,0.0,0.0,0.0,0.0
4060000,3980000,0.09579851,0.09579893,0.20415762,1.000127,1.000127,26.000036,0.0,0.0,0.0,0.0,0.0,0.0,0.0,0.0,0.0,0.0,nan,0.0,0.0,0.0,0.0,0.09612202,0.0,0.0,0.0,1.2780793,1.2781652,1.0061964,0.0,0.0,0.0,0.0,0.0,0.0
4068000,3988000,0.09579851,0.09579893,0.20415762,1.000127,1.000127,26.000036,0.0,0.0,0.0,0.0,0.0,0.0,0.0,0.0,0.0,0.0,nan,0.0,0.0,0.0,0.0,0.09612202,0.0,0.0,0.0,1.2853438,1.2854327,1.0062038,0.0,0.0,0.0,0.0,0.0,0.0
4076000,3996000,0.09579851,0.09579893,0.20415762,1.000127,1.000127,26.000036,0.0,0.0,0.0,0.0,0.0,0.0,0.0,0.0,0.0,0.0,nan,0.0,0.0,0.0,0.0,0.09612202,0.0,0.0,0.0,1.2927163,1.2928084,1.0062115,0.0,0.0,0.0,0.0,0.0,0.0
4084000,4004000,0.09579851,0.09579893,0.20415762,1.000127,1.000127,26.000036,0.0,0.0,0.0,0.0,0.0,0.0,0.0,0.0,0.0,0.0,nan,0.0,0.0,0.0,0.0,0.09612202,0.0,0.0,0.0,1.3001972,1.3002926,1.0062196,0.0,0.0,0.0,0.0,0.0,0.0
4092000,4012000,0.09579851,0.09579893,0.20415762,1.000127,1.000127,26.000036,0.0,0.0,0.0,0.0,0.0,0.0,0.0,0.0,0.0,0.0,nan,0.0,0.0,0.0,0.0,0.09612202,0.0,0.0,0.0,1.3077862,1.3078849,1.0062276,0.0,0.0,0.0,0.0,0.0,0.0
4100000,4020000,0.09579851,0.09579893,0.20415762,1.000127,1.000127,26.000036,0.0,0.0,0.0,0.0,0.0,0.0,0.0,0.0,0.0,0.0,nan,0.0,0.0,0.0,0.0,0.09612202,0.0,0.0,0.0,1.3154836,1.3155856,1.0062358,0.0,0.0,0.0,0.0,0.0,0.0
4108000,4028000,0.09579851,0.09579893,0.20415762,1.000127,1.000127,26.000036,0.0,0.0,0.0,0.0,0.0,0.0,0.0,0.0,0.0,0.0,nan,0.0,0.0,0.0,0.0,0.09612202,0.0,0.0,0.0,1.3232895,1.3233943,1.006244,0.0,0.0,0.0,0.0,0.0,0.0
4116000,4036000,0.09579851,0.09579893,0.20415762,1.000127,1.000127,26.000036,0.0,0.0,0.0,0.0,0.0,0.0,0.0,0.0,0.0,0.0,nan,0.0,0.0,0.0,0.0,0.09601671,0.0,0.0,0.0,1.3312031,1.3313116,1.0062525,0.0,0.0,0.0,0.0,0.0,0.0
4124000,4044000,0.09579851,0.09579893,0.20415762,1.000127,1.000127,26.000036,0.0,0.0,0.0,0.0,0.0,0.0,0.0,32.25041,0.0,0.0,nan,0.0,0.0,0.0,0.0,0.09601671,0.0,0.0,0.0,1.339225,1.3393373,1.0062608,0.0,0.0,0.0,0.0,0.0,0.0
4132000,4052000,0.09579851,0.09579893,0.20415762,1.000127,1.000127,26.000036,0.0,0.0,0.0,0.0,0.0,0.0,0.0,32.25041,0.0,0.0,nan,0.0,0.0,0.0,0.0,0.09601671,0.0,0.0,0.0,1.3473558,1.3474712,1.0062691,0.0,0.0,0.0,0.0,0.0,0.0
4140000,4060000,0.09579851,0.09579893,0.20415762,1.000127,1.000127,26.000036,0.0,0.0,0.0,0.0,0.0,0.0,0.0,32.25041,0.0,0.0,nan,0.0,0.0,0.0,0.0,0.09601671,0.0,0.0,0.0,1.3555942,1.3557134,1.006278,0.0,0.0,0.0,0.0,0.0,0.0
4148000,4068000,0.09579851,0.09579893,0.20415762,1.000127,1.000127,26.000036,0.0,0.0,0.0,0.0,0.0,0.0,0.0,32.25041,0.0,0.0,nan,0.0,0.0,0.0,0.0,0.09601671,0.0,0.0,0.0,1.3639407,1.3640637,1.0062871,0.0,0.0,0.0,0.0,0.0,0.0
4156000,4076000,0.09579851,0.09579893,0.20415762,1.000127,1.000127,26.000036,0.0,0.0,0.0,0.0,0.0,0.0,0.0,32.25041,0.0,0.0,nan,0.0,0.0,0.0,0.0,0.09601671,0.0,0.0,0.0,1.3723955,1.3725224,1.006296,0.0,0.0,0.0,0.0,0.0,0.0
4164000,4084000,0.09579851,0.09579893,0.20415762,1.000127,1.000127,26.000036,0.0,0.0,0.0,0.0,0.0,0.0,0.0,32.25041,0.0,0.0,nan,0.0,0.0,0.0,0.0,0.09601671,0.0,0.0,0.0,1.380959,1.3810889,1.0063055,0.0,0.0,0.0,0.0,0.0,0.0
4172000,4092000,0.09579851,0.09579893,0.20415762,1.000127,1.000127,26.000036,0.0,0.0,0.0,0.0,0.0,0.0,0.0,32.25041,0.0,0.0,nan,0.0,0.0,0.0,0.0,0.09601671,0.0,0.0,0.0,1.3896308,1.3897637,1.006315,0.0,0.0,0.0,0.0,0.0,0.0
4180000,4100000,0.09579851,0.09579893,0.20415762,1.000127,1.000127,26.000036,0.0,0.0,0.0,0.0,0.0,0.0,0.0,32.25041,0.0,0.0,nan,0.0,0.0,0.0,0.0,0.09601671,0.0,0.0,0.0,1.3984107,1.3985468,1.0063243,0.0,0.0,0.0,0.0,0.0,0.0
4188000,4108000,0.09579851,0.09579893,0.20415762,1.000127,1.000127,26.000036,0.0,0.0,0.0,0.0,0.0,0.0,0.0,32.250603,0.0,0.0,nan,0.0,0.0,0.0,0.0,0.09598205,0.0,0.0,0.0,1.4072988,1.4074388,1.0063325,0.0,0.0,0.0,0.0,0.0,0.0
4196000,4116000,0.09579851,0.09579893,0.20415762,1.000127,1.000127,26.000036,0.0,0.0,0.0,0.0,0.0,0.0,0.0,32.250603,0.0,0.0,nan,0.0,0.0,0.0,0.0,0.09598205,0.0,0.0,0.0,1.4162948,1.4164387,1.0063424,0.0,0.0,0.0,0.0,0.0,0.0
4204000,4124000,0.09569608,0.09569579,0.2071772,1.0000969,1.0000969,17.667128,0.0,0.0,0.0,0.0,0.0,0.0,0.0,32.250603,0.0,0.0,nan,0.0,0.0,0.0,0.0,0.09598205,0.0,0.0,0.0,1.2104071,1.2104452,1.0061247,0.0,0.0,0.0,0.0,0.0,0.0
4212000,4132000,0.09569608,0.09569579,0.2071772,1.0000969,1.0000969,17.667128,0.0,0.0,0.0,0.0,0.0,0.0,0.0,32.250603,0.0,0.0,nan,0.0,0.0,0.0,0.0,0.09598205,0.0,0.0,0.0,1.2148103,1.2148492,1.0061289,0.0,0.0,0.0,0.0,0.0,0.0
4220000,4140000,0.09569608,0.09569579,0.2071772,1.0000969,1.0000969,17.667128,0.0,0.0,0.0,0.0,0.0,0.0,0.0,32.250603,0.0,0.0,nan,0.0,0.0,0.0,0.0,0.09598205,0.0,0.0,0.0,1.2192683,1.2193086,1.0061336,0.0,0.0,0.0,0.0,0.0,0.0
4228000,4148000,0.09569608,0.09569579,0.2071772,1.0000969,1.0000969,17.667128,0.0,0.0,0.0,0.0,0.0,0.0,0.0,32.250603,0.0,0.0,nan,0.0,0.0,0.0,0.0,0.09598205,0.0,0.0,0.0,1.2237815,1.223823,1.006138,0.0,0.0,0.0,0.0,0.0,0.0
4236000,4156000,0.09569608,0.09569579,0.2071772,1.0000969,1.0000969,17.667128,0.0,0.0,0.0,0.0,0.0,0.0,0.0,32.250603,0.0,0.0,nan,0.0,0.0,0.0,0.0,0.09598205,0.0,0.0,0.0,1.2034452,1.2034765,1.0061163,0.0,0.0,0.0,0.0,0.0,0.0
4244000,4164000,0.09569608,0.09569579,0.2071772,1.0000969,1.0000969,17.667128,0.0,0.0,0.0,0.0,0.0,0.0,0.0,28.917202,0.0,0.0,nan,0.0,0.0,0.0,0.0,0.09598205,0.0,0.0,0.0,1.2074863,1.2075186,1.0061204,0.0,0.0,0.0,0.0,0.0,0.0
4252000,4172000,0.09569608,0.09569579,0.2071772,1.0000969,1.0000969,17.667128,0.0,0.0,0.0,0.0,0.0,0.0,0.0,28.917202,0.0,0.0,nan,0.0,0.0,0.0,0.0,0.09598205,0.0,0.0,0.0,1.2115759,1.211609,1.0061245,0.0,0.0,0.0,0.0,0.0,0.0
4260000,4180000,0.09569608,0.09569579,0.2071772,1.0000969,1.0000969,17.667128,0.0,0.0,0.0,0.0,0.0,0.0,0.0,28.917202,0.0,0.0,nan,0.0,0.0,0.0,0.0,0.09597416,0.0,0.0,0.0,1.2157137,1.215748,1.0061289,0.0,0.0,0.0,0.0,0.0,0.0
4268000,4188000,0.09569608,0.09569579,0.2071772,1.0000969,1.0000969,17.667128,0.0,0.0,0.0,0.0,0.0,0.0,0.0,28.917202,0.0,0.0,nan,0.0,0.0,0.0,0.0,0.09597416,0.0,0.0,0.0,1.2199,1.2199353,1.006133,0.0,0.0,0.0,0.0,0.0,0.0
4276000,4196000,0.09569608,0.09569579,0.2071772,1.0000969,1.0000969,17.667128,0.0,0.0,0.0,0.0,0.0,0.0,0.0,28.917202,0.0,0.0,nan,0.0,0.0,0.0,0.0,0.09597416,0.0,0.0,0.0,1.2241343,1.2241704,1.0061377,0.0,0.0,0.0,0.0,0.0,0.0
4284000,4204000,0.09569608,0.09569579,0.2071772,1.0000969,1.0000969,17.667128,0.0,0.0,0.0,0.0,0.0,0.0,0.0,28.917202,0.0,0.0,nan,0.0,0.0,0.0,0.0,0.09597416,0.0,0.0,0.0,1.2284172,1.2284542,1.006142,0.0,0.0,0.0,0.0,0.0,0.0
4292000,4212000,0.09569608,0.09569579,0.2071772,1.0000969,1.0000969,17.667128,0.0,0.0,0.0,0.0,0.0,0.0,0.0,28.917202,0.0,0.0,nan,0.0,0.0,0.0,0.0,0.09597416,0.0,0.0,0.0,1.2327483,1.2327865,1.0061461,0.0,0.0,0.0,0.0,0.0,0.0
4300000,4220000,0.09569608,0.09569579,0.2071772,1.0000969,1.0000969,17.667128,0.0,0.0,0.0,0.0,0.0,0.0,0.0,28.917202,0.0,0.0,nan,0.0,0.0,0.0,0.0,0.09597416,0.0,0.0,0.0,1.2371277,1.2371669,1.0061505,0.0,0.0,0.0,0.0,0.0,0.0
4308000,4228000,0.09569608,0.09569579,0.2071772,1.0000969,1.0000969,17.667128,0.0,0.0,0.0,0.0,0.0,0.0,0.0,28.917439,0.0,0.0,nan,0.0,0.0,0.0,0.0,0.09597416,0.0,0.0,0.0,1.2415555,1.2415956,1.0061548,0.0,0.0,0.0,0.0,0.0,0.0
4316000,4236000,0.09569608,0.09569579,0.2071772,1.0000969,1.0000969,17.667128,0.0,0.0,0.0,0.0,0.0,0.0,0.0,28.917439,0.0,0.0,nan,0.0,0.0,0.0,0.0,0.09597416,0.0,0.0,0.0,1.2460315,1.2460729,1.0061593,0.0,0.0,0.0,0.0,0.0,0.0
4324000,4244000,0.09569608,0.09569579,0.2071772,1.0000969,1.0000969,17.667128,0.0,0.0,0.0,0.0,0.0,0.0,0.0,28.917439,0.0,0.0,nan,0.0,0.0,0.0,0.0,0.09597416,0.0,0.0,0.0,1.2505558,1.2505984,1.0061636,0.0,0.0,0.0,0.0,0.0,0.0
4332000,4252000,0.09569608,0.09569579,0.2071772,1.0000969,1.0000969,17.667128,0.0,0.0,0.0,0.0,0.0,0.0,0.0,28.917439,0.0,0.0,nan,0.0,0.0,0.0,0.0,0.095987886,0.0,0.0,0.0,1.2551285,1.2551724,1.006168,0.0,0.0,0.0,0.0,0.0,0.0
4340000,4260000,0.09569608,0.09569579,0.2071772,1.0000969,1.0000969,17.667128,0.0,0.0,0.0,0.0,0.0,0.0,0.0,28.917439,0.0,0.0,nan,0.0,0.0,0.0,0.0,0.095987886,0.0,0.0,0.0,1.2597497,1.2597942,1.0061727,0.0,0.0,0.0,0.0,0.0,0.0
4348000,4268000,0.09569608,0.09569579,0.2071772,1.0000969,1.0000969,17.667128,0.0,0.0,0.0,0.0,0.0,0.0,0.0,28.917439,0.0,0.0,nan,0.0,0.0,0.0,0.0,0.095987886,0.0,0.0,0.0,1.2644188,1.2644649,1.0061771,0.0,0.0,0.0,0.0,0.0,0.0
4356000,4276000,0.09569608,0.09569579,0.2071772,1.0000969,1.0000969,17.667128,0.0,0.0,0.0,0.0,0.0,0.0,0.0,28.917439,0.0,0.0,nan,0.0,0.0,0.0,0.0,0.095987886,0.0,0.0,0.0,1.2691363,1.2691834,1.0061821,0.0,0.0,0.0,0.0,0.0,0.0
4364000,4284000,0.09569608,0.09569579,0.2071772,1.0000969,1.0000969,17.667128,0.0,0.0,0.0,0.0,0.0,0.0,0.0,28.917696,0.0,0.0,nan,0.0,0.0,0.0,0.0,0.095987886,0.0,0.0,0.0,1.2739022,1.2739506,1.0061868,0.0,0.0,0.0,0.0,0.0,0.0
4372000,4292000,0.09569608,0.09569579,0.2071772,1.0000969,1.0000969,17.667128,0.0,0.0,0.0,0.0,0.0,0.0,0.0,28.917696,0.0,0.0,nan,0.0,0.0,0.0,0.0,0.095987886,0.0,0.0,0.0,1.2787163,1.2787662,1.0061915,0.0,0.0,0.0,0.0,0.0,0.0
4380000,4300000,0.09569608,0.09569579,0.2071772,1.0000969,1.0000969,17.667128,0.0,0.0,0.0,0.0,0.0,0.0,0.0,28.917696,0.0,0.0,nan,0.0,0.0,0.0,0.0,0.095987886,0.0,0.0,0.0,1.2835788,1.28363,1.006196,0.0,0.0,0.0,0.0,0.0,0.0
4388000,4308000,0.09569608,0.09569579,0.2071772,1.0000969,1.0000969,17.667128,0.0,0.0,0.0,0.0,0.0,0.0,0.0,28.917696,0.0,0.0,nan,0.0,0.0,0.0,0.0,0.095987886,0.0,0.0,0.0,1.2884896,1.2885422,1.006201,0.0,0.0,0.0,0.0,0.0,0.0
4396000,4316000,0.09569608,0.09569579,0.2071772,1.0000969,1.0000969,17.667128,0.0,0.0,0.0,0.0,0.0,0.0,0.0,28.917696,0.0,0.0,nan,0.0,0.0,0.0,0.0,0.095987886,0.0,0.0,0.0,1.2934486,1.2935026,1.006206,0.0,0.0,0.0,0.0,0.0,0.0
4404000,4324000,0.09569608,0.09569579,0.2071772,1.0000969,1.0000969,17.667128,0.0,0.0,0.0,0.0,0.0,0.0,0.0,28.917696,0.0,0.0,nan,0.0,0.0,0.0,0.0,0.09601841,0.0,0.0,0.0,1.2984562,1.2985114,1.0062103,0.0,0.0,0.0,0.0,0.0,0.0
4412000,4332000,0.09569608,0.09569579,0.2071772,1.0000969,1.0000969,17.667128,0.0,0.0,0.0,0.0,0.0,0.0,0.0,26.53667,0.0,0.0,nan,0.0,0.0,0.0,0.0,0.09601841,0.0,0.0,0.0,1.1306345,1.1306254,1.0060382,0.0,0.0,0.0,0.0,0.0,0.0
4420000,4340000,0.09569608,0.09569579,0.2071772,1.0000969,1.0000969,17.667128,0.0,0.0,0.0,0.0,0.0,0.0,0.0,26.53667,0.0,0.0,nan,0.0,0.0,0.0,0.0,0.09601841,0.0,0.0,0.0,1.1325476,1.1325388,1.0060401,0.0,0.0,0.0,0.0,0.0,0.0
4428000,4348000,0.09569608,0.09569579,0.2071772,1.0000969,1.0000969,17.667128,0.0,0.0,0.0,0.0,0.0,0.0,0.0,26.53667,0.0,0.0,nan,0.0,0.0,0.0,0.0,0.09601841,0.0,0.0,0.0,1.1344798,1.1344712,1.006042,0.0,0.0,0.0,0.0,0.0,0.0
4436000,4356000,0.09569608,0.09569579,0.2071772,1.0000969,1.0000969,17.667128,0.0,0.0,0.0,0.0,0.0,0.0,0.0,26.53667,0.0,0.0,nan,0.0,0.0,0.0,0.0,0.09601841,0.0,0.0,0.0,1.1364311,1.1364228,1.0060438,0.0,0.0,0.0,0.0,0.0,0.0
4444000,4364000,0.09569608,0.09569579,0.2071772,1.0000969,1.0000969,17.667128,0.0,0.0,0.0,0.0,0.0,0.0,0.0,26.53667,0.0,0.0,nan,0.0,0.0,0.0,0.0,0.09601841,0.0,0.0,0.0,1.127614,1.1276035,1.0060346,0.0,0.0,0.0,0.0,0.0,0.0
4452000,4372000,0.09569608,0.09569579,0.2071772,1.0000969,1.0000969,17.667128,0.0,0.0,0.0,0.0,0.0,0.0,0.0,26.53667,0.0,0.0,nan,0.0,0.0,0.0,0.0,0.09601841,0.0,0.0,0.0,1.1294005,1.1293902,1.0060362,0.0,0.0,0.0,0.0,0.0,0.0
4460000,4380000,0.09569608,0.09569579,0.2071772,1.0000969,1.0000969,17.667128,0.0,0.0,0.0,0.0,0.0,0.0,0.0,26.53667,0.0,0.0,nan,0.0,0.0,0.0,0.0,0.09601841,0.0,0.0,0.0,1.1312042,1.1311941,1.0060377,0.0,0.0,0.0,0.0,0.0,0.0
4468000,4388000,0.09569608,0.09569579,0.2071772,1.0000969,1.0000969,17.667128,0.0,0.0,0.0,0.0,0.0,0.0,0.0,26.53667,0.0,0.0,nan,0.0,0.0,0.0,0.0,0.09601841,0.0,0.0,0.0,1.1330253,1.133015,1.0060395,0.0,0.0,0.0,0.0,0.0,0.0
4476000,4396000,0.09569608,0.09569579,0.2071772,1.0000969,1.0000969,17.667128,0.0,0.0,0.0,0.0,0.0,0.0,0.0,26.536854,0.0,0.0,nan,0.0,0.0,0.0,0.0,0.09606147,0.0,0.0,0.0,1.1348634,1.134853,1.0060413,0.0,0.0,0.0,0.0,0.0,0.0
4484000,4404000,0.09569608,0.09569579,0.2071772,1.0000969,1.0000969,17.667128,0.0,0.0,0.0,0.0,0.0,0.0,0.0,26.536854,0.0,0.0,nan,0.0,0.0,0.0,0.0,0.09606147,0.0,0.0,0.0,1.1367188,1.1367084,1.0060432,0.0,0.0,0.0,0.0,0.0,0.0
4492000,4412000,0.09569608,0.09569579,0.2071772,1.0000969,1.0000969,17.667128,0.0,0.0,0.0,0.0,0.0,0.0,0.0,26.536854,0.0,0.0,nan,0.0,0.0,0.0,0.0,0.09606147,0.0,0.0,0.0,1.1385915,1.1385812,1.006045,0.0,0.0,0.0,0.0,0.0,0.0
4500000,4420000,0.09569608,0.09569579,0.2071772,1.0000969,1.0000969,17.667128,0.0,0.0,0.0,0.0,0.0,0.0,0.0,26.536854,0.0,0.0,nan,0.0,0.0,0.0,0.0,0.09606147,0.0,0.0,0.0,1.1404815,1.1404711,1.0060469,0.0,0.0,0.0,0.0,0.0,0.0
4508000,4428000,0.09569608,0.09569579,0.2071772,1.0000969,1.0000969,17.667128,0.0,0.0,0.0,0.0,0.0,0.0,0.0,26.536854,0.0,0.0,nan,0.0,0.0,0.0,0.0,0.09606147,0.0,0.0,0.0,1.1423885,1.1423782,1.0060487,0.0,0.0,0.0,0.0,0.0,0.0
4516000,4436000,0.09569608,0.09569579,0.2071772,1.0000969,1.0000969,17.667128,0.0,0.0,0.0,0.0,0.0,0.0,0.0,26.536854,0.0,0.0,nan,0.0,0.0,0.0,0.0,0.09606147,0.0,0.0,0.0,1.1443127,1.1443026,1.0060507,0.0,0.0,0.0,0.0,0.0,0.0
4524000,4444000,0.09569608,0.09569579,0.2071772,1.0000969,1.0000969,17.667128,0.0,0.0,0.0,0.0,0.0,0.0,0.0,26.536854,0.0,0.0,nan,0.0,0.0,0.0,0.0,0.09606147,0.0,0.0,0.0,1.1462544,1.1462445,1.0060525,0.0,0.0,0.0,0.0,0.0,0.0
4532000,4452000,0.09569608,0.09569579,0.2071772,1.0000969,1.0000969,17.667128,0.0,0.0,0.0,0.0,0.0,0.0,0.0,26.537186,0.0,0.0,nan,0.0,0.0,0.0,0.0,0.09606147,0.0,0.0,0.0,1.1482133,1.1482034,1.0060544,0.0,0.0,0.0,0.0,0.0,0.0
4540000,4460000,0.09569608,0.09569579,0.2071772,1.0000969,1.0000969,17.667128,0.0,0.0,0.0,0.0,0.0,0.0,0.0,26.537186,0.0,0.0,nan,0.0,0.0,0.0,0.0,0.09606147,0.0,0.0,0.0,1.1501894,1.1501794,1.0060564,0.0,0.0,0.0,0.0,0.0,0.0
4548000,4468000,0.09569608,0.09569579,0.2071772,1.0000969,1.0000969,17.667128,0.0,0.0,0.0,0.0,0.0,0.0,0.0,26.537186,0.0,0.0,nan,0.0,0.0,0.0,0.0,0.09611347,0.0,0.0,0.0,1.1521828,1.1521727,1.0060582,0.0,0.0,0.0,0.0,0.0,0.0
4556000,4476000,0.09569608,0.09569579,0.2071772,1.0000969,1.0000969,17.667128,0.0,0.0,0.0,0.0,0.0,0.0,0.0,26.537186,0.0,0.0,nan,0.0,0.0,0.0,0.0,0.09611347,0.0,0.0,0.0,1.1541935,1.1541834,1.0060599,0.0,0.0,0.0,0.0,0.0,0.0
4564000,4484000,0.09569608,0.09569579,0.2071772,1.0000969,1.0000969,17.667128,0.0,0.0,0.0,0.0,0.0,0.0,0.0,26.537186,0.0,0.0,nan,0.0,0.0,0.0,0.0,0.09611347,0.0,0.0,0.0,1.1562214,1.1562114,1.0060619,0.0,0.0,0.0,0.0,0.0,0.0
4572000,4492000,0.09569608,0.09569579,0.2071772,1.0000969,1.0000969,17.667128,0.0,0.0,0.0,0.0,0.0,0.0,0.0,26.537186,0.0,0.0,nan,0.0,0.0,0.0,0.0,0.09611347,0.0,0.0,0.0,1.1582664,1.1582563,1.0060638,0.0,0.0,0.0,0.0,0.0,0.0
4580000,4500000,0.09569608,0.09569579,0.2071772,1.0000969,1.0000969,17.667128,0.0,0.0,0.0,0.0,0.0,0.0,0.0,26.537186,0.0,0.0,nan,0.0,0.0,0.0,0.0,0.09611347,0.0,0.0,0.0,1.1603286,1.1603186,1.0060657,0.0,0.0,0.0,0.0,0.0,0.0
4588000,4508000,0.09569608,0.09569579,0.2071772,1.0000969,1.0000969,17.667128,0.0,0.0,0.0,0.0,0.0,0.0,0.0,26.537186,0.0,0.0,nan,0.0,0.0,0.0,0.0,0.09611347,0.0,0.0,0.0,1.1624084,1.1623983,1.0060675,0.0,0.0,0.0,0.0,0.0,0.0
4596000,4516000,0.09569608,0.09569579,0.2071772,1.0000969,1.0000969,17.667128,0.0,0.0,0.0,0.0,0.0,0.0,0.0,26.537638,0.0,0.0,nan,0.0,0.0,0.0,0.0,0.09611347,0.0,0.0,0.0,1.1645051,1.1644951,1.0060694,0.0,0.0,0.0,0.0,0.0,0.0
4604000,4524000,0.09569608,0.09569579,0.2071772,1.0000969,1.0000969,17.667128,0.0,0.0,0.0,0.0,0.0,0.0,0.0,26.537638,0.0,0.0,nan,0.0,0.0,0.0,0.0,0.09611347,0.0,0.0,0.0,1.1666193,1.1666093,1.0060713,0.0,0.0,0.0,0.0,0.0,0.0
4612000,4532000,0.103941135,0.103942215,0.21016484,1.0006601,1.0006601,15.287765,0.0,0.0,0.0,0.0,0.0,0.0,0.0,26.537638,0.0,0.0,nan,0.0,0.0,0.0,0.0,0.09611347,0.0,0.0,0.0,1.1687505,1.1687405,1.0060734,0.0,0.0,0.0,0.0,0.0,0.0
4620000,4540000,0.103941135,0.103942215,0.21016484,1.0006601,1.0006601,15.287765,0.0,0.0,0.0,0.0,0.0,0.0,0.0,26.537638,0.0,0.0,nan,0.0,0.0,0.0,0.0,0.09617105,0.0,0.0,0.0,1.0855532,1.0855298,1.0059904,0.0,0.0,0.0,0.0,0.0,0.0
4628000,4548000,0.103941135,0.103942215,0.21016484,1.0006601,1.0006601,15.287765,0.0,0.0,0.0,0.0,0.0,0.0,0.0,26.537638,0.0,0.0,nan,0.0,0.0,0.0,0.0,0.09617105,0.0,0.0,0.0,1.0863972,1.0863737,1.0059911,0.0,0.0,0.0,0.0,0.0,0.0
4636000,4556000,0.103941135,0.103942215,0.21016484,1.0006601,1.0006601,15.287765,0.0,0.0,0.0,0.0,0.0,0.0,0.0,26.537638,0.0,0.0,nan,0.0,0.0,0.0,0.0,0.09617105,0.0,0.0,0.0,1.0872484,1.0872248,1.0059919,0.0,0.0,0.0,0.0,0.0,0.0
4644000,4564000,0.103941135,0.103942215,0.21016484,1.0006601,1.0006601,15.287765,0.0,0.0,0.0,0.0,0.0,0.0,0.0,26.537638,0.0,0.0,nan,0.0,0.0,0.0,0.0,0.09617105,0.0,0.0,0.0,1.0881065,1.0880829,1.0059927,0.0,0.0,0.0,0.0,0.0,0.0
4652000,4572000,0.103941135,0.103942215,0.21016484,1.0006601,1.0006601,15.287765,0.0,0.0,0.0,0.0,0.0,0.0,0.0,24.751568,0.0,0.0,nan,0.0,0.0,0.0,0.0,0.09617105,0.0,0.0,0.0,1.0849605,1.084937,1.0059894,0.0,0.0,0.0,0.0,0.0,0.0
4660000,4580000,0.103941135,0.103942215,0.21016484,1.0006601,1.0006601,15.287765,0.0,0.0,0.0,0.0,0.0,0.0,0.0,24.751568,0.0,0.0,nan,0.0,0.0,0.0,0.0,0.09617105,0.0,0.0,0.0,1.0857695,1.0857462,1.0059903,0.0,0.0,0.0,0.0,0.0,0.0
4668000,4588000,0.103941135,0.103942215,0.21016484,1.0006601,1.0006601,15.287765,0.0,0.0,0.0,0.0,0.0,0.0,0.0,24.751568,0.0,0.0,nan,0.0,0.0,0.0,0.0,0.09617105,0.0,0.0,0.0,1.0865854,1.0865619,1.005991,0.0,0.0,0.0,0.0,0.0,0.0
4676000,4596000,0.103941135,0.103942215,0.21016484,1.0006601,1.0006601,15.287765,0.0,0.0,0.0,0.0,0.0,0.0,0.0,24.751568,0.0,0.0,nan,0.0,0.0,0.0,0.0,0.09617105,0.0,0.0,0.0,1.0874077,1.0873843,1.0059917,0.0,0.0,0.0,0.0,0.0,0.0
4684000,4604000,0.103941135,0.103942215,0.21016484,1.0006601,1.0006601,15.287765,0.0,0.0,0.0,0.0,0.0,0.0,0.0,24.751568,0.0,0.0,nan,0.0,0.0,0.0,0.0,0.09617105,0.0,0.0,0.0,1.0882367,1.0882131,1.0059925,0.0,0.0,0.0,0.0,0.0,0.0
4692000,4612000,0.103941135,0.103942215,0.21016484,1.0006601,1.0006601,15.287765,0.0,0.0,0.0,0.0,0.0,0.0,0.0,24.751568,0.0,0.0,nan,0.0,0.0,0.0,0.0,0.096231446,0.0,0.0,0.0,1.0890722,1.0890485,1.0059934,0.0,0.0,0.0,0.0,0.0,0.0
4700000,4620000,0.103941135,0.103942215,0.21016484,1.0006601,1.0006601,15.287765,0.0,0.0,0.0,0.0,0.0,0.0,0.0,24.751568,0.0,0.0,nan,0.0,0.0,0.0,0.0,0.096231446,0.0,0.0,0.0,1.0899144,1.0898907,1.0059941,0.0,0.0,0.0,0.0,0.0,0.0
4708000,4628000,0.103941135,0.103942215,0.21016484,1.0006601,1.0006601,15.287765,0.0,0.0,0.0,0.0,0.0,0.0,0.0,24.751568,0.0,0.0,nan,0.0,0.0,0.0,0.0,0.096231446,0.0,0.0,0.0,1.0907632,1.0907393,1.0059948,0.0,0.0,0.0,0.0,0.0,0.0
4716000,4636000,0.103941135,0.103942215,0.21016484,1.0006601,1.0006601,15.287765,0.0,0.0,0.0,0.0,0.0,0.0,0.0,24.752031,0.0,0.0,nan,0.0,0.0,0.0,0.0,0.096231446,0.0,0.0,0.0,1.0916185,1.0915946,1.0059956,0.0,0.0,0.0,0.0,0.0,0.0
4724000,4644000,0.103941135,0.103942215,0.21016484,1.0006601,1.0006601,15.287765,0.0,0.0,0.0,0.0,0.0,0.0,0.0,24.752031,0.0,0.0,nan,0.0,0.0,0.0,0.0,0.096231446,0.0,0.0,0.0,1.0924803,1.0924563,1.0059966,0.0,0.0,0.0,0.0,0.0,0.0
4732000,4652000,0.103941135,0.103942215,0.21016484,1.0006601,1.0006601,15.287765,0.0,0.0,0.0,0.0,0.0,0.0,0.0,24.752031,0.0,0.0,nan,0.0,0.0,0.0,0.0,0.096231446,0.0,0.0,0.0,1.0933487,1.0933248,1.0059975,0.0,0.0,0.0,0.0,0.0,0.0
4740000,4660000,0.103941135,0.103942215,0.21016484,1.0006601,1.0006601,15.287765,0.0,0.0,0.0,0.0,0.0,0.0,0.0,24.752031,0.0,0.0,nan,0.0,0.0,0.0,0.0,0.096231446,0.0,0.0,0.0,1.0942239,1.0941999,1.0059983,0.0,0.0,0.0,0.0,0.0,0.0
4748000,4668000,0.103941135,0.103942215,0.21016484,1.0006601,1.0006601,15.287765,0.0,0.0,0.0,0.0,0.0,0.0,0.0,24.752031,0.0,0.0,nan,0.0,0.0,0.0,0.0,0.096231446,0.0,0.0,0.0,1.0951055,1.0950814,1.0059992,0.0,0.0,0.0,0.0,0.0,0.0
4756000,4676000,0.103941135,0.103942215,0.21016484,1.0006601,1.0006601,15.287765,0.0,0.0,0.0,0.0,0.0,0.0,0.0,24.752031,0.0,0.0,nan,0.0,0.0,0.0,0.0,0.096231446,0.0,0.0,0.0,1.0959939,1.0959696,1.006,0.0,0.0,0.0,0.0,0.0,0.0
4764000,4684000,0.103941135,0.103942215,0.21016484,1.0006601,1.0006601,15.287765,0.0,0.0,0.0,0.0,0.0,0.0,0.0,24.752031,0.0,0.0,nan,0.0,0.0,0.0,0.0,0.096292175,0.0,0.0,0.0,1.0968885,1.0968642,1.0060009,0.0,0.0,0.0,0.0,0.0,0.0
4772000,4692000,0.103941135,0.103942215,0.21016484,1.0006601,1.0006601,15.287765,0.0,0.0,0.0,0.0,0.0,0.0,0.0,24.752506,0.0,0.0,nan,0.0,0.0,0.0,0.0,0.096292175,0.0,0.0,0.0,1.09779,1.0977657,1.0060017,0.0,0.0,0.0,0.0,0.0,0.0
4780000,4700000,0.103941135,0.103942215,0.21016484,1.0006601,1.0006601,15.287765,0.0,0.0,0.0,0.0,0.0,0.0,0.0,24.752506,0.0,0.0,nan,0.0,0.0,0.0,0.0,0.096292175,0.0,0.0,0.0,1.0986981,1.0986736,1.0060024,0.0,0.0,0.0,0.0,0.0,0.0
4788000,4708000,0.103941135,0.103942215,0.21016484,1.0006601,1.0006601,15.287765,0.0,0.0,0.0,0.0,0.0,0.0,0.0,24.752506,0.0,0.0,nan,0.0,0.0,0.0,0.0,0.096292175,0.0,0.0,0.0,1.0996128,1.0995882,1.0060033,0.0,0.0,0.0,0.0,0.0,0.0
4796000,4716000,0.103941135,0.103942215,0.21016484,1.0006601,1.0006601,15.287765,0.0,0.0,0.0,0.0,0.0,0.0,0.0,24.752506,0.0,0.0,nan,0.0,0.0,0.0,0.0,0.096292175,0.0,0.0,0.0,1.1005341,1.1005092,1.006004,0.0,0.0,0.0,0.0,0.0,0.0
4804000,4724000,0.103941135,0.103942215,0.21016484,1.0006601,1.0006601,15.287765,0.0,0.0,0.0,0.0,0.0,0.0,0.0,24.752506,0.0,0.0,nan,0.0,0.0,0.0,0.0,0.096292175,0.0,0.0,0.0,1.1014619,1.1014369,1.0060049,0.0,0.0,0.0,0.0,0.0,0.0
4812000,4732000,0.103941135,0.103942215,0.21016484,1.0006601,1.0006601,15.287765,0.0,0.0,0.0,0.0,0.0,0.0,0.0,24.752506,0.0,0.0,nan,0.0,0.0,0.0,0.0,0.096292175,0.0,0.0,0.0,1.1023962,1.1023712,1.0060058,0.0,0.0,0.0,0.0,0.0,0.0
4820000,4740000,0.103941135,0.103942215,0.21016484,1.0006601,1.0006601,15.287765,0.0,0.0,0.0,0.0,0.0,0.0,0.0,24.752506,0.0,0.0,nan,0.0,0.0,0.0,0.0,0.096292175,0.0,0.0,0.0,1.1033375,1.1033123,1.0060066,0.0,0.0,0.0,0.0,0.0,0.0
4828000,4748000,0.103941135,0.103942215,0.21016484,1.0006601,1.0006601,15.287765,0.0,0.0,0.0,0.0,0.0,0.0,0.0,24.752506,0.0,0.0,nan,0.0,0.0,0.0,0.0,0.096292175,0.0,0.0,0.0,1.0643963,1.0643717,1.0059682,0.0,0.0,0.0,0.0,0.0,0.0
4836000,4756000,0.103941135,0.103942215,0.21016484,1.0006601,1.0006601,15.287765,0.0,0.0,0.0,0.0,0.0,0.0,0.0,24.75314,0.0,0.0,nan,0.0,0.0,0.0,0.0,0.09635113,0.0,0.0,0.0,1.0648195,1.0647947,1.0059689,0.0,0.0,0.0,0.0,0.0,0.0
4844000,4764000,0.103941135,0.103942215,0.21016484,1.0006601,1.0006601,15.287765,0.0,0.0,0.0,0.0,0.0,0.0,0.0,24.75314,0.0,0.0,nan,0.0,0.0,0.0,0.0,0.09635113,0.0,0.0,0.0,1.0652457,1.0652208,1.0059693,0.0,0.0,0.0,0.0,0.0,0.0
4852000,4772000,0.103941135,0.103942215,0.21016484,1.0006601,1.0006601,15.287765,0.0,0.0,0.0,0.0,0.0,0.0,0.0,24.75314,0.0,0.0,nan,0.0,0.0,0.0,0.0,0.09635113,0.0,0.0,0.0,1.0656749,1.0656499,1.0059698,0.0,0.0,0.0,0.0,0.0,0.0
4860000,4780000,0.103941135,0.103942215,0.21016484,1.0006601,1.0006601,15.287765,0.0,0.0,0.0,0.0,0.0,0.0,0.0,24.75314,0.0,0.0,nan,0.0,0.0,0.0,0.0,0.09635113,0.0,0.0,0.0,1.0644585,1.0644338,1.0059685,0.0,0.0,0.0,0.0,0.0,0.0
4868000,4788000,0.103941135,0.103942215,0.21016484,1.0006601,1.0006601,15.287765,0.0,0.0,0.0,0.0,0.0,0.0,0.0,24.75314,0.0,0.0,nan,0.0,0.0,0.0,0.0,0.09635113,0.0,0.0,0.0,1.0648714,1.0648468,1.0059688,0.0,0.0,0.0,0.0,0.0,0.0
4876000,4796000,0.103941135,0.103942215,0.21016484,1.0006601,1.0006601,15.287765,0.0,0.0,0.0,0.0,0.0,0.0,0.0,24.75314,0.0,0.0,nan,0.0,0.0,0.0,0.0,0.09635113,0.0,0.0,0.0,1.0652875,1.0652627,1.0059692,0.0,0.0,0.0,0.0,0.0,0.0
4884000,4804000,0.103941135,0.103942215,0.21016484,1.0006601,1.0006601,15.287765,0.0,0.0,0.0,0.0,0.0,0.0,0.0,24.75314,0.0,0.0,nan,0.0,0.0,0.0,0.0,0.09635113,0.0,0.0,0.0,1.0657064,1.0656816,1.0059695,0.0,0.0,0.0,0.0,0.0,0.0
4892000,4812000,0.103941135,0.103942215,0.21016484,1.0006601,1.0006601,15.287765,0.0,0.0,0.0,0.0,0.0,0.0,0.0,18.437773,0.0,0.0,nan,0.0,0.0,0.0,0.0,0.09635113,0.0,0.0,0.0,1.0661283,1.0661035,1.0059699,0.0,0.0,0.0,0.0,0.0,0.0
4900000,4820000,0.103941135,0.103942215,0.21016484,1.0006601,1.0006601,15.287765,0.0,0.0,0.0,0.0,0.0,0.0,0.0,18.437773,0.0,0.0,nan,0.0,0.0,0.0,0.0,0.09635113,0.0,0.0,0.0,1.0665528,1.0665282,1.0059702,0.0,0.0,0.0,0.0,0.0,0.0
4908000,4828000,0.103941135,0.103942215,0.21016484,1.0006601,1.0006601,15.287765,0.0,0.0,0.0,0.0,0.0,0.0,0.0,18.437773,0.0,0.0,nan,0.0,0.0,0.0,0.0,0.09640671,0.0,0.0,0.0,1.0669806,1.0669559,1.0059711,0.0,0.0,0.0,0.0,0.0,0.0
4916000,4836000,0.103941135,0.103942215,0.21016484,1.0006601,1.0006601,15.287765,0.0,0.0,0.0,0.0,0.0,0.0,0.0,18.437773,0.0,0.0,nan,0.0,0.0,0.0,0.0,0.09640671,0.0,0.0,0.0,1.0674112,1.0673864,1.0059714,0.0,0.0,0.0,0.0,0.0,0.0
4924000,4844000,0.103941135,0.103942215,0.21016484,1.0006601,1.0006601,15.287765,0.0,0.0,0.0,0.0,0.0,0.0,0.0,18.437773,0.0,0.0,nan,0.0,0.0,0.0,0.0,0.09640671,0.0,0.0,0.0,1.0678447,1.0678198,1.0059718,0.0,0.0,0.0,0.0,0.0,0.0
4932000,4852000,0.103941135,0.103942215,0.21016484,1.0006601,1.0006601,15.287765,0.0,0.0,0.0,0.0,0.0,0.0,0.0,18.437773,0.0,0.0,nan,0.0,0.0,0.0,0.0,0.09640671,0.0,0.0,0.0,1.0682813,1.0682564,1.0059721,0.0,0.0,0.0,0.0,0.0,0.0
4940000,4860000,0.103941135,0.103942215,0.21016484,1.0006601,1.0006601,15.287765,0.0,0.0,0.0,0.0,0.0,0.0,0.0,16.361328,0.0,0.0,nan,0.0,0.0,0.0,0.0,0.09640671,0.0,0.0,0.0,1.0687206,1.0686955,1.0059725,0.0,0.0,0.0,0.0,0.0,0.0
4948000,4868000,0.103941135,0.103942215,0.21016484,1.0006601,1.0006601,15.287765,0.0,0.0,0.0,0.0,0.0,0.0,0.0,16.361328,0.0,0.0,nan,0.0,0.0,0.0,0.0,0.09640671,0.0,0.0,0.0,1.0691628,1.0691378,1.0059729,0.0,0.0,0.0,0.0,0.0,0.0
4956000,4876000,0.103941135,0.103942215,0.21016484,1.0006601,1.0006601,15.287765,0.0,0.0,0.0,0.0,0.0,0.0,0.0,16.361328,0.0,0.0,nan,0.0,0.0,0.0,0.0,0.09640671,0.0,0.0,0.0,1.0696082,1.069583,1.0059732,0.0,0.0,0.0,0.0,0.0,0.0
4964000,4884000,0.103941135,0.103942215,0.21016484,1.0006601,1.0006601,15.287765,0.0,0.0,0.0,0.0,0.0,0.0,0.0,16.361328,0.0,0.0,nan,0.0,0.0,0.0,0.0,0.09640671,0.0,0.0,0.0,1.0700563,1.0700312,1.0059735,0.0,0.0,0.0,0.0,0.0,0.0
4972000,4892000,0.103941135,0.103942215,0.21016484,1.0006601,1.0006601,15.287765,0.0,0.0,0.0,0.0,0.0,0.0,0.0,16.361328,0.0,0.0,nan,0.0,0.0,0.0,0.0,0.09640671,0.0,0.0,0.0,1.0705073,1.0704823,1.0059739,0.0,0.0,0.0,0.0,0.0,0.0
4980000,4900000,0.103941135,0.103942215,0.21016484,1.0006601,1.0006601,15.287765,0.0,0.0,0.0,0.0,0.0,0.0,0.0,16.361328,0.0,0.0,nan,0.0,0.0,0.0,0.0,0.09645751,0.0,0.0,0.0,1.0709614,1.0709361,1.0059744,0.0,0.0,0.0,0.0,0.0,0.0
4988000,4908000,0.103941135,0.103942215,0.21016484,1.0006601,1.0006601,15.287765,0.0,0.0,0.0,0.0,0.0,0.0,0.0,16.361328,0.0,0.0,nan,0.0,0.0,0.0,0.0,0.09645751,0.0,0.0,0.0,1.0714183,1.071393,1.0059748,0.0,0.0,0.0,0.0,0.0,0.0
4996000,4916000,0.103941135,0.103942215,0.21016484,1.0006601,1.0006601,15.287765,0.0,0.0,0.0,0.0,0.0,0.0,0.0,16.361328,0.0,0.0,nan,0.0,0.0,0.0,0.0,0.09645751,0.0,0.0,0.0,1.0718782,1.0718528,1.0059751,0.0,0.0,0.0,0.0,0.0,0.0
5004000,4924000,0.09553923,0.09554027,0.21149358,1.0003471,1.0003471,3.4602134,0.0,0.0,0.0,0.0,0.0,0.0,0.0,15.328475,0.0,0.0,nan,0.0,0.0,0.0,0.0,0.09645751,0.0,0.0,0.0,1.0723411,1.0723158,1.0059755,0.0,0.0,0.0,0.0,0.0,0.0
5012000,4932000,0.09553923,0.09554027,0.21149358,1.0003471,1.0003471,3.4602134,0.0,0.0,0.0,0.0,0.0,0.0,0.0,15.328475,0.0,0.0,nan,0.0,0.0,0.0,0.0,0.09645751,0.0,0.0,0.0,1.0728067,1.0727813,1.005976,0.0,0.0,0.0,0.0,0.0,0.0
5020000,4940000,0.09553923,0.09554027,0.21149358,1.0003471,1.0003471,3.4602134,0.0,0.0,0.0,0.0,0.0,0.0,0.0,15.328475,0.0,0.0,nan,0.0,0.0,0.0,0.0,0.09645751,0.0,0.0,0.0,1.0732754,1.07325,1.0059762,0.0,0.0,0.0,0.0,0.0,0.0
5028000,4948000,0.09553923,0.09554027,0.21149358,1.0003471,1.0003471,3.4602134,0.0,0.0,0.0,0.0,0.0,0.0,0.0,15.328475,0.0,0.0,nan,0.0,0.0,0.0,0.0,0.09645751,0.0,0.0,0.0,1.073747,1.0737215,1.0059767,0.0,0.0,0.0,0.0,0.0,0.0
5036000,4956000,0.09553923,0.09554027,0.21149358,1.0003471,1.0003471,3.4602134,0.0,0.0,0.0,0.0,0.0,0.0,0.0,15.328475,0.0,0.0,nan,0.0,0.0,0.0,0.0,0.09645751,0.0,0.0,0.0,1.0539705,1.0539471,1.005958,0.0,0.0,0.0,0.0,0.0,0.0
5044000,4964000,0.09553923,0.09554027,0.21149358,1.0003471,1.0003471,3.4602134,0.0,0.0,0.0,0.0,0.0,0.0,0.0,15.328475,0.0,0.0,nan,0.0,0.0,0.0,0.0,0.09645751,0.0,0.0,0.0,1.0542113,1.0541879,1.0059582,0.0,0.0,0.0,0.0,0.0,0.0
5052000,4972000,0.09553923,0.09554027,0.21149358,1.0003471,1.0003471,3.4602134,0.0,0.0,0.0,0.0,0.0,0.0,0.0,15.328475,0.0,0.0,nan,0.0,0.0,0.0,0.0,0.09650243,0.0,0.0,0.0,1.0544536,1.0544301,1.0059582,0.0,0.0,0.0,0.0,0.0,0.0
5060000,4980000,0.09553923,0.09554027,0.21149358,1.0003471,1.0003471,3.4602134,0.0,0.0,0.0,0.0,0.0,0.0,0.0,14.710455,0.0,0.0,nan,0.0,0.0,0.0,0.0,0.09650243,0.0,0.0,0.0,1.0546975,1.0546739,1.0059583,0.0,0.0,0.0,0.0,0.0,0.0
5068000,4988000,0.09553923,0.09554027,0.21149358,1.0003471,1.0003471,3.4602134,0.0,0.0,0.0,0.0,0.0,0.0,0.0,14.710455,0.0,0.0,nan,0.0,0.0,0.0,0.0,0.09650243,0.0,0.0,0.0,1.0541615,1.0541383,1.0059578,0.0,0.0,0.0,0.0,0.0,0.0
5076000,4996000,0.09553923,0.09554027,0.21149358,1.0003471,1.0003471,3.4602134,0.0,0.0,0.0,0.0,0.0,0.0,0.0,14.710455,0.0,0.0,nan,0.0,0.0,0.0,0.0,0.09650243,0.0,0.0,0.0,1.0543993,1.0543759,1.005958,0.0,0.0,0.0,0.0,0.0,0.0
5084000,5004000,0.09553923,0.09554027,0.21149358,1.0003471,1.0003471,3.4602134,0.0,0.0,0.0,0.0,0.0,0.0,0.0,14.710455,0.0,0.0,nan,0.0,0.0,0.0,0.0,0.09650243,0.0,0.0,0.0,1.0546385,1.054615,1.0059582,0.0,0.0,0.0,0.0,0.0,0.0
5092000,5012000,0.09553923,0.09554027,0.21149358,1.0003471,1.0003471,3.4602134,0.0,0.0,0.0,0.0,0.0,0.0,0.0,14.710455,0.0,0.0,nan,0.0,0.0,0.0,0.0,0.09650243,0.0,0.0,0.0,1.0548791,1.0548557,1.0059582,0.0,0.0,0.0,0.0,0.0,0.0
5100000,5020000,0.09553923,0.09554027,0.21149358,1.0003471,1.0003471,3.4602134,0.0,0.0,0.0,0.0,0.0,0.0,0.0,14.710455,0.0,0.0,nan,0.0,0.0,0.0,0.0,0.09650243,0.0,0.0,0.0,1.0551213,1.0550978,1.0059586,0.0,0.0,0.0,0.0,0.0,0.0
5108000,5028000,0.09553923,0.09554027,0.21149358,1.0003471,1.0003471,3.4602134,0.0,0.0,0.0,0.0,0.0,0.0,0.0,14.710455,0.0,0.0,nan,0.0,0.0,0.0,0.0,0.09650243,0.0,0.0,0.0,1.0553648,1.0553415,1.0059588,0.0,0.0,0.0,0.0,0.0,0.0
5116000,5036000,0.09553923,0.09554027,0.21149358,1.0003471,1.0003471,3.4602134,0.0,0.0,0.0,0.0,0.0,0.0,0.0,14.710455,0.0,0.0,nan,0.0,0.0,0.0,0.0,0.09650243,0.0,0.0,0.0,1.0556101,1.0555867,1.0059589,0.0,0.0,0.0,0.0,0.0,0.0
5124000,5044000,0.09553923,0.09554027,0.21149358,1.0003471,1.0003471,3.4602134,0.0,0.0,0.0,0.0,0.0,0.0,0.0,14.299091,0.0,0.0,nan,0.0,0.0,0.0,0.0,0.096540794,0.0,0.0,0.0,1.0558568,1.0558332,1.0059599,0.0,0.0,0.0,0.0,0.0,0.0
5132000,5052000,0.09553923,0.09554027,0.21149358,1.0003471,1.0003471,3.4602134,0.0,0.0,0.0,0.0,0.0,0.0,0.0,14.299091,0.0,0.0,nan,0.0,0.0,0.0,0.0,0.096540794,0.0,0.0,0.0,1.056105,1.0560813,1.00596,0.0,0.0,0.0,0.0,0.0,0.0
5140000,5060000,0.09553923,0.09554027,0.21149358,1.0003471,1.0003471,3.4602134,0.0,0.0,0.0,0.0,0.0,0.0,0.0,14.299091,0.0,0.0,nan,0.0,0.0,0.0,0.0,0.096540794,0.0,0.0,0.0,1.0563548,1.056331,1.0059602,0.0,0.0,0.0,0.0,0.0,0.0
5148000,5068000,0.09553923,0.09554027,0.21149358,1.0003471,1.0003471,3.4602134,0.0,0.0,0.0,0.0,0.0,0.0,0.0,14.299091,0.0,0.0,nan,0.0,0.0,0.0,0.0,0.096540794,0.0,0.0,0.0,1.0566059,1.0565822,1.0059603,0.0,0.0,0.0,0.0,0.0,0.0
5156000,5076000,0.09553923,0.09554027,0.21149358,1.0003471,1.0003471,3.4602134,0.0,0.0,0.0,0.0,0.0,0.0,0.0,14.299091,0.0,0.0,nan,0.0,0.0,0.0,0.0,0.096540794,0.0,0.0,0.0,1.0568585,1.0568348,1.0059606,0.0,0.0,0.0,0.0,0.0,0.0
5164000,5084000,0.09553923,0.09554027,0.21149358,1.0003471,1.0003471,3.4602134,0.0,0.0,0.0,0.0,0.0,0.0,0.0,14.299091,0.0,0.0,nan,0.0,0.0,0.0,0.0,0.096540794,0.0,0.0,0.0,1.0571129,1.057089,1.0059607,0.0,0.0,0.0,0.0,0.0,0.0
5172000,5092000,0.09553923,0.09554027,0.21149358,1.0003471,1.0003471,3.4602134,0.0,0.0,0.0,0.0,0.0,0.0,0.0,14.299091,0.0,0.0,nan,0.0,0.0,0.0,0.0,0.096540794,0.0,0.0,0.0,1.0573685,1.0573446,1.005961,0.0,0.0,0.0,0.0,0.0,0.0
5180000,5100000,0.09553923,0.09554027,0.21149358,1.0003471,1.0003471,3.4602134,0.0,0.0,0.0,0.0,0.0,0.0,0.0,14.005699,0.0,0.0,nan,0.0,0.0,0.0,0.0,0.096540794,0.0,0.0,0.0,1.0576255,1.0576018,1.0059612,0.0,0.0,0.0,0.0,0.0,0.0
5188000,5108000,0.09553923,0.09554027,0.21149358,1.0003471,1.0003471,3.4602134,0.0,0.0,0.0,0.0,0.0,0.0,0.0,14.005699,0.0,0.0,nan,0.0,0.0,0.0,0.0,0.096540794,0.0,0.0,0.0,1.0578842,1.0578604,1.0059615,0.0,0.0,0.0,0.0,0.0,0.0
5196000,5116000,0.09553923,0.09554027,0.21149358,1.0003471,1.0003471,3.4602134,0.0,0.0,0.0,0.0,0.0,0.0,0.0,14.005699,0.0,0.0,nan,0.0,0.0,0.0,0.0,0.09657203,0.0,0.0,0.0,1.0581442,1.0581204,1.0059617,0.0,0.0,0.0,0.0,0.0,0.0
5204000,5124000,0.09553923,0.09554027,0.21149358,1.0003471,1.0003471,3.4602134,0.0,0.0,0.0,0.0,0.0,0.0,0.0,14.005699,0.0,0.0,nan,0.0,0.0,0.0,0.0,0.09657203,0.0,0.0,0.0,1.058406,1.058382,1.0059618,0.0,0.0,0.0,0.0,0.0,0.0
5212000,5132000,0.09553923,0.09554027,0.21149358,1.0003471,1.0003471,3.4602134,0.0,0.0,0.0,0.0,0.0,0.0,0.0,14.005699,0.0,0.0,nan,0.0,0.0,0.0,0.0,0.09657203,0.0,0.0,0.0,1.0586692,1.058645,1.0059621,0.0,0.0,0.0,0.0,0.0,0.0
5220000,5140000,0.09553923,0.09554027,0.21149358,1.0003471,1.0003471,3.4602134,0.0,0.0,0.0,0.0,0.0,0.0,0.0,14.005699,0.0,0.0,nan,0.0,0.0,0.0,0.0,0.09657203,0.0,0.0,0.0,1.0589337,1.0589095,1.0059623,0.0,0.0,0.0,0.0,0.0,0.0
5228000,5148000,0.09553923,0.09554027,0.21149358,1.0003471,1.0003471,3.4602134,0.0,0.0,0.0,0.0,0.0,0.0,0.0,14.005699,0.0,0.0,nan,0.0,0.0,0.0,0.0,0.09657203,0.0,0.0,0.0,1.0592,1.0591757,1.0059626,0.0,0.0,0.0,0.0,0.0,0.0
5236000,5156000,0.09553923,0.09554027,0.21149358,1.0003471,1.0003471,3.4602134,0.0,0.0,0.0,0.0,0.0,0.0,0.0,14.005699,0.0,0.0,nan,0.0,0.0,0.0,0.0,0.09657203,0.0,0.0,0.0,1.0594677,1.0594434,1.0059627,0.0,0.0,0.0,0.0,0.0,0.0
5244000,5164000,0.09553923,0.09554027,0.21149358,1.0003471,1.0003471,3.4602134,0.0,0.0,0.0,0.0,0.0,0.0,0.0,13.785935,0.0,0.0,nan,0.0,0.0,0.0,0.0,0.09657203,0.0,0.0,0.0,1.0483494,1.0483266,1.0059525,0.0,0.0,0.0,0.0,0.0,0.0
5252000,5172000,0.09553923,0.09554027,0.21149358,1.0003471,1.0003471,3.4602134,0.0,0.0,0.0,0.0,0.0,0.0,0.0,13.785935,0.0,0.0,nan,0.0,0.0,0.0,0.0,0.09657203,0.0,0.0,0.0,1.0485013,1.0484785,1.0059526,0.0,0.0,0.0,0.0,0.0,0.0
5260000,5180000,0.09553923,0.09554027,0.21149358,1.0003471,1.0003471,3.4602134,0.0,0.0,0.0,0.0,0.0,0.0,0.0,13.785935,0.0,0.0,nan,0.0,0.0,0.0,0.0,0.09657203,0.0,0.0,0.0,1.0486541,1.0486313,1.0059527,0.0,0.0,0.0,0.0,0.0,0.0
5268000,5188000,0.09553923,0.09554027,0.21149358,1.0003471,1.0003471,3.4602134,0.0,0.0,0.0,0.0,0.0,0.0,0.0,13.785935,0.0,0.0,nan,0.0,0.0,0.0,0.0,0.09659583,0.0,0.0,0.0,1.0488076,1.048785,1.0059524,0.0,0.0,0.0,0.0,0.0,0.0
5276000,5196000,0.09553923,0.09554027,0.21149358,1.0003471,1.0003471,3.4602134,0.0,0.0,0.0,0.0,0.0,0.0,0.0,13.785935,0.0,0.0,nan,0.0,0.0,0.0,0.0,0.09659583,0.0,0.0,0.0,1.0485405,1.0485178,1.0059521,0.0,0.0,0.0,0.0,0.0,0.0
5284000,5204000,0.09553923,0.09554027,0.21149358,1.0003471,1.0003471,3.4602134,0.0,0.0,0.0,0.0,0.0,0.0,0.0,13.785935,0.0,0.0,nan,0.0,0.0,0.0,0.0,0.09659583,0.0,0.0,0.0,1.0486914,1.0486689,1.0059522,0.0,0.0,0.0,0.0,0.0,0.0
5292000,5212000,0.09553923,0.09554027,0.21149358,1.0003471,1.0003471,3.4602134,0.0,0.0,0.0,0.0,0.0,0.0,0.0,13.785935,0.0,0.0,nan,0.0,0.0,0.0,0.0,0.09659583,0.0,0.0,0.0,1.0488434,1.0488207,1.0059524,0.0,0.0,0.0,0.0,0.0,0.0
5300000,5220000,0.09553923,0.09554027,0.21149358,1.0003471,1.0003471,3.4602134,0.0,0.0,0.0,0.0,0.0,0.0,0.0,13.614941,0.0,0.0,nan,0.0,0.0,0.0,0.0,0.09659583,0.0,0.0,0.0,1.0489961,1.0489734,1.0059526,0.0,0.0,0.0,0.0,0.0,0.0
5308000,5228000,0.09553923,0.09554027,0.21149358,1.0003471,1.0003471,3.4602134,0.0,0.0,0.0,0.0,0.0,0.0,0.0,13.614941,0.0,0.0,nan,0.0,0.0,0.0,0.0,0.09659583,0.0,0.0,0.0,1.0491496,1.049127,1.0059526,0.0,0.0,0.0,0.0,0.0,0.0
5316000,5236000,0.09553923,0.09554027,0.21149358,1.0003471,1.0003471,3.4602134,0.0,0.0,0.0,0.0,0.0,0.0,0.0,13.614941,0.0,0.0,nan,0.0,0.0,0.0,0.0,0.09659583,0.0,0.0,0.0,1.049304,1.0492815,1.0059528,0.0,0.0,0.0,0.0,0.0,0.0
5324000,5244000,0.09553923,0.09554027,0.21149358,1.0003471,1.0003471,3.4602134,0.0,0.0,0.0,0.0,0.0,0.0,0.0,13.614941,0.0,0.0,nan,0.0,0.0,0.0,0.0,0.09659583,0.0,0.0,0.0,1.0494593,1.0494367,1.0059528,0.0,0.0,0.0,0.0,0.0,0.0
5332000,5252000,0.09553923,0.09554027,0.21149358,1.0003471,1.0003471,3.4602134,0.0,0.0,0.0,0.0,0.0,0.0,0.0,13.614941,0.0,0.0,nan,0.0,0.0,0.0,0.0,0.09659583,0.0,0.0,0.0,1.0496155,1.0495929,1.0059531,0.0,0.0,0.0,0.0,0.0,0.0
5340000,5260000,0.09553923,0.09554027,0.21149358,1.0003471,1.0003471,3.4602134,0.0,0.0,0.0,0.0,0.0,0.0,0.0,13.614941,0.0,0.0,nan,0.0,0.0,0.0,0.0,0.09661211,0.0,0.0,0.0,1.0497724,1.0497497,1.0059526,0.0,0.0,0.0,0.0,0.0,0.0
5348000,5268000,0.09553923,0.09554027,0.21149358,1.0003471,1.0003471,3.4602134,0.0,0.0,0.0,0.0,0.0,0.0,0.0,13.614941,0.0,0.0,nan,0.0,0.0,0.0,0.0,0.09661211,0.0,0.0,0.0,1.0499302,1.0499076,1.0059528,0.0,0.0,0.0,0.0,0.0,0.0
5356000,5276000,0.09553923,0.09554027,0.21149358,1.0003471,1.0003471,3.4602134,0.0,0.0,0.0,0.0,0.0,0.0,0.0,13.614941,0.0,0.0,nan,0.0,0.0,0.0,0.0,0.09661211,0.0,0.0,0.0,1.0500891,1.0500664,1.0059528,0.0,0.0,0.0,0.0,0.0,0.0
5364000,5284000,0.09553923,0.09554027,0.21149358,1.0003471,1.0003471,3.4602134,0.0,0.0,0.0,0.0,0.0,0.0,0.0,13.478438,0.0,0.0,nan,0.0,0.0,0.0,0.0,0.09661211,0.0,0.0,0.0,1.0502486,1.0502261,1.0059528,0.0,0.0,0.0,0.0,0.0,0.0
5372000,5292000,0.09553923,0.09554027,0.21149358,1.0003471,1.0003471,3.4602134,0.0,0.0,0.0,0.0,0.0,0.0,0.0,13.478438,0.0,0.0,nan,0.0,0.0,0.0,0.0,0.09661211,0.0,0.0,0.0,1.0504091,1.0503864,1.0059531,0.0,0.0,0.0,0.0,0.0,0.0
5380000,5300000,0.09553923,0.09554027,0.21149358,1.0003471,1.0003471,3.4602134,0.0,0.0,0.0,0.0,0.0,0.0,0.0,13.478438,0.0,0.0,nan,0.0,0.0,0.0,0.0,0.09661211,0.0,0.0,0.0,1.0505705,1.0505478,1.0059532,0.0,0.0,0.0,0.0,0.0,0.0
5388000,5308000,0.09553923,0.09554027,0.21149358,1.0003471,1.0003471,3.4602134,0.0,0.0,0.0,0.0,0.0,0.0,0.0,13.478438,0.0,0.0,nan,0.0,0.0,0.0,0.0,0.09661211,0.0,0.0,0.0,1.0507325,1.0507098,1.0059533,0.0,0.0,0.0,0.0,0.0,0.0
5396000,5316000,0.09553923,0.09554027,0.21149358,1.0003471,1.0003471,3.4602134,0.0,0.0,0.0,0.0,0.0,0.0,0.0,13.478438,0.0,0.0,nan,0.0,0.0,0.0,0.0,0.09661211,0.0,0.0,0.0,1.0508956,1.0508729,1.0059533,0.0,0.0,0.0,0.0,0.0,0.0
