timestamp,roll,pitch,yaw,thrust_body[0],thrust_body[1],thrust_body[2],reset_integral
4292000,0.12998271,0.15022528,0.00057536364,0.0,0.0,-0.001,0
4300000,0.12971888,0.14994061,0.00066924095,0.0,0.0,-0.001,0
4316000,0.12948474,0.14947796,0.00061917305,0.0,0.0,-0.001,0
4332000,0.12920032,0.14899257,0.00060373545,0.0,0.0,-0.001,0
4356000,0.12873867,0.14859107,0.0006646514,0.0,0.0,-0.001,0
4376000,0.12853311,0.14832065,0.0006483793,0.0,0.0,-0.001,0
4396000,0.12872702,0.14799133,0.0006888509,0.0,0.0,-0.001,0
4416000,0.12879823,0.14737965,0.00054740906,0.0,0.0,-0.001,0
4432000,0.12873943,0.14700827,0.0005469918,0.0,0.0,-0.001,0
4452000,0.12856525,0.14637215,0.00048190355,0.0,0.0,-0.001,0
4476000,0.12847768,0.1455503,0.0005219579,0.0,0.0,-0.001,0
4496000,0.12840596,0.14493981,0.00047522783,0.0,0.0,-0.001,0
4516000,0.12824018,0.14427696,0.00041264296,0.0,0.0,-0.001,0
4536000,0.1281739,0.14391594,0.00048607588,0.0,0.0,-0.001,0
4556000,0.12807973,0.1436393,0.00027662516,0.0,0.0,-0.001,0
4572000,0.1280941,0.14357454,0.00029164553,0.0,0.0,-0.001,0
4596000,0.12810163,0.14346969,0.0003296137,0.0,0.0,-0.001,0
4616000,0.12810698,0.1432324,0.00052028894,0.0,0.0,-0.001,0
4636000,0.12793243,0.1428684,0.00031250715,0.0,0.0,-0.001,0
4652000,0.12768808,0.14295214,0.00047188997,0.0,0.0,-0.001,0
4676000,0.12763456,0.14265357,0.00045895576,0.0,0.0,-0.001,0
4692000,0.12746249,0.14230524,0.0005853772,0.0,0.0,-0.001,0
4716000,0.1271948,0.14177144,0.00045520067,0.0,0.0,-0.001,0
4732000,0.12711678,0.14164491,0.0004310012,0.0,0.0,-0.001,0
4756000,0.1268889,0.14105745,0.00047647953,0.0,0.0,-0.001,0
4772000,0.12674181,0.14077227,0.0006187558,0.0,0.0,-0.001,0
4792000,0.12658232,0.14068022,0.0005953908,0.0,0.0,-0.001,0
4816000,0.12592544,0.14062946,0.00060248375,0.0,0.0,-0.001,0
4832000,0.12546827,0.14063138,0.00058496,0.0,0.0,-0.001,0
4852000,0.1248052,0.14026333,0.0004080534,0.0,0.0,-0.001,0
4876000,0.124021366,0.14015774,0.00044852495,0.0,0.0,-0.001,0
4892000,0.12351215,0.14007631,0.00039553642,0.0,0.0,-0.001,0
4916000,0.12299281,0.14005275,0.0002616048,0.0,0.0,-0.001,0
4936000,0.12230032,0.14008042,0.00041598082,0.0,0.0,-0.001,0
4952000,0.12220214,0.13983035,0.0004310012,0.0,0.0,-0.001,0
4972000,0.121781394,0.139668,0.00024658442,0.0,0.0,-0.001,0
4996000,0.12154142,0.13958956,0.00030457973,0.0,0.0,-0.001,0
5012000,0.12126311,0.13932136,0.00036257505,0.0,0.0,-0.001,0
5032000,0.12099538,0.13920076,0.00045353174,0.0,0.0,-0.001,0
5056000,0.12031137,0.13899972,0.00048607588,0.0,0.0,-0.001,0
5072000,0.11993978,0.13892524,0.0005040169,0.0,0.0,-0.001,0
5096000,0.11944192,0.13905446,0.0005169511,0.0,0.0,-0.001,0
5116000,0.11908231,0.13909289,0.0005056858,0.0,0.0,-0.001,0
5132000,0.11883046,0.13897343,0.00037050247,0.0,0.0,-0.001,0
5152000,0.11858089,0.13889033,0.00047689676,0.0,0.0,-0.001,0
5172000,0.11844589,0.13894649,0.00038468838,0.0,0.0,-0.001,0
5196000,0.11815897,0.13914828,0.00033962727,0.0,0.0,-0.001,0
5216000,0.11804084,0.13919882,0.00048440695,0.0,0.0,-0.001,0
5236000,0.117762744,0.13930249,0.00041389465,0.0,0.0,-0.001,0
5256000,0.11774483,0.13932064,0.00044810772,0.0,0.0,-0.001,0
5272000,0.11749787,0.13918686,0.00049066544,0.0,0.0,-0.001,0
5292000,0.117042035,0.13932167,0.00060749054,0.0,0.0,-0.001,0
5312000,0.1168827,0.13917942,0.0005211234,0.0,0.0,-0.001,0
5332000,0.11648898,0.13907568,0.0005194545,0.0,0.0,-0.001,0
5356000,0.116214894,0.13893521,0.00052404404,0.0,0.0,-0.001,0
5376000,0.116159305,0.13905552,0.00057536364,0.0,0.0,-0.001,0
5396000,0.11582357,0.13910192,0.00066131353,0.0,0.0,-0.001,0
5412000,0.11572421,0.13908198,0.0005657673,0.0,0.0,-0.001,0
5432000,0.11550774,0.13896552,0.0006170869,0.0,0.0,-0.001,0
5452000,0.11535717,0.13888909,0.0006892681,0.0,0.0,-0.001,0
5476000,0.11560413,0.13884167,0.0006583929,0.0,0.0,-0.001,0
5492000,0.115703,0.13879974,0.00069761276,0.0,0.0,-0.001,0
5516000,0.11581615,0.13845795,0.0006375313,0.0,0.0,-0.001,0
5536000,0.1158869,0.13821897,0.00056660175,0.0,0.0,-0.001,0
5556000,0.11574208,0.13807307,0.0005440712,0.0,0.0,-0.001,0
5576000,0.115689136,0.1377976,0.0005056858,0.0,0.0,-0.001,0
5596000,0.11580861,0.13782947,0.00046563148,0.0,0.0,-0.001,0
5616000,0.11577191,0.13778222,0.0005052686,0.0,0.0,-0.001,0
5636000,0.11593236,0.13771042,0.00041931868,0.0,0.0,-0.001,0
5656000,0.11601853,0.13760579,0.0004643798,0.0,0.0,-0.001,0
5676000,0.11634924,0.13742648,0.00038719177,0.0,0.0,-0.001,0
5692000,0.116607726,0.13719173,0.00041764975,0.0,0.0,-0.001,0
5716000,0.11681636,0.13679828,-0.00014060736,0.0,0.0,-0.001,0
5732000,0.11712749,0.1369218,-0.00018817186,0.0,0.0,-0.001,0
5756000,0.11728087,0.13689466,-0.00013935566,0.0,0.0,-0.001,0
5772000,0.11736636,0.13674645,-0.00019651651,0.0,0.0,-0.001,0
5796000,0.11752454,0.13684027,-9.596348e-05,0.0,0.0,-0.001,0
5812000,0.11773246,0.13672411,4.8816204e-05,0.0,0.0,-0.001,0
5832000,0.11779166,0.13664845,0.00033962727,0.0,0.0,-0.001,0
5856000,0.11745535,0.13700652,0.00038719177,0.0,0.0,-0.001,0
5876000,0.11747718,0.13716362,0.0002824664,0.0,0.0,-0.001,0
5892000,0.11746572,0.13713548,0.0003400445,0.0,0.0,-0.001,0
5912000,0.117475405,0.13677211,0.00048816204,0.0,0.0,-0.001,0
5932000,0.11756158,0.13663425,0.00041639805,0.0,0.0,-0.001,0
5956000,0.117751755,0.1365088,0.0004606247,0.0,0.0,-0.001,0
5972000,0.118123226,0.13650014,0.00045853853,0.0,0.0,-0.001,0
5996000,0.1181466,0.13634363,0.0007944107,0.0,0.0,-0.001,0
6012000,0.11810364,0.13640703,0.0007914901,0.0,0.0,-0.001,0
6036000,0.118047714,0.13650104,0.0007760525,0.0,0.0,-0.001,0
6052000,0.117999785,0.13632244,0.0007455945,0.0,0.0,-0.001,0
6072000,0.11789296,0.13620946,0.0006842613,0.0,0.0,-0.001,0
6092000,0.118035145,0.13623112,0.0008315444,0.0,0.0,-0.001,0
6116000,0.11787391,0.13617998,0.0007593632,0.0,0.0,-0.001,0
6132000,0.11788631,0.13601507,0.0007022023,0.0,0.0,-0.001,0
6156000,0.118040815,0.13578922,0.000805676,0.0,0.0,-0.001,0
6172000,0.11796461,0.1358643,0.00070637465,0.0,0.0,-0.001,0
6196000,0.11776155,0.13575384,0.0008119345,0.0,0.0,-0.001,0
6212000,0.11760691,0.13592617,0.0006583929,0.0,0.0,-0.001,0
6236000,0.117434084,0.13593483,0.00066256523,0.0,0.0,-0.001,0
6252000,0.117216095,0.13579768,0.00057286024,0.0,0.0,-0.001,0
6272000,0.11701736,0.13615045,0.0005386472,0.0,0.0,-0.001,0
6292000,0.11676359,0.13608505,0.0007748008,0.0,0.0,-0.001,0
6316000,0.11678064,0.13614073,0.00069719553,0.0,0.0,-0.001,0
6332000,0.116757356,0.13638043,0.00072681904,0.0,0.0,-0.001,0
6352000,0.11661029,0.13631584,0.00061124563,0.0,0.0,-0.001,0
6376000,0.11645563,0.13617045,0.00056409836,0.0,0.0,-0.001,0
6396000,0.11634436,0.13601157,0.00070011616,0.0,0.0,-0.001,0
6416000,0.11624798,0.13633363,0.0005899668,0.0,0.0,-0.001,0
6436000,0.11605584,0.13618846,0.00038301945,0.0,0.0,-0.001,0
6456000,0.115971975,0.13605049,0.00042057037,0.0,0.0,-0.001,0
6472000,0.11597093,0.13580859,0.00037676096,0.0,0.0,-0.001,0
6492000,0.11587066,0.13576193,0.00029873848,0.0,0.0,-0.001,0
6516000,0.115719296,0.13591485,0.00036883354,0.0,0.0,-0.001,0
6532000,0.115541324,0.1359845,0.00038218498,0.0,0.0,-0.001,0
6556000,0.115415975,0.13593735,0.00033712387,0.0,0.0,-0.001,0
6572000,0.114985965,0.1359483,0.0003492236,0.0,0.0,-0.001,0
6596000,0.11474609,0.13589028,0.00037050247,0.0,0.0,-0.001,0
6616000,0.11472354,0.13584226,0.00045102835,0.0,0.0,-0.001,0
6636000,0.11445747,0.1361267,0.0002949834,0.0,0.0,-0.001,0
6656000,0.114356525,0.13615839,0.00047898293,0.0,0.0,-0.001,0
6676000,0.11396005,0.13614409,0.0004506111,0.0,0.0,-0.001,0
6696000,0.11395887,0.13617197,0.0004965067,0.0,0.0,-0.001,0
6716000,0.113904804,0.13642876,0.00022947788,0.0,0.0,-0.001,0
6736000,0.11354281,0.13644464,0.00039470196,0.0,0.0,-0.001,0
6756000,0.113325804,0.13658343,0.00030249357,0.0,0.0,-0.001,0
6776000,0.11332004,0.13658261,0.00035005808,0.0,0.0,-0.001,0
6792000,0.11323608,0.1366031,0.00037926435,0.0,0.0,-0.001,0
6816000,0.11309914,0.13673487,0.0004543662,0.0,0.0,-0.001,0
6836000,0.11302187,0.13674745,0.0003066659,0.0,0.0,-0.001,0
6856000,0.11276138,0.13673793,0.0005390644,0.0,0.0,-0.001,0
6876000,0.11268219,0.13663544,0.0005607605,0.0,0.0,-0.001,0
6896000,0.112426914,0.13680486,0.0005636811,0.0,0.0,-0.001,0
6916000,0.11272716,0.13695678,0.00061666965,0.0,0.0,-0.001,0
6932000,0.11265383,0.13742694,0.0006467104,0.0,0.0,-0.001,0
6956000,0.11265212,0.13755357,0.0006350279,0.0,0.0,-0.001,0
6976000,0.11269583,0.13770634,0.00055617094,0.0,0.0,-0.001,0
6996000,0.112737104,0.13759626,0.00069218874,0.0,0.0,-0.001,0
7016000,0.112602696,0.13763976,0.00055909157,0.0,0.0,-0.001,0
7036000,0.11239138,0.13782947,0.00055366755,0.0,0.0,-0.001,0
7056000,0.11250206,0.13781182,0.00052779913,0.0,0.0,-0.001,0
7076000,0.11267415,0.13781707,0.0006579757,0.0,0.0,-0.001,0
7092000,0.11289591,0.13785295,0.0006170869,0.0,0.0,-0.001,0
7116000,0.11274061,0.13778222,0.00062710047,0.0,0.0,-0.001,0
7136000,0.11274046,0.13747798,0.0005453229,0.0,0.0,-0.001,0
7156000,0.11268149,0.13767911,0.00054240227,0.0,0.0,-0.001,0
7176000,0.11286981,0.13786845,0.000477314,0.0,0.0,-0.001,0
7196000,0.11309971,0.13747002,0.0004606247,0.0,0.0,-0.001,0
7216000,0.11311084,0.13751803,0.00049734116,0.0,0.0,-0.001,0
7236000,0.11339593,0.13758558,0.00050902367,0.0,0.0,-0.001,0
7252000,0.113147475,0.13761736,0.0004864931,0.0,0.0,-0.001,0
7276000,0.11275388,0.13781404,0.000477314,0.0,0.0,-0.001,0
7292000,0.11263235,0.13777903,0.0004568696,0.0,0.0,-0.001,0
7312000,0.11242396,0.13747294,0.00044685602,0.0,0.0,-0.001,0
7332000,0.112396285,0.13725135,0.00042015314,0.0,0.0,-0.001,0
7356000,0.11279672,0.13760765,0.00043684244,0.0,0.0,-0.001,0
7372000,0.11297411,0.13764933,0.0004005432,0.0,0.0,-0.001,0
7392000,0.113367386,0.13790366,0.0004885793,0.0,0.0,-0.001,0
7416000,0.11364502,0.13794938,0.00046354532,0.0,0.0,-0.001,0
7436000,0.113860965,0.13823828,0.00041681528,0.0,0.0,-0.001,0
7452000,0.113842756,0.13821359,0.0004568696,0.0,0.0,-0.001,0
7476000,0.11378565,0.13859525,0.0004798174,0.0,0.0,-0.001,0
7492000,0.11395025,0.13857068,0.00049316883,0.0,0.0,-0.001,0
7512000,0.1143296,0.13863991,0.00054740906,0.0,0.0,-0.001,0
7532000,0.11454395,0.13839209,0.0006150007,0.0,0.0,-0.001,0
7556000,0.11465575,0.13824882,0.00058954954,0.0,0.0,-0.001,0
7576000,0.114871904,0.13817267,0.0005081892,0.0,0.0,-0.001,0
7596000,0.11492224,0.13811153,0.0005928874,0.0,0.0,-0.001,0
7612000,0.11501851,0.13805707,0.0004685521,0.0,0.0,-0.001,0
7636000,0.11550415,0.1381155,0.00048607588,0.0,0.0,-0.001,0
7652000,0.11554025,0.13793872,0.00056159496,0.0,0.0,-0.001,0
7676000,0.11560957,0.1376118,0.0005624294,0.0,0.0,-0.001,0
7696000,0.11573603,0.13738428,0.00053197145,0.0,0.0,-0.001,0
7716000,0.11581429,0.13766696,0.0004568696,0.0,0.0,-0.001,0
7736000,0.11586606,0.13754268,0.00058704615,0.0,0.0,-0.001,0
7756000,0.11599559,0.1374285,0.0005841255,0.0,0.0,-0.001,0
7776000,0.11613313,0.13744587,0.0005540848,0.0,0.0,-0.001,0
7796000,0.11618365,0.13749254,0.00069385767,0.0,0.0,-0.001,0
7816000,0.115925156,0.13724485,0.0006162524,0.0,0.0,-0.001,0
7832000,0.116037086,0.13701104,0.0005528331,0.0,0.0,-0.001,0
7856000,0.115991354,0.13693345,0.00058454275,0.0,0.0,-0.001,0
7876000,0.11587037,0.13695744,0.0005657673,0.0,0.0,-0.001,0
7892000,0.1160243,0.13683978,0.00056159496,0.0,0.0,-0.001,0
7916000,0.11598063,0.13685241,0.0006003976,0.0,0.0,-0.001,0
7932000,0.1158825,0.1369415,0.00055241585,0.0,0.0,-0.001,0
7956000,0.11590648,0.13691586,0.0005328059,0.0,0.0,-0.001,0
7976000,0.11604629,0.1368848,0.00052446127,0.0,0.0,-0.001,0
7992000,0.11619582,0.13675256,0.00053822994,0.0,0.0,-0.001,0
8012000,0.11630252,0.13675317,0.0005503297,0.0,0.0,-0.001,0
8036000,0.11638093,0.13647425,0.00054365396,0.0,0.0,-0.001,0
8056000,0.11635736,0.13645469,0.0005378127,0.0,0.0,-0.001,0
8076000,0.11635731,0.13619941,0.0005261302,0.0,0.0,-0.001,0
8092000,0.11635606,0.13616729,0.0006145835,0.0,0.0,-0.001,0
8112000,0.11625821,0.13607112,0.00055909157,0.0,0.0,-0.001,0
8132000,0.11619247,0.13577391,0.00056409836,0.0,0.0,-0.001,0
8156000,0.11638753,0.1357551,0.00050902367,0.0,0.0,-0.001,0
8172000,0.116150215,0.13589312,0.0005019307,0.0,0.0,-0.001,0
8196000,0.116134815,0.13586251,0.0004506111,0.0,0.0,-0.001,0
8212000,0.11617528,0.1355581,0.00047439337,0.0,0.0,-0.001,0
8236000,0.11617298,0.13541722,0.00040137768,0.0,0.0,-0.001,0
8252000,0.11629169,0.13528933,0.0005286336,0.0,0.0,-0.001,0
8276000,0.11617102,0.13514899,0.000495255,0.0,0.0,-0.001,0
8296000,0.11632834,0.13527966,0.00041556358,0.0,0.0,-0.001,0
8316000,0.116375424,0.1352152,0.0003016591,0.0,0.0,-0.001,0
8336000,0.116070695,0.13493355,0.00041806698,0.0,0.0,-0.001,0
8356000,0.11567842,0.13467658,0.0003375411,0.0,0.0,-0.001,0
8376000,0.1155378,0.13465855,0.00041347742,0.0,0.0,-0.001,0
8396000,0.115377076,0.13470654,0.0003412962,0.0,0.0,-0.001,0
8416000,0.11524049,0.13481824,0.0004401803,0.0,0.0,-0.001,0
8436000,0.11533685,0.13489538,0.00037634373,0.0,0.0,-0.001,0
8456000,0.11523134,0.13479674,0.0004297495,0.0,0.0,-0.001,0
8476000,0.11518443,0.13467574,0.0004143119,0.0,0.0,-0.001,0
8492000,0.115165,0.13462833,0.00040346384,0.0,0.0,-0.001,0
8516000,0.115079165,0.13448584,0.00046020746,0.0,0.0,-0.001,0
8536000,0.11513653,0.13444789,0.0005144477,0.0,0.0,-0.001,0
8556000,0.114916466,0.13430332,0.00049734116,0.0,0.0,-0.001,0
8572000,0.1147809,0.13424727,0.0005194545,0.0,0.0,-0.001,0
8592000,0.114654526,0.13424666,0.00050777197,0.0,0.0,-0.001,0
8612000,0.114501745,0.13431008,0.00048983097,0.0,0.0,-0.001,0
8632000,0.11438846,0.13438506,0.00050359964,0.0,0.0,-0.001,0
8652000,0.114523746,0.13465175,0.0005015135,0.0,0.0,-0.001,0
8672000,0.11439539,0.13492414,0.00051277876,0.0,0.0,-0.001,0
8692000,0.11436203,0.1349959,0.00043934584,0.0,0.0,-0.001,0
8712000,0.114384286,0.13492605,0.00052779913,0.0,0.0,-0.001,0
8732000,0.11440691,0.13479294,0.00045728683,0.0,0.0,-0.001,0
8752000,0.11442855,0.1348745,0.00048482418,0.0,0.0,-0.001,0
8772000,0.114386305,0.13479792,0.00050777197,0.0,0.0,-0.001,0
8796000,0.11438121,0.13463216,0.00052654743,0.0,0.0,-0.001,0
8812000,0.11445645,0.1344394,0.00052404404,0.0,0.0,-0.001,0
8836000,0.114328206,0.1346779,0.00058829784,0.0,0.0,-0.001,0
8856000,0.114259735,0.13460365,0.000554502,0.0,0.0,-0.001,0
8876000,0.114191964,0.13424332,0.00057703257,0.0,0.0,-0.001,0
8896000,0.11414251,0.13442424,0.0005565882,0.0,0.0,-0.001,0
8916000,0.11382031,0.13441417,0.00056785345,0.0,0.0,-0.001,0
8932000,0.113990314,0.13447216,0.0005983114,0.0,0.0,-0.001,0
8956000,0.11397855,0.13440032,0.00055116415,0.0,0.0,-0.001,0
8972000,0.11389555,0.13426214,0.0005207062,0.0,0.0,-0.001,0
8996000,0.11360365,0.1343062,0.00039970875,0.0,0.0,-0.001,0
9012000,0.11372043,0.13413054,0.00043684244,0.0,0.0,-0.001,0
9036000,0.11391972,0.13381663,0.00039845705,0.0,0.0,-0.001,0
9052000,0.11383358,0.13383362,0.00041931868,0.0,0.0,-0.001,0
9076000,0.11388835,0.13367921,0.0003938675,0.0,0.0,-0.001,0
9092000,0.1138242,0.13357106,0.0003901124,0.0,0.0,-0.001,0
9112000,0.11382827,0.1333899,0.00044977665,0.0,0.0,-0.001,0
9132000,0.113815576,0.13307208,0.0005874634,0.0,0.0,-0.001,0
9152000,0.11396813,0.13327369,0.0005044341,0.0,0.0,-0.001,0
9172000,0.114042036,0.13358764,0.0005031824,0.0,0.0,-0.001,0
9196000,0.11388231,0.13381712,0.0005607605,0.0,0.0,-0.001,0
9212000,0.11388379,0.13371661,0.0005415678,0.0,0.0,-0.001,0
9236000,0.11381438,0.13358364,0.0006120801,0.0,0.0,-0.001,0
9252000,0.1137207,0.13367476,0.00047397614,0.0,0.0,-0.001,0
9272000,0.1135081,0.13362974,0.0005111098,0.0,0.0,-0.001,0
9292000,0.11326213,0.13385937,0.0004798174,0.0,0.0,-0.001,0
9312000,0.11309376,0.13387984,0.00048983097,0.0,0.0,-0.001,0
9332000,0.113151096,0.133696,0.00049316883,0.0,0.0,-0.001,0
9356000,0.113119006,0.1338083,0.00055241585,0.0,0.0,-0.001,0
9372000,0.113098055,0.13399859,0.00050359964,0.0,0.0,-0.001,0
9396000,0.11317609,0.1342094,0.00048691034,0.0,0.0,-0.001,0
9416000,0.11313698,0.13393904,0.00051903725,0.0,0.0,-0.001,0
9432000,0.11303902,0.13353987,0.0005361438,0.0,0.0,-0.001,0
9452000,0.11299977,0.13326019,0.00054115057,0.0,0.0,-0.001,0
9476000,0.11294838,0.13335747,0.0005657673,0.0,0.0,-0.001,0
9492000,0.11282953,0.1332621,0.00057578087,0.0,0.0,-0.001,0
9516000,0.112728834,0.13311853,0.00052821636,0.0,0.0,-0.001,0
9532000,0.11269905,0.13313648,0.0005482435,0.0,0.0,-0.001,0
9556000,0.11246849,0.13278687,0.0004172325,0.0,0.0,-0.001,0
9572000,0.11234573,0.13293488,0.0004030466,0.0,0.0,-0.001,0
9596000,0.11221143,0.13297781,0.00036090612,0.0,0.0,-0.001,0
9612000,0.112002485,0.13301444,0.00028705597,0.0,0.0,-0.001,0
9632000,0.11187665,0.13289952,0.000423491,0.0,0.0,-0.001,0
9652000,0.11209365,0.13256693,0.0002937317,0.0,0.0,-0.001,0
9672000,0.112218246,0.1325498,0.000387609,0.0,0.0,-0.001,0
9692000,0.112439275,0.13215183,0.00041472912,0.0,0.0,-0.001,0
9712000,0.112460315,0.13197517,0.00042057037,0.0,0.0,-0.001,0
9736000,0.11245281,0.13171786,0.00040596724,0.0,0.0,-0.001,0
9752000,0.11235379,0.13170262,0.00048691034,0.0,0.0,-0.001,0
9772000,0.112255074,0.13189512,0.0004823208,0.0,0.0,-0.001,0
9796000,0.11219454,0.1319811,0.00048023462,0.0,0.0,-0.001,0
9816000,0.11225112,0.13201344,0.0004990101,0.0,0.0,-0.001,0
9836000,0.11213726,0.13193725,0.00057828426,0.0,0.0,-0.001,0
9856000,0.112209916,0.13204919,0.0005027652,0.0,0.0,-0.001,0
9876000,0.11196157,0.13192092,0.0005031824,0.0,0.0,-0.001,0
9896000,0.11192023,0.13180704,0.0005111098,0.0,0.0,-0.001,0
9916000,0.11167021,0.13150644,0.00051152706,0.0,0.0,-0.001,0
9932000,0.111547835,0.13172582,0.00058829784,0.0,0.0,-0.001,0
9952000,0.11118141,0.13186628,0.00045645237,0.0,0.0,-0.001,0
9972000,0.11122154,0.13215284,0.0005286336,0.0,0.0,-0.001,0
9996000,0.11102757,0.13196029,0.0005106926,0.0,0.0,-0.001,0
10012000,0.110879324,0.13202342,0.0005136132,0.0,0.0,-0.001,0
10036000,0.111026995,0.13222842,0.0005478263,0.0,0.0,-0.001,0
10056000,0.110880375,0.13220643,0.00050485134,0.0,0.0,-0.001,0
10076000,0.11095479,0.13230893,0.0005661845,0.0,0.0,-0.001,0
10096000,0.11096926,0.13240215,0.0005002618,0.0,0.0,-0.001,0
10116000,0.11097037,0.13252924,0.00052946806,0.0,0.0,-0.001,0
10136000,0.11095478,0.13242309,0.00051528215,0.0,0.0,-0.001,0
10156000,0.111010686,0.132405,0.0005002618,0.0,0.0,-0.001,0
10176000,0.111215115,0.13262662,0.00047647953,0.0,0.0,-0.001,0
10196000,0.11132327,0.1324737,0.0005040169,0.0,0.0,-0.001,0
10216000,0.11128034,0.13220689,0.0005081892,0.0,0.0,-0.001,0
10236000,0.11136141,0.13229465,0.0005440712,0.0,0.0,-0.001,0
10252000,0.11149874,0.1322512,0.0004698038,0.0,0.0,-0.001,0
10276000,0.11157888,0.1322633,0.0006175041,0.0,0.0,-0.001,0
10296000,0.111394934,0.13206957,0.0005303025,0.0,0.0,-0.001,0
10316000,0.111641325,0.1316754,0.00062918663,0.0,0.0,-0.001,0
10332000,0.11155684,0.13152933,0.0005991459,0.0,0.0,-0.001,0
10356000,0.11174609,0.13137172,0.0005799532,0.0,0.0,-0.001,0
10372000,0.111634426,0.1314907,0.00055241585,0.0,0.0,-0.001,0
10396000,0.11209878,0.13157728,0.0005465746,0.0,0.0,-0.001,0
10416000,0.1120968,0.13155422,0.00055742264,0.0,0.0,-0.001,0
10436000,0.11204654,0.13148078,0.00053822994,0.0,0.0,-0.001,0
10456000,0.11198332,0.13119094,0.00047564507,0.0,0.0,-0.001,0
10472000,0.11177811,0.1313668,0.0005094409,0.0,0.0,-0.001,0
10496000,0.111457385,0.13135998,0.00050610304,0.0,0.0,-0.001,0
10512000,0.11152199,0.13111351,0.0005169511,0.0,0.0,-0.001,0
10532000,0.11164917,0.1313641,0.0005620122,0.0,0.0,-0.001,0
10552000,0.11173097,0.13122867,0.00056409836,0.0,0.0,-0.001,0
10572000,0.111695156,0.13123065,0.00063961744,0.0,0.0,-0.001,0
10592000,0.111590184,0.13134319,0.0005620122,0.0,0.0,-0.001,0
10612000,0.111405335,0.13157757,0.0005323887,0.0,0.0,-0.001,0
10632000,0.11117526,0.13165101,0.0005532503,0.0,0.0,-0.001,0
10652000,0.11114165,0.13182552,0.0006759167,0.0,0.0,-0.001,0
10672000,0.111051306,0.13164972,0.00051528215,0.0,0.0,-0.001,0
10692000,0.11133465,0.13168252,0.0005232096,0.0,0.0,-0.001,0
10716000,0.11125402,0.1313202,0.00046730042,0.0,0.0,-0.001,0
10732000,0.11092062,0.13109484,0.00041097403,0.0,0.0,-0.001,0
10756000,0.11068809,0.13089138,0.00037175417,0.0,0.0,-0.001,0
10776000,0.110483505,0.13070607,0.00041598082,0.0,0.0,-0.001,0
10796000,0.11054181,0.13043658,0.00039845705,0.0,0.0,-0.001,0
10812000,0.11046818,0.13037962,0.00043016672,0.0,0.0,-0.001,0
10836000,0.11026544,0.13038577,0.0004105568,0.0,0.0,-0.001,0
10856000,0.1100342,0.13048725,0.00045102835,0.0,0.0,-0.001,0
10872000,0.10988586,0.1305591,0.0004310012,0.0,0.0,-0.001,0
10892000,0.10992449,0.13072163,0.00040596724,0.0,0.0,-0.001,0
10912000,0.109810755,0.13069017,0.00042182207,0.0,0.0,-0.001,0
10932000,0.10991332,0.1306502,0.0003604889,0.0,0.0,-0.001,0
10956000,0.11009371,0.13072711,0.00042891502,0.0,0.0,-0.001,0
10972000,0.110084236,0.1307691,0.00047022104,0.0,0.0,-0.001,0
10992000,0.10985105,0.1309948,0.0004543662,0.0,0.0,-0.001,0
11016000,0.109737776,0.13124928,0.00043559074,0.0,0.0,-0.001,0
11036000,0.10973483,0.13061024,0.0004476905,0.0,0.0,-0.001,0
11052000,0.10972448,0.1305085,0.00044894218,0.0,0.0,-0.001,0
11076000,0.11009025,0.13034134,0.0004426837,0.0,0.0,-0.001,0
11092000,0.110230826,0.13032456,0.00040763617,0.0,0.0,-0.001,0
11116000,0.11045716,0.13037644,0.00047397614,0.0,0.0,-0.001,0
11132000,0.11041579,0.13031286,0.0005732775,0.0,0.0,-0.001,0
11156000,0.11021645,0.13016371,0.00055617094,0.0,0.0,-0.001,0
11172000,0.11027902,0.13011931,0.0005661845,0.0,0.0,-0.001,0
11196000,0.11032525,0.12954822,0.00060123205,0.0,0.0,-0.001,0
11216000,0.11040027,0.12939587,0.0005207062,0.0,0.0,-0.001,0
11236000,0.110312626,0.12933591,0.0005912185,0.0,0.0,-0.001,0
11252000,0.11031404,0.12921336,0.0005624294,0.0,0.0,-0.001,0
11276000,0.110416286,0.1290352,0.00050109625,0.0,0.0,-0.001,0
11292000,0.110361524,0.12876743,0.00050735474,0.0,0.0,-0.001,0
11316000,0.11014253,0.12864055,0.00044101477,0.0,0.0,-0.001,0
11332000,0.11015259,0.12857404,0.0005207062,0.0,0.0,-0.001,0
11356000,0.11020925,0.12850626,0.00048691034,0.0,0.0,-0.001,0
11372000,0.10996579,0.12859708,0.0005219579,0.0,0.0,-0.001,0
11396000,0.10991059,0.12872498,0.00041806698,0.0,0.0,-0.001,0
11412000,0.109927565,0.12883866,0.00059622526,0.0,0.0,-0.001,0
11436000,0.109991044,0.12893513,0.0005440712,0.0,0.0,-0.001,0
11452000,0.110016495,0.1290183,0.0005507469,0.0,0.0,-0.001,0
11472000,0.110201634,0.12904292,0.0005207062,0.0,0.0,-0.001,0
11496000,0.1103297,0.12887877,0.0005148649,0.0,0.0,-0.001,0
11516000,0.11027532,0.1289779,0.0005515814,0.0,0.0,-0.001,0
11536000,0.11041749,0.12927468,0.000513196,0.0,0.0,-0.001,0
11556000,0.110512674,0.12927334,0.00048816204,0.0,0.0,-0.001,0
11576000,0.110416636,0.12911092,0.00046604872,0.0,0.0,-0.001,0
11596000,0.11028628,0.12928836,0.00043058395,0.0,0.0,-0.001,0
11616000,0.110303916,0.12938175,0.00046813488,0.0,0.0,-0.001,0
11632000,0.11004768,0.12906995,0.00045394897,0.0,0.0,-0.001,0
11652000,0.11000671,0.12912418,0.00044852495,0.0,0.0,-0.001,0
11672000,0.10987458,0.12905191,0.00046145916,0.0,0.0,-0.001,0
11692000,0.11001303,0.12887913,0.0006066561,0.0,0.0,-0.001,0
11712000,0.11020792,0.12871769,0.0004944205,0.0,0.0,-0.001,0
11732000,0.110305876,0.12872155,0.0005686879,0.0,0.0,-0.001,0
11752000,0.11039965,0.12856911,0.0005065203,0.0,0.0,-0.001,0
11772000,0.11040364,0.12870702,0.0005528331,0.0,0.0,-0.001,0
11796000,0.11010392,0.1280826,0.000549078,0.0,0.0,-0.001,0
11812000,0.11019359,0.12779735,0.00047522783,0.0,0.0,-0.001,0
11836000,0.110244036,0.12764809,0.000590384,0.0,0.0,-0.001,0
11856000,0.11020919,0.12774476,0.000536561,0.0,0.0,-0.001,0
11872000,0.1100535,0.1275966,0.00053948164,0.0,0.0,-0.001,0
11896000,0.1098764,0.12729424,0.000554502,0.0,0.0,-0.001,0
11912000,0.109834924,0.12719963,0.0005198717,0.0,0.0,-0.001,0
11936000,0.10983479,0.12734786,0.00052154064,0.0,0.0,-0.001,0
11952000,0.10963927,0.127244,0.0005106926,0.0,0.0,-0.001,0
11972000,0.109346986,0.1271405,0.00058829784,0.0,0.0,-0.001,0
11996000,0.10931244,0.1271073,0.00047272444,0.0,0.0,-0.001,0
12012000,0.10927556,0.12671702,0.00049233437,0.0,0.0,-0.001,0
12036000,0.109093234,0.12657844,0.000513196,0.0,0.0,-0.001,0
12056000,0.10892469,0.12660751,0.00041222572,0.0,0.0,-0.001,0
12076000,0.10882253,0.12650105,0.00046646595,0.0,0.0,-0.001,0
12096000,0.1087374,0.12646848,0.0004222393,0.0,0.0,-0.001,0
12112000,0.1086874,0.12649642,0.0004042983,0.0,0.0,-0.001,0
12136000,0.108691156,0.12630008,0.0004197359,0.0,0.0,-0.001,0
12156000,0.10862231,0.1265698,0.00034421682,0.0,0.0,-0.001,0
12172000,0.1084236,0.12662171,0.0004080534,0.0,0.0,-0.001,0
12192000,0.1083972,0.1266345,0.0004297495,0.0,0.0,-0.001,0
12212000,0.10847904,0.126788,0.00035881996,0.0,0.0,-0.001,0
12236000,0.108283594,0.1270774,0.00041139126,0.0,0.0,-0.001,0
12252000,0.10819225,0.12707235,0.00037300587,0.0,0.0,-0.001,0
12276000,0.10818202,0.12724623,0.00037884712,0.0,0.0,-0.001,0
12296000,0.10815471,0.12751816,0.0004297495,0.0,0.0,-0.001,0
12316000,0.108194254,0.12757021,0.00045353174,0.0,0.0,-0.001,0
12332000,0.10804992,0.1276383,0.00045478344,0.0,0.0,-0.001,0
12356000,0.1080224,0.12764794,0.00047773123,0.0,0.0,-0.001,0
12372000,0.108022645,0.12777913,0.00045645237,0.0,0.0,-0.001,0
12396000,0.10787521,0.12773587,0.00046563148,0.0,0.0,-0.001,0
12412000,0.10779003,0.12776436,0.00039178133,0.0,0.0,-0.001,0
12432000,0.107752934,0.12767604,0.00044226646,0.0,0.0,-0.001,0
12452000,0.107734144,0.12780523,0.00039929152,0.0,0.0,-0.001,0
12472000,0.10763736,0.12807518,0.00037801266,0.0,0.0,-0.001,0
12496000,0.10781779,0.12827715,0.00042515993,0.0,0.0,-0.001,0
12516000,0.107979655,0.12813598,0.0003938675,0.0,0.0,-0.001,0
12536000,0.10816547,0.12777741,0.00040888786,0.0,0.0,-0.001,0
12552000,0.10823178,0.12770921,0.0005040169,0.0,0.0,-0.001,0
12572000,0.10836539,0.12759578,0.0004606247,0.0,0.0,-0.001,0
12596000,0.108446956,0.12767386,0.000513196,0.0,0.0,-0.001,0
12616000,0.1082375,0.12772508,0.0005315542,0.0,0.0,-0.001,0
12632000,0.10803568,0.1275385,0.0004977584,0.0,0.0,-0.001,0
12656000,0.10786087,0.1275947,0.0005290508,0.0,0.0,-0.001,0
12676000,0.107863046,0.12761018,0.0005219579,0.0,0.0,-0.001,0
12696000,0.10786833,0.12766339,0.00053948164,0.0,0.0,-0.001,0
12716000,0.10785764,0.12806441,0.0005661845,0.0,0.0,-0.001,0
12736000,0.10767991,0.12815975,0.0005340576,0.0,0.0,-0.001,0
12756000,0.107944466,0.12803398,0.00057578087,0.0,0.0,-0.001,0
12772000,0.10778176,0.12795722,0.00065630674,0.0,0.0,-0.001,0
12792000,0.10772744,0.12811275,0.00049483776,0.0,0.0,-0.001,0
12812000,0.1076102,0.12816475,0.0004785657,0.0,0.0,-0.001,0
12836000,0.10736498,0.12796377,0.0006312728,0.0,0.0,-0.001,0
12852000,0.10725065,0.12800762,0.0005983114,0.0,0.0,-0.001,0
12876000,0.10712308,0.12818569,0.0005336404,0.0,0.0,-0.001,0
12892000,0.10713866,0.12817575,0.0005031824,0.0,0.0,-0.001,0
12916000,0.10696639,0.12829302,0.00053948164,0.0,0.0,-0.001,0
12932000,0.10676538,0.12791792,0.00050109625,0.0,0.0,-0.001,0
12956000,0.10657432,0.12783182,0.00055867434,0.0,0.0,-0.001,0
12976000,0.10652792,0.12783568,0.00044226646,0.0,0.0,-0.001,0
12996000,0.10657598,0.12785552,0.00042682886,0.0,0.0,-0.001,0
13016000,0.106564984,0.12772775,0.00041598082,0.0,0.0,-0.001,0
13036000,0.10681137,0.12773375,0.00039094687,0.0,0.0,-0.001,0
13052000,0.10703297,0.12775819,0.00039345026,0.0,0.0,-0.001,0
13076000,0.107259065,0.12743832,0.00035631657,0.0,0.0,-0.001,0
13096000,0.10742696,0.12734255,0.0004184842,0.0,0.0,-0.001,0
13116000,0.10721228,0.12721822,0.0003412962,0.0,0.0,-0.001,0
13132000,0.10719626,0.12720887,0.00040763617,0.0,0.0,-0.001,0
13156000,0.10721305,0.12769023,0.00042307377,0.0,0.0,-0.001,0
13172000,0.107205555,0.12738372,0.00046104193,0.0,0.0,-0.001,0
13196000,0.10710899,0.12720314,0.00048273802,0.0,0.0,-0.001,0
13212000,0.10722507,0.12709528,0.0005019307,0.0,0.0,-0.001,0
13236000,0.10731539,0.12703803,0.0005040169,0.0,0.0,-0.001,0
13252000,0.10738863,0.12693998,0.0004852414,0.0,0.0,-0.001,0
13276000,0.10752912,0.12678291,0.0005816221,0.0,0.0,-0.001,0
13292000,0.10746719,0.12696427,0.000500679,0.0,0.0,-0.001,0
13316000,0.107418664,0.12693124,0.0005415678,0.0,0.0,-0.001,0
13332000,0.10746585,0.12685339,0.00056660175,0.0,0.0,-0.001,0
13356000,0.10767633,0.12686896,0.00047522783,0.0,0.0,-0.001,0
13376000,0.10760134,0.12691273,0.00046688318,0.0,0.0,-0.001,0
13396000,0.10771989,0.12647995,0.00042015314,0.0,0.0,-0.001,0
13412000,0.10768779,0.12637591,0.0005211234,0.0,0.0,-0.001,0
13436000,0.107580796,0.12657553,0.0005695224,0.0,0.0,-0.001,0
13456000,0.10744393,0.12651303,0.0004956722,0.0,0.0,-0.001,0
13472000,0.107420616,0.12632182,0.0004568696,0.0,0.0,-0.001,0
13496000,0.107285485,0.12644674,0.00047647953,0.0,0.0,-0.001,0
13516000,0.10697068,0.12641595,0.0004685521,0.0,0.0,-0.001,0
13532000,0.10675499,0.12659143,0.00046896935,0.0,0.0,-0.001,0
13552000,0.10668359,0.12676544,0.00041389465,0.0,0.0,-0.001,0
13572000,0.106560364,0.12669745,0.0003567338,0.0,0.0,-0.001,0
13596000,0.10622553,0.12663119,0.00035965443,0.0,0.0,-0.001,0
13616000,0.10600786,0.12656632,0.00038135052,0.0,0.0,-0.001,0
13636000,0.10570517,0.1264947,0.0003296137,0.0,0.0,-0.001,0
13652000,0.105681896,0.12671134,0.00038343668,0.0,0.0,-0.001,0
13672000,0.10548302,0.1266184,0.00039887428,0.0,0.0,-0.001,0
13692000,0.105389126,0.12667395,0.00039929152,0.0,0.0,-0.001,0
13716000,0.1053075,0.12674129,0.0003016591,0.0,0.0,-0.001,0
13732000,0.10527383,0.12670091,0.00027954578,0.0,0.0,-0.001,0
13756000,0.10523243,0.12659337,0.00031876564,0.0,0.0,-0.001,0
13776000,0.10534781,0.12665962,0.0004284978,0.0,0.0,-0.001,0
13796000,0.10545623,0.12659454,0.00037175417,0.0,0.0,-0.001,0
13816000,0.105680786,0.12644343,0.0003938675,0.0,0.0,-0.001,0
13836000,0.1057001,0.12643723,0.0003913641,0.0,0.0,-0.001,0
13856000,0.105631694,0.12644757,0.0004698038,0.0,0.0,-0.001,0
13872000,0.105471864,0.12646045,0.0004581213,0.0,0.0,-0.001,0
13896000,0.10566004,0.1262162,0.00046104193,0.0,0.0,-0.001,0
13916000,0.10587047,0.12620907,0.0004748106,0.0,0.0,-0.001,0
13936000,0.10600288,0.12625301,0.00050234795,0.0,0.0,-0.001,0
13952000,0.10578835,0.12618352,0.00045728683,0.0,0.0,-0.001,0
13972000,0.10578878,0.12619726,0.00050860643,0.0,0.0,-0.001,0
13996000,0.10575256,0.1259721,0.0005682707,0.0,0.0,-0.001,0
14016000,0.10569543,0.12592947,0.00051903725,0.0,0.0,-0.001,0
14036000,0.1054868,0.12588824,0.00058078766,0.0,0.0,-0.001,0
14056000,0.10562157,0.12587214,0.00052779913,0.0,0.0,-0.001,0
14076000,0.10566558,0.12562965,0.0005440712,0.0,0.0,-0.001,0
14096000,0.10567827,0.1255093,0.00049734116,0.0,0.0,-0.001,0
14116000,0.1055527,0.12544514,0.0005386472,0.0,0.0,-0.001,0
14136000,0.10538065,0.12555206,0.00050860643,0.0,0.0,-0.001,0
14156000,0.10544912,0.12542638,0.0005636811,0.0,0.0,-0.001,0
14172000,0.105297476,0.12542294,0.00054365396,0.0,0.0,-0.001,0
14196000,0.1052419,0.1254362,0.00058496,0.0,0.0,-0.001,0
14216000,0.10494259,0.1253792,0.0004902482,0.0,0.0,-0.001,0
14236000,0.105143264,0.12528734,0.00054198503,0.0,0.0,-0.001,0
14256000,0.10557975,0.12515269,0.00052028894,0.0,0.0,-0.001,0
14276000,0.10579889,0.12478721,0.0006095767,0.0,0.0,-0.001,0
14296000,0.10603279,0.12445471,0.0005286336,0.0,0.0,-0.001,0
14316000,0.1059467,0.12416665,0.0006312728,0.0,0.0,-0.001,0
14332000,0.10618843,0.12408358,0.00057828426,0.0,0.0,-0.001,0
14356000,0.10646716,0.12390061,0.0005799532,0.0,0.0,-0.001,0
14376000,0.10637465,0.12392919,0.0004852414,0.0,0.0,-0.001,0
14396000,0.10627621,0.12361976,0.0005398989,0.0,0.0,-0.001,0
14416000,0.10630476,0.12358736,0.00045770407,0.0,0.0,-0.001,0
14436000,0.10636131,0.12380194,0.00048607588,0.0,0.0,-0.001,0
14456000,0.10653402,0.12368428,0.0004685521,0.0,0.0,-0.001,0
14476000,0.10628864,0.1234663,0.00041890144,0.0,0.0,-0.001,0
14492000,0.10649744,0.12337648,0.00045394897,0.0,0.0,-0.001,0
14516000,0.10628893,0.1235721,0.00043141842,0.0,0.0,-0.001,0
14536000,0.09617256,0.13357462,0.00051653385,0.0,0.0,-0.012291163,0
14556000,0.09563607,0.13268295,0.00050610304,0.0,0.0,-0.014365022,0
14572000,0.095835425,0.13301288,0.0005052686,0.0,0.0,-0.016459329,0
14592000,0.09623513,0.13370596,0.00049483776,0.0,0.0,-0.019657187,0
14612000,0.09727189,0.13352609,0.00048023462,0.0,0.0,-0.021846404,0
14632000,0.10221842,0.1332899,0.0004748106,0.0,0.0,-0.025171945,0
14652000,0.102283046,0.13297102,0.00044476986,0.0,0.0,-0.027404973,0
14672000,0.10269659,0.13046488,0.00044977665,0.0,0.0,-0.030930994,0
14692000,0.101296775,0.12784947,0.00046396255,0.0,0.0,-0.03339567,0
14712000,0.10121476,0.12627326,0.00045770407,0.0,0.0,-0.03725903,0
14732000,0.10231683,0.12506723,0.0004969239,0.0,0.0,-0.039820563,0
14752000,0.10269629,0.12506056,0.00041472912,0.0,0.0,-0.043790117,0
14772000,0.103530854,0.12473102,0.00041389465,0.0,0.0,-0.04643814,0
14792000,0.10572685,0.12335115,0.00045019388,0.0,0.0,-0.050549988,0
14812000,0.1070435,0.12578532,0.0004172325,0.0,0.0,-0.053277776,0
14836000,0.10681596,0.12360486,0.00044310093,0.0,0.0,-0.05755708,0
14852000,0.106327936,0.123537816,0.00059372187,0.0,0.0,-0.06044433,0
14876000,0.105081126,0.123259865,0.0005803704,0.0,0.0,-0.0649727,0
14896000,0.106558196,0.12184323,0.0005081892,0.0,0.0,-0.0695976,0
14916000,0.106670916,0.121861406,0.000549078,0.0,0.0,-0.07274324,0
14936000,0.10514817,0.123649165,0.0005290508,0.0,0.0,-0.07754067,0
14952000,0.104421005,0.12281185,0.00050359964,0.0,0.0,-0.080827005,0
14972000,0.102344096,0.12389173,0.0006003976,0.0,0.0,-0.0841121,0
14996000,0.106491014,0.12185533,0.00053322315,0.0,0.0,-0.0892117,0
15012000,0.10651717,0.121725835,0.00052571297,0.0,0.0,-0.0926421,0
15036000,0.111107595,0.12241314,0.0004364252,0.0,0.0,-0.0978254,0
15056000,0.11349684,0.1224994,0.00044351816,0.0,0.0,-0.10321208,0
15076000,0.11420028,0.12207159,0.0004297495,0.0,0.0,-0.10679377,0
15096000,0.115317084,0.12140989,0.00038009882,0.0,0.0,-0.1122394,0
15116000,0.11714287,0.120856024,0.0003233552,0.0,0.0,-0.11594384,0
15136000,0.11887716,0.11963532,0.00039845705,0.0,0.0,-0.12154444,0
15156000,0.118508846,0.11943746,0.00040763617,0.0,0.0,-0.12539776,0
15172000,0.11912326,0.11880916,0.00035339594,0.0,0.0,-0.12931673,0
15192000,0.1189561,0.11912229,0.00042265654,0.0,0.0,-0.13519323,0
15216000,0.121748924,0.11961809,0.0003863573,0.0,0.0,-0.14118032,0
15236000,0.12165025,0.12080467,0.00040638447,0.0,0.0,-0.1452582,0
15256000,0.12301698,0.121327735,0.0003784299,0.0,0.0,-0.15146126,0
15272000,0.122212104,0.12080065,0.00038343668,0.0,0.0,-0.15569018,0
15292000,0.122480676,0.12161724,0.00033128262,0.0,0.0,-0.15989834,0
15312000,0.121571004,0.121313326,0.00039845705,0.0,0.0,-0.16638805,0
15336000,0.122159466,0.120193474,0.00036340952,0.0,0.0,-0.17291522,0
15356000,0.12264847,0.1207907,0.00038009882,0.0,0.0,-0.17736274,0
15372000,0.12170289,0.12112671,0.00035130978,0.0,0.0,-0.18188629,0
15396000,0.12287197,0.122378886,0.0003592372,0.0,0.0,-0.18876107,0
15416000,0.120566316,0.11997795,0.000369668,0.0,0.0,-0.19563575,0
15436000,0.1206646,0.11982625,0.00032669306,0.0,0.0,-0.20028849,0
15456000,0.12057728,0.119356245,0.00033545494,0.0,0.0,-0.207397,0
15476000,0.119651265,0.119939625,0.00041389465,0.0,0.0,-0.21219467,0
15496000,0.11827568,0.11990054,0.00035965443,0.0,0.0,-0.21937217,0
15516000,0.119403526,0.11773773,0.00033587217,0.0,0.0,-0.22425471,0
15536000,0.12008435,0.11612536,0.00035881996,0.0,0.0,-0.23174877,0
15556000,0.1207321,0.11480258,0.00043600798,0.0,0.0,-0.23682901,0
15572000,0.122231126,0.11344799,0.00031751394,0.0,0.0,-0.24187829,0
15592000,0.12106994,0.10961741,0.00031793118,0.0,0.0,-0.24958892,0
15616000,0.12060109,0.10931041,0.0002824664,0.0,0.0,-0.25754383,0
15636000,0.120356,0.10766483,0.00028288364,0.0,0.0,-0.26280564,0
15652000,0.118776456,0.1074719,0.00037759542,0.0,0.0,-0.2681101,0
15676000,0.11885438,0.10938354,0.00033462048,0.0,0.0,-0.27612358,0
15692000,0.11911229,0.110019945,0.00033712387,0.0,0.0,-0.28159508,0
15716000,0.11830268,0.1088094,0.00030708313,0.0,0.0,-0.2898998,0
15736000,0.118378565,0.107962996,0.00036507845,0.0,0.0,-0.2981798,0
15756000,0.11722196,0.10786055,0.00040763617,0.0,0.0,-0.30382702,0
15772000,0.11962901,0.10894887,0.0004247427,0.0,0.0,-0.3094777,0
15792000,0.119479015,0.110355966,0.00039303303,0.0,0.0,-0.3179958,0
15816000,0.11908033,0.112055585,0.0003784299,0.0,0.0,-0.32600865,0
15836000,0.11978149,0.11140625,0.00035881996,0.0,0.0,-0.32825902,0
15852000,0.12142066,0.11063181,0.00040346384,0.0,0.0,-0.32999486,0
15876000,0.12071723,0.110632084,0.00029790401,0.0,0.0,-0.33227068,0
15896000,0.121145725,0.10950577,0.000310421,0.0,0.0,-0.33398002,0
15916000,0.12074843,0.1090265,0.00026077032,0.0,0.0,-0.33635056,0
15932000,0.11970824,0.10768989,0.00026369095,0.0,0.0,-0.33807954,0
15956000,0.11901902,0.1065111,0.00030332804,0.0,0.0,-0.34067777,0
15972000,0.119362995,0.10654129,0.00030249357,0.0,0.0,-0.34247357,0
15996000,0.11999184,0.10749327,0.00035589933,0.0,0.0,-0.34506968,0
16016000,0.118624635,0.107975826,0.00035506487,0.0,0.0,-0.34683052,0
16036000,0.11961491,0.10670817,0.0003951192,0.0,0.0,-0.34941912,0
16052000,0.120217375,0.10661661,0.0004184842,0.0,0.0,-0.35119456,0
16072000,0.1188881,0.10808403,0.00041556358,0.0,0.0,-0.35393363,0
16092000,0.12007012,0.10887751,0.0004376769,0.0,0.0,-0.35562885,0
16116000,0.12051137,0.10921167,0.00046354532,0.0,0.0,-0.35834727,0
16136000,0.11977962,0.10665868,0.000387609,0.0,0.0,-0.36028346,0
16156000,0.1197063,0.10796494,0.00047188997,0.0,0.0,-0.36309636,0
16176000,0.1200522,0.107135296,0.00039845705,0.0,0.0,-0.36492085,0
16196000,0.12111647,0.10836283,0.00049483776,0.0,0.0,-0.36778802,0
16216000,0.12116028,0.10760869,0.0004272461,0.0,0.0,-0.36958465,0
16236000,0.12053756,0.10844328,0.00047314167,0.0,0.0,-0.37256995,0
16256000,0.12192693,0.11040626,0.0003926158,0.0,0.0,-0.3743346,0
16276000,0.123183414,0.111406535,0.00045228004,0.0,0.0,-0.37732366,0
16296000,0.1223073,0.11195456,0.0003938675,0.0,0.0,-0.37918094,0
16316000,0.12339591,0.11229019,0.0004885793,0.0,0.0,-0.38222608,0
16336000,0.12345515,0.10978367,0.00035214424,0.0,0.0,-0.3841403,0
16356000,0.12327691,0.10863786,0.00043559074,0.0,0.0,-0.38741195,0
16372000,0.12391192,0.11007343,0.00040721893,0.0,0.0,-0.38918722,0
16396000,0.12362431,0.10959089,0.00045770407,0.0,0.0,-0.39260137,0
16412000,0.1252475,0.11002436,0.0003771782,0.0,0.0,-0.3943834,0
16432000,0.12598142,0.110941194,0.0003529787,0.0,0.0,-0.39791656,0
16452000,0.12455366,0.111280836,0.0004247427,0.0,0.0,-0.39972144,0
16476000,0.12510447,0.11094397,0.00038260221,0.0,0.0,-0.40328267,0
16492000,0.123711325,0.111730784,0.00037133694,0.0,0.0,-0.40504265,0
16516000,0.12277537,0.11174777,0.00037801266,0.0,0.0,-0.408738,0
16536000,0.12385837,0.11204855,0.0003325343,0.0,0.0,-0.41092116,0
16552000,0.12366367,0.11166794,0.0003554821,0.0,0.0,-0.4143968,0
16572000,0.123433284,0.11246279,0.00036215782,0.0,0.0,-0.41615036,0
16592000,0.123555034,0.11289759,0.00033712387,0.0,0.0,-0.420036,0
16612000,0.12359408,0.11184052,0.00030958652,0.0,0.0,-0.4217959,0
16632000,0.12483553,0.11179544,0.00029790401,0.0,0.0,-0.42560843,0
16656000,0.12545125,0.11110673,0.00030207634,0.0,0.0,-0.42767906,0
16676000,0.125769,0.11179899,0.00030374527,0.0,0.0,-0.43136668,0
16696000,0.1255631,0.11099399,0.0003425479,0.0,0.0,-0.43338564,0
16716000,0.1249543,0.11065872,0.00028288364,0.0,0.0,-0.43704513,0
16736000,0.12401242,0.1125309,0.00031876564,0.0,0.0,-0.4391472,0
16756000,0.12534119,0.11284236,0.0002657771,0.0,0.0,-0.44290537,0
16772000,0.12725198,0.1117635,0.00025576353,0.0,0.0,-0.44470656,0
16796000,0.1271405,0.11031342,0.00028204918,0.0,0.0,-0.4489674,0
16816000,0.12675755,0.11201713,0.0003029108,0.0,0.0,-0.45120534,0
16836000,0.12616645,0.11245421,0.00033169985,0.0,0.0,-0.45513263,0
16852000,0.12584701,0.112492315,0.00030332804,0.0,0.0,-0.45687148,0
16872000,0.12699452,0.11322862,0.00027287006,0.0,0.0,-0.461284,0
16892000,0.1260016,0.11470163,0.00025618076,0.0,0.0,-0.46306992,0
16916000,0.12516859,0.11315647,0.00029081106,0.0,0.0,-0.46749204,0
16936000,0.12782119,0.11184457,0.0003029108,0.0,0.0,-0.46971422,0
16956000,0.12739435,0.112449035,0.00031667948,0.0,0.0,-0.473869,0
16976000,0.12794106,0.11204711,0.000346303,0.0,0.0,-0.47607014,0
16996000,0.12921369,0.11067604,0.00029248,0.0,0.0,-0.48031282,0
17012000,0.13013177,0.111859635,0.0002540946,0.0,0.0,-0.48202375,0
17036000,0.12882717,0.113437586,0.00032043457,0.0,0.0,-0.48676196,0
17056000,0.12938657,0.114206694,0.0002862215,0.0,0.0,-0.48902273,0
17076000,0.12667258,0.11324133,0.0003041625,0.0,0.0,-0.49325222,0
17096000,0.12638867,0.110480905,0.00029832125,0.0,0.0,-0.49547684,0
17116000,0.12780002,0.11008552,0.00030082464,0.0,0.0,-0.49985433,0
17136000,0.12865692,0.11116785,0.0003041625,0.0,0.0,-0.50212663,0
17156000,0.13034447,0.11235158,0.00034463406,0.0,0.0,-0.5065774,0
17176000,0.13036953,0.11072675,0.0003258586,0.0,0.0,-0.50879043,0
17196000,0.13105774,0.11171083,0.00027245283,0.0,0.0,-0.513342,0
17216000,0.13103142,0.11192128,0.00033211708,0.0,0.0,-0.5157364,0
17232000,0.1325497,0.110666834,0.00030207634,0.0,0.0,-0.5203274,0
17252000,0.1310675,0.10978245,0.0004143119,0.0,0.0,-0.52208775,0
17272000,0.13049822,0.110316254,0.00031918287,0.0,0.0,-0.52726614,0
17292000,0.13179041,0.110737294,0.00031000376,0.0,0.0,-0.5290563,0
17316000,0.12985422,0.108908914,0.00041764975,0.0,0.0,-0.5343874,0
17336000,0.1308682,0.107983924,0.00033211708,0.0,0.0,-0.53681004,0
17356000,0.13034558,0.10759732,0.00045269728,0.0,0.0,-0.5415774,0
17372000,0.12954551,0.11017302,0.0003504753,0.0,0.0,-0.54322624,0
17396000,0.129938,0.11074533,0.00035589933,0.0,0.0,-0.5487308,0
17416000,0.13013262,0.110924125,0.00034421682,0.0,0.0,-0.55116946,0
17436000,0.12887874,0.11096634,0.00037550926,0.0,0.0,-0.55604625,0
17452000,0.12936537,0.11021843,0.00035256147,0.0,0.0,-0.5578396,0
17476000,0.12795389,0.110662036,0.00035881996,0.0,0.0,-0.56341726,0
17492000,0.12846506,0.10950729,0.00032669306,0.0,0.0,-0.56507653,0
17516000,0.12876166,0.10734772,0.00038301945,0.0,0.0,-0.57065415,0
17536000,0.12814948,0.10725298,0.00031626225,0.0,0.0,-0.59848803,0
17556000,0.1268896,0.107411414,0.0003926158,0.0,0.0,-0.6034723,0
17572000,0.12713084,0.10981372,0.00034213066,0.0,0.0,-0.6052968,0
17592000,0.12788998,0.10893708,0.00032544136,0.0,0.0,-0.6110977,0
17616000,0.12936786,0.10789412,0.00031083822,0.0,0.0,-0.61352134,0
17636000,0.12782706,0.10749526,0.00035631657,0.0,0.0,-0.61879194,0
17652000,0.12656063,0.10960654,0.0003387928,0.0,0.0,-0.6205425,0
17676000,0.12577528,0.10806236,0.0003412962,0.0,0.0,-0.626581,0
17692000,0.12718832,0.106658936,0.00033336878,0.0,0.0,-0.62837076,0
17716000,0.12550282,0.107478075,0.0003504753,0.0,0.0,-0.63445514,0
17732000,0.12660064,0.10736612,0.00028079748,0.0,0.0,-0.6362508,0
17756000,0.12757468,0.106865376,0.00027161837,0.0,0.0,-0.6424849,0
17772000,0.12858135,0.10622588,0.00034797192,0.0,0.0,-0.64421207,0
17796000,0.1287029,0.107221,0.00020945072,0.0,0.0,-0.65042543,0
17816000,0.1273671,0.107255556,0.00029039383,0.0,0.0,-0.65290195,0
17832000,0.124646544,0.10843863,0.0002949834,0.0,0.0,-0.6584487,0
17852000,0.12445908,0.10694844,0.00029832125,0.0,0.0,-0.6602148,0
17872000,0.124287784,0.10585353,0.00031751394,0.0,0.0,-0.6666772,0
17896000,0.12447007,0.10504799,0.00032794476,0.0,0.0,-0.6691345,0
17916000,0.123560205,0.10406224,0.00030958652,0.0,0.0,-0.67482615,0
17936000,0.12455517,0.10327585,0.00034338236,0.0,0.0,-0.6773804,0
17956000,0.1229292,0.10364788,0.00029706955,0.0,0.0,-0.6830429,0
17972000,0.12114493,0.103378095,0.00038343668,0.0,0.0,-0.684497,0
17996000,0.11354539,0.104601465,0.0003170967,0.0,0.0,-0.69020677,0
18012000,0.1061685,0.104502946,0.00032544136,0.0,0.0,-0.69113976,0
18032000,0.09504709,0.10536193,0.00027996302,0.0,0.0,-0.69656414,0
18052000,0.0804311,0.10556037,0.00034797192,0.0,0.0,-0.69738173,0
18072000,0.06471621,0.10468139,0.00022488832,0.0,0.0,-0.70262533,0
18092000,0.043543756,0.10320609,0.00012433529,0.0,0.0,-0.7031212,0
18116000,0.01660594,0.09411226,-1.5437603e-05,0.0,0.0,-0.7081444,0
18136000,-0.0075319577,0.08396906,-0.00012516975,0.0,0.0,-0.70845336,0
18156000,-0.03139664,0.07048565,-0.00037050247,0.0,0.0,-0.71304,0
18172000,-0.05282386,0.05642342,-0.00050902367,0.0,0.0,-0.7132486,0
18196000,-0.085902646,0.032182448,-0.00074225664,0.0,0.0,-0.717999,0
18216000,-0.11632084,0.005514736,-0.00043016672,0.0,0.0,-0.7182389,0
18236000,-0.14662248,-0.02349465,-0.00088870525,0.0,0.0,-0.7229523,0
18256000,-0.1852035,-0.06094281,-0.0002490878,0.0,0.0,-0.72326857,0
18276000,-0.22851434,-0.10563031,-0.00040638447,0.0,0.0,-0.72820914,0
18296000,-0.28888053,-0.16524501,0.0003796816,0.0,0.0,-0.72876424,0
18312000,-0.33036384,-0.21167643,0.0006592274,0.0,0.0,-0.73374456,0
18332000,-0.37101716,-0.26350102,0.000715971,0.0,0.0,-0.73384345,0
18356000,-0.41851014,-0.32402706,0.0011027455,0.0,0.0,-0.7386493,0
18376000,-0.45285562,-0.37275267,0.0013597608,0.0,0.0,-0.73821735,0
18396000,-0.46962732,-0.40480393,0.0013451576,0.0,0.0,-0.74278545,0
18412000,-0.48057246,-0.4261842,0.001186192,0.0,0.0,-0.7422579,0
18436000,-0.48810238,-0.45077077,0.00082570314,0.0,0.0,-0.7461857,0
18452000,-0.48866433,-0.4595952,0.0004990101,0.0,0.0,-0.745329,0
18476000,-0.48171684,-0.46425536,-1.6272068e-05,0.0,0.0,-0.7488526,0
18492000,-0.47473285,-0.45956156,-0.00038969517,0.0,0.0,-0.74766254,0
18516000,-0.4579662,-0.4483652,-0.0009813309,0.0,0.0,-0.750851,0
18536000,-0.43953365,-0.4342794,-0.0015170574,0.0,0.0,-0.74856186,0
18556000,-0.41823846,-0.41086173,-0.0018566847,0.0,0.0,-0.7523808,0
18576000,-0.40054286,-0.39053395,-0.002288103,0.0,0.0,-0.749761,0
18596000,-0.3775652,-0.36498767,-0.0023581982,0.0,0.0,-0.75339675,0
18612000,-0.36232105,-0.344585,-0.0024963021,0.0,0.0,-0.7515866,0
18636000,-0.3383971,-0.31279016,-0.0026214719,0.0,0.0,-0.7540259,0
18652000,-0.3243728,-0.29042512,-0.0026427507,0.0,0.0,-0.7521924,0
18676000,-0.30317402,-0.26365414,-0.002634406,0.0,0.0,-0.75459915,0
18692000,-0.28982353,-0.24726592,-0.0026064515,0.0,0.0,-0.75267637,0
18716000,-0.2713307,-0.2262547,-0.0025038123,0.0,0.0,-0.7550585,0
18732000,-0.2622938,-0.21287632,-0.0024378896,0.0,0.0,-0.75304645,0
18752000,-0.25163028,-0.19767763,-0.002440393,0.0,0.0,-0.7553324,0
18772000,-0.24037983,-0.18461521,-0.0023043752,0.0,0.0,-0.75171965,0
18796000,-0.22865859,-0.17358099,-0.0021812916,0.0,0.0,-0.7491102,0
18812000,-0.22109076,-0.16757278,-0.002162099,0.0,0.0,-0.74350834,0
18836000,-0.21206515,-0.16296159,-0.0021754503,0.0,0.0,-0.7403982,0
18852000,-0.20762059,-0.16043416,-0.0022493005,0.0,0.0,-0.7347313,0
18872000,-0.20120038,-0.16050488,-0.0023210645,0.0,0.0,-0.7318739,0
18892000,-0.19493216,-0.15955462,-0.0022747517,0.0,0.0,-0.7263513,0
18912000,-0.1903183,-0.16012003,-0.002419114,0.0,0.0,-0.72372055,0
18932000,-0.18872367,-0.15796924,-0.0023707151,0.0,0.0,-0.7184625,0
18952000,-0.18649071,-0.15847795,-0.002494216,0.0,0.0,-0.716051,0
18972000,-0.18191439,-0.15740606,-0.002483368,0.0,0.0,-0.7109463,0
18992000,-0.17769676,-0.154712,-0.0024988055,0.0,0.0,-0.7087096,0
19016000,-0.17691788,-0.15376373,-0.0025146604,0.0,0.0,-0.7052562,0
19036000,-0.17627071,-0.15042976,-0.0024683475,0.0,0.0,-0.7112954,0
19052000,-0.1744275,-0.14886451,-0.0024725199,0.0,0.0,-0.71014214,0
19076000,-0.17490298,-0.14618288,-0.0024721026,0.0,0.0,-0.7163311,0
19092000,-0.17216672,-0.14354524,-0.0024850368,0.0,0.0,-0.715012,0
19116000,-0.16587472,-0.13984373,-0.0023861527,0.0,0.0,-0.7207848,0
19132000,-0.16094954,-0.1358935,-0.002298534,0.0,0.0,-0.7187521,0
19156000,-0.15350175,-0.13039958,-0.002316475,0.0,0.0,-0.7237593,0
19172000,-0.14967783,-0.12728314,-0.002225101,0.0,0.0,-0.7211482,0
19192000,-0.14487766,-0.12257852,-0.0022463799,0.0,0.0,-0.7255766,0
19216000,-0.13681619,-0.11716734,-0.002149582,0.0,0.0,-0.72203696,0
19236000,-0.13058749,-0.11183326,-0.0019868612,0.0,0.0,-0.72656214,0
19252000,-0.12489304,-0.10742112,-0.0019413829,0.0,0.0,-0.7231817,0
19272000,-0.11761339,-0.09887835,-0.0018646121,0.0,0.0,-0.7267784,0
19296000,-0.108188696,-0.09182523,-0.0017085671,0.0,0.0,-0.72259444,0
19316000,-0.10230007,-0.08739087,-0.0015950799,0.0,0.0,-0.72675663,0
19332000,-0.098161034,-0.08432759,-0.001587987,0.0,0.0,-0.7231595,0
19356000,-0.090638325,-0.07886234,-0.0013706088,0.0,0.0,-0.7265784,0
19376000,-0.08411303,-0.07404418,-0.0013964772,0.0,0.0,-0.72231686,0
19396000,-0.08007112,-0.073095985,-0.001367271,0.0,0.0,-0.726361,0
19416000,-0.07828393,-0.07155696,-0.0013480783,0.0,0.0,-0.7219553,0
19436000,-0.07682349,-0.07103245,-0.0013034344,0.0,0.0,-0.72590667,0
19456000,-0.07627251,-0.07009058,-0.0013380647,0.0,0.0,-0.7213897,0
19476000,-0.073376566,-0.07067784,-0.0012312531,0.0,0.0,-0.7252774,0
19492000,-0.070951834,-0.070856884,-0.0012542009,0.0,0.0,-0.72156304,0
19516000,-0.06691588,-0.067632414,-0.0011907816,0.0,0.0,-0.7248006,0
19532000,-0.0639765,-0.0679208,-0.0011957884,0.0,0.0,-0.7211662,0
19556000,-0.061183024,-0.06399407,-0.0011440516,0.0,0.0,-0.7244434,0
19576000,-0.059796993,-0.062118597,-0.0011332035,0.0,0.0,-0.72021466,0
19596000,-0.057542536,-0.061757058,-0.0011624098,0.0,0.0,-0.72408277,0
19612000,-0.05670564,-0.060127076,-0.0011419654,0.0,0.0,-0.7206829,0
19636000,-0.05375836,-0.059560478,-0.0010163784,0.0,0.0,-0.7239705,0
19656000,-0.05179847,-0.05659088,-0.0009800792,0.0,0.0,-0.71994746,0
19676000,-0.049723856,-0.053001072,-0.00089997053,0.0,0.0,-0.7237796,0
19692000,-0.04852965,-0.0508805,-0.0008878708,0.0,0.0,-0.7203844,0
19716000,-0.044525027,-0.04697002,-0.00079232454,0.0,0.0,-0.72355574,0
19732000,-0.042965837,-0.045836248,-0.0007889867,0.0,0.0,-0.72015345,0
19756000,-0.041146226,-0.042394947,-0.0007134676,0.0,0.0,-0.72338945,0
19776000,-0.03743939,-0.0385494,-0.0006341934,0.0,0.0,-0.7192895,0
19796000,-0.03551226,-0.035794564,-0.0005173683,0.0,0.0,-0.7230192,0
19812000,-0.03485305,-0.034335613,-0.0005223751,0.0,0.0,-0.71963066,0
19836000,-0.03466023,-0.036096126,-0.00056034327,0.0,0.0,-0.7227137,0
19852000,-0.03343501,-0.037425257,-0.00057035685,0.0,0.0,-0.71886855,0
19876000,-0.032780297,-0.03763696,-0.000531137,0.0,0.0,-0.7217863,0
19892000,-0.031235348,-0.037551872,-0.00047147274,0.0,0.0,-0.7181219,0
19916000,-0.029996928,-0.036245305,-0.0005373955,0.0,0.0,-0.7211104,0
19936000,-0.025979737,-0.033805665,-0.00048732758,0.0,0.0,-0.7167339,0
19956000,-0.026123328,-0.03243558,-0.00040513277,0.0,0.0,-0.7204968,0
19976000,-0.023310512,-0.030118398,-0.0004184842,0.0,0.0,-0.7164078,0
19996000,-0.023740632,-0.029527504,-0.00033128262,0.0,0.0,-0.7202015,0
20016000,-0.02176193,-0.02873826,-0.0003784299,0.0,0.0,-0.71629006,0
20036000,-0.02056046,-0.029106226,-0.00044977665,0.0,0.0,-0.72006315,0
20052000,-0.020176008,-0.027867315,-0.0003838539,0.0,0.0,-0.7167164,0
20076000,-0.020023555,-0.02469088,-0.00028914213,0.0,0.0,-0.71974725,0
20092000,-0.018202705,-0.023506574,-0.00034421682,0.0,0.0,-0.716491,0
20116000,-0.01774549,-0.022775488,-0.0002849698,0.0,0.0,-0.7195398,0
20132000,-0.01771291,-0.02077916,-0.00029957294,0.0,0.0,-0.71629226,0
20152000,-0.016301814,-0.017156381,-0.00022780895,0.0,0.0,-0.7193512,0
20172000,-0.017325854,-0.016894858,-0.0001885891,0.0,0.0,-0.71619934,0
20192000,-0.015239579,-0.014516046,-0.00015729666,0.0,0.0,-0.71922284,0
20216000,-0.01602852,-0.014415944,-0.00016480684,0.0,0.0,-0.71523213,0
20232000,-0.018658178,-0.015034315,-0.00015980005,0.0,0.0,-0.7189207,0
20252000,-0.019107949,-0.019607132,-0.00021195412,0.0,0.0,-0.71540153,0
20272000,-0.02230139,-0.02035852,-0.00021779537,0.0,0.0,-0.71828264,0
20292000,-0.023487434,-0.019802015,-0.00017023087,0.0,0.0,-0.7149335,0
20316000,-0.0236908,-0.018907312,-0.00024992228,0.0,0.0,-0.7177604,0
20336000,-0.023514241,-0.018546386,-0.00021904707,0.0,0.0,-0.7139394,0
20356000,-0.02498611,-0.020163838,-0.0002065301,0.0,0.0,-0.7174695,0
20372000,-0.02614557,-0.018272283,-0.00017482042,0.0,0.0,-0.7142518,0
20396000,-0.024405476,-0.015638199,-0.000118494034,0.0,0.0,-0.7171335,0
20412000,-0.023464879,-0.014815285,-0.00014686584,0.0,0.0,-0.7139949,0
20436000,-0.020873103,-0.013527801,-0.00015228987,0.0,0.0,-0.7169007,0
20452000,-0.017519666,-0.012771586,-0.00011765957,0.0,0.0,-0.7137104,0
20476000,-0.014432138,-0.010439506,-0.00013059378,0.0,0.0,-0.71667624,0
20496000,-0.012043195,-0.009673738,-0.000120162964,0.0,0.0,-0.7130352,0
20516000,-0.009866031,-0.00958004,-0.00010514259,0.0,0.0,-0.7165432,0
20536000,-0.008395322,-0.007310193,-0.00010764599,0.0,0.0,-0.7128321,0
20556000,-0.006286648,-0.0068609626,-8.511543e-05,0.0,0.0,-0.7163368,0
20572000,-0.0031892164,-0.0060096662,-9.596348e-05,0.0,0.0,-0.7132764,0
20592000,-0.0019932194,-0.0062298803,-7.0512295e-05,0.0,0.0,-0.71629405,0
20616000,-0.0013083396,-0.008788212,-6.80089e-05,0.0,0.0,-0.71256906,0
20636000,0.00015426986,-0.00981373,-0.00011014938,0.0,0.0,-0.71592444,0
20652000,-0.0007239375,-0.010874751,-0.000115156174,0.0,0.0,-0.712455,0
20676000,-0.00082728453,-0.011262412,-0.00013434887,0.0,0.0,-0.7150499,0
20696000,-0.0030479617,-0.011836218,-0.00012558699,0.0,0.0,-0.7111182,0
20716000,-0.0033893846,-0.013062271,-9.638071e-05,0.0,0.0,-0.7144179,0
20736000,-0.002922846,-0.013584453,-0.00014311075,0.0,0.0,-0.7106297,0
20756000,-0.0035794433,-0.012322314,-0.00013935566,0.0,0.0,-0.7139287,0
20776000,-0.0037129736,-0.010956539,-0.00012600422,0.0,0.0,-0.71027255,0
20796000,-0.0047439374,-0.011687394,-0.000100553036,0.0,0.0,-0.7136777,0
20816000,-0.00441938,-0.010682802,-0.00012266636,0.0,0.0,-0.71024394,0
20836000,-0.0049942415,-0.008006061,-0.00011140108,0.0,0.0,-0.71363133,0
20856000,-0.0034191683,-0.0055131963,2.0861626e-06,0.0,0.0,-0.71024,0
20876000,-0.0028266907,-0.0065816613,-5.0485134e-05,0.0,0.0,-0.7136277,0
20892000,-0.0019992609,-0.0045967717,-6.300211e-05,0.0,0.0,-0.71065044,0
20916000,-0.0002450617,-0.0045342017,-5.7578087e-05,0.0,0.0,-0.71341264,0
20936000,-6.787293e-05,-0.0025252374,5.4240227e-06,0.0,0.0,-0.7100064,0
20956000,0.0007715067,-0.0011261218,6.8843365e-05,0.0,0.0,-0.71339613,0
20976000,0.0024719983,0.00046106463,-2.169609e-05,0.0,0.0,-0.70992583,0
20996000,0.0025057653,4.464225e-05,2.2113323e-05,0.0,0.0,-0.71311843,0
21016000,0.0020806333,-0.00042933243,4.2557716e-05,0.0,0.0,-0.70954806,0
21036000,0.0002802573,-0.00036532397,0.00010848045,0.0,0.0,-0.71283036,0
21056000,0.0010900954,-0.00012817432,-5.5491924e-05,0.0,0.0,-0.7089119,0
21076000,-0.00039310846,-0.0011955566,-0.00015187263,0.0,0.0,-0.7118759,0
21096000,-0.00017823,0.00055369677,-3.9219856e-05,0.0,0.0,-0.70816386,0
21116000,-0.00016135257,0.001500505,-8.261204e-05,0.0,0.0,-0.7113058,0
21136000,-0.0019127913,0.0021560928,-2.7954578e-05,0.0,0.0,-0.70779365,0
21156000,-0.0024774466,0.0008961026,-0.00012516975,0.0,0.0,-0.710887,0
21172000,-0.0027587814,0.0015819002,-9.512901e-05,0.0,0.0,-0.7078835,0
21196000,-0.0037323693,0.0012074852,0.00016105175,0.0,0.0,-0.71048325,0
21212000,-0.0037423456,0.00044828473,0.000184834,0.0,0.0,-0.7076016,0
21236000,-0.0030801184,0.00025828806,0.00014269352,0.0,0.0,-0.710274,0
21252000,-0.0025096154,-6.158021e-05,0.0002232194,0.0,0.0,-0.7090995,0
21276000,-0.0016550533,0.00086203596,0.0001539588,0.0,0.0,-0.704998,0
21296000,0.00010702759,0.00034894672,5.2154064e-05,0.0,0.0,-0.7017563,0
21316000,-0.00020647608,0.0018767791,0.000118911266,0.0,0.0,-0.6974651,0
21332000,-0.00017967075,0.0016642382,0.00013017654,0.0,0.0,-0.69434583,0
21356000,0.00096280035,0.0014259202,0.00013267994,0.0,0.0,-0.6895622,0
21372000,-0.00014621858,0.0025476343,0.00012558699,0.0,0.0,-0.686466,0
21396000,0.0018859254,0.0027894708,6.7174435e-05,0.0,0.0,-0.68176293,0
21412000,0.0033170804,0.003089625,8.0525875e-05,0.0,0.0,-0.67881787,0
21436000,-0.0020915056,0.0017259833,3.0457973e-05,0.0,0.0,-0.673928,0
21452000,-0.004061128,0.0026512446,3.7133694e-05,0.0,0.0,-0.67067593,0
21476000,-0.0061010085,0.0011408911,7.927418e-05,0.0,0.0,-0.66580915,0
21492000,-0.009448369,-0.00047623191,-2.2530556e-05,0.0,0.0,-0.66260624,0
21512000,-0.009464883,0.00012420467,5.4240227e-06,0.0,0.0,-0.6578975,0
21532000,-0.011125397,-0.0013334363,-9.179115e-06,0.0,0.0,-0.6548687,0
21556000,-0.011356705,-0.0021251314,-5.2571297e-05,0.0,0.0,-0.655446,0
21572000,-0.012088512,-0.001125481,-6.0081482e-05,0.0,0.0,-0.65835685,0
21596000,-0.011963578,-0.0020585994,-1.4603138e-05,0.0,0.0,-0.66320187,0
21616000,-0.010497821,-0.0031005032,-0.00015562773,0.0,0.0,-0.6683147,0
21636000,-0.009824128,-0.004729771,-0.00030082464,0.0,0.0,-0.6718876,0
21652000,-0.009774852,-0.003485334,-0.0002707839,0.0,0.0,-0.6751955,0
21676000,-0.008883907,-0.0018111711,-0.00027996302,0.0,0.0,-0.6800785,0
21696000,-0.008161181,-0.00083893735,-0.00013184547,0.0,0.0,-0.6842785,0
21716000,-0.008256186,-0.00046186324,-0.00024992228,0.0,0.0,-0.6875749,0
21736000,-0.0062307613,-0.0006598459,-0.00013309717,0.0,0.0,-0.69134116,0
21756000,-0.0046354933,-0.0011817787,-0.00020194054,0.0,0.0,-0.6944658,0
21776000,-0.002348965,-0.00056151766,-5.8829784e-05,0.0,0.0,-0.6977612,0
21796000,-0.00041260105,-0.0018249548,-6.92606e-05,0.0,0.0,-0.70080245,0
21812000,0.0005192775,-0.0023758952,-0.00010931492,0.0,0.0,-0.7029848,0
21832000,-0.000289483,-0.0016920775,-8.177757e-05,0.0,0.0,-0.7058832,0
21852000,-0.00027344096,0.00036603594,-4.506111e-05,0.0,0.0,-0.7077633,0
21876000,-0.00018471945,0.000551338,-6.300211e-05,0.0,0.0,-0.71048427,0
21896000,0.00016825367,0.0025629248,-1.66893e-06,0.0,0.0,-0.71206737,0
21916000,0.00028221868,0.0034186733,0.00012892485,0.0,0.0,-0.71455264,0
21936000,-6.146822e-05,0.0028604486,9.012222e-05,0.0,0.0,-0.71580654,0
21956000,0.0009872569,0.0024368505,0.00016063452,0.0,0.0,-0.717879,0
21976000,0.0022466714,0.003003167,4.631281e-05,0.0,0.0,-0.71853507,0
21992000,0.0023244359,0.0034688085,6.3836575e-05,0.0,0.0,-0.7201473,0
22016000,0.003677522,0.0029668387,-0.0025188786,0.0,0.0,-0.72009826,0
22036000,0.004998713,0.00421626,-0.0013620377,0.0,0.0,-0.7207947,0
22052000,0.0041486244,0.0030187874,-0.0018505112,0.0,0.0,-0.72044617,0
22076000,0.0040264837,0.002945355,-0.0004842342,0.0,0.0,-0.71993315,0
22092000,0.005382994,0.004494291,-0.00076941936,0.0,0.0,-0.7189887,0
22116000,0.0053548794,0.006488264,0.00033508672,0.0,0.0,-0.71774393,0
22132000,0.0043010595,0.00597877,8.946622e-05,0.0,0.0,-0.7165136,0
22156000,0.0022565764,0.006350679,0.0010624554,0.0,0.0,-0.7153192,0
22176000,0.0025616277,0.004232301,0.00091535365,0.0,0.0,-0.7135044,0
22196000,0.003634564,0.0024082738,0.0014581128,0.0,0.0,-0.7132912,0
22216000,0.0019820556,0.0026871515,0.0009445895,0.0,0.0,-0.71186817,0
22236000,0.00019072855,0.0025719274,0.0011150565,0.0,0.0,-0.7116469,0
22252000,-0.00074130046,0.0010027713,0.00047331717,0.0,0.0,-0.71098244,0
22276000,-0.0006742963,0.0010615801,0.000271602,0.0,0.0,-0.71053636,0
22292000,-0.0025506276,0.0021413388,-0.00029922643,0.0,0.0,-0.70988446,0
22316000,-0.0010462484,0.002627291,-0.00054184906,0.0,0.0,-0.7098081,0
22332000,-0.0023281262,0.0021799358,-0.0010864709,0.0,0.0,-0.70935744,0
22352000,-0.002192847,0.0024585046,-0.0006411861,0.0,0.0,-0.7093477,0
22372000,-0.0036496755,0.0036859682,-0.00044620695,0.0,0.0,-0.70904905,0
22396000,-0.002356268,0.003071025,0.00015021229,0.0,0.0,-0.7091813,0
22416000,-0.0007888738,0.0032741183,0.00042818513,0.0,0.0,-0.7085262,0
22436000,3.2961427e-05,0.002253846,0.0010517959,0.0,0.0,-0.7089876,0
22456000,0.0006853567,0.004158673,0.0014859077,0.0,0.0,-0.70833343,0
22472000,-0.00063349004,0.0033113107,0.0018751078,0.0,0.0,-0.7087826,0
22492000,0.00014028483,0.0036268046,0.0018870701,0.0,0.0,-0.7085182,0
22512000,0.0005429308,0.0025013955,0.0019211036,0.0,0.0,-0.7088369,0
22532000,0.002068934,0.004264588,0.0018156541,0.0,0.0,-0.7086142,0
22556000,0.0023014913,0.0015309855,0.001788909,0.0,0.0,-0.70902395,0
22572000,0.0013843775,0.0014192532,0.0016313551,0.0,0.0,-0.7088346,0
22592000,0.0038688236,0.0013046188,0.0015037413,0.0,0.0,-0.7091465,0
22612000,0.0031264687,0.0011688172,0.0012972016,0.0,0.0,-0.7088325,0
22632000,0.0016533337,0.005688136,0.00087701814,0.0,0.0,-0.7091596,0
22652000,0.0011468652,0.008690021,9.29667e-05,0.0,0.0,-0.7087966,0
22676000,0.0005114485,0.01225817,-0.0004431266,0.0,0.0,-0.7090583,0
22692000,-0.0015322921,0.012571278,-0.0009101822,0.0,0.0,-0.708691,0
22716000,-0.0028740137,0.013831594,-0.0015415439,0.0,0.0,-0.7089452,0
22736000,-0.0027641123,0.015952032,-0.00200935,0.0,0.0,-0.708295,0
22756000,-0.0022124145,0.016508387,-0.0024356993,0.0,0.0,-0.70887274,0
22776000,-0.003279089,0.014597312,-0.002705284,0.0,0.0,-0.70837456,0
22792000,-0.0029246805,0.014557953,-0.0028110237,0.0,0.0,-0.7089373,0
22816000,-0.002173534,0.013270241,-0.0028593338,0.0,0.0,-0.70844865,0
22836000,-0.0012358723,0.011105974,-0.0028603708,0.0,0.0,-0.7090398,0
22852000,-0.0016996039,0.009604323,-0.0029441898,0.0,0.0,-0.70867485,0
