timestamp,data_rate,rate_multiplier,tx_rate_avg,tx_error_rate_avg,tx_message_count,tx_buffer_overruns,rx_rate_avg,rx_message_count,rx_message_lost_count,rx_buffer_overruns,rx_parse_errors,rx_packet_drop_count,rx_message_lost_rate,type,mode,flow_control,forwarding,mavlink_v2,ftp,streams,heartbeat_type_antenna_tracker,heartbeat_type_gcs,heartbeat_type_onboard_controller,heartbeat_type_gimbal,heartbeat_type_adsb,heartbeat_type_camera,heartbeat_type_parachute,heartbeat_type_open_drone_id,heartbeat_component_telemetry_radio,heartbeat_component_log,heartbeat_component_osd,heartbeat_component_obstacle_avoidance,heartbeat_component_vio,heartbeat_component_pairing_manager,heartbeat_component_udp_bridge,heartbeat_component_uart_bridge,avoidance_system_healthy,open_drone_id_system_healthy,parachute_system_healthy
3180000,4000.0,0.14012119,0.0,0.0,2,0,0.0,0,0,0,0,0,0.0,0,2,0,1,1,1,60,0,0,0,0,0,0,0,0,0,0,0,0,0,0,0,0,0,0,0
4440000,4000.0,0.13333982,3010.9563,0.0,71,0,0.0,0,0,0,0,0,0.0,0,2,0,1,1,1,60,0,0,0,0,0,0,0,0,0,0,0,0,0,0,0,0,0,0,0
5700000,4000.0,0.13333982,3453.1873,0.0,158,0,0.0,0,0,0,0,0,0.0,0,2,0,1,1,1,60,0,0,0,0,0,0,0,0,0,0,0,0,0,0,0,0,0,0,0
6960000,4000.0,0.13333982,3650.3984,0.0,239,0,0.0,0,0,0,0,0,0.0,0,2,0,1,1,1,60,0,0,0,0,0,0,0,0,0,0,0,0,0,0,0,0,0,0,0
7960000,4000.0,0.13333982,3223.1077,0.0,299,0,0.0,0,0,0,0,0,0.0,0,2,0,1,1,1,60,0,0,0,0,0,0,0,0,0,0,0,0,0,0,0,0,0,0,0
8216000,4000.0,0.13333982,3187.251,0.0,314,0,0.0,0,0,0,0,0,0.0,0,2,0,1,1,1,60,0,0,0,0,0,0,0,0,0,0,0,0,0,0,0,0,0,0,0
9472000,4000.0,0.13333982,4096.614,0.0,410,0,0.0,0,0,0,0,0,0.0,0,2,0,1,1,1,60,0,0,0,0,0,0,0,0,0,0,0,0,0,0,0,0,0,0,0
10724000,4000.0,0.13333982,3515.9363,0.0,508,0,0.0,0,0,0,0,0,0.0,0,2,0,1,1,1,60,0,0,0,0,0,0,0,0,0,0,0,0,0,0,0,0,0,0,0
11980000,4000.0,0.13333982,4061.7532,0.0,592,0,0.0,0,0,0,0,0,0.0,0,2,0,1,1,1,60,0,0,0,0,0,0,0,0,0,0,0,0,0,0,0,0,0,0,0
12980000,4000.0,0.13333982,3955.1794,0.0,669,0,0.0,0,0,0,0,0,0.0,0,2,0,1,1,1,60,0,0,0,0,0,0,0,0,0,0,0,0,0,0,0,0,0,0,0
13232000,4000.0,0.13333982,3555.777,0.0,685,0,0.0,0,0,0,0,0,0.0,0,2,0,1,1,1,60,0,0,0,0,0,0,0,0,0,0,0,0,0,0,0,0,0,0,0
14484000,4000.0,0.13333982,3683.267,0.0,777,0,0.0,0,0,0,0,0,0.0,0,2,0,1,1,1,60,0,0,0,0,0,0,0,0,0,0,0,0,0,0,0,0,0,0,0
15736000,4000.0,0.13333982,4099.6016,0.0,863,0,0.0,0,0,0,0,0,0.0,0,2,0,1,1,1,60,0,0,0,0,0,0,0,0,0,0,0,0,0,0,0,0,0,0,0
16992000,4000.0,0.13333982,3676.295,0.0,954,0,0.0,0,0,0,0,0,0.0,0,2,0,1,1,1,60,0,0,0,0,0,0,0,0,0,0,0,0,0,0,0,0,0,0,0
17992000,4000.0,0.13333982,3588.6455,0.0,1022,0,0.0,0,0,0,0,0,0.0,0,2,0,1,1,1,60,0,0,0,0,0,0,0,0,0,0,0,0,0,0,0,0,0,0,0
18252000,4000.0,0.13333982,4586.6533,0.0,1062,0,0.0,0,0,0,0,0,0.0,0,2,0,1,1,1,60,0,0,0,0,0,0,0,0,0,0,0,0,0,0,0,0,0,0,0
19508000,4000.0,0.13333982,3596.6138,0.0,1141,0,0.0,0,0,0,0,0,0.0,0,2,0,1,1,1,60,0,0,0,0,0,0,0,0,0,0,0,0,0,0,0,0,0,0,0
20764000,4000.0,0.13333982,3704.1833,0.0,1232,0,0.0,0,0,0,0,0,0.0,0,2,0,1,1,1,60,0,0,0,0,0,0,0,0,0,0,0,0,0,0,0,0,0,0,0
22024000,4000.0,0.13333982,4124.502,0.0,1326,0,0.0,0,0,0,0,0,0.0,0,2,0,1,1,1,60,0,0,0,0,0,0,0,0,0,0,0,0,0,0,0,0,0,0,0
23024000,4000.0,0.13333982,3554.781,0.0,1395,0,0.0,0,0,0,0,0,0.0,0,2,0,1,1,1,60,0,0,0,0,0,0,0,0,0,0,0,0,0,0,0,0,0,0,0
23280000,4000.0,0.13333982,3662.3506,0.0,1411,0,0.0,0,0,0,0,0,0.0,0,2,0,1,1,1,60,0,0,0,0,0,0,0,0,0,0,0,0,0,0,0,0,0,0,0
24536000,4000.0,0.13333982,4166.335,0.0,1502,0,0.0,0,0,0,0,0,0.0,0,2,0,1,1,1,60,0,0,0,0,0,0,0,0,0,0,0,0,0,0,0,0,0,0,0
25792000,4000.0,0.13333982,3512.9482,0.0,1603,0,0.0,0,0,0,0,0,0.0,0,2,0,1,1,1,60,0,0,0,0,0,0,0,0,0,0,0,0,0,0,0,0,0,0,0
27048000,4000.0,0.13333982,4027.8887,0.0,1684,0,0.0,0,0,0,0,0,0.0,0,2,0,1,1,1,60,0,0,0,0,0,0,0,0,0,0,0,0,0,0,0,0,0,0,0
28048000,4000.0,0.13333982,4071.7134,0.0,1762,0,0.0,0,0,0,0,0,0.0,0,2,0,1,1,1,60,0,0,0,0,0,0,0,0,0,0,0,0,0,0,0,0,0,0,0
28304000,4000.0,0.13333982,3594.6216,0.0,1778,0,0.0,0,0,0,0,0,0.0,0,2,0,1,1,1,60,0,0,0,0,0,0,0,0,0,0,0,0,0,0,0,0,0,0,0
29556000,4000.0,0.13333982,3712.1516,0.0,1869,0,0.0,0,0,0,0,0,0.0,0,2,0,1,1,1,60,0,0,0,0,0,0,0,0,0,0,0,0,0,0,0,0,0,0,0
30816000,4000.0,0.13333982,4076.6934,0.0,1954,0,0.0,0,0,0,0,0,0.0,0,2,0,1,1,1,60,0,0,0,0,0,0,0,0,0,0,0,0,0,0,0,0,0,0,0
32068000,4000.0,0.13333982,3552.789,0.0,2045,0,0.0,0,0,0,0,0,0.0,0,2,0,1,1,1,60,0,0,0,0,0,0,0,0,0,0,0,0,0,0,0,0,0,0,0
33068000,4000.0,0.13333982,3766.9324,0.0,2113,0,0.0,0,0,0,0,0,0.0,0,2,0,1,1,1,60,0,0,0,0,0,0,0,0,0,0,0,0,0,0,0,0,0,0,0
33328000,4000.0,0.13333982,4526.8926,0.0,2150,0,0.0,0,0,0,0,0,0.0,0,2,0,1,1,1,60,0,0,0,0,0,0,0,0,0,0,0,0,0,0,0,0,0,0,0
34584000,4000.0,0.13333982,3617.53,0.0,2230,0,0.0,0,0,0,0,0,0.0,0,2,0,1,1,1,60,0,0,0,0,0,0,0,0,0,0,0,0,0,0,0,0,0,0,0
35840000,4000.0,0.13333982,3628.486,0.0,2324,0,0.0,0,0,0,0,0,0.0,0,2,0,1,1,1,60,0,0,0,0,0,0,0,0,0,0,0,0,0,0,0,0,0,0,0
37100000,4000.0,0.13333982,4150.3984,0.0,2416,0,0.0,0,0,0,0,0,0.0,0,2,0,1,1,1,60,0,0,0,0,0,0,0,0,0,0,0,0,0,0,0,0,0,0,0
38100000,4000.0,0.13333982,3549.8008,0.0,2486,0,0.0,0,0,0,0,0,0.0,0,2,0,1,1,1,60,0,0,0,0,0,0,0,0,0,0,0,0,0,0,0,0,0,0,0
38356000,4000.0,0.13333982,3721.1157,0.0,2503,0,0.0,0,0,0,0,0,0.0,0,2,0,1,1,1,60,0,0,0,0,0,0,0,0,0,0,0,0,0,0,0,0,0,0,0
39616000,4000.0,0.13333982,4135.4585,0.0,2597,0,0.0,0,0,0,0,0,0.0,0,2,0,1,1,1,60,0,0,0,0,0,0,0,0,0,0,0,0,0,0,0,0,0,0,0
40872000,4000.0,0.13333982,3564.7412,0.0,2695,0,0.0,0,0,0,0,0,0.0,0,2,0,1,1,1,60,0,0,0,0,0,0,0,0,0,0,0,0,0,0,0,0,0,0,0
42132000,4000.0,0.13333982,3952.1914,0.0,2779,0,0.0,0,0,0,0,0,0.0,0,2,0,1,1,1,60,0,0,0,0,0,0,0,0,0,0,0,0,0,0,0,0,0,0,0
43132000,4000.0,0.13333982,4150.3984,0.0,2856,0,0.0,0,0,0,0,0,0.0,0,2,0,1,1,1,60,0,0,0,0,0,0,0,0,0,0,0,0,0,0,0,0,0,0,0
43388000,4000.0,0.13333982,3583.6655,0.0,2872,0,0.0,0,0,0,0,0,0.0,0,2,0,1,1,1,60,0,0,0,0,0,0,0,0,0,0,0,0,0,0,0,0,0,0,0
44644000,4000.0,0.13333982,3746.016,0.0,2967,0,0.0,0,0,0,0,0,0.0,0,2,0,1,1,1,60,0,0,0,0,0,0,0,0,0,0,0,0,0,0,0,0,0,0,0
45904000,4000.0,0.13333982,4011.9524,0.0,3059,0,0.0,0,0,0,0,0,0.0,0,2,0,1,1,1,60,0,0,0,0,0,0,0,0,0,0,0,0,0,0,0,0,0,0,0
47164000,4000.0,0.13333982,3638.4463,0.0,3141,0,0.0,0,0,0,0,0,0.0,0,2,0,1,1,1,60,0,0,0,0,0,0,0,0,0,0,0,0,0,0,0,0,0,0,0
48164000,4000.0,0.13333982,3691.235,0.0,3218,0,0.0,0,0,0,0,0,0.0,0,2,0,1,1,1,60,0,0,0,0,0,0,0,0,0,0,0,0,0,0,0,0,0,0,0
48420000,4000.0,0.13333982,4498.0083,0.0,3246,0,0.0,0,0,0,0,0,0.0,0,2,0,1,1,1,60,0,0,0,0,0,0,0,0,0,0,0,0,0,0,0,0,0,0,0
49676000,4000.0,0.13333982,3583.6655,0.0,3339,0,0.0,0,0,0,0,0,0.0,0,2,0,1,1,1,60,0,0,0,0,0,0,0,0,0,0,0,0,0,0,0,0,0,0,0
50932000,4000.0,0.13333982,3757.9683,0.0,3418,0,0.0,0,0,0,0,0,0.0,0,2,0,1,1,1,60,0,0,0,0,0,0,0,0,0,0,0,0,0,0,0,0,0,0,0
51932000,4000.0,0.13333982,4034.8606,0.0,3498,0,0.0,0,0,0,0,0,0.0,0,2,0,1,1,1,60,0,0,0,0,0,0,0,0,0,0,0,0,0,0,0,0,0,0,0
52188000,4000.0,0.13333982,4034.8606,0.0,3513,0,0.0,0,0,0,0,0,0.0,0,2,0,1,1,1,60,0,0,0,0,0,0,0,0,0,0,0,0,0,0,0,0,0,0,0
