timestamp,timestamp_sample,time_last_fuse,device_id,observation[0],observation[1],observation_variance[0],observation_variance[1],innovation[0],innovation[1],innovation_variance[0],innovation_variance[1],test_ratio[0],test_ratio[1],estimator_instance,fusion_enabled,innovation_rejected,fused
3412000,3289192,0,0,0.0,0.0,1.0,1.0,-1.6516433e-06,-1.172562e-05,1.0000992,1.0000992,1.091062e-13,5.4990613e-12,0,1,0,0
3812000,3689511,0,0,0.0,0.0,1.0,1.0,5.3732547e-06,0.00010190731,1.000127,1.000127,1.1547281e-12,4.1535125e-10,0,1,0,0
4204000,4089701,0,0,0.0,0.0,1.0,1.0,2.6829732e-05,8.395512e-05,1.0000969,1.0000969,2.8790591e-11,2.819112e-10,0,1,0,0
4612000,4489821,0,0,0.0,0.0075268387,1.0,1.0,0.0001818285,-0.0072108093,1.0006601,1.0006601,1.3215916e-09,2.078459e-06,0,1,0,0
5004000,4889891,0,0,0.0,0.0075268387,1.0,1.0,0.000452691,-0.007640354,1.0003471,1.0003471,8.194321e-09,2.33419e-06,0,1,0,0
5404000,5289934,0,0,0.0,0.0075268387,1.0,1.0,-0.00018853482,-0.0074567017,1.0002337,1.0002337,1.4214829e-09,2.2235765e-06,0,1,0,0
5804000,5689960,0,0,0.0,0.0075268387,1.0,1.0,-0.00046567852,-0.0075030522,1.0001781,1.0001781,8.672715e-09,2.251431e-06,0,1,0,0
6212000,6089977,0,0,0.0,0.0075268387,1.0,1.0,-0.000116447285,-0.007491618,1.0001525,1.0001525,5.4231614e-10,2.2446313e-06,0,1,0,0
6604000,6489986,0,0,0.0,0.0075268387,1.0,1.0,-8.8811474e-05,-0.008078102,1.0001247,1.0001247,3.154598e-10,2.609904e-06,0,1,0,0
7012000,6889992,0,0,0.0,0.0075268387,1.0,1.0,-0.00055296125,-0.007992624,1.000114,1.000114,1.2229252e-08,2.5549905e-06,0,1,0,0
7412000,7289995,0,0,0.0,0.0075268387,1.0,1.0,-0.0010747481,-0.007585549,1.0001016,1.0001016,4.619865e-08,2.3013883e-06,0,1,0,0
7812000,7689997,0,0,0.0,0.0075268387,1.0,1.0,-0.0006168941,-0.00741876,1.0000916,1.0000916,1.522094e-08,2.2013185e-06,0,1,0,0
8204000,8089999,0,0,0.0,0.0075268387,1.0,1.0,-0.00021197498,-0.0076281014,1.0000802,1.0000802,1.7971915e-09,2.3273305e-06,0,1,0,0
8612000,8489999,8532000,0,0.0,0.0075268387,1.0,1.0,-0.00010148266,-0.007699034,1.0000762,1.0000762,4.1191786e-10,2.3708246e-06,0,1,0,0
9004000,8890000,8924000,0,0.0,0.0075268387,1.0,1.0,-0.0083291475,0.00033484912,2.0138636,2.0138636,1.3779425e-06,2.2270412e-09,0,1,0,1
9412000,9290000,9332000,0,0.0,0.0075268387,1.0,1.0,-0.004841695,0.0008631204,1.5182142,1.5182142,6.176206e-07,1.9627715e-08,0,1,0,1
9812000,9690000,9732000,0,0.0,0.0075268387,1.0,1.0,-0.0047358056,-0.005308257,1.3541019,1.3541019,6.62516e-07,8.3236256e-07,0,1,0,1
10212000,10090000,10132000,0,0.0,0.015053677,1.0,1.0,-0.011047121,-0.008378258,1.2737529,1.2737529,3.8324197e-06,2.2043587e-06,0,1,0,1
10612000,10490000,10532000,0,0.0,0.0075268387,1.0,1.0,-0.0045093563,0.004258442,1.2270526,1.2270526,6.6286634e-07,5.9115087e-07,0,1,0,1
11012000,10890000,10932000,0,0.0,0.0075268387,1.0,1.0,-0.004431132,0.0047588586,1.197296,1.1972961,6.559759e-07,7.565959e-07,0,1,0,1
11404000,11290000,11324000,0,0.0,0.0075268387,1.0,1.0,-0.0011827766,-0.0013285619,1.1769618,1.176962,4.754481e-08,5.9987556e-08,0,1,0,1
11804000,11690000,11724000,0,-0.011119492,0.0075268387,1.0,1.0,0.013416929,-0.0011798623,1.1633083,1.1633087,6.1897263e-06,4.786606e-08,0,1,0,1
12212000,12090000,12132000,0,0.0,0.0075268387,1.0,1.0,0.0005000261,-0.0014423393,1.1543119,1.1543127,8.664074e-09,7.2089385e-08,0,1,0,1
12612000,12490000,12532000,0,0.0,0.0075268387,1.0,1.0,0.0007219172,-0.0013721976,1.1477786,1.1477796,1.8162542e-08,6.561979e-08,0,1,0,1
13004000,12890000,12924000,0,0.0,0.0075268387,1.0,1.0,-0.0038171832,0.0022729165,1.1428336,1.1428344,5.099916e-07,1.8081883e-07,0,1,0,1
13412000,13290000,13332000,0,0.0,0.0075268387,1.0,1.0,-0.0003320585,0.0022966103,1.1404194,1.1404204,3.867449e-09,1.8499908e-07,0,1,0,1
13812000,13690000,13732000,0,0.0,0.015053677,1.0,1.0,-0.012180448,-0.004656354,1.1383923,1.1383934,5.2130817e-06,7.6183267e-07,0,1,0,1
14212000,14090000,14132000,0,0.0,0.0,1.0,1.0,-0.014800994,0.010990309,1.1370208,1.137022,7.706787e-06,4.2492366e-06,0,1,0,1
14612000,14490000,14532000,0,0.0,0.0075268387,1.0,1.0,-0.009403201,0.0026573665,1.136078,1.1360791,3.113173e-06,2.4863044e-07,0,1,0,1
15004000,14890000,14924000,0,0.0,0.0075268387,1.0,1.0,-0.0043373452,-0.0011821687,1.1348312,1.134832,6.6309644e-07,4.92592e-08,0,1,0,1
15404000,15290000,15324000,0,0.0,0.0075268387,1.0,1.0,0.0041855806,-0.0008387221,1.1344392,1.1344401,6.177179e-07,2.4803594e-08,0,1,0,1
15812000,15690000,15732000,0,0.0,0.0,1.0,1.0,-0.00031996286,0.0030886696,1.1347296,1.1347305,3.6088326e-09,3.362871e-07,0,1,0,1
16204000,16090000,16124000,0,0.0,0.0,1.0,1.0,0.00025195556,0.003272847,1.1337899,1.1337906,2.239625e-09,3.7790144e-07,0,1,0,1
16612000,16490000,16532000,0,0.0,0.0075268387,1.0,1.0,0.0009870953,-0.00028190762,1.134175,1.1341757,3.4363556e-08,2.8028075e-09,0,1,0,1
17004000,16890000,16924000,0,0.0,0.0075268387,1.0,1.0,0.0013100478,-0.0003703991,1.1332932,1.1332936,6.0574806e-08,4.8423634e-09,0,1,0,1
17412000,17290000,17332000,0,0.0,0.0075268387,1.0,1.0,0.0020159425,-0.00030526984,1.1336973,1.1336977,1.433901e-07,3.28799e-09,0,1,0,1
17804000,17690000,17724000,0,0.0,0.0075268387,1.0,1.0,0.0016515203,-0.00029965397,1.1328375,1.132838,9.630752e-08,3.170533e-09,0,1,0,1
18204000,18090000,18124000,0,0.0,0.0075268387,1.0,1.0,-0.002609612,-0.0038234785,1.132668,1.1326684,2.4049675e-07,5.1626716e-07,0,1,0,1
18612000,18490000,18532000,0,-0.033358477,-0.015053677,1.0,1.0,0.004116729,0.0008355882,1.1331023,1.1331025,5.982675e-07,2.4647642e-08,0,1,0,1
19004000,18890000,18924000,0,-0.11119492,-0.07526839,1.0,1.0,0.013760082,0.0033453926,1.1323416,1.1323416,6.6884363e-06,3.953454e-07,0,1,0,1
19412000,19290000,19332000,0,-0.17791188,-0.1354831,1.0,1.0,0.0031894296,0.004805118,1.1327138,1.1327138,3.5922443e-07,8.153572e-07,0,1,0,1
19812000,19690000,19732000,0,-0.21127036,-0.1731173,1.0,1.0,0.012761027,0.010768577,1.1324241,1.1324244,5.7520433e-06,4.0960713e-06,0,1,0,1
20212000,20090000,20132000,0,-0.21127036,-0.1731173,1.0,1.0,0.022679046,0.00420478,1.1321285,1.1321287,1.8172466e-05,6.2467007e-07,0,1,0,1
20604000,20490000,20524000,0,-0.18903138,-0.15806362,1.0,1.0,0.0100269765,0.0015513301,1.1312876,1.1312877,3.5548967e-06,8.50933e-08,0,1,0,1
21012000,20890000,20932000,0,-0.1667924,-0.12795626,1.0,1.0,0.024463117,-0.0066916347,1.1316016,1.1316015,2.1153879e-05,1.5828178e-06,0,1,0,1
21412000,21290000,21332000,0,-0.122314416,-0.09032207,1.0,1.0,0.01374504,-0.009698145,1.1308334,1.130833,6.682722e-06,3.3268932e-06,0,1,0,1
21804000,21690000,21724000,0,-0.08895594,-0.052687872,1.0,1.0,0.00409317,-0.012817282,1.1305828,1.1305823,5.927577e-07,5.8123223e-06,0,1,0,1
22212000,22090000,22132000,0,-0.05559746,-0.030107355,1.0,1.0,-0.003221456,-0.005083004,1.1326196,1.1326189,3.6650533e-07,9.124669e-07,0,1,0,1
22612000,22490000,22532000,0,-0.033358477,0.0,1.0,1.0,-0.004021287,-0.010316867,1.1338862,1.1338854,5.70454e-07,3.7547977e-06,0,1,0,1
23012000,22890000,22932000,0,-0.022238987,0.015053677,1.0,1.0,-0.0016622823,0.0018356899,1.134655,1.1346544,9.741049e-08,1.18794134e-07,0,1,0,1
23412000,23290000,23332000,0,-0.011119492,0.015053677,1.0,1.0,0.01114802,0.013138109,1.1350325,1.1350319,4.379728e-06,6.082997e-06,0,1,0,1
23812000,23690000,23732000,0,0.0,0.0075268387,1.0,1.0,0.0066821943,0.019528175,1.1351628,1.1351624,1.5734033e-06,1.34377115e-05,0,1,0,1
24212000,24090000,24132000,0,0.0,0.0,1.0,1.0,0.012079062,0.02322192,1.1351413,1.1351409,5.141342e-06,1.9002311e-05,0,1,0,1
24612000,24490000,24532000,0,-0.011119492,-0.015053677,1.0,1.0,0.0108716255,0.017226573,1.1350173,1.135017,4.165302e-06,1.0458163e-05,0,1,0,1
25004000,24890000,24924000,0,-0.011119492,-0.022580516,1.0,1.0,0.006070552,0.008702009,1.134173,1.1341728,1.2996818e-06,2.6706673e-06,0,1,0,1
25412000,25290000,25332000,0,-0.022238987,-0.030107355,1.0,1.0,0.01741404,0.0061268304,1.1346829,1.1346827,1.069017e-05,1.3232969e-06,0,1,0,1
25804000,25690000,25724000,0,-0.022238987,-0.030107355,1.0,1.0,0.011387963,0.008268895,1.1337469,1.1337466,4.5754728e-06,2.4123422e-06,0,1,0,1
26204000,26090000,26124000,0,-0.022238987,-0.022580516,1.0,1.0,0.01035642,0.0010739174,1.133506,1.1335056,3.7849093e-06,4.069847e-08,0,1,0,1
26612000,26490000,26532000,0,-0.011119492,-0.015053677,1.0,1.0,0.0071680006,-0.0016833683,1.1337943,1.133794,1.8126826e-06,9.9973334e-08,0,1,0,1
27012000,26890000,26932000,0,-0.011119492,0.0,1.0,1.0,0.0048569925,-0.00026074523,1.1333438,1.1333435,8.3259386e-07,2.3995577e-09,0,1,0,1
27412000,27290000,27332000,0,-0.011119492,0.0075268387,1.0,1.0,0.0034860312,-0.0012238589,1.1328772,1.1328771,4.290814e-07,5.2885902e-08,0,1,0,1
27804000,27690000,27724000,0,0.0,0.015053677,1.0,1.0,-0.004414933,0.005380056,1.1318551,1.1318551,6.888384e-07,1.0229224e-06,0,1,0,1
28212000,28090000,28132000,0,0.0,0.015053677,1.0,1.0,0.0030955623,0.01767306,1.1319999,1.1320001,3.386045e-07,1.10366445e-05,0,1,0,1
28612000,28490000,28532000,0,0.011119493,0.022580516,1.0,1.0,-0.0095497575,0.0047907624,1.1315007,1.131501,3.2239614e-06,8.113614e-07,0,1,0,1
29004000,28890000,28924000,0,0.011119493,0.022580516,1.0,1.0,0.0016677408,0.0025393572,1.1304936,1.1304941,9.84122e-08,2.2815988e-07,0,1,0,1
29404000,29286000,29324000,0,0.022238987,0.022580516,1.0,1.0,-0.004546296,-0.002408892,1.1301017,1.1301024,7.3157327e-07,2.0538884e-07,0,1,0,1
29812000,29690000,29732000,0,0.022238987,0.022580516,1.0,1.0,-0.006530905,-0.0032527465,1.1302184,1.1302193,1.5095392e-06,3.7445335e-07,0,1,0,1
30212000,30090000,30132000,0,0.022238987,0.022580516,1.0,1.0,-0.0075854175,-0.00444619,1.1297723,1.1297735,2.0371735e-06,6.9991387e-07,0,1,0,1
30612000,30490000,30532000,0,0.03335848,0.030107355,1.0,1.0,-0.018647363,-0.0019981116,1.1293632,1.1293645,1.2315761e-05,1.4140518e-07,0,1,0,1
31012000,30890000,30932000,0,0.03335848,0.037634194,1.0,1.0,-0.02160711,-0.011421274,1.128997,1.1289984,1.6540955e-05,4.6216364e-06,0,1,0,1
31412000,31290000,31332000,0,0.022238987,0.037634194,1.0,1.0,-0.008873718,-0.0055033006,1.128678,1.1286794,2.7906228e-06,1.0733364e-06,0,1,0,1
31812000,31690000,31732000,0,0.022238987,0.04516103,1.0,1.0,-0.012380397,-0.01509819,1.1284103,1.1284119,5.43328e-06,8.080572e-06,0,1,0,1
32204000,32090000,32124000,0,0.011119493,0.04516103,1.0,1.0,-0.0070878267,-0.008736681,1.1277107,1.127712,1.7819211e-06,2.7074145e-06,0,1,0,1
32612000,32490000,32532000,0,3.5366154e-10,0.052687872,1.0,1.0,-0.0012065206,-0.014881898,1.1280994,1.1281009,5.1615732e-08,7.852875e-06,0,1,0,1
33012000,32890000,32932000,0,-0.011119492,0.06021471,1.0,1.0,0.010491154,-0.020276606,1.1279701,1.1279713,3.9030933e-06,1.4579831e-05,0,1,0,1
33412000,33290000,33332000,0,-0.011119492,0.06021471,1.0,1.0,-0.000831523,-0.018333405,1.1278844,1.1278853,2.4521324e-08,1.1920139e-05,0,1,0,1
33812000,33690000,33732000,0,-0.022238985,0.06021471,1.0,1.0,0.0013760161,-0.019245245,1.1278368,1.1278377,6.715227e-08,1.3135913e-05,0,1,0,1
34212000,34090000,34132000,0,-0.033358477,0.06021471,1.0,1.0,0.014605032,-0.023879763,1.1278249,1.1278255,7.565251e-06,2.0224514e-05,0,1,0,1
34604000,34490000,34524000,0,-0.04447797,0.06021471,1.0,1.0,0.022278804,-0.02036018,1.1273504,1.1273509,1.7611032e-05,1.4708353e-05,0,1,0,1
35012000,34890000,34932000,0,-0.05559746,0.06774155,1.0,1.0,0.032604873,-0.029709972,1.127952,1.1279523,3.7699396e-05,3.130212e-05,0,1,0,1
35412000,35290000,35332000,0,-0.066716954,0.06774155,1.0,1.0,0.04189381,-0.029812593,1.1279931,1.1279933,6.223766e-05,3.1517586e-05,0,1,0,1
35804000,35686000,35724000,0,-0.066716954,0.07526839,1.0,1.0,0.031519666,-0.03651532,1.1275506,1.1275506,3.5244164e-05,4.7301422e-05,0,1,0,1
36212000,36090000,36132000,0,-0.07783645,0.07526839,1.0,1.0,0.038740702,-0.02504529,1.128181,1.128181,5.321281e-05,2.2239927e-05,0,1,0,1
36612000,36490000,36532000,0,-0.07783645,0.07526839,1.0,1.0,0.036634304,-0.016384088,1.1282301,1.12823,4.7581503e-05,9.51715e-06,0,1,0,1
37004000,36890000,36924000,0,-0.07783645,0.07526839,1.0,1.0,0.03480614,-0.019409928,1.1277785,1.1277783,4.296827e-05,1.336239e-05,0,1,0,1
37404000,37290000,37324000,0,-0.07783645,0.082795225,1.0,1.0,0.033832792,-0.029070511,1.1278996,1.1278992,4.0594317e-05,2.9970573e-05,0,1,0,1
37812000,37690000,37732000,0,-0.066716954,0.082795225,1.0,1.0,0.022001006,-0.029974166,1.1285049,1.1285043,1.715701e-05,3.1845717e-05,0,1,0,1
38212000,38090000,38132000,0,-0.066716954,0.07526839,1.0,1.0,0.029342875,-0.022443414,1.1285157,1.1285151,3.0518113e-05,1.785379e-05,0,1,0,1
38612000,38490000,38532000,0,-0.04447797,0.06774155,1.0,1.0,0.011116456,-0.0156403,1.1284627,1.128462,4.380317e-06,8.670881e-06,0,1,0,1
39012000,38890000,38932000,0,-0.04447797,0.07526839,1.0,1.0,0.018871194,-0.023573246,1.1283257,1.128325,1.2624792e-05,1.9699926e-05,0,1,0,1
39412000,39290000,39332000,0,-0.04447797,0.07526839,1.0,1.0,0.017726164,-0.021502793,1.1283227,1.1283221,1.11392565e-05,1.6391423e-05,0,1,0,1
39812000,39690000,39732000,0,-0.033358477,0.082795225,1.0,1.0,0.004066037,-0.014391914,1.1282952,1.1282945,5.86111e-07,7.3430188e-06,0,1,0,1
40212000,40090000,40132000,0,-0.04447797,0.082795225,1.0,1.0,0.011434119,-0.008714393,1.1282737,1.128273,4.635013e-06,2.692279e-06,0,1,0,1
40612000,40490000,40532000,0,-0.04447797,0.082795225,1.0,1.0,0.007338453,-0.011091001,1.1282563,1.1282557,1.9092433e-06,4.361079e-06,0,1,0,1
41012000,40890000,40932000,0,-0.04447797,0.082795225,1.0,1.0,0.0069624633,-0.012770906,1.1282419,1.1282413,1.7186347e-06,5.782311e-06,0,1,0,1
41412000,41290000,41332000,0,-0.04447797,0.07526839,1.0,1.0,0.0030557886,-0.0058346316,1.1282268,1.128226,3.3106267e-07,1.206954e-06,0,1,0,1
41812000,41690000,41732000,0,-0.033358477,0.07526839,1.0,1.0,-0.008020282,-0.014024109,1.1282109,1.1282103,2.2805991e-06,6.973013e-06,0,1,0,1
42204000,42090000,42124000,0,-0.022238985,0.07526839,1.0,1.0,-0.0179298,-0.012768548,1.1277015,1.1277009,1.1402936e-05,5.782945e-06,0,1,0,1
42612000,42490000,42532000,0,-0.022238985,0.07526839,1.0,1.0,-0.020410657,-0.016511537,1.1282033,1.1282027,1.4770208e-05,9.666024e-06,0,1,0,1
43012000,42890000,42932000,0,-0.011119492,0.07526839,1.0,1.0,-0.02713805,-0.015189875,1.1284785,1.1284776,2.6105015e-05,8.178534e-06,0,1,0,1
43412000,43290000,43332000,0,3.5366154e-10,0.07526839,1.0,1.0,-0.031521957,-0.014634222,1.1293099,1.1293086,3.519437e-05,7.5855423e-06,0,1,0,1
43804000,43690000,43724000,0,0.011119493,0.07526839,1.0,1.0,-0.02402853,-0.013015304,1.1300011,1.1299996,2.0437867e-05,5.996396e-06,0,1,0,1
44212000,44090000,44132000,0,0.011119493,0.07526839,1.0,1.0,-0.017181285,-0.016720157,1.1321013,1.1320996,1.043004e-05,9.877705e-06,0,1,0,1
44604000,44490000,44524000,0,0.022238987,0.07526839,1.0,1.0,-0.019367937,-0.014003206,1.1324354,1.1324339,1.324992e-05,6.9263124e-06,0,1,0,1
45004000,44890000,44924000,0,0.022238987,0.07526839,1.0,1.0,-0.015173654,-0.013043597,1.1332467,1.1332452,8.126731e-06,6.0052466e-06,0,1,0,1
45412000,45290000,45332000,0,0.011119493,0.07526839,1.0,1.0,0.0034272168,-0.012848169,1.1344706,1.1344695,4.141426e-07,5.820357e-06,0,1,0,1
45812000,45690000,45732000,0,0.022238987,0.07526839,1.0,1.0,-0.0025735386,-0.012536056,1.1341484,1.1341475,2.3358852e-07,5.5425844e-06,0,1,0,1
46204000,46090000,46124000,0,0.011119493,0.06774155,1.0,1.0,0.01006871,0.0009315908,1.1333559,1.1333553,3.5780085e-06,3.062981e-08,0,1,0,1
46612000,46490000,46532000,0,0.011119493,0.07526839,1.0,1.0,0.010389491,-0.010990724,1.1340933,1.1340928,3.8071478e-06,4.260534e-06,0,1,0,1
47012000,46890000,46932000,0,0.011119493,0.07526839,1.0,1.0,0.010552376,-0.0012059882,1.1341422,1.1341417,3.92729e-06,5.1295448e-08,0,1,0,1
47404000,47290000,47324000,0,0.011119493,0.07526839,1.0,1.0,0.008859145,-0.0062156767,1.1335657,1.1335651,2.769472e-06,1.3632966e-06,0,1,0,1
47812000,47690000,47732000,0,0.011119493,0.06774155,1.0,1.0,0.01619611,0.0054958463,1.1343731,1.1343725,9.249654e-06,1.0650585e-06,0,1,0,1
48212000,48090000,48132000,0,0.011119493,0.07526839,1.0,1.0,0.013730061,-0.021324273,1.1343412,1.1343406,6.6475436e-06,1.6034852e-05,0,1,0,1
48604000,48486000,48524000,0,0.011119493,0.07526839,1.0,1.0,0.024268799,-0.019236028,1.1336238,1.1336234,2.078201e-05,1.3056358e-05,0,1,0,1
49012000,48890000,48932000,0,0.011119493,0.07526839,1.0,1.0,0.024829134,-0.031271677,1.1342412,1.1342405,2.1740909e-05,3.448714e-05,0,1,0,1
49412000,49290000,49332000,0,0.011119493,0.07526839,1.0,1.0,0.025207922,-0.02771378,1.1340455,1.1340449,2.2413185e-05,2.7090766e-05,0,1,0,1
49812000,49690000,49732000,0,0.011119493,0.07526839,1.0,1.0,0.020354185,-0.025319945,1.1338152,1.1338146,1.4615887e-05,2.2617443e-05,0,1,0,1
50212000,50090000,50132000,0,0.011119493,0.07526839,1.0,1.0,0.015741277,-0.02257581,1.1335547,1.133554,8.743745e-06,1.7984752e-05,0,1,0,1
50604000,50490000,50524000,0,0.011119493,0.07526839,1.0,1.0,0.00820542,-0.016370133,1.1326842,1.1326835,2.3776768e-06,9.463587e-06,0,1,0,1
51004000,50890000,50924000,0,0.011119493,0.07526839,1.0,1.0,0.005954406,-0.015837085,1.1324806,1.1324798,1.2522935e-06,8.858904e-06,0,1,0,1
51412000,51286000,51332000,0,0.022238987,0.07526839,1.0,1.0,-0.0073600775,-0.022938464,1.1328033,1.1328025,1.912803e-06,1.8579518e-05,0,1,0,1
51812000,51690000,51732000,0,0.011119493,0.07526839,1.0,1.0,-0.00038972683,-0.02077913,1.1324303,1.1324295,5.3649925e-09,1.5251182e-05,0,1,0,1
52212000,52090000,52132000,0,0.011119493,0.07526839,1.0,1.0,0.0021012193,-0.019561686,1.1320498,1.132049,1.5600453e-07,1.3520954e-05,0,1,0,1
52612000,52490000,52532000,0,0.011119493,0.07526839,1.0,1.0,0.0006979797,-0.018317148,1.1316656,1.131665,1.7219776e-08,1.1859267e-05,0,1,0,1
53004000,52890000,52924000,0,0.011119493,0.07526839,1.0,1.0,-0.0006543007,-0.021003965,1.1307538,1.130753,1.5144211e-08,1.5606116e-05,0,1,0,1
