timestamp,timestamp_sample,gyro_device_id,gyro_bias[0],gyro_bias[1],gyro_bias[2],gyro_bias_limit,gyro_bias_variance[0],gyro_bias_variance[1],gyro_bias_variance[2],accel_device_id,accel_bias[0],accel_bias[1],accel_bias[2],accel_bias_limit,accel_bias_variance[0],accel_bias_variance[1],accel_bias_variance[2],mag_device_id,mag_bias[0],mag_bias[1],mag_bias[2],mag_bias_limit,mag_bias_variance[0],mag_bias_variance[1],mag_bias_variance[2],gyro_bias_valid,gyro_bias_stable,accel_bias_valid,accel_bias_stable,mag_bias_valid,mag_bias_stable
3076000,3076000,1310988,0.0,0.0,0.0,0.15,0.009960121,0.009960121,0.009960038,1310988,0.0,0.0,0.0,0.4,0.039840482,0.039840482,0.039840482,0,0.0,0.0,0.0,0.0,0.0,0.0,0.0,1,0,1,0,0,0
3396000,3316000,1310988,-0.000108386426,-0.00030404964,2.5236225e-06,0.15,0.010059569,0.01006289,0.0036951834,1310988,-0.0015844965,0.0017625481,-0.101770096,0.4,0.040699814,0.04070274,0.0044988366,0,0.0,0.0,0.0,0.0,0.0,0.0,0.0,1,0,1,0,0,0
3444000,3364000,1310988,-0.00010946255,-0.00030709876,3.0555952e-06,0.15,0.010262286,0.010265688,0.003738524,1310988,-0.0016003832,0.0017802225,-0.10279047,0.4,0.041520044,0.041523036,0.004589508,0,0.0,0.0,0.0,0.0,0.0,0.0,0.0,1,0,1,0,0,0
3500000,3420000,1310988,-0.000110675355,-0.00031050132,3.0894503e-06,0.15,0.010490951,0.010494429,0.003821826,1310988,-0.0016181149,0.0017999468,-0.10392935,0.4,0.042445198,0.042448252,0.004691777,0,0.0,0.0,0.0,0.0,0.0,0.0,0.0,1,0,1,0,0,0
3556000,3476000,1310988,-0.0001118302,-0.00031374124,3.1216873e-06,0.15,0.010711031,0.010714582,0.0039020013,1310988,-0.0016349992,0.0018187284,-0.10501381,0.4,0.043335624,0.043338742,0.0047902064,0,0.0,0.0,0.0,0.0,0.0,0.0,0.0,1,0,1,0,0,0
3604000,3524000,1310988,-6.679576e-05,-0.00063405087,-6.5426455e-08,0.15,0.009763189,0.009766661,0.0039676134,1310988,-0.0016784861,0.0018336643,-0.10603973,0.4,0.04406318,0.044066343,0.004837848,0,0.0,0.0,0.0,0.0,0.0,0.0,0.0,1,0,1,0,0,0
3668000,3588000,1310988,-6.746482e-05,-0.00064078404,1.7831386e-06,0.15,0.009971406,0.009975054,0.003828468,1310988,-0.0016962977,0.0018531276,-0.10716505,0.4,0.04500338,0.04500661,0.004941081,0,0.0,0.0,0.0,0.0,0.0,0.0,0.0,1,0,1,0,0,0
3732000,3652000,1310988,-6.8131994e-05,-0.00064712093,1.8007726e-06,0.15,0.010169602,0.010173323,0.0039045645,1310988,-0.0017130729,0.0018714537,-0.10822485,0.4,0.045897886,0.045901183,0.005039298,0,0.0,0.0,0.0,0.0,0.0,0.0,0.0,1,0,1,0,0,0
3780000,3700000,1310988,-0.0001707219,-0.0024050348,-7.3496294e-06,0.15,0.0037058669,0.0037076387,0.0039556543,1310988,-0.001892233,0.0018942503,-0.10897516,0.4,0.046478927,0.046482217,0.0051096636,0,0.0,0.0,0.0,0.0,0.0,0.0,0.0,1,0,1,0,0,0
3820000,3740000,1310988,-0.00019184889,-0.0025715905,-7.952672e-06,0.15,0.003356748,0.003358362,0.0039992314,1310988,-0.0019336005,0.001917482,-0.11003073,0.4,0.046986897,0.046990238,0.0050296537,0,0.0,0.0,0.0,0.0,0.0,0.0,0.0,1,0,1,0,0,0
3892000,3812000,1310988,-0.00019367607,-0.0025956044,-9.629276e-06,0.15,0.0034195601,0.0034213345,0.0035572175,1310988,-0.0019516727,0.0019354005,-0.11105918,0.4,0.047869377,0.047872778,0.0051241238,0,0.0,0.0,0.0,0.0,0.0,0.0,0.0,1,0,1,0,0,0
3972000,3892000,1310988,-0.00019552193,-0.0026203422,-9.7210495e-06,0.15,0.003485053,0.0034868615,0.0036253468,1310988,-0.0019702734,0.0019538463,-0.112117656,0.4,0.04878619,0.048789654,0.0052222693,0,0.0,0.0,0.0,0.0,0.0,0.0,0.0,1,0,1,0,0,0
4020000,3940000,1310988,-0.0004725088,-0.0036531272,-9.414673e-06,0.15,0.001103744,0.0011042511,0.0036626942,1310988,-0.0021413448,0.0020217125,-0.11355866,0.4,0.049262077,0.049265604,0.0049879835,0,0.0,0.0,0.0,0.0,0.0,0.0,0.0,1,0,1,0,0,0
4108000,4028000,1310988,-0.0004768058,-0.0036860087,-1.1386876e-05,0.15,0.0011234032,0.0011240093,0.003001298,1310988,-0.0021606362,0.0020399238,-0.11458183,0.4,0.0501538,0.050157387,0.005078281,0,0.0,0.0,0.0,0.0,0.0,0.0,0.0,1,0,1,0,0,0
4204000,4124000,1310988,-0.00068211154,-0.0041454677,-8.881737e-06,0.15,0.0005727235,0.0005729516,0.003054284,1310988,-0.0022761927,0.00210342,-0.11559131,0.4,0.05101472,0.051018383,0.005168371,0,0.0,0.0,0.0,0.0,0.0,0.0,0.0,1,0,1,0,0,0
4228000,4148000,1310988,-0.0006937345,-0.004186462,-8.829872e-06,0.15,0.0005490622,0.00054927234,0.0030668136,1310988,-0.002324878,0.0021384053,-0.11703321,0.4,0.051219646,0.051223394,0.004740879,0,0.0,0.0,0.0,0.0,0.0,0.0,0.0,1,0,1,0,0,0
4340000,4260000,1310988,-0.00070014247,-0.0042233886,-2.0915608e-05,0.15,0.0005585203,0.0005588035,0.0023693854,1310988,-0.002345492,0.0021573582,-0.11807175,0.4,0.052132733,0.052136544,0.0048254025,0,0.0,0.0,0.0,0.0,0.0,0.0,0.0,1,0,1,0,0,0
4436000,4356000,1310988,-0.00082031323,-0.0045882543,-1.9647356e-05,0.15,0.0003067362,0.0003068268,0.0024011985,1310988,-0.0025267503,0.002247887,-0.12024789,0.4,0.05279669,0.052800667,0.004327419,0,0.0,0.0,0.0,0.0,0.0,0.0,0.0,1,0,1,0,0,0
4580000,4500000,1310988,-0.00082759734,-0.0046283,-2.4919758e-05,0.15,0.00031184606,0.00031198794,0.001802269,1310988,-0.002548847,0.0022675465,-0.12129996,0.4,0.053724606,0.05372865,0.0044034855,0,0.0,0.0,0.0,0.0,0.0,0.0,0.0,1,0,1,0,0,0
4644000,4564000,1310988,-0.0010244327,-0.004931142,-2.0950827e-05,0.15,0.00017498477,0.00017500609,0.0018145513,1310988,-0.0027451369,0.0024087497,-0.12309646,0.4,0.05405309,0.05405735,0.003826641,0,0.0,0.0,0.0,0.0,0.0,0.0,0.0,1,0,1,0,0,0
4820000,4740000,1310988,-0.0013184948,-0.0051352987,5.1347665e-06,0.15,0.00010551749,0.00010549632,0.0013530141,1310988,-0.0028750182,0.0026154977,-0.12409581,0.4,0.05490898,0.05491336,0.0038894054,0,0.0,0.0,0.0,0.0,0.0,0.0,0.0,1,0,1,0,0,0
4852000,4772000,1310988,-0.0013475838,-0.0051446655,5.9668955e-06,0.15,0.00010256908,0.000102542566,0.0013565385,1310988,-0.0029130413,0.0026621157,-0.12548678,0.4,0.05504961,0.055054232,0.003312235,0,0.0,0.0,0.0,0.0,0.0,0.0,0.0,1,0,1,0,0,0
5060000,4980000,1310988,-0.0016089024,-0.005236026,5.121208e-05,0.15,6.306339e-05,6.3015636e-05,0.0010182643,1310988,-0.0030048857,0.002895587,-0.12747669,0.4,0.055837154,0.055842105,0.0028336968,0,0.0,0.0,0.0,0.0,0.0,0.0,0.0,1,0,1,0,0,0
5268000,5188000,1310988,-0.0017498463,-0.005344844,6.9418995e-05,0.15,4.0987037e-05,4.0941508e-05,0.000773201,1310988,-0.00311905,0.003044915,-0.1292096,0.4,0.056456253,0.056461465,0.0024144945,0,0.0,0.0,0.0,0.0,0.0,0.0,0.0,1,0,1,0,0,0
5476000,5396000,1310988,-0.0017512625,-0.0054225493,6.3317995e-05,0.15,2.8076616e-05,2.8041164e-05,0.0005957292,1310988,-0.0032070489,0.0030625828,-0.13055208,0.4,0.056940705,0.0569461,0.002059898,0,0.0,0.0,0.0,0.0,0.0,0.0,0.0,1,0,1,0,0,0
5684000,5604000,1310988,-0.0016826526,-0.0054750093,6.47283e-05,0.15,2.0118296e-05,2.009284e-05,0.00046606318,1310988,-0.0032735718,0.0029959402,-0.13174424,0.4,0.057317957,0.057323463,0.0017657491,0,0.0,0.0,0.0,0.0,0.0,0.0,0.0,1,0,1,0,0,0
5908000,5828000,1310988,-0.0016384484,-0.005518909,7.5774995e-05,0.15,1.4933854e-05,1.4921198e-05,0.00029691853,1310988,-0.0033318303,0.0029476392,-0.13274628,0.4,0.05763101,0.057636615,0.001524208,0,0.0,0.0,0.0,0.0,0.0,0.0,0.0,1,0,1,0,0,0
6260000,6180000,1310988,-0.0016294438,-0.005561809,7.790533e-05,0.15,1.1475936e-05,1.1465471e-05,0.00024294428,1310988,-0.0033895387,0.0029413626,-0.13374773,0.4,0.057980742,0.05798643,0.0013278511,0,0.0,0.0,0.0,0.0,0.0,0.0,0.0,1,0,1,0,0,0
6516000,6436000,1310988,-0.0016269251,-0.0055451435,7.7127224e-05,0.15,7.248599e-06,7.236735e-06,0.00020065853,1310988,-0.003370006,0.002940135,-0.13476779,0.4,0.058148045,0.058153864,0.0010271663,0,0.0,0.0,0.0,0.0,0.0,0.0,0.0,1,0,1,0,0,0
7348000,7268000,1310988,-0.0014564218,-0.005422081,8.729369e-05,0.15,3.5454386e-06,3.5395026e-06,0.00010278224,1310988,-0.0031763255,0.0026848996,-0.13574263,0.4,0.05844504,0.058450963,0.0007790319,0,0.0,0.0,0.0,0.0,0.0,0.0,0.0,1,0,1,0,0,0
8348000,8268000,1310988,-0.0012820718,-0.0054464797,4.392257e-05,0.15,2.0691282e-06,2.0675038e-06,5.2559288e-05,1310988,-0.0032279664,0.0023920643,-0.13587293,0.4,0.058559686,0.058565557,0.00078062265,0,0.0,0.0,0.0,0.0,0.0,0.0,0.0,1,0,1,0,0,0
9348000,9268000,1310988,-0.0012213575,-0.0054412778,-9.572554e-06,0.15,1.24255e-06,1.2413693e-06,3.0478437e-05,1310988,-0.0032538343,0.0022225988,-0.13584132,0.4,0.058586624,0.058592435,0.0007810743,0,0.0,0.0,0.0,0.0,0.0,0.0,0.0,1,0,1,0,0,0
10348000,10268000,1310988,-0.0011520751,-0.005518654,-4.0103194e-05,0.15,8.431765e-07,8.4262035e-07,1.93006e-05,1310988,-0.0035406677,0.0020980225,-0.13538456,0.4,0.05859253,0.05859871,0.0007812036,0,0.0,0.0,0.0,0.0,0.0,0.0,0.0,1,0,1,0,0,0
11300000,11220000,1310988,-0.0011870539,-0.005503538,-6.367437e-05,0.15,6.2335056e-07,6.2250484e-07,1.4043557e-05,1310988,-0.003596479,0.0022507298,-0.13417363,0.4,0.058593065,0.05859939,0.0007812381,0,0.0,0.0,0.0,0.0,0.0,0.0,0.0,1,0,1,0,0,0
11924000,11844000,1310988,-0.001224568,-0.0054775653,-7.7810706e-05,0.15,5.363085e-07,5.3543226e-07,1.1312094e-05,1310988,-0.0036681662,0.0024084663,-0.13284335,0.4,0.058593046,0.05859881,0.00078124576,0,0.0,0.0,0.0,0.0,0.0,0.0,0.0,1,0,1,0,0,0
12548000,12468000,1310988,-0.0012364654,-0.0054466655,-9.0611684e-05,0.15,4.6989328e-07,4.6913982e-07,9.260503e-06,1310988,-0.003644828,0.0025763416,-0.13164252,0.4,0.058591418,0.05859655,0.00078124576,0,0.0,0.0,0.0,0.0,0.0,0.0,0.0,1,0,1,0,0,0
13172000,13092000,1310988,-0.0012124764,-0.0054429704,-0.00010035575,0.15,4.1808278e-07,4.1761749e-07,7.688794e-06,1310988,-0.003717253,0.0025455984,-0.13042542,0.4,0.058588836,0.058593757,0.00078124576,0,0.0,0.0,0.0,0.0,0.0,0.0,0.0,1,0,1,0,0,0
13796000,13716000,1310988,-0.0011855023,-0.005454832,-0.00010879839,0.15,3.7695034e-07,3.7674127e-07,6.4636993e-06,1310988,-0.0038877581,0.002448461,-0.12933987,0.4,0.05858589,0.05859098,0.00078124576,0,0.0,0.0,0.0,0.0,0.0,0.0,0.0,1,0,1,0,0,0
14628000,14548000,1310988,-0.0011863777,-0.0054710438,-0.00011706758,0.15,3.341592e-07,3.3411277e-07,5.2162213e-06,1310988,-0.004143259,0.0025452008,-0.12814718,0.4,0.058581308,0.058586728,0.00078124576,0,0.0,0.0,0.0,0.0,0.0,0.0,0.0,1,0,1,0,0,0
15628000,15548000,1310988,-0.0011898339,-0.005484495,-0.00012360643,0.15,3.1165007e-07,3.1170575e-07,4.2830425e-06,1310988,-0.004353568,0.0026178595,-0.1274124,0.4,0.058577303,0.058583446,0.0007812486,0,0.0,0.0,0.0,0.0,0.0,0.0,0.0,1,0,1,0,0,0
16628000,16548000,1310988,-0.001189855,-0.0054845186,-0.00012360842,0.15,3.1964663e-07,3.1970225e-07,4.2910424e-06,1310988,-0.004353568,0.0026178595,-0.12727234,0.4,0.058577303,0.058583446,0.0007812469,0,0.0,0.0,0.0,0.0,0.0,0.0,0.0,1,0,1,0,0,0
17628000,17548000,1310988,-0.001189927,-0.0054845884,-0.00012362046,0.15,3.2760687e-07,3.2766255e-07,4.299042e-06,1310988,-0.004353568,0.0026178595,-0.12688117,0.4,0.058577303,0.058583446,0.0007812469,0,0.0,0.0,0.0,0.0,0.0,0.0,0.0,1,0,1,0,0,0
18628000,18548000,1310988,-0.0011900677,-0.0054846876,-0.00012364888,0.15,3.3540869e-07,3.354652e-07,4.307038e-06,1310988,-0.004353568,0.0026178595,-0.12625508,0.4,0.058577303,0.058583446,0.0007812475,0,0.0,0.0,0.0,0.0,0.0,0.0,0.0,1,0,1,0,0,0
19628000,19548000,1310988,-0.0011896514,-0.0054842834,-0.00012358352,0.15,3.4282874e-07,3.4288743e-07,4.3150244e-06,1310988,-0.004353568,0.0026178595,-0.12554301,0.4,0.058577303,0.058583446,0.0007812481,0,0.0,0.0,0.0,0.0,0.0,0.0,0.0,1,0,1,0,0,0
20604000,20524000,1310988,-0.0011892184,-0.0054837083,-0.00012352715,0.15,3.4982193e-07,3.4988344e-07,4.3228174e-06,1310988,-0.004353568,0.0026178595,-0.12426137,0.4,0.058577303,0.058583446,0.00078124576,0,0.0,0.0,0.0,0.0,0.0,0.0,0.0,1,0,1,0,0,0
21452000,21372000,1310988,-0.0011894135,-0.005483491,-0.0001235685,0.15,3.556185e-07,3.5568212e-07,4.329588e-06,1310988,-0.004353568,0.0026178595,-0.12321988,0.4,0.058577303,0.058583446,0.00078124576,0,0.0,0.0,0.0,0.0,0.0,0.0,0.0,1,0,1,0,0,0
22212000,22132000,1310988,-0.0011901954,-0.0054837316,-0.00012371199,0.15,3.6073098e-07,3.6079547e-07,4.335651e-06,1310988,-0.004353568,0.0026178595,-0.122067764,0.4,0.058577303,0.058583446,0.00078124576,0,0.0,0.0,0.0,0.0,0.0,0.0,0.0,1,0,1,0,0,0
23012000,22932000,1310988,-0.0011911348,-0.0054840944,-0.0001238802,0.15,3.6627213e-07,3.6633634e-07,4.3420328e-06,1310988,-0.004353568,0.0026178595,-0.120803654,0.4,0.058577303,0.058583446,0.00078124576,0,0.0,0.0,0.0,0.0,0.0,0.0,0.0,1,0,1,0,0,0
23812000,23732000,1310988,-0.0011920065,-0.0054843314,-0.00012402072,0.15,3.7190247e-07,3.7196523e-07,4.348418e-06,1310988,-0.004353568,0.0026178595,-0.11962854,0.4,0.058577303,0.058583446,0.00078124576,0,0.0,0.0,0.0,0.0,0.0,0.0,0.0,1,0,1,0,0,0
24604000,24524000,1310988,-0.0011927051,-0.005484328,-0.00012412091,0.15,3.7749635e-07,3.775565e-07,4.3547457e-06,1310988,-0.004353568,0.0026178595,-0.11844056,0.4,0.058577303,0.058583446,0.00078124576,0,0.0,0.0,0.0,0.0,0.0,0.0,0.0,1,0,1,0,0,0
25412000,25332000,1310988,-0.0011932758,-0.005484157,-0.00012419268,0.15,3.8317185e-07,3.8322878e-07,4.3612054e-06,1310988,-0.004353568,0.0026178595,-0.11717834,0.4,0.058577303,0.058583446,0.00078124576,0,0.0,0.0,0.0,0.0,0.0,0.0,0.0,1,0,1,0,0,0
26204000,26124000,1310988,-0.0011936371,-0.005483952,-0.00012424502,0.15,3.8883604e-07,3.8889036e-07,4.367539e-06,1310988,-0.004353568,0.0026178595,-0.115796715,0.4,0.058577303,0.058583446,0.00078124576,0,0.0,0.0,0.0,0.0,0.0,0.0,0.0,1,0,1,0,0,0
26900000,26820000,1310988,-0.0011943749,-0.00548399,-0.00012430376,0.15,3.9332718e-07,3.9337908e-07,4.373104e-06,1310988,-0.004353568,0.0026178595,-0.11478123,0.4,0.058577303,0.058583446,0.00078124576,0,0.0,0.0,0.0,0.0,0.0,0.0,0.0,1,0,1,0,0,0
27404000,27324000,1310988,-0.0011946558,-0.005483892,-0.00012434306,0.15,3.9670996e-07,3.9676027e-07,4.3771342e-06,1310988,-0.004353568,0.0026178595,-0.11335557,0.4,0.058577303,0.058583446,0.00078124576,0,0.0,0.0,0.0,0.0,0.0,0.0,0.0,1,0,1,0,0,0
28204000,28124000,1310988,-0.0011955651,-0.005484017,-0.00012440688,0.15,4.0150996e-07,4.0155788e-07,4.3835303e-06,1310988,-0.004353568,0.0026178595,-0.11162919,0.4,0.058577303,0.058583446,0.00078124576,0,0.0,0.0,0.0,0.0,0.0,0.0,0.0,1,0,1,0,0,0
28612000,28532000,1310988,-0.001196084,-0.0054840595,-0.00012443688,0.15,4.037831e-07,4.0382946e-07,4.386793e-06,1310988,-0.004353568,0.0026178595,-0.1106002,0.4,0.058577303,0.058583446,0.00078124576,0,0.0,0.0,0.0,0.0,0.0,0.0,0.0,1,0,1,0,0,0
29004000,28924000,1310988,-0.0011966552,-0.0054840697,-0.00012446335,0.15,4.05771e-07,4.0581557e-07,4.389928e-06,1310988,-0.004353568,0.0026178595,-0.109522544,0.4,0.058577303,0.058583446,0.00078124576,0,0.0,0.0,0.0,0.0,0.0,0.0,0.0,1,0,1,0,0,0
29404000,29324000,1310988,-0.0011972733,-0.0054840357,-0.00012448605,0.15,4.076406e-07,4.0768305e-07,4.3931273e-06,1310988,-0.004353568,0.0026178595,-0.10837781,0.4,0.058577303,0.058583446,0.00078124576,0,0.0,0.0,0.0,0.0,0.0,0.0,0.0,1,0,1,0,0,0
29812000,29732000,1310988,-0.0011979453,-0.0054839826,-0.00012450446,0.15,4.093645e-07,4.094047e-07,4.3963905e-06,1310988,-0.004353568,0.0026178595,-0.10730097,0.4,0.058577303,0.058583446,0.00078124576,0,0.0,0.0,0.0,0.0,0.0,0.0,0.0,1,0,1,0,0,0
30212000,30132000,1310988,-0.0011986432,-0.0054838792,-0.00012451946,0.15,4.1078513e-07,4.1082293e-07,4.3995906e-06,1310988,-0.004353568,0.0026178595,-0.106100366,0.4,0.058577303,0.058583446,0.00078124576,0,0.0,0.0,0.0,0.0,0.0,0.0,0.0,1,0,1,0,0,0
30612000,30532000,1310988,-0.0011993828,-0.005483741,-0.00012453072,0.15,4.1193522e-07,4.119706e-07,4.4027906e-06,1310988,-0.004353568,0.0026178595,-0.104892805,0.4,0.058577303,0.058583446,0.00078124576,0,0.0,0.0,0.0,0.0,0.0,0.0,0.0,1,0,1,0,0,0
31012000,30932000,1310988,-0.0011997173,-0.005483573,-0.00012453621,0.15,4.1399872e-07,4.1403254e-07,4.4059902e-06,1310988,-0.004353568,0.0026178595,-0.10357127,0.4,0.058577303,0.058583446,0.00078124576,0,0.0,0.0,0.0,0.0,0.0,0.0,0.0,1,0,1,0,0,0
31412000,31332000,1310988,-0.00120053,-0.00548336,-0.00012454059,0.15,4.1468218e-07,4.1471304e-07,4.4091903e-06,1310988,-0.004353568,0.0026178595,-0.10236029,0.4,0.058577303,0.058583446,0.00078124576,0,0.0,0.0,0.0,0.0,0.0,0.0,0.0,1,0,1,0,0,0
31812000,31732000,1310988,-0.0012013906,-0.0054830597,-0.00012453954,0.15,4.1501292e-07,4.150405e-07,4.41239e-06,1310988,-0.004353568,0.0026178595,-0.101129785,0.4,0.058577303,0.058583446,0.00078124576,0,0.0,0.0,0.0,0.0,0.0,0.0,0.0,1,0,1,0,0,0
32204000,32124000,1310988,-0.0012022976,-0.005482632,-0.00012453232,0.15,4.1489406e-07,4.149179e-07,4.415525e-06,1310988,-0.004353568,0.0026178595,-0.09973485,0.4,0.058577303,0.058583446,0.00078124576,0,0.0,0.0,0.0,0.0,0.0,0.0,0.0,1,0,1,0,0,0
32612000,32532000,1310988,-0.0012032725,-0.005482072,-0.00012451794,0.15,4.1448624e-07,4.1450573e-07,4.4187886e-06,1310988,-0.004353568,0.0026178595,-0.098393545,0.4,0.058577303,0.058583446,0.00078124576,0,0.0,0.0,0.0,0.0,0.0,0.0,0.0,1,0,1,0,0,0
33012000,32932000,1310988,-0.0012043391,-0.0054813386,-0.00012449549,0.15,4.1356867e-07,4.135831e-07,4.421987e-06,1310988,-0.004353568,0.0026178595,-0.09705884,0.4,0.058577303,0.058583446,0.00078124576,0,0.0,0.0,0.0,0.0,0.0,0.0,0.0,1,0,1,0,0,0
33412000,33332000,1310988,-0.0012055169,-0.005480393,-0.00012446402,0.15,4.121802e-07,4.1218857e-07,4.425185e-06,1310988,-0.004353568,0.0026178595,-0.095712535,0.4,0.058577303,0.058583446,0.00078124576,0,0.0,0.0,0.0,0.0,0.0,0.0,0.0,1,0,1,0,0,0
33804000,33724000,1310988,-0.0012068257,-0.0054792007,-0.0001244225,0.15,4.1023696e-07,4.1023796e-07,4.428319e-06,1310988,-0.004353568,0.0026178595,-0.09448115,0.4,0.058577303,0.058583446,0.00078124576,0,0.0,0.0,0.0,0.0,0.0,0.0,0.0,1,0,1,0,0,0
34212000,34132000,1310988,-0.0012083077,-0.0054777106,-0.00012437005,0.15,4.0791681e-07,4.0790886e-07,4.431579e-06,1310988,-0.004353568,0.0026178595,-0.093132876,0.4,0.058577303,0.058583446,0.00078124576,0,0.0,0.0,0.0,0.0,0.0,0.0,0.0,1,0,1,0,0,0
34604000,34524000,1310988,-0.0012099997,-0.005475906,-0.00012430687,0.15,4.0495655e-07,4.0493762e-07,4.4347094e-06,1310988,-0.004353568,0.0026178595,-0.09181107,0.4,0.058577303,0.058583446,0.00078124576,0,0.0,0.0,0.0,0.0,0.0,0.0,0.0,1,0,1,0,0,0
35012000,34932000,1310988,-0.0012119141,-0.005473769,-0.00012423313,0.15,4.016133e-07,4.0158133e-07,4.4379667e-06,1310988,-0.004353568,0.0026178595,-0.09059559,0.4,0.058577303,0.058583446,0.00078124576,0,0.0,0.0,0.0,0.0,0.0,0.0,0.0,1,0,1,0,0,0
35412000,35332000,1310988,-0.0012140634,-0.0054712566,-0.00012414812,0.15,3.9770518e-07,3.9765786e-07,4.441158e-06,1310988,-0.004353568,0.0026178595,-0.0893335,0.4,0.058577303,0.058583446,0.00078124576,0,0.0,0.0,0.0,0.0,0.0,0.0,0.0,1,0,1,0,0,0
35804000,35724000,1310988,-0.0012152703,-0.005469815,-0.00012409991,0.15,3.9710483e-07,3.97049e-07,4.4442886e-06,1310988,-0.004353568,0.0026178595,-0.088204384,0.4,0.058577303,0.058583446,0.00078124576,0,0.0,0.0,0.0,0.0,0.0,0.0,0.0,1,0,1,0,0,0
36212000,36132000,1310988,-0.0012177847,-0.005466716,-0.00012399866,0.15,3.925481e-07,3.9247325e-07,4.44754e-06,1310988,-0.004353568,0.0026178595,-0.0870139,0.4,0.058577303,0.058583446,0.00078124576,0,0.0,0.0,0.0,0.0,0.0,0.0,0.0,1,0,1,0,0,0
36604000,36524000,1310988,-0.0012205596,-0.005463213,-0.00012388766,0.15,3.8742735e-07,3.873307e-07,4.4506596e-06,1310988,-0.004353568,0.0026178595,-0.08600439,0.4,0.058577303,0.058583446,0.00078124576,0,0.0,0.0,0.0,0.0,0.0,0.0,0.0,1,0,1,0,0,0
37404000,37324000,1310988,-0.001226963,-0.005454771,-0.00012363191,0.15,3.7617954e-07,3.7602894e-07,4.457011e-06,1310988,-0.004353568,0.0026178595,-0.084208086,0.4,0.058577303,0.058583446,0.00078124576,0,0.0,0.0,0.0,0.0,0.0,0.0,0.0,1,0,1,0,0,0
38212000,38132000,1310988,-0.0012345513,-0.0054442803,-0.00012333195,0.15,3.638369e-07,3.636174e-07,4.4633975e-06,1310988,-0.004353568,0.0026178595,-0.0824847,0.4,0.058577303,0.058583446,0.00078124576,0,0.0,0.0,0.0,0.0,0.0,0.0,0.0,1,0,1,0,0,0
39004000,38924000,1310988,-0.001243147,-0.0054319184,-0.0001229969,0.15,3.5070735e-07,3.5040523e-07,4.4696226e-06,1310988,-0.004353568,0.0026178595,-0.08052604,0.4,0.058577303,0.058583446,0.00078124576,0,0.0,0.0,0.0,0.0,0.0,0.0,0.0,1,0,1,0,0,0
39644000,39564000,1310988,-0.0012497214,-0.005421863,-0.00012273299,0.15,3.4113506e-07,3.4076555e-07,4.4746425e-06,1310988,-0.004353568,0.0026178595,-0.07950095,0.4,0.058577303,0.058583446,0.00078124576,0,0.0,0.0,0.0,0.0,0.0,0.0,0.0,1,0,1,0,0,0
40124000,40044000,1310988,-0.0012541384,-0.0054148547,-0.00012255175,0.15,3.3523148e-07,3.3481567e-07,4.4784088e-06,1310988,-0.004353568,0.0026178595,-0.07842979,0.4,0.058577303,0.058583446,0.00078124576,0,0.0,0.0,0.0,0.0,0.0,0.0,0.0,1,0,1,0,0,0
40612000,40532000,1310988,-0.0012606912,-0.0054039434,-0.0001222715,0.15,3.2471277e-07,3.2422568e-07,4.4821927e-06,1310988,-0.004353568,0.0026178595,-0.076478586,0.4,0.058577303,0.058583446,0.00078124576,0,0.0,0.0,0.0,0.0,0.0,0.0,0.0,1,0,1,0,0,0
41012000,40932000,1310988,-0.0012649508,-0.0053964485,-0.00012208066,0.15,3.1848447e-07,3.1794855e-07,4.4853055e-06,1310988,-0.004353568,0.0026178595,-0.07541879,0.4,0.058577303,0.058583446,0.00078124576,0,0.0,0.0,0.0,0.0,0.0,0.0,0.0,1,0,1,0,0,0
41412000,41332000,1310988,-0.0012671093,-0.005392578,-0.00012198044,0.15,3.1703908e-07,3.164784e-07,4.4884596e-06,1310988,-0.004353568,0.0026178595,-0.074257076,0.4,0.058577303,0.058583446,0.00078124576,0,0.0,0.0,0.0,0.0,0.0,0.0,0.0,1,0,1,0,0,0
41812000,41732000,1310988,-0.0012712611,-0.0053848396,-0.000121783734,0.15,3.1110477e-07,3.104941e-07,4.4915623e-06,1310988,-0.004353568,0.0026178595,-0.07300817,0.4,0.058577303,0.058583446,0.00078124576,0,0.0,0.0,0.0,0.0,0.0,0.0,0.0,1,0,1,0,0,0
42204000,42124000,1310988,-0.0012753106,-0.005377024,-0.000121585974,0.15,3.053346e-07,3.046735e-07,4.4945978e-06,1310988,-0.004353568,0.0026178595,-0.071785755,0.4,0.058577303,0.058583446,0.00078124576,0,0.0,0.0,0.0,0.0,0.0,0.0,0.0,1,0,1,0,0,0
43204000,43124000,1310988,-0.0012851913,-0.005357184,-0.00012105567,0.15,2.9218663e-07,2.9140207e-07,4.502338e-06,1310988,-0.004353568,0.0026178595,-0.071717925,0.4,0.058577303,0.058583446,0.0007812815,0,0.0,0.0,0.0,0.0,0.0,0.0,0.0,1,0,1,0,0,0
43884000,43804000,1310988,-0.0012913817,-0.0053447234,-0.00012065189,0.15,2.8576162e-07,2.849059e-07,4.5076213e-06,1310988,-0.004353568,0.0026178595,-0.070693865,0.4,0.058577303,0.058583446,0.00078124576,0,0.0,0.0,0.0,0.0,0.0,0.0,0.0,1,0,1,0,0,0
44212000,44132000,1310988,-0.0012950723,-0.005336688,-0.00012037857,0.15,2.8083824e-07,2.7993684e-07,4.5101433e-06,1310988,-0.004353568,0.0026178595,-0.06927018,0.4,0.058577303,0.058583446,0.00078124576,0,0.0,0.0,0.0,0.0,0.0,0.0,0.0,1,0,1,0,0,0
44604000,44524000,1310988,-0.0012984218,-0.005328669,-0.000120070676,0.15,2.7671692e-07,2.757719e-07,4.513179e-06,1310988,-0.004353568,0.0026178595,-0.06684028,0.4,0.058577303,0.058583446,0.00078124576,0,0.0,0.0,0.0,0.0,0.0,0.0,0.0,1,0,1,0,0,0
45004000,44924000,1310988,-0.0013012645,-0.005320779,-0.0001197304,0.15,2.729429e-07,2.7195665e-07,4.51628e-06,1310988,-0.004353568,0.0026178595,-0.06340955,0.4,0.058577303,0.058583446,0.00078124576,0,0.0,0.0,0.0,0.0,0.0,0.0,0.0,1,0,1,0,0,0
46004000,45924000,1310988,-0.0013065279,-0.005302156,-0.0001188158,0.15,2.646402e-07,2.6356207e-07,4.5240463e-06,1310988,-0.004353568,0.0026178595,-0.062775575,0.4,0.058577303,0.058583446,0.0007812692,0,0.0,0.0,0.0,0.0,0.0,0.0,0.0,1,1,1,0,0,0
46764000,46684000,1310988,-0.0013091848,-0.0052907546,-0.00011811712,0.15,2.6163778e-07,2.6051063e-07,4.529996e-06,1310988,-0.004353568,0.0026178595,-0.06175182,0.4,0.058577303,0.058583446,0.00078124576,0,0.0,0.0,0.0,0.0,0.0,0.0,0.0,1,1,1,0,0,0
47012000,46932000,1310988,-0.0013100768,-0.0052867364,-0.000117847,0.15,2.6070265e-07,2.595599e-07,4.531939e-06,1310988,-0.004353568,0.0026178595,-0.06043014,0.4,0.058577303,0.058583446,0.00078124576,0,0.0,0.0,0.0,0.0,0.0,0.0,0.0,1,1,1,0,0,0
47404000,47324000,1310988,-0.0013116443,-0.005279889,-0.000117460826,0.15,2.5815416e-07,2.5698162e-07,4.534994e-06,1310988,-0.004353568,0.0026178595,-0.058255084,0.4,0.058577303,0.058583446,0.00078124576,0,0.0,0.0,0.0,0.0,0.0,0.0,0.0,1,1,1,0,0,0
47812000,47732000,1310988,-0.0013131759,-0.005273188,-0.000117086856,0.15,2.5592914e-07,2.547281e-07,4.5381807e-06,1310988,-0.004353568,0.0026178595,-0.055103898,0.4,0.058577303,0.058583446,0.00078124576,0,0.0,0.0,0.0,0.0,0.0,0.0,0.0,1,1,1,0,0,0
48204000,48124000,1310988,-0.0013146664,-0.005266661,-0.00011673186,0.15,2.5376002e-07,2.5253158e-07,4.541243e-06,1310988,-0.004353568,0.0026178595,-0.051042125,0.4,0.058577303,0.058583446,0.00078124576,0,0.0,0.0,0.0,0.0,0.0,0.0,0.0,1,1,1,0,0,0
48604000,48524000,1310988,-0.0013161108,-0.0052603357,-0.00011640191,0.15,2.5182737e-07,2.5057255e-07,4.544372e-06,1310988,-0.004353568,0.0026178595,-0.046264663,0.4,0.058577303,0.058583446,0.00078124576,0,0.0,0.0,0.0,0.0,0.0,0.0,0.0,1,1,1,0,0,0
49012000,48932000,1310988,-0.0013175334,-0.0052540996,-0.000116087176,0.15,2.5012002e-07,2.4883957e-07,4.5475676e-06,1310988,-0.004353568,0.0026178595,-0.040465478,0.4,0.058577303,0.058583446,0.00078124576,0,0.0,0.0,0.0,0.0,0.0,0.0,0.0,1,1,1,0,0,0
49404000,49324000,1310988,-0.0013188996,-0.0052480213,-0.00011579276,0.15,2.484349e-07,2.4712958e-07,4.5506376e-06,1310988,-0.004353568,0.0026178595,-0.034066264,0.4,0.058577303,0.058583446,0.00078124576,0,0.0,0.0,0.0,0.0,0.0,0.0,0.0,1,1,1,0,0,0
49804000,49724000,1310988,-0.0013201918,-0.0052421065,-0.00011551669,0.15,2.4695336e-07,2.45624e-07,4.5537727e-06,1310988,-0.004353568,0.0026178595,-0.027259259,0.4,0.058577303,0.058583446,0.00078124576,0,0.0,0.0,0.0,0.0,0.0,0.0,0.0,1,1,1,0,0,0
50212000,50132000,1310988,-0.0013213868,-0.005236313,-0.00011525071,0.15,2.4566506e-07,2.4431245e-07,4.5569736e-06,1310988,-0.004353568,0.0026178595,-0.019954842,0.4,0.058577303,0.058583446,0.00078124576,0,0.0,0.0,0.0,0.0,0.0,0.0,0.0,1,1,1,0,0,0
50276000,50196000,1310988,-0.0013284262,-0.0051534357,-0.00011312694,0.15,1.7928596e-07,1.7843749e-07,2.4715796e-06,1310988,-0.0045518256,0.002557032,-0.0031876664,0.4,0.058576707,0.05858285,0.00078124576,0,0.0,0.0,0.0,0.0,0.0,0.0,0.0,1,1,1,0,0,0
50484000,50404000,1310988,-0.0013264325,-0.005137243,-0.00011308661,0.15,1.709619e-07,1.7038944e-07,1.7276004e-06,1310988,-0.009291236,0.0024214464,0.0065597226,0.4,0.056498177,0.056504074,0.00078124576,0,0.0,0.0,0.0,0.0,0.0,0.0,0.0,1,1,1,0,0,0
50580000,50500000,1310988,-0.001325498,-0.0051268768,-0.000112784626,0.15,1.6467942e-07,1.6410088e-07,1.7283484e-06,1310988,-0.014308025,0.0028696803,0.0065529426,0.4,0.054844882,0.05485031,0.0007812476,0,0.0,0.0,0.0,0.0,0.0,0.0,0.0,1,1,1,0,0,0
50604000,50524000,1310988,-0.0013256138,-0.005126964,-0.00011277994,0.15,1.6487141e-07,1.6429289e-07,1.7285404e-06,1310988,-0.014343548,0.0029235284,0.008592579,0.4,0.054844886,0.054850314,0.00078124576,0,0.0,0.0,0.0,0.0,0.0,0.0,0.0,1,1,1,0,0,0
50692000,50612000,1310988,-0.0013254585,-0.0051266747,-0.00011325478,0.15,1.6519336e-07,1.6476126e-07,1.3459374e-06,1310988,-0.01433373,0.0031986195,0.013997243,0.4,0.051289897,0.05129537,0.00078124576,0,0.0,0.0,0.0,0.0,0.0,0.0,0.0,1,1,1,0,0,0
50788000,50708000,1310988,-0.0013247421,-0.0051252604,-0.00011316129,0.15,1.6516567e-07,1.6473561e-07,1.3467024e-06,1310988,-0.018837733,0.0054669958,0.013980258,0.4,0.043219503,0.043222483,0.00078124576,0,0.0,0.0,0.0,0.0,0.0,0.0,0.0,1,1,1,0,0,0
50900000,50820000,1310988,-0.0013247167,-0.0051251138,-0.00011348059,0.15,1.6589962e-07,1.6555741e-07,1.1139783e-06,1310988,-0.018341374,0.005408547,0.017847966,0.4,0.039210044,0.03921334,0.00078124576,0,0.0,0.0,0.0,0.0,0.0,0.0,0.0,1,1,1,0,0,0
50996000,50916000,1310988,-0.001324688,-0.0051250868,-0.00011342716,0.15,1.6666617e-07,1.6632406e-07,1.114743e-06,1310988,-0.02102893,0.008081455,0.017845994,0.4,0.025638297,0.025638448,0.00078124576,0,0.0,0.0,0.0,0.0,0.0,0.0,0.0,1,1,1,0,0,0
51108000,51028000,1310988,-0.0013247587,-0.005125004,-0.000113442475,0.15,1.6742214e-07,1.6713894e-07,9.582369e-07,1310988,-0.020440215,0.008253794,0.021209238,0.4,0.023462629,0.023463272,0.00078124576,0,0.0,0.0,0.0,0.0,0.0,0.0,0.0,1,1,1,0,0,0
51204000,51124000,1310988,-0.0013249398,-0.005124996,-0.000113398106,0.15,1.6809857e-07,1.6781436e-07,9.589997e-07,1310988,-0.020391293,0.0101940045,0.021183819,0.4,0.013362138,0.013361656,0.00078124576,0,0.0,0.0,0.0,0.0,0.0,0.0,0.0,1,1,1,0,0,0
51316000,51236000,1310988,-0.0013248292,-0.005124828,-0.000112831214,0.15,1.6889688e-07,1.6865533e-07,8.4656284e-07,1310988,-0.01983827,0.009874727,0.023043137,0.4,0.012595746,0.012595566,0.00078124576,0,0.0,0.0,0.0,0.0,0.0,0.0,0.0,1,1,1,0,0,0
51412000,51332000,1310988,-0.0013248968,-0.005124704,-0.00011281875,0.15,1.6955252e-07,1.6931014e-07,8.473246e-07,1310988,-0.018493447,0.00984756,0.023514414,0.4,0.007445176,0.0074449847,0.00078124576,0,0.0,0.0,0.0,0.0,0.0,0.0,0.0,1,1,1,0,0,0
51524000,51444000,1310988,-0.001324818,-0.0051245946,-0.0001124279,0.15,1.7038418e-07,1.7017418e-07,7.6265974e-07,1310988,-0.018200943,0.009672889,0.02462102,0.4,0.007191834,0.007191755,0.00078124576,0,0.0,0.0,0.0,0.0,0.0,0.0,0.0,1,1,1,0,0,0
51620000,51540000,1310988,-0.0013247167,-0.005124371,-0.00011241995,0.15,1.710885e-07,1.7087808e-07,7.634225e-07,1310988,-0.016843498,0.009069712,0.024605244,0.4,0.0047703744,0.004770462,0.00078124576,0,0.0,0.0,0.0,0.0,0.0,0.0,0.0,1,1,1,0,0,0
51812000,51732000,1310988,-0.0013247284,-0.0051243734,-0.000112088135,0.15,1.7257882e-07,1.7239377e-07,6.980257e-07,1310988,-0.016711317,0.009004751,0.02570186,0.4,0.004678347,0.004678458,0.00078124576,0,0.0,0.0,0.0,0.0,0.0,0.0,0.0,1,1,1,0,0,0
51828000,51748000,1310988,-0.001324668,-0.00512425,-0.000112078604,0.15,1.7268765e-07,1.7250245e-07,6.9815036e-07,1310988,-0.015750196,0.008537139,0.025698373,0.4,0.0034989205,0.00349915,0.00078124576,0,0.0,0.0,0.0,0.0,0.0,0.0,0.0,1,1,1,0,0,0
52828000,52748000,1310988,-0.0013243088,-0.0051242243,-0.00010958795,0.15,1.8034886e-07,1.8023637e-07,5.1228255e-07,1310988,-0.015619023,0.009369364,0.025662204,0.4,0.0021515961,0.002151815,0.0007812477,0,0.0,0.0,0.0,0.0,0.0,0.0,0.0,1,1,1,0,0,0
