timestamp,timestamp_sample,time_last_fuse,device_id,observation,observation_variance,innovation,innovation_variance,test_ratio,estimator_instance,fusion_enabled,innovation_rejected,fused
4124000,4043649,0,0,-0.0030212402,12.25,8.047558e-06,32.25041,8.032543e-14,0,0,0,0
4188000,4103680,0,0,0.030090332,12.25,-0.0337996,32.250603,1.4169199e-06,0,0,0,0
4244000,4163689,0,0,0.20880127,12.25,-0.21209706,28.917202,6.2226165e-05,0,0,0,0
4308000,4223725,0,0,-0.049743652,12.25,0.04574517,28.917439,2.8946142e-06,0,0,0,0
4364000,4279733,0,0,0.02178955,12.25,-0.026426505,28.917696,9.659971e-07,0,0,0,0
4412000,4330422,0,0,-0.03564453,12.25,0.031157313,26.53667,1.4633007e-06,0,0,0,0
4476000,4391770,0,0,0.06463623,12.25,-0.06915407,26.536854,7.2085186e-06,0,0,0,0
4532000,4451790,0,0,-0.010559082,12.25,0.0054016686,26.537186,4.3980585e-08,0,0,0,0
4596000,4511802,0,0,0.069488525,12.25,-0.075408705,26.537638,8.571182e-06,0,0,0,0
4652000,4571820,0,0,0.012268066,12.25,-0.01713884,24.751568,4.7470104e-07,0,0,0,0
4716000,4631830,0,0,-0.053497314,12.25,0.04794779,24.752031,3.7152354e-06,0,0,0,0
4772000,4691845,4692000,0,-0.03942871,12.25,0.033255175,24.752506,1.7871429e-06,0,0,0,0
4836000,4751854,4756000,0,0.09951782,12.25,-0.106407836,24.75314,1.8296876e-05,0,1,0,1
4892000,4809200,4812000,0,-0.055419922,12.25,0.10235347,18.437773,2.2727761e-05,0,1,0,1
4940000,4859871,4860000,0,-0.07421875,12.25,0.086337544,16.361328,1.8223878e-05,0,1,0,1
5004000,4918885,4924000,0,0.024383545,12.25,-0.034611974,15.328475,3.1261784e-06,0,1,0,1
5060000,4979889,4980000,0,-0.064819336,12.25,0.060950354,14.710455,1.0101511e-05,0,1,0,1
5124000,5038901,5044000,0,0.047851562,12.25,-0.062038247,14.299091,1.0766402e-05,0,1,0,1
5180000,5099904,5100000,0,0.17462158,12.25,-0.18045765,14.005699,9.300489e-05,0,1,0,1
5244000,5159915,5164000,0,-0.09298706,12.25,0.10914346,13.785935,3.4563618e-05,0,1,0,1
5300000,5219918,5220000,0,0.13238525,12.25,-0.12831438,13.614941,4.8372098e-05,0,1,0,1
5364000,5278927,5284000,0,-0.013183594,12.25,0.029612554,13.478438,2.6023886e-06,0,1,0,1
5420000,5335929,5340000,0,-0.11175537,12.25,0.12499345,13.36681,4.6752702e-05,0,1,0,1
5468000,5387936,5388000,0,-0.02255249,12.25,0.024924092,13.273813,1.8719877e-06,0,1,0,1
5532000,5447939,5452000,0,0.019683838,12.25,-0.01915081,13.19501,1.1117947e-06,0,1,0,1
5588000,5507945,5508000,0,0.0713501,12.25,-0.069929264,13.127697,1.4900107e-05,0,1,0,1
5652000,5567948,5572000,0,0.043151855,12.25,-0.037628192,13.069486,4.3333944e-06,0,1,0,1
5708000,5626618,5628000,0,0.00091552734,12.25,0.007265671,13.018184,1.6220382e-07,0,1,0,1
5772000,5687955,5692000,0,-0.11645508,12.25,0.12371181,12.973321,4.7187954e-05,0,1,0,1
5828000,5746625,5748000,0,-0.008483887,12.25,0.008370371,12.933444,2.1668818e-07,0,1,0,1
5892000,5807962,5812000,0,0.019683838,12.25,-0.02080567,12.897897,1.3424698e-06,0,1,0,1
5948000,5867965,5868000,0,-0.027252197,12.25,0.027568515,12.865379,2.3630023e-06,0,1,0,1
6012000,5927967,5932000,0,-0.0037841797,12.25,0.0022583986,12.836497,1.5893319e-08,0,1,0,1
6068000,5987970,5988000,0,0.0056152344,12.25,-0.007731386,12.810228,1.8664564e-07,0,1,0,1
6132000,6047972,6052000,0,-0.013183594,12.25,0.011820937,12.785791,4.3715573e-07,0,1,0,1
6188000,6107974,6108000,0,0.03378296,12.25,-0.036091685,12.763847,4.0821856e-06,0,1,0,1
6252000,6165976,6172000,0,-0.0178833,12.25,0.016541325,12.743792,8.588195e-07,0,1,0,1
6308000,6226644,6228000,0,0.038482666,12.25,-0.04089614,12.725255,5.2572436e-06,0,1,0,1
6372000,6287979,6292000,0,-0.0178833,12.25,0.017463941,12.707515,9.600279e-07,0,1,0,1
6428000,6347981,6348000,0,0.010314941,12.25,-0.011746093,12.691612,4.3484056e-07,0,1,0,1
6492000,6407982,6412000,0,-0.04135132,12.25,0.03990644,12.676947,5.0249446e-06,0,1,0,1
6548000,6466650,6468000,0,-0.013183594,12.25,0.010829738,12.662459,3.7049116e-07,0,1,0,1
6612000,6527985,6532000,0,-0.013183594,12.25,0.010147622,12.649692,3.2561815e-07,0,1,0,1
6668000,6587986,6588000,0,-0.013183594,12.25,0.009522579,12.637688,2.8701294e-07,0,1,0,1
6732000,6645987,6652000,0,-0.027252197,12.25,0.023759605,12.625745,1.788469e-06,0,1,0,1
6780000,6695988,6700000,0,-0.031951904,12.25,0.02750754,12.615068,2.3992409e-06,0,1,0,1
6836000,6755989,6756000,0,0.029083252,12.25,-0.0345595,12.605126,3.7900738e-06,0,1,0,1
6900000,6815990,6820000,0,0.0854187,12.25,-0.09014572,12.59588,2.580606e-05,0,1,0,1
6956000,6875991,6876000,0,-0.031951904,12.25,0.029923894,12.586197,2.8457825e-06,0,1,0,1
7020000,6935991,6940000,0,0.06665039,12.25,-0.06966917,12.577936,1.5435899e-05,0,1,0,1
7076000,6995992,6996000,0,0.014984131,12.25,-0.01634442,12.570055,8.50084e-07,0,1,0,1
7140000,7053992,7060000,0,0.014984131,12.25,-0.016081346,12.562718,8.234195e-07,0,1,0,1
7188000,7103993,7108000,0,0.06665039,12.25,-0.067120045,12.554595,1.4353632e-05,0,1,0,1
7244000,7163994,7164000,0,-0.0037841797,12.25,0.0048587443,12.547867,7.525549e-08,0,1,0,1
7308000,7223994,7228000,0,0.043151855,12.25,-0.042294778,12.541597,5.705328e-06,0,1,0,1
7364000,7283995,7284000,0,-0.008483887,12.25,0.010436725,12.534568,3.4759947e-07,0,1,0,1
7428000,7343995,7348000,0,0.00091552734,12.25,0.0007239521,12.528868,1.673277e-09,0,1,0,1
7484000,7403995,7404000,0,0.00091552734,12.25,0.0006995109,12.523363,1.5628886e-09,0,1,0,1
7548000,7463996,7468000,0,-0.08828735,12.25,0.089881554,12.518243,2.5814144e-05,0,1,0,1
7604000,7523996,7524000,0,0.014984131,12.25,-0.015264722,12.51219,7.449111e-07,0,1,0,1
7668000,7581996,7588000,0,0.024383545,12.25,-0.02428527,12.507499,1.8861464e-06,0,1,0,1
7724000,7642663,7644000,0,-0.064819336,12.25,0.065439604,12.502936,1.3700276e-05,0,1,0,1
7788000,7703997,7708000,0,0.019683838,12.25,-0.020418013,12.497607,1.3343201e-06,0,1,0,1
7844000,7763997,7764000,0,-0.04135132,12.25,0.04105499,12.4934025,5.3964877e-06,0,1,0,1
7908000,7823997,7828000,0,0.0056152344,12.25,-0.0066966186,12.489502,1.4362367e-07,0,1,0,1
7964000,7883998,7884000,0,0.043151855,12.25,-0.044109352,12.485683,6.233171e-06,0,1,0,1
8028000,7943998,7948000,0,-0.050720215,12.25,0.050625514,12.480976,8.213917e-06,0,1,0,1
8084000,8003998,8004000,0,-0.06951904,12.25,0.068495914,12.477435,1.5040559e-05,0,1,0,1
8148000,8063998,8068000,0,-0.03665161,12.25,0.03437216,12.474169,3.7884538e-06,0,1,0,1
8204000,8123998,8124000,0,0.029083252,12.25,-0.031905595,12.4697695,3.2653916e-06,0,1,0,1
8268000,8183999,8188000,0,-0.02255249,12.25,0.02019798,12.46673,1.3089508e-06,0,1,0,1
8324000,8243999,8244000,0,-0.09298706,12.25,0.09017855,12.463727,2.6098682e-05,0,1,0,1
8388000,8303999,8308000,0,-0.027252197,12.25,0.022812054,12.460977,1.6704622e-06,0,1,0,1
8444000,8362665,8364000,0,-0.046051025,12.25,0.04136776,12.456987,5.495042e-06,0,1,0,1
8508000,8423999,8428000,0,0.0056152344,12.25,-0.011023208,12.454414,3.9025875e-07,0,1,0,1
8564000,8483999,8484000,0,-0.064819336,12.25,0.059596732,12.451854,1.1409611e-05,0,1,0,1
8628000,8543999,8548000,0,0.058258057,12.250271,-0.062645994,13.250322,1.1847322e-05,0,1,0,1
8684000,8603999,8604000,0,-0.049713135,12.251217,0.052844718,13.176763,8.477239e-06,0,1,0,1
8748000,8663999,8668000,0,-0.012176514,12.252299,0.014788643,13.115371,6.6701574e-07,0,1,0,1
8804000,8724000,8724000,0,0.10519409,12.253245,-0.100739844,13.06291,3.107582e-05,0,1,0,1
8868000,8784000,8788000,0,-0.049743652,12.254326,0.06369795,13.01895,1.2466224e-05,0,1,0,1
8924000,8844000,8844000,0,-0.026245117,12.255271,0.03928499,12.980543,4.755765e-06,0,1,0,1
8988000,8904000,8908000,0,-0.030914307,12.2563505,0.04497782,12.948608,6.249334e-06,0,1,0,1
9044000,8964000,8964000,0,-0.08251953,12.257295,0.0818423,12.65182,2.1176915e-05,0,1,0,1
9108000,9024000,9028000,0,0.030212402,12.258372,-0.03212278,12.643951,3.2644002e-06,0,1,0,1
9164000,9084000,9084000,0,-0.044952393,12.259313,0.045189373,12.636646,6.463991e-06,0,1,0,1
9228000,9144000,9148000,0,0.063079834,12.260387,-0.06286562,12.63111,1.2515406e-05,0,1,0,1
9284000,9204000,9204000,0,0.02545166,12.261326,-0.022252755,12.625789,1.5688055e-06,0,1,0,1
9348000,9264000,9268000,0,-0.030914307,12.262398,0.036080092,12.62223,4.1253347e-06,0,1,0,1
9404000,9324000,9324000,0,0.034851074,12.263331,-0.029560296,12.618578,2.7699193e-06,0,1,0,1
9468000,9384000,9388000,0,0.034820557,12.2644,-0.03284968,12.519559,3.4477298e-06,0,1,0,1
9524000,9442666,9444000,0,-0.0074768066,12.265329,0.010905,12.518799,3.7996946e-07,0,1,0,1
9580000,9500000,9500000,0,0.044158936,12.266257,-0.040133327,12.518446,5.146594e-06,0,1,0,1
9636000,9552000,9556000,0,-0.007537842,12.267182,0.013214268,12.518476,5.579493e-07,0,1,0,1
9692000,9612000,9612000,0,0.062927246,12.2681055,-0.056657225,12.518867,1.0256652e-05,0,1,0,1
9756000,9672000,9676000,0,0.029968262,12.26916,-0.02155931,12.520457,1.4849419e-06,0,1,0,1
9812000,9732000,9732000,0,-0.017028809,12.270078,0.01833847,12.512839,1.0750541e-06,0,1,0,1
9876000,9792000,9796000,0,-0.0357666,12.271128,0.038033366,12.467301,4.641059e-06,0,1,0,1
9932000,9852000,9852000,0,0.05819702,12.2720375,-0.05619938,12.468804,1.013207e-05,0,1,0,1
9996000,9910000,9916000,0,0.048706055,12.273081,-0.045429487,12.471254,6.619505e-06,0,1,0,1
10044000,9960000,9964000,0,-0.07815552,12.2738495,0.08248813,12.4724655,2.18218e-05,0,1,0,1
10100000,10018666,10020000,0,0.044067383,12.27475,-0.040644735,12.47461,5.297142e-06,0,1,0,1
10164000,10080000,10084000,0,0.020507812,12.275783,-0.015900906,12.477772,8.1052553e-07,0,1,0,1
10220000,10140000,10140000,0,-0.10159302,12.276676,0.10583082,12.440276,3.6012585e-05,0,1,0,1
10284000,10200000,10204000,0,0.09112549,12.2777,-0.08782695,12.443166,2.4796178e-05,0,1,0,1
10340000,10260000,10260000,0,-0.012359619,12.2785845,0.01722748,12.445575,9.538686e-07,0,1,0,1
10404000,10320000,10324000,0,-0.0076293945,12.279601,0.012722729,12.448845,5.201055e-07,0,1,0,1
10460000,10380000,10380000,0,-0.00289917,12.280477,0.008206086,12.451557,2.1632587e-07,0,1,0,1
10524000,10440000,10444000,0,-0.035736084,12.281484,0.041428927,12.4551735,5.5121063e-06,0,1,0,1
10580000,10500000,10500000,0,-0.012176514,12.282351,0.017790968,12.458156,1.0162613e-06,0,1,0,1
10644000,10560000,10564000,0,0.0630188,12.283348,-0.055943526,12.4295845,1.0071706e-05,0,1,0,1
10700000,10618666,10620000,0,0.039398193,12.284205,-0.031040333,12.432296,3.099998e-06,0,1,0,1
10764000,10680000,10684000,0,0.029907227,12.2851925,-0.020411659,12.435796,1.3401179e-06,0,1,0,1
10820000,10740000,10740000,0,0.025146484,12.286039,-0.014673445,12.438729,6.923858e-07,0,1,0,1
10884000,10800000,10804000,0,-0.096954346,12.287017,0.10850796,12.44249,3.785087e-05,0,1,0,1
10940000,10860000,10860000,0,-0.06845093,12.287853,0.0794787,12.445621,2.0302288e-05,0,1,0,1
11004000,10920000,10924000,0,0.06326294,12.288819,-0.052249998,12.449615,8.771556e-06,0,1,0,1
11060000,10980000,10980000,0,0.0020751953,12.289645,0.008112479,12.424919,2.11872e-07,0,1,0,1
11124000,11040000,11044000,0,-0.10119629,12.2906,0.11234468,12.428477,4.062067e-05,0,1,0,1
11180000,11097333,11100000,0,0.030639648,12.291414,-0.019782614,12.431469,1.2592295e-06,0,1,0,1
11228000,11148000,11148000,0,0.09161377,12.292088,-0.079673864,12.433841,2.0421445e-05,0,1,0,1
11292000,11207000,11212000,0,0.035003662,12.293026,-0.02093324,12.4376745,1.4092685e-06,0,1,0,1
11348000,11268000,11268000,0,-0.0965271,12.293824,0.111960895,12.440876,4.0303406e-05,0,1,0,1
11412000,11328000,11332000,0,0.072906494,12.294751,-0.061413173,12.4204235,1.2146374e-05,0,1,0,1
11468000,11388000,11388000,0,0.07736206,12.295536,-0.06408115,12.423311,1.3221575e-05,0,1,0,1
11532000,11448000,11452000,0,0.011413574,12.296451,0.003973813,12.426908,5.0829016e-08,0,1,0,1
11588000,11508000,11508000,0,-0.012084961,12.297224,0.028766388,12.429929,2.6629439e-06,0,1,0,1
11652000,11568000,11572000,0,-0.016662598,12.298126,0.034647726,12.433684,3.8619764e-06,0,1,0,1
11708000,11628000,11628000,0,-0.05407715,12.298886,0.07313443,12.436823,1.7202608e-05,0,1,0,1
11772000,11688000,11692000,0,-0.006866455,12.299775,0.026812963,12.440723,2.3115535e-06,0,1,0,1
11828000,11748000,11748000,0,-0.06777954,12.300523,0.08106765,12.421434,2.1163301e-05,0,1,0,1
11892000,11808000,11812000,0,-0.0017089844,12.301399,0.015727753,12.424944,7.963407e-07,0,1,0,1
11948000,11868000,11868000,0,0.021820068,12.302133,-0.0066018533,12.42789,1.4027954e-07,0,1,0,1
12012000,11928000,11932000,0,0.049957275,12.302996,-0.03314627,12.431535,3.5351234e-06,0,1,0,1
12068000,11988000,11988000,0,-0.025299072,12.303716,0.043840818,12.434578,6.182815e-06,0,1,0,1
12132000,12048000,12052000,0,-0.07208252,12.304565,0.091807306,12.438347,2.7105149e-05,0,1,0,1
12188000,12108000,12108000,0,0.097351074,12.305273,-0.077184804,12.441479,1.9153653e-05,0,1,0,1
12252000,12168000,12172000,0,-0.0015869141,12.306108,0.017626286,12.424094,1.0002691e-06,0,1,0,1
12308000,12228000,12228000,0,-0.010894775,12.306802,0.028112082,12.426944,2.5437926e-06,0,1,0,1
12372000,12288000,12292000,0,-0.053009033,12.307624,0.07152339,12.43046,1.6461485e-05,0,1,0,1
12428000,12348000,12348000,0,0.11633301,12.308303,-0.097130775,12.433395,3.0351763e-05,0,1,0,1
12492000,12407000,12412000,0,-0.043762207,12.309112,0.06558399,12.437021,1.3833729e-05,0,1,0,1
12548000,12468000,12468000,0,-0.07632446,12.309777,0.09897101,12.440034,3.149593e-05,0,1,0,1
12612000,12528000,12532000,0,-0.010101318,12.310571,0.024567012,12.438479,1.9408742e-06,0,1,0,1
12668000,12588000,12588000,0,-0.17428589,12.311223,0.18757427,12.426721,0.00011325306,0,1,0,1
12732000,12648000,12652000,0,0.00033569336,12.312002,0.012664194,12.430105,5.1610766e-07,0,1,0,1
12788000,12704000,12708000,0,-0.046539307,12.31264,0.06073188,12.432929,1.1866428e-05,0,1,0,1
12836000,12756000,12756000,0,-0.013397217,12.313135,0.028150313,12.435159,2.5490308e-06,0,1,0,1
12900000,12816000,12820000,0,0.07598877,12.313896,-0.05992806,12.438681,1.1549047e-05,0,1,0,1
12956000,12876000,12876000,0,-0.06518555,12.314514,0.083277024,12.441601,2.229637e-05,0,1,0,1
13020000,12934000,12940000,0,-0.008422852,12.315262,0.022313368,12.426446,1.602667e-06,0,1,0,1
13068000,12984000,12988000,0,-0.09750366,12.31573,0.11235281,12.428538,4.062635e-05,0,1,0,1
13124000,13044000,13044000,0,0.09088135,12.316329,-0.07568365,12.431238,1.8431037e-05,0,1,0,1
13188000,13104000,13108000,0,-0.026885986,12.317057,0.044419356,12.434572,6.3470748e-06,0,1,0,1
13244000,13164000,13164000,0,0.118896484,12.317641,-0.10029682,12.437342,3.235242e-05,0,1,0,1
13308000,13224000,13228000,0,0.0056762695,12.318355,0.015647886,12.440768,7.8727084e-07,0,1,0,1
13364000,13284000,13284000,0,0.015167236,12.318926,0.007546479,12.443603,1.8306385e-07,0,1,0,1
13428000,13344000,13348000,0,-0.045837402,12.319626,0.0600423,12.429033,1.1602118e-05,0,1,0,1
13484000,13404000,13404000,0,-0.036132812,12.320182,0.05117321,12.431632,8.425917e-06,0,1,0,1
13548000,13464000,13468000,0,-0.06402588,12.320868,0.0801772,12.434847,2.067861e-05,0,1,0,1
13604000,13522666,13524000,0,-0.044769287,12.32141,0.06158422,12.437514,1.21973435e-05,0,1,0,1
13668000,13584000,13588000,0,-0.05380249,12.322082,0.07163577,12.440819,1.6499504e-05,0,1,0,1
13724000,13644000,13644000,0,-0.020507812,12.32261,0.039095685,12.44355,4.9133005e-06,0,1,0,1
13788000,13704000,13708000,0,-0.100128174,12.323268,0.12000478,12.446942,4.6280114e-05,0,1,0,1
13844000,13764000,13764000,0,0.06491089,12.323783,-0.05281856,12.432174,8.976066e-06,0,1,0,1
13908000,13824000,13828000,0,-0.029296875,12.324427,0.04332286,12.435279,6.037244e-06,0,1,0,1
13964000,13884000,13884000,0,-0.07598877,12.324928,0.09095591,12.437854,2.6605807e-05,0,1,0,1
14028000,13944000,13948000,0,0.093566895,12.325558,-0.07789077,12.44105,1.9506302e-05,0,1,0,1
14084000,14004000,14004000,0,0.046173096,12.326046,-0.028339082,12.443689,2.5815611e-06,0,1,0,1
14148000,14064000,14068000,0,-0.02444458,12.326662,0.044246368,12.446973,6.291461e-06,0,1,0,1
14204000,14124000,14124000,0,0.15893555,12.327137,-0.1380519,12.449675,6.123317e-05,0,1,0,1
14268000,14184000,14188000,0,0.09234619,12.327741,-0.0770604,12.4358015,1.9100677e-05,0,1,0,1
14324000,14244000,14244000,0,0.10595703,12.3282,-0.08861945,12.438291,2.525558e-05,0,1,0,1
14388000,14304000,14308000,0,0.016204834,12.328791,0.0035590567,12.44139,4.072498e-08,0,1,0,1
14444000,14364000,14364000,0,0.09133911,12.329238,-0.070167765,12.443947,1.5826217e-05,0,1,0,1
14508000,14424000,14428000,0,-0.0687561,12.329815,0.092258036,12.447137,2.7352618e-05,0,1,0,1
14564000,14484000,14484000,0,-0.0071411133,12.33025,0.03126593,12.4497595,3.1408103e-06,0,1,0,1
14628000,14544000,14548000,0,-0.011627197,12.330814,0.030123614,12.436365,2.918641e-06,0,1,0,1
14684000,14604000,14604000,0,-0.03491211,12.331235,0.054537497,12.438778,9.564729e-06,0,1,0,1
14748000,14664000,14668000,0,-0.006378174,12.331786,0.027074914,12.441792,2.3567377e-06,0,1,0,1
14804000,14724000,14724000,0,-0.034362793,12.332195,0.056187704,12.444277,1.0147823e-05,0,1,0,1
14868000,14784000,14788000,0,0.022338867,12.332734,0.0005784128,12.447384,1.0751218e-09,0,1,0,1
14924000,14844000,14844000,0,-0.0058288574,12.33313,0.030129872,12.449936,2.9166708e-06,0,1,0,1
14988000,14904000,14908000,0,0.02255249,12.333656,0.003071729,12.453134,3.0307294e-08,0,1,0,1
15044000,14964000,14964000,0,-0.043121338,12.334041,0.06061504,12.439329,1.1814731e-05,0,1,0,1
15108000,15024000,15028000,0,-0.028656006,12.334555,0.04708545,12.442268,7.127445e-06,0,1,0,1
15164000,15084000,15084000,0,-0.018951416,12.334927,0.038306594,12.444691,4.7165336e-06,0,1,0,1
15228000,15144000,15148000,0,0.032958984,12.335428,-0.012383733,12.447725,4.9280277e-07,0,1,0,1
15284000,15204000,15204000,0,0.0,12.335789,0.022083938,12.45022,1.566881e-06,0,1,0,1
15348000,15264000,15268000,0,0.009552002,12.336279,0.013956178,12.45335,6.2561446e-07,0,1,0,1
15404000,15324000,15324000,0,-0.08425903,12.336628,0.10545973,12.451749,3.5727524e-05,0,1,0,1
15468000,15384000,15388000,0,-0.0741272,12.337107,0.09193003,12.442739,2.7168075e-05,0,1,0,1
15524000,15444000,15444000,0,-0.045318604,12.337443,0.06369954,12.445104,1.30416975e-05,0,1,0,1
15588000,15504000,15508000,0,0.016174316,12.337911,0.0032402072,12.448077,3.3736754e-08,0,1,0,1
15644000,15564000,15564000,0,0.03967285,12.338236,-0.0,12.450518,1.1426217e-06,0,1,0,1
15708000,15624000,15628000,0,0.12875366,12.338693,-0.0,12.453589,3.6247493e-05,0,1,0,1
15764000,15684000,15684000,0,-0.003479004,12.339007,0.027538056,12.456103,2.4352544e-06,0,1,0,1
15828000,15744000,15748000,0,-0.07839966,12.339453,0.09649666,12.443133,2.993331e-05,0,1,0,1
15884000,15804000,15804000,0,-0.0025939941,12.339756,0.021279668,12.445446,1.4553896e-06,0,1,0,1
15948000,15864000,15868000,0,0.025726318,12.34019,-0.0,12.44836,1.023719e-07,0,1,0,1
16004000,15924000,15924000,0,-0.08227539,12.340483,0.10378006,12.450752,3.460129e-05,0,1,0,1
16068000,15984000,15988000,0,-0.058044434,12.340907,0.08033689,12.45377,2.0729518e-05,0,1,0,1
16124000,16044000,16044000,0,0.017669678,12.34119,0.0054386035,12.456239,9.4983434e-08,0,1,0,1
16188000,16104000,16108000,0,0.022399902,12.341604,0.0024672206,12.459356,1.954251e-08,0,1,0,1
16244000,16164000,16164000,0,0.069366455,12.341877,-0.0,12.445804,8.36704e-06,0,1,0,1
16308000,16224000,16228000,0,-0.020202637,12.34228,0.040221598,12.448668,5.1982333e-06,0,1,0,1
16364000,16284000,16284000,0,-0.024597168,12.342543,0.045766756,12.451015,6.7290766e-06,0,1,0,1
16428000,16344000,16348000,0,-0.028961182,12.3429365,0.051478397,12.453984,8.511413e-06,0,1,0,1
16484000,16404000,16404000,0,-0.042633057,12.343189,0.06630658,12.456413,1.4118231e-05,0,1,0,1
16548000,16464000,16468000,0,0.028259277,12.343574,-0.0,12.459485,3.423171e-08,0,1,0,1
16604000,16521333,16524000,0,0.014160156,12.343817,0.012581782,12.461991,5.08109e-07,0,1,0,1
16652000,16572000,16572000,0,-0.14538574,12.343923,0.16529,12.447771,8.7793334e-05,0,1,0,1
16716000,16632000,16636000,0,-0.064331055,12.3442955,0.08475535,12.450628,2.3078255e-05,0,1,0,1
16772000,16692000,16692000,0,-0.12472534,12.344527,0.14613102,12.452968,6.859177e-05,0,1,0,1
16836000,16752000,16756000,0,0.031311035,12.344892,-0.0,12.455933,2.7243908e-07,0,1,0,1
16892000,16812000,16812000,0,0.035949707,12.345115,-0.0,12.458354,4.6677656e-07,0,1,0,1
16956000,16872000,16876000,0,0.068725586,12.34547,-0.0,12.461425,5.853435e-06,0,1,0,1
17012000,16932000,16932000,0,-0.0020446777,12.345685,0.022622291,12.448023,1.6444959e-06,0,1,0,1
17076000,16992000,16996000,0,0.035705566,12.346031,-0.0,12.450836,5.663425e-07,0,1,0,1
17132000,17052000,17052000,0,-0.14749146,12.346237,0.17175648,12.453139,9.475614e-05,0,1,0,1
17196000,17112000,17116000,0,-0.00064086914,12.346575,0.02554455,12.456062,2.0954426e-06,0,1,0,1
17252000,17172000,17172000,0,-0.037994385,12.346772,0.064553075,12.458448,1.3379193e-05,0,1,0,1
17316000,17231000,17236000,0,0.02822876,12.347102,-0.0,12.46148,9.442859e-12,0,1,0,1
17372000,17292000,17292000,0,0.023529053,12.347292,0.0066127423,12.463949,1.4033549e-07,0,1,0,1
17436000,17352000,17356000,0,-0.056243896,12.347614,0.08119741,12.450915,2.1180835e-05,0,1,0,1
17492000,17412000,17412000,0,-0.060302734,12.3477955,0.08645219,12.45318,2.4006662e-05,0,1,0,1
17556000,17472000,17476000,0,0.020202637,12.348109,0.0073904954,12.45606,1.753987e-07,0,1,0,1
17612000,17532000,17532000,0,0.29257202,12.348283,-0.0,12.458411,0.00022234242,0,1,0,1
17676000,17592000,17596000,0,0.022888184,12.348589,0.008664355,12.461402,2.4097142e-07,0,1,0,1
17732000,17652000,17652000,0,0.032318115,12.348755,0.0010419562,12.463836,3.4842333e-09,0,1,0,1
17796000,17712000,17716000,0,0.06518555,12.349054,-0.0,12.466935,2.81851e-06,0,1,0,1
17852000,17772000,17772000,0,0.0602417,12.349214,-0.0,12.45319,4.67251e-06,0,1,0,1
17916000,17832000,17836000,0,0.02709961,12.349504,-0.0,12.456028,3.2648174e-08,0,1,0,1
17972000,17892000,17892000,0,-0.015197754,12.349656,0.040759195,12.458344,5.333973e-06,0,1,0,1
18036000,17952000,17956000,0,-0.024261475,12.349941,0.051388327,12.461296,8.476679e-06,0,1,0,1
18092000,18012000,18012000,0,-0.052001953,12.350085,0.08005193,12.4636965,2.0566327e-05,0,1,0,1
18156000,18072000,18076000,0,0.056640625,12.350364,-0.0,12.466758,2.642403e-06,0,1,0,1
18212000,18132000,18132000,0,0.0798645,12.350502,-0.0,12.453106,1.0630646e-05,0,1,0,1
18276000,18192000,18196000,0,0.008972168,12.350773,0.010938631,12.455903,3.8424722e-07,0,1,0,1
18332000,18252000,18252000,0,-0.00970459,12.3509035,0.025953751,12.458182,2.1627463e-06,0,1,0,1
18396000,18312000,18316000,0,-0.014190674,12.351168,0.024613038,12.461093,1.9446181e-06,0,1,0,1
18452000,18372000,18372000,0,0.11279297,12.351293,-0.0,12.46346,3.8101334e-05,0,1,0,1
18516000,18432000,18436000,0,0.027404785,12.351551,-0.0,12.466481,3.5090752e-06,0,1,0,1
18572000,18492000,18492000,0,0.027130127,12.35167,-0.0,12.468932,6.0695893e-06,0,1,0,1
18636000,18551000,18556000,0,-0.057769775,12.351923,0.021256864,12.455631,1.4510844e-06,0,1,0,1
18692000,18612000,18612000,0,-0.22659302,12.3520355,0.17340535,12.457873,9.6547505e-05,0,1,0,1
18756000,18671000,18676000,0,-0.20169067,12.352282,0.12460432,12.46074,4.98405e-05,0,1,0,1
18812000,18732000,18732000,0,0.034088135,12.352388,-0.0,12.463069,5.8485293e-05,0,1,0,1
18876000,18792000,18796000,0,-0.21115112,12.352629,0.080722645,12.466047,2.0908457e-05,0,1,0,1
18932000,18852000,18852000,0,-0.14944458,12.35273,-0.0,12.468462,3.5452402e-07,0,1,0,1
18996000,18912000,18916000,0,-0.16830444,12.352965,-0.0,12.471551,2.3545838e-06,0,1,0,1
19052000,18972000,18972000,0,-0.28588867,12.353062,0.051182255,12.457526,8.411375e-06,0,1,0,1
19116000,19032000,19036000,0,-0.32772827,12.353291,0.055284888,12.460349,9.811663e-06,0,1,0,1
19172000,19092000,19092000,0,-0.3038025,12.35338,-0.0,12.462642,5.1835256e-09,0,1,0,1
19236000,19152000,19156000,0,-0.34603882,12.353604,0.004764378,12.465578,7.2838326e-08,0,1,0,1
19292000,19212000,19212000,0,-0.39297485,12.35369,0.01995498,12.467958,1.2775184e-06,0,1,0,1
19356000,19272000,19276000,0,-0.39282227,12.3539095,-0.0,12.471006,9.301693e-07,0,1,0,1
19412000,19332000,19332000,0,-0.4586792,12.35399,0.012778074,12.468873,5.2379767e-07,0,1,0,1
19476000,19392000,19396000,0,-0.5900574,12.354204,0.10251674,12.459813,3.3739452e-05,0,1,0,1
19532000,19452000,19452000,0,-0.54696655,12.354279,0.02472508,12.462067,1.9622094e-06,0,1,0,1
19596000,19511000,19516000,0,-0.67349243,12.354488,0.111843705,12.464958,4.0141374e-05,0,1,0,1
19652000,19572000,19572000,0,-0.60684204,12.354559,0.009512246,12.4673,2.9030446e-07,0,1,0,1
19716000,19632000,19636000,0,-0.7194214,12.354763,0.08200461,12.470302,2.1570468e-05,0,1,0,1
19772000,19692000,19692000,0,-0.5403137,12.35483,-0.0,12.472729,5.6819325e-05,0,1,0,1
19836000,19752000,19756000,0,-0.76678467,12.35503,0.03876996,12.459196,4.8257043e-06,0,1,0,1
19892000,19812000,19812000,0,-0.71481323,12.355091,-0.0,12.4614105,7.88128e-06,0,1,0,1
19956000,19872000,19876000,0,-0.8467102,12.355287,0.04097396,12.464254,5.387777e-06,0,1,0,1
20012000,19932000,19932000,0,-1.0200806,12.355343,0.17765445,12.466557,0.000101266465,0,1,0,1
20076000,19992000,19996000,0,-0.84487915,12.355535,-0.0,12.469513,5.326254e-06,0,1,0,1
20132000,20052000,20052000,0,-1.0376892,12.355588,0.11569613,12.471901,4.293041e-05,0,1,0,1
20196000,20111000,20116000,0,-0.9569092,12.355776,-0.0,12.474966,1.8937199e-07,0,1,0,1
20252000,20172000,20172000,0,-0.9663696,12.355825,-0.0,12.460678,7.100478e-06,0,1,0,1
20316000,20232000,20236000,0,-0.98083496,12.356008,-0.0,12.463473,1.7655564e-05,0,1,0,1
20372000,20292000,20292000,0,-1.2772827,12.356052,0.18601799,12.465736,0.000111032976,0,1,0,1
20436000,20351000,20356000,0,-1.2099609,12.356232,0.075834036,12.468645,1.844884e-05,0,1,0,1
20492000,20412000,20412000,0,-1.2844238,12.356274,0.11375153,12.470995,4.1502415e-05,0,1,0,1
20556000,20472000,20476000,0,-1.2740784,12.356449,0.061661005,12.474012,1.2192001e-05,0,1,0,1
20612000,20532000,20532000,0,-1.2312927,12.356487,-0.0,12.459925,3.1442187e-06,0,1,0,1
20676000,20592000,20596000,0,-1.3207703,12.356659,0.017811418,12.462675,1.0182296e-06,0,1,0,1
20732000,20652000,20652000,0,-1.4520874,12.356692,0.11401391,12.464899,4.1714487e-05,0,1,0,1
20796000,20712000,20716000,0,-1.3525085,12.356861,-0.0,12.467762,2.1921683e-06,0,1,0,1
20852000,20772000,20772000,0,-1.5029602,12.356892,0.09005368,12.470073,2.6013206e-05,0,1,0,1
20916000,20832000,20836000,0,-1.4082947,12.357057,-0.0,12.473045,6.220915e-06,0,1,0,1
20972000,20892000,20892000,0,-1.4649963,12.357084,-0.0,12.47544,1.3606991e-06,0,1,0,1
21036000,20952000,20956000,0,-1.559082,12.357246,0.02109313,12.461755,1.4281139e-06,0,1,0,1
21092000,21012000,21012000,0,-1.6246338,12.35727,0.053827047,12.463939,9.298348e-06,0,1,0,1
21156000,21072000,21076000,0,-1.5913086,12.357429,-0.0,12.466752,8.976312e-07,0,1,0,1
21212000,21132000,21132000,0,-1.6712646,12.357449,0.03159964,12.469023,3.2032576e-06,0,1,0,1
21276000,21192000,21196000,0,-1.7320251,12.357605,0.056599975,12.471948,1.027444e-05,0,1,0,1
21332000,21252000,21252000,0,-1.5061951,12.357623,-0.0,12.474303,0.00012852917,0,1,0,1
21396000,21312000,21316000,0,-1.7802429,12.357776,0.039779544,12.477336,5.0729163e-06,0,1,0,1
21452000,21372000,21372000,0,-1.8597107,12.357791,0.07782292,12.462923,1.943816e-05,0,1,0,1
21516000,21431000,21436000,0,-1.887207,12.357941,0.073301554,12.465689,1.7241304e-05,0,1,0,1
21572000,21492000,21492000,0,-1.8912659,12.357952,0.05175066,12.467919,8.592069e-06,0,1,0,1
21636000,21552000,21556000,0,-1.8110046,12.358099,-0.0,12.470796,9.261649e-06,0,1,0,1
21692000,21612000,21612000,0,-1.9570007,12.3581085,0.07462704,12.473112,1.7859844e-05,0,1,0,1
21756000,21672000,21676000,0,-1.9234924,12.3582535,0.024838805,12.476098,1.9780741e-06,0,1,0,1
21812000,21732000,21732000,0,-1.9232788,12.35826,-0.0,12.461913,1.5312724e-09,0,1,0,1
21876000,21792000,21796000,0,-1.9326782,12.358401,-0.0,12.464632,5.2563673e-09,0,1,0,1
21932000,21852000,21852000,0,-2.0453491,12.358405,0.10393655,12.466825,3.4660974e-05,0,1,0,1
21996000,21912000,21916000,0,-1.9599304,12.358543,0.009729028,12.469654,3.0362983e-07,0,1,0,1
22052000,21972000,21972000,0,-1.9927063,12.358545,0.035539865,12.471933,4.050958e-06,0,1,0,1
22116000,22031000,22036000,0,-2.0440369,12.358683,0.07817626,12.4748745,1.9596278e-05,0,1,0,1
22172000,22088000,22092000,0,-1.9964294,12.358682,0.021783113,12.477236,1.5211831e-06,0,1,0,1
22220000,22140000,22140000,0,-1.8929443,12.358546,-0.0,12.462354,2.9588855e-05,0,1,0,1
22284000,22200000,22204000,0,-2.0581055,12.358683,0.058408022,12.46507,1.0947382e-05,0,1,0,1
22340000,22260000,22260000,0,-2.0810547,12.358682,0.07112789,12.467259,1.6231881e-05,0,1,0,1
22404000,22320000,22324000,0,-2.047577,12.358815,0.025815248,12.470087,2.1376823e-06,0,1,0,1
22460000,22380000,22380000,0,-2.0896301,12.358812,0.057913065,12.4723625,1.0756336e-05,0,1,0,1
22524000,22440000,22444000,0,-2.1360474,12.358945,0.09284377,12.4753,2.7638504e-05,0,1,0,1
22580000,22500000,22500000,0,-2.0694885,12.358939,0.015971422,12.477657,8.177378e-07,0,1,0,1
22644000,22560000,22564000,0,-2.0881348,12.35907,0.020202398,12.46391,1.3098198e-06,0,1,0,1
22700000,22620000,22620000,0,-2.1724548,12.359062,0.09530878,12.466062,2.9147179e-05,0,1,0,1
22764000,22680000,22684000,0,-2.1340637,12.359189,0.045981407,12.4688425,6.782634e-06,0,1,0,1
22820000,22740000,22740000,0,-2.1806335,12.3591795,0.08345151,12.47108,2.2336973e-05,0,1,0,1
22884000,22800000,22804000,0,-2.2268372,12.359305,0.11917949,12.473972,4.554684e-05,0,1,0,1
22940000,22860000,22860000,0,-2.1506653,12.359294,0.033590555,12.476294,3.6175018e-06,0,1,0,1
23004000,22918000,22924000,0,-2.2020264,12.359418,0.075340986,12.479294,1.8194183e-05,0,1,0,1
23052000,22968000,22972000,0,-2.224823,12.35927,0.07647443,12.464269,1.8768333e-05,0,1,0,1
23108000,23028000,23028000,0,-2.2006836,12.359259,0.04352665,12.466418,6.078953e-06,0,1,0,1
23172000,23086000,23092000,0,-2.2754211,12.359383,0.10873985,12.469199,3.7931404e-05,0,1,0,1
23220000,23136000,23140000,0,-2.2651062,12.359234,0.090801,12.470834,2.6445134e-05,0,1,0,1
23276000,23196000,23196000,0,-2.2079468,12.359223,0.025312662,12.473105,2.0547595e-06,0,1,0,1
23340000,23256000,23260000,0,-2.160797,12.359349,-0.0,12.476041,2.9383712e-06,0,1,0,1
23396000,23316000,23316000,0,-2.222107,12.359337,0.024175167,12.4783945,1.8734419e-06,0,1,0,1
23460000,23376000,23380000,0,-2.2547607,12.35946,0.036024094,12.46466,4.164527e-06,0,1,0,1
23516000,23436000,23436000,0,-2.2920227,12.359446,0.0663836,12.46681,1.4139246e-05,0,1,0,1
23580000,23496000,23500000,0,-2.2210083,12.359567,-0.0,12.469593,5.011657e-07,0,1,0,1
23636000,23556000,23556000,0,-2.272766,12.3595495,0.03313446,12.471828,3.5211915e-06,0,1,0,1
23700000,23616000,23620000,0,-2.1785583,12.35967,-0.0,12.474722,1.4820476e-05,0,1,0,1
23756000,23676000,23676000,0,-2.3247375,12.359652,0.07274151,12.477042,1.6963402e-05,0,1,0,1
23820000,23736000,23740000,0,-2.2020264,12.35977,-0.0,12.463468,1.6857983e-05,0,1,0,1
23876000,23796000,23796000,0,-2.2730713,12.359749,-0.0,12.465582,1.4503213e-07,0,1,0,1
23940000,23856000,23860000,0,-2.3294678,12.359864,0.043883324,12.46832,6.178045e-06,0,1,0,1
23996000,23916000,23916000,0,-2.258667,12.359842,-0.0,12.470522,3.323535e-06,0,1,0,1
24060000,23976000,23980000,0,-2.2495422,12.359957,-0.0,12.473372,6.9649977e-06,0,1,0,1
24116000,24036000,24036000,0,-2.2593384,12.359934,-0.0,12.475659,5.437347e-06,0,1,0,1
24180000,24096000,24100000,0,-2.3301086,12.360046,0.02493143,12.478618,1.9924523e-06,0,1,0,1
24236000,24156000,24156000,0,-2.4660645,12.360023,0.13496232,12.464332,5.8454247e-05,0,1,0,1
24300000,24216000,24220000,0,-2.38974,12.360133,0.052860975,12.467027,8.965354e-06,0,1,0,1
24356000,24276000,24276000,0,-2.3376465,12.360106,-0.0,12.469194,4.0255248e-08,0,1,0,1
24420000,24336000,24340000,0,-2.440979,12.360216,0.09563422,12.472002,2.9332594e-05,0,1,0,1
24476000,24396000,24396000,0,-2.3556213,12.3601885,0.006091118,12.474256,1.1897052e-07,0,1,0,1
24540000,24456000,24460000,0,-2.2991943,12.360296,-0.0,12.477173,9.270309e-06,0,1,0,1
24596000,24516000,24516000,0,-2.3888855,12.360268,0.03330016,12.479509,3.554309e-06,0,1,0,1
24660000,24576000,24580000,0,-2.4355469,12.360375,0.06602168,12.465718,1.398672e-05,0,1,0,1
24716000,24636000,24636000,0,-2.3833313,12.360344,0.010998249,12.467851,3.8807488e-07,0,1,0,1
24780000,24696000,24700000,0,-2.425476,12.360449,0.05066037,12.470616,8.232066e-06,0,1,0,1
24836000,24756000,24756000,0,-2.4438171,12.360417,0.066679716,12.4728365,1.4258776e-05,0,1,0,1
24892000,24812000,24812000,0,-2.4385376,12.360386,0.059131622,12.475097,1.1211292e-05,0,1,0,1
24948000,24864000,24868000,0,-2.3441162,12.360356,-0.0,12.477397,4.465809e-06,0,1,0,1
25004000,24922666,24924000,0,-2.3397522,12.360327,-0.0,12.475175,6.229723e-06,0,1,0,1
25068000,24982000,24988000,0,-2.354248,12.360433,-0.0,12.466003,4.64978e-06,0,1,0,1
25116000,25032000,25036000,0,-2.3263855,12.360265,-0.0,12.467561,1.4391583e-05,0,1,0,1
25172000,25090666,25092000,0,-2.481903,12.360236,0.08743024,12.469735,2.4520317e-05,0,1,0,1
25236000,25150000,25156000,0,-2.4905396,12.360343,0.094118595,12.472552,2.8408973e-05,0,1,0,1
25284000,25200000,25204000,0,-2.4850159,12.360178,0.08691549,12.474199,2.422377e-05,0,1,0,1
25340000,25258666,25260000,0,-2.3621826,12.360151,-0.0,12.476494,4.541824e-06,0,1,0,1
25404000,25320000,25324000,0,-2.3249512,12.360261,-0.0,12.4794655,1.8430757e-05,0,1,0,1
25460000,25380000,25380000,0,-2.4946594,12.360233,0.07939029,12.465164,2.0225383e-05,0,1,0,1
25524000,25440000,25444000,0,-2.4704895,12.360339,0.053405046,12.467874,9.150234e-06,0,1,0,1
25580000,25500000,25500000,0,-2.465332,12.36031,0.046845913,12.470052,7.0393926e-06,0,1,0,1
25644000,25560000,25564000,0,-2.4038696,12.360415,-0.0,12.472875,8.176607e-07,0,1,0,1
25700000,25620000,25620000,0,-2.5307922,12.360384,0.11030674,12.475139,3.9013838e-05,0,1,0,1
25764000,25680000,25684000,0,-2.421814,12.360489,-0.0,12.478071,2.9714917e-10,0,1,0,1
25820000,25740000,25740000,0,-2.5345154,12.360457,0.09297323,12.463975,2.774082e-05,0,1,0,1
25884000,25800000,25804000,0,-2.4726562,12.360559,0.02951479,12.466646,2.795051e-06,0,1,0,1
25940000,25858666,25860000,0,-2.514618,12.360526,0.07063317,12.468795,1.6004898e-05,0,1,0,1
26004000,25920000,25924000,0,-2.3966064,12.360627,-0.0,12.471579,7.566196e-06,0,1,0,1
26060000,25980000,25980000,0,-2.5238037,12.360593,0.07829404,12.473814,1.965704e-05,0,1,0,1
26124000,26040000,26044000,0,-2.3822327,12.360694,-0.0,12.476709,1.3168926e-05,0,1,0,1
26180000,26100000,26100000,0,-2.4110107,12.360658,-0.0,12.479028,3.96581e-06,0,1,0,1
26244000,26160000,26164000,0,-2.4676514,12.360759,0.0034444332,12.465393,3.8070585e-08,0,1,0,1
26300000,26220000,26220000,0,-2.5098572,12.360721,0.04567337,12.467509,6.692778e-06,0,1,0,1
26364000,26280000,26284000,0,-2.5094604,12.360819,0.045061827,12.470256,6.5133167e-06,0,1,0,1
26420000,26340000,26340000,0,-2.5372314,12.360781,0.07272816,12.472461,1.6963404e-05,0,1,0,1
26484000,26400000,26404000,0,-2.4802551,12.360878,0.015690804,12.475319,7.894029e-07,0,1,0,1
26540000,26460000,26460000,0,-2.5974731,12.360839,0.1335094,12.477609,5.7141588e-05,0,1,0,1
26604000,26520000,26524000,0,-2.549347,12.360936,0.08516288,12.4805765,2.3244811e-05,0,1,0,1
26660000,26580000,26580000,0,-2.5579834,12.360896,0.074433565,12.466153,1.7777274e-05,0,1,0,1
26724000,26640000,26644000,0,-2.5619812,12.3609915,0.07861042,12.468859,1.9824101e-05,0,1,0,1
26780000,26700000,26700000,0,-2.5472107,12.3609495,0.06397033,12.471031,1.3125467e-05,0,1,0,1
26844000,26760000,26764000,0,-2.5184631,12.361044,0.03572607,12.473849,4.0928894e-06,0,1,0,1
26900000,26820000,26820000,0,-2.5369263,12.361002,0.054979086,12.476109,9.691163e-06,0,1,0,1
26964000,26880000,26884000,0,-2.4613342,12.361096,-0.0,12.479037,1.2291206e-06,0,1,0,1
27020000,26940000,26940000,0,-2.5694885,12.361053,0.078790426,12.464789,1.9921497e-05,0,1,0,1
27084000,27000000,27004000,0,-2.5265503,12.361146,0.036845207,12.467455,4.355562e-06,0,1,0,1
27140000,27060000,27060000,0,-2.4980164,12.361101,0.009551525,12.469594,2.926531e-07,0,1,0,1
27204000,27118000,27124000,0,-2.6106262,12.361193,0.12398362,12.472373,4.929916e-05,0,1,0,1
27260000,27178666,27180000,0,-2.4639893,12.361148,-0.0,12.4746,1.5589687e-06,0,1,0,1
27324000,27240000,27244000,0,-2.5392761,12.361239,0.055263996,12.47749,9.7907805e-06,0,1,0,1
27380000,27300000,27300000,0,-2.5012207,12.361194,0.018542767,12.479801,1.1020503e-06,0,1,0,1
27444000,27360000,27364000,0,-2.543335,12.361285,0.045102358,12.466048,6.5272416e-06,0,1,0,1
27500000,27418666,27420000,0,-2.444336,12.361238,-0.0,12.468156,8.909557e-06,0,1,0,1
27564000,27480000,27484000,0,-2.4823608,12.361327,-0.012848854,12.470894,5.295308e-07,0,1,0,1
27620000,27540000,27540000,0,-2.5388184,12.3612795,0.045366287,12.47309,6.600129e-06,0,1,0,1
27684000,27600000,27604000,0,-2.5994568,12.361368,0.107629776,12.47594,3.7140828e-05,0,1,0,1
27740000,27660000,27660000,0,-2.6079102,12.3613205,0.117004156,12.478222,4.388437e-05,0,1,0,1
27804000,27720000,27724000,0,-2.559906,12.361409,0.06199026,12.476588,1.2320011e-05,0,1,0,1
27860000,27780000,27780000,0,-2.5593567,12.361361,0.054619312,12.466769,9.571909e-06,0,1,0,1
27924000,27838000,27844000,0,-2.516632,12.361447,0.013381243,12.469469,5.7438746e-07,0,1,0,1
27980000,27898666,27900000,0,-2.5352783,12.361398,0.033605576,12.471636,3.62209e-06,0,1,0,1
28044000,27960000,27964000,0,-2.473938,12.361485,-0.026028395,12.474448,2.172368e-06,0,1,0,1
28100000,28020000,28020000,0,-2.4788818,12.361434,-0.018936634,12.476701,1.1496505e-06,0,1,0,1
28164000,28080000,28084000,0,-2.5541687,12.361521,0.058863163,12.479624,1.1105693e-05,0,1,0,1
28220000,28140000,28140000,0,-2.567749,12.36147,0.05062151,12.465328,8.222928e-06,0,1,0,1
28284000,28200000,28204000,0,-2.548523,12.361555,0.03292489,12.467988,3.4778616e-06,0,1,0,1
28340000,28260000,28260000,0,-2.5388184,12.361504,0.024652004,12.470122,1.9493677e-06,0,1,0,1
28404000,28320000,28324000,0,-2.6794434,12.3615885,0.16709638,12.472895,8.954201e-05,0,1,0,1
28460000,28380000,28380000,0,-2.5558777,12.361536,0.043919086,12.475116,6.1847477e-06,0,1,0,1
28524000,28440000,28444000,0,-2.6306152,12.361621,0.12055707,12.478001,4.659082e-05,0,1,0,1
28580000,28500000,28500000,0,-2.5309448,12.361568,0.021908522,12.480306,1.5383704e-06,0,1,0,1
28644000,28560000,28564000,0,-2.6387634,12.361652,0.1092844,12.466514,3.8320515e-05,0,1,0,1
28700000,28618666,28620000,0,-2.5063171,12.361599,-0.022089958,12.4686165,1.5654223e-06,0,1,0,1
28764000,28680000,28684000,0,-2.6051025,12.361682,0.07927561,12.47135,2.015699e-05,0,1,0,1
28820000,28740000,28740000,0,-2.599701,12.361628,0.07537413,12.473539,1.8218596e-05,0,1,0,1
28884000,28800000,28804000,0,-2.5332947,12.361711,0.011027813,12.476384,3.8989714e-07,0,1,0,1
28940000,28860000,28860000,0,-2.6177063,12.361657,0.09797382,12.478661,3.076891e-05,0,1,0,1
29004000,28918000,28924000,0,-2.532318,12.361739,-0.002907753,12.477015,2.7105932e-08,0,1,0,1
29060000,28977333,28980000,0,-2.6168518,12.361685,0.074071646,12.467173,1.7603377e-05,0,1,0,1
29108000,29028000,29028000,0,-2.6208801,12.361496,0.079529285,12.468708,2.0290498e-05,0,1,0,1
29172000,29088000,29092000,0,-2.559143,12.36158,0.019866705,12.471448,1.2658867e-06,0,1,0,1
29228000,29148000,29148000,0,-2.6763306,12.361528,0.1393919,12.473645,6.230769e-05,0,1,0,1
29292000,29208000,29212000,0,-2.5999756,12.361612,0.064902306,12.476498,1.350478e-05,0,1,0,1
29348000,29264000,29268000,0,-2.491394,12.361561,-0.041284084,12.478781,5.463276e-06,0,1,0,1
29396000,29316000,29316000,0,-2.5152283,12.361375,-0.014314175,12.480464,6.5669224e-07,0,1,0,1
29460000,29376000,29380000,0,-2.5904846,12.361463,0.051342487,12.46674,8.457869e-06,0,1,0,1
29516000,29436000,29436000,0,-2.54776,12.361412,0.011504889,12.468856,4.246178e-07,0,1,0,1
29580000,29496000,29500000,0,-2.6087036,12.361498,0.07618284,12.471604,1.8614528e-05,0,1,0,1
29636000,29556000,29556000,0,-2.500061,12.361447,-0.029735088,12.473809,2.835302e-06,0,1,0,1
29700000,29616000,29620000,0,-2.6975098,12.361533,0.17194462,12.47667,9.478476e-05,0,1,0,1
29756000,29676000,29676000,0,-2.4847107,12.361483,-0.03894639,12.47896,4.862012e-06,0,1,0,1
29820000,29736000,29740000,0,-2.658783,12.361568,0.11854482,12.465331,4.5094264e-05,0,1,0,1
29876000,29796000,29796000,0,-2.6248474,12.361516,0.086702585,12.467415,2.4118355e-05,0,1,0,1
29940000,29856000,29860000,0,-2.5818176,12.361601,0.046374083,12.470126,6.8982645e-06,0,1,0,1
29996000,29916000,29916000,0,-2.5532227,12.361548,0.02033019,12.4723,1.3255507e-06,0,1,0,1
30060000,29976000,29980000,0,-2.609375,12.361632,0.07971668,12.475122,2.0375752e-05,0,1,0,1
30116000,30036000,30036000,0,-2.5946045,12.36158,0.06732869,12.477383,1.4532383e-05,0,1,0,1
30180000,30096000,30100000,0,-2.5517273,12.361663,0.027444363,12.480315,2.4140193e-06,0,1,0,1
30236000,30156000,30156000,0,-2.603119,12.36161,0.058077812,12.465978,1.0823162e-05,0,1,0,1
30300000,30216000,30220000,0,-2.6119995,12.361693,0.06966376,12.468649,1.5568776e-05,0,1,0,1
30356000,30276000,30276000,0,-2.6066895,12.361639,0.06654334,12.470791,1.4202839e-05,0,1,0,1
30420000,30336000,30340000,0,-2.5262756,12.361721,-0.011214495,12.473575,4.0330028e-07,0,1,0,1
30476000,30396000,30396000,0,-2.601471,12.361667,0.06706619,12.475804,1.4421111e-05,0,1,0,1
30540000,30456000,30460000,0,-2.6525269,12.361749,0.121121645,12.4787,4.702558e-05,0,1,0,1
30596000,30516000,30516000,0,-2.576294,12.361694,0.047085524,12.481013,7.1053414e-06,0,1,0,1
30660000,30576000,30580000,0,-2.547699,12.361776,-0.0036244392,12.4671755,4.214767e-08,0,1,0,1
30716000,30636000,30636000,0,-2.580597,12.361721,0.032304764,12.469287,3.3477386e-06,0,1,0,1
30780000,30696000,30700000,0,-2.782196,12.361801,0.23704314,12.472032,0.00018020946,0,1,0,1
30836000,30756000,30756000,0,-2.625122,12.361746,0.08089566,12.474232,2.0984404e-05,0,1,0,1
30900000,30816000,30820000,0,-2.596222,12.361826,0.0548985,12.477088,9.662015e-06,0,1,0,1
30956000,30876000,30876000,0,-2.6145325,12.361771,0.076101065,12.479373,1.8563023e-05,0,1,0,1
31020000,30936000,30940000,0,-2.6185608,12.361851,0.06663442,12.465709,1.4247551e-05,0,1,0,1
31076000,30996000,30996000,0,-2.585083,12.3617935,0.03597784,12.467789,4.1527974e-06,0,1,0,1
31140000,31056000,31060000,0,-2.55188,12.361873,0.0064253807,12.470494,1.3242625e-07,0,1,0,1
31196000,31116000,31116000,0,-2.5611877,12.361815,0.019219637,12.472663,1.184653e-06,0,1,0,1
31260000,31176000,31180000,0,-2.5751038,12.361895,0.03710103,12.475481,4.413414e-06,0,1,0,1
31316000,31236000,31236000,0,-2.598236,12.361837,0.06360698,12.477736,1.2969813e-05,0,1,0,1
31380000,31296000,31300000,0,-2.5178528,12.361917,-0.013042688,12.480665,5.452008e-07,0,1,0,1
31436000,31356000,31356000,0,-2.5602112,12.361859,0.008367538,12.4663,2.2465589e-07,0,1,0,1
31500000,31414000,31420000,0,-2.5930176,12.3619375,0.044858217,12.4689665,6.4552573e-06,0,1,0,1
31548000,31464000,31468000,0,-2.6395874,12.361744,0.093827486,12.470518,2.8238112e-05,0,1,0,1
31604000,31524000,31524000,0,-2.5823975,12.361689,0.039039135,12.4726925,4.8876504e-06,0,1,0,1
31668000,31584000,31588000,0,-2.563263,12.361771,0.023334503,12.475517,1.7458162e-06,0,1,0,1
31724000,31644000,31644000,0,-2.5630493,12.361715,0.026318789,12.4777775,2.2205193e-06,0,1,0,1
31788000,31704000,31708000,0,-2.5111694,12.361796,-0.021752119,12.480713,1.5164347e-06,0,1,0,1
31844000,31764000,31764000,0,-2.6193237,12.361742,0.065243244,12.466358,1.36581375e-05,0,1,0,1
31908000,31824000,31828000,0,-2.679779,12.361821,0.12882686,12.469031,5.3240252e-05,0,1,0,1
31964000,31884000,31884000,0,-2.5847168,12.361765,0.03585148,12.471175,4.1225576e-06,0,1,0,1
32028000,31944000,31948000,0,-2.537445,12.361845,-0.008008242,12.473962,2.0565057e-07,0,1,0,1
32084000,32004000,32004000,0,-2.6877441,12.361789,0.14577413,12.476193,6.813006e-05,0,1,0,1
32148000,32064000,32068000,0,-2.6535645,12.361869,0.11431289,12.479092,4.1885858e-05,0,1,0,1
32204000,32124000,32124000,0,-2.6290588,12.361813,0.082643986,12.476829,2.189668e-05,0,1,0,1
32268000,32184000,32188000,0,-2.6752625,12.361892,0.11599088,12.467602,4.3164302e-05,0,1,0,1
32324000,32242666,32244000,0,-2.5662537,12.361834,0.00930953,12.469716,2.7800908e-07,0,1,0,1
32380000,32300000,32300000,0,-2.5990295,12.361777,0.045380116,12.471873,6.6047974e-06,0,1,0,1
32436000,32352000,32356000,0,-2.6033325,12.361722,0.052735567,12.4740715,8.917827e-06,0,1,0,1
32492000,32412000,32412000,0,-2.621643,12.361668,0.07417989,12.47631,1.7641933e-05,0,1,0,1
32556000,32472000,32476000,0,-2.616272,12.36175,0.07246685,12.479217,1.683261e-05,0,1,0,1
32612000,32532000,32532000,0,-2.6109314,12.361695,0.058559656,12.476935,1.0993833e-05,0,1,0,1
32676000,32592000,32596000,0,-2.572876,12.361777,0.008215189,12.467672,2.1652585e-07,0,1,0,1
32732000,32652000,32652000,0,-2.6009827,12.361721,0.03974533,12.469793,5.067257e-06,0,1,0,1
32796000,32712000,32716000,0,-2.68042,12.361802,0.12287879,12.472551,4.8423764e-05,0,1,0,1
32852000,32772000,32772000,0,-2.6323853,12.361746,0.07740927,12.47476,1.921382e-05,0,1,0,1
32916000,32830000,32836000,0,-2.6927185,12.361827,0.14144754,12.47763,6.413849e-05,0,1,0,1
32964000,32880000,32884000,0,-2.663269,12.361636,0.114154816,12.479293,4.176942e-05,0,1,0,1
33020000,32940000,32940000,0,-2.6434631,12.361584,0.06504989,12.465107,1.3578665e-05,0,1,0,1
33084000,33000000,33004000,0,-2.671051,12.361667,0.09610176,12.467758,2.963018e-05,0,1,0,1
33140000,33060000,33060000,0,-2.6701965,12.361612,0.09794116,12.469886,3.0770036e-05,0,1,0,1
33204000,33120000,33124000,0,-2.6881104,12.361695,0.11909175,12.4726515,4.548462e-05,0,1,0,1
33260000,33180000,33180000,0,-2.635376,12.361641,0.06905532,12.474866,1.5290383e-05,0,1,0,1
33324000,33240000,33244000,0,-2.5079956,12.361724,-0.054391384,12.477744,9.483839e-06,0,1,0,1
33380000,33300000,33300000,0,-2.6399536,12.36167,0.08235836,12.480043,2.1739987e-05,0,1,0,1
33444000,33360000,33364000,0,-2.667389,12.3617525,0.09077835,12.466339,2.6441472e-05,0,1,0,1
33500000,33420000,33420000,0,-2.539795,12.361697,-0.033399582,12.468436,3.5787396e-06,0,1,0,1
33564000,33480000,33484000,0,-2.596466,12.361777,0.028425932,12.471163,2.5916866e-06,0,1,0,1
33620000,33540000,33540000,0,-2.596222,12.361722,0.03224492,12.473349,3.3342608e-06,0,1,0,1
33684000,33600000,33604000,0,-2.5395813,12.361803,-0.019589663,12.476189,1.2303593e-06,0,1,0,1
33740000,33660000,33660000,0,-2.633667,12.361748,0.07932234,12.47846,2.0169262e-05,0,1,0,1
33804000,33720000,33724000,0,-2.5766296,12.361829,0.027021646,12.48141,2.340022e-06,0,1,0,1
33860000,33780000,33780000,0,-2.693756,12.361773,0.12438774,12.466986,4.9642505e-05,0,1,0,1
33924000,33840000,33844000,0,-2.565857,12.361853,0.0004348755,12.469675,6.066451e-10,0,1,0,1
33980000,33900000,33900000,0,-2.645691,12.361795,0.084555626,12.47183,2.293057e-05,0,1,0,1
34044000,33960000,33964000,0,-2.5228577,12.361875,-0.034141064,12.474632,3.7375441e-06,0,1,0,1
34100000,34020000,34020000,0,-2.5137634,12.361818,-0.03856516,12.476875,4.7680896e-06,0,1,0,1
34164000,34080000,34084000,0,-2.6549683,12.361897,0.108098984,12.479787,3.7453814e-05,0,1,0,1
34220000,34140000,34140000,0,-2.5272217,12.36184,-0.042926073,12.465538,5.912774e-06,0,1,0,1
34284000,34198000,34204000,0,-2.621521,12.361918,0.056314707,12.468188,1.01742e-05,0,1,0,1
34332000,34248000,34252000,0,-2.6632385,12.361725,0.10095453,12.46973,3.2692984e-05,0,1,0,1
34388000,34308000,34308000,0,-2.5543518,12.3616705,-0.004902363,12.471892,7.707944e-08,0,1,0,1
34452000,34368000,34372000,0,-2.5966187,12.3617525,0.041890144,12.474702,5.6266967e-06,0,1,0,1
34508000,34428000,34428000,0,-2.5962524,12.361697,0.045209408,12.47695,6.552533e-06,0,1,0,1
34572000,34488000,34492000,0,-2.6193542,12.361779,0.07270837,12.479869,1.694411e-05,0,1,0,1
34628000,34546666,34548000,0,-2.5341797,12.361725,-0.034258366,12.4656725,3.765976e-06,0,1,0,1
34692000,34608000,34612000,0,-2.6049194,12.361805,0.041254282,12.468331,5.459963e-06,0,1,0,1
34748000,34668000,34668000,0,-2.5763855,12.361749,0.016288757,12.470465,8.510464e-07,0,1,0,1
34812000,34728000,34732000,0,-2.533966,12.361829,-0.021798372,12.473238,1.5238032e-06,0,1,0,1
34868000,34788000,34788000,0,-2.6421509,12.361773,0.090578556,12.475459,2.6305966e-05,0,1,0,1
34932000,34848000,34852000,0,-2.575592,12.361853,0.027901173,12.478343,2.4954447e-06,0,1,0,1
34988000,34908000,34908000,0,-2.5471802,12.361796,0.0035152435,12.480648,3.960351e-08,0,1,0,1
35052000,34966000,34972000,0,-2.556549,12.3618765,-0.0039470196,12.466873,4.9985154e-08,0,1,0,1
35100000,35016000,35020000,0,-2.6035156,12.361684,0.046493053,12.468399,6.9346647e-06,0,1,0,1
35156000,35076000,35076000,0,-2.5655212,12.3616295,0.012090921,12.470538,4.689144e-07,0,1,0,1
35220000,35136000,35140000,0,-2.6264343,12.361712,0.07746363,12.473319,1.9243036e-05,0,1,0,1
35276000,35196000,35196000,0,-2.5740967,12.361658,0.028424025,12.475546,2.5904283e-06,0,1,0,1
35340000,35256000,35260000,0,-2.60672,12.36174,0.06545138,12.478437,1.3732116e-05,0,1,0,1
35396000,35314666,35316000,0,-2.6296082,12.361686,0.09192395,12.480748,2.708175e-05,0,1,0,1
35460000,35376000,35380000,0,-2.6053162,12.361769,0.053059816,12.466974,9.032967e-06,0,1,0,1
35516000,35434666,35436000,0,-2.5954285,12.361712,0.04655361,12.469083,6.95236e-06,0,1,0,1
35580000,35496000,35500000,0,-2.5621338,12.3617935,0.017134428,12.471825,9.4160595e-07,0,1,0,1
35636000,35554666,35556000,0,-2.5385132,12.361737,-0.0028862953,12.474022,2.6713758e-08,0,1,0,1
35700000,35616000,35620000,0,-2.5432434,12.361818,0.0062146187,12.476876,1.238178e-07,0,1,0,1
35756000,35676000,35676000,0,-2.5197144,12.361763,-0.013524532,12.479159,5.8629905e-07,0,1,0,1
35820000,35736000,35740000,0,-2.6043396,12.361843,0.0593822,12.465596,1.1315129e-05,0,1,0,1
35876000,35794666,35796000,0,-2.6272888,12.361786,0.08542442,12.467675,2.3412003e-05,0,1,0,1
35940000,35856000,35860000,0,-2.5326233,12.361865,-0.005926132,12.470381,1.1264786e-07,0,1,0,1
35996000,35916000,35916000,0,-2.5092163,12.361809,-0.02577877,12.47255,2.1312242e-06,0,1,0,1
36060000,35976000,35980000,0,-2.650299,12.361888,0.11952281,12.4753685,4.5804507e-05,0,1,0,1
36116000,36036000,36036000,0,-2.513092,12.361831,-0.015265226,12.477624,7.4702405e-07,0,1,0,1
36180000,36096000,36100000,0,-2.5601501,12.36191,0.035951614,12.480553,4.142504e-06,0,1,0,1
36236000,36156000,36156000,0,-2.4940796,12.361853,-0.05004573,12.466212,8.0363625e-06,0,1,0,1
36300000,36216000,36220000,0,-2.564972,12.361931,0.024737597,12.468879,1.9631234e-06,0,1,0,1
36356000,36276000,36276000,0,-2.442688,12.361873,-0.09476519,12.471017,2.8804197e-05,0,1,0,1
36420000,36336000,36340000,0,-2.5750122,12.361951,0.041782856,12.473797,5.5983182e-06,0,1,0,1
36476000,36396000,36396000,0,-2.598114,12.361892,0.06751633,12.476022,1.461509e-05,0,1,0,1
36540000,36456000,36460000,0,-2.5646362,12.36197,0.036976814,12.478912,4.382705e-06,0,1,0,1
36596000,36516000,36516000,0,-2.531433,12.361912,0.0066165924,12.481222,1.4030452e-07,0,1,0,1
36660000,36576000,36580000,0,-2.6158752,12.36199,0.07805252,12.467382,1.9546029e-05,0,1,0,1
36716000,36636000,36636000,0,-2.5259705,12.361931,-0.009535551,12.46949,2.9167748e-07,0,1,0,1
36780000,36696000,36700000,0,-2.526062,12.362007,-0.0059788227,12.47223,1.14642916e-07,0,1,0,1
36836000,36756000,36756000,0,-2.5355225,12.361948,0.0065197945,12.474426,1.3630357e-07,0,1,0,1
36900000,36816000,36820000,0,-2.5401611,12.362024,0.014633656,12.477278,6.865083e-07,0,1,0,1
36956000,36873333,36876000,0,-2.5963745,12.361965,0.07389188,12.479559,1.7500648e-05,0,1,0,1
37004000,36924000,36924000,0,-2.4783325,12.361772,-0.043243647,12.476668,5.9952317e-06,0,1,0,1
37068000,36984000,36988000,0,-2.5491638,12.361853,0.018132687,12.467465,1.0548874e-06,0,1,0,1
37124000,37044000,37044000,0,-2.4175415,12.361795,-0.11067438,12.46958,3.929184e-05,0,1,0,1
37188000,37104000,37108000,0,-2.4561157,12.361875,-0.06779647,12.472329,1.4740986e-05,0,1,0,1
37244000,37164000,37164000,0,-2.4895935,12.361817,-0.0307796,12.474532,3.0378174e-06,0,1,0,1
37308000,37224000,37228000,0,-2.564972,12.3618965,0.048244,12.477393,7.4614413e-06,0,1,0,1
37364000,37284000,37284000,0,-2.4612732,12.361839,-0.05297041,12.479681,8.993384e-06,0,1,0,1
37428000,37344000,37348000,0,-2.5368652,12.361918,0.0059616566,12.466057,1.14041995e-07,0,1,0,1
37484000,37404000,37404000,0,-2.541504,12.36186,0.013032198,12.468142,5.448709e-07,0,1,0,1
37548000,37463000,37468000,0,-2.5179138,12.361938,-0.00785923,12.470855,1.9811793e-07,0,1,0,1
37604000,37524000,37524000,0,-2.2550354,12.36188,-0.26820922,12.473029,0.00023069355,0,1,0,1
37668000,37584000,37588000,0,-2.5485535,12.3619585,0.030615091,12.475855,3.005113e-06,0,1,0,1
37724000,37644000,37644000,0,-2.52948,12.361899,0.013875961,12.478114,6.17216e-07,0,1,0,1
37788000,37704000,37708000,0,-2.5716248,12.361978,0.05894065,12.48105,1.1133679e-05,0,1,0,1
37844000,37764000,37764000,0,-2.4067688,12.361919,-0.121925354,12.466651,4.769779e-05,0,1,0,1
37908000,37824000,37828000,0,-2.5111694,12.361997,-0.013738632,12.469325,6.054859e-07,0,1,0,1
37964000,37884000,37884000,0,-2.6098938,12.361937,0.08746815,12.471468,2.4538174e-05,0,1,0,1
38028000,37944000,37948000,0,-2.5292664,12.362014,0.00872159,12.474255,2.43914e-07,0,1,0,1
38084000,38004000,38004000,0,-2.4352722,12.361955,-0.08295512,12.476485,2.206247e-05,0,1,0,1
38148000,38064000,38068000,0,-2.5534058,12.362031,0.038827658,12.479382,4.8322495e-06,0,1,0,1
38204000,38124000,38124000,0,-2.6141052,12.361972,0.10179138,12.481696,3.320538e-05,0,1,0,1
38268000,38183000,38188000,0,-2.5380554,12.362049,0.0078856945,12.467805,1.995032e-07,0,1,0,1
38324000,38244000,38244000,0,-2.5708618,12.361988,0.04351306,12.469916,6.0734537e-06,0,1,0,1
38388000,38304000,38308000,0,-2.570465,12.362064,0.048303604,12.472664,7.4827267e-06,0,1,0,1
38444000,38364000,38364000,0,-2.4667358,12.362004,-0.047579765,12.474865,7.258865e-06,0,1,0,1
38508000,38424000,38428000,0,-2.4906616,12.36208,-0.008407593,12.477723,2.2660421e-07,0,1,0,1
38564000,38484000,38484000,0,-2.4813232,12.36202,0.00095820427,12.480008,2.9428038e-09,0,1,0,1
38628000,38543000,38548000,0,-2.3639526,12.362096,-0.0,12.466295,4.230819e-05,0,1,0,1
38684000,38604000,38604000,0,-2.2757874,12.362034,-0.0,12.468376,9.4196075e-05,0,1,0,1
38748000,38664000,38668000,0,-2.3993835,12.362109,-0.0,12.471085,5.5459857e-08,0,1,0,1
38804000,38724000,38724000,0,-2.4275818,12.362047,0.066768885,12.473253,1.4296459e-05,0,1,0,1
38868000,38784000,38788000,0,-2.3283691,12.362123,0.018966436,12.476074,1.1533298e-06,0,1,0,1
38924000,38844000,38844000,0,-2.3094177,12.3620615,0.046663284,12.478331,6.9799794e-06,0,1,0,1
38988000,38904000,38908000,0,-2.111786,12.362137,-0.0,12.481261,3.0699503e-05,0,1,0,1
39044000,38964000,38964000,0,-2.1455383,12.362076,-0.0,12.46685,7.8238245e-06,0,1,0,1
39108000,39024000,39028000,0,-2.122528,12.362149,-0.0,12.469519,1.6979235e-06,0,1,0,1
39164000,39084000,39084000,0,-2.1884766,12.362087,0.08401179,12.471658,2.2636867e-05,0,1,0,1
39228000,39144000,39148000,0,-1.990509,12.362162,-0.0,12.47444,1.543187e-05,0,1,0,1
39284000,39204000,39204000,0,-2.0145874,12.3621,-0.0,12.476666,1.2525861e-07,0,1,0,1
39348000,39264000,39268000,0,-1.934845,12.362174,-0.0,12.479559,5.5032974e-06,0,1,0,1
39404000,39324000,39324000,0,-1.8178406,12.362112,-0.0,12.481869,4.5593e-05,0,1,0,1
39468000,39383000,39388000,0,-1.8987122,12.362186,-0.0,12.467969,7.096808e-07,0,1,0,1
39524000,39444000,39444000,0,-1.8518982,12.3621235,-0.0,12.4700775,1.6012414e-06,0,1,0,1
39588000,39504000,39508000,0,-1.8380127,12.362197,0.009029865,12.47282,2.614917e-07,0,1,0,1
39644000,39564000,39564000,0,-1.8660889,12.362134,0.076957226,12.475017,1.898968e-05,0,1,0,1
39708000,39624000,39628000,0,-1.6963806,12.362207,-0.0,12.477872,7.1822888e-06,0,1,0,1
39764000,39684000,39684000,0,-1.5653381,12.362145,-0.0,12.480153,6.0759332e-05,0,1,0,1
39828000,39744000,39748000,0,-1.6229248,12.362219,-0.0,12.466435,1.0347682e-05,0,1,0,1
39884000,39804000,39804000,0,-1.7126465,12.362155,0.07366133,12.468512,1.7407021e-05,0,1,0,1
39948000,39862000,39868000,0,-1.5570374,12.362227,-0.0,12.471216,4.123175e-06,0,1,0,1
40004000,39924000,39924000,0,-1.4400024,12.3621645,-0.0,12.473383,4.0121704e-05,0,1,0,1
40068000,39984000,39988000,0,-1.4410095,12.362237,-0.0,12.476199,1.3003813e-05,0,1,0,1
40124000,40044000,40044000,0,-1.6246948,12.362174,0.16149724,12.478452,8.3604464e-05,0,1,0,1
40188000,40104000,40108000,0,-1.4401245,12.362247,0.023043752,12.4813795,1.7017816e-06,0,1,0,1
40244000,40164000,40164000,0,-1.3554077,12.362185,-0.0,12.466967,5.1095953e-06,0,1,0,1
40308000,40224000,40228000,0,-1.2055359,12.362256,-0.0,12.469631,6.4940425e-05,0,1,0,1
40364000,40284000,40284000,0,-1.2115173,12.362192,-0.0,12.471767,2.8729755e-05,0,1,0,1
40428000,40344000,40348000,0,-1.1795044,12.362265,-0.0,12.474546,1.9982788e-05,0,1,0,1
40484000,40404000,40404000,0,-1.105072,12.362201,-0.0,12.476769,3.9836068e-05,0,1,0,1
40548000,40464000,40468000,0,-1.0544434,12.362273,-0.0,12.479659,4.1631352e-05,0,1,0,1
40604000,40524000,40524000,0,-1.1446838,12.362209,0.018543601,12.481965,1.1019583e-06,0,1,0,1
40668000,40584000,40588000,0,-1.0600281,12.362282,-0.0,12.468065,5.6141307e-06,0,1,0,1
40724000,40644000,40644000,0,-0.98526,12.362217,-0.0,12.47017,1.788181e-05,0,1,0,1
40788000,40704000,40708000,0,-0.91082764,12.362289,-0.0,12.472911,3.284478e-05,0,1,0,1
40844000,40764000,40764000,0,-1.0619812,12.362225,0.091892004,12.475104,2.7075175e-05,0,1,0,1
40908000,40824000,40828000,0,-0.9437866,12.362297,0.020917892,12.477957,1.4026599e-06,0,1,0,1
40964000,40884000,40884000,0,-0.86846924,12.362232,-0.0,12.480234,4.936242e-07,0,1,0,1
41028000,40944000,40948000,0,-0.79348755,12.362305,-0.0,12.466518,1.4077816e-05,0,1,0,1
41084000,41004000,41004000,0,-0.65792847,12.36224,-0.0,12.468593,8.2083796e-05,0,1,0,1
41148000,41064000,41068000,0,-0.7908325,12.36231,0.020783067,12.471294,1.3853762e-06,0,1,0,1
41204000,41124000,41124000,0,-0.6638794,12.362246,-0.0,12.473458,1.3318024e-05,0,1,0,1
41268000,41183000,41188000,0,-0.6174927,12.362317,-0.0,12.476273,1.2609124e-05,0,1,0,1
41324000,41244000,41244000,0,-0.76834106,12.362252,0.13047558,12.478522,5.457017e-05,0,1,0,1
41388000,41303000,41308000,0,-0.5934448,12.362324,0.002946496,12.481446,2.7823182e-08,0,1,0,1
41444000,41364000,41364000,0,-0.39624023,12.36226,-0.0,12.467035,9.5285104e-05,0,1,0,1
41508000,41424000,41428000,0,-0.54333496,12.36233,0.023159325,12.469699,1.7205045e-06,0,1,0,1
41564000,41484000,41484000,0,-0.5008545,12.362265,0.022871286,12.471832,1.6776868e-06,0,1,0,1
41628000,41544000,41548000,0,-0.35040283,12.362336,-0.0,12.474609,2.0164984e-05,0,1,0,1
41684000,41600000,41604000,0,-0.22433472,12.36227,-0.0,12.47683,8.5022235e-05,0,1,0,1
41732000,41652000,41652000,0,-0.385437,12.362072,0.03479731,12.478466,3.881416e-06,0,1,0,1
41796000,41712000,41716000,0,-0.3522644,12.362146,0.050130397,12.481397,8.0537675e-06,0,1,0,1
41852000,41770666,41772000,0,-0.34710693,12.362085,0.058888406,12.467007,1.112647e-05,0,1,0,1
41916000,41832000,41836000,0,-0.16348267,12.36216,-0.0,12.469678,1.9004632e-05,0,1,0,1
41972000,41892000,41892000,0,-0.22521973,12.362097,0.026980445,12.471819,2.3346856e-06,0,1,0,1
42036000,41952000,41956000,0,-0.15457153,12.362171,0.0043973327,12.474604,6.200288e-08,0,1,0,1
42092000,42012000,42012000,0,-0.11227417,12.362109,0.0044880956,12.476831,6.457731e-08,0,1,0,1
42156000,42070000,42076000,0,-0.037139893,12.362183,-0.0,12.479726,1.5475814e-06,0,1,0,1
42204000,42120000,42124000,0,0.033111572,12.361986,-0.0,12.476842,1.5439666e-05,0,1,0,1
42260000,42178666,42180000,0,0.1217041,12.361927,-0.0,12.46707,5.23672e-05,0,1,0,1
42324000,42240000,42244000,0,0.064208984,12.362003,-0.0,12.469751,1.5128772e-06,0,1,0,1
42380000,42300000,42300000,0,0.07342529,12.361944,0.011566542,12.471901,4.290762e-07,0,1,0,1
42444000,42360000,42364000,0,0.08758545,12.3620205,0.07213658,12.47469,1.668558e-05,0,1,0,1
42500000,42420000,42420000,0,0.08352661,12.361961,0.14096491,12.476902,6.370526e-05,0,1,0,1
42564000,42480000,42484000,0,0.023742676,12.362039,0.25910616,12.479748,0.00021518386,0,1,0,1
42620000,42540000,42540000,0,0.007293701,12.361979,0.11598787,12.465654,4.3168806e-05,0,1,0,1
42684000,42600000,42604000,0,-0.033935547,12.362055,0.19647741,12.4682045,0.00012384582,0,1,0,1
42740000,42660000,42660000,0,-0.041534424,12.361994,0.23600534,12.470215,0.00017866098,0,1,0,1
42804000,42720000,42724000,0,-0.025360107,12.36207,0.25611806,12.472815,0.00021036618,0,1,0,1
42860000,42780000,42780000,0,-0.13104248,12.362009,0.39454716,12.474855,0.00049913995,0,1,0,1
