timestamp,timestamp_sample,lat,lon,alt,alt_ellipsoid,delta_alt,eph,epv,terrain_alt,lat_lon_reset_counter,alt_reset_counter,terrain_alt_valid,dead_reckoning
8612000,8612000,47.39775080059327,8.545607395838958,488.0999,488.10303,-0.001011577,1.7320508,1.4142135,nan,2,2,0,0
8620000,8620000,47.39775079924643,8.545607395956763,488.09958,488.1027,-0.001011577,1.7320541,1.4142181,nan,2,2,0,0
8628000,8628000,47.39775079784878,8.545607396075301,488.09906,488.10217,-0.001011577,1.7320641,1.3872902,nan,2,2,0,0
8636000,8636000,47.39775079640275,8.545607396195454,488.09854,488.10165,-0.001011577,1.7320807,1.3873122,nan,2,2,0,0
8644000,8644000,47.39775079491189,8.545607396326165,488.09802,488.10114,-0.001011577,1.7321041,1.3873435,nan,2,2,0,0
8652000,8652000,47.397750793384795,8.54560739646388,488.09747,488.1006,-0.001011577,1.732134,1.3873842,nan,2,2,0,0
8660000,8660000,47.397750791821956,8.54560739659586,488.09695,488.10007,-0.001011577,1.7321706,1.3874341,nan,2,2,0,0
8668000,8668000,47.39775079022256,8.545607396725224,488.09637,488.0995,-0.001011577,1.7322139,1.3874935,nan,2,2,0,0
8676000,8676000,47.397750788567045,8.545607396863002,488.09583,488.09894,-0.001011577,1.7322638,1.3875622,nan,2,2,0,0
8684000,8684000,47.39775078686187,8.545607397017278,488.09537,488.09848,-0.001011577,1.7323204,1.364014,nan,2,2,0,0
8692000,8692000,47.39775078512518,8.545607397176141,488.0949,488.09802,-0.001011577,1.7323836,1.3640971,nan,2,2,0,0
8700000,8700000,47.3977507834041,8.545607397329384,488.09445,488.09756,-0.001011577,1.7324536,1.3641896,nan,2,2,0,0
8708000,8708000,47.397750781702776,8.545607397481906,488.094,488.0971,-0.001011577,1.73253,1.3642915,nan,2,2,0,0
8716000,8716000,47.39775078000395,8.545607397637413,488.0935,488.09662,-0.001011577,1.7326132,1.364403,nan,2,2,0,0
8724000,8724000,47.3977507782914,8.54560739780313,488.09305,488.09616,-0.001011577,1.7327031,1.364524,nan,2,2,0,0
8732000,8732000,47.39775077657779,8.545607397980216,488.0926,488.0957,-0.001011577,1.7327996,1.3646544,nan,2,2,0,0
8740000,8740000,47.39775077486902,8.545607398165112,488.09213,488.09525,-0.001011577,1.7329028,1.3647945,nan,2,2,0,0
8748000,8748000,47.39775077316323,8.545607398340405,488.0917,488.09482,-0.001011577,1.7330127,1.3439778,nan,2,2,0,0
8756000,8756000,47.39775077146736,8.545607398512988,488.09128,488.0944,-0.001011577,1.7331291,1.344129,nan,2,2,0,0
8764000,8764000,47.39775076977564,8.545607398710263,488.09088,488.094,-0.001011577,1.7332523,1.3442897,nan,2,2,0,0
8772000,8772000,47.39775076807786,8.545607398915092,488.09045,488.09357,-0.001011577,1.7333821,1.3444601,nan,2,2,0,0
8780000,8780000,47.397750766377406,8.545607399129548,488.09003,488.09314,-0.001011577,1.7335185,1.3446401,nan,2,2,0,0
8788000,8788000,47.39775076468195,8.545607399367388,488.0896,488.0927,-0.001011577,1.7336617,1.3448298,nan,2,2,0,0
8796000,8796000,47.39775076299478,8.545607399636891,488.08917,488.0923,-0.001011577,1.7338114,1.345029,nan,2,2,0,0
8804000,8804000,47.39775076130095,8.545607399915477,488.08856,488.09167,-0.001011577,1.7339678,1.326454,nan,2,2,0,0
8812000,8812000,47.39775075959141,8.54560740019983,488.08795,488.09106,-0.001011577,1.7341309,1.3266622,nan,2,2,0,0
8820000,8820000,47.397750757877006,8.545607400491248,488.08734,488.09045,-0.001011577,1.7343006,1.3268801,nan,2,2,0,0
8828000,8828000,47.39775075615601,8.545607400785707,488.08676,488.08987,-0.001011577,1.7344769,1.3271077,nan,2,2,0,0
8836000,8836000,47.3977507544303,8.54560740107806,488.08615,488.08926,-0.001011577,1.7346599,1.327345,nan,2,2,0,0
8844000,8844000,47.397750752703274,8.545607401373974,488.08557,488.08868,-0.001011577,1.7348496,1.3275921,nan,2,2,0,0
8852000,8852000,47.397750750981125,8.545607401658444,488.085,488.0881,-0.001011577,1.7350459,1.3278489,nan,2,2,0,0
8860000,8860000,47.397750749254946,8.545607401934747,488.0844,488.08752,-0.001011577,1.7352488,1.3281155,nan,2,2,0,0
8868000,8868000,47.39775074751715,8.545607402208928,488.08395,488.08707,-0.001011577,1.7354585,1.3113797,nan,2,2,0,0
8876000,8876000,47.397750745767894,8.54560740247409,488.0835,488.0866,-0.001011577,1.7356746,1.3116527,nan,2,2,0,0
8884000,8884000,47.39775074401174,8.545607402748375,488.08304,488.08615,-0.001011577,1.7358975,1.3119354,nan,2,2,0,0
8892000,8892000,47.39775074226225,8.545607403020163,488.0826,488.08572,-0.001011577,1.736127,1.312228,nan,2,2,0,0
8900000,8900000,47.39775074052749,8.545607403287013,488.08215,488.08527,-0.001011577,1.7363632,1.3125304,nan,2,2,0,0
8908000,8908000,47.39775073879695,8.545607403553491,488.0817,488.0848,-0.001011577,1.736606,1.3128426,nan,2,2,0,0
8916000,8916000,47.39775073706164,8.545607403818659,488.08127,488.08438,-0.001011577,1.7368554,1.3131646,nan,2,2,0,0
8924000,8924000,47.397750735326696,8.545607404091603,488.0809,488.084,-0.001011577,1.7371114,1.2979788,nan,2,2,0,0
8932000,8932000,47.39775073360436,8.54560740439887,488.0805,488.08362,-0.001011577,1.7373741,1.2983054,nan,2,2,0,0
8940000,8940000,47.39775073188741,8.545607404726244,488.08014,488.08325,-0.001011577,1.7376434,1.2986419,nan,2,2,0,0
8948000,8948000,47.39775073015331,8.545607405053842,488.07977,488.0829,-0.001011577,1.7379194,1.2989882,nan,2,2,0,0
8956000,8956000,47.397750728417456,8.545607405401087,488.07938,488.0825,-0.001011577,1.738202,1.2993445,nan,2,2,0,0
8964000,8964000,47.397750726685516,8.545607405747862,488.079,488.08212,-0.001011577,1.7384912,1.2997106,nan,2,2,0,0
8972000,8972000,47.3977507249551,8.545607406097522,488.0786,488.08173,-0.001011577,1.738787,1.3000867,nan,2,2,0,0
8980000,8980000,47.39775072321206,8.54560740646188,488.07825,488.08136,-0.001011577,1.7390895,1.3004725,nan,2,2,0,0
8988000,8988000,47.3977507214608,8.54560740684433,488.07794,488.08105,-0.001011577,1.7393985,1.2865647,nan,2,2,0,0
8996000,8996000,47.397750719707744,8.54560740723576,488.07764,488.08075,-0.001011577,1.7397143,1.2869531,nan,2,2,0,0
9004000,9004000,47.39775072044018,8.545607407391726,488.07776,488.08188,-0.001011577,1.4166622,1.1801639,nan,2,2,0,0
9012000,9012000,47.3977507211639,8.545607407545624,488.07788,488.082,-0.001011577,1.4167639,1.1803002,nan,2,2,0,0
9020000,9020000,47.397750721877166,8.545607407700675,488.07803,488.08215,-0.001011577,1.4168696,1.1804421,nan,2,2,0,0
9028000,9028000,47.397750722569334,8.545607407854897,488.07816,488.08228,-0.001011577,1.4169794,1.1805893,nan,2,2,0,0
9036000,9036000,47.397750723240144,8.545607408006285,488.0783,488.08243,-0.001011577,1.4170933,1.180742,nan,2,2,0,0
9044000,9044000,47.39775072390192,8.545607408154988,488.07852,488.08264,-0.001011577,1.4172113,1.1756797,nan,2,2,0,0
9052000,9052000,47.397750724550434,8.545607408326893,488.07874,488.08286,-0.001011577,1.4173332,1.175839,nan,2,2,0,0
9060000,9060000,47.39775072518019,8.545607408525658,488.07895,488.08307,-0.001011577,1.4174592,1.1760036,nan,2,2,0,0
9068000,9068000,47.397750725802844,8.545607408712904,488.07916,488.08328,-0.001011577,1.4175894,1.1761738,nan,2,2,0,0
9076000,9076000,47.397750726414046,8.5456074088965,488.07935,488.08347,-0.001011577,1.4177235,1.1763494,nan,2,2,0,0
9084000,9084000,47.39775072699922,8.54560740908758,488.07956,488.08368,-0.001011577,1.4178617,1.1765305,nan,2,2,0,0
9092000,9092000,47.39775072755407,8.545607409293313,488.07977,488.0839,-0.001011577,1.418004,1.1767169,nan,2,2,0,0
9100000,9100000,47.397750728082904,8.545607409497348,488.07996,488.08408,-0.001011577,1.4181503,1.1769089,nan,2,2,0,0
9108000,9108000,47.39775072859648,8.545607409700445,488.08014,488.08426,-0.001011577,1.4183007,1.172101,nan,2,2,0,0
9116000,9116000,47.39775072909612,8.545607409899112,488.0803,488.0844,-0.001011577,1.4184552,1.1722987,nan,2,2,0,0
9124000,9124000,47.397750729574554,8.545607410102518,488.08044,488.08456,-0.001011577,1.4186138,1.1725017,nan,2,2,0,0
9132000,9132000,47.39775073002018,8.545607410325571,488.08063,488.08475,-0.001011577,1.4187764,1.1727102,nan,2,2,0,0
9140000,9140000,47.3977507304241,8.545607410554146,488.08078,488.0849,-0.001011577,1.4189432,1.172924,nan,2,2,0,0
9148000,9148000,47.39775073078391,8.545607410771792,488.08093,488.08505,-0.001011577,1.4191139,1.1731435,nan,2,2,0,0
9156000,9156000,47.39775073111339,8.545607410991456,488.0811,488.0852,-0.001011577,1.4192888,1.1733683,nan,2,2,0,0
9164000,9164000,47.39775073142583,8.545607411218533,488.0813,488.08542,-0.001011577,1.4194676,1.1687884,nan,2,2,0,0
9172000,9172000,47.39775073173104,8.545607411452128,488.08148,488.0856,-0.001011577,1.4196507,1.1690181,nan,2,2,0,0
9180000,9180000,47.397750732016625,8.545607411711003,488.08167,488.0858,-0.001011577,1.4198377,1.1692532,nan,2,2,0,0
9188000,9188000,47.397750732275185,8.545607411972032,488.08185,488.08597,-0.001011577,1.4200288,1.1694938,nan,2,2,0,0
9196000,9196000,47.39775073251017,8.545607412212249,488.08203,488.08615,-0.001011577,1.420224,1.16974,nan,2,2,0,0
9204000,9204000,47.397750732735,8.545607412466943,488.0822,488.08633,-0.001011577,1.4204233,1.1699915,nan,2,2,0,0
9212000,9212000,47.39775073295151,8.545607412722996,488.0824,488.08652,-0.001011577,1.4206266,1.1702485,nan,2,2,0,0
9220000,9220000,47.39775073316501,8.545607412965996,488.08255,488.08667,-0.001011577,1.420834,1.1705109,nan,2,2,0,0
9228000,9228000,47.397750733366536,8.545607413221147,488.08267,488.0868,-0.001011577,1.4210454,1.1661227,nan,2,2,0,0
9236000,9236000,47.39775073353963,8.545607413467488,488.08276,488.08688,-0.001011577,1.421261,1.1663891,nan,2,2,0,0
9244000,9244000,47.39775073368802,8.545607413693576,488.08286,488.08698,-0.001011577,1.4214805,1.166661,nan,2,2,0,0
9252000,9252000,47.39775073383193,8.54560741393154,488.08295,488.08707,-0.001011577,1.4217043,1.1669383,nan,2,2,0,0
9260000,9260000,47.397750733963946,8.545607414198395,488.08304,488.08716,-0.001011577,1.421932,1.1672212,nan,2,2,0,0
9268000,9268000,47.39775073406859,8.54560741447155,488.08313,488.08725,-0.001011577,1.4221638,1.1675093,nan,2,2,0,0
9276000,9276000,47.397750734156574,8.54560741475386,488.0832,488.0873,-0.001011577,1.4223998,1.167803,nan,2,2,0,0
9284000,9284000,47.39775073423641,8.545607415056685,488.08325,488.08737,-0.001011577,1.4226397,1.1635901,nan,2,2,0,0
9292000,9292000,47.39775073429124,8.545607415360154,488.0833,488.08743,-0.001011577,1.4228839,1.163887,nan,2,2,0,0
9300000,9300000,47.39775073431031,8.54560741566528,488.08337,488.0875,-0.001011577,1.4231321,1.1641896,nan,2,2,0,0
9308000,9308000,47.397750734295,8.545607415982905,488.08344,488.08755,-0.001011577,1.4233843,1.1644974,nan,2,2,0,0
9316000,9316000,47.3977507342495,8.545607416307298,488.08347,488.0876,-0.001011577,1.4236406,1.1648108,nan,2,2,0,0
9324000,9324000,47.39775073418715,8.545607416614207,488.08353,488.08765,-0.001011577,1.423901,1.1651295,nan,2,2,0,0
9332000,9332000,47.39775073410613,8.545607416915944,488.08356,488.08768,-0.001011577,1.4241655,1.1654538,nan,2,2,0,0
9340000,9340000,47.39775073400023,8.545607417220612,488.08362,488.08774,-0.001011577,1.424434,1.1657834,nan,2,2,0,0
9348000,9348000,47.39775073386659,8.545607417508553,488.08368,488.0878,-0.001011577,1.4247067,1.1617118,nan,2,2,0,0
9356000,9356000,47.397750733696384,8.545607417797532,488.08374,488.08786,-0.001011577,1.4249834,1.1620439,nan,2,2,0,0
9364000,9364000,47.3977507334954,8.545607418094333,488.0838,488.08792,-0.001011577,1.4252642,1.1623814,nan,2,2,0,0
9372000,9372000,47.39775073328118,8.545607418388323,488.08386,488.08798,-0.001011577,1.4255491,1.1627245,nan,2,2,0,0
9380000,9380000,47.397750733049946,8.545607418669173,488.08392,488.08804,-0.001011577,1.4258381,1.1630728,nan,2,2,0,0
9388000,9388000,47.3977507327882,8.545607418962843,488.08395,488.08807,-0.001011577,1.4261312,1.1634268,nan,2,2,0,0
9396000,9396000,47.39775073249656,8.545607419288595,488.084,488.08813,-0.001011577,1.4264283,1.163786,nan,2,2,0,0
9404000,9404000,47.39775073218923,8.545607419651247,488.084,488.08813,-0.001011577,1.4267296,1.1598473,nan,2,2,0,0
9412000,9412000,47.39775073315497,8.545607417864694,488.0842,488.08884,-0.001011577,1.2958071,1.118926,nan,2,2,0,0
9420000,9420000,47.397750734101784,8.545607416064545,488.08438,488.08902,-0.001011577,1.295957,1.1191167,nan,2,2,0,0
9428000,9428000,47.397750735028644,8.54560741426604,488.08453,488.08917,-0.001011577,1.2961098,1.1193111,nan,2,2,0,0
9436000,9436000,47.39775073593275,8.545607412489499,488.08472,488.08936,-0.001011577,1.2962655,1.1195091,nan,2,2,0,0
9444000,9444000,47.39775073680582,8.54560741073555,488.08487,488.0895,-0.001011577,1.2964243,1.119711,nan,2,2,0,0
9452000,9452000,47.39775073763389,8.545607409003145,488.08502,488.08966,-0.001011577,1.296586,1.1199166,nan,2,2,0,0
9460000,9460000,47.39775073842915,8.545607407298764,488.08517,488.0898,-0.001011577,1.2967508,1.120126,nan,2,2,0,0
9468000,9468000,47.39775073919484,8.545607405609157,488.0853,488.08994,-0.001011577,1.2969185,1.1180158,nan,2,2,0,0
9476000,9476000,47.39775073993224,8.545607403935847,488.08542,488.09006,-0.001011577,1.2970892,1.1182287,nan,2,2,0,0
9484000,9484000,47.39775074064735,8.545607402277964,488.08554,488.09018,-0.001011577,1.2972629,1.1184453,nan,2,2,0,0
9492000,9492000,47.397750741342904,8.545607400645215,488.08563,488.09027,-0.001011577,1.2974396,1.1186657,nan,2,2,0,0
9500000,9500000,47.39775074201762,8.545607399041721,488.08575,488.0904,-0.001011577,1.2976192,1.1188898,nan,2,2,0,0
9508000,9508000,47.39775074264892,8.545607397453661,488.08585,488.09048,-0.001011577,1.297802,1.1191177,nan,2,2,0,0
9516000,9516000,47.397750743249496,8.545607395893208,488.08594,488.09058,-0.001011577,1.2979876,1.1193494,nan,2,2,0,0
9524000,9524000,47.397750743828674,8.545607394343019,488.08606,488.0907,-0.001011577,1.2981762,1.1172904,nan,2,2,0,0
9532000,9532000,47.397750744391146,8.545607392816908,488.08615,488.0908,-0.001011577,1.2983679,1.1175252,nan,2,2,0,0
9540000,9540000,47.3977507449152,8.545607391327954,488.08624,488.09088,-0.001011577,1.2985625,1.1177638,nan,2,2,0,0
9548000,9548000,47.397750745408594,8.545607389868293,488.08636,488.091,-0.001011577,1.2987602,1.118006,nan,2,2,0,0
9556000,9556000,47.39775074588323,8.545607388423727,488.08646,488.0911,-0.001011577,1.2989608,1.118252,nan,2,2,0,0
9564000,9564000,47.39775074633172,8.545607386982523,488.08652,488.09116,-0.001011577,1.2991644,1.1185018,nan,2,2,0,0
9572000,9572000,47.39775074674939,8.545607385543892,488.0866,488.09125,-0.001011577,1.2993711,1.1187552,nan,2,2,0,0
9580000,9580000,47.39775074713895,8.54560738412437,488.08667,488.0913,-0.001011577,1.2995808,1.1167401,nan,2,2,0,0
9588000,9588000,47.39775074748865,8.545607382710962,488.08673,488.09137,-0.001011577,1.2997935,1.1169963,nan,2,2,0,0
9596000,9596000,47.39775074779761,8.545607381309532,488.08676,488.0914,-0.001011577,1.3000093,1.1172563,nan,2,2,0,0
9604000,9604000,47.39775074808326,8.545607379940153,488.08682,488.09146,-0.001011577,1.300228,1.1175201,nan,2,2,0,0
9612000,9612000,47.39775074833706,8.545607378602737,488.08685,488.0915,-0.001011577,1.3004497,1.1177875,nan,2,2,0,0
9620000,9620000,47.397750748553555,8.545607377284522,488.08688,488.09152,-0.001011577,1.3006744,1.1180587,nan,2,2,0,0
9628000,9628000,47.39775074873161,8.54560737598133,488.0869,488.09155,-0.001011577,1.3009022,1.1183336,nan,2,2,0,0
9636000,9636000,47.39775074887622,8.545607374695997,488.08694,488.09158,-0.001011577,1.3011332,1.1163552,nan,2,2,0,0
9644000,9644000,47.397750748993424,8.545607373434207,488.087,488.09164,-0.001011577,1.301367,1.1166325,nan,2,2,0,0
9652000,9652000,47.397750749084565,8.54560737219733,488.08704,488.09167,-0.001011577,1.3016039,1.1169136,nan,2,2,0,0
9660000,9660000,47.397750749141174,8.545607370991444,488.08707,488.0917,-0.001011577,1.3018438,1.1171982,nan,2,2,0,0
9668000,9668000,47.39775074917296,8.545607369826321,488.0871,488.09174,-0.001011577,1.3020867,1.1174867,nan,2,2,0,0
9676000,9676000,47.39775074918188,8.545607368687316,488.08713,488.09177,-0.001011577,1.3023328,1.1177789,nan,2,2,0,0
9684000,9684000,47.39775074917805,8.545607367554819,488.08716,488.0918,-0.001011577,1.3025818,1.1180748,nan,2,2,0,0
9692000,9692000,47.39775074915041,8.545607366429847,488.08713,488.09177,-0.001011577,1.3028339,1.1161265,nan,2,2,0,0
9700000,9700000,47.39775074908806,8.5456073653267,488.0871,488.09174,-0.001011577,1.303089,1.1164246,nan,2,2,0,0
9708000,9708000,47.39775074899549,8.545607364247106,488.0871,488.09174,-0.001011577,1.3033472,1.1167262,nan,2,2,0,0
9716000,9716000,47.397750748887105,8.545607363195309,488.08707,488.0917,-0.001011577,1.3036085,1.1170315,nan,2,2,0,0
9724000,9724000,47.397750748756295,8.545607362166427,488.08704,488.09167,-0.001011577,1.3038728,1.1173404,nan,2,2,0,0
9732000,9732000,47.39775074860289,8.545607361165905,488.087,488.09164,-0.001011577,1.3041402,1.1176533,nan,2,2,0,0
9740000,9740000,47.39775074844371,8.545607360202894,488.08698,488.0916,-0.001011577,1.3044106,1.1179698,nan,2,2,0,0
9748000,9748000,47.39775074826967,8.545607359262721,488.0869,488.09155,-0.001011577,1.3046842,1.11829,nan,2,2,0,0
9756000,9756000,47.39775074808321,8.545607358340282,488.08685,488.0915,-0.001011577,1.3049606,1.1163571,nan,2,2,0,0
9764000,9764000,47.39775074788948,8.545607357425737,488.08682,488.09146,-0.001011577,1.3052403,1.1166788,nan,2,2,0,0
9772000,9772000,47.39775074766708,8.545607356525228,488.08676,488.0914,-0.001011577,1.305523,1.1170042,nan,2,2,0,0
9780000,9780000,47.39775074742453,8.545607355648377,488.0867,488.09134,-0.001011577,1.3058088,1.1173333,nan,2,2,0,0
9788000,9788000,47.39775074716451,8.545607354803037,488.08664,488.09128,-0.001011577,1.3060976,1.1176661,nan,2,2,0,0
9796000,9796000,47.39775074688642,8.545607354003087,488.08655,488.0912,-0.001011577,1.3063896,1.1180025,nan,2,2,0,0
9804000,9804000,47.39775074657624,8.545607353238251,488.0865,488.09113,-0.001011577,1.3066846,1.1183428,nan,2,2,0,0
9812000,9812000,47.39775074618011,8.54560735400261,488.08667,488.09134,-0.001011577,1.2321823,1.0919155,nan,2,2,0,0
9820000,9820000,47.3977507457695,8.545607354740719,488.08685,488.09152,-0.001011577,1.2323579,1.0921283,nan,2,2,0,0
9828000,9828000,47.39775074533957,8.545607355444433,488.08704,488.0917,-0.001011577,1.232536,1.0923439,nan,2,2,0,0
9836000,9836000,47.39775074489286,8.545607356118948,488.08722,488.0919,-0.001011577,1.2327164,1.0925624,nan,2,2,0,0
9844000,9844000,47.39775074443992,8.54560735676458,488.0874,488.09207,-0.001011577,1.2328993,1.0927838,nan,2,2,0,0
9852000,9852000,47.39775074397239,8.545607357395973,488.0876,488.09225,-0.001011577,1.2330847,1.0930079,nan,2,2,0,0
9860000,9860000,47.397750743484224,8.5456073580137,488.08774,488.0924,-0.001011577,1.2332723,1.0932349,nan,2,2,0,0
9868000,9868000,47.39775074297611,8.54560735861908,488.08792,488.0926,-0.001011577,1.2334625,1.0934646,nan,2,2,0,0
9876000,9876000,47.39775074244692,8.545607359234058,488.0881,488.09277,-0.001011577,1.233655,1.0922852,nan,2,2,0,0
9884000,9884000,47.39775074189207,8.54560735984591,488.0883,488.09296,-0.001011577,1.23385,1.0925171,nan,2,2,0,0
9892000,9892000,47.39775074131093,8.545607360426832,488.08847,488.09314,-0.001011577,1.2340474,1.0927519,nan,2,2,0,0
9900000,9900000,47.3977507407109,8.545607360981377,488.08862,488.0933,-0.001011577,1.2342473,1.0929896,nan,2,2,0,0
9908000,9908000,47.39775074008945,8.54560736152514,488.0888,488.09348,-0.001011577,1.2344496,1.09323,nan,2,2,0,0
9916000,9916000,47.397750739442515,8.54560736207025,488.08896,488.09363,-0.001011577,1.2346543,1.0934732,nan,2,2,0,0
9924000,9924000,47.397750738776644,8.54560736262806,488.08914,488.0938,-0.001011577,1.2348615,1.0937194,nan,2,2,0,0
9932000,9932000,47.39775073809868,8.545607363185967,488.08926,488.09393,-0.001011577,1.2350712,1.0925481,nan,2,2,0,0
9940000,9940000,47.39775073740568,8.545607363734447,488.0894,488.09406,-0.001011577,1.2352833,1.0927961,nan,2,2,0,0
9948000,9948000,47.39775073670591,8.545607364279736,488.0895,488.09418,-0.001011577,1.2354978,1.093047,nan,2,2,0,0
9956000,9956000,47.39775073600068,8.545607364826829,488.08963,488.0943,-0.001011577,1.2357148,1.0933007,nan,2,2,0,0
9964000,9964000,47.397750735280155,8.545607365363418,488.08975,488.09442,-0.001011577,1.2359343,1.0935571,nan,2,2,0,0
9972000,9972000,47.397750734542,8.545607365886285,488.08987,488.09454,-0.001011577,1.2361562,1.0938165,nan,2,2,0,0
9980000,9980000,47.397750733774984,8.545607366404296,488.08997,488.09464,-0.001011577,1.2363807,1.0940787,nan,2,2,0,0
9988000,9988000,47.39775073298717,8.545607366907872,488.0901,488.09476,-0.001011577,1.2366076,1.0943435,nan,2,2,0,0
9996000,9996000,47.397750732176654,8.545607367401434,488.09018,488.09485,-0.001011577,1.236837,1.0931718,nan,2,2,0,0
10004000,10004000,47.39775073133709,8.545607367893583,488.09024,488.0949,-0.001011577,1.2370689,1.0934384,nan,2,2,0,0
10012000,10012000,47.39775073047916,8.545607368393146,488.09033,488.095,-0.001011577,1.2373033,1.0937078,nan,2,2,0,0
10020000,10020000,47.39775072959854,8.545607368884095,488.0904,488.09506,-0.001011577,1.2375401,1.09398,nan,2,2,0,0
10028000,10028000,47.39775072869222,8.545607369368994,488.09048,488.09515,-0.001011577,1.2377796,1.094255,nan,2,2,0,0
10036000,10036000,47.397750727781926,8.54560736986232,488.09055,488.0952,-0.001011577,1.2380215,1.0945327,nan,2,2,0,0
10044000,10044000,47.39775072686539,8.545607370363813,488.09064,488.0953,-0.001011577,1.2382659,1.0933679,nan,2,2,0,0
10052000,10052000,47.39775072593479,8.545607370853698,488.09073,488.0954,-0.001011577,1.2385128,1.0936472,nan,2,2,0,0
10060000,10060000,47.39775072498616,8.545607371334237,488.09085,488.09552,-0.001011577,1.2387623,1.0939293,nan,2,2,0,0
10068000,10068000,47.3977507240184,8.54560737183328,488.09094,488.0956,-0.001011577,1.2390143,1.0942142,nan,2,2,0,0
10076000,10076000,47.39775072304689,8.54560737233077,488.09103,488.0957,-0.001011577,1.2392688,1.0945017,nan,2,2,0,0
10084000,10084000,47.397750722069574,8.54560737281915,488.09113,488.0958,-0.001011577,1.2395258,1.0947922,nan,2,2,0,0
10092000,10092000,47.39775072108469,8.545607373311109,488.09122,488.0959,-0.001011577,1.2397853,1.0950855,nan,2,2,0,0
10100000,10100000,47.39775072009869,8.545607373806371,488.09125,488.09592,-0.001011577,1.2400475,1.0939189,nan,2,2,0,0
10108000,10108000,47.39775071911679,8.545607374311668,488.0913,488.09598,-0.001011577,1.2403122,1.0942134,nan,2,2,0,0
10116000,10116000,47.397750718135036,8.545607374814002,488.09137,488.09604,-0.001011577,1.2405795,1.0945106,nan,2,2,0,0
10124000,10124000,47.39775071715409,8.545607375299303,488.09143,488.0961,-0.001011577,1.2408493,1.0948106,nan,2,2,0,0
10132000,10132000,47.39775071615984,8.545607375756807,488.09146,488.09613,-0.001011577,1.2411216,1.0951134,nan,2,2,0,0
10140000,10140000,47.397750715156654,8.545607376197015,488.09152,488.0962,-0.001011577,1.2413967,1.095419,nan,2,2,0,0
10148000,10148000,47.397750714147826,8.545607376639392,488.09155,488.09622,-0.001011577,1.2416742,1.0957274,nan,2,2,0,0
10156000,10156000,47.3977507131382,8.54560737708414,488.0916,488.09628,-0.001011577,1.2419543,1.0960386,nan,2,2,0,0
10164000,10164000,47.397750712126374,8.545607377505936,488.09164,488.0963,-0.001011577,1.242237,1.0948603,nan,2,2,0,0
10172000,10172000,47.39775071111018,8.545607377925919,488.09167,488.09634,-0.001011577,1.2425222,1.0951723,nan,2,2,0,0
10180000,10180000,47.39775071008569,8.54560737836025,488.0917,488.09637,-0.001011577,1.2428102,1.0954871,nan,2,2,0,0
10188000,10188000,47.39775070905582,8.545607378803215,488.0917,488.09637,-0.001011577,1.2431008,1.0958048,nan,2,2,0,0
10196000,10196000,47.39775070802379,8.545607379241876,488.09174,488.0964,-0.001011577,1.2433939,1.0961251,nan,2,2,0,0
10204000,10204000,47.39775070698046,8.545607379674028,488.09177,488.09644,-0.001011577,1.2436895,1.0964483,nan,2,2,0,0
10212000,10212000,47.39775070870067,8.545607381528503,488.09183,488.09625,-0.001011577,1.1934946,1.0784774,nan,2,2,0,0
10220000,10220000,47.397750710369394,8.545607383337202,488.09192,488.09634,-0.001011577,1.193688,1.077705,nan,2,2,0,0
10228000,10228000,47.39775071199374,8.5456073851095,488.092,488.09644,-0.001011577,1.1938837,1.0779301,nan,2,2,0,0
10236000,10236000,47.39775071357679,8.54560738684995,488.0921,488.09653,-0.001011577,1.1940812,1.0781572,nan,2,2,0,0
10244000,10244000,47.39775071511468,8.545607388562953,488.0922,488.09662,-0.001011577,1.194281,1.0783867,nan,2,2,0,0
10252000,10252000,47.397750716611185,8.545607390250847,488.0923,488.0967,-0.001011577,1.1944829,1.0786183,nan,2,2,0,0
10260000,10260000,47.397750718068984,8.545607391891455,488.09238,488.0968,-0.001011577,1.1946869,1.0788522,nan,2,2,0,0
10268000,10268000,47.39775071948133,8.545607393495779,488.09244,488.09686,-0.001011577,1.194893,1.0790882,nan,2,2,0,0
10276000,10276000,47.397750720855655,8.545607395089585,488.09253,488.09695,-0.001011577,1.1951013,1.0793265,nan,2,2,0,0
10284000,10284000,47.39775072219654,8.545607396681651,488.09256,488.097,-0.001011577,1.1953117,1.0785476,nan,2,2,0,0
10292000,10292000,47.39775072350651,8.545607398272283,488.0926,488.09702,-0.001011577,1.1955242,1.0787874,nan,2,2,0,0
10300000,10300000,47.397750724781496,8.545607399848569,488.09262,488.09705,-0.001011577,1.195739,1.0790294,nan,2,2,0,0
10308000,10308000,47.39775072602369,8.545607401431171,488.09265,488.09708,-0.001011577,1.1959558,1.0792737,nan,2,2,0,0
10316000,10316000,47.397750727232754,8.5456074030097,488.09268,488.0971,-0.001011577,1.1961749,1.0795202,nan,2,2,0,0
10324000,10324000,47.39775072840793,8.54560740456424,488.0927,488.09714,-0.001011577,1.196396,1.079769,nan,2,2,0,0
10332000,10332000,47.39775072954641,8.545607406094502,488.09274,488.09717,-0.001011577,1.1966194,1.08002,nan,2,2,0,0
10340000,10340000,47.39775073064441,8.545607407589415,488.09277,488.0972,-0.001011577,1.1968449,1.0792356,nan,2,2,0,0
10348000,10348000,47.397750731708044,8.54560740906626,488.0928,488.09723,-0.001011577,1.1970727,1.0794878,nan,2,2,0,0
10356000,10356000,47.39775073274172,8.545607410513028,488.09283,488.09726,-0.001011577,1.1973026,1.0797423,nan,2,2,0,0
10364000,10364000,47.3977507337397,8.545607411921303,488.09286,488.0973,-0.001011577,1.1975347,1.079999,nan,2,2,0,0
10372000,10372000,47.39775073469739,8.545607413300708,488.0929,488.09732,-0.001011577,1.197769,1.080258,nan,2,2,0,0
10380000,10380000,47.3977507356264,8.545607414675723,488.09293,488.09735,-0.001011577,1.1980057,1.0805191,nan,2,2,0,0
10388000,10388000,47.39775073652644,8.545607416052443,488.09296,488.09738,-0.001011577,1.1982445,1.0807825,nan,2,2,0,0
10396000,10396000,47.397750737401026,8.545607417413477,488.09296,488.09738,-0.001011577,1.1984855,1.081048,nan,2,2,0,0
10404000,10404000,47.3977507382386,8.545607418748203,488.093,488.0974,-0.001011577,1.1987287,1.0802515,nan,2,2,0,0
10412000,10412000,47.397750739048675,8.545607420063837,488.093,488.0974,-0.001011577,1.1989743,1.0805181,nan,2,2,0,0
10420000,10420000,47.39775073983539,8.545607421367148,488.09302,488.09744,-0.001011577,1.199222,1.0807871,nan,2,2,0,0
10428000,10428000,47.39775074059297,8.545607422643767,488.09302,488.09744,-0.001011577,1.199472,1.0810581,nan,2,2,0,0
10436000,10436000,47.39775074132715,8.545607423877343,488.09302,488.09744,-0.001011577,1.1997243,1.0813315,nan,2,2,0,0
10444000,10444000,47.397750742029466,8.54560742508096,488.09302,488.09744,-0.001011577,1.1999788,1.0816071,nan,2,2,0,0
10452000,10452000,47.39775074269221,8.545607426262109,488.09302,488.09744,-0.001011577,1.2002356,1.0818849,nan,2,2,0,0
10460000,10460000,47.3977507433312,8.54560742739755,488.09302,488.09744,-0.001011577,1.2004948,1.0810782,nan,2,2,0,0
10468000,10468000,47.39775074393466,8.545607428516966,488.09302,488.09744,-0.001011577,1.2007562,1.0813569,nan,2,2,0,0
10476000,10476000,47.39775074450402,8.545607429624196,488.09302,488.09744,-0.001011577,1.2010199,1.0816377,nan,2,2,0,0
10484000,10484000,47.39775074504334,8.545607430713089,488.09302,488.09744,-0.001011577,1.201286,1.0819209,nan,2,2,0,0
10492000,10492000,47.397750745555456,8.545607431801066,488.09302,488.09744,-0.001011577,1.2015542,1.0822061,nan,2,2,0,0
10500000,10500000,47.39775074604384,8.545607432905932,488.093,488.0974,-0.001011577,1.2018249,1.0824937,nan,2,2,0,0
10508000,10508000,47.39775074650722,8.545607434013471,488.093,488.0974,-0.001011577,1.2020979,1.0827835,nan,2,2,0,0
10516000,10516000,47.397750746947125,8.54560743510328,488.09296,488.09738,-0.001011577,1.2023733,1.0830753,nan,2,2,0,0
10524000,10524000,47.397750747354785,8.54560743618992,488.09296,488.09738,-0.001011577,1.2026509,1.0822511,nan,2,2,0,0
10532000,10532000,47.397750747733426,8.545607437256022,488.09296,488.09738,-0.001011577,1.2029309,1.0825436,nan,2,2,0,0
10540000,10540000,47.39775074809507,8.545607438301026,488.09296,488.09738,-0.001011577,1.2032133,1.0828384,nan,2,2,0,0
10548000,10548000,47.39775074844599,8.545607439348565,488.09296,488.09738,-0.001011577,1.2034981,1.0831355,nan,2,2,0,0
10556000,10556000,47.39775074878147,8.545607440390032,488.09296,488.09738,-0.001011577,1.2037853,1.0834347,nan,2,2,0,0
10564000,10564000,47.3977507491022,8.545607441427673,488.09296,488.09738,-0.001011577,1.2040749,1.0837362,nan,2,2,0,0
10572000,10572000,47.39775074939232,8.545607442477825,488.09293,488.09735,-0.001011577,1.2043668,1.0840398,nan,2,2,0,0
10580000,10580000,47.39775074964782,8.545607443522481,488.09293,488.09735,-0.001011577,1.2046611,1.083201,nan,2,2,0,0
10588000,10588000,47.39775074987302,8.54560744456604,488.09293,488.09735,-0.001011577,1.204958,1.0835052,nan,2,2,0,0
10596000,10596000,47.397750750068965,8.545607445602542,488.09293,488.09735,-0.001011577,1.205257,1.0838114,nan,2,2,0,0
10604000,10604000,47.39775075023963,8.54560744662634,488.0929,488.09732,-0.001011577,1.2055588,1.0841199,nan,2,2,0,0
10612000,10612000,47.39775075109746,8.545607446894941,488.09286,488.09726,-0.001011577,1.167945,1.0697008,nan,2,2,0,0
10620000,10620000,47.39775075192802,8.545607447173019,488.0928,488.0972,-0.001011577,1.1681529,1.069929,nan,2,2,0,0
10628000,10628000,47.397750752739185,8.545607447469905,488.09274,488.09714,-0.001011577,1.1683629,1.070159,nan,2,2,0,0
10636000,10636000,47.397750753518665,8.545607447805482,488.09268,488.09708,-0.001011577,1.1685748,1.0703907,nan,2,2,0,0
10644000,10644000,47.397750754263754,8.545607448157616,488.0926,488.097,-0.001011577,1.1687888,1.0698206,nan,2,2,0,0
10652000,10652000,47.39775075497455,8.545607448527406,488.09253,488.09692,-0.001011577,1.1690046,1.0700535,nan,2,2,0,0
10660000,10660000,47.39775075565458,8.545607448913628,488.09244,488.09683,-0.001011577,1.1692225,1.0702883,nan,2,2,0,0
10668000,10668000,47.39775075632675,8.54560744929953,488.09235,488.09674,-0.001011577,1.1694424,1.0705249,nan,2,2,0,0
10676000,10676000,47.39775075699238,8.545607449697233,488.09225,488.09665,-0.001011577,1.1696643,1.0707632,nan,2,2,0,0
10684000,10684000,47.3977507576462,8.545607450120935,488.09216,488.09656,-0.001011577,1.1698883,1.0710036,nan,2,2,0,0
10692000,10692000,47.39775075829167,8.545607450567537,488.09207,488.09647,-0.001011577,1.1701142,1.0712457,nan,2,2,0,0
10700000,10700000,47.39775075891692,8.545607451012966,488.09198,488.09637,-0.001011577,1.1703422,1.0706661,nan,2,2,0,0
10708000,10708000,47.39775075950705,8.545607451474133,488.09186,488.09625,-0.001011577,1.1705723,1.0709091,nan,2,2,0,0
10716000,10716000,47.39775076006519,8.545607451953847,488.09177,488.09616,-0.001011577,1.1708044,1.071154,nan,2,2,0,0
10724000,10724000,47.39775076060161,8.545607452423097,488.09164,488.09604,-0.001011577,1.1710386,1.0714008,nan,2,2,0,0
10732000,10732000,47.397750761128194,8.545607452905669,488.09155,488.09595,-0.001011577,1.1712748,1.0716493,nan,2,2,0,0
10740000,10740000,47.39775076165311,8.545607453406975,488.09143,488.09583,-0.001011577,1.1715132,1.0718997,nan,2,2,0,0
10748000,10748000,47.39775076217514,8.54560745391182,488.0913,488.0957,-0.001011577,1.1717536,1.0721519,nan,2,2,0,0
10756000,10756000,47.3977507626699,8.545607454432343,488.09122,488.0956,-0.001011577,1.1719961,1.0724059,nan,2,2,0,0
10764000,10764000,47.397750763137964,8.545607454973727,488.09106,488.09546,-0.001011577,1.1722409,1.0718114,nan,2,2,0,0
10772000,10772000,47.39775076358128,8.545607455511943,488.09094,488.09534,-0.001011577,1.1724876,1.0720662,nan,2,2,0,0
10780000,10780000,47.39775076399729,8.545607456051458,488.09082,488.0952,-0.001011577,1.1727365,1.0723228,nan,2,2,0,0
10788000,10788000,47.39775076439126,8.545607456593759,488.0907,488.0951,-0.001011577,1.1729876,1.0725814,nan,2,2,0,0
10796000,10796000,47.397750764760076,8.545607457141726,488.09058,488.09497,-0.001011577,1.1732408,1.0728418,nan,2,2,0,0
10804000,10804000,47.39775076510036,8.545607457703204,488.09042,488.09482,-0.001011577,1.1734962,1.0731039,nan,2,2,0,0
10812000,10812000,47.39775076542606,8.545607458277006,488.0903,488.0947,-0.001011577,1.1737537,1.073368,nan,2,2,0,0
10820000,10820000,47.39775076574556,8.545607458867883,488.09018,488.09457,-0.001011577,1.1740135,1.0727606,nan,2,2,0,0
10828000,10828000,47.39775076604258,8.545607459476454,488.09003,488.09442,-0.001011577,1.1742754,1.0730252,nan,2,2,0,0
10836000,10836000,47.39775076631327,8.545607460077724,488.08987,488.09427,-0.001011577,1.1745396,1.0732917,nan,2,2,0,0
10844000,10844000,47.3977507665521,8.545607460670025,488.08975,488.09415,-0.001011577,1.1748059,1.07356,nan,2,2,0,0
10852000,10852000,47.397750766762314,8.54560746125708,488.0896,488.094,-0.001011577,1.1750745,1.0738301,nan,2,2,0,0
10860000,10860000,47.39775076697423,8.545607461830658,488.08945,488.09384,-0.001011577,1.1753452,1.0741022,nan,2,2,0,0
10868000,10868000,47.39775076717365,8.545607462409224,488.0893,488.0937,-0.001011577,1.1756182,1.074376,nan,2,2,0,0
10876000,10876000,47.39775076733862,8.545607462988347,488.08914,488.09354,-0.001011577,1.1758934,1.0746516,nan,2,2,0,0
10884000,10884000,47.39775076748386,8.545607463575127,488.08905,488.09344,-0.001011577,1.1761711,1.074025,nan,2,2,0,0
10892000,10892000,47.397750767624636,8.545607464163432,488.08893,488.09332,-0.001011577,1.1764508,1.0743011,nan,2,2,0,0
10900000,10900000,47.39775076776439,8.54560746475515,488.08884,488.09323,-0.001011577,1.176733,1.074579,nan,2,2,0,0
10908000,10908000,47.397750767895054,8.54560746533588,488.0887,488.0931,-0.001011577,1.1770173,1.0748588,nan,2,2,0,0
10916000,10916000,47.39775076802105,8.545607465905883,488.08862,488.09302,-0.001011577,1.1773041,1.0751404,nan,2,2,0,0
10924000,10924000,47.39775076813415,8.545607466483089,488.0885,488.0929,-0.001011577,1.1775931,1.0754238,nan,2,2,0,0
10932000,10932000,47.39775076823244,8.545607467059366,488.08838,488.09277,-0.001011577,1.1778845,1.0757091,nan,2,2,0,0
10940000,10940000,47.39775076831324,8.545607467631843,488.08832,488.0927,-0.001011577,1.1781782,1.0750664,nan,2,2,0,0
10948000,10948000,47.39775076837689,8.545607468198371,488.08823,488.09262,-0.001011577,1.1784742,1.075352,nan,2,2,0,0
10956000,10956000,47.397750768437554,8.545607468752214,488.08813,488.09253,-0.001011577,1.1787726,1.0756392,nan,2,2,0,0
10964000,10964000,47.39775076849618,8.54560746929919,488.08804,488.09244,-0.001011577,1.1790733,1.0759284,nan,2,2,0,0
10972000,10972000,47.39775076854332,8.54560746985134,488.08795,488.09235,-0.001011577,1.1793765,1.0762196,nan,2,2,0,0
10980000,10980000,47.39775076857251,8.54560747039693,488.08786,488.09225,-0.001011577,1.179682,1.0765123,nan,2,2,0,0
10988000,10988000,47.39775076860159,8.545607470936297,488.08774,488.09213,-0.001011577,1.17999,1.076807,nan,2,2,0,0
10996000,10996000,47.397750768627496,8.545607471485477,488.08765,488.09204,-0.001011577,1.1803005,1.0771036,nan,2,2,0,0
11004000,11004000,47.3977507686274,8.54560747205621,488.08752,488.09192,-0.001011577,1.1806133,1.0764377,nan,2,2,0,0
11012000,11012000,47.39775076975335,8.54560746995055,488.08746,488.09204,-0.001011577,1.1501911,1.0641091,nan,2,2,0,0
11020000,11020000,47.39775077085776,8.545607467863956,488.08743,488.092,-0.001011577,1.1504129,1.0643356,nan,2,2,0,0
11028000,11028000,47.39775077194328,8.545607465793523,488.08737,488.09195,-0.001011577,1.1506368,1.0645639,nan,2,2,0,0
11036000,11036000,47.39775077300097,8.54560746374353,488.0873,488.0919,-0.001011577,1.1508626,1.0647936,nan,2,2,0,0
11044000,11044000,47.397750774027,8.545607461732958,488.08722,488.0918,-0.001011577,1.1510904,1.065025,nan,2,2,0,0
11052000,11052000,47.39775077502909,8.54560745975723,488.08716,488.09174,-0.001011577,1.1513202,1.0652578,nan,2,2,0,0
11060000,11060000,47.39775077601035,8.545607457811023,488.0871,488.09167,-0.001011577,1.1515521,1.0648009,nan,2,2,0,0
11068000,11068000,47.39775077696991,8.545607455909165,488.087,488.09158,-0.001011577,1.1517859,1.0650345,nan,2,2,0,0
11076000,11076000,47.39775077790482,8.545607454036013,488.08694,488.09152,-0.001011577,1.1520216,1.0652696,nan,2,2,0,0
11084000,11084000,47.39775077881114,8.545607452186381,488.08685,488.09143,-0.001011577,1.1522596,1.0655063,nan,2,2,0,0
11092000,11092000,47.39775077969408,8.545607450371012,488.0868,488.09137,-0.001011577,1.1524994,1.0657446,nan,2,2,0,0
11100000,11100000,47.39775078056154,8.545607448608255,488.0867,488.09128,-0.001011577,1.1527414,1.0659844,nan,2,2,0,0
11108000,11108000,47.39775078140467,8.545607446924462,488.0866,488.0912,-0.001011577,1.1529856,1.0662258,nan,2,2,0,0
11116000,11116000,47.397750782205705,8.54560744529978,488.08655,488.09113,-0.001011577,1.1532316,1.0664687,nan,2,2,0,0
11124000,11124000,47.39775078298316,8.545607443742753,488.0865,488.09106,-0.001011577,1.1534798,1.065996,nan,2,2,0,0
11132000,11132000,47.39775078374185,8.545607442244476,488.08643,488.091,-0.001011577,1.1537302,1.0662396,nan,2,2,0,0
11140000,11140000,47.39775078448145,8.545607440784877,488.08636,488.09094,-0.001011577,1.1539826,1.0664847,nan,2,2,0,0
11148000,11148000,47.39775078520446,8.545607439348542,488.0863,488.09088,-0.001011577,1.1542372,1.0667313,nan,2,2,0,0
11156000,11156000,47.39775078590148,8.545607437913047,488.08624,488.09082,-0.001011577,1.1544938,1.0669795,nan,2,2,0,0
11164000,11164000,47.39775078657911,8.545607436486128,488.08618,488.09076,-0.001011577,1.1547527,1.0672293,nan,2,2,0,0
11172000,11172000,47.3977507872381,8.545607435082022,488.0861,488.09067,-0.001011577,1.1550137,1.0674806,nan,2,2,0,0
11180000,11180000,47.397750787881215,8.545607433697679,488.08603,488.0906,-0.001011577,1.1552769,1.0669943,nan,2,2,0,0
11188000,11188000,47.397750788511175,8.545607432320363,488.08594,488.0905,-0.001011577,1.1555423,1.0672461,nan,2,2,0,0
11196000,11196000,47.397750789128615,8.545607430946006,488.08585,488.09042,-0.001011577,1.1558099,1.0674994,nan,2,2,0,0
11204000,11204000,47.39775078973788,8.54560742958918,488.08575,488.09033,-0.001011577,1.1560796,1.0677543,nan,2,2,0,0
11212000,11212000,47.397750790324864,8.545607428267692,488.08566,488.09024,-0.001011577,1.1563517,1.0680107,nan,2,2,0,0
11220000,11220000,47.397750790890164,8.545607426966635,488.08557,488.09015,-0.001011577,1.156626,1.0682688,nan,2,2,0,0
11228000,11228000,47.39775079144276,8.545607425706928,488.08542,488.09,-0.001011577,1.1569024,1.0677719,nan,2,2,0,0
11236000,11236000,47.397750791986454,8.54560742447849,488.0853,488.08987,-0.001011577,1.1571813,1.0680302,nan,2,2,0,0
11244000,11244000,47.397750792528505,8.545607423277914,488.08517,488.08975,-0.001011577,1.1574622,1.0682902,nan,2,2,0,0
11252000,11252000,47.39775079305504,8.54560742209569,488.08502,488.0896,-0.001011577,1.1577456,1.0685518,nan,2,2,0,0
11260000,11260000,47.39775079356423,8.545607420930045,488.0849,488.08948,-0.001011577,1.1580312,1.0688148,nan,2,2,0,0
11268000,11268000,47.39775079406173,8.54560741979229,488.08475,488.08932,-0.001011577,1.1583192,1.0690794,nan,2,2,0,0
11276000,11276000,47.397750794556366,8.545607418683057,488.08463,488.0892,-0.001011577,1.1586095,1.0693456,nan,2,2,0,0
11284000,11284000,47.39775079504019,8.545607417600623,488.08447,488.08905,-0.001011577,1.158902,1.0696133,nan,2,2,0,0
11292000,11292000,47.39775079550825,8.545607416543072,488.08432,488.0889,-0.001011577,1.1591971,1.0690962,nan,2,2,0,0
11300000,11300000,47.397750795953215,8.545607415495061,488.08417,488.08875,-0.001011577,1.1594944,1.0693642,nan,2,2,0,0
11308000,11308000,47.39775079639276,8.545607414467502,488.084,488.0886,-0.001011577,1.1597942,1.0696337,nan,2,2,0,0
11316000,11316000,47.397750796836085,8.5456074134638,488.08386,488.08844,-0.001011577,1.1600963,1.0699048,nan,2,2,0,0
11324000,11324000,47.3977507972766,8.545607412468339,488.0837,488.0883,-0.001011577,1.160401,1.0701774,nan,2,2,0,0
11332000,11332000,47.3977507977179,8.545607411486465,488.08356,488.08813,-0.001011577,1.160708,1.0704517,nan,2,2,0,0
11340000,11340000,47.3977507981561,8.545607410512174,488.08337,488.08795,-0.001011577,1.1610173,1.0707275,nan,2,2,0,0
11348000,11348000,47.39775079858257,8.545607409528603,488.08325,488.08783,-0.001011577,1.1613292,1.070193,nan,2,2,0,0
11356000,11356000,47.39775079900077,8.545607408549959,488.08313,488.0877,-0.001011577,1.1616436,1.070469,nan,2,2,0,0
11364000,11364000,47.397750799421836,8.545607407598014,488.083,488.0876,-0.001011577,1.1619604,1.0707464,nan,2,2,0,0
11372000,11372000,47.39775079983102,8.54560740669909,488.0829,488.08746,-0.001011577,1.1622797,1.0710254,nan,2,2,0,0
11380000,11380000,47.39775080021575,8.545607405845477,488.08276,488.08734,-0.001011577,1.1626016,1.071306,nan,2,2,0,0
11388000,11388000,47.39775080058809,8.545607405021373,488.0826,488.0872,-0.001011577,1.162926,1.0715882,nan,2,2,0,0
11396000,11396000,47.397750800938226,8.545607404237447,488.08246,488.08704,-0.001011577,1.1632528,1.0718719,nan,2,2,0,0
11404000,11404000,47.397750801988586,8.545607403565617,488.08246,488.0881,-0.001011577,1.1372652,1.0607531,nan,2,2,0,0
11412000,11412000,47.39775080302199,8.545607402896579,488.08243,488.08807,-0.001011577,1.1375004,1.0603775,nan,2,2,0,0
11420000,11420000,47.39775080404267,8.54560740223107,488.08237,488.088,-0.001011577,1.1377376,1.0606006,nan,2,2,0,0
11428000,11428000,47.39775080506167,8.545607401581135,488.0823,488.08795,-0.001011577,1.1379769,1.0608251,nan,2,2,0,0
11436000,11436000,47.397750806068245,8.545607400943586,488.08224,488.0879,-0.001011577,1.1382182,1.0610509,nan,2,2,0,0
11444000,11444000,47.39775080705466,8.545607400318577,488.08218,488.08783,-0.001011577,1.1384616,1.061278,nan,2,2,0,0
11452000,11452000,47.397750808030274,8.54560739971323,488.08212,488.08777,-0.001011577,1.1387069,1.0615066,nan,2,2,0,0
11460000,11460000,47.39775080899071,8.545607399118337,488.08203,488.08768,-0.001011577,1.1389545,1.0617365,nan,2,2,0,0
11468000,11468000,47.39775080992528,8.545607398536115,488.08194,488.0876,-0.001011577,1.1392043,1.0613488,nan,2,2,0,0
11476000,11476000,47.397750810834864,8.545607397980953,488.08185,488.0875,-0.001011577,1.1394559,1.0615791,nan,2,2,0,0
11484000,11484000,47.39775081172857,8.545607397450135,488.08173,488.08737,-0.001011577,1.1397098,1.0618107,nan,2,2,0,0
11492000,11492000,47.39775081259919,8.545607396933017,488.08163,488.08728,-0.001011577,1.139966,1.0620438,nan,2,2,0,0
11500000,11500000,47.39775081345292,8.54560739643591,488.0815,488.08716,-0.001011577,1.1402242,1.0622783,nan,2,2,0,0
11508000,11508000,47.39775081430526,8.545607395968254,488.0814,488.08704,-0.001011577,1.1404847,1.0625141,nan,2,2,0,0
11516000,11516000,47.39775081515129,8.545607395507512,488.08127,488.0869,-0.001011577,1.1407472,1.0627512,nan,2,2,0,0
11524000,11524000,47.39775081599133,8.545607395045213,488.08115,488.0868,-0.001011577,1.1410121,1.0629897,nan,2,2,0,0
11532000,11532000,47.39775081682195,8.545607394584751,488.08102,488.08667,-0.001011577,1.1412791,1.0625854,nan,2,2,0,0
11540000,11540000,47.39775081765022,8.545607394136477,488.08087,488.08652,-0.001011577,1.1415483,1.0628241,nan,2,2,0,0
11548000,11548000,47.39775081847692,8.54560739369122,488.08075,488.0864,-0.001011577,1.1418198,1.0630643,nan,2,2,0,0
11556000,11556000,47.397750819298665,8.545607393246096,488.08063,488.08627,-0.001011577,1.1420937,1.063306,nan,2,2,0,0
11564000,11564000,47.39775082010034,8.545607392811716,488.08047,488.08612,-0.001011577,1.1423696,1.0635489,nan,2,2,0,0
11572000,11572000,47.39775082089704,8.54560739237683,488.08032,488.08597,-0.001011577,1.142648,1.0637932,nan,2,2,0,0
11580000,11580000,47.39775082169545,8.545607391936507,488.08017,488.08582,-0.001011577,1.1429287,1.0640389,nan,2,2,0,0
11588000,11588000,47.39775082248361,8.54560739149263,488.08005,488.0857,-0.001011577,1.1432117,1.0636201,nan,2,2,0,0
11596000,11596000,47.39775082325564,8.545607391064047,488.0799,488.08554,-0.001011577,1.143497,1.063866,nan,2,2,0,0
11604000,11604000,47.39775082400589,8.545607390638082,488.07974,488.0854,-0.001011577,1.1437846,1.0641134,nan,2,2,0,0
11612000,11612000,47.397750824736,8.54560739019221,488.0796,488.08524,-0.001011577,1.1440747,1.064362,nan,2,2,0,0
11620000,11620000,47.39775082545503,8.545607389743669,488.07944,488.08508,-0.001011577,1.1443671,1.064612,nan,2,2,0,0
11628000,11628000,47.39775082615314,8.545607389301749,488.07928,488.08493,-0.001011577,1.1446619,1.0648634,nan,2,2,0,0
11636000,11636000,47.39775082683414,8.545607388874595,488.07913,488.08478,-0.001011577,1.1449592,1.0651163,nan,2,2,0,0
11644000,11644000,47.3977508274993,8.545607388465545,488.07898,488.08463,-0.001011577,1.1452589,1.0653704,nan,2,2,0,0
11652000,11652000,47.39775082815411,8.545607388072778,488.07883,488.08447,-0.001011577,1.145561,1.0649322,nan,2,2,0,0
11660000,11660000,47.39775082879697,8.545607387691728,488.07867,488.08432,-0.001011577,1.1458656,1.0651865,nan,2,2,0,0
11668000,11668000,47.3977508294288,8.545607387301974,488.07852,488.08417,-0.001011577,1.1461726,1.0654422,nan,2,2,0,0
11676000,11676000,47.39775083004193,8.545607386898261,488.07837,488.084,-0.001011577,1.1464822,1.0656992,nan,2,2,0,0
11684000,11684000,47.397750830633456,8.545607386478489,488.07822,488.08386,-0.001011577,1.1467943,1.0659577,nan,2,2,0,0
11692000,11692000,47.397750831210885,8.545607386054336,488.07803,488.08368,-0.001011577,1.1471089,1.0662174,nan,2,2,0,0
11700000,11700000,47.39775083177847,8.54560738563971,488.07788,488.08353,-0.001011577,1.1474261,1.0664786,nan,2,2,0,0
11708000,11708000,47.39775083233889,8.545607385222054,488.07773,488.08337,-0.001011577,1.1477458,1.0660237,nan,2,2,0,0
11716000,11716000,47.397750832892015,8.545607384803953,488.07758,488.08322,-0.001011577,1.1480681,1.066285,nan,2,2,0,0
11724000,11724000,47.39775083344519,8.545607384386694,488.07745,488.0831,-0.001011577,1.148393,1.0665475,nan,2,2,0,0
11732000,11732000,47.39775083399647,8.545607383963294,488.0773,488.08295,-0.001011577,1.1487205,1.0668114,nan,2,2,0,0
11740000,11740000,47.39775083454558,8.545607383551522,488.07715,488.0828,-0.001011577,1.1490507,1.0670768,nan,2,2,0,0
11748000,11748000,47.397750835079464,8.545607383132623,488.077,488.08264,-0.001011577,1.1493834,1.0673435,nan,2,2,0,0
11756000,11756000,47.39775083560118,8.545607382707813,488.0768,488.08246,-0.001011577,1.1497189,1.0676116,nan,2,2,0,0
11764000,11764000,47.397750836108166,8.54560738229004,488.07666,488.0823,-0.001011577,1.1500571,1.067881,nan,2,2,0,0
11772000,11772000,47.39775083660632,8.545607381901906,488.0765,488.08215,-0.001011577,1.1503979,1.067404,nan,2,2,0,0
11780000,11780000,47.397750837090996,8.545607381530687,488.07635,488.082,-0.001011577,1.1507415,1.0676733,nan,2,2,0,0
11788000,11788000,47.397750837572545,8.545607381160718,488.0762,488.08185,-0.001011577,1.1510878,1.067944,nan,2,2,0,0
11796000,11796000,47.39775083803852,8.54560738079344,488.07605,488.0817,-0.001011577,1.1514368,1.0682162,nan,2,2,0,0
11804000,11804000,47.39775083777635,8.5456073806488,488.07614,488.08292,-0.001011577,1.1280029,1.0580705,nan,2,2,0,0
11812000,11812000,47.39775083752809,8.54560738050655,488.0762,488.08298,-0.001011577,1.1282548,1.0582896,nan,2,2,0,0
11820000,11820000,47.397750837287795,8.54560738037142,488.0763,488.08307,-0.001011577,1.1285087,1.0585098,nan,2,2,0,0
11828000,11828000,47.39775083706459,8.545607380222606,488.07635,488.08313,-0.001011577,1.1287649,1.0581753,nan,2,2,0,0
11836000,11836000,47.39775083685541,8.545607380045235,488.07645,488.08322,-0.001011577,1.1290232,1.058396,nan,2,2,0,0
11844000,11844000,47.39775083666199,8.545607379844855,488.07654,488.0833,-0.001011577,1.1292837,1.0586177,nan,2,2,0,0
11852000,11852000,47.397750836476895,8.545607379639005,488.0766,488.08337,-0.001011577,1.1295465,1.0588408,nan,2,2,0,0
11860000,11860000,47.39775083628835,8.545607379441668,488.07666,488.08344,-0.001011577,1.1298115,1.059065,nan,2,2,0,0
11868000,11868000,47.39775083608516,8.545607379230306,488.07672,488.0835,-0.001011577,1.1300788,1.0592905,nan,2,2,0,0
11876000,11876000,47.39775083586921,8.545607379017781,488.07675,488.08353,-0.001011577,1.1303483,1.0595171,nan,2,2,0,0
11884000,11884000,47.397750835644835,8.545607378808326,488.0768,488.0836,-0.001011577,1.1306201,1.0597451,nan,2,2,0,0
11892000,11892000,47.39775083541712,8.545607378582945,488.07684,488.08362,-0.001011577,1.1308943,1.0593945,nan,2,2,0,0
11900000,11900000,47.397750835186805,8.545607378354465,488.07687,488.08365,-0.001011577,1.1311707,1.0596226,nan,2,2,0,0
11908000,11908000,47.397750834947594,8.545607378124481,488.0769,488.08368,-0.001011577,1.1314496,1.059852,nan,2,2,0,0
11916000,11916000,47.39775083471089,8.545607377895122,488.07693,488.0837,-0.001011577,1.1317308,1.0600826,nan,2,2,0,0
11924000,11924000,47.397750834473726,8.545607377669606,488.07697,488.08374,-0.001011577,1.1320144,1.0603144,nan,2,2,0,0
11932000,11932000,47.397750834243496,8.54560737745746,488.077,488.08377,-0.001011577,1.1323003,1.0605474,nan,2,2,0,0
11940000,11940000,47.39775083402832,8.545607377250304,488.077,488.08377,-0.001011577,1.1325886,1.0607817,nan,2,2,0,0
11948000,11948000,47.39775083383432,8.545607377028865,488.077,488.08377,-0.001011577,1.1328794,1.0604173,nan,2,2,0,0
11956000,11956000,47.3977508336614,8.545607376789476,488.077,488.08377,-0.001011577,1.1331725,1.0606517,nan,2,2,0,0
11964000,11964000,47.39775083350219,8.545607376535859,488.07697,488.08374,-0.001011577,1.1334683,1.0608873,nan,2,2,0,0
11972000,11972000,47.397750833347736,8.545607376264407,488.07697,488.08374,-0.001011577,1.1337663,1.0611242,nan,2,2,0,0
11980000,11980000,47.39775083319993,8.545607375990887,488.07693,488.0837,-0.001011577,1.134067,1.0613623,nan,2,2,0,0
11988000,11988000,47.39775083305009,8.545607375724861,488.0769,488.08368,-0.001011577,1.1343701,1.0616016,nan,2,2,0,0
11996000,11996000,47.39775083290159,8.545607375452196,488.07684,488.08362,-0.001011577,1.1346759,1.0618422,nan,2,2,0,0
12004000,12004000,47.39775083275593,8.54560737519663,488.0768,488.0836,-0.001011577,1.134984,1.062084,nan,2,2,0,0
12012000,12012000,47.39775083261856,8.545607374977362,488.07675,488.08353,-0.001011577,1.1352949,1.0617013,nan,2,2,0,0
12020000,12020000,47.397750832483005,8.545607374778905,488.0767,488.08347,-0.001011577,1.1356082,1.0619432,nan,2,2,0,0
12028000,12028000,47.397750832344585,8.545607374593422,488.07663,488.0834,-0.001011577,1.1359242,1.0621862,nan,2,2,0,0
12036000,12036000,47.39775083220568,8.545607374408705,488.07654,488.0833,-0.001011577,1.1362427,1.0624306,nan,2,2,0,0
12044000,12044000,47.39775083207232,8.54560737421572,488.07648,488.08325,-0.001011577,1.1365639,1.0626762,nan,2,2,0,0
12052000,12052000,47.39775083194645,8.545607374019173,488.0764,488.08316,-0.001011577,1.1368878,1.062923,nan,2,2,0,0
12060000,12060000,47.39775083182348,8.545607373821412,488.07632,488.0831,-0.001011577,1.1372144,1.063171,nan,2,2,0,0
12068000,12068000,47.39775083170447,8.54560737361057,488.07623,488.083,-0.001011577,1.1375436,1.0627725,nan,2,2,0,0
12076000,12076000,47.397750831593235,8.545607373390695,488.07617,488.08295,-0.001011577,1.1378756,1.0630206,nan,2,2,0,0
12084000,12084000,47.397750831492935,8.545607373169211,488.07608,488.08286,-0.001011577,1.1382102,1.0632699,nan,2,2,0,0
12092000,12092000,47.397750831410406,8.545607372950663,488.07602,488.0828,-0.001011577,1.1385477,1.0635204,nan,2,2,0,0
12100000,12100000,47.39775083134114,8.545607372717257,488.07593,488.0827,-0.001011577,1.1388878,1.0637721,nan,2,2,0,0
12108000,12108000,47.39775083127663,8.545607372463863,488.07584,488.0826,-0.001011577,1.1392307,1.0640252,nan,2,2,0,0
12116000,12116000,47.39775083120861,8.545607372209622,488.07574,488.08252,-0.001011577,1.1395764,1.0642793,nan,2,2,0,0
12124000,12124000,47.39775083115343,8.545607371973778,488.07565,488.08243,-0.001011577,1.1399251,1.0645349,nan,2,2,0,0
12132000,12132000,47.39775083112097,8.545607371730586,488.07556,488.08234,-0.001011577,1.1402766,1.0641156,nan,2,2,0,0
12140000,12140000,47.39775083109335,8.545607371477706,488.0755,488.08228,-0.001011577,1.1406307,1.0643711,nan,2,2,0,0
12148000,12148000,47.39775083107021,8.54560737122855,488.0754,488.08218,-0.001011577,1.1409879,1.0646276,nan,2,2,0,0
12156000,12156000,47.397750831051525,8.545607370978075,488.07535,488.08212,-0.001011577,1.141348,1.0648855,nan,2,2,0,0
12164000,12164000,47.39775083104022,8.545607370733029,488.07526,488.08203,-0.001011577,1.141711,1.0651447,nan,2,2,0,0
12172000,12172000,47.397750831044796,8.545607370496864,488.07516,488.08194,-0.001011577,1.1420768,1.065405,nan,2,2,0,0
12180000,12180000,47.39775083105494,8.545607370268568,488.07507,488.08185,-0.001011577,1.1424458,1.0656667,nan,2,2,0,0
12188000,12188000,47.39775083106742,8.545607370037818,488.07495,488.08173,-0.001011577,1.1428176,1.0652299,nan,2,2,0,0
12196000,12196000,47.39775083108689,8.545607369795976,488.0748,488.08157,-0.001011577,1.1431925,1.0654912,nan,2,2,0,0
12204000,12204000,47.39775083112165,8.545607369550611,488.07468,488.08145,-0.001011577,1.1435704,1.0657539,nan,2,2,0,0
12212000,12212000,47.39775083098668,8.545607369653125,488.07474,488.08228,-0.001011577,1.1214318,1.0562651,nan,2,2,0,0
12220000,12220000,47.3977508308445,8.545607369746834,488.0748,488.08234,-0.001011577,1.1217033,1.0564796,nan,2,2,0,0
12228000,12228000,47.39775083070527,8.545607369823914,488.07486,488.0824,-0.001011577,1.121977,1.0566951,nan,2,2,0,0
12236000,12236000,47.39775083057494,8.545607369908955,488.07492,488.08246,-0.001011577,1.1222531,1.0569118,nan,2,2,0,0
12244000,12244000,47.39775083045192,8.54560736998759,488.07495,488.0825,-0.001011577,1.1225314,1.0571296,nan,2,2,0,0
12252000,12252000,47.397750830328434,8.545607370052357,488.075,488.08255,-0.001011577,1.1228123,1.0568185,nan,2,2,0,0
12260000,12260000,47.39775083021329,8.545607370115164,488.07504,488.08258,-0.001011577,1.1230955,1.0570364,nan,2,2,0,0
12268000,12268000,47.397750830100776,8.545607370174903,488.07507,488.0826,-0.001011577,1.1233811,1.0572555,nan,2,2,0,0
12276000,12276000,47.39775082999083,8.545607370214844,488.0751,488.08264,-0.001011577,1.1236693,1.0574758,nan,2,2,0,0
12284000,12284000,47.397750829891926,8.545607370246005,488.0751,488.08264,-0.001011577,1.1239599,1.057697,nan,2,2,0,0
12292000,12292000,47.39775082980043,8.545607370284356,488.07513,488.08267,-0.001011577,1.1242529,1.0579195,nan,2,2,0,0
12300000,12300000,47.39775082971982,8.545607370322134,488.07513,488.08267,-0.001011577,1.1245484,1.058143,nan,2,2,0,0
12308000,12308000,47.39775082965906,8.54560737036929,488.07513,488.08267,-0.001011577,1.1248465,1.0578188,nan,2,2,0,0
12316000,12316000,47.39775082962006,8.545607370428124,488.07513,488.08267,-0.001011577,1.1251471,1.0580425,nan,2,2,0,0
12324000,12324000,47.3977508295883,8.54560737047883,488.07513,488.08267,-0.001011577,1.1254503,1.0582674,nan,2,2,0,0
12332000,12332000,47.39775082956292,8.545607370513123,488.07513,488.08267,-0.001011577,1.1257559,1.0584933,nan,2,2,0,0
12340000,12340000,47.39775082954367,8.545607370527105,488.0751,488.08264,-0.001011577,1.1260643,1.0587202,nan,2,2,0,0
12348000,12348000,47.39775082952409,8.545607370525069,488.07507,488.0826,-0.001011577,1.1263752,1.0589484,nan,2,2,0,0
12356000,12356000,47.39775082950372,8.54560737052174,488.07507,488.0826,-0.001011577,1.1266887,1.0591778,nan,2,2,0,0
12364000,12364000,47.39775082948941,8.54560737052388,488.07504,488.08258,-0.001011577,1.1270049,1.0594081,nan,2,2,0,0
12372000,12372000,47.397750829473445,8.545607370521257,488.075,488.08255,-0.001011577,1.1273237,1.0590668,nan,2,2,0,0
12380000,12380000,47.397750829456655,8.545607370509781,488.075,488.08255,-0.001011577,1.1276453,1.0592972,nan,2,2,0,0
12388000,12388000,47.39775082943607,8.545607370493684,488.07498,488.08252,-0.001011577,1.1279695,1.0595288,nan,2,2,0,0
12396000,12396000,47.3977508294137,8.545607370488103,488.07495,488.0825,-0.001011577,1.1282965,1.0597615,nan,2,2,0,0
12404000,12404000,47.39775082938724,8.545607370498695,488.07492,488.08246,-0.001011577,1.1286261,1.0599953,nan,2,2,0,0
12412000,12412000,47.39775082934795,8.5456073704964,488.07486,488.0824,-0.001011577,1.1289586,1.0602303,nan,2,2,0,0
12420000,12420000,47.3977508292978,8.545607370482152,488.07483,488.08237,-0.001011577,1.1292938,1.0604664,nan,2,2,0,0
12428000,12428000,47.397750829249375,8.545607370454968,488.07474,488.08228,-0.001011577,1.1296319,1.0601102,nan,2,2,0,0
12436000,12436000,47.397750829206316,8.54560737043139,488.07465,488.08218,-0.001011577,1.1299727,1.0603464,nan,2,2,0,0
12444000,12444000,47.397750829152386,8.545607370434219,488.07455,488.0821,-0.001011577,1.1303164,1.0605836,nan,2,2,0,0
12452000,12452000,47.39775082907676,8.54560737044846,488.07446,488.082,-0.001011577,1.1306629,1.0608219,nan,2,2,0,0
12460000,12460000,47.39775082897586,8.545607370469494,488.07434,488.08188,-0.001011577,1.1310123,1.0610615,nan,2,2,0,0
12468000,12468000,47.39775082886759,8.545607370501424,488.07425,488.0818,-0.001011577,1.1313647,1.0613022,nan,2,2,0,0
12476000,12476000,47.397750828751846,8.54560737052286,488.07413,488.08167,-0.001011577,1.13172,1.0615438,nan,2,2,0,0
12484000,12484000,47.397750828635836,8.545607370534652,488.074,488.08154,-0.001011577,1.1320782,1.0617868,nan,2,2,0,0
12492000,12492000,47.39775082850584,8.54560737055047,488.0739,488.08145,-0.001011577,1.1324393,1.0614114,nan,2,2,0,0
12500000,12500000,47.397750828363876,8.54560737056902,488.07382,488.08136,-0.001011577,1.1328034,1.0616542,nan,2,2,0,0
12508000,12508000,47.397750828218506,8.545607370582344,488.07373,488.08127,-0.001011577,1.1331706,1.0618982,nan,2,2,0,0
12516000,12516000,47.39775082807877,8.545607370590766,488.0736,488.08115,-0.001011577,1.1335406,1.0621432,nan,2,2,0,0
12524000,12524000,47.397750827941664,8.545607370609542,488.0735,488.08102,-0.001011577,1.1339139,1.0623895,nan,2,2,0,0
12532000,12532000,47.39775082780418,8.545607370651437,488.0734,488.08093,-0.001011577,1.1342902,1.062637,nan,2,2,0,0
12540000,12540000,47.397750827664,8.545607370686009,488.07327,488.0808,-0.001011577,1.1346695,1.0628855,nan,2,2,0,0
12548000,12548000,47.39775082751605,8.545607370695011,488.07318,488.08072,-0.001011577,1.135052,1.0624936,nan,2,2,0,0
12556000,12556000,47.39775082736133,8.545607370677805,488.0731,488.08063,-0.001011577,1.1354375,1.062742,nan,2,2,0,0
12564000,12564000,47.397750827188894,8.545607370656425,488.07297,488.0805,-0.001011577,1.1358262,1.0629915,nan,2,2,0,0
12572000,12572000,47.397750827006384,8.545607370643104,488.07288,488.0804,-0.001011577,1.1362182,1.0632423,nan,2,2,0,0
12580000,12580000,47.39775082681618,8.545607370639239,488.07275,488.0803,-0.001011577,1.1366132,1.0634941,nan,2,2,0,0
12588000,12588000,47.397750826611215,8.545607370641687,488.07266,488.0802,-0.001011577,1.1370115,1.0637472,nan,2,2,0,0
12596000,12596000,47.397750826391494,8.545607370655217,488.07254,488.08008,-0.001011577,1.1374131,1.0640012,nan,2,2,0,0
12604000,12604000,47.39775082616632,8.545607370695839,488.07242,488.07996,-0.001011577,1.1378179,1.0642567,nan,2,2,0,0
12612000,12612000,47.39775082515286,8.545607372018738,488.07266,488.08112,-0.001011577,1.1164153,1.0546886,nan,2,2,0,0
12620000,12620000,47.397750824150755,8.545607373336079,488.07288,488.08133,-0.001011577,1.1167045,1.0548974,nan,2,2,0,0
12628000,12628000,47.39775082315419,8.545607374653377,488.0731,488.08154,-0.001011577,1.116996,1.0551071,nan,2,2,0,0
12636000,12636000,47.39775082216195,8.545607375959186,488.0733,488.08176,-0.001011577,1.1172903,1.0553179,nan,2,2,0,0
12644000,12644000,47.39775082118767,8.545607377242137,488.0735,488.08194,-0.001011577,1.117587,1.0555297,nan,2,2,0,0
12652000,12652000,47.39775082022746,8.54560737850756,488.07367,488.08212,-0.001011577,1.1178863,1.0557425,nan,2,2,0,0
12660000,12660000,47.397750819272275,8.545607379758204,488.07385,488.0823,-0.001011577,1.118188,1.0559564,nan,2,2,0,0
12668000,12668000,47.397750818316496,8.54560738099262,488.07407,488.08252,-0.001011577,1.1184925,1.0556629,nan,2,2,0,0
12676000,12676000,47.39775081735807,8.545607382189463,488.07428,488.08273,-0.001011577,1.1187994,1.0558769,nan,2,2,0,0
