timestamp,timestamp_sample,control_mode_flags,output_tracking_error[0],output_tracking_error[1],output_tracking_error[2],filter_fault_flags,pos_horiz_accuracy,pos_vert_accuracy,mag_test_ratio,vel_test_ratio,pos_test_ratio,hgt_test_ratio,tas_test_ratio,hagl_test_ratio,beta_test_ratio,time_slip,accel_device_id,gyro_device_id,baro_device_id,mag_device_id,gps_check_fail_flags,innovation_check_flags,solution_status_flags,reset_count_vel_ne,reset_count_vel_d,reset_count_pos_ne,reset_count_pod_d,reset_count_quat,pre_flt_fail_innov_heading,pre_flt_fail_innov_vel_horiz,pre_flt_fail_innov_vel_vert,pre_flt_fail_innov_height,pre_flt_fail_mag_field_disturbed,health_flags,timeout_flags
3180000,3100000,13488881664,0.0005983885,0.018663295,0.0015434768,0,14.172738,10.008659,nan,nan,nan,nan,0.0,0.0,0.0,0.0,1310988,1310988,0,197388,0,0,128,1,1,1,1,0,0,0,0,0,0,0,0
3188000,3108000,13488881664,0.0005448642,0.0048799813,0.0016138076,0,14.142143,10.0,nan,nan,nan,nan,0.0,0.0,0.0,0.0,1310988,1310988,0,197388,0,0,128,1,1,1,1,0,0,0,0,0,0,0,0
3196000,3116000,13488881664,0.00049623166,0.0047851475,0.0016074745,0,14.142143,10.0,nan,nan,nan,nan,0.0,0.0,0.0,0.0,1310988,1310988,0,197388,0,0,128,1,1,1,1,0,0,0,0,0,0,0,0
3204000,3124000,13488881664,8.943528e-05,0.0009944931,4.427405e-05,0,14.142143,10.0,nan,nan,nan,nan,0.0,0.0,0.0,0.0,1310988,1310988,0,197388,0,0,128,1,1,1,1,0,0,0,0,0,0,0,0
3212000,3132000,13488881664,0.00013272464,0.0009816237,7.241597e-05,0,14.142143,10.0,nan,nan,nan,nan,0.0,0.0,0.0,0.0,1310988,1310988,0,197388,0,0,128,1,1,1,1,0,0,0,0,0,0,0,0
3220000,3140000,13488881664,0.00017537082,0.00095815904,0.000100927224,0,14.142143,10.0,nan,nan,nan,nan,0.0,0.0,0.0,0.0,1310988,1310988,0,197388,0,0,128,1,1,1,1,0,0,0,0,0,0,0,0
3228000,3148000,13488881664,0.00021738259,0.000957367,0.00012939658,0,14.142143,10.0,nan,nan,nan,nan,0.0,0.0,0.0,0.0,1310988,1310988,0,197388,0,0,128,1,1,1,1,0,0,0,0,0,0,0,0
3236000,3156000,13488881664,0.0002588636,0.0010174834,0.0001581266,0,14.142143,10.0,nan,nan,nan,nan,0.0,0.0,0.0,0.0,1310988,1310988,0,197388,0,0,128,1,1,1,1,0,0,0,0,0,0,0,0
3244000,3164000,13488881664,0.0002999114,0.0010390881,0.00018664724,0,14.142143,10.0,nan,nan,nan,nan,0.0,0.0,0.0,0.0,1310988,1310988,0,197388,0,0,128,1,1,1,1,0,0,0,0,0,0,0,0
3252000,3172000,13488881664,0.00033722504,0.0009776119,0.00021565513,0,14.142143,10.0,nan,nan,nan,nan,0.0,0.0,0.0,0.0,1310988,1310988,0,197388,0,0,128,1,1,1,1,0,0,0,0,0,0,0,0
3260000,3180000,13488881664,0.00037018105,0.00093025836,0.0002461363,0,14.142143,10.0,nan,nan,nan,nan,0.0,0.0,0.0,0.0,1310988,1310988,0,197388,0,0,128,1,1,1,1,0,0,0,0,0,0,0,0
3268000,3188000,13488881664,0.00040007653,0.00088062556,0.00027800506,0,14.142142,10.0,nan,nan,nan,nan,0.0,0.0,0.0,0.0,1310988,1310988,0,197388,0,0,128,1,1,1,1,0,0,0,0,0,0,0,0
3276000,3196000,13488881664,0.0004272863,0.0008690207,0.0003082118,0,14.142142,10.0,nan,nan,nan,nan,0.0,0.0,0.0,0.0,1310988,1310988,0,197388,0,0,128,1,1,1,1,0,0,0,0,0,0,0,0
3284000,3204000,13488881664,0.0003797484,0.0002831945,0.00019428646,0,14.142142,10.0,nan,nan,nan,nan,0.0,0.0,0.0,0.0,1310988,1310988,0,197388,0,0,128,1,1,1,1,0,0,0,0,0,0,0,0
3292000,3212000,13488881664,0.00037537946,0.00024336393,0.000187933,0,14.142142,10.0,nan,nan,nan,nan,0.0,0.0,0.0,0.0,1310988,1310988,0,197388,0,0,128,1,1,1,1,0,0,0,0,0,0,0,0
3300000,3220000,13488881664,0.0003688263,0.00020589895,0.00018128421,0,14.142142,10.0,nan,nan,nan,nan,0.0,0.0,0.0,0.0,1310988,1310988,0,197388,0,0,128,1,1,1,1,0,0,0,0,0,0,0,0
3308000,3228000,13488881664,0.00036012757,0.00017092553,0.00017509906,0,14.142142,10.0,nan,nan,nan,nan,0.0,0.0,0.0,0.0,1310988,1310988,0,197388,0,0,128,1,1,1,1,0,0,0,0,0,0,0,0
3316000,3236000,13488881664,0.00034930947,0.00013925359,0.00016901793,0,14.142142,10.0,nan,nan,nan,nan,0.0,0.0,0.0,0.0,1310988,1310988,0,197388,0,0,128,1,1,1,1,0,0,0,0,0,0,0,0
3324000,3244000,13488881664,0.0003364109,0.00011183383,0.00016271573,0,14.142142,10.0,nan,nan,nan,nan,0.0,0.0,0.0,0.0,1310988,1310988,0,197388,0,0,128,1,1,1,1,0,0,0,0,0,0,0,0
3332000,3252000,13488881664,0.00032147765,9.0211026e-05,0.00015652398,0,14.142143,10.0,nan,nan,nan,nan,0.0,0.0,0.0,0.0,1310988,1310988,0,197388,0,0,128,1,1,1,1,0,0,0,0,0,0,0,0
3340000,3260000,13488881664,0.0003046341,7.684289e-05,0.0001507031,0,14.142144,10.0,nan,nan,nan,nan,0.0,0.0,0.0,0.0,1310988,1310988,0,197388,0,0,128,1,1,1,1,0,0,0,0,0,0,0,0
3348000,3268000,13488881664,0.000286181,7.372879e-05,0.00014466041,0,14.142145,10.0,nan,nan,nan,nan,0.0,0.0,0.0,0.0,1310988,1310988,0,197388,0,0,128,1,1,1,1,0,0,0,0,0,0,0,0
3356000,3276000,13488881664,0.00026622936,7.957112e-05,0.0001385942,0,14.142146,10.0,nan,nan,nan,nan,0.0,0.0,0.0,0.0,1310988,1310988,0,197388,0,0,128,1,1,1,1,0,0,0,0,0,0,0,0
3364000,3284000,13488881664,0.00024490332,9.0541114e-05,0.0004997334,0,0.014084185,7.071068,nan,nan,nan,nan,0.0,0.0,0.0,0.0,1310988,1310988,0,197388,0,0,128,1,1,1,1,0,0,0,0,0,0,0,0
3372000,3292000,13488881664,0.00022590983,0.00010486107,0.00048292216,0,0.01429908,7.071068,nan,nan,nan,nan,0.0,0.0,0.0,0.0,1310988,1310988,0,197388,0,0,128,1,1,1,1,0,0,0,0,0,0,0,0
3380000,3300000,13488881664,0.00020710191,0.000119594835,0.00046653932,0,0.01496281,7.071068,nan,nan,nan,nan,0.0,0.0,0.0,0.0,1310988,1310988,0,197388,0,0,128,1,1,1,1,0,0,0,0,0,0,0,0
3388000,3308000,13488881664,0.00018865839,0.00013396477,0.00045083518,0,0.016073871,7.071068,nan,nan,nan,nan,0.0,0.0,0.0,0.0,1310988,1310988,0,197388,0,0,128,1,1,1,1,0,0,0,0,0,0,0,0
3396000,3316000,13488881664,0.0016369642,0.028666105,0.0025942721,0,0.014086806,7.071067,nan,nan,nan,nan,0.0,0.0,0.0,0.0,1310988,1310988,0,197388,0,0,128,1,1,1,1,0,0,0,0,0,0,0,0
3404000,3324000,13488881665,0.0016224782,0.028586771,0.0027424765,0,0.014086878,7.071067,nan,nan,nan,nan,0.0,0.0,0.0,0.0,1310988,1310988,0,197388,0,0,128,1,1,1,1,0,0,0,0,0,0,0,0
3412000,3332000,13488881665,0.0016090052,0.028508471,0.0028921121,0,0.014086933,7.071067,nan,nan,nan,nan,0.0,0.0,0.0,0.0,1310988,1310988,0,197388,0,0,128,1,1,1,1,0,0,0,0,0,0,0,0
3420000,3340000,13488881683,0.001710219,0.028430635,0.003043938,0,0.014087177,7.071067,0.0073321145,nan,nan,nan,0.0,0.0,0.0,0.0,1310988,1310988,0,197388,0,0,129,1,1,1,1,1,0,0,0,0,0,0,0
3428000,3348000,13488881683,0.0016999546,0.02835375,0.003196959,0,0.014087883,7.071067,0.0073321145,nan,nan,nan,0.0,0.0,0.0,0.0,1310988,1310988,0,197388,0,0,129,1,1,1,1,1,0,0,0,0,0,0,0
3436000,3356000,13488881683,0.0016904101,0.02827745,0.0033518248,0,0.014089386,7.071067,0.0073321145,nan,nan,nan,0.0,0.0,0.0,0.0,1310988,1310988,0,197388,0,0,129,1,1,1,1,1,0,0,0,0,0,0,0
3444000,3364000,13488881683,0.0016819024,0.028201992,0.0035079573,0,0.0140922135,7.071067,0.0073321145,nan,nan,nan,0.0,0.0,0.0,0.0,1310988,1310988,0,197388,0,0,129,1,1,1,1,1,0,0,0,0,0,0,0
3452000,3372000,13488881683,0.00167428,0.028127206,0.0036654389,0,0.014097259,7.071067,0.0073321145,nan,nan,nan,0.0,0.0,0.0,0.0,1310988,1310988,0,197388,0,0,129,1,1,1,1,1,0,0,0,0,0,0,0
3460000,3380000,13488881683,0.0016675217,0.028053012,0.003824429,0,0.014105777,7.071067,0.0073321145,nan,nan,nan,0.0,0.0,0.0,0.0,1310988,1310988,0,197388,0,0,129,1,1,1,1,1,0,0,0,0,0,0,0
3468000,3388000,13488881683,0.0016615441,0.027979555,0.0039846753,0,0.014119379,7.071067,0.0073321145,nan,nan,nan,0.0,0.0,0.0,0.0,1310988,1310988,0,197388,0,0,129,1,1,1,1,1,0,0,0,0,0,0,0
3476000,3396000,13488881683,0.0016563488,0.027906967,0.004146121,0,0.014140021,7.071067,0.0073321145,nan,nan,nan,0.0,0.0,0.0,0.0,1310988,1310988,0,197388,0,0,129,1,1,1,1,1,0,0,0,0,0,0,0
3484000,3404000,13488881683,0.0015811647,0.027025923,0.004298304,0,0.014169997,7.071067,0.0073321145,nan,nan,nan,0.0,0.0,0.0,0.0,1310988,1310988,0,197388,0,0,129,1,1,1,1,1,0,0,0,0,0,0,0
3492000,3412000,13488881683,0.0013719405,0.026169812,0.004438019,0,0.014211919,7.071067,0.008946426,nan,nan,nan,0.0,0.0,0.0,0.0,1310988,1310988,0,197388,0,0,129,1,1,1,1,1,0,0,0,0,0,0,0
3500000,3420000,13488881683,0.0012920003,0.025337677,0.004565979,0,0.014268699,7.071067,0.008946426,nan,nan,nan,0.0,0.0,0.0,0.0,1310988,1310988,0,197388,0,0,129,1,1,1,1,1,0,0,0,0,0,0,0
3508000,3428000,13488881683,0.0012143321,0.02452928,0.0046821074,0,0.014343512,7.071067,0.008946426,nan,nan,nan,0.0,0.0,0.0,0.0,1310988,1310988,0,197388,0,0,129,1,1,1,1,1,0,0,0,0,0,0,0
3516000,3436000,13488881683,0.0011383794,0.023743358,0.0047870493,0,0.014439765,7.071067,0.008946426,nan,nan,nan,0.0,0.0,0.0,0.0,1310988,1310988,0,197388,0,0,129,1,1,1,1,1,0,0,0,0,0,0,0
3524000,3444000,13488881683,0.0010643312,0.022979379,0.004881329,0,0.014561038,7.071067,0.008946426,nan,nan,nan,0.0,0.0,0.0,0.0,1310988,1310988,0,197388,0,0,129,1,1,1,1,1,0,0,0,0,0,0,0
3532000,3452000,13488881683,0.0009924705,0.022236943,0.0049646567,0,0.014711024,7.071067,0.008946426,nan,nan,nan,0.0,0.0,0.0,0.0,1310988,1310988,0,197388,0,0,129,1,1,1,1,1,0,0,0,0,0,0,0
3540000,3460000,13488881683,0.00092304783,0.021515373,0.005037921,0,0.014893475,7.071067,0.008946426,nan,nan,nan,0.0,0.0,0.0,0.0,1310988,1310988,0,197388,0,0,129,1,1,1,1,1,0,0,0,0,0,0,0
3548000,3468000,13488881683,0.0008565697,0.020813828,0.0051011606,0,0.015112116,7.071067,0.008946426,nan,nan,nan,0.0,0.0,0.0,0.0,1310988,1310988,0,197388,0,0,129,1,1,1,1,1,0,0,0,0,0,0,0
3556000,3476000,13488881683,0.00079361943,0.020131726,0.0051550632,0,0.015370585,7.071067,0.008946426,nan,nan,nan,0.0,0.0,0.0,0.0,1310988,1310988,0,197388,0,0,129,1,1,1,1,1,0,0,0,0,0,0,0
3564000,3484000,13488881683,0.0007218898,0.019468512,0.005199289,0,0.015672306,7.071067,0.00047981835,nan,nan,nan,0.0,0.0,0.0,0.0,1310988,1310988,0,197388,0,0,129,1,1,1,1,1,0,0,0,0,0,0,0
3572000,3492000,13488881683,0.0006945445,0.0188343,0.0050104517,0,0.010602197,5.7735023,0.00047981835,nan,nan,nan,0.0,0.0,0.0,0.0,1310988,1310988,0,197388,0,0,129,1,1,1,1,1,0,0,0,0,0,0,0
3580000,3500000,13488881683,0.00063330255,0.018207613,0.005044682,0,0.010878704,5.7735023,0.00047981835,nan,nan,nan,0.0,0.0,0.0,0.0,1310988,1310988,0,197388,0,0,129,1,1,1,1,1,0,0,0,0,0,0,0
3588000,3508000,13488881683,0.0005769452,0.017598344,0.005071089,0,0.011217635,5.7735023,0.00047981835,nan,nan,nan,0.0,0.0,0.0,0.0,1310988,1310988,0,197388,0,0,129,1,1,1,1,1,0,0,0,0,0,0,0
3596000,3516000,13488881683,0.0005246168,0.017005827,0.0050896313,0,0.011621705,5.7735023,0.00047981835,nan,nan,nan,0.0,0.0,0.0,0.0,1310988,1310988,0,197388,0,0,129,1,1,1,1,1,0,0,0,0,0,0,0
3604000,3524000,13488881683,0.00050789345,0.016513672,0.0051078033,0,0.011882447,5.7735023,0.00047981835,nan,nan,nan,0.0,0.0,0.0,0.0,1310988,1310988,0,197388,0,0,129,1,1,1,1,1,0,0,0,0,0,0,0
3612000,3532000,13488881683,0.00046266953,0.015952809,0.005112735,0,0.012370924,5.7735023,0.00047981835,nan,nan,nan,0.0,0.0,0.0,0.0,1310988,1310988,0,197388,0,0,129,1,1,1,1,1,0,0,0,0,0,0,0
3620000,3540000,13488881683,0.00042098234,0.015407501,0.0051109134,0,0.012922751,5.7735023,0.00047981835,nan,nan,nan,0.0,0.0,0.0,0.0,1310988,1310988,0,197388,0,0,129,1,1,1,1,1,0,0,0,0,0,0,0
3628000,3548000,13488881683,0.00038259456,0.014877459,0.0051031313,0,0.0135379,5.7735023,0.00047981835,nan,nan,nan,0.0,0.0,0.0,0.0,1310988,1310988,0,197388,0,0,129,1,1,1,1,1,0,0,0,0,0,0,0
3636000,3556000,13488881683,0.001285895,0.014362434,0.005089699,0,0.014215955,5.7735023,0.01569678,nan,nan,nan,0.0,0.0,0.0,0.0,1310988,1310988,0,197388,0,0,129,1,1,1,1,1,0,0,0,0,0,0,0
3644000,3564000,13488881683,0.0012677268,0.013861516,0.005070761,0,0.014956042,5.7735023,0.01569678,nan,nan,nan,0.0,0.0,0.0,0.0,1310988,1310988,0,197388,0,0,129,1,1,1,1,1,0,0,0,0,0,0,0
3652000,3572000,13488881683,0.0012512185,0.013374706,0.0050466973,0,0.015757123,5.7735023,0.01569678,nan,nan,nan,0.0,0.0,0.0,0.0,1310988,1310988,0,197388,0,0,129,1,1,1,1,1,0,0,0,0,0,0,0
3660000,3580000,13488881683,0.001234052,0.012901437,0.005017765,0,0.016617998,5.7735023,0.01569678,nan,nan,nan,0.0,0.0,0.0,0.0,1310988,1310988,0,197388,0,0,129,1,1,1,1,1,0,0,0,0,0,0,0
3668000,3588000,13488881683,0.0012177547,0.012441609,0.0049842987,0,0.01753753,5.7735023,0.01569678,nan,nan,nan,0.0,0.0,0.0,0.0,1310988,1310988,0,197388,0,0,129,1,1,1,1,1,0,0,0,0,0,0,0
3676000,3596000,13488881683,0.001202299,0.011994761,0.0049468093,0,0.018514488,5.7735023,0.01569678,nan,nan,nan,0.0,0.0,0.0,0.0,1310988,1310988,0,197388,0,0,129,1,1,1,1,1,0,0,0,0,0,0,0
3684000,3604000,13488881683,0.001187752,0.011560526,0.0049053356,0,0.019547794,5.7735023,0.01569678,nan,nan,nan,0.0,0.0,0.0,0.0,1310988,1310988,0,197388,0,0,129,1,1,1,1,1,0,0,0,0,0,0,0
3692000,3612000,13488881683,0.0011736444,0.011137243,0.0048600486,0,0.020636348,5.7735023,0.01569678,nan,nan,nan,0.0,0.0,0.0,0.0,1310988,1310988,0,197388,0,0,129,1,1,1,1,1,0,0,0,0,0,0,0
3700000,3620000,13488881683,0.0009782144,0.010725921,0.0048113586,0,0.021779217,5.7735023,0.0030116886,nan,nan,nan,0.0,0.0,0.0,0.0,1310988,1310988,0,197388,0,0,129,1,1,1,1,1,0,0,0,0,0,0,0
3708000,3628000,13488881683,0.00096525776,0.010326471,0.004759424,0,0.022975637,5.7735023,0.0030116886,nan,nan,nan,0.0,0.0,0.0,0.0,1310988,1310988,0,197388,0,0,129,1,1,1,1,1,0,0,0,0,0,0,0
3716000,3636000,13488881683,0.0009531588,0.009938436,0.0047047203,0,0.024224823,5.7735023,0.0030116886,nan,nan,nan,0.0,0.0,0.0,0.0,1310988,1310988,0,197388,0,0,129,1,1,1,1,1,0,0,0,0,0,0,0
3724000,3644000,13488881683,0.00089010806,0.00956159,0.004646966,0,0.025526168,5.7735023,0.0030116886,nan,nan,nan,0.0,0.0,0.0,0.0,1310988,1310988,0,197388,0,0,129,1,1,1,1,1,0,0,0,0,0,0,0
3732000,3652000,13488881683,0.0008278633,0.009195629,0.0045866184,0,0.026879119,5.7735023,0.0030116886,nan,nan,nan,0.0,0.0,0.0,0.0,1310988,1310988,0,197388,0,0,129,1,1,1,1,1,0,0,0,0,0,0,0
3740000,3660000,13488881683,0.0007663952,0.008840138,0.0045240773,0,0.028283367,5.7735023,0.0030116886,nan,nan,nan,0.0,0.0,0.0,0.0,1310988,1310988,0,197388,0,0,129,1,1,1,1,1,0,0,0,0,0,0,0
3748000,3668000,13488881683,0.0007056205,0.008494946,0.0044593373,0,0.029738659,5.7735033,0.0030116886,nan,nan,nan,0.0,0.0,0.0,0.0,1310988,1310988,0,197388,0,0,129,1,1,1,1,1,0,0,0,0,0,0,0
3756000,3676000,13488881683,0.00064558367,0.0081598405,0.0043926365,0,0.031244744,5.773504,0.0030116886,nan,nan,nan,0.0,0.0,0.0,0.0,1310988,1310988,0,197388,0,0,129,1,1,1,1,1,0,0,0,0,0,0,0
3764000,3684000,13488881683,0.0005861574,0.007834394,0.0043241004,0,0.03280149,5.7735047,0.0030116886,nan,nan,nan,0.0,0.0,0.0,0.0,1310988,1310988,0,197388,0,0,129,1,1,1,1,1,0,0,0,0,0,0,0
3772000,3692000,13488881683,0.0014764052,0.007519268,0.004253986,0,0.034408804,5.773505,0.016501533,nan,nan,nan,0.0,0.0,0.0,0.0,1310988,1310988,0,197388,0,0,129,1,1,1,1,1,0,0,0,0,0,0,0
3780000,3700000,13488881683,0.0014706682,0.0077557852,0.0044460096,0,0.013166156,5.000002,0.016501533,nan,nan,nan,0.0,0.0,0.0,0.0,1310988,1310988,0,197388,0,0,129,1,1,1,1,1,0,0,0,0,0,0,0
3788000,3708000,13488881683,0.0014260343,0.007460992,0.004367885,0,0.013800346,5.0000024,0.016501533,nan,nan,nan,0.0,0.0,0.0,0.0,1310988,1310988,0,197388,0,0,129,1,1,1,1,1,0,0,0,0,0,0,0
3796000,3716000,13488881683,0.0013824112,0.00717541,0.004288921,0,0.014473857,5.000003,0.016501533,nan,nan,nan,0.0,0.0,0.0,0.0,1310988,1310988,0,197388,0,0,129,1,1,1,1,1,0,0,0,0,0,0,0
3804000,3724000,13488881683,0.0013398624,0.0068986425,0.0042090463,0,0.015186426,5.0000033,0.016501533,nan,nan,nan,0.0,0.0,0.0,0.0,1310988,1310988,0,197388,0,0,129,1,1,1,1,1,0,0,0,0,0,0,0
3812000,3732000,13488881683,0.0013274117,0.0070088613,0.0041879187,0,0.015264908,5.0000033,0.016501533,nan,nan,nan,0.0,0.0,0.0,0.0,1310988,1310988,0,197388,0,0,129,1,1,1,1,1,0,0,0,0,0,0,0
3820000,3740000,13488881683,0.001293059,0.0067435806,0.0041078324,0,0.015986208,5.000004,0.016501533,nan,nan,nan,0.0,0.0,0.0,0.0,1310988,1310988,0,197388,0,0,129,1,1,1,1,1,0,0,0,0,0,0,0
3828000,3748000,13488881683,0.0012620484,0.0064872922,0.004027408,0,0.016743831,5.0000043,0.016501533,nan,nan,nan,0.0,0.0,0.0,0.0,1310988,1310988,0,197388,0,0,129,1,1,1,1,1,0,0,0,0,0,0,0
3836000,3756000,13488881683,0.00070003344,0.0062384885,0.0039464133,0,0.017537856,5.000005,0.011770074,nan,nan,nan,0.0,0.0,0.0,0.0,1310988,1310988,0,197388,0,0,129,1,1,1,1,1,0,0,0,0,0,0,0
3844000,3764000,13488881683,0.00068455905,0.005998692,0.0038652236,0,0.01836843,5.0000057,0.011770074,nan,nan,nan,0.0,0.0,0.0,0.0,1310988,1310988,0,197388,0,0,129,1,1,1,1,1,0,0,0,0,0,0,0
3852000,3772000,13488881683,0.0006721363,0.005766879,0.0037841336,0,0.019235792,5.000006,0.011770074,nan,nan,nan,0.0,0.0,0.0,0.0,1310988,1310988,0,197388,0,0,129,1,1,1,1,1,0,0,0,0,0,0,0
3860000,3780000,13488881683,0.00063553633,0.005542784,0.0037031367,0,0.020140257,5.000007,0.011770074,nan,nan,nan,0.0,0.0,0.0,0.0,1310988,1310988,0,197388,0,0,129,1,1,1,1,1,0,0,0,0,0,0,0
3868000,3788000,13488881683,0.00058404886,0.005319945,0.003621702,0,0.021082025,5.0000076,0.011770074,nan,nan,nan,0.0,0.0,0.0,0.0,1310988,1310988,0,197388,0,0,129,1,1,1,1,1,0,0,0,0,0,0,0
3876000,3796000,13488881683,0.0005385483,0.005103791,0.003540598,0,0.022061462,5.0000086,0.011770074,nan,nan,nan,0.0,0.0,0.0,0.0,1310988,1310988,0,197388,0,0,129,1,1,1,1,1,0,0,0,0,0,0,0
3884000,3804000,13488881683,0.0004996419,0.0048936913,0.0034592208,0,0.023078948,5.0000095,0.011770074,nan,nan,nan,0.0,0.0,0.0,0.0,1310988,1310988,0,197388,0,0,129,1,1,1,1,1,0,0,0,0,0,0,0
3892000,3812000,13488881683,0.00046808136,0.0046897256,0.0033782516,0,0.024134936,5.00001,0.011770074,nan,nan,nan,0.0,0.0,0.0,0.0,1310988,1310988,0,197388,0,0,129,1,1,1,1,1,0,0,0,0,0,0,0
3900000,3820000,13488881683,0.0004390915,0.004488101,0.0032972347,0,0.025229912,5.000011,0.011770074,nan,nan,nan,0.0,0.0,0.0,0.0,1310988,1310988,0,197388,0,0,129,1,1,1,1,1,0,0,0,0,0,0,0
3908000,3828000,13488881683,0.00043550774,0.004292118,0.0032164978,0,0.026364375,5.0000114,0.0035776645,nan,nan,nan,0.0,0.0,0.0,0.0,1310988,1310988,0,197388,0,0,129,1,1,1,1,1,0,0,0,0,0,0,0
3916000,3836000,13488881683,0.00039667415,0.0041013304,0.0031359745,0,0.027538907,5.0000124,0.0035776645,nan,nan,nan,0.0,0.0,0.0,0.0,1310988,1310988,0,197388,0,0,129,1,1,1,1,1,0,0,0,0,0,0,0
3924000,3844000,13488881683,0.00036784945,0.0039157793,0.0030555616,0,0.028754,5.000014,0.0035776645,nan,nan,nan,0.0,0.0,0.0,0.0,1310988,1310988,0,197388,0,0,129,1,1,1,1,1,0,0,0,0,0,0,0
3932000,3852000,13488881683,0.0003397791,0.0037352222,0.0029755363,0,0.03001029,5.000015,0.0035776645,nan,nan,nan,0.0,0.0,0.0,0.0,1310988,1310988,0,197388,0,0,129,1,1,1,1,1,0,0,0,0,0,0,0
3940000,3860000,13488881683,0.0003124541,0.0035594658,0.0028959832,0,0.031308435,5.000016,0.0035776645,nan,nan,nan,0.0,0.0,0.0,0.0,1310988,1310988,0,197388,0,0,129,1,1,1,1,1,0,0,0,0,0,0,0
3948000,3868000,13488881683,0.00028581935,0.0033885639,0.002816664,0,0.032649055,5.000017,0.0035776645,nan,nan,nan,0.0,0.0,0.0,0.0,1310988,1310988,0,197388,0,0,129,1,1,1,1,1,0,0,0,0,0,0,0
3956000,3876000,13488881683,0.000260789,0.0032226315,0.0027379966,0,0.0340329,5.000018,0.0035776645,nan,nan,nan,0.0,0.0,0.0,0.0,1310988,1310988,0,197388,0,0,129,1,1,1,1,1,0,0,0,0,0,0,0
3964000,3884000,13488881683,0.00023705486,0.003061,0.0026597858,0,0.035460677,5.0000196,0.0035776645,nan,nan,nan,0.0,0.0,0.0,0.0,1310988,1310988,0,197388,0,0,129,1,1,1,1,1,0,0,0,0,0,0,0
3972000,3892000,13488881683,0.00021430894,0.002903436,0.0025821354,0,0.03693306,5.000021,0.0035776645,nan,nan,nan,0.0,0.0,0.0,0.0,1310988,1310988,0,197388,0,0,129,1,1,1,1,1,0,0,0,0,0,0,0
3980000,3900000,13488881683,0.0014086236,0.002745004,0.002504543,0,0.038450725,5.0000224,0.026108867,nan,nan,nan,0.0,0.0,0.0,0.0,1310988,1310988,0,197388,0,0,129,1,1,1,1,1,0,0,0,0,0,0,0
3988000,3908000,13488881683,0.0016799031,0.0047370684,0.0030744753,0,0.013333868,4.472153,0.026108867,nan,nan,nan,0.0,0.0,0.0,0.0,1310988,1310988,0,197388,0,0,129,1,1,1,1,1,0,0,0,0,0,0,0
3996000,3916000,13488881683,0.0016819733,0.004605482,0.002989488,0,0.013883817,4.472154,0.026108867,nan,nan,nan,0.0,0.0,0.0,0.0,1310988,1310988,0,197388,0,0,129,1,1,1,1,1,0,0,0,0,0,0,0
4004000,3924000,13488881683,0.0016821247,0.00447838,0.0029058733,0,0.014476661,4.4721556,0.026108867,nan,nan,nan,0.0,0.0,0.0,0.0,1310988,1310988,0,197388,0,0,129,1,1,1,1,1,0,0,0,0,0,0,0
4012000,3932000,13488881683,0.0016823763,0.00435689,0.002823621,0,0.01511331,4.472157,0.026108867,nan,nan,nan,0.0,0.0,0.0,0.0,1310988,1310988,0,197388,0,0,129,1,1,1,1,1,0,0,0,0,0,0,0
4020000,3940000,13488881683,0.0018120804,0.004910547,0.002931401,0,0.015216018,4.472157,0.026108867,nan,nan,nan,0.0,0.0,0.0,0.0,1310988,1310988,0,197388,0,0,129,1,1,1,1,1,0,0,0,0,0,0,0
4028000,3948000,13488881683,0.0018131412,0.0047827344,0.0028526306,0,0.01586967,4.4721584,0.026108867,nan,nan,nan,0.0,0.0,0.0,0.0,1310988,1310988,0,197388,0,0,129,1,1,1,1,1,0,0,0,0,0,0,0
4036000,3956000,13488881683,0.0018141756,0.004659856,0.0027751096,0,0.01656571,4.47216,0.026108867,nan,nan,nan,0.0,0.0,0.0,0.0,1310988,1310988,0,197388,0,0,129,1,1,1,1,1,0,0,0,0,0,0,0
4044000,3964000,13488881683,0.001815599,0.004542828,0.0026995612,0,0.01730489,4.472162,0.026108867,nan,nan,nan,0.0,0.0,0.0,0.0,1310988,1310988,0,197388,0,0,129,1,1,1,1,1,0,0,0,0,0,0,0
4052000,3972000,13488881683,0.002072288,0.0044300933,0.0026252668,0,0.018087836,4.4721637,0.006034464,nan,nan,nan,0.0,0.0,0.0,0.0,1310988,1310988,0,197388,0,0,129,1,1,1,1,1,0,0,0,0,0,0,0
4060000,3980000,13488881683,0.002075185,0.0043232436,0.0025529948,0,0.01891515,4.472165,0.006034464,nan,nan,nan,0.0,0.0,0.0,0.0,1310988,1310988,0,197388,0,0,129,1,1,1,1,1,0,0,0,0,0,0,0
4068000,3988000,13488881683,0.0020186454,0.0042215073,0.002482412,0,0.019787485,4.472167,0.006034464,nan,nan,nan,0.0,0.0,0.0,0.0,1310988,1310988,0,197388,0,0,129,1,1,1,1,1,0,0,0,0,0,0,0
4076000,3996000,13488881683,0.0019370203,0.004119015,0.0024130768,0,0.020705298,4.4721684,0.006034464,nan,nan,nan,0.0,0.0,0.0,0.0,1310988,1310988,6620172,197388,0,0,129,1,1,1,1,1,0,0,0,0,0,0,0
4084000,4004000,13488881683,0.0018552311,0.004018054,0.0023452325,0,0.021669094,4.472171,0.006034464,nan,nan,nan,0.0,0.0,0.0,0.0,1310988,1310988,6620172,197388,0,0,129,1,1,1,1,1,0,0,0,0,0,0,0
4092000,4012000,13488881683,0.0017735171,0.003918953,0.0022787717,0,0.022679336,4.4721727,0.006034464,nan,nan,nan,0.0,0.0,0.0,0.0,1310988,1310988,6620172,197388,0,0,129,1,1,1,1,1,0,0,0,0,0,0,0
4100000,4020000,13488881683,0.0016918768,0.0038210228,0.0022136439,0,0.023736477,4.472175,0.006034464,nan,nan,nan,0.0,0.0,0.0,0.0,1310988,1310988,6620172,197388,0,0,129,1,1,1,1,1,0,0,0,0,0,0,0
4108000,4028000,13488881683,0.0016022271,0.0037239238,0.0021495183,0,0.024840834,4.472177,0.006034464,nan,nan,nan,0.0,0.0,0.0,0.0,1310988,1310988,6620172,197388,0,0,129,1,1,1,1,1,0,0,0,0,0,0,0
4116000,4036000,13488881683,0.0016697447,0.0036269866,0.0020865644,0,0.025992934,4.4721794,0.0036592113,nan,nan,nan,0.0,0.0,0.0,0.0,1310988,1310988,6620172,197388,0,0,129,1,1,1,1,1,0,0,0,0,0,0,0
4124000,4044000,13488881683,0.0015809335,0.0035311996,0.0020246997,0,0.027193211,4.472182,0.0036592113,nan,nan,nan,0.0,0.0,0.0,0.0,1310988,1310988,6620172,197388,0,0,129,1,1,1,1,1,0,0,0,0,0,0,0
4132000,4052000,13488881683,0.0014921954,0.003436004,0.001963967,0,0.028442068,4.472184,0.0036592113,nan,nan,nan,0.0,0.0,0.0,0.0,1310988,1310988,6620172,197388,0,0,129,1,1,1,1,1,0,0,0,0,0,0,0
4140000,4060000,13488881683,0.0013890044,0.0033423041,0.0019043898,0,0.029740067,4.4721866,0.0036592113,nan,nan,nan,0.0,0.0,0.0,0.0,1310988,1310988,6620172,197388,0,0,129,1,1,1,1,1,0,0,0,0,0,0,0
4148000,4068000,13488881683,0.0012857263,0.0032488524,0.0018461823,0,0.031087693,4.4721894,0.0036592113,nan,nan,nan,0.0,0.0,0.0,0.0,1310988,1310988,6620172,197388,0,0,129,1,1,1,1,1,0,0,0,0,0,0,0
4156000,4076000,13488881683,0.001185407,0.003155875,0.0017888367,0,0.032485332,4.472192,0.0036592113,nan,nan,nan,0.0,0.0,0.0,0.0,1310988,1310988,6620172,197388,0,0,129,1,1,1,1,1,0,0,0,0,0,0,0
4164000,4084000,13488881683,0.0010893894,0.003063178,0.0017325185,0,0.033933427,4.4721947,0.0036592113,nan,nan,nan,0.0,0.0,0.0,0.0,1310988,1310988,6620172,197388,0,0,129,1,1,1,1,1,0,0,0,0,0,0,0
4172000,4092000,13488881683,0.0009974428,0.0029715882,0.0016778241,0,0.0354325,4.4721975,0.0036592113,nan,nan,nan,0.0,0.0,0.0,0.0,1310988,1310988,6620172,197388,0,0,129,1,1,1,1,1,0,0,0,0,0,0,0
4180000,4100000,13488881683,0.0009097293,0.0028810792,0.0016236953,0,0.036983036,4.4722004,0.0036592113,nan,nan,nan,0.0,0.0,0.0,0.0,1310988,1310988,6620172,197388,0,0,129,1,1,1,1,1,0,0,0,0,0,0,0
4188000,4108000,13488881683,0.0005130824,0.0027996546,0.0015722173,0,0.03858552,4.4722037,0.02207141,nan,nan,nan,0.0,0.0,0.0,0.0,1310988,1310988,6620172,197388,0,0,129,1,1,1,1,1,0,0,0,0,0,0,0
4196000,4116000,13488881683,0.0014759236,0.005788892,0.0024036586,0,0.013342168,4.0825367,0.02207141,nan,nan,nan,0.0,0.0,0.0,0.0,1310988,1310988,6620172,197388,0,0,129,1,1,1,1,1,0,0,0,0,0,0,0
4204000,4124000,13488881683,0.0014717522,0.0056811376,0.0023424004,0,0.013923357,4.0825396,0.02207141,nan,nan,nan,0.0,0.0,0.0,0.0,1310988,1310988,6620172,197388,0,0,129,1,1,1,1,1,0,0,0,0,0,0,0
4212000,4132000,13488881683,0.0014732558,0.00557477,0.0022834225,0,0.014552033,4.0825424,0.02207141,nan,nan,nan,0.0,0.0,0.0,0.0,1310988,1310988,6620172,197388,0,0,129,1,1,1,1,1,0,0,0,0,0,0,0
4220000,4140000,13488881683,0.0014797166,0.00547033,0.0022264998,0,0.0152281625,4.0825458,0.02207141,nan,nan,nan,0.0,0.0,0.0,0.0,1310988,1310988,6620172,197388,0,0,129,1,1,1,1,1,0,0,0,0,0,0,0
4228000,4148000,13488881683,0.001587778,0.005631536,0.0024642562,0,0.015276217,4.082542,0.02207141,nan,nan,nan,0.0,0.0,0.0,0.0,1310988,1310988,6620172,197388,0,0,129,1,1,1,1,1,0,0,0,0,0,0,0
4236000,4156000,13488881683,0.0016000174,0.0055125896,0.002403359,0,0.015962103,4.0825453,0.02207141,nan,nan,nan,0.0,0.0,0.0,0.0,1310988,1310988,6620172,197388,0,0,129,1,1,1,1,1,0,0,0,0,0,0,0
4244000,4164000,13488881683,0.0016150315,0.0053968993,0.0023447443,0,0.016691333,4.0825486,0.02207141,nan,nan,nan,0.0,0.0,0.0,0.0,1310988,1310988,6620172,197388,0,0,129,1,1,1,1,1,0,0,0,0,0,0,0
4252000,4172000,13488881683,0.0016319341,0.005284084,0.002288236,0,0.01746386,4.082552,0.02207141,nan,nan,nan,0.0,0.0,0.0,0.0,1310988,1310988,6620172,197388,0,0,129,1,1,1,1,1,0,0,0,0,0,0,0
4260000,4180000,13488881683,0.0014001722,0.0051725185,0.002233671,0,0.018279588,4.082555,0.012707663,nan,nan,nan,0.0,0.0,0.0,0.0,1310988,1310988,6620172,197388,0,0,129,1,1,1,1,1,0,0,0,0,0,0,0
4268000,4188000,13488881683,0.0014025087,0.0050667976,0.00218107,0,0.019138288,4.082558,0.012707663,nan,nan,nan,0.0,0.0,0.0,0.0,1310988,1310988,6620172,197388,0,0,129,1,1,1,1,1,0,0,0,0,0,0,0
4276000,4196000,13488881683,0.0013933415,0.0049654893,0.0021309888,0,0.020039907,4.082562,0.012707663,nan,nan,nan,0.0,0.0,0.0,0.0,1310988,1310988,6620172,197388,0,0,129,1,1,1,1,1,0,0,0,0,0,0,0
4284000,4204000,13488881683,0.0013211373,0.0048690466,0.0020821567,0,0.020984337,4.082566,0.012707663,nan,nan,nan,0.0,0.0,0.0,0.0,1310988,1310988,6620172,197388,0,0,129,1,1,1,1,1,0,0,0,0,0,0,0
4292000,4212000,13488881683,0.001249648,0.004771578,0.0020347687,0,0.02197137,4.0825696,0.012707663,nan,nan,nan,0.0,0.0,0.0,0.0,1310988,1310988,6620172,197388,0,0,129,1,1,1,1,1,0,0,0,0,0,0,0
4300000,4220000,13488881683,0.0011788987,0.004672843,0.0019889635,0,0.023001011,4.0825734,0.012707663,nan,nan,nan,0.0,0.0,0.0,0.0,1310988,1310988,6620172,197388,0,0,129,1,1,1,1,1,0,0,0,0,0,0,0
4308000,4228000,13488881683,0.001108958,0.0045727384,0.0019441943,0,0.024073182,4.082577,0.012707663,nan,nan,nan,0.0,0.0,0.0,0.0,1310988,1310988,6620172,197388,0,0,129,1,1,1,1,1,0,0,0,0,0,0,0
4316000,4236000,13488881683,0.001033349,0.00447286,0.0019008083,0,0.025187835,4.0825815,0.012707663,nan,nan,nan,0.0,0.0,0.0,0.0,1310988,1310988,6620172,197388,0,0,129,1,1,1,1,1,0,0,0,0,0,0,0
4324000,4244000,13488881683,0.00095888274,0.004371466,0.0018583733,0,0.026345009,4.082586,0.012707663,nan,nan,nan,0.0,0.0,0.0,0.0,1310988,1310988,6620172,197388,0,0,129,1,1,1,1,1,0,0,0,0,0,0,0
4332000,4252000,13488881683,0.00088340516,0.0042687217,0.0018168105,0,0.02754465,4.08259,0.0019538947,nan,nan,nan,0.0,0.0,0.0,0.0,1310988,1310988,6620172,197388,0,0,129,1,1,1,1,1,0,0,0,0,0,0,0
4340000,4260000,13488881683,0.00081772084,0.004165167,0.0017763653,0,0.028786844,4.082595,0.0019538947,nan,nan,nan,0.0,0.0,0.0,0.0,1310988,1310988,6620172,197388,0,0,129,1,1,1,1,1,0,0,0,0,0,0,0
4348000,4268000,13488881683,0.0007514693,0.0040610214,0.0017370726,0,0.030071653,4.082599,0.0019538947,nan,nan,nan,0.0,0.0,0.0,0.0,1310988,1310988,6620172,197388,0,0,129,1,1,1,1,1,0,0,0,0,0,0,0
4356000,4276000,13488881683,0.00068650336,0.003956536,0.0016983845,0,0.0313991,4.082604,0.0019538947,nan,nan,nan,0.0,0.0,0.0,0.0,1310988,1310988,6620172,197388,0,0,129,1,1,1,1,1,0,0,0,0,0,0,0
4364000,4284000,13488881683,0.0006225305,0.0038511483,0.001660901,0,0.03276938,4.082609,0.0019538947,nan,nan,nan,0.0,0.0,0.0,0.0,1310988,1310988,6620172,197388,0,0,129,1,1,1,1,1,0,0,0,0,0,0,0
4372000,4292000,13488881683,0.0005628689,0.0037455375,0.0016242975,0,0.03418263,4.082614,0.0019538947,nan,nan,nan,0.0,0.0,0.0,0.0,1310988,1310988,6620172,197388,0,0,129,1,1,1,1,1,0,0,0,0,0,0,0
4380000,4300000,13488881683,0.0005075014,0.003639787,0.0015887783,0,0.035639018,4.082619,0.0019538947,nan,nan,nan,0.0,0.0,0.0,0.0,1310988,1310988,6620172,197388,0,0,129,1,1,1,1,1,0,0,0,0,0,0,0
4388000,4308000,13488881683,0.00045643636,0.0035345296,0.0015539586,0,0.037138697,4.0826244,0.0019538947,nan,nan,nan,0.0,0.0,0.0,0.0,1310988,1310988,6620172,197388,0,0,129,1,1,1,1,1,0,0,0,0,0,0,0
4396000,4316000,13488881683,0.00040967832,0.0034303337,0.0015202687,0,0.038681872,4.08263,0.0019538947,nan,nan,nan,0.0,0.0,0.0,0.0,1310988,1310988,6620172,197388,0,0,129,1,1,1,1,1,0,0,0,0,0,0,0
4404000,4324000,13488881683,0.0013624998,0.005344051,0.0021523493,0,0.013343203,3.7797658,0.021931842,nan,nan,nan,0.0,0.0,0.0,0.0,1310988,1310988,6620172,197388,0,0,129,1,1,1,1,1,0,0,0,0,0,0,0
4412000,4332000,13488881683,0.0013318185,0.0052154954,0.002100054,0,0.013894297,3.7797713,0.021931842,nan,nan,nan,0.0,0.0,0.0,0.0,1310988,1310988,6620172,197388,0,0,129,1,1,1,1,1,0,0,0,0,0,0,0
4420000,4340000,13488881683,0.0013092827,0.0050888844,0.00204974,0,0.014481062,3.7797766,0.021931842,nan,nan,nan,0.0,0.0,0.0,0.0,1310988,1310988,6620172,197388,0,0,129,1,1,1,1,1,0,0,0,0,0,0,0
4428000,4348000,13488881683,0.0012913967,0.0049645384,0.002001282,0,0.015103169,3.7797823,0.021931842,nan,nan,nan,0.0,0.0,0.0,0.0,1310988,1310988,6620172,197388,0,0,129,1,1,1,1,1,0,0,0,0,0,0,0
4436000,4356000,13488881683,0.0013026877,0.0048676953,0.0023307146,0,0.015184014,3.7797687,0.021931842,nan,nan,nan,0.0,0.0,0.0,0.0,1310988,1310988,6620172,197388,0,0,129,1,1,1,1,1,0,0,0,0,0,0,0
4444000,4364000,13488881683,0.0012914367,0.004721108,0.002267184,0,0.015816292,3.7797737,0.021931842,nan,nan,nan,0.0,0.0,0.0,0.0,1310988,1310988,6620172,197388,0,0,129,1,1,1,1,1,0,0,0,0,0,0,0
4452000,4372000,13488881683,0.0012834622,0.004577792,0.002205882,0,0.016481008,3.779779,0.021931842,nan,nan,nan,0.0,0.0,0.0,0.0,1310988,1310988,6620172,197388,0,0,129,1,1,1,1,1,0,0,0,0,0,0,0
4460000,4380000,13488881683,0.0012785645,0.004437759,0.0021461626,0,0.017177962,3.7797842,0.021931842,nan,nan,nan,0.0,0.0,0.0,0.0,1310988,1310988,6620172,197388,0,0,129,1,1,1,1,1,0,0,0,0,0,0,0
4468000,4388000,13488881683,0.0012766322,0.0043015745,0.0020881495,0,0.017906899,3.7797897,0.021931842,nan,nan,nan,0.0,0.0,0.0,0.0,1310988,1310988,6620172,197388,0,0,129,1,1,1,1,1,0,0,0,0,0,0,0
4476000,4396000,13488881683,0.0018032182,0.004170842,0.0020320413,0,0.018667573,3.7797954,0.012159272,nan,nan,nan,0.0,0.0,0.0,0.0,1310988,1310988,6620172,197388,0,0,129,1,1,1,1,1,0,0,0,0,0,0,0
4484000,4404000,13488881683,0.0018116118,0.0040426753,0.0019777867,0,0.019459797,3.7798014,0.012159272,nan,nan,nan,0.0,0.0,0.0,0.0,1310988,1310988,6620172,197388,0,0,129,1,1,1,1,1,0,0,0,0,0,0,0
4492000,4412000,13488881683,0.0017513619,0.0039222525,0.0019245188,0,0.020283392,3.779807,0.012159272,nan,nan,nan,0.0,0.0,0.0,0.0,1310988,1310988,6620172,197388,0,0,129,1,1,1,1,1,0,0,0,0,0,0,0
4500000,4420000,13488881683,0.0016925364,0.0038029011,0.0018728831,0,0.02113817,3.7798133,0.012159272,nan,nan,nan,0.0,0.0,0.0,0.0,1310988,1310988,6620172,197388,0,0,129,1,1,1,1,1,0,0,0,0,0,0,0
4508000,4428000,13488881683,0.0016345893,0.0036845726,0.0018221451,0,0.022023983,3.7798195,0.012159272,nan,nan,nan,0.0,0.0,0.0,0.0,1310988,1310988,6620172,197388,0,0,129,1,1,1,1,1,0,0,0,0,0,0,0
4516000,4436000,13488881683,0.0015771849,0.00356815,0.0017726584,0,0.022940606,3.779826,0.012159272,nan,nan,nan,0.0,0.0,0.0,0.0,1310988,1310988,6620172,197388,0,0,129,1,1,1,1,1,0,0,0,0,0,0,0
4524000,4444000,13488881683,0.0015195437,0.0034536077,0.0017241902,0,0.023888055,3.7798326,0.012159272,nan,nan,nan,0.0,0.0,0.0,0.0,1310988,1310988,6620172,197388,0,0,129,1,1,1,1,1,0,0,0,0,0,0,0
4532000,4452000,13488881683,0.0014623024,0.003341197,0.0016768195,0,0.024866255,3.7798393,0.012159272,nan,nan,nan,0.0,0.0,0.0,0.0,1310988,1310988,6620172,197388,0,0,129,1,1,1,1,1,0,0,0,0,0,0,0
4540000,4460000,13488881683,0.0014054554,0.0032314074,0.0016303228,0,0.02587515,3.7798462,0.012159272,nan,nan,nan,0.0,0.0,0.0,0.0,1310988,1310988,6620172,197388,0,0,129,1,1,1,1,1,0,0,0,0,0,0,0
4548000,4468000,13488881683,0.0018000146,0.003123784,0.001584831,0,0.026914611,3.7798533,0.009155993,nan,nan,nan,0.0,0.0,0.0,0.0,1310988,1310988,6620172,197388,0,0,129,1,1,1,1,1,0,0,0,0,0,0,0
4556000,4476000,13488881683,0.0017474088,0.0030177361,0.0015404822,0,0.027984723,3.7798605,0.009155993,nan,nan,nan,0.0,0.0,0.0,0.0,1310988,1310988,6620172,197388,0,0,129,1,1,1,1,1,0,0,0,0,0,0,0
4564000,4484000,13488881683,0.00166217,0.0029145807,0.0014970753,0,0.029085489,3.779868,0.009155993,nan,nan,nan,0.0,0.0,0.0,0.0,1310988,1310988,6620172,197388,0,0,129,1,1,1,1,1,0,0,0,0,0,0,0
4572000,4492000,13488881683,0.0015766756,0.0028141807,0.0014546717,0,0.030216847,3.7798755,0.009155993,nan,nan,nan,0.0,0.0,0.0,0.0,1310988,1310988,6620172,197388,0,0,129,1,1,1,1,1,0,0,0,0,0,0,0
4580000,4500000,13488881683,0.0014938443,0.0027167848,0.0014135469,0,0.031378873,3.7798831,0.009155993,nan,nan,nan,0.0,0.0,0.0,0.0,1310988,1310988,6620172,197388,0,0,129,1,1,1,1,1,0,0,0,0,0,0,0
4588000,4508000,13488881683,0.0014140299,0.0026219103,0.0013734917,0,0.032571655,3.779891,0.009155993,nan,nan,nan,0.0,0.0,0.0,0.0,1310988,1310988,6620172,197388,0,0,129,1,1,1,1,1,0,0,0,0,0,0,0
4596000,4516000,13488881683,0.0013371255,0.0025305403,0.0013346695,0,0.033795167,3.7798991,0.009155993,nan,nan,nan,0.0,0.0,0.0,0.0,1310988,1310988,6620172,197388,0,0,129,1,1,1,1,1,0,0,0,0,0,0,0
4604000,4524000,13488881683,0.0012629129,0.0024428891,0.0012971915,0,0.03504955,3.7799075,0.009155993,nan,nan,nan,0.0,0.0,0.0,0.0,1310988,1310988,6620172,197388,0,0,129,1,1,1,1,1,0,0,0,0,0,0,0
4612000,4532000,13488881683,0.0012919182,0.003616547,0.0017983539,0,0.013179079,3.5357559,0.009155993,nan,nan,nan,0.0,0.0,0.0,0.0,1310988,1310988,6620172,197388,0,0,129,1,1,1,1,1,0,0,0,0,0,0,0
4620000,4540000,13488881683,0.0014487994,0.0035098875,0.0017373433,0,0.013663596,3.535764,0.0047323094,nan,nan,nan,0.0,0.0,0.0,0.0,1310988,1310988,6620172,197388,0,0,129,1,1,1,1,1,0,0,0,0,0,0,0
4628000,4548000,13488881683,0.0013831647,0.003406443,0.0016780318,0,0.01417329,3.5357723,0.0047323094,nan,nan,nan,0.0,0.0,0.0,0.0,1310988,1310988,6620172,197388,0,0,129,1,1,1,1,1,0,0,0,0,0,0,0
4636000,4556000,13488881683,0.0012968834,0.0033061444,0.0016211009,0,0.014707928,3.5357807,0.0047323094,nan,nan,nan,0.0,0.0,0.0,0.0,1310988,1310988,6620172,197388,0,0,129,1,1,1,1,1,0,0,0,0,0,0,0
4644000,4564000,13488881683,0.0012267833,0.0032284728,0.0021434445,0,0.014845154,3.5357482,0.0047323094,nan,nan,nan,0.0,0.0,0.0,0.0,1310988,1310988,6620172,197388,0,0,129,1,1,1,1,1,0,0,0,0,0,0,0
4652000,4572000,13488881683,0.001149066,0.003087446,0.0020647924,0,0.015392518,3.5357559,0.0047323094,nan,nan,nan,0.0,0.0,0.0,0.0,1310988,1310988,6620172,197388,0,0,129,1,1,1,1,1,0,0,0,0,0,0,0
4660000,4580000,13488881683,0.0010761694,0.0029514637,0.0019876193,0,0.015963176,3.5357633,0.0047323094,nan,nan,nan,0.0,0.0,0.0,0.0,1310988,1310988,6620172,197388,0,0,129,1,1,1,1,1,0,0,0,0,0,0,0
4668000,4588000,13488881683,0.00100813,0.0028202408,0.0019128585,0,0.016556984,3.535771,0.0047323094,nan,nan,nan,0.0,0.0,0.0,0.0,1310988,1310988,6620172,197388,0,0,129,1,1,1,1,1,0,0,0,0,0,0,0
4676000,4596000,13488881683,0.0009447364,0.0026938326,0.0018398031,0,0.017173825,3.535779,0.0047323094,nan,nan,nan,0.0,0.0,0.0,0.0,1310988,1310988,6620172,197388,0,0,129,1,1,1,1,1,0,0,0,0,0,0,0
4684000,4604000,13488881683,0.0008860136,0.0025721237,0.0017686271,0,0.0178135,3.535787,0.0047323094,nan,nan,nan,0.0,0.0,0.0,0.0,1310988,1310988,6620172,197388,0,0,129,1,1,1,1,1,0,0,0,0,0,0,0
4692000,4612000,13488881683,0.0010488074,0.0024552739,0.0016995025,0,0.018475886,3.5357952,0.0047407267,nan,nan,nan,0.0,0.0,0.0,0.0,1310988,1310988,6620172,197388,0,0,129,1,1,1,1,1,0,0,0,0,0,0,0
4700000,4620000,13488881683,0.0009871867,0.0023459666,0.0016317348,0,0.01916081,3.5358038,0.0047407267,nan,nan,nan,0.0,0.0,0.0,0.0,1310988,1310988,6620172,197388,0,0,129,1,1,1,1,1,0,0,0,0,0,0,0
4708000,4628000,13488881683,0.0009168612,0.0022403544,0.0015658133,0,0.019868134,3.5358124,0.0047407267,nan,nan,nan,0.0,0.0,0.0,0.0,1310988,1310988,6620172,197388,0,0,129,1,1,1,1,1,0,0,0,0,0,0,0
4716000,4636000,13488881683,0.0008499341,0.0021383632,0.0015014819,0,0.020597791,3.5358212,0.0047407267,nan,nan,nan,0.0,0.0,0.0,0.0,1310988,1310988,6620172,197388,0,0,129,1,1,1,1,1,0,0,0,0,0,0,0
4724000,4644000,13488881683,0.0007873206,0.0020405764,0.0014384824,0,0.021349706,3.5358303,0.0047407267,nan,nan,nan,0.0,0.0,0.0,0.0,1310988,1310988,6620172,197388,0,0,129,1,1,1,1,1,0,0,0,0,0,0,0
4732000,4652000,13488881683,0.0007276796,0.0019472638,0.0013771155,0,0.022123815,3.5358393,0.0047407267,nan,nan,nan,0.0,0.0,0.0,0.0,1310988,1310988,6620172,197388,0,0,129,1,1,1,1,1,0,0,0,0,0,0,0
4740000,4660000,13488881683,0.0006720196,0.0018584164,0.0013169266,0,0.022920007,3.5358489,0.0047407267,nan,nan,nan,0.0,0.0,0.0,0.0,1310988,1310988,6620172,197388,0,0,129,1,1,1,1,1,0,0,0,0,0,0,0
4748000,4668000,13488881683,0.00061981083,0.0017746874,0.0012579797,0,0.023738174,3.5358584,0.0047407267,nan,nan,nan,0.0,0.0,0.0,0.0,1310988,1310988,6620172,197388,0,0,129,1,1,1,1,1,0,0,0,0,0,0,0
4756000,4676000,13488881683,0.00057101744,0.0016962511,0.0012002541,0,0.02457827,3.5358682,0.0047407267,nan,nan,nan,0.0,0.0,0.0,0.0,1310988,1310988,6620172,197388,0,0,129,1,1,1,1,1,0,0,0,0,0,0,0
4764000,4684000,13488881683,0.00025705353,0.0016238554,0.0011442335,0,0.025440324,3.5358782,0.0070470124,nan,nan,nan,0.0,0.0,0.0,0.0,1310988,1310988,6620172,197388,0,0,129,1,1,1,1,1,0,0,0,0,0,0,0
4772000,4692000,4898947603,0.00022380274,0.0015565079,0.0010896865,0,0.026324356,3.5358884,0.0070470124,nan,nan,0.0013368407,0.0,0.0,0.0,0.0,1310988,1310988,6620172,197388,0,0,165,1,1,1,1,1,0,0,0,0,0,0,0
4780000,4700000,4898947603,0.00019430727,0.0014951718,0.0010368231,0,0.02723035,3.535899,0.0070470124,nan,nan,0.0013368407,0.0,0.0,0.0,0.0,1310988,1310988,6620172,197388,0,0,165,1,1,1,1,1,0,0,0,0,0,0,0
4788000,4708000,4898947603,0.00017690769,0.0014401985,0.0009856214,0,0.028158234,3.5359094,0.0070470124,nan,nan,0.0013368407,0.0,0.0,0.0,0.0,1310988,1310988,6620172,197388,0,0,165,1,1,1,1,1,0,0,0,0,0,0,0
4796000,4716000,4898947603,0.00017224367,0.0013917849,0.000936516,0,0.029108087,3.5359204,0.0070470124,nan,nan,0.0013368407,0.0,0.0,0.0,0.0,1310988,1310988,6620172,197388,0,0,165,1,1,1,1,1,0,0,0,0,0,0,0
4804000,4724000,4898947603,0.00017873559,0.0013507003,0.00088915596,0,0.030079877,3.5359313,0.0070470124,nan,nan,0.0013368407,0.0,0.0,0.0,0.0,1310988,1310988,6620172,197388,0,0,165,1,1,1,1,1,0,0,0,0,0,0,0
4812000,4732000,4898947603,0.00019313382,0.0013164921,0.0008439045,0,0.031073648,3.5359426,0.0070470124,nan,nan,0.0013368407,0.0,0.0,0.0,0.0,1310988,1310988,6620172,197388,0,0,165,1,1,1,1,1,0,0,0,0,0,0,0
4820000,4740000,4898947603,0.000553286,0.002679998,0.00110512,0,0.012941121,3.535954,0.0070470124,nan,nan,0.0013368407,0.0,0.0,0.0,0.0,1310988,1310988,6620172,197388,0,0,165,1,1,1,1,1,0,0,0,0,0,0,0
4828000,4748000,4898947603,0.00055538473,0.0026201536,0.0010707946,0,0.013364571,3.5359657,0.0070470124,nan,nan,0.0013368407,0.0,0.0,0.0,0.0,1310988,1310988,6620172,197388,0,0,165,1,1,1,1,1,0,0,0,0,0,0,0
4836000,4756000,4898947603,0.0010647215,0.00255433,0.05384372,0,0.013806623,2.4874964,0.022320675,nan,nan,0.004277485,0.0,0.0,0.0,0.0,1310988,1310988,6620172,197388,0,0,165,1,1,1,1,1,0,0,0,0,0,0,0
4844000,4764000,4898947603,0.0010419908,0.0025023045,0.05206987,0,0.014267153,2.487505,0.022320675,nan,nan,0.004277485,0.0,0.0,0.0,0.0,1310988,1310988,6620172,197388,0,0,165,1,1,1,1,1,0,0,0,0,0,0,0
4852000,4772000,4898947603,0.0010581181,0.0025785426,0.05096546,0,0.0144378105,2.4874833,0.022320675,nan,nan,0.004277485,0.0,0.0,0.0,0.0,1310988,1310988,6620172,197388,0,0,165,1,1,1,1,1,0,0,0,0,0,0,0
4860000,4780000,4898947603,0.0010574098,0.0024710041,0.049288344,0,0.014911584,2.487491,0.022320675,nan,nan,0.004277485,0.0,0.0,0.0,0.0,1310988,1310988,6620172,197388,0,0,165,1,1,1,1,1,0,0,0,0,0,0,0
4868000,4788000,4898947603,0.0010595011,0.0023696183,0.04765957,0,0.015402869,2.4874988,0.022320675,nan,nan,0.004277485,0.0,0.0,0.0,0.0,1310988,1310988,6620172,197388,0,0,165,1,1,1,1,1,0,0,0,0,0,0,0
4876000,4796000,4898947603,0.001063904,0.0022741766,0.046077617,0,0.015911544,2.4875066,0.022320675,nan,nan,0.004277485,0.0,0.0,0.0,0.0,1310988,1310988,6620172,197388,0,0,165,1,1,1,1,1,0,0,0,0,0,0,0
4884000,4804000,4898947603,0.0010705633,0.0021843025,0.044540882,0,0.016437484,2.4875147,0.022320675,nan,nan,0.004277485,0.0,0.0,0.0,0.0,1310988,1310988,6620172,197388,0,0,165,1,1,1,1,1,0,0,0,0,0,0,0
4892000,4812000,4898947603,0.001079151,0.0020966972,0.008733716,0,0.01698063,2.027594,0.022320675,nan,nan,0.0047673644,0.0,0.0,0.0,0.0,1310988,1310988,6620172,197388,0,0,165,1,1,1,1,1,0,0,0,0,0,0,0
4900000,4820000,4898947603,0.0010900588,0.0020202,0.008386597,0,0.01754087,2.0276012,0.022320675,nan,nan,0.0047673644,0.0,0.0,0.0,0.0,1310988,1310988,6620172,197388,0,0,165,1,1,1,1,1,0,0,0,0,0,0,0
4908000,4828000,4898947603,0.0019848775,0.0019505384,0.008049279,0,0.018118126,2.0276086,0.017616365,nan,nan,0.0047673644,0.0,0.0,0.0,0.0,1310988,1310988,6620172,197388,0,0,165,1,1,1,1,1,0,0,0,0,0,0,0
4916000,4836000,4898947603,0.0019986732,0.0018876941,0.0077218073,0,0.018712329,2.0276163,0.017616365,nan,nan,0.0047673644,0.0,0.0,0.0,0.0,1310988,1310988,6620172,197388,0,0,165,1,1,1,1,1,0,0,0,0,0,0,0
4924000,4844000,4898947603,0.0019516874,0.0018296847,0.0074036266,0,0.019323407,2.0276244,0.017616365,nan,nan,0.0047673644,0.0,0.0,0.0,0.0,1310988,1310988,6620172,197388,0,0,165,1,1,1,1,1,0,0,0,0,0,0,0
4932000,4852000,4898947603,0.0019060427,0.001775544,0.007094344,0,0.019951232,2.0276327,0.017616365,nan,nan,0.0047673644,0.0,0.0,0.0,0.0,1310988,1310988,6620172,197388,0,0,165,1,1,1,1,1,0,0,0,0,0,0,0
4940000,4860000,4898947603,0.0018601468,0.0017265833,0.014962495,0,0.020595752,1.7544857,0.017616365,nan,nan,0.0042689433,0.0,0.0,0.0,0.0,1310988,1310988,6620172,197388,0,0,165,1,1,1,1,1,0,0,0,0,0,0,0
4948000,4868000,4898947603,0.0018142257,0.0016835126,0.014558459,0,0.021256914,1.7544936,0.017616365,nan,nan,0.0042689433,0.0,0.0,0.0,0.0,1310988,1310988,6620172,197388,0,0,165,1,1,1,1,1,0,0,0,0,0,0,0
4956000,4876000,4898947603,0.0017682731,0.0016455036,0.014166429,0,0.021934701,1.7545017,0.017616365,nan,nan,0.0042689433,0.0,0.0,0.0,0.0,1310988,1310988,6620172,197388,0,0,165,1,1,1,1,1,0,0,0,0,0,0,0
4964000,4884000,4898947603,0.0017222292,0.0016123244,0.0137864,0,0.02262912,1.7545103,0.017616365,nan,nan,0.0042689433,0.0,0.0,0.0,0.0,1310988,1310988,6620172,197388,0,0,165,1,1,1,1,1,0,0,0,0,0,0,0
4972000,4892000,4898947603,0.0016757443,0.0015849773,0.013417907,0,0.023340102,1.7545191,0.017616365,nan,nan,0.0042689433,0.0,0.0,0.0,0.0,1310988,1310988,6620172,197388,0,0,165,1,1,1,1,1,0,0,0,0,0,0,0
4980000,4900000,4898947603,0.0016845089,0.001562072,0.0130607765,0,0.024067633,1.7545284,0.0010398916,nan,nan,0.0042689433,0.0,0.0,0.0,0.0,1310988,1310988,6620172,197388,0,0,165,1,1,1,1,1,0,0,0,0,0,0,0
4988000,4908000,4898947603,0.0016377113,0.0015440002,0.012714436,0,0.024811696,1.754538,0.0010398916,nan,nan,0.0042689433,0.0,0.0,0.0,0.0,1310988,1310988,6620172,197388,0,0,165,1,1,1,1,1,0,0,0,0,0,0,0
4996000,4916000,4898947603,0.0015398159,0.0015306409,0.012378655,0,0.025572289,1.7545481,0.0010398916,nan,nan,0.0042689433,0.0,0.0,0.0,0.0,1310988,1310988,6620172,197388,0,0,165,1,1,1,1,1,0,0,0,0,0,0,0
5004000,4924000,4898947603,0.0014411107,0.0015195071,0.00512321,0,0.02634939,1.5685067,0.0010398916,nan,nan,0.0017681002,0.0,0.0,0.0,0.0,1310988,1310988,6620172,197388,0,0,165,1,1,1,1,1,0,0,0,0,0,0,0
5012000,4932000,4898947603,0.0013447764,0.0015146136,0.005029764,0,0.027143037,1.5685164,0.0010398916,nan,nan,0.0017681002,0.0,0.0,0.0,0.0,1310988,1310988,6620172,197388,0,0,165,1,1,1,1,1,0,0,0,0,0,0,0
5020000,4940000,4898947603,0.0012508066,0.001513712,0.004939672,0,0.027953241,1.5685265,0.0010398916,nan,nan,0.0017681002,0.0,0.0,0.0,0.0,1310988,1310988,6620172,197388,0,0,165,1,1,1,1,1,0,0,0,0,0,0,0
5028000,4948000,4898947603,0.0012347221,0.0028754994,0.0049147974,0,0.012692532,1.5685371,0.0010398916,nan,nan,0.0017681002,0.0,0.0,0.0,0.0,1310988,1310988,6620172,197388,0,0,165,1,1,1,1,1,0,0,0,0,0,0,0
5036000,4956000,4898947603,0.0011471546,0.002837382,0.004831293,0,0.013068115,1.5685481,0.0010398916,nan,nan,0.0017681002,0.0,0.0,0.0,0.0,1310988,1310988,6620172,197388,0,0,165,1,1,1,1,1,0,0,0,0,0,0,0
5044000,4964000,4898947603,0.0010620091,0.0028015468,0.0047508567,0,0.01345827,1.5685595,0.0010398916,nan,nan,0.0017681002,0.0,0.0,0.0,0.0,1310988,1310988,6620172,197388,0,0,165,1,1,1,1,1,0,0,0,0,0,0,0
5052000,4972000,4898947603,0.0008052988,0.0027685636,0.0046728863,0,0.013862912,1.5685714,0.0035983329,nan,nan,0.0017681002,0.0,0.0,0.0,0.0,1310988,1310988,6620172,197388,0,0,165,1,1,1,1,1,0,0,0,0,0,0,0
5060000,4980000,4898947603,0.0007307678,0.0027520875,0.014300999,0,0.014048309,1.4313773,0.0035983329,nan,nan,0.0031782875,0.0,0.0,0.0,0.0,1310988,1310988,6620172,197388,0,0,165,1,1,1,1,1,0,0,0,0,0,0,0
5068000,4988000,4898947603,0.00065580424,0.0026654752,0.013899093,0,0.014465707,1.4313868,0.0035983329,nan,nan,0.0031782875,0.0,0.0,0.0,0.0,1310988,1310988,6620172,197388,0,0,165,1,1,1,1,1,0,0,0,0,0,0,0
5076000,4996000,4898947603,0.0005859611,0.0025844714,0.013508985,0,0.014896992,1.4313966,0.0035983329,nan,nan,0.0031782875,0.0,0.0,0.0,0.0,1310988,1310988,6620172,197388,0,0,165,1,1,1,1,1,0,0,0,0,0,0,0
5084000,5004000,4898947603,0.00052367285,0.0025086473,0.013130468,0,0.015342088,1.431407,0.0035983329,nan,nan,0.0031782875,0.0,0.0,0.0,0.0,1310988,1310988,6620172,197388,0,0,165,1,1,1,1,1,0,0,0,0,0,0,0
5092000,5012000,4898947603,0.00046994202,0.0024382763,0.012763477,0,0.015800899,1.4314176,0.0035983329,nan,nan,0.0031782875,0.0,0.0,0.0,0.0,1310988,1310988,6620172,197388,0,0,165,1,1,1,1,1,0,0,0,0,0,0,0
5100000,5020000,4898947603,0.0004250517,0.0023733752,0.012407129,0,0.016273351,1.4314288,0.0035983329,nan,nan,0.0031782875,0.0,0.0,0.0,0.0,1310988,1310988,6620172,197388,0,0,165,1,1,1,1,1,0,0,0,0,0,0,0
5108000,5028000,4898947603,0.00038957002,0.0023141792,0.012061737,0,0.016759383,1.4314402,0.0035983329,nan,nan,0.0031782875,0.0,0.0,0.0,0.0,1310988,1310988,6620172,197388,0,0,165,1,1,1,1,1,0,0,0,0,0,0,0
5116000,5036000,4898947603,0.0003465975,0.002262071,0.011726278,0,0.01725893,1.4314523,0.0035983329,nan,nan,0.0031782875,0.0,0.0,0.0,0.0,1310988,1310988,6620172,197388,0,0,165,1,1,1,1,1,0,0,0,0,0,0,0
5124000,5044000,4898947603,0.0010301425,0.002214401,0.002628097,0,0.017771943,1.3249347,0.016853763,nan,nan,0.0032812196,0.0,0.0,0.0,0.0,1310988,1310988,6620172,197388,0,0,165,1,1,1,1,1,0,0,0,0,0,0,0
5132000,5052000,4898947603,0.0009806228,0.0021704915,0.0025972656,0,0.018298374,1.3249466,0.016853763,nan,nan,0.0032812196,0.0,0.0,0.0,0.0,1310988,1310988,6620172,197388,0,0,165,1,1,1,1,1,0,0,0,0,0,0,0
5140000,5060000,4898947603,0.0009454093,0.0021299922,0.0025673162,0,0.018838203,1.3249589,0.016853763,nan,nan,0.0032812196,0.0,0.0,0.0,0.0,1310988,1310988,6620172,197388,0,0,165,1,1,1,1,1,0,0,0,0,0,0,0
5148000,5068000,4898947603,0.0009144866,0.0020927296,0.0025393663,0,0.019391349,1.3249718,0.016853763,nan,nan,0.0032812196,0.0,0.0,0.0,0.0,1310988,1310988,6620172,197388,0,0,165,1,1,1,1,1,0,0,0,0,0,0,0
5156000,5076000,4898947603,0.0008878402,0.002060256,0.0025128624,0,0.019957753,1.3249851,0.016853763,nan,nan,0.0032812196,0.0,0.0,0.0,0.0,1310988,1310988,6620172,197388,0,0,165,1,1,1,1,1,0,0,0,0,0,0,0
5164000,5084000,4898947603,0.0008654875,0.0020314278,0.002487483,0,0.020537443,1.324999,0.016853763,nan,nan,0.0032812196,0.0,0.0,0.0,0.0,1310988,1310988,6620172,197388,0,0,165,1,1,1,1,1,0,0,0,0,0,0,0
5172000,5092000,4898947603,0.0008472343,0.0020063492,0.0024637543,0,0.021130346,1.3250134,0.016853763,nan,nan,0.0032812196,0.0,0.0,0.0,0.0,1310988,1310988,6620172,197388,0,0,165,1,1,1,1,1,0,0,0,0,0,0,0
5180000,5100000,4898947603,0.00083269714,0.001980067,0.020349495,0,0.021736387,1.2391981,0.016853763,nan,nan,0.009643904,0.0,0.0,0.0,0.0,1310988,1310988,6620172,197388,0,0,165,1,1,1,1,1,0,0,0,0,0,0,0
5188000,5108000,4898947603,0.0008218456,0.0019617253,0.019645236,0,0.022355553,1.2392125,0.016853763,nan,nan,0.009643904,0.0,0.0,0.0,0.0,1310988,1310988,6620172,197388,0,0,165,1,1,1,1,1,0,0,0,0,0,0,0
5196000,5116000,4898947603,0.0008859298,0.0019471406,0.018960627,0,0.022987854,1.2392274,0.0013141427,nan,nan,0.009643904,0.0,0.0,0.0,0.0,1310988,1310988,6620172,197388,0,0,165,1,1,1,1,1,0,0,0,0,0,0,0
5204000,5124000,4898947603,0.00088229234,0.001935986,0.018295186,0,0.023633253,1.2392429,0.0013141427,nan,nan,0.009643904,0.0,0.0,0.0,0.0,1310988,1310988,6620172,197388,0,0,165,1,1,1,1,1,0,0,0,0,0,0,0
5212000,5132000,4898947603,0.00083234237,0.0019282023,0.017648647,0,0.024291791,1.2392589,0.0013141427,nan,nan,0.009643904,0.0,0.0,0.0,0.0,1310988,1310988,6620172,197388,0,0,165,1,1,1,1,1,0,0,0,0,0,0,0
5220000,5140000,4898947603,0.0007847153,0.0019234414,0.017020212,0,0.02496345,1.2392755,0.0013141427,nan,nan,0.009643904,0.0,0.0,0.0,0.0,1310988,1310988,6620172,197388,0,0,165,1,1,1,1,1,0,0,0,0,0,0,0
5228000,5148000,4898947603,0.00073903904,0.001921275,0.016409539,0,0.025648236,1.2392927,0.0013141427,nan,nan,0.009643904,0.0,0.0,0.0,0.0,1310988,1310988,6620172,197388,0,0,165,1,1,1,1,1,0,0,0,0,0,0,0
5236000,5156000,4898947603,0.00071076787,0.0021270595,0.015820911,0,0.012460469,1.2393104,0.0013141427,nan,nan,0.009643904,0.0,0.0,0.0,0.0,1310988,1310988,6620172,197388,0,0,165,1,1,1,1,1,0,0,0,0,0,0,0
5244000,5164000,4898947603,0.00066741474,0.0021204806,0.003189946,0,0.012799724,1.1682516,0.0013141427,nan,nan,0.005879083,0.0,0.0,0.0,0.0,1310988,1310988,6620172,197388,0,0,165,1,1,1,1,1,0,0,0,0,0,0,0
5252000,5172000,4898947603,0.00062525633,0.0021082906,0.0030246081,0,0.013151034,1.1682695,0.0013141427,nan,nan,0.005879083,0.0,0.0,0.0,0.0,1310988,1310988,6620172,197388,0,0,165,1,1,1,1,1,0,0,0,0,0,0,0
5260000,5180000,4898947603,0.00058411615,0.0020988944,0.0028646374,0,0.013514325,1.1682879,0.0013141427,nan,nan,0.005879083,0.0,0.0,0.0,0.0,1310988,1310988,6620172,197388,0,0,165,1,1,1,1,1,0,0,0,0,0,0,0
5268000,5188000,4898947603,0.00014184402,0.0020883165,0.0032682542,0,0.013704511,1.1682407,0.008671506,nan,nan,0.005879083,0.0,0.0,0.0,0.0,1310988,1310988,6620172,197388,0,0,165,1,1,1,1,1,0,0,0,0,0,0,0
5276000,5196000,4898947603,0.00012811723,0.002003436,0.003113237,0,0.01407976,1.1682564,0.008671506,nan,nan,0.005879083,0.0,0.0,0.0,0.0,1310988,1310988,6620172,197388,0,0,165,1,1,1,1,1,0,0,0,0,0,0,0
5284000,5204000,4898947603,0.00012926069,0.0019251938,0.0029629772,0,0.014466539,1.1682727,0.008671506,nan,nan,0.005879083,0.0,0.0,0.0,0.0,1310988,1310988,6620172,197388,0,0,165,1,1,1,1,1,0,0,0,0,0,0,0
5292000,5212000,4898947603,0.00014596696,0.00185315,0.0028172352,0,0.014864777,1.1682895,0.008671506,nan,nan,0.005879083,0.0,0.0,0.0,0.0,1310988,1310988,6620172,197388,0,0,165,1,1,1,1,1,0,0,0,0,0,0,0
5300000,5220000,4898947603,0.00017195944,0.0017962784,0.015419626,0,0.015274435,1.1081975,0.008671506,nan,nan,0.006955005,0.0,0.0,0.0,0.0,1310988,1310988,6620172,197388,0,0,165,1,1,1,1,1,0,0,0,0,0,0,0
5308000,5228000,4898947603,0.0002022057,0.0017356523,0.014864516,0,0.015695458,1.1082144,0.008671506,nan,nan,0.006955005,0.0,0.0,0.0,0.0,1310988,1310988,6620172,197388,0,0,165,1,1,1,1,1,0,0,0,0,0,0,0
5316000,5236000,4898947603,0.00023372435,0.0016816494,0.014324855,0,0.016127763,1.1082319,0.008671506,nan,nan,0.006955005,0.0,0.0,0.0,0.0,1310988,1310988,6620172,197388,0,0,165,1,1,1,1,1,0,0,0,0,0,0,0
5324000,5244000,4898947603,0.00026274522,0.0016347436,0.013800958,0,0.01657132,1.10825,0.008671506,nan,nan,0.006955005,0.0,0.0,0.0,0.0,1310988,1310988,6620172,197388,0,0,165,1,1,1,1,1,0,0,0,0,0,0,0
5332000,5252000,4898947603,0.00029159116,0.0015936095,0.013291894,0,0.017026085,1.1082687,0.008671506,nan,nan,0.006955005,0.0,0.0,0.0,0.0,1310988,1310988,6620172,197388,0,0,165,1,1,1,1,1,0,0,0,0,0,0,0
5340000,5260000,4898947603,0.00096023036,0.0015604737,0.012797641,0,0.017492011,1.1082879,0.01174016,nan,nan,0.006955005,0.0,0.0,0.0,0.0,1310988,1310988,6620172,197388,0,0,165,1,1,1,1,1,0,0,0,0,0,0,0
5348000,5268000,4898947603,0.0009918738,0.0015320932,0.012317447,0,0.017969072,1.1083078,0.01174016,nan,nan,0.006955005,0.0,0.0,0.0,0.0,1310988,1310988,6620172,197388,0,0,165,1,1,1,1,1,0,0,0,0,0,0,0
5356000,5276000,4898947603,0.0009957714,0.0015087511,0.011850488,0,0.01845723,1.1083282,0.01174016,nan,nan,0.006955005,0.0,0.0,0.0,0.0,1310988,1310988,6620172,197388,0,0,165,1,1,1,1,1,0,0,0,0,0,0,0
5364000,5284000,4898947603,0.0009979333,0.0014922452,0.008707361,0,0.018956468,1.0566348,0.01174016,nan,nan,0.001613192,0.0,0.0,0.0,0.0,1310988,1310988,6620172,197388,0,0,165,1,1,1,1,1,0,0,0,0,0,0,0
5372000,5292000,4898947603,0.0009976976,0.0014820701,0.008352813,0,0.019466743,1.0566554,0.01174016,nan,nan,0.001613192,0.0,0.0,0.0,0.0,1310988,1310988,6620172,197388,0,0,165,1,1,1,1,1,0,0,0,0,0,0,0
5380000,5300000,4898947603,0.0009951759,0.0014782482,0.008008111,0,0.019988012,1.0566766,0.01174016,nan,nan,0.001613192,0.0,0.0,0.0,0.0,1310988,1310988,6620172,197388,0,0,165,1,1,1,1,1,0,0,0,0,0,0,0
5388000,5308000,4898947603,0.0009907183,0.0014797727,0.007673172,0,0.02052026,1.0566984,0.01174016,nan,nan,0.001613192,0.0,0.0,0.0,0.0,1310988,1310988,6620172,197388,0,0,165,1,1,1,1,1,0,0,0,0,0,0,0
5396000,5316000,4898947603,0.0009842014,0.0014860791,0.00734712,0,0.021063466,1.056721,0.01174016,nan,nan,0.001613192,0.0,0.0,0.0,0.0,1310988,1310988,6620172,197388,0,0,165,1,1,1,1,1,0,0,0,0,0,0,0
5404000,5324000,4898947603,0.0009758609,0.0014967512,0.007030419,0,0.021617597,1.0567441,0.01174016,nan,nan,0.001613192,0.0,0.0,0.0,0.0,1310988,1310988,6620172,197388,0,0,165,1,1,1,1,1,0,0,0,0,0,0,0
5412000,5332000,4898947603,0.0015565087,0.0015130171,0.006722357,0,0.02218264,1.056768,0.010674358,nan,nan,0.001613192,0.0,0.0,0.0,0.0,1310988,1310988,6620172,197388,0,0,165,1,1,1,1,1,0,0,0,0,0,0,0
5420000,5340000,4898947603,0.0015470304,0.0015432097,0.004153277,0,0.022758573,1.0116816,0.010674358,nan,nan,0.006837595,0.0,0.0,0.0,0.0,1310988,1310988,6620172,197388,0,0,165,1,1,1,1,1,0,0,0,0,0,0,0
5428000,5348000,4898947603,0.0015010794,0.0015652735,0.0041120527,0,0.0233454,1.0117056,0.010674358,nan,nan,0.006837595,0.0,0.0,0.0,0.0,1310988,1310988,6620172,197388,0,0,165,1,1,1,1,1,0,0,0,0,0,0,0
5436000,5356000,4898947603,0.0014533466,0.0015890745,0.004072201,0,0.023943126,1.0117304,0.010674358,nan,nan,0.006837595,0.0,0.0,0.0,0.0,1310988,1310988,6620172,197388,0,0,165,1,1,1,1,1,0,0,0,0,0,0,0
5444000,5364000,4898947603,0.001412055,0.0014908105,0.004009996,0,0.012254538,1.011756,0.010674358,nan,nan,0.006837595,0.0,0.0,0.0,0.0,1310988,1310988,6620172,197388,0,0,165,1,1,1,1,1,0,0,0,0,0,0,0
5452000,5372000,4898947603,0.001364658,0.0015355471,0.0039741993,0,0.012566233,1.0117822,0.010674358,nan,nan,0.006837595,0.0,0.0,0.0,0.0,1310988,1310988,6620172,197388,0,0,165,1,1,1,1,1,0,0,0,0,0,0,0
5460000,5380000,4898947603,0.0013171587,0.0015799642,0.003939798,0,0.012888284,1.0118091,0.010674358,nan,nan,0.006837595,0.0,0.0,0.0,0.0,1310988,1310988,6620172,197388,0,0,165,1,1,1,1,1,0,0,0,0,0,0,0
5468000,5388000,4898947603,0.0012699094,0.0016282516,0.005808573,0,0.01322064,0.9720321,0.010674358,nan,nan,0.001368206,0.0,0.0,0.0,0.0,1310988,1310988,6620172,197388,0,0,165,1,1,1,1,1,0,0,0,0,0,0,0
5476000,5396000,4898947603,0.001225505,0.0015585818,0.0051215095,0,0.013410882,0.971946,0.010674358,nan,nan,0.001368206,0.0,0.0,0.0,0.0,1310988,1310988,6620172,197388,0,0,165,1,1,1,1,1,0,0,0,0,0,0,0
5484000,5404000,4898947603,0.0012706443,0.0015255521,0.005036465,0,0.013754443,0.97196853,0.0016714927,nan,nan,0.001368206,0.0,0.0,0.0,0.0,1310988,1310988,6620172,197388,0,0,165,1,1,1,1,1,0,0,0,0,0,0,0
5492000,5412000,4898947603,0.0012247448,0.0014991611,0.004954027,0,0.014107988,0.9719916,0.0016714927,nan,nan,0.001368206,0.0,0.0,0.0,0.0,1310988,1310988,6620172,197388,0,0,165,1,1,1,1,1,0,0,0,0,0,0,0
5500000,5420000,4898947603,0.0011478947,0.001480048,0.004874599,0,0.0144714685,0.9720153,0.0016714927,nan,nan,0.001368206,0.0,0.0,0.0,0.0,1310988,1310988,6620172,197388,0,0,165,1,1,1,1,1,0,0,0,0,0,0,0
5508000,5428000,4898947603,0.00107158,0.0014672403,0.004797525,0,0.014844832,0.97203964,0.0016714927,nan,nan,0.001368206,0.0,0.0,0.0,0.0,1310988,1310988,6620172,197388,0,0,165,1,1,1,1,1,0,0,0,0,0,0,0
5516000,5436000,4898947603,0.000997648,0.0014605045,0.0047230185,0,0.015228038,0.9720647,0.0016714927,nan,nan,0.001368206,0.0,0.0,0.0,0.0,1310988,1310988,6620172,197388,0,0,165,1,1,1,1,1,0,0,0,0,0,0,0
5524000,5444000,4898947603,0.00092623534,0.0014595861,0.0046511344,0,0.015621025,0.97209024,0.0016714927,nan,nan,0.001368206,0.0,0.0,0.0,0.0,1310988,1310988,6620172,197388,0,0,165,1,1,1,1,1,0,0,0,0,0,0,0
5532000,5452000,4898947603,0.00085611624,0.0014639421,0.003235258,0,0.016023751,0.936659,0.0016714927,nan,nan,0.0010544168,0.0,0.0,0.0,0.0,1310988,1310988,6620172,197388,0,0,165,1,1,1,1,1,0,0,0,0,0,0,0
5540000,5460000,4898947603,0.00078813254,0.0014725324,0.0032121376,0,0.016436165,0.93668497,0.0016714927,nan,nan,0.0010544168,0.0,0.0,0.0,0.0,1310988,1310988,6620172,197388,0,0,165,1,1,1,1,1,0,0,0,0,0,0,0
5548000,5468000,4898947603,0.000722582,0.0014848135,0.003189804,0,0.016858231,0.9367116,0.0016714927,nan,nan,0.0010544168,0.0,0.0,0.0,0.0,1310988,1310988,6620172,197388,0,0,165,1,1,1,1,1,0,0,0,0,0,0,0
5556000,5476000,4898947603,0.00016134491,0.0014987941,0.0031683275,0,0.017289916,0.9367389,0.010396092,nan,nan,0.0010544168,0.0,0.0,0.0,0.0,1310988,1310988,6620172,197388,0,0,165,1,1,1,1,1,0,0,0,0,0,0,0
5564000,5484000,4898947603,0.00013855417,0.001518356,0.0031480337,0,0.01773119,0.9367669,0.010396092,nan,nan,0.0010544168,0.0,0.0,0.0,0.0,1310988,1310988,6620172,197388,0,0,165,1,1,1,1,1,0,0,0,0,0,0,0
5572000,5492000,4898947603,0.00014387135,0.0015409011,0.003129068,0,0.018182034,0.9367956,0.010396092,nan,nan,0.0010544168,0.0,0.0,0.0,0.0,1310988,1310988,6620172,197388,0,0,165,1,1,1,1,1,0,0,0,0,0,0,0
5580000,5500000,4898947603,0.00017423925,0.0015658332,0.0031112577,0,0.018642405,0.936825,0.010396092,nan,nan,0.0010544168,0.0,0.0,0.0,0.0,1310988,1310988,6620172,197388,0,0,165,1,1,1,1,1,0,0,0,0,0,0,0
5588000,5508000,4898947603,0.00021617036,0.0015875251,0.001850853,0,0.019112278,0.904995,0.010396092,nan,nan,0.0038600657,0.0,0.0,0.0,0.0,1310988,1310988,6620172,197388,0,0,165,1,1,1,1,1,0,0,0,0,0,0,0
5596000,5516000,4898947603,0.00026159477,0.0016156292,0.0017339864,0,0.019591622,0.9050248,0.010396092,nan,nan,0.0038600657,0.0,0.0,0.0,0.0,1310988,1310988,6620172,197388,0,0,165,1,1,1,1,1,0,0,0,0,0,0,0
5604000,5524000,4898947603,0.00030699704,0.0016445658,0.0016226987,0,0.020080416,0.9050554,0.010396092,nan,nan,0.0038600657,0.0,0.0,0.0,0.0,1310988,1310988,6620172,197388,0,0,165,1,1,1,1,1,0,0,0,0,0,0,0
5612000,5532000,4898947603,0.00035061603,0.0016748973,0.0015166943,0,0.020578643,0.90508664,0.010396092,nan,nan,0.0038600657,0.0,0.0,0.0,0.0,1310988,1310988,6620172,197388,0,0,165,1,1,1,1,1,0,0,0,0,0,0,0
5620000,5540000,4898947603,0.00039227752,0.0017055385,0.0014165943,0,0.021086276,0.9051187,0.010396092,nan,nan,0.0038600657,0.0,0.0,0.0,0.0,1310988,1310988,6620172,197388,0,0,165,1,1,1,1,1,0,0,0,0,0,0,0
5628000,5548000,4898947603,0.0006556105,0.0017362048,0.0013227179,0,0.021603301,0.9051515,0.0040972466,nan,nan,0.0038600657,0.0,0.0,0.0,0.0,1310988,1310988,6620172,197388,0,0,165,1,1,1,1,1,0,0,0,0,0,0,0
5636000,5556000,4898947603,0.00069324096,0.0017674903,0.0012356221,0,0.022129718,0.9051851,0.0040972466,nan,nan,0.0038600657,0.0,0.0,0.0,0.0,1310988,1310988,6620172,197388,0,0,165,1,1,1,1,1,0,0,0,0,0,0,0
