timestamp,timestamp_sample,xyz[0],xyz[1],xyz[2],xyz_derivative[0],xyz_derivative[1],xyz_derivative[2]
3180000,3180000,-0.0016395303,-0.006376069,-0.0013432131,-0.07640226,-0.08181031,0.020233294
3184000,3184000,-0.0016055566,-0.004676415,5.6743687e-05,-0.039908253,0.13601446,0.16198507
3192000,3192000,-0.0027819292,-0.0043966444,-0.00017483608,-0.11138876,0.029008135,0.02012267
3200000,3200000,-0.002400531,-0.0064020767,0.0011173346,-0.006065594,-0.13720387,0.11673321
3212000,3212000,-0.00067189656,-0.004898487,-0.00074558373,0.114490256,0.08600899,-0.08183095
3220000,3220000,-0.0014512317,-0.0035903687,-0.0026962685,-0.01928484,0.114647105,-0.18933696
3232000,3232000,-0.0039685196,-0.005253195,-0.0018083802,-0.21419585,-0.07277709,0.014912921
3236000,3236000,-0.003359763,-0.0045742267,-0.0007233194,-0.056698352,0.031474322,0.12511078
3248000,3248000,-0.0037111838,-0.0054732403,0.00057122146,-0.06324698,-0.06766628,0.06214334
3260000,3260000,-0.001751031,-0.003787248,-0.0004329465,0.08036071,0.035712514,-0.019730322
3272000,3272000,-0.0025413737,-0.005804782,0.00040300583,0.038324457,-0.13013586,0.0011424175
3280000,3280000,0.00041993335,-0.003424792,-0.0019449133,0.28182268,0.1646877,-0.19170102
3292000,3292000,-0.0036034442,-0.0066235852,0.00014775712,-0.314349,-0.29612127,0.18875602
3300000,3300000,-0.00075329887,-0.0065773423,0.0005662502,0.18408065,-0.031894997,0.060947463
3312000,3312000,0.0015612689,-0.00855317,2.6773818e-05,0.09923808,-0.2733468,-0.011595712
3320000,3320000,-0.0019073273,-0.005726916,0.00082152896,-0.24945107,0.23470321,0.04717026
3332000,3332000,0.0010941613,-0.0062075816,0.00092516915,0.16347942,-0.17158064,0.073793724
3340000,3340000,-0.0021426314,-0.0043575233,0.0012885091,-0.2542121,0.14686856,0.064941674
3352000,3352000,-7.3974676e-05,-0.005553066,-0.00077731616,0.14425465,-0.15795873,-0.12199899
3360000,3360000,-0.0012703488,-0.005927468,0.00029737782,-0.060303085,-0.05673073,0.022301419
3372000,3372000,0.00042536337,-0.0041875136,0.0001364016,0.11581798,0.010023339,0.09126294
3380000,3380000,-0.0024624807,-0.007651939,-0.0012271476,-0.24012017,-0.24006724,-0.09240382
3392000,3392000,8.670421e-05,-0.005067403,0.00028253734,0.18556441,0.14223266,0.044119477
3400000,3400000,0.0008228438,-0.0032252844,-0.0009223475,0.10745139,0.13608265,-0.074919656
3412000,3412000,-0.0004144686,-0.0051407516,-0.0003041618,-0.03750656,0.0373424,0.03679578
3420000,3420000,-0.0015421408,-0.0028430116,-0.0020477453,-0.11465004,0.15014416,-0.1290459
3432000,3432000,-0.0019522206,-0.006920662,0.00019766022,-0.034149513,-0.17960829,0.10744371
3440000,3440000,-0.00084562827,-0.0023844608,0.0015492286,0.0769045,0.3438872,0.15324429
3452000,3452000,-0.0008586852,-0.0031717906,-0.00051690196,0.022824492,-0.04483588,-0.10688998
3460000,3460000,-0.0007021066,-0.003968029,0.0015025587,0.014960382,-0.085377924,0.1379424
3472000,3472000,-0.0039142636,-0.008702598,0.00021683655,-0.20983478,-0.24700043,-0.10244495
3480000,3480000,-0.0024646225,-0.006839738,-0.0006907928,0.079584286,0.07702798,-0.0989475
3492000,3492000,-0.0030460672,-0.0062220045,0.0010466025,-0.049206037,0.015365959,0.1520487
3500000,3500000,-0.0024924525,-0.004164418,-0.00081013434,0.030472096,0.16647938,-0.12871881
3512000,3512000,-0.0012399269,-0.0032311382,0.0018258044,0.04634338,0.17336918,0.22035101
3520000,3520000,-0.003121224,-0.005604356,0.0029695292,-0.11544703,-0.16873854,0.16020432
3532000,3532000,-0.00071221404,-0.0050312392,-0.0023625898,0.10212418,0.047275852,-0.34018832
3540000,3540000,0.0010933186,-0.0024501665,-0.0011608687,0.16251107,0.20286879,0.009306487
3552000,3552000,-0.0026412783,-0.0038208647,0.00231781,-0.18343915,-0.015486536,0.2728538
3560000,3560000,-0.0016492661,-0.0022077933,0.0013285528,0.04087293,0.11781397,-0.010064704
3572000,3572000,-0.0006031648,-0.0045990604,8.72793e-05,0.05059287,-0.087480254,-0.111281924
3580000,3580000,-0.0023772682,-0.00533835,0.00055357843,-0.12475991,-0.13552824,0.010558126
3592000,3592000,-0.00035962707,-0.008957341,-0.0015005899,0.095954746,-0.15363342,-0.14689642
3600000,3600000,-0.001942333,-0.0061786803,-0.0011413418,-0.12302671,0.18522857,-0.0055542258
3612000,3612000,-0.0026155303,-0.0041677165,0.0006348182,0.038442038,0.10522586,0.12499096
3620000,3620000,-0.0015252215,-0.004245872,-0.0013660488,0.103834614,0.0027201534,-0.13638666
3632000,3632000,-0.00023993674,-0.0062341657,-0.0010600621,0.0041696504,-0.07053997,-0.0027372253
3640000,3640000,0.0005792486,-0.006474024,4.4588392e-05,0.0830734,-0.052564435,0.09512775
3652000,3652000,-0.0016254504,-0.007601732,-1.876988e-05,-0.040181674,-0.033362933,0.018523207
3660000,3660000,0.00017700702,-0.0063573024,0.0010202342,0.15142275,0.07157563,0.07914688
3668000,3668000,0.002222415,-0.006966195,-0.00034296996,0.18292747,-0.04766825,-0.08879542
3676000,3676000,4.3204116e-05,-0.0078002964,-0.0014576378,-0.11584196,-0.06031191,-0.14724922
3688000,3688000,0.0005660813,-0.0054794,-0.00035651645,0.039257247,0.0866546,0.1685324
3696000,3696000,-0.0003177668,-0.005397083,0.00013245389,-0.07811274,0.04493425,0.049794108
3708000,3708000,-0.0021354123,-0.0058997246,-0.0010747323,-0.13412555,-0.01503355,-0.003298499
3716000,3716000,-0.001000014,-0.0073978542,0.0015236113,0.07294451,-0.12825884,0.21072957
3728000,3728000,-0.0014602356,-0.0052893506,0.0005831809,-0.04527732,0.2084947,-0.036199614
3736000,3736000,-0.0013116556,-0.0016462493,0.00035670417,0.0047544446,0.35284352,-0.038421325
3748000,3748000,-0.00014987685,-0.004866135,-0.0007881364,0.06454645,-0.168259,-0.070297986
3760000,3760000,-0.0025643215,-0.004467159,-0.0015596331,-0.09090869,-0.013945295,-0.099997796
3772000,3772000,-0.0010004644,-0.0038121005,-0.0011919001,0.06506583,0.06772256,0.039720222
3780000,3780000,-0.0023011863,-0.0038401245,0.0008085203,-0.11909001,-0.010717454,0.17336136
3792000,3792000,-0.0011667431,-0.0063492237,-0.0008494343,0.13624726,-0.25629175,-0.021743268
3796000,3796000,-0.0020547386,-0.0076661073,0.00086381857,-0.017751597,-0.28764173,0.171722
3808000,3808000,-0.001396676,-0.0044139824,-0.0010024563,0.17597833,0.14739221,-0.20724651
3820000,3820000,-0.0028800762,-0.005986343,-0.0028729672,-0.23599324,0.046803534,-0.09888953
3828000,3828000,-0.0027250303,-0.001146328,-0.0007300577,0.009159625,0.35645473,0.14426579
3840000,3840000,-0.0012240756,-0.0062093968,0.00065507833,-0.08434583,-0.2687417,0.053093344
3848000,3848000,-0.0017895282,-0.004394193,-0.00047990994,-0.023609452,0.062287405,-0.07392756
3856000,3856000,-0.0015604954,-0.003829436,0.0020806808,-0.025157358,0.08092327,0.22214644
3872000,3872000,-0.000953169,-0.005427567,-0.0005064273,0.08884894,-0.19499318,-0.16773438
3880000,3880000,0.0003262952,-0.008005225,0.0002962846,0.13573223,-0.2532427,0.018244691
3892000,3892000,-0.0022237662,-0.00260182,0.0028186217,-0.19221398,0.294358,0.10461178
3900000,3900000,-0.0019001141,-0.0037864859,0.0002948199,-0.0055272505,0.00600849,-0.14940588
3912000,3912000,-0.00019628619,-0.0036752599,-0.00149493,0.08970946,-0.034598712,-0.17166139
3920000,3920000,0.00062171347,-0.005516623,0.00082359556,0.08778114,-0.13580796,0.15214138
3928000,3928000,-0.00015785248,-0.0063066967,0.0022039928,-0.039256472,-0.13967466,0.14969058
3936000,3936000,0.0013163033,-0.00646508,0.0012304289,0.13361157,-0.020969585,-0.01857968
3948000,3948000,0.00033166385,-0.002896879,0.0010598869,-0.14241229,0.2991108,-0.0048139472
3956000,3956000,-0.0019201015,-0.0020312027,-0.0011924589,-0.22327968,0.099355415,-0.22161329
3972000,3972000,-0.0005758156,-0.0066573033,0.003559165,0.1258916,-0.09334693,0.37608477
3980000,3980000,-0.001688052,-0.0035979017,0.00047475199,-0.055755347,0.21724883,-0.16797289
3992000,3992000,0.0005308335,-0.0034324147,-0.00086403557,0.114004165,-0.020903992,-0.090858795
4000000,4000000,-0.0023085598,-0.004088061,-0.00093538116,-0.21404819,-0.053055983,-0.0064091245
4012000,4012000,-0.0007491279,-0.0042094523,-0.00016814431,0.10833387,-0.021789752,0.0188386
4020000,4020000,-0.0011085275,-0.0025290095,0.0003911073,-0.026253864,0.15323998,0.047069706
4032000,4032000,-0.0017227182,-0.0016973838,0.0016919003,0.029780515,-0.009738365,0.0921671
4040000,4040000,-0.0003203112,-0.0037005362,-0.0010669279,0.14538656,-0.1877774,-0.19567534
4052000,4052000,1.096839e-05,-0.00038387766,-0.0019215886,-0.11579387,0.25128356,-0.11509087
4060000,4060000,-0.0023064078,-0.004222558,-0.0012583052,-0.18958445,-0.22639038,0.045707934
4072000,4072000,0.0006667592,-0.005257406,-0.001799948,0.15809824,-0.11905868,-0.05781012
4080000,4080000,-0.0024978593,-0.002440379,-0.0037989886,-0.24478462,0.22255956,-0.19257489
4092000,4092000,-0.004492029,-0.0009461201,-0.0020204273,-0.07463708,0.089418344,0.07709594
4100000,4100000,-0.0033138462,-0.001048577,-0.0011326445,0.06440262,0.047664236,0.08883111
4112000,4112000,0.00019638731,-0.004535564,0.000976928,0.22937432,-0.33222577,0.16253622
4116000,4116000,-0.0015952112,-0.00471066,-0.00012572286,-0.061764643,-0.2082293,-0.025831852
4132000,4132000,-0.0008062574,-0.00088252826,0.00025802813,0.20303637,0.095098,0.26852557
4136000,4136000,0.0007589619,-0.0018331553,0.001858479,0.28396714,-0.047942907,0.3250908
4148000,4148000,-0.0010722589,-0.0029318347,0.00047620674,-0.088360704,-0.08628684,-0.061965756
4156000,4156000,0.0005823889,-0.0064413412,0.00065316446,0.112050734,-0.31641126,0.007953716
4172000,4172000,-0.00096530636,-0.0003463102,-0.0013494628,0.12611006,0.2696602,-0.10880733
4180000,4180000,0.0014114075,-0.002107021,0.0011586352,0.21602994,-0.02348357,0.18779728
4192000,4192000,-0.0025583839,-0.004138506,0.0012752891,-0.23714504,-0.2696479,0.041824527
4200000,4200000,-0.0031789031,-0.002264047,0.0002729419,-0.12235549,0.02978033,-0.13518232
4212000,4212000,0.0011492646,-0.00062809885,0.001544479,0.204041,-1.8517825e-05,0.17947115
4220000,4220000,-0.0015810227,-0.0012120232,0.0015344198,-0.18058856,-0.031537898,0.040394735
4232000,4232000,0.0015580906,-0.0018636049,-0.00016984507,0.18914837,-0.103780836,-0.106996134
4240000,4240000,0.0010046118,-0.0017416528,0.00031247587,0.011166181,-0.0140073225,0.0029400566
4248000,4248000,0.00093448686,-0.0009333333,-0.0020927805,0.004788953,0.058117773,-0.20938788
4256000,4256000,-0.00074324553,-0.00018583331,-0.0010291231,-0.16314483,0.11081119,0.04774907
4268000,4268000,-0.0007563283,-0.0016561081,-0.00016453798,-0.030796861,-0.17658906,0.07674296
4276000,4276000,-0.0012790549,-0.003389915,-7.414541e-05,-0.019806877,-0.17094025,0.015341514
4292000,4292000,0.0020614876,-0.002567532,0.0018149167,0.11042644,-0.0038052222,0.16909158
4300000,4300000,0.002412816,-0.0017034356,-0.0022646366,0.032351263,0.07532371,-0.3121455
4312000,4312000,-0.0005897587,-0.0021060728,-0.0005571242,-0.14260554,-0.06025196,0.0822736
4316000,4316000,0.00019086571,-0.0031749825,0.00028340318,0.0025876611,-0.14922425,0.13723588
4332000,4332000,0.00083144894,-0.00028951652,0.0010761425,0.030303488,0.14843434,0.029498452
4340000,4340000,0.0022047325,-0.0018662242,-0.000629324,0.09500288,-0.09259826,-0.12968454
4352000,4352000,0.0011451831,-0.0023110085,0.0007420976,-0.067826584,0.051728748,0.066912316
4360000,4360000,-0.0014471915,-0.0020215446,-0.0022557667,-0.24109772,0.009255644,-0.23055494
4372000,4372000,0.0021719788,-0.0008149622,-0.00041201577,0.26092422,0.1740527,0.12510294
4380000,4380000,0.00022816047,0.00018976629,-0.0008130076,-0.08633356,0.13400696,-0.011867047
4392000,4392000,-0.0042234673,-0.00076646125,-0.0012787402,-0.31498092,-0.12490145,-0.027943807
4400000,4400000,-0.0025706424,-0.00044288812,-0.0021820024,0.04671605,0.029898698,-0.08895917
4412000,4412000,-0.0017006157,-0.0005623768,-0.00037071857,0.08332789,-0.048011906,0.13848549
4420000,4420000,-0.0007386867,-0.0017585349,0.0018032425,0.091170676,-0.12920664,0.22883196
4432000,4432000,-0.00087982585,-0.0032003908,0.00095606036,-0.028854355,-0.0888137,-0.037460078
4440000,4440000,0.0016152798,-0.0019088667,0.0007572879,0.22350697,0.028746711,-0.056889992
4452000,4452000,-0.00152889,0.00063663675,0.00032078533,-0.21707429,0.109752566,-0.14887601
4460000,4460000,-0.0024942267,-0.0019099447,-0.0002700489,-0.15536714,-0.15718715,-0.053070847
4472000,4472000,0.0012801258,0.0022728846,-0.0011690721,0.2875104,0.24965148,-0.14340466
4480000,4480000,0.0012314118,0.0004463368,-0.001202982,0.080844134,-0.08543836,-0.02344847
4492000,4492000,-0.0016452566,0.00017781835,0.0008476563,-0.17264934,-0.00021320464,0.14609766
4500000,4500000,-4.794926e-05,-0.00011468306,0.0017096566,0.0799409,-0.01290762,0.08849515
4512000,4512000,0.00050540984,0.0004342259,0.0002586209,-0.017499417,-0.036718234,-0.068933025
4520000,4520000,0.0004847719,0.0018310449,-0.00092128373,0.024446394,0.10481517,-0.1006377
4532000,4532000,-0.0007069006,-0.0016905223,0.0014518627,-0.16139814,-0.19915923,0.13793507
4540000,4540000,-0.0013223373,-0.0027205497,0.0023088665,-0.060731262,-0.15918353,0.10410006
4552000,4552000,0.0002716991,2.1824148e-05,0.003926516,0.087031916,0.21855654,0.16921636
4556000,4556000,0.0010117618,0.001470184,0.003421251,0.12915209,0.2802571,0.04217608
4572000,4572000,0.0001589848,-0.0026470646,0.0032330453,0.07379634,-0.17623232,0.07010159
4580000,4580000,-0.00063734734,-0.000813731,0.0009948827,-0.057893224,0.114374146,-0.16206232
4588000,4588000,-0.0006384945,0.00062203966,0.0029450692,-0.006887002,0.14011905,0.11046498
4596000,4596000,0.0003595202,-0.0028537153,0.003605124,0.071154684,-0.25586748,0.017155226
4612000,4612000,-0.0006092406,0.00035174983,0.0012046618,-0.005096283,0.011916616,-0.031019956
4620000,4620000,-0.0001574154,-0.0012833667,0.0011267599,0.028155355,-0.11971309,0.0016556995
4632000,4632000,-0.0001051171,0.00019221194,0.0053006057,0.091762684,0.057782907,0.2794671
4640000,4640000,0.0013773245,-0.0024968009,0.004719842,0.14321615,-0.23504351,0.036476646
4652000,4652000,-7.534085e-05,-0.0033832686,-0.0012778604,-0.13411283,-0.046922248,-0.4018458
4660000,4660000,-0.00072926714,-0.0012253276,0.0005495866,-0.1102695,0.17023797,0.069582984
4668000,4668000,-0.0022317162,0.00012712926,0.00343773,-0.1517527,0.17664579,0.20131238
4676000,4676000,-0.0015924555,1.1686701e-05,0.001127824,0.009581305,0.025279598,-0.09352715
4692000,4692000,0.0013278777,0.0005803709,-0.004099023,0.24136953,-0.053374335,-0.4700449
4700000,4700000,0.0006034578,0.00042818114,-5.2267103e-05,0.006191358,-0.03707271,0.23537293
4712000,4712000,-4.9705617e-05,0.0025855387,0.0019771573,-0.023007955,0.18268082,0.096628875
4720000,4720000,-0.0017790609,0.0010659713,0.0013167342,-0.18066299,-0.08274199,-0.0053964644
4732000,4732000,0.00079939456,-0.00094798347,0.003074258,0.20814526,-0.066499054,0.09098652
4740000,4740000,-0.00027243886,0.0019910305,0.0043106335,-0.050165407,0.18184547,0.11804322
4752000,4752000,0.00066360796,0.0029207668,0.0022060461,0.08136807,0.18367632,-0.1238388
4760000,4760000,0.0011023862,0.0041197417,0.002098016,0.05766529,0.15837133,-0.022253593
4772000,4772000,-0.00025337317,-0.0006149933,-0.0017876908,-0.101091444,-0.34402537,-0.4332558
4780000,4780000,0.00085918856,-0.0021520508,-0.0005514142,0.08239237,-0.233118,0.024970468
4788000,4788000,0.000725748,0.00011557154,-0.00036562025,-0.025217943,0.13928321,-0.012049911
4800000,4800000,0.0029650242,0.0018676068,2.122816e-05,0.29213622,0.05488397,0.023107445
4808000,4808000,0.0052283467,-0.00035471655,0.0010769503,0.275067,-0.17598215,0.104604065
4820000,4820000,0.0018653551,-0.0033934824,-0.0016166408,-0.18209033,-0.20914716,-0.23358124
4828000,4828000,0.001974318,-0.0011250265,-0.0025601676,-0.10238561,0.16085815,-0.09459598
4840000,4840000,-0.000116498675,0.0017046365,0.0005009638,-0.15217996,0.069842845,0.08568707
4852000,4852000,0.004325715,0.003219373,0.0014606575,0.28581288,0.17927594,0.08367327
4860000,4860000,0.0023834407,0.0003404594,-0.0005115975,-0.1022904,-0.19966067,-0.193784
4872000,4872000,0.0011568986,-0.0004413044,0.002254,-0.06292021,-0.07975347,0.0970002
4880000,4880000,0.0034006778,0.00079153106,-0.00038625323,0.18342718,0.07354067,-0.15608525
4892000,4892000,-0.00016674644,0.0002456475,0.002227842,-0.2918271,-0.0064992374,0.11952087
4900000,4900000,-0.001574027,-0.0004513911,0.0020974162,-0.19217561,-0.05796452,0.03447961
4908000,4908000,0.0011374713,0.00019840896,0.0026670587,0.19416232,0.047850788,0.060410373
4920000,4920000,0.0024721432,-0.0011907434,0.0007954702,0.15535721,-0.11334714,-0.117200285
4932000,4932000,0.0018424648,-5.6282617e-05,0.0016325354,-0.056805145,0.04460953,0.03606893
4940000,4940000,0.0016658434,-0.0004939879,0.00026103808,-0.06339567,-0.008594851,-0.13399115
4948000,4948000,-0.0022639404,0.00253426,-0.0003176782,-0.34197682,0.26404202,-0.050475102
4956000,4956000,-0.0016709449,0.003375793,0.00010434876,-0.025977746,0.115045115,-0.0041482914
4968000,4968000,0.001867192,0.001221084,0.0009775821,0.18280266,-0.026585491,0.15543985
4980000,4980000,0.0011183799,0.00021550944,0.0044663963,-0.07628332,-0.008892436,0.19008133
4992000,4992000,-0.0004041061,1.0189135e-05,0.00045541965,-0.06595433,-0.0070696464,-0.2729263
5000000,5000000,-0.00026531902,0.0019185094,0.0020201749,0.014402587,0.147818,0.06463322
5012000,5012000,0.0020221395,0.0028152203,-0.00065994065,0.10627981,0.0686671,-0.29669335
5020000,5020000,0.00010069786,-0.0012784959,-0.0029558167,-0.12759566,-0.32084072,-0.21808755
5032000,5032000,0.0017473096,0.0034421096,0.0031933864,0.14633487,0.30007175,0.23367347
5040000,5040000,0.0035760945,0.0010384065,-0.0005146096,0.1798164,-0.14149131,-0.22246519
5052000,5052000,-4.4827e-05,0.0025400964,0.0024397748,-0.2377134,0.08398196,0.21241193
5060000,5060000,0.0007196533,0.0026623388,0.0012585467,0.010991134,0.039160036,-0.048338607
5072000,5072000,0.00069330377,0.00046946434,0.00084812427,-0.082800835,-0.12770234,-0.012378903
5080000,5080000,-0.0005671503,0.0005740789,-0.00027411676,-0.06842679,-0.034162406,-0.09168647
5092000,5092000,0.0011792495,-0.0007505771,0.0012617116,-0.07397771,-0.10845076,0.090701744
5100000,5100000,0.001745829,-0.0016621682,0.0014728168,0.0601628,-0.10359003,0.051369794
5112000,5112000,-0.00071404316,0.0009778603,0.00050763274,-0.1268742,0.21875504,-0.053172138
5120000,5120000,0.0017006927,0.0023068977,0.0010402496,0.1474862,0.14802907,0.025883337
5132000,5132000,-0.0004158211,0.0016567654,0.0013761942,-0.15761946,-0.006675542,-0.046190258
5140000,5140000,-0.001809136,-0.00036520744,0.0019483961,-0.14941142,-0.18841799,0.058869027
5152000,5152000,0.002798909,0.0028308644,0.00069666735,0.31161863,0.226266,-0.118544854
5160000,5160000,-0.00039763167,-0.00034395885,-0.00049811404,-0.17386611,-0.1935551,-0.122936174
5172000,5172000,-0.0004255802,0.00014590425,0.0016089383,-0.06364781,-0.010721094,0.17133692
5180000,5180000,-0.0003997779,0.00030786498,0.0024720686,0.010938607,-0.01294749,0.11018283
5192000,5192000,0.0018829068,-0.0023426856,0.0042717955,0.113278955,-0.17997587,0.14961997
5200000,5200000,0.00010363117,-0.0015214472,0.0019873462,-0.13628264,0.025117252,-0.16763984
5212000,5212000,0.0009444319,-9.032199e-05,0.00028062589,0.085008435,0.046410352,-0.044772275
5220000,5220000,0.0003882628,0.00022563525,-0.00010701048,-0.018044643,0.042339854,-0.051132865
5232000,5232000,0.002132336,-0.0011065961,0.0010158714,0.09619148,-0.029220916,0.019336995
5236000,5236000,0.0020773865,-0.0003533056,0.00080851396,0.04893651,0.06429428,-0.011259503
5252000,5252000,-0.00065405923,-0.0021949974,0.0066987323,-0.05804761,-0.25555712,0.40519926
5260000,5260000,-0.0012044567,0.0016427508,0.0042891977,-0.04298275,0.29232597,-0.079941474
5272000,5272000,0.0032936826,-0.0008284203,0.0048406897,0.3011068,-0.23600236,2.3180226e-05
5276000,5276000,0.004360403,-0.0019541574,0.0033693942,0.28630787,-0.25553212,-0.15810278
5292000,5292000,0.0015153836,-0.0010931026,-0.0029979853,-0.1558227,0.036107015,-0.40520507
5300000,5300000,-0.00025013392,0.0014454476,-8.9897076e-05,-0.183907,0.20969567,0.15466231
5308000,5308000,0.0004127595,0.00037066545,0.0022749223,0.01404091,-0.028314568,0.23125863
5316000,5316000,0.0028187681,0.0004856647,0.0018746736,0.20444077,0.0045999335,0.012093425
5332000,5332000,0.0015769835,-0.00017497223,0.0022741368,-0.09932127,-0.10158292,0.23676422
5340000,5340000,0.0028812704,0.0007283413,0.0046943133,0.089107685,0.07569765,0.24008144
5352000,5352000,0.000729613,0.00094183534,0.006183725,-0.17044625,-0.11999679,0.22996832
5360000,5360000,-0.0014386855,-0.004601462,0.0057101687,-0.2154019,-0.47975135,-0.009033547
5372000,5372000,0.000986905,0.00040039886,0.0034991114,0.19197842,0.27891278,-0.12008581
5380000,5380000,0.0013142652,-0.00018761633,0.0027486817,0.06310022,0.022833297,-0.10068035
5392000,5392000,0.0032827295,-0.00051617296,0.00022980047,0.062054463,-0.09197755,-0.16459298
5400000,5400000,0.00093390804,-0.0013237661,0.0013142625,-0.15305373,-0.037551522,0.043924734
5412000,5412000,0.0007373474,-0.0006946265,0.0051406147,-0.011229571,-0.059374444,0.2683356
5420000,5420000,0.0024744596,0.0009774063,0.0046138214,0.13608694,0.12924573,0.011152701
5432000,5432000,0.0003933662,0.00022900943,0.0016412454,-0.16177696,-0.02529688,-0.10732355
5436000,5436000,0.00086962106,0.0007211948,0.0023368432,-0.041052308,0.038471244,0.013565452
5452000,5452000,0.00044896675,-0.00044366578,0.0023115282,-0.123499334,-0.059876643,-0.008218781
5460000,5460000,-0.00078318594,0.0008529853,0.0045863395,-0.1420966,0.08322559,0.19597004
5472000,5472000,-0.00020359457,-0.0011189617,0.0031699347,0.03926285,-0.1619445,-0.12124622
5480000,5480000,-0.0010136397,-0.0011905129,0.0016882841,-0.043113053,-0.041776013,-0.11417616
5492000,5492000,0.00090657,0.00024709338,0.00041715486,0.14091614,0.042287212,-0.09641445
5500000,5500000,-0.0006031605,0.0011015688,0.001889887,-0.088974416,0.07384625,0.09210893
5512000,5512000,0.0013032771,0.0025712803,0.0010062531,0.09927117,0.15127072,-0.04453313
5520000,5520000,-0.0010859132,0.0021765498,0.0038655442,-0.19498484,-0.010672634,0.24552748
5532000,5532000,0.002412855,0.0019670117,0.0013847705,0.2512794,0.03343335,-0.13825622
5540000,5540000,0.0010960776,0.00057744654,0.0017788049,-0.02066684,-0.11650498,-0.012534594
5548000,5548000,0.0021846395,0.0012239437,0.00261755,0.079164594,0.03295103,0.08302679
5560000,5560000,0.002885065,-0.00012295833,0.002837318,0.069216676,-0.11779941,-0.04662977
5572000,5572000,4.7108508e-05,0.0024428493,0.001252272,-0.18887092,0.18286794,-0.0709634
5580000,5580000,0.00058665883,0.003599998,0.0017102668,-0.029339619,0.11796389,0.017111687
5592000,5592000,0.0004295687,-0.0017083245,0.002343785,0.046861522,-0.25719613,0.0059658205
5600000,5600000,-0.0008409821,-0.0006425106,0.0012879855,-0.09121992,0.030942636,-0.070688166
5612000,5612000,0.0014830609,-4.6021305e-05,0.0022344368,0.15004338,-0.020147048,-0.004685555
5620000,5620000,0.0021059797,-0.0004440234,-0.001733095,0.07986738,-0.04703801,-0.35275656
5632000,5632000,-0.0025435272,0.0012037903,4.3032924e-05,-0.2685854,0.13001905,0.12908316
5640000,5640000,0.00049873185,0.0015137414,0.0011662217,0.187716,0.0750196,0.1349054
5652000,5652000,-0.0010725992,0.0008066003,0.001079704,-0.08542666,-0.02919971,-0.041454904
5660000,5660000,0.0017208421,-1.0463409e-06,0.001181585,0.2107497,-0.04663459,0.0091976905
5672000,5672000,-0.0018936818,0.001025896,0.0005828756,-0.22225022,0.038718253,-0.045195755
5680000,5680000,-0.0010127005,0.002251884,0.002841488,0.018692888,0.10915659,0.17510915
5692000,5692000,-0.00071231986,0.0019371202,0.00089096837,-0.005020907,-0.00843544,-0.15020022
5700000,5700000,0.0008993045,0.0040589934,0.0016022625,0.12898842,0.16738206,0.018630061
5712000,5712000,0.00043918972,0.0016979277,0.002378508,0.0041438756,-0.1332345,-0.161047
5720000,5720000,-0.0010968453,-0.0010187323,0.0016228715,-0.15131763,-0.27564988,-0.092498146
5732000,5732000,0.00019654597,-0.0011638473,0.0038705338,0.20729627,-0.009044991,0.059844922
5740000,5740000,0.0019025526,-7.256633e-05,0.003153067,0.15622048,0.07960445,-0.025643954
5752000,5752000,2.553931e-05,-0.00043342775,0.0016910855,-0.07478644,-0.07382198,-0.11788207
5760000,5760000,0.00017087604,0.0014132904,0.0035927715,-0.010219294,0.16507226,0.14759476
5772000,5772000,0.0011286578,0.00047313515,0.005058936,0.066804744,-0.08345877,-0.0054186746
5780000,5780000,-0.00010744552,-0.00023573358,0.0025151912,-0.08301112,-0.06896284,-0.18626757
5788000,5788000,0.00032696791,-0.0006662407,0.0047509377,0.02490956,-0.07842031,0.1479193
5800000,5800000,-0.0009628277,-0.0007722508,0.003832812,-0.16487072,0.043290157,-0.18168744
5812000,5812000,-0.00018955756,0.0022963283,0.0021935878,0.0881425,0.25795537,-0.12797791
5820000,5820000,-0.00094796286,0.0025982829,0.0025879657,-0.047502533,0.04006481,0.02335646
5832000,5832000,0.0025622349,-0.0019345302,0.0029529636,0.3061344,-0.29280457,-0.04861845
5840000,5840000,0.0028873938,-0.0044254377,0.0021894206,0.09363187,-0.24803534,-0.079247855
5852000,5852000,0.0034030816,-0.0011709039,0.0027919034,0.08523548,0.10920452,0.078142144
5860000,5860000,0.001594907,-0.0018578959,0.0031147078,-0.13684677,-0.024961704,0.031674016
5872000,5872000,0.00120097,-0.0015370268,0.001503469,-0.07075002,0.052434076,-0.050471906
5880000,5880000,0.0016544099,0.00033785915,0.0055268304,0.051872402,0.1661028,0.30159
5892000,5892000,0.000629075,-0.0001313854,0.0035996945,-0.14025773,0.011854096,-0.0583712
5900000,5900000,0.00043778156,0.003095741,0.0039753425,-0.0473397,0.25546402,-0.00035474004
5908000,5908000,0.001429887,0.003064915,0.0015519616,0.08234112,0.07842661,-0.18768024
5920000,5920000,0.0007105996,0.0008790111,0.0050254143,-0.1103203,-0.04065923,0.29018113
5932000,5932000,0.0005816254,0.00019416586,0.003962301,-0.0048019104,-0.115664914,-0.016627772
5940000,5940000,0.002421893,0.0006417935,0.0027365398,0.14804548,-0.022309843,-0.119118735
5952000,5952000,-0.0018407705,0.0011955649,0.003414212,-0.27126232,0.12808436,0.060282018
5960000,5960000,-0.0020553286,0.00041051488,0.0040946156,-0.091511525,-0.030763432,0.08669758
5972000,5972000,-0.0028059867,-0.0005996353,0.0044792206,-0.044366866,-0.07088892,0.009517628
5980000,5980000,0.00062532374,-0.00031553768,0.0053863637,0.27891552,-0.003619612,0.06830639
5992000,5992000,0.00047301094,0.0015714467,0.0043421704,0.0025713257,0.11143345,-0.06130478
6000000,6000000,0.0016395142,0.00086510554,0.003172123,0.096793115,-0.026862852,-0.114717945
6012000,6012000,0.00083935604,-0.0025140801,0.0042493907,-0.035710603,-0.29337987,0.05783761
6020000,6020000,0.0024691608,-0.0013409071,0.0044568726,0.09824037,0.045670293,0.0022412844
6032000,6032000,0.00032925303,6.0413964e-05,0.0040086517,0.017324165,-0.023237767,0.096168414
6040000,6040000,0.00049095764,-0.002751423,0.0050552227,-0.016728166,-0.1874066,0.099373505
6052000,6052000,0.002192578,0.0032831917,0.0066176336,0.18541072,0.30454302,0.16177985
6060000,6060000,0.0029842483,0.00066520134,0.005756299,0.10490563,-0.106427856,-0.036081314
6072000,6072000,-0.00039321347,0.00023634359,0.0027291193,-0.19991672,-0.09506834,-0.19829652
6080000,6080000,0.0006059066,-0.00092723407,0.0027707228,0.016544282,-0.12216256,-0.06921269
6092000,6092000,-0.0012154055,-0.0005672127,0.0015017804,-0.076970346,-0.038726423,-0.10277879
6100000,6100000,0.0003906507,-0.002275627,0.001620771,0.1235105,-0.11404944,-0.0073742326
6112000,6112000,0.0024750908,0.0020844447,0.0029108392,0.0357686,0.20807165,0.051088545
6120000,6120000,0.00048132322,-0.001188295,0.003024946,-0.14788386,-0.22167847,0.039351027
6132000,6132000,0.0012446484,0.003289898,0.0036646065,0.12909557,0.29654512,0.0023072748
6140000,6140000,0.001518077,-0.0012283507,0.0031037643,0.00011245906,-0.29121518,0.07821232
6152000,6152000,-0.002021416,0.0030753836,0.00079633226,-0.104154564,0.29053515,-0.16813803
6156000,6156000,-0.00045854377,0.0037565539,-6.225309e-05,0.10857575,0.23884663,-0.1881305
6168000,6168000,0.0020054406,-0.0017758072,0.0014217283,0.11876717,-0.3277616,0.14259654
6180000,6180000,0.00013130775,0.00073957955,0.0028618483,-0.013252929,0.18373752,0.062543444
6192000,6192000,0.0029587462,-0.00010607997,-0.0016613484,0.21564135,-0.15080723,-0.4461811
6200000,6200000,0.0029353602,-0.00088002067,-0.0027176894,0.050342835,-0.088193156,-0.161114
6212000,6212000,0.0011274938,-0.0024644271,0.0026983214,-0.11307441,-0.08816756,0.31143436
6220000,6220000,0.0009951062,-0.0023418325,0.006289876,-0.030061826,-0.024088625,0.39926612
6232000,6232000,0.0012167639,0.0010542367,0.0016188774,-0.0049575064,0.18188713,-0.30644238
6240000,6240000,0.0035192906,0.0015059314,0.00065999175,0.21278661,0.10611315,-0.12596467
6252000,6252000,0.0010379716,0.0011146106,0.0032656007,-0.155799,0.027302338,0.10692203
6260000,6260000,0.0026611462,-0.000277902,0.0031677017,0.080726065,-0.13501371,0.02904096
6272000,6272000,0.00034786866,-0.005111148,0.0025684084,-0.17081472,-0.24629818,-0.076147065
6280000,6280000,0.0026367889,-0.0009781658,0.00692458,0.18246397,0.27058366,0.33998662
6292000,6292000,0.001338497,0.0018698471,0.0012531178,-0.15027864,0.23539218,-0.32170057
6300000,6300000,0.0006374406,0.0002823607,0.0017594581,-0.0938781,-0.07315525,-0.049038537
6312000,6312000,-0.0005570644,-0.0011407644,0.0038362546,-0.16203463,-0.11447297,0.097230874
6320000,6320000,0.00035183795,-0.0014426187,0.0038743122,0.0723132,-0.048715647,0.029620249
6332000,6332000,-0.00062399276,-0.0030404455,0.001719538,-0.14529799,-0.07284944,-0.12994927
6340000,6340000,0.0011258584,0.00055050245,0.0017315174,0.12356911,0.25513387,-0.024469048
6352000,6352000,0.0009693132,0.0005553011,0.0029402815,-0.07434696,0.08828583,0.06266775
6360000,6360000,0.00036918512,0.002627517,0.0035053864,-0.05052402,0.17955911,0.06393973
6372000,6372000,0.0021663462,-0.0011706119,0.003716983,0.111691706,-0.2766396,0.12211405
6380000,6380000,0.0008104493,0.0002647224,0.0047466047,-0.08846159,0.06278089,0.080778345
6392000,6392000,0.0019799364,0.0012719128,0.00064322015,0.106710225,-0.05104019,-0.25754076
6400000,6400000,0.0005448661,-0.0022581206,0.00028417574,-0.085678734,-0.3132768,-0.09048787
6412000,6412000,0.00076045736,-0.0028713322,0.002456131,-0.012190717,-0.066636205,0.08688257
6420000,6420000,0.0013858469,0.0006253435,0.0012178947,0.046686094,0.32134882,-0.053067684
6432000,6432000,0.0019153766,-0.00015069451,0.0016383051,0.078968436,-0.110984966,-0.028046915
6440000,6440000,0.0019017224,0.0012565511,0.00043556944,0.016074749,0.09604127,-0.08829888
6452000,6452000,0.00012076087,0.00042150682,0.000515862,-0.11047284,-0.0544589,-0.023752563
6460000,6460000,0.0008415022,0.0024954057,0.0026090674,0.033364613,0.18121028,0.1812333
6472000,6472000,-0.00020751148,0.0017138971,0.005994495,-0.040636934,-0.026898958,0.161782
6480000,6480000,0.0010503725,0.0007417123,0.0013473511,0.06863223,-0.12840739,-0.3446154
6492000,6492000,0.0010681944,0.00026149442,0.0006855383,0.05830527,-0.05053866,-0.03254869
6500000,6500000,9.985757e-06,-0.00028649485,5.1395735e-05,-0.08234352,-0.040268622,-0.061646022
6512000,6512000,0.0017228539,0.00057865167,0.001297585,0.12185298,0.04808136,0.04798342
6520000,6520000,0.0033505138,-0.001714969,0.0013277128,0.1660038,-0.1616796,0.036710832
6532000,6532000,0.0009145968,0.0011095987,0.0010409108,-0.15689328,0.15844193,-0.025924245
6540000,6540000,0.0015164779,0.00079697324,0.0016894042,0.0129086,0.012173126,0.05375909
6552000,6552000,-0.00028004905,0.0017093751,0.0028953105,-0.10816716,0.05925991,0.10855071
6560000,6560000,0.0039467216,0.00068854773,0.0055783545,0.3337931,-0.05010553,0.26170415
6572000,6572000,0.0040252255,-0.00024237065,0.001423654,-0.011965908,-0.15195592,-0.3353146
6580000,6580000,0.0015020268,0.0018169237,0.0010165691,-0.20648132,0.18488535,-0.04960553
6592000,6592000,0.0023718649,-0.0009775013,0.0027183937,0.047899045,-0.17490701,-0.0966872
6600000,6600000,6.897899e-05,0.0032015475,0.0024135648,-0.19760908,0.26739913,-0.019904757
6612000,6612000,0.001364857,0.00064346613,-0.0009660069,0.13227025,-0.05664537,-0.24773335
6620000,6620000,0.0015212118,-0.0007021832,0.002705181,0.07167472,-0.15358885,0.2533234
6632000,6632000,0.0022239303,-0.0022385926,0.0057107448,-0.075217955,-0.09371381,0.235894
6640000,6640000,0.00025695504,-0.00026407093,0.004886168,-0.1654456,0.15253703,-0.030309198
6652000,6652000,0.00055351586,0.0006469893,0.00043352076,0.0013384484,0.104276046,-0.2319392
6660000,6660000,0.003396497,-0.0014131125,0.0022495391,0.2506107,-0.16098957,0.0668517
6672000,6672000,0.00342469,0.0006070356,0.0012426858,0.0071297884,0.11568029,-0.035117406
6680000,6680000,0.00019543327,0.0031375114,0.0036777798,-0.27811527,0.23477066,0.18630314
6692000,6692000,0.00021474774,-0.0017686859,0.0027624404,-0.0639234,-0.22860792,-0.074086286
6700000,6700000,0.00037553592,0.0008657649,0.0013690249,0.011468697,0.12603034,-0.14162692
6712000,6712000,0.0006835845,-0.0014500483,0.0017165244,-0.019015498,-0.052841157,0.082959965
6720000,6720000,0.00031622488,0.00027130777,0.0014240181,-0.02375257,0.10317245,-0.04883355
6732000,6732000,0.0043408293,0.0013460978,0.0018022713,0.23841,0.15428035,0.03985633
6740000,6740000,0.0026961882,0.002856131,0.00249715,-0.0931371,0.13569795,0.11040999
6752000,6752000,0.0028455383,-0.00090511236,0.0006267568,0.09854767,-0.20044781,-0.22264968
6760000,6760000,0.00052631286,0.000819623,-0.00059504434,-0.20073284,0.108119786,-0.15110971
6772000,6772000,0.0006938929,0.00091245165,0.0045650583,0.10616852,-0.049487513,0.38206404
6780000,6780000,0.002361652,0.0011989842,0.0041126306,0.13775823,0.039562788,0.045452848
6788000,6788000,0.00085915683,0.00064320536,0.0021020486,-0.062474445,-0.05009458,-0.13800976
6796000,6796000,0.0008624471,0.0004836009,0.0034673554,-0.03058971,-0.020379154,0.07714923
6808000,6808000,0.001909759,-0.0011627376,0.0008362342,0.03157551,-0.16831827,-0.20261969
6820000,6820000,0.0004706696,0.002172,-0.0011940594,-0.04468132,0.23967484,-0.082172036
6828000,6828000,0.0007593137,-0.00055383565,0.0013337168,-0.019553538,-0.17174691,0.18684217
6840000,6840000,0.0012531003,5.3670257e-05,0.0017474759,0.067926444,-0.047869947,-0.03447535
6852000,6852000,0.0024574627,0.0016927433,0.0007976912,0.034417138,0.17062528,0.06244829
6860000,6860000,0.0014561662,0.0009565833,0.0020327147,-0.06988438,-0.034219332,0.10421349
6872000,6872000,0.00031615735,0.0022800919,0.0039280667,-0.047371775,0.11554055,0.13326293
6880000,6880000,0.002610959,0.00059291115,0.0028387383,0.19113106,-0.10170288,-0.045184437
6892000,6892000,0.001662991,-0.0022192164,0.004539156,-0.16525067,-0.29080117,0.094449095
6900000,6900000,-0.0010764982,-0.0011384967,0.0016534495,-0.2660452,0.05317754,-0.20492542
6908000,6908000,-0.0027142148,0.0016682092,0.0036570202,-0.23188522,0.19905788,0.11931768
6920000,6920000,0.00083783193,-0.0034818281,0.0011666485,0.26368114,-0.28820413,-0.20093927
6932000,6932000,0.0010274483,-0.002597421,0.0019576934,-0.023513384,0.12065411,0.023868086
6940000,6940000,0.0013383215,0.00091000367,0.00033882575,0.019192526,0.2744663,-0.11826234
6948000,6948000,0.00044302433,0.0008774777,0.0033740331,-0.079240814,0.10066574,0.22928423
6956000,6956000,0.00042938092,-0.00054405537,0.002622507,-0.009382639,-0.082777485,-0.03204277
6972000,6972000,0.0009136083,-0.0007984624,0.001404454,0.042703457,-0.06610247,0.084474735
6980000,6980000,0.00017717166,0.0025159135,0.0030025616,-0.03780862,0.29417843,0.13308749
6992000,6992000,0.00046367827,0.00078269886,0.00010146038,-0.0404822,-0.22458939,-0.20413801
7000000,7000000,0.0005220802,-0.00018546637,-0.00072572427,0.026487328,-0.11390968,-0.066198535
7012000,7012000,0.0013029088,0.0011633793,0.0022349595,0.06056888,0.09172596,0.06740084
7020000,7020000,0.0035106805,-0.00087167975,0.0014049297,0.18336688,-0.16345178,-0.03145243
7032000,7032000,0.0017515359,-0.0007216162,0.003141684,-0.07059573,0.06788333,0.09241907
7040000,7040000,0.0018275776,0.0024179197,0.0012228056,-0.023500962,0.28527144,-0.15494932
7052000,7052000,-0.0012098026,-0.00022629648,0.0004016552,-0.17136097,-0.19589424,-0.050012913
7060000,7060000,-0.001980275,-0.0007068147,0.0027061626,-0.1409628,-0.07734229,0.18875961
7068000,7068000,0.00012295961,0.0015904866,0.0013969687,0.17060758,0.17297113,-0.061341673
7076000,7076000,-0.0008495125,-0.00020586187,0.00014287292,-0.06962831,-0.11294269,-0.13074711
7092000,7092000,-0.0022630575,-0.00050571933,0.0017337406,-0.07341733,-0.076437354,0.12042643
7096000,7096000,-0.00078368664,-0.0010545342,0.0010914232,0.11712636,-0.102558926,-0.00036920042
7112000,7112000,0.0019801704,0.00065313466,-0.00072930846,0.08373814,-0.08365321,-0.035134077
7120000,7120000,0.0014369794,0.001623366,-0.00020958087,-0.032499578,0.0914983,0.0026170404
7132000,7132000,0.0013599035,0.004431339,0.00025250553,0.07822633,0.15972903,0.08349864
7140000,7140000,0.003150411,-0.00023747841,0.0015681082,0.15526879,-0.3475933,0.11788781
7152000,7152000,0.00133426,-0.0013116095,-0.001029849,-0.09382778,-0.097393885,-0.10602665
7156000,7156000,0.0011660602,-0.00064782286,-0.0008137943,-0.07157011,0.015808009,-0.037230298
7172000,7172000,0.00012529572,-0.00059633283,0.0033027485,-0.031640485,0.1256204,0.20448823
7180000,7180000,-0.0020691857,0.0019304263,0.0030599697,-0.20875822,0.24832669,0.038905207
7192000,7192000,0.0005911691,0.0050065713,0.004112195,0.19203295,0.26305285,0.0139529975
7200000,7200000,0.0016515055,0.001443601,9.124377e-05,0.14153592,-0.26234448,-0.31857914
7212000,7212000,0.0015202129,0.0001896033,-0.00015923125,0.022988223,0.017614365,0.030320838
7220000,7220000,-0.0008818472,0.00031482102,0.0021261717,-0.20155308,-0.038879473,0.18650904
7232000,7232000,-0.0016825083,0.00070510386,0.0016282431,-0.043432243,0.05088178,-0.050697844
7240000,7240000,0.0013772689,-0.0009444682,-0.0011698229,0.24386978,-0.117242604,-0.24624607
7252000,7252000,0.0048499675,0.000533822,0.0010578372,0.31126463,0.06791854,0.119632125
7260000,7260000,0.0042414754,-0.0004518116,0.0018810964,0.020008571,-0.036576375,0.12101973
7272000,7272000,0.0023686378,-0.0025674482,0.0015807748,-0.07132758,-0.20212951,-0.015594978
7276000,7276000,0.0033290172,-0.0013373834,0.001475335,0.06254323,0.016951293,-0.020222496
7292000,7292000,0.0008989464,0.0012534959,0.0005635759,-0.14734171,0.1543118,-0.10355382
7300000,7300000,0.0026791217,0.0035368693,0.0024416253,0.11065377,0.21685506,0.15162274
7312000,7312000,0.0012093175,0.001861209,0.0032669506,-0.11302833,-0.009575883,0.09178498
7320000,7320000,0.0011902687,0.0030051528,0.0035405618,-0.024050426,0.0632825,0.012990185
7332000,7332000,0.0018905489,0.0009370153,0.0019573532,-0.061644673,-0.09921804,-0.06573799
7340000,7340000,-0.00063105207,-0.0025550923,0.0025535163,-0.2165272,-0.3210809,0.026654126
7352000,7352000,-0.00032506266,-0.0016570208,0.0026191743,-0.12504372,0.06924103,0.0012558207
7360000,7360000,-0.0026201915,0.00011228956,0.0002722604,-0.18235222,0.18990517,-0.19830146
7372000,7372000,0.001192433,-0.0017248341,0.0027030953,0.15224135,-0.21580264,0.19686528
7380000,7380000,-0.0007775086,-0.001546042,0.0032245237,-0.1297324,-0.036068276,0.08994056
7392000,7392000,-0.00022816774,-0.002196229,0.00073143805,0.16975074,-0.03203947,-0.16607282
7400000,7400000,-8.413324e-05,0.0008355458,0.0014829327,0.046430465,0.2699531,0.038441945
7412000,7412000,0.0008416071,-0.0009425669,0.002291311,0.008407772,-0.12674694,0.025906937
7420000,7420000,-0.0019647828,-0.002120485,0.0021505607,-0.21606693,-0.14411464,-0.028013827
7432000,7432000,0.0006421562,-0.0018224125,0.0025170995,0.08622826,0.09970317,0.12543838
7440000,7440000,0.0004210528,0.00084502716,0.0014074285,0.023638066,0.27308697,-0.10606559
7452000,7452000,0.0019634545,-0.0014178078,0.001421762,0.078184836,-0.24153474,0.0941911
7460000,7460000,-0.0011929076,-0.0035956833,0.0011388673,-0.23048258,-0.24365947,-0.019140434
7472000,7472000,0.004021749,-0.0021292889,0.00023236906,0.29210794,0.043617547,0.0075205127
7480000,7480000,0.0020661596,-0.00021913229,0.0017104712,-0.06904842,0.19525816,0.13224633
7492000,7492000,-0.0034996548,-0.00033440627,0.0006935304,-0.5048092,-0.060426038,-0.13151337
7500000,7500000,-0.003369759,-0.002334448,0.0011961956,-0.095747665,-0.15733203,0.02026661
7512000,7512000,-0.0013639319,0.0014059865,0.00073197135,0.07718982,0.24822068,-0.0772372
7516000,7516000,-0.0019790684,0.0017554194,0.00020145916,-0.022098675,0.17907093,-0.10104801
7532000,7532000,0.00040944596,0.0027154027,-0.0016000092,0.08614569,0.113063306,-0.086824216
7540000,7540000,0.00042888382,0.0020577894,-0.00041862577,0.042214397,-0.0006184149,0.07818787
7552000,7552000,0.0019649307,-0.000590981,-9.83834e-05,0.10166028,-0.19481201,-0.02471644
7560000,7560000,0.0021956167,-0.00034573767,-0.00035544322,0.03579816,-0.05073913,-0.027931793
7572000,7572000,-0.00019602058,0.0018285299,0.0036417032,-0.21653087,0.16186178,0.24149418
7580000,7580000,-6.0070422e-05,-0.00154293,0.0007580506,0.004532978,-0.23526171,-0.18186295
7592000,7592000,0.0015481722,0.000977152,-0.0032107756,0.004700005,0.121177666,-0.22495194
7600000,7600000,0.0007765001,0.0011284393,-0.0022268295,-0.049727224,0.038877763,0.03683676
7612000,7612000,0.0008531324,-0.0002091392,0.0026294845,-0.0299459,-0.09706443,0.23435284
7620000,7620000,-0.00040389225,-0.0025554611,-0.00014683418,-0.11586593,-0.18762869,-0.17150384
7632000,7632000,-0.0019450872,0.0011901841,0.0023765815,-0.10292602,0.18632147,0.18107617
7640000,7640000,-0.0009251877,0.0001221369,0.000578971,0.092307925,-0.016881878,-0.087611616
7652000,7652000,0.0008759684,0.0021980014,0.00092686096,-0.018206969,0.13373215,0.022450307
7660000,7660000,0.0024388684,0.0032461556,0.002084444,0.17713001,0.13531789,0.096927054
7672000,7672000,-0.0014910155,0.00061451783,0.0018612423,-0.3359,-0.1592308,-0.08275785
7680000,7680000,0.00095359376,0.0013172538,0.00071983016,0.12803833,0.0048572123,-0.0954301
7692000,7692000,-0.0007297143,0.0021446531,0.0024977026,-0.12914276,0.062085927,0.08749513
7700000,7700000,-0.0009963927,-0.00033461628,0.0018501508,-0.057173777,-0.21391293,-0.025170429
7712000,7712000,0.0008260043,-0.0025493265,0.0062497887,0.12269686,-0.11121517,0.34980375
7720000,7720000,0.00096989213,-0.0026468155,0.002622462,0.04223161,-0.033036064,-0.23712188
7732000,7732000,0.00047070836,0.0019136937,0.0008904867,0.017774433,0.29206485,-0.055696953
7740000,7740000,0.00051608484,0.0026780074,0.001054802,-0.0027749743,0.1339103,0.0026452956
7752000,7752000,0.0009285316,-0.00038560666,0.00093453814,0.04956001,-0.16143478,0.024235055
7760000,7760000,0.0013513276,0.0006787195,0.00342859,0.046443064,0.058130465,0.18079092
7772000,7772000,0.00031588122,-0.0016237674,0.0016724532,-0.13517705,-0.21095328,-0.021549188
7780000,7780000,-0.00095319725,-0.0010546087,0.0025710166,-0.11837876,0.008513547,0.053440835
7788000,7788000,0.0020027843,-0.0012009959,0.0012061172,0.19697095,-0.023850994,-0.10951044
7800000,7800000,0.0026798341,0.0013339333,0.0012496049,0.15531659,0.22498317,0.071697615
7812000,7812000,0.0035467613,0.0011304729,0.0005870793,0.12109067,-0.117122255,-0.06810901
7820000,7820000,0.0030719356,0.0012036604,-0.00044313772,-0.04843811,0.03752823,-0.07801393
7828000,7828000,-0.0005922783,0.002595314,0.0039681327,-0.30364305,0.06118668,0.35134026
7840000,7840000,0.0018989205,0.0023014212,0.0016447717,0.1453429,0.12986358,-0.15740427
7852000,7852000,0.0015551748,-0.0024318486,0.0005037448,-0.08817935,-0.32731974,-0.102059335
7860000,7860000,5.5281213e-05,0.0005609691,-0.00032290304,-0.108323574,0.1605816,-0.10982536
7872000,7872000,0.0027526037,-0.001965933,0.004360684,0.07300234,-0.14612179,0.2963115
7880000,7880000,-0.00015949912,0.001368383,0.0012621803,-0.22234109,0.23533937,-0.13716927
7892000,7892000,-0.00024999934,0.00024486147,0.0015839086,0.024261333,-0.072073296,-0.08496311
7900000,7900000,2.9198127e-05,0.00030811457,-0.002384521,0.03720642,-0.008690554,-0.35410082
7912000,7912000,0.0015138953,-0.00080996985,0.0010240126,0.05538413,-0.18423282,0.106040336
7920000,7920000,0.0014946389,-0.0021412927,-0.002708423,0.018495012,-0.13140075,-0.27115175
7932000,7932000,0.0015202817,-0.001003156,0.00028197782,0.011517936,0.0022540968,0.20810595
7940000,7940000,0.0006258519,-0.0007305378,0.001018893,-0.07245159,0.041527044,0.1242038
7952000,7952000,0.00028623815,0.00020757131,0.0007996854,-0.10305856,0.010420653,0.06784108
7960000,7960000,0.0009101867,-0.00034027593,0.0025343597,0.051387906,-0.045591462,0.13830324
7972000,7972000,-0.0007967219,0.0007561855,0.002019536,-0.15139869,0.07129052,0.05791948
7980000,7980000,-0.0019635549,-0.0007699523,0.0022552847,-0.13935873,-0.09620258,0.028368616
7992000,7992000,0.00045795052,0.0014447276,0.0009829027,0.15225267,0.03842578,-0.06833114
8000000,8000000,-0.00024362223,-0.00043391902,0.0011274135,-0.030267406,-0.10542391,0.003976742
8012000,8012000,0.00050782866,-0.00039296038,0.0010742277,0.06297228,-0.062559545,-0.07363188
8020000,8020000,-8.7994966e-05,0.00050415983,-0.00066784525,-0.025226522,0.06381605,-0.13821201
8032000,8032000,0.0010192702,0.002847806,0.0012327036,0.093996726,0.25530115,0.0666842
8040000,8040000,0.00049516617,0.002951101,0.00031677703,-0.011524012,0.060073026,-0.07769432
8052000,8052000,0.0006261823,-0.0014090543,0.0010488384,-0.008543918,-0.2072955,0.15073864
8060000,8060000,0.002566948,0.00081553403,0.0005854413,0.18331078,0.11936072,-0.0042210277
8072000,8072000,-0.00058739167,0.0017056819,0.0022017371,-0.23902602,0.09139563,0.09544968
8080000,8080000,-0.00072331436,0.00303736,-0.00024803192,-0.051140927,0.110603414,-0.18768029
8092000,8092000,0.0005212998,-0.0005467059,7.6933764e-05,0.023562718,-0.113100864,-0.010455615
8100000,8100000,0.00084555644,0.00047781505,0.0008391176,0.03959107,0.03714543,0.061585836
8112000,8112000,0.0015708754,0.0004336252,-6.999553e-05,0.073558494,-0.048295356,0.0037193066
8120000,8120000,0.0010517853,0.0018837769,0.00016062066,-0.029390821,0.13133697,-0.0017457842
8132000,8132000,0.0003598694,0.0020480533,0.0018858379,-0.07033417,-0.041873742,0.13830706
8140000,8140000,-0.0014367664,0.001102265,0.0021532355,-0.16230358,-0.05569409,0.061071396
8152000,8152000,-0.0005582095,-0.0012000408,-0.0005475088,-0.039718863,-0.19883195,-0.11806843
8160000,8160000,0.000746593,-0.001137496,0.0008576099,0.17469774,-0.065675914,0.033796787
8172000,8172000,0.0022280933,-0.0016122786,0.0011687784,-0.03381343,-0.07415242,0.06766641
8180000,8180000,0.00086334266,-0.0013804701,-0.00044901692,-0.09128162,0.051174637,-0.12324021
8192000,8192000,-1.7198035e-06,0.0009152619,0.003345037,-0.18166144,0.067689545,0.29967
8200000,8200000,-0.0006641544,0.0014837491,0.0023424649,-0.0869256,0.08373786,-0.004580675
8212000,8212000,0.0001722346,0.0032180913,0.0015767729,0.008468632,0.059121944,-0.05337947
8220000,8220000,0.0018331225,-0.00018871715,0.00042281148,0.15356676,-0.23934424,-0.12902604
8232000,8232000,-0.00084326055,0.0015010876,0.004039364,-0.19072935,0.0034025372,0.28945008
8240000,8240000,0.0001750529,0.0012801373,0.0026789457,0.04069251,0.008907107,-0.049509913
8252000,8252000,-0.0019176799,0.00081742695,-0.0020407047,-0.18901151,-0.04798699,-0.3300104
8260000,8260000,-0.0006003118,0.00079885125,-0.0016930714,0.074482985,-0.03656777,-0.06946988
8272000,8272000,0.0024349592,0.0009907414,-0.00020166114,0.22946459,0.12410782,0.097896695
8280000,8280000,0.001249431,0.001369155,-6.150198e-05,-0.07100621,0.006452947,0.051957477
8292000,8292000,-0.0010966522,-0.0013803793,0.0026491904,-0.121035054,-0.10598363,0.18374619
8300000,8300000,-0.0016301094,-0.0007052962,0.0021032984,-0.071708046,0.027352396,0.024539132
8312000,8312000,0.0007211664,0.00079382677,0.0018045886,0.052020743,0.12521653,-0.049253445
8320000,8320000,-0.00064565695,0.0026232523,0.0023471965,-0.0564441,0.19862825,0.035301246
8332000,8332000,0.0042021377,0.002072644,0.001847513,0.22955824,-0.043555215,-0.049779914
8336000,8336000,0.002512304,0.0010143337,0.0013589989,-0.05072339,-0.13856584,-0.08088033
8348000,8348000,0.0037271953,0.0023997584,0.0001939931,0.15240541,0.12904121,-0.12717235
8356000,8356000,0.003189385,0.0022858162,0.00037391647,-0.037490025,0.007257074,-0.0035258492
8372000,8372000,0.0016823078,-0.00020604488,-0.0014126311,0.038438115,-0.10852702,-0.030886086
8380000,8380000,0.002090396,0.0008624131,0.0015216169,0.02251704,0.048011627,0.24107753
8392000,8392000,0.0017026475,-0.00039998628,0.00036303932,0.067946345,0.0058578863,-0.08816154
8400000,8400000,0.0031332297,0.0005940432,0.0004098951,0.12407467,0.058105938,-0.013407622
8412000,8412000,0.0007547864,-0.00064744614,-0.00081332505,-0.1517492,-0.03832891,-0.0679173
8416000,8416000,0.00035536638,-0.000700708,-0.00026940345,-0.1294415,-0.027576411,0.01973198
8432000,8432000,-0.00061890343,-0.0009623952,0.00016326923,-0.14018513,0.04423485,0.049361028
8440000,8440000,-0.0012880178,0.0021299159,0.0016146109,-0.05966033,0.227417,0.15747984
8452000,8452000,0.002123537,0.00096609956,0.0032275505,0.22139396,-0.027220353,0.11124185
8460000,8460000,0.0025156643,0.00022657542,0.0028392128,0.09568592,-0.07426987,-0.0054309606
8472000,8472000,-0.00043823896,0.0018085199,0.000596929,-0.18904866,0.08247277,-0.15912366
8476000,8476000,-0.00015324133,0.0014347169,0.0006161435,-0.07715464,0.006848724,-0.08865643
8492000,8492000,-0.00015918294,0.00021329615,0.0020092083,-0.10978126,-0.06404908,0.09053955
8496000,8496000,-0.0015075522,-0.0005379366,0.0020677983,-0.2074952,-0.117249265,0.05791591
8508000,8508000,0.002419006,0.0024266827,-0.0006901334,0.2248563,0.2403439,-0.08649103
8516000,8516000,0.00075888535,0.0017389648,0.0026187808,-0.079537906,-0.0011176732,0.2405332
8532000,8532000,-0.00093104795,-0.000120755285,0.002773425,-0.17068172,-0.17215669,-0.0044524716
8540000,8540000,-0.00035641575,-0.00075053144,0.0007022538,0.033586077,-0.07364769,-0.16446306
8548000,8548000,0.0021994074,0.0008219741,0.0017561669,0.2067942,0.1112643,0.040399298
8556000,8556000,0.0024249093,0.0022792232,0.002129924,0.09212626,0.14661905,0.038543705
8572000,8572000,0.0013553977,0.00033398205,0.0011361069,-0.035220575,-0.05190912,-0.024985177
8580000,8580000,0.0012004646,0.00043084752,0.0011338238,-0.010088317,-0.0460102,-0.0043920595
8592000,8592000,0.0010219545,0.0005743159,0.00012576999,-0.06257419,0.06944796,-0.064450696
8600000,8600000,0.0012394704,0.0005255006,0.0029963716,0.019407168,-0.0004921592,0.20877464
8612000,8612000,0.0012005852,-0.0005053608,0.0009091283,-0.06953487,-0.004408708,-0.09798919
8620000,8620000,0.0020835416,0.0012862729,0.0018574521,0.06767015,0.13242216,0.060307283
8628000,8628000,0.00044659455,-0.0009148037,0.0024619505,-0.12696892,-0.16624421,0.049873255
8636000,8636000,0.0011724173,-0.0019641947,0.0017043334,0.04113317,-0.10944394,-0.009002646
8648000,8648000,-0.002069313,-0.0022224593,0.0015630452,-0.27827275,-0.071875736,-0.13903534
8656000,8656000,-0.0016702939,-0.0024724612,0.00043079862,-0.015905261,-0.048852574,-0.12350721
8668000,8668000,0.0020149034,-0.0010485556,0.00094041484,0.20916173,0.07923055,0.02026974
8676000,8676000,0.0016810226,-0.0029515503,-0.00018596789,0.014728315,-0.13187231,-0.0892125
8688000,8688000,2.173672e-05,0.0012351833,0.0022658478,-0.0053598583,0.22569057,0.18951432
8696000,8696000,0.001731615,0.00017030304,0.003195276,0.11435578,0.0059196004,0.10939337
8708000,8708000,-0.0012788464,-0.0001547439,-0.0012238255,-0.1801113,-0.1269511,-0.21768226
8716000,8716000,0.0005557693,0.0014742375,-0.00030565215,0.0931033,0.1255651,0.009675922
8728000,8728000,-0.00063010573,0.00047958083,0.0028793192,-0.01594045,-0.13424379,0.24028724
8736000,8736000,0.0006339474,0.00046334788,0.0038348911,0.06649515,-0.008363727,0.14498718
8748000,8748000,0.00013559603,-0.001939835,0.0015495454,-0.026328716,-0.1905077,-0.08585975
8756000,8756000,-0.0004876625,-0.0003618491,0.0019349707,-0.05107469,0.078454636,-0.036408253
8768000,8768000,0.00087361556,0.0009039729,-0.00052882277,0.099805266,0.02510895,-0.09978127
8776000,8776000,0.0012589118,0.0010283785,0.0012343945,0.06328955,0.053197257,0.08479709
8792000,8792000,-0.00046730123,0.00054323487,0.003073368,-0.082065836,-0.058238525,0.27916846
8800000,8800000,-0.00085534516,0.0008366932,-0.00049389515,-0.06795324,0.015097693,-0.22732039
8812000,8812000,0.0003120401,0.0021761516,0.0015436872,0.15572967,0.055713482,0.116490215
8820000,8820000,0.0019292615,-0.0032910332,0.0007424932,0.17283702,-0.4595131,-0.02688795
8832000,8832000,-0.00022724876,-0.00032557594,-0.00017903605,-0.21355289,0.28726202,-0.13914311
8840000,8840000,-0.0012416082,0.0024911668,-0.00096132944,-0.1444896,0.2916003,-0.07228278
8852000,8852000,0.0017684288,0.0001916932,0.0014436041,0.22217128,-0.103700384,0.10654433
8860000,8860000,0.0022461612,-0.0008016154,0.0011163559,0.11345599,-0.09925588,0.0028470831
8872000,8872000,-8.1696315e-05,0.004413751,0.0012896116,-0.16344365,0.3303415,0.06397603
8880000,8880000,-0.001575794,0.00172631,0.0016429607,-0.17387065,-0.18190771,0.021459289
8892000,8892000,0.0014784362,-0.0024665333,0.00040912337,0.20301062,-0.17320895,-0.056352176
8900000,8900000,0.0023725303,0.00037364103,0.0013377065,0.14557174,0.17521992,0.082430966
8912000,8912000,0.0034403568,-0.00020059384,0.002074866,-0.07946245,0.029488413,0.01244174
8920000,8920000,-0.0018865118,0.0007293946,0.0014981944,-0.40358004,0.076649554,-0.0519791
8932000,8932000,-0.0025434657,-0.0013070079,0.0005461188,-0.16777605,-0.10595032,-0.039610546
8940000,8940000,0.000112600275,0.0009950306,0.00029724813,0.17944828,0.15121041,-0.016374517
8952000,8952000,-0.00012994197,-0.0003866288,0.0010348817,-0.01828815,-0.035375975,0.05367461
8960000,8960000,-8.116639e-05,0.0014694389,0.0024519248,-0.0028074668,0.1404139,0.12272768
8972000,8972000,0.0020610327,0.0012177201,0.002811727,0.21269456,0.018995902,0.07549201
8980000,8980000,0.0020436577,-0.0010147537,0.0023965035,0.056641743,-0.20257749,-0.012055097
8992000,8992000,0.0017602831,-0.00019507669,0.0024525763,-0.07435462,0.11929168,0.029237848
9000000,9000000,0.00050042925,0.0017406817,0.0011404193,-0.12590407,0.16478519,-0.13262081
9012000,9012000,-0.0022547916,0.002743327,0.00019380962,-0.21502599,0.19833179,-0.053849325
9020000,9020000,-0.00032270222,0.003228026,0.0012062396,0.11233139,0.070129976,0.06317793
9032000,9032000,-0.0021944288,0.0018254365,0.0010287866,-0.05870666,-0.006686636,0.027856402
9040000,9040000,-8.816109e-05,-0.0005542175,0.0020006425,0.14613895,-0.23027258,0.097385176
9052000,9052000,0.0012620864,0.00086036045,5.890592e-05,0.072475955,0.1377797,-0.117669255
9060000,9060000,0.0011032382,0.003198603,0.0005395532,-0.0050581284,0.22936389,0.016635496
9072000,9072000,-0.0014737792,-0.0008732672,0.0012776167,-0.15327592,-0.27171773,0.022112278
9080000,9080000,0.0003922783,-0.0006062789,0.0012732281,0.14122841,-0.042254664,-0.005433607
9088000,9088000,0.0013902265,0.00047167717,0.0013944102,0.07546166,0.08494235,0.022611309
9096000,9096000,-0.0010007875,0.0031021764,0.0022304275,-0.14871618,0.22837387,0.07580189
9108000,9108000,0.00013588485,0.00040592626,0.0010617515,0.039798997,-0.11528078,-0.1155854
9116000,9116000,0.0005724404,0.0019684047,0.0032123777,0.041728087,0.10335761,0.1802292
9132000,9132000,0.00074503943,0.0034726202,-0.0026136404,0.11297815,0.15341346,-0.39232695
9136000,9136000,0.0015281233,0.0017631995,-0.002228599,0.14856821,-0.096240856,-0.18229851
9152000,9152000,-0.0024337461,-0.0016971063,0.0027295533,-0.14142345,-0.01921782,0.13725126
9160000,9160000,-0.00033112091,-0.0018920535,-0.0015362035,0.13934623,-0.008997861,-0.29727504
9172000,9172000,-0.0005675049,-0.0037218877,0.0022873124,0.013371946,-0.21813479,0.18034649
9180000,9180000,0.00080322666,-0.0036652568,-0.0014273752,0.10802498,-0.0148823885,-0.25494292
9188000,9188000,0.0011889454,-0.0012880457,0.0012530093,0.067208245,0.15986045,0.16974248
9196000,9196000,0.0012627076,0.00051492546,0.0005755004,0.026456121,0.22724089,-0.025090251
9212000,9212000,-0.00048335153,0.0014042896,0.0013041088,-0.09813894,0.112852216,-0.02084549
9216000,9216000,-0.00037653267,0.0016147892,0.0009391054,-0.044472545,0.08696238,-0.05111056
9228000,9228000,-0.000525358,0.0016503059,-0.0027609528,-0.045955945,0.14293544,-0.29817593
9236000,9236000,0.001796039,0.00078218244,-0.0023202603,0.19837506,-0.07361936,-0.015994864
9248000,9248000,0.0009499403,-0.0012455746,0.0041222135,-0.086918384,0.02215674,0.36051965
9260000,9260000,0.0016368553,0.0016996195,0.005320364,0.13100463,0.12856907,0.15277125
9272000,9272000,0.0016410418,-0.0014484134,0.0013385824,-0.012534632,-0.23466985,-0.21879038
9280000,9280000,0.0009960792,-0.0034519196,0.00047344423,-0.066631205,-0.23343815,-0.15139624
9288000,9288000,0.0018648424,-0.0023298329,0.0014696087,0.06400589,0.05312085,0.07294008
9296000,9296000,0.0035433243,0.002139342,0.0031725392,0.14560656,0.36918533,0.13329193
9308000,9308000,0.00029130315,-0.00072797714,0.001525307,-0.19378097,-0.19360194,-0.07815403
9316000,9316000,0.0006763949,-0.0026149438,0.0037047584,-0.021088868,-0.16981511,0.18561623
9328000,9328000,-0.0012414252,0.002936217,0.0037483699,-0.18857707,0.30562466,-0.08027689
9336000,9336000,-0.00031761953,0.0013266914,-1.8024584e-06,0.052089855,-0.058202177,-0.33555275
9348000,9348000,-0.0003092176,-0.0009814198,0.00075985363,-0.048761014,-0.16889817,0.023578534
9356000,9356000,9.300874e-05,-0.0019869138,0.00026335462,0.008112942,-0.10694017,-0.013900848
9368000,9368000,0.00011211785,-0.0021938197,0.0012939267,0.017028682,-0.08027876,0.011553286
9376000,9376000,-0.000114938244,-0.0011463095,0.0032941834,-0.043641295,0.09230783,0.17448327
9388000,9388000,-0.0013668047,-0.0030981437,0.0013232436,0.06150067,-0.16566333,-0.15408826
9396000,9396000,0.0022608186,-0.00042729592,0.0024552778,0.2747965,0.22738767,0.07527767
9408000,9408000,-0.00048549997,0.0022528018,0.0029948954,-0.07319561,0.05459039,0.054988783
9416000,9416000,0.0016648412,0.0008209846,0.0035724572,0.16000363,-0.07361429,0.06558263
9428000,9428000,0.00094025396,0.0039157146,0.004135075,-0.017068468,0.21144141,-0.0059466846
9436000,9436000,0.0010135217,0.0036485074,0.001710081,-0.012320151,0.009090576,-0.19042374
9448000,9448000,0.0004756229,0.0020067075,0.0031020716,-0.028836988,-0.035556454,0.085989244
9456000,9456000,-0.00025197573,0.0013322034,0.0022951884,-0.071113795,-0.06381871,-0.04604692
9472000,9472000,0.0010788748,-0.0019700346,0.0012747848,0.0095240325,-0.13366227,0.05594941
9480000,9480000,-0.0006515023,-0.00055298535,0.0008263392,-0.121515974,0.09093011,-0.032787606
9492000,9492000,0.0024733625,0.001042102,0.000539238,0.2037313,0.0764949,0.03498316
9500000,9500000,0.0006200989,0.0013542739,0.0011429052,-0.09762588,0.08128734,0.041126225
9508000,9508000,0.0023224745,0.001180944,0.00047856837,0.13314688,-0.02300322,-0.030008687
9520000,9520000,-0.0012604758,-0.0005968837,0.0011303605,-0.21192572,-0.08840485,-0.021002417
9532000,9532000,0.000290738,0.00034478353,0.00039201288,-0.024117216,0.12449546,-0.04560833
9540000,9540000,-0.00022784143,0.0029135963,0.00033665332,-0.022134636,0.24392629,-0.0046314406
9548000,9548000,0.0013061078,0.001567364,0.0015665345,0.12116764,-0.056525163,0.10317369
9556000,9556000,0.003689249,0.0018856004,0.000524853,0.22442049,0.027920684,-0.08399841
9572000,9572000,0.0011382044,-0.0020057545,0.00078117865,-0.050070077,-0.08675059,0.039636455
9580000,9580000,0.0018026852,0.0010243137,0.001662694,0.045153707,0.20188025,0.086318664
9592000,9592000,-0.000117537915,-0.0017764387,0.0010800809,-0.1913942,-0.18129858,0.010658127
9600000,9600000,0.0001030463,-0.0009619831,0.0017263804,-0.020963013,0.023109246,0.034537368
9612000,9612000,0.0029028188,-0.00041653262,0.005006712,0.13646838,0.020353703,0.25395188
9620000,9620000,0.0010306318,-0.0014789589,0.0024380595,-0.105433784,-0.059571337,-0.17834768
9632000,9632000,0.0009028929,0.003466927,1.6191509e-05,-0.034456305,0.34848034,-0.14571032
9640000,9640000,-0.002066684,0.0041139564,-0.00066593476,-0.27254975,0.1388784,-0.07831001
9652000,9652000,-0.0014164293,0.0012833015,0.0030017723,-0.0049209325,-0.11670551,0.18528509
9660000,9660000,-0.0009844141,0.00033414084,0.00057312765,0.08913879,-0.12514272,-0.13633986
9672000,9672000,-0.0015468592,-0.00015260279,0.0042166887,-0.15089066,-0.015451193,0.20247579
9680000,9680000,-0.0015248588,0.004227094,0.0023691354,-0.04352888,0.36288667,-0.10364004
9692000,9692000,-0.0019535944,0.0018102925,-0.002338557,-0.01848736,-0.13247299,-0.3089202
