timestamp,timestamp_sample,lat,lon,alt,alt_ellipsoid,delta_alt,eph,epv,terrain_alt,lat_lon_reset_counter,alt_reset_counter,terrain_alt_valid,dead_reckoning
3180000,0,47.3977508,8.5456074,488.104,0.0,0.0,0.0,0.0,0.0,0,0,0,0
3184000,0,47.3977508,8.5456074,488.104,0.0,0.0,0.0,0.0,0.0,0,0,0,0
3280000,0,47.3977508,8.5456074,488.104,0.0,0.0,0.0,0.0,0.0,0,0,0,0
3380000,0,47.3977508,8.5456074,488.104,0.0,0.0,0.0,0.0,0.0,0,0,0,0
3480000,0,47.3977508,8.5456074,488.104,0.0,0.0,0.0,0.0,0.0,0,0,0,0
3580000,0,47.3977508,8.5456074,488.104,0.0,0.0,0.0,0.0,0.0,0,0,0,0
3680000,0,47.3977508,8.5456074,488.104,0.0,0.0,0.0,0.0,0.0,0,0,0,0
3780000,0,47.3977508,8.5456074,488.104,0.0,0.0,0.0,0.0,0.0,0,0,0,0
3880000,0,47.3977508,8.5456074,488.104,0.0,0.0,0.0,0.0,0.0,0,0,0,0
3980000,0,47.3977508,8.5456074,488.104,0.0,0.0,0.0,0.0,0.0,0,0,0,0
4080000,0,47.3977508,8.5456074,488.104,0.0,0.0,0.0,0.0,0.0,0,0,0,0
4180000,0,47.3977508,8.5456074,488.104,0.0,0.0,0.0,0.0,0.0,0,0,0,0
4280000,0,47.3977508,8.5456074,488.104,0.0,0.0,0.0,0.0,0.0,0,0,0,0
4380000,0,47.3977508,8.5456074,488.104,0.0,0.0,0.0,0.0,0.0,0,0,0,0
4480000,0,47.3977508,8.5456074,488.104,0.0,0.0,0.0,0.0,0.0,0,0,0,0
4580000,0,47.3977508,8.5456074,488.104,0.0,0.0,0.0,0.0,0.0,0,0,0,0
4680000,0,47.3977508,8.5456074,488.104,0.0,0.0,0.0,0.0,0.0,0,0,0,0
4780000,0,47.3977508,8.5456074,488.104,0.0,0.0,0.0,0.0,0.0,0,0,0,0
4880000,0,47.3977508,8.5456074,488.104,0.0,0.0,0.0,0.0,0.0,0,0,0,0
4980000,0,47.3977508,8.5456074,488.104,0.0,0.0,0.0,0.0,0.0,0,0,0,0
5080000,0,47.3977508,8.5456074,488.104,0.0,0.0,0.0,0.0,0.0,0,0,0,0
5180000,0,47.3977508,8.5456074,488.104,0.0,0.0,0.0,0.0,0.0,0,0,0,0
5280000,0,47.3977508,8.5456074,488.104,0.0,0.0,0.0,0.0,0.0,0,0,0,0
5380000,0,47.3977508,8.5456074,488.104,0.0,0.0,0.0,0.0,0.0,0,0,0,0
5480000,0,47.3977508,8.5456074,488.104,0.0,0.0,0.0,0.0,0.0,0,0,0,0
5580000,0,47.3977508,8.5456074,488.104,0.0,0.0,0.0,0.0,0.0,0,0,0,0
5680000,0,47.3977508,8.5456074,488.104,0.0,0.0,0.0,0.0,0.0,0,0,0,0
5780000,0,47.3977508,8.5456074,488.104,0.0,0.0,0.0,0.0,0.0,0,0,0,0
5880000,0,47.3977508,8.5456074,488.104,0.0,0.0,0.0,0.0,0.0,0,0,0,0
5980000,0,47.3977508,8.5456074,488.104,0.0,0.0,0.0,0.0,0.0,0,0,0,0
6080000,0,47.3977508,8.5456074,488.104,0.0,0.0,0.0,0.0,0.0,0,0,0,0
6180000,0,47.3977508,8.5456074,488.104,0.0,0.0,0.0,0.0,0.0,0,0,0,0
6280000,0,47.3977508,8.5456074,488.104,0.0,0.0,0.0,0.0,0.0,0,0,0,0
6380000,0,47.3977508,8.5456074,488.104,0.0,0.0,0.0,0.0,0.0,0,0,0,0
6480000,0,47.3977508,8.5456074,488.104,0.0,0.0,0.0,0.0,0.0,0,0,0,0
6580000,0,47.3977508,8.5456074,488.104,0.0,0.0,0.0,0.0,0.0,0,0,0,0
6680000,0,47.3977508,8.5456074,488.104,0.0,0.0,0.0,0.0,0.0,0,0,0,0
6780000,0,47.3977508,8.5456074,488.104,0.0,0.0,0.0,0.0,0.0,0,0,0,0
6880000,0,47.3977508,8.5456074,488.104,0.0,0.0,0.0,0.0,0.0,0,0,0,0
6980000,0,47.3977508,8.5456074,488.104,0.0,0.0,0.0,0.0,0.0,0,0,0,0
7080000,0,47.3977508,8.5456074,488.104,0.0,0.0,0.0,0.0,0.0,0,0,0,0
7180000,0,47.3977508,8.5456074,488.104,0.0,0.0,0.0,0.0,0.0,0,0,0,0
7280000,0,47.3977508,8.5456074,488.104,0.0,0.0,0.0,0.0,0.0,0,0,0,0
7380000,0,47.3977508,8.5456074,488.104,0.0,0.0,0.0,0.0,0.0,0,0,0,0
7480000,0,47.3977508,8.5456074,488.104,0.0,0.0,0.0,0.0,0.0,0,0,0,0
7580000,0,47.3977508,8.5456074,488.104,0.0,0.0,0.0,0.0,0.0,0,0,0,0
7680000,0,47.3977508,8.5456074,488.104,0.0,0.0,0.0,0.0,0.0,0,0,0,0
7780000,0,47.3977508,8.5456074,488.104,0.0,0.0,0.0,0.0,0.0,0,0,0,0
7880000,0,47.3977508,8.5456074,488.104,0.0,0.0,0.0,0.0,0.0,0,0,0,0
7980000,0,47.3977508,8.5456074,488.104,0.0,0.0,0.0,0.0,0.0,0,0,0,0
8080000,0,47.3977508,8.5456074,488.104,0.0,0.0,0.0,0.0,0.0,0,0,0,0
8180000,0,47.3977508,8.5456074,488.104,0.0,0.0,0.0,0.0,0.0,0,0,0,0
8280000,0,47.3977508,8.5456074,488.104,0.0,0.0,0.0,0.0,0.0,0,0,0,0
8380000,0,47.3977508,8.5456074,488.104,0.0,0.0,0.0,0.0,0.0,0,0,0,0
8480000,0,47.3977508,8.5456074,488.104,0.0,0.0,0.0,0.0,0.0,0,0,0,0
8580000,0,47.3977508,8.5456074,488.104,0.0,0.0,0.0,0.0,0.0,0,0,0,0
8680000,0,47.3977508,8.5456074,488.104,0.0,0.0,0.0,0.0,0.0,0,0,0,0
8780000,0,47.3977508,8.5456074,488.104,0.0,0.0,0.0,0.0,0.0,0,0,0,0
8880000,0,47.3977508,8.5456074,488.104,0.0,0.0,0.0,0.0,0.0,0,0,0,0
8980000,0,47.3977508,8.5456074,488.104,0.0,0.0,0.0,0.0,0.0,0,0,0,0
9080000,0,47.3977508,8.5456074,488.104,0.0,0.0,0.0,0.0,0.0,0,0,0,0
9180000,0,47.3977508,8.5456074,488.104,0.0,0.0,0.0,0.0,0.0,0,0,0,0
9280000,0,47.3977508,8.5456074,488.104,0.0,0.0,0.0,0.0,0.0,0,0,0,0
9380000,0,47.3977508,8.5456074,488.104,0.0,0.0,0.0,0.0,0.0,0,0,0,0
9480000,0,47.3977508,8.5456074,488.104,0.0,0.0,0.0,0.0,0.0,0,0,0,0
9580000,0,47.3977508,8.5456074,488.104,0.0,0.0,0.0,0.0,0.0,0,0,0,0
9680000,0,47.3977508,8.5456074,488.104,0.0,0.0,0.0,0.0,0.0,0,0,0,0
9780000,0,47.3977508,8.5456074,488.104,0.0,0.0,0.0,0.0,0.0,0,0,0,0
9880000,0,47.3977508,8.5456074,488.104,0.0,0.0,0.0,0.0,0.0,0,0,0,0
9980000,0,47.3977508,8.5456074,488.104,0.0,0.0,0.0,0.0,0.0,0,0,0,0
10080000,0,47.3977508,8.5456074,488.104,0.0,0.0,0.0,0.0,0.0,0,0,0,0
10180000,0,47.3977508,8.5456074,488.104,0.0,0.0,0.0,0.0,0.0,0,0,0,0
10280000,0,47.3977508,8.5456074,488.104,0.0,0.0,0.0,0.0,0.0,0,0,0,0
10380000,0,47.3977508,8.5456074,488.104,0.0,0.0,0.0,0.0,0.0,0,0,0,0
10480000,0,47.3977508,8.5456074,488.104,0.0,0.0,0.0,0.0,0.0,0,0,0,0
10580000,0,47.3977508,8.5456074,488.104,0.0,0.0,0.0,0.0,0.0,0,0,0,0
10680000,0,47.3977508,8.5456074,488.104,0.0,0.0,0.0,0.0,0.0,0,0,0,0
10780000,0,47.3977508,8.5456074,488.104,0.0,0.0,0.0,0.0,0.0,0,0,0,0
10880000,0,47.3977508,8.5456074,488.104,0.0,0.0,0.0,0.0,0.0,0,0,0,0
10980000,0,47.3977508,8.5456074,488.104,0.0,0.0,0.0,0.0,0.0,0,0,0,0
11080000,0,47.3977508,8.5456074,488.104,0.0,0.0,0.0,0.0,0.0,0,0,0,0
11180000,0,47.3977508,8.5456074,488.104,0.0,0.0,0.0,0.0,0.0,0,0,0,0
11280000,0,47.3977508,8.5456074,488.104,0.0,0.0,0.0,0.0,0.0,0,0,0,0
11380000,0,47.3977508,8.5456074,488.104,0.0,0.0,0.0,0.0,0.0,0,0,0,0
11480000,0,47.3977508,8.5456074,488.104,0.0,0.0,0.0,0.0,0.0,0,0,0,0
11580000,0,47.3977508,8.5456074,488.104,0.0,0.0,0.0,0.0,0.0,0,0,0,0
11680000,0,47.3977508,8.5456074,488.104,0.0,0.0,0.0,0.0,0.0,0,0,0,0
11780000,0,47.3977508,8.5456074,488.104,0.0,0.0,0.0,0.0,0.0,0,0,0,0
11880000,0,47.3977508,8.5456074,488.104,0.0,0.0,0.0,0.0,0.0,0,0,0,0
11980000,0,47.3977508,8.5456074,488.104,0.0,0.0,0.0,0.0,0.0,0,0,0,0
12080000,0,47.3977508,8.5456074,488.104,0.0,0.0,0.0,0.0,0.0,0,0,0,0
12180000,0,47.3977508,8.5456074,488.104,0.0,0.0,0.0,0.0,0.0,0,0,0,0
12280000,0,47.3977508,8.5456074,488.104,0.0,0.0,0.0,0.0,0.0,0,0,0,0
12380000,0,47.3977508,8.5456074,488.104,0.0,0.0,0.0,0.0,0.0,0,0,0,0
12480000,0,47.3977508,8.5456074,488.104,0.0,0.0,0.0,0.0,0.0,0,0,0,0
12580000,0,47.3977508,8.5456074,488.104,0.0,0.0,0.0,0.0,0.0,0,0,0,0
12680000,0,47.3977508,8.5456074,488.104,0.0,0.0,0.0,0.0,0.0,0,0,0,0
12780000,0,47.3977508,8.5456074,488.104,0.0,0.0,0.0,0.0,0.0,0,0,0,0
12880000,0,47.3977508,8.5456074,488.104,0.0,0.0,0.0,0.0,0.0,0,0,0,0
12980000,0,47.3977508,8.5456074,488.104,0.0,0.0,0.0,0.0,0.0,0,0,0,0
13080000,0,47.3977508,8.5456074,488.104,0.0,0.0,0.0,0.0,0.0,0,0,0,0
13180000,0,47.3977508,8.5456074,488.104,0.0,0.0,0.0,0.0,0.0,0,0,0,0
13280000,0,47.3977508,8.5456074,488.104,0.0,0.0,0.0,0.0,0.0,0,0,0,0
13380000,0,47.3977508,8.5456074,488.104,0.0,0.0,0.0,0.0,0.0,0,0,0,0
13480000,0,47.3977508,8.5456074,488.104,0.0,0.0,0.0,0.0,0.0,0,0,0,0
13580000,0,47.3977508,8.5456074,488.104,0.0,0.0,0.0,0.0,0.0,0,0,0,0
13680000,0,47.3977508,8.5456074,488.104,0.0,0.0,0.0,0.0,0.0,0,0,0,0
13780000,0,47.3977508,8.5456074,488.104,0.0,0.0,0.0,0.0,0.0,0,0,0,0
13880000,0,47.3977508,8.5456074,488.104,0.0,0.0,0.0,0.0,0.0,0,0,0,0
13980000,0,47.3977508,8.5456074,488.104,0.0,0.0,0.0,0.0,0.0,0,0,0,0
14080000,0,47.3977508,8.5456074,488.104,0.0,0.0,0.0,0.0,0.0,0,0,0,0
14180000,0,47.3977508,8.5456074,488.104,0.0,0.0,0.0,0.0,0.0,0,0,0,0
14280000,0,47.3977508,8.5456074,488.104,0.0,0.0,0.0,0.0,0.0,0,0,0,0
14380000,0,47.3977508,8.5456074,488.104,0.0,0.0,0.0,0.0,0.0,0,0,0,0
14480000,0,47.3977508,8.5456074,488.104,0.0,0.0,0.0,0.0,0.0,0,0,0,0
14580000,0,47.3977508,8.5456074,488.104,0.0,0.0,0.0,0.0,0.0,0,0,0,0
14680000,0,47.3977508,8.5456074,488.104,0.0,0.0,0.0,0.0,0.0,0,0,0,0
14780000,0,47.3977508,8.5456074,488.104,0.0,0.0,0.0,0.0,0.0,0,0,0,0
14880000,0,47.3977508,8.5456074,488.104,0.0,0.0,0.0,0.0,0.0,0,0,0,0
14980000,0,47.3977508,8.5456074,488.104,0.0,0.0,0.0,0.0,0.0,0,0,0,0
15080000,0,47.3977508,8.5456074,488.104,0.0,0.0,0.0,0.0,0.0,0,0,0,0
15180000,0,47.3977508,8.5456074,488.104,0.0,0.0,0.0,0.0,0.0,0,0,0,0
15280000,0,47.3977508,8.5456074,488.104,0.0,0.0,0.0,0.0,0.0,0,0,0,0
15380000,0,47.3977508,8.5456074,488.104,0.0,0.0,0.0,0.0,0.0,0,0,0,0
15480000,0,47.3977508,8.5456074,488.104,0.0,0.0,0.0,0.0,0.0,0,0,0,0
15580000,0,47.3977508,8.5456074,488.104,0.0,0.0,0.0,0.0,0.0,0,0,0,0
15680000,0,47.3977508,8.5456074,488.104,0.0,0.0,0.0,0.0,0.0,0,0,0,0
15780000,0,47.3977508,8.5456074,488.104,0.0,0.0,0.0,0.0,0.0,0,0,0,0
15880000,0,47.3977508,8.5456074,488.104,0.0,0.0,0.0,0.0,0.0,0,0,0,0
15980000,0,47.3977508,8.5456074,488.104,0.0,0.0,0.0,0.0,0.0,0,0,0,0
16080000,0,47.3977508,8.5456074,488.104,0.0,0.0,0.0,0.0,0.0,0,0,0,0
16180000,0,47.3977508,8.5456074,488.104,0.0,0.0,0.0,0.0,0.0,0,0,0,0
16280000,0,47.3977508,8.5456074,488.104,0.0,0.0,0.0,0.0,0.0,0,0,0,0
16380000,0,47.3977508,8.5456074,488.104,0.0,0.0,0.0,0.0,0.0,0,0,0,0
16480000,0,47.3977508,8.5456074,488.104,0.0,0.0,0.0,0.0,0.0,0,0,0,0
16580000,0,47.3977508,8.5456074,488.104,0.0,0.0,0.0,0.0,0.0,0,0,0,0
16680000,0,47.3977508,8.5456074,488.104,0.0,0.0,0.0,0.0,0.0,0,0,0,0
16780000,0,47.3977508,8.5456074,488.104,0.0,0.0,0.0,0.0,0.0,0,0,0,0
16880000,0,47.3977508,8.5456074,488.104,0.0,0.0,0.0,0.0,0.0,0,0,0,0
16980000,0,47.3977508,8.5456074,488.104,0.0,0.0,0.0,0.0,0.0,0,0,0,0
17080000,0,47.3977508,8.5456074,488.104,0.0,0.0,0.0,0.0,0.0,0,0,0,0
17180000,0,47.3977508,8.5456074,488.104,0.0,0.0,0.0,0.0,0.0,0,0,0,0
17280000,0,47.3977508,8.5456074,488.104,0.0,0.0,0.0,0.0,0.0,0,0,0,0
17380000,0,47.3977508,8.5456074,488.104,0.0,0.0,0.0,0.0,0.0,0,0,0,0
17480000,0,47.3977508,8.5456074,488.104,0.0,0.0,0.0,0.0,0.0,0,0,0,0
17580000,0,47.3977508,8.5456074,488.104,0.0,0.0,0.0,0.0,0.0,0,0,0,0
17680000,0,47.3977508,8.5456074,488.104,0.0,0.0,0.0,0.0,0.0,0,0,0,0
17780000,0,47.3977508,8.5456074,488.104,0.0,0.0,0.0,0.0,0.0,0,0,0,0
17880000,0,47.3977508,8.5456074,488.104,0.0,0.0,0.0,0.0,0.0,0,0,0,0
17980000,0,47.3977508,8.5456074,488.104,0.0,0.0,0.0,0.0,0.0,0,0,0,0
18080000,0,47.3977508,8.5456074,488.106,0.0,0.0,0.0,0.0,0.0,0,0,0,0
18180000,0,47.3977508,8.5456074,488.112,0.0,0.0,0.0,0.0,0.0,0,0,0,0
18280000,0,47.397750699999996,8.5456074,488.122,0.0,0.0,0.0,0.0,0.0,0,0,0,0
18380000,0,47.397750699999996,8.5456073,488.137,0.0,0.0,0.0,0.0,0.0,0,0,0,0
18480000,0,47.397750599999995,8.5456072,488.158,0.0,0.0,0.0,0.0,0.0,0,0,0,0
18580000,0,47.3977504,8.545607,488.188,0.0,0.0,0.0,0.0,0.0,0,0,0,0
18680000,0,47.3977502,8.5456068,488.226,0.0,0.0,0.0,0.0,0.0,0,0,0,0
18780000,0,47.397749999999995,8.5456066,488.272,0.0,0.0,0.0,0.0,0.0,0,0,0,0
18880000,0,47.3977498,8.5456063,488.328,0.0,0.0,0.0,0.0,0.0,0,0,0,0
18980000,0,47.3977497,8.545606099999999,488.392,0.0,0.0,0.0,0.0,0.0,0,0,0,0
19080000,0,47.397749499999996,8.5456059,488.454,0.0,0.0,0.0,0.0,0.0,0,0,0,0
19180000,0,47.3977493,8.5456057,488.512,0.0,0.0,0.0,0.0,0.0,0,0,0,0
19280000,0,47.3977492,8.545605499999999,488.576,0.0,0.0,0.0,0.0,0.0,0,0,0,0
19380000,0,47.3977491,8.5456054,488.64,0.0,0.0,0.0,0.0,0.0,0,0,0,0
19480000,0,47.397749,8.545605199999999,488.705,0.0,0.0,0.0,0.0,0.0,0,0,0,0
19580000,0,47.397748899999996,8.5456051,488.771,0.0,0.0,0.0,0.0,0.0,0,0,0,0
19680000,0,47.397748899999996,8.5456051,488.838,0.0,0.0,0.0,0.0,0.0,0,0,0,0
19780000,0,47.397748799999995,8.545605,488.906,0.0,0.0,0.0,0.0,0.0,0,0,0,0
19880000,0,47.397748799999995,8.545605,488.975,0.0,0.0,0.0,0.0,0.0,0,0,0,0
19980000,0,47.397748799999995,8.545605,489.044,0.0,0.0,0.0,0.0,0.0,0,0,0,0
20080000,0,47.397748899999996,8.545605,489.113,0.0,0.0,0.0,0.0,0.0,0,0,0,0
20180000,0,47.397748899999996,8.545605,489.183,0.0,0.0,0.0,0.0,0.0,0,0,0,0
20280000,0,47.397748899999996,8.5456051,489.249,0.0,0.0,0.0,0.0,0.0,0,0,0,0
20380000,0,47.397749,8.5456051,489.32,0.0,0.0,0.0,0.0,0.0,0,0,0,0
20480000,0,47.3977491,8.545605199999999,489.385,0.0,0.0,0.0,0.0,0.0,0,0,0,0
20580000,0,47.3977491,8.5456053,489.455,0.0,0.0,0.0,0.0,0.0,0,0,0,0
20680000,0,47.3977492,8.5456054,489.518,0.0,0.0,0.0,0.0,0.0,0,0,0,0
20780000,0,47.3977493,8.545605499999999,489.583,0.0,0.0,0.0,0.0,0.0,0,0,0,0
20880000,0,47.3977493,8.5456056,489.647,0.0,0.0,0.0,0.0,0.0,0,0,0,0
20980000,0,47.397749399999995,8.5456057,489.71,0.0,0.0,0.0,0.0,0.0,0,0,0,0
21080000,0,47.397749499999996,8.545605799999999,489.771,0.0,0.0,0.0,0.0,0.0,0,0,0,0
21180000,0,47.3977496,8.5456059,489.833,0.0,0.0,0.0,0.0,0.0,0,0,0,0
21280000,0,47.3977497,8.545606,489.891,0.0,0.0,0.0,0.0,0.0,0,0,0,0
21380000,0,47.3977498,8.5456062,489.946,0.0,0.0,0.0,0.0,0.0,0,0,0,0
21480000,0,47.3977498,8.5456063,489.996,0.0,0.0,0.0,0.0,0.0,0,0,0,0
21580000,0,47.3977499,8.5456064,490.035,0.0,0.0,0.0,0.0,0.0,0,0,0,0
21680000,0,47.397749999999995,8.5456065,490.064,0.0,0.0,0.0,0.0,0.0,0,0,0,0
21780000,0,47.397749999999995,8.5456066,490.085,0.0,0.0,0.0,0.0,0.0,0,0,0,0
21880000,0,47.397750099999996,8.5456067,490.101,0.0,0.0,0.0,0.0,0.0,0,0,0,0
21980000,0,47.3977502,8.5456068,490.118,0.0,0.0,0.0,0.0,0.0,0,0,0,0
22080000,0,47.3977502,8.5456069,490.135,0.0,0.0,0.0,0.0,0.0,0,0,0,0
22180000,0,47.3977503,8.545607,490.155,0.0,0.0,0.0,0.0,0.0,0,0,0,0
22280000,0,47.3977504,8.5456071,490.175,0.0,0.0,0.0,0.0,0.0,0,0,0,0
22380000,0,47.3977504,8.5456072,490.197,0.0,0.0,0.0,0.0,0.0,0,0,0,0
22480000,0,47.3977505,8.5456073,490.217,0.0,0.0,0.0,0.0,0.0,0,0,0,0
22580000,0,47.3977505,8.5456073,490.237,0.0,0.0,0.0,0.0,0.0,0,0,0,0
22680000,0,47.3977505,8.5456074,490.257,0.0,0.0,0.0,0.0,0.0,0,0,0,0
22780000,0,47.397750599999995,8.5456075,490.277,0.0,0.0,0.0,0.0,0.0,0,0,0,0
22880000,0,47.397750599999995,8.5456075,490.296,0.0,0.0,0.0,0.0,0.0,0,0,0,0
22980000,0,47.397750699999996,8.5456075,490.316,0.0,0.0,0.0,0.0,0.0,0,0,0,0
23080000,0,47.397750699999996,8.5456076,490.334,0.0,0.0,0.0,0.0,0.0,0,0,0,0
23180000,0,47.397750699999996,8.5456076,490.353,0.0,0.0,0.0,0.0,0.0,0,0,0,0
23280000,0,47.397750699999996,8.5456076,490.37,0.0,0.0,0.0,0.0,0.0,0,0,0,0
23380000,0,47.3977508,8.5456076,490.387,0.0,0.0,0.0,0.0,0.0,0,0,0,0
23480000,0,47.3977508,8.5456076,490.402,0.0,0.0,0.0,0.0,0.0,0,0,0,0
23580000,0,47.3977508,8.5456075,490.418,0.0,0.0,0.0,0.0,0.0,0,0,0,0
23680000,0,47.3977508,8.5456075,490.433,0.0,0.0,0.0,0.0,0.0,0,0,0,0
23780000,0,47.3977508,8.5456075,490.446,0.0,0.0,0.0,0.0,0.0,0,0,0,0
23880000,0,47.3977508,8.5456074,490.46,0.0,0.0,0.0,0.0,0.0,0,0,0,0
23980000,0,47.3977508,8.5456074,490.473,0.0,0.0,0.0,0.0,0.0,0,0,0,0
24080000,0,47.3977508,8.5456074,490.485,0.0,0.0,0.0,0.0,0.0,0,0,0,0
24180000,0,47.3977508,8.5456073,490.496,0.0,0.0,0.0,0.0,0.0,0,0,0,0
24280000,0,47.3977508,8.5456073,490.507,0.0,0.0,0.0,0.0,0.0,0,0,0,0
24380000,0,47.3977508,8.5456072,490.518,0.0,0.0,0.0,0.0,0.0,0,0,0,0
24480000,0,47.397750699999996,8.5456072,490.527,0.0,0.0,0.0,0.0,0.0,0,0,0,0
24580000,0,47.397750699999996,8.5456071,490.536,0.0,0.0,0.0,0.0,0.0,0,0,0,0
24680000,0,47.397750699999996,8.5456071,490.544,0.0,0.0,0.0,0.0,0.0,0,0,0,0
24780000,0,47.397750699999996,8.545607,490.551,0.0,0.0,0.0,0.0,0.0,0,0,0,0
24880000,0,47.397750699999996,8.545607,490.559,0.0,0.0,0.0,0.0,0.0,0,0,0,0
24980000,0,47.397750699999996,8.545607,490.565,0.0,0.0,0.0,0.0,0.0,0,0,0,0
25080000,0,47.397750699999996,8.5456069,490.572,0.0,0.0,0.0,0.0,0.0,0,0,0,0
25180000,0,47.397750699999996,8.5456069,490.579,0.0,0.0,0.0,0.0,0.0,0,0,0,0
25280000,0,47.397750599999995,8.5456069,490.585,0.0,0.0,0.0,0.0,0.0,0,0,0,0
25380000,0,47.397750599999995,8.5456069,490.592,0.0,0.0,0.0,0.0,0.0,0,0,0,0
25480000,0,47.397750599999995,8.5456069,490.598,0.0,0.0,0.0,0.0,0.0,0,0,0,0
25580000,0,47.397750599999995,8.5456069,490.604,0.0,0.0,0.0,0.0,0.0,0,0,0,0
25680000,0,47.397750599999995,8.5456069,490.61,0.0,0.0,0.0,0.0,0.0,0,0,0,0
25780000,0,47.397750599999995,8.5456069,490.616,0.0,0.0,0.0,0.0,0.0,0,0,0,0
25880000,0,47.397750599999995,8.545607,490.622,0.0,0.0,0.0,0.0,0.0,0,0,0,0
25980000,0,47.397750599999995,8.545607,490.627,0.0,0.0,0.0,0.0,0.0,0,0,0,0
26080000,0,47.397750599999995,8.545607,490.632,0.0,0.0,0.0,0.0,0.0,0,0,0,0
26180000,0,47.397750599999995,8.545607,490.637,0.0,0.0,0.0,0.0,0.0,0,0,0,0
26280000,0,47.397750599999995,8.5456071,490.641,0.0,0.0,0.0,0.0,0.0,0,0,0,0
26380000,0,47.397750599999995,8.5456071,490.646,0.0,0.0,0.0,0.0,0.0,0,0,0,0
26480000,0,47.397750599999995,8.5456071,490.65,0.0,0.0,0.0,0.0,0.0,0,0,0,0
26580000,0,47.397750599999995,8.5456071,490.653,0.0,0.0,0.0,0.0,0.0,0,0,0,0
26680000,0,47.397750599999995,8.5456072,490.657,0.0,0.0,0.0,0.0,0.0,0,0,0,0
26780000,0,47.397750599999995,8.5456072,490.66,0.0,0.0,0.0,0.0,0.0,0,0,0,0
26880000,0,47.397750699999996,8.5456073,490.663,0.0,0.0,0.0,0.0,0.0,0,0,0,0
26980000,0,47.397750699999996,8.5456073,490.666,0.0,0.0,0.0,0.0,0.0,0,0,0,0
27080000,0,47.397750699999996,8.5456073,490.668,0.0,0.0,0.0,0.0,0.0,0,0,0,0
27180000,0,47.397750699999996,8.5456074,490.671,0.0,0.0,0.0,0.0,0.0,0,0,0,0
27280000,0,47.397750699999996,8.5456074,490.674,0.0,0.0,0.0,0.0,0.0,0,0,0,0
27380000,0,47.397750699999996,8.5456074,490.676,0.0,0.0,0.0,0.0,0.0,0,0,0,0
27480000,0,47.397750699999996,8.5456075,490.679,0.0,0.0,0.0,0.0,0.0,0,0,0,0
27580000,0,47.397750699999996,8.5456075,490.682,0.0,0.0,0.0,0.0,0.0,0,0,0,0
27680000,0,47.397750699999996,8.5456075,490.685,0.0,0.0,0.0,0.0,0.0,0,0,0,0
27780000,0,47.397750699999996,8.5456075,490.689,0.0,0.0,0.0,0.0,0.0,0,0,0,0
27880000,0,47.3977508,8.5456076,490.692,0.0,0.0,0.0,0.0,0.0,0,0,0,0
27980000,0,47.3977508,8.5456076,490.696,0.0,0.0,0.0,0.0,0.0,0,0,0,0
28080000,0,47.3977508,8.5456076,490.699,0.0,0.0,0.0,0.0,0.0,0,0,0,0
28180000,0,47.3977508,8.5456076,490.703,0.0,0.0,0.0,0.0,0.0,0,0,0,0
28280000,0,47.3977508,8.5456076,490.707,0.0,0.0,0.0,0.0,0.0,0,0,0,0
28380000,0,47.3977508,8.5456076,490.71,0.0,0.0,0.0,0.0,0.0,0,0,0,0
28480000,0,47.3977509,8.5456076,490.714,0.0,0.0,0.0,0.0,0.0,0,0,0,0
28580000,0,47.3977509,8.5456076,490.717,0.0,0.0,0.0,0.0,0.0,0,0,0,0
28680000,0,47.3977509,8.5456076,490.72,0.0,0.0,0.0,0.0,0.0,0,0,0,0
28780000,0,47.3977509,8.5456076,490.724,0.0,0.0,0.0,0.0,0.0,0,0,0,0
28880000,0,47.3977509,8.5456076,490.726,0.0,0.0,0.0,0.0,0.0,0,0,0,0
28980000,0,47.3977509,8.5456076,490.729,0.0,0.0,0.0,0.0,0.0,0,0,0,0
29080000,0,47.397751,8.5456076,490.732,0.0,0.0,0.0,0.0,0.0,0,0,0,0
29180000,0,47.397751,8.5456076,490.735,0.0,0.0,0.0,0.0,0.0,0,0,0,0
29280000,0,47.397751,8.5456076,490.737,0.0,0.0,0.0,0.0,0.0,0,0,0,0
29380000,0,47.397751,8.5456076,490.738,0.0,0.0,0.0,0.0,0.0,0,0,0,0
29480000,0,47.397751,8.5456076,490.74,0.0,0.0,0.0,0.0,0.0,0,0,0,0
29580000,0,47.397751,8.5456076,490.742,0.0,0.0,0.0,0.0,0.0,0,0,0,0
29680000,0,47.397751,8.5456076,490.744,0.0,0.0,0.0,0.0,0.0,0,0,0,0
29780000,0,47.397751,8.5456076,490.746,0.0,0.0,0.0,0.0,0.0,0,0,0,0
29880000,0,47.397751,8.5456076,490.748,0.0,0.0,0.0,0.0,0.0,0,0,0,0
29980000,0,47.397751,8.5456076,490.751,0.0,0.0,0.0,0.0,0.0,0,0,0,0
30080000,0,47.397751,8.5456076,490.753,0.0,0.0,0.0,0.0,0.0,0,0,0,0
30180000,0,47.397751,8.5456076,490.756,0.0,0.0,0.0,0.0,0.0,0,0,0,0
30280000,0,47.397751,8.5456077,490.759,0.0,0.0,0.0,0.0,0.0,0,0,0,0
30380000,0,47.397751,8.5456077,490.761,0.0,0.0,0.0,0.0,0.0,0,0,0,0
30480000,0,47.397751,8.5456077,490.764,0.0,0.0,0.0,0.0,0.0,0,0,0,0
30580000,0,47.397751,8.5456077,490.766,0.0,0.0,0.0,0.0,0.0,0,0,0,0
30680000,0,47.397751,8.5456077,490.768,0.0,0.0,0.0,0.0,0.0,0,0,0,0
30780000,0,47.397751,8.545607799999999,490.771,0.0,0.0,0.0,0.0,0.0,0,0,0,0
30880000,0,47.397751,8.545607799999999,490.773,0.0,0.0,0.0,0.0,0.0,0,0,0,0
30980000,0,47.397751,8.545607799999999,490.774,0.0,0.0,0.0,0.0,0.0,0,0,0,0
31080000,0,47.397751,8.545607799999999,490.776,0.0,0.0,0.0,0.0,0.0,0,0,0,0
31180000,0,47.397751,8.545607799999999,490.778,0.0,0.0,0.0,0.0,0.0,0,0,0,0
31280000,0,47.397751,8.545607799999999,490.78,0.0,0.0,0.0,0.0,0.0,0,0,0,0
31380000,0,47.397751,8.545607799999999,490.782,0.0,0.0,0.0,0.0,0.0,0,0,0,0
31480000,0,47.397751,8.5456079,490.784,0.0,0.0,0.0,0.0,0.0,0,0,0,0
31580000,0,47.397751,8.5456079,490.786,0.0,0.0,0.0,0.0,0.0,0,0,0,0
31680000,0,47.397751,8.5456079,490.789,0.0,0.0,0.0,0.0,0.0,0,0,0,0
31780000,0,47.3977509,8.5456079,490.791,0.0,0.0,0.0,0.0,0.0,0,0,0,0
31880000,0,47.3977509,8.5456079,490.793,0.0,0.0,0.0,0.0,0.0,0,0,0,0
31980000,0,47.3977509,8.5456079,490.796,0.0,0.0,0.0,0.0,0.0,0,0,0,0
32080000,0,47.3977509,8.545608,490.798,0.0,0.0,0.0,0.0,0.0,0,0,0,0
32180000,0,47.3977509,8.545608,490.8,0.0,0.0,0.0,0.0,0.0,0,0,0,0
32280000,0,47.3977509,8.545608,490.802,0.0,0.0,0.0,0.0,0.0,0,0,0,0
32380000,0,47.3977508,8.545608,490.804,0.0,0.0,0.0,0.0,0.0,0,0,0,0
32480000,0,47.3977508,8.545608,490.805,0.0,0.0,0.0,0.0,0.0,0,0,0,0
32580000,0,47.3977508,8.545608,490.807,0.0,0.0,0.0,0.0,0.0,0,0,0,0
32680000,0,47.3977508,8.545608,490.808,0.0,0.0,0.0,0.0,0.0,0,0,0,0
32780000,0,47.3977508,8.545608,490.81,0.0,0.0,0.0,0.0,0.0,0,0,0,0
32880000,0,47.3977508,8.545608,490.811,0.0,0.0,0.0,0.0,0.0,0,0,0,0
32980000,0,47.397750699999996,8.545608099999999,490.812,0.0,0.0,0.0,0.0,0.0,0,0,0,0
33080000,0,47.397750699999996,8.545608099999999,490.813,0.0,0.0,0.0,0.0,0.0,0,0,0,0
33180000,0,47.397750699999996,8.545608099999999,490.814,0.0,0.0,0.0,0.0,0.0,0,0,0,0
33280000,0,47.397750699999996,8.545608099999999,490.814,0.0,0.0,0.0,0.0,0.0,0,0,0,0
33380000,0,47.397750599999995,8.545608099999999,490.814,0.0,0.0,0.0,0.0,0.0,0,0,0,0
33480000,0,47.397750599999995,8.545608099999999,490.813,0.0,0.0,0.0,0.0,0.0,0,0,0,0
33580000,0,47.397750599999995,8.545608099999999,490.812,0.0,0.0,0.0,0.0,0.0,0,0,0,0
33680000,0,47.397750599999995,8.545608099999999,490.811,0.0,0.0,0.0,0.0,0.0,0,0,0,0
33780000,0,47.3977505,8.545608099999999,490.81,0.0,0.0,0.0,0.0,0.0,0,0,0,0
33880000,0,47.3977505,8.545608099999999,490.809,0.0,0.0,0.0,0.0,0.0,0,0,0,0
33980000,0,47.3977505,8.545608099999999,490.808,0.0,0.0,0.0,0.0,0.0,0,0,0,0
34080000,0,47.3977505,8.545608099999999,490.807,0.0,0.0,0.0,0.0,0.0,0,0,0,0
34180000,0,47.3977505,8.545608099999999,490.806,0.0,0.0,0.0,0.0,0.0,0,0,0,0
34280000,0,47.3977504,8.545608099999999,490.805,0.0,0.0,0.0,0.0,0.0,0,0,0,0
34380000,0,47.3977504,8.545608099999999,490.804,0.0,0.0,0.0,0.0,0.0,0,0,0,0
34480000,0,47.3977504,8.545608099999999,490.803,0.0,0.0,0.0,0.0,0.0,0,0,0,0
34580000,0,47.3977504,8.545608099999999,490.801,0.0,0.0,0.0,0.0,0.0,0,0,0,0
34680000,0,47.3977504,8.545608099999999,490.799,0.0,0.0,0.0,0.0,0.0,0,0,0,0
34780000,0,47.3977503,8.545608099999999,490.798,0.0,0.0,0.0,0.0,0.0,0,0,0,0
34880000,0,47.3977503,8.545608099999999,490.796,0.0,0.0,0.0,0.0,0.0,0,0,0,0
34980000,0,47.3977503,8.545608099999999,490.793,0.0,0.0,0.0,0.0,0.0,0,0,0,0
35080000,0,47.3977503,8.5456082,490.791,0.0,0.0,0.0,0.0,0.0,0,0,0,0
35180000,0,47.3977503,8.5456082,490.788,0.0,0.0,0.0,0.0,0.0,0,0,0,0
35280000,0,47.3977502,8.5456082,490.786,0.0,0.0,0.0,0.0,0.0,0,0,0,0
35380000,0,47.3977502,8.5456082,490.783,0.0,0.0,0.0,0.0,0.0,0,0,0,0
35480000,0,47.3977502,8.5456082,490.781,0.0,0.0,0.0,0.0,0.0,0,0,0,0
35580000,0,47.3977502,8.5456082,490.779,0.0,0.0,0.0,0.0,0.0,0,0,0,0
35680000,0,47.3977502,8.5456082,490.776,0.0,0.0,0.0,0.0,0.0,0,0,0,0
35780000,0,47.3977502,8.5456083,490.774,0.0,0.0,0.0,0.0,0.0,0,0,0,0
35880000,0,47.397750099999996,8.5456083,490.772,0.0,0.0,0.0,0.0,0.0,0,0,0,0
35980000,0,47.397750099999996,8.5456083,490.77,0.0,0.0,0.0,0.0,0.0,0,0,0,0
36080000,0,47.397750099999996,8.5456083,490.768,0.0,0.0,0.0,0.0,0.0,0,0,0,0
36180000,0,47.397750099999996,8.5456083,490.765,0.0,0.0,0.0,0.0,0.0,0,0,0,0
36280000,0,47.397750099999996,8.545608399999999,490.764,0.0,0.0,0.0,0.0,0.0,0,0,0,0
36380000,0,47.397750099999996,8.545608399999999,490.762,0.0,0.0,0.0,0.0,0.0,0,0,0,0
36480000,0,47.397750099999996,8.545608399999999,490.76,0.0,0.0,0.0,0.0,0.0,0,0,0,0
36580000,0,47.397750099999996,8.545608399999999,490.758,0.0,0.0,0.0,0.0,0.0,0,0,0,0
36680000,0,47.397750099999996,8.545608399999999,490.756,0.0,0.0,0.0,0.0,0.0,0,0,0,0
36780000,0,47.397750099999996,8.545608399999999,490.754,0.0,0.0,0.0,0.0,0.0,0,0,0,0
36880000,0,47.397750099999996,8.545608399999999,490.751,0.0,0.0,0.0,0.0,0.0,0,0,0,0
36980000,0,47.397750099999996,8.545608399999999,490.749,0.0,0.0,0.0,0.0,0.0,0,0,0,0
37080000,0,47.397750099999996,8.545608399999999,490.747,0.0,0.0,0.0,0.0,0.0,0,0,0,0
37180000,0,47.397750099999996,8.545608399999999,490.745,0.0,0.0,0.0,0.0,0.0,0,0,0,0
37280000,0,47.397750099999996,8.545608399999999,490.744,0.0,0.0,0.0,0.0,0.0,0,0,0,0
37380000,0,47.397750099999996,8.545608399999999,490.742,0.0,0.0,0.0,0.0,0.0,0,0,0,0
37480000,0,47.397750099999996,8.545608399999999,490.741,0.0,0.0,0.0,0.0,0.0,0,0,0,0
37580000,0,47.3977502,8.5456083,490.74,0.0,0.0,0.0,0.0,0.0,0,0,0,0
37680000,0,47.3977502,8.5456083,490.738,0.0,0.0,0.0,0.0,0.0,0,0,0,0
37780000,0,47.3977502,8.5456083,490.737,0.0,0.0,0.0,0.0,0.0,0,0,0,0
37880000,0,47.3977502,8.5456083,490.736,0.0,0.0,0.0,0.0,0.0,0,0,0,0
37980000,0,47.3977502,8.5456083,490.736,0.0,0.0,0.0,0.0,0.0,0,0,0,0
38080000,0,47.3977502,8.5456083,490.735,0.0,0.0,0.0,0.0,0.0,0,0,0,0
38180000,0,47.3977503,8.5456083,490.735,0.0,0.0,0.0,0.0,0.0,0,0,0,0
38280000,0,47.3977503,8.5456082,490.732,0.0,0.0,0.0,0.0,0.0,0,0,0,0
38380000,0,47.3977503,8.5456082,490.72,0.0,0.0,0.0,0.0,0.0,0,0,0,0
38480000,0,47.3977503,8.5456082,490.694,0.0,0.0,0.0,0.0,0.0,0,0,0,0
38580000,0,47.3977503,8.5456082,490.649,0.0,0.0,0.0,0.0,0.0,0,0,0,0
38680000,0,47.3977504,8.5456082,490.584,0.0,0.0,0.0,0.0,0.0,0,0,0,0
38780000,0,47.3977504,8.5456082,490.509,0.0,0.0,0.0,0.0,0.0,0,0,0,0
38880000,0,47.3977504,8.5456082,490.433,0.0,0.0,0.0,0.0,0.0,0,0,0,0
38980000,0,47.3977504,8.5456082,490.356,0.0,0.0,0.0,0.0,0.0,0,0,0,0
39080000,0,47.3977504,8.5456083,490.283,0.0,0.0,0.0,0.0,0.0,0,0,0,0
39180000,0,47.3977504,8.5456083,490.219,0.0,0.0,0.0,0.0,0.0,0,0,0,0
39280000,0,47.3977504,8.5456083,490.155,0.0,0.0,0.0,0.0,0.0,0,0,0,0
39380000,0,47.3977504,8.5456083,490.087,0.0,0.0,0.0,0.0,0.0,0,0,0,0
39480000,0,47.3977504,8.5456083,490.021,0.0,0.0,0.0,0.0,0.0,0,0,0,0
39580000,0,47.3977504,8.5456083,489.955,0.0,0.0,0.0,0.0,0.0,0,0,0,0
39680000,0,47.3977504,8.545608399999999,489.891,0.0,0.0,0.0,0.0,0.0,0,0,0,0
39780000,0,47.3977504,8.545608399999999,489.823,0.0,0.0,0.0,0.0,0.0,0,0,0,0
39880000,0,47.3977504,8.545608399999999,489.752,0.0,0.0,0.0,0.0,0.0,0,0,0,0
39980000,0,47.3977504,8.545608399999999,489.687,0.0,0.0,0.0,0.0,0.0,0,0,0,0
40080000,0,47.3977504,8.545608399999999,489.616,0.0,0.0,0.0,0.0,0.0,0,0,0,0
40180000,0,47.3977504,8.545608399999999,489.548,0.0,0.0,0.0,0.0,0.0,0,0,0,0
40280000,0,47.3977504,8.545608399999999,489.482,0.0,0.0,0.0,0.0,0.0,0,0,0,0
40380000,0,47.3977504,8.545608399999999,489.414,0.0,0.0,0.0,0.0,0.0,0,0,0,0
40480000,0,47.3977504,8.545608399999999,489.345,0.0,0.0,0.0,0.0,0.0,0,0,0,0
40580000,0,47.3977504,8.545608399999999,489.277,0.0,0.0,0.0,0.0,0.0,0,0,0,0
40680000,0,47.3977504,8.545608399999999,489.208,0.0,0.0,0.0,0.0,0.0,0,0,0,0
40780000,0,47.3977504,8.545608399999999,489.138,0.0,0.0,0.0,0.0,0.0,0,0,0,0
40880000,0,47.3977504,8.545608399999999,489.072,0.0,0.0,0.0,0.0,0.0,0,0,0,0
40980000,0,47.3977504,8.545608399999999,489.004,0.0,0.0,0.0,0.0,0.0,0,0,0,0
41080000,0,47.3977504,8.545608399999999,488.934,0.0,0.0,0.0,0.0,0.0,0,0,0,0
41180000,0,47.3977505,8.545608399999999,488.866,0.0,0.0,0.0,0.0,0.0,0,0,0,0
41280000,0,47.3977505,8.5456083,488.798,0.0,0.0,0.0,0.0,0.0,0,0,0,0
41380000,0,47.3977505,8.5456083,488.73,0.0,0.0,0.0,0.0,0.0,0,0,0,0
41480000,0,47.3977505,8.5456083,488.662,0.0,0.0,0.0,0.0,0.0,0,0,0,0
41580000,0,47.3977505,8.5456083,488.595,0.0,0.0,0.0,0.0,0.0,0,0,0,0
41680000,0,47.3977505,8.5456083,488.527,0.0,0.0,0.0,0.0,0.0,0,0,0,0
41780000,0,47.3977505,8.5456083,488.459,0.0,0.0,0.0,0.0,0.0,0,0,0,0
41880000,0,47.3977505,8.5456083,488.392,0.0,0.0,0.0,0.0,0.0,0,0,0,0
41980000,0,47.3977505,8.5456083,488.325,0.0,0.0,0.0,0.0,0.0,0,0,0,0
42080000,0,47.3977505,8.5456083,488.257,0.0,0.0,0.0,0.0,0.0,0,0,0,0
42180000,0,47.397750599999995,8.5456083,488.193,0.0,0.0,0.0,0.0,0.0,0,0,0,0
42280000,0,47.397750599999995,8.5456083,488.123,0.0,0.0,0.0,0.0,0.0,0,0,0,0
42380000,0,47.397750599999995,8.5456083,488.107,0.0,0.0,0.0,0.0,0.0,0,0,0,0
42480000,0,47.397750599999995,8.5456083,488.144,0.0,0.0,0.0,0.0,0.0,0,0,0,0
42580000,0,47.397750599999995,8.5456083,488.201,0.0,0.0,0.0,0.0,0.0,0,0,0,0
42680000,0,47.397750599999995,8.5456083,488.27,0.0,0.0,0.0,0.0,0.0,0,0,0,0
42780000,0,47.397750599999995,8.5456083,488.332,0.0,0.0,0.0,0.0,0.0,0,0,0,0
42880000,0,47.397750699999996,8.5456083,488.392,0.0,0.0,0.0,0.0,0.0,0,0,0,0
42980000,0,47.397750699999996,8.5456083,488.441,0.0,0.0,0.0,0.0,0.0,0,0,0,0
43080000,0,47.397750699999996,8.5456083,488.488,0.0,0.0,0.0,0.0,0.0,0,0,0,0
43180000,0,47.397750699999996,8.5456083,488.527,0.0,0.0,0.0,0.0,0.0,0,0,0,0
43280000,0,47.3977508,8.5456083,488.556,0.0,0.0,0.0,0.0,0.0,0,0,0,0
43380000,0,47.3977508,8.5456083,488.578,0.0,0.0,0.0,0.0,0.0,0,0,0,0
43480000,0,47.3977508,8.5456083,488.596,0.0,0.0,0.0,0.0,0.0,0,0,0,0
43580000,0,47.3977508,8.5456083,488.606,0.0,0.0,0.0,0.0,0.0,0,0,0,0
43680000,0,47.3977509,8.5456083,488.608,0.0,0.0,0.0,0.0,0.0,0,0,0,0
43780000,0,47.3977509,8.5456083,488.604,0.0,0.0,0.0,0.0,0.0,0,0,0,0
43880000,0,47.3977509,8.5456083,488.595,0.0,0.0,0.0,0.0,0.0,0,0,0,0
43980000,0,47.3977509,8.5456083,488.58,0.0,0.0,0.0,0.0,0.0,0,0,0,0
44080000,0,47.397751,8.5456083,488.559,0.0,0.0,0.0,0.0,0.0,0,0,0,0
44180000,0,47.397751,8.5456083,488.531,0.0,0.0,0.0,0.0,0.0,0,0,0,0
44280000,0,47.397751,8.5456083,488.501,0.0,0.0,0.0,0.0,0.0,0,0,0,0
44380000,0,47.397751,8.5456083,488.468,0.0,0.0,0.0,0.0,0.0,0,0,0,0
44480000,0,47.397751,8.5456083,488.43,0.0,0.0,0.0,0.0,0.0,0,0,0,0
44580000,0,47.397751,8.5456083,488.387,0.0,0.0,0.0,0.0,0.0,0,0,0,0
44680000,0,47.397751,8.5456083,488.344,0.0,0.0,0.0,0.0,0.0,0,0,0,0
44780000,0,47.397751,8.5456083,488.297,0.0,0.0,0.0,0.0,0.0,0,0,0,0
44880000,0,47.397751,8.5456083,488.245,0.0,0.0,0.0,0.0,0.0,0,0,0,0
44980000,0,47.397751,8.5456083,488.189,0.0,0.0,0.0,0.0,0.0,0,0,0,0
45080000,0,47.3977509,8.5456083,488.133,0.0,0.0,0.0,0.0,0.0,0,0,0,0
45180000,0,47.3977509,8.5456083,488.104,0.0,0.0,0.0,0.0,0.0,0,0,0,0
45280000,0,47.3977509,8.5456083,488.104,0.0,0.0,0.0,0.0,0.0,0,0,0,0
45380000,0,47.3977509,8.5456083,488.104,0.0,0.0,0.0,0.0,0.0,0,0,0,0
45480000,0,47.3977509,8.5456083,488.104,0.0,0.0,0.0,0.0,0.0,0,0,0,0
45580000,0,47.3977509,8.5456083,488.104,0.0,0.0,0.0,0.0,0.0,0,0,0,0
45680000,0,47.3977509,8.5456083,488.104,0.0,0.0,0.0,0.0,0.0,0,0,0,0
45780000,0,47.3977509,8.5456083,488.104,0.0,0.0,0.0,0.0,0.0,0,0,0,0
45880000,0,47.3977509,8.5456083,488.104,0.0,0.0,0.0,0.0,0.0,0,0,0,0
45980000,0,47.3977509,8.5456083,488.104,0.0,0.0,0.0,0.0,0.0,0,0,0,0
46080000,0,47.3977509,8.5456083,488.104,0.0,0.0,0.0,0.0,0.0,0,0,0,0
46180000,0,47.3977509,8.5456083,488.104,0.0,0.0,0.0,0.0,0.0,0,0,0,0
46280000,0,47.3977509,8.5456083,488.104,0.0,0.0,0.0,0.0,0.0,0,0,0,0
46380000,0,47.3977509,8.5456083,488.104,0.0,0.0,0.0,0.0,0.0,0,0,0,0
46480000,0,47.3977509,8.5456083,488.104,0.0,0.0,0.0,0.0,0.0,0,0,0,0
46580000,0,47.3977509,8.5456083,488.104,0.0,0.0,0.0,0.0,0.0,0,0,0,0
46680000,0,47.3977509,8.5456083,488.104,0.0,0.0,0.0,0.0,0.0,0,0,0,0
46780000,0,47.3977509,8.5456083,488.104,0.0,0.0,0.0,0.0,0.0,0,0,0,0
46880000,0,47.3977509,8.5456083,488.104,0.0,0.0,0.0,0.0,0.0,0,0,0,0
46980000,0,47.3977509,8.5456083,488.104,0.0,0.0,0.0,0.0,0.0,0,0,0,0
47080000,0,47.3977509,8.5456083,488.104,0.0,0.0,0.0,0.0,0.0,0,0,0,0
47180000,0,47.3977509,8.5456083,488.104,0.0,0.0,0.0,0.0,0.0,0,0,0,0
47280000,0,47.3977509,8.5456083,488.104,0.0,0.0,0.0,0.0,0.0,0,0,0,0
47380000,0,47.3977509,8.5456083,488.104,0.0,0.0,0.0,0.0,0.0,0,0,0,0
47480000,0,47.3977509,8.5456083,488.104,0.0,0.0,0.0,0.0,0.0,0,0,0,0
47580000,0,47.3977509,8.5456083,488.104,0.0,0.0,0.0,0.0,0.0,0,0,0,0
47680000,0,47.3977509,8.5456083,488.104,0.0,0.0,0.0,0.0,0.0,0,0,0,0
47780000,0,47.3977509,8.5456083,488.104,0.0,0.0,0.0,0.0,0.0,0,0,0,0
47880000,0,47.3977509,8.5456083,488.104,0.0,0.0,0.0,0.0,0.0,0,0,0,0
47980000,0,47.3977509,8.5456083,488.104,0.0,0.0,0.0,0.0,0.0,0,0,0,0
48080000,0,47.3977509,8.5456083,488.104,0.0,0.0,0.0,0.0,0.0,0,0,0,0
48180000,0,47.3977509,8.5456083,488.104,0.0,0.0,0.0,0.0,0.0,0,0,0,0
48280000,0,47.3977509,8.5456083,488.104,0.0,0.0,0.0,0.0,0.0,0,0,0,0
48380000,0,47.3977509,8.5456083,488.104,0.0,0.0,0.0,0.0,0.0,0,0,0,0
48480000,0,47.3977509,8.5456083,488.104,0.0,0.0,0.0,0.0,0.0,0,0,0,0
48580000,0,47.3977509,8.5456083,488.104,0.0,0.0,0.0,0.0,0.0,0,0,0,0
48680000,0,47.3977509,8.5456083,488.104,0.0,0.0,0.0,0.0,0.0,0,0,0,0
48780000,0,47.3977509,8.5456083,488.104,0.0,0.0,0.0,0.0,0.0,0,0,0,0
48880000,0,47.3977509,8.5456083,488.104,0.0,0.0,0.0,0.0,0.0,0,0,0,0
48980000,0,47.3977509,8.5456083,488.104,0.0,0.0,0.0,0.0,0.0,0,0,0,0
49080000,0,47.3977509,8.5456083,488.104,0.0,0.0,0.0,0.0,0.0,0,0,0,0
49180000,0,47.3977509,8.5456083,488.104,0.0,0.0,0.0,0.0,0.0,0,0,0,0
49280000,0,47.3977509,8.5456083,488.104,0.0,0.0,0.0,0.0,0.0,0,0,0,0
49380000,0,47.3977509,8.5456083,488.104,0.0,0.0,0.0,0.0,0.0,0,0,0,0
49480000,0,47.3977509,8.5456083,488.104,0.0,0.0,0.0,0.0,0.0,0,0,0,0
49580000,0,47.3977509,8.5456083,488.104,0.0,0.0,0.0,0.0,0.0,0,0,0,0
49680000,0,47.3977509,8.5456083,488.104,0.0,0.0,0.0,0.0,0.0,0,0,0,0
49780000,0,47.3977509,8.5456083,488.104,0.0,0.0,0.0,0.0,0.0,0,0,0,0
49880000,0,47.3977509,8.5456083,488.104,0.0,0.0,0.0,0.0,0.0,0,0,0,0
49980000,0,47.3977509,8.5456083,488.104,0.0,0.0,0.0,0.0,0.0,0,0,0,0
50080000,0,47.3977509,8.5456083,488.104,0.0,0.0,0.0,0.0,0.0,0,0,0,0
50180000,0,47.3977509,8.5456083,488.104,0.0,0.0,0.0,0.0,0.0,0,0,0,0
50280000,0,47.3977509,8.5456083,488.104,0.0,0.0,0.0,0.0,0.0,0,0,0,0
50380000,0,47.3977509,8.5456083,488.104,0.0,0.0,0.0,0.0,0.0,0,0,0,0
50480000,0,47.3977509,8.5456083,488.104,0.0,0.0,0.0,0.0,0.0,0,0,0,0
50580000,0,47.3977509,8.5456083,488.104,0.0,0.0,0.0,0.0,0.0,0,0,0,0
50680000,0,47.3977509,8.5456083,488.104,0.0,0.0,0.0,0.0,0.0,0,0,0,0
50780000,0,47.3977509,8.5456083,488.104,0.0,0.0,0.0,0.0,0.0,0,0,0,0
50880000,0,47.3977509,8.5456083,488.104,0.0,0.0,0.0,0.0,0.0,0,0,0,0
50980000,0,47.3977509,8.5456083,488.104,0.0,0.0,0.0,0.0,0.0,0,0,0,0
51080000,0,47.3977509,8.5456083,488.104,0.0,0.0,0.0,0.0,0.0,0,0,0,0
51180000,0,47.3977509,8.5456083,488.104,0.0,0.0,0.0,0.0,0.0,0,0,0,0
51280000,0,47.3977509,8.5456083,488.104,0.0,0.0,0.0,0.0,0.0,0,0,0,0
51380000,0,47.3977509,8.5456083,488.104,0.0,0.0,0.0,0.0,0.0,0,0,0,0
51480000,0,47.3977509,8.5456083,488.104,0.0,0.0,0.0,0.0,0.0,0,0,0,0
51580000,0,47.3977509,8.5456083,488.104,0.0,0.0,0.0,0.0,0.0,0,0,0,0
51680000,0,47.3977509,8.5456083,488.104,0.0,0.0,0.0,0.0,0.0,0,0,0,0
51780000,0,47.3977509,8.5456083,488.104,0.0,0.0,0.0,0.0,0.0,0,0,0,0
51880000,0,47.3977509,8.5456083,488.104,0.0,0.0,0.0,0.0,0.0,0,0,0,0
51980000,0,47.3977509,8.5456083,488.104,0.0,0.0,0.0,0.0,0.0,0,0,0,0
52080000,0,47.3977509,8.5456083,488.104,0.0,0.0,0.0,0.0,0.0,0,0,0,0
52180000,0,47.3977509,8.5456083,488.104,0.0,0.0,0.0,0.0,0.0,0,0,0,0
52280000,0,47.3977509,8.5456083,488.104,0.0,0.0,0.0,0.0,0.0,0,0,0,0
52380000,0,47.3977509,8.5456083,488.104,0.0,0.0,0.0,0.0,0.0,0,0,0,0
52480000,0,47.3977509,8.5456083,488.104,0.0,0.0,0.0,0.0,0.0,0,0,0,0
52580000,0,47.3977509,8.5456083,488.104,0.0,0.0,0.0,0.0,0.0,0,0,0,0
52680000,0,47.3977509,8.5456083,488.104,0.0,0.0,0.0,0.0,0.0,0,0,0,0
52780000,0,47.3977509,8.5456083,488.104,0.0,0.0,0.0,0.0,0.0,0,0,0,0
52880000,0,47.3977509,8.5456083,488.104,0.0,0.0,0.0,0.0,0.0,0,0,0,0
52980000,0,47.3977509,8.5456083,488.104,0.0,0.0,0.0,0.0,0.0,0,0,0,0
53080000,0,47.3977509,8.5456083,488.104,0.0,0.0,0.0,0.0,0.0,0,0,0,0
53180000,0,47.3977509,8.5456083,488.104,0.0,0.0,0.0,0.0,0.0,0,0,0,0
