timestamp,timestamp_sample,q[0],q[1],q[2],q[3],delta_q_reset[0],delta_q_reset[1],delta_q_reset[2],delta_q_reset[3],quat_reset_counter
3408000,3408000,0.69219714,0.0014595293,-0.015304791,0.7215447,1.0,0.0,0.0,0.0,0
3412000,3412000,0.6921976,0.0014558332,-0.015291326,0.7215446,1.0,0.0,0.0,0.0,0
3416000,3416000,0.69220084,0.0014488649,-0.0152769415,0.7215418,1.0,0.0,0.0,0.0,0
3420000,3420000,0.692204,0.0014438652,-0.01526666,0.721539,1.0,0.0,0.0,0.0,0
3424000,3424000,0.69069344,0.0014742734,-0.015256787,0.7229853,0.99999785,2.7939677e-09,-5.820766e-10,0.0020996332,1
3428000,3428000,0.6906985,0.0014737678,-0.015251081,0.7229805,0.99999785,2.7939677e-09,-5.820766e-10,0.0020996332,1
3432000,3432000,0.690704,0.0014721875,-0.015244403,0.7229754,0.99999785,2.7939677e-09,-5.820766e-10,0.0020996332,1
3436000,3436000,0.69070816,0.0014681957,-0.015232509,0.72297174,0.99999785,2.7939677e-09,-5.820766e-10,0.0020996332,1
3440000,3440000,0.6907112,0.0014607797,-0.015217425,0.7229692,0.99999785,2.7939677e-09,-5.820766e-10,0.0020996332,1
3444000,3444000,0.6907161,0.0014538235,-0.01520421,0.7229647,0.99999785,2.7939677e-09,-5.820766e-10,0.0020996332,1
3452000,3452000,0.690729,0.0014454173,-0.015180134,0.72295296,0.99999785,2.7939677e-09,-5.820766e-10,0.0020996332,1
3456000,3456000,0.6907327,0.0014415776,-0.015167812,0.7229496,0.99999785,2.7939677e-09,-5.820766e-10,0.0020996332,1
3460000,3460000,0.6907357,0.0014385093,-0.015156983,0.72294706,0.99999785,2.7939677e-09,-5.820766e-10,0.0020996332,1
3464000,3464000,0.69073933,0.0014383009,-0.015153333,0.72294366,0.99999785,2.7939677e-09,-5.820766e-10,0.0020996332,1
3468000,3468000,0.6907437,0.0014393325,-0.015153796,0.7229395,0.99999785,2.7939677e-09,-5.820766e-10,0.0020996332,1
3472000,3472000,0.69074965,0.0014370045,-0.01515253,0.7229338,0.99999785,2.7939677e-09,-5.820766e-10,0.0020996332,1
3476000,3476000,0.690756,0.0014350183,-0.015149373,0.7229278,0.99999785,2.7939677e-09,-5.820766e-10,0.0020996332,1
3480000,3480000,0.6907624,0.0014345024,-0.015143238,0.72292185,0.99999785,2.7939677e-09,-5.820766e-10,0.0020996332,1
3488000,3488000,0.69077444,0.0014290138,-0.015133894,0.7229105,0.99999785,2.7939677e-09,-5.820766e-10,0.0020996332,1
3492000,3492000,0.6907777,0.0014266196,-0.015130253,0.7229074,0.99999785,2.7939677e-09,-5.820766e-10,0.0020996332,1
3496000,3496000,0.6907777,0.0014220817,-0.015123436,0.72290766,0.99999785,2.7939677e-09,-5.820766e-10,0.0020996332,1
3500000,3500000,0.69077957,0.0014179691,-0.015116982,0.722906,0.99999785,2.7939677e-09,-5.820766e-10,0.0020996332,1
3508000,3508000,0.69077784,0.0014167918,-0.015103887,0.7229079,0.99999785,2.7939677e-09,-5.820766e-10,0.0020996332,1
3516000,3516000,0.69076943,0.0014072909,-0.015094331,0.7229162,0.99999785,2.7939677e-09,-5.820766e-10,0.0020996332,1
3520000,3520000,0.69076407,0.0014073435,-0.015094309,0.7229213,0.99999785,2.7939677e-09,-5.820766e-10,0.0020996332,1
3524000,3524000,0.69076186,0.0014084788,-0.015089363,0.7229235,0.99999785,2.7939677e-09,-5.820766e-10,0.0020996332,1
3528000,3528000,0.69076353,0.001410133,-0.015086808,0.72292197,0.99999785,2.7939677e-09,-5.820766e-10,0.0020996332,1
3536000,3536000,0.69076604,0.00141055,-0.015071366,0.72291994,0.99999785,2.7939677e-09,-5.820766e-10,0.0020996332,1
3540000,3540000,0.6907652,0.0014108892,-0.015062964,0.72292095,0.99999785,2.7939677e-09,-5.820766e-10,0.0020996332,1
3544000,3544000,0.69076407,0.0014098653,-0.015061136,0.7229221,0.99999785,2.7939677e-09,-5.820766e-10,0.0020996332,1
3552000,3552000,0.69075376,0.0014054189,-0.015058813,0.7229319,0.99999785,2.7939677e-09,-5.820766e-10,0.0020996332,1
3556000,3556000,0.69074965,0.0014012791,-0.015055314,0.7229359,0.99999785,2.7939677e-09,-5.820766e-10,0.0020996332,1
3560000,3560000,0.690746,0.0013993987,-0.015051517,0.72293943,0.99999785,2.7939677e-09,-5.820766e-10,0.0020996332,1
3564000,3564000,0.6907412,0.0014009426,-0.01505028,0.7229441,0.99999785,2.7939677e-09,-5.820766e-10,0.0020996332,1
3568000,3568000,0.6907379,0.0014044206,-0.015050634,0.7229473,0.99999785,2.7939677e-09,-5.820766e-10,0.0020996332,1
3572000,3572000,0.6907358,0.0014056293,-0.015049529,0.7229493,0.99999785,2.7939677e-09,-5.820766e-10,0.0020996332,1
3580000,3580000,0.69072825,0.0014064163,-0.015056654,0.72295636,0.99999785,2.7939677e-09,-5.820766e-10,0.0020996332,1
3588000,3588000,0.6907247,0.0014254318,-0.015071712,0.7229594,0.99999785,2.7939677e-09,-5.820766e-10,0.0020996332,1
3592000,3592000,0.6907241,0.0014331595,-0.0150779495,0.7229598,0.99999785,2.7939677e-09,-5.820766e-10,0.0020996332,1
3596000,3596000,0.6907231,0.001438603,-0.015083486,0.7229606,0.99999785,2.7939677e-09,-5.820766e-10,0.0020996332,1
3604000,3604000,0.6907195,0.0014376384,-0.015097353,0.72296375,0.99999785,2.7939677e-09,-5.820766e-10,0.0020996332,1
3612000,3612000,0.6907125,0.0014381825,-0.015108038,0.7229702,0.99999785,2.7939677e-09,-5.820766e-10,0.0020996332,1
3616000,3616000,0.69071144,0.0014373874,-0.0151119325,0.7229712,0.99999785,2.7939677e-09,-5.820766e-10,0.0020996332,1
3620000,3620000,0.69071144,0.0014400304,-0.015116875,0.722971,0.99999785,2.7939677e-09,-5.820766e-10,0.0020996332,1
3628000,3628000,0.6907088,0.0014565944,-0.015125738,0.72297335,0.99999785,2.7939677e-09,-5.820766e-10,0.0020996332,1
3632000,3632000,0.6907078,0.0014608084,-0.015132847,0.7229741,0.99999785,2.7939677e-09,-5.820766e-10,0.0020996332,1
3636000,3636000,0.69070566,0.0014683437,-0.015137997,0.7229761,0.99999785,2.7939677e-09,-5.820766e-10,0.0020996332,1
3640000,3640000,0.6906935,0.001477738,-0.015143555,0.7229876,0.99999785,2.7939677e-09,-5.820766e-10,0.0020996332,1
3644000,3644000,0.6906817,0.0014831453,-0.015155606,0.7229986,0.99999785,2.7939677e-09,-5.820766e-10,0.0020996332,1
3648000,3648000,0.6906707,0.0014906483,-0.015169161,0.7230088,0.99999785,2.7939677e-09,-5.820766e-10,0.0020996332,1
3652000,3652000,0.6906587,0.0014980064,-0.015177448,0.72302014,0.99999785,2.7939677e-09,-5.820766e-10,0.0020996332,1
3656000,3656000,0.69064516,0.0015039612,-0.015185394,0.7230328,0.99999785,2.7939677e-09,-5.820766e-10,0.0020996332,1
3660000,3660000,0.69063246,0.0015132949,-0.015192133,0.72304475,0.99999785,2.7939677e-09,-5.820766e-10,0.0020996332,1
3664000,3664000,0.69062144,0.0015250017,-0.015195392,0.72305524,0.99999785,2.7939677e-09,-5.820766e-10,0.0020996332,1
3668000,3668000,0.69061077,0.0015368032,-0.015202416,0.7230653,0.99999785,2.7939677e-09,-5.820766e-10,0.0020996332,1
3672000,3672000,0.69060016,0.0015477046,-0.015213155,0.7230752,0.99999785,2.7939677e-09,-5.820766e-10,0.0020996332,1
3676000,3676000,0.6905919,0.001557114,-0.015222416,0.72308284,0.99999785,2.7939677e-09,-5.820766e-10,0.0020996332,1
3680000,3680000,0.6905857,0.0015643891,-0.015229732,0.72308856,0.99999785,2.7939677e-09,-5.820766e-10,0.0020996332,1
3684000,3684000,0.69057685,0.0015711877,-0.015235179,0.72309685,0.99999785,2.7939677e-09,-5.820766e-10,0.0020996332,1
3688000,3688000,0.69056463,0.001580328,-0.015242318,0.72310835,0.99999785,2.7939677e-09,-5.820766e-10,0.0020996332,1
3696000,3696000,0.690543,0.001593548,-0.015257679,0.7231287,0.99999785,2.7939677e-09,-5.820766e-10,0.0020996332,1
3700000,3700000,0.6905348,0.0015999628,-0.015268105,0.7231363,0.99999785,2.7939677e-09,-5.820766e-10,0.0020996332,1
3704000,3704000,0.6905279,0.0016056912,-0.015277987,0.7231426,0.99999785,2.7939677e-09,-5.820766e-10,0.0020996332,1
3708000,3708000,0.6905196,0.001610301,-0.015289781,0.7231504,0.99999785,2.7939677e-09,-5.820766e-10,0.0020996332,1
3712000,3712000,0.69050896,0.0016180029,-0.01530242,0.7231602,0.99999785,2.7939677e-09,-5.820766e-10,0.0020996332,1
3716000,3716000,0.6904975,0.0016279125,-0.015313501,0.7231708,0.99999785,2.7939677e-09,-5.820766e-10,0.0020996332,1
3720000,3720000,0.690487,0.0016375894,-0.015325852,0.7231806,0.99999785,2.7939677e-09,-5.820766e-10,0.0020996332,1
3724000,3724000,0.6904777,0.0016450145,-0.015337499,0.72318923,0.99999785,2.7939677e-09,-5.820766e-10,0.0020996332,1
3728000,3728000,0.69046867,0.0016482947,-0.015345965,0.7231977,0.99999785,2.7939677e-09,-5.820766e-10,0.0020996332,1
3732000,3732000,0.6904593,0.0016492382,-0.0153514715,0.7232065,0.99999785,2.7939677e-09,-5.820766e-10,0.0020996332,1
3736000,3736000,0.6904516,0.0016498779,-0.015355943,0.72321373,0.99999785,2.7939677e-09,-5.820766e-10,0.0020996332,1
3740000,3740000,0.69044465,0.0016531955,-0.015361481,0.7232202,0.99999785,2.7939677e-09,-5.820766e-10,0.0020996332,1
3744000,3744000,0.69043857,0.0016600199,-0.015368892,0.72322583,0.99999785,2.7939677e-09,-5.820766e-10,0.0020996332,1
3748000,3748000,0.6904325,0.0016664764,-0.015376688,0.72323143,0.99999785,2.7939677e-09,-5.820766e-10,0.0020996332,1
3752000,3752000,0.69042665,0.0016692529,-0.015386131,0.72323686,0.99999785,2.7939677e-09,-5.820766e-10,0.0020996332,1
3756000,3756000,0.6904216,0.0016705923,-0.015397865,0.72324145,0.99999785,2.7939677e-09,-5.820766e-10,0.0020996332,1
3760000,3760000,0.69041854,0.0016749745,-0.015407305,0.72324413,0.99999785,2.7939677e-09,-5.820766e-10,0.0020996332,1
3764000,3764000,0.69041556,0.0016800746,-0.015415221,0.7232468,0.99999785,2.7939677e-09,-5.820766e-10,0.0020996332,1
3772000,3772000,0.69040793,0.0016880456,-0.015431162,0.7232537,0.99999785,2.7939677e-09,-5.820766e-10,0.0020996332,1
3780000,3780000,0.69037837,0.0016933334,-0.015449398,0.7232816,0.99999785,2.7939677e-09,-5.820766e-10,0.0020996332,1
3784000,3784000,0.69036776,0.0016900803,-0.015456911,0.7232916,0.99999785,2.7939677e-09,-5.820766e-10,0.0020996332,1
3788000,3788000,0.69035715,0.00169131,-0.015462813,0.7233016,0.99999785,2.7939677e-09,-5.820766e-10,0.0020996332,1
3792000,3792000,0.6903445,0.0016970496,-0.015470831,0.7233134,0.99999785,2.7939677e-09,-5.820766e-10,0.0020996332,1
3796000,3796000,0.6903292,0.0016998252,-0.0154834455,0.7233277,0.99999785,2.7939677e-09,-5.820766e-10,0.0020996332,1
3800000,3800000,0.6903136,0.0016976474,-0.015494998,0.72334236,0.99999785,2.7939677e-09,-5.820766e-10,0.0020996332,1
3804000,3804000,0.6903023,0.0016958051,-0.015500885,0.7233531,0.99999785,2.7939677e-09,-5.820766e-10,0.0020996332,1
3808000,3808000,0.6902933,0.0016988324,-0.015504712,0.7233615,0.99999785,2.7939677e-09,-5.820766e-10,0.0020996332,1
3816000,3816000,0.6902787,0.0017118161,-0.015519397,0.72337514,0.99999785,2.7939677e-09,-5.820766e-10,0.0020996332,1
3824000,3824000,0.6902613,0.0016966388,-0.015530562,0.72339153,0.99999785,2.7939677e-09,-5.820766e-10,0.0020996332,1
3828000,3828000,0.6902513,0.0016933824,-0.015530355,0.7234011,0.99999785,2.7939677e-09,-5.820766e-10,0.0020996332,1
3832000,3832000,0.6902392,0.0016967923,-0.015529161,0.7234127,0.99999785,2.7939677e-09,-5.820766e-10,0.0020996332,1
3836000,3836000,0.690227,0.0017007112,-0.015533606,0.7234242,0.99999785,2.7939677e-09,-5.820766e-10,0.0020996332,1
3840000,3840000,0.69022274,0.0017004611,-0.015542226,0.72342813,0.99999785,2.7939677e-09,-5.820766e-10,0.0020996332,1
3844000,3844000,0.690219,0.0016975042,-0.015547519,0.7234316,0.99999785,2.7939677e-09,-5.820766e-10,0.0020996332,1
3848000,3848000,0.6902158,0.001697833,-0.01555001,0.72343457,0.99999785,2.7939677e-09,-5.820766e-10,0.0020996332,1
3852000,3852000,0.6902107,0.0016988906,-0.015553239,0.72343934,0.99999785,2.7939677e-09,-5.820766e-10,0.0020996332,1
3856000,3856000,0.6902025,0.0016953227,-0.01555725,0.72344714,0.99999785,2.7939677e-09,-5.820766e-10,0.0020996332,1
3860000,3860000,0.690195,0.001690633,-0.01556091,0.7234542,0.99999785,2.7939677e-09,-5.820766e-10,0.0020996332,1
3864000,3864000,0.6901913,0.00168819,-0.015563671,0.72345763,0.99999785,2.7939677e-09,-5.820766e-10,0.0020996332,1
3868000,3868000,0.6901892,0.0016876715,-0.01556676,0.72345966,0.99999785,2.7939677e-09,-5.820766e-10,0.0020996332,1
3876000,3876000,0.6901843,0.0016972853,-0.015579356,0.72346395,0.99999785,2.7939677e-09,-5.820766e-10,0.0020996332,1
3884000,3884000,0.69017655,0.001707089,-0.015588457,0.72347116,0.99999785,2.7939677e-09,-5.820766e-10,0.0020996332,1
3892000,3892000,0.69016635,0.0016993892,-0.015594105,0.72348076,0.99999785,2.7939677e-09,-5.820766e-10,0.0020996332,1
3896000,3896000,0.69016546,0.0016981346,-0.0156000145,0.72348154,0.99999785,2.7939677e-09,-5.820766e-10,0.0020996332,1
3900000,3900000,0.69016415,0.0016975533,-0.015602893,0.7234826,0.99999785,2.7939677e-09,-5.820766e-10,0.0020996332,1
3904000,3904000,0.6901635,0.0016975339,-0.015604071,0.72348326,0.99999785,2.7939677e-09,-5.820766e-10,0.0020996332,1
3908000,3908000,0.6901651,0.0016960582,-0.015605278,0.72348166,0.99999785,2.7939677e-09,-5.820766e-10,0.0020996332,1
3916000,3916000,0.69016415,0.0017046168,-0.015611948,0.72348243,0.99999785,2.7939677e-09,-5.820766e-10,0.0020996332,1
3920000,3920000,0.69016117,0.0017088617,-0.015614926,0.72348523,0.99999785,2.7939677e-09,-5.820766e-10,0.0020996332,1
3924000,3924000,0.6901574,0.0017123547,-0.015618675,0.72348875,0.99999785,2.7939677e-09,-5.820766e-10,0.0020996332,1
3928000,3928000,0.6901537,0.001718804,-0.01562595,0.7234921,0.99999785,2.7939677e-09,-5.820766e-10,0.0020996332,1
3932000,3932000,0.690152,0.0017267832,-0.015632432,0.7234936,0.99999785,2.7939677e-09,-5.820766e-10,0.0020996332,1
3936000,3936000,0.6901493,0.0017344892,-0.015634233,0.7234961,0.99999785,2.7939677e-09,-5.820766e-10,0.0020996332,1
3940000,3940000,0.6901466,0.0017432979,-0.015634878,0.7234986,0.99999785,2.7939677e-09,-5.820766e-10,0.0020996332,1
3944000,3944000,0.6901457,0.0017490423,-0.01563769,0.7234994,0.99999785,2.7939677e-09,-5.820766e-10,0.0020996332,1
3948000,3948000,0.69014335,0.001747538,-0.015638039,0.7235017,0.99999785,2.7939677e-09,-5.820766e-10,0.0020996332,1
3956000,3956000,0.69014627,0.0017437866,-0.015643695,0.72349876,0.99999785,2.7939677e-09,-5.820766e-10,0.0020996332,1
3960000,3960000,0.69014907,0.0017472075,-0.015652258,0.7234959,0.99999785,2.7939677e-09,-5.820766e-10,0.0020996332,1
3968000,3968000,0.69014466,0.0017575131,-0.015672162,0.72349966,0.99999785,2.7939677e-09,-5.820766e-10,0.0020996332,1
3972000,3972000,0.69013906,0.001763554,-0.015678246,0.7235049,0.99999785,2.7939677e-09,-5.820766e-10,0.0020996332,1
3976000,3976000,0.69013774,0.0017646371,-0.015684634,0.7235059,0.99999785,2.7939677e-09,-5.820766e-10,0.0020996332,1
3980000,3980000,0.6901388,0.0017649997,-0.015690284,0.7235048,0.99999785,2.7939677e-09,-5.820766e-10,0.0020996332,1
3984000,3984000,0.69015163,0.0017690731,-0.01569535,0.72349244,0.99999785,2.7939677e-09,-5.820766e-10,0.0020996332,1
3988000,3988000,0.690164,0.0017738732,-0.015699647,0.7234805,0.99999785,2.7939677e-09,-5.820766e-10,0.0020996332,1
3992000,3992000,0.6901786,0.0017726703,-0.015694367,0.72346675,0.99999785,2.7939677e-09,-5.820766e-10,0.0020996332,1
3996000,3996000,0.6901939,0.001769699,-0.01569327,0.7234522,0.99999785,2.7939677e-09,-5.820766e-10,0.0020996332,1
4000000,4000000,0.69020694,0.001764582,-0.015693812,0.72343975,0.99999785,2.7939677e-09,-5.820766e-10,0.0020996332,1
4004000,4004000,0.6902192,0.0017609188,-0.015692815,0.723428,0.99999785,2.7939677e-09,-5.820766e-10,0.0020996332,1
4008000,4008000,0.69023275,0.0017588849,-0.015691092,0.7234152,0.99999785,2.7939677e-09,-5.820766e-10,0.0020996332,1
4012000,4012000,0.69024587,0.0017579456,-0.015688214,0.72340274,0.99999785,2.7939677e-09,-5.820766e-10,0.0020996332,1
4016000,4016000,0.6902579,0.0017559291,-0.015684294,0.7233913,0.99999785,2.7939677e-09,-5.820766e-10,0.0020996332,1
4020000,4020000,0.6902704,0.0017494033,-0.01568048,0.7233795,0.99999785,2.7939677e-09,-5.820766e-10,0.0020996332,1
4024000,4024000,0.69028264,0.0017382859,-0.015674355,0.723368,0.99999785,2.7939677e-09,-5.820766e-10,0.0020996332,1
4028000,4028000,0.69029254,0.0017297448,-0.015667794,0.72335875,0.99999785,2.7939677e-09,-5.820766e-10,0.0020996332,1
4032000,4032000,0.69030356,0.001723916,-0.015660794,0.7233483,0.99999785,2.7939677e-09,-5.820766e-10,0.0020996332,1
4036000,4036000,0.69031805,0.0017178124,-0.015654925,0.7233346,0.99999785,2.7939677e-09,-5.820766e-10,0.0020996332,1
4044000,4044000,0.690347,0.0017195339,-0.015638698,0.7233074,0.99999785,2.7939677e-09,-5.820766e-10,0.0020996332,1
4048000,4048000,0.69036204,0.0017140814,-0.015624493,0.72329336,0.99999785,2.7939677e-09,-5.820766e-10,0.0020996332,1
4056000,4056000,0.69039756,0.0017006317,-0.015614956,0.7232597,0.99999785,2.7939677e-09,-5.820766e-10,0.0020996332,1
4060000,4060000,0.69041425,0.001697261,-0.015611609,0.72324383,0.99999785,2.7939677e-09,-5.820766e-10,0.0020996332,1
4068000,4068000,0.6904504,0.0016950339,-0.015600958,0.7232096,0.99999785,2.7939677e-09,-5.820766e-10,0.0020996332,1
4076000,4076000,0.6904883,0.0016917782,-0.015590593,0.72317356,0.99999785,2.7939677e-09,-5.820766e-10,0.0020996332,1
4084000,4084000,0.6905275,0.0016685574,-0.01558419,0.72313637,0.99999785,2.7939677e-09,-5.820766e-10,0.0020996332,1
4088000,4088000,0.6905447,0.0016568502,-0.015581798,0.72312,0.99999785,2.7939677e-09,-5.820766e-10,0.0020996332,1
4092000,4092000,0.69056195,0.0016466144,-0.015577865,0.72310364,0.99999785,2.7939677e-09,-5.820766e-10,0.0020996332,1
4096000,4096000,0.690577,0.0016381713,-0.015575071,0.7230894,0.99999785,2.7939677e-09,-5.820766e-10,0.0020996332,1
4100000,4100000,0.6905924,0.0016274257,-0.01557007,0.7230748,0.99999785,2.7939677e-09,-5.820766e-10,0.0020996332,1
4104000,4104000,0.69060606,0.0016187747,-0.015562805,0.7230619,0.99999785,2.7939677e-09,-5.820766e-10,0.0020996332,1
4108000,4108000,0.6906169,0.001618768,-0.01555723,0.72305167,0.99999785,2.7939677e-09,-5.820766e-10,0.0020996332,1
4112000,4112000,0.6906278,0.001620362,-0.015555588,0.7230413,0.99999785,2.7939677e-09,-5.820766e-10,0.0020996332,1
4116000,4116000,0.69064146,0.0016156572,-0.015555968,0.72302824,0.99999785,2.7939677e-09,-5.820766e-10,0.0020996332,1
4120000,4120000,0.690659,0.0016071679,-0.015555133,0.72301155,0.99999785,2.7939677e-09,-5.820766e-10,0.0020996332,1
4124000,4124000,0.6906777,0.0015990195,-0.015551652,0.72299373,0.99999785,2.7939677e-09,-5.820766e-10,0.0020996332,1
4132000,4132000,0.69070184,0.0015894972,-0.01554082,0.7229709,0.99999785,2.7939677e-09,-5.820766e-10,0.0020996332,1
4136000,4136000,0.69071114,0.0015897448,-0.015534931,0.72296214,0.99999785,2.7939677e-09,-5.820766e-10,0.0020996332,1
4140000,4140000,0.69072115,0.0015889223,-0.0155309485,0.72295266,0.99999785,2.7939677e-09,-5.820766e-10,0.0020996332,1
4144000,4144000,0.69073117,0.0015851072,-0.015527991,0.7229431,0.99999785,2.7939677e-09,-5.820766e-10,0.0020996332,1
4148000,4148000,0.69074196,0.001584372,-0.015527224,0.72293293,0.99999785,2.7939677e-09,-5.820766e-10,0.0020996332,1
4156000,4156000,0.6907601,0.0015964772,-0.015529562,0.72291553,0.99999785,2.7939677e-09,-5.820766e-10,0.0020996332,1
4164000,4164000,0.6907796,0.0015913757,-0.015536471,0.7228967,0.99999785,2.7939677e-09,-5.820766e-10,0.0020996332,1
4168000,4168000,0.69079053,0.0015841499,-0.01553306,0.7228863,0.99999785,2.7939677e-09,-5.820766e-10,0.0020996332,1
4172000,4172000,0.69080096,0.0015840607,-0.015529111,0.7228764,0.99999785,2.7939677e-09,-5.820766e-10,0.0020996332,1
4180000,4180000,0.6908139,0.0015878142,-0.0155225955,0.7228643,0.99999785,2.7939677e-09,-5.820766e-10,0.0020996332,1
4188000,4188000,0.69082624,0.001582911,-0.01552146,0.72285247,0.99999785,2.7939677e-09,-5.820766e-10,0.0020996332,1
4196000,4196000,0.6908142,0.0015839064,-0.015539921,0.72286355,0.99999785,2.7939677e-09,-5.820766e-10,0.0020996332,1
4200000,4200000,0.6908117,0.0015734606,-0.015527684,0.7228663,0.99999785,2.7939677e-09,-5.820766e-10,0.0020996332,1
4204000,4204000,0.6908107,0.0015648021,-0.015509753,0.72286767,0.99999785,2.7939677e-09,-5.820766e-10,0.0020996332,1
4212000,4212000,0.6907968,0.0015541846,-0.015479268,0.72288156,0.99999785,2.7939677e-09,-5.820766e-10,0.0020996332,1
4216000,4216000,0.69078976,0.0015474461,-0.015467166,0.7228886,0.99999785,2.7939677e-09,-5.820766e-10,0.0020996332,1
4220000,4220000,0.69078314,0.0015377379,-0.0154566355,0.72289515,0.99999785,2.7939677e-09,-5.820766e-10,0.0020996332,1
4224000,4224000,0.6907763,0.0015307654,-0.015442902,0.722902,0.99999785,2.7939677e-09,-5.820766e-10,0.0020996332,1
4228000,4228000,0.69077057,0.0015283015,-0.0154275615,0.72290784,0.99999785,2.7939677e-09,-5.820766e-10,0.0020996332,1
4232000,4232000,0.6907646,0.0015253673,-0.015412952,0.7229138,0.99999785,2.7939677e-09,-5.820766e-10,0.0020996332,1
4236000,4236000,0.6907575,0.0015209024,-0.015398379,0.7229209,0.99999785,2.7939677e-09,-5.820766e-10,0.0020996332,1
4240000,4240000,0.6907503,0.0015161834,-0.015383617,0.72292817,0.99999785,2.7939677e-09,-5.820766e-10,0.0020996332,1
4244000,4244000,0.6907458,0.0015107514,-0.015368111,0.7229328,0.99999785,2.7939677e-09,-5.820766e-10,0.0020996332,1
4248000,4248000,0.6907423,0.001505824,-0.015352365,0.7229365,0.99999785,2.7939677e-09,-5.820766e-10,0.0020996332,1
4252000,4252000,0.69073725,0.0015005304,-0.015338513,0.72294164,0.99999785,2.7939677e-09,-5.820766e-10,0.0020996332,1
4256000,4256000,0.6907298,0.0014896258,-0.015324538,0.722949,0.99999785,2.7939677e-09,-5.820766e-10,0.0020996332,1
4260000,4260000,0.69072324,0.0014787033,-0.015309056,0.7229557,0.99999785,2.7939677e-09,-5.820766e-10,0.0020996332,1
4264000,4264000,0.6907227,0.0014726591,-0.015294701,0.7229566,0.99999785,2.7939677e-09,-5.820766e-10,0.0020996332,1
4268000,4268000,0.6907201,0.0014666767,-0.015284865,0.7229592,0.99999785,2.7939677e-09,-5.820766e-10,0.0020996332,1
4272000,4272000,0.6907171,0.001460816,-0.015278111,0.7229622,0.99999785,2.7939677e-09,-5.820766e-10,0.0020996332,1
4276000,4276000,0.6907153,0.0014563998,-0.015267555,0.7229641,0.99999785,2.7939677e-09,-5.820766e-10,0.0020996332,1
4280000,4280000,0.6907134,0.001453039,-0.015252879,0.7229663,0.99999785,2.7939677e-09,-5.820766e-10,0.0020996332,1
4288000,4288000,0.6907069,0.0014504594,-0.015226466,0.72297305,0.99999785,2.7939677e-09,-5.820766e-10,0.0020996332,1
4292000,4292000,0.69070166,0.0014492817,-0.015212141,0.72297835,0.99999785,2.7939677e-09,-5.820766e-10,0.0020996332,1
4300000,4300000,0.6907048,0.0014475104,-0.015182338,0.722976,0.99999785,2.7939677e-09,-5.820766e-10,0.0020996332,1
4308000,4308000,0.6907043,0.0014371271,-0.01516138,0.72297704,0.99999785,2.7939677e-09,-5.820766e-10,0.0020996332,1
4312000,4312000,0.69070363,0.0014341943,-0.015153087,0.72297776,0.99999785,2.7939677e-09,-5.820766e-10,0.0020996332,1
4316000,4316000,0.6907014,0.0014342411,-0.015144729,0.72298,0.99999785,2.7939677e-09,-5.820766e-10,0.0020996332,1
4324000,4324000,0.6906971,0.0014304956,-0.015125159,0.7229846,0.99999785,2.7939677e-09,-5.820766e-10,0.0020996332,1
4332000,4332000,0.6906927,0.0014225304,-0.015103102,0.72298926,0.99999785,2.7939677e-09,-5.820766e-10,0.0020996332,1
4340000,4340000,0.690696,0.0014240583,-0.015081991,0.72298664,0.99999785,2.7939677e-09,-5.820766e-10,0.0020996332,1
4344000,4344000,0.6906962,0.0014267695,-0.015076304,0.7229866,0.99999785,2.7939677e-09,-5.820766e-10,0.0020996332,1
4348000,4348000,0.69069487,0.0014297821,-0.0150687285,0.722988,0.99999785,2.7939677e-09,-5.820766e-10,0.0020996332,1
4356000,4356000,0.6906988,0.0014246758,-0.015056094,0.72298443,0.99999785,2.7939677e-09,-5.820766e-10,0.0020996332,1
4360000,4360000,0.6907036,0.0014222881,-0.015055046,0.7229799,0.99999785,2.7939677e-09,-5.820766e-10,0.0020996332,1
4364000,4364000,0.69070715,0.0014213823,-0.015053966,0.7229765,0.99999785,2.7939677e-09,-5.820766e-10,0.0020996332,1
4372000,4372000,0.6907105,0.0014228611,-0.015035917,0.7229737,0.99999785,2.7939677e-09,-5.820766e-10,0.0020996332,1
4376000,4376000,0.69071245,0.0014202616,-0.015030321,0.7229719,0.99999785,2.7939677e-09,-5.820766e-10,0.0020996332,1
4380000,4380000,0.6907157,0.0014165482,-0.015024373,0.72296906,0.99999785,2.7939677e-09,-5.820766e-10,0.0020996332,1
4388000,4388000,0.6907215,0.0014012431,-0.015018906,0.7229636,0.99999785,2.7939677e-09,-5.820766e-10,0.0020996332,1
4396000,4396000,0.69072896,0.0013913438,-0.015023637,0.7229564,0.99999785,2.7939677e-09,-5.820766e-10,0.0020996332,1
4404000,4404000,0.6907382,0.0013784872,-0.015020217,0.72294766,0.99999785,2.7939677e-09,-5.820766e-10,0.0020996332,1
4408000,4408000,0.69073033,0.0013689802,-0.015013215,0.72295535,0.99999785,2.7939677e-09,-5.820766e-10,0.0020996332,1
4412000,4412000,0.6907213,0.0013605356,-0.015004307,0.72296417,0.99999785,2.7939677e-09,-5.820766e-10,0.0020996332,1
4416000,4416000,0.6907107,0.0013537711,-0.014995072,0.7229745,0.99999785,2.7939677e-09,-5.820766e-10,0.0020996332,1
4424000,4424000,0.6906871,0.0013446687,-0.014982579,0.7229973,0.99999785,2.7939677e-09,-5.820766e-10,0.0020996332,1
4428000,4428000,0.6906764,0.0013419248,-0.014975935,0.7230076,0.99999785,2.7939677e-09,-5.820766e-10,0.0020996332,1
4432000,4432000,0.690666,0.0013371671,-0.014971983,0.72301763,0.99999785,2.7939677e-09,-5.820766e-10,0.0020996332,1
4440000,4440000,0.6906467,0.0013350885,-0.014954592,0.7230364,0.99999785,2.7939677e-09,-5.820766e-10,0.0020996332,1
4444000,4444000,0.6906345,0.0013298328,-0.014943225,0.72304845,0.99999785,2.7939677e-09,-5.820766e-10,0.0020996332,1
4452000,4452000,0.69061625,0.0013120065,-0.014928412,0.72306615,0.99999785,2.7939677e-09,-5.820766e-10,0.0020996332,1
4460000,4460000,0.6905992,0.0013003116,-0.014922651,0.72308254,0.99999785,2.7939677e-09,-5.820766e-10,0.0020996332,1
4464000,4464000,0.6905893,0.0012910787,-0.014916692,0.72309214,0.99999785,2.7939677e-09,-5.820766e-10,0.0020996332,1
4468000,4468000,0.69058144,0.001283621,-0.014904288,0.7231,0.99999785,2.7939677e-09,-5.820766e-10,0.0020996332,1
4472000,4472000,0.6905753,0.0012773803,-0.014890162,0.7231061,0.99999785,2.7939677e-09,-5.820766e-10,0.0020996332,1
4476000,4476000,0.6905688,0.0012719714,-0.014879787,0.7231125,0.99999785,2.7939677e-09,-5.820766e-10,0.0020996332,1
4484000,4484000,0.69054,0.0012634229,-0.014861942,0.7231405,0.99999785,2.7939677e-09,-5.820766e-10,0.0020996332,1
4488000,4488000,0.6905248,0.0012553171,-0.014856443,0.723155,0.99999785,2.7939677e-09,-5.820766e-10,0.0020996332,1
4492000,4492000,0.6905078,0.0012475225,-0.014849812,0.7231715,0.99999785,2.7939677e-09,-5.820766e-10,0.0020996332,1
4496000,4496000,0.6904896,0.0012434033,-0.014843235,0.72318906,0.99999785,2.7939677e-09,-5.820766e-10,0.0020996332,1
4504000,4504000,0.6904586,0.0012327828,-0.014823462,0.723219,0.99999785,2.7939677e-09,-5.820766e-10,0.0020996332,1
4508000,4508000,0.6904427,0.0012289323,-0.0148136,0.72323436,0.99999785,2.7939677e-09,-5.820766e-10,0.0020996332,1
4512000,4512000,0.6904288,0.0012243687,-0.014807616,0.7232478,0.99999785,2.7939677e-09,-5.820766e-10,0.0020996332,1
4516000,4516000,0.6904168,0.0012167625,-0.014798686,0.72325945,0.99999785,2.7939677e-09,-5.820766e-10,0.0020996332,1
4520000,4520000,0.69040406,0.0012116355,-0.014787887,0.7232718,0.99999785,2.7939677e-09,-5.820766e-10,0.0020996332,1
4524000,4524000,0.69038975,0.0012103122,-0.0147800185,0.7232856,0.99999785,2.7939677e-09,-5.820766e-10,0.0020996332,1
4528000,4528000,0.69037503,0.0012093529,-0.014776373,0.7232998,0.99999785,2.7939677e-09,-5.820766e-10,0.0020996332,1
4532000,4532000,0.69035953,0.0012054184,-0.014775058,0.72331464,0.99999785,2.7939677e-09,-5.820766e-10,0.0020996332,1
4536000,4536000,0.6903432,0.0012017802,-0.014775693,0.72333014,0.99999785,2.7939677e-09,-5.820766e-10,0.0020996332,1
4540000,4540000,0.6903273,0.0012022649,-0.014775103,0.72334534,0.99999785,2.7939677e-09,-5.820766e-10,0.0020996332,1
4544000,4544000,0.6903122,0.0012026158,-0.014773069,0.7233598,0.99999785,2.7939677e-09,-5.820766e-10,0.0020996332,1
4548000,4548000,0.69029444,0.0011998995,-0.0147711085,0.72337687,0.99999785,2.7939677e-09,-5.820766e-10,0.0020996332,1
4552000,4552000,0.6902718,0.0011966577,-0.014764306,0.7233986,0.99999785,2.7939677e-09,-5.820766e-10,0.0020996332,1
4556000,4556000,0.69025147,0.0011930425,-0.014755626,0.7234182,0.99999785,2.7939677e-09,-5.820766e-10,0.0020996332,1
4564000,4564000,0.69021416,0.0011871415,-0.014754504,0.7234538,0.99999785,2.7939677e-09,-5.820766e-10,0.0020996332,1
4568000,4568000,0.6901929,0.0011883222,-0.014753691,0.7234741,0.99999785,2.7939677e-09,-5.820766e-10,0.0020996332,1
4572000,4572000,0.69017315,0.0011902873,-0.014752858,0.723493,0.99999785,2.7939677e-09,-5.820766e-10,0.0020996332,1
4580000,4580000,0.69014096,0.0011865277,-0.014750658,0.7235237,0.99999785,2.7939677e-09,-5.820766e-10,0.0020996332,1
4588000,4588000,0.69010603,0.0011800585,-0.014745506,0.72355705,0.99999785,2.7939677e-09,-5.820766e-10,0.0020996332,1
4596000,4596000,0.69007003,0.0011861953,-0.01474754,0.72359145,0.99999785,2.7939677e-09,-5.820766e-10,0.0020996332,1
4600000,4600000,0.6900585,0.0011842556,-0.014746356,0.7236025,0.99999785,2.7939677e-09,-5.820766e-10,0.0020996332,1
4604000,4604000,0.6900447,0.0011788177,-0.014742618,0.72361565,0.99999785,2.7939677e-09,-5.820766e-10,0.0020996332,1
4612000,4612000,0.69001794,0.0011748354,-0.014740487,0.7236412,0.99999785,2.7939677e-09,-5.820766e-10,0.0020996332,1
4616000,4616000,0.6900066,0.0011741975,-0.0147351185,0.7236521,0.99999785,2.7939677e-09,-5.820766e-10,0.0020996332,1
4620000,4620000,0.68999374,0.0011731609,-0.014730139,0.7236645,0.99999785,2.7939677e-09,-5.820766e-10,0.0020996332,1
4624000,4624000,0.6899771,0.0011689109,-0.014725832,0.72368044,0.99999785,2.7939677e-09,-5.820766e-10,0.0020996332,1
4628000,4628000,0.6899575,0.0011641947,-0.01472041,0.7236993,0.99999785,2.7939677e-09,-5.820766e-10,0.0020996332,1
4632000,4632000,0.689938,0.0011636904,-0.01471245,0.723718,0.99999785,2.7939677e-09,-5.820766e-10,0.0020996332,1
4636000,4636000,0.6899197,0.0011647516,-0.014705959,0.72373563,0.99999785,2.7939677e-09,-5.820766e-10,0.0020996332,1
4640000,4640000,0.689902,0.001169772,-0.01470256,0.7237525,0.99999785,2.7939677e-09,-5.820766e-10,0.0020996332,1
4644000,4644000,0.6898878,0.0011771399,-0.01469986,0.72376615,0.99999785,2.7939677e-09,-5.820766e-10,0.0020996332,1
4648000,4648000,0.68987906,0.001180717,-0.0146982735,0.72377455,0.99999785,2.7939677e-09,-5.820766e-10,0.0020996332,1
4652000,4652000,0.68987066,0.0011835488,-0.014696703,0.72378254,0.99999785,2.7939677e-09,-5.820766e-10,0.0020996332,1
4660000,4660000,0.68985003,0.001184309,-0.01468981,0.7238023,0.99999785,2.7939677e-09,-5.820766e-10,0.0020996332,1
4664000,4664000,0.68983465,0.001181499,-0.0146882525,0.72381705,0.99999785,2.7939677e-09,-5.820766e-10,0.0020996332,1
4668000,4668000,0.68982273,0.0011768317,-0.014684853,0.72382843,0.99999785,2.7939677e-09,-5.820766e-10,0.0020996332,1
4676000,4676000,0.6898041,0.0011711039,-0.014677771,0.7238464,0.99999785,2.7939677e-09,-5.820766e-10,0.0020996332,1
4680000,4680000,0.68979275,0.0011661373,-0.014672664,0.7238573,0.99999785,2.7939677e-09,-5.820766e-10,0.0020996332,1
4684000,4684000,0.6897845,0.0011600587,-0.014665699,0.72386533,0.99999785,2.7939677e-09,-5.820766e-10,0.0020996332,1
4692000,4692000,0.6897825,0.0011614113,-0.014649657,0.72386754,0.99999785,2.7939677e-09,-5.820766e-10,0.0020996332,1
4696000,4696000,0.68977565,0.0011600334,-0.01464192,0.7238743,0.99999785,2.7939677e-09,-5.820766e-10,0.0020996332,1
4700000,4700000,0.6897645,0.001159359,-0.014635677,0.723885,0.99999785,2.7939677e-09,-5.820766e-10,0.0020996332,1
4704000,4704000,0.6897535,0.001158777,-0.0146297375,0.7238956,0.99999785,2.7939677e-09,-5.820766e-10,0.0020996332,1
4708000,4708000,0.6897425,0.0011543757,-0.014621629,0.7239062,0.99999785,2.7939677e-09,-5.820766e-10,0.0020996332,1
4716000,4716000,0.6897241,0.0011469388,-0.01460634,0.7239241,0.99999785,2.7939677e-09,-5.820766e-10,0.0020996332,1
4720000,4720000,0.6897146,0.0011421111,-0.014604845,0.7239331,0.99999785,2.7939677e-09,-5.820766e-10,0.0020996332,1
4724000,4724000,0.68970317,0.0011402747,-0.014604032,0.723944,0.99999785,2.7939677e-09,-5.820766e-10,0.0020996332,1
4728000,4728000,0.6896926,0.001143757,-0.014601857,0.72395414,0.99999785,2.7939677e-09,-5.820766e-10,0.0020996332,1
4732000,4732000,0.68968177,0.0011448631,-0.014595221,0.72396463,0.99999785,2.7939677e-09,-5.820766e-10,0.0020996332,1
4740000,4740000,0.6896573,0.0011369172,-0.014582418,0.7239883,0.99999785,2.7939677e-09,-5.820766e-10,0.0020996332,1
4744000,4744000,0.6896473,0.001136293,-0.0145790465,0.72399783,0.99999785,2.7939677e-09,-5.820766e-10,0.0020996332,1
4752000,4752000,0.68963,0.0011291903,-0.014561053,0.7240147,0.99999785,2.7939677e-09,-5.820766e-10,0.0020996332,1
4756000,4756000,0.6896228,0.0011254738,-0.01455126,0.7240217,0.99999785,2.7939677e-09,-5.820766e-10,0.0020996332,1
4760000,4760000,0.68961424,0.0011205948,-0.014540647,0.7240301,0.99999785,2.7939677e-09,-5.820766e-10,0.0020996332,1
4764000,4764000,0.68960404,0.0011168601,-0.014531892,0.72404,0.99999785,2.7939677e-09,-5.820766e-10,0.0020996332,1
4772000,4772000,0.6896076,0.0011178496,-0.014527904,0.7240367,0.99999785,2.7939677e-09,-5.820766e-10,0.0020996332,1
4780000,4780000,0.68960714,0.0011252093,-0.014524688,0.7240372,0.99999785,2.7939677e-09,-5.820766e-10,0.0020996332,1
4788000,4788000,0.6896089,0.0011268704,-0.014517254,0.7240357,0.99999785,2.7939677e-09,-5.820766e-10,0.0020996332,1
4792000,4792000,0.6896096,0.0011211227,-0.014514141,0.724035,0.99999785,2.7939677e-09,-5.820766e-10,0.0020996332,1
4796000,4796000,0.6896096,0.001120502,-0.014505631,0.7240352,0.99999785,2.7939677e-09,-5.820766e-10,0.0020996332,1
4804000,4804000,0.6896106,0.0011297985,-0.01448733,0.7240346,0.99999785,2.7939677e-09,-5.820766e-10,0.0020996332,1
4812000,4812000,0.6896094,0.0011471008,-0.014474941,0.724036,0.99999785,2.7939677e-09,-5.820766e-10,0.0020996332,1
4816000,4816000,0.68961143,0.0011531212,-0.014474859,0.724034,0.99999785,2.7939677e-09,-5.820766e-10,0.0020996332,1
4820000,4820000,0.68961656,0.0011610949,-0.0144751035,0.7240291,0.99999785,2.7939677e-09,-5.820766e-10,0.0020996332,1
4828000,4828000,0.68962735,0.0011773173,-0.014460444,0.7240191,0.99999785,2.7939677e-09,-5.820766e-10,0.0020996332,1
4832000,4832000,0.6896275,0.0011771461,-0.014449522,0.72401917,0.99999785,2.7939677e-09,-5.820766e-10,0.0020996332,1
4836000,4836000,0.6896289,0.0011770346,-0.014440103,0.7240181,0.99999785,2.7939677e-09,-5.820766e-10,0.0020996332,1
4840000,4840000,0.6896199,0.0011795596,-0.014434514,0.7240267,0.99999785,2.7939677e-09,-5.820766e-10,0.0020996332,1
4844000,4844000,0.68960947,0.0011842211,-0.014425105,0.7240368,0.99999785,2.7939677e-09,-5.820766e-10,0.0020996332,1
4848000,4848000,0.68959814,0.0011879763,-0.014409822,0.72404796,0.99999785,2.7939677e-09,-5.820766e-10,0.0020996332,1
4852000,4852000,0.6895872,0.0011924554,-0.014393013,0.72405875,0.99999785,2.7939677e-09,-5.820766e-10,0.0020996332,1
4856000,4856000,0.6895792,0.0011992248,-0.014381976,0.7240665,0.99999785,2.7939677e-09,-5.820766e-10,0.0020996332,1
4864000,4864000,0.68956167,0.0012110462,-0.014367204,0.7240835,0.99999785,2.7939677e-09,-5.820766e-10,0.0020996332,1
4868000,4868000,0.68954825,0.0012167009,-0.014360442,0.72409636,0.99999785,2.7939677e-09,-5.820766e-10,0.0020996332,1
4876000,4876000,0.6895318,0.0012293019,-0.014343649,0.7241124,0.99999785,2.7939677e-09,-5.820766e-10,0.0020996332,1
4884000,4884000,0.68951243,0.0012462748,-0.014321617,0.72413117,0.99999785,2.7939677e-09,-5.820766e-10,0.0020996332,1
4892000,4892000,0.6894894,0.0012525637,-0.014310892,0.7241532,0.99999785,2.7939677e-09,-5.820766e-10,0.0020996332,1
4896000,4896000,0.68947846,0.001255425,-0.014308219,0.72416383,0.99999785,2.7939677e-09,-5.820766e-10,0.0020996332,1
4900000,4900000,0.68946666,0.001258271,-0.014305546,0.7241751,0.99999785,2.7939677e-09,-5.820766e-10,0.0020996332,1
4904000,4904000,0.6894544,0.0012622097,-0.014300999,0.72418684,0.99999785,2.7939677e-09,-5.820766e-10,0.0020996332,1
4908000,4908000,0.6894417,0.0012682886,-0.01429188,0.72419906,0.99999785,2.7939677e-09,-5.820766e-10,0.0020996332,1
4916000,4916000,0.68940175,0.0012803955,-0.014280563,0.7242373,0.99999785,2.7939677e-09,-5.820766e-10,0.0020996332,1
4920000,4920000,0.68938214,0.0012909515,-0.014272608,0.7242561,0.99999785,2.7939677e-09,-5.820766e-10,0.0020996332,1
4924000,4924000,0.6893618,0.0012999494,-0.014263186,0.72427565,0.99999785,2.7939677e-09,-5.820766e-10,0.0020996332,1
4932000,4932000,0.6893215,0.0013117087,-0.014250286,0.7243143,0.99999785,2.7939677e-09,-5.820766e-10,0.0020996332,1
4936000,4936000,0.68930185,0.0013207926,-0.014243253,0.72433305,0.99999785,2.7939677e-09,-5.820766e-10,0.0020996332,1
4940000,4940000,0.68928534,0.0013258428,-0.014238201,0.72434884,0.99999785,2.7939677e-09,-5.820766e-10,0.0020996332,1
4944000,4944000,0.68927,0.0013243387,-0.014234702,0.72436345,0.99999785,2.7939677e-09,-5.820766e-10,0.0020996332,1
4948000,4948000,0.68925214,0.0013193655,-0.014230164,0.7243807,0.99999785,2.7939677e-09,-5.820766e-10,0.0020996332,1
4952000,4952000,0.68923455,0.0013134035,-0.014224398,0.7243975,0.99999785,2.7939677e-09,-5.820766e-10,0.0020996332,1
4956000,4956000,0.68921846,0.0013119895,-0.014218517,0.7244129,0.99999785,2.7939677e-09,-5.820766e-10,0.0020996332,1
4964000,4964000,0.68918806,0.0013200794,-0.014206984,0.72444206,0.99999785,2.7939677e-09,-5.820766e-10,0.0020996332,1
4968000,4968000,0.6891689,0.0013218794,-0.014198515,0.7244605,0.99999785,2.7939677e-09,-5.820766e-10,0.0020996332,1
4972000,4972000,0.68914694,0.0013282006,-0.014192197,0.72448146,0.99999785,2.7939677e-09,-5.820766e-10,0.0020996332,1
4980000,4980000,0.6891038,0.0013359984,-0.014183184,0.72452265,0.99999785,2.7939677e-09,-5.820766e-10,0.0020996332,1
4984000,4984000,0.6890828,0.0013367671,-0.014181258,0.7245427,0.99999785,2.7939677e-09,-5.820766e-10,0.0020996332,1
4992000,4992000,0.6890501,0.0013412872,-0.01417756,0.72457385,0.99999785,2.7939677e-09,-5.820766e-10,0.0020996332,1
4996000,4996000,0.68903226,0.0013388562,-0.0141744455,0.72459084,0.99999785,2.7939677e-09,-5.820766e-10,0.0020996332,1
5004000,5004000,0.6889952,0.0013397437,-0.014161374,0.7246263,0.99999785,2.7939677e-09,-5.820766e-10,0.0020996332,1
5008000,5008000,0.6889799,0.0013393994,-0.014152245,0.724641,0.99999785,2.7939677e-09,-5.820766e-10,0.0020996332,1
5012000,5012000,0.6889697,0.001339944,-0.014144594,0.724651,0.99999785,2.7939677e-09,-5.820766e-10,0.0020996332,1
5020000,5020000,0.6889521,0.0013470883,-0.014144602,0.7246676,0.99999785,2.7939677e-09,-5.820766e-10,0.0020996332,1
5024000,5024000,0.68893605,0.0013476196,-0.014142247,0.7246829,0.99999785,2.7939677e-09,-5.820766e-10,0.0020996332,1
5028000,5028000,0.6889182,0.0013457402,-0.014135435,0.72470003,0.99999785,2.7939677e-09,-5.820766e-10,0.0020996332,1
5032000,5032000,0.68890464,0.001348773,-0.014123145,0.72471315,0.99999785,2.7939677e-09,-5.820766e-10,0.0020996332,1
5040000,5040000,0.6888849,0.0013658867,-0.014104078,0.7247323,0.99999785,2.7939677e-09,-5.820766e-10,0.0020996332,1
5048000,5048000,0.68886214,0.0013725029,-0.014086705,0.7247543,0.99999785,2.7939677e-09,-5.820766e-10,0.0020996332,1
5052000,5052000,0.6888487,0.0013735145,-0.014081164,0.7247672,0.99999785,2.7939677e-09,-5.820766e-10,0.0020996332,1
5056000,5056000,0.68883973,0.0013751169,-0.014074226,0.72477573,0.99999785,2.7939677e-09,-5.820766e-10,0.0020996332,1
5060000,5060000,0.688832,0.0013778234,-0.0140653765,0.72478324,0.99999785,2.7939677e-09,-5.820766e-10,0.0020996332,1
5064000,5064000,0.6888265,0.0013824168,-0.014058416,0.7247886,0.99999785,2.7939677e-09,-5.820766e-10,0.0020996332,1
5068000,5068000,0.68881947,0.0013881385,-0.014052559,0.7247954,0.99999785,2.7939677e-09,-5.820766e-10,0.0020996332,1
5076000,5076000,0.6888092,0.001390967,-0.014049177,0.7248052,0.99999785,2.7939677e-09,-5.820766e-10,0.0020996332,1
5084000,5084000,0.6888008,0.001405419,-0.014035883,0.72481346,0.99999785,2.7939677e-09,-5.820766e-10,0.0020996332,1
5092000,5092000,0.6887906,0.0014175823,-0.014030342,0.7248232,0.99999785,2.7939677e-09,-5.820766e-10,0.0020996332,1
5096000,5096000,0.6887863,0.0014253148,-0.014028539,0.7248273,0.99999785,2.7939677e-09,-5.820766e-10,0.0020996332,1
5100000,5100000,0.68878126,0.0014352336,-0.014024422,0.7248321,0.99999785,2.7939677e-09,-5.820766e-10,0.0020996332,1
5104000,5104000,0.6887772,0.0014414105,-0.014023469,0.724836,0.99999785,2.7939677e-09,-5.820766e-10,0.0020996332,1
5108000,5108000,0.6887751,0.0014431456,-0.014024133,0.72483796,0.99999785,2.7939677e-09,-5.820766e-10,0.0020996332,1
5116000,5116000,0.6887696,0.001446827,-0.014010492,0.72484356,0.99999785,2.7939677e-09,-5.820766e-10,0.0020996332,1
5120000,5120000,0.6887671,0.0014503036,-0.014003773,0.72484607,0.99999785,2.7939677e-09,-5.820766e-10,0.0020996332,1
5124000,5124000,0.68876225,0.0014530016,-0.013997831,0.7248507,0.99999785,2.7939677e-09,-5.820766e-10,0.0020996332,1
5132000,5132000,0.6887394,0.0014539615,-0.013990072,0.7248726,0.99999785,2.7939677e-09,-5.820766e-10,0.0020996332,1
5140000,5140000,0.6887153,0.0014565495,-0.013991951,0.7248954,0.99999785,2.7939677e-09,-5.820766e-10,0.0020996332,1
5144000,5144000,0.68870336,0.0014588836,-0.013990917,0.7249068,0.99999785,2.7939677e-09,-5.820766e-10,0.0020996332,1
5152000,5152000,0.6886841,0.0014637263,-0.013971628,0.7249255,0.99999785,2.7939677e-09,-5.820766e-10,0.0020996332,1
5156000,5156000,0.6886762,0.0014666901,-0.013971443,0.72493297,0.99999785,2.7939677e-09,-5.820766e-10,0.0020996332,1
5164000,5164000,0.6886601,0.0014709827,-0.013968719,0.72494835,0.99999785,2.7939677e-09,-5.820766e-10,0.0020996332,1
5172000,5172000,0.6886393,0.0014747825,-0.01396699,0.72496814,0.99999785,2.7939677e-09,-5.820766e-10,0.0020996332,1
5176000,5176000,0.68862766,0.0014736247,-0.013966124,0.72497916,0.99999785,2.7939677e-09,-5.820766e-10,0.0020996332,1
5180000,5180000,0.68861645,0.0014766058,-0.013964775,0.7249899,0.99999785,2.7939677e-09,-5.820766e-10,0.0020996332,1
5188000,5188000,0.6885898,0.0014892292,-0.013961743,0.7250152,0.99999785,2.7939677e-09,-5.820766e-10,0.0020996332,1
5196000,5196000,0.6885632,0.0015026561,-0.013961526,0.7250404,0.99999785,2.7939677e-09,-5.820766e-10,0.0020996332,1
5200000,5200000,0.688553,0.0015047822,-0.013963136,0.7250501,0.99999785,2.7939677e-09,-5.820766e-10,0.0020996332,1
5204000,5204000,0.68854547,0.0015050295,-0.013962907,0.7250572,0.99999785,2.7939677e-09,-5.820766e-10,0.0020996332,1
5212000,5212000,0.68852663,0.0015117639,-0.013958707,0.7250752,0.99999785,2.7939677e-09,-5.820766e-10,0.0020996332,1
5216000,5216000,0.6885188,0.0015127341,-0.013957506,0.72508264,0.99999785,2.7939677e-09,-5.820766e-10,0.0020996332,1
5220000,5220000,0.68851095,0.0015140708,-0.013955917,0.7250901,0.99999785,2.7939677e-09,-5.820766e-10,0.0020996332,1
5224000,5224000,0.68850076,0.0015197243,-0.013955054,0.72509974,0.99999785,2.7939677e-09,-5.820766e-10,0.0020996332,1
5228000,5228000,0.688491,0.0015261187,-0.013953418,0.72510904,0.99999785,2.7939677e-09,-5.820766e-10,0.0020996332,1
5232000,5232000,0.6884828,0.0015304661,-0.0139507735,0.72511685,0.99999785,2.7939677e-09,-5.820766e-10,0.0020996332,1
5236000,5236000,0.68847424,0.0015340337,-0.013947397,0.725125,0.99999785,2.7939677e-09,-5.820766e-10,0.0020996332,1
5244000,5244000,0.68845534,0.0015312519,-0.01394244,0.72514313,0.99999785,2.7939677e-09,-5.820766e-10,0.0020996332,1
5252000,5252000,0.68842274,0.0015390712,-0.013946002,0.725174,0.99999785,2.7939677e-09,-5.820766e-10,0.0020996332,1
5256000,5256000,0.68841034,0.0015372583,-0.0139472205,0.7251858,0.99999785,2.7939677e-09,-5.820766e-10,0.0020996332,1
5260000,5260000,0.6883988,0.001532272,-0.013941739,0.72519684,0.99999785,2.7939677e-09,-5.820766e-10,0.0020996332,1
5264000,5264000,0.6883868,0.0015312701,-0.013935068,0.72520834,0.99999785,2.7939677e-09,-5.820766e-10,0.0020996332,1
5268000,5268000,0.6883728,0.0015351936,-0.013930908,0.7252217,0.99999785,2.7939677e-09,-5.820766e-10,0.0020996332,1
5272000,5272000,0.6883661,0.0015437695,-0.013926259,0.72522813,0.99999785,2.7939677e-09,-5.820766e-10,0.0020996332,1
5280000,5280000,0.68835855,0.0015590197,-0.013915903,0.72523546,0.99999785,2.7939677e-09,-5.820766e-10,0.0020996332,1
5284000,5284000,0.688358,0.0015657602,-0.013912454,0.725236,0.99999785,2.7939677e-09,-5.820766e-10,0.0020996332,1
5288000,5288000,0.68836176,0.001572896,-0.0139101455,0.7252325,0.99999785,2.7939677e-09,-5.820766e-10,0.0020996332,1
5292000,5292000,0.6883667,0.0015755366,-0.013907952,0.72522783,0.99999785,2.7939677e-09,-5.820766e-10,0.0020996332,1
5300000,5300000,0.6883683,0.0015721472,-0.013901592,0.7252264,0.99999785,2.7939677e-09,-5.820766e-10,0.0020996332,1
5304000,5304000,0.6883672,0.0015718867,-0.013899906,0.7252276,0.99999785,2.7939677e-09,-5.820766e-10,0.0020996332,1
5308000,5308000,0.6883652,0.001573464,-0.013897041,0.7252295,0.99999785,2.7939677e-09,-5.820766e-10,0.0020996332,1
5312000,5312000,0.68836284,0.0015760289,-0.013891528,0.7252318,0.99999785,2.7939677e-09,-5.820766e-10,0.0020996332,1
5316000,5316000,0.6883628,0.001579738,-0.013884851,0.725232,0.99999785,2.7939677e-09,-5.820766e-10,0.0020996332,1
5320000,5320000,0.6883654,0.0015838076,-0.013877794,0.7252296,0.99999785,2.7939677e-09,-5.820766e-10,0.0020996332,1
5328000,5328000,0.68836987,0.0015877783,-0.013866504,0.72522557,0.99999785,2.7939677e-09,-5.820766e-10,0.0020996332,1
5332000,5332000,0.68836665,0.0015910205,-0.013864076,0.7252287,0.99999785,2.7939677e-09,-5.820766e-10,0.0020996332,1
5340000,5340000,0.6883589,0.0015971168,-0.01385109,0.7252363,0.99999785,2.7939677e-09,-5.820766e-10,0.0020996332,1
5344000,5344000,0.6883631,0.001595022,-0.013841796,0.7252325,0.99999785,2.7939677e-09,-5.820766e-10,0.0020996332,1
5352000,5352000,0.6883639,0.0015943217,-0.013834876,0.7252319,0.99999785,2.7939677e-09,-5.820766e-10,0.0020996332,1
5356000,5356000,0.68836355,0.0015977654,-0.013841336,0.72523206,0.99999785,2.7939677e-09,-5.820766e-10,0.0020996332,1
5360000,5360000,0.6883663,0.0016027512,-0.013848571,0.7252293,0.99999785,2.7939677e-09,-5.820766e-10,0.0020996332,1
5364000,5364000,0.68836987,0.0016042752,-0.013852505,0.72522587,0.99999785,2.7939677e-09,-5.820766e-10,0.0020996332,1
5368000,5368000,0.6883735,0.001603385,-0.013852047,0.7252224,0.99999785,2.7939677e-09,-5.820766e-10,0.0020996332,1
5372000,5372000,0.6883779,0.0016050368,-0.013847377,0.72521824,0.99999785,2.7939677e-09,-5.820766e-10,0.0020996332,1
5376000,5376000,0.6883831,0.0016070952,-0.013844644,0.72521335,0.99999785,2.7939677e-09,-5.820766e-10,0.0020996332,1
5380000,5380000,0.6883887,0.0016088336,-0.013843802,0.72520804,0.99999785,2.7939677e-09,-5.820766e-10,0.0020996332,1
5384000,5384000,0.6883963,0.0016122946,-0.01383657,0.7252011,0.99999785,2.7939677e-09,-5.820766e-10,0.0020996332,1
5388000,5388000,0.68840575,0.0016168728,-0.013827422,0.72519225,0.99999785,2.7939677e-09,-5.820766e-10,0.0020996332,1
5392000,5392000,0.68841434,0.001621992,-0.013826234,0.72518414,0.99999785,2.7939677e-09,-5.820766e-10,0.0020996332,1
5396000,5396000,0.68842214,0.0016268081,-0.013828447,0.7251767,0.99999785,2.7939677e-09,-5.820766e-10,0.0020996332,1
5400000,5400000,0.6884291,0.0016280701,-0.013825916,0.72517,0.99999785,2.7939677e-09,-5.820766e-10,0.0020996332,1
5404000,5404000,0.68843424,0.0016266311,-0.01382233,0.7251652,0.99999785,2.7939677e-09,-5.820766e-10,0.0020996332,1
5408000,5408000,0.6884369,0.0016274836,-0.013822517,0.7251626,0.99999785,2.7939677e-09,-5.820766e-10,0.0020996332,1
5412000,5412000,0.6884385,0.0016305533,-0.013821894,0.72516125,0.99999785,2.7939677e-09,-5.820766e-10,0.0020996332,1
5416000,5416000,0.68844575,0.00163186,-0.013816864,0.72515446,0.99999785,2.7939677e-09,-5.820766e-10,0.0020996332,1
5420000,5420000,0.68845534,0.0016328052,-0.013810709,0.72514546,0.99999785,2.7939677e-09,-5.820766e-10,0.0020996332,1
5424000,5424000,0.6884683,0.0016349808,-0.013806453,0.72513324,0.99999785,2.7939677e-09,-5.820766e-10,0.0020996332,1
5428000,5428000,0.6884812,0.001635709,-0.013804494,0.72512096,0.99999785,2.7939677e-09,-5.820766e-10,0.0020996332,1
5432000,5432000,0.6884922,0.0016345504,-0.013803766,0.72511053,0.99999785,2.7939677e-09,-5.820766e-10,0.0020996332,1
5436000,5436000,0.68850285,0.0016347928,-0.013799235,0.7251005,0.99999785,2.7939677e-09,-5.820766e-10,0.0020996332,1
5440000,5440000,0.68851346,0.0016372406,-0.013792432,0.72509056,0.99999785,2.7939677e-09,-5.820766e-10,0.0020996332,1
5444000,5444000,0.688524,0.0016390523,-0.013790166,0.7250806,0.99999785,2.7939677e-09,-5.820766e-10,0.0020996332,1
5452000,5452000,0.6885445,0.001637339,-0.013791426,0.7250611,0.99999785,2.7939677e-09,-5.820766e-10,0.0020996332,1
5456000,5456000,0.6885519,0.0016333986,-0.013791429,0.7250541,0.99999785,2.7939677e-09,-5.820766e-10,0.0020996332,1
5460000,5460000,0.68855774,0.0016286952,-0.013792208,0.72504854,0.99999785,2.7939677e-09,-5.820766e-10,0.0020996332,1
5468000,5468000,0.6885708,0.0016223768,-0.013795269,0.7250361,0.99999785,2.7939677e-09,-5.820766e-10,0.0020996332,1
5472000,5472000,0.6885792,0.0016223111,-0.013798258,0.72502804,0.99999785,2.7939677e-09,-5.820766e-10,0.0020996332,1
5476000,5476000,0.6885872,0.0016207709,-0.013802794,0.7250204,0.99999785,2.7939677e-09,-5.820766e-10,0.0020996332,1
5484000,5484000,0.6886054,0.0016142259,-0.013806583,0.725003,0.99999785,2.7939677e-09,-5.820766e-10,0.0020996332,1
5492000,5492000,0.6886269,0.0016124739,-0.013806167,0.7249826,0.99999785,2.7939677e-09,-5.820766e-10,0.0020996332,1
5500000,5500000,0.6886434,0.0016027656,-0.01380715,0.72496694,0.99999785,2.7939677e-09,-5.820766e-10,0.0020996332,1
5504000,5504000,0.6886519,0.0016005249,-0.0138057135,0.7249589,0.99999785,2.7939677e-09,-5.820766e-10,0.0020996332,1
5508000,5508000,0.6886608,0.0015974805,-0.013802037,0.7249505,0.99999785,2.7939677e-09,-5.820766e-10,0.0020996332,1
5516000,5516000,0.6886746,0.0015864543,-0.013794486,0.7249376,0.99999785,2.7939677e-09,-5.820766e-10,0.0020996332,1
5520000,5520000,0.6886767,0.0015793282,-0.013796615,0.72493553,0.99999785,2.7939677e-09,-5.820766e-10,0.0020996332,1
5524000,5524000,0.68868154,0.0015748598,-0.013797542,0.72493094,0.99999785,2.7939677e-09,-5.820766e-10,0.0020996332,1
5528000,5528000,0.6886884,0.0015736759,-0.013791993,0.72492456,0.99999785,2.7939677e-09,-5.820766e-10,0.0020996332,1
5536000,5536000,0.6886991,0.0015688423,-0.013785829,0.7249145,0.99999785,2.7939677e-09,-5.820766e-10,0.0020996332,1
5540000,5540000,0.68870413,0.0015682265,-0.013785135,0.7249097,0.99999785,2.7939677e-09,-5.820766e-10,0.0020996332,1
5544000,5544000,0.6887086,0.0015683749,-0.013781375,0.7249056,0.99999785,2.7939677e-09,-5.820766e-10,0.0020996332,1
5548000,5548000,0.6887111,0.0015669615,-0.013776905,0.72490335,0.99999785,2.7939677e-09,-5.820766e-10,0.0020996332,1
5552000,5552000,0.68871146,0.0015663796,-0.013773135,0.7249031,0.99999785,2.7939677e-09,-5.820766e-10,0.0020996332,1
5556000,5556000,0.6887129,0.0015680974,-0.013770056,0.72490174,0.99999785,2.7939677e-09,-5.820766e-10,0.0020996332,1
5560000,5560000,0.6887101,0.0015711995,-0.013767271,0.7249044,0.99999785,2.7939677e-09,-5.820766e-10,0.0020996332,1
5568000,5568000,0.68870634,0.0015670239,-0.013762666,0.72490805,0.99999785,2.7939677e-09,-5.820766e-10,0.0020996332,1
5576000,5576000,0.68870085,0.0015557333,-0.013752487,0.72491354,0.99999785,2.7939677e-09,-5.820766e-10,0.0020996332,1
5580000,5580000,0.68869734,0.001550738,-0.013749047,0.72491693,0.99999785,2.7939677e-09,-5.820766e-10,0.0020996332,1
5584000,5584000,0.68869203,0.0015490244,-0.013753004,0.7249219,0.99999785,2.7939677e-09,-5.820766e-10,0.0020996332,1
5588000,5588000,0.6886864,0.0015502766,-0.013755382,0.7249273,0.99999785,2.7939677e-09,-5.820766e-10,0.0020996332,1
5596000,5596000,0.68867815,0.0015515717,-0.013760796,0.724935,0.99999785,2.7939677e-09,-5.820766e-10,0.0020996332,1
5600000,5600000,0.6886734,0.0015489057,-0.013762777,0.72493947,0.99999785,2.7939677e-09,-5.820766e-10,0.0020996332,1
5604000,5604000,0.6886667,0.0015464927,-0.013761363,0.72494584,0.99999785,2.7939677e-09,-5.820766e-10,0.0020996332,1
5608000,5608000,0.68865955,0.0015472082,-0.013760562,0.72495264,0.99999785,2.7939677e-09,-5.820766e-10,0.0020996332,1
5616000,5616000,0.6886513,0.0015514283,-0.013756182,0.72496057,0.99999785,2.7939677e-09,-5.820766e-10,0.0020996332,1
5620000,5620000,0.68865174,0.0015539004,-0.013755262,0.7249601,0.99999785,2.7939677e-09,-5.820766e-10,0.0020996332,1
5628000,5628000,0.6886474,0.0015470496,-0.013759645,0.7249642,0.99999785,2.7939677e-09,-5.820766e-10,0.0020996332,1
5632000,5632000,0.68864036,0.0015414563,-0.013761834,0.7249709,0.99999785,2.7939677e-09,-5.820766e-10,0.0020996332,1
5636000,5636000,0.68863326,0.0015391835,-0.0137613015,0.7249776,0.99999785,2.7939677e-09,-5.820766e-10,0.0020996332,1
5640000,5640000,0.6886247,0.0015380149,-0.013757297,0.72498584,0.99999785,2.7939677e-09,-5.820766e-10,0.0020996332,1
5648000,5648000,0.6886055,0.0015317956,-0.013758,0.725004,0.99999785,2.7939677e-09,-5.820766e-10,0.0020996332,1
5652000,5652000,0.688598,0.0015293324,-0.013758494,0.72501117,0.99999785,2.7939677e-09,-5.820766e-10,0.0020996332,1
5656000,5656000,0.68858963,0.0015296531,-0.013760466,0.7250191,0.99999785,2.7939677e-09,-5.820766e-10,0.0020996332,1
5660000,5660000,0.6885805,0.0015287424,-0.013759082,0.72502774,0.99999785,2.7939677e-09,-5.820766e-10,0.0020996332,1
5664000,5664000,0.6885719,0.0015241666,-0.013759259,0.72503597,0.99999785,2.7939677e-09,-5.820766e-10,0.0020996332,1
5668000,5668000,0.6885647,0.0015178638,-0.013764375,0.72504264,0.99999785,2.7939677e-09,-5.820766e-10,0.0020996332,1
5672000,5672000,0.6885569,0.0015108034,-0.013767969,0.72505003,0.99999785,2.7939677e-09,-5.820766e-10,0.0020996332,1
5676000,5676000,0.68854636,0.0015028804,-0.0137693295,0.72506005,0.99999785,2.7939677e-09,-5.820766e-10,0.0020996332,1
5680000,5680000,0.68853515,0.0014960865,-0.013769498,0.7250707,0.99999785,2.7939677e-09,-5.820766e-10,0.0020996332,1
5684000,5684000,0.6885251,0.001490048,-0.013768891,0.72508025,0.99999785,2.7939677e-09,-5.820766e-10,0.0020996332,1
5688000,5688000,0.6885178,0.0014836197,-0.013770248,0.72508717,0.99999785,2.7939677e-09,-5.820766e-10,0.0020996332,1
5692000,5692000,0.68851054,0.0014768052,-0.013771239,0.7250941,0.99999785,2.7939677e-09,-5.820766e-10,0.0020996332,1
5696000,5696000,0.6885023,0.0014694791,-0.013766566,0.725102,0.99999785,2.7939677e-09,-5.820766e-10,0.0020996332,1
5700000,5700000,0.68849367,0.0014621457,-0.013761895,0.7251103,0.99999785,2.7939677e-09,-5.820766e-10,0.0020996332,1
5704000,5704000,0.6884455,0.0014564802,-0.013760875,0.7251561,0.99999785,2.7939677e-09,-5.820766e-10,0.0020996332,1
5712000,5712000,0.688356,0.0014487058,-0.013759085,0.72524107,0.99999785,2.7939677e-09,-5.820766e-10,0.0020996332,1
5716000,5716000,0.6883124,0.0014470179,-0.0137617,0.7252824,0.99999785,2.7939677e-09,-5.820766e-10,0.0020996332,1
5720000,5720000,0.6882681,0.0014447003,-0.013768836,0.7253243,0.99999785,2.7939677e-09,-5.820766e-10,0.0020996332,1
5724000,5724000,0.68822116,0.0014408847,-0.013778274,0.7253687,0.99999785,2.7939677e-09,-5.820766e-10,0.0020996332,1
5728000,5728000,0.6881732,0.0014392416,-0.013784628,0.7254141,0.99999785,2.7939677e-09,-5.820766e-10,0.0020996332,1
5732000,5732000,0.688128,0.0014408893,-0.013785242,0.725457,0.99999785,2.7939677e-09,-5.820766e-10,0.0020996332,1
5740000,5740000,0.6880371,0.0014422816,-0.013785359,0.72554314,0.99999785,2.7939677e-09,-5.820766e-10,0.0020996332,1
5744000,5744000,0.6879923,0.0014395578,-0.013785946,0.7255857,0.99999785,2.7939677e-09,-5.820766e-10,0.0020996332,1
5748000,5748000,0.68794894,0.0014380026,-0.013786876,0.72562677,0.99999785,2.7939677e-09,-5.820766e-10,0.0020996332,1
5752000,5752000,0.68790615,0.0014381727,-0.0137906475,0.7256673,0.99999785,2.7939677e-09,-5.820766e-10,0.0020996332,1
5756000,5756000,0.6878618,0.0014363605,-0.013791835,0.7257092,0.99999785,2.7939677e-09,-5.820766e-10,0.0020996332,1
5760000,5760000,0.68781507,0.0014315342,-0.013789971,0.72575355,0.99999785,2.7939677e-09,-5.820766e-10,0.0020996332,1
5764000,5764000,0.68776524,0.0014278088,-0.013789214,0.7258009,0.99999785,2.7939677e-09,-5.820766e-10,0.0020996332,1
5768000,5768000,0.6877163,0.0014272361,-0.0137882475,0.72584724,0.99999785,2.7939677e-09,-5.820766e-10,0.0020996332,1
5772000,5772000,0.6876708,0.0014271365,-0.013788395,0.72589034,0.99999785,2.7939677e-09,-5.820766e-10,0.0020996332,1
5776000,5776000,0.6876333,0.0014263896,-0.013790697,0.7259259,0.99999785,2.7939677e-09,-5.820766e-10,0.0020996332,1
5780000,5780000,0.68759495,0.0014244885,-0.013792656,0.72596216,0.99999785,2.7939677e-09,-5.820766e-10,0.0020996332,1
5788000,5788000,0.6875131,0.0014246064,-0.013796224,0.7260395,0.99999785,2.7939677e-09,-5.820766e-10,0.0020996332,1
5792000,5792000,0.6874708,0.0014280954,-0.0137985535,0.7260796,0.99999785,2.7939677e-09,-5.820766e-10,0.0020996332,1
5796000,5796000,0.6874316,0.0014286521,-0.013801712,0.72611666,0.99999785,2.7939677e-09,-5.820766e-10,0.0020996332,1
5800000,5800000,0.6873983,0.0014252589,-0.013805982,0.72614807,0.99999785,2.7939677e-09,-5.820766e-10,0.0020996332,1
5804000,5804000,0.6873643,0.0014214643,-0.013809889,0.7261802,0.99999785,2.7939677e-09,-5.820766e-10,0.0020996332,1
5808000,5808000,0.687332,0.001419172,-0.013810621,0.7262108,0.99999785,2.7939677e-09,-5.820766e-10,0.0020996332,1
5812000,5812000,0.68730164,0.0014137808,-0.013806914,0.72623956,0.99999785,2.7939677e-09,-5.820766e-10,0.0020996332,1
5820000,5820000,0.68724316,0.0014014054,-0.013804959,0.72629493,0.99999785,2.7939677e-09,-5.820766e-10,0.0020996332,1
5828000,5828000,0.6871848,0.0014012747,-0.0138062015,0.7263501,0.99999785,2.7939677e-09,-5.820766e-10,0.0020996332,1
5832000,5832000,0.6871598,0.0014094054,-0.0138059165,0.72637385,0.99999785,2.7939677e-09,-5.820766e-10,0.0020996332,1
5836000,5836000,0.6871342,0.0014210315,-0.013809679,0.72639793,0.99999785,2.7939677e-09,-5.820766e-10,0.0020996332,1
5844000,5844000,0.6870896,0.0014318697,-0.013810928,0.72644,0.99999785,2.7939677e-09,-5.820766e-10,0.0020996332,1
5852000,5852000,0.6870495,0.0014448116,-0.013805901,0.72647804,0.99999785,2.7939677e-09,-5.820766e-10,0.0020996332,1
5856000,5856000,0.6870305,0.0014496963,-0.013805787,0.726496,0.99999785,2.7939677e-09,-5.820766e-10,0.0020996332,1
5860000,5860000,0.6870127,0.0014535262,-0.013807585,0.7265128,0.99999785,2.7939677e-09,-5.820766e-10,0.0020996332,1
5864000,5864000,0.6869977,0.0014563416,-0.01381004,0.7265269,0.99999785,2.7939677e-09,-5.820766e-10,0.0020996332,1
5868000,5868000,0.68698466,0.0014606785,-0.013811696,0.7265392,0.99999785,2.7939677e-09,-5.820766e-10,0.0020996332,1
5872000,5872000,0.6869707,0.001460512,-0.013814159,0.7265524,0.99999785,2.7939677e-09,-5.820766e-10,0.0020996332,1
5876000,5876000,0.6869521,0.0014587094,-0.013815167,0.72657,0.99999785,2.7939677e-09,-5.820766e-10,0.0020996332,1
5880000,5880000,0.68693507,0.0014594868,-0.013812641,0.7265861,0.99999785,2.7939677e-09,-5.820766e-10,0.0020996332,1
5884000,5884000,0.6869204,0.0014610613,-0.013810091,0.72660005,0.99999785,2.7939677e-09,-5.820766e-10,0.0020996332,1
5888000,5888000,0.68690836,0.0014616805,-0.013811643,0.7266113,0.99999785,2.7939677e-09,-5.820766e-10,0.0020996332,1
5892000,5892000,0.68689525,0.0014588793,-0.01381292,0.7266238,0.99999785,2.7939677e-09,-5.820766e-10,0.0020996332,1
5896000,5896000,0.6868828,0.001452512,-0.013809352,0.7266356,0.99999785,2.7939677e-09,-5.820766e-10,0.0020996332,1
5904000,5904000,0.68686306,0.0014425238,-0.013802465,0.7266544,0.99999785,2.7939677e-09,-5.820766e-10,0.0020996332,1
5908000,5908000,0.68685657,0.0014384879,-0.013797268,0.7266606,0.99999785,2.7939677e-09,-5.820766e-10,0.0020996332,1
5912000,5912000,0.6868508,0.0014390482,-0.013794157,0.7266661,0.99999785,2.7939677e-09,-5.820766e-10,0.0020996332,1
5916000,5916000,0.68684036,0.0014399922,-0.013794431,0.7266759,0.99999785,2.7939677e-09,-5.820766e-10,0.0020996332,1
5920000,5920000,0.6868293,0.001434464,-0.013792968,0.7266865,0.99999785,2.7939677e-09,-5.820766e-10,0.0020996332,1
5924000,5924000,0.6868209,0.0014293317,-0.013790358,0.72669446,0.99999785,2.7939677e-09,-5.820766e-10,0.0020996332,1
5928000,5928000,0.68681383,0.0014288456,-0.013791348,0.72670114,0.99999785,2.7939677e-09,-5.820766e-10,0.0020996332,1
5932000,5932000,0.68680596,0.0014275705,-0.013791608,0.72670853,0.99999785,2.7939677e-09,-5.820766e-10,0.0020996332,1
5940000,5940000,0.6867959,0.001427554,-0.0137848295,0.7267183,0.99999785,2.7939677e-09,-5.820766e-10,0.0020996332,1
5944000,5944000,0.6867922,0.0014283109,-0.013787606,0.72672164,0.99999785,2.7939677e-09,-5.820766e-10,0.0020996332,1
5948000,5948000,0.68678707,0.0014233814,-0.013790171,0.7267265,0.99999785,2.7939677e-09,-5.820766e-10,0.0020996332,1
5956000,5956000,0.6867777,0.0014110887,-0.013795554,0.7267353,0.99999785,2.7939677e-09,-5.820766e-10,0.0020996332,1
