timestamp,timestamp_sample,xyz[0],xyz[1],xyz[2]
3180000,3180000,0.00047513633,0.0012018413,0.00026864265
3184000,3184000,0.00036055828,0.00029341888,-1.1348738e-05
3200000,3200000,0.00037827645,0.0013719231,-0.00022346692
3220000,3220000,0.0002755393,0.000194614,0.0005392537
3236000,3236000,0.00067405956,0.0005917111,0.00014466389
3260000,3260000,2.1572545e-05,0.00046094967,8.65893e-05
3280000,3280000,-0.0009084581,1.9655738e-05,0.00038898268
3300000,3300000,-0.0004392471,0.0010822864,-0.00011325004
3320000,3320000,0.0010344523,0.00015492772,-0.00016430579
3340000,3340000,0.0010840311,0.00021302281,-0.00025770182
3360000,3360000,0.00037146156,0.0010593125,-5.9475566e-05
3380000,3380000,0.0010897326,0.0018679927,0.00024542955
3400000,3400000,-0.00044578075,7.5544725e-05,0.00018446949
3420000,3420000,0.020117758,0.022636991,0.0005450662
3440000,3440000,0.019396806,0.021913873,-0.00016531638
3460000,3460000,0.019504922,0.023315245,-0.00016591254
3480000,3480000,0.019557653,0.023225227,0.00028552508
3500000,3500000,0.019689199,0.022503104,0.00028995037
3520000,3520000,0.020200318,0.023664549,-0.00047941724
3540000,3540000,0.018697714,0.02205007,0.00035976345
3560000,3560000,0.019464245,0.02223386,-0.0001553943
3580000,3580000,0.020061435,0.023460917,1.036519e-05
3600000,3600000,0.019990271,0.022717025,0.00035318776
3620000,3620000,0.019289227,0.023010915,0.00039921398
3640000,3640000,0.019031042,0.023589624,0.00011424936
3660000,3660000,0.01890694,0.02331226,-9.598362e-05
3676000,3676000,0.019710472,0.02402221,0.00040443064
3696000,3696000,0.019649772,0.023450574,6.555072e-05
3716000,3716000,0.019334672,0.024382617,-0.00019031709
3736000,3736000,0.019614575,0.022185426,3.1799045e-05
3760000,3760000,0.020127438,0.023800435,0.00042750002
3780000,3780000,0.020201966,0.023778325,-5.1137446e-05
3796000,3796000,0.019901264,0.025234878,-5.8525453e-05
3820000,3820000,0.02073061,0.024063947,0.00069926254
3840000,3840000,0.020063695,0.025046295,-3.3883938e-05
3856000,3856000,0.01996747,0.023663554,-0.00029388705
3880000,3880000,0.01924169,0.025324563,6.866657e-05
3900000,3900000,0.020028088,0.023942444,7.555178e-05
3920000,3920000,0.019378046,0.024652587,-3.0036457e-05
3936000,3936000,0.019135762,0.024508903,-0.00011782851
3956000,3956000,0.020685203,0.023521762,0.00037976672
3980000,3980000,0.020177739,0.023487428,4.039983e-05
4000000,4000000,0.020756643,0.024385871,0.00034495702
4020000,4020000,0.020009797,0.02350951,7.774005e-05
4040000,4040000,0.019384751,0.024616472,0.00038995838
4060000,4060000,0.02065167,0.024734806,0.00041730236
4080000,4080000,0.020820854,0.023077598,0.0009542281
4100000,4100000,0.020062832,0.023299668,0.00038524414
4116000,4116000,0.020178376,0.024566742,0.00017726755
4136000,4136000,0.018797474,0.023585554,-0.00022241
4156000,4156000,0.019328795,0.025073888,1.8652901e-05
4180000,4180000,0.018892577,0.023541996,-8.561223e-05
4200000,4200000,0.02061844,0.023418559,6.156915e-05
4220000,4220000,0.020500863,0.023294555,-0.00018413416
4240000,4240000,0.019477492,0.023190496,4.982382e-05
4256000,4256000,0.02020158,0.022438273,0.0003256538
4276000,4276000,0.019825751,0.023660582,0.00014058295
4300000,4300000,0.019015145,0.022542907,0.000582186
4316000,4316000,0.019398125,0.023356838,7.090907e-05
4340000,4340000,0.018745856,0.022891885,0.00025537377
4360000,4360000,0.020251172,0.022564128,0.0005840836
4380000,4380000,0.019504743,0.021817612,0.0002922774
4400000,4400000,0.019554503,0.022175439,0.00057417067
4420000,4420000,0.019157024,0.022758348,-0.0002511667
4440000,4440000,0.018392839,0.022240216,-5.649546e-05
4460000,4460000,0.020127071,0.022702515,0.00016741359
4480000,4480000,0.018844407,0.02202191,0.000344988
4500000,4500000,0.019028265,0.021796897,-0.00024688576
4520000,4520000,0.019082189,0.021030197,0.00028706284
4540000,4540000,0.019606633,0.022473024,-0.00036455813
4556000,4556000,0.018679753,0.020501707,-0.00059729896
4580000,4580000,0.019483611,0.021312881,-0.000102178594
4596000,4596000,0.018947853,0.022716114,-0.0006551021
4620000,4620000,0.019155195,0.022036504,-0.00012129419
4640000,4640000,0.018553616,0.02250991,-0.000881467
4660000,4660000,0.019585732,0.021113621,-2.0209934e-06
4676000,4676000,0.019355308,0.021320444,-0.00013377365
4700000,4700000,0.019001357,0.02138029,0.000119851786
4720000,4720000,0.01988807,0.021354046,-0.00017230671
4740000,4740000,0.019253073,0.020384774,-0.0007624916
4760000,4760000,0.018694982,0.020065542,-0.0003243073
4780000,4780000,0.01862075,0.0221441,0.00022777553
4796000,4796000,0.018818052,0.020023746,0.00011528233
4820000,4820000,0.019155284,0.022230884,0.00044382495
4840000,4840000,0.019281082,0.020616673,1.8801948e-05
4860000,4860000,0.018645845,0.021581778,0.00020587661
4880000,4880000,0.017542822,0.02068431,0.00016695564
4900000,4900000,0.019332293,0.02125309,-0.00032185085
4920000,4920000,0.01761203,0.021526564,-0.000106773085
4940000,4940000,0.018285358,0.021111947,3.0988547e-05
4956000,4956000,0.018658897,0.020123048,6.533049e-05
4980000,4980000,0.018314429,0.02094845,-0.0008140051
5000000,5000000,0.018227804,0.020207204,-0.00034311903
5020000,5020000,0.018548163,0.02206209,0.0006757781
5040000,5040000,0.017047938,0.021143788,0.0001775231
5060000,5060000,0.017905787,0.020333126,-0.00015449418
5080000,5080000,0.018281221,0.020854339,0.00014945169
5100000,5100000,0.017473927,0.021418264,-0.00019117315
5120000,5120000,0.017164785,0.020073812,-0.00010691276
5140000,5140000,0.018544711,0.021465667,-0.0002973874
5160000,5160000,0.018364275,0.02146964,0.00018281897
5180000,5180000,0.017794803,0.020831458,-0.0004032067
5200000,5200000,0.01811715,0.02102511,-0.0003295438
5220000,5220000,0.01770202,0.02071896,0.00011828349
5236000,5236000,0.017215412,0.020755103,-6.565587e-05
5260000,5260000,0.017971342,0.019774707,-0.000768218
5276000,5276000,0.016111698,0.021937748,-0.00057574577
5300000,5300000,0.018143123,0.020045858,0.00013021496
5316000,5316000,0.016496267,0.020790266,-0.00027071006
5340000,5340000,0.016762234,0.020524144,-0.0008386434
5360000,5360000,0.018294243,0.022969756,-0.001037225
5380000,5380000,0.017037455,0.02081797,-0.0004346636
5400000,5400000,0.01769261,0.021176508,-0.0001305898
5420000,5420000,0.016570164,0.02032319,-0.00080502126
5436000,5436000,0.017318875,0.020621235,-0.00034395125
5460000,5460000,0.017852278,0.020450473,-0.0007995249
5480000,5480000,0.017622005,0.021130158,-0.00020597824
5500000,5500000,0.017718624,0.020426271,-0.00025839856
5520000,5520000,0.018120265,0.020474227,-0.0006456026
5540000,5540000,0.017280623,0.020995744,-0.00024244064
5560000,5560000,0.016720904,0.021082804,-0.00045864936
5580000,5580000,0.017353391,0.019775748,-0.0002409162
5600000,5600000,0.0177711,0.020677969,-0.0001644708
5620000,5620000,0.016810289,0.020875052,0.0004476727
5640000,5640000,0.016751897,0.020204443,-0.0001493806
5660000,5660000,0.016512405,0.020780928,-0.00014344105
5680000,5680000,0.017548213,0.019948721,-0.00049085927
5700000,5700000,0.01697283,0.019450871,-0.00022715931
5720000,5720000,0.018140934,0.021499502,-0.0003526958
5740000,5740000,0.016812403,0.020309856,-0.0005939804
5760000,5760000,0.017597158,0.01982699,-0.0007464254
5780000,5780000,0.017876068,0.020754784,-0.0004546393
5800000,5800000,0.01826772,0.020512007,-0.0007857551
5820000,5820000,0.017951587,0.019980872,-0.00045384
5840000,5840000,0.01694493,0.021926325,-0.000409262
5860000,5860000,0.017789606,0.020904548,-0.0005455032
5880000,5880000,0.0172178,0.020025559,-0.0010488728
5900000,5900000,0.017700182,0.019325338,-0.00070753315
5920000,5920000,0.017844984,0.0205075,-0.00092355564
5940000,5940000,0.016817572,0.020456402,-0.00045651817
5960000,5960000,0.018245598,0.020507034,-0.0007267982
5980000,5980000,0.016792268,0.020532548,-0.0009805582
6000000,6000000,0.017185684,0.020402368,-0.00047554247
6020000,6020000,0.017039858,0.020533113,-0.00076144835
6040000,6040000,0.0176837,0.02145009,-0.00085583405
6060000,6060000,0.016927114,0.020666486,-0.0010224184
6080000,6080000,0.017542925,0.020937806,-0.00038800258
6100000,6100000,0.017279835,0.021129945,-0.00018855363
6120000,6120000,0.01805254,0.021270277,-0.00045311658
6140000,6140000,0.017444074,0.021463351,-0.00048899086
6156000,6156000,0.017448626,0.019102847,0.00014521401
6180000,6180000,0.01771897,0.019716755,-0.0004487854
6200000,6200000,0.017072901,0.020759659,0.00070592476
6220000,6220000,0.017580688,0.020820076,-0.0011470749
6240000,6240000,0.01644886,0.019845998,5.1469544e-07
6260000,6260000,0.016929924,0.020812847,-0.0005247261
6280000,6280000,0.01660598,0.019763172,-0.001284363
6300000,6300000,0.017697966,0.020586418,-0.00022380124
6320000,6320000,0.01724738,0.02078365,-0.00063542335
6340000,6340000,0.016972339,0.019605847,-0.00022004893
6360000,6360000,0.017588524,0.019502673,-0.0005632237
6380000,6380000,0.017612161,0.020197516,-0.0008365013
6400000,6400000,0.01762696,0.021680286,8.318808e-05
6420000,6420000,0.017089263,0.019392196,-0.00012558559
6440000,6440000,0.017074894,0.019951664,-1.0509999e-05
6460000,6460000,0.017169477,0.019489631,-0.0004376994
6480000,6480000,0.017025769,0.020635994,-0.0002177334
6500000,6500000,0.017625788,0.020534193,8.2096136e-05
6520000,6520000,0.016357306,0.021129513,-0.00019177585
6540000,6540000,0.017060502,0.020240765,-0.00024784208
6560000,6560000,0.01571901,0.020437637,-0.0010482462
6580000,6580000,0.017635249,0.01956836,-0.00010951995
6600000,6600000,0.017794395,0.019101113,-0.00040861248
6620000,6620000,0.016765326,0.020942435,-0.00045083053
6640000,6640000,0.017626416,0.020001005,-0.00091823697
6660000,6660000,0.015892172,0.021118695,-0.00035411125
6680000,6680000,0.017899038,0.019246673,-0.0006454337
6700000,6700000,0.017003095,0.019917842,-0.00017450364
6720000,6720000,0.017109545,0.020114101,-0.00023890803
6740000,6740000,0.016901122,0.019628186,-0.00045044694
6760000,6760000,0.017526215,0.020038022,0.00019986853
6780000,6780000,0.016225114,0.020185633,-0.00078138703
6796000,6796000,0.016947813,0.020479063,-0.0006176182
6820000,6820000,0.0170246,0.019458989,0.00031408062
6840000,6840000,0.016561538,0.020647677,-0.000288162
6860000,6860000,0.016905436,0.020469861,-0.00029873007
6880000,6880000,0.015937293,0.020711487,-0.00045559555
6900000,6900000,0.017823648,0.020531973,-0.00021795368
6920000,6920000,0.015992356,0.021930406,-0.000109995766
6940000,6940000,0.016636224,0.019651873,5.348262e-05
6956000,6956000,0.01686156,0.020962976,-0.00039749584
6980000,6980000,0.016991224,0.01939603,-0.0004892782
7000000,7000000,0.016752793,0.021008987,0.0002835826
7020000,7020000,0.015813703,0.021267071,-0.00016916763
7040000,7040000,0.016655074,0.019455917,-0.0001338276
7060000,7060000,0.017595239,0.021009823,-0.0004356727
7076000,7076000,0.017237434,0.021042269,0.00010302055
7096000,7096000,0.01670031,0.021149654,-0.000102794686
7120000,7120000,0.016793044,0.020149335,0.00016733627
7140000,7140000,0.015972702,0.0217001,-0.00020455707
7156000,7156000,0.01694169,0.020698147,0.00026840213
7180000,7180000,0.017883115,0.01963949,-0.00052345725
7200000,7200000,0.016292622,0.021190997,7.387619e-05
7220000,7220000,0.017703563,0.020697122,-0.00032576613
7240000,7240000,0.01607119,0.021131234,0.00033576932
7260000,7260000,0.016260553,0.02082621,-0.00027583315
7276000,7276000,0.016226102,0.02082186,-0.0001996042
7300000,7300000,0.01615384,0.019471519,-0.00039302916
7320000,7320000,0.01675491,0.01996579,-0.00063351117
7340000,7340000,0.017612938,0.021943122,-0.00041841142
7360000,7360000,0.01787379,0.02005204,4.3347223e-05
7380000,7380000,0.017459992,0.020992965,-0.00055386464
7400000,7400000,0.016887069,0.019752901,-0.00020529608
7420000,7420000,0.01798967,0.021442823,-0.0003374031
7440000,7440000,0.016945073,0.019789727,-0.00019812265
7460000,7460000,0.017956067,0.022013744,-0.0001293066
7480000,7480000,0.016965069,0.020236386,-0.00024613077
7500000,7500000,0.017904118,0.021617988,-0.00013843575
7516000,7516000,0.017512595,0.019995462,6.9189984e-05
7540000,7540000,0.016999176,0.020446122,0.0001962945
7560000,7560000,0.016761625,0.0209414,0.00018899856
7580000,7580000,0.017226199,0.021663126,-4.9972277e-05
7600000,7600000,0.017271044,0.020430831,0.0005639434
7620000,7620000,0.017668352,0.021667236,0.00013208948
7640000,7640000,0.01718748,0.02074965,-1.8579025e-05
7660000,7660000,0.016435172,0.019786641,-0.00031091177
7680000,7680000,0.016814282,0.020429613,-3.1480147e-05
7700000,7700000,0.017681386,0.021299575,-0.00026363585
7720000,7720000,0.017099965,0.021146175,-0.00043311852
7740000,7740000,0.017317083,0.01981804,-8.3370694e-05
7760000,7760000,0.01705731,0.020338077,-0.0005688929
7780000,7780000,0.017918086,0.020749532,-0.00040338637
7800000,7800000,0.016559623,0.01974884,-0.00011114944
7820000,7820000,0.017073298,0.020293595,0.00021187802
7840000,7840000,0.016684964,0.019809185,-0.00020862448
7860000,7860000,0.017715381,0.019974127,0.00018148916
7880000,7880000,0.018071504,0.01963234,-0.0001392826
7900000,7900000,0.017292779,0.020504072,0.00059222727
7920000,7920000,0.017117415,0.02124326,0.0006617641
7940000,7940000,0.01750492,0.020530785,-9.204373e-05
7960000,7960000,0.01709528,0.020725196,-0.00040031076
7980000,7980000,0.018119553,0.02093682,-0.00034616468
8000000,8000000,0.017559346,0.02089843,-0.000115249866
8020000,8020000,0.017538618,0.020244034,0.00024622184
8040000,8040000,0.017417438,0.019848255,4.5375386e-05
8060000,8060000,0.016518628,0.01998779,-9.525719e-06
8080000,8080000,0.017715517,0.019642498,0.00015483242
8100000,8100000,0.01720643,0.020239295,-5.533764e-05
8120000,8120000,0.017365498,0.019729272,8.687058e-05
8140000,8140000,0.018137656,0.020366171,-0.00032233354
8160000,8160000,0.01682205,0.020730918,-6.971725e-05
8180000,8180000,0.01756718,0.020449739,0.00019502942
8200000,8200000,0.017780622,0.019905603,-0.00037837075
8220000,8220000,0.016687637,0.021081908,1.5406613e-05
8240000,8240000,0.017277611,0.020093841,-0.0004555136
8260000,8260000,0.017316045,0.020277051,0.0004427555
8280000,8280000,0.017451258,0.020047618,0.00011135139
8300000,8300000,0.017908892,0.020315688,-0.00033754698
8320000,8320000,0.017722497,0.019292908,-0.00040910748
8336000,8336000,0.01718593,0.02050358,-0.0001881864
8356000,8356000,0.016985826,0.019836843,-7.275073e-06
8380000,8380000,0.01694956,0.019925386,-0.00022162791
8400000,8400000,0.016464354,0.019942557,-1.37197785e-05
8416000,8416000,0.017621383,0.020406479,0.00012956667
8440000,8440000,0.017672712,0.01923257,-0.00024765343
8460000,8460000,0.016620295,0.020408336,-0.00048189267
8480000,8480000,0.017077528,0.019956125,-0.0001347428
8496000,8496000,0.018123368,0.020626687,-0.00033286688
8520000,8520000,0.01734751,0.020182313,-0.0005591602
8540000,8540000,0.017220937,0.020500867,-3.7060538e-05
8556000,8556000,0.016597355,0.019363757,-0.00032651657
8580000,8580000,0.017065644,0.020205317,-0.0001267124
8600000,8600000,0.016952433,0.020057382,-0.00050439563
8620000,8620000,0.016653825,0.019551951,-0.00027294012
8636000,8636000,0.016859006,0.020780722,-0.00024014675
8656000,8656000,0.017476821,0.02071519,1.4142972e-05
8676000,8676000,0.01686297,0.021076972,0.00013974933
8696000,8696000,0.016551496,0.02020608,-0.00055118604
8716000,8716000,0.016794968,0.019641077,0.00016669025
8736000,8736000,0.01686646,0.020174531,-0.00067552086
8756000,8756000,0.017390657,0.020050088,-0.0002900293
8776000,8776000,0.016779242,0.019905841,-0.0001453245
8800000,8800000,0.017489342,0.020024026,0.00020408852
8820000,8820000,0.016354796,0.022045113,-4.260503e-05
8840000,8840000,0.017768942,0.018953212,0.00030992547
8860000,8860000,0.016461669,0.02060856,-0.00011237078
8880000,8880000,0.017886775,0.020423276,-0.00021318563
8900000,8900000,0.016328782,0.01958193,-0.00015622366
8920000,8920000,0.018566763,0.019822767,-0.0001860682
8940000,8940000,0.0165446,0.019563492,5.3119707e-05
8960000,8960000,0.017117381,0.019518394,-0.00038015214
8980000,8980000,0.016601114,0.020898778,-0.00037607737
9000000,9000000,0.017343197,0.019390475,-0.0001481421
9020000,9020000,0.0167733,0.019409996,-0.00014954021
9040000,9040000,0.016662767,0.020846445,-0.0003204371
9060000,9060000,0.016918126,0.018896379,-1.4951232e-05
9080000,9080000,0.016600726,0.02026959,-0.00017587212
9096000,9096000,0.017672826,0.018873254,-0.0003572984
9116000,9116000,0.01686319,0.019403154,-0.0005525202
9136000,9136000,0.016397415,0.019985056,0.0005632125
9160000,9160000,0.016730428,0.02031197,0.0004156377
9180000,9180000,0.016658062,0.020651005,0.0003942893
9196000,9196000,0.016818253,0.019319138,-9.456812e-06
9216000,9216000,0.017272467,0.019554386,-7.9507525e-05
9236000,9236000,0.016217615,0.020139264,0.00057812344
9260000,9260000,0.01641833,0.01940472,-0.0009703624
9280000,9280000,0.01707099,0.021273604,1.0119961e-05
9296000,9296000,0.016021002,0.018650448,-0.0005385444
9316000,9316000,0.016925873,0.020983662,-0.0006429855
9336000,9336000,0.016861333,0.02002762,0.00010733891
9356000,9356000,0.016929561,0.020690104,5.7812245e-05
9376000,9376000,0.017116621,0.019995343,-0.00056203874
9396000,9396000,0.015812902,0.01951334,-0.00039367352
9416000,9416000,0.016240811,0.020188553,-0.000610684
9436000,9436000,0.016840786,0.019456435,-0.00023478745
9456000,9456000,0.017202985,0.019974388,-0.00035364475
9480000,9480000,0.01740453,0.019813778,-5.2114377e-05
9500000,9500000,0.017121926,0.019540276,-0.00012402258
9520000,9520000,0.017734174,0.020322526,-0.000120428835
9540000,9540000,0.017009145,0.018791549,3.8229162e-05
9556000,9556000,0.015643626,0.019551432,-2.15241e-05
9580000,9580000,0.016440473,0.019176042,-0.00024483653
9600000,9600000,0.016879147,0.020021643,-0.00027309486
9620000,9620000,0.01695887,0.020360183,-0.00040750328
9640000,9640000,0.01791355,0.018884351,0.00020703711
9660000,9660000,0.016706344,0.020206708,-3.0261115e-05
9680000,9680000,0.017195655,0.018145857,-0.0004151642
9700000,9700000,0.01649973,0.020091577,6.079704e-05
9720000,9720000,0.016574102,0.019725323,-0.00022520954
9740000,9740000,0.016514646,0.019961044,-0.0006338484
9756000,9756000,0.01721934,0.019557826,0.0004872661
9776000,9776000,0.016017728,0.019316845,0.00031368434
9800000,9800000,0.016073108,0.019578556,-0.0001906245
9820000,9820000,0.017214775,0.018760562,3.9103208e-05
9836000,9836000,0.016491825,0.020368973,0.00030452717
9860000,9860000,0.016757844,0.019289967,-0.0003071339
9880000,9880000,0.017293196,0.020245317,-0.00041492653
9896000,9896000,0.015503602,0.018951623,-6.8484296e-05
9920000,9920000,0.016981112,0.020303838,-8.026118e-05
9940000,9940000,0.015102999,0.019969085,-0.00016062884
9960000,9960000,0.017641377,0.019487632,-0.00044417978
9976000,9976000,0.015761169,0.019797858,-0.00013735378
10000000,10000000,0.016547538,0.019946773,-0.00029931832
10020000,10020000,0.017419258,0.019589558,-0.00028664604
10040000,10040000,0.016846057,0.01895538,0.00030489027
10060000,10060000,0.01739727,0.020491945,1.6831676e-05
10080000,10080000,0.01653304,0.020436639,0.00032835137
10100000,10100000,0.016110353,0.019748708,-0.00016272494
10120000,10120000,0.016324213,0.019612633,0.0002470561
10140000,10140000,0.017135184,0.019408388,0.00015848549
10160000,10160000,0.017653866,0.02075396,-8.582189e-05
10180000,10180000,0.016580788,0.018280875,-0.00030664375
10200000,10200000,0.016235052,0.019088734,-0.00017758504
10220000,10220000,0.016921476,0.01996065,-0.00013790662
10240000,10240000,0.016343635,0.019534461,0.00018366786
10260000,10260000,0.016709398,0.02005139,-9.742882e-05
10280000,10280000,0.015502404,0.02071597,0.00027121927
10300000,10300000,0.018251162,0.019157894,-0.00022502999
10320000,10320000,0.016546763,0.019535255,0.00014903436
10340000,10340000,0.017444458,0.018538179,0.0001485118
10360000,10360000,0.016227093,0.019729035,-0.00016771791
10380000,10380000,0.018655125,0.019478455,-0.00022223119
10400000,10400000,0.017117262,0.020255728,-0.00026875557
10420000,10420000,0.016373316,0.01937886,0.00016468407
10440000,10440000,0.016929043,0.019373117,-0.00023349652
10460000,10460000,0.016830893,0.021013621,-0.00091596134
10480000,10480000,0.01656523,0.01922571,3.8395778e-05
10496000,10496000,0.016523892,0.019410238,-0.0004370167
10516000,10516000,0.017406313,0.020175038,-0.00019964004
10536000,10536000,0.015819253,0.019401943,0.0003291433
10560000,10560000,0.015980331,0.019887693,0.0001966885
10580000,10580000,0.016684799,0.020295046,-0.00017161177
10596000,10596000,0.016307577,0.020276815,0.0002171907
10616000,10616000,0.016053801,0.019281436,-0.0004302214
10636000,10636000,0.016785938,0.02053832,0.00023538701
10660000,10660000,0.016052036,0.018723987,3.4787252e-05
10680000,10680000,0.017562876,0.02035964,0.0002279674
10700000,10700000,0.0162206,0.019612607,2.1894626e-05
10720000,10720000,0.016089277,0.019800799,0.000497531
10736000,10736000,0.016831376,0.019716714,-8.923442e-05
10760000,10760000,0.016634066,0.019828133,-0.0003883542
10780000,10780000,0.016741933,0.018054182,-0.00046592747
10800000,10800000,0.017043479,0.020183297,-0.0005376767
10816000,10816000,0.016479632,0.01927718,-0.00028577336
10836000,10836000,0.016643127,0.019195152,-0.00017782212
10860000,10860000,0.016085165,0.020612106,0.00010639897
10880000,10880000,0.016515883,0.02013699,-4.7503938e-05
10900000,10900000,0.01563901,0.018986695,0.00047450402
10920000,10920000,0.01675162,0.019733,-8.889625e-05
10940000,10940000,0.016901651,0.020308102,-0.0003718285
10960000,10960000,0.016414538,0.018977908,-0.00011167205
10980000,10980000,0.01632394,0.019897755,0.000101940335
10996000,10996000,0.016754214,0.02065319,0.00018349115
11020000,11020000,0.016692871,0.018103842,-0.00039892326
11040000,11040000,0.016805932,0.020084878,-7.991141e-05
11060000,11060000,0.017274067,0.019547876,4.8586564e-05
11076000,11076000,0.01691032,0.019917015,-0.0001667703
11100000,11100000,0.016601758,0.019507244,-0.00018689828
11120000,11120000,0.016749065,0.019681796,0.00043235082
11140000,11140000,0.015450941,0.019208971,0.00011193529
11160000,11160000,0.0164228,0.018830914,-0.000113953654
11176000,11176000,0.016417652,0.019303225,-5.11494e-05
11196000,11196000,0.017057171,0.018975314,0.00021495634
11220000,11220000,0.015942898,0.019412553,8.9641406e-05
11240000,11240000,0.016805094,0.019406963,2.4827057e-05
11260000,11260000,0.016100768,0.02020343,-0.00011572971
11280000,11280000,0.0165258,0.018352931,-0.0004576249
11300000,11300000,0.015420276,0.02065403,-0.00014029791
11320000,11320000,0.016940212,0.01889101,-0.0006321544
11340000,11340000,0.0169442,0.01917726,-0.000108043154
11360000,11360000,0.016202096,0.020854738,-0.00013583459
11380000,11380000,0.017408801,0.018569151,0.0003645694
11400000,11400000,0.015993293,0.020620879,-0.00042924937
11416000,11416000,0.016911853,0.01941361,0.00026657188
11440000,11440000,0.016923223,0.019368287,-0.0003087794
11460000,11460000,0.016564988,0.018832471,-0.00042850114
11480000,11480000,0.016223973,0.018726775,0.00022205815
11500000,11500000,0.01659637,0.018899465,-0.00011206621
11520000,11520000,0.016391398,0.020290578,8.738083e-05
11540000,11540000,0.017051281,0.018422458,8.013565e-07
11560000,11560000,0.01650039,0.018391384,1.2011093e-05
11580000,11580000,0.016158285,0.020081928,2.3345789e-05
11600000,11600000,0.016375177,0.019761335,-0.00029576125
11620000,11620000,0.01577539,0.0179914,5.188623e-05
11640000,11640000,0.017541237,0.020602794,-2.355827e-05
11656000,11656000,0.015697887,0.018524833,2.4257217e-05
11676000,11676000,0.016316552,0.0194838,0.00020791535
11696000,11696000,0.017309261,0.01938138,0.00034947848
11716000,11716000,0.016879162,0.019647628,-0.00026494454
11740000,11740000,0.016915124,0.019087356,0.00027806018
11756000,11756000,0.016864195,0.018691953,3.7044404e-06
11776000,11776000,0.015412554,0.017951757,0.00019452906
11800000,11800000,0.01735864,0.01970942,0.0002380114
11820000,11820000,0.016377006,0.019766835,-0.00022124033
11840000,11840000,0.01649407,0.019936485,1.7796434e-05
11860000,11860000,0.01594889,0.018734176,0.00011755435
11880000,11880000,0.016351847,0.018655099,0.00010906521
11900000,11900000,0.016687721,0.019903794,0.00037085256
11920000,11920000,0.01674784,0.020290298,-4.819789e-05
11936000,11936000,0.016208524,0.01913368,-0.00016379448
11956000,11956000,0.015312577,0.018959621,0.00026221553
11980000,11980000,0.016722376,0.019682378,0.0003478408
12000000,12000000,0.016245438,0.017551651,9.672343e-05
12020000,12020000,0.016199548,0.019149575,7.736456e-06
12040000,12040000,0.016449863,0.018854272,0.00013974974
12060000,12060000,0.016339486,0.01829397,-0.00063084153
12080000,12080000,0.016253414,0.019641038,-5.07373e-05
12100000,12100000,0.016287811,0.018399231,-0.00038048578
12120000,12120000,0.016337236,0.017566228,0.00040472933
12140000,12140000,0.016099878,0.019599102,0.00024752915
12160000,12160000,0.015565912,0.018292036,-0.00014169696
12180000,12180000,0.016118987,0.019119715,-0.00023182796
12200000,12200000,0.016068295,0.019466698,0.0003959285
12220000,12220000,0.015997078,0.019385235,9.493479e-05
12240000,12240000,0.015870485,0.018976046,0.0002307043
12256000,12256000,0.015854994,0.019376744,-0.00035472057
12280000,12280000,0.016306248,0.019395895,0.0001692199
12300000,12300000,0.016351854,0.019528056,2.8308574e-05
12316000,12316000,0.017116899,0.020189067,0.00023610854
12336000,12336000,0.014911915,0.017215377,-0.00019466589
12356000,12356000,0.016005453,0.02044903,5.5751665e-05
12376000,12376000,0.015635787,0.0185324,-0.00028481215
12400000,12400000,0.015288403,0.019635482,4.6251553e-05
12416000,12416000,0.016247397,0.019441199,4.3726708e-05
12440000,12440000,0.016080577,0.01895674,0.00019043896
12460000,12460000,0.01605529,0.018931797,6.245368e-05
12480000,12480000,0.016606703,0.01839602,-0.00060255
12500000,12500000,0.016805785,0.019030755,-5.3250384e-05
12520000,12520000,0.01693126,0.017928228,-7.269345e-05
12540000,12540000,0.015118921,0.019315135,-0.0003562418
12560000,12560000,0.015860744,0.019070756,0.00028968204
12580000,12580000,0.015839297,0.019063037,-6.910204e-06
12600000,12600000,0.015893565,0.018608212,-5.091962e-05
12620000,12620000,0.015936162,0.01933757,0.000639558
12640000,12640000,0.01685009,0.019635035,1.9921921e-05
12660000,12660000,0.015896441,0.019458799,0.0002819765
12680000,12680000,0.016430967,0.01894644,0.00020876383
12700000,12700000,0.017403781,0.018688861,0.00024237573
12720000,12720000,0.01610719,0.019913854,-0.00021611247
12740000,12740000,0.016825436,0.01877761,0.00019628838
12760000,12760000,0.014981866,0.018473059,-0.000105194886
12780000,12780000,0.016254392,0.02084027,0.00013659753
12800000,12800000,0.016879378,0.018650077,-0.00016602901
12820000,12820000,0.015999451,0.019250529,-0.0003693647
12840000,12840000,0.01632141,0.019627176,0.00056089164
12860000,12860000,0.015689766,0.018513279,-1.4168444e-06
12876000,12876000,0.016012995,0.020139884,-0.0002262869
12896000,12896000,0.015698006,0.018568065,-0.00021540653
12920000,12920000,0.016226316,0.018799506,-0.00029771618
12936000,12936000,0.015999695,0.018751564,3.7530754e-05
12956000,12956000,0.015843531,0.018723574,0.00063889736
12980000,12980000,0.016558431,0.019708345,0.00013208845
13000000,13000000,0.015843403,0.017862508,0.0001369033
13020000,13020000,0.015476859,0.019729467,-0.00012131049
13040000,13040000,0.01668786,0.018814307,0.00018862367
13056000,13056000,0.0152541995,0.017630849,6.541226e-05
13080000,13080000,0.016302137,0.018298507,-0.0003151012
13096000,13096000,0.015541783,0.021113863,0.00016200104
13120000,13120000,0.015683811,0.019712051,-0.000602771
13140000,13140000,0.016035303,0.020421792,-9.393298e-05
13160000,13160000,0.015502675,0.018526876,-0.00023720633
13180000,13180000,0.015773026,0.018955234,0.0003577407
13196000,13196000,0.0150768375,0.019538708,-0.00022014068
13220000,13220000,0.015822642,0.019140005,-0.00015987619
13240000,13240000,0.015136428,0.019051274,-0.00010279012
13260000,13260000,0.01593311,0.0181835,-0.00014105572
13280000,13280000,0.016316466,0.019744137,0.00026738434
13300000,13300000,0.016733274,0.018744731,0.00037564608
13320000,13320000,0.015817938,0.019636933,7.689669e-05
13340000,13340000,0.016058799,0.01941051,0.0009435245
13360000,13360000,0.015425138,0.019555127,9.34583e-05
13380000,13380000,0.016149694,0.018938672,-1.0329963e-05
13400000,13400000,0.016889932,0.01864192,0.0005450393
13420000,13420000,0.015902143,0.01930577,-4.679357e-05
13440000,13440000,0.015416674,0.019597242,0.0001598863
13460000,13460000,0.016687851,0.018610347,0.00033514466
13480000,13480000,0.015751049,0.019857416,-0.00022056853
13500000,13500000,0.015227191,0.018988721,-3.808597e-05
13520000,13520000,0.015362605,0.019685829,-0.00016742619
13536000,13536000,0.017065426,0.01863495,-0.00024350137
13560000,13560000,0.016344083,0.018037323,-0.000113266244
13580000,13580000,0.015683193,0.019576622,-0.0005818486
13600000,13600000,0.015101539,0.018925361,0.00017511526
13620000,13620000,0.015502875,0.019338833,-0.0003480492
13640000,13640000,0.015992114,0.019420853,-0.00021493272
13656000,13656000,0.015184863,0.018352175,0.00033303778
13676000,13676000,0.015960028,0.019767726,-0.00024312017
13696000,13696000,0.016160225,0.01802725,0.00040662877
13716000,13716000,0.016724378,0.018641893,-0.00015958383
13736000,13736000,0.015057637,0.01923493,4.9699676e-05
13756000,13756000,0.01585252,0.01925727,-9.322807e-05
13776000,13776000,0.01551633,0.018762391,0.00071961776
13796000,13796000,0.016278561,0.018678604,0.00016220879
13816000,13816000,0.0147847785,0.017898966,-3.513908e-05
13836000,13836000,0.015642643,0.019364974,0.00012497166
13856000,13856000,0.01578594,0.018625315,0.00019417776
13876000,13876000,0.015826982,0.01860071,-9.2416296e-05
13900000,13900000,0.016866203,0.019632732,-0.00025400778
13916000,13916000,0.016076501,0.01865225,-0.00026803414
13940000,13940000,0.014882146,0.018067315,0.0003507541
13956000,13956000,0.015613451,0.020046085,-0.0003839066
13980000,13980000,0.016137086,0.01821421,-0.000109091125
14000000,14000000,0.017319635,0.018323945,-1.2810272e-05
14020000,14020000,0.014355957,0.01927693,-5.778347e-05
14040000,14040000,0.015612135,0.018428436,-0.00028112435
14060000,14060000,0.017217139,0.018939545,0.00017123522
14080000,14080000,0.015429764,0.01752346,-0.00025038977
14100000,14100000,0.015897844,0.01847445,7.964119e-05
14116000,14116000,0.014613294,0.019270794,-0.00013541263
14140000,14140000,0.016390879,0.018284345,-0.00016357114
14160000,14160000,0.014524174,0.018596118,7.681731e-05
14180000,14180000,0.01602583,0.018213023,-3.3626566e-06
14200000,14200000,0.014884795,0.019733341,0.00047303457
14220000,14220000,0.015894013,0.019043308,-0.000120234145
14240000,14240000,0.01701273,0.019458285,0.00027920495
14260000,14260000,0.014562236,0.018111458,0.0004913088
14280000,14280000,0.016948938,0.019026238,0.00020894098
14300000,14300000,0.015363189,0.018422721,0.00018255055
14320000,14320000,0.016611662,0.01939616,0.00040073623
14340000,14340000,0.01627035,0.01792107,0.00020049221
14360000,14360000,0.01568352,0.019435735,0.0003049051
14380000,14380000,0.015547009,0.017209716,1.0622584e-05
14400000,14400000,0.016009323,0.018658273,0.00014123615
14420000,14420000,0.015997486,0.01937546,6.482101e-05
14440000,14440000,0.016911022,0.017947795,0.00020412354
14460000,14460000,0.015301659,0.018926635,0.0006535545
14480000,14480000,0.016667344,0.017917598,-0.00019957463
14500000,14500000,0.015508614,0.01906456,0.00029931992
14520000,14520000,0.015712054,0.017175445,0.00027762374
14540000,14540000,0.013658971,0.020676797,-8.182386e-05
14560000,14560000,0.014247511,0.019882075,-0.0001352079
14580000,14580000,0.013944882,0.019906152,0.00029272825
14600000,14600000,0.013469193,0.020018078,-1.7745375e-05
14620000,14620000,0.014523193,0.020210817,0.00042673462
14640000,14640000,0.015043327,0.020148499,-0.00032223342
14660000,14660000,0.015047789,0.019980216,9.953842e-06
14680000,14680000,0.015602527,0.01859308,-0.00022962014
14700000,14700000,0.015272676,0.017925803,-0.00042084276
14716000,14716000,0.015931422,0.019963453,0.00021074429
14736000,14736000,0.014787101,0.018113079,0.00016242666
14756000,14756000,0.015130256,0.019288162,-0.0004489944
14776000,14776000,0.015547772,0.017476773,0.00023271814
14796000,14796000,0.016632931,0.019740228,0.00020445562
14820000,14820000,0.015568942,0.01901476,-0.00024482058
14840000,14840000,0.015194442,0.017960148,0.00015172722
14860000,14860000,0.014556395,0.018891724,2.7824804e-05
14880000,14880000,0.016203275,0.019340578,0.0004998809
14900000,14900000,0.016572015,0.017300332,0.00031588666
14920000,14920000,0.015349215,0.017897673,-0.00015106016
14940000,14940000,0.015980715,0.018623069,0.00013425425
14960000,14960000,0.015429506,0.01947936,8.336278e-05
14980000,14980000,0.017116288,0.019218946,0.0008800545
15000000,15000000,0.014851782,0.017411564,0.00024510457
15016000,15016000,0.01604417,0.018506493,-3.7613314e-05
15040000,15040000,0.016145186,0.018765062,-0.0005962451
15060000,15060000,0.016410027,0.018374842,0.0003092632
15080000,15080000,0.01695303,0.017021196,0.00014078744
15100000,15100000,0.01709214,0.017568005,0.00013932613
15120000,15120000,0.017392382,0.018011663,-0.00024094235
15140000,15140000,0.018381381,0.01825926,0.00037771984
15160000,15160000,0.017330024,0.017694525,0.00021718573
15180000,15180000,0.017467491,0.01782289,0.00026394977
15200000,15200000,0.017530954,0.017278844,0.0009432621
15220000,15220000,0.018216832,0.01867781,0.000374448
15240000,15240000,0.01771937,0.018804258,0.00020805238
15260000,15260000,0.018565467,0.017164044,0.00031374645
15276000,15276000,0.018847892,0.01847453,0.00011635038
15296000,15296000,0.018083507,0.019053385,2.7197746e-05
15316000,15316000,0.018479493,0.017945934,0.00045084785
15340000,15340000,0.019491905,0.018971216,1.6553577e-06
15360000,15360000,0.019671958,0.018901777,-0.00015813785
15380000,15380000,0.021239314,0.020124706,0.00038765997
15400000,15400000,0.020105489,0.02014726,-0.00025478666
15420000,15420000,0.02075672,0.020896072,-2.2834842e-05
15440000,15440000,0.021693584,0.021228842,9.3795126e-05
15460000,15460000,0.022421278,0.0216795,-0.00025716104
15480000,15480000,0.021578673,0.021695413,0.0006258092
15496000,15496000,0.022895472,0.022359038,-0.00056191743
15516000,15516000,0.024012266,0.023701798,-0.0004333666
15540000,15540000,0.023105953,0.02333946,-0.000256963
15560000,15560000,0.025300723,0.022751972,0.00069296884
15576000,15576000,0.025444068,0.0234006,-6.619065e-05
15600000,15600000,0.02535882,0.024341434,-3.273697e-05
15620000,15620000,0.02559055,0.024223074,-0.00049599184
15640000,15640000,0.026432754,0.023524646,0.00024327514
15660000,15660000,0.026642857,0.02355529,-0.00027047296
15680000,15680000,0.027720762,0.026114557,2.1563528e-05
15696000,15696000,0.026410542,0.02487435,-2.9328221e-05
15720000,15720000,0.027796507,0.025489852,-0.00041233245
15740000,15740000,0.028810129,0.025250768,-1.9175994e-05
15760000,15760000,0.028744461,0.025742242,8.252045e-05
15776000,15776000,0.02848023,0.027492533,0.000474045
15800000,15800000,0.029538194,0.028136427,0.0003128633
15820000,15820000,0.030218948,0.0287334,0.00033569048
15836000,15836000,0.0312504,0.028467922,-0.00018107021
15860000,15860000,0.03181379,0.029185861,0.00039403312
15880000,15880000,0.033216696,0.02914144,-5.7829635e-05
15896000,15896000,0.032614317,0.030034466,8.065263e-05
15916000,15916000,0.03378165,0.029138416,-0.00014196908
15940000,15940000,0.033433832,0.030477237,3.3846194e-05
15960000,15960000,0.033790804,0.030280618,0.00013733313
15980000,15980000,0.033897277,0.030108623,0.00045507075
16000000,16000000,0.03522637,0.031194853,0.00048790066
16020000,16020000,0.03555282,0.031652015,-0.00013249589
16036000,16036000,0.035349965,0.032942455,3.6023073e-05
16056000,16056000,0.036296304,0.0320111,0.0001760206
16076000,16076000,0.037304956,0.034779716,0.0005776754
16100000,16100000,0.037288446,0.03427886,5.395685e-05
16120000,16120000,0.03725823,0.034831543,0.0002917006
16140000,16140000,0.03707117,0.035088852,0.00031636623
16160000,16160000,0.04006131,0.034344167,-0.0001744708
16176000,16176000,0.039686393,0.03537503,-8.11141e-05
16196000,16196000,0.039630696,0.03670431,0.00037726527
16220000,16220000,0.04064476,0.03508278,0.00052015664
16240000,16240000,0.040244766,0.037729006,0.0005549383
16260000,16260000,0.041568123,0.038494654,0.00019600004
16280000,16280000,0.041428693,0.0383774,0.00019067207
16300000,16300000,0.044124506,0.03885915,-0.00025796334
16320000,16320000,0.043053567,0.038792294,0.00028415225
16340000,16340000,0.04385565,0.040236447,-0.00031246524
16360000,16360000,0.044220526,0.039648343,0.0004955078
16380000,16380000,0.044763315,0.04003187,-0.00023063057
16400000,16400000,0.04520022,0.041630674,0.0004281822
16416000,16416000,0.046063073,0.04115638,0.00012849657
16436000,16436000,0.046565384,0.042172484,-4.4775228e-05
16460000,16460000,0.046930313,0.04218015,0.00036249502
16480000,16480000,0.047279313,0.043539163,-0.00010737856
16500000,16500000,0.0474097,0.043559134,0.0008244787
16520000,16520000,0.04877971,0.044156004,9.23706e-05
16540000,16540000,0.048097905,0.045524456,2.696397e-05
16560000,16560000,0.049011435,0.045705277,0.0002593856
16580000,16580000,0.049890935,0.045473896,2.488662e-05
16596000,16596000,0.050035838,0.044868704,0.0003613252
16620000,16620000,0.050147608,0.04617599,0.00011532818
16640000,16640000,0.05224129,0.047604613,-7.76221e-06
16660000,16660000,0.052177522,0.048156492,0.00019263105
16680000,16680000,0.051687386,0.046456393,0.000101859114
16700000,16700000,0.05317158,0.047724895,0.0006122043
16716000,16716000,0.053131785,0.04788774,-4.2917396e-05
16740000,16740000,0.05403152,0.048400458,0.0005602385
16760000,16760000,0.05439047,0.04898014,7.273243e-05
16780000,16780000,0.05499458,0.048768695,-0.00020306167
16800000,16800000,0.05513717,0.049567826,4.670481e-06
16820000,16820000,0.056695223,0.050724637,-2.8978247e-05
16840000,16840000,0.057939727,0.051943664,0.00042834392
16856000,16856000,0.05586991,0.05125124,0.00021468758
16880000,16880000,0.05755185,0.051953845,-0.00028986656
16900000,16900000,0.057813983,0.05234393,0.00025175844
16920000,16920000,0.05829184,0.052296817,0.00016385637
16940000,16940000,0.05934583,0.05501461,0.00015736454
16960000,16960000,0.05998947,0.053698976,0.00033005167
16980000,16980000,0.060667742,0.054069202,0.00065779383
17000000,17000000,0.061055884,0.054692023,0.0003465549
17020000,17020000,0.06135305,0.05468136,-0.00022183912
17040000,17040000,0.06163625,0.056912556,0.00063090574
17060000,17060000,0.06285963,0.05688817,-2.7340073e-05
17076000,17076000,0.06289569,0.056557197,0.0002568764
17100000,17100000,0.06303905,0.057684075,2.7893955e-05
17120000,17120000,0.06334242,0.056617044,0.000118710115
17140000,17140000,0.06529616,0.058028836,0.000347199
17160000,17160000,0.065289944,0.05840843,0.0003629076
17180000,17180000,0.06565465,0.05943899,0.00033030694
17200000,17200000,0.06676034,0.06008573,-0.00016271928
17220000,17220000,0.067449614,0.0588544,0.00031406287
17240000,17240000,0.067205265,0.059932657,0.00019557927
17260000,17260000,0.068168655,0.05996649,0.0007546022
17276000,17276000,0.06896319,0.060827523,6.060282e-05
17300000,17300000,0.06903281,0.06200527,1.3869983e-05
17320000,17320000,0.06979208,0.06109094,0.00038080823
17340000,17340000,0.07078882,0.061697043,4.6077133e-05
17356000,17356000,0.070307136,0.061587546,0.00089120725
17380000,17380000,0.071331464,0.0623296,1.3536417e-05
17396000,17396000,0.07163633,0.06315356,0.00024968782
17420000,17420000,0.071597,0.06419981,0.00047785748
17436000,17436000,0.07147354,0.06253494,0.0005457684
17460000,17460000,0.072699726,0.064853065,0.00019047468
17480000,17480000,0.072899096,0.065633625,0.00020187878
17500000,17500000,0.073427394,0.06645735,0.00015185717
17520000,17520000,0.07469807,0.06570932,0.00064273673
17540000,17540000,0.074497364,0.065804005,0.0005350419
17560000,17560000,0.074108124,0.06713313,0.0011644599
17580000,17580000,0.075039215,0.06684502,0.000109100394
17600000,17600000,0.07571158,0.0674496,0.00052139943
17620000,17620000,0.07688797,0.068407476,8.181014e-06
17640000,17640000,0.077663064,0.067370616,0.00056051335
17660000,17660000,0.07768224,0.06796152,-0.0001916882
17680000,17680000,0.0784784,0.06959806,0.00029249027
17696000,17696000,0.078254394,0.06782617,0.00052159076
17716000,17716000,0.07923219,0.069859736,0.0005892694
17736000,17736000,0.08007302,0.069765076,2.6377544e-05
17756000,17756000,0.08050261,0.070049465,-5.2565345e-05
17780000,17780000,0.081219815,0.07076354,0.00027241133
17800000,17800000,0.080179825,0.070629045,-0.0006908981
17820000,17820000,0.08149829,0.072189935,0.00041136463
17836000,17836000,0.08255891,0.071362704,0.00018974757
17860000,17860000,0.08232554,0.072403505,0.0001904935
17880000,17880000,0.08330514,0.0727903,0.000579293
17900000,17900000,0.0828735,0.07278466,0.000409358
17920000,17920000,0.0844403,0.0732892,-9.996729e-07
17940000,17940000,0.08458812,0.07459829,0.00058526394
17960000,17960000,0.08217147,0.07473734,9.2985436e-05
17976000,17976000,0.0803458,0.07445732,0.0005230488
17996000,17996000,0.07632165,0.075539194,0.00016675075
18016000,18016000,0.07086253,0.075666115,0.00026107213
18036000,18036000,0.06435497,0.0758039,-2.4200548e-05
18056000,18056000,0.06019705,0.07669607,0.00059993484
18076000,18076000,0.054768234,0.07424193,0.00081303885
18096000,18096000,0.051348813,0.06953572,-0.00013446301
18116000,18116000,0.043480713,0.06270176,-0.00075895037
18140000,18140000,0.039360333,0.05882096,-0.002621038
18156000,18156000,0.032362048,0.05067069,-0.0028912534
18176000,18176000,0.025272401,0.044904128,-0.0043057166
18196000,18196000,0.020492556,0.035321377,-0.0059829666
18220000,18220000,0.012018105,0.026140986,-0.0072549474
18240000,18240000,0.005516841,0.01551009,-0.008203483
18260000,18260000,-0.0040421807,0.005506764,-0.00816217
18276000,18276000,-0.010436904,-0.0053531067,-0.0066721826
18296000,18296000,-0.0184584,-0.012705902,-0.0051462916
18320000,18320000,-0.02001087,-0.019645406,-0.003919971
18340000,18340000,-0.022601444,-0.02247063,-0.0033166623
18360000,18360000,-0.018281307,-0.021270987,-0.0020402498
18380000,18380000,-0.015920088,-0.02097133,-0.0021101676
18400000,18400000,-0.015132045,-0.018910637,-0.00040113428
18420000,18420000,-0.011830306,-0.018633101,-0.0011988289
18440000,18440000,-0.009410694,-0.013769443,-0.0012082686
18456000,18456000,-0.006303435,-0.009892481,-0.0009900886
18476000,18476000,-0.0039467704,-0.007730357,-0.00088074023
18500000,18500000,-0.0038645072,-0.0034283823,-0.00071995176
18520000,18520000,0.00032782718,0.000610915,-0.00062507007
18540000,18540000,0.0009084343,0.0046685003,-3.0682044e-05
18560000,18560000,0.0039294804,0.007550651,-0.0006979107
18576000,18576000,0.002221068,0.009511456,-0.0005409578
18600000,18600000,0.005134015,0.0102578765,-0.0005075746
18616000,18616000,0.0044555767,0.013903585,-0.0006732503
18636000,18636000,0.005577653,0.014419951,-0.0007702565
18656000,18656000,0.004638619,0.015132369,-0.00046909144
18676000,18676000,0.004933048,0.01453798,-0.0008322512
18700000,18700000,0.0057743005,0.012587497,-9.694838e-05
18720000,18720000,0.003745651,0.013003898,-0.000689315
18736000,18736000,0.0027830468,0.011172074,-8.972667e-05
18760000,18760000,0.003321025,0.0117337685,-0.0005184206
18780000,18780000,0.003971237,0.012178735,-0.00035135256
18800000,18800000,0.0025521195,0.009166308,9.884013e-05
18820000,18820000,0.00293573,0.010428776,-0.0001791514
18840000,18840000,0.0015931575,0.0065075043,-0.00029703666
18856000,18856000,0.001949144,0.0058187414,-0.00028708365
18876000,18876000,0.0018462385,0.0052438937,-0.00010794157
18896000,18896000,0.000687386,0.004134789,0.0006606537
18916000,18916000,0.0006141522,0.004081829,-0.00053569116
18936000,18936000,0.0010906227,0.0030169522,-9.515934e-06
18956000,18956000,0.00039773062,0.0036029043,-0.00039717837
18980000,18980000,0.0004364246,0.0044981535,-0.00027901336
18996000,18996000,0.00027229963,0.0043813954,-0.00072815036
19020000,19020000,0.00036679738,0.0029169982,-0.00027426216
19040000,19040000,-0.00068585714,0.005564643,-0.0006305392
19060000,19060000,-0.00049250654,0.00354086,-0.00037991625
19080000,19080000,-0.0007027057,0.0041976683,-0.00032111935
19096000,19096000,0.0011012324,0.0052405605,-0.00031391892
19116000,19116000,0.0004993273,0.0040770303,0.00012051879
19140000,19140000,0.00010659476,0.0048194244,0.00068437646
19160000,19160000,0.0011432789,0.0054781404,-0.00012217648
19180000,19180000,0.00041678594,0.006212647,-0.000112077076
19200000,19200000,0.0017467174,0.006194425,8.723355e-05
19220000,19220000,0.0017879929,0.0054777972,0.0002968752
19236000,19236000,0.0007152578,0.0064179185,0.00048931653
19260000,19260000,0.0016691769,0.006412377,-8.7334076e-05
19280000,19280000,0.0013030084,0.0057312073,0.0001056871
19300000,19300000,0.0007703487,0.0074943556,0.00036625448
19320000,19320000,0.0024725706,0.0065092137,-0.00014384692
19340000,19340000,0.0028779972,0.0070687565,-0.000625047
19360000,19360000,0.0016337608,0.0059190327,0.00047334313
19380000,19380000,0.0030333162,0.006113976,-0.00032258042
19400000,19400000,0.0010016494,0.0060699484,-0.00030662818
19420000,19420000,0.0014389921,0.004978848,-0.00031199784
19436000,19436000,0.00028966938,0.0047536083,-0.00024724734
19456000,19456000,0.0005827368,0.0060617933,-0.0005421125
19476000,19476000,-0.00023435749,0.0050481856,0.0002504046
19496000,19496000,0.0013602003,0.004474371,-5.4533535e-05
19516000,19516000,0.0007590368,0.00422146,-9.642658e-05
19536000,19536000,0.0008652634,0.0045473897,0.00022717859
19556000,19556000,0.0008543547,0.0048084296,-0.0002021636
19576000,19576000,0.0005101323,0.004858865,3.4510333e-05
19596000,19596000,0.0011988461,0.004257992,-0.00069260853
19616000,19616000,0.0015201496,0.0041360804,-0.0002762879
19636000,19636000,-0.00040447572,0.0037893243,0.00022952995
19656000,19656000,0.0011932254,0.0045134774,0.0002876453
19676000,19676000,0.0012024703,0.0047620195,9.60005e-05
19696000,19696000,0.00043677798,0.0052149007,1.948967e-06
19716000,19716000,0.0012090867,0.0047598295,-6.087913e-05
19740000,19740000,0.00024228849,0.0046036425,6.522934e-05
19756000,19756000,-0.00064480025,0.0065279454,-0.00049891346
19780000,19780000,0.0008194429,0.005410539,6.304652e-05
19800000,19800000,0.0010793171,0.0041257404,6.6081004e-05
19820000,19820000,-0.00055615994,0.0050167814,-4.724227e-05
19840000,19840000,0.00033951146,0.005439703,-0.00065378635
19860000,19860000,0.00072929857,0.0041567553,0.0003493028
19880000,19880000,2.4568115e-05,0.0030347628,6.0689606e-05
19900000,19900000,-0.0010403651,0.0033233727,-0.00023081034
19920000,19920000,0.0006284512,0.0033281236,-9.16452e-05
19936000,19936000,0.002149147,0.004355237,7.47969e-05
19960000,19960000,0.00026776388,0.0049154293,0.00038539924
19980000,19980000,0.0007142181,0.0054151206,-0.00010549446
19996000,19996000,0.00079327205,0.0038553057,0.000578045
20016000,20016000,-0.0011175424,0.004961185,0.00046606883
20036000,20036000,0.0006205276,0.0034303693,-0.0004926751
20056000,20056000,-0.0014117868,0.0047626775,0.0001309257
20076000,20076000,0.0009904985,0.004730199,0.00042900592
20096000,20096000,-0.00051721185,0.005050647,-0.00043506894
20120000,20120000,-0.0001434654,0.004252157,0.00018629743
20136000,20136000,-0.0006275545,0.0049864454,0.00033227427
20156000,20156000,0.0008434386,0.005536802,6.862977e-05
20176000,20176000,0.0008869419,0.004567364,0.00032382467
20196000,20196000,-0.0010507703,0.0038010934,0.00027328092
20220000,20220000,0.00062660774,0.0045157163,-9.421399e-05
20240000,20240000,5.66644e-05,0.003521164,-4.90089e-05
20256000,20256000,-0.00039636594,0.004053037,-0.00021729454
20280000,20280000,-0.0010897951,0.004030798,0.00036928843
20300000,20300000,-0.00079661165,0.002782737,0.0003481452
20316000,20316000,-0.0013002213,0.004424868,-0.0005832997
20340000,20340000,-0.0017268448,0.004054229,-0.000115396164
20360000,20360000,-0.0020145485,0.0034809285,0.00033473753
20376000,20376000,-0.0004233896,0.0041440814,-0.000106217245
20396000,20396000,0.0005777314,0.0047457474,0.00033038555
20416000,20416000,0.0002966366,0.004959257,0.00016664075
20436000,20436000,-0.00067592005,0.004134455,-0.00020436733
20460000,20460000,8.0302154e-05,0.0043789,-6.743062e-05
20480000,20480000,0.00036837911,0.003437741,0.00015359621
20500000,20500000,0.00021605942,0.0045039067,-0.00018976259
20520000,20520000,0.0009408778,0.0048421677,-1.0065807e-05
20540000,20540000,0.0015508186,0.0031073266,-0.00012682521
20560000,20560000,0.0009958538,0.005924762,-1.6297869e-05
20580000,20580000,0.0022422778,0.0030359463,-0.0004671713
20600000,20600000,0.00023185392,0.003491159,0.0003050035
20620000,20620000,0.00034801077,0.0030345037,0.0002812993
20636000,20636000,0.00018535976,0.0035627591,-8.6982036e-05
20656000,20656000,-0.0001768882,0.003523998,0.00015193415
20680000,20680000,0.00085920736,0.0035118635,-0.00010663013
20700000,20700000,-0.0009620461,0.003455454,-2.0392385e-05
20720000,20720000,-0.00025119132,0.002855915,0.00057281344
20740000,20740000,-0.0006682769,0.0033527785,-0.00014768711
20760000,20760000,5.971716e-05,0.004008683,0.00014309221
20776000,20776000,-0.00075286045,0.0038154204,4.081978e-05
20796000,20796000,-0.0011282016,0.005053788,0.0003062216
20816000,20816000,-0.0003641496,0.003083235,-0.00018408243
20836000,20836000,0.0012539038,0.004566052,-0.0002586285
20856000,20856000,-0.00090843823,0.0054626865,0.0009564147
20876000,20876000,0.0005410139,0.0040404517,2.4595996e-05
20896000,20896000,0.00022513593,0.0049587614,-0.00019992756
20916000,20916000,-0.00059126446,0.004431435,-0.0003392737
20940000,20940000,-0.00076789863,0.0045501976,0.0004175685
20960000,20960000,0.00076307624,0.004049295,0.00018121347
20980000,20980000,-0.00040028876,0.0032206955,-0.0009930092
21000000,21000000,-0.00048869656,0.0048001558,-4.0110506e-05
21020000,21020000,-0.0006851548,0.004576351,0.00017588629
21040000,21040000,-0.0006183933,0.0047286353,0.00020618722
21060000,21060000,-0.0010841871,0.004081335,0.0001935281
21080000,21080000,-0.0004895251,0.0034653405,-3.8729893e-05
21100000,21100000,-0.00053949014,0.0040727216,0.00033070793
21120000,21120000,0.00070451887,0.0048395637,0.00064995245
21140000,21140000,-0.0007464766,0.005012608,0.00075636496
21160000,21160000,-0.0004587385,0.0035881104,-0.00023348433
21180000,21180000,-0.001730249,0.0020537875,0.00016439689
21196000,21196000,-0.0019544284,0.0030719598,3.6354686e-05
21220000,21220000,-0.00056634087,0.0040625855,0.00049513276
21236000,21236000,1.0320131e-05,0.00412873,-0.00048218772
21256000,21256000,0.00071709376,0.0046960935,0.0004521049
21276000,21276000,-0.0005206469,0.0048830444,0.00025032868
21296000,21296000,9.261327e-05,0.0037197028,8.554898e-05
21316000,21316000,-0.00013438461,0.003740901,0.00020947827
21336000,21336000,-0.00031324118,0.0025447004,-0.00027777848
21356000,21356000,-8.237015e-05,0.0047062864,6.475775e-05
21376000,21376000,-0.0009421952,0.0047176736,-2.1598076e-05
21396000,21396000,0.0009480955,0.004939182,-0.00040513946
21416000,21416000,-0.00048367315,0.0039571524,0.0006096284
21436000,21436000,-0.0009426164,0.0029953523,6.576891e-06
21456000,21456000,-0.0007932057,0.003617844,3.692096e-05
21476000,21476000,-0.00064043177,0.0034692376,0.0004354313
21500000,21500000,-0.0009819366,0.003941805,0.0001683112
21520000,21520000,-0.00095485937,0.0032966135,-3.61219e-05
21540000,21540000,-0.0014363857,0.0031944276,2.1487052e-05
21556000,21556000,-0.0015777309,0.003151116,8.6432105e-05
21576000,21576000,-0.0008145636,0.0034283667,0.0004023023
21596000,21596000,0.00034735556,0.0036686545,0.00043536356
21616000,21616000,0.00020482726,0.0038240391,2.2780121e-05
21636000,21636000,-0.00182583,0.0031547102,-0.00011028863
21660000,21660000,-0.0013887213,0.0038996795,-1.006799e-05
21680000,21680000,0.0004333668,0.003805123,-0.00017776655
21700000,21700000,-0.00035405066,0.0033627737,0.00018225444
21720000,21720000,-0.0007198636,0.0038760207,-6.616953e-05
21740000,21740000,0.00037187478,0.0041866484,-0.00027525428
21760000,21760000,0.0007836291,0.0034081268,9.920178e-05
21780000,21780000,0.0014164965,0.0037277578,-3.8152462e-05
21800000,21800000,-0.00055391656,0.004797704,1.0180149e-05
21820000,21820000,-0.00035863012,0.0023546163,-1.31261695e-05
21840000,21840000,0.000748422,0.0037968536,-0.00025446023
21860000,21860000,-0.0017997405,0.0045417706,-0.00020003086
21880000,21880000,0.00057644513,0.0031300108,-0.0002788382
21900000,21900000,0.00026374648,0.004524924,2.6768954e-05
21920000,21920000,-0.00022971982,0.004868332,4.7938127e-05
21940000,21940000,0.00090067,0.004346625,0.00026460155
21960000,21960000,-0.00027354804,0.0037187666,0.0006709661
21980000,21980000,2.0888809e-05,0.0038812812,-6.975942e-05
21996000,21996000,-0.0002063734,0.0035999597,0.00020167057
22020000,22020000,0.0004650398,0.0038491024,-0.00055976905
22040000,22040000,0.0009711608,0.004430262,0.00031682642
22060000,22060000,0.00035374163,0.005575372,-8.644871e-06
22080000,22080000,-0.0005707837,0.004438771,-4.965464e-05
22100000,22100000,-7.984233e-05,0.0038810663,-0.0006809087
22120000,22120000,-0.0015686376,0.0044364156,0.00017155797
22140000,22140000,-0.00013928159,0.0048727794,0.00049624185
22160000,22160000,0.00014068146,0.004071017,0.00049385475
22180000,22180000,-0.00016932288,0.0041608936,4.9411246e-06
22196000,22196000,-0.00035868562,0.0028217235,0.00051933643
22220000,22220000,-0.0009032709,0.004313998,0.00055895123
22236000,22236000,-0.00026743824,0.00353723,0.00029061266
22260000,22260000,-0.00027236514,0.0031397166,0.00030229238
22276000,22276000,-0.00083170016,0.003852829,0.0002617939
22300000,22300000,0.0001693567,0.0034282694,-0.00020855028
22320000,22320000,-0.001306137,0.0034415005,-0.00045016088
22336000,22336000,0.00028773572,0.004064993,-0.00021935723
22356000,22356000,-0.00031954696,0.0044594714,-0.00014676424
22380000,22380000,-0.0004947761,0.003001728,-0.00047532923
22400000,22400000,0.00091471046,0.0054418524,-0.00026758533
22420000,22420000,0.000183667,0.004584521,0.00038409632
22440000,22440000,0.0005577902,0.003896245,0.0010851058
22460000,22460000,-0.0001884602,0.004286788,0.00018654272
22480000,22480000,-0.00050539454,0.0044931145,0.00035128556
22500000,22500000,-0.0013381806,0.0047264597,5.717323e-05
22520000,22520000,0.0014164005,0.0045553744,1.839098e-05
22540000,22540000,-0.00015845416,0.004154481,0.00027492698
22556000,22556000,-0.00071224605,0.0036494215,0.00014819742
22580000,22580000,-1.769937e-05,0.0045829033,-0.00013957881
22600000,22600000,0.0006647193,0.0036780166,0.0006934588
22620000,22620000,0.00015361968,0.0032419418,-0.00037636355
22640000,22640000,-0.002032572,0.00416346,-0.00031980235
22660000,22660000,0.0005831007,0.0031131662,-0.00012779485
22680000,22680000,-0.00030744929,0.00527237,0.00022944369
22700000,22700000,-0.00011027165,0.004276707,-0.00048035238
22720000,22720000,-0.0010004397,0.0052061398,-0.00013129422
22740000,22740000,-0.0005498273,0.0038910925,-0.0003946058
22760000,22760000,0.00033996193,0.006459729,-0.0006454085
22780000,22780000,0.0003058719,0.004261105,-0.00036216693
22800000,22800000,-0.00062605325,0.00393352,-9.283086e-05
22820000,22820000,0.0002751018,0.0051363297,-0.00039627875
22840000,22840000,-5.4978154e-06,0.0031318474,-0.000438584
22860000,22860000,-0.00032556275,0.0043742885,-7.66091e-05
22880000,22880000,0.00053093303,0.003774411,-0.0003886638
22900000,22900000,0.00018562932,0.002941984,-0.00057303364
22920000,22920000,0.0008291424,0.0037199822,-0.00034362293
22940000,22940000,-0.001201235,0.004444221,-0.0002678359
22960000,22960000,0.000613422,0.0035547747,-0.00082811445
22980000,22980000,9.0016714e-05,0.002996101,-0.00027336407
23000000,23000000,0.00021132306,0.003294685,-0.00035159598
23020000,23020000,0.00066633977,0.003580806,-0.00018273116
23040000,23040000,0.00022451635,0.0056581064,7.500541e-05
23060000,23060000,0.0013305906,0.0031695785,-0.0007851581
23076000,23076000,0.0010503613,0.00468466,-0.00034022308
23096000,23096000,0.0015024509,0.005009319,-0.00028703207
23116000,23116000,0.0016105791,0.0032272916,0.000111347166
23136000,23136000,0.0006804395,0.0034977796,9.31171e-05
23156000,23156000,-0.00079945644,0.0048142616,-0.00014206415
23180000,23180000,-0.0010831007,0.004577316,-7.630435e-06
23200000,23200000,4.5170047e-05,0.0030303365,-0.0001983652
23220000,23220000,0.00044092268,0.0041982303,0.0008973929
23240000,23240000,-0.0014785877,0.005561093,-0.00015442487
23260000,23260000,-0.0008924007,0.0037790546,-0.0006564874
23280000,23280000,-0.00021002372,0.005863318,-0.00048982905
23296000,23296000,-0.0007005105,0.0031063186,0.00027904494
23316000,23316000,-0.00066933344,0.0040025995,-0.00033875127
23340000,23340000,-0.0012125096,0.004137867,-0.00041238277
23356000,23356000,6.0159364e-06,0.0034445475,0.00021110677
23380000,23380000,-0.0015644354,0.00462107,0.0001227127
23400000,23400000,0.00068892376,0.004627454,0.00018394587
23420000,23420000,0.00035629945,0.0041164663,0.0002600439
23436000,23436000,-0.0016450782,0.003587251,-7.252496e-05
23460000,23460000,-0.00028949435,0.004183961,0.0002555269
23480000,23480000,-0.0017822459,0.0032685536,0.00010079094
23500000,23500000,-0.0011510524,0.0030284536,-0.00034343713
23516000,23516000,5.609129e-05,0.00551356,-0.000111424306
23536000,23536000,1.7984217e-05,0.0035780545,-0.00014256375
23560000,23560000,0.0011266195,0.004394882,-0.00016040605
23580000,23580000,-0.0009833944,0.0037750187,0.00023713135
23600000,23600000,-2.1870073e-05,0.0038011337,-0.00040789822
23620000,23620000,-0.0009982204,0.004183156,-0.00016238679
23640000,23640000,-0.00083205674,0.0050544445,0.00016342883
23656000,23656000,-0.00069944095,0.0051115826,-0.00031647919
23676000,23676000,0.00013606931,0.0029553196,-0.00034847754
23696000,23696000,-0.00015012805,0.0042260354,0.00071580673
23720000,23720000,0.001089127,0.00416679,9.6545504e-05
23740000,23740000,0.00076086813,0.0055706315,-0.000101311605
23756000,23756000,0.001003012,0.0047313855,0.0004837265
23780000,23780000,-0.00022055491,0.0044694813,8.0501675e-05
23796000,23796000,-0.00078913197,0.004358369,-0.0002802632
23816000,23816000,6.4159365e-05,0.0054244287,0.00013615596
23836000,23836000,0.00064655737,0.0042325403,0.00013350962
23856000,23856000,0.00014872948,0.0041879276,-0.00036874728
23880000,23880000,-0.00075988646,0.003977655,0.00016350456
23900000,23900000,0.00054479705,0.0038995515,-0.00012775639
23920000,23920000,0.0007525801,0.00434832,0.0002544559
23940000,23940000,0.0010486073,0.00390683,0.00040115498
23960000,23960000,0.00049495953,0.0038919495,0.00045751946
23980000,23980000,0.0011170653,0.0041026673,-2.0052867e-06
24000000,24000000,-6.747707e-05,0.0042626318,0.00027468218
24020000,24020000,0.0008423368,0.0052029123,0.00036380277
24040000,24040000,-0.00020249626,0.0043548783,0.00053020124
24060000,24060000,-0.00078843,0.0038055882,-0.00015076884
24080000,24080000,0.0002860064,0.005615744,0.00072923646
24100000,24100000,-0.0005093614,0.0050626844,0.00051893294
24120000,24120000,-1.8506096e-05,0.0043841926,0.00022395854
24140000,24140000,-0.00052931975,0.00408707,-0.00010161945
24160000,24160000,0.00012522373,0.0044891853,0.00012944164
24180000,24180000,0.0014949087,0.0054502087,-0.0007379693
24200000,24200000,-0.00093172136,0.0032509111,-0.0002935989
24220000,24220000,-0.0013294751,0.0036664465,-0.00041335667
24240000,24240000,-0.00063807017,0.0042704847,-3.6478268e-06
24260000,24260000,-0.0006569356,0.0034796859,-1.084267e-05
24280000,24280000,-0.0017315155,0.0032680125,7.4613854e-05
24300000,24300000,-0.0016196213,0.0035913368,-0.00030220253
24320000,24320000,-0.0005901945,0.004280959,0.00021411486
24340000,24340000,-0.0011451342,0.004417259,-0.00022388366
24360000,24360000,0.0005253421,0.0035869502,0.0007463879
24380000,24380000,-0.00068618206,0.003768915,-0.00025178705
24400000,24400000,-0.00029618858,0.0049727275,0.00011206079
24420000,24420000,0.0008052816,0.004109712,0.0001658322
24440000,24440000,0.0011367705,0.003907143,-0.00013994126
24460000,24460000,0.0009066505,0.005109138,0.00032397744
24480000,24480000,0.00021872205,0.0059144613,6.42554e-06
24500000,24500000,0.0008854059,0.0039592385,0.00010956565
24520000,24520000,0.00012627101,0.004904195,-0.00025298924
24536000,24536000,0.00076607167,0.00483913,0.000102469385
24560000,24560000,-0.00072409597,0.005301287,0.00033248588
24580000,24580000,-0.00058303674,0.004718618,0.0003314306
