timestamp,roll_body,pitch_body,yaw_body,yaw_sp_move_rate,q_d[0],q_d[1],q_d[2],q_d[3],thrust_body[0],thrust_body[1],thrust_body[2],reset_integral,fw_control_yaw_wheel
3180000,-0.0,-0.0,-6.0625942e-05,0.0,1.0,-0.0,0.0,-3.0312971e-05,0.0,0.0,-0.001,0,0
3188000,-0.0,-0.0,-6.395733e-05,0.0,1.0,-0.0,0.0,-3.1978667e-05,0.0,0.0,-0.001,0,0
3228000,0.0,-0.0,1.6125026,0.0,0.6922087,0.0,0.0,0.7216974,0.0,0.0,-0.001,0,0
3276000,0.0,-0.0,1.6125096,0.0,0.6922062,0.0,0.0,0.7216998,0.0,0.0,-0.001,0,0
3324000,0.0,-0.0,1.6125225,0.0,0.69220155,0.0,0.0,0.72170424,0.0,0.0,-0.001,0,0
3372000,0.0,-0.0,1.6125523,0.0,0.69219077,0.0,0.0,0.72171456,0.0,0.0,-0.001,0,0
3428000,0.0,-0.0,1.6166916,0.0,0.69069564,0.0,0.0,0.72314554,0.0,0.0,-0.001,0,0
3476000,0.0,-0.0,1.6165326,0.0,0.6907531,0.0,0.0,0.7230907,0.0,0.0,-0.001,0,0
3524000,0.0,-0.0,1.6165164,0.0,0.69075894,0.0,0.0,0.72308517,0.0,0.0,-0.001,0,0
3580000,0.0,-0.0,1.6166095,0.0,0.6907253,0.0,0.0,0.72311723,0.0,0.0,-0.001,0,0
3628000,0.0,-0.0,1.616663,0.0,0.69070596,0.0,0.0,0.72313577,0.0,0.0,-0.001,0,0
3676000,0.0,-0.0,1.6169862,0.0,0.6905891,0.0,0.0,0.72324735,0.0,0.0,-0.001,0,0
3724000,0.0,-0.0,1.6173017,0.0,0.690475,0.0,0.0,0.7233563,0.0,0.0,-0.001,0,0
3772000,0.0,-0.0,1.6174946,0.0,0.6904052,0.0,0.0,0.7234229,0.0,0.0,-0.001,0,0
3828000,0.0,-0.0,1.6179278,0.0,0.6902485,0.0,0.0,0.7235724,0.0,0.0,-0.001,0,0
3876000,0.0,-0.0,1.618113,0.0,0.6901815,0.0,0.0,0.7236364,0.0,0.0,-0.001,0,0
3924000,0.0,-0.0,1.6181874,0.0,0.69015455,0.0,0.0,0.7236621,0.0,0.0,-0.001,0,0
3980000,0.0,-0.0,1.6182387,0.0,0.690136,0.0,0.0,0.7236797,0.0,0.0,-0.001,0,0
4028000,0.0,-0.0,1.617814,0.0,0.6902897,0.0,0.0,0.7235332,0.0,0.0,-0.001,0,0
4076000,0.0,-0.0,1.6172725,0.0,0.69048554,0.0,0.0,0.72334623,0.0,0.0,-0.001,0,0
4132000,0.0,-0.0,1.6166822,0.0,0.69069904,0.0,0.0,0.7231424,0.0,0.0,-0.001,0,0
4180000,0.0,-0.0,1.6163722,0.0,0.6908111,0.0,0.0,0.72303534,0.0,0.0,-0.001,0,0
4228000,0.0,-0.0,1.6164923,0.0,0.69076765,0.0,0.0,0.7230768,0.0,0.0,-0.001,0,0
4276000,0.0,-0.0,1.6166451,0.0,0.69071245,0.0,0.0,0.7231295,0.0,0.0,-0.001,0,0
4324000,0.0,-0.0,1.6166955,0.0,0.6906942,0.0,0.0,0.723147,0.0,0.0,-0.001,0,0
4380000,0.0,-0.0,1.6166441,0.0,0.69071275,0.0,0.0,0.7231293,0.0,0.0,-0.001,0,0
4428000,0.0,-0.0,1.6167529,0.0,0.6906734,0.0,0.0,0.72316676,0.0,0.0,-0.001,0,0
4476000,0.0,-0.0,1.6170505,0.0,0.6905658,0.0,0.0,0.72326964,0.0,0.0,-0.001,0,0
4532000,0.0,-0.0,1.6176295,0.0,0.6903564,0.0,0.0,0.72346956,0.0,0.0,-0.001,0,0
4572000,0.0,-0.0,1.6181449,0.0,0.69016993,0.0,0.0,0.7236474,0.0,0.0,-0.001,0,0
4628000,0.0,-0.0,1.6187409,0.0,0.6899543,0.0,0.0,0.72385293,0.0,0.0,-0.001,0,0
4676000,0.0,-0.0,1.6191647,0.0,0.68980086,0.0,0.0,0.7239992,0.0,0.0,-0.001,0,0
4724000,0.0,-0.0,1.6194434,0.0,0.68969995,0.0,0.0,0.7240953,0.0,0.0,-0.001,0,0
4772000,0.0,-0.0,1.6197075,0.0,0.68960434,0.0,0.0,0.72418636,0.0,0.0,-0.001,0,0
4828000,0.0,-0.0,1.6196526,0.0,0.68962425,0.0,0.0,0.7241674,0.0,0.0,-0.001,0,0
4876000,0.0,-0.0,1.6199163,0.0,0.6895287,0.0,0.0,0.7242585,0.0,0.0,-0.001,0,0
4924000,0.0,-0.0,1.6203854,0.0,0.68935883,0.0,0.0,0.72442,0.0,0.0,-0.001,0,0
4972000,0.0,-0.0,1.6209785,0.0,0.689144,0.0,0.0,0.72462445,0.0,0.0,-0.001,0,0
5028000,0.0,-0.0,1.6216097,0.0,0.68891525,0.0,0.0,0.724842,0.0,0.0,-0.001,0,0
5076000,0.0,-0.0,1.6219101,0.0,0.68880635,0.0,0.0,0.7249454,0.0,0.0,-0.001,0,0
5124000,0.0,-0.0,1.6220394,0.0,0.6887595,0.0,0.0,0.7249899,0.0,0.0,-0.001,0,0
5172000,0.0,-0.0,1.6223786,0.0,0.68863654,0.0,0.0,0.7251067,0.0,0.0,-0.001,0,0
5228000,0.0,-0.0,1.6227874,0.0,0.68848836,0.0,0.0,0.7252474,0.0,0.0,-0.001,0,0
5276000,0.0,-0.0,1.6231426,0.0,0.6883595,0.0,0.0,0.72536975,0.0,0.0,-0.001,0,0
5324000,0.0,-0.0,1.6231238,0.0,0.68836635,0.0,0.0,0.7253632,0.0,0.0,-0.001,0,0
5372000,0.0,-0.0,1.6230986,0.0,0.6883755,0.0,0.0,0.72535455,0.0,0.0,-0.001,0,0
5428000,0.0,-0.0,1.6228136,0.0,0.6884788,0.0,0.0,0.7252564,0.0,0.0,-0.001,0,0
5476000,0.0,-0.0,1.6225213,0.0,0.6885848,0.0,0.0,0.72515583,0.0,0.0,-0.001,0,0
5524000,0.0,-0.0,1.6222612,0.0,0.6886791,0.0,0.0,0.7250663,0.0,0.0,-0.001,0,0
5572000,0.0,-0.0,1.6221997,0.0,0.68870145,0.0,0.0,0.7250451,0.0,0.0,-0.001,0,0
5628000,0.0,-0.0,1.6223555,0.0,0.68864495,0.0,0.0,0.72509867,0.0,0.0,-0.001,0,0
5676000,0.0,-0.0,1.6226344,0.0,0.6885438,0.0,0.0,0.7251949,0.0,0.0,-0.001,0,0
5732000,0.0,-0.0,1.6237885,0.0,0.68812525,0.0,0.0,0.72559196,0.0,0.0,-0.001,0,0
5772000,0.0,-0.0,1.6250486,0.0,0.6876679,0.0,0.0,0.72602534,0.0,0.0,-0.001,0,0
5828000,0.0,-0.0,1.6263874,0.0,0.6871818,0.0,0.0,0.72648555,0.0,0.0,-0.001,0,0
5876000,0.0,-0.0,1.627028,0.0,0.686949,0.0,0.0,0.7267056,0.0,0.0,-0.001,0,0
5924000,0.0,-0.0,1.627389,0.0,0.6868179,0.0,0.0,0.7268296,0.0,0.0,-0.001,0,0
5972000,0.0,-0.0,1.6275686,0.0,0.68675256,0.0,0.0,0.7268913,0.0,0.0,-0.001,0,0
6028000,0.0,-0.0,1.6271471,0.0,0.6869058,0.0,0.0,0.72674644,0.0,0.0,-0.001,0,0
6076000,0.0,-0.0,1.6266031,0.0,0.6871034,0.0,0.0,0.72655964,0.0,0.0,-0.001,0,0
6124000,0.0,-0.0,1.6260589,0.0,0.68730104,0.0,0.0,0.7263727,0.0,0.0,-0.001,0,0
6172000,0.0,-0.0,1.6255667,0.0,0.6874798,0.0,0.0,0.7262035,0.0,0.0,-0.001,0,0
6228000,0.0,-0.0,1.6251954,0.0,0.6876146,0.0,0.0,0.7260759,0.0,0.0,-0.001,0,0
6276000,0.0,-0.0,1.6251007,0.0,0.687649,0.0,0.0,0.72604334,0.0,0.0,-0.001,0,0
6324000,0.0,-0.0,1.6246849,0.0,0.68779993,0.0,0.0,0.72590035,0.0,0.0,-0.001,0,0
6372000,0.0,-0.0,1.6243125,0.0,0.6879351,0.0,0.0,0.7257722,0.0,0.0,-0.001,0,0
6428000,0.0,-0.0,1.6240946,0.0,0.68801415,0.0,0.0,0.7256972,0.0,0.0,-0.001,0,0
6476000,0.0,-0.0,1.6245441,0.0,0.687851,0.0,0.0,0.7258519,0.0,0.0,-0.001,0,0
6524000,0.0,-0.0,1.6249044,0.0,0.68772024,0.0,0.0,0.7259758,0.0,0.0,-0.001,0,0
6572000,0.0,-0.0,1.625257,0.0,0.68759227,0.0,0.0,0.726097,0.0,0.0,-0.001,0,0
6628000,0.0,-0.0,1.625649,0.0,0.68744993,0.0,0.0,0.72623175,0.0,0.0,-0.001,0,0
6676000,0.0,-0.0,1.625834,0.0,0.68738276,0.0,0.0,0.7262955,0.0,0.0,-0.001,0,0
6724000,0.0,-0.0,1.6260766,0.0,0.68729466,0.0,0.0,0.72637874,0.0,0.0,-0.001,0,0
6772000,0.0,-0.0,1.6266371,0.0,0.68709105,0.0,0.0,0.7265713,0.0,0.0,-0.001,0,0
6828000,0.0,-0.0,1.6271814,0.0,0.6868933,0.0,0.0,0.72675836,0.0,0.0,-0.001,0,0
6876000,0.0,-0.0,1.6272988,0.0,0.6868506,0.0,0.0,0.72679865,0.0,0.0,-0.001,0,0
6924000,0.0,-0.0,1.6271116,0.0,0.6869187,0.0,0.0,0.7267344,0.0,0.0,-0.001,0,0
6972000,0.0,-0.0,1.6268092,0.0,0.6870285,0.0,0.0,0.72663045,0.0,0.0,-0.001,0,0
7028000,0.0,-0.0,1.6265639,0.0,0.68711764,0.0,0.0,0.7265462,0.0,0.0,-0.001,0,0
7076000,0.0,-0.0,1.6264251,0.0,0.68716806,0.0,0.0,0.72649854,0.0,0.0,-0.001,0,0
7132000,0.0,-0.0,1.6261144,0.0,0.68728095,0.0,0.0,0.7263917,0.0,0.0,-0.001,0,0
7172000,0.0,-0.0,1.626098,0.0,0.68728685,0.0,0.0,0.72638613,0.0,0.0,-0.001,0,0
7228000,0.0,-0.0,1.6262363,0.0,0.68723667,0.0,0.0,0.7264336,0.0,0.0,-0.001,0,0
7276000,0.0,-0.0,1.6262884,0.0,0.6872177,0.0,0.0,0.7264515,0.0,0.0,-0.001,0,0
7332000,0.0,-0.0,1.6265086,0.0,0.6871377,0.0,0.0,0.7265272,0.0,0.0,-0.001,0,0
7380000,0.0,-0.0,1.6267135,0.0,0.6870633,0.0,0.0,0.72659755,0.0,0.0,-0.001,0,0
7428000,0.0,-0.0,1.6268934,0.0,0.68699795,0.0,0.0,0.72665936,0.0,0.0,-0.001,0,0
7476000,0.0,-0.0,1.6269976,0.0,0.6869601,0.0,0.0,0.7266951,0.0,0.0,-0.001,0,0
7524000,0.0,-0.0,1.6270086,0.0,0.6869561,0.0,0.0,0.72669894,0.0,0.0,-0.001,0,0
7572000,0.0,-0.0,1.6269072,0.0,0.6869929,0.0,0.0,0.7266641,0.0,0.0,-0.001,0,0
7628000,0.0,-0.0,1.6269094,0.0,0.6869921,0.0,0.0,0.72666484,0.0,0.0,-0.001,0,0
7676000,0.0,-0.0,1.6269192,0.0,0.6869886,0.0,0.0,0.72666824,0.0,0.0,-0.001,0,0
7732000,0.0,-0.0,1.6268764,0.0,0.68700415,0.0,0.0,0.72665346,0.0,0.0,-0.001,0,0
7772000,0.0,-0.0,1.6267198,0.0,0.687061,0.0,0.0,0.72659975,0.0,0.0,-0.001,0,0
7828000,0.0,-0.0,1.6264337,0.0,0.68716496,0.0,0.0,0.72650146,0.0,0.0,-0.001,0,0
7876000,0.0,-0.0,1.6262625,0.0,0.68722713,0.0,0.0,0.7264426,0.0,0.0,-0.001,0,0
7924000,0.0,-0.0,1.6261327,0.0,0.6872743,0.0,0.0,0.72639805,0.0,0.0,-0.001,0,0
7980000,0.0,-0.0,1.6260653,0.0,0.6872988,0.0,0.0,0.7263749,0.0,0.0,-0.001,0,0
8028000,0.0,-0.0,1.6260139,0.0,0.68731743,0.0,0.0,0.7263572,0.0,0.0,-0.001,0,0
8076000,0.0,-0.0,1.625979,0.0,0.6873301,0.0,0.0,0.7263451,0.0,0.0,-0.001,0,0
8124000,0.0,-0.0,1.6257901,0.0,0.6873987,0.0,0.0,0.7262803,0.0,0.0,-0.001,0,0
8172000,0.0,-0.0,1.6257342,0.0,0.687419,0.0,0.0,0.726261,0.0,0.0,-0.001,0,0
8228000,0.0,-0.0,1.6258365,0.0,0.68738186,0.0,0.0,0.72629625,0.0,0.0,-0.001,0,0
8276000,0.0,-0.0,1.6259158,0.0,0.6873531,0.0,0.0,0.7263235,0.0,0.0,-0.001,0,0
8324000,0.0,-0.0,1.6262901,0.0,0.6872171,0.0,0.0,0.7264521,0.0,0.0,-0.001,0,0
8372000,0.0,-0.0,1.6266749,0.0,0.68707734,0.0,0.0,0.72658426,0.0,0.0,-0.001,0,0
8428000,0.0,-0.0,1.6270959,0.0,0.68692434,0.0,0.0,0.7267289,0.0,0.0,-0.001,0,0
8476000,0.0,-0.0,1.6274118,0.0,0.68680954,0.0,0.0,0.72683746,0.0,0.0,-0.001,0,0
8524000,0.0,-0.0,1.6275476,0.0,0.6867602,0.0,0.0,0.72688407,0.0,0.0,-0.001,0,0
8572000,0.0,-0.0,1.6275691,0.0,0.68675244,0.0,0.0,0.7268914,0.0,0.0,-0.001,0,0
8628000,0.0,-0.0,1.6276493,0.0,0.68672323,0.0,0.0,0.726919,0.0,0.0,-0.001,0,0
8676000,0.0,-0.0,1.6277013,0.0,0.68670434,0.0,0.0,0.7269368,0.0,0.0,-0.001,0,0
8724000,0.0,-0.0,1.6277272,0.0,0.686695,0.0,0.0,0.7269457,0.0,0.0,-0.001,0,0
8772000,0.0,-0.0,1.6277612,0.0,0.6866826,0.0,0.0,0.72695744,0.0,0.0,-0.001,0,0
8828000,0.0,-0.0,1.6276897,0.0,0.68670857,0.0,0.0,0.7269328,0.0,0.0,-0.001,0,0
8876000,0.0,-0.0,1.6275197,0.0,0.6867704,0.0,0.0,0.7268745,0.0,0.0,-0.001,0,0
8924000,0.0,-0.0,1.6273495,0.0,0.6868322,0.0,0.0,0.726816,0.0,0.0,-0.001,0,0
8972000,0.0,-0.0,1.6272185,0.0,0.6868798,0.0,0.0,0.7267711,0.0,0.0,-0.001,0,0
9028000,0.0,-0.0,1.6273896,0.0,0.68681765,0.0,0.0,0.72682977,0.0,0.0,-0.001,0,0
9076000,0.0,-0.0,1.6276109,0.0,0.6867372,0.0,0.0,0.7269058,0.0,0.0,-0.001,0,0
9124000,0.0,-0.0,1.6278139,0.0,0.68666345,0.0,0.0,0.72697544,0.0,0.0,-0.001,0,0
9172000,0.0,-0.0,1.6277452,0.0,0.6866884,0.0,0.0,0.72695184,0.0,0.0,-0.001,0,0
9228000,0.0,-0.0,1.6276022,0.0,0.6867404,0.0,0.0,0.7269028,0.0,0.0,-0.001,0,0
9276000,0.0,-0.0,1.6275922,0.0,0.68674403,0.0,0.0,0.7268993,0.0,0.0,-0.001,0,0
9324000,0.0,-0.0,1.6276326,0.0,0.6867293,0.0,0.0,0.7269132,0.0,0.0,-0.001,0,0
9380000,0.0,-0.0,1.6275891,0.0,0.6867451,0.0,0.0,0.7268984,0.0,0.0,-0.001,0,0
9428000,0.0,-0.0,1.6275673,0.0,0.68675303,0.0,0.0,0.7268908,0.0,0.0,-0.001,0,0
9476000,0.0,-0.0,1.627426,0.0,0.6868044,0.0,0.0,0.7268423,0.0,0.0,-0.001,0,0
9524000,0.0,-0.0,1.6272875,0.0,0.6868547,0.0,0.0,0.7267948,0.0,0.0,-0.001,0,0
9572000,0.0,-0.0,1.6273313,0.0,0.6868388,0.0,0.0,0.72680986,0.0,0.0,-0.001,0,0
9628000,0.0,-0.0,1.6276863,0.0,0.6867098,0.0,0.0,0.7269317,0.0,0.0,-0.001,0,0
9676000,0.0,-0.0,1.6280539,0.0,0.6865762,0.0,0.0,0.7270578,0.0,0.0,-0.001,0,0
9724000,0.0,-0.0,1.6283169,0.0,0.6864806,0.0,0.0,0.7271481,0.0,0.0,-0.001,0,0
9772000,0.0,-0.0,1.6284736,0.0,0.6864236,0.0,0.0,0.72720194,0.0,0.0,-0.001,0,0
9828000,0.0,-0.0,1.6284541,0.0,0.6864307,0.0,0.0,0.7271953,0.0,0.0,-0.001,0,0
9876000,0.0,-0.0,1.6283948,0.0,0.68645227,0.0,0.0,0.7271749,0.0,0.0,-0.001,0,0
9924000,0.0,-0.0,1.6282661,0.0,0.68649906,0.0,0.0,0.7271307,0.0,0.0,-0.001,0,0
9972000,0.0,-0.0,1.6282115,0.0,0.6865189,0.0,0.0,0.727112,0.0,0.0,-0.001,0,0
10028000,0.0,-0.0,1.6281298,0.0,0.6865486,0.0,0.0,0.72708386,0.0,0.0,-0.001,0,0
10076000,0.0,-0.0,1.6280253,0.0,0.6865866,0.0,0.0,0.72704804,0.0,0.0,-0.001,0,0
10132000,0.0,-0.0,1.6279641,0.0,0.6866088,0.0,0.0,0.72702706,0.0,0.0,-0.001,0,0
10180000,0.0,-0.0,1.6279546,0.0,0.6866123,0.0,0.0,0.7270238,0.0,0.0,-0.001,0,0
10228000,0.0,-0.0,1.62794,0.0,0.68661755,0.0,0.0,0.7270188,0.0,0.0,-0.001,0,0
10276000,0.0,-0.0,1.627823,0.0,0.6866601,0.0,0.0,0.72697866,0.0,0.0,-0.001,0,0
10332000,0.0,-0.0,1.6275147,0.0,0.68677217,0.0,0.0,0.72687286,0.0,0.0,-0.001,0,0
10372000,0.0,-0.0,1.6273412,0.0,0.6868352,0.0,0.0,0.72681314,0.0,0.0,-0.001,0,0
10428000,0.0,-0.0,1.6271515,0.0,0.6869042,0.0,0.0,0.726748,0.0,0.0,-0.001,0,0
10476000,0.0,-0.0,1.6270558,0.0,0.68693894,0.0,0.0,0.72671515,0.0,0.0,-0.001,0,0
10524000,0.0,-0.0,1.6268815,0.0,0.68700224,0.0,0.0,0.72665536,0.0,0.0,-0.001,0,0
10572000,0.0,-0.0,1.6266276,0.0,0.6870945,0.0,0.0,0.7265681,0.0,0.0,-0.001,0,0
10628000,0.0,-0.0,1.6263553,0.0,0.68719345,0.0,0.0,0.7264745,0.0,0.0,-0.001,0,0
10676000,0.0,-0.0,1.6261297,0.0,0.68727535,0.0,0.0,0.72639704,0.0,0.0,-0.001,0,0
10724000,0.0,-0.0,1.6261297,0.0,0.68727535,0.0,0.0,0.72639704,0.0,0.0,-0.001,0,0
10780000,0.0,-0.0,1.6264019,0.0,0.6871765,0.0,0.0,0.72649056,0.0,0.0,-0.001,0,0
10828000,0.0,-0.0,1.6265839,0.0,0.68711036,0.0,0.0,0.7265531,0.0,0.0,-0.001,0,0
10876000,0.0,-0.0,1.6267933,0.0,0.6870343,0.0,0.0,0.72662497,0.0,0.0,-0.001,0,0
10932000,0.0,-0.0,1.6269615,0.0,0.6869732,0.0,0.0,0.7266827,0.0,0.0,-0.001,0,0
10972000,0.0,-0.0,1.6270248,0.0,0.6869502,0.0,0.0,0.7267045,0.0,0.0,-0.001,0,0
11028000,0.0,-0.0,1.6271455,0.0,0.68690634,0.0,0.0,0.726746,0.0,0.0,-0.001,0,0
11076000,0.0,-0.0,1.6272128,0.0,0.6868819,0.0,0.0,0.72676903,0.0,0.0,-0.001,0,0
11124000,0.0,-0.0,1.6272359,0.0,0.6868735,0.0,0.0,0.726777,0.0,0.0,-0.001,0,0
11172000,0.0,-0.0,1.6270559,0.0,0.6869389,0.0,0.0,0.7267152,0.0,0.0,-0.001,0,0
11228000,0.0,-0.0,1.6267594,0.0,0.6870466,0.0,0.0,0.7266134,0.0,0.0,-0.001,0,0
11276000,0.0,-0.0,1.6266078,0.0,0.6871017,0.0,0.0,0.7265612,0.0,0.0,-0.001,0,0
11332000,0.0,-0.0,1.6265849,0.0,0.68711,0.0,0.0,0.7265534,0.0,0.0,-0.001,0,0
11372000,0.0,-0.0,1.6265414,0.0,0.68712586,0.0,0.0,0.7265385,0.0,0.0,-0.001,0,0
11428000,0.0,-0.0,1.6264333,0.0,0.68716514,0.0,0.0,0.7265013,0.0,0.0,-0.001,0,0
11476000,0.0,-0.0,1.6262544,0.0,0.68723005,0.0,0.0,0.7264399,0.0,0.0,-0.001,0,0
11524000,0.0,-0.0,1.6260418,0.0,0.6873073,0.0,0.0,0.7263668,0.0,0.0,-0.001,0,0
11572000,0.0,-0.0,1.6259722,0.0,0.6873326,0.0,0.0,0.7263429,0.0,0.0,-0.001,0,0
11628000,0.0,-0.0,1.626068,0.0,0.6872978,0.0,0.0,0.72637576,0.0,0.0,-0.001,0,0
11676000,0.0,-0.0,1.626149,0.0,0.6872684,0.0,0.0,0.72640365,0.0,0.0,-0.001,0,0
11724000,0.0,-0.0,1.6259557,0.0,0.68733853,0.0,0.0,0.72633725,0.0,0.0,-0.001,0,0
11772000,0.0,-0.0,1.6257595,0.0,0.6874098,0.0,0.0,0.7262697,0.0,0.0,-0.001,0,0
11828000,0.0,-0.0,1.6255925,0.0,0.68747044,0.0,0.0,0.7262124,0.0,0.0,-0.001,0,0
11876000,0.0,-0.0,1.6252987,0.0,0.6875771,0.0,0.0,0.72611135,0.0,0.0,-0.001,0,0
11932000,0.0,-0.0,1.6249729,0.0,0.6876954,0.0,0.0,0.72599936,0.0,0.0,-0.001,0,0
11972000,0.0,-0.0,1.6247796,0.0,0.6877656,0.0,0.0,0.72593284,0.0,0.0,-0.001,0,0
12028000,0.0,-0.0,1.6247182,0.0,0.6877879,0.0,0.0,0.72591174,0.0,0.0,-0.001,0,0
12076000,0.0,-0.0,1.6247451,0.0,0.68777806,0.0,0.0,0.72592103,0.0,0.0,-0.001,0,0
12132000,0.0,-0.0,1.624873,0.0,0.6877317,0.0,0.0,0.72596496,0.0,0.0,-0.001,0,0
12172000,0.0,-0.0,1.6250098,0.0,0.68768203,0.0,0.0,0.726012,0.0,0.0,-0.001,0,0
12228000,0.0,-0.0,1.6252061,0.0,0.68761075,0.0,0.0,0.72607946,0.0,0.0,-0.001,0,0
12276000,0.0,-0.0,1.625351,0.0,0.6875582,0.0,0.0,0.7261293,0.0,0.0,-0.001,0,0
12324000,0.0,-0.0,1.625401,0.0,0.68754,0.0,0.0,0.7261466,0.0,0.0,-0.001,0,0
12372000,0.0,-0.0,1.6253996,0.0,0.6875405,0.0,0.0,0.7261461,0.0,0.0,-0.001,0,0
12428000,0.0,-0.0,1.6254861,0.0,0.68750906,0.0,0.0,0.7261758,0.0,0.0,-0.001,0,0
12476000,0.0,-0.0,1.6256464,0.0,0.6874509,0.0,0.0,0.72623086,0.0,0.0,-0.001,0,0
12532000,0.0,-0.0,1.6258334,0.0,0.687383,0.0,0.0,0.7262952,0.0,0.0,-0.001,0,0
12572000,0.0,-0.0,1.625807,0.0,0.68739253,0.0,0.0,0.7262861,0.0,0.0,-0.001,0,0
12628000,0.0,-0.0,1.6255908,0.0,0.6874711,0.0,0.0,0.7262118,0.0,0.0,-0.001,0,0
12676000,0.0,-0.0,1.6253831,0.0,0.6875465,0.0,0.0,0.7261404,0.0,0.0,-0.001,0,0
12732000,0.0,-0.0,1.6249747,0.0,0.6876947,0.0,0.0,0.726,0.0,0.0,-0.001,0,0
12772000,0.0,-0.0,1.6247131,0.0,0.68778974,0.0,0.0,0.72591007,0.0,0.0,-0.001,0,0
12828000,0.0,-0.0,1.6244891,0.0,0.68787104,0.0,0.0,0.7258329,0.0,0.0,-0.001,0,0
12876000,0.0,-0.0,1.6241841,0.0,0.68798167,0.0,0.0,0.72572803,0.0,0.0,-0.001,0,0
12924000,0.0,-0.0,1.6240038,0.0,0.6880471,0.0,0.0,0.725666,0.0,0.0,-0.001,0,0
12972000,0.0,-0.0,1.6238738,0.0,0.68809426,0.0,0.0,0.72562134,0.0,0.0,-0.001,0,0
13028000,0.0,-0.0,1.6239659,0.0,0.6880609,0.0,0.0,0.72565293,0.0,0.0,-0.001,0,0
13076000,0.0,-0.0,1.6241308,0.0,0.68800104,0.0,0.0,0.72570974,0.0,0.0,-0.001,0,0
13124000,0.0,-0.0,1.6242684,0.0,0.6879511,0.0,0.0,0.7257571,0.0,0.0,-0.001,0,0
13172000,0.0,-0.0,1.6242982,0.0,0.6879403,0.0,0.0,0.72576725,0.0,0.0,-0.001,0,0
13228000,0.0,-0.0,1.6241796,0.0,0.6879833,0.0,0.0,0.72572654,0.0,0.0,-0.001,0,0
13276000,0.0,-0.0,1.6240351,0.0,0.6880357,0.0,0.0,0.7256768,0.0,0.0,-0.001,0,0
13324000,0.0,-0.0,1.6238142,0.0,0.6881159,0.0,0.0,0.72560084,0.0,0.0,-0.001,0,0
13372000,0.0,-0.0,1.6236656,0.0,0.6881698,0.0,0.0,0.7255497,0.0,0.0,-0.001,0,0
13428000,0.0,-0.0,1.6235656,0.0,0.6882061,0.0,0.0,0.72551525,0.0,0.0,-0.001,0,0
13476000,0.0,-0.0,1.6234488,0.0,0.68824846,0.0,0.0,0.7254751,0.0,0.0,-0.001,0,0
13524000,0.0,-0.0,1.6233405,0.0,0.68828773,0.0,0.0,0.7254379,0.0,0.0,-0.001,0,0
13572000,0.0,-0.0,1.6233833,0.0,0.68827224,0.0,0.0,0.7254525,0.0,0.0,-0.001,0,0
13628000,0.0,-0.0,1.6236147,0.0,0.68818825,0.0,0.0,0.7255322,0.0,0.0,-0.001,0,0
13676000,0.0,-0.0,1.6237509,0.0,0.68813884,0.0,0.0,0.725579,0.0,0.0,-0.001,0,0
13724000,0.0,-0.0,1.6239837,0.0,0.6880544,0.0,0.0,0.7256591,0.0,0.0,-0.001,0,0
13772000,0.0,-0.0,1.6242284,0.0,0.68796563,0.0,0.0,0.7257433,0.0,0.0,-0.001,0,0
13828000,0.0,-0.0,1.6243823,0.0,0.6879098,0.0,0.0,0.72579616,0.0,0.0,-0.001,0,0
13876000,0.0,-0.0,1.6243032,0.0,0.68793845,0.0,0.0,0.7257691,0.0,0.0,-0.001,0,0
13924000,0.0,-0.0,1.6241832,0.0,0.687982,0.0,0.0,0.72572774,0.0,0.0,-0.001,0,0
13980000,0.0,-0.0,1.6240487,0.0,0.68803084,0.0,0.0,0.7256815,0.0,0.0,-0.001,0,0
14028000,0.0,-0.0,1.6237468,0.0,0.68814033,0.0,0.0,0.72557765,0.0,0.0,-0.001,0,0
14076000,0.0,-0.0,1.6234479,0.0,0.6882488,0.0,0.0,0.7254747,0.0,0.0,-0.001,0,0
14124000,0.0,-0.0,1.6231616,0.0,0.68835264,0.0,0.0,0.72537625,0.0,0.0,-0.001,0,0
14172000,0.0,-0.0,1.6228229,0.0,0.68847543,0.0,0.0,0.72525966,0.0,0.0,-0.001,0,0
14228000,0.0,-0.0,1.6225076,0.0,0.6885898,0.0,0.0,0.7251511,0.0,0.0,-0.001,0,0
14276000,0.0,-0.0,1.6222667,0.0,0.68867713,0.0,0.0,0.72506815,0.0,0.0,-0.001,0,0
14324000,0.0,-0.0,1.6218648,0.0,0.6888228,0.0,0.0,0.72492975,0.0,0.0,-0.001,0,0
14372000,0.0,-0.0,1.6215775,0.0,0.68892694,0.0,0.0,0.7248308,0.0,0.0,-0.001,0,0
14428000,0.0,-0.0,1.6213604,0.0,0.6890056,0.0,0.0,0.7247561,0.0,0.0,-0.001,0,0
14476000,0.0,-0.0,1.6212748,0.0,0.6890366,0.0,0.0,0.72472656,0.0,0.0,-0.001,0,0
14524000,-0.0015427946,0.0015834677,1.621286,0.0,0.6890317,-0.0011053109,-1.3524633e-05,0.7247304,0.0,0.0,-0.011264442,0,0
14572000,-0.0015289906,0.0015203139,1.6213506,0.0,0.6890083,-0.0010776694,-3.03148e-05,0.7247527,0.0,0.0,-0.017513972,0,0
14628000,-0.0006027859,0.0016541136,1.6213912,0.0,0.688994,-0.0008070811,0.00035139808,0.72476655,0.0,0.0,-0.025171945,0,0
14676000,-0.00063501723,0.00095291954,1.6214767,0.0,0.68896323,-0.00056408794,9.813442e-05,0.72479606,0.0,0.0,-0.032157265,0,0
14724000,-0.00059362315,0.00049361744,1.6215162,0.0,0.68894905,-0.0003833774,-4.5093213e-05,0.7248097,0.0,0.0,-0.039820563,0,0
14772000,-0.00025129417,0.00023677111,1.621574,0.0,0.6889282,-0.00017237116,-9.5135665e-06,0.7248296,0.0,0.0,-0.047803108,0,0
14828000,5.0409412e-06,0.00034523025,1.6216061,0.0,0.68891656,-0.00012338205,0.000120744364,0.7248407,0.0,0.0,-0.05755708,0,0
14876000,-0.00023171432,0.00025596443,1.6214005,0.0,0.68899107,-0.00017258221,4.208832e-06,0.7247699,0.0,0.0,-0.06650737,0,0
14924000,0.0,-0.0,1.6210732,0.0,0.6891096,0.0,0.0,0.7246571,0.0,0.0,-0.075944155,0,0
14972000,-0.00025319695,0.00023473524,1.6207668,0.0,0.68922067,-0.00017229316,-1.0834903e-05,0.7245515,0.0,0.0,-0.08582083,0,0
15028000,0.0006834654,9.8550685e-05,1.6204821,0.0,0.6893238,0.00019986679,0.00028153605,0.72445333,0.0,0.0,-0.0978254,0,0
15076000,0.0011451213,-2.7515145e-07,1.6204326,0.0,0.68934166,0.00039478953,0.00041468875,0.7244361,0.0,0.0,-0.10861696,0,0
15124000,0.0016546475,6.2899446e-05,1.62049,0.0,0.6893208,0.0005475076,0.00062103855,0.7244558,0.0,0.0,-0.1196786,0,0
15172000,0.0019546056,-0.0003367839,1.620473,0.0,0.68932664,0.0007956727,0.00059193006,0.72445,0.0,0.0,-0.13127403,0,0
15228000,0.0022890705,7.326146e-05,1.6203411,0.0,0.6893745,0.00076247833,0.00085435895,0.7244043,0.0,0.0,-0.1452582,0,0
15276000,0.0023637472,0.00012466083,1.6202474,0.0,0.6894084,0.00076964346,0.00089908746,0.7243719,0.0,0.0,-0.1578092,0,0
15324000,0.0023103827,0.00016295204,1.6202648,0.0,0.68940216,0.00073737226,0.00089296524,0.72437793,0.0,0.0,-0.17073356,0,0
15372000,0.0023995403,0.00028890456,1.6202933,0.0,0.68939185,0.0007224726,0.0009686834,0.7243877,0.0,0.0,-0.18417016,0,0
15428000,0.002287159,0.00011880386,1.6202964,0.0,0.6893907,0.0007453433,0.0008693478,0.7243889,0.0,0.0,-0.20028849,0,0
15476000,0.0021037268,0.00032293852,1.620292,0.0,0.68939245,0.00060818053,0.0008732725,0.7243873,0.0,0.0,-0.2145364,0,0
15524000,0.0023110562,-0.00015310381,1.6202558,0.0,0.68940526,0.0008520799,0.0007842605,0.724375,0.0,0.0,-0.22922216,0,0
15572000,0.002715979,-0.0007009129,1.6201687,0.0,0.6894363,0.0011900996,0.00074203545,0.724345,0.0,0.0,-0.24444428,0,0
15628000,0.002352172,-0.0014479957,1.620227,0.0,0.689415,0.0013352508,0.00035278004,0.72436523,0.0,0.0,-0.26280564,0,0
15676000,0.0020496105,-0.0010786664,1.6202118,0.0,0.6894209,0.0010971939,0.00037049994,0.7243601,0.0,0.0,-0.2788581,0,0
15724000,0.0020162351,-0.0011398323,1.6202003,0.0,0.68942505,0.0011078443,0.00033732128,0.7243561,0.0,0.0,-0.29538766,0,0
15772000,0.002276501,-0.0010081832,1.6200659,0.0,0.68947357,0.0011499127,0.00047688754,0.7243098,0.0,0.0,-0.31231198,0,0
15828000,0.002333893,-0.00071652944,1.6198729,0.0,0.6895436,0.001064132,0.00059811375,0.72424316,0.0,0.0,-0.32825902,0,0
15876000,0.0024083164,-0.00086978695,1.6198275,0.0,0.68955994,0.0011453017,0.00057219906,0.7242275,0.0,0.0,-0.33225104,0,0
15924000,0.0022449845,-0.0011820968,1.6199465,0.0,0.6895168,0.0012020556,0.00040544747,0.7242686,0.0,0.0,-0.33807954,0,0
15972000,0.0023758188,-0.0014088616,1.6200074,0.0,0.6894945,0.0013292695,0.00037468833,0.7242896,0.0,0.0,-0.34253445,0,0
16028000,0.0022382836,-0.0011947359,1.6198629,0.0,0.68954706,0.0012043393,0.0003986132,0.7242399,0.0,0.0,-0.34941912,0,0
16076000,0.002127135,-0.00084882695,1.619663,0.0,0.6896197,0.0010408055,0.00047752057,0.72417086,0.0,0.0,-0.35400322,0,0
16132000,0.0022237657,-0.0011197119,1.6193504,0.0,0.6897327,0.0011722737,0.00041892187,0.72406316,0.0,0.0,-0.36028346,0,0
16172000,0.0022178548,-0.001020583,1.6190883,0.0,0.6898276,0.0011344064,0.00045081964,0.7239727,0.0,0.0,-0.36492085,0,0
16228000,0.0022668196,-0.00083832454,1.618645,0.0,0.68998814,0.001085438,0.0005311672,0.7238197,0.0,0.0,-0.37256995,0,0
16276000,0.0026236582,-0.00038700242,1.6183454,0.0,0.6900966,0.0010453295,0.00081585755,0.7237161,0.0,0.0,-0.37746233,0,0
16332000,0.002721183,-0.00058632554,1.6179944,0.0,0.69022346,0.0011512442,0.00078216934,0.72359496,0.0,0.0,-0.3841403,0,0
16380000,0.0028281321,-0.00058849633,1.6177424,0.0,0.69031453,0.0011890422,0.0008199644,0.723508,0.0,0.0,-0.38960865,0,0
16428000,0.0031210638,-0.00039158366,1.6175225,0.0,0.69039404,0.0012190252,0.0009937655,0.7234318,0.0,0.0,-0.39791656,0,0
16476000,0.0027995792,-0.00017370888,1.6173309,0.0,0.69046366,0.001029332,0.0009525905,0.7233657,0.0,0.0,-0.40354136,0,0
16524000,0.0028517835,-0.00030459487,1.6172217,0.0,0.69050306,0.0010947444,0.00092622614,0.72332805,0.0,0.0,-0.41055983,0,0
16572000,0.0026713584,-0.00012809571,1.6171594,0.0,0.69052577,0.00096864766,0.0009218791,0.72330654,0.0,0.0,-0.41647148,0,0
16628000,0.002981008,-0.00023301279,1.617147,0.0,0.69053006,0.001113508,0.0009976343,0.7233021,0.0,0.0,-0.42560843,0,0
16676000,0.0028751632,-0.00027944945,1.6171845,0.0,0.6905165,0.0010937398,0.000943343,0.7233153,0.0,0.0,-0.43163824,0,0
16724000,0.002902298,-0.00020132655,1.6172047,0.0,0.69050926,0.0010748446,0.0009801397,0.72332215,0.0,0.0,-0.4387857,0,0
16772000,0.0033105467,-0.00035603173,1.6172982,0.0,0.69047505,0.0012716949,0.0010744343,0.72335434,0.0,0.0,-0.4450767,0,0
16828000,0.0030862195,-0.00010955834,1.6173968,0.0,0.69043964,0.0011050517,0.0010784466,0.72338843,0.0,0.0,-0.45513263,0,0
16876000,0.0031418651,0.00015187578,1.6174668,0.0,0.6904145,0.0010296608,0.0011888614,0.7234123,0.0,0.0,-0.4617498,0,0
16924000,0.0032741742,-9.290404e-05,1.6175929,0.0,0.69036865,0.0011638006,0.0011522921,0.7234559,0.0,0.0,-0.46922922,0,0
16972000,0.0032724722,-0.00014062916,1.6176505,0.0,0.6903478,0.001180444,0.0011352365,0.7234759,0.0,0.0,-0.47607014,0,0
17028000,0.0034166628,9.453781e-05,1.6177024,0.0,0.69032913,0.0011451131,0.001268599,0.72349346,0.0,0.0,-0.48676196,0,0
17076000,0.0029870728,-0.00013454256,1.6177624,0.0,0.6903075,0.0010796719,0.001034158,0.7235146,0.0,0.0,-0.49374703,0,0
17132000,0.0034299311,-0.00019314399,1.617856,0.0,0.69027334,0.0012536707,0.0011741974,0.7235467,0.0,0.0,-0.50212663,0,0
17180000,0.0037643,-0.00012637896,1.6177783,0.0,0.69030124,0.001344971,0.001318154,0.7235196,0.0,0.0,-0.5093691,0,0
17228000,0.0040591885,-0.00030512526,1.6177033,0.0,0.690328,0.0015114662,0.0013630819,0.7234936,0.0,0.0,-0.5203274,0,0
17276000,0.0037738585,-0.0002512399,1.6175636,0.0,0.69037884,0.0013935772,0.0012783665,0.7234457,0.0,0.0,-0.52788186,0,0
17332000,0.0037097426,-0.0006509519,1.617387,0.0,0.69044244,0.0015161283,0.0011170639,0.72338486,0.0,0.0,-0.53681004,0,0
17372000,0.0035743476,-0.00031410385,1.6172445,0.0,0.69049436,0.0013476361,0.0011842836,0.7233356,0.0,0.0,-0.5439226,0,0
17428000,0.0034670199,-0.00014115126,1.61711,0.0,0.6905432,0.0012481115,0.0012050945,0.72328913,0.0,0.0,-0.55604625,0,0
17476000,0.0034220011,-0.00030272745,1.6169873,0.0,0.69058746,0.0012910702,0.0011329467,0.72324693,0.0,0.0,-0.564011,0,0
17532000,0.003529289,-0.0007334477,1.6168784,0.0,0.6906265,0.0014839303,0.0010229386,0.7232093,0.0,0.0,-0.59848803,0,0
17572000,0.003506274,-0.000322216,1.6167561,0.0,0.690671,0.0013273504,0.001156539,0.72316694,0.0,0.0,-0.60594666,0,0
17628000,0.0035600069,-0.00066286273,1.6166857,0.0,0.6906962,0.0014691157,0.0010582787,0.72314286,0.0,0.0,-0.61879194,0,0
17676000,0.0033143936,-0.0005828305,1.6165978,0.0,0.6907282,0.0013554001,0.0009970512,0.7231125,0.0,0.0,-0.6273507,0,0
17724000,0.0033802118,-0.0006131082,1.6165305,0.0,0.69075245,0.0013891123,0.001010345,0.7230893,0.0,0.0,-0.6362508,0,0
17772000,0.00371356,-0.00052553474,1.6165262,0.0,0.6907538,0.0014725839,0.0011611078,0.72308767,0.0,0.0,-0.6450264,0,0
17828000,0.003164619,-0.0003434899,1.6165582,0.0,0.6907428,0.0012171585,0.001025535,0.72309875,0.0,0.0,-0.6584487,0,0
17876000,0.0032097022,-0.00065319525,1.6165464,0.0,0.6907468,0.0013447083,0.00093486346,0.72309494,0.0,0.0,-0.6674555,0,0
17932000,0.003226076,-0.00095777505,1.6163441,0.0,0.6908197,0.0014605679,0.00083544187,0.72302526,0.0,0.0,-0.6773804,0,0
17972000,0.0027703883,-0.0008881533,1.6162218,0.0,0.6908643,0.001278042,0.0006946749,0.722983,0.0,0.0,-0.68505085,0,0
18028000,0.0015836561,-0.0006872163,1.616084,0.0,0.6909148,0.00079549244,0.0003350366,0.7229356,0.0,0.0,-0.69656414,0,0
18076000,0.00069986604,-0.00047480868,1.6159028,0.0,0.6909806,0.00041341022,8.891536e-05,0.7228733,0.0,0.0,-0.70285547,0,0
18124000,-0.0004029105,-0.001014769,1.6159313,0.0,0.6909704,0.00022757996,-0.0004962163,0.72288287,0.0,0.0,-0.7083869,0,0
18180000,-0.0016495013,-0.0011013878,1.6168239,0.0,0.6906477,-0.00017135519,-0.0009767876,0.72319067,0.0,0.0,-0.71336055,0,0
18228000,-0.0029575313,-0.0015295403,1.6184304,0.0,0.6900665,-0.00046694768,-0.0015979914,0.7237441,0.0,0.0,-0.7229523,0,0
18276000,-0.008349256,-0.0046991855,1.620513,0.0,0.6893118,-0.0011754284,-0.0046439385,0.724449,0.0,0.0,-0.7283667,0,0
18332000,-0.018582506,-0.013254352,1.6222806,0.0,0.6886719,-0.0015934499,-0.011300312,0.7249833,0.0,0.0,-0.7338241,0,0
18372000,-0.025303828,-0.01992215,1.6230315,0.0,0.688402,-0.0014845264,-0.016032672,0.72515064,0.0,0.0,-0.73821735,0,0
18428000,-0.033081733,-0.028455766,1.6234008,0.0,0.6882728,-0.0010628641,-0.021788847,0.725124,0.0,0.0,-0.7461857,0,0
18476000,-0.038521253,-0.034378123,1.6233531,0.0,0.68829393,-0.0007872458,-0.025797704,0.72497267,0.0,0.0,-0.7480958,0,0
18532000,-0.04259067,-0.039164554,1.6229643,0.0,0.68843853,-0.00045724376,-0.028918555,0.7247178,0.0,0.0,-0.74856186,0,0
18572000,-0.044862833,-0.041193448,1.6226673,0.0,0.6885476,-0.000508118,-0.030439517,0.7245518,0.0,0.0,-0.749761,0,0
18628000,-0.046688046,-0.04237893,1.6222166,0.0,0.68871164,-0.00071374583,-0.031508286,0.72435,0.0,0.0,-0.7540259,0,0
18676000,-0.047627434,-0.042350356,1.6218888,0.0,0.68882996,-0.0010528057,-0.031838503,0.72422266,0.0,0.0,-0.7532227,0,0
18724000,-0.048260417,-0.042473517,1.6216222,0.0,0.6889263,-0.0012304507,-0.03210992,0.7241187,0.0,0.0,-0.75304645,0,0
18772000,-0.048897862,-0.041910622,1.6213809,0.0,0.6890123,-0.0016579072,-0.032146826,0.7240345,0.0,0.0,-0.75022894,0,0
18828000,-0.04905072,-0.042437956,1.6210226,0.0,0.68914276,-0.0015252809,-0.032383364,0.7239001,0.0,0.0,-0.7403982,0,0
18876000,-0.049611155,-0.043288577,1.6208388,0.0,0.6892102,-0.001413226,-0.032878853,0.7238137,0.0,0.0,-0.73073107,0,0
18924000,-0.050340954,-0.04381894,1.6206484,0.0,0.6892794,-0.0014757506,-0.033325385,0.72372717,0.0,0.0,-0.7184625,0,0
18972000,-0.05094899,-0.04465979,1.6205723,0.0,0.68930775,-0.0013819993,-0.033834804,0.7236768,0.0,0.0,-0.71046007,0,0
19028000,-0.05250854,-0.044976152,1.6204823,0.0,0.6893396,-0.0018064594,-0.034507915,0.7236137,0.0,0.0,-0.7112954,0,0
19076000,-0.053930044,-0.045581013,1.6203513,0.0,0.6893867,-0.0020796277,-0.035230294,0.72353333,0.0,0.0,-0.71633303,0,0
19124000,-0.054173872,-0.04571736,1.6201773,0.0,0.68944967,-0.0021173703,-0.03536525,0.72346663,0.0,0.0,-0.7187521,0,0
19172000,-0.05444183,-0.04570853,1.6199089,0.0,0.6895464,-0.0022176937,-0.035458848,0.7233695,0.0,0.0,-0.7207943,0,0
19228000,-0.054129913,-0.045586415,1.6196402,0.0,0.68964374,-0.0021591187,-0.035303693,0.72328454,0.0,0.0,-0.72656214,0,0
19276000,-0.05337151,-0.044522017,1.6194419,0.0,0.6897142,-0.0022864277,-0.03466263,0.72324795,0.0,0.0,-0.7261484,0,0
19324000,-0.05233129,-0.043894045,1.6192348,0.0,0.68978906,-0.0021585722,-0.034069937,0.72320515,0.0,0.0,-0.7231595,0,0
19380000,-0.050771944,-0.042960282,1.6190372,0.0,0.68986034,-0.0019620634,-0.03318419,0.7231788,0.0,0.0,-0.7216736,0,0
19428000,-0.050437983,-0.042772498,1.6189312,0.0,0.68989867,-0.0019165925,-0.032998636,0.72315097,0.0,0.0,-0.72590667,0,0
19476000,-0.049561437,-0.042607926,1.6187748,0.0,0.6899558,-0.001676345,-0.032624856,0.72311395,0.0,0.0,-0.7245667,0,0
19524000,-0.04841097,-0.042207163,1.6185743,0.0,0.69002855,-0.0014277205,-0.032070637,0.7230699,0.0,0.0,-0.7211662,0,0
19572000,-0.047610693,-0.04140877,1.6184175,0.0,0.6900846,-0.0014430115,-0.03150603,0.72304124,0.0,0.0,-0.72021466,0,0
19628000,-0.046374675,-0.04114893,1.6183857,0.0,0.6900965,-0.0011110515,-0.030969596,0.7230536,0.0,0.0,-0.7239705,0,0
19676000,-0.045293313,-0.040142417,1.6182501,0.0,0.69014484,-0.0011041885,-0.03023161,0.7230386,0.0,0.0,-0.72312164,0,0
19724000,-0.04391635,-0.039243743,1.6181694,0.0,0.6901736,-0.00095539505,-0.029423943,0.72304463,0.0,0.0,-0.72015345,0,0
19780000,-0.042264618,-0.03778236,1.6180327,0.0,0.69022214,-0.00091609947,-0.028322859,0.7230424,0.0,0.0,-0.7185545,0,0
19828000,-0.041284654,-0.037446268,1.6178509,0.0,0.69028795,-0.00070203363,-0.02785262,0.72299826,0.0,0.0,-0.7227137,0,0
19876000,-0.04018793,-0.037308678,1.6177073,0.0,0.69034,-0.0003752461,-0.027408676,0.72296566,0.0,0.0,-0.72095877,0,0
19924000,-0.038747642,-0.03640341,1.6175271,0.0,0.6904046,-0.00020797196,-0.026575774,0.7229351,0.0,0.0,-0.71749234,0,0
19972000,-0.03748494,-0.035449825,1.6173173,0.0,0.6904799,-0.00011971048,-0.025790378,0.7228917,0.0,0.0,-0.7164078,0,0
20028000,-0.036010325,-0.03489069,1.6171302,0.0,0.69054717,0.00018481411,-0.02506449,0.72285295,0.0,0.0,-0.72006315,0,0
20076000,-0.034892827,-0.03369588,1.6170524,0.0,0.6905746,0.0001376172,-0.024248319,0.7228546,0.0,0.0,-0.71902245,0,0
20124000,-0.033789974,-0.03298546,1.6170396,0.0,0.6905789,0.0002613582,-0.023604563,0.7228717,0.0,0.0,-0.71629226,0,0
20172000,-0.032754794,-0.032277036,1.6170015,0.0,0.69059217,0.00036217205,-0.022985937,0.72287893,0.0,0.0,-0.71556646,0,0
20228000,-0.032139286,-0.031201798,1.6168275,0.0,0.6906545,0.00018392506,-0.02239241,0.7228381,0.0,0.0,-0.7189207,0,0
20276000,-0.031964093,-0.03135462,1.616691,0.0,0.6907039,0.00029815908,-0.022381857,0.7227911,0.0,0.0,-0.7175493,0,0
20324000,-0.031482603,-0.030568862,1.6165475,0.0,0.6907554,0.0001787586,-0.021936636,0.7227556,0.0,0.0,-0.714565,0,0
20372000,-0.03126396,-0.029938024,1.6164203,0.0,0.6908011,2.4823321e-05,-0.021639856,0.722721,0.0,0.0,-0.7135587,0,0
20428000,-0.030529289,-0.02910895,1.6162938,0.0,0.6908464,-2.2485454e-05,-0.021088144,0.7226939,0.0,0.0,-0.7169007,0,0
20476000,-0.029311884,-0.028403325,1.616253,0.0,0.6908608,0.00014253522,-0.020404605,0.7226998,0.0,0.0,-0.71605825,0,0
20524000,-0.028485537,-0.027618619,1.6162516,0.0,0.6908609,0.00014430049,-0.019835059,0.72271556,0.0,0.0,-0.7134551,0,0
20572000,-0.02719006,-0.026811665,1.6162623,0.0,0.69085664,0.00030019143,-0.01908828,0.7227397,0.0,0.0,-0.7126899,0,0
20628000,-0.026181772,-0.026736401,1.616244,0.0,0.690863,0.000621103,-0.018697932,0.7227435,0.0,0.0,-0.71592444,0,0
20676000,-0.025622096,-0.026528405,1.616215,0.0,0.6908733,0.0007389769,-0.018423868,0.72274077,0.0,0.0,-0.71435046,0,0
20724000,-0.025019452,-0.026272928,1.6161537,0.0,0.6908952,0.00085424463,-0.018117895,0.7227273,0.0,0.0,-0.711259,0,0
20780000,-0.024306053,-0.025590105,1.6161598,0.0,0.6908927,0.0008539168,-0.017624293,0.7227419,0.0,0.0,-0.7096745,0,0
20828000,-0.023852795,-0.024842957,1.616182,0.0,0.69088453,0.0007406047,-0.01720247,0.7227601,0.0,0.0,-0.71363133,0,0
20876000,-0.022900833,-0.024339119,1.6161183,0.0,0.6909071,0.0008867929,-0.016684484,0.7227504,0.0,0.0,-0.7130333,0,0
20932000,-0.022067768,-0.02364861,1.6161581,0.0,0.69089246,0.00092530047,-0.01614494,0.72277665,0.0,0.0,-0.7100064,0,0
20972000,-0.021241361,-0.022924345,1.6128331,0.0,0.69209284,0.00092304364,-0.015597711,0.7216394,0.0,0.0,-0.70992583,0,0
21028000,-0.020764466,-0.022620598,1.6127263,0.0,0.69213116,0.00097763,-0.015320605,0.7216084,0.0,0.0,-0.71283036,0,0
21076000,-0.02026381,-0.022356153,1.61296,0.0,0.69204664,0.0010572127,-0.015048348,0.7216951,0.0,0.0,-0.7112967,0,0
21132000,-0.01982644,-0.021276793,1.6132436,0.0,0.6919443,0.00082104176,-0.01451701,0.72180456,0.0,0.0,-0.70779365,0,0
21172000,-0.019706443,-0.021081941,1.6134505,0.0,0.69186956,0.00079371245,-0.014406222,0.72187835,0.0,0.0,-0.70740527,0,0
21228000,-0.019101799,-0.020379601,1.6131135,0.0,0.69199103,0.00074697816,-0.013945193,0.72177106,0.0,0.0,-0.710274,0,0
21276000,-0.018598631,-0.019992955,1.6127812,0.0,0.6921108,0.0007792463,-0.013629985,0.7216622,0.0,0.0,-0.7046012,0,0
21324000,-0.018216051,-0.019406196,1.6125015,0.0,0.6922116,0.0006980221,-0.013289022,0.7215719,0.0,0.0,-0.69434583,0,0
21380000,-0.017565202,-0.01877001,1.6121963,0.0,0.69232154,0.0006917603,-0.012834162,0.72147465,0.0,0.0,-0.6866697,0,0
21428000,-0.017620841,-0.018506385,1.6120497,0.0,0.69237447,0.0005764506,-0.012763034,0.72142524,0.0,0.0,-0.673928,0,0
21476000,-0.018035654,-0.018207442,1.6119783,0.0,0.6924003,0.00032454036,-0.012809202,0.7213998,0.0,0.0,-0.6666184,0,0
21524000,-0.018272817,-0.01802904,1.611976,0.0,0.6924011,0.00017806067,-0.012832994,0.72139865,0.0,0.0,-0.6548687,0,0
21572000,-0.018290479,-0.017612817,1.6120253,0.0,0.6923832,2.2103977e-05,-0.012695291,0.7214182,0.0,0.0,-0.65993184,0,0
21628000,-0.01826781,-0.017804543,1.612245,0.0,0.692304,0.00010052051,-0.012753468,0.72149324,0.0,0.0,-0.6718876,0,0
21676000,-0.018356156,-0.017166499,1.6128259,0.0,0.69209427,-0.00015661986,-0.0125645595,0.72169775,0.0,0.0,-0.6813483,0,0
21724000,-0.018232023,-0.016819494,1.6133732,0.0,0.6918966,-0.00023550636,-0.012399772,0.7218901,0.0,0.0,-0.69038016,0,0
21772000,-0.017854339,-0.016667485,1.613776,0.0,0.6917512,-0.00015726232,-0.012210902,0.7220326,0.0,0.0,-0.6977612,0,0
21828000,-0.017626045,-0.016695842,1.6139154,0.0,0.6917009,-6.72155e-05,-0.012138294,0.7220821,0.0,0.0,-0.7058832,0,0
21876000,-0.01752559,-0.016161006,1.6140605,0.0,0.69164836,-0.00022473454,-0.011917096,0.7221361,0.0,0.0,-0.7105083,0,0
21932000,-0.01742716,-0.015802352,1.6139542,0.0,0.6916866,-0.0003208352,-0.011757525,0.72210205,0.0,0.0,-0.71580654,0,0
21972000,-0.016983368,-0.015670063,1.6136642,0.0,0.6917913,-0.00021679774,-0.011551519,0.7220051,0.0,0.0,-0.71853507,0,0
22028000,-0.016310232,-0.015198718,1.6136258,-0.0015869396,0.69180506,-0.0001543557,-0.011145497,0.7219983,0.0,0.0,-0.7207947,0,0
22076000,-0.016123218,-0.0150603,1.6136258,-0.001311954,0.69180506,-0.0001396415,-0.011030111,0.722,0.0,0.0,-0.7193305,0,0
22132000,-0.01585659,-0.014419322,1.6136258,-0.0015064138,0.6918049,-0.00027883478,-0.01071217,0.722005,0.0,0.0,-0.71576864,0,0
22180000,-0.015617679,-0.014571776,1.6136258,-0.0012453818,0.69180495,-0.00014115198,-0.010678649,0.7220054,0.0,0.0,-0.71290535,0,0
22228000,-0.01576382,-0.0143181095,1.6136258,-0.00061284605,0.6918048,-0.00028328676,-0.010643673,0.7220061,0.0,0.0,-0.7116469,0,0
22276000,-0.015772386,-0.014341968,1.6136258,-0.0005066518,0.6918048,-0.0002776363,-0.010655018,0.72200596,0.0,0.0,-0.7101156,0,0
22324000,-0.01574538,-0.0140358405,1.6136258,-0.00058174855,0.69180477,-0.00037882006,-0.01053939,0.7220076,0.0,0.0,-0.70935744,0,0
22372000,-0.015940536,-0.013735899,1.6136258,-0.00048094286,0.6918046,-0.00055461656,-0.010506104,0.7220082,0.0,0.0,-0.70876735,0,0
22428000,-0.0154167265,-0.013691414,1.6136258,-0.00023666956,0.69180465,-0.00038948993,-0.010301622,0.72201115,0.0,0.0,-0.7089876,0,0
22476000,-0.015455976,-0.013351209,1.6136258,-0.00019565936,0.6918045,-0.0005258949,-0.010198125,0.7220127,0.0,0.0,-0.70857966,0,0
22524000,-0.015079946,-0.012958359,1.6136258,-0.00022466031,0.6918044,-0.0005376603,-0.009926501,0.7220166,0.0,0.0,-0.7086142,0,0
22572000,-0.014983136,-0.013088407,1.6136258,-0.00018573107,0.69180447,-0.00045722083,-0.009936532,0.72201633,0.0,0.0,-0.70864135,0,0
22628000,-0.01498782,-0.012505281,1.6136258,-9.139733e-05,0.6918042,-0.0006693743,-0.009736539,0.7220192,0.0,0.0,-0.7091596,0,0
22676000,-0.015002372,-0.011436294,1.6136258,-7.5559954e-05,0.6918035,-0.0010603569,-0.009372062,0.7220242,0.0,0.0,-0.7088654,0,0
22732000,-0.015296753,-0.010508258,1.6136258,-8.675957e-05,0.69180256,-0.001497243,-0.009157357,0.7220271,0.0,0.0,-0.708295,0,0
22772000,-0.015352073,-0.01035844,1.6136258,-7.172584e-05,0.6918023,-0.0015704688,-0.009125509,0.72202754,0.0,0.0,-0.70837456,0,0
22828000,-0.015172066,-0.009977879,1.6136258,-3.5295925e-05,0.69180214,-0.0016456024,-0.008928899,0.72203004,0.0,0.0,-0.7090398,0,0
22876000,-0.015175863,-0.010073212,1.6136258,-2.9179831e-05,0.6918022,-0.0016124969,-0.008963243,0.7220297,0.0,0.0,-0.7089192,0,0
22932000,-0.015302296,-0.010258967,1.6136258,-3.350491e-05,0.6918023,-0.0015891652,-0.0090731345,0.72202826,0.0,0.0,-0.7085706,0,0
22972000,-0.01522241,-0.010032482,1.6136258,-2.7699169e-05,0.69180214,-0.0016433027,-0.00896596,0.7220296,0.0,0.0,-0.708456,0,0
23028000,-0.01446805,-0.009900094,1.6136258,-1.3630621e-05,0.69180256,-0.0014301665,-0.008647834,0.7220335,0.0,0.0,-0.70822924,0,0
23076000,-0.013501973,-0.0098496955,1.6136258,-1.1268701e-05,0.69180316,-0.0011141945,-0.008281631,0.7220378,0.0,0.0,-0.7072868,0,0
23124000,-0.012966504,-0.0101117855,1.6136258,-1.2938965e-05,0.69180363,-0.00083434954,-0.008178967,0.7220389,0.0,0.0,-0.7065472,0,0
23172000,-0.012702617,-0.0104755685,1.6136258,-1.06968955e-05,0.6918039,-0.0006117297,-0.008209524,0.7220386,0.0,0.0,-0.7063238,0,0
23228000,-0.012685391,-0.010586892,1.6136258,-5.263889e-06,0.69180393,-0.0005655787,-0.00824181,0.7220382,0.0,0.0,-0.7071374,0,0
23276000,-0.012343707,-0.010808304,1.6136258,-4.35176e-06,0.6918041,-0.00036744986,-0.008195036,0.7220386,0.0,0.0,-0.7072708,0,0
23324000,-0.012430934,-0.010802092,1.6136258,-4.9967844e-06,0.6918041,-0.00039986556,-0.008224377,0.72203827,0.0,0.0,-0.70695424,0,0
23380000,-0.012440766,-0.010845865,1.6136258,-4.1309395e-06,0.6918041,-0.0003874618,-0.008243068,0.7220381,0.0,0.0,-0.7067664,0,0
23428000,-0.012591326,-0.010957351,1.6136258,-2.0328146e-06,0.6918041,-0.00039929006,-0.008335983,0.722037,0.0,0.0,-0.70750964,0,0
23476000,-0.012932977,-0.011565317,1.6136258,-1.6805675e-06,0.6918043,-0.00029796618,-0.008669606,0.72203296,0.0,0.0,-0.7066427,0,0
23524000,-0.012778163,-0.011927595,1.6136258,-1.929664e-06,0.6918044,-0.00011361847,-0.008739019,0.7220322,0.0,0.0,-0.7058701,0,0
23572000,-0.012952175,-0.012113287,1.6136258,-1.5952908e-06,0.6918044,-0.000106766536,-0.008866066,0.7220305,0.0,0.0,-0.7057675,0,0
23628000,-0.013439066,-0.012138948,1.6136258,-7.850346e-07,0.6918044,-0.00026591794,-0.009050716,0.72202814,0.0,0.0,-0.7070936,0,0
23676000,-0.013660515,-0.012433289,1.6136258,-6.490034e-07,0.69180447,-0.00023624854,-0.009232466,0.7220259,0.0,0.0,-0.7072762,0,0
23724000,-0.013609646,-0.0122479675,1.6136258,-7.4519977e-07,0.6918044,-0.00028556204,-0.009150005,0.7220269,0.0,0.0,-0.7067046,0,0
23772000,-0.013825254,-0.012547929,1.6136258,-6.1607125e-07,0.6918045,-0.00025184284,-0.00933159,0.7220245,0.0,0.0,-0.7069136,0,0
23828000,-0.013667127,-0.012766756,1.6136258,-3.0316556e-07,0.6918046,-0.00011813973,-0.009350191,0.72202426,0.0,0.0,-0.70766586,0,0
23876000,-0.013710891,-0.0132477395,1.6136258,-2.506329e-07,0.69180465,4.0377236e-05,-0.009532347,0.7220218,0.0,0.0,-0.70656836,0,0
23924000,-0.013454977,-0.013542844,1.6136258,-2.877821e-07,0.6918047,0.00023544309,-0.009542027,0.72202164,0.0,0.0,-0.7054515,0,0
23972000,-0.013389347,-0.013400253,1.6136258,-2.3791506e-07,0.69180465,0.00020666425,-0.009469016,0.7220226,0.0,0.0,-0.7051157,0,0
24028000,-0.0133954,-0.013710901,1.6136258,-1.1707682e-07,0.6918047,0.0003167273,-0.009578645,0.7220211,0.0,0.0,-0.7063204,0,0
24076000,-0.01342472,-0.013983854,1.6136258,-9.67897e-08,0.6918047,0.000405133,-0.009683636,0.7220197,0.0,0.0,-0.7066344,0,0
24124000,-0.013472881,-0.014258813,1.6136258,-1.1113602e-07,0.6918047,0.00048774626,-0.009796122,0.722018,0.0,0.0,-0.70597273,0,0
24180000,-0.013628013,-0.014531046,1.6136258,-9.187832e-08,0.69180477,0.00053237245,-0.009946282,0.7220159,0.0,0.0,-0.7062128,0,0
24228000,-0.014616008,-0.015518779,1.6136258,-4.521286e-08,0.691805,0.0005472356,-0.010644576,0.7220058,0.0,0.0,-0.7073333,0,0
24276000,-0.014971357,-0.016501116,1.6136258,-3.7378356e-08,0.691805,0.0007789852,-0.011112607,0.7219985,0.0,0.0,-0.70614815,0,0
24324000,-0.01575364,-0.016993806,1.6136258,-4.2918632e-08,0.6918052,0.00068627245,-0.0115654105,0.72199136,0.0,0.0,-0.7040468,0,0
24380000,-0.016338563,-0.017831123,1.6136258,-3.5481673e-08,0.6918053,0.0007862528,-0.012066152,0.72198284,0.0,0.0,-0.7039076,0,0
24428000,-0.016475217,-0.018235736,1.6136258,-1.7460353e-08,0.6918053,0.00088506605,-0.012255417,0.72197956,0.0,0.0,-0.70594436,0,0
24476000,-0.01677294,-0.018199673,1.6136258,-1.4434814e-08,0.6918054,0.00076906336,-0.01235042,0.72197795,0.0,0.0,-0.70636976,0,0
24524000,-0.01673636,-0.018505929,1.6136258,-1.6574365e-08,0.69180536,0.0008922877,-0.012443132,0.72197616,0.0,0.0,-0.705194,0,0
24572000,-0.01674874,-0.018358847,1.6136258,-1.3702352e-08,0.6918054,0.00083490164,-0.012396732,0.72197706,0.0,0.0,-0.7057301,0,0
24628000,-0.017188594,-0.018753394,1.6136258,-6.7428587e-09,0.69180554,0.000825204,-0.012691967,0.7219718,0.0,0.0,-0.7076271,0,0
24676000,-0.017728297,-0.019421661,1.6136258,-5.5744533e-09,0.69180566,0.00087979104,-0.0131179085,0.72196406,0.0,0.0,-0.70699143,0,0
24724000,-0.017551875,-0.019850357,1.6136258,-6.400708e-09,0.6918055,0.0010955931,-0.013202482,0.7219624,0.0,0.0,-0.7056014,0,0
24772000,-0.017486505,-0.019877994,1.6136258,-5.2915903e-09,0.6918054,0.0011281825,-0.013188444,0.72196263,0.0,0.0,-0.7057868,0,0
24828000,-0.017601037,-0.02004911,1.6136258,-2.603965e-09,0.6918055,0.0011503445,-0.013288965,0.7219607,0.0,0.0,-0.70759666,0,0
24876000,-0.017583508,-0.020333074,1.6136258,-2.1527489e-09,0.69180536,0.0012589322,-0.013380843,0.72195894,0.0,0.0,-0.7077188,0,0
24924000,-0.017548129,-0.020290287,1.6136258,-2.4718325e-09,0.69180536,0.0012557221,-0.013353275,0.7219595,0.0,0.0,-0.70685995,0,0
24972000,-0.01750786,-0.020020643,1.6136258,-2.0435125e-09,0.6918054,0.0011722974,-0.013245487,0.7219615,0.0,0.0,-0.70720243,0,0
25028000,-0.01749195,-0.02035046,1.6136258,-1.0056023e-09,0.6918053,0.001296879,-0.013353807,0.7219595,0.0,0.0,-0.708287,0,0
25076000,-0.017564334,-0.02061163,1.6136258,-8.3135104e-10,0.69180524,0.0013661342,-0.013470259,0.7219572,0.0,0.0,-0.70811164,0,0
25124000,-0.01735626,-0.02082438,1.6136258,-9.545751e-10,0.691805,0.0015149189,-0.013468726,0.7219572,0.0,0.0,-0.7071737,0,0
25180000,-0.017402144,-0.021178165,1.6136258,-7.891659e-10,0.6918049,0.0016267787,-0.013607639,0.7219544,0.0,0.0,-0.70717853,0,0
25228000,-0.017381998,-0.021025252,1.6136258,-3.8834455e-10,0.69180495,0.0015785388,-0.013547483,0.72195566,0.0,0.0,-0.7080499,0,0
25276000,-0.017368015,-0.020540673,1.6136258,-3.2105202e-10,0.6918051,0.0014084232,-0.013374851,0.72195905,0.0,0.0,-0.7081693,0,0
25332000,-0.017269436,-0.0207418,1.6136258,-3.6863887e-10,0.691805,0.001515137,-0.013408824,0.72195834,0.0,0.0,-0.7076644,0,0
25372000,-0.017367823,-0.020459406,1.6136258,-3.0476094e-10,0.6918052,0.0013791488,-0.013346677,0.7219595,0.0,0.0,-0.70764595,0,0
25428000,-0.017535353,-0.020318944,1.6136258,-1.4997133e-10,0.69180536,0.0012704874,-0.0133585725,0.72195935,0.0,0.0,-0.7080136,0,0
25476000,-0.017772272,-0.020150552,1.6136258,-1.2398423e-10,0.69180554,0.0011277393,-0.01338586,0.7219589,0.0,0.0,-0.70727545,0,0
25524000,-0.017642343,-0.019766985,1.6136258,-1.4236137e-10,0.6918056,0.0010341972,-0.013206305,0.72196233,0.0,0.0,-0.7066841,0,0
25572000,-0.017679276,-0.020018905,1.6136258,-1.1769294e-10,0.69180554,0.0011123776,-0.013306761,0.72196037,0.0,0.0,-0.70680195,0,0
25628000,-0.018320572,-0.019726051,1.6136258,-5.7916102e-11,0.6918059,0.000784819,-0.013436978,0.7219581,0.0,0.0,-0.70730895,0,0
25676000,-0.018072817,-0.019191785,1.6136258,-4.7880373e-11,0.69180584,0.000677625,-0.013162772,0.7219633,0.0,0.0,-0.70730704,0,0
25732000,-0.018254772,-0.019366702,1.6136258,-5.4977273e-11,0.6918059,0.000677839,-0.013288949,0.7219609,0.0,0.0,-0.7072093,0,0
25772000,-0.018157838,-0.018891737,1.6136258,-4.5450785e-11,0.6918059,0.00053988653,-0.013089693,0.72196466,0.0,0.0,-0.7075463,0,0
25828000,-0.01821771,-0.019088687,1.6136258,-2.2366104e-11,0.6918059,0.00059028494,-0.013179421,0.7219629,0.0,0.0,-0.7073351,0,0
25876000,-0.018047258,-0.019203408,1.6136258,-1.8490496e-11,0.69180584,0.0006906632,-0.013157565,0.7219633,0.0,0.0,-0.70635915,0,0
25924000,-0.018521937,-0.019350065,1.6136258,-2.1231185e-11,0.69180596,0.00057941955,-0.013379635,0.7219593,0.0,0.0,-0.70583326,0,0
25972000,-0.018744038,-0.019311778,1.6136258,-1.7552236e-11,0.691806,0.0004887711,-0.0134465685,0.72195804,0.0,0.0,-0.7057886,0,0
26028000,-0.018549373,-0.01951106,1.6136258,-8.637367e-12,0.69180596,0.0006280551,-0.013445218,0.72195804,0.0,0.0,-0.70617104,0,0
26076000,-0.018541537,-0.019061092,1.6136258,-7.1406804e-12,0.69180596,0.00046830732,-0.013286772,0.721961,0.0,0.0,-0.70660555,0,0
26124000,-0.018619638,-0.018581707,1.6136258,-8.199083e-12,0.6918059,0.0002682147,-0.013149175,0.72196364,0.0,0.0,-0.7070927,0,0
26180000,-0.018486448,-0.018570298,1.6136258,-6.778342e-12,0.6918059,0.00031016694,-0.013097151,0.7219646,0.0,0.0,-0.7072811,0,0
26228000,-0.01782284,-0.018480446,1.6136258,-3.3355883e-12,0.6918058,0.00050727103,-0.012826523,0.72196954,0.0,0.0,-0.7068712,0,0
26276000,-0.017372819,-0.01853468,1.6136258,-2.7575962e-12,0.6918056,0.000682516,-0.012682829,0.72197205,0.0,0.0,-0.70605206,0,0
26324000,-0.016879471,-0.018514477,1.6136258,-3.1663313e-12,0.6918054,0.00084587064,-0.01249775,0.7219753,0.0,0.0,-0.7058311,0,0
26372000,-0.016924325,-0.018790253,1.6136258,-2.6176682e-12,0.6918054,0.0009299219,-0.012609316,0.7219732,0.0,0.0,-0.70599496,0,0
26428000,-0.016710736,-0.01874658,1.6136258,-1.2881413e-12,0.69180536,0.0009880363,-0.0125171095,0.7219749,0.0,0.0,-0.70651007,0,0
26476000,-0.016676137,-0.018697824,1.6136258,-1.0649317e-12,0.6918053,0.0009824012,-0.01248776,0.7219755,0.0,0.0,-0.7068569,0,0
26524000,-0.016664388,-0.01870511,1.6136258,-1.2227774e-12,0.6918053,0.0009890959,-0.012486037,0.72197545,0.0,0.0,-0.7071558,0,0
26572000,-0.016879017,-0.018408326,1.6136258,-1.0108941e-12,0.6918055,0.00080770254,-0.012460873,0.7219759,0.0,0.0,-0.7074736,0,0
26628000,-0.017040871,-0.01774193,1.6136258,-4.9745586e-13,0.69180554,0.0005111194,-0.01228883,0.7219791,0.0,0.0,-0.70727193,0,0
26676000,-0.017219147,-0.017208977,1.6136258,-4.112565e-13,0.69180554,0.00025703583,-0.012168864,0.7219813,0.0,0.0,-0.7063779,0,0
26724000,-0.017300934,-0.016789256,1.6136258,-4.722136e-13,0.6918055,7.720977e-05,-0.01205323,0.7219833,0.0,0.0,-0.7059388,0,0
26772000,-0.017547088,-0.016778804,1.6136258,-3.9038822e-13,0.6918055,-1.1710097e-05,-0.012138474,0.7219818,0.0,0.0,-0.7056514,0,0
26828000,-0.017721945,-0.016234443,1.6136258,-1.9210809e-13,0.6918053,-0.00026873124,-0.012013329,0.72198415,0.0,0.0,-0.7061182,0,0
26876000,-0.017713184,-0.016207255,1.6136258,-1.5881952e-13,0.6918053,-0.00027551618,-0.012000763,0.7219843,0.0,0.0,-0.7066376,0,0
26924000,-0.017600043,-0.016131718,1.6136258,-1.8235999e-13,0.6918053,-0.0002636533,-0.011933794,0.7219855,0.0,0.0,-0.7068834,0,0
26972000,-0.018248403,-0.016098643,1.6136258,-1.5076056e-13,0.6918051,-0.000499864,-0.012156409,0.7219818,0.0,0.0,-0.7073378,0,0
27028000,-0.018110117,-0.016169472,1.6136258,-7.418852e-14,0.6918052,-0.00042645787,-0.012130985,0.72198224,0.0,0.0,-0.7075258,0,0
27076000,-0.01806179,-0.016101712,1.6136258,-6.13331e-14,0.6918052,-0.00043420537,-0.012090106,0.7219829,0.0,0.0,-0.7074291,0,0
27124000,-0.017903058,-0.015772074,1.6136258,-7.0423986e-14,0.69180506,-0.0004983118,-0.011918798,0.72198576,0.0,0.0,-0.70738757,0,0
27172000,-0.018094007,-0.015390805,1.6136258,-5.8220884e-14,0.69180477,-0.00070201623,-0.011855866,0.72198695,0.0,0.0,-0.7073126,0,0
27228000,-0.018679038,-0.015570127,1.6136258,-2.8650205e-14,0.69180465,-0.0008396359,-0.012129077,0.7219823,0.0,0.0,-0.7075168,0,0
27276000,-0.018760445,-0.01578852,1.6136258,-2.3685684e-14,0.6918048,-0.0007889464,-0.012233996,0.72198045,0.0,0.0,-0.70786387,0,0
27324000,-0.01885209,-0.015976546,1.6136258,-2.719641e-14,0.6918049,-0.0007527626,-0.012332108,0.7219788,0.0,0.0,-0.7083007,0,0
27372000,-0.019109882,-0.016061846,1.6136258,-2.2483805e-14,0.6918048,-0.0008111362,-0.012454669,0.7219767,0.0,0.0,-0.708692,0,0
27428000,-0.018707756,-0.014940934,1.6136258,-1.1064168e-14,0.6918042,-0.0010767352,-0.011921838,0.7219859,0.0,0.0,-0.70839757,0,0
27476000,-0.018529788,-0.014911313,1.6136258,-9.146964e-15,0.6918043,-0.0010258714,-0.011847347,0.7219871,0.0,0.0,-0.70764923,0,0
27532000,-0.018147927,-0.014707893,1.6136258,-1.0502742e-14,0.6918043,-0.0009672266,-0.011639145,0.7219906,0.0,0.0,-0.70735633,0,0
27572000,-0.01819438,-0.01449082,1.6136258,-8.682822e-15,0.6918041,-0.0010616677,-0.011580837,0.72199154,0.0,0.0,-0.7075149,0,0
27628000,-0.01810866,-0.014556912,1.6136258,-4.2727726e-15,0.6918042,-0.0010081546,-0.011572752,0.7219917,0.0,0.0,-0.70797795,0,0
27676000,-0.018343827,-0.014590046,1.6136258,-3.5323849e-15,0.6918041,-0.001077537,-0.011669106,0.72199005,0.0,0.0,-0.70840365,0,0
27724000,-0.018273378,-0.014722797,1.6136258,-4.0559605e-15,0.6918043,-0.0010052392,-0.011689585,0.72198975,0.0,0.0,-0.7086625,0,0
27772000,-0.01837973,-0.014650978,1.6136258,-3.353142e-15,0.6918042,-0.0010679562,-0.011703137,0.7219895,0.0,0.0,-0.70884174,0,0
27828000,-0.018046467,-0.014039299,1.6136258,-1.6500643e-15,0.6918039,-0.0011735212,-0.01137128,0.721995,0.0,0.0,-0.70819694,0,0
27876000,-0.017600186,-0.013861653,1.6136258,-1.3641405e-15,0.69180393,-0.0010832901,-0.011148735,0.7219985,0.0,0.0,-0.707271,0,0
27924000,-0.017217288,-0.013626631,1.6136258,-1.5663354e-15,0.691804,-0.0010356973,-0.010929222,0.72200185,0.0,0.0,-0.7068771,0,0
27972000,-0.016964586,-0.013741855,1.6136258,-1.2949201e-15,0.6918042,-0.0009066871,-0.010877849,0.7220027,0.0,0.0,-0.7069594,0,0
28028000,-0.016852805,-0.013482167,1.6136258,-6.3722373e-16,0.69180405,-0.00096177973,-0.01074768,0.7220046,0.0,0.0,-0.7074445,0,0
28076000,-0.017169943,-0.013306364,1.6136258,-5.2680537e-16,0.69180375,-0.001134951,-0.010801366,0.72200394,0.0,0.0,-0.7077322,0,0
28132000,-0.017314816,-0.013311278,1.6136258,-6.0488926e-16,0.6918037,-0.0011832876,-0.010855363,0.72200304,0.0,0.0,-0.7083847,0,0
28180000,-0.017202232,-0.013566765,1.6136258,-5.000738e-16,0.69180393,-0.0010521038,-0.010903084,0.7220023,0.0,0.0,-0.70862925,0,0
28228000,-0.017206207,-0.013675535,1.6136258,-2.460838e-16,0.69180405,-0.0010142081,-0.010942136,0.7220016,0.0,0.0,-0.708111,0,0
28276000,-0.017431714,-0.014316532,1.6136258,-2.0344228e-16,0.69180435,-0.0008607844,-0.011245239,0.7219969,0.0,0.0,-0.70710236,0,0
28332000,-0.017408285,-0.014907489,1.6136258,-2.3359684e-16,0.69180477,-0.0006393207,-0.0114411665,0.7219937,0.0,0.0,-0.7064811,0,0
28380000,-0.017375464,-0.015241951,1.6136258,-1.9311907e-16,0.69180495,-0.0005072125,-0.011544995,0.7219919,0.0,0.0,-0.7063678,0,0
28428000,-0.017617486,-0.015817663,1.6136258,-9.503293e-17,0.6918051,-0.00038307393,-0.011831476,0.72198725,0.0,0.0,-0.7064026,0,0
28476000,-0.017788814,-0.01588582,1.6136258,-7.856558e-17,0.6918051,-0.00041772902,-0.011916896,0.7219859,0.0,0.0,-0.70651865,0,0
28524000,-0.017921584,-0.016047254,1.6136258,-9.021069e-17,0.6918052,-0.00040536933,-0.012020657,0.721984,0.0,0.0,-0.70722306,0,0
28580000,-0.0181748,-0.015974047,1.6136258,-7.457894e-17,0.6918051,-0.00051938824,-0.012086746,0.721983,0.0,0.0,-0.70788217,0,0
28628000,-0.017728716,-0.016097942,1.6136258,-3.6699923e-17,0.69180524,-0.00032035547,-0.011968564,0.721985,0.0,0.0,-0.70758367,0,0
28676000,-0.01713392,-0.016654624,1.6136258,-3.034054e-17,0.6918054,8.637215e-05,-0.0119463755,0.7219851,0.0,0.0,-0.70652795,0,0
28724000,-0.016476924,-0.016797919,1.6136258,-3.4837668e-17,0.6918054,0.00036536352,-0.011758762,0.7219881,0.0,0.0,-0.7060328,0,0
28780000,-0.016529338,-0.016958589,1.6136258,-2.880098e-17,0.6918054,0.00040524194,-0.011833252,0.72198683,0.0,0.0,-0.7060647,0,0
28828000,-0.015983569,-0.016852181,1.6136258,-1.4172818e-17,0.6918053,0.0005556082,-0.011599434,0.72199076,0.0,0.0,-0.7066433,0,0
28876000,-0.015860343,-0.016780965,1.6136258,-1.17169455e-17,0.6918053,0.0005725194,-0.011530317,0.7219919,0.0,0.0,-0.70695263,0,0
28924000,-0.016302092,-0.016872514,1.6136258,-1.34536485e-17,0.69180536,0.0004527703,-0.011721449,0.72198874,0.0,0.0,-0.707797,0,0
28972000,-0.016403582,-0.016992781,1.6136258,-1.1122395e-17,0.6918054,0.00046108654,-0.011799681,0.72198737,0.0,0.0,-0.7081646,0,0
29028000,-0.016615454,-0.017088378,1.6136258,-5.473274e-18,0.6918054,0.0004223147,-0.011909228,0.7219856,0.0,0.0,-0.7072145,0,0
29076000,-0.016670953,-0.01718061,1.6136258,-4.524863e-18,0.6918054,0.00043641502,-0.01196116,0.72198474,0.0,0.0,-0.7058416,0,0
29132000,-0.015851991,-0.017296074,1.6136258,-5.1955446e-18,0.69180524,0.00076138414,-0.011705454,0.7219889,0.0,0.0,-0.7049041,0,0
29172000,-0.015956659,-0.017559718,1.6136258,-4.295258e-18,0.6918052,0.00082036684,-0.011834423,0.7219868,0.0,0.0,-0.704969,0,0
29228000,-0.015361613,-0.017883666,1.6136258,-2.113675e-18,0.6918048,0.0011431528,-0.011731651,0.7219884,0.0,0.0,-0.70554906,0,0
29276000,-0.015189228,-0.01785421,1.6136258,-1.7474166e-18,0.69180477,0.0011921466,-0.011659233,0.7219895,0.0,0.0,-0.7060633,0,0
29332000,-0.015473151,-0.017730188,1.6136258,-2.0064213e-18,0.691805,0.0010491593,-0.011718835,0.72198856,0.0,0.0,-0.7070284,0,0
29380000,-0.01590059,-0.018167047,1.6136258,-1.6587477e-18,0.69180506,0.0010590318,-0.012024227,0.72198343,0.0,0.0,-0.7078233,0,0
29428000,-0.016451638,-0.017867537,1.6136258,-8.1626147e-19,0.69180536,0.00076028745,-0.012119565,0.7219819,0.0,0.0,-0.70770526,0,0
29476000,-0.016299853,-0.017331297,1.6136258,-6.748193e-19,0.69180536,0.0006191847,-0.011879311,0.72198606,0.0,0.0,-0.7073111,0,0
29524000,-0.015967749,-0.017310223,1.6136258,-7.7484205e-19,0.69180524,0.00072645105,-0.011752136,0.72198814,0.0,0.0,-0.70729715,0,0
29580000,-0.016021013,-0.017717699,1.6136258,-6.405771e-19,0.6918052,0.00085514307,-0.011912292,0.7219854,0.0,0.0,-0.707603,0,0
29628000,-0.015998181,-0.017616915,1.6136258,-3.1522478e-19,0.69180524,0.0008266536,-0.011869191,0.7219861,0.0,0.0,-0.7079146,0,0
29676000,-0.016080366,-0.01790187,1.6136258,-2.606025e-19,0.6918052,0.00090110645,-0.011997413,0.721984,0.0,0.0,-0.70831656,0,0
29724000,-0.016177932,-0.018066302,1.6136258,-2.992294e-19,0.6918052,0.0009267264,-0.012089501,0.72198236,0.0,0.0,-0.7088364,0,0
29772000,-0.016498104,-0.018484691,1.6136258,-2.473788e-19,0.6918053,0.00096703274,-0.012349779,0.7219779,0.0,0.0,-0.7091394,0,0
29828000,-0.016673328,-0.01837228,1.6136258,-1.2173388e-19,0.69180536,0.0008658365,-0.012374157,0.7219775,0.0,0.0,-0.7086669,0,0
29876000,-0.016782265,-0.018285867,1.6136258,-1.0063978e-19,0.6918054,0.00079695706,-0.012383596,0.72197735,0.0,0.0,-0.70763767,0,0
29924000,-0.016675208,-0.018331585,1.6136258,-1.1555677e-19,0.69180536,0.0008504943,-0.012360761,0.7219777,0.0,0.0,-0.7068144,0,0
29972000,-0.016538816,-0.01817807,1.6136258,-9.553304e-20,0.69180536,0.00084224803,-0.012258432,0.72197944,0.0,0.0,-0.70696473,0,0
30028000,-0.01663429,-0.01809075,1.6136258,-4.701133e-20,0.6918054,0.000777696,-0.012262697,0.7219794,0.0,0.0,-0.7071615,0,0
30076000,-0.01629454,-0.017964514,1.6136258,-3.8865188e-20,0.6918053,0.0008496416,-0.012096393,0.72198224,0.0,0.0,-0.70736945,0,0
30124000,-0.016560286,-0.017933877,1.6136258,-4.462584e-20,0.6918054,0.0007466569,-0.012181727,0.72198075,0.0,0.0,-0.70788985,0,0
30172000,-0.016598705,-0.018293653,1.6136258,-3.6893057e-20,0.69180536,0.0008632612,-0.012320026,0.7219784,0.0,0.0,-0.7082093,0,0
30228000,-0.016200492,-0.017769769,1.6136258,-1.8154889e-20,0.6918053,0.0008118606,-0.011995089,0.72198397,0.0,0.0,-0.70779914,0,0
30276000,-0.016188208,-0.016744947,1.6136258,-1.5009002e-20,0.6918053,0.00044610657,-0.011636217,0.7219902,0.0,0.0,-0.70656604,0,0
30324000,-0.016102143,-0.016703274,1.6136258,-1.7233659e-20,0.6918053,0.00046083087,-0.011590737,0.72199094,0.0,0.0,-0.70606476,0,0
30372000,-0.015937788,-0.016650237,1.6136258,-1.4247402e-20,0.6918053,0.00049853243,-0.011513063,0.72199214,0.0,0.0,-0.70608574,0,0
30428000,-0.015724897,-0.016670046,1.6136258,-7.011076e-21,0.69180524,0.0005793246,-0.01144306,0.72199327,0.0,0.0,-0.70651084,0,0
30476000,-0.016026957,-0.016383484,1.6136258,-5.7961935e-21,0.6918053,0.00037138123,-0.011452995,0.7219932,0.0,0.0,-0.70717937,0,0
30524000,-0.015650481,-0.016807457,1.6136258,-6.6553147e-21,0.6918052,0.000654676,-0.01146372,0.721993,0.0,0.0,-0.7077479,0,0
30572000,-0.016060654,-0.016828403,1.6136258,-5.502079e-21,0.6918053,0.0005203594,-0.011619035,0.7219904,0.0,0.0,-0.7083357,0,0
30628000,-0.016146136,-0.016863473,1.6136258,-2.7075455e-21,0.6918053,0.00050345156,-0.011662023,0.72198975,0.0,0.0,-0.7079286,0,0
30676000,-0.016148329,-0.0168543,1.6136258,-2.2383806e-21,0.6918053,0.0004993812,-0.011659643,0.7219898,0.0,0.0,-0.7065498,0,0
30724000,-0.016498322,-0.016468469,1.6136258,-2.5701568e-21,0.69180536,0.0002390174,-0.011652545,0.72199,0.0,0.0,-0.7058114,0,0
30772000,-0.016489258,-0.01662163,1.6136258,-2.124799e-21,0.69180536,0.00029745078,-0.011702248,0.7219891,0.0,0.0,-0.70570695,0,0
30828000,-0.016919725,-0.016691009,1.6136258,-1.0456029e-21,0.6918054,0.00017359848,-0.0118816355,0.72198623,0.0,0.0,-0.7061895,0,0
30876000,-0.016789662,-0.01668305,1.6136258,-8.644204e-22,0.6918054,0.00021571432,-0.011831931,0.721987,0.0,0.0,-0.7065777,0,0
30924000,-0.016557062,-0.017092725,1.6136258,-9.925462e-22,0.6918054,0.00044408176,-0.011889651,0.7219859,0.0,0.0,-0.7069529,0,0
30972000,-0.017122533,-0.017249903,1.6136258,-8.2055726e-22,0.69180554,0.00030523186,-0.012148141,0.7219816,0.0,0.0,-0.7075178,0,0
31028000,-0.016666694,-0.017041909,1.6136258,-4.037921e-22,0.6918054,0.00038781244,-0.011911653,0.7219856,0.0,0.0,-0.70764166,0,0
31076000,-0.01633814,-0.016381776,1.6136258,-3.3382284e-22,0.69180536,0.00026312485,-0.011564738,0.72199136,0.0,0.0,-0.7072108,0,0
31132000,-0.016469186,-0.016326888,1.6136258,-3.8330257e-22,0.69180536,0.00019797854,-0.011593061,0.7219908,0.0,0.0,-0.7070826,0,0
