timestamp,timestamp_sample,states[0],states[1],states[2],states[3],states[4],states[5],states[6],states[7],states[8],states[9],states[10],states[11],states[12],states[13],states[14],states[15],states[16],states[17],states[18],states[19],states[20],states[21],states[22],states[23],covariances[0],covariances[1],covariances[2],covariances[3],covariances[4],covariances[5],covariances[6],covariances[7],covariances[8],covariances[9],covariances[10],covariances[11],covariances[12],covariances[13],covariances[14],covariances[15],covariances[16],covariances[17],covariances[18],covariances[19],covariances[20],covariances[21],covariances[22],covariances[23],n_states
3180000,3100000,0.99989194,-0.009854637,-0.010907824,-0.00016198032,0.0006310876,-0.00013297028,-0.022063993,3.9535444e-05,-1.0059821e-05,-0.0016145087,0.0,0.0,0.0,0.0,0.0,0.0,0.0,0.0,0.0,0.0,0.0,0.0,0.0,0.0,5.505783e-07,0.0025484632,0.0025489419,0.00021278777,25.020878,25.020872,10.000214,100.43325,100.43325,100.17326,9.999931e-07,1.0000002e-06,9.844554e-07,4.0000004e-06,4.0000004e-06,4.0000004e-06,0.0,0.0,0.0,0.0,0.0,0.0,0.0,0.0,24
3188000,3108000,0.9998917,-0.009862089,-0.010922493,-0.00016298216,5.820977e-11,2.0009015e-11,-1.8626451e-09,-7.571033e-05,-1.23329855e-05,0.0014912417,2.190227e-12,-3.4413503e-10,2.1640431e-14,-6.563e-11,1.8480885e-10,-9.272065e-09,0.0,0.0,0.0,0.0,0.0,0.0,0.0,0.0,5.528341e-07,0.0025533678,0.0025538595,0.00011558795,1.9073486e-06,1.9073486e-06,1e-06,100.000114,100.000114,100.0,9.999873e-07,9.999958e-07,9.81532e-07,4e-06,4e-06,3.9999986e-06,0.0,0.0,0.0,0.0,0.0,0.0,0.0,0.0,24
3196000,3116000,0.99989146,-0.009865374,-0.010941054,-0.00015484462,0.00014363386,0.00014747646,-0.0014757589,-7.5135795e-05,-1.174308e-05,0.0014853387,2.190227e-12,-3.4413503e-10,2.1640431e-14,-6.563e-11,1.8480885e-10,-9.272065e-09,0.0,0.0,0.0,0.0,0.0,0.0,0.0,0.0,5.557182e-07,0.0025611133,0.0025616102,7.973953e-05,8.37055e-05,8.372252e-05,1.755181e-05,100.000114,100.000114,100.0,9.999857e-07,9.999958e-07,9.78112e-07,4e-06,4e-06,3.9999986e-06,0.0,0.0,0.0,0.0,0.0,0.0,0.0,0.0,24
3204000,3124000,0.6921781,0.0010782022,-0.014712984,0.721576,0.00014026515,0.00029904186,-0.00245668,-7.40002e-05,-9.957007e-06,0.0014696089,2.190227e-12,-3.4413503e-10,2.1640431e-14,-6.563e-11,1.8480885e-10,-9.272065e-09,0.2095249,0.011663976,0.4315095,0.0,0.0,0.0,0.0,0.0,5.5864405e-07,0.0025648759,0.0025698608,6.9933245e-05,0.00030271642,0.00030231662,4.2051295e-05,100.000114,100.000114,100.0,9.999497e-07,9.999959e-07,9.754922e-07,4.0000004e-06,4.0000004e-06,3.999999e-06,0.0,0.0,0.0,0.0,0.0,0.0,0.0,0.0,24
3212000,3132000,0.69217694,0.0010940537,-0.014733371,0.72157663,0.00023548113,0.0003053503,-0.0032937527,-7.249721e-05,-7.5394382e-06,0.0014466072,2.190227e-12,-3.4413503e-10,2.1640431e-14,-6.563e-11,1.8480885e-10,-9.272065e-09,0.2095249,0.011663976,0.4315095,0.0,0.0,0.0,0.0,0.0,6.8928904e-07,0.0025675953,0.0025759947,6.2247644e-05,0.00056246115,0.00056099123,7.449802e-05,100.000114,100.000114,100.0,9.999287e-07,9.999959e-07,9.700873e-07,4.0000004e-06,4.0000004e-06,3.999999e-06,0.0,0.0,0.0,0.0,0.0,0.0,0.0,0.0,24
3220000,3140000,0.6921812,0.0011036695,-0.014756521,0.7215721,0.00013425195,0.00048646983,-0.0044372454,-7.101828e-05,-4.3721575e-06,0.0014156832,2.190227e-12,-3.4413503e-10,2.1640431e-14,-6.563e-11,1.8480885e-10,-9.272065e-09,0.2095249,0.011663976,0.4315095,0.0,0.0,0.0,0.0,0.0,1.0660738e-06,0.002571572,0.0025826287,5.6177898e-05,0.000961045,0.0009580891,0.00011489517,100.000114,100.000114,100.0,9.999171e-07,9.999959e-07,9.612928e-07,4.0000004e-06,4.0000004e-06,3.999999e-06,0.0,0.0,0.0,0.0,0.0,0.0,0.0,0.0,24
3228000,3148000,0.6921791,0.0011103359,-0.014771074,0.7215739,5.156052e-05,0.0005098892,-0.0056415647,-7.027503e-05,-3.8672124e-07,0.001375368,2.190227e-12,-3.4413503e-10,2.1640431e-14,-6.563e-11,1.8480885e-10,-9.272065e-09,0.2095249,0.011663976,0.4315095,0.0,0.0,0.0,0.0,0.0,1.6766163e-06,0.0025766182,0.0025897631,5.1252406e-05,0.0014985981,0.00149379,0.00016324052,100.000114,100.000114,100.0,9.999115e-07,9.999959e-07,9.487013e-07,4.0000004e-06,4.0000004e-06,3.999999e-06,0.0,0.0,0.0,0.0,0.0,0.0,0.0,0.0,24
3236000,3156000,0.6921754,0.0011191359,-0.0147810625,0.72157717,-0.00014052406,0.00043605396,-0.006898135,-7.0630886e-05,3.3970516e-06,0.0013252092,2.190227e-12,-3.4413503e-10,2.1640431e-14,-6.563e-11,1.8480885e-10,-9.272065e-09,0.2095249,0.011663976,0.4315095,0.0,0.0,0.0,0.0,0.0,2.5034583e-06,0.00258261,0.002597397,4.7165024e-05,0.0021757723,0.0021688037,0.00021953578,100.000114,100.000114,100.0,9.999095e-07,9.999959e-07,9.320902e-07,4.0000004e-06,4.0000004e-06,3.999999e-06,0.0,0.0,0.0,0.0,0.0,0.0,0.0,0.0,24
3244000,3164000,0.6921732,0.0011265397,-0.014794845,0.7215789,-0.00020392198,0.00052370725,-0.007952206,-7.200867e-05,7.2360963e-06,0.0012658078,2.190227e-12,-3.4413503e-10,2.1640431e-14,-6.563e-11,1.8480885e-10,-9.272065e-09,0.2095249,0.011663976,0.4315095,0.0,0.0,0.0,0.0,0.0,3.5231517e-06,0.0025894535,0.0026055311,4.370822e-05,0.0029906596,0.0029813817,0.00028378243,100.000114,100.000114,100.0,9.999092e-07,9.999959e-07,9.1141936e-07,4.000001e-06,4.000001e-06,3.9999995e-06,0.0,0.0,0.0,0.0,0.0,0.0,0.0,0.0,24
3252000,3172000,0.69217867,0.0011409409,-0.014811489,0.7215733,-0.00011918618,0.000594751,-0.009157263,-7.3301104e-05,1.170993e-05,0.0011973699,2.190227e-12,-3.4413503e-10,2.1640431e-14,-6.563e-11,1.8480885e-10,-9.272065e-09,0.2095249,0.011663976,0.4315095,0.0,0.0,0.0,0.0,0.0,4.7060435e-06,0.0025970843,0.002614164,4.07376e-05,0.0039471686,0.0039354484,0.0003559788,100.00011,100.000114,100.0,9.999092e-07,9.999959e-07,8.868257e-07,4.000001e-06,4.000001e-06,3.9999995e-06,0.0,0.0,0.0,0.0,0.0,0.0,0.0,0.0,24
3260000,3180000,0.69218177,0.0011542827,-0.014833807,0.72156984,-8.824753e-05,0.00047094654,-0.0103535205,-7.413084e-05,1.597272e-05,0.0011193268,2.190227e-12,-3.4413503e-10,2.1640431e-14,-6.563e-11,1.8480885e-10,-9.272065e-09,0.2095249,0.011663976,0.4315095,0.0,0.0,0.0,0.0,0.0,6.018444e-06,0.0026054457,0.002623297,3.814897e-05,0.0050445087,0.0050301324,0.00043612526,100.0001,100.00011,100.0,9.999085e-07,9.999959e-07,8.586094e-07,4.000001e-06,4.000001e-06,3.9999995e-06,0.0,0.0,0.0,0.0,0.0,0.0,0.0,0.0,24
3268000,3188000,0.69218117,0.0011595058,-0.014849896,0.7215701,2.4461944e-05,0.00045790896,-0.011497885,-7.438598e-05,1.9688143e-05,0.0010319211,2.190227e-12,-3.4413503e-10,2.1640431e-14,-6.563e-11,1.8480885e-10,-9.272065e-09,0.2095249,0.011663976,0.4315095,0.0,0.0,0.0,0.0,0.0,7.422961e-06,0.0026144944,0.0026329302,3.5866688e-05,0.006282627,0.0062655527,0.0005242247,100.00009,100.0001,100.0,9.999064e-07,9.999959e-07,8.272092e-07,4.000001e-06,4.000001e-06,3.9999995e-06,0.0,0.0,0.0,0.0,0.0,0.0,0.0,0.0,24
3276000,3196000,0.6921801,0.0011697799,-0.0148737915,0.7215707,0.00013688154,0.0005708253,-0.012567602,-7.37406e-05,2.380308e-05,0.00093565916,2.190227e-12,-3.4413503e-10,2.1640431e-14,-6.563e-11,1.8480885e-10,-9.272065e-09,0.2095249,0.011663976,0.4315095,0.0,0.0,0.0,0.0,0.0,8.8836705e-06,0.0026241932,0.0026430625,3.3834087e-05,0.007661602,0.0076417946,0.00062027853,100.00009,100.0001,100.0,9.999026e-07,9.999959e-07,7.9316936e-07,4.000001e-06,4.000001e-06,3.9999995e-06,0.0,0.0,0.0,0.0,0.0,0.0,0.0,0.0,24
3284000,3204000,0.69217855,0.0011803835,-0.014895794,0.7215716,0.00016554823,0.00065020134,-0.0136206,-7.253088e-05,2.8687187e-05,0.0008309063,2.190227e-12,-3.4413503e-10,2.1640431e-14,-6.563e-11,1.8480885e-10,-9.272065e-09,0.2095249,0.011663976,0.4315095,0.0,0.0,0.0,0.0,0.0,1.0364043e-05,0.0026345116,0.0026536945,3.2008702e-05,0.009182945,0.009160274,0.00072428596,100.00009,100.0001,100.0,9.998965e-07,9.999959e-07,7.571006e-07,4.0000014e-06,4.0000014e-06,4e-06,0.0,0.0,0.0,0.0,0.0,0.0,0.0,0.0,24
3292000,3212000,0.69218016,0.0011931843,-0.014911722,0.7215697,0.00033060805,0.00081054773,-0.014669225,-7.054625e-05,3.4530185e-05,0.000717747,2.190227e-12,-3.4413503e-10,2.1640431e-14,-6.563e-11,1.8480885e-10,-9.272065e-09,0.2095249,0.011663976,0.4315095,0.0,0.0,0.0,0.0,0.0,1.1830969e-05,0.0026454234,0.0026648259,3.035805e-05,0.010847637,0.010822146,0.0008362487,100.00009,100.0001,100.0,9.998885e-07,9.99996e-07,7.1964007e-07,4.0000014e-06,4.0000014e-06,4e-06,0.0,0.0,0.0,0.0,0.0,0.0,0.0,0.0,24
3300000,3220000,0.69218767,0.001199296,-0.014926277,0.72156227,0.00056093774,0.0010941068,-0.015843183,-6.6980065e-05,4.2148804e-05,0.0005956974,2.190227e-12,-3.4413503e-10,2.1640431e-14,-6.563e-11,1.8480885e-10,-9.272065e-09,0.2095249,0.011663976,0.4315095,0.0,0.0,0.0,0.0,0.0,1.3256042e-05,0.0026569036,0.0026764574,2.8856364e-05,0.012659377,0.012631114,0.0009561699,100.00009,100.0001,100.0,9.998781e-07,9.99996e-07,6.8141475e-07,4.0000014e-06,4.0000014e-06,4e-06,0.0,0.0,0.0,0.0,0.0,0.0,0.0,0.0,24
3308000,3228000,0.6921924,0.0012069987,-0.014947581,0.7215573,0.0008011696,0.0014203908,-0.017068736,-6.153164e-05,5.2206793e-05,0.0004640497,2.190227e-12,-3.4413503e-10,2.1640431e-14,-6.563e-11,1.8480885e-10,-9.272065e-09,0.2095249,0.011663976,0.4315095,0.0,0.0,0.0,0.0,0.0,1.4616534e-05,0.0026689328,0.0026885883,2.7483291e-05,0.014617915,0.014586867,0.0010840503,100.00009,100.0001,100.0,9.998657e-07,9.99996e-07,6.4301037e-07,4.0000014e-06,4.0000014e-06,4e-06,0.0,0.0,0.0,0.0,0.0,0.0,0.0,0.0,24
3316000,3236000,0.69219476,0.0012109042,-0.0149697205,0.7215546,0.000809306,0.0016500592,-0.018123776,-5.5089735e-05,6.4488595e-05,0.00032327964,2.190227e-12,-3.4413503e-10,2.1640431e-14,-6.563e-11,1.8480885e-10,-9.272065e-09,0.2095249,0.011663976,0.4315095,0.0,0.0,0.0,0.0,0.0,1.589376e-05,0.0026814942,0.002701219,2.6222962e-05,0.016718686,0.016684588,0.0012198832,100.00009,100.0001,100.0,9.998516e-07,9.99996e-07,6.0494875e-07,4.0000014e-06,4.0000014e-06,4e-06,0.0,0.0,0.0,0.0,0.0,0.0,0.0,0.0,24
3324000,3244000,0.6921925,0.0012166356,-0.014993709,0.7215562,0.00090181705,0.001962455,-0.019161016,-4.824524e-05,7.8938654e-05,0.00017414047,2.190227e-12,-3.4413503e-10,2.1640431e-14,-6.563e-11,1.8480885e-10,-9.272065e-09,0.2095249,0.011663976,0.4315095,0.0,0.0,0.0,0.0,0.0,1.7075028e-05,0.0026945756,0.002714349,2.5062289e-05,0.018965945,0.018928848,0.0013636776,100.00009,100.0001,100.0,9.998361e-07,9.99996e-07,5.676734e-07,4.000002e-06,4.000002e-06,4.0000004e-06,0.0,0.0,0.0,0.0,0.0,0.0,0.0,0.0,24
3332000,3252000,0.6921926,0.0012208308,-0.015013961,0.72155565,0.0008130492,0.001864028,-0.020240128,-4.1385778e-05,9.424459e-05,1.6535894e-05,2.190227e-12,-3.4413503e-10,2.1640431e-14,-6.563e-11,1.8480885e-10,-9.272065e-09,0.2095249,0.011663976,0.4315095,0.0,0.0,0.0,0.0,0.0,1.815174e-05,0.0027081661,0.0027279784,2.3990726e-05,0.021362355,0.02132178,0.0015154107,100.0001,100.00011,100.0,9.998193e-07,9.99996e-07,5.3154395e-07,4.000002e-06,4.000002e-06,4.0000004e-06,0.0,0.0,0.0,0.0,0.0,0.0,0.0,0.0,24
3340000,3260000,0.6921935,0.0012272071,-0.015029647,0.7215544,0.0009174778,0.0020362851,-0.021170385,-3.446367e-05,0.000109845845,-0.00014910617,2.190227e-12,-3.4413503e-10,2.1640431e-14,-6.563e-11,1.8480885e-10,-9.272065e-09,0.2095249,0.011663976,0.4315095,0.0,0.0,0.0,0.0,0.0,1.91201e-05,0.002722259,0.0027421075,2.2999177e-05,0.023903135,0.02385936,0.0016751143,100.000114,100.00012,100.0,9.998016e-07,9.99996e-07,4.968364e-07,4.000002e-06,4.000002e-06,4.0000004e-06,0.0,0.0,0.0,0.0,0.0,0.0,0.0,0.0,24
3348000,3268000,0.6921905,0.0012321696,-0.015053654,0.7215568,0.0011314333,0.0021680358,-0.021888822,-2.6268022e-05,0.00012666313,-0.00032134302,2.190227e-12,-3.4413503e-10,2.1640431e-14,-6.563e-11,1.8480885e-10,-9.272065e-09,0.2095249,0.011663976,0.4315095,0.0,0.0,0.0,0.0,0.0,1.9980609e-05,0.0027368474,0.0027567358,2.207903e-05,0.026586495,0.026539562,0.0018427764,100.00013,100.00014,100.0,9.997832e-07,9.99996e-07,4.6374942e-07,4.000002e-06,4.000002e-06,4.0000004e-06,0.0,0.0,0.0,0.0,0.0,0.0,0.0,0.0,24
3356000,3276000,0.6921929,0.0012420058,-0.015071149,0.72155416,0.0009849521,0.0023808004,-0.022890188,-1.780248e-05,0.00014485848,-0.00050045905,2.190227e-12,-3.4413503e-10,2.1640431e-14,-6.563e-11,1.8480885e-10,-9.272065e-09,0.2095249,0.011663976,0.4315095,0.0,0.0,0.0,0.0,0.0,2.073472e-05,0.002751928,0.0027718635,2.1224465e-05,0.02942941,0.029378947,0.0020183953,100.00015,100.00016,100.0,9.997643e-07,9.99996e-07,4.324118e-07,4.000002e-06,4.000002e-06,4.0000004e-06,0.0,0.0,0.0,0.0,0.0,0.0,0.0,0.0,24
3364000,3284000,0.69219923,0.0012535619,-0.015076924,0.7215479,0.0011939362,0.0025477407,-0.024072729,-9.094948e-12,1.6007107e-10,-0.00034973148,4.470604e-12,-3.4846775e-10,1.884534e-13,-5.4059254e-11,1.8728818e-10,-9.301149e-09,0.2095249,0.011663976,0.4315095,0.0,0.0,0.0,0.0,0.0,2.1386459e-05,0.0027674935,0.0027874873,2.0429685e-05,0.032430865,0.03237716,0.0022019772,9.918213e-05,9.918213e-05,50.0,9.99745e-07,9.999959e-07,4.0289314e-07,4.0000014e-06,4.0000014e-06,4e-06,0.0,0.0,0.0,0.0,0.0,0.0,0.0,0.0,24
3372000,3292000,0.6921985,0.0012620623,-0.015105754,0.721548,0.001430413,0.0026114192,-0.02517581,1.0497388e-05,2.0636802e-05,-0.00054672564,4.470604e-12,-3.4846775e-10,1.884534e-13,-5.4059254e-11,1.8728818e-10,-9.301149e-09,0.2095249,0.011663976,0.4315095,0.0,0.0,0.0,0.0,0.0,2.1944048e-05,0.00278355,0.0028036141,1.9687364e-05,0.035583038,0.03552603,0.0023935146,0.00010223436,0.00010222932,50.0,9.997258e-07,9.999959e-07,3.752159e-07,4.000002e-06,4.000002e-06,4.0000004e-06,0.0,0.0,0.0,0.0,0.0,0.0,0.0,0.0,24
3380000,3300000,0.692197,0.0012790108,-0.015124991,0.72154903,0.0014828872,0.0026827143,-0.026119485,2.2150589e-05,4.1813335e-05,-0.00075190683,4.470604e-12,-3.4846775e-10,1.884534e-13,-5.4059254e-11,1.8728818e-10,-9.301149e-09,0.2095249,0.011663976,0.4315095,0.0,0.0,0.0,0.0,0.0,2.2412334e-05,0.0028000928,0.0028202396,1.89948e-05,0.038883366,0.038822804,0.0025930083,0.0001119532,0.00011193249,50.0,9.997067e-07,9.999959e-07,3.4936286e-07,4.000002e-06,4.000002e-06,4.0000004e-06,0.0,0.0,0.0,0.0,0.0,0.0,0.0,0.0,24
3388000,3308000,0.69219625,0.0013014742,-0.0151369525,0.7215494,0.0013415837,0.002768304,-0.027258202,3.3448472e-05,6.361741e-05,-0.0009654176,4.470604e-12,-3.4846775e-10,1.884534e-13,-5.4059254e-11,1.8728818e-10,-9.301149e-09,0.2095249,0.011663976,0.4315095,0.0,0.0,0.0,0.0,0.0,2.2798573e-05,0.0028171206,0.0028373648,1.8347568e-05,0.042347066,0.04228264,0.0028004583,0.00012920864,0.00012916069,50.0,9.996877e-07,9.999959e-07,3.252879e-07,4.000002e-06,4.000002e-06,4.0000004e-06,0.0,0.0,0.0,0.0,0.0,0.0,0.0,0.0,24
3396000,3316000,0.6922086,0.0010425277,-0.014484011,0.7215515,3.3667558e-08,-4.787448e-06,-1.4450401e-05,-2.5030824e-06,-1.1578426e-05,0.0009846628,2.1366452e-07,-3.384099e-06,1.3846791e-07,-1.47842e-05,1.6558546e-05,-0.0009804907,0.2095249,0.011663976,0.4315095,0.0,0.0,0.0,0.0,0.0,2.2671064e-05,0.00020071662,0.00020063842,1.74316e-05,1e-06,1.6354024e-06,1.0845251e-06,9.921867e-05,9.921944e-05,49.999985,9.425156e-07,9.4288293e-07,3.0223734e-07,3.7978089e-06,3.7982124e-06,4.1760086e-07,0.0,0.0,0.0,0.0,0.0,0.0,0.0,0.0,24
3404000,3324000,0.6922088,0.0010458292,-0.014493932,0.72155094,0.00010206157,6.873293e-06,-0.00016025454,-2.0947016e-06,-1.1570082e-05,0.000983964,2.1366452e-07,-3.384099e-06,1.3846791e-07,-1.47842e-05,1.6558546e-05,-0.0009804907,0.2095249,0.011663976,0.4315095,0.0,0.0,0.0,0.0,0.0,2.4598245e-05,0.00020780794,0.00020772504,1.7831533e-05,1.3961359e-05,1.4648146e-05,1.2944418e-05,9.921943e-05,9.9220684e-05,49.999985,9.4251556e-07,9.428829e-07,3.0223737e-07,3.797809e-06,3.7982127e-06,4.17601e-07,0.0,0.0,0.0,0.0,0.0,0.0,0.0,0.0,24
3412000,3332000,0.69220537,0.0010667228,-0.0145082455,0.72155404,8.702961e-06,-4.575765e-05,-0.00047745556,-1.6516418e-06,-1.1725629e-05,0.0009814131,2.137473e-07,-3.3840913e-06,1.4296562e-07,-1.47842675e-05,1.6558508e-05,-0.0009804907,0.2095249,0.011663976,0.4315095,0.0,0.0,0.0,0.0,0.0,2.6378622e-05,0.00021537067,0.0002152828,1.8181274e-05,3.0233945e-05,3.0974003e-05,2.5595404e-05,9.92199e-05,9.9221776e-05,49.999985,9.425147e-07,9.428829e-07,2.9967688e-07,3.7978084e-06,3.7982124e-06,4.1760106e-07,0.0,0.0,0.0,0.0,0.0,0.0,0.0,0.0,24
3420000,3340000,0.6909059,0.0010975522,-0.014522853,0.722798,-0.00017752989,9.9327386e-05,-0.00086731464,-2.3269495e-06,-1.151135e-05,0.000976034,2.137473e-07,-3.3840913e-06,1.4296562e-07,-1.47842675e-05,1.6558508e-05,-0.0009804907,0.20852588,0.011608355,0.4317503,0.0,0.0,0.0,0.0,0.0,0.0012009965,0.00022387863,0.00022331462,0.00108963,5.0324743e-05,5.111956e-05,3.9037965e-05,9.922293e-05,9.92256e-05,49.999985,9.4251476e-07,9.4288293e-07,2.9967688e-07,3.7978084e-06,3.7982124e-06,4.1760114e-07,0.0,0.0,0.0,0.0,0.0,0.0,0.0,0.0,24
3428000,3348000,0.69090676,0.0011053345,-0.014535533,0.722797,-0.00039156806,0.00016383381,-0.0010761321,-4.603341e-06,-1.0458705e-05,0.00096826017,2.137473e-07,-3.3840913e-06,1.4296562e-07,-1.47842675e-05,1.6558508e-05,-0.0009804907,0.20852588,0.011608355,0.4317503,0.0,0.0,0.0,0.0,0.0,0.0012010344,0.00022412035,0.0002235554,0.0010896712,7.193016e-05,7.2729854e-05,5.3272546e-05,9.9232406e-05,9.923604e-05,49.999985,9.4251476e-07,9.4288293e-07,2.9967688e-07,3.7978086e-06,3.7982127e-06,4.1760123e-07,0.0,0.0,0.0,0.0,0.0,0.0,0.0,0.0,24
3436000,3356000,0.69090474,0.0011203412,-0.0145537015,0.7227985,-0.00031191797,0.00016614198,-0.0011934042,-7.4172854e-06,-9.138802e-06,0.00095918204,2.137473e-07,-3.3840913e-06,1.4296562e-07,-1.47842675e-05,1.6558508e-05,-0.0009804907,0.20852588,0.011608355,0.4317503,0.0,0.0,0.0,0.0,0.0,0.0012011591,0.00022483386,0.00022426742,0.001089775,0.00011255156,0.00011335611,6.8299494e-05,9.925303e-05,9.925777e-05,49.999985,9.4251476e-07,9.4288293e-07,2.996769e-07,3.7978086e-06,3.7982127e-06,4.1760129e-07,0.0,0.0,0.0,0.0,0.0,0.0,0.0,0.0,24
3444000,3364000,0.69090784,0.0011293382,-0.01456823,0.72279525,-0.00043167837,0.00018335725,-0.0011594892,-1.0391671e-05,-7.740805e-06,0.00094977045,2.137473e-07,-3.3840913e-06,1.4296562e-07,-1.47842675e-05,1.6558508e-05,-0.0009804907,0.20852588,0.011608355,0.4317503,0.0,0.0,0.0,0.0,0.0,0.0012013465,0.00022601854,0.00022545076,0.0010899664,0.0001721142,0.00017292274,8.411938e-05,9.929225e-05,9.929824e-05,49.999985,9.4251476e-07,9.4288293e-07,2.996769e-07,3.7978086e-06,3.7982127e-06,4.1760137e-07,0.0,0.0,0.0,0.0,0.0,0.0,0.0,0.0,24
3452000,3372000,0.6909067,0.001141141,-0.014577425,0.7227961,-0.0007757768,0.0004240854,-0.0011904165,-1.52214925e-05,-5.3110343e-06,0.00094037084,2.137473e-07,-3.3840913e-06,1.4296562e-07,-1.47842675e-05,1.6558508e-05,-0.0009804907,0.20852588,0.011608355,0.4317503,0.0,0.0,0.0,0.0,0.0,0.0012016257,0.00022767429,0.00022710538,0.001090216,0.00025070377,0.00025151478,0.000100732876,9.936267e-05,9.937005e-05,49.999985,9.4251476e-07,9.4288293e-07,2.996769e-07,3.7978089e-06,3.798213e-06,4.1760146e-07,0.0,0.0,0.0,0.0,0.0,0.0,0.0,0.0,24
3460000,3380000,0.6909104,0.0011557098,-0.014604632,0.72279197,-0.00071648543,0.0005577777,-0.0012342185,-2.1190543e-05,-1.3835815e-06,0.0009306723,2.137473e-07,-3.3840913e-06,1.4296562e-07,-1.47842675e-05,1.6558508e-05,-0.0009804907,0.20852588,0.011608355,0.4317503,0.0,0.0,0.0,0.0,0.0,0.0012019671,0.00022980262,0.00022923121,0.001090552,0.00034837014,0.00034918534,0.00011813976,9.9482015e-05,9.949094e-05,49.999985,9.4251476e-07,9.4288293e-07,2.9967694e-07,3.7978089e-06,3.798213e-06,4.176015e-07,0.0,0.0,0.0,0.0,0.0,0.0,0.0,0.0,24
3468000,3388000,0.690908,0.0011688274,-0.014623212,0.7227938,-0.0005145471,0.00055907445,-0.0013250932,-2.6114672e-05,3.0838273e-06,0.000920435,2.137473e-07,-3.3840913e-06,1.4296562e-07,-1.47842675e-05,1.6558508e-05,-0.0009804907,0.20852588,0.011608355,0.4317503,0.0,0.0,0.0,0.0,0.0,0.0012024064,0.0002324018,0.00023182837,0.0010909406,0.0004652428,0.00046606513,0.00013634059,9.967312e-05,9.968374e-05,49.999985,9.4251476e-07,9.4288293e-07,2.9967694e-07,3.7978089e-06,3.798213e-06,4.176016e-07,0.0,0.0,0.0,0.0,0.0,0.0,0.0,0.0,24
3476000,3396000,0.6909096,0.0011798927,-0.01463091,0.72279215,-0.00047453807,0.00051155034,-0.001356557,-3.0071013e-05,7.366327e-06,0.0009097084,2.137473e-07,-3.3840913e-06,1.4296562e-07,-1.47842675e-05,1.6558508e-05,-0.0009804907,0.20852588,0.011608355,0.4317503,0.0,0.0,0.0,0.0,0.0,0.0012029121,0.00023547169,0.00023489684,0.0010914131,0.00060136314,0.0006021913,0.00015533608,9.9963865e-05,9.9976336e-05,49.999985,9.425148e-07,9.42883e-07,2.9967694e-07,3.797809e-06,3.7982131e-06,4.1760165e-07,0.0,0.0,0.0,0.0,0.0,0.0,0.0,0.0,24
3484000,3404000,0.69091153,0.0011952667,-0.014645665,0.72279006,-0.00050046225,0.00047520758,-0.0014883429,-3.3971013e-05,1.1313359e-05,0.0008983288,2.137473e-07,-3.3840913e-06,1.4296562e-07,-1.47842675e-05,1.6558508e-05,-0.0009804907,0.20852588,0.011608355,0.4317503,0.0,0.0,0.0,0.0,0.0,0.001203495,0.00023901346,0.00023843655,0.0010919579,0.000757058,0.00075789087,0.00017512657,0.000100387166,0.00010040164,49.999985,9.425148e-07,9.42883e-07,2.9967694e-07,3.797809e-06,3.7982131e-06,4.1760174e-07,0.0,0.0,0.0,0.0,0.0,0.0,0.0,0.0,24
3492000,3412000,0.69066817,0.0012139963,-0.014660007,0.7230223,-0.00033390464,0.0003218794,-0.0016276091,-3.731964e-05,1.4480493e-05,0.00088586495,2.1073544e-07,-3.3855347e-06,-5.605301e-08,-1.4777821e-05,1.6565145e-05,-0.0009804907,0.20852588,0.011608355,0.4317503,0.0,0.0,0.0,0.0,0.0,0.0010939724,0.00024298238,0.00024244717,0.0009927135,0.00093244785,0.00093328976,0.00019571226,0.000100981015,0.000100997626,49.999985,9.425148e-07,9.42883e-07,2.9960376e-07,3.797809e-06,3.7982131e-06,4.176018e-07,0.0,0.0,0.0,0.0,0.0,0.0,0.0,0.0,24
3500000,3420000,0.69067395,0.0012180858,-0.014671993,0.7230165,-0.00023784675,0.00036938384,-0.0017815232,-3.9606646e-05,1.7245546e-05,0.0008722284,2.1073544e-07,-3.3855347e-06,-5.605301e-08,-1.4777821e-05,1.6565145e-05,-0.0009804907,0.20852588,0.011608355,0.4317503,0.0,0.0,0.0,0.0,0.0,0.001094637,0.0002474667,0.00024692947,0.0009933525,0.0011277822,0.0011286341,0.00021709385,0.000101788435,0.00010180734,49.999985,9.425148e-07,9.42883e-07,2.9960376e-07,3.797809e-06,3.7982131e-06,4.1760188e-07,0.0,0.0,0.0,0.0,0.0,0.0,0.0,0.0,24
3508000,3428000,0.69067335,0.0012321126,-0.014695812,0.7230165,-0.0001483484,0.00029132538,-0.0019851401,-4.1151427e-05,1.9888383e-05,0.00085716177,2.1073544e-07,-3.3855347e-06,-5.605301e-08,-1.4777821e-05,1.6565145e-05,-0.0009804907,0.20852588,0.011608355,0.4317503,0.0,0.0,0.0,0.0,0.0,0.0010953974,0.00025242317,0.00025188297,0.0009940447,0.0013433945,0.0013442558,0.00023927158,0.0001028575,0.000102878854,49.999985,9.425148e-07,9.42883e-07,2.9960376e-07,3.7978093e-06,3.7982134e-06,4.1760194e-07,0.0,0.0,0.0,0.0,0.0,0.0,0.0,0.0,24
3516000,3436000,0.6906713,0.0012425719,-0.01471331,0.72301805,-1.3499404e-05,0.00040156115,-0.0021920204,-4.179882e-05,2.265993e-05,0.00084045314,2.1073544e-07,-3.3855347e-06,-5.605301e-08,-1.4777821e-05,1.6565145e-05,-0.0009804907,0.20852588,0.011608355,0.4317503,0.0,0.0,0.0,0.0,0.0,0.0010962406,0.00025785065,0.0002573078,0.0009948043,0.0015795288,0.0015804048,0.0002622459,0.00010424144,0.0001042654,49.999985,9.425148e-07,9.42883e-07,2.9960378e-07,3.7978093e-06,3.7982134e-06,4.1760202e-07,0.0,0.0,0.0,0.0,0.0,0.0,0.0,0.0,24
3524000,3444000,0.69066757,0.0012440984,-0.014720842,0.72302145,4.564086e-05,0.0005805064,-0.0023304448,-4.1670253e-05,2.65882e-05,0.0008223633,2.1073544e-07,-3.3855347e-06,-5.605301e-08,-1.4777821e-05,1.6565145e-05,-0.0009804907,0.20852588,0.011608355,0.4317503,0.0,0.0,0.0,0.0,0.0,0.0010971677,0.00026374892,0.00026320395,0.0009956303,0.0018363821,0.0018372715,0.00028601722,0.00010599856,0.00010602529,49.999985,9.425148e-07,9.42883e-07,2.9960378e-07,3.7978093e-06,3.7982134e-06,4.1760208e-07,0.0,0.0,0.0,0.0,0.0,0.0,0.0,0.0,24
3532000,3452000,0.69066876,0.0012514674,-0.014732376,0.7230201,4.939339e-05,0.00065979443,-0.0025572032,-4.1290117e-05,3.1549404e-05,0.0008028127,2.1073544e-07,-3.3855347e-06,-5.605301e-08,-1.4777821e-05,1.6565145e-05,-0.0009804907,0.20852588,0.011608355,0.4317503,0.0,0.0,0.0,0.0,0.0,0.0010981589,0.00027011882,0.00026957138,0.0009965417,0.0021146352,0.0021155344,0.00031058578,0.00010819228,0.000108221946,49.999985,9.425149e-07,9.4288305e-07,2.9960378e-07,3.7978095e-06,3.7982136e-06,4.1760217e-07,0.0,0.0,0.0,0.0,0.0,0.0,0.0,0.0,24
3540000,3460000,0.69066375,0.0012602323,-0.014744638,0.7230246,-2.5889953e-05,0.0005939556,-0.0027923957,-4.1196105e-05,3.6564405e-05,0.0007814143,2.1073544e-07,-3.3855347e-06,-5.605301e-08,-1.4777821e-05,1.6565145e-05,-0.0009804907,0.20852588,0.011608355,0.4317503,0.0,0.0,0.0,0.0,0.0,0.0010992462,0.00027696026,0.00027641005,0.0009975069,0.0024145537,0.0024154563,0.00033595183,0.000110891415,0.00011092417,49.999985,9.425149e-07,9.4288305e-07,2.9960378e-07,3.7978095e-06,3.7982136e-06,4.1760222e-07,0.0,0.0,0.0,0.0,0.0,0.0,0.0,0.0,24
3548000,3468000,0.69066,0.0012766372,-0.014776686,0.72302747,-0.00022760266,0.0008548219,-0.0031505972,-4.2210075e-05,4.2359516e-05,0.0007576423,2.1073544e-07,-3.3855347e-06,-5.605301e-08,-1.4777821e-05,1.6565145e-05,-0.0009804907,0.20852588,0.011608355,0.4317503,0.0,0.0,0.0,0.0,0.0,0.0011004073,0.00028427428,0.00028371988,0.000998547,0.0027368816,0.0027377848,0.0003621163,0.00011417001,0.00011420602,49.999985,9.425149e-07,9.4288305e-07,2.996038e-07,3.7978095e-06,3.7982136e-06,4.176023e-07,0.0,0.0,0.0,0.0,0.0,0.0,0.0,0.0,24
3556000,3476000,0.6906606,0.0012878218,-0.014807343,0.7230263,-0.00031396665,0.0010586934,-0.003276959,-4.4376353e-05,5.001358e-05,0.0007319321,2.1073544e-07,-3.3855347e-06,-5.605301e-08,-1.4777821e-05,1.6565145e-05,-0.0009804907,0.20852588,0.011608355,0.4317503,0.0,0.0,0.0,0.0,0.0,0.0011016345,0.00029205965,0.00029150097,0.0009996707,0.0030811902,0.0030820987,0.00038907918,0.00011810773,0.00011814716,49.999985,9.425149e-07,9.4288305e-07,2.996038e-07,3.7978098e-06,3.7982138e-06,4.1760237e-07,0.0,0.0,0.0,0.0,0.0,0.0,0.0,0.0,24
3564000,3484000,0.6906744,0.001299719,-0.014829334,0.7230126,-0.00030537118,0.0010929836,-0.0033660755,-4.6852976e-05,5.862273e-05,0.00070535997,2.1105596e-07,-3.3853803e-06,-3.5611162e-08,-1.4778483e-05,1.6564461e-05,-0.0009804907,0.20852588,0.011608355,0.4317503,0.0,0.0,0.0,0.0,0.0,0.0010098761,0.0003002787,0.00029975295,0.00091653137,0.0034484332,0.0034493504,0.00041684057,0.00012278906,0.00012283206,49.999985,9.425148e-07,9.4288305e-07,2.993353e-07,3.7978095e-06,3.7982136e-06,4.1760245e-07,0.0,0.0,0.0,0.0,0.0,0.0,0.0,0.0,24
3572000,3492000,0.6906709,0.0012853305,-0.014851843,0.72301567,-0.00028294272,0.0010849952,-0.0035114347,-2.1677875e-05,2.965875e-05,0.00044818007,4.0744152e-07,-3.7102827e-06,-5.1175842e-08,-1.2905921e-05,1.7812554e-05,-0.0009805062,0.20852588,0.011608355,0.4317503,0.0,0.0,0.0,0.0,0.0,0.0010111532,0.0002898505,0.0002893235,0.0009176829,0.0033674133,0.0033678405,0.00044540098,5.6198798e-05,5.620777e-05,33.33333,9.378355e-07,9.382008e-07,2.993256e-07,3.633471e-06,3.6338472e-06,4.174662e-07,0.0,0.0,0.0,0.0,0.0,0.0,0.0,0.0,24
3580000,3500000,0.6906731,0.0012900655,-0.0148697905,0.7230131,-0.00027409865,0.0010655007,-0.0038822293,-2.3906041e-05,3.8260732e-05,0.00041860543,4.0744152e-07,-3.7102827e-06,-5.1175842e-08,-1.2905921e-05,1.7812554e-05,-0.0009805062,0.20852588,0.011608355,0.4317503,0.0,0.0,0.0,0.0,0.0,0.0010124971,0.0002987488,0.00029821802,0.0009189212,0.0037346175,0.0037350303,0.0004747608,5.9168025e-05,5.9178165e-05,33.33333,9.378355e-07,9.382008e-07,2.9932562e-07,3.6334711e-06,3.6338474e-06,4.1746625e-07,0.0,0.0,0.0,0.0,0.0,0.0,0.0,0.0,24
3588000,3508000,0.69067186,0.0013014697,-0.014886084,0.72301394,-0.00036927155,0.0009541112,-0.0042991117,-2.6479522e-05,4.633918e-05,0.00038588006,4.0744152e-07,-3.7102827e-06,-5.1175842e-08,-1.2905921e-05,1.7812554e-05,-0.0009805062,0.20852588,0.011608355,0.4317503,0.0,0.0,0.0,0.0,0.0,0.0010139288,0.00030811614,0.00030758145,0.0009202216,0.0041242116,0.004124601,0.0005049204,6.291199e-05,6.292335e-05,33.33333,9.378356e-07,9.3820086e-07,2.9932562e-07,3.6334711e-06,3.6338474e-06,4.1746634e-07,0.0,0.0,0.0,0.0,0.0,0.0,0.0,0.0,24
3596000,3516000,0.6906645,0.0013037442,-0.0149040995,0.72302055,-0.00020988222,0.0009319979,-0.0046505556,-2.8796137e-05,5.3883618e-05,0.0003500814,4.0744152e-07,-3.7102827e-06,-5.1175842e-08,-1.2905921e-05,1.7812554e-05,-0.0009805062,0.20852588,0.011608355,0.4317503,0.0,0.0,0.0,0.0,0.0,0.0010154545,0.00031795257,0.00031741383,0.0009215774,0.0045364667,0.004536851,0.00053588004,6.75257e-05,6.753832e-05,33.33333,9.378356e-07,9.3820086e-07,2.9932562e-07,3.6334711e-06,3.6338474e-06,4.174664e-07,0.0,0.0,0.0,0.0,0.0,0.0,0.0,0.0,24
3604000,3524000,0.69065887,0.0012963588,-0.014913737,0.7230258,-0.00029123656,0.00094271806,-0.0047626523,-2.8490504e-05,5.3941083e-05,0.0003181679,4.983154e-07,-4.1415256e-06,-6.3070694e-08,-1.114743e-05,1.8325658e-05,-0.0009818227,0.20852588,0.011608355,0.4317503,0.0,0.0,0.0,0.0,0.0,0.0010170509,0.00030965183,0.00030911175,0.00092300813,0.0044219997,0.0044222865,0.00055969774,7.0589835e-05,7.060272e-05,33.33333,9.307129e-07,9.310755e-07,2.9931417e-07,3.507117e-06,3.5074754e-06,4.144776e-07,0.0,0.0,0.0,0.0,0.0,0.0,0.0,0.0,24
3612000,3532000,0.69066495,0.0013081323,-0.014930281,0.72301966,-0.00016639347,0.0011613749,-0.0049429014,-3.0321024e-05,6.235745e-05,0.0002793457,4.983154e-07,-4.1415256e-06,-6.3070694e-08,-1.114743e-05,1.8325658e-05,-0.0009818227,0.20852588,0.011608355,0.4317503,0.0,0.0,0.0,0.0,0.0,0.0010186982,0.00032006073,0.00031951623,0.00092454173,0.0048317914,0.0048320736,0.00059195334,7.651287e-05,7.65269e-05,33.33333,9.307129e-07,9.310755e-07,2.9931417e-07,3.5071173e-06,3.5074756e-06,4.1447768e-07,0.0,0.0,0.0,0.0,0.0,0.0,0.0,0.0,24
3620000,3540000,0.6906673,0.0013180079,-0.014933309,0.7230173,-0.00011225534,0.001234531,-0.0050980225,-3.143562e-05,7.1941075e-05,0.000239182,4.983154e-07,-4.1415256e-06,-6.3070694e-08,-1.114743e-05,1.8325658e-05,-0.0009818227,0.20852588,0.011608355,0.4317503,0.0,0.0,0.0,0.0,0.0,0.0010204342,0.00033093433,0.00033038613,0.00092613697,0.0052638715,0.005264142,0.0006250041,8.349115e-05,8.350635e-05,33.33333,9.307129e-07,9.310755e-07,2.9931417e-07,3.5071173e-06,3.5074756e-06,4.1447774e-07,0.0,0.0,0.0,0.0,0.0,0.0,0.0,0.0,24
3628000,3548000,0.6906657,0.0013236118,-0.014950754,0.7230184,-0.00025617727,0.0013746029,-0.0055560023,-3.290935e-05,8.237761e-05,0.0001965659,4.983154e-07,-4.1415256e-06,-6.3070694e-08,-1.114743e-05,1.8325658e-05,-0.0009818227,0.20852588,0.011608355,0.4317503,0.0,0.0,0.0,0.0,0.0,0.0010222582,0.0003422743,0.00034172134,0.0009277931,0.0057202103,0.0057204547,0.0006588509,9.162918e-05,9.1645554e-05,33.33333,9.307129e-07,9.310755e-07,2.9931417e-07,3.5071173e-06,3.5074756e-06,4.144778e-07,0.0,0.0,0.0,0.0,0.0,0.0,0.0,0.0,24
3636000,3556000,0.6902932,0.0013317654,-0.014963666,0.72337383,-0.0001887979,0.0015089695,-0.00572641,-3.470377e-05,9.378039e-05,0.00015143576,4.829222e-07,-4.1479548e-06,-1.0280713e-06,-1.1121801e-05,1.8358496e-05,-0.0009818224,0.20852588,0.011608355,0.4317503,0.0,0.0,0.0,0.0,0.0,0.0009435232,0.00035404786,0.00035352152,0.0008564127,0.0061993324,0.0061995653,0.0006934936,0.00010103792,0.00010105545,33.33333,9.307127e-07,9.310755e-07,2.987551e-07,3.507117e-06,3.5074752e-06,4.1447788e-07,0.0,0.0,0.0,0.0,0.0,0.0,0.0,0.0,24
3644000,3564000,0.6902891,0.0013383202,-0.01497543,0.7233775,-1.286513e-05,0.0017088304,-0.0058874115,-3.5510424e-05,0.00010665159,0.00010498047,4.829222e-07,-4.1479548e-06,-1.0280713e-06,-1.1121801e-05,1.8358496e-05,-0.0009818224,0.20852588,0.011608355,0.4317503,0.0,0.0,0.0,0.0,0.0,0.00094535766,0.00036631845,0.00036578748,0.0008580647,0.00670304,0.006703274,0.0007289328,0.00011183224,0.00011185095,33.33333,9.307127e-07,9.310755e-07,2.987551e-07,3.507117e-06,3.5074752e-06,4.1447794e-07,0.0,0.0,0.0,0.0,0.0,0.0,0.0,0.0,24
3652000,3572000,0.69028795,0.00134914,-0.014989726,0.7233783,7.548467e-05,0.0018847332,-0.0059010535,-3.5259945e-05,0.00012102585,5.7826608e-05,4.829222e-07,-4.1479548e-06,-1.0280713e-06,-1.1121801e-05,1.8358496e-05,-0.0009818224,0.20852588,0.011608355,0.4317503,0.0,0.0,0.0,0.0,0.0,0.0009472629,0.00037905466,0.00037851874,0.00085979514,0.0072315075,0.007231734,0.0007651687,0.0001241335,0.0001241534,33.33333,9.3071276e-07,9.3107553e-07,2.987551e-07,3.507117e-06,3.5074752e-06,4.14478e-07,0.0,0.0,0.0,0.0,0.0,0.0,0.0,0.0,24
3660000,3580000,0.6902852,0.0013566872,-0.0150105,0.72338045,0.00021267326,0.0017545322,-0.0061546937,-3.4107314e-05,0.00013558292,9.6036165e-06,4.829222e-07,-4.1479548e-06,-1.0280713e-06,-1.1121801e-05,1.8358496e-05,-0.0009818224,0.20852588,0.011608355,0.4317503,0.0,0.0,0.0,0.0,0.0,0.00094924995,0.00039225674,0.00039171535,0.0008615928,0.0077873655,0.007787585,0.00080220046,0.00013806838,0.00013808948,33.33333,9.3071276e-07,9.3107553e-07,2.987551e-07,3.507117e-06,3.5074752e-06,4.1447805e-07,0.0,0.0,0.0,0.0,0.0,0.0,0.0,0.0,24
3668000,3588000,0.6902865,0.0013817975,-0.015037637,0.7233786,0.00029260392,0.0016653035,-0.006225407,-3.2086205e-05,0.00014926225,-3.9916788e-05,4.829222e-07,-4.1479548e-06,-1.0280713e-06,-1.1121801e-05,1.8358496e-05,-0.0009818224,0.20852588,0.011608355,0.4317503,0.0,0.0,0.0,0.0,0.0,0.00095130526,0.0004059247,0.00040537716,0.0008634714,0.0083695045,0.008369711,0.0008400297,0.00015377135,0.00015379365,33.33333,9.3071276e-07,9.3107553e-07,2.9875514e-07,3.5071173e-06,3.5074754e-06,4.1447814e-07,0.0,0.0,0.0,0.0,0.0,0.0,0.0,0.0,24
3676000,3596000,0.69028986,0.0014004313,-0.015060025,0.7233749,0.00012065208,0.0016170073,-0.00648576,-3.043318e-05,0.0001623915,-9.076146e-05,4.829222e-07,-4.1479548e-06,-1.0280713e-06,-1.1121801e-05,1.8358496e-05,-0.0009818224,0.20852588,0.011608355,0.4317503,0.0,0.0,0.0,0.0,0.0,0.00095343404,0.0004200579,0.00041950442,0.0008654262,0.008980732,0.008980899,0.0008786565,0.00017138137,0.00017140487,33.33333,9.3071276e-07,9.3107553e-07,2.9875514e-07,3.5071173e-06,3.5074754e-06,4.144782e-07,0.0,0.0,0.0,0.0,0.0,0.0,0.0,0.0,24
3684000,3604000,0.690291,0.001404341,-0.015083136,0.7233733,-3.1058153e-05,0.0016834624,-0.006521672,-3.0074805e-05,0.00017559338,-0.00014279119,4.829222e-07,-4.1479548e-06,-1.0280713e-06,-1.1121801e-05,1.8358496e-05,-0.0009818224,0.20852588,0.011608355,0.4317503,0.0,0.0,0.0,0.0,0.0,0.0009556462,0.0004346567,0.00043409705,0.0008674468,0.009619778,0.009619907,0.00091808167,0.00019104581,0.00019107046,33.33333,9.3071276e-07,9.3107553e-07,2.9875514e-07,3.5071173e-06,3.5074754e-06,4.1447825e-07,0.0,0.0,0.0,0.0,0.0,0.0,0.0,0.0,24
3692000,3612000,0.6902887,0.0014103473,-0.015102435,0.7233751,-6.401638e-05,0.0017301912,-0.006588362,-3.0455103e-05,0.00018924799,-0.00019523133,4.829222e-07,-4.1479548e-06,-1.0280713e-06,-1.1121801e-05,1.8358496e-05,-0.0009818224,0.20852588,0.011608355,0.4317503,0.0,0.0,0.0,0.0,0.0,0.00095794536,0.00044972074,0.00044915505,0.00086953,0.010288989,0.01028909,0.0009583049,0.00021291655,0.0002129423,33.33333,9.3071276e-07,9.3107553e-07,2.9875514e-07,3.5071175e-06,3.5074756e-06,4.144783e-07,0.0,0.0,0.0,0.0,0.0,0.0,0.0,0.0,24
3700000,3620000,0.6903582,0.0014158691,-0.015118884,0.72330844,-0.00021121431,0.0017645314,-0.0068433564,-3.155597e-05,0.00020328433,-0.00024895795,4.8675577e-07,-4.146362e-06,-7.9724816e-07,-1.1128007e-05,1.8350831e-05,-0.0009818225,0.20852588,0.011608355,0.4317503,0.0,0.0,0.0,0.0,0.0,0.0008891193,0.0004652232,0.00046467787,0.0008071707,0.010990424,0.010990476,0.0009993266,0.00023715376,0.00023718052,33.33333,9.3071253e-07,9.310755e-07,2.9788623e-07,3.5071168e-06,3.5074747e-06,4.144784e-07,0.0,0.0,0.0,0.0,0.0,0.0,0.0,0.0,24
3708000,3628000,0.69036007,0.0014369308,-0.015134058,0.72330624,-0.0003863488,0.0018960846,-0.0068751946,-3.3946224e-05,0.0002179268,-0.00030383214,4.8675577e-07,-4.146362e-06,-7.9724816e-07,-1.1128007e-05,1.8350831e-05,-0.0009818225,0.20852588,0.011608355,0.4317503,0.0,0.0,0.0,0.0,0.0,0.00089138496,0.0004812181,0.00048066652,0.0008092428,0.011722539,0.011722543,0.0010411475,0.00026392608,0.00026395384,33.33333,9.3071253e-07,9.310755e-07,2.9788623e-07,3.5071168e-06,3.5074747e-06,4.1447845e-07,0.0,0.0,0.0,0.0,0.0,0.0,0.0,0.0,24
3716000,3636000,0.6903612,0.0014527566,-0.015151614,0.72330475,-0.0004063252,0.0019857262,-0.0068945587,-3.711692e-05,0.00023345405,-0.00035891117,4.8675577e-07,-4.146362e-06,-7.9724816e-07,-1.1128007e-05,1.8350831e-05,-0.0009818225,0.20852588,0.011608355,0.4317503,0.0,0.0,0.0,0.0,0.0,0.0008937302,0.00049767864,0.00049712055,0.0008113841,0.012487708,0.01248768,0.001083767,0.0002934067,0.00029343538,33.33333,9.307126e-07,9.3107553e-07,2.9788623e-07,3.5071168e-06,3.5074747e-06,4.144785e-07,0.0,0.0,0.0,0.0,0.0,0.0,0.0,0.0,24
3724000,3644000,0.69036,0.0014708964,-0.015173639,0.7233054,-0.00040998124,0.0021724752,-0.006757036,-4.0382147e-05,0.00025008686,-0.00041351755,4.8675577e-07,-4.146362e-06,-7.9724816e-07,-1.1128007e-05,1.8350831e-05,-0.0009818225,0.20852588,0.011608355,0.4317503,0.0,0.0,0.0,0.0,0.0,0.00089615874,0.0005146049,0.0005140399,0.0008135909,0.013285961,0.013285903,0.0011271865,0.00032577786,0.00032580743,33.33333,9.307126e-07,9.3107553e-07,2.9788623e-07,3.507117e-06,3.507475e-06,4.1447856e-07,0.0,0.0,0.0,0.0,0.0,0.0,0.0,0.0,24
3732000,3652000,0.69035953,0.001488753,-0.015199059,0.7233052,-0.00042217388,0.0024701455,-0.0068699867,-4.3710766e-05,0.00026865734,-0.00046802565,4.8675577e-07,-4.146362e-06,-7.9724816e-07,-1.1128007e-05,1.8350831e-05,-0.0009818225,0.20852588,0.011608355,0.4317503,0.0,0.0,0.0,0.0,0.0,0.0008986635,0.0005319969,0.0005314245,0.00081587036,0.014121502,0.014121415,0.0011714061,0.00036122836,0.0003612587,33.33333,9.307126e-07,9.3107553e-07,2.9788626e-07,3.507117e-06,3.507475e-06,4.1447862e-07,0.0,0.0,0.0,0.0,0.0,0.0,0.0,0.0,24
3740000,3660000,0.6903557,0.0015067275,-0.015216571,0.72330856,-0.00034606783,0.0025874753,-0.0071188286,-4.6783734e-05,0.00028888782,-0.00052398094,4.8675577e-07,-4.146362e-06,-7.9724816e-07,-1.1128007e-05,1.8350831e-05,-0.0009818225,0.20852588,0.011608355,0.4317503,0.0,0.0,0.0,0.0,0.0,0.00090125436,0.0005498539,0.0005492745,0.0008182128,0.014994846,0.014994733,0.0012164246,0.0003999589,0.00039998992,33.333332,9.307126e-07,9.3107553e-07,2.9788626e-07,3.507117e-06,3.507475e-06,4.1447868e-07,0.0,0.0,0.0,0.0,0.0,0.0,0.0,0.0,24
3748000,3668000,0.690356,0.0015325813,-0.015228991,0.7233079,-8.7733846e-05,0.0027387314,-0.007252276,-4.851894e-05,0.00031019264,-0.00058146537,4.8675577e-07,-4.146362e-06,-7.9724816e-07,-1.1128007e-05,1.8350831e-05,-0.0009818225,0.20852588,0.011608355,0.4317503,0.0,0.0,0.0,0.0,0.0,0.0009039138,0.0005681762,0.00056758994,0.00082063593,0.015905192,0.01590508,0.0012622434,0.0004421781,0.00044220977,33.33334,9.307126e-07,9.3107553e-07,2.9788626e-07,3.507117e-06,3.507475e-06,4.1447873e-07,0.0,0.0,0.0,0.0,0.0,0.0,0.0,0.0,24
3756000,3676000,0.690359,0.0015549359,-0.015250528,0.72330457,-3.6118552e-05,0.0028949652,-0.007398151,-4.901435e-05,0.00033272742,-0.0006400671,4.8675577e-07,-4.146362e-06,-7.9724816e-07,-1.1128007e-05,1.8350831e-05,-0.0009818225,0.20852588,0.011608355,0.4317503,0.0,0.0,0.0,0.0,0.0,0.0009066447,0.0005869645,0.0005863706,0.00082313624,0.016854841,0.016854698,0.0013088628,0.00048810086,0.00048813314,33.333347,9.307126e-07,9.3107553e-07,2.9788626e-07,3.5071173e-06,3.5074752e-06,4.1447882e-07,0.0,0.0,0.0,0.0,0.0,0.0,0.0,0.0,24
3764000,3684000,0.6903656,0.0015707775,-0.0152643,0.7232979,0.00013823935,0.0028632637,-0.0074926317,-4.8605867e-05,0.00035576033,-0.00069963024,4.8675577e-07,-4.146362e-06,-7.9724816e-07,-1.1128007e-05,1.8350831e-05,-0.0009818225,0.20852588,0.011608355,0.4317503,0.0,0.0,0.0,0.0,0.0,0.0009094452,0.0006062178,0.0006056168,0.000825716,0.017844493,0.017844329,0.0013562816,0.00053795235,0.00053798524,33.333355,9.307126e-07,9.3107553e-07,2.9788626e-07,3.5071173e-06,3.5074752e-06,4.1447888e-07,0.0,0.0,0.0,0.0,0.0,0.0,0.0,0.0,24
3772000,3692000,0.69001853,0.001595593,-0.015277886,0.7236288,0.00014169392,0.0030756448,-0.0075450954,-4.7413778e-05,0.00037881665,-0.0007597842,4.599385e-07,-4.156743e-06,-2.3387079e-06,-1.1086006e-05,1.8401219e-05,-0.000981822,0.20852588,0.011608355,0.4317503,0.0,0.0,0.0,0.0,0.0,0.0008479051,0.00062591373,0.0006253274,0.00076991855,0.018875511,0.018875293,0.0014045032,0.0005919664,0.00059199944,33.333363,9.307122e-07,9.310755e-07,2.9659546e-07,3.5071164e-06,3.5074738e-06,4.1447893e-07,0.0,0.0,0.0,0.0,0.0,0.0,0.0,0.0,24
3780000,3700000,0.69002366,0.0014405303,-0.015152143,0.72362685,0.00040360334,0.0014742897,-0.0075969687,-6.142362e-06,5.3889555e-05,-0.0006182324,6.137925e-07,-8.548845e-06,-2.417799e-06,1.7899059e-06,1.9470728e-05,-0.0009820756,0.20852588,0.011608355,0.4317503,0.0,0.0,0.0,0.0,0.0,0.00085060083,0.0004231912,0.00042267278,0.00077243784,0.0044430303,0.0044433596,0.0014535097,8.6673535e-05,8.667412e-05,25.000021,8.4323307e-07,8.435687e-07,2.9648456e-07,2.7508345e-06,2.751065e-06,4.138486e-07,0.0,0.0,0.0,0.0,0.0,0.0,0.0,0.0,24
3788000,3708000,0.6900255,0.0014504804,-0.015172243,0.72362465,0.00047462634,0.0013482422,-0.007869206,-2.629443e-06,6.517968e-05,-0.00068009715,6.137925e-07,-8.548845e-06,-2.417799e-06,1.7899059e-06,1.9470728e-05,-0.0009820756,0.20852588,0.011608355,0.4317503,0.0,0.0,0.0,0.0,0.0,0.0008534374,0.00043940337,0.00043887767,0.00077502715,0.0047526043,0.0047529666,0.0015033314,9.522464e-05,9.5224925e-05,25.000025,8.432331e-07,8.435688e-07,2.9648456e-07,2.7508347e-06,2.7510653e-06,4.1384865e-07,0.0,0.0,0.0,0.0,0.0,0.0,0.0,0.0,24
3796000,3716000,0.6900203,0.0014674795,-0.015194067,0.7236291,0.00037550778,0.0014502119,-0.00802812,7.710935e-07,7.637349e-05,-0.00074368645,6.137925e-07,-8.548845e-06,-2.417799e-06,1.7899059e-06,1.9470728e-05,-0.0009820756,0.20852588,0.011608355,0.4317503,0.0,0.0,0.0,0.0,0.0,0.0008563672,0.0004560374,0.0004555041,0.00077767146,0.0050811213,0.005081507,0.0015539553,0.00010474627,0.00010474629,25.000029,8.432331e-07,8.435688e-07,2.9648456e-07,2.7508347e-06,2.7510653e-06,4.138487e-07,0.0,0.0,0.0,0.0,0.0,0.0,0.0,0.0,24
3804000,3724000,0.69001704,0.001483763,-0.015215902,0.72363174,0.00033907572,0.0016139207,-0.007843375,3.6294275e-06,8.8630026e-05,-0.00080717244,6.137925e-07,-8.548845e-06,-2.417799e-06,1.7899059e-06,1.9470728e-05,-0.0009820756,0.20852588,0.011608355,0.4317503,0.0,0.0,0.0,0.0,0.0,0.0008593704,0.0004730932,0.00047255214,0.00078039063,0.005428601,0.0054290146,0.0016053811,0.00011531387,0.00011531367,25.000032,8.432331e-07,8.435688e-07,2.964846e-07,2.7508347e-06,2.7510653e-06,4.1384877e-07,0.0,0.0,0.0,0.0,0.0,0.0,0.0,0.0,24
3812000,3732000,0.6900145,0.0014612941,-0.015196304,0.7236346,8.4578525e-05,0.0014903722,-0.0076254415,3.9488245e-06,7.6200886e-05,-0.0008153596,4.5326962e-07,-9.894056e-06,-2.4266956e-06,2.3058396e-06,1.9557341e-05,-0.000986163,0.20852588,0.011608355,0.4317503,0.0,0.0,0.0,0.0,0.0,0.0008624436,0.00046478547,0.00046424795,0.0007831801,0.00506436,0.0050646863,0.0015916503,0.00011650871,0.000116508694,25.000034,8.1422155e-07,8.1454687e-07,2.964631e-07,2.7448123e-06,2.7450544e-06,4.0288097e-07,0.0,0.0,0.0,0.0,0.0,0.0,0.0,0.0,24
3820000,3740000,0.6900142,0.0014637172,-0.0152032925,0.7236347,0.00026534428,0.0017438234,-0.007673152,5.348516e-06,8.913767e-05,-0.00087655394,4.5326962e-07,-9.894056e-06,-2.4266956e-06,2.3058396e-06,1.9557341e-05,-0.000986163,0.20852588,0.011608355,0.4317503,0.0,0.0,0.0,0.0,0.0,0.0008655958,0.00048181173,0.0004812674,0.0007860468,0.00540839,0.0054087485,0.0016429682,0.00012777952,0.00012777929,25.000038,8.1422155e-07,8.1454687e-07,2.964631e-07,2.7448123e-06,2.7450544e-06,4.0288103e-07,0.0,0.0,0.0,0.0,0.0,0.0,0.0,0.0,24
3828000,3748000,0.6900153,0.0014753299,-0.015215331,0.7236334,0.00012160931,0.0017425227,-0.0076603442,6.8963304e-06,0.00010308305,-0.00093788793,4.5326962e-07,-9.894056e-06,-2.4266956e-06,2.3058396e-06,1.9557341e-05,-0.000986163,0.20852588,0.011608355,0.4317503,0.0,0.0,0.0,0.0,0.0,0.0008688225,0.0004992455,0.0004986938,0.00078898715,0.0057733837,0.005773756,0.0016950663,0.00014017813,0.00014017773,25.000042,8.1422155e-07,8.1454687e-07,2.964631e-07,2.7448123e-06,2.7450544e-06,4.0288108e-07,0.0,0.0,0.0,0.0,0.0,0.0,0.0,0.0,24
3836000,3756000,0.69025135,0.001473081,-0.015234014,0.7234078,0.000111686815,0.0018762384,-0.0076457104,7.8190515e-06,0.00011768959,-0.0009991097,4.752673e-07,-9.893258e-06,-1.1707024e-06,2.2916809e-06,1.95205e-05,-0.0009861637,0.20852588,0.011608355,0.4317503,0.0,0.0,0.0,0.0,0.0,0.0008130937,0.0005170643,0.00051652663,0.0007384706,0.0061606364,0.0061610267,0.0017479458,0.00015378848,0.00015378791,25.000048,8.1422104e-07,8.1454687e-07,2.9477863e-07,2.744812e-06,2.745053e-06,4.0288114e-07,0.0,0.0,0.0,0.0,0.0,0.0,0.0,0.0,24
3844000,3764000,0.6902567,0.0014806686,-0.0152480295,0.7234024,2.7373251e-05,0.001953572,-0.0077958554,8.375292e-06,0.00013300883,-0.001060876,4.752673e-07,-9.893258e-06,-1.1707024e-06,2.2916809e-06,1.95205e-05,-0.0009861637,0.20852588,0.011608355,0.4317503,0.0,0.0,0.0,0.0,0.0,0.00081623736,0.00053531263,0.0005347673,0.00074135454,0.006572064,0.0065724687,0.0018016063,0.00016869995,0.00016869929,25.000055,8.1422104e-07,8.1454687e-07,2.9477863e-07,2.7448123e-06,2.7450533e-06,4.028812e-07,0.0,0.0,0.0,0.0,0.0,0.0,0.0,0.0,24
3852000,3772000,0.69025946,0.0014866545,-0.015260576,0.7233995,0.0001494615,0.0021443479,-0.008182794,9.082631e-06,0.00014940051,-0.0011247905,4.752673e-07,-9.893258e-06,-1.1707024e-06,2.2916809e-06,1.95205e-05,-0.0009861637,0.20852588,0.011608355,0.4317503,0.0,0.0,0.0,0.0,0.0,0.0008194638,0.00055396813,0.00055341504,0.0007443031,0.007009326,0.0070097577,0.0018560481,0.00018500819,0.00018500748,25.000063,8.1422104e-07,8.1454687e-07,2.9477863e-07,2.7448123e-06,2.7450533e-06,4.0288126e-07,0.0,0.0,0.0,0.0,0.0,0.0,0.0,0.0,24
3860000,3780000,0.69025683,0.0014895642,-0.01527546,0.7234017,0.000269207,0.0023169313,-0.008128621,1.0757305e-05,0.00016724563,-0.0011900362,4.752673e-07,-9.893258e-06,-1.1707024e-06,2.2916809e-06,1.95205e-05,-0.0009861637,0.20852588,0.011608355,0.4317503,0.0,0.0,0.0,0.0,0.0,0.0008227788,0.0005730311,0.00057246984,0.0007473106,0.007470019,0.007470478,0.0019112717,0.0002028153,0.00020281461,25.00007,8.142211e-07,8.145469e-07,2.9477863e-07,2.7448123e-06,2.7450533e-06,4.028813e-07,0.0,0.0,0.0,0.0,0.0,0.0,0.0,0.0,24
3868000,3788000,0.6902614,0.0014949723,-0.015294038,0.7233969,0.00017001649,0.0025112452,-0.008115575,1.2514199e-05,0.00018655833,-0.0012550129,4.752673e-07,-9.893258e-06,-1.1707024e-06,2.2916809e-06,1.95205e-05,-0.0009861637,0.20852588,0.011608355,0.4317503,0.0,0.0,0.0,0.0,0.0,0.0008261554,0.00059250137,0.00059193163,0.0007504036,0.007957782,0.007958248,0.0019672776,0.00022222621,0.00022222562,25.000078,8.142211e-07,8.145469e-07,2.9477863e-07,2.7448123e-06,2.7450533e-06,4.0288137e-07,0.0,0.0,0.0,0.0,0.0,0.0,0.0,0.0,24
3876000,3796000,0.6902585,0.0015109399,-0.01531991,0.72339904,0.00018780289,0.0026707416,-0.008066803,1.3945476e-05,0.00020728628,-0.0013197424,4.752673e-07,-9.893258e-06,-1.1707024e-06,2.2916809e-06,1.95205e-05,-0.0009861637,0.20852588,0.011608355,0.4317503,0.0,0.0,0.0,0.0,0.0,0.0008296252,0.00061237917,0.0006118003,0.00075355096,0.008473388,0.00847387,0.0020240652,0.00024335427,0.00024335383,25.000086,8.142211e-07,8.145469e-07,2.9477866e-07,2.7448125e-06,2.7450535e-06,4.0288143e-07,0.0,0.0,0.0,0.0,0.0,0.0,0.0,0.0,24
3884000,3804000,0.6902558,0.0015144014,-0.015342684,0.7234012,0.00034803984,0.0027222184,-0.008069865,1.6088847e-05,0.00022885813,-0.0013842891,4.752673e-07,-9.893258e-06,-1.1707024e-06,2.2916809e-06,1.95205e-05,-0.0009861637,0.20852588,0.011608355,0.4317503,0.0,0.0,0.0,0.0,0.0,0.00083317177,0.0006326641,0.0006320762,0.00075676874,0.009018637,0.009019149,0.0020816342,0.00026631902,0.00026631882,25.000093,8.142211e-07,8.145469e-07,2.9477866e-07,2.7448125e-06,2.7450535e-06,4.0288148e-07,0.0,0.0,0.0,0.0,0.0,0.0,0.0,0.0,24
3892000,3812000,0.69026184,0.0015329297,-0.015357553,0.72339505,0.00045514625,0.0028232997,-0.00812462,1.9301591e-05,0.0002510402,-0.001449067,4.752673e-07,-9.893258e-06,-1.1707024e-06,2.2916809e-06,1.95205e-05,-0.0009861637,0.20852588,0.011608355,0.4317503,0.0,0.0,0.0,0.0,0.0,0.00083677727,0.00065335585,0.00065275916,0.0007600756,0.00959487,0.009595403,0.0021399863,0.0002912475,0.0002912476,25.000101,8.142211e-07,8.145469e-07,2.9477866e-07,2.7448125e-06,2.7450535e-06,4.0288154e-07,0.0,0.0,0.0,0.0,0.0,0.0,0.0,0.0,24
3900000,3820000,0.6902698,0.0015419365,-0.015382431,0.7233869,0.0006892641,0.0029671793,-0.008136801,2.3879233e-05,0.00027420212,-0.0015141127,4.752673e-07,-9.893258e-06,-1.1707024e-06,2.2916809e-06,1.95205e-05,-0.0009861637,0.20852588,0.011608355,0.4317503,0.0,0.0,0.0,0.0,0.0,0.0008404552,0.00067445537,0.0006738491,0.000763457,0.010202741,0.010203309,0.0021991213,0.000318274,0.00031827448,25.000109,8.142211e-07,8.145469e-07,2.9477866e-07,2.7448125e-06,2.7450535e-06,4.028816e-07,0.0,0.0,0.0,0.0,0.0,0.0,0.0,0.0,24
3908000,3828000,0.69020313,0.0015393643,-0.015392647,0.72345024,0.0008081477,0.0028982498,-0.008256166,2.9868117e-05,0.000297565,-0.001579686,4.6719643e-07,-9.893679e-06,-1.6062089e-06,2.2965946e-06,1.9532814e-05,-0.0009861635,0.20852588,0.011608355,0.4317503,0.0,0.0,0.0,0.0,0.0,0.0007888187,0.0006959416,0.0006953456,0.0007166403,0.010844743,0.010845329,0.0022590377,0.0003475397,0.0003475406,25.000116,8.1422036e-07,8.145469e-07,2.9258666e-07,2.7448125e-06,2.745052e-06,4.0288165e-07,0.0,0.0,0.0,0.0,0.0,0.0,0.0,0.0,24
3916000,3836000,0.6901999,0.0015560926,-0.015403794,0.72345316,0.0009528451,0.003115852,-0.008166015,3.691209e-05,0.00032162142,-0.0016453747,4.6719643e-07,-9.893679e-06,-1.6062089e-06,2.2965946e-06,1.9532814e-05,-0.0009861635,0.20852588,0.011608355,0.4317503,0.0,0.0,0.0,0.0,0.0,0.00079242355,0.000717855,0.0007172498,0.00071990833,0.011519697,0.011520304,0.0023197394,0.0003791949,0.0003791964,25.000126,8.1422036e-07,8.145469e-07,2.9258666e-07,2.7448125e-06,2.745052e-06,4.028817e-07,0.0,0.0,0.0,0.0,0.0,0.0,0.0,0.0,24
3924000,3844000,0.6902001,0.0015625976,-0.015425719,0.72345245,0.00096556975,0.0034532135,-0.008189648,4.458575e-05,0.0003478977,-0.0017107973,4.6719643e-07,-9.893679e-06,-1.6062089e-06,2.2965946e-06,1.9532814e-05,-0.0009861635,0.20852588,0.011608355,0.4317503,0.0,0.0,0.0,0.0,0.0,0.0007960975,0.00074017607,0.000739561,0.0007232531,0.012231635,0.012232243,0.0023812258,0.00041339514,0.00041339733,25.000137,8.1422036e-07,8.145469e-07,2.9258666e-07,2.7448125e-06,2.745052e-06,4.0288177e-07,0.0,0.0,0.0,0.0,0.0,0.0,0.0,0.0,24
3932000,3852000,0.6901995,0.0015737913,-0.015439622,0.7234527,0.0008946392,0.0039019724,-0.008311957,5.202659e-05,0.00037731844,-0.0017768038,4.6719643e-07,-9.893679e-06,-1.6062089e-06,2.2965946e-06,1.9532814e-05,-0.0009861635,0.20852588,0.011608355,0.4317503,0.0,0.0,0.0,0.0,0.0,0.0007998499,0.0007629041,0.00076227944,0.00072666595,0.012982002,0.012982592,0.0024434975,0.0004503073,0.00045031024,25.000149,8.142204e-07,8.14547e-07,2.9258666e-07,2.7448125e-06,2.745052e-06,4.0288182e-07,0.0,0.0,0.0,0.0,0.0,0.0,0.0,0.0,24
3940000,3860000,0.690191,0.0015754416,-0.015455645,0.72346056,0.00084558316,0.004079194,-0.00836309,5.898748e-05,0.0004092431,-0.0018435039,4.6719643e-07,-9.893679e-06,-1.6062089e-06,2.2965946e-06,1.9532814e-05,-0.0009861635,0.20852588,0.011608355,0.4317503,0.0,0.0,0.0,0.0,0.0,0.0008036954,0.00078603945,0.000785405,0.0007301319,0.013770687,0.013771263,0.0025065502,0.0004901072,0.000490111,25.00016,8.142204e-07,8.14547e-07,2.9258666e-07,2.7448125e-06,2.745052e-06,4.0288188e-07,0.0,0.0,0.0,0.0,0.0,0.0,0.0,0.0,24
3948000,3868000,0.6901908,0.0015825048,-0.015470015,0.72346044,0.0009842465,0.004167448,-0.008651584,6.63068e-05,0.00044222968,-0.0019115626,4.6719643e-07,-9.893679e-06,-1.6062089e-06,2.2965946e-06,1.9532814e-05,-0.0009861635,0.20852588,0.011608355,0.4317503,0.0,0.0,0.0,0.0,0.0,0.0008076003,0.00080958183,0.00080893765,0.0007336849,0.014602349,0.014602937,0.002570386,0.00053297804,0.0005329827,25.000172,8.142204e-07,8.14547e-07,2.925867e-07,2.7448127e-06,2.7450521e-06,4.0288194e-07,0.0,0.0,0.0,0.0,0.0,0.0,0.0,0.0,24
3956000,3876000,0.6901904,0.0016017715,-0.015490874,0.72346026,0.0011320505,0.004097761,-0.008995727,7.477199e-05,0.00047529052,-0.001982152,4.6719643e-07,-9.893679e-06,-1.6062089e-06,2.2965946e-06,1.9532814e-05,-0.0009861635,0.20852588,0.011608355,0.4317503,0.0,0.0,0.0,0.0,0.0,0.0008115825,0.0008335318,0.00083287706,0.0007373072,0.01547685,0.015477453,0.0026350038,0.0005791162,0.00057912193,25.000183,8.142204e-07,8.14547e-07,2.925867e-07,2.7448127e-06,2.7450521e-06,4.02882e-07,0.0,0.0,0.0,0.0,0.0,0.0,0.0,0.0,24
3964000,3884000,0.69018584,0.001620856,-0.015507977,0.7234642,0.0011181816,0.0045793676,-0.009261586,8.377292e-05,0.00050999905,-0.0020551812,4.6719643e-07,-9.893679e-06,-1.6062089e-06,2.2965946e-06,1.9532814e-05,-0.0009861635,0.20852588,0.011608355,0.4317503,0.0,0.0,0.0,0.0,0.0,0.0008156501,0.0008578889,0.0008572236,0.0007409902,0.01639429,0.016394865,0.0027004136,0.00062872644,0.00062873325,25.000195,8.142204e-07,8.14547e-07,2.925867e-07,2.7448127e-06,2.7450521e-06,4.0288205e-07,0.0,0.0,0.0,0.0,0.0,0.0,0.0,0.0,24
3972000,3892000,0.6901777,0.0016220628,-0.015521361,0.7234717,0.0011718121,0.0048300065,-0.009454437,9.293289e-05,0.00054763653,-0.0021300453,4.6719643e-07,-9.893679e-06,-1.6062089e-06,2.2965946e-06,1.9532814e-05,-0.0009861635,0.20852588,0.011608355,0.4317503,0.0,0.0,0.0,0.0,0.0,0.00081980193,0.0008826531,0.00088197755,0.0007447352,0.017356178,0.017356737,0.0027666055,0.0006820215,0.0006820295,25.000208,8.142204e-07,8.14547e-07,2.925867e-07,2.7448127e-06,2.7450521e-06,4.028821e-07,0.0,0.0,0.0,0.0,0.0,0.0,0.0,0.0,24
3980000,3900000,0.6906692,0.0016196778,-0.01554007,0.723002,0.0013661407,0.0050710253,-0.009735305,0.00010315702,0.0005886142,-0.002206788,5.359802e-07,-9.889718e-06,1.9395306e-06,2.2561305e-06,1.9435136e-05,-0.0009861654,0.20852588,0.011608355,0.4317503,0.0,0.0,0.0,0.0,0.0,0.0007711818,0.0009078069,0.0009071371,0.00070063246,0.018366108,0.01836666,0.0028335825,0.0007392247,0.0007392335,25.000223,8.142194e-07,8.14547e-07,2.898584e-07,2.7448125e-06,2.7450503e-06,4.0288216e-07,0.0,0.0,0.0,0.0,0.0,0.0,0.0,0.0,24
3988000,3908000,0.69067645,0.0014228212,-0.015231832,0.72300214,0.0010768055,0.002763596,-0.009985548,1.2748384e-05,6.9975446e-05,-0.0018312004,-1.6877711e-06,-1.9042562e-05,1.907589e-06,5.811768e-06,1.9033858e-05,-0.0009862524,0.20852588,0.011608355,0.4317503,0.0,0.0,0.0,0.0,0.0,0.00077508355,0.0006209003,0.00062036165,0.00070428173,0.0045513557,0.0045514544,0.0029013057,8.889596e-05,8.889608e-05,20.000153,6.1957815e-07,6.198425e-07,2.8971897e-07,2.7167118e-06,2.7169926e-06,4.0285667e-07,0.0,0.0,0.0,0.0,0.0,0.0,0.0,0.0,24
3996000,3916000,0.69067895,0.0014365945,-0.015241634,0.72299945,0.0010492522,0.002900342,-0.010059133,2.1252614e-05,9.26312e-05,-0.0019113792,-1.6877711e-06,-1.9042562e-05,1.907589e-06,5.811768e-06,1.9033858e-05,-0.0009862524,0.20852588,0.011608355,0.4317503,0.0,0.0,0.0,0.0,0.0,0.0007791619,0.0006390369,0.00063849054,0.00070800976,0.004931717,0.004931793,0.0029698485,9.6380085e-05,9.638028e-05,20.000164,6.1957815e-07,6.198425e-07,2.8971897e-07,2.7167118e-06,2.7169926e-06,4.0285673e-07,0.0,0.0,0.0,0.0,0.0,0.0,0.0,0.0,24
4004000,3924000,0.69067454,0.0014490789,-0.0152510945,0.72300345,0.00079809455,0.0029355027,-0.010009289,2.8642002e-05,0.00011597458,-0.001991653,-1.6877711e-06,-1.9042562e-05,1.907589e-06,5.811768e-06,1.9033858e-05,-0.0009862524,0.20852588,0.011608355,0.4317503,0.0,0.0,0.0,0.0,0.0,0.00078333,0.0006574833,0.0006569292,0.00071179296,0.0053370167,0.005337051,0.003039175,0.00010478672,0.000104786996,20.000175,6.195782e-07,6.198426e-07,2.8971897e-07,2.7167118e-06,2.7169926e-06,4.0285678e-07,0.0,0.0,0.0,0.0,0.0,0.0,0.0,0.0,24
4012000,3932000,0.6906712,0.0014677612,-0.015267186,0.72300625,0.00068125513,0.0028759842,-0.010231517,3.45594e-05,0.00013922053,-0.002072616,-1.6877711e-06,-1.9042562e-05,1.907589e-06,5.811768e-06,1.9033858e-05,-0.0009862524,0.20852588,0.011608355,0.4317503,0.0,0.0,0.0,0.0,0.0,0.00078757183,0.00067623996,0.0006756774,0.0007156473,0.0057707108,0.005770714,0.0031092865,0.0001142059,0.00011420625,20.000187,6.195782e-07,6.198426e-07,2.8971897e-07,2.716712e-06,2.7169929e-06,4.0285684e-07,0.0,0.0,0.0,0.0,0.0,0.0,0.0,0.0,24
4020000,3940000,0.6906693,0.0014354641,-0.015171843,0.7230102,0.000707817,0.0025869804,-0.009608961,2.92601e-05,0.00012122543,-0.001962568,-2.7537976e-06,-2.227645e-05,1.9105805e-06,3.7475475e-06,1.9937723e-05,-0.0009936312,0.20852588,0.011608355,0.4317503,0.0,0.0,0.0,0.0,0.0,0.0007918686,0.00063346914,0.00063292414,0.0007195677,0.0053918553,0.005391842,0.0029459659,0.00011576345,0.00011576376,20.000187,5.6311234e-07,5.6336097e-07,2.8968793e-07,2.6966725e-06,2.696934e-06,3.8066943e-07,0.0,0.0,0.0,0.0,0.0,0.0,0.0,0.0,24
4028000,3948000,0.69066733,0.0014422437,-0.015175126,0.723012,0.0008722471,0.002631492,-0.009618238,3.5580357e-05,0.00014209932,-0.0020394768,-2.7537976e-06,-2.227645e-05,1.9105805e-06,3.7475475e-06,1.9937723e-05,-0.0009936312,0.20852588,0.011608355,0.4317503,0.0,0.0,0.0,0.0,0.0,0.00079625874,0.0006509619,0.0006504099,0.00072356284,0.0058167814,0.0058167567,0.003013068,0.000125923,0.00012592337,20.0002,5.6311234e-07,5.6336097e-07,2.8968796e-07,2.6966725e-06,2.696934e-06,3.806695e-07,0.0,0.0,0.0,0.0,0.0,0.0,0.0,0.0,24
4036000,3956000,0.6906712,0.0014405228,-0.015180471,0.72300816,0.00076270796,0.0026371877,-0.009728655,4.2120177e-05,0.00016317405,-0.0021168643,-2.7537976e-06,-2.227645e-05,1.9105805e-06,3.7475475e-06,1.9937723e-05,-0.0009936312,0.20852588,0.011608355,0.4317503,0.0,0.0,0.0,0.0,0.0,0.0008007125,0.00066873635,0.0006681773,0.00072763907,0.0062690433,0.006268982,0.0030809112,0.00013721117,0.00013721157,20.000216,5.6311234e-07,5.6336097e-07,2.8968796e-07,2.6966725e-06,2.696934e-06,3.8066955e-07,0.0,0.0,0.0,0.0,0.0,0.0,0.0,0.0,24
4044000,3964000,0.69067484,0.001449263,-0.015198755,0.7230043,0.00074847444,0.0026273644,-0.009726763,4.8164908e-05,0.00018423225,-0.002194686,-2.7537976e-06,-2.227645e-05,1.9105805e-06,3.7475475e-06,1.9937723e-05,-0.0009936312,0.20852588,0.011608355,0.4317503,0.0,0.0,0.0,0.0,0.0,0.0008052423,0.00068679306,0.00068622583,0.0007317841,0.0067483564,0.0067482633,0.0031494962,0.00014972941,0.0001497298,20.00023,5.6311234e-07,5.6336097e-07,2.8968796e-07,2.6966727e-06,2.6969342e-06,3.8066958e-07,0.0,0.0,0.0,0.0,0.0,0.0,0.0,0.0,24
4052000,3972000,0.6907773,0.001460766,-0.015213586,0.72290605,0.0007984045,0.0027111883,-0.009735113,5.4369048e-05,0.0002056667,-0.0022725295,-2.7376727e-06,-2.2282306e-05,2.8093295e-06,3.7381774e-06,1.9915267e-05,-0.0009936317,0.20852588,0.011608355,0.4317503,0.0,0.0,0.0,0.0,0.0,0.00075878436,0.0007051126,0.0007045552,0.00068961,0.0072566005,0.007256472,0.0032188238,0.00016358474,0.0001635851,20.000246,5.6311126e-07,5.6336086e-07,2.8640662e-07,2.6966723e-06,2.6969321e-06,3.8066963e-07,0.0,0.0,0.0,0.0,0.0,0.0,0.0,0.0,24
4060000,3980000,0.69077796,0.0014628392,-0.015224106,0.7229052,0.0007792693,0.002766687,-0.010051347,6.0679744e-05,0.0002275782,-0.0023516754,-2.7376727e-06,-2.2282306e-05,2.8093295e-06,3.7381774e-06,1.9915267e-05,-0.0009936317,0.20852588,0.011608355,0.4317503,0.0,0.0,0.0,0.0,0.0,0.00076317514,0.0007237323,0.000723167,0.0006936176,0.0077972263,0.0077970554,0.0032888933,0.00017889132,0.00017889161,20.000261,5.6311126e-07,5.6336086e-07,2.8640665e-07,2.6966723e-06,2.6969321e-06,3.806697e-07,0.0,0.0,0.0,0.0,0.0,0.0,0.0,0.0,24
4068000,3988000,0.6907782,0.0014723601,-0.015231436,0.72290486,0.0008514658,0.0028423953,-0.010163449,6.720269e-05,0.00025001453,-0.0024325347,-2.7376727e-06,-2.2282306e-05,2.8093295e-06,3.7381774e-06,1.9915267e-05,-0.0009936317,0.20852588,0.011608355,0.4317503,0.0,0.0,0.0,0.0,0.0,0.00076764176,0.0007426334,0.00074206025,0.0006976926,0.008367543,0.008367336,0.0033597054,0.00019577218,0.00019577237,20.000277,5.6311126e-07,5.6336086e-07,2.8640665e-07,2.6966723e-06,2.6969321e-06,3.8066975e-07,0.0,0.0,0.0,0.0,0.0,0.0,0.0,0.0,24
4076000,3996000,0.6907826,0.0014809123,-0.015242164,0.7229004,0.0007709023,0.002913787,-0.010306582,7.369216e-05,0.00027303927,-0.0025144147,-2.7376727e-06,-2.2282306e-05,2.8093295e-06,3.7381774e-06,1.9915267e-05,-0.0009936317,0.20852588,0.011608355,0.4317503,0.0,0.0,0.0,0.0,0.0,0.0007721749,0.00076181634,0.00076123496,0.0007018444,0.008970512,0.008970248,0.0034312597,0.00021435466,0.00021435469,20.000292,5.6311126e-07,5.6336086e-07,2.8640665e-07,2.6966723e-06,2.6969321e-06,3.806698e-07,0.0,0.0,0.0,0.0,0.0,0.0,0.0,0.0,24
