timestamp,unallocated_torque[0],unallocated_torque[1],unallocated_torque[2],unallocated_thrust[0],unallocated_thrust[1],unallocated_thrust[2],handled_motor_failure_mask,torque_setpoint_achieved,thrust_setpoint_achieved,actuator_saturation[0],actuator_saturation[1],actuator_saturation[2],actuator_saturation[3],actuator_saturation[4],actuator_saturation[5],actuator_saturation[6],actuator_saturation[7],actuator_saturation[8],actuator_saturation[9],actuator_saturation[10],actuator_saturation[11],actuator_saturation[12],actuator_saturation[13],actuator_saturation[14],actuator_saturation[15]
3180000,0.00047513633,0.0012018413,0.00026864265,0.0,0.0,0.0,0,0,1,-2,-2,-2,-2,2,2,2,2,2,2,2,2,2,2,2,2
3188000,0.0005954661,5.905109e-06,-4.4438795e-05,0.0,0.0,0.0,0,1,1,-2,-2,-2,-2,2,2,2,2,2,2,2,2,2,2,2,2
3380000,0.0010897326,0.0018679927,0.00024542955,0.0,0.0,0.0,0,0,1,-2,-2,-2,-2,2,2,2,2,2,2,2,2,2,2,2,2
3580000,0.020061435,0.022046704,1.036519e-05,0.0,0.0,-1.1641532e-10,0,0,1,0,-2,0,-2,2,2,2,2,2,2,2,2,2,2,2,2
3780000,0.020201966,0.02236411,-5.1137446e-05,0.0,0.0,1.0477379e-09,0,0,1,0,-2,0,-2,2,2,2,2,2,2,2,2,2,2,2,2
3980000,0.020177737,0.022073213,4.0400744e-05,0.0,0.0,4.656613e-10,0,0,1,0,-2,0,-2,2,2,2,2,2,2,2,2,2,2,2,2
4180000,0.01889258,0.022127785,-8.5612184e-05,0.0,0.0,1.1641532e-10,0,0,1,0,-2,0,-2,2,2,2,2,2,2,2,2,2,2,2,2
4380000,0.01950474,0.020403398,0.00029227848,0.0,0.0,1.1641532e-10,0,0,1,0,-2,0,-2,2,2,2,2,2,2,2,2,2,2,2,2
4580000,0.01948361,0.019898668,-0.00010217803,0.0,0.0,3.4924597e-10,0,0,1,0,-2,0,-2,2,2,2,2,2,2,2,2,2,2,2,2
4772000,0.019354632,0.02082572,0.0004742809,0.0,0.0,1.1641532e-10,0,0,1,0,-2,0,-2,2,2,2,2,2,2,2,2,2,2,2,2
4980000,0.018314429,0.019534234,-0.0008140051,0.0,0.0,5.820766e-10,0,0,1,0,-2,0,-2,2,2,2,2,2,2,2,2,2,2,2,2
5180000,0.017794805,0.019417245,-0.00040320726,0.0,0.0,1.1641532e-10,0,0,1,0,-2,0,-2,2,2,2,2,2,2,2,2,2,2,2,2
5380000,0.017037457,0.019403758,-0.00043466417,0.0,0.0,1.1641532e-10,0,0,1,0,-2,0,-2,2,2,2,2,2,2,2,2,2,2,2,2
5580000,0.017353393,0.018361535,-0.00024091675,0.0,0.0,1.1641532e-10,0,0,1,0,-2,0,-2,2,2,2,2,2,2,2,2,2,2,2,2
5780000,0.01787607,0.019340571,-0.0004546403,0.0,0.0,3.4924597e-10,0,0,1,0,-2,0,-2,2,2,2,2,2,2,2,2,2,2,2,2
5980000,0.016792268,0.019118335,-0.0009805582,0.0,0.0,1.1641532e-10,0,0,1,0,-2,0,-2,2,2,2,2,2,2,2,2,2,2,2,2
6180000,0.017718969,0.018302541,-0.00044878485,0.0,0.0,1.1641532e-10,0,0,1,0,-2,0,-2,2,2,2,2,2,2,2,2,2,2,2,2
6380000,0.01761216,0.018783303,-0.0008365007,0.0,0.0,1.1641532e-10,0,0,1,0,-2,0,-2,2,2,2,2,2,2,2,2,2,2,2,2
6580000,0.01763525,0.018154146,-0.00010952051,0.0,0.0,1.1641532e-10,0,0,1,0,-2,0,-2,2,2,2,2,2,2,2,2,2,2,2,2
6780000,0.016225113,0.01877142,-0.00078138645,0.0,0.0,1.1641532e-10,0,0,1,0,-2,0,-2,2,2,2,2,2,2,2,2,2,2,2,2
6980000,0.016991226,0.017981818,-0.0004892782,0.0,0.0,-2.3283064e-10,0,0,1,0,-2,0,-2,2,2,2,2,2,2,2,2,2,2,2,2
7180000,0.017883116,0.018225277,-0.0005234578,0.0,0.0,1.1641532e-10,0,0,1,0,-2,0,-2,2,2,2,2,2,2,2,2,2,2,2,2
7380000,0.01745999,0.019578751,-0.00055386405,0.0,0.0,1.1641532e-10,0,0,1,0,-2,0,-2,2,2,2,2,2,2,2,2,2,2,2,2
7580000,0.0172262,0.020248912,-4.9972834e-05,0.0,0.0,1.1641532e-10,0,0,1,0,-2,0,-2,2,2,2,2,2,2,2,2,2,2,2,2
7780000,0.017918084,0.019335318,-0.00040338436,0.0,0.0,1.1641532e-10,0,0,1,0,-2,0,-2,2,2,2,2,2,2,2,2,2,2,2,2
7980000,0.018119553,0.019522607,-0.00034616468,0.0,0.0,-8.1490725e-10,0,0,1,0,-2,0,-2,2,2,2,2,2,2,2,2,2,2,2,2
8180000,0.017567182,0.019035526,0.00019502887,0.0,0.0,1.1641532e-10,0,0,1,0,-2,0,-2,2,2,2,2,2,2,2,2,2,2,2,2
8380000,0.016949562,0.018511172,-0.00022162753,0.0,0.0,1.1641532e-10,0,0,1,0,-2,0,-2,2,2,2,2,2,2,2,2,2,2,2,2
8580000,0.017065646,0.018791104,-0.00012671202,0.0,0.0,1.1641532e-10,0,0,1,0,-2,0,-2,2,2,2,2,2,2,2,2,2,2,2,2
8772000,0.016748225,0.018950745,-0.00010550355,0.0,0.0,1.1641532e-10,0,0,1,0,-2,0,-2,2,2,2,2,2,2,2,2,2,2,2,2
8980000,0.016601114,0.019484563,-0.00037607737,0.0,0.0,8.1490725e-10,0,0,1,0,-2,0,-2,2,2,2,2,2,2,2,2,2,2,2,2
9180000,0.016658064,0.019236792,0.00039428874,0.0,0.0,1.1641532e-10,0,0,1,0,-2,0,-2,2,2,2,2,2,2,2,2,2,2,2,2
9372000,0.01666542,0.01921157,-0.000349568,0.0,0.0,1.1641532e-10,0,0,1,0,-2,0,-2,2,2,2,2,2,2,2,2,2,2,2,2
9580000,0.016440472,0.017761828,-0.00024483597,0.0,0.0,1.1641532e-10,0,0,1,0,-2,0,-2,2,2,2,2,2,2,2,2,2,2,2,2
9772000,0.015872737,0.019411273,1.7730823e-05,0.0,0.0,1.1641532e-10,0,0,1,0,-2,0,-2,2,2,2,2,2,2,2,2,2,2,2,2
9972000,0.016305966,0.020071197,-8.707375e-06,0.0,0.0,3.4924597e-10,0,0,1,0,-2,0,-2,2,2,2,2,2,2,2,2,2,2,2,2
10180000,0.016580787,0.016866662,-0.00030664325,0.0,0.0,4.656613e-10,0,0,1,0,-2,0,-2,2,2,2,2,2,2,2,2,2,2,2,2
10380000,0.018655125,0.018064242,-0.0002222303,0.0,0.0,5.820766e-10,0,0,1,0,-2,0,-2,2,2,2,2,2,2,2,2,2,2,2,2
10580000,0.0166848,0.018880833,-0.0001716118,0.0,0.0,5.820766e-10,0,0,1,0,-2,0,-2,2,2,2,2,2,2,2,2,2,2,2,2
10780000,0.016741933,0.016639968,-0.00046592613,0.0,0.0,1.1641532e-10,0,0,1,0,-2,0,-2,2,2,2,2,2,2,2,2,2,2,2,2
10980000,0.016323939,0.018483544,0.000101939426,0.0,0.0,5.820766e-10,0,0,1,0,-2,0,-2,2,2,2,2,2,2,2,2,2,2,2,2
11172000,0.01680775,0.018532703,2.088001e-05,0.0,0.0,1.1641532e-10,0,0,1,0,-2,0,-2,2,2,2,2,2,2,2,2,2,2,2,2
11380000,0.017408801,0.01715494,0.00036456808,0.0,0.0,-2.3283064e-10,0,0,1,0,-2,0,-2,2,2,2,2,2,2,2,2,2,2,2,2
11580000,0.016158286,0.018667715,2.334523e-05,0.0,0.0,1.1641532e-10,0,0,1,0,-2,0,-2,2,2,2,2,2,2,2,2,2,2,2,2
11772000,0.015490033,0.018122885,0.00013204913,0.0,0.0,4.656613e-10,0,0,1,0,-2,0,-2,2,2,2,2,2,2,2,2,2,2,2,2
11980000,0.016722376,0.018268162,0.0003478408,0.0,0.0,5.820766e-10,0,0,1,0,-2,0,-2,2,2,2,2,2,2,2,2,2,2,2,2
12180000,0.016118987,0.0177055,-0.00023182796,0.0,0.0,5.820766e-10,0,0,1,0,-2,0,-2,2,2,2,2,2,2,2,2,2,2,2,2
12372000,0.015588197,0.017151024,-0.0002592665,0.0,0.0,-2.3283064e-10,0,0,1,0,-2,0,-2,2,2,2,2,2,2,2,2,2,2,2,2
12580000,0.0158393,0.017648824,-6.9102343e-06,0.0,0.0,5.820766e-10,0,0,1,0,-2,0,-2,2,2,2,2,2,2,2,2,2,2,2,2
12780000,0.016254388,0.019426057,0.00013659809,0.0,0.0,1.1641532e-10,0,0,1,0,-2,0,-2,2,2,2,2,2,2,2,2,2,2,2,2
12980000,0.016558427,0.018294131,0.00013208951,0.0,0.0,1.1641532e-10,0,0,1,0,-2,0,-2,2,2,2,2,2,2,2,2,2,2,2,2
13180000,0.015773024,0.017541023,0.0003577398,0.0,0.0,5.820766e-10,0,0,1,0,-2,0,-2,2,2,2,2,2,2,2,2,2,2,2,2
13380000,0.016149692,0.017524458,-1.0328116e-05,0.0,0.0,5.820766e-10,0,0,1,0,-2,0,-2,2,2,2,2,2,2,2,2,2,2,2,2
13580000,0.015683196,0.018162409,-0.00058184913,0.0,0.0,1.1641532e-10,0,0,1,0,-2,0,-2,2,2,2,2,2,2,2,2,2,2,2,2
13772000,0.015617716,0.017173786,0.00055719103,0.0,0.0,4.656613e-10,0,0,1,0,-2,0,-2,2,2,2,2,2,2,2,2,2,2,2,2
13980000,0.016137088,0.016799998,-0.000109091685,0.0,0.0,1.1641532e-10,0,0,1,0,-2,0,-2,2,2,2,2,2,2,2,2,2,2,2,2
14180000,0.016025828,0.016798811,-3.36081e-06,0.0,0.0,-2.3283064e-10,0,0,1,0,-2,0,-2,2,2,2,2,2,2,2,2,2,2,2,2
14380000,0.01554701,0.015795505,1.0621164e-05,0.0,0.0,-2.3283064e-10,0,0,1,0,-2,0,-2,2,2,2,2,2,2,2,2,2,2,2,2
14580000,0.007004409,0.0,0.00029272906,0.0,0.0,0.0,0,0,1,0,0,0,-2,2,2,2,2,2,2,2,2,2,2,2,2
14772000,1.8626451e-09,0.0,1.36788e-09,0.0,0.0,3.7252903e-09,0,1,1,0,0,0,0,2,2,2,2,2,2,2,2,2,2,2,2
14980000,-1.1175871e-08,-1.8626451e-09,-2.910383e-10,0.0,0.0,-7.450581e-09,0,1,1,0,0,0,0,2,2,2,2,2,2,2,2,2,2,2,2
15180000,3.7252903e-09,-5.5879354e-09,5.7334546e-09,0.0,0.0,-1.4901161e-08,0,1,1,0,0,0,0,2,2,2,2,2,2,2,2,2,2,2,2
15380000,2.0489097e-08,7.450581e-09,-1.6589183e-09,0.0,0.0,-1.4901161e-08,0,1,1,0,0,0,0,2,2,2,2,2,2,2,2,2,2,2,2
15572000,-1.1175871e-08,7.450581e-09,1.6512786e-08,0.0,0.0,0.0,0,1,1,0,0,0,0,2,2,2,2,2,2,2,2,2,2,2,2
15772000,2.2351742e-08,-1.1175871e-08,3.929017e-09,0.0,0.0,-2.9802322e-08,0,1,1,0,0,0,0,2,2,2,2,2,2,2,2,2,2,2,2
15980000,-1.4901161e-08,-9.313226e-09,1.00408215e-08,0.0,0.0,0.0,0,1,1,0,0,0,0,2,2,2,2,2,2,2,2,2,2,2,2
16172000,2.6077032e-08,3.7252903e-09,-1.36788e-08,0.0,0.0,0.0,0,1,1,0,0,0,0,2,2,2,2,2,2,2,2,2,2,2,2
16380000,3.3527613e-08,3.7252903e-09,-1.9208528e-08,0.0,0.0,0.0,0,1,1,0,0,0,0,2,2,2,2,2,2,2,2,2,2,2,2
16580000,-7.450581e-09,-7.450581e-09,1.1292286e-08,0.0,0.0,2.9802322e-08,0,1,1,0,0,0,0,2,2,2,2,2,2,2,2,2,2,2,2
16780000,-1.8626451e-08,-3.7252903e-09,3.1635864e-08,0.0,0.0,-2.9802322e-08,0,1,1,0,0,0,0,2,2,2,2,2,2,2,2,2,2,2,2
16980000,0.0,1.8626451e-08,-1.6065314e-08,0.0,0.0,-2.9802322e-08,0,1,1,0,0,0,0,2,2,2,2,2,2,2,2,2,2,2,2
17180000,-5.9604645e-08,-7.450581e-09,5.142647e-08,0.0,0.0,-5.9604645e-08,0,1,1,0,0,0,0,2,2,2,2,2,2,2,2,2,2,2,2
17380000,3.7252903e-08,-2.2351742e-08,1.764056e-08,0.0,0.0,0.0,0,1,1,0,0,0,0,2,2,2,2,2,2,2,2,2,2,2,2
17580000,4.4703484e-08,-2.9802322e-08,1.5170372e-08,0.0,0.0,0.0,0,1,1,0,0,0,0,2,2,2,2,2,2,2,2,2,2,2,2
17780000,-3.7252903e-08,2.2351742e-08,3.5914127e-08,0.0,0.0,-5.9604645e-08,0,1,1,0,0,0,0,2,2,2,2,2,2,2,2,2,2,2,2
17972000,-2.2351742e-08,-7.450581e-09,1.8975697e-08,0.0,0.0,0.0,0,1,1,0,0,0,0,2,2,2,2,2,2,2,2,2,2,2,2
18172000,-1.1920929e-07,-1.8626451e-08,1.1641532e-08,0.0,0.0,-5.9604645e-08,0,1,1,0,0,0,0,2,2,2,2,2,2,2,2,2,2,2,2
18380000,3.7252903e-08,-2.6077032e-08,8.1490725e-09,0.0,0.0,-5.9604645e-08,0,1,1,0,0,0,0,2,2,2,2,2,2,2,2,2,2,2,2
18572000,-2.0489097e-08,0.0,-3.8417056e-09,0.0,0.0,0.0,0,1,1,0,0,0,0,2,2,2,2,2,2,2,2,2,2,2,2
18780000,3.9115548e-08,1.8626451e-08,5.7625584e-09,0.0,0.0,-5.9604645e-08,0,1,1,0,0,0,0,2,2,2,2,2,2,2,2,2,2,2,2
18980000,1.9063009e-08,-3.5390258e-08,-1.4901161e-08,0.0,0.0,-5.9604645e-08,0,1,1,0,0,0,0,2,2,2,2,2,2,2,2,2,2,2,2
19180000,-1.740409e-08,1.5366822e-08,-1.7978891e-08,0.0,0.0,-5.9604645e-08,0,1,1,0,0,0,0,2,2,2,2,2,2,2,2,2,2,2,2
19380000,-3.7020072e-08,4.004687e-08,1.3154931e-08,0.0,0.0,0.0,0,1,1,0,0,0,0,2,2,2,2,2,2,2,2,2,2,2,2
19572000,1.2456439e-08,2.142042e-08,-1.0099029e-08,0.0,0.0,0.0,0,1,1,0,0,0,0,2,2,2,2,2,2,2,2,2,2,2,2
19780000,-1.8510036e-08,1.3504177e-08,-2.1391315e-09,0.0,0.0,-5.9604645e-08,0,1,1,0,0,0,0,2,2,2,2,2,2,2,2,2,2,2,2
19980000,-2.0605512e-08,1.5832484e-08,4.5496563e-08,0.0,0.0,0.0,0,1,1,0,0,0,0,2,2,2,2,2,2,2,2,2,2,2,2
20172000,-6.664777e-09,-5.448237e-08,1.929584e-08,0.0,0.0,0.0,0,1,1,0,0,0,0,2,2,2,2,2,2,2,2,2,2,2,2
20372000,-3.4226105e-08,2.5844201e-08,-1.5235855e-08,0.0,0.0,-5.9604645e-08,0,1,1,0,0,0,0,2,2,2,2,2,2,2,2,2,2,2,2
20572000,3.282912e-08,-3.632158e-08,-5.2823452e-09,0.0,0.0,0.0,0,1,1,0,0,0,0,2,2,2,2,2,2,2,2,2,2,2,2
20772000,2.7939677e-09,-1.9092113e-08,-1.1845259e-08,0.0,0.0,-5.9604645e-08,0,1,1,0,0,0,0,2,2,2,2,2,2,2,2,2,2,2,2
20980000,1.5366822e-08,8.614734e-09,3.958121e-09,0.0,0.0,-5.9604645e-08,0,1,1,0,0,0,0,2,2,2,2,2,2,2,2,2,2,2,2
21180000,8.032657e-09,8.614734e-09,-1.0128133e-08,0.0,0.0,0.0,0,1,1,0,0,0,0,2,2,2,2,2,2,2,2,2,2,2,2
21372000,1.5948899e-08,-8.8475645e-09,-6.7593646e-09,0.0,0.0,0.0,0,1,1,0,0,0,0,2,2,2,2,2,2,2,2,2,2,2,2
21572000,2.73576e-08,-4.4703484e-08,-2.9245712e-08,0.0,0.0,-5.9604645e-08,0,1,1,0,0,0,0,2,2,2,2,2,2,2,2,2,2,2,2
21780000,2.7939677e-09,3.259629e-09,1.3933459e-09,0.0,0.0,-5.9604645e-08,0,1,1,0,0,0,0,2,2,2,2,2,2,2,2,2,2,2,2
21980000,-6.1567334e-08,4.8894435e-09,3.1795935e-09,0.0,0.0,-5.9604645e-08,0,1,1,0,0,0,0,2,2,2,2,2,2,2,2,2,2,2,2
22172000,1.7462298e-09,-7.916242e-09,1.14087015e-08,0.0,0.0,0.0,0,1,1,0,0,0,0,2,2,2,2,2,2,2,2,2,2,2,2
22380000,1.1496013e-07,-1.7695129e-08,3.562309e-08,0.0,0.0,0.0,0,1,1,0,0,0,0,2,2,2,2,2,2,2,2,2,2,2,2
22580000,-1.7607817e-09,1.3969839e-08,1.132139e-08,0.0,0.0,0.0,0,1,1,0,0,0,0,2,2,2,2,2,2,2,2,2,2,2,2
22780000,2.636807e-08,-1.7695129e-08,-3.9872248e-09,0.0,0.0,-5.9604645e-08,0,1,1,0,0,0,0,2,2,2,2,2,2,2,2,2,2,2,2
22980000,-3.3520337e-08,2.6077032e-08,-1.46683306e-08,0.0,0.0,-5.9604645e-08,0,1,1,0,0,0,0,2,2,2,2,2,2,2,2,2,2,2,2
23180000,-1.5483238e-08,1.21071935e-08,-7.455583e-09,0.0,0.0,0.0,0,1,1,0,0,0,0,2,2,2,2,2,2,2,2,2,2,2,2
23380000,-5.122274e-09,3.259629e-09,-2.1158485e-08,0.0,0.0,-5.9604645e-08,0,1,1,0,0,0,0,2,2,2,2,2,2,2,2,2,2,2,2
23580000,3.2014214e-08,1.3504177e-08,2.681918e-08,0.0,0.0,-5.9604645e-08,0,1,1,0,0,0,0,2,2,2,2,2,2,2,2,2,2,2,2
23780000,1.2529199e-08,-1.071021e-08,-1.3613317e-08,0.0,0.0,0.0,0,1,1,0,0,0,0,2,2,2,2,2,2,2,2,2,2,2,2
23980000,1.8626451e-08,-1.1175871e-08,2.0581865e-08,0.0,0.0,5.9604645e-08,0,1,1,0,0,0,0,2,2,2,2,2,2,2,2,2,2,2,2
24180000,6.2864274e-09,-3.4924597e-08,5.2386895e-09,0.0,0.0,-5.9604645e-08,0,1,1,0,0,0,0,2,2,2,2,2,2,2,2,2,2,2,2
24380000,1.5716068e-09,-3.3993274e-08,5.0349627e-09,0.0,0.0,0.0,0,1,1,0,0,0,0,2,2,2,2,2,2,2,2,2,2,2,2
24580000,-4.278263e-08,-3.1664968e-08,3.2276148e-08,0.0,0.0,0.0,0,1,1,0,0,0,0,2,2,2,2,2,2,2,2,2,2,2,2
24772000,-1.7462298e-09,-2.0489097e-08,1.5716068e-08,0.0,0.0,-1.1920929e-07,0,1,1,0,0,0,0,2,2,2,2,2,2,2,2,2,2,2,2
24980000,3.533205e-08,2.8405339e-08,1.4551915e-09,0.0,0.0,0.0,0,1,1,0,0,0,0,2,2,2,2,2,2,2,2,2,2,2,2
25180000,-1.6472768e-08,-1.071021e-08,8.0035534e-10,0.0,0.0,0.0,0,1,1,0,0,0,0,2,2,2,2,2,2,2,2,2,2,2,2
25380000,5.122274e-09,2.188608e-08,5.7189027e-09,0.0,0.0,-5.9604645e-08,0,1,1,0,0,0,0,2,2,2,2,2,2,2,2,2,2,2,2
25580000,1.6618287e-08,7.916242e-09,2.9191142e-08,0.0,0.0,0.0,0,1,1,0,0,0,0,2,2,2,2,2,2,2,2,2,2,2,2
25780000,4.057074e-08,1.816079e-08,9.124051e-09,0.0,0.0,-5.9604645e-08,0,1,1,0,0,0,0,2,2,2,2,2,2,2,2,2,2,2,2
25980000,4.4179615e-08,4.1909516e-08,-5.7443685e-09,0.0,0.0,-5.9604645e-08,0,1,1,0,0,0,0,2,2,2,2,2,2,2,2,2,2,2,2
26180000,-4.848698e-08,3.7252903e-09,4.089088e-09,0.0,0.0,0.0,0,1,1,0,0,0,0,2,2,2,2,2,2,2,2,2,2,2,2
26380000,3.8999133e-08,-3.958121e-08,-9.1822585e-09,0.0,0.0,-5.9604645e-08,0,1,1,0,0,0,0,2,2,2,2,2,2,2,2,2,2,2,2
26572000,-2.1245796e-09,1.8626451e-08,1.33004505e-08,0.0,0.0,-5.9604645e-08,0,1,1,0,0,0,0,2,2,2,2,2,2,2,2,2,2,2,2
26772000,-4.3655746e-09,-3.9115548e-08,-1.6392733e-08,0.0,0.0,-5.9604645e-08,0,1,1,0,0,0,0,2,2,2,2,2,2,2,2,2,2,2,2
26980000,1.7447746e-08,-3.0733645e-08,2.401066e-09,0.0,0.0,0.0,0,1,1,0,0,0,0,2,2,2,2,2,2,2,2,2,2,2,2
27172000,-1.0491931e-08,1.9557774e-08,-1.281478e-08,0.0,0.0,0.0,0,1,1,0,0,0,0,2,2,2,2,2,2,2,2,2,2,2,2
27380000,5.500624e-08,5.122274e-09,1.7002094e-08,0.0,0.0,0.0,0,1,1,0,0,0,0,2,2,2,2,2,2,2,2,2,2,2,2
27580000,-1.3096724e-09,3.3527613e-08,1.9965228e-08,0.0,0.0,0.0,0,1,1,0,0,0,0,2,2,2,2,2,2,2,2,2,2,2,2
27780000,5.227048e-08,2.7474016e-08,9.589712e-09,0.0,0.0,0.0,0,1,1,0,0,0,0,2,2,2,2,2,2,2,2,2,2,2,2
27980000,-7.695053e-08,-2.7939677e-09,5.842594e-09,0.0,0.0,-5.9604645e-08,0,1,1,0,0,0,0,2,2,2,2,2,2,2,2,2,2,2,2
28172000,1.5483238e-08,-6.9849193e-09,-1.7491402e-08,0.0,0.0,-5.9604645e-08,0,1,1,0,0,0,0,2,2,2,2,2,2,2,2,2,2,2,2
28372000,1.7605998e-08,-8.8475645e-09,-1.6618287e-08,0.0,0.0,-5.9604645e-08,0,1,1,0,0,0,0,2,2,2,2,2,2,2,2,2,2,2,2
28572000,-2.0372681e-08,1.6763806e-08,1.34750735e-08,0.0,0.0,0.0,0,1,1,0,0,0,0,2,2,2,2,2,2,2,2,2,2,2,2
28780000,-1.7142156e-08,-3.958121e-08,-1.8946594e-08,0.0,0.0,-5.9604645e-08,0,1,1,0,0,0,0,2,2,2,2,2,2,2,2,2,2,2,2
28980000,-4.5401976e-09,-1.2805685e-08,1.1990778e-08,0.0,0.0,-5.9604645e-08,0,1,1,0,0,0,0,2,2,2,2,2,2,2,2,2,2,2,2
29172000,-6.078335e-08,4.1909516e-09,1.5825208e-08,0.0,0.0,0.0,0,1,1,0,0,0,0,2,2,2,2,2,2,2,2,2,2,2,2
29380000,2.3312168e-08,1.7462298e-08,-2.6309863e-08,0.0,0.0,0.0,0,1,1,0,0,0,0,2,2,2,2,2,2,2,2,2,2,2,2
29580000,2.3821485e-08,-3.1664968e-08,-4.2033207e-08,0.0,0.0,-5.9604645e-08,0,1,1,0,0,0,0,2,2,2,2,2,2,2,2,2,2,2,2
29780000,-1.18423486e-07,5.820766e-09,-1.3766112e-08,0.0,0.0,-5.9604645e-08,0,1,1,0,0,0,0,2,2,2,2,2,2,2,2,2,2,2,2
29980000,-1.5948899e-08,2.3283064e-09,-1.9383151e-08,0.0,0.0,-5.9604645e-08,0,1,1,0,0,0,0,2,2,2,2,2,2,2,2,2,2,2,2
30180000,3.1504896e-08,1.8626451e-09,-9.313226e-09,0.0,0.0,0.0,0,1,1,0,0,0,0,2,2,2,2,2,2,2,2,2,2,2,2
30380000,-2.2351742e-08,2.0954758e-08,-2.1733285e-08,0.0,0.0,-5.9604645e-08,0,1,1,0,0,0,0,2,2,2,2,2,2,2,2,2,2,2,2
30580000,1.9208528e-08,-1.7462298e-08,7.566996e-10,0.0,0.0,0.0,0,1,1,0,0,0,0,2,2,2,2,2,2,2,2,2,2,2,2
30780000,-7.572817e-08,-2.3050234e-08,2.3388566e-08,0.0,0.0,-5.9604645e-08,0,1,1,0,0,0,0,2,2,2,2,2,2,2,2,2,2,2,2
30980000,1.4784746e-08,2.2817403e-08,2.3923349e-08,0.0,0.0,0.0,0,1,1,0,0,0,0,2,2,2,2,2,2,2,2,2,2,2,2
31180000,-1.4784746e-08,-4.33065e-08,3.5652192e-10,0.0,0.0,-5.9604645e-08,0,1,1,0,0,0,0,2,2,2,2,2,2,2,2,2,2,2,2
31380000,-6.030314e-08,4.1909516e-09,3.7718564e-08,0.0,0.0,0.0,0,1,1,0,0,0,0,2,2,2,2,2,2,2,2,2,2,2,2
31580000,4.4266926e-08,-2.8405339e-08,5.2386895e-10,0.0,0.0,0.0,0,1,1,0,0,0,0,2,2,2,2,2,2,2,2,2,2,2,2
31780000,-1.2289092e-08,-7.450581e-09,-1.4464604e-08,0.0,0.0,-5.9604645e-08,0,1,1,0,0,0,0,2,2,2,2,2,2,2,2,2,2,2,2
31980000,-2.8521754e-08,-7.916242e-09,-3.6190613e-08,0.0,0.0,-5.9604645e-08,0,1,1,0,0,0,0,2,2,2,2,2,2,2,2,2,2,2,2
32180000,-4.575122e-08,8.381903e-09,-1.5643309e-08,0.0,0.0,-5.9604645e-08,0,1,1,0,0,0,0,2,2,2,2,2,2,2,2,2,2,2,2
32380000,4.566391e-08,4.284084e-08,-1.3969839e-09,0.0,0.0,0.0,0,1,1,0,0,0,0,2,2,2,2,2,2,2,2,2,2,2,2
32572000,3.9755832e-08,-1.7695129e-08,-1.4493708e-08,0.0,0.0,0.0,0,1,1,0,0,0,0,2,2,2,2,2,2,2,2,2,2,2,2
32772000,-6.512346e-08,-5.5879354e-09,-7.3341653e-09,0.0,0.0,0.0,0,1,1,0,0,0,0,2,2,2,2,2,2,2,2,2,2,2,2
32972000,7.005292e-08,5.820766e-09,-1.8780156e-08,0.0,0.0,0.0,0,1,1,0,0,0,0,2,2,2,2,2,2,2,2,2,2,2,2
33180000,8.20728e-09,4.0512532e-08,-1.033186e-08,0.0,0.0,0.0,0,1,1,0,0,0,0,2,2,2,2,2,2,2,2,2,2,2,2
33372000,-4.551839e-08,4.656613e-10,-1.382432e-09,0.0,0.0,0.0,0,1,1,0,0,0,0,2,2,2,2,2,2,2,2,2,2,2,2
33580000,1.6880222e-08,-1.0244548e-08,8.56835e-09,0.0,0.0,-5.9604645e-08,0,1,1,0,0,0,0,2,2,2,2,2,2,2,2,2,2,2,2
33780000,-5.982292e-08,-4.5867637e-08,-2.3457687e-08,0.0,0.0,0.0,0,1,1,0,0,0,0,2,2,2,2,2,2,2,2,2,2,2,2
33980000,2.9045623e-08,-1.2572855e-08,-2.462184e-08,0.0,0.0,-1.1920929e-07,0,1,1,0,0,0,0,2,2,2,2,2,2,2,2,2,2,2,2
34180000,3.306195e-08,1.3737008e-08,2.6397174e-08,0.0,0.0,-5.9604645e-08,0,1,1,0,0,0,0,2,2,2,2,2,2,2,2,2,2,2,2
34372000,2.8463546e-08,-3.8649887e-08,-1.2834789e-08,0.0,0.0,0.0,0,1,1,0,0,0,0,2,2,2,2,2,2,2,2,2,2,2,2
34580000,-5.7043508e-08,-1.1641532e-08,-1.3576937e-08,0.0,0.0,0.0,0,1,1,0,0,0,0,2,2,2,2,2,2,2,2,2,2,2,2
34780000,7.0901223e-09,4.656613e-09,-1.8859282e-08,0.0,0.0,0.0,0,1,1,0,0,0,0,2,2,2,2,2,2,2,2,2,2,2,2
34980000,-1.8277206e-08,-7.21775e-09,-6.8102963e-09,0.0,0.0,-5.9604645e-08,0,1,1,0,0,0,0,2,2,2,2,2,2,2,2,2,2,2,2
35180000,4.1734893e-08,1.21071935e-08,3.099558e-09,0.0,0.0,0.0,0,1,1,0,0,0,0,2,2,2,2,2,2,2,2,2,2,2,2
35380000,2.2206223e-08,1.094304e-08,4.4237822e-09,0.0,0.0,-5.9604645e-08,0,1,1,0,0,0,0,2,2,2,2,2,2,2,2,2,2,2,2
35580000,-1.792796e-08,-2.514571e-08,-1.2980308e-08,0.0,0.0,-5.9604645e-08,0,1,1,0,0,0,0,2,2,2,2,2,2,2,2,2,2,2,2
35780000,-4.0745363e-08,-6.7520887e-09,8.440111e-09,0.0,0.0,-5.9604645e-08,0,1,1,0,0,0,0,2,2,2,2,2,2,2,2,2,2,2,2
35972000,-3.4517143e-08,2.0489097e-08,9.19681e-09,0.0,0.0,-5.9604645e-08,0,1,1,0,0,0,0,2,2,2,2,2,2,2,2,2,2,2,2
36180000,-5.026959e-08,2.3283064e-09,1.9632353e-08,0.0,0.0,-5.9604645e-08,0,1,1,0,0,0,0,2,2,2,2,2,2,2,2,2,2,2,2
36380000,-3.3149263e-08,3.1199306e-08,2.3894245e-08,0.0,0.0,-5.9604645e-08,0,1,1,0,0,0,0,2,2,2,2,2,2,2,2,2,2,2,2
36580000,2.4330802e-08,1.839362e-08,5.4005795e-09,0.0,0.0,0.0,0,1,1,0,0,0,0,2,2,2,2,2,2,2,2,2,2,2,2
36772000,4.55766e-08,-1.3969839e-09,5.2241376e-09,0.0,0.0,-5.9604645e-08,0,1,1,0,0,0,0,2,2,2,2,2,2,2,2,2,2,2,2
36980000,-5.47152e-09,4.656613e-10,1.6301783e-08,0.0,0.0,-5.9604645e-08,0,1,1,0,0,0,0,2,2,2,2,2,2,2,2,2,2,2,2
37180000,-1.0913936e-09,2.188608e-08,3.1723175e-09,0.0,0.0,-5.9604645e-08,0,1,1,0,0,0,0,2,2,2,2,2,2,2,2,2,2,2,2
37380000,2.1944288e-08,2.514571e-08,-1.0992608e-08,0.0,0.0,-5.9604645e-08,0,1,1,0,0,0,0,2,2,2,2,2,2,2,2,2,2,2,2
37580000,4.8195943e-08,-1.8626451e-08,-1.5133992e-08,0.0,0.0,-5.9604645e-08,0,1,1,0,0,0,0,2,2,2,2,2,2,2,2,2,2,2,2
37780000,-2.863817e-08,-2.6775524e-08,-2.8117029e-09,0.0,0.0,0.0,0,1,1,0,0,0,0,2,2,2,2,2,2,2,2,2,2,2,2
37972000,2.5913323e-08,1.816079e-08,2.9758667e-09,0.0,0.0,-5.9604645e-08,0,1,1,0,0,0,0,2,2,2,2,2,2,2,2,2,2,2,2
38180000,1.7229468e-08,1.5774276e-08,2.6564521e-08,0.0,0.0,0.0,0,1,1,0,0,0,0,2,2,2,2,2,2,2,2,2,2,2,2
38380000,8.35862e-08,1.5832484e-08,-7.858034e-09,0.0,0.0,0.0,0,1,1,0,0,0,0,2,2,2,2,2,2,2,2,2,2,2,2
38580000,8.579809e-08,-1.0477379e-08,-1.14087015e-08,0.0,0.0,-5.9604645e-08,0,1,1,0,0,0,0,2,2,2,2,2,2,2,2,2,2,2,2
38772000,8.643838e-08,9.313226e-10,-3.1257514e-08,0.0,0.0,0.0,0,1,1,0,0,0,0,2,2,2,2,2,2,2,2,2,2,2,2
38980000,-2.9569492e-08,-7.21775e-09,7.741619e-09,0.0,0.0,0.0,0,1,1,0,0,0,0,2,2,2,2,2,2,2,2,2,2,2,2
39180000,-5.3842086e-09,3.608875e-08,-1.6989361e-08,0.0,0.0,-5.9604645e-08,0,1,1,0,0,0,0,2,2,2,2,2,2,2,2,2,2,2,2
39380000,-2.6935595e-08,1.9324943e-08,5.7516445e-09,0.0,0.0,0.0,0,1,1,0,0,0,0,2,2,2,2,2,2,2,2,2,2,2,2
39580000,-1.736771e-08,-4.656613e-09,2.5262125e-08,0.0,0.0,0.0,0,1,1,0,0,0,0,2,2,2,2,2,2,2,2,2,2,2,2
39772000,1.1954398e-08,-1.816079e-08,7.959898e-09,0.0,0.0,0.0,0,1,1,0,0,0,0,2,2,2,2,2,2,2,2,2,2,2,2
39980000,-4.0745363e-09,9.778887e-09,-2.8521754e-09,0.0,0.0,0.0,0,1,1,0,0,0,0,2,2,2,2,2,2,2,2,2,2,2,2
40180000,4.0745363e-08,9.778887e-09,-2.269735e-08,0.0,0.0,0.0,0,1,1,0,0,0,0,2,2,2,2,2,2,2,2,2,2,2,2
40380000,-4.749745e-08,8.381903e-09,9.400537e-09,0.0,0.0,-5.9604645e-08,0,1,1,0,0,0,0,2,2,2,2,2,2,2,2,2,2,2,2
40580000,9.220821e-08,6.519258e-09,8.032657e-09,0.0,0.0,-5.9604645e-08,0,1,1,0,0,0,0,2,2,2,2,2,2,2,2,2,2,2,2
40780000,6.373739e-09,-1.9557774e-08,3.2305252e-09,0.0,0.0,0.0,0,1,1,0,0,0,0,2,2,2,2,2,2,2,2,2,2,2,2
40972000,-8.680945e-08,-3.1664968e-08,2.1245796e-09,0.0,0.0,-5.9604645e-08,0,1,1,0,0,0,0,2,2,2,2,2,2,2,2,2,2,2,2
41180000,3.0267984e-08,-1.7229468e-08,-9.138603e-09,0.0,0.0,0.0,0,1,1,0,0,0,0,2,2,2,2,2,2,2,2,2,2,2,2
41372000,-2.8288923e-08,-2.0023435e-08,-1.3831595e-08,0.0,0.0,0.0,0,1,1,0,0,0,0,2,2,2,2,2,2,2,2,2,2,2,2
41580000,-3.5972334e-08,-5.5879354e-09,2.375964e-08,0.0,0.0,0.0,0,1,1,0,0,0,0,2,2,2,2,2,2,2,2,2,2,2,2
41772000,-2.339948e-08,-3.4458935e-08,-1.542503e-09,0.0,0.0,-5.9604645e-08,0,1,1,0,0,0,0,2,2,2,2,2,2,2,2,2,2,2,2
41980000,3.3702236e-08,2.2351742e-08,5.144102e-09,0.0,0.0,5.9604645e-08,0,1,1,0,0,0,0,2,2,2,2,2,2,2,2,2,2,2,2
42172000,2.4485416e-08,1.839362e-08,-9.516953e-09,0.0,0.0,0.0,0,1,1,0,0,0,0,2,2,2,2,2,2,2,2,2,2,2,2
42372000,6.4028427e-09,1.8626451e-08,5.2386895e-10,0.0,0.0,-1.1920929e-07,0,1,1,0,0,0,0,2,2,2,2,2,2,2,2,2,2,2,2
42572000,-3.259629e-09,-1.071021e-08,-4.964022e-09,0.0,0.0,0.0,0,1,1,0,0,0,0,2,2,2,2,2,2,2,2,2,2,2,2
42780000,2.0954758e-09,2.7939677e-09,6.664777e-09,0.0,0.0,0.0,0,1,1,0,0,0,0,2,2,2,2,2,2,2,2,2,2,2,2
42980000,1.1186785e-08,-1.7695129e-08,5.84987e-09,0.0,0.0,-5.9604645e-08,0,1,1,0,0,0,0,2,2,2,2,2,2,2,2,2,2,2,2
43172000,-2.2613676e-08,2.863817e-08,1.44355e-08,0.0,0.0,-1.1920929e-07,0,1,1,0,0,0,0,2,2,2,2,2,2,2,2,2,2,2,2
43372000,-2.2933818e-08,1.1175871e-08,-1.36496965e-08,0.0,0.0,-5.9604645e-08,0,1,1,0,0,0,0,2,2,2,2,2,2,2,2,2,2,2,2
43580000,1.9557774e-08,-4.656613e-08,1.7462298e-09,0.0,0.0,-5.9604645e-08,0,1,1,0,0,0,0,2,2,2,2,2,2,2,2,2,2,2,2
43780000,3.8999133e-09,1.3737008e-08,6.490154e-09,0.0,0.0,-5.9604645e-08,0,1,1,0,0,0,0,2,2,2,2,2,2,2,2,2,2,2,2
43972000,1.1874363e-08,-2.4912879e-08,-7.3341653e-09,0.0,0.0,-5.9604645e-08,0,1,1,0,0,0,0,2,2,2,2,2,2,2,2,2,2,2,2
44180000,5.2532414e-08,-9.778887e-09,3.7718564e-08,0.0,0.0,0.0,0,1,1,0,0,0,0,2,2,2,2,2,2,2,2,2,2,2,2
44380000,-4.9942173e-08,-1.0244548e-08,-1.5665137e-08,0.0,0.0,0.0,0,1,1,0,0,0,0,2,2,2,2,2,2,2,2,2,2,2,2
44572000,-4.8661605e-08,8.381903e-09,4.773028e-09,0.0,0.0,0.0,0,1,1,0,0,0,0,2,2,2,2,2,2,2,2,2,2,2,2
44772000,-2.9214789e-08,-2.2817403e-08,2.2846507e-08,0.0,0.0,0.0,0,1,1,0,0,0,0,2,2,2,2,2,2,2,2,2,2,2,2
44980000,-3.1956006e-08,-3.0733645e-08,-5.2532414e-09,0.0,0.0,0.0,0,1,1,0,0,0,0,2,2,2,2,2,2,2,2,2,2,2,2
45180000,-1.8626451e-09,1.7695129e-08,-1.3329554e-08,0.0,0.0,-5.9604645e-08,0,1,1,0,0,0,0,2,2,2,2,2,2,2,2,2,2,2,2
45380000,2.7939677e-08,4.656613e-09,-3.085006e-09,0.0,0.0,0.0,0,1,1,0,0,0,0,2,2,2,2,2,2,2,2,2,2,2,2
45580000,-3.5390258e-08,-5.5879354e-09,-9.95351e-09,0.0,0.0,0.0,0,1,1,0,0,0,0,2,2,2,2,2,2,2,2,2,2,2,2
45780000,-3.3527613e-08,2.7939677e-09,-4.8894435e-09,0.0,0.0,-2.9802322e-08,0,1,1,0,0,0,0,2,2,2,2,2,2,2,2,2,2,2,2
45980000,-1.4901161e-08,1.3038516e-08,1.9092113e-08,0.0,0.0,-2.9802322e-08,0,1,1,0,0,0,0,2,2,2,2,2,2,2,2,2,2,2,2
46180000,-1.4901161e-08,-9.313226e-09,5.0640665e-09,0.0,0.0,-1.4901161e-08,0,1,1,0,0,0,0,2,2,2,2,2,2,2,2,2,2,2,2
46380000,-1.4901161e-08,1.8626451e-09,2.2118911e-09,0.0,0.0,-1.4901161e-08,0,1,1,0,0,0,0,2,2,2,2,2,2,2,2,2,2,2,2
46580000,-2.2351742e-08,-3.7252903e-09,3.259629e-09,0.0,0.0,-1.4901161e-08,0,1,1,0,0,0,0,2,2,2,2,2,2,2,2,2,2,2,2
46780000,-2.2351742e-08,5.5879354e-09,8.1490725e-10,0.0,0.0,-7.450581e-09,0,1,1,0,0,0,0,2,2,2,2,2,2,2,2,2,2,2,2
46980000,0.0,3.7252903e-09,3.8417056e-09,0.0,0.0,-1.4901161e-08,0,1,1,0,0,0,0,2,2,2,2,2,2,2,2,2,2,2,2
47180000,-7.450581e-09,0.0,2.910383e-09,0.0,0.0,-1.4901161e-08,0,1,1,0,0,0,0,2,2,2,2,2,2,2,2,2,2,2,2
47380000,-1.4901161e-08,-3.7252903e-09,4.0745363e-09,0.0,0.0,-1.4901161e-08,0,1,1,0,0,0,0,2,2,2,2,2,2,2,2,2,2,2,2
47572000,-7.450581e-09,-3.7252903e-09,7.683411e-09,0.0,0.0,-7.450581e-09,0,1,1,0,0,0,0,2,2,2,2,2,2,2,2,2,2,2,2
47780000,-1.4901161e-08,0.0,-3.0267984e-09,0.0,0.0,-7.450581e-09,0,1,1,0,0,0,0,2,2,2,2,2,2,2,2,2,2,2,2
47980000,-1.4901161e-08,0.0,1.8626451e-09,0.0,0.0,-7.450581e-09,0,1,1,0,0,0,0,2,2,2,2,2,2,2,2,2,2,2,2
48180000,-1.4901161e-08,7.450581e-09,-2.3283064e-09,0.0,0.0,0.0,0,1,1,0,0,0,0,2,2,2,2,2,2,2,2,2,2,2,2
48380000,-1.4901161e-08,3.7252903e-09,1.8626451e-09,0.0,0.0,0.0,0,1,1,0,0,0,0,2,2,2,2,2,2,2,2,2,2,2,2
48572000,-1.4901161e-08,7.450581e-09,6.7520887e-09,0.0,0.0,-7.450581e-09,0,1,1,0,0,0,0,2,2,2,2,2,2,2,2,2,2,2,2
48772000,-1.4901161e-08,0.0,3.7252903e-09,0.0,0.0,-1.4901161e-08,0,1,1,0,0,0,0,2,2,2,2,2,2,2,2,2,2,2,2
48980000,-1.4901161e-08,0.0,5.5879354e-09,0.0,0.0,-7.450581e-09,0,1,1,0,0,0,0,2,2,2,2,2,2,2,2,2,2,2,2
49172000,-2.9802322e-08,0.0,6.9849193e-09,0.0,0.0,0.0,0,1,1,0,0,0,0,2,2,2,2,2,2,2,2,2,2,2,2
49380000,-1.4901161e-08,-7.450581e-09,9.313226e-09,0.0,0.0,0.0,0,1,1,0,0,0,0,2,2,2,2,2,2,2,2,2,2,2,2
49580000,0.009494275,0.0,9.546056e-09,0.0,0.0,-7.450581e-09,0,0,1,0,0,0,0,2,2,2,2,2,2,2,2,2,2,2,2
49780000,0.018707126,7.450581e-09,4.656613e-09,0.0,0.0,0.0,0,0,1,0,0,0,0,2,2,2,2,2,2,2,2,2,2,2,2
49980000,0.015464425,0.0,1.14087015e-08,0.0,0.0,0.0,0,0,1,0,0,0,0,2,2,2,2,2,2,2,2,2,2,2,2
50172000,0.019965798,0.0,1.0244548e-08,0.0,0.0,-7.450581e-09,0,0,1,0,0,0,0,2,2,2,2,2,2,2,2,2,2,2,2
50380000,0.14528355,0.07970243,-0.0024639023,0.0,0.0,1.1641532e-10,0,0,1,0,-2,0,-2,2,2,2,2,2,2,2,2,2,2,2,2
50580000,0.14483246,0.0791333,-0.0027314292,0.0,0.0,3.8417056e-09,0,0,1,0,-2,0,-2,2,2,2,2,2,2,2,2,2,2,2,2
50780000,0.14513315,0.08038303,-0.0029114163,0.0,0.0,-1.7462298e-09,0,0,1,0,-2,0,-2,2,2,2,2,2,2,2,2,2,2,2,2
50980000,0.14535907,0.0808411,-0.0029425593,0.0,0.0,4.773028e-09,0,0,1,0,-2,0,-2,2,2,2,2,2,2,2,2,2,2,2,2
51180000,0.1452194,0.07911957,-0.0028735755,0.0,0.0,3.8417056e-09,0,0,1,0,-2,0,-2,2,2,2,2,2,2,2,2,2,2,2,2
51372000,0.14635041,0.07888926,-0.0024861202,0.0,0.0,3.8417056e-09,0,0,1,0,-2,0,-2,2,2,2,2,2,2,2,2,2,2,2,2
51580000,0.14592306,0.079008475,-0.0025137018,0.0,0.0,1.1641532e-10,0,0,1,0,-2,0,-2,2,2,2,2,2,2,2,2,2,2,2,2
51772000,0.14496344,0.08031644,-0.0028796915,0.0,0.0,3.8417056e-09,0,0,1,0,-2,0,-2,2,2,2,2,2,2,2,2,2,2,2,2
51980000,0.1443491,0.079012044,-0.0028687792,0.0,0.0,1.1641532e-10,0,0,1,0,-2,0,-2,2,2,2,2,2,2,2,2,2,2,2,2
52180000,0.14538759,0.081058815,-0.0025981488,0.0,0.0,1.9790605e-09,0,0,1,0,-2,0,-2,2,2,2,2,2,2,2,2,2,2,2,2
52380000,0.013170737,0.01854329,5.1681393e-05,0.0,0.0,1.1641532e-10,0,0,1,0,-2,0,-2,2,2,2,2,2,2,2,2,2,2,2,2
52580000,0.01424792,0.018597748,0.00024241948,0.0,0.0,-2.3283064e-10,0,0,1,0,-2,0,-2,2,2,2,2,2,2,2,2,2,2,2,2
52780000,0.013889148,0.019644216,-8.8764195e-05,0.0,0.0,1.1641532e-10,0,0,1,0,-2,0,-2,2,2,2,2,2,2,2,2,2,2,2,2
52980000,0.014462125,0.017207596,2.6515912e-05,0.0,0.0,1.1641532e-10,0,0,1,0,-2,0,-2,2,2,2,2,2,2,2,2,2,2,2,2
53172000,0.013794963,0.018363126,-1.42088165e-05,0.0,0.0,3.4924597e-10,0,0,1,0,-2,0,-2,2,2,2,2,2,2,2,2,2,2,2,2
