timestamp,timestamp_sample,ref_timestamp,ref_lat,ref_lon,x,y,z,delta_xy[0],delta_xy[1],delta_z,vx,vy,vz,z_deriv,delta_vxy[0],delta_vxy[1],delta_vz,ax,ay,az,heading,delta_heading,ref_alt,dist_bottom,eph,epv,evh,evv,vxy_max,vz_max,hagl_min,hagl_max,xy_valid,z_valid,v_xy_valid,v_z_valid,xy_reset_counter,z_reset_counter,vxy_reset_counter,vz_reset_counter,heading_reset_counter,heading_good_for_control,xy_global,z_global,dist_bottom_valid,dist_bottom_sensor_bitfield,dead_reckoning
3180000,3180000,0,nan,nan,1.8674855e-05,4.2209464e-05,-0.00077244325,-5.1371288e-08,1.2035016e-08,0.0,0.00024109054,0.0007515819,-0.015228236,-0.016907182,-8.561881e-06,2.005836e-06,0.0018587112,-0.016576828,-0.00753373,-0.141046,-6.0625942e-05,0.0,nan,0.1,14.172738,10.008659,7.0740194,3.1623116,inf,inf,inf,inf,0,0,0,0,1,1,1,1,0,0,0,0,0,0,1
3188000,3188000,0,nan,nan,1.8713852e-05,4.755167e-05,-0.0008655274,-5.1371288e-08,1.2035016e-08,0.0,0.00021011419,0.0006380206,-0.016278489,-0.017867846,-8.561881e-06,2.005836e-06,0.0018587112,0.008123038,-0.015108525,-0.14875455,-6.395733e-05,0.0,nan,0.10235677,14.142143,10.0,0.001953125,0.001,inf,inf,inf,inf,0,0,0,0,1,1,1,1,0,0,0,0,0,0,1
3196000,3196000,0,nan,nan,1.9192654e-05,5.1834788e-05,-0.00096348143,-5.1371288e-08,1.2035016e-08,0.0,0.0003081527,0.00051834853,-0.017246727,-0.018737549,-8.561881e-06,2.005836e-06,0.0018587112,0.0035172997,-0.01128242,-0.12380443,-6.542034e-05,0.0,nan,0.10244882,14.142143,10.0,0.012939398,0.004189488,inf,inf,inf,inf,0,0,0,0,1,1,1,1,0,0,0,0,0,0,1
3204000,3204000,0,nan,nan,-5.3851352e-05,4.056306e-05,0.0005904773,-5.1371288e-08,1.2035016e-08,0.0,0.00020657695,0.00048573833,-0.013534252,-0.01957922,-8.561881e-06,2.005836e-06,0.0018587112,0.01649893,-0.004612695,-0.13803783,1.6125408,0.0,nan,0.10087913,14.142143,10.0,0.02459742,0.006484697,inf,inf,inf,inf,0,0,0,0,1,1,1,1,0,0,0,0,0,0,1
3212000,3212000,0,nan,nan,-5.1581028e-05,4.505153e-05,0.00047944416,-5.1371288e-08,1.2035016e-08,0.0,0.00038167456,0.0006742734,-0.014568526,-0.02040908,-8.561881e-06,2.005836e-06,0.0018587112,0.023525717,0.025598535,-0.12439954,1.6125361,0.0,nan,0.10096716,14.142143,10.0,0.03351794,0.008631224,inf,inf,inf,inf,0,0,0,0,1,1,1,1,0,0,0,0,0,0,1
3220000,3220000,0,nan,nan,-4.7739366e-05,5.1511888e-05,0.00036082935,-5.1371288e-08,1.2035016e-08,0.0,0.0006150806,0.0009875663,-0.015728276,-0.021359995,-8.561881e-06,2.005836e-06,0.0018587112,0.036904484,0.04162306,-0.16209948,1.6125153,0.0,nan,0.101054855,14.142143,10.0,0.043807924,0.010718917,inf,inf,inf,inf,0,0,0,0,1,1,1,1,0,0,0,0,0,0,1
3228000,3228000,0,nan,nan,-4.178994e-05,6.0707287e-05,0.00023324614,-5.1371288e-08,1.2035016e-08,0.0,0.00085597206,0.0013413846,-0.016939875,-0.022360725,-8.561881e-06,2.005836e-06,0.0018587112,0.02234896,0.042159617,-0.14560668,1.6125026,0.0,nan,0.10114212,14.142143,10.0,0.054702725,0.012776561,inf,inf,inf,inf,0,0,0,0,1,1,1,1,0,0,0,0,0,0,1
3236000,3236000,0,nan,nan,-3.499491e-05,7.217915e-05,9.7519405e-05,-5.1371288e-08,1.2035016e-08,0.0,0.00086166384,0.0015896667,-0.01798132,-0.023191128,-8.561881e-06,2.005836e-06,0.0018587112,-0.0016713892,0.037258502,-0.121035606,1.6124966,0.0,nan,0.10122769,14.142143,10.0,0.0659134,0.01481674,inf,inf,inf,inf,0,0,0,0,1,1,1,1,0,0,0,0,0,0,1
3244000,3244000,0,nan,nan,-2.7989869e-05,8.614829e-05,-4.5252735e-05,-5.1371288e-08,1.2035016e-08,0.0,0.0009475619,0.0019205675,-0.019005263,-0.024005288,-8.561881e-06,2.005836e-06,0.0018587112,0.013546246,0.030145383,-0.13649556,1.6125039,0.0,nan,0.101311065,14.142143,10.0,0.07727899,0.016845843,inf,inf,inf,inf,0,0,0,0,1,1,1,1,0,0,0,0,0,0,1
3252000,3252000,0,nan,nan,-2.1099582e-05,0.00010088335,-0.00019546472,-5.1371288e-08,1.2035016e-08,0.0,0.0008529845,0.0018441748,-0.020071559,-0.02486416,-8.561881e-06,2.005836e-06,0.0018587112,-0.01210044,-0.010217903,-0.13914424,1.6125047,0.0,nan,0.101392835,14.142143,10.0,0.088784106,0.0188674,inf,inf,inf,inf,0,0,0,0,1,1,1,1,0,0,0,0,0,0,1
3260000,3260000,0,nan,nan,-1.4477582e-05,0.00011592398,-0.00035291517,-5.1371288e-08,1.2035016e-08,0.0,0.0009564707,0.0020340374,-0.020989243,-0.025577603,-8.561881e-06,2.005836e-06,0.0018587112,0.023901666,0.030092267,-0.100381665,1.6125039,0.0,nan,0.101472236,14.142143,10.0,0.100372516,0.020883612,inf,inf,inf,inf,0,0,0,0,1,1,1,1,0,0,0,0,0,0,1
3268000,3268000,0,nan,nan,-6.234856e-06,0.00013228417,-0.0005154538,-5.1371288e-08,1.2035016e-08,0.0,0.0011739054,0.0021852348,-0.021695433,-0.02608335,-8.561881e-06,2.005836e-06,0.0018587112,0.01230069,0.023710351,-0.0947751,1.6125141,0.0,nan,0.101547375,14.142142,10.0,0.11201866,0.022895955,inf,inf,inf,inf,0,0,0,0,1,1,1,1,0,0,0,0,0,0,1
3276000,3276000,0,nan,nan,1.8937048e-06,0.00015030341,-0.0006836719,-5.1371288e-08,1.2035016e-08,0.0,0.0010306948,0.0024231586,-0.022684857,-0.026876573,-8.561881e-06,2.005836e-06,0.0018587112,-0.009655806,0.025098298,-0.13468972,1.6125096,0.0,nan,0.10161933,14.142142,10.0,0.1237069,0.024905391,inf,inf,inf,inf,0,0,0,0,1,1,1,1,0,0,0,0,0,0,1
3284000,3284000,0,nan,nan,1.0434948e-05,0.00017018517,-0.0008640999,-5.1371288e-08,1.2035016e-08,0.0,0.0012431644,0.002615787,-0.02388876,-0.02785584,-8.561881e-06,2.005836e-06,0.0018587112,0.029123504,0.01996607,-0.15203467,1.6124945,0.0,nan,0.10169501,14.142142,10.0,0.13543713,0.02691256,inf,inf,inf,inf,0,0,0,0,1,1,1,1,0,0,0,0,0,0,1
3292000,3292000,0,nan,nan,2.0787875e-05,0.00019114562,-0.001054274,-5.1371288e-08,1.2035016e-08,0.0,0.0014833715,0.002703111,-0.025012748,-0.028760731,-8.561881e-06,2.005836e-06,0.0018587112,0.032724503,0.012632968,-0.124604434,1.6124992,0.0,nan,0.10177202,14.142142,10.0,0.1472066,0.028917965,inf,inf,inf,inf,0,0,0,0,1,1,1,1,0,0,0,0,0,0,1
3300000,3300000,0,nan,nan,3.253011e-05,0.0002129176,-0.0012526606,-5.1371288e-08,1.2035016e-08,0.0,0.0015386126,0.0027954816,-0.025976835,-0.029511407,-8.561881e-06,2.005836e-06,0.0018587112,-0.0031356465,0.010255578,-0.1241574,1.6125063,0.0,nan,0.10184836,14.142142,10.0,0.15902984,0.030921998,inf,inf,inf,inf,0,0,0,0,1,1,1,1,0,0,0,0,0,0,1
3308000,3308000,0,nan,nan,4.384554e-05,0.00023549392,-0.0014597045,-5.1371288e-08,1.2035016e-08,0.0,0.0013992818,0.002899696,-0.027135462,-0.030462392,-8.561881e-06,2.005836e-06,0.0018587112,-0.022101885,0.012729898,-0.14841555,1.612511,0.0,nan,0.10192376,14.142142,10.0,0.17089407,0.03292492,inf,inf,inf,inf,0,0,0,0,1,1,1,1,0,0,0,0,0,0,1
3316000,3316000,0,nan,nan,5.4247117e-05,0.0002587519,-0.0016765934,-5.1371288e-08,1.2035016e-08,0.0,0.0013772013,0.0029557634,-0.028345216,-0.0314703,-8.561881e-06,2.005836e-06,0.0018587112,0.009195922,0.0060466114,-0.14199968,1.6125206,0.0,nan,0.10199988,14.142142,10.0,0.18276562,0.034926828,inf,inf,inf,inf,0,0,0,0,1,1,1,1,0,0,0,0,0,0,1
3324000,3324000,0,nan,nan,6.546488e-05,0.00028286816,-0.001902339,-5.1371288e-08,1.2035016e-08,0.0,0.0015248692,0.003095507,-0.029324055,-0.032253068,-8.561881e-06,2.005836e-06,0.0018587112,0.010885647,0.012795062,-0.117857,1.6125225,0.0,nan,0.102076486,14.142142,10.0,0.19466585,0.036928006,inf,inf,inf,inf,0,0,0,0,1,1,1,1,0,0,0,0,0,0,1
3332000,3332000,0,nan,nan,7.68351e-05,0.0003076555,-0.0021365134,-5.1371288e-08,1.2035016e-08,0.0,0.0014764512,0.0031699836,-0.03047535,-0.03321402,-8.561881e-06,2.005836e-06,0.0018587112,0.0017665151,0.017264565,-0.15625542,1.6125348,0.0,nan,0.10215305,14.142143,10.0,0.2066014,0.038928278,inf,inf,inf,inf,0,0,0,0,1,1,1,1,0,0,0,0,0,0,1
3340000,3340000,0,nan,nan,8.794193e-05,0.00033389556,-0.0023808635,-5.1371288e-08,1.2035016e-08,0.0,0.0013353605,0.0034401584,-0.031699877,-0.03425386,-8.561881e-06,2.005836e-06,0.0018587112,-0.040146243,0.03793812,-0.13381241,1.6125464,0.0,nan,0.102231756,14.142144,10.0,0.21854632,0.04092816,inf,inf,inf,inf,0,0,0,0,1,1,1,1,0,0,0,0,0,0,1
3348000,3348000,0,nan,nan,9.700299e-05,0.00036216358,-0.002634075,-5.1371288e-08,1.2035016e-08,0.0,0.0011660517,0.0036285974,-0.032744348,-0.03511922,-8.561881e-06,2.005836e-06,0.0018587112,0.006374073,0.016131947,-0.1358455,1.6125466,0.0,nan,0.102312736,14.142145,10.0,0.23049091,0.04292757,inf,inf,inf,inf,0,0,0,0,1,1,1,1,0,0,0,0,0,0,1
3356000,3356000,0,nan,nan,0.0001065021,0.00039159524,-0.0028957548,-5.1371288e-08,1.2035016e-08,0.0,0.0012897861,0.003752536,-0.03369805,-0.03589928,-8.561881e-06,2.005836e-06,0.0018587112,0.004714573,0.01333354,-0.10600965,1.612554,0.0,nan,0.1023953,14.142146,10.0,0.24250434,0.044926554,inf,inf,inf,inf,0,0,0,0,1,1,1,1,0,0,0,0,0,0,1
3364000,3364000,0,nan,nan,0.00011650092,0.0004166101,-0.003153609,-5.1371288e-08,1.2035016e-08,0.0,0.0012138784,0.003890281,-0.034501467,-0.036523614,-8.561881e-06,2.005836e-06,0.0018587112,-0.02109019,0.026708467,-0.099002376,1.6125474,0.0,nan,0.10280388,0.014084185,7.071068,0.2545742,0.046925228,inf,inf,inf,inf,0,0,0,0,1,1,1,1,0,0,0,0,0,0,1
3372000,3372000,0,nan,nan,0.00012461125,0.00044387262,-0.0034185436,-5.1371288e-08,1.2035016e-08,0.0,0.00091396755,0.00425116,-0.035370372,-0.037219055,-8.561881e-06,2.005836e-06,0.0018587112,-0.025340674,0.04741159,-0.11176243,1.6125523,0.0,nan,0.10287182,0.01429908,7.071068,0.26666284,0.04892356,inf,inf,inf,inf,0,0,0,0,1,1,1,1,0,0,0,0,0,0,1
3380000,3380000,0,nan,nan,0.00013194793,0.00047382186,-0.0036910714,-5.1371288e-08,1.2035016e-08,0.0,0.001017264,0.0045031398,-0.036252934,-0.037933644,-8.561881e-06,2.005836e-06,0.0018587112,0.023470856,0.027038097,-0.10534468,1.6125438,0.0,nan,0.102939166,0.01496281,7.071068,0.27875826,0.05092159,inf,inf,inf,inf,0,0,0,0,1,1,1,1,0,0,0,0,0,0,1
3388000,3388000,0,nan,nan,0.00014099336,0.00050538126,-0.0039712274,-5.1371288e-08,1.2035016e-08,0.0,0.0012623754,0.0046210806,-0.037183527,-0.038701624,-8.561881e-06,2.005836e-06,0.0018587112,0.020864535,0.009562849,-0.11540576,1.6125518,0.0,nan,0.10300581,0.016073871,7.071068,0.29091185,0.052919358,inf,inf,inf,inf,0,0,0,0,1,1,1,1,0,0,0,0,0,0,1
3396000,3396000,0,nan,nan,0.00014968483,0.00053455704,-0.0041892873,-5.1371288e-08,1.2035016e-08,0.0,0.0013026678,0.0045993226,-0.037143875,-0.03834714,-8.561881e-06,2.005836e-06,0.0018587112,0.011085052,0.010451913,-0.1107864,1.6125488,0.0,nan,0.10517395,0.014086806,7.071067,0.0016233922,0.0010414054,inf,inf,inf,inf,0,0,0,0,1,1,1,1,0,0,0,0,0,0,1
3404000,3404000,0,nan,nan,0.00015804966,0.0005630535,-0.004399284,-5.1371288e-08,1.2035016e-08,0.0,0.0012729304,0.0045766467,-0.036391098,-0.037286237,-8.561881e-06,2.005836e-06,0.0018587112,0.0058809086,0.008016548,-0.015101395,1.6125425,0.0,nan,0.10538325,0.014086878,7.071067,0.0053487853,0.003597835,inf,inf,inf,inf,0,0,0,0,1,1,1,1,0,0,0,0,0,0,1
3412000,3412000,0,nan,nan,0.00016663824,0.00059024873,-0.004598095,-5.1371288e-08,1.2035016e-08,0.0,0.0014329852,0.004429199,-0.03564536,-0.036238946,-8.561881e-06,2.005836e-06,0.0018587112,0.029016124,-0.0031195667,-0.024324281,1.6125406,0.0,nan,0.10557951,0.014086933,7.071067,0.007823551,0.00505919,inf,inf,inf,inf,0,0,0,0,1,1,1,1,0,0,0,0,0,0,1
3420000,3420000,0,nan,nan,0.00017611208,0.0006165955,-0.0047860406,-5.1371288e-08,1.2035016e-08,0.0,0.0015210334,0.004475078,-0.034913562,-0.035212044,-8.561881e-06,2.005836e-06,0.0018587112,0.0063911425,0.013184456,-0.014593824,1.6167221,0.004199269,nan,0.10576208,0.014087177,7.071067,0.010071957,0.006248037,inf,inf,inf,inf,0,0,0,0,1,1,1,1,1,0,0,0,0,0,1
3428000,3428000,0,nan,nan,0.00018563625,0.00064204773,-0.004962937,-5.1371288e-08,1.2035016e-08,0.0,0.0015996401,0.0043895566,-0.034231137,-0.034240823,-8.561881e-06,2.005836e-06,0.0018587112,0.024874227,0.005913578,-0.03340188,1.6166916,0.004199269,nan,0.1059312,0.014087883,7.071067,0.0120274685,0.0072988044,inf,inf,inf,inf,0,0,0,0,1,1,1,1,1,0,0,0,0,0,1
3436000,3436000,0,nan,nan,0.0001958417,0.0006668906,-0.005129176,-5.1371288e-08,1.2035016e-08,0.0,0.0017212506,0.0044851126,-0.033551265,-0.033278335,-8.561881e-06,2.005836e-06,0.0018587112,0.01746694,0.03154612,-0.0303518,1.616665,0.004199269,nan,0.106088355,0.014089386,7.071067,0.015030226,0.008264351,inf,inf,inf,inf,0,0,0,0,1,1,1,1,1,0,0,0,0,0,1
3444000,3444000,0,nan,nan,0.0002063857,0.0006923389,-0.0052846083,-5.1371288e-08,1.2035016e-08,0.0,0.0017648514,0.0046419464,-0.032802414,-0.032252923,-8.561881e-06,2.005836e-06,0.0018587112,0.0074539855,0.026381718,-0.0077234576,1.6166428,0.004199269,nan,0.10623438,0.0140922135,7.071067,0.01857517,0.009171662,inf,inf,inf,inf,0,0,0,0,1,1,1,1,1,0,0,0,0,0,1
3452000,3452000,0,nan,nan,0.00021667815,0.0007179495,-0.0054286644,-5.1371288e-08,1.2035016e-08,0.0,0.001750753,0.0046927277,-0.03214152,-0.03132139,-8.561881e-06,2.005836e-06,0.0018587112,0.0035867414,0.015753495,-0.041404735,1.6166072,0.004199269,nan,0.10636903,0.014097259,7.071067,0.022410233,0.010036577,inf,inf,inf,inf,0,0,0,0,1,1,1,1,1,0,0,0,0,0,1
3460000,3460000,0,nan,nan,0.00022628221,0.0007425503,-0.0055622333,-5.1371288e-08,1.2035016e-08,0.0,0.0016553276,0.0045918063,-0.03148869,-0.030403722,-8.561881e-06,2.005836e-06,0.0018587112,-0.010876872,0.0072198305,-0.02972502,1.6165887,0.004199269,nan,0.10649291,0.014105777,7.071067,0.026411276,0.0108692115,inf,inf,inf,inf,0,0,0,0,1,1,1,1,1,0,0,0,0,0,1
3468000,3468000,0,nan,nan,0.00023419407,0.0007670793,-0.00568549,-5.1371288e-08,1.2035016e-08,0.0,0.001431696,0.0048119514,-0.030958125,-0.029613992,-8.561881e-06,2.005836e-06,0.0018587112,-0.021626778,0.040742755,-0.050518658,1.6165665,0.004199269,nan,0.10660593,0.014119379,7.071067,0.030517338,0.011676498,inf,inf,inf,inf,0,0,0,0,1,1,1,1,1,0,0,0,0,0,1
3476000,3476000,0,nan,nan,0.0002404481,0.00079244917,-0.0057983347,-5.1371288e-08,1.2035016e-08,0.0,0.00132127,0.0049682227,-0.030195197,-0.028597448,-8.561881e-06,2.005836e-06,0.0018587112,-0.007855472,0.032956637,-0.0023720784,1.6165326,0.004199269,nan,0.10670804,0.014140021,7.071067,0.034692284,0.01246339,inf,inf,inf,inf,0,0,0,0,1,1,1,1,1,0,0,0,0,0,1
3484000,3484000,0,nan,nan,0.00024570792,0.00081782346,-0.005899336,-5.1371288e-08,1.2035016e-08,0.0,0.0013034205,0.0049485145,-0.02942068,-0.027577372,-8.561881e-06,2.005836e-06,0.0018587112,0.013997661,0.004133515,-0.018045304,1.6164949,0.004199269,nan,0.106797665,0.014169997,7.071067,0.038922343,0.01323354,inf,inf,inf,inf,0,0,0,0,1,1,1,1,1,0,0,0,0,0,1
3492000,3492000,0,nan,nan,0.00025067196,0.00084247836,-0.00598952,-5.1371288e-08,1.2035016e-08,0.0,0.0012267004,0.004978501,-0.02872718,-0.026646204,-8.561881e-06,2.005836e-06,0.0018587112,-0.017722981,0.01822687,-0.022933817,1.6164724,0.004199269,nan,0.10687539,0.014211919,7.071067,0.043194186,0.01398972,inf,inf,inf,inf,0,0,0,0,1,1,1,1,1,0,0,0,0,0,1
3500000,3500000,0,nan,nan,0.0002545294,0.00086638855,-0.006070423,-5.1371288e-08,1.2035016e-08,0.0,0.0012022483,0.0048987884,-0.028283365,-0.025972445,-8.561881e-06,2.005836e-06,0.0018587112,0.013715892,-0.00019706202,-0.058542002,1.6164674,0.004199269,nan,0.10694265,0.014268699,7.071067,0.04750175,0.014734105,inf,inf,inf,inf,0,0,0,0,1,1,1,1,1,0,0,0,0,0,1
3508000,3508000,0,nan,nan,0.00025779268,0.0008886122,-0.0061441227,-5.1371288e-08,1.2035016e-08,0.0,0.0010719555,0.0047227,-0.027909169,-0.025375862,-8.561881e-06,2.005836e-06,0.0018587112,-0.018725112,-0.008182003,-0.0448022,1.6164721,0.004199269,nan,0.10700128,0.014343512,7.071067,0.05184255,0.015468406,inf,inf,inf,inf,0,0,0,0,1,1,1,1,1,0,0,0,0,0,1
3516000,3516000,0,nan,nan,0.00026053464,0.0009091945,-0.006210615,-5.1371288e-08,1.2035016e-08,0.0,0.0011951674,0.0046313936,-0.027492253,-0.024743956,-8.561881e-06,2.005836e-06,0.0018587112,0.026379302,0.0020313745,-0.045941208,1.6164954,0.004199269,nan,0.107051075,0.014439765,7.071067,0.05621329,0.016194008,inf,inf,inf,inf,0,0,0,0,1,1,1,1,1,0,0,0,0,0,1
3524000,3524000,0,nan,nan,0.0002630614,0.0009289618,-0.006269633,-5.1371288e-08,1.2035016e-08,0.0,0.0010400526,0.004686412,-0.026925623,-0.023969572,-8.561881e-06,2.005836e-06,0.0018587112,-0.019627709,0.026927182,-0.023301689,1.6165164,0.004199269,nan,0.107092,0.014561038,7.071067,0.06061067,0.016912043,inf,inf,inf,inf,0,0,0,0,1,1,1,1,1,0,0,0,0,0,1
3532000,3532000,0,nan,nan,0.00026479096,0.0009491149,-0.0063210945,-5.1371288e-08,1.2035016e-08,0.0,0.0011246515,0.0048340713,-0.026382208,-0.02322548,-8.561881e-06,2.005836e-06,0.0018587112,0.026676847,0.031235728,-0.017376615,1.6165059,0.004199269,nan,0.10712391,0.014711024,7.071067,0.065039754,0.017623443,inf,inf,inf,inf,0,0,0,0,1,1,1,1,1,0,0,0,0,0,1
3540000,3540000,0,nan,nan,0.00026700602,0.0009693527,-0.006365019,-5.1371288e-08,1.2035016e-08,0.0,0.0011372817,0.004833041,-0.025834635,-0.022484157,-8.561881e-06,2.005836e-06,0.0018587112,-0.0036105774,0.011943833,-0.03141537,1.6165072,0.004199269,nan,0.107146434,0.014893475,7.071067,0.06949828,0.018328989,inf,inf,inf,inf,0,0,0,0,1,1,1,1,1,0,0,0,0,0,1
3548000,3548000,0,nan,nan,0.0002680916,0.0009893645,-0.0064034397,-5.1371288e-08,1.2035016e-08,0.0,0.000951647,0.0048970315,-0.025610207,-0.022072747,-8.561881e-06,2.005836e-06,0.0018587112,-0.015376164,0.01914636,-0.058852132,1.6165209,0.004199269,nan,0.10716108,0.015112116,7.071067,0.073990986,0.019029353,inf,inf,inf,inf,0,0,0,0,1,1,1,1,1,0,0,0,0,0,1
3556000,3556000,0,nan,nan,0.00026819928,0.0010093747,-0.006436815,-5.1371288e-08,1.2035016e-08,0.0,0.0009771956,0.0049545965,-0.025117924,-0.021400105,-8.561881e-06,2.005836e-06,0.0018587112,0.018544829,0.01956032,-0.016131436,1.6165502,0.004199269,nan,0.10716875,0.015370585,7.071067,0.07850662,0.01972509,inf,inf,inf,inf,0,0,0,0,1,1,1,1,1,0,0,0,0,0,1
3564000,3564000,0,nan,nan,0.0002690074,0.0010295276,-0.00646426,-5.1371288e-08,1.2035016e-08,0.0,0.0011103535,0.0050746426,-0.024635408,-0.020743702,-8.561881e-06,2.005836e-06,0.0018587112,0.015424928,0.03497164,-0.018068587,1.6165735,0.004199269,nan,0.10716962,0.015672306,7.071067,0.083052896,0.020416673,inf,inf,inf,inf,0,0,0,0,1,1,1,1,1,0,0,0,0,0,1
3572000,3572000,0,nan,nan,0.0002711739,0.001049134,-0.00649295,-5.1371288e-08,1.2035016e-08,0.0,0.0011578297,0.0051668463,-0.024024162,-0.019972244,-8.561881e-06,2.005836e-06,0.0018587112,0.00745448,0.017536176,-0.0029103828,1.6165885,0.004199269,nan,0.106941134,0.010602197,5.7735023,0.08206859,0.021104526,inf,inf,inf,inf,0,0,0,0,1,1,1,1,1,0,0,0,0,0,1
3580000,3580000,0,nan,nan,0.00027352033,0.0010680072,-0.0065160533,-5.1371288e-08,1.2035016e-08,0.0,0.0012551706,0.004950656,-0.023671065,-0.019464858,-8.561881e-06,2.005836e-06,0.0018587112,0.027322179,-0.029983593,-0.038249414,1.6166095,0.004199269,nan,0.10693466,0.010878704,5.7735023,0.08642712,0.021789007,inf,inf,inf,inf,0,0,0,0,1,1,1,1,1,0,0,0,0,0,1
3588000,3588000,0,nan,nan,0.0002766337,0.001084552,-0.0065342775,-5.1371288e-08,1.2035016e-08,0.0,0.0012951316,0.0047756485,-0.023152601,-0.018797895,-8.561881e-06,2.005836e-06,0.0018587112,-0.004540168,0.0008691713,-0.015219673,1.6166191,0.004199269,nan,0.10692016,0.011217635,5.7735023,0.09082297,0.022470433,inf,inf,inf,inf,0,0,0,0,1,1,1,1,1,0,0,0,0,0,1
3596000,3596000,0,nan,nan,0.00027870442,0.0010996195,-0.0065482194,-5.1371288e-08,1.2035016e-08,0.0,0.0010835802,0.004641431,-0.02284082,-0.018343272,-8.561881e-06,2.005836e-06,0.0018587112,-0.023472777,0.000629574,-0.027417203,1.6166234,0.004199269,nan,0.1068983,0.011621705,5.7735023,0.09525396,0.023149082,inf,inf,inf,inf,0,0,0,0,1,1,1,1,1,0,0,0,0,0,1
3604000,3604000,0,nan,nan,0.00027901502,0.0011136555,-0.0065576695,-5.1371288e-08,1.2035016e-08,0.0,0.00089441333,0.0046179174,-0.022319002,-0.017683739,-8.561881e-06,2.005836e-06,0.0018587112,-0.015623998,0.0065986966,-0.003037974,1.6166334,0.004199269,nan,0.10687584,0.011882447,5.7735023,0.09404407,0.023657931,inf,inf,inf,inf,0,0,0,0,1,1,1,1,1,0,0,0,0,0,1
3612000,3612000,0,nan,nan,0.0002782325,0.00112707,-0.006562314,-5.1371288e-08,1.2035016e-08,0.0,0.00082484813,0.0045731985,-0.021843003,-0.017075436,-8.561881e-06,2.005836e-06,0.0018587112,-0.0044604675,0.0073092664,-0.013308599,1.6166527,0.004199269,nan,0.10684166,0.012370924,5.7735023,0.09830496,0.02433009,inf,inf,inf,inf,0,0,0,0,1,1,1,1,1,0,0,0,0,0,1
3620000,3620000,0,nan,nan,0.0002763886,0.0011399027,-0.006563518,-5.1371288e-08,1.2035016e-08,0.0,0.0006415958,0.0045160996,-0.021570984,-0.016676398,-8.561881e-06,2.005836e-06,0.0018587112,-0.022784907,-9.908398e-05,-0.034051012,1.6166557,0.004199269,nan,0.1068027,0.012922751,5.7735023,0.10260611,0.025000082,inf,inf,inf,inf,0,0,0,0,1,1,1,1,1,0,0,0,0,0,1
3628000,3628000,0,nan,nan,0.0002728111,0.0011521733,-0.0065614204,-5.1371288e-08,1.2035016e-08,0.0,0.00043079111,0.0045577427,-0.021091027,-0.016074581,-8.561881e-06,2.005836e-06,0.0018587112,-0.022342412,0.02839342,-0.0056782733,1.616663,0.004199269,nan,0.10675799,0.0135379,5.7735023,0.10696104,0.02566809,inf,inf,inf,inf,0,0,0,0,1,1,1,1,1,0,0,0,0,0,1
3636000,3636000,0,nan,nan,0.0002679138,0.0011646709,-0.0065555605,-5.1371288e-08,1.2035016e-08,0.0,0.0003761139,0.004558092,-0.020613398,-0.015480133,-8.561881e-06,2.005836e-06,0.0018587112,0.008398812,0.005857131,0.0076685096,1.6166717,0.004199269,nan,0.10670699,0.014215955,5.7735023,0.111350335,0.026334267,inf,inf,inf,inf,0,0,0,0,1,1,1,1,1,0,0,0,0,0,1
3644000,3644000,0,nan,nan,0.0002629338,0.0011772021,-0.006545097,-5.1371288e-08,1.2035016e-08,0.0,0.00033881774,0.004656774,-0.019993259,-0.0147480965,-8.561881e-06,2.005836e-06,0.0018587112,-0.011835901,0.029279586,0.010374933,1.616738,0.004199269,nan,0.10665008,0.014956042,5.7735023,0.115785636,0.026998755,inf,inf,inf,inf,0,0,0,0,1,1,1,1,1,0,0,0,0,0,1
3652000,3652000,0,nan,nan,0.00025723522,0.0011909759,-0.006530909,-5.1371288e-08,1.2035016e-08,0.0,0.00029408996,0.004867701,-0.019637557,-0.014285302,-8.561881e-06,2.005836e-06,0.0018587112,0.007982176,0.03268306,-0.02377387,1.6168016,0.004199269,nan,0.106588736,0.015757123,5.7735023,0.12026322,0.027661683,inf,inf,inf,inf,0,0,0,0,1,1,1,1,1,0,0,0,0,0,1
3660000,3660000,0,nan,nan,0.00025165876,0.0012054765,-0.006515027,-5.1371288e-08,1.2035016e-08,0.0,0.00033822292,0.0048993984,-0.019431286,-0.013976627,-8.561881e-06,2.005836e-06,0.0018587112,0.008854636,0.016498685,-0.030005349,1.616874,0.004199269,nan,0.10652463,0.016617998,5.7735023,0.12479964,0.028323144,inf,inf,inf,inf,0,0,0,0,1,1,1,1,1,0,0,0,0,0,1
3668000,3668000,0,nan,nan,0.00024709877,0.001220279,-0.006497587,-5.1371288e-08,1.2035016e-08,0.0,0.0005652287,0.0049664774,-0.019122824,-0.01357034,-8.561881e-06,2.005836e-06,0.0018587112,0.033438757,0.020207807,-0.017345881,1.6169341,0.004199269,nan,0.106457666,0.01753753,5.7735023,0.12938012,0.028983265,inf,inf,inf,inf,0,0,0,0,1,1,1,1,1,0,0,0,0,0,1
3676000,3676000,0,nan,nan,0.00024355114,0.0012357617,-0.006478436,-5.1371288e-08,1.2035016e-08,0.0,0.0005868745,0.0050404663,-0.018839577,-0.013193736,-8.561881e-06,2.005836e-06,0.0018587112,0.0052516987,0.008719347,-0.019226221,1.6169862,0.004199269,nan,0.106387675,0.018514488,5.7735023,0.13402101,0.02964214,inf,inf,inf,inf,0,0,0,0,1,1,1,1,1,0,0,0,0,0,1
3684000,3684000,0,nan,nan,0.00024073353,0.0012507774,-0.006457669,-5.1371288e-08,1.2035016e-08,0.0,0.00073212053,0.00492776,-0.018517371,-0.012782529,-8.561881e-06,2.005836e-06,0.0018587112,0.016242178,0.0010370567,-0.011890194,1.6170276,0.004199269,nan,0.10631488,0.019547794,5.7735023,0.13870719,0.030299863,inf,inf,inf,inf,0,0,0,0,1,1,1,1,1,0,0,0,0,0,1
3692000,3692000,0,nan,nan,0.00023829794,0.0012657719,-0.0064351074,-5.1371288e-08,1.2035016e-08,0.0,0.0007075947,0.005065724,-0.018165205,-0.012345618,-8.561881e-06,2.005836e-06,0.0018587112,0.0012697855,0.03783105,-0.007560476,1.6170951,0.004199269,nan,0.10623987,0.020636348,5.7735023,0.14345062,0.030956501,inf,inf,inf,inf,0,0,0,0,1,1,1,1,1,0,0,0,0,0,1
3700000,3700000,0,nan,nan,0.00023589894,0.0012822861,-0.0064107305,-5.1371288e-08,1.2035016e-08,0.0,0.00073629385,0.005225827,-0.017822418,-0.0119222365,-8.561881e-06,2.005836e-06,0.0018587112,0.007092603,0.019430952,-0.011366791,1.617144,0.004199269,nan,0.10616177,0.021779217,5.7735023,0.14825957,0.031612128,inf,inf,inf,inf,0,0,0,0,1,1,1,1,1,0,0,0,0,0,1
3708000,3708000,0,nan,nan,0.00023387434,0.001298793,-0.0063857306,-5.1371288e-08,1.2035016e-08,0.0,0.0007764144,0.0050712135,-0.017713288,-0.011736559,-8.561881e-06,2.005836e-06,0.0018587112,0.0034352413,-0.016877456,-0.036157664,1.6171861,0.004199269,nan,0.106081896,0.022975637,5.7735023,0.15311787,0.032266818,inf,inf,inf,inf,0,0,0,0,1,1,1,1,1,0,0,0,0,0,1
3716000,3716000,0,nan,nan,0.00023140172,0.001314743,-0.006360852,-5.1371288e-08,1.2035016e-08,0.0,0.00064752763,0.0051473556,-0.01750182,-0.0114524895,-8.561881e-06,2.005836e-06,0.0018587112,-0.009862458,0.02923711,-0.011208466,1.6172469,0.004199269,nan,0.10600194,0.024224823,5.7735023,0.15803604,0.032920618,inf,inf,inf,inf,0,0,0,0,1,1,1,1,1,0,0,0,0,0,1
3724000,3724000,0,nan,nan,0.00022841293,0.0013317738,-0.006334132,-5.1371288e-08,1.2035016e-08,0.0,0.00058240205,0.00528732,-0.016957467,-0.010839381,-8.561881e-06,2.005836e-06,0.0018587112,-0.016327612,0.02751214,0.022277234,1.6173017,0.004199269,nan,0.10592062,0.025526168,5.7735023,0.16300878,0.033573598,inf,inf,inf,inf,0,0,0,0,1,1,1,1,1,0,0,0,0,0,1
3732000,3732000,0,nan,nan,0.00022377256,0.0013497929,-0.0063055414,-5.1371288e-08,1.2035016e-08,0.0,0.00031241513,0.0053571193,-0.016706208,-0.010523117,-8.561881e-06,2.005836e-06,0.0018587112,-0.019519748,0.01421952,-0.019905156,1.6173526,0.004199269,nan,0.10583752,0.026879119,5.7735023,0.1680563,0.03422581,inf,inf,inf,inf,0,0,0,0,1,1,1,1,1,0,0,0,0,0,1
3740000,3740000,0,nan,nan,0.00021889652,0.001369139,-0.0062763947,-5.1371288e-08,1.2035016e-08,0.0,0.00046683868,0.005597552,-0.016418576,-0.010174136,-8.561881e-06,2.005836e-06,0.0018587112,0.022454856,0.03645512,-0.007666647,1.617393,0.004199269,nan,0.10575241,0.028283367,5.7735023,0.17317499,0.034877278,inf,inf,inf,inf,0,0,0,0,1,1,1,1,1,0,0,0,0,0,1
3748000,3748000,0,nan,nan,0.00021419137,0.0013895541,-0.0062464005,-5.1371288e-08,1.2035016e-08,0.0,0.00029724112,0.005586442,-0.016080402,-0.009778172,-8.561881e-06,2.005836e-06,0.0018587112,-0.028950771,0.0029825459,0.0050375233,1.6174266,0.004199269,nan,0.10566494,0.029738659,5.7735033,0.17835435,0.035528064,inf,inf,inf,inf,0,0,0,0,1,1,1,1,1,0,0,0,0,0,1
3756000,3756000,0,nan,nan,0.0002084234,0.0014103294,-0.006215223,-5.1371288e-08,1.2035016e-08,0.0,0.00026265485,0.005710939,-0.015749965,-0.009393415,-8.561881e-06,2.005836e-06,0.0018587112,0.007207418,0.034002382,-0.004184432,1.6174569,0.004199269,nan,0.10557516,0.031244744,5.773504,0.18360159,0.03617821,inf,inf,inf,inf,0,0,0,0,1,1,1,1,1,0,0,0,0,0,1
3764000,3764000,0,nan,nan,0.00020237458,0.0014323865,-0.006183697,-5.1371288e-08,1.2035016e-08,0.0,0.00015442577,0.005783145,-0.0155936545,-0.0091861645,-8.561881e-06,2.005836e-06,0.0018587112,-0.016017001,0.006366186,-0.031537373,1.6174735,0.004199269,nan,0.10548407,0.03280149,5.7735047,0.18891485,0.03682773,inf,inf,inf,inf,0,0,0,0,1,1,1,1,1,0,0,0,0,0,1
3772000,3772000,0,nan,nan,0.00019612919,0.0014553313,-0.006153979,-5.1371288e-08,1.2035016e-08,0.0,0.00025344404,0.0059709954,-0.01568318,-0.009228039,-8.561881e-06,2.005836e-06,0.0018587112,0.024707172,0.040010225,-0.041799616,1.6174946,0.004199269,nan,0.10539419,0.034408804,5.773505,0.19429566,0.037476704,inf,inf,inf,inf,0,0,0,0,1,1,1,1,1,0,0,0,0,0,1
3780000,3780000,0,nan,nan,0.00019233809,0.0014688927,-0.006118627,-5.1371288e-08,1.2035016e-08,0.0,0.0003577307,0.006083713,-0.015340459,-0.00883441,-8.561881e-06,2.005836e-06,0.0018587112,0.005382855,0.022455176,0.016201286,1.6175765,0.004199269,nan,0.10550039,0.013166156,5.000002,0.09426765,0.038124923,inf,inf,inf,inf,0,0,0,0,1,1,1,1,1,0,0,0,0,0,1
3788000,3788000,0,nan,nan,0.00018846407,0.0014832629,-0.0060824724,-5.1371288e-08,1.2035016e-08,0.0,0.00024543246,0.006208065,-0.015047419,-0.008493813,-8.561881e-06,2.005836e-06,0.0018587112,-0.012347357,0.035323173,-0.00882428,1.6176351,0.004199269,nan,0.10540238,0.013800346,5.0000024,0.09749652,0.038772818,inf,inf,inf,inf,0,0,0,0,1,1,1,1,1,0,0,0,0,0,1
3796000,3796000,0,nan,nan,0.00018421156,0.0014987206,-0.0060462505,-5.1371288e-08,1.2035016e-08,0.0,0.0002508731,0.0062984577,-0.014727012,-0.008129107,-8.561881e-06,2.005836e-06,0.0018587112,0.006051079,0.020450257,0.014022923,1.6177123,0.004199269,nan,0.105302565,0.014473857,5.000003,0.100809865,0.03942024,inf,inf,inf,inf,0,0,0,0,1,1,1,1,1,0,0,0,0,0,1
3804000,3804000,0,nan,nan,0.00018073017,0.0015145934,-0.006009463,-5.1371288e-08,1.2035016e-08,0.0,0.00039985127,0.006280739,-0.014466589,-0.007827557,-8.561881e-06,2.005836e-06,0.0018587112,0.020969061,0.0028597713,-0.015961936,1.6177868,0.004199269,nan,0.10520229,0.015186426,5.0000033,0.10419989,0.040067207,inf,inf,inf,inf,0,0,0,0,1,1,1,1,1,0,0,0,0,0,1
3812000,3812000,0,nan,nan,0.00017832252,0.0015293708,-0.005971619,-5.1371288e-08,1.2035016e-08,0.0,0.0004954523,0.0063062324,-0.0142555395,-0.0075757285,-8.561881e-06,2.005836e-06,0.0018587112,0.013187788,0.03352377,0.0015329568,1.6178343,0.004199269,nan,0.10515626,0.015264908,5.0000033,0.10064316,0.039895494,inf,inf,inf,inf,0,0,0,0,1,1,1,1,1,0,0,0,0,0,1
3820000,3820000,0,nan,nan,0.00017729367,0.0015449835,-0.0059338165,-5.1371288e-08,1.2035016e-08,0.0,0.00071940833,0.006373866,-0.014006083,-0.0072885654,-8.561881e-06,2.005836e-06,0.0018587112,0.030271882,0.012000105,-0.010087154,1.6178745,0.004199269,nan,0.10505726,0.015986208,5.000004,0.10400547,0.040533543,inf,inf,inf,inf,0,0,0,0,1,1,1,1,1,0,0,0,0,0,1
3828000,3828000,0,nan,nan,0.00017778965,0.0015602353,-0.005896788,-5.1371288e-08,1.2035016e-08,0.0,0.00082893576,0.006228372,-0.013871449,-0.007119213,-8.561881e-06,2.005836e-06,0.0018587112,0.011227733,-0.009298514,-0.015649011,1.6179278,0.004199269,nan,0.10495891,0.016743831,5.0000043,0.107457615,0.041171182,inf,inf,inf,inf,0,0,0,0,1,1,1,1,1,0,0,0,0,0,1
3836000,3836000,0,nan,nan,0.00017932808,0.0015751539,-0.00586023,-5.1371288e-08,1.2035016e-08,0.0,0.0009643027,0.006368842,-0.013534557,-0.006750509,-8.561881e-06,2.005836e-06,0.0018587112,0.018533478,0.049085412,0.019589437,1.6179949,0.004199269,nan,0.104861125,0.017537856,5.000005,0.11100299,0.04180844,inf,inf,inf,inf,0,0,0,0,1,1,1,1,1,0,0,0,0,0,1
3844000,3844000,0,nan,nan,0.00018165291,0.001592066,-0.005823415,-5.1371288e-08,1.2035016e-08,0.0,0.0009689248,0.0066286693,-0.0133185545,-0.0065055205,-8.561881e-06,2.005836e-06,0.0018587112,-0.004216126,0.041717995,-0.0120550385,1.6180172,0.004199269,nan,0.10476254,0.01836843,5.0000057,0.11464961,0.04244533,inf,inf,inf,inf,0,0,0,0,1,1,1,1,1,0,0,0,0,0,1
3852000,3852000,0,nan,nan,0.00018375872,0.0016114048,-0.005787643,-5.1371288e-08,1.2035016e-08,0.0,0.00089017017,0.006999249,-0.013208147,-0.006368874,-8.561881e-06,2.005836e-06,0.0018587112,-0.011094146,0.064394824,-0.017497687,1.6180401,0.004199269,nan,0.10466285,0.019235792,5.000006,0.11840221,0.043081876,inf,inf,inf,inf,0,0,0,0,1,1,1,1,1,0,0,0,0,0,1
3860000,3860000,0,nan,nan,0.0001853439,0.0016329334,-0.005752995,-5.1371288e-08,1.2035016e-08,0.0,0.00083423004,0.0070973933,-0.0130333975,-0.006170555,-8.561881e-06,2.005836e-06,0.0018587112,-0.001469365,0.013049575,-0.007702037,1.6180835,0.004199269,nan,0.10456296,0.020140257,5.000007,0.12223133,0.043718092,inf,inf,inf,inf,0,0,0,0,1,1,1,1,1,0,0,0,0,0,1
3868000,3868000,0,nan,nan,0.00018731921,0.0016548687,-0.005720027,-5.1371288e-08,1.2035016e-08,0.0,0.0009663279,0.0071064043,-0.013102607,-0.006218789,-8.561881e-06,2.005836e-06,0.0018587112,0.024931576,0.006908041,-0.047962178,1.6180997,0.004199269,nan,0.104465015,0.021082025,5.0000076,0.12615876,0.044354003,inf,inf,inf,inf,0,0,0,0,1,1,1,1,1,0,0,0,0,0,1
3876000,3876000,0,nan,nan,0.0001907537,0.0016760274,-0.0056904093,-5.1371288e-08,1.2035016e-08,0.0,0.0011078938,0.006957702,-0.01323387,-0.006331598,-8.561881e-06,2.005836e-06,0.0018587112,0.011667841,0.0051347013,-0.03737304,1.618113,0.004199269,nan,0.10437067,0.022061462,5.0000086,0.13018164,0.044989612,inf,inf,inf,inf,0,0,0,0,1,1,1,1,1,0,0,0,0,0,1
3884000,3884000,0,nan,nan,0.000194786,0.0016983043,-0.005663782,-5.1371288e-08,1.2035016e-08,0.0,0.0010881386,0.0073599136,-0.013292885,-0.006374606,-8.561881e-06,2.005836e-06,0.0018587112,-0.0072067482,0.07268364,-0.03115367,1.6181345,0.004199269,nan,0.104279496,0.023078948,5.0000095,0.13430482,0.04562493,inf,inf,inf,inf,0,0,0,0,1,1,1,1,1,0,0,0,0,0,1
3892000,3892000,0,nan,nan,0.0001988342,0.0017233288,-0.005639536,-5.1371288e-08,1.2035016e-08,0.0,0.0011367532,0.0075303693,-0.01328496,-0.0063530505,-8.561881e-06,2.005836e-06,0.0018587112,0.015673373,0.022114936,-0.028273089,1.6181628,0.004199269,nan,0.104190476,0.024134936,5.00001,0.13852896,0.046259984,inf,inf,inf,inf,0,0,0,0,1,1,1,1,1,0,0,0,0,0,1
3900000,3900000,0,nan,nan,0.00020410461,0.0017494836,-0.005617924,-5.1371288e-08,1.2035016e-08,0.0,0.0013240213,0.0076830946,-0.013371083,-0.0064278627,-8.561881e-06,2.005836e-06,0.0018587112,0.023690982,0.037188057,-0.037220303,1.6181687,0.004199269,nan,0.10410381,0.025229912,5.000011,0.14284974,0.04689479,inf,inf,inf,inf,0,0,0,0,1,1,1,1,1,0,0,0,0,0,1
3908000,3908000,0,nan,nan,0.00021097032,0.0017772481,-0.005599236,-5.1371288e-08,1.2035016e-08,0.0,0.0015008579,0.007855635,-0.013428404,-0.0064761247,-8.561881e-06,2.005836e-06,0.0018587112,0.021590196,0.02851008,-0.02898462,1.6181661,0.004199269,nan,0.10401955,0.026364375,5.0000114,0.14727549,0.047529336,inf,inf,inf,inf,0,0,0,0,1,1,1,1,1,0,0,0,0,0,1
3916000,3916000,0,nan,nan,0.00021869905,0.0018062801,-0.005582648,-5.1371288e-08,1.2035016e-08,0.0,0.0014805391,0.007974394,-0.013318467,-0.006359314,-8.561881e-06,2.005836e-06,0.0018587112,-0.009923547,0.025466666,-0.00560563,1.6181688,0.004199269,nan,0.103937276,0.027538907,5.0000124,0.15178932,0.048163675,inf,inf,inf,inf,0,0,0,0,1,1,1,1,1,0,0,0,0,0,1
3924000,3924000,0,nan,nan,0.00022550371,0.0018360352,-0.0055669313,-5.1371288e-08,1.2035016e-08,0.0,0.0012372121,0.007992008,-0.013090707,-0.006126801,-8.561881e-06,2.005836e-06,0.0018587112,-0.038294848,0.012062445,0.0055981795,1.6181874,0.004199269,nan,0.10385614,0.028754,5.000014,0.15640932,0.048797805,inf,inf,inf,inf,0,0,0,0,1,1,1,1,1,0,0,0,0,0,1
3932000,3932000,0,nan,nan,0.0002306347,0.0018658312,-0.0055526467,-5.1371288e-08,1.2035016e-08,0.0,0.0011288013,0.007916777,-0.013140376,-0.0061737727,-8.561881e-06,2.005836e-06,0.0018587112,0.0029274086,-0.004944013,-0.03705732,1.6182023,0.004199269,nan,0.103775844,0.03001029,5.000015,0.16113533,0.049431745,inf,inf,inf,inf,0,0,0,0,1,1,1,1,1,0,0,0,0,0,1
3940000,3940000,0,nan,nan,0.00023625592,0.0018956292,-0.005540953,-5.1371288e-08,1.2035016e-08,0.0,0.0012734728,0.008014032,-0.013113485,-0.00614618,-8.561881e-06,2.005836e-06,0.0018587112,0.020802747,0.033949442,-0.012882053,1.6182171,0.004199269,nan,0.10369745,0.031308435,5.000016,0.16595767,0.050065458,inf,inf,inf,inf,0,0,0,0,1,1,1,1,1,0,0,0,0,0,1
3948000,3948000,0,nan,nan,0.00024345986,0.0019265019,-0.005530869,-5.1371288e-08,1.2035016e-08,0.0,0.0014511945,0.00806033,-0.012966975,-0.006000901,-8.561881e-06,2.005836e-06,0.0018587112,0.014405653,0.00935368,0.0044461335,1.6182262,0.004199269,nan,0.10361931,0.032649055,5.000017,0.17089553,0.050698973,inf,inf,inf,inf,0,0,0,0,1,1,1,1,1,0,0,0,0,0,1
3956000,3956000,0,nan,nan,0.0002509949,0.0019576636,-0.0055219955,-5.1371288e-08,1.2035016e-08,0.0,0.0013557421,0.008068961,-0.012926576,-0.0059636077,-8.561881e-06,2.005836e-06,0.0018587112,-0.012652948,0.014846052,-0.026968306,1.6182181,0.004199269,nan,0.10353985,0.0340329,5.000018,0.17593835,0.051332287,inf,inf,inf,inf,0,0,0,0,1,1,1,1,1,0,0,0,0,0,1
3964000,3964000,0,nan,nan,0.00025811617,0.0019891309,-0.005514994,-5.1371288e-08,1.2035016e-08,0.0,0.0013560457,0.008064471,-0.01277858,-0.005820533,-8.561881e-06,2.005836e-06,0.0018587112,0.008540053,0.010510659,0.010547227,1.6182102,0.004199269,nan,0.10345981,0.035460677,5.0000196,0.18107776,0.051965505,inf,inf,inf,inf,0,0,0,0,1,1,1,1,1,0,0,0,0,0,1
3972000,3972000,0,nan,nan,0.0002658208,0.0020211544,-0.0055086943,-5.1371288e-08,1.2035016e-08,0.0,0.0014202439,0.008154631,-0.012645322,-0.0056939544,-8.561881e-06,2.005836e-06,0.0018587112,0.00369444,0.024512293,-0.01664739,1.6182381,0.004199269,nan,0.103378646,0.03693306,5.000021,0.18631402,0.052598532,inf,inf,inf,inf,0,0,0,0,1,1,1,1,1,0,0,0,0,0,1
3980000,3980000,0,nan,nan,0.00027380337,0.0020542631,-0.0055050533,-5.1371288e-08,1.2035016e-08,0.0,0.001416405,0.008219374,-0.012824434,-0.0058814483,-8.561881e-06,2.005836e-06,0.0018587112,0.000113912385,0.011897965,-0.039693896,1.6182387,0.004199269,nan,0.10329827,0.038450725,5.0000224,0.19165795,0.053231403,inf,inf,inf,inf,0,0,0,0,1,1,1,1,1,0,0,0,0,0,1
3988000,3988000,0,nan,nan,0.00027902014,0.0020701466,-0.00548971,-5.1371288e-08,1.2035016e-08,0.0,0.0014886527,0.008224263,-0.012803826,-0.0058563403,-8.561881e-06,2.005836e-06,0.0018587112,0.0074285194,0.022618419,-0.011643394,1.618169,0.004199269,nan,0.103658505,0.013333868,4.472153,0.09540865,0.05386377,inf,inf,inf,inf,0,0,0,0,1,1,1,1,1,0,0,0,0,0,1
3996000,3996000,0,nan,nan,0.00028416468,0.0020861623,-0.0054768506,-5.1371288e-08,1.2035016e-08,0.0,0.0014079439,0.008221267,-0.0128184995,-0.0058686268,-8.561881e-06,2.005836e-06,0.0018587112,-0.004439862,0.022975218,-0.022524966,1.6180865,0.004199269,nan,0.10356547,0.013883817,4.472154,0.09931521,0.054496314,inf,inf,inf,inf,0,0,0,0,1,1,1,1,1,0,0,0,0,0,1
4004000,4004000,0,nan,nan,0.00028873023,0.0021029417,-0.005466692,-5.1371288e-08,1.2035016e-08,0.0,0.001283818,0.008341726,-0.012819932,-0.005869716,-8.561881e-06,2.005836e-06,0.0018587112,-0.020300765,0.029178785,-0.017780809,1.6180164,0.004199269,nan,0.10347504,0.014476661,4.4721556,0.10331538,0.055128712,inf,inf,inf,inf,0,0,0,0,1,1,1,1,1,0,0,0,0,0,1
4012000,4012000,0,nan,nan,0.00029263087,0.0021197398,-0.0054592085,-5.1371288e-08,1.2035016e-08,0.0,0.0013051425,0.008220612,-0.012808764,-0.0058601843,-8.561881e-06,2.005836e-06,0.0018587112,0.018851962,0.0066856006,-0.0067157666,1.6179427,0.004199269,nan,0.103386596,0.01511331,4.472157,0.107431024,0.055760976,inf,inf,inf,inf,0,0,0,0,1,1,1,1,1,0,0,0,0,0,1
4020000,4020000,0,nan,nan,0.0002974825,0.0021350295,-0.005446578,-5.1371288e-08,1.2035016e-08,0.0,0.0015119236,0.008213201,-0.0124580525,-0.0055045024,-8.561881e-06,2.005836e-06,0.0018587112,0.022676524,0.014301913,0.023592262,1.6178749,0.004199269,nan,0.10348401,0.015216018,4.472157,0.10384458,0.054276753,inf,inf,inf,inf,0,0,0,0,1,1,1,1,1,0,0,0,0,0,1
4028000,4028000,0,nan,nan,0.00030309474,0.0021497856,-0.005434545,-5.1371288e-08,1.2035016e-08,0.0,0.0015145604,0.008096997,-0.012350265,-0.0053938455,-8.561881e-06,2.005836e-06,0.0018587112,0.004646237,0.008049464,-0.009494833,1.617814,0.004199269,nan,0.10339507,0.01586967,4.4721584,0.10785888,0.054891422,inf,inf,inf,inf,0,0,0,0,1,1,1,1,1,0,0,0,0,0,1
4036000,4036000,0,nan,nan,0.00030957483,0.002163933,-0.005424143,-5.1371288e-08,1.2035016e-08,0.0,0.0017007432,0.008040374,-0.01221209,-0.005254835,-8.561881e-06,2.005836e-06,0.0018587112,0.02317343,0.015441022,0.004326924,1.6177433,0.004199269,nan,0.10330728,0.01656571,4.47216,0.11197332,0.055505957,inf,inf,inf,inf,0,0,0,0,1,1,1,1,1,0,0,0,0,0,1
4044000,4044000,0,nan,nan,0.00031612223,0.0021781842,-0.0054145944,-5.1371288e-08,1.2035016e-08,0.0,0.0015106795,0.00807962,-0.012010125,-0.005054004,-8.561881e-06,2.005836e-06,0.0018587112,-0.026421227,0.021419894,3.9115544e-05,1.6176631,0.004199269,nan,0.10321991,0.01730489,4.472162,0.11617495,0.056120373,inf,inf,inf,inf,0,0,0,0,1,1,1,1,1,0,0,0,0,0,1
4052000,4052000,0,nan,nan,0.00032198185,0.0021921801,-0.005406927,-5.1371288e-08,1.2035016e-08,0.0,0.0015843639,0.007981936,-0.012053976,-0.0051008957,-8.561881e-06,2.005836e-06,0.0018587112,0.022369973,0.010567222,-0.023143364,1.617576,0.004199269,nan,0.10313439,0.018087836,4.4721637,0.12047021,0.056734677,inf,inf,inf,inf,0,0,0,0,1,1,1,1,1,0,0,0,0,0,1
4060000,4060000,0,nan,nan,0.00032905836,0.0022058687,-0.0054021045,-5.1371288e-08,1.2035016e-08,0.0,0.0017523218,0.007952271,-0.012159682,-0.0052114893,-8.561881e-06,2.005836e-06,0.0018587112,0.020284684,0.010656905,-0.037455928,1.6174773,0.004199269,nan,0.103050426,0.01891515,4.472165,0.124877065,0.057348873,inf,inf,inf,inf,0,0,0,0,1,1,1,1,1,0,0,0,0,0,1
4068000,4068000,0,nan,nan,0.00033696514,0.002219006,-0.0054002367,-5.1371288e-08,1.2035016e-08,0.0,0.0017909767,0.007841223,-0.012119537,-0.005178019,-8.561881e-06,2.005836e-06,0.0018587112,0.0052365647,0.003992521,0.0041108574,1.6173775,0.004199269,nan,0.10296771,0.019787485,4.472167,0.12936336,0.057962965,inf,inf,inf,inf,0,0,0,0,1,1,1,1,1,0,0,0,0,0,1
4076000,4076000,0,nan,nan,0.0003451072,0.002231292,-0.0053998623,-5.1371288e-08,1.2035016e-08,0.0,0.0017847554,0.0077278716,-0.012044871,-0.0051117544,-8.561881e-06,2.005836e-06,0.0018587112,-0.005421563,0.0061209425,-0.012709758,1.6172725,0.004199269,nan,0.10288545,0.020705298,4.4721684,0.13394313,0.058576956,inf,inf,inf,inf,0,0,0,0,1,1,1,1,1,0,0,0,0,0,1
4084000,4084000,0,nan,nan,0.0003526968,0.0022432595,-0.005401441,-5.1371288e-08,1.2035016e-08,0.0,0.0017218464,0.0077614114,-0.012051843,-0.005128799,-8.561881e-06,2.005836e-06,0.0018587112,0.005907073,0.030508729,-0.0249641,1.6171643,0.004199269,nan,0.10280407,0.021669094,4.472171,0.1386128,0.05919086,inf,inf,inf,inf,0,0,0,0,1,1,1,1,1,0,0,0,0,0,1
4092000,4092000,0,nan,nan,0.00036086506,0.0022560456,-0.005405761,-5.1371288e-08,1.2035016e-08,0.0,0.0018797867,0.007837803,-0.012075384,-0.005164028,-8.561881e-06,2.005836e-06,0.0018587112,0.022926018,0.019570172,-0.0020582227,1.617069,0.004199269,nan,0.10272449,0.022679336,4.4721727,0.14337203,0.059804652,inf,inf,inf,inf,0,0,0,0,1,1,1,1,1,0,0,0,0,0,1
4100000,4100000,0,nan,nan,0.00037042474,0.0022689418,-0.0054119164,-5.1371288e-08,1.2035016e-08,0.0,0.0020570431,0.007832453,-0.0120936,-0.005195494,-8.561881e-06,2.005836e-06,0.0018587112,0.0233163,0.028371809,-0.034072433,1.616985,0.004199269,nan,0.102647156,0.023736477,4.472175,0.14819956,0.060418367,inf,inf,inf,inf,0,0,0,0,1,1,1,1,1,0,0,0,0,0,1
4108000,4108000,0,nan,nan,0.00038125878,0.0022828314,-0.0054211495,-5.1371288e-08,1.2035016e-08,0.0,0.0022065034,0.00795657,-0.012207663,-0.0053243362,-8.561881e-06,2.005836e-06,0.0018587112,0.023305444,0.021800179,-0.022162681,1.6169171,0.004199269,nan,0.10257359,0.024840834,4.472177,0.15313345,0.06103199,inf,inf,inf,inf,0,0,0,0,1,1,1,1,1,0,0,0,0,0,1
4116000,4116000,0,nan,nan,0.0003927337,0.002296878,-0.005433092,-5.1371288e-08,1.2035016e-08,0.0,0.0021234306,0.007902899,-0.012290129,-0.0054230597,-8.561881e-06,2.005836e-06,0.0018587112,-0.027869914,0.018409612,-0.03152061,1.6168493,0.004199269,nan,0.102502584,0.025992934,4.4721794,0.15815425,0.061645538,inf,inf,inf,inf,0,0,0,0,1,1,1,1,1,0,0,0,0,0,1
4124000,4124000,0,nan,nan,0.00040221348,0.002311547,-0.005448542,-5.1371288e-08,1.2035016e-08,0.0,0.0018104789,0.008033434,-0.0124900015,-0.0056406166,-8.561881e-06,2.005836e-06,0.0018587112,-0.029637098,0.03358998,-0.029889865,1.6167489,0.004199269,nan,0.10243535,0.027193211,4.472182,0.1632589,0.062259015,inf,inf,inf,inf,0,0,0,0,1,1,1,1,1,0,0,0,0,0,1
4132000,4132000,0,nan,nan,0.00040991418,0.0023271064,-0.0054669343,-5.1371288e-08,1.2035016e-08,0.0,0.0016541407,0.00803309,-0.012534473,-0.0057041505,-8.561881e-06,2.005836e-06,0.0018587112,-0.014328979,0.007367838,-0.018170102,1.6166822,0.004199269,nan,0.10237062,0.028442068,4.472184,0.16847001,0.06287242,inf,inf,inf,inf,0,0,0,0,1,1,1,1,1,0,0,0,0,0,1
4140000,4140000,0,nan,nan,0.0004166873,0.0023427445,-0.005487215,-5.1371288e-08,1.2035016e-08,0.0,0.0015686731,0.008071394,-0.012420924,-0.0056109927,-8.561881e-06,2.005836e-06,0.0018587112,-0.006473972,0.030947687,0.00780262,1.6166288,0.004199269,nan,0.10230614,0.029740067,4.4721866,0.17377412,0.06348575,inf,inf,inf,inf,0,0,0,0,1,1,1,1,1,0,0,0,0,0,1
4148000,4148000,0,nan,nan,0.0004232797,0.0023593784,-0.0055085327,-5.1371288e-08,1.2035016e-08,0.0,0.001614304,0.008189248,-0.012324369,-0.0055361106,-8.561881e-06,2.005836e-06,0.0018587112,0.012839605,0.033194155,-0.0036573035,1.6165713,0.004199269,nan,0.102241434,0.031087693,4.4721894,0.17915516,0.06409901,inf,inf,inf,inf,0,0,0,0,1,1,1,1,1,0,0,0,0,0,1
4156000,4156000,0,nan,nan,0.00043055884,0.0023775394,-0.00553137,-5.1371288e-08,1.2035016e-08,0.0,0.00171505,0.008376883,-0.012289612,-0.0055242633,-8.561881e-06,2.005836e-06,0.0018587112,0.01492763,0.03962661,-0.009364448,1.6165211,0.004199269,nan,0.10217772,0.032485332,4.472192,0.18462116,0.064712204,inf,inf,inf,inf,0,0,0,0,1,1,1,1,1,0,0,0,0,0,1
4164000,4164000,0,nan,nan,0.00043821082,0.002396988,-0.0055561536,-5.1371288e-08,1.2035016e-08,0.0,0.0016733521,0.008376315,-0.012336322,-0.0055950736,-8.561881e-06,2.005836e-06,0.0018587112,-0.0091908,0.00056576385,-0.025080515,1.616467,0.004199269,nan,0.10211527,0.033933427,4.4721947,0.19018087,0.06532535,inf,inf,inf,inf,0,0,0,0,1,1,1,1,1,0,0,0,0,0,1
4172000,4172000,0,nan,nan,0.00044527766,0.002415524,-0.0055837855,-5.1371288e-08,1.2035016e-08,0.0,0.0015904098,0.008159813,-0.012419994,-0.0057039927,-8.561881e-06,2.005836e-06,0.0018587112,-0.0069513624,-0.004780522,-0.005917623,1.616408,0.004199269,nan,0.102054626,0.0354325,4.4721975,0.19582929,0.06593845,inf,inf,inf,inf,0,0,0,0,1,1,1,1,1,0,0,0,0,0,1
4180000,4180000,0,nan,nan,0.00045210507,0.0024333806,-0.0056123557,-5.1371288e-08,1.2035016e-08,0.0,0.0016087961,0.008076292,-0.012160345,-0.005470696,-8.561881e-06,2.005836e-06,0.0018587112,0.00657374,1.8946592e-05,0.018498858,1.6163722,0.004199269,nan,0.10199386,0.036983036,4.4722004,0.20156433,0.06655149,inf,inf,inf,inf,0,0,0,0,1,1,1,1,1,0,0,0,0,0,1
4188000,4188000,0,nan,nan,0.00045866013,0.0024506687,-0.005641665,-5.1371288e-08,1.2035016e-08,0.0,0.0014783698,0.008012747,-0.012158939,-0.005496706,-8.561881e-06,2.005836e-06,0.0018587112,-0.02104543,0.019994024,-0.020977108,1.6163381,0.004199269,nan,0.10193239,0.03858552,4.4722037,0.20739405,0.06716449,inf,inf,inf,inf,0,0,0,0,1,1,1,1,1,0,0,0,0,0,1
4196000,4196000,0,nan,nan,0.00045827872,0.0024500699,-0.0056530884,-5.1371288e-08,1.2035016e-08,0.0,0.0013693799,0.008182635,-0.012198458,-0.0055444757,-8.561881e-06,2.005836e-06,0.0018587112,0.0018381833,0.042474564,-0.0043418254,1.6163714,0.004199269,nan,0.10248267,0.013342168,4.0825367,0.10298292,0.06777708,inf,inf,inf,inf,0,0,0,0,1,1,1,1,1,0,0,0,0,0,1
4204000,4204000,4204000,47.3977508,8.5456073,0.00045797648,0.0024502277,-0.005665978,-5.1371288e-08,1.2035016e-08,0.0,0.0014711122,0.008193117,-0.011966776,-0.0053227427,-8.561881e-06,2.005836e-06,0.0018587112,0.020050617,0.03085265,0.017354263,1.6163813,0.004199269,488.09784,0.10240121,0.013923357,4.0825396,0.10673268,0.06838995,inf,inf,inf,inf,0,0,0,0,1,1,1,1,1,0,1,1,0,0,1
4212000,4212000,4204000,47.3977508,8.5456073,0.00045848722,0.0024508224,-0.0056803967,-5.1371288e-08,1.2035016e-08,0.0,0.0015658087,0.008231701,-0.01200925,-0.0053768065,-8.561881e-06,2.005836e-06,0.0018587112,0.01584328,0.02985954,-0.023371538,1.6164196,0.004199269,488.09784,0.10231951,0.014552033,4.0825424,0.1105383,0.069002785,inf,inf,inf,inf,0,0,0,0,1,1,1,1,1,0,1,1,0,0,1
4220000,4220000,4204000,47.3977508,8.5456073,0.0004592199,0.002452331,-0.0056976723,-5.1371288e-08,1.2035016e-08,0.0,0.0015151107,0.008376302,-0.012010434,-0.005391163,-8.561881e-06,2.005836e-06,0.0018587112,-0.0069620432,0.043233942,0.002959743,1.6164575,0.004199269,488.09784,0.102240175,0.0152281625,4.0825458,0.114398934,0.069615565,inf,inf,inf,inf,0,0,0,0,1,1,1,1,1,0,1,1,0,0,1
4228000,4228000,4204000,47.3977508,8.5456073,0.00045935274,0.002453952,-0.005702951,-5.1371288e-08,1.2035016e-08,0.0,0.001491699,0.008398115,-0.011963402,-0.0053409366,-8.561881e-06,2.005836e-06,0.0018587112,0.009451483,0.030913578,-0.024479812,1.6164923,0.004199269,488.09784,0.10258,0.015276217,4.082542,0.10915729,0.066261955,inf,inf,inf,inf,0,0,0,0,1,1,1,1,1,0,1,1,0,0,1
4236000,4236000,4204000,47.3977508,8.5456073,0.00045966308,0.0024561915,-0.005711022,-5.1371288e-08,1.2035016e-08,0.0,0.0015530452,0.008464926,-0.012026209,-0.005402566,-8.561881e-06,2.005836e-06,0.0018587112,0.01620798,0.029410277,-0.012310221,1.6165283,0.004199269,488.09784,0.10250199,0.015962103,4.0825453,0.11285246,0.06684752,inf,inf,inf,inf,0,0,0,0,1,1,1,1,1,0,1,1,0,0,1
4244000,4244000,4204000,47.3977508,8.5456073,0.00046119795,0.0024584741,-0.0057210987,-5.1371288e-08,1.2035016e-08,0.0,0.0017989414,0.008371958,-0.011938412,-0.00531554,-8.561881e-06,2.005836e-06,0.0018587112,0.03704161,0.009232346,-0.003925524,1.6165608,0.004199269,488.09784,0.10242531,0.016691333,4.0825486,0.11661165,0.06743303,inf,inf,inf,inf,0,0,0,0,1,1,1,1,1,0,1,1,0,0,1
4252000,4252000,4204000,47.3977508,8.5456073,0.00046404917,0.0024601794,-0.005733059,-5.1371288e-08,1.2035016e-08,0.0,0.0018610723,0.008314032,-0.011941716,-0.0053214994,-8.561881e-06,2.005836e-06,0.0018587112,0.0064451885,0.021922939,-0.014884396,1.6165844,0.004199269,488.09784,0.102349386,0.01746386,4.082552,0.12043231,0.068018496,inf,inf,inf,inf,0,0,0,0,1,1,1,1,1,0,1,1,0,0,1
4260000,4260000,4204000,47.3977508,8.5456073,0.0004669555,0.002461982,-0.005747265,-5.1371288e-08,1.2035016e-08,0.0,0.0018327505,0.0083358055,-0.011951748,-0.0053360094,-8.561881e-06,2.005836e-06,0.0018587112,-0.0022839957,0.026801134,-0.014836899,1.6166233,0.004199269,488.09784,0.102275856,0.018279588,4.082555,0.12429279,0.06860391,inf,inf,inf,inf,0,0,0,0,1,1,1,1,1,0,1,1,0,0,1
4268000,4268000,4204000,47.3977508,8.5456073,0.0004685575,0.0024642067,-0.0057632052,-5.1371288e-08,1.2035016e-08,0.0,0.0015514945,0.008345143,-0.011806097,-0.0051965974,-8.561881e-06,2.005836e-06,0.0018587112,-0.03255375,0.017072408,0.013186595,1.616632,0.004199269,488.09784,0.102204524,0.019138288,4.082558,0.1282267,0.069189295,inf,inf,inf,inf,0,0,0,0,1,1,1,1,1,0,1,1,0,0,1
4276000,4276000,4204000,47.3977508,8.5456073,0.00046853675,0.002465307,-0.0057804817,-5.1371288e-08,1.2035016e-08,0.0,0.0014775859,0.008079573,-0.011828083,-0.005226527,-8.561881e-06,2.005836e-06,0.0018587112,0.0036694398,-0.0011702649,-0.023604369,1.6166451,0.004199269,488.09784,0.10213385,0.020039907,4.082562,0.1322217,0.06977465,inf,inf,inf,inf,0,0,0,0,1,1,1,1,1,0,1,1,0,0,1
4284000,4284000,4204000,47.3977508,8.5456073,0.0004680174,0.0024658141,-0.0058001718,-5.1371288e-08,1.2035016e-08,0.0,0.0013983404,0.0081052715,-0.01186427,-0.005272304,-8.561881e-06,2.005836e-06,0.0018587112,-0.0063440087,0.024126245,-0.017106531,1.616657,0.004199269,488.09784,0.102065824,0.020984337,4.082566,0.13625933,0.07035995,inf,inf,inf,inf,0,0,0,0,1,1,1,1,1,0,1,1,0,0,1
4292000,4292000,4204000,47.3977508,8.5456073,0.00046739154,0.0024663147,-0.0058222488,-5.1371288e-08,1.2035016e-08,0.0,0.0014882815,0.008046728,-0.011891579,-0.005310792,-8.561881e-06,2.005836e-06,0.0018587112,0.02214391,0.018841935,-0.008220783,1.6166829,0.004199269,488.09784,0.102000445,0.02197137,4.0825696,0.14037147,0.07094523,inf,inf,inf,inf,0,0,0,0,1,1,1,1,1,0,1,1,0,0,1
4300000,4300000,4204000,47.3977508,8.5456073,0.00046757763,0.0024666833,-0.0058461153,-5.1371288e-08,1.2035016e-08,0.0,0.0015803855,0.007962304,-0.011868577,-0.005300504,-8.561881e-06,2.005836e-06,0.0018587112,0.015394528,0.0026407796,-0.013437121,1.6166742,0.004199269,488.09784,0.1019362,0.023001011,4.0825734,0.14453927,0.071530476,inf,inf,inf,inf,0,0,0,0,1,1,1,1,1,0,1,1,0,0,1
4308000,4308000,4204000,47.3977508,8.5456073,0.00046801855,0.0024663191,-0.0058719,-5.1371288e-08,1.2035016e-08,0.0,0.0015476398,0.007866865,-0.011864347,-0.005310469,-8.561881e-06,2.005836e-06,0.0018587112,-0.0023168102,0.01809142,-0.009723938,1.6166757,0.004199269,488.09784,0.10187342,0.024073182,4.082577,0.14876474,0.07211569,inf,inf,inf,inf,0,0,0,0,1,1,1,1,1,0,1,1,0,0,1
4316000,4316000,4204000,47.3977508,8.5456073,0.0004677695,0.002465374,-0.005900203,-5.1371288e-08,1.2035016e-08,0.0,0.001411587,0.0076849936,-0.012053007,-0.0055147833,-8.561881e-06,2.005836e-06,0.0018587112,-0.015076365,-0.008425413,-0.040454786,1.6166835,0.004199269,488.09784,0.10181227,0.025187835,4.0825815,0.15305552,0.07270087,inf,inf,inf,inf,0,0,0,0,1,1,1,1,1,0,1,1,0,0,1
4324000,4324000,4204000,47.3977508,8.5456073,0.00046708056,0.0024625708,-0.0059321085,-5.1371288e-08,1.2035016e-08,0.0,0.0014977701,0.007341753,-0.01226246,-0.0057412987,-8.561881e-06,2.005836e-06,0.0018587112,0.027270578,-0.024930412,-0.033977438,1.6166955,0.004199269,488.09784,0.10175399,0.026345009,4.082586,0.15739469,0.07328602,inf,inf,inf,inf,0,0,0,0,1,1,1,1,1,0,1,1,0,0,1
4332000,4332000,4204000,47.3977508,8.5456073,0.00046728994,0.0024575302,-0.0059667462,-5.1371288e-08,1.2035016e-08,0.0,0.0015400244,0.007110827,-0.012251595,-0.0057488536,-8.561881e-06,2.005836e-06,0.0018587112,-0.002581626,0.0060711605,-0.00018440186,1.6167076,0.004199269,488.09784,0.10169797,0.02754465,4.08259,0.16179712,0.07387114,inf,inf,inf,inf,0,0,0,0,1,1,1,1,1,0,1,1,0,0,1
4340000,4340000,4204000,47.3977508,8.5456073,0.00046741116,0.0024522329,-0.0060025235,-5.1371288e-08,1.2035016e-08,0.0,0.0015628551,0.007116985,-0.012141471,-0.005658459,-8.561881e-06,2.005836e-06,0.0018587112,0.016940495,0.01747666,0.0005355104,1.6166986,0.004199269,488.09784,0.101642236,0.028786844,4.082595,0.16625749,0.074456245,inf,inf,inf,inf,0,0,0,0,1,1,1,1,1,0,1,1,0,0,1
4348000,4348000,4204000,47.3977508,8.5456073,0.00046826171,0.0024468282,-0.006039635,-5.1371288e-08,1.2035016e-08,0.0,0.0016824832,0.0070069665,-0.012120342,-0.00565832,-8.561881e-06,2.005836e-06,0.0018587112,0.01967803,0.0068557854,-0.005576759,1.6167017,0.004199269,488.09784,0.10158761,0.030071653,4.082599,0.170765,0.07504132,inf,inf,inf,inf,0,0,0,0,1,1,1,1,1,0,1,1,0,0,1
4356000,4356000,4204000,47.3977508,8.5456073,0.0004699721,0.0024410011,-0.00607837,-5.1371288e-08,1.2035016e-08,0.0,0.0017631756,0.0069015813,-0.012111149,-0.0056713317,-8.561881e-06,2.005836e-06,0.0018587112,0.012504285,0.0051418315,-0.008069909,1.6166908,0.004199269,488.09784,0.10153436,0.0313991,4.082604,0.17534086,0.07562636,inf,inf,inf,inf,0,0,0,0,1,1,1,1,1,0,1,1,0,0,1
4364000,4364000,4204000,47.3977508,8.5456073,0.00047210808,0.0024348162,-0.006118507,-5.1371288e-08,1.2035016e-08,0.0,0.0017879747,0.006866909,-0.012064724,-0.005648281,-8.561881e-06,2.005836e-06,0.0018587112,0.0067395153,0.027621979,-0.009967013,1.6166676,0.004199269,488.09784,0.10148155,0.03276938,4.082609,0.17997494,0.076211385,inf,inf,inf,inf,0,0,0,0,1,1,1,1,1,0,1,1,0,0,1
4372000,4372000,4204000,47.3977508,8.5456073,0.00047390562,0.0024299328,-0.0061608963,-5.1371288e-08,1.2035016e-08,0.0,0.0016627363,0.0070279036,-0.012195349,-0.0058034053,-8.561881e-06,2.005836e-06,0.0018587112,-0.013860335,0.03024694,-0.018596647,1.6166583,0.004199269,488.09784,0.10143004,0.03418263,4.082614,0.18466565,0.0767964,inf,inf,inf,inf,0,0,0,0,1,1,1,1,1,0,1,1,0,0,1
4380000,4380000,4204000,47.3977508,8.5456073,0.00047562388,0.0024256727,-0.0062055313,-5.1371288e-08,1.2035016e-08,0.0,0.0018055798,0.0069414033,-0.012232588,-0.0058662263,-8.561881e-06,2.005836e-06,0.0018587112,0.03131758,0.007982947,-0.013413838,1.6166441,0.004199269,488.09784,0.101380065,0.035639018,4.082619,0.18941,0.07738138,inf,inf,inf,inf,0,0,0,0,1,1,1,1,1,0,1,1,0,0,1
4388000,4388000,4204000,47.3977508,8.5456073,0.00047841622,0.0024215605,-0.00625182,-5.1371288e-08,1.2035016e-08,0.0,0.0018272568,0.0069827046,-0.012189186,-0.005849447,-8.561881e-06,2.005836e-06,0.0018587112,-0.007145441,0.03442395,-0.001461245,1.6166279,0.004199269,488.09784,0.10133119,0.037138697,4.0826244,0.19421257,0.07796635,inf,inf,inf,inf,0,0,0,0,1,1,1,1,1,0,1,1,0,0,1
4396000,4396000,4204000,47.3977508,8.5456073,0.00048044356,0.0024195518,-0.006299654,-5.1371288e-08,1.2035016e-08,0.0,0.0016932273,0.007280375,-0.012240005,-0.005927888,-8.561881e-06,2.005836e-06,0.0018587112,-0.0037637944,0.051710896,-0.020087695,1.6166074,0.004199269,488.09784,0.10128247,0.038681872,4.08263,0.19908549,0.07855129,inf,inf,inf,inf,0,0,0,0,1,1,1,1,1,0,1,1,0,0,1
4404000,4404000,4204000,47.3977508,8.5456073,0.00048077176,0.0024054823,-0.006326462,-5.1371288e-08,1.2035016e-08,0.0,0.0017982234,0.007190835,-0.0123384325,-0.006031578,-8.561881e-06,2.005836e-06,0.0018587112,0.021112237,0.0057522845,-0.014653428,1.6165819,0.004199269,488.09784,0.101939425,0.013343203,3.7797658,0.093269356,0.07913573,inf,inf,inf,inf,0,0,0,0,1,1,1,1,1,0,1,1,0,0,1
4412000,4412000,4204000,47.3977508,8.5456073,0.0004815289,0.0023910322,-0.006355823,-5.1371288e-08,1.2035016e-08,0.0,0.0017401065,0.007136524,-0.012373525,-0.006073681,-8.561881e-06,2.005836e-06,0.0018587112,-0.011820171,0.024945037,-0.02074614,1.6166288,0.004199269,488.09784,0.10186861,0.013894297,3.7797713,0.09606364,0.079720646,inf,inf,inf,inf,0,0,0,0,1,1,1,1,1,0,1,1,0,0,1
4420000,4420000,4204000,47.3977508,8.5456073,0.00048173586,0.0023764314,-0.006388095,-5.1371288e-08,1.2035016e-08,0.0,0.0017301803,0.0069839973,-0.012406555,-0.00611541,-8.561881e-06,2.005836e-06,0.0018587112,0.01519671,-0.0024047475,0.0067362557,1.6166916,0.004199269,488.09784,0.10180059,0.014481062,3.7797766,0.09889039,0.08030555,inf,inf,inf,inf,0,0,0,0,1,1,1,1,1,0,1,1,0,0,1
4428000,4428000,4204000,47.3977508,8.5456073,0.0004826886,0.0023608408,-0.006421073,-5.1371288e-08,1.2035016e-08,0.0,0.0018577853,0.0068315053,-0.01209817,-0.0058173514,-8.561881e-06,2.005836e-06,0.0018587112,0.01886452,0.011413634,0.027561558,1.6167529,0.004199269,488.09784,0.10173324,0.015103169,3.7797823,0.10175729,0.08089043,inf,inf,inf,inf,0,0,0,0,1,1,1,1,1,0,1,1,0,0,1
4436000,4436000,4204000,47.3977508,8.5456073,0.00048423145,0.0023447867,-0.006432492,-5.1371288e-08,1.2035016e-08,0.0,0.0019054257,0.0068042297,-0.0121677425,-0.0058704866,-8.561881e-06,2.005836e-06,0.0018587112,0.0063870535,0.021574756,-0.03344379,1.6168071,0.004199269,488.09784,0.10235541,0.015184014,3.7797687,0.09815656,0.075454466,inf,inf,inf,inf,0,0,0,0,1,1,1,1,1,0,1,1,0,0,1
4444000,4444000,4204000,47.3977508,8.5456073,0.00048639753,0.0023288277,-0.0064468076,-5.1371288e-08,1.2035016e-08,0.0,0.0020700293,0.006721328,-0.012223048,-0.005911755,-8.561881e-06,2.005836e-06,0.0018587112,0.03886917,0.010545394,-0.023250466,1.616869,0.004199269,488.09784,0.102283075,0.015816292,3.7797737,0.10092292,0.07600434,inf,inf,inf,inf,0,0,0,0,1,1,1,1,1,0,1,1,0,0,1
4452000,4452000,4204000,47.3977508,8.5456073,0.00049005734,0.002312742,-0.0064640613,-5.1371288e-08,1.2035016e-08,0.0,0.0021336454,0.006667323,-0.012286775,-0.0059637697,-8.561881e-06,2.005836e-06,0.0018587112,-0.006043672,0.017267141,-0.008290633,1.6169193,0.004199269,488.09784,0.10221291,0.016481008,3.779779,0.10373097,0.0765542,inf,inf,inf,inf,0,0,0,0,1,1,1,1,1,0,1,1,0,0,1
4460000,4460000,4204000,47.3977508,8.5456073,0.0004931709,0.0022962454,-0.0064826026,-5.1371288e-08,1.2035016e-08,0.0,0.0019978613,0.006479163,-0.012067502,-0.005735036,-8.561881e-06,2.005836e-06,0.0018587112,-0.0101754265,-0.0039969888,0.011560506,1.6169665,0.004199269,488.09784,0.102142945,0.017177962,3.7797842,0.10656979,0.07710404,inf,inf,inf,inf,0,0,0,0,1,1,1,1,1,0,1,1,0,0,1
4468000,4468000,4204000,47.3977508,8.5456073,0.00049583695,0.0022784711,-0.0065026586,-5.1371288e-08,1.2035016e-08,0.0,0.0020495402,0.0062349983,-0.012164483,-0.0058247326,-8.561881e-06,2.005836e-06,0.0018587112,0.024446808,-0.007843788,-0.034517605,1.6170158,0.004199269,488.09784,0.102074124,0.017906899,3.7797897,0.10943963,0.07765387,inf,inf,inf,inf,0,0,0,0,1,1,1,1,1,0,1,1,0,0,1
4476000,4476000,4204000,47.3977508,8.5456073,0.0004995544,0.0022592212,-0.006525847,-5.1371288e-08,1.2035016e-08,0.0,0.0021444685,0.005972626,-0.012253628,-0.005908703,-8.561881e-06,2.005836e-06,0.0018587112,0.006112881,-0.013264376,-0.0133514395,1.6170505,0.004199269,488.09784,0.10200801,0.018667573,3.7797954,0.11234769,0.078203686,inf,inf,inf,inf,0,0,0,0,1,1,1,1,1,0,1,1,0,0,1
4484000,4484000,4204000,47.3977508,8.5456073,0.000503345,0.0022382124,-0.0065506226,-5.1371288e-08,1.2035016e-08,0.0,0.0020974297,0.005669893,-0.01210894,-0.0057608783,-8.561881e-06,2.005836e-06,0.0018587112,0.001079752,-0.017842393,0.0032847745,1.6171304,0.004199269,488.09784,0.10194254,0.019459797,3.7798014,0.11529217,0.07875349,inf,inf,inf,inf,0,0,0,0,1,1,1,1,1,0,1,1,0,0,1
4492000,4492000,4204000,47.3977508,8.5456073,0.00050703547,0.0022156674,-0.0065767225,-5.1371288e-08,1.2035016e-08,0.0,0.0020481548,0.0054896576,-0.012083243,-0.0057340167,-8.561881e-06,2.005836e-06,0.0018587112,-0.011723095,0.006622649,-0.009490176,1.6172194,0.004199269,488.09784,0.1018775,0.020283392,3.779807,0.11826813,0.079303265,inf,inf,inf,inf,0,0,0,0,1,1,1,1,1,0,1,1,0,0,1
4500000,4500000,4204000,47.3977508,8.5456073,0.00050984253,0.002192258,-0.006605041,-5.1371288e-08,1.2035016e-08,0.0,0.0019409497,0.0052661356,-0.012152625,-0.00580414,-8.561881e-06,2.005836e-06,0.0018587112,0.0034656695,-0.01090567,-0.013136304,1.6173149,0.004199269,488.09784,0.10181409,0.02113817,3.7798133,0.12127819,0.079853036,inf,inf,inf,inf,0,0,0,0,1,1,1,1,1,0,1,1,0,0,1
