timestamp,timestamp_sample,ref_timestamp,ref_lat,ref_lon,x,y,z,delta_xy[0],delta_xy[1],delta_z,vx,vy,vz,z_deriv,delta_vxy[0],delta_vxy[1],delta_vz,ax,ay,az,heading,delta_heading,ref_alt,dist_bottom,eph,epv,evh,evv,vxy_max,vz_max,hagl_min,hagl_max,xy_valid,z_valid,v_xy_valid,v_z_valid,xy_reset_counter,z_reset_counter,vxy_reset_counter,vz_reset_counter,heading_reset_counter,heading_good_for_control,xy_global,z_global,dist_bottom_valid,dist_bottom_sensor_bitfield,dead_reckoning
3620000,3620000,0,nan,nan,0.0002763886,0.0011399027,-0.006563518,-5.1371288e-08,1.2035016e-08,0.0,0.0006415958,0.0045160996,-0.021570984,-0.016676398,-8.561881e-06,2.005836e-06,0.0018587112,-0.022784907,-9.908398e-05,-0.034051012,1.6166557,0.004199269,nan,0.1068027,0.012922751,5.7735023,0.10260611,0.025000082,inf,inf,inf,inf,0,0,0,0,1,1,1,1,1,0,0,0,0,0,1
4116000,4116000,0,nan,nan,0.0003927337,0.002296878,-0.005433092,-5.1371288e-08,1.2035016e-08,0.0,0.0021234306,0.007902899,-0.012290129,-0.0054230597,-8.561881e-06,2.005836e-06,0.0018587112,-0.027869914,0.018409612,-0.03152061,1.6168493,0.004199269,nan,0.102502584,0.025992934,4.4721794,0.15815425,0.061645538,inf,inf,inf,inf,0,0,0,0,1,1,1,1,1,0,0,0,0,0,1
4620000,4620000,4204000,47.3977508,8.5456073,0.00066003745,0.0018093879,-0.007162488,-5.1371288e-08,1.2035016e-08,0.0,0.00369226,0.004137177,-0.011825247,-0.005632032,-8.561881e-06,2.005836e-06,0.0018587112,0.045805294,0.019749612,0.0060107554,1.6186408,0.004199269,488.09784,0.10171127,0.013663596,3.535764,0.08214567,0.08809785,inf,inf,inf,inf,0,0,0,0,1,1,1,1,1,0,1,1,0,0,1
5116000,5116000,4204000,47.3977508,8.5456073,0.001171723,-0.00031116692,-0.0035708179,-5.1371288e-08,1.2035016e-08,0.0,0.0027794663,-0.00063265057,-0.009799418,-0.00048289652,-8.561881e-06,2.005836e-06,0.0018587112,0.01828058,0.00492025,0.018856486,1.6220193,0.004199269,488.09784,0.1,0.01725893,1.4314523,0.07401494,0.09110424,inf,inf,inf,inf,0,1,0,1,1,1,1,1,1,0,1,1,0,0,1
5620000,5620000,4204000,47.3977508,8.5456073,-0.0011374108,-0.00085705484,0.0040644347,-5.1371288e-08,1.2035016e-08,0.0,-0.004480246,-0.0008515477,-0.008362748,0.005617832,-8.561881e-06,2.005836e-06,0.0018587112,0.02695537,-0.004790272,0.017329117,1.6223434,0.004199269,488.09784,0.1017443,0.021086276,0.9051187,0.07200943,0.09537717,inf,inf,inf,inf,0,1,0,1,1,1,1,1,1,0,1,1,0,0,1
6116000,6116000,4204000,47.3977508,8.5456073,-0.0013501565,-0.0007218849,0.0001565481,-5.1371288e-08,1.2035016e-08,0.0,-0.0018968038,-0.0009916145,-0.007937921,-0.0001531324,-8.561881e-06,2.005836e-06,0.0018587112,-0.0016984267,-0.0038882424,0.020799225,1.6261241,0.004199269,488.09784,0.1,0.013368677,0.73188156,0.048232235,0.08653567,inf,inf,inf,inf,0,1,0,1,1,1,1,1,1,0,1,1,0,0,1
6620000,6620000,4204000,47.3977508,8.5456073,-0.0006494976,-0.0019234715,-0.0016049052,-5.1371288e-08,1.2035016e-08,0.0,-0.0016612338,-0.0055555785,-0.0046776254,0.0006816683,-8.561881e-06,2.005836e-06,0.0018587112,-0.021696905,0.0013157404,-0.021192243,1.6255822,0.004199269,488.09784,0.1,0.016472995,0.62221223,0.052084345,0.08652525,inf,inf,inf,inf,0,1,0,1,1,1,1,1,1,0,1,1,0,0,1
7116000,7116000,4204000,47.3977508,8.5456073,-0.00204597,-0.0020026308,-0.0015399916,-5.1371288e-08,1.2035016e-08,0.0,-0.008354628,-0.0035847537,-0.00012725203,0.0042496454,-8.561881e-06,2.005836e-06,0.0018587112,-0.0159474,-0.023236832,0.016180797,1.6261998,0.004199269,488.09784,0.10049824,0.011607177,0.55893207,0.04010394,0.08571675,inf,inf,inf,inf,0,1,0,1,1,1,1,1,1,0,1,1,0,0,1
7620000,7620000,4204000,47.3977508,8.5456073,-0.0032089422,-0.0003336514,0.002532507,-5.1371288e-08,1.2035016e-08,0.0,-0.0068503995,0.00034091147,0.0020426547,0.007392778,-8.561881e-06,2.005836e-06,0.0018587112,0.016862119,0.032713197,-0.018952413,1.626894,0.004199269,488.09784,0.1,0.014152356,0.506844,0.044123802,0.07853469,inf,inf,inf,inf,0,1,0,1,1,1,1,1,1,0,1,1,0,0,1
8116000,8116000,4204000,47.3977508,8.5456073,-0.0014513106,9.312543e-06,0.0011891461,-5.1371288e-08,1.2035016e-08,0.0,-0.0023342324,-0.0016952642,0.00065354834,0.0022979716,-8.561881e-06,2.005836e-06,0.0018587112,-0.025963787,-0.03628882,-0.02229493,1.6258205,0.004199269,488.09784,0.1,0.016903104,0.47299212,0.047859736,0.07842976,inf,inf,inf,inf,0,1,0,1,1,1,1,1,1,0,1,1,0,0,1
8620000,8620000,4204000,47.3977508,8.5456073,-8.37924e-05,0.007222511,-0.0017416009,0.00010148266,0.007699034,0.001011577,-0.020507526,-0.0006885453,0.051314477,0.048834216,-0.019027464,0.00025120756,0.049755506,-0.011194147,-0.0007355847,0.016032716,1.6276298,0.004199269,488.09784,0.1,1.4142176,1.0000064,0.4242828,0.45000878,inf,inf,inf,inf,1,1,1,1,2,2,2,2,1,0,1,1,0,0,0
9116000,9116000,4204000,47.3977508,8.5456073,-0.007884151,0.008271929,0.017545778,0.00010148266,0.007699034,0.001011577,-0.018384537,0.003118872,0.040517483,0.030017683,-0.019027464,0.00025120756,0.049755506,-0.0007973576,-0.0009843933,-0.011327676,1.6278096,0.004199269,488.09784,0.1,1.0059898,0.6117876,0.30069354,0.31709474,inf,inf,inf,inf,1,1,1,1,2,2,2,2,1,0,1,1,0,0,0
9620000,9620000,4204000,47.3977508,8.5456073,-0.0057205833,0.0058170813,0.010955086,0.00010148266,0.007699034,0.001011577,-0.012880242,0.0012485476,0.019614302,0.00048331916,-0.019027464,0.00025120756,0.049755506,-0.03846541,-0.0037016433,0.0012163072,1.6276321,0.004199269,488.09784,0.1,0.83171755,0.5000552,0.24852501,0.25733426,inf,inf,inf,inf,1,1,1,1,2,2,2,2,1,0,1,1,0,0,0
10116000,10116000,4204000,47.3977508,8.5456073,-0.0091029685,0.0056311293,0.006469909,0.00010148266,0.007699034,0.001011577,-0.01380852,0.0017976394,0.01035955,-0.00794022,-0.019027464,0.00025120756,0.049755506,0.025301982,-0.006522881,-0.018237157,1.6279918,0.004199269,488.09784,0.1,0.73419166,0.44491962,0.22209394,0.22101325,inf,inf,inf,inf,1,1,1,1,2,2,2,2,1,0,1,1,0,0,0
10620000,10620000,4204000,47.3977508,8.5456073,-0.0053453594,0.011077476,0.0050424202,0.00010148266,0.007699034,0.001011577,-0.0078525,0.0045526903,0.00815841,-0.0049708243,-0.019027464,0.00025120756,0.049755506,0.031517554,0.0060954187,0.014501623,1.626391,0.004199269,488.09784,0.101778276,0.6038058,0.38045758,0.18766072,0.17700693,inf,inf,inf,inf,1,1,1,1,2,2,2,2,1,0,1,1,0,0,0
11116000,11116000,4204000,47.3977508,8.5456073,-0.0019786349,0.01093648,0.01130292,0.00010148266,0.007699034,0.001011577,-0.0025595003,0.0040390445,0.01614583,0.008390955,-0.019027464,0.00025120756,0.049755506,-0.0056120767,0.041563004,0.033835877,1.6272944,0.004199269,488.09784,0.1,0.57440686,0.37061515,0.18860751,0.16302079,inf,inf,inf,inf,1,1,1,1,2,2,2,2,1,0,1,1,0,0,0
11620000,11620000,4204000,47.3977508,8.5456073,0.002830471,0.006754861,0.0183872,0.00010148266,0.007699034,0.001011577,0.0040028957,-0.0006966906,0.02448785,0.017037664,-0.019027464,0.00025120756,0.049755506,-0.01117395,-0.0090924,0.013546086,1.6260415,0.004199269,488.09784,0.1,0.55639565,0.365238,0.19665347,0.1522388,inf,inf,inf,inf,1,1,1,1,2,2,2,2,1,0,1,1,0,0,0
12116000,12116000,4204000,47.3977508,8.5456073,0.0034702402,0.0054351017,0.022098651,0.00010148266,0.007699034,0.001011577,0.0036741202,-0.003003806,0.025381835,0.013388474,-0.019027464,0.00025120756,0.049755506,-0.0047365753,0.032867506,-0.005911104,1.6248187,0.004199269,488.09784,0.1,0.54647464,0.36426717,0.20844194,0.14430192,inf,inf,inf,inf,1,1,1,1,2,2,2,2,1,0,1,1,0,0,0
12620000,12620000,4204000,47.3977508,8.5456073,0.0026854416,0.0055198884,0.024953544,0.00010148266,0.007699034,0.001011577,0.00025664413,-0.0007507862,0.027369842,0.012169704,-0.019027464,0.00025120756,0.049755506,-0.012543605,0.017794706,0.042106953,1.6256416,0.004199269,488.09784,0.1,0.4970199,0.33586967,0.19488291,0.12896629,inf,inf,inf,inf,1,1,1,1,2,2,2,2,1,0,1,1,0,0,0
13116000,13116000,4204000,47.3977508,8.5456073,-0.0011310569,0.009030814,0.020313378,0.00010148266,0.007699034,0.001011577,-0.0035103313,0.0015824132,0.026437508,0.004050661,-0.019027464,0.00025120756,0.049755506,0.010890289,0.0017222627,0.034807246,1.6242534,0.004199269,488.09784,0.1,0.49765313,0.33831382,0.2058762,0.12590663,inf,inf,inf,inf,1,1,1,1,2,2,2,2,1,0,1,1,0,0,0
13620000,13620000,4204000,47.3977508,8.5456073,-0.006458458,0.010340139,0.021352857,0.00010148266,0.007699034,0.001011577,-0.008989334,0.0051402804,0.026263997,0.0031060292,-0.019027464,0.00025120756,0.049755506,-0.034588285,6.989284e-05,0.0049313526,1.6235921,0.004199269,488.09784,0.1,0.50309426,0.34049472,0.21640828,0.12406618,inf,inf,inf,inf,1,1,1,1,2,2,2,2,1,0,1,1,0,0,0
14116000,14116000,4204000,47.3977508,8.5456073,-0.014285869,0.011375514,0.019855808,0.00010148266,0.007699034,0.001011577,-0.011380958,0.005394536,0.026089367,0.0013967042,-0.019027464,0.00025120756,0.049755506,-0.021060666,0.0013219832,0.01799967,1.6232115,0.004199269,488.09784,0.1,0.51108384,0.34409785,0.22494577,0.123459585,inf,inf,inf,inf,1,1,1,1,2,2,2,2,1,0,1,1,0,0,0
14620000,14620000,4204000,47.3977508,8.5456073,-0.011172017,0.010919435,0.023943666,0.00010148266,0.007699034,0.001011577,-0.00743797,0.0077307834,0.025445418,0.0043060225,-0.019027464,0.00025120756,0.049755506,0.022574604,0.038525406,-0.012349336,1.6213901,0.004199269,488.09784,0.1,0.47263694,0.3242568,0.2008596,0.11642374,inf,inf,inf,inf,1,1,1,1,2,2,2,2,1,0,1,1,0,0,0
15116000,15116000,4204000,47.3977508,8.5456073,-0.0020327682,0.0070456676,0.023593096,0.00010148266,0.007699034,0.001011577,-0.0022140108,0.0045034024,0.025468117,0.0027388646,-0.019027464,0.00025120756,0.049755506,0.009805327,0.02671663,0.020199453,1.620483,0.004199269,488.09784,0.1,0.48174718,0.32741612,0.2064547,0.11732906,inf,inf,inf,inf,1,1,1,1,2,2,2,2,1,0,1,1,0,0,0
15620000,15620000,4204000,47.3977508,8.5456073,0.0026629337,0.0044654696,0.022637088,0.00010148266,0.007699034,0.001011577,0.001393421,0.002841548,0.0270505,0.002664172,-0.019027464,0.00025120756,0.049755506,-0.012507589,-0.045898817,0.021812504,1.6202066,0.004199269,488.09784,0.10198678,0.4934121,0.33308306,0.21175444,0.11904843,inf,inf,inf,inf,1,1,1,1,2,2,2,2,1,0,1,1,0,0,0
16116000,16116000,4204000,47.3977508,8.5456073,0.0022140858,0.0025630721,0.024090849,0.00010148266,0.007699034,0.001011577,0.0024763576,0.0030286736,0.027384417,0.003443003,-0.019027464,0.00025120756,0.049755506,-0.007877373,-0.041873936,0.0011818482,1.6194386,0.004199269,488.09784,0.1008323,0.50516033,0.3385019,0.21563734,0.120821185,inf,inf,inf,inf,1,1,1,1,2,2,2,2,1,0,1,1,0,0,0
16620000,16620000,4204000,47.3977508,8.5456073,0.002878704,0.0059751635,0.026469564,0.00010148266,0.007699034,0.001011577,0.0055951052,0.0042894264,0.032294307,0.008610047,-0.019027464,0.00025120756,0.049755506,0.028657928,-0.007491922,-0.0010421498,1.6171523,0.004199269,488.09784,0.100153066,0.468042,0.31970128,0.19137415,0.11532406,inf,inf,inf,inf,1,1,1,1,2,2,2,2,1,0,1,1,0,0,0
17116000,17116000,4204000,47.3977508,8.5456073,0.0030714308,0.006627227,0.027482007,0.00010148266,0.007699034,0.001011577,0.007955542,0.003913173,0.03386284,0.007784337,-0.019027464,0.00025120756,0.049755506,0.0048792423,0.005848211,-0.011280178,1.6178434,0.004199269,488.09784,0.1,0.47884458,0.3256381,0.19485505,0.11736138,inf,inf,inf,inf,1,1,1,1,2,2,2,2,1,0,1,1,0,0,0
17620000,17620000,4204000,47.3977508,8.5456073,0.00318509,0.006681285,0.031524118,0.00010148266,0.007699034,0.001011577,0.008753181,0.0019022599,0.0330421,0.007188658,-0.019027464,0.00025120756,0.049755506,-0.003960609,-0.0034234107,0.032291744,1.6166968,0.004199269,488.09784,0.1,0.49116164,0.33106545,0.19848491,0.11926725,inf,inf,inf,inf,1,1,1,1,2,2,2,2,1,0,1,1,0,0,0
18116000,18116000,4204000,47.3977508,8.5456073,-0.000548752,0.004059061,0.027752362,0.00010148266,0.007699034,0.001011577,-0.0015317072,0.0018481376,-0.015177661,-0.044023685,-0.019027464,0.00025120756,0.049755506,-0.09401445,-0.014975317,-0.4344573,1.615892,0.004199269,488.09784,0.107794456,0.503264,0.33762452,0.20178188,0.12123761,inf,inf,inf,inf,1,1,1,1,2,2,2,2,1,0,1,1,0,0,0
18620000,18620000,4204000,47.3977508,8.5456073,-0.04369687,-0.0284408,-0.055838853,0.00010148266,0.007699034,0.001011577,-0.17360306,-0.16676016,-0.32817036,-0.3528628,-0.019027464,0.00025120756,0.049755506,-0.16916408,-0.19959468,-0.91808933,1.6222706,0.004199269,488.09784,0.19138567,0.46701938,0.3207262,0.18222012,0.11571876,inf,inf,inf,inf,1,1,1,1,2,2,2,2,1,0,1,1,0,0,0
19116000,19116000,4204000,47.3977508,8.5456073,-0.13528432,-0.10349894,-0.31815824,0.00010148266,0.007699034,0.001011577,-0.14157999,-0.13552192,-0.5657404,-0.5889882,-0.019027464,0.00025120756,0.049755506,0.17556445,0.16123079,0.071045935,1.6202343,0.004199269,488.09784,0.45370507,0.47784302,0.32578906,0.18679382,0.11733989,inf,inf,inf,inf,1,1,1,1,2,2,2,2,1,0,1,1,0,0,0
19620000,19620000,4204000,47.3977508,8.5456073,-0.19504952,-0.15522318,-0.6279245,0.00010148266,0.007699034,0.001011577,-0.0274877,-0.039447736,-0.6264548,-0.64877814,-0.019027464,0.00025120756,0.049755506,0.24292311,0.16670525,-0.08248537,1.6184033,0.004199269,488.09784,0.7634713,0.48998523,0.33297235,0.1899209,0.11929454,inf,inf,inf,inf,1,1,1,1,2,2,2,2,1,0,1,1,0,0,0
20116000,20116000,4204000,47.3977508,8.5456073,-0.19079329,-0.16659485,-0.963131,0.00010148266,0.007699034,0.001011577,0.06337457,0.041189495,-0.64791214,-0.67511433,-0.019027464,0.00025120756,0.049755506,0.11579797,0.14414196,0.015951691,1.6170323,0.004199269,488.09784,1.0986779,0.5015639,0.33961225,0.19283073,0.12100648,inf,inf,inf,inf,1,1,1,1,2,2,2,2,1,0,1,1,0,0,0
20620000,20620000,4204000,47.3977508,8.5456073,-0.1690674,-0.14935063,-1.305904,0.00010148266,0.007699034,0.001011577,0.09987989,0.08295472,-0.619921,-0.6526209,-0.019027464,0.00025120756,0.049755506,0.10302929,0.091115445,0.09166076,1.6162428,0.004199269,488.09784,1.4414508,0.4664165,0.32093808,0.17417361,0.11496444,inf,inf,inf,inf,1,1,1,1,2,2,2,2,1,0,1,1,0,0,0
21116000,21116000,4204000,47.3977508,8.5456073,-0.1285431,-0.11991904,-1.6245956,0.00010148266,0.007699034,0.001011577,0.107510686,0.094609,-0.56038976,-0.5990184,-0.019027464,0.00025120756,0.049755506,0.0005853071,0.039973658,0.16071273,1.613143,-0.003251018,488.09784,1.7601424,0.47678086,0.32722682,0.17877315,0.11664358,inf,inf,inf,inf,1,1,1,1,2,2,2,2,2,0,1,1,0,0,0
21620000,21620000,4204000,47.3977508,8.5456073,-0.09167479,-0.077379905,-1.884312,0.00010148266,0.007699034,0.001011577,0.08556808,0.08373889,-0.26983634,-0.30923018,-0.019027464,0.00025120756,0.049755506,-0.045765348,-0.069456436,1.2050997,1.6121534,-0.003251018,488.09784,2.0198588,0.487666,0.33430338,0.25693038,0.118515916,inf,inf,inf,inf,1,1,1,1,2,2,2,2,2,0,1,1,0,0,0
22116000,22116000,4204000,47.3977508,8.5456073,-0.062898465,-0.03998224,-1.9801186,0.00010148266,0.007699034,0.001011577,0.06631601,0.06273329,-0.15665545,-0.19578385,-0.019027464,0.00025120756,0.049755506,-0.035475414,-0.047169127,-0.22345035,1.6131351,-0.003251018,488.09784,2.1156654,0.500317,0.33927828,0.33049572,0.119942665,inf,inf,inf,inf,1,1,1,1,2,2,2,2,2,1,1,1,0,0,0
22620000,22620000,4204000,47.3977508,8.5456073,-0.037221257,-0.009363957,-2.0789764,0.00010148266,0.007699034,0.001011577,0.046709,0.04172169,-0.16155994,-0.19457361,-0.019027464,0.00025120756,0.049755506,-0.011173018,-0.03451036,0.069472,1.613148,-0.003251018,488.09784,2.2145233,0.46508008,0.32180342,0.27461353,0.11426348,inf,inf,inf,inf,1,1,1,1,2,2,2,2,2,1,1,1,0,0,0
23116000,23116000,4204000,47.3977508,8.5456073,-0.018160362,0.019789904,-2.1659617,0.00010148266,0.007699034,0.001011577,0.032427162,0.026840381,-0.13766125,-0.16856161,-0.019027464,0.00025120756,0.049755506,-0.022847218,-0.06724,0.079320736,1.6151114,-0.003251018,488.09784,2.3015087,0.47603375,0.3266165,0.28099534,0.115798794,inf,inf,inf,inf,1,1,1,1,2,2,2,2,2,1,1,1,0,0,0
23620000,23620000,4204000,47.3977508,8.5456073,0.0016228072,0.027883317,-2.2463799,0.00010148266,0.007699034,0.001011577,0.015513525,0.0030210784,-0.1001471,-0.13511091,-0.019027464,0.00025120756,0.049755506,-0.035547316,-0.020805374,0.099459656,1.6149849,-0.003251018,488.09784,2.3819268,0.49022123,0.33368683,0.2806844,0.11782983,inf,inf,inf,inf,1,1,1,1,2,2,2,2,2,1,1,1,0,0,0
24116000,24116000,4204000,47.3977508,8.5456073,0.00895207,0.02377022,-2.3087616,0.00010148266,0.007699034,0.001011577,0.0032306009,-0.007700061,-0.06923048,-0.10616756,-0.019027464,0.00025120756,0.049755506,-0.033365693,-0.013802068,0.031166708,1.6138397,-0.003251018,488.09784,2.4443085,0.5046499,0.33860287,0.27584398,0.11937454,inf,inf,inf,inf,1,1,1,1,2,2,2,2,2,1,1,1,0,0,0
24620000,24620000,4204000,47.3977508,8.5456073,-0.0005587975,0.0025971895,-2.363812,0.00010148266,0.007699034,0.001011577,-0.008091505,-0.01475265,-0.036923863,-0.07987807,-0.019027464,0.00025120756,0.049755506,0.012326912,0.037234463,0.05958974,1.6135057,-0.003251018,488.09784,2.499359,0.46618113,0.3212564,0.2247227,0.11389011,inf,inf,inf,inf,1,1,1,1,2,2,2,2,2,1,1,1,0,0,0
25116000,25116000,4204000,47.3977508,8.5456073,-0.00688637,-0.018307481,-2.3969333,0.00010148266,0.007699034,0.001011577,-0.0044783563,-0.004340012,-0.019623742,-0.06001055,-0.019027464,0.00025120756,0.049755506,0.01700704,0.040852435,0.020663252,1.6136897,-0.003251018,488.09784,2.5324802,0.47810647,0.32614866,0.22269739,0.11556285,inf,inf,inf,inf,1,1,1,1,2,2,2,2,2,1,1,1,0,0,0
25620000,25620000,4204000,47.3977508,8.5456073,-0.010176138,-0.024722015,-2.4217978,0.00010148266,0.007699034,0.001011577,-0.002961879,0.009946017,-0.011091089,-0.048737857,-0.019027464,0.00025120756,0.049755506,-0.034571957,0.015245226,0.03765523,1.6131654,-0.003251018,488.09784,2.5573447,0.49148762,0.3332593,0.22053806,0.11767909,inf,inf,inf,inf,1,1,1,1,2,2,2,2,2,1,1,1,0,0,0
26116000,26116000,4204000,47.3977508,8.5456073,-0.013251171,-0.022891978,-2.4478538,0.00010148266,0.007699034,0.001011577,-0.0021477572,0.01640675,0.0043456475,-0.03708452,-0.019027464,0.00025120756,0.049755506,-0.011178635,0.028063586,0.06707571,1.6138297,-0.003251018,488.09784,2.5834007,0.50434166,0.33989686,0.21791041,0.11963566,inf,inf,inf,inf,1,1,1,1,2,2,2,2,2,1,1,1,0,0,0
26620000,26620000,4204000,47.3977508,8.5456073,-0.0064126607,-0.016988127,-2.4679859,0.00010148266,0.007699034,0.001011577,0.0025736648,0.017828764,0.018712396,-0.025603965,-0.019027464,0.00025120756,0.049755506,-0.0039151926,0.0050040106,0.04576798,1.6135902,-0.003251018,488.09784,2.6035328,0.46740106,0.3211219,0.18855195,0.11391525,inf,inf,inf,inf,1,1,1,1,2,2,2,2,2,1,1,1,0,0,0
27116000,27116000,4204000,47.3977508,8.5456073,-0.0074325935,-0.00044717453,-2.4854772,0.00010148266,0.007699034,0.001011577,-0.0037183303,0.015790224,0.03033609,-0.018501103,-0.019027464,0.00025120756,0.049755506,-0.0121010225,0.021729296,0.012012198,1.613928,-0.003251018,488.09784,2.6210241,0.47825113,0.32734638,0.18792525,0.11581769,inf,inf,inf,inf,1,1,1,1,2,2,2,2,2,1,1,1,0,0,0
27620000,27620000,4204000,47.3977508,8.5456073,-0.006843076,0.013424444,-2.4923666,0.00010148266,0.007699034,0.001011577,-0.0046530142,0.008862606,0.033483382,-0.013590353,-0.019027464,0.00025120756,0.049755506,0.014016942,-0.03002805,0.05245674,1.613973,-0.003251018,488.09784,2.6279135,0.49024743,0.3328787,0.18804947,0.117612325,inf,inf,inf,inf,1,1,1,1,2,2,2,2,2,1,1,1,0,0,0
28116000,28116000,4204000,47.3977508,8.5456073,0.00023208762,0.028620677,-2.4989226,0.00010148266,0.007699034,0.001011577,-0.004362423,0.0002776159,0.036745112,-0.0098012965,-0.019027464,0.00025120756,0.049755506,-0.0068042134,-0.027904037,0.019341705,1.6137034,-0.003251018,488.09784,2.6344695,0.501578,0.33935702,0.18839213,0.11951853,inf,inf,inf,inf,1,1,1,1,2,2,2,2,2,1,1,1,0,0,0
28620000,28620000,4204000,47.3977508,8.5456073,0.0017581574,0.026925454,-2.5098321,0.00010148266,0.007699034,0.001011577,-0.009385132,-0.01581124,0.04331352,-0.0076959315,-0.019027464,0.00025120756,0.049755506,-0.034115203,0.007501323,0.05212519,1.6136913,-0.003251018,488.09784,2.645379,0.46660566,0.32183892,0.16926411,0.11400625,inf,inf,inf,inf,1,1,1,1,2,2,2,2,2,1,1,1,0,0,0
29116000,29116000,4204000,47.3977508,8.5456073,0.013801232,0.022880401,-2.5265117,0.00010148266,0.007699034,0.001011577,-0.010214449,-0.017746372,0.048940375,-0.013298795,-0.019027464,0.00025120756,0.049755506,-0.0040187584,-0.007858994,0.048262995,1.6137866,-0.003251018,488.09784,2.6620586,0.4765966,0.32669508,0.1713081,0.11567312,inf,inf,inf,inf,1,1,1,1,2,2,2,2,2,1,1,1,0,0,0
29620000,29620000,4204000,47.3977508,8.5456073,0.017388655,0.019509373,-2.5298533,0.00010148266,0.007699034,0.001011577,-0.014455497,-0.016683785,0.060548346,-0.0004719717,-0.019027464,0.00025120756,0.049755506,-0.019743716,0.023812244,0.012016854,1.613908,-0.003251018,488.09784,2.6654003,0.48768616,0.3338091,0.17429633,0.11779939,inf,inf,inf,inf,1,1,1,1,2,2,2,2,2,1,1,1,0,0,0
30116000,30116000,4204000,47.3977508,8.5456073,0.015748484,0.017841177,-2.5276961,0.00010148266,0.007699034,0.001011577,-0.017004862,-0.016881764,0.0563236,-0.0008691263,-0.019027464,0.00025120756,0.049755506,-0.0075962595,0.01782192,0.014312564,1.6136101,-0.003251018,488.09784,2.663243,0.4980092,0.3387152,0.1775443,0.119379506,inf,inf,inf,inf,1,1,1,1,2,2,2,2,2,1,1,1,0,0,0
30620000,30620000,4204000,47.3977508,8.5456073,0.015186873,0.026059339,-2.5313022,0.00010148266,0.007699034,0.001011577,-0.014200076,-0.015478512,0.060027976,0.0013243887,-0.019027464,0.00025120756,0.049755506,-0.022391569,-0.0038277938,-0.010151415,1.6138346,-0.003251018,488.09784,2.6668491,0.4647699,0.32133996,0.16350473,0.113903984,inf,inf,inf,inf,1,1,1,1,2,2,2,2,2,1,1,1,0,0,0
31116000,31116000,4204000,47.3977508,8.5456073,0.0138531,0.029500414,-2.5393255,0.00010148266,0.007699034,0.001011577,-0.015474809,-0.017676791,0.06396951,-0.00047245785,-0.019027464,0.00025120756,0.049755506,-0.017327707,-0.0025869666,0.021173617,1.6136367,-0.003251018,488.09784,2.6748724,0.4741511,0.32754055,0.16775873,0.11579906,inf,inf,inf,inf,1,1,1,1,2,2,2,2,2,1,1,1,0,0,0
31620000,31620000,4204000,47.3977508,8.5456073,0.013079048,0.032190066,-2.5386596,0.00010148266,0.007699034,0.001011577,-0.012387862,-0.02256836,0.060691897,-0.0024732423,-0.019027464,0.00025120756,0.049755506,-0.004992893,-0.024770182,0.05461834,1.6136972,-0.003251018,488.09784,2.6742065,0.48481256,0.3330691,0.17287834,0.11759338,inf,inf,inf,inf,1,1,1,1,2,2,2,2,2,1,1,1,0,0,0
32116000,32116000,4204000,47.3977508,8.5456073,0.0072062984,0.03574014,-2.5402749,0.00010148266,0.007699034,0.001011577,-0.012495754,-0.02467538,0.0656145,0.002111833,-0.019027464,0.00025120756,0.049755506,0.01719172,-0.026764667,0.04642922,1.6139586,-0.003251018,488.09784,2.6758218,0.4951299,0.33951566,0.17796928,0.1194792,inf,inf,inf,inf,1,1,1,1,2,2,2,2,2,1,1,1,0,0,0
32620000,32620000,4204000,47.3977508,8.5456073,0.0011085405,0.03832029,-2.5439847,0.00010148266,0.007699034,0.001011577,-0.005155786,-0.027490038,0.068864636,0.002696106,-0.019027464,0.00025120756,0.049755506,-0.011828378,-0.03811957,0.010748393,1.6138183,-0.003251018,488.09784,2.6795316,0.463056,0.32077384,0.16527776,0.113776654,inf,inf,inf,inf,1,1,1,1,2,2,2,2,2,1,1,1,0,0,0
33116000,33116000,4204000,47.3977508,8.5456073,-0.0026985202,0.042930946,-2.5558612,0.00010148266,0.007699034,0.001011577,-0.00070045056,-0.03110209,0.06965523,-0.006960339,-0.019027464,0.00025120756,0.049755506,0.014882694,-0.07261497,0.048095357,1.6140866,-0.003251018,488.09784,2.6914082,0.4725697,0.32701492,0.1704076,0.115689196,inf,inf,inf,inf,1,1,1,1,2,2,2,2,2,1,1,1,0,0,0
33620000,33620000,4204000,47.3977508,8.5456073,-0.0151779065,0.044182323,-2.5603273,0.00010148266,0.007699034,0.001011577,0.0016835422,-0.033288818,0.08129305,0.0025438613,-0.019027464,0.00025120756,0.049755506,0.030744338,-0.01047294,0.08029397,1.6138455,-0.003251018,488.09784,2.6958742,0.48352942,0.33260778,0.1760082,0.11750432,inf,inf,inf,inf,1,1,1,1,2,2,2,2,2,1,1,1,0,0,0
34116000,34116000,4204000,47.3977508,8.5456073,-0.018218547,0.039807204,-2.5529416,0.00010148266,0.007699034,0.001011577,0.012368853,-0.036970034,0.07763997,0.0053734705,-0.019027464,0.00025120756,0.049755506,0.026474865,-0.05410048,0.021745449,1.6137811,-0.003251018,488.09784,2.6884885,0.49426773,0.33905053,0.18135868,0.11938616,inf,inf,inf,inf,1,1,1,1,2,2,2,2,2,1,1,1,0,0,0
34620000,34620000,4204000,47.3977508,8.5456073,-0.020477736,0.040574033,-2.5500975,0.00010148266,0.007699034,0.001011577,0.015507284,-0.036370657,0.07464499,0.0049554612,-0.019027464,0.00025120756,0.049755506,0.040659547,4.7497448e-05,-0.008231959,1.613904,-0.003251018,488.09784,2.6856444,0.46241012,0.32174933,0.16790715,0.11395867,inf,inf,inf,inf,1,1,1,1,2,2,2,2,2,1,1,1,0,0,0
35116000,35116000,4204000,47.3977508,8.5456073,-0.023584006,0.04154063,-2.5494044,0.00010148266,0.007699034,0.001011577,0.016224647,-0.03744847,0.071660995,0.0022835452,-0.019027464,0.00025120756,0.049755506,0.018016944,-0.00498876,0.004354864,1.6140085,-0.003251018,488.09784,2.6849513,0.47225967,0.3266176,0.17279191,0.11560902,inf,inf,inf,inf,1,1,1,1,2,2,2,2,2,1,1,1,0,0,0
35620000,35620000,4204000,47.3977508,8.5456073,-0.031139288,0.042055726,-2.543112,0.00010148266,0.007699034,0.001011577,0.01563318,-0.03721263,0.06630107,0.0022695886,-0.019027464,0.00025120756,0.049755506,0.008522299,-0.0481337,0.020331701,1.6142838,-0.003251018,488.09784,2.678659,0.48358092,0.33369523,0.17807397,0.117706515,inf,inf,inf,inf,1,1,1,1,2,2,2,2,2,1,1,1,0,0,0
36116000,36116000,4204000,47.3977508,8.5456073,-0.038548745,0.050640848,-2.5333726,0.00010148266,0.007699034,0.001011577,0.023182515,-0.03461451,0.05942166,0.004051876,-0.019027464,0.00025120756,0.049755506,0.0347078,-0.069011204,-0.0013792886,1.6135849,-0.003251018,488.09784,2.6689196,0.4947846,0.3387014,0.18302526,0.119329,inf,inf,inf,inf,1,1,1,1,2,2,2,2,2,1,1,1,0,0,0
36620000,36620000,4204000,47.3977508,8.5456073,-0.0412474,0.05994527,-2.53037,0.00010148266,0.007699034,0.001011577,0.026317913,-0.041884217,0.05462157,0.0020500368,-0.019027464,0.00025120756,0.049755506,0.013522032,-0.057964712,0.011308118,1.6140808,-0.003251018,488.09784,2.665917,0.46253163,0.32133037,0.16854087,0.11385493,inf,inf,inf,inf,1,1,1,1,2,2,2,2,2,1,1,1,0,0,0
37116000,37116000,4204000,47.3977508,8.5456073,-0.04531803,0.06046631,-2.5276031,0.00010148266,0.007699034,0.001011577,0.029065665,-0.047657255,0.05041406,2.7312199e-05,-0.019027464,0.00025120756,0.049755506,-0.02422124,-0.026041102,-0.006509013,1.6141765,-0.003251018,488.09784,2.66315,0.4726914,0.32762754,0.17304273,0.11579169,inf,inf,inf,inf,1,1,1,1,2,2,2,2,2,1,1,1,0,0,0
37620000,37620000,4204000,47.3977508,8.5456073,-0.047085226,0.059094157,-2.5233278,0.00010148266,0.007699034,0.001011577,0.03093627,-0.046862613,0.04485899,-0.0016848722,-0.019027464,0.00025120756,0.049755506,0.030580921,-0.014297489,0.019025056,1.6138066,-0.003251018,488.09784,2.6588748,0.4842788,0.3332857,0.17790757,0.11763251,inf,inf,inf,inf,1,1,1,1,2,2,2,2,2,1,1,1,0,0,0
38116000,38116000,4204000,47.3977508,8.5456073,-0.041280873,0.05751528,-2.5201728,0.00010148266,0.007699034,0.001011577,0.034141093,-0.04539821,0.045195624,0.0018460477,-0.019027464,0.00025120756,0.049755506,-0.025150975,-0.02778269,0.018405726,1.6136997,-0.003251018,488.09784,2.6557198,0.49538374,0.33970058,0.18221536,0.11949667,inf,inf,inf,inf,1,1,1,1,2,2,2,2,2,1,1,1,0,0,0
38620000,38620000,4204000,47.3977508,8.5456073,-0.03581961,0.0557649,-2.419361,0.00010148266,0.007699034,0.001011577,0.015808167,-0.044384975,0.66189194,0.61706924,-0.019027464,0.00025120756,0.049755506,-0.024981512,-0.031012632,1.8474478,1.6137819,-0.003251018,488.09784,2.554908,0.4629808,0.32213965,0.16590248,0.11397784,inf,inf,inf,inf,1,1,1,1,2,2,2,2,2,1,1,1,0,0,0
39116000,39116000,4204000,47.3977508,8.5456073,-0.031088063,0.05941793,-2.0696528,0.00010148266,0.007699034,0.001011577,0.009954903,-0.02291578,0.7121505,0.653475,-0.019027464,0.00025120756,0.049755506,0.0048963265,-0.044804573,-0.29580852,1.6137154,-0.003251018,488.09784,2.2051997,0.4728466,0.32693237,0.16954462,0.11560952,inf,inf,inf,inf,1,1,1,1,2,2,2,2,2,1,1,1,0,0,0
39620000,39620000,4204000,47.3977508,8.5456073,-0.03188791,0.06966113,-1.7504096,0.00010148266,0.007699034,0.001011577,0.0036332917,-0.016965713,0.7231876,0.66001046,-0.019027464,0.00025120756,0.049755506,0.00071529933,0.020253515,0.10429788,1.6136776,-0.003251018,488.09784,1.8859564,0.48411065,0.33388728,0.17454624,0.11767588,inf,inf,inf,inf,1,1,1,1,2,2,2,2,2,1,1,1,0,0,0
40116000,40116000,4204000,47.3977508,8.5456073,-0.035633113,0.07981971,-1.4155341,0.00010148266,0.007699034,0.001011577,0.0012659422,-0.020963201,0.74473053,0.68376464,-0.019027464,0.00025120756,0.049755506,-0.016921345,-0.029858097,0.06382446,1.6139836,-0.003251018,488.09784,1.551081,0.49503523,0.3402817,0.17898257,0.119547844,inf,inf,inf,inf,1,1,1,1,2,2,2,2,2,1,1,1,0,0,0
40620000,40620000,4204000,47.3977508,8.5456073,-0.039782472,0.07799722,-1.0650802,0.00010148266,0.007699034,0.001011577,0.0028353832,-0.028280651,0.7537686,0.697058,-0.019027464,0.00025120756,0.049755506,-0.018994935,-0.011733528,-0.031864267,1.6142943,-0.003251018,488.09784,1.200627,0.46271932,0.32126832,0.16516583,0.113773964,inf,inf,inf,inf,1,1,1,1,2,2,2,2,2,1,1,1,0,0,0
41116000,41116000,4204000,47.3977508,8.5456073,-0.041808378,0.07633141,-0.7267749,0.00010148266,0.007699034,0.001011577,0.0031027684,-0.029541744,0.7523755,0.69070953,-0.019027464,0.00025120756,0.049755506,-0.019458208,0.009544076,0.050430182,1.6140499,-0.003251018,488.09784,0.8623217,0.47265536,0.32741103,0.1694574,0.11566711,inf,inf,inf,inf,1,1,1,1,2,2,2,2,2,1,1,1,0,0,0
41620000,41620000,4204000,47.3977508,8.5456073,-0.044156212,0.07098661,-0.37778732,0.00010148266,0.007699034,0.001011577,0.0010757765,-0.028194252,0.7600959,0.6976114,-0.019027464,0.00025120756,0.049755506,-0.0030058434,-0.02015331,0.03689527,1.6140363,-0.003251018,488.09784,0.51333416,0.48396048,0.33437502,0.17410378,0.117744505,inf,inf,inf,inf,1,1,1,1,2,2,2,2,2,1,1,1,0,0,0
42116000,42116000,4204000,47.3977508,8.5456073,-0.043180387,0.0674104,-0.03351742,0.00010148266,0.007699034,0.001011577,0.0007405981,-0.018923614,0.7635173,0.7000906,-0.019027464,0.00025120756,0.049755506,-0.014701828,0.004558373,0.06799213,1.6138581,-0.003251018,488.09784,0.16906424,0.49489453,0.339269,0.17841297,0.11934189,inf,inf,inf,inf,1,1,1,1,2,2,2,2,2,1,1,1,0,0,0
42620000,42620000,4204000,47.3977508,8.5456073,-0.04544065,0.06435645,0.36163792,0.00010148266,0.007699034,0.001011577,-0.0036017995,-0.009221542,0.6811199,0.6053275,-0.019027464,0.00025120756,0.049755506,0.038142823,0.03224956,-0.32278427,1.614049,-0.003251018,488.09784,0.1,0.4627082,0.32064515,0.16926815,0.10990427,inf,inf,inf,inf,1,1,1,1,2,2,2,2,2,1,1,1,0,0,0
43116000,43116000,4204000,47.3977508,8.5456073,-0.03843285,0.06527483,0.43084514,0.00010148266,0.007699034,0.001011577,-0.00090303394,-0.015287561,0.83865255,0.55646014,-0.019027464,0.00025120756,0.049755506,0.0030341032,-0.0040991725,0.778648,1.6135049,-0.003251018,488.09784,0.1,0.47262153,0.32562235,0.21136056,0.10429094,inf,inf,inf,inf,1,1,1,1,2,2,2,2,2,1,1,1,0,0,0
43620000,43620000,4204000,47.3977508,8.5456073,-0.022729298,0.065875664,0.5548605,0.00010148266,0.007699034,0.001011577,0.0026442602,-0.01336071,1.1042439,0.64808345,-0.019027464,0.00025120756,0.049755506,-0.011794821,0.005771144,0.8369134,1.6137866,-0.003251018,488.09784,0.1,0.484773,0.3299189,0.26359296,0.10136961,inf,inf,inf,inf,1,1,1,1,2,2,2,2,2,1,1,1,0,0,0
44116000,44116000,4204000,47.3977508,8.5456073,-0.008487174,0.06331571,0.7866549,0.00010148266,0.007699034,0.001011577,-0.009861416,-0.017833168,1.3114495,0.7604508,-0.019027464,0.00025120756,0.049755506,-0.021974787,-0.027767701,0.55982447,1.6137202,-0.003251018,488.09784,0.1,0.49918464,0.33283123,0.29661775,0.10078619,inf,inf,inf,inf,1,1,1,1,2,2,2,2,2,1,1,1,0,0,0
44620000,44620000,4204000,47.3977508,8.5456073,0.0016209198,0.06374198,1.0863388,0.00010148266,0.007699034,0.001011577,-0.014017708,-0.013434898,1.3955479,0.78354245,-0.019027464,0.00025120756,0.049755506,-0.026699597,-0.019883677,0.106521875,1.6139847,-0.003251018,488.09784,0.1,0.46361142,0.3137166,0.24931163,0.097138666,inf,inf,inf,inf,1,1,1,1,2,2,2,2,2,1,1,1,0,0,0
45116000,45116000,4204000,47.3977508,8.5456073,0.007914587,0.06464396,1.3769082,0.00010148266,0.007699034,0.001011577,-0.020344183,-0.01265393,1.4142265,0.7352765,-0.019027464,0.00025120756,0.049755506,-0.04308739,-0.013685886,0.33277643,1.6139038,-0.003251018,488.09784,0.1,0.47564468,0.3166967,0.25421187,0.10017221,inf,inf,inf,inf,1,1,1,1,2,2,2,2,2,1,1,1,0,0,0
45620000,45620000,4204000,47.3977508,8.5456073,0.021925235,0.06747208,1.4147831,0.00010148266,0.007699034,0.001011577,0.025792945,0.0021115395,0.73971283,0.050206307,-0.019027464,0.00025120756,0.049755506,0.04046809,-0.0035582487,-0.024952924,1.6144035,-0.003251018,488.09784,0.101703525,0.4899199,0.31913102,0.24494414,0.09767382,inf,inf,inf,inf,1,1,1,1,2,2,2,2,2,1,1,1,0,0,0
46116000,46116000,4204000,47.3977508,8.5456073,0.02793796,0.07118361,1.429052,0.00010148266,0.007699034,0.001011577,0.035325397,0.0045427494,0.65366477,-0.012927134,-0.019027464,0.00025120756,0.049755506,0.00021597951,0.0069144587,0.0029988585,1.6151643,-0.003251018,488.09784,0.11434126,0.5034576,0.32209995,0.25012112,0.09489499,inf,inf,inf,inf,1,1,1,1,2,2,2,2,2,1,1,1,0,0,0
46620000,46620000,4204000,47.3977508,8.5456073,0.029145418,0.069193095,1.4266809,0.00010148266,0.007699034,0.001011577,0.040987328,0.0032591717,0.58220655,-0.048764944,-0.019027464,0.00025120756,0.049755506,0.066410966,0.012864285,0.028151086,1.6150794,-0.003251018,488.09784,0.1259439,0.46679592,0.30651814,0.22760412,0.09042759,inf,inf,inf,inf,1,1,1,1,2,2,2,2,2,1,1,1,0,0,0
47116000,47116000,4204000,47.3977508,8.5456073,0.025947087,0.07473608,1.3689752,0.00010148266,0.007699034,0.001011577,0.036255445,0.0041278377,0.49922195,-0.13048989,-0.019027464,0.00025120756,0.049755506,0.022827981,-0.024029503,-0.008724629,1.6159226,-0.003251018,488.09784,0.18364966,0.4777552,0.30939952,0.24474815,0.09222442,inf,inf,inf,inf,1,1,1,1,2,2,2,2,2,1,1,1,0,0,0
47620000,47620000,4204000,47.3977508,8.5456073,0.025827857,0.07424933,1.3204798,0.00010148266,0.007699034,0.001011577,0.030265901,0.0019710888,0.4318907,-0.16589424,-0.019027464,0.00025120756,0.049755506,0.015014694,-0.032658074,0.036229376,1.6162738,-0.003251018,488.09784,0.23214507,0.4908728,0.31190446,0.2581946,0.09557839,inf,inf,inf,inf,1,1,1,1,2,2,2,2,2,1,1,1,0,0,0
48116000,48116000,4204000,47.3977508,8.5456073,0.02588943,0.060858306,1.2799641,0.00010148266,0.007699034,0.001011577,0.024192482,-0.013577455,0.37350756,-0.17524388,-0.019027464,0.00025120756,0.049755506,0.02478309,-0.023373213,-0.0027930362,1.6168855,-0.003251018,488.09784,0.27266073,0.5040378,0.31571028,0.2647858,0.10000622,inf,inf,inf,inf,1,1,1,1,2,2,2,2,2,1,1,1,0,0,0
48620000,48620000,4204000,47.3977508,8.5456073,0.03361444,0.053356297,1.2270048,0.00010148266,0.007699034,0.001011577,0.024260107,-0.020606756,0.31590712,-0.18660636,-0.019027464,0.00025120756,0.049755506,0.0046791825,-0.026897598,0.004412606,1.6169848,-0.003251018,488.09784,0.32562006,0.46703827,0.30144423,0.22392341,0.10033086,inf,inf,inf,inf,1,1,1,1,2,2,2,2,2,1,1,1,0,0,0
49116000,49116000,4204000,47.3977508,8.5456073,0.03448374,0.044119537,1.1433798,0.00010148266,0.007699034,0.001011577,0.015512537,-0.026668806,0.2556681,-0.22461642,-0.019027464,0.00025120756,0.049755506,0.00806371,-0.010641363,0.0017927958,1.6171987,-0.003251018,488.09784,0.409245,0.47805804,0.30673695,0.22584869,0.10531418,inf,inf,inf,inf,1,1,1,1,2,2,2,2,2,1,1,1,0,0,0
49620000,49620000,4204000,47.3977508,8.5456073,0.031373754,0.046917405,1.0627254,0.00010148266,0.007699034,0.001011577,0.005007465,-0.025219498,0.2012724,-0.24347095,-0.019027464,0.00025120756,0.049755506,0.0025086917,-0.015415643,-0.022722406,1.6172409,-0.003251018,488.09784,0.4898994,0.49091086,0.31367975,0.22699107,0.11039873,inf,inf,inf,inf,1,1,1,1,2,2,2,2,2,1,1,1,0,0,0
50116000,50116000,4204000,47.3977508,8.5456073,0.024433857,0.050759144,0.98577267,0.00010148266,0.007699034,0.001011577,-0.008857587,-0.021310592,0.1496982,-0.24968845,-0.019027464,0.00025120756,0.049755506,-0.025405023,0.002040455,-0.034890134,1.617172,-0.003251018,488.09784,0.56685215,0.5033911,0.32110226,0.22668397,0.11500996,inf,inf,inf,inf,1,1,1,1,2,2,2,2,2,1,1,1,0,0,0
50620000,50620000,4204000,47.3977508,8.5456073,0.014701692,0.058063,0.8948357,0.00010148266,0.007699034,0.001011577,-0.021246422,-0.017146481,0.098655686,-0.26059142,-0.019027464,0.00025120756,0.049755506,-0.007326045,-0.025891682,-0.021185724,1.6170021,-0.003251018,488.09784,0.1,0.46705845,0.3077764,0.19641459,0.11264344,inf,inf,inf,inf,1,1,1,1,2,2,2,2,2,0,1,1,0,0,0
51116000,51116000,4204000,47.3977508,8.5456073,0.011304413,0.05903488,0.7879153,0.00010148266,0.007699034,0.001011577,-0.02324224,-0.01858575,0.04951487,-0.28163418,-0.019027464,0.00025120756,0.049755506,-0.010529591,-0.0057591237,-0.032783482,1.6171057,-0.003251018,488.09784,0.12537628,0.47791615,0.31572518,0.1970998,0.11612387,inf,inf,inf,inf,1,1,1,1,2,2,2,2,2,0,1,1,0,0,0
51620000,51620000,4204000,47.3977508,8.5456073,0.008668308,0.056235254,0.6975594,0.00010148266,0.007699034,0.001011577,-0.022942439,-0.018728545,0.008733523,-0.27633265,-0.019027464,0.00025120756,0.049755506,-0.019778278,-0.05842803,-0.032128762,1.6172866,-0.003251018,488.09784,0.15371823,0.49000138,0.32334313,0.19802329,0.11907836,inf,inf,inf,inf,1,1,1,1,2,2,2,2,2,0,1,1,0,0,0
52116000,52116000,4204000,47.3977508,8.5456073,0.008991547,0.057000346,0.61667746,0.00010148266,0.007699034,0.001011577,-0.023963936,-0.019395163,-0.022918835,-0.25971928,-0.019027464,0.00025120756,0.049755506,-0.008156043,0.002757122,0.019740311,1.6172372,-0.003251018,488.09784,0.16871017,0.50145644,0.331826,0.19866191,0.12167445,inf,inf,inf,inf,1,1,1,1,2,2,2,2,2,0,1,1,0,0,0
52620000,52620000,4204000,47.3977508,8.5456073,0.008948393,0.057951037,0.53479403,0.00010148266,0.007699034,0.001011577,-0.022366127,-0.01859668,-0.05284889,-0.2462378,-0.019027464,0.00025120756,0.049755506,-0.014549964,-0.044966828,-0.007841735,1.6175296,-0.003251018,488.09784,0.12000507,0.46640408,0.31719923,0.17723121,0.11643843,inf,inf,inf,inf,1,1,1,1,2,2,2,2,2,0,1,1,0,0,0
53116000,53116000,4204000,47.3977508,8.5456073,0.01158246,0.05884038,0.45338443,0.00010148266,0.007699034,0.001011577,-0.023549693,-0.01656358,-0.073925495,-0.23402707,-0.019027464,0.00025120756,0.049755506,-0.033523418,-0.0040466255,-0.02940744,1.6176913,-0.003251018,488.09784,0.14723757,0.4766178,0.32359752,0.17918848,0.118160926,inf,inf,inf,inf,1,1,1,1,2,2,2,2,2,0,1,1,0,0,0
