timestamp,timestamp_sample,yaw_composite,yaw_variance,yaw[0],yaw[1],yaw[2],yaw[3],yaw[4],innov_vn[0],innov_vn[1],innov_vn[2],innov_vn[3],innov_vn[4],innov_ve[0],innov_ve[1],innov_ve[2],innov_ve[3],innov_ve[4],weight[0],weight[1],weight[2],weight[3],weight[4],yaw_composite_valid
15404000,15324000,2.6779451,3.5801747,-2.5132742,-1.2566371,0.0,1.2566371,2.5132742,0.0,0.0,0.0,0.0,0.0,0.0,0.0,0.0,0.0,0.0,0.2,0.2,0.2,0.2,0.2,0
15412000,15332000,-2.6779451,3.5801702,-2.513289,-1.2566519,-1.47998135e-05,1.2566223,2.5132594,0.0,0.0,0.0,0.0,0.0,0.0,0.0,0.0,0.0,0.0,0.2,0.2,0.2,0.2,0.2,0
15420000,15340000,2.6779451,3.580179,-2.5132854,-1.2566482,-1.1081479e-05,1.256626,2.5132632,0.0,0.0,0.0,0.0,0.0,0.0,0.0,0.0,0.0,0.0,0.2,0.2,0.2,0.2,0.2,0
15428000,15348000,3.1415927,3.947838,-2.513279,-1.2566419,-4.6793425e-06,1.2566323,2.5132697,0.0,0.0,0.0,0.0,0.0,0.0,0.0,0.0,0.0,0.0,0.2,0.2,0.2,0.2,0.2,0
15436000,15356000,-2.9441972,3.7387466,-2.5132837,-1.2566466,-9.437599e-06,1.2566276,2.513265,0.0,0.0,0.0,0.0,0.0,0.0,0.0,0.0,0.0,0.0,0.2,0.2,0.2,0.2,0.2,0
15444000,15364000,2.4227626,3.5612552,-2.5132618,-1.2566245,1.2632265e-05,1.2566497,2.5132868,0.0,0.0,0.0,0.0,0.0,0.0,0.0,0.0,0.0,0.0,0.2,0.2,0.2,0.2,0.2,0
15452000,15372000,2.3561945,3.5777414,-2.5132551,-1.256618,1.9155628e-05,1.2566562,2.5132933,0.0,0.0,0.0,0.0,0.0,0.0,0.0,0.0,0.0,0.0,0.2,0.2,0.2,0.2,0.2,0
15460000,15380000,-2.976444,3.7675948,-2.5132673,-1.2566302,6.9405532e-06,1.256644,2.5132813,0.0,0.0,0.0,0.0,0.0,0.0,0.0,0.0,0.0,0.0,0.2,0.2,0.2,0.2,0.2,0
15468000,15388000,2.896614,3.7000034,-2.5132623,-1.2566252,1.1931367e-05,1.256649,2.513286,0.0,0.0,0.0,0.0,0.0,0.0,0.0,0.0,0.0,0.0,0.2,0.2,0.2,0.2,0.2,0
15476000,15396000,-2.896614,3.7000256,-2.5132577,-1.2566205,1.6580125e-05,1.2566535,2.513291,0.0,0.0,0.0,0.0,0.0,0.0,0.0,0.0,0.0,0.0,0.2,0.2,0.2,0.2,0.2,0
15484000,15404000,-2.8501358,3.6665578,-2.5132477,-1.2566106,2.6506856e-05,1.2566636,2.513301,0.0,0.0,0.0,0.0,0.0,0.0,0.0,0.0,0.0,0.0,0.2,0.2,0.2,0.2,0.2,0
15492000,15412000,-2.5829935,3.5579286,-2.5132542,-1.2566171,2.0164922e-05,1.2566571,2.5132945,0.0,0.0,0.0,0.0,0.0,0.0,0.0,0.0,0.0,0.0,0.2,0.2,0.2,0.2,0.2,0
15500000,15420000,-2.6779451,3.5801895,-2.5132506,-1.2566135,2.3700783e-05,1.2566607,2.513298,0.0,0.0,0.0,0.0,0.0,0.0,0.0,0.0,0.0,0.0,0.2,0.2,0.2,0.2,0.2,0
15508000,15428000,-2.819842,3.6470757,-2.5132318,-1.2565947,4.2478852e-05,1.2566795,2.5133169,0.0,0.0,0.0,0.0,0.0,0.0,0.0,0.0,0.0,0.0,0.2,0.2,0.2,0.2,0.2,0
15516000,15436000,-2.819842,3.6470852,-2.5132189,-1.2565817,5.5467688e-05,1.2566924,2.5133297,0.0,0.0,0.0,0.0,0.0,0.0,0.0,0.0,0.0,0.0,0.2,0.2,0.2,0.2,0.2,0
15524000,15444000,-2.896614,3.7000532,-2.513227,-1.2565898,4.7416168e-05,1.2566844,2.5133219,0.0,0.0,0.0,0.0,0.0,0.0,0.0,0.0,0.0,0.0,0.2,0.2,0.2,0.2,0.2,0
15532000,15452000,-2.782822,3.6257458,-2.5132334,-1.2565963,4.0859424e-05,1.2566779,2.5133152,0.0,0.0,0.0,0.0,0.0,0.0,0.0,0.0,0.0,0.0,0.2,0.2,0.2,0.2,0.2,0
15540000,15460000,2.158799,3.6787589,-2.513221,-1.2565837,5.3423595e-05,1.2566905,2.5133276,0.0,0.0,0.0,0.0,0.0,0.0,0.0,0.0,0.0,0.0,0.2,0.2,0.2,0.2,0.2,0
15548000,15468000,2.896614,3.6999745,-2.5132174,-1.2565801,5.7093574e-05,1.2566941,2.5133314,0.0,0.0,0.0,0.0,0.0,0.0,0.0,0.0,0.0,0.0,0.2,0.2,0.2,0.2,0.2,0
15556000,15476000,2.976444,3.7675586,-2.5132341,-1.2565969,4.018592e-05,1.2566772,2.5133145,0.0,0.0,0.0,0.0,0.0,0.0,0.0,0.0,0.0,0.0,0.2,0.2,0.2,0.2,0.2,0
15564000,15484000,3.1415927,3.9478204,-2.5132475,-1.2566102,2.7016284e-05,1.256664,2.5133014,0.0,0.0,0.0,0.0,0.0,0.0,0.0,0.0,0.0,0.0,0.2,0.2,0.2,0.2,0.2,0
15572000,15492000,-2.896614,3.700054,-2.5132303,-1.256593,4.413343e-05,1.2566812,2.5133185,0.0,0.0,0.0,0.0,0.0,0.0,0.0,0.0,0.0,0.0,0.2,0.2,0.2,0.2,0.2,0
15580000,15500000,2.896614,3.6999786,-2.5132194,-1.256582,5.5070217e-05,1.2566922,2.5133295,0.0,0.0,0.0,0.0,0.0,0.0,0.0,0.0,0.0,0.0,0.2,0.2,0.2,0.2,0.2,0
15588000,15508000,3.0584514,3.8502357,-2.5132241,-1.2565868,5.0368308e-05,1.2566874,2.5133247,0.0,0.0,0.0,0.0,0.0,0.0,0.0,0.0,0.0,0.0,0.2,0.2,0.2,0.2,0.2,0
15596000,15516000,3.041924,3.832468,-2.5132031,-1.2565658,7.136243e-05,1.2567084,2.5133457,0.0,0.0,0.0,0.0,0.0,0.0,0.0,0.0,0.0,0.0,0.2,0.2,0.2,0.2,0.2,0
15604000,15524000,2.55359,3.5546935,-2.5132124,-1.2565751,6.206489e-05,1.2566991,2.5133364,0.0,0.0,0.0,0.0,0.0,0.0,0.0,0.0,0.0,0.0,0.2,0.2,0.2,0.2,0.2,0
15612000,15532000,-2.896614,3.7000656,-2.5132189,-1.2565815,5.5625387e-05,1.2566926,2.51333,0.0,0.0,0.0,0.0,0.0,0.0,0.0,0.0,0.0,0.0,0.2,0.2,0.2,0.2,0.2,0
15620000,15540000,3.0584514,3.8502188,-2.5132065,-1.2565691,6.794985e-05,1.256705,2.5133424,0.0,0.0,0.0,0.0,0.0,0.0,0.0,0.0,0.0,0.0,0.2,0.2,0.2,0.2,0.2,0
15628000,15548000,2.9304993,3.727087,-2.5131965,-1.2565591,7.805932e-05,1.2567152,2.5133524,0.0,0.0,0.0,0.0,0.0,0.0,0.0,0.0,0.0,0.0,0.2,0.2,0.2,0.2,0.2,0
15636000,15556000,2.9304993,3.7271047,-2.5132167,-1.2565794,5.7814083e-05,1.2566949,2.5133321,0.0,0.0,0.0,0.0,0.0,0.0,0.0,0.0,0.0,0.0,0.2,0.2,0.2,0.2,0.2,0
15644000,15564000,2.896614,3.699994,-2.513233,-1.2565956,4.1535204e-05,1.2566786,2.513316,0.0,0.0,0.0,0.0,0.0,0.0,0.0,0.0,0.0,0.0,0.2,0.2,0.2,0.2,0.2,0
15652000,15572000,2.9996955,3.7896395,-2.5132298,-1.2565926,4.4625966e-05,1.2566817,2.513319,0.0,0.0,0.0,0.0,0.0,0.0,0.0,0.0,0.0,0.0,0.2,0.2,0.2,0.2,0.2,0
15660000,15580000,-3.0309355,3.8210921,-2.5132346,-1.2565975,3.972272e-05,1.2566769,2.5133142,0.0,0.0,0.0,0.0,0.0,0.0,0.0,0.0,0.0,0.0,0.2,0.2,0.2,0.2,0.2,0
15668000,15588000,-2.976444,3.7676392,-2.513237,-1.2565999,3.736009e-05,1.2566745,2.5133119,0.0,0.0,0.0,0.0,0.0,0.0,0.0,0.0,0.0,0.0,0.2,0.2,0.2,0.2,0.2,0
15676000,15596000,2.7707014,3.6193264,-2.5132337,-1.2565963,4.089812e-05,1.2566781,2.5133152,0.0,0.0,0.0,0.0,0.0,0.0,0.0,0.0,0.0,0.0,0.2,0.2,0.2,0.2,0.2,0
15684000,15604000,-2.976444,3.7676418,-2.5132356,-1.2565985,3.8820624e-05,1.256676,2.5133133,0.0,0.0,0.0,0.0,0.0,0.0,0.0,0.0,0.0,0.0,0.2,0.2,0.2,0.2,0.2,0
15692000,15612000,3.0584514,3.8502526,-2.5132327,-1.2565956,4.1619965e-05,1.2566788,2.513316,0.0,0.0,0.0,0.0,0.0,0.0,0.0,0.0,0.0,0.0,0.2,0.2,0.2,0.2,0.2,0
15700000,15620000,3.1415927,3.947785,-2.513211,-1.2565738,6.3456886e-05,1.2567006,2.5133379,0.0,0.0,0.0,0.0,0.0,0.0,0.0,0.0,0.0,0.0,0.2,0.2,0.2,0.2,0.2,0
15708000,15628000,-2.863293,3.6756487,-2.5131965,-1.2565595,7.778943e-05,1.2567149,2.5133522,0.0,0.0,0.0,0.0,0.0,0.0,0.0,0.0,0.0,0.0,0.2,0.2,0.2,0.2,0.2,0
15716000,15636000,2.55359,3.5547009,-2.5131893,-1.256552,8.5203574e-05,1.2567223,2.5133595,0.0,0.0,0.0,0.0,0.0,0.0,0.0,0.0,0.0,0.0,0.2,0.2,0.2,0.2,0.2,0
15724000,15644000,-2.976444,3.767665,-2.513214,-1.2565769,6.038676e-05,1.2566975,2.5133348,0.0,0.0,0.0,0.0,0.0,0.0,0.0,0.0,0.0,0.0,0.2,0.2,0.2,0.2,0.2,0
15732000,15652000,-2.9229238,3.7209327,-2.5132291,-1.2565919,4.5316763e-05,1.2566825,2.5133197,0.0,0.0,0.0,0.0,0.0,0.0,0.0,0.0,0.0,0.0,0.2,0.2,0.2,0.2,0.2,0
15740000,15660000,-2.8706458,3.6808386,-2.5132186,-1.2565815,5.575879e-05,1.2566929,2.5133302,0.0,0.0,0.0,0.0,0.0,0.0,0.0,0.0,0.0,0.0,0.2,0.2,0.2,0.2,0.2,0
15748000,15668000,-2.976444,3.7676783,-2.5132012,-1.256564,7.320355e-05,1.2567104,2.5133476,0.0,0.0,0.0,0.0,0.0,0.0,0.0,0.0,0.0,0.0,0.2,0.2,0.2,0.2,0.2,0
15756000,15676000,-3.050933,3.842243,-2.5131989,-1.2565618,7.5576485e-05,1.2567128,2.51335,0.0,0.0,0.0,0.0,0.0,0.0,0.0,0.0,0.0,0.0,0.2,0.2,0.2,0.2,0.2,0
15764000,15684000,-3.0172377,3.8071475,-2.5131927,-1.2565554,8.184002e-05,1.256719,2.5133562,0.0,0.0,0.0,0.0,0.0,0.0,0.0,0.0,0.0,0.0,0.2,0.2,0.2,0.2,0.2,0
15772000,15692000,-2.7707014,3.6193993,-2.5131888,-1.2565517,8.552312e-05,1.2567227,2.51336,0.0,0.0,0.0,0.0,0.0,0.0,0.0,0.0,0.0,0.0,0.2,0.2,0.2,0.2,0.2,0
15780000,15700000,3.1415927,3.9477599,-2.513186,-1.2565488,8.846614e-05,1.2567257,2.513363,0.0,0.0,0.0,0.0,0.0,0.0,0.0,0.0,0.0,0.0,0.2,0.2,0.2,0.2,0.2,0
15788000,15708000,2.9927027,3.7828505,-2.5131822,-1.256545,9.2388174e-05,1.2567296,2.5133667,0.0,0.0,0.0,0.0,0.0,0.0,0.0,0.0,0.0,0.0,0.2,0.2,0.2,0.2,0.2,0
15796000,15716000,-3.0961695,3.8929987,-2.5131512,-1.2565141,0.00012329787,1.2567606,2.5133977,0.0,0.0,0.0,0.0,0.0,0.0,0.0,0.0,0.0,0.0,0.2,0.2,0.2,0.2,0.2,0
15804000,15724000,3.1415927,3.947711,-2.5131454,-1.2565082,0.00012901954,1.2567662,2.5134034,0.0,0.0,0.0,0.0,0.0,0.0,0.0,0.0,0.0,0.0,0.2,0.2,0.2,0.2,0.2,0
15812000,15732000,1.0019611,3.5945745,-2.5140624,-1.2546039,0.0022062806,1.256129,2.5109155,-0.08979998,-0.0015023816,0.075051785,0.034067277,-0.067816734,-0.044863503,-0.096667714,-0.028700085,0.06511043,0.05512088,0.19881305,0.19918996,0.20068684,0.20123571,0.20007443,0
15820000,15740000,1.0019687,3.594573,-2.5140595,-1.254601,0.0022091786,1.2561319,2.5109186,-0.08979998,-0.0015023816,0.075051785,0.034067277,-0.067816734,-0.044863503,-0.096667714,-0.028700085,0.06511043,0.05512088,0.19881305,0.19918996,0.20068684,0.20123571,0.20007443,0
15828000,15748000,1.0020005,3.5945683,-2.514038,-1.2545795,0.0022307034,1.2561535,2.51094,-0.08979998,-0.0015023816,0.075051785,0.034067277,-0.067816734,-0.044863503,-0.096667714,-0.028700085,0.06511043,0.05512088,0.19881305,0.19918996,0.20068684,0.20123571,0.20007443,0
15836000,15756000,1.0019819,3.5945756,-2.5140433,-1.2545848,0.0022253252,1.2561481,2.5109348,-0.08979998,-0.0015023816,0.075051785,0.034067277,-0.067816734,-0.044863503,-0.096667714,-0.028700085,0.06511043,0.05512088,0.19881305,0.19918996,0.20068684,0.20123571,0.20007443,0
15844000,15764000,1.0020005,3.5945694,-2.514038,-1.2545795,0.0022306351,1.2561535,2.51094,-0.08979998,-0.0015023816,0.075051785,0.034067277,-0.067816734,-0.044863503,-0.096667714,-0.028700085,0.06511043,0.05512088,0.19881305,0.19918996,0.20068684,0.20123571,0.20007443,0
15852000,15772000,1.0019827,3.5945728,-2.514051,-1.2545924,0.0022177515,1.2561406,2.5109272,-0.08979998,-0.0015023816,0.075051785,0.034067277,-0.067816734,-0.044863503,-0.096667714,-0.028700085,0.06511043,0.05512088,0.19881305,0.19918996,0.20068684,0.20123571,0.20007443,0
15860000,15780000,1.0019768,3.5945737,-2.5140548,-1.2545961,0.002214003,1.2561368,2.5109234,-0.08979998,-0.0015023816,0.075051785,0.034067277,-0.067816734,-0.044863503,-0.096667714,-0.028700085,0.06511043,0.05512088,0.19881305,0.19918996,0.20068684,0.20123571,0.20007443,0
15868000,15788000,1.0019724,3.594578,-2.5140526,-1.2545941,0.0022161168,1.2561388,2.5109255,-0.08979998,-0.0015023816,0.075051785,0.034067277,-0.067816734,-0.044863503,-0.096667714,-0.028700085,0.06511043,0.05512088,0.19881305,0.19918996,0.20068684,0.20123571,0.20007443,0
15876000,15796000,1.0019621,3.5945766,-2.5140674,-1.2546088,0.0022013586,1.2561241,2.5109107,-0.08979998,-0.0015023816,0.075051785,0.034067277,-0.067816734,-0.044863503,-0.096667714,-0.028700085,0.06511043,0.05512088,0.19881305,0.19918996,0.20068684,0.20123571,0.20007443,0
15884000,15804000,1.0019648,3.5945747,-2.514069,-1.2546104,0.0021997006,1.2561225,2.510909,-0.08979998,-0.0015023816,0.075051785,0.034067277,-0.067816734,-0.044863503,-0.096667714,-0.028700085,0.06511043,0.05512088,0.19881305,0.19918996,0.20068684,0.20123571,0.20007443,0
15892000,15812000,1.0019488,3.594582,-2.5140722,-1.2546136,0.0021964516,1.2561193,2.5109057,-0.08979998,-0.0015023816,0.075051785,0.034067277,-0.067816734,-0.044863503,-0.096667714,-0.028700085,0.06511043,0.05512088,0.19881305,0.19918996,0.20068684,0.20123571,0.20007443,0
15900000,15820000,1.0019433,3.5945807,-2.5140805,-1.2546219,0.0021882416,1.256111,2.5108976,-0.08979998,-0.0015023816,0.075051785,0.034067277,-0.067816734,-0.044863503,-0.096667714,-0.028700085,0.06511043,0.05512088,0.19881305,0.19918996,0.20068684,0.20123571,0.20007443,0
15908000,15828000,1.0019528,3.5945807,-2.514073,-1.2546144,0.0021957597,1.2561185,2.5109053,-0.08979998,-0.0015023816,0.075051785,0.034067277,-0.067816734,-0.044863503,-0.096667714,-0.028700085,0.06511043,0.05512088,0.19881305,0.19918996,0.20068684,0.20123571,0.20007443,0
15916000,15836000,1.0019622,3.5945823,-2.5140624,-1.2546039,0.002206271,1.256129,2.5109158,-0.08979998,-0.0015023816,0.075051785,0.034067277,-0.067816734,-0.044863503,-0.096667714,-0.028700085,0.06511043,0.05512088,0.19881305,0.19918996,0.20068684,0.20123571,0.20007443,0
15924000,15844000,1.0019723,3.5945783,-2.5140617,-1.2546031,0.0022070373,1.2561299,2.5109165,-0.08979998,-0.0015023816,0.075051785,0.034067277,-0.067816734,-0.044863503,-0.096667714,-0.028700085,0.06511043,0.05512088,0.19881305,0.19918996,0.20068684,0.20123571,0.20007443,0
15932000,15852000,1.0019658,3.594577,-2.5140715,-1.2546129,0.0021973157,1.2561201,2.5109067,-0.08979998,-0.0015023816,0.075051785,0.034067277,-0.067816734,-0.044863503,-0.096667714,-0.028700085,0.06511043,0.05512088,0.19881305,0.19918996,0.20068684,0.20123571,0.20007443,0
15940000,15860000,1.001951,3.59458,-2.5140822,-1.2546237,0.0021865289,1.2561094,2.510896,-0.08979998,-0.0015023816,0.075051785,0.034067277,-0.067816734,-0.044863503,-0.096667714,-0.028700085,0.06511043,0.05512088,0.19881305,0.19918996,0.20068684,0.20123571,0.20007443,0
15948000,15868000,1.0019472,3.594584,-2.5140789,-1.2546203,0.0021898241,1.2561126,2.5108993,-0.08979998,-0.0015023816,0.075051785,0.034067277,-0.067816734,-0.044863503,-0.096667714,-0.028700085,0.06511043,0.05512088,0.19881305,0.19918996,0.20068684,0.20123571,0.20007443,0
15956000,15876000,1.0019648,3.5945766,-2.5140767,-1.254618,0.002192158,1.256115,2.5109017,-0.08979998,-0.0015023816,0.075051785,0.034067277,-0.067816734,-0.044863503,-0.096667714,-0.028700085,0.06511043,0.05512088,0.19881305,0.19918996,0.20068684,0.20123571,0.20007443,0
15964000,15884000,1.001964,3.594584,-2.5140643,-1.2546059,0.0022043542,1.2561271,2.5109138,-0.08979998,-0.0015023816,0.075051785,0.034067277,-0.067816734,-0.044863503,-0.096667714,-0.028700085,0.06511043,0.05512088,0.19881305,0.19918996,0.20068684,0.20123571,0.20007443,0
15972000,15892000,1.0019807,3.5945802,-2.5140562,-1.2545974,0.0022127307,1.2561355,2.5109222,-0.08979998,-0.0015023816,0.075051785,0.034067277,-0.067816734,-0.044863503,-0.096667714,-0.028700085,0.06511043,0.05512088,0.19881305,0.19918996,0.20068684,0.20123571,0.20007443,0
15980000,15900000,1.0019883,3.5945787,-2.514053,-1.2545944,0.0022157442,1.2561386,2.5109253,-0.08979998,-0.0015023816,0.075051785,0.034067277,-0.067816734,-0.044863503,-0.096667714,-0.028700085,0.06511043,0.05512088,0.19881305,0.19918996,0.20068684,0.20123571,0.20007443,0
15988000,15908000,1.0019864,3.594583,-2.5140467,-1.2545879,0.0022222293,1.256145,2.5109317,-0.08979998,-0.0015023816,0.075051785,0.034067277,-0.067816734,-0.044863503,-0.096667714,-0.028700085,0.06511043,0.05512088,0.19881305,0.19918996,0.20068684,0.20123571,0.20007443,0
15996000,15916000,1.0020041,3.59458,-2.5140376,-1.254579,0.0022312303,1.2561541,2.5109408,-0.08979998,-0.0015023816,0.075051785,0.034067277,-0.067816734,-0.044863503,-0.096667714,-0.028700085,0.06511043,0.05512088,0.19881305,0.19918996,0.20068684,0.20123571,0.20007443,0
16004000,15924000,1.0020125,3.5945811,-2.514027,-1.2545685,0.0022416927,1.2561646,2.510951,-0.08979998,-0.0015023816,0.075051785,0.034067277,-0.067816734,-0.044863503,-0.096667714,-0.028700085,0.06511043,0.05512088,0.19881305,0.19918996,0.20068684,0.20123571,0.20007443,0
16012000,15932000,1.0020293,3.5945783,-2.5140176,-1.2545589,0.002251288,1.2561741,2.5109608,-0.08979998,-0.0015023816,0.075051785,0.034067277,-0.067816734,-0.044863503,-0.096667714,-0.028700085,0.06511043,0.05512088,0.19881305,0.19918996,0.20068684,0.20123571,0.20007443,0
16020000,15940000,1.0020256,3.5945826,-2.5140142,-1.2545557,0.0022544928,1.2561773,2.510964,-0.08979998,-0.0015023816,0.075051785,0.034067277,-0.067816734,-0.044863503,-0.096667714,-0.028700085,0.06511043,0.05512088,0.19881305,0.19918996,0.20068684,0.20123571,0.20007443,0
16028000,15948000,1.0020199,3.5945785,-2.5140285,-1.2545698,0.002240422,1.2561632,2.5109499,-0.08979998,-0.0015023816,0.075051785,0.034067277,-0.067816734,-0.044863503,-0.096667714,-0.028700085,0.06511043,0.05512088,0.19881305,0.19918996,0.20068684,0.20123571,0.20007443,0
16036000,15956000,1.002005,3.5945845,-2.5140333,-1.2545745,0.002235622,1.2561584,2.510945,-0.08979998,-0.0015023816,0.075051785,0.034067277,-0.067816734,-0.044863503,-0.096667714,-0.028700085,0.06511043,0.05512088,0.19881305,0.19918996,0.20068684,0.20123571,0.20007443,0
16044000,15964000,1.0019995,3.5945885,-2.5140328,-1.2545741,0.0022360603,1.2561588,2.5109456,-0.08979998,-0.0015023816,0.075051785,0.034067277,-0.067816734,-0.044863503,-0.096667714,-0.028700085,0.06511043,0.05512088,0.19881305,0.19918996,0.20068684,0.20123571,0.20007443,0
16052000,15972000,1.0019994,3.5945866,-2.514037,-1.2545782,0.0022319257,1.2561548,2.5109413,-0.08979998,-0.0015023816,0.075051785,0.034067277,-0.067816734,-0.044863503,-0.096667714,-0.028700085,0.06511043,0.05512088,0.19881305,0.19918996,0.20068684,0.20123571,0.20007443,0
16060000,15980000,1.0019789,3.5945914,-2.5140493,-1.2545906,0.0022195093,1.2561423,2.5109289,-0.08979998,-0.0015023816,0.075051785,0.034067277,-0.067816734,-0.044863503,-0.096667714,-0.028700085,0.06511043,0.05512088,0.19881305,0.19918996,0.20068684,0.20123571,0.20007443,0
16068000,15988000,1.0019594,3.5945873,-2.5140784,-1.2546197,0.0021904504,1.2561133,2.5109,-0.08979998,-0.0015023816,0.075051785,0.034067277,-0.067816734,-0.044863503,-0.096667714,-0.028700085,0.06511043,0.05512088,0.19881305,0.19918996,0.20068684,0.20123571,0.20007443,0
16076000,15996000,1.0019455,3.594584,-2.5141003,-1.2546417,0.0021686074,1.2560915,2.510878,-0.08979998,-0.0015023816,0.075051785,0.034067277,-0.067816734,-0.044863503,-0.096667714,-0.028700085,0.06511043,0.05512088,0.19881305,0.19918996,0.20068684,0.20123571,0.20007443,0
16084000,16004000,1.0019267,3.5945883,-2.514112,-1.2546535,0.002156741,1.2560796,2.5108662,-0.08979998,-0.0015023816,0.075051785,0.034067277,-0.067816734,-0.044863503,-0.096667714,-0.028700085,0.06511043,0.05512088,0.19881305,0.19918996,0.20068684,0.20123571,0.20007443,0
16092000,16012000,1.0019287,3.5945868,-2.5141137,-1.2546551,0.002155164,1.256078,2.5108647,-0.08979998,-0.0015023816,0.075051785,0.034067277,-0.067816734,-0.044863503,-0.096667714,-0.028700085,0.06511043,0.05512088,0.19881305,0.19918996,0.20068684,0.20123571,0.20007443,0
16100000,16020000,1.0019362,3.5945883,-2.5141041,-1.2546456,0.0021646684,1.2560875,2.5108743,-0.08979998,-0.0015023816,0.075051785,0.034067277,-0.067816734,-0.044863503,-0.096667714,-0.028700085,0.06511043,0.05512088,0.19881305,0.19918996,0.20068684,0.20123571,0.20007443,0
16108000,16028000,1.0019479,3.5945892,-2.5140924,-1.2546338,0.002176419,1.2560992,2.5108857,-0.08979998,-0.0015023816,0.075051785,0.034067277,-0.067816734,-0.044863503,-0.096667714,-0.028700085,0.06511043,0.05512088,0.19881305,0.19918996,0.20068684,0.20123571,0.20007443,0
16116000,16036000,1.0019574,3.5945868,-2.514088,-1.2546291,0.0021810282,1.2561039,2.5108905,-0.08979998,-0.0015023816,0.075051785,0.034067277,-0.067816734,-0.044863503,-0.096667714,-0.028700085,0.06511043,0.05512088,0.19881305,0.19918996,0.20068684,0.20123571,0.20007443,0
16124000,16044000,1.0019528,3.5945907,-2.514087,-1.2546283,0.0021818941,1.2561047,2.5108914,-0.08979998,-0.0015023816,0.075051785,0.034067277,-0.067816734,-0.044863503,-0.096667714,-0.028700085,0.06511043,0.05512088,0.19881305,0.19918996,0.20068684,0.20123571,0.20007443,0
16132000,16052000,1.0019499,3.5945914,-2.51409,-1.2546314,0.002178775,1.2561016,2.510888,-0.08979998,-0.0015023816,0.075051785,0.034067277,-0.067816734,-0.044863503,-0.096667714,-0.028700085,0.06511043,0.05512088,0.19881305,0.19918996,0.20068684,0.20123571,0.20007443,0
16140000,16060000,1.0019593,3.59459,-2.5140839,-1.2546251,0.002185121,1.2561079,2.5108945,-0.08979998,-0.0015023816,0.075051785,0.034067277,-0.067816734,-0.044863503,-0.096667714,-0.028700085,0.06511043,0.05512088,0.19881305,0.19918996,0.20068684,0.20123571,0.20007443,0
16148000,16068000,1.0019696,3.5945926,-2.5140703,-1.2546115,0.0021986468,1.2561214,2.5109081,-0.08979998,-0.0015023816,0.075051785,0.034067277,-0.067816734,-0.044863503,-0.096667714,-0.028700085,0.06511043,0.05512088,0.19881305,0.19918996,0.20068684,0.20123571,0.20007443,0
16156000,16076000,1.0019492,3.594594,-2.514089,-1.2546304,0.0021797628,1.2561026,2.5108893,-0.08979998,-0.0015023816,0.075051785,0.034067277,-0.067816734,-0.044863503,-0.096667714,-0.028700085,0.06511043,0.05512088,0.19881305,0.19918996,0.20068684,0.20123571,0.20007443,0
16164000,16084000,1.0019461,3.5945888,-2.5141027,-1.2546439,0.0021663206,1.2560892,2.5108757,-0.08979998,-0.0015023816,0.075051785,0.034067277,-0.067816734,-0.044863503,-0.096667714,-0.028700085,0.06511043,0.05512088,0.19881305,0.19918996,0.20068684,0.20123571,0.20007443,0
16172000,16092000,1.001937,3.594595,-2.5141013,-1.2546427,0.0021675527,1.2560904,2.5108771,-0.08979998,-0.0015023816,0.075051785,0.034067277,-0.067816734,-0.044863503,-0.096667714,-0.028700085,0.06511043,0.05512088,0.19881305,0.19918996,0.20068684,0.20123571,0.20007443,0
16180000,16100000,1.001935,3.5945976,-2.5140996,-1.254641,0.0021691744,1.2560921,2.5108786,-0.08979998,-0.0015023816,0.075051785,0.034067277,-0.067816734,-0.044863503,-0.096667714,-0.028700085,0.06511043,0.05512088,0.19881305,0.19918996,0.20068684,0.20123571,0.20007443,0
16188000,16108000,1.0019407,3.5945923,-2.514106,-1.2546474,0.0021628984,1.2560858,2.5108724,-0.08979998,-0.0015023816,0.075051785,0.034067277,-0.067816734,-0.044863503,-0.096667714,-0.028700085,0.06511043,0.05512088,0.19881305,0.19918996,0.20068684,0.20123571,0.20007443,0
16196000,16116000,1.0019268,3.594594,-2.5141175,-1.2546588,0.002151413,1.2560743,2.510861,-0.08979998,-0.0015023816,0.075051785,0.034067277,-0.067816734,-0.044863503,-0.096667714,-0.028700085,0.06511043,0.05512088,0.19881305,0.19918996,0.20068684,0.20123571,0.20007443,0
16204000,16124000,1.3210034,3.4886851,-2.5176072,-1.2528771,0.006732592,1.2571275,2.506929,-0.11573974,0.006711657,0.11331478,0.057139643,-0.08420291,-0.062355034,-0.13500966,-0.041014142,0.08922996,0.076366656,0.197196,0.19691987,0.20089039,0.20365071,0.201343,0
16212000,16132000,1.3209876,3.4886856,-2.517623,-1.2528927,0.0067168823,1.2571118,2.5069132,-0.11573974,0.006711657,0.11331478,0.057139643,-0.08420291,-0.062355034,-0.13500966,-0.041014142,0.08922996,0.076366656,0.197196,0.19691987,0.20089039,0.20365071,0.201343,0
16220000,16140000,1.3209833,3.488687,-2.5176294,-1.2528992,0.006710465,1.2571055,2.5069067,-0.11573974,0.006711657,0.11331478,0.057139643,-0.08420291,-0.062355034,-0.13500966,-0.041014142,0.08922996,0.076366656,0.197196,0.19691987,0.20089039,0.20365071,0.201343,0
16228000,16148000,1.3209751,3.4886875,-2.5176396,-1.2529093,0.006700348,1.2570953,2.5068967,-0.11573974,0.006711657,0.11331478,0.057139643,-0.08420291,-0.062355034,-0.13500966,-0.041014142,0.08922996,0.076366656,0.197196,0.19691987,0.20089039,0.20365071,0.201343,0
16236000,16156000,1.3209821,3.4886878,-2.5176294,-1.2528992,0.0067104064,1.2571054,2.5069067,-0.11573974,0.006711657,0.11331478,0.057139643,-0.08420291,-0.062355034,-0.13500966,-0.041014142,0.08922996,0.076366656,0.197196,0.19691987,0.20089039,0.20365071,0.201343,0
16244000,16164000,1.3209937,3.4886887,-2.5176206,-1.2528903,0.0067192847,1.2571143,2.5069156,-0.11573974,0.006711657,0.11331478,0.057139643,-0.08420291,-0.062355034,-0.13500966,-0.041014142,0.08922996,0.076366656,0.197196,0.19691987,0.20089039,0.20365071,0.201343,0
16252000,16172000,1.3210129,3.4886894,-2.5176048,-1.2528746,0.0067351516,1.2571301,2.5069315,-0.11573974,0.006711657,0.11331478,0.057139643,-0.08420291,-0.062355034,-0.13500966,-0.041014142,0.08922996,0.076366656,0.197196,0.19691987,0.20089039,0.20365071,0.201343,0
16260000,16180000,1.3210144,3.48869,-2.517599,-1.252869,0.006740721,1.2571357,2.506937,-0.11573974,0.006711657,0.11331478,0.057139643,-0.08420291,-0.062355034,-0.13500966,-0.041014142,0.08922996,0.076366656,0.197196,0.19691987,0.20089039,0.20365071,0.201343,0
16268000,16188000,1.3210176,3.4886913,-2.5175989,-1.2528687,0.006741094,1.2571361,2.5069375,-0.11573974,0.006711657,0.11331478,0.057139643,-0.08420291,-0.062355034,-0.13500966,-0.041014142,0.08922996,0.076366656,0.197196,0.19691987,0.20089039,0.20365071,0.201343,0
16276000,16196000,1.3210077,3.488691,-2.517606,-1.2528759,0.006733781,1.2571288,2.50693,-0.11573974,0.006711657,0.11331478,0.057139643,-0.08420291,-0.062355034,-0.13500966,-0.041014142,0.08922996,0.076366656,0.197196,0.19691987,0.20089039,0.20365071,0.201343,0
16284000,16204000,1.3209813,3.4886923,-2.5176353,-1.2529051,0.0067045186,1.2570996,2.5069008,-0.11573974,0.006711657,0.11331478,0.057139643,-0.08420291,-0.062355034,-0.13500966,-0.041014142,0.08922996,0.076366656,0.197196,0.19691987,0.20089039,0.20365071,0.201343,0
16292000,16212000,1.3209715,3.488693,-2.517643,-1.2529129,0.0066968207,1.2570919,2.5068932,-0.11573974,0.006711657,0.11331478,0.057139643,-0.08420291,-0.062355034,-0.13500966,-0.041014142,0.08922996,0.076366656,0.197196,0.19691987,0.20089039,0.20365071,0.201343,0
16300000,16220000,1.3209537,3.4886935,-2.5176604,-1.2529303,0.0066794236,1.2570745,2.5068758,-0.11573974,0.006711657,0.11331478,0.057139643,-0.08420291,-0.062355034,-0.13500966,-0.041014142,0.08922996,0.076366656,0.197196,0.19691987,0.20089039,0.20365071,0.201343,0
16308000,16228000,1.3209447,3.488694,-2.5176725,-1.2529423,0.0066674645,1.2570624,2.5068638,-0.11573974,0.006711657,0.11331478,0.057139643,-0.08420291,-0.062355034,-0.13500966,-0.041014142,0.08922996,0.076366656,0.197196,0.19691987,0.20089039,0.20365071,0.201343,0
16316000,16236000,1.3209409,3.4886947,-2.5176744,-1.2529445,0.00666528,1.2570603,2.5068617,-0.11573974,0.006711657,0.11331478,0.057139643,-0.08420291,-0.062355034,-0.13500966,-0.041014142,0.08922996,0.076366656,0.197196,0.19691987,0.20089039,0.20365071,0.201343,0
16324000,16244000,1.3209153,3.4886944,-2.517696,-1.2529657,0.006643968,1.257039,2.5068402,-0.11573974,0.006711657,0.11331478,0.057139643,-0.08420291,-0.062355034,-0.13500966,-0.041014142,0.08922996,0.076366656,0.197196,0.19691987,0.20089039,0.20365071,0.201343,0
16332000,16252000,1.3209164,3.4886959,-2.5176983,-1.2529682,0.006641516,1.2570366,2.5068378,-0.11573974,0.006711657,0.11331478,0.057139643,-0.08420291,-0.062355034,-0.13500966,-0.041014142,0.08922996,0.076366656,0.197196,0.19691987,0.20089039,0.20365071,0.201343,0
16340000,16260000,1.3209125,3.4886966,-2.5177016,-1.2529715,0.006638191,1.2570332,2.5068345,-0.11573974,0.006711657,0.11331478,0.057139643,-0.08420291,-0.062355034,-0.13500966,-0.041014142,0.08922996,0.076366656,0.197196,0.19691987,0.20089039,0.20365071,0.201343,0
16348000,16268000,1.320907,3.4886968,-2.5177069,-1.2529767,0.0066330377,1.2570281,2.5068293,-0.11573974,0.006711657,0.11331478,0.057139643,-0.08420291,-0.062355034,-0.13500966,-0.041014142,0.08922996,0.076366656,0.197196,0.19691987,0.20089039,0.20365071,0.201343,0
16356000,16276000,1.3209006,3.488698,-2.5177155,-1.2529852,0.006624466,1.2570195,2.5068207,-0.11573974,0.006711657,0.11331478,0.057139643,-0.08420291,-0.062355034,-0.13500966,-0.041014142,0.08922996,0.076366656,0.197196,0.19691987,0.20089039,0.20365071,0.201343,0
16364000,16284000,1.3209078,3.4886985,-2.51771,-1.2529798,0.006629964,1.257025,2.5068264,-0.11573974,0.006711657,0.11331478,0.057139643,-0.08420291,-0.062355034,-0.13500966,-0.041014142,0.08922996,0.076366656,0.197196,0.19691987,0.20089039,0.20365071,0.201343,0
16372000,16292000,1.320916,3.4886985,-2.5176973,-1.252967,0.0066426503,1.2570376,2.506839,-0.11573974,0.006711657,0.11331478,0.057139643,-0.08420291,-0.062355034,-0.13500966,-0.041014142,0.08922996,0.076366656,0.197196,0.19691987,0.20089039,0.20365071,0.201343,0
16380000,16300000,1.3209347,3.4886994,-2.517682,-1.2529517,0.0066579585,1.257053,2.5068543,-0.11573974,0.006711657,0.11331478,0.057139643,-0.08420291,-0.062355034,-0.13500966,-0.041014142,0.08922996,0.076366656,0.197196,0.19691987,0.20089039,0.20365071,0.201343,0
16388000,16308000,1.3209383,3.4887004,-2.517677,-1.2529469,0.006662884,1.2570579,2.5068593,-0.11573974,0.006711657,0.11331478,0.057139643,-0.08420291,-0.062355034,-0.13500966,-0.041014142,0.08922996,0.076366656,0.197196,0.19691987,0.20089039,0.20365071,0.201343,0
16396000,16316000,1.3209379,3.4887006,-2.517677,-1.2529469,0.0066628633,1.2570579,2.5068593,-0.11573974,0.006711657,0.11331478,0.057139643,-0.08420291,-0.062355034,-0.13500966,-0.041014142,0.08922996,0.076366656,0.197196,0.19691987,0.20089039,0.20365071,0.201343,0
16404000,16324000,1.3209304,3.4887018,-2.5176866,-1.2529564,0.0066533717,1.2570484,2.5068498,-0.11573974,0.006711657,0.11331478,0.057139643,-0.08420291,-0.062355034,-0.13500966,-0.041014142,0.08922996,0.076366656,0.197196,0.19691987,0.20089039,0.20365071,0.201343,0
16412000,16332000,1.3209325,3.4887016,-2.5176816,-1.2529514,0.006658288,1.2570534,2.5068545,-0.11573974,0.006711657,0.11331478,0.057139643,-0.08420291,-0.062355034,-0.13500966,-0.041014142,0.08922996,0.076366656,0.197196,0.19691987,0.20089039,0.20365071,0.201343,0
16420000,16340000,1.3209563,3.4887033,-2.5176635,-1.2529333,0.0066765123,1.2570716,2.506873,-0.11573974,0.006711657,0.11331478,0.057139643,-0.08420291,-0.062355034,-0.13500966,-0.041014142,0.08922996,0.076366656,0.197196,0.19691987,0.20089039,0.20365071,0.201343,0
16428000,16348000,1.3209511,3.488704,-2.5176654,-1.2529352,0.006674503,1.2570696,2.5068707,-0.11573974,0.006711657,0.11331478,0.057139643,-0.08420291,-0.062355034,-0.13500966,-0.041014142,0.08922996,0.076366656,0.197196,0.19691987,0.20089039,0.20365071,0.201343,0
16436000,16356000,1.3209566,3.488704,-2.5176616,-1.2529311,0.0066785426,1.2570736,2.5068748,-0.11573974,0.006711657,0.11331478,0.057139643,-0.08420291,-0.062355034,-0.13500966,-0.041014142,0.08922996,0.076366656,0.197196,0.19691987,0.20089039,0.20365071,0.201343,0
16444000,16364000,1.3209362,3.4887047,-2.5176792,-1.252949,0.006660712,1.2570558,2.5068572,-0.11573974,0.006711657,0.11331478,0.057139643,-0.08420291,-0.062355034,-0.13500966,-0.041014142,0.08922996,0.076366656,0.197196,0.19691987,0.20089039,0.20365071,0.201343,0
16452000,16372000,1.3209523,3.4887052,-2.517664,-1.2529336,0.0066760397,1.257071,2.5068724,-0.11573974,0.006711657,0.11331478,0.057139643,-0.08420291,-0.062355034,-0.13500966,-0.041014142,0.08922996,0.076366656,0.197196,0.19691987,0.20089039,0.20365071,0.201343,0
16460000,16380000,1.3209676,3.4887064,-2.51765,-1.2529197,0.0066900738,1.2570851,2.5068865,-0.11573974,0.006711657,0.11331478,0.057139643,-0.08420291,-0.062355034,-0.13500966,-0.041014142,0.08922996,0.076366656,0.197196,0.19691987,0.20089039,0.20365071,0.201343,0
16468000,16388000,1.3209554,3.4887073,-2.5176625,-1.2529323,0.006677448,1.2570724,2.5068738,-0.11573974,0.006711657,0.11331478,0.057139643,-0.08420291,-0.062355034,-0.13500966,-0.041014142,0.08922996,0.076366656,0.197196,0.19691987,0.20089039,0.20365071,0.201343,0
16476000,16396000,1.3209414,3.4887073,-2.5176747,-1.2529445,0.006665272,1.2570603,2.5068617,-0.11573974,0.006711657,0.11331478,0.057139643,-0.08420291,-0.062355034,-0.13500966,-0.041014142,0.08922996,0.076366656,0.197196,0.19691987,0.20089039,0.20365071,0.201343,0
16484000,16404000,1.3209319,3.4887078,-2.5176845,-1.2529542,0.006655499,1.2570505,2.506852,-0.11573974,0.006711657,0.11331478,0.057139643,-0.08420291,-0.062355034,-0.13500966,-0.041014142,0.08922996,0.076366656,0.197196,0.19691987,0.20089039,0.20365071,0.201343,0
16492000,16412000,1.320941,3.4887087,-2.5176752,-1.2529451,0.0066646677,1.2570597,2.5068612,-0.11573974,0.006711657,0.11331478,0.057139643,-0.08420291,-0.062355034,-0.13500966,-0.041014142,0.08922996,0.076366656,0.197196,0.19691987,0.20089039,0.20365071,0.201343,0
16500000,16420000,1.3209364,3.488709,-2.51768,-1.2529497,0.0066599934,1.257055,2.5068564,-0.11573974,0.006711657,0.11331478,0.057139643,-0.08420291,-0.062355034,-0.13500966,-0.041014142,0.08922996,0.076366656,0.197196,0.19691987,0.20089039,0.20365071,0.201343,0
16508000,16428000,1.3209454,3.48871,-2.5176678,-1.2529376,0.0066721314,1.2570671,2.5068686,-0.11573974,0.006711657,0.11331478,0.057139643,-0.08420291,-0.062355034,-0.13500966,-0.041014142,0.08922996,0.076366656,0.197196,0.19691987,0.20089039,0.20365071,0.201343,0
16516000,16436000,1.3209583,3.488711,-2.517662,-1.2529317,0.0066780304,1.257073,2.5068746,-0.11573974,0.006711657,0.11331478,0.057139643,-0.08420291,-0.062355034,-0.13500966,-0.041014142,0.08922996,0.076366656,0.197196,0.19691987,0.20089039,0.20365071,0.201343,0
16524000,16444000,1.3209522,3.4887114,-2.5176642,-1.252934,0.006675748,1.2570708,2.5068722,-0.11573974,0.006711657,0.11331478,0.057139643,-0.08420291,-0.062355034,-0.13500966,-0.041014142,0.08922996,0.076366656,0.197196,0.19691987,0.20089039,0.20365071,0.201343,0
16532000,16452000,1.3209472,3.4887118,-2.5176697,-1.2529395,0.0066702706,1.2570653,2.5068667,-0.11573974,0.006711657,0.11331478,0.057139643,-0.08420291,-0.062355034,-0.13500966,-0.041014142,0.08922996,0.076366656,0.197196,0.19691987,0.20089039,0.20365071,0.201343,0
16540000,16460000,1.320939,3.4887125,-2.5176785,-1.2529483,0.0066615213,1.2570565,2.5068579,-0.11573974,0.006711657,0.11331478,0.057139643,-0.08420291,-0.062355034,-0.13500966,-0.041014142,0.08922996,0.076366656,0.197196,0.19691987,0.20089039,0.20365071,0.201343,0
16548000,16468000,1.3209351,3.4887125,-2.5176787,-1.2529486,0.006661105,1.257056,2.5068576,-0.11573974,0.006711657,0.11331478,0.057139643,-0.08420291,-0.062355034,-0.13500966,-0.041014142,0.08922996,0.076366656,0.197196,0.19691987,0.20089039,0.20365071,0.201343,0
16556000,16476000,1.3209392,3.4887137,-2.5176759,-1.2529458,0.0066639944,1.2570589,2.5068605,-0.11573974,0.006711657,0.11331478,0.057139643,-0.08420291,-0.062355034,-0.13500966,-0.041014142,0.08922996,0.076366656,0.197196,0.19691987,0.20089039,0.20365071,0.201343,0
16564000,16484000,1.3209546,3.4887142,-2.5176644,-1.252934,0.0066756993,1.2570707,2.5068722,-0.11573974,0.006711657,0.11331478,0.057139643,-0.08420291,-0.062355034,-0.13500966,-0.041014142,0.08922996,0.076366656,0.197196,0.19691987,0.20089039,0.20365071,0.201343,0
16572000,16492000,1.3209556,3.4887147,-2.5176585,-1.2529283,0.006681459,1.2570764,2.506878,-0.11573974,0.006711657,0.11331478,0.057139643,-0.08420291,-0.062355034,-0.13500966,-0.041014142,0.08922996,0.076366656,0.197196,0.19691987,0.20089039,0.20365071,0.201343,0
16580000,16500000,1.3209332,3.4887154,-2.517685,-1.2529547,0.0066551245,1.25705,2.5068517,-0.11573974,0.006711657,0.11331478,0.057139643,-0.08420291,-0.062355034,-0.13500966,-0.041014142,0.08922996,0.076366656,0.197196,0.19691987,0.20089039,0.20365071,0.201343,0
16588000,16508000,1.3209343,3.4887154,-2.517679,-1.2529489,0.0066609187,1.2570558,2.5068574,-0.11573974,0.006711657,0.11331478,0.057139643,-0.08420291,-0.062355034,-0.13500966,-0.041014142,0.08922996,0.076366656,0.197196,0.19691987,0.20089039,0.20365071,0.201343,0
16596000,16516000,1.3209372,3.4887166,-2.5176802,-1.2529497,0.0066599892,1.2570549,2.5068564,-0.11573974,0.006711657,0.11331478,0.057139643,-0.08420291,-0.062355034,-0.13500966,-0.041014142,0.08922996,0.076366656,0.197196,0.19691987,0.20089039,0.20365071,0.201343,0
16604000,16524000,1.3209507,3.4887178,-2.5176678,-1.2529376,0.0066722706,1.2570672,2.5068688,-0.11573974,0.006711657,0.11331478,0.057139643,-0.08420291,-0.062355034,-0.13500966,-0.041014142,0.08922996,0.076366656,0.197196,0.19691987,0.20089039,0.20365071,0.201343,0
16612000,16532000,1.1488094,3.4741616,-2.516721,-1.2519811,0.0063298545,1.2559192,2.5065117,-0.14010733,0.009313359,0.14165588,0.0747354,-0.09833019,-0.05484511,-0.14660005,-0.03251068,0.12769896,0.11469989,0.19675231,0.19722524,0.2015304,0.20373693,0.20075515,0
16620000,16540000,1.1488186,3.4741614,-2.5167155,-1.2519755,0.0063354224,1.2559249,2.5065172,-0.14010733,0.009313359,0.14165588,0.0747354,-0.09833019,-0.05484511,-0.14660005,-0.03251068,0.12769896,0.11469989,0.19675231,0.19722524,0.2015304,0.20373693,0.20075515,0
16628000,16548000,1.1488158,3.474162,-2.5167177,-1.2519776,0.006333388,1.2559228,2.5065153,-0.14010733,0.009313359,0.14165588,0.0747354,-0.09833019,-0.05484511,-0.14660005,-0.03251068,0.12769896,0.11469989,0.19675231,0.19722524,0.2015304,0.20373693,0.20075515,0
16636000,16556000,1.148804,3.474163,-2.5167274,-1.2519875,0.0063234908,1.2559129,2.5065053,-0.14010733,0.009313359,0.14165588,0.0747354,-0.09833019,-0.05484511,-0.14660005,-0.03251068,0.12769896,0.11469989,0.19675231,0.19722524,0.2015304,0.20373693,0.20075515,0
16644000,16564000,1.1488008,3.4741642,-2.516729,-1.2519891,0.0063218246,1.2559112,2.5065036,-0.14010733,0.009313359,0.14165588,0.0747354,-0.09833019,-0.05484511,-0.14660005,-0.03251068,0.12769896,0.11469989,0.19675231,0.19722524,0.2015304,0.20373693,0.20075515,0
16652000,16572000,1.1487997,3.4741638,-2.5167344,-1.2519943,0.0063167047,1.2559061,2.5064986,-0.14010733,0.009313359,0.14165588,0.0747354,-0.09833019,-0.05484511,-0.14660005,-0.03251068,0.12769896,0.11469989,0.19675231,0.19722524,0.2015304,0.20373693,0.20075515,0
16660000,16580000,1.1488044,3.4741645,-2.516729,-1.251989,0.0063219364,1.2559114,2.5065038,-0.14010733,0.009313359,0.14165588,0.0747354,-0.09833019,-0.05484511,-0.14660005,-0.03251068,0.12769896,0.11469989,0.19675231,0.19722524,0.2015304,0.20373693,0.20075515,0
16668000,16588000,1.1488011,3.4741652,-2.5167317,-1.2519916,0.006319277,1.2559087,2.5065012,-0.14010733,0.009313359,0.14165588,0.0747354,-0.09833019,-0.05484511,-0.14660005,-0.03251068,0.12769896,0.11469989,0.19675231,0.19722524,0.2015304,0.20373693,0.20075515,0
16676000,16596000,1.148793,3.4741657,-2.516739,-1.2519989,0.0063120606,1.2559016,2.5064938,-0.14010733,0.009313359,0.14165588,0.0747354,-0.09833019,-0.05484511,-0.14660005,-0.03251068,0.12769896,0.11469989,0.19675231,0.19722524,0.2015304,0.20373693,0.20075515,0
16684000,16604000,1.1487905,3.474166,-2.516743,-1.2520028,0.0063081067,1.2558975,2.5064898,-0.14010733,0.009313359,0.14165588,0.0747354,-0.09833019,-0.05484511,-0.14660005,-0.03251068,0.12769896,0.11469989,0.19675231,0.19722524,0.2015304,0.20373693,0.20075515,0
16692000,16612000,1.1487969,3.4741669,-2.5167375,-1.2519975,0.0063135545,1.255903,2.5064955,-0.14010733,0.009313359,0.14165588,0.0747354,-0.09833019,-0.05484511,-0.14660005,-0.03251068,0.12769896,0.11469989,0.19675231,0.19722524,0.2015304,0.20373693,0.20075515,0
16700000,16620000,1.148799,3.4741678,-2.5167341,-1.251994,0.006316944,1.2559063,2.5064988,-0.14010733,0.009313359,0.14165588,0.0747354,-0.09833019,-0.05484511,-0.14660005,-0.03251068,0.12769896,0.11469989,0.19675231,0.19722524,0.2015304,0.20373693,0.20075515,0
16708000,16628000,1.1487923,3.474168,-2.516741,-1.252001,0.006309942,1.2558994,2.5064917,-0.14010733,0.009313359,0.14165588,0.0747354,-0.09833019,-0.05484511,-0.14660005,-0.03251068,0.12769896,0.11469989,0.19675231,0.19722524,0.2015304,0.20373693,0.20075515,0
16716000,16636000,1.148799,3.4741695,-2.516732,-1.251992,0.006318951,1.2559084,2.5065007,-0.14010733,0.009313359,0.14165588,0.0747354,-0.09833019,-0.05484511,-0.14660005,-0.03251068,0.12769896,0.11469989,0.19675231,0.19722524,0.2015304,0.20373693,0.20075515,0
16724000,16644000,1.1488056,3.4741702,-2.5167263,-1.2519863,0.0063246908,1.2559141,2.5065064,-0.14010733,0.009313359,0.14165588,0.0747354,-0.09833019,-0.05484511,-0.14660005,-0.03251068,0.12769896,0.11469989,0.19675231,0.19722524,0.2015304,0.20373693,0.20075515,0
16732000,16652000,1.148809,3.4741695,-2.5167267,-1.2519865,0.0063244076,1.2559139,2.5065062,-0.14010733,0.009313359,0.14165588,0.0747354,-0.09833019,-0.05484511,-0.14660005,-0.03251068,0.12769896,0.11469989,0.19675231,0.19722524,0.2015304,0.20373693,0.20075515,0
16740000,16660000,1.1488097,3.4741702,-2.516726,-1.2519859,0.0063250787,1.2559146,2.506507,-0.14010733,0.009313359,0.14165588,0.0747354,-0.09833019,-0.05484511,-0.14660005,-0.03251068,0.12769896,0.11469989,0.19675231,0.19722524,0.2015304,0.20373693,0.20075515,0
16748000,16668000,1.1488028,3.4741716,-2.5167298,-1.2519898,0.0063211243,1.2559106,2.5065029,-0.14010733,0.009313359,0.14165588,0.0747354,-0.09833019,-0.05484511,-0.14660005,-0.03251068,0.12769896,0.11469989,0.19675231,0.19722524,0.2015304,0.20373693,0.20075515,0
16756000,16676000,1.1488007,3.4741728,-2.5167298,-1.2519898,0.0063210977,1.2559105,2.5065029,-0.14010733,0.009313359,0.14165588,0.0747354,-0.09833019,-0.05484511,-0.14660005,-0.03251068,0.12769896,0.11469989,0.19675231,0.19722524,0.2015304,0.20373693,0.20075515,0
16764000,16684000,1.1488136,3.4741728,-2.516719,-1.2519791,0.0063319006,1.2559214,2.5065136,-0.14010733,0.009313359,0.14165588,0.0747354,-0.09833019,-0.05484511,-0.14660005,-0.03251068,0.12769896,0.11469989,0.19675231,0.19722524,0.2015304,0.20373693,0.20075515,0
16772000,16692000,1.1487949,3.4741738,-2.5167375,-1.2519975,0.006313477,1.255903,2.5064952,-0.14010733,0.009313359,0.14165588,0.0747354,-0.09833019,-0.05484511,-0.14660005,-0.03251068,0.12769896,0.11469989,0.19675231,0.19722524,0.2015304,0.20373693,0.20075515,0
16780000,16700000,1.1487827,3.4741738,-2.5167518,-1.2520117,0.006299347,1.2558888,2.5064812,-0.14010733,0.009313359,0.14165588,0.0747354,-0.09833019,-0.05484511,-0.14660005,-0.03251068,0.12769896,0.11469989,0.19675231,0.19722524,0.2015304,0.20373693,0.20075515,0
16788000,16708000,1.1487811,3.4741743,-2.5167532,-1.2520131,0.006297885,1.2558874,2.5064797,-0.14010733,0.009313359,0.14165588,0.0747354,-0.09833019,-0.05484511,-0.14660005,-0.03251068,0.12769896,0.11469989,0.19675231,0.19722524,0.2015304,0.20373693,0.20075515,0
16796000,16716000,1.1487904,3.4741745,-2.5167449,-1.2520047,0.006306226,1.2558957,2.506488,-0.14010733,0.009313359,0.14165588,0.0747354,-0.09833019,-0.05484511,-0.14660005,-0.03251068,0.12769896,0.11469989,0.19675231,0.19722524,0.2015304,0.20373693,0.20075515,0
16804000,16724000,1.1487837,3.4741755,-2.51675,-1.25201,0.006300977,1.2558904,2.5064828,-0.14010733,0.009313359,0.14165588,0.0747354,-0.09833019,-0.05484511,-0.14660005,-0.03251068,0.12769896,0.11469989,0.19675231,0.19722524,0.2015304,0.20373693,0.20075515,0
16812000,16732000,1.1487838,3.4741764,-2.5167503,-1.2520102,0.0063007623,1.2558903,2.5064826,-0.14010733,0.009313359,0.14165588,0.0747354,-0.09833019,-0.05484511,-0.14660005,-0.03251068,0.12769896,0.11469989,0.19675231,0.19722524,0.2015304,0.20373693,0.20075515,0
16820000,16740000,1.1487701,3.474177,-2.5167644,-1.2520244,0.0062865955,1.2558761,2.5064685,-0.14010733,0.009313359,0.14165588,0.0747354,-0.09833019,-0.05484511,-0.14660005,-0.03251068,0.12769896,0.11469989,0.19675231,0.19722524,0.2015304,0.20373693,0.20075515,0
16828000,16748000,1.1487659,3.4741771,-2.516769,-1.2520288,0.006282195,1.2558717,2.506464,-0.14010733,0.009313359,0.14165588,0.0747354,-0.09833019,-0.05484511,-0.14660005,-0.03251068,0.12769896,0.11469989,0.19675231,0.19722524,0.2015304,0.20373693,0.20075515,0
16836000,16756000,1.1487699,3.474178,-2.5167642,-1.2520239,0.0062869405,1.2558764,2.5064688,-0.14010733,0.009313359,0.14165588,0.0747354,-0.09833019,-0.05484511,-0.14660005,-0.03251068,0.12769896,0.11469989,0.19675231,0.19722524,0.2015304,0.20373693,0.20075515,0
16844000,16764000,1.1487751,3.474179,-2.516759,-1.2520189,0.006292049,1.2558815,2.506474,-0.14010733,0.009313359,0.14165588,0.0747354,-0.09833019,-0.05484511,-0.14660005,-0.03251068,0.12769896,0.11469989,0.19675231,0.19722524,0.2015304,0.20373693,0.20075515,0
16852000,16772000,1.1487789,3.47418,-2.5167532,-1.2520131,0.0062978575,1.2558873,2.5064797,-0.14010733,0.009313359,0.14165588,0.0747354,-0.09833019,-0.05484511,-0.14660005,-0.03251068,0.12769896,0.11469989,0.19675231,0.19722524,0.2015304,0.20373693,0.20075515,0
16860000,16780000,1.1487969,3.4741802,-2.5167363,-1.2519963,0.0063147126,1.2559042,2.5064967,-0.14010733,0.009313359,0.14165588,0.0747354,-0.09833019,-0.05484511,-0.14660005,-0.03251068,0.12769896,0.11469989,0.19675231,0.19722524,0.2015304,0.20373693,0.20075515,0
16868000,16788000,1.1487923,3.4741805,-2.516742,-1.252002,0.006309023,1.2558985,2.506491,-0.14010733,0.009313359,0.14165588,0.0747354,-0.09833019,-0.05484511,-0.14660005,-0.03251068,0.12769896,0.11469989,0.19675231,0.19722524,0.2015304,0.20373693,0.20075515,0
16876000,16796000,1.1487952,3.4741807,-2.5167422,-1.252002,0.0063089817,1.2558985,2.506491,-0.14010733,0.009313359,0.14165588,0.0747354,-0.09833019,-0.05484511,-0.14660005,-0.03251068,0.12769896,0.11469989,0.19675231,0.19722524,0.2015304,0.20373693,0.20075515,0
16884000,16804000,1.1487999,3.474182,-2.5167344,-1.2519944,0.006316612,1.2559061,2.5064986,-0.14010733,0.009313359,0.14165588,0.0747354,-0.09833019,-0.05484511,-0.14660005,-0.03251068,0.12769896,0.11469989,0.19675231,0.19722524,0.2015304,0.20373693,0.20075515,0
16892000,16812000,1.1487844,3.474183,-2.5167465,-1.2520064,0.006304533,1.255894,2.5064864,-0.14010733,0.009313359,0.14165588,0.0747354,-0.09833019,-0.05484511,-0.14660005,-0.03251068,0.12769896,0.11469989,0.19675231,0.19722524,0.2015304,0.20373693,0.20075515,0
16900000,16820000,1.1487969,3.4741836,-2.5167375,-1.2519975,0.0063135354,1.255903,2.5064955,-0.14010733,0.009313359,0.14165588,0.0747354,-0.09833019,-0.05484511,-0.14660005,-0.03251068,0.12769896,0.11469989,0.19675231,0.19722524,0.2015304,0.20373693,0.20075515,0
16908000,16828000,1.1488079,3.4741836,-2.5167265,-1.2519865,0.0063245045,1.255914,2.5065064,-0.14010733,0.009313359,0.14165588,0.0747354,-0.09833019,-0.05484511,-0.14660005,-0.03251068,0.12769896,0.11469989,0.19675231,0.19722524,0.2015304,0.20373693,0.20075515,0
16916000,16836000,1.1487955,3.4741845,-2.5167365,-1.2519964,0.006314555,1.255904,2.5064964,-0.14010733,0.009313359,0.14165588,0.0747354,-0.09833019,-0.05484511,-0.14660005,-0.03251068,0.12769896,0.11469989,0.19675231,0.19722524,0.2015304,0.20373693,0.20075515,0
16924000,16844000,1.1487942,3.4741855,-2.516738,-1.2519977,0.0063131824,1.2559026,2.506495,-0.14010733,0.009313359,0.14165588,0.0747354,-0.09833019,-0.05484511,-0.14660005,-0.03251068,0.12769896,0.11469989,0.19675231,0.19722524,0.2015304,0.20373693,0.20075515,0
16932000,16852000,1.1488023,3.4741848,-2.5167353,-1.2519951,0.0063158693,1.2559054,2.5064979,-0.14010733,0.009313359,0.14165588,0.0747354,-0.09833019,-0.05484511,-0.14660005,-0.03251068,0.12769896,0.11469989,0.19675231,0.19722524,0.2015304,0.20373693,0.20075515,0
16940000,16860000,1.1487991,3.4741862,-2.5167365,-1.2519963,0.006314692,1.2559042,2.5064964,-0.14010733,0.009313359,0.14165588,0.0747354,-0.09833019,-0.05484511,-0.14660005,-0.03251068,0.12769896,0.11469989,0.19675231,0.19722524,0.2015304,0.20373693,0.20075515,0
16948000,16868000,1.1488072,3.4741864,-2.5167298,-1.2519896,0.0063213985,1.2559109,2.5065033,-0.14010733,0.009313359,0.14165588,0.0747354,-0.09833019,-0.05484511,-0.14660005,-0.03251068,0.12769896,0.11469989,0.19675231,0.19722524,0.2015304,0.20373693,0.20075515,0
16956000,16876000,1.1488242,3.474187,-2.5167124,-1.2519722,0.00633879,1.2559283,2.5065207,-0.14010733,0.009313359,0.14165588,0.0747354,-0.09833019,-0.05484511,-0.14660005,-0.03251068,0.12769896,0.11469989,0.19675231,0.19722524,0.2015304,0.20373693,0.20075515,0
16964000,16884000,1.1488429,3.474187,-2.5166957,-1.2519556,0.0063554277,1.255945,2.5065374,-0.14010733,0.009313359,0.14165588,0.0747354,-0.09833019,-0.05484511,-0.14660005,-0.03251068,0.12769896,0.11469989,0.19675231,0.19722524,0.2015304,0.20373693,0.20075515,0
16972000,16892000,1.1488472,3.474188,-2.5166872,-1.2519469,0.0063640387,1.2559536,2.5065458,-0.14010733,0.009313359,0.14165588,0.0747354,-0.09833019,-0.05484511,-0.14660005,-0.03251068,0.12769896,0.11469989,0.19675231,0.19722524,0.2015304,0.20373693,0.20075515,0
16980000,16900000,1.1488483,3.4741888,-2.5166886,-1.2519484,0.0063626096,1.2559521,2.5065446,-0.14010733,0.009313359,0.14165588,0.0747354,-0.09833019,-0.05484511,-0.14660005,-0.03251068,0.12769896,0.11469989,0.19675231,0.19722524,0.2015304,0.20373693,0.20075515,0
16988000,16908000,1.1488482,3.4741888,-2.51669,-1.2519498,0.0063612154,1.2559508,2.5065432,-0.14010733,0.009313359,0.14165588,0.0747354,-0.09833019,-0.05484511,-0.14660005,-0.03251068,0.12769896,0.11469989,0.19675231,0.19722524,0.2015304,0.20373693,0.20075515,0
16996000,16916000,1.1488434,3.474191,-2.5166907,-1.2519506,0.0063603558,1.2559499,2.5065422,-0.14010733,0.009313359,0.14165588,0.0747354,-0.09833019,-0.05484511,-0.14660005,-0.03251068,0.12769896,0.11469989,0.19675231,0.19722524,0.2015304,0.20373693,0.20075515,0
17004000,16924000,1.0328369,3.4872644,-2.516078,-1.2513287,0.0061391774,1.2552037,2.5063066,-0.15296765,0.011133518,0.15692185,0.08406865,-0.10642874,-0.06053153,-0.16182204,-0.036886733,0.13950591,0.1259638,0.19642441,0.19744846,0.20200257,0.20380151,0.20032308,0
17012000,16932000,1.0328584,3.487265,-2.5160558,-1.2513065,0.006161348,1.2552259,2.5063288,-0.15296765,0.011133518,0.15692185,0.08406865,-0.10642874,-0.06053153,-0.16182204,-0.036886733,0.13950591,0.1259638,0.19642441,0.19744846,0.20200257,0.20380151,0.20032308,0
17020000,16940000,1.0328636,3.487264,-2.516055,-1.2513056,0.0061622555,1.2552269,2.5063298,-0.15296765,0.011133518,0.15692185,0.08406865,-0.10642874,-0.06053153,-0.16182204,-0.036886733,0.13950591,0.1259638,0.19642441,0.19744846,0.20200257,0.20380151,0.20032308,0
17028000,16948000,1.0328599,3.4872658,-2.5160553,-1.2513059,0.006161921,1.2552265,2.5063293,-0.15296765,0.011133518,0.15692185,0.08406865,-0.10642874,-0.06053153,-0.16182204,-0.036886733,0.13950591,0.1259638,0.19642441,0.19744846,0.20200257,0.20380151,0.20032308,0
17036000,16956000,1.0328557,3.487266,-2.5160604,-1.251311,0.0061569707,1.2552215,2.5063243,-0.15296765,0.011133518,0.15692185,0.08406865,-0.10642874,-0.06053153,-0.16182204,-0.036886733,0.13950591,0.1259638,0.19642441,0.19744846,0.20200257,0.20380151,0.20032308,0
17044000,16964000,1.0328556,3.4872675,-2.5160594,-1.2513099,0.006157949,1.2552224,2.5063252,-0.15296765,0.011133518,0.15692185,0.08406865,-0.10642874,-0.06053153,-0.16182204,-0.036886733,0.13950591,0.1259638,0.19642441,0.19744846,0.20200257,0.20380151,0.20032308,0
17052000,16972000,1.0328524,3.4872675,-2.5160635,-1.2513142,0.0061537786,1.2552183,2.5063212,-0.15296765,0.011133518,0.15692185,0.08406865,-0.10642874,-0.06053153,-0.16182204,-0.036886733,0.13950591,0.1259638,0.19642441,0.19744846,0.20200257,0.20380151,0.20032308,0
17060000,16980000,1.0328323,3.4872692,-2.5160806,-1.2513313,0.0061365445,1.2552011,2.506304,-0.15296765,0.011133518,0.15692185,0.08406865,-0.10642874,-0.06053153,-0.16182204,-0.036886733,0.13950591,0.1259638,0.19642441,0.19744846,0.20200257,0.20380151,0.20032308,0
17068000,16988000,1.032834,3.4872708,-2.5160778,-1.2513285,0.006139399,1.255204,2.506307,-0.15296765,0.011133518,0.15692185,0.08406865,-0.10642874,-0.06053153,-0.16182204,-0.036886733,0.13950591,0.1259638,0.19642441,0.19744846,0.20200257,0.20380151,0.20032308,0
17076000,16996000,1.0328405,3.4872708,-2.5160728,-1.2513233,0.0061444896,1.255209,2.506312,-0.15296765,0.011133518,0.15692185,0.08406865,-0.10642874,-0.06053153,-0.16182204,-0.036886733,0.13950591,0.1259638,0.19642441,0.19744846,0.20200257,0.20380151,0.20032308,0
17084000,17004000,1.0328339,3.4872708,-2.5160801,-1.2513307,0.006137155,1.2552016,2.5063045,-0.15296765,0.011133518,0.15692185,0.08406865,-0.10642874,-0.06053153,-0.16182204,-0.036886733,0.13950591,0.1259638,0.19642441,0.19744846,0.20200257,0.20380151,0.20032308,0
17092000,17012000,1.0328394,3.4872725,-2.5160728,-1.2513235,0.006144375,1.2552088,2.506312,-0.15296765,0.011133518,0.15692185,0.08406865,-0.10642874,-0.06053153,-0.16182204,-0.036886733,0.13950591,0.1259638,0.19642441,0.19744846,0.20200257,0.20380151,0.20032308,0
17100000,17020000,1.0328596,3.487271,-2.516057,-1.2513075,0.006160397,1.255225,2.5063279,-0.15296765,0.011133518,0.15692185,0.08406865,-0.10642874,-0.06053153,-0.16182204,-0.036886733,0.13950591,0.1259638,0.19642441,0.19744846,0.20200257,0.20380151,0.20032308,0
17108000,17028000,1.0328649,3.4872715,-2.5160518,-1.2513022,0.0061655934,1.2552301,2.506333,-0.15296765,0.011133518,0.15692185,0.08406865,-0.10642874,-0.06053153,-0.16182204,-0.036886733,0.13950591,0.1259638,0.19642441,0.19744846,0.20200257,0.20380151,0.20032308,0
17116000,17036000,1.0328524,3.4872727,-2.5160635,-1.2513139,0.0061539286,1.2552184,2.5063214,-0.15296765,0.011133518,0.15692185,0.08406865,-0.10642874,-0.06053153,-0.16182204,-0.036886733,0.13950591,0.1259638,0.19642441,0.19744846,0.20200257,0.20380151,0.20032308,0
17124000,17044000,1.0328408,3.4872737,-2.516074,-1.2513245,0.0061433627,1.2552079,2.5063107,-0.15296765,0.011133518,0.15692185,0.08406865,-0.10642874,-0.06053153,-0.16182204,-0.036886733,0.13950591,0.1259638,0.19642441,0.19744846,0.20200257,0.20380151,0.20032308,0
17132000,17052000,1.0328499,3.4872756,-2.5160637,-1.2513144,0.0061534964,1.255218,2.506321,-0.15296765,0.011133518,0.15692185,0.08406865,-0.10642874,-0.06053153,-0.16182204,-0.036886733,0.13950591,0.1259638,0.19642441,0.19744846,0.20200257,0.20380151,0.20032308,0
17140000,17060000,1.0328596,3.4872751,-2.5160556,-1.2513063,0.006161642,1.2552261,2.506329,-0.15296765,0.011133518,0.15692185,0.08406865,-0.10642874,-0.06053153,-0.16182204,-0.036886733,0.13950591,0.1259638,0.19642441,0.19744846,0.20200257,0.20380151,0.20032308,0
17148000,17068000,1.0328653,3.4872766,-2.516048,-1.2512987,0.0061692125,1.2552338,2.5063367,-0.15296765,0.011133518,0.15692185,0.08406865,-0.10642874,-0.06053153,-0.16182204,-0.036886733,0.13950591,0.1259638,0.19642441,0.19744846,0.20200257,0.20380151,0.20032308,0
17156000,17076000,1.0328686,3.4872751,-2.5160494,-1.2513,0.006167945,1.2552325,2.5063353,-0.15296765,0.011133518,0.15692185,0.08406865,-0.10642874,-0.06053153,-0.16182204,-0.036886733,0.13950591,0.1259638,0.19642441,0.19744846,0.20200257,0.20380151,0.20032308,0
17164000,17084000,1.0328777,3.4872768,-2.5160367,-1.2512872,0.00618059,1.2552451,2.5063481,-0.15296765,0.011133518,0.15692185,0.08406865,-0.10642874,-0.06053153,-0.16182204,-0.036886733,0.13950591,0.1259638,0.19642441,0.19744846,0.20200257,0.20380151,0.20032308,0
17172000,17092000,1.0328948,3.4872777,-2.5160186,-1.2512692,0.006198628,1.2552631,2.506366,-0.15296765,0.011133518,0.15692185,0.08406865,-0.10642874,-0.06053153,-0.16182204,-0.036886733,0.13950591,0.1259638,0.19642441,0.19744846,0.20200257,0.20380151,0.20032308,0
17180000,17100000,1.0329047,3.4872775,-2.5160112,-1.2512617,0.00620612,1.2552707,2.5063734,-0.15296765,0.011133518,0.15692185,0.08406865,-0.10642874,-0.06053153,-0.16182204,-0.036886733,0.13950591,0.1259638,0.19642441,0.19744846,0.20200257,0.20380151,0.20032308,0
17188000,17108000,1.0329078,3.4872775,-2.5160093,-1.2512598,0.0062080077,1.2552726,2.5063753,-0.15296765,0.011133518,0.15692185,0.08406865,-0.10642874,-0.06053153,-0.16182204,-0.036886733,0.13950591,0.1259638,0.19642441,0.19744846,0.20200257,0.20380151,0.20032308,0
17196000,17116000,1.0329024,3.487279,-2.5160136,-1.2512642,0.0062036435,1.2552682,2.506371,-0.15296765,0.011133518,0.15692185,0.08406865,-0.10642874,-0.06053153,-0.16182204,-0.036886733,0.13950591,0.1259638,0.19642441,0.19744846,0.20200257,0.20380151,0.20032308,0
17204000,17124000,1.0329006,3.4872801,-2.516014,-1.2512648,0.0062030326,1.2552676,2.5063705,-0.15296765,0.011133518,0.15692185,0.08406865,-0.10642874,-0.06053153,-0.16182204,-0.036886733,0.13950591,0.1259638,0.19642441,0.19744846,0.20200257,0.20380151,0.20032308,0
17212000,17132000,1.0329019,3.4872801,-2.516014,-1.2512647,0.006203206,1.2552677,2.5063705,-0.15296765,0.011133518,0.15692185,0.08406865,-0.10642874,-0.06053153,-0.16182204,-0.036886733,0.13950591,0.1259638,0.19642441,0.19744846,0.20200257,0.20380151,0.20032308,0
17220000,17140000,1.0328945,3.4872813,-2.5160198,-1.2512704,0.0061974633,1.255262,2.5063648,-0.15296765,0.011133518,0.15692185,0.08406865,-0.10642874,-0.06053153,-0.16182204,-0.036886733,0.13950591,0.1259638,0.19642441,0.19744846,0.20200257,0.20380151,0.20032308,0
17228000,17148000,1.0328966,3.4872828,-2.5160165,-1.2512672,0.0062006577,1.2552652,2.5063682,-0.15296765,0.011133518,0.15692185,0.08406865,-0.10642874,-0.06053153,-0.16182204,-0.036886733,0.13950591,0.1259638,0.19642441,0.19744846,0.20200257,0.20380151,0.20032308,0
17236000,17156000,1.0328954,3.4872828,-2.5160186,-1.2512692,0.0061986297,1.2552632,2.506366,-0.15296765,0.011133518,0.15692185,0.08406865,-0.10642874,-0.06053153,-0.16182204,-0.036886733,0.13950591,0.1259638,0.19642441,0.19744846,0.20200257,0.20380151,0.20032308,0
17244000,17164000,1.0328877,3.4872823,-2.5160282,-1.2512788,0.006189109,1.2552537,2.5063565,-0.15296765,0.011133518,0.15692185,0.08406865,-0.10642874,-0.06053153,-0.16182204,-0.036886733,0.13950591,0.1259638,0.19642441,0.19744846,0.20200257,0.20380151,0.20032308,0
17252000,17172000,1.0328661,3.4872825,-2.5160513,-1.2513018,0.006166125,1.2552307,2.5063336,-0.15296765,0.011133518,0.15692185,0.08406865,-0.10642874,-0.06053153,-0.16182204,-0.036886733,0.13950591,0.1259638,0.19642441,0.19744846,0.20200257,0.20380151,0.20032308,0
17260000,17180000,1.0328643,3.4872825,-2.5160542,-1.2513046,0.0061632707,1.2552278,2.5063307,-0.15296765,0.011133518,0.15692185,0.08406865,-0.10642874,-0.06053153,-0.16182204,-0.036886733,0.13950591,0.1259638,0.19642441,0.19744846,0.20200257,0.20380151,0.20032308,0
17268000,17188000,1.0328615,3.4872837,-2.5160558,-1.2513063,0.006161575,1.2552261,2.506329,-0.15296765,0.011133518,0.15692185,0.08406865,-0.10642874,-0.06053153,-0.16182204,-0.036886733,0.13950591,0.1259638,0.19642441,0.19744846,0.20200257,0.20380151,0.20032308,0
17276000,17196000,1.0328835,3.4872854,-2.5160317,-1.2512823,0.0061855065,1.2552501,2.506353,-0.15296765,0.011133518,0.15692185,0.08406865,-0.10642874,-0.06053153,-0.16182204,-0.036886733,0.13950591,0.1259638,0.19642441,0.19744846,0.20200257,0.20380151,0.20032308,0
17284000,17204000,1.0328842,3.4872856,-2.5160322,-1.2512827,0.0061851884,1.2552497,2.5063527,-0.15296765,0.011133518,0.15692185,0.08406865,-0.10642874,-0.06053153,-0.16182204,-0.036886733,0.13950591,0.1259638,0.19642441,0.19744846,0.20200257,0.20380151,0.20032308,0
17292000,17212000,1.0328773,3.4872866,-2.51604,-1.2512908,0.006177148,1.2552418,2.5063448,-0.15296765,0.011133518,0.15692185,0.08406865,-0.10642874,-0.06053153,-0.16182204,-0.036886733,0.13950591,0.1259638,0.19642441,0.19744846,0.20200257,0.20380151,0.20032308,0
17300000,17220000,1.0328732,3.487287,-2.5160434,-1.251294,0.0061738403,1.2552384,2.5063412,-0.15296765,0.011133518,0.15692185,0.08406865,-0.10642874,-0.06053153,-0.16182204,-0.036886733,0.13950591,0.1259638,0.19642441,0.19744846,0.20200257,0.20380151,0.20032308,0
17308000,17228000,1.0328777,3.487287,-2.5160398,-1.2512906,0.0061773974,1.255242,2.5063448,-0.15296765,0.011133518,0.15692185,0.08406865,-0.10642874,-0.06053153,-0.16182204,-0.036886733,0.13950591,0.1259638,0.19642441,0.19744846,0.20200257,0.20380151,0.20032308,0
17316000,17236000,1.032889,3.487287,-2.5160291,-1.2512797,0.0061881724,1.2552528,2.5063558,-0.15296765,0.011133518,0.15692185,0.08406865,-0.10642874,-0.06053153,-0.16182204,-0.036886733,0.13950591,0.1259638,0.19642441,0.19744846,0.20200257,0.20380151,0.20032308,0
17324000,17244000,1.0328768,3.4872882,-2.5160398,-1.2512903,0.0061775106,1.2552421,2.506345,-0.15296765,0.011133518,0.15692185,0.08406865,-0.10642874,-0.06053153,-0.16182204,-0.036886733,0.13950591,0.1259638,0.19642441,0.19744846,0.20200257,0.20380151,0.20032308,0
17332000,17252000,1.0328512,3.4872894,-2.5160646,-1.2513151,0.0061527276,1.2552173,2.5063202,-0.15296765,0.011133518,0.15692185,0.08406865,-0.10642874,-0.06053153,-0.16182204,-0.036886733,0.13950591,0.1259638,0.19642441,0.19744846,0.20200257,0.20380151,0.20032308,0
17340000,17260000,1.0328348,3.4872882,-2.5160851,-1.2513355,0.0061323075,1.2551969,2.5063,-0.15296765,0.011133518,0.15692185,0.08406865,-0.10642874,-0.06053153,-0.16182204,-0.036886733,0.13950591,0.1259638,0.19642441,0.19744846,0.20200257,0.20380151,0.20032308,0
17348000,17268000,1.0328369,3.4872892,-2.5160823,-1.2513328,0.0061351764,1.2551998,2.5063026,-0.15296765,0.011133518,0.15692185,0.08406865,-0.10642874,-0.06053153,-0.16182204,-0.036886733,0.13950591,0.1259638,0.19642441,0.19744846,0.20200257,0.20380151,0.20032308,0
17356000,17276000,1.0328425,3.4872894,-2.5160775,-1.2513279,0.0061399676,1.2552047,2.5063076,-0.15296765,0.011133518,0.15692185,0.08406865,-0.10642874,-0.06053153,-0.16182204,-0.036886733,0.13950591,0.1259638,0.19642441,0.19744846,0.20200257,0.20380151,0.20032308,0
