timestamp,timestamp_sample,gps_hvel[0],gps_hvel[1],gps_vvel,gps_hpos[0],gps_hpos[1],gps_vpos,ev_hvel[0],ev_hvel[1],ev_vvel,ev_hpos[0],ev_hpos[1],ev_vpos,rng_vpos,baro_vpos,aux_hvel[0],aux_hvel[1],aux_vvel,flow[0],flow[1],terr_flow[0],terr_flow[1],heading,mag_field[0],mag_field[1],mag_field[2],gravity[0],gravity[1],gravity[2],drag[0],drag[1],airspeed,beta,hagl,hagl_rate
3180000,3100000,0.0,0.0,0.0,0.0,0.0,0.0,0.0,0.0,0.0,0.0,0.0,0.0,0.0,0.0,0.0,0.0,nan,0.0,0.0,0.0,0.0,0.0,0.0,0.0,0.0,3.8249127e-05,0.0,0.0,0.0,0.0,0.0,0.0,0.0,0.0
3188000,3108000,0.0,0.0,0.0,0.0,0.0,0.0,0.0,0.0,0.0,0.0,0.0,0.0,0.0,0.0,0.0,0.0,nan,0.0,0.0,0.0,0.0,0.0,0.0,0.0,0.0,0.000384568,0.0,0.0,0.0,0.0,0.0,0.0,0.0,0.0
3196000,3116000,0.0,0.0,0.0,0.0,0.0,0.0,0.0,0.0,0.0,0.0,0.0,0.0,0.0,0.0,0.0,0.0,nan,0.0,0.0,0.0,0.0,0.0,0.0,0.0,0.0,0.00016502492,0.0,0.0,0.0,0.0,0.0,0.0,0.0,0.0
3204000,3124000,0.0,0.0,0.0,0.0,0.0,0.0,0.0,0.0,0.0,0.0,0.0,0.0,0.0,0.0,0.0,0.0,nan,0.0,0.0,0.0,0.0,0.0,inf,0.0,0.0,0.00017599098,0.0,0.0,0.0,0.0,0.0,0.0,0.0,0.0
3212000,3132000,0.0,0.0,0.0,0.0,0.0,0.0,0.0,0.0,0.0,0.0,0.0,0.0,0.0,0.0,0.0,0.0,nan,0.0,0.0,0.0,0.0,0.0,inf,0.0,0.0,6.992547e-05,0.0,0.0,0.0,0.0,0.0,0.0,0.0,0.0
3220000,3140000,0.0,0.0,0.0,0.0,0.0,0.0,0.0,0.0,0.0,0.0,0.0,0.0,0.0,0.0,0.0,0.0,nan,0.0,0.0,0.0,0.0,0.0,inf,0.0,0.0,0.0002612585,0.0,0.0,0.0,0.0,0.0,0.0,0.0,0.0
3228000,3148000,0.0,0.0,0.0,0.0,0.0,0.0,0.0,0.0,0.0,0.0,0.0,0.0,0.0,0.0,0.0,0.0,nan,0.0,0.0,0.0,0.0,0.0,inf,0.0,0.0,5.065115e-05,0.0,0.0,0.0,0.0,0.0,0.0,0.0,0.0
3236000,3156000,0.0,0.0,0.0,0.0,0.0,0.0,0.0,0.0,0.0,0.0,0.0,0.0,0.0,0.0,0.0,0.0,nan,0.0,0.0,0.0,0.0,0.0,inf,0.0,0.0,0.00028805307,0.0,0.0,0.0,0.0,0.0,0.0,0.0,0.0
3244000,3164000,0.0,0.0,0.0,0.0,0.0,0.0,0.0,0.0,0.0,0.0,0.0,0.0,0.0,0.0,0.0,0.0,nan,0.0,0.0,0.0,0.0,0.0,inf,0.0,0.0,6.191995e-05,0.0,0.0,0.0,0.0,0.0,0.0,0.0,0.0
3252000,3172000,0.0,0.0,0.0,0.0,0.0,0.0,0.0,0.0,0.0,0.0,0.0,0.0,0.0,0.0,0.0,0.0,nan,0.0,0.0,0.0,0.0,0.0,inf,0.0,0.0,5.805842e-05,0.0,0.0,0.0,0.0,0.0,0.0,0.0,0.0
3260000,3180000,0.0,0.0,0.0,0.0,0.0,0.0,0.0,0.0,0.0,0.0,0.0,0.0,0.0,0.0,0.0,0.0,nan,0.0,0.0,0.0,0.0,0.0,inf,0.0,0.0,0.00011801549,0.0,0.0,0.0,0.0,0.0,0.0,0.0,0.0
3268000,3188000,0.0,0.0,0.0,0.0,0.0,0.0,0.0,0.0,0.0,0.0,0.0,0.0,0.0,0.0,0.0,0.0,nan,0.0,0.0,0.0,0.0,0.0,inf,0.0,0.0,9.484911e-05,0.0,0.0,0.0,0.0,0.0,0.0,0.0,0.0
3276000,3196000,0.0,0.0,0.0,0.0,0.0,0.0,0.0,0.0,0.0,0.0,0.0,0.0,0.0,0.0,0.0,0.0,nan,0.0,0.0,0.0,0.0,0.0,inf,0.0,0.0,0.000103357124,0.0,0.0,0.0,0.0,0.0,0.0,0.0,0.0
3284000,3204000,0.0,0.0,0.0,0.0,0.0,0.0,0.0,0.0,0.0,0.0,0.0,0.0,0.0,0.0,0.0,0.0,nan,0.0,0.0,0.0,0.0,0.0,inf,0.0,0.0,4.5998757e-05,0.0,0.0,0.0,0.0,0.0,0.0,0.0,0.0
3292000,3212000,0.0,0.0,0.0,0.0,0.0,0.0,0.0,0.0,0.0,0.0,0.0,0.0,0.0,0.0,0.0,0.0,nan,0.0,0.0,0.0,0.0,0.0,inf,0.0,0.0,0.00022144684,0.0,0.0,0.0,0.0,0.0,0.0,0.0,0.0
3300000,3220000,0.0,0.0,0.0,0.0,0.0,0.0,0.0,0.0,0.0,0.0,0.0,0.0,0.0,0.0,0.0,0.0,nan,0.0,0.0,0.0,0.0,0.0,inf,0.0,0.0,0.0005607061,0.0,0.0,0.0,0.0,0.0,0.0,0.0,0.0
3308000,3228000,0.0,0.0,0.0,0.0,0.0,0.0,0.0,0.0,0.0,0.0,0.0,0.0,0.0,0.0,0.0,0.0,nan,0.0,0.0,0.0,0.0,0.0,inf,0.0,0.0,0.00074464345,0.0,0.0,0.0,0.0,0.0,0.0,0.0,0.0
3316000,3236000,0.0,0.0,0.0,0.0,0.0,0.0,0.0,0.0,0.0,0.0,0.0,0.0,0.0,0.0,0.0,0.0,nan,0.0,0.0,0.0,0.0,0.0,inf,0.0,0.0,0.000392298,0.0,0.0,0.0,0.0,0.0,0.0,0.0,0.0
3324000,3244000,0.0,0.0,0.0,0.0,0.0,0.0,0.0,0.0,0.0,0.0,0.0,0.0,0.0,0.0,0.0,0.0,nan,0.0,0.0,0.0,0.0,0.0,inf,0.0,0.0,0.0007086427,0.0,0.0,0.0,0.0,0.0,0.0,0.0,0.0
3332000,3252000,0.0,0.0,0.0,0.0,0.0,0.0,0.0,0.0,0.0,0.0,0.0,0.0,0.0,0.0,0.0,0.0,nan,0.0,0.0,0.0,0.0,0.0,inf,0.0,0.0,6.6537956e-05,0.0,0.0,0.0,0.0,0.0,0.0,0.0,0.0
3340000,3260000,0.0,0.0,0.0,0.0,0.0,0.0,0.0,0.0,0.0,0.0,0.0,0.0,0.0,0.0,0.0,0.0,nan,0.0,0.0,0.0,0.0,0.0,inf,0.0,0.0,0.00020931488,0.0,0.0,0.0,0.0,0.0,0.0,0.0,0.0
3348000,3268000,0.0,0.0,0.0,0.0,0.0,0.0,0.0,0.0,0.0,0.0,0.0,0.0,0.0,0.0,0.0,0.0,nan,0.0,0.0,0.0,0.0,0.0,inf,0.0,0.0,0.00035839406,0.0,0.0,0.0,0.0,0.0,0.0,0.0,0.0
3356000,3276000,0.0,0.0,0.0,0.0,0.0,0.0,0.0,0.0,0.0,0.0,0.0,0.0,0.0,0.0,0.0,0.0,nan,0.0,0.0,0.0,0.0,0.0,inf,0.0,0.0,0.0003531632,0.0,0.0,0.0,0.0,0.0,0.0,0.0,0.0
3364000,3284000,0.0,0.0,0.0,0.0,0.0,0.0,0.0,0.0,0.0,0.0,0.0,0.0,0.0,0.0,0.0,0.0,nan,0.0,0.0,0.0,0.0,0.0,inf,0.0,0.0,0.00034100542,0.0,0.0,0.0,0.0,0.0,0.0,0.0,0.0
3372000,3292000,0.0,0.0,0.0,0.0,0.0,0.0,0.0,0.0,0.0,0.0,0.0,0.0,0.0,0.0,0.0,0.0,nan,0.0,0.0,0.0,0.0,0.0,inf,0.0,0.0,0.00041790368,0.0,0.0,0.0,0.0,0.0,0.0,0.0,0.0
3380000,3300000,0.0,0.0,0.0,0.0,0.0,0.0,0.0,0.0,0.0,0.0,0.0,0.0,0.0,0.0,0.0,0.0,nan,0.0,0.0,0.0,0.0,0.0,inf,0.0,0.0,3.4934703e-05,0.0,0.0,0.0,0.0,0.0,0.0,0.0,0.0
3388000,3308000,0.0,0.0,0.0,0.0,0.0,0.0,0.0,0.0,0.0,0.0,0.0,0.0,0.0,0.0,0.0,0.0,nan,0.0,0.0,0.0,0.0,0.0,inf,0.0,0.0,0.00013773641,0.0,0.0,0.0,0.0,0.0,0.0,0.0,0.0
3396000,3316000,0.0,0.0,0.0,0.0,0.0,0.0,0.0,0.0,0.0,0.0,0.0,0.0,0.0,0.0,0.0,0.0,nan,0.0,0.0,0.0,0.0,0.0,inf,0.0,0.0,1.1743919e-05,0.0,0.0,0.0,0.0,0.0,0.0,0.0,0.0
3404000,3324000,0.0,0.0,0.0,0.0,0.0,0.0,0.0,0.0,0.0,0.0,0.0,0.0,0.0,0.0,0.0,0.0,nan,0.0,0.0,0.0,0.0,0.0,inf,0.0,0.0,0.00015116528,0.0,0.0,0.0,0.0,0.0,0.0,0.0,0.0
3412000,3332000,9.302488e-10,0.0,8.281938e-05,5.4990613e-12,0.0,186.86005,0.0,0.0,0.0,0.0,0.0,0.0,0.0,0.0,0.0,0.0,nan,0.0,0.0,0.0,0.0,0.0,inf,0.0,0.0,0.00013038197,0.0,0.0,0.0,0.0,0.0,0.0,0.0,0.0
3420000,3340000,9.302488e-10,0.0,8.281938e-05,5.4990613e-12,0.0,186.86005,0.0,0.0,0.0,0.0,0.0,0.0,0.0,0.0,0.0,0.0,nan,0.0,0.0,0.0,0.0,5.3759904e-05,inf,0.0,0.0,0.00046185724,0.0,0.0,0.0,0.0,0.0,0.0,0.0,0.0
3428000,3348000,9.302488e-10,0.0,8.281938e-05,5.4990613e-12,0.0,186.86005,0.0,0.0,0.0,0.0,0.0,0.0,0.0,0.0,0.0,0.0,nan,0.0,0.0,0.0,0.0,5.3759904e-05,inf,0.0,0.0,0.0006364997,0.0,0.0,0.0,0.0,0.0,0.0,0.0,0.0
3436000,3356000,9.302488e-10,0.0,8.281938e-05,5.4990613e-12,0.0,186.86005,0.0,0.0,0.0,0.0,0.0,0.0,0.0,0.0,0.0,0.0,nan,0.0,0.0,0.0,0.0,5.3759904e-05,inf,0.0,0.0,9.100128e-05,0.0,0.0,0.0,0.0,0.0,0.0,0.0,0.0
3444000,3364000,9.302488e-10,0.0,8.281938e-05,5.4990613e-12,0.0,186.86005,0.0,0.0,0.0,0.0,0.0,0.0,0.0,0.0,0.0,0.0,nan,0.0,0.0,0.0,0.0,5.3759904e-05,inf,0.0,0.0,0.00020326996,0.0,0.0,0.0,0.0,0.0,0.0,0.0,0.0
3452000,3372000,9.302488e-10,0.0,8.281938e-05,5.4990613e-12,0.0,186.86005,0.0,0.0,0.0,0.0,0.0,0.0,0.0,0.0,0.0,0.0,nan,0.0,0.0,0.0,0.0,5.3759904e-05,inf,0.0,0.0,0.0015909631,0.0,0.0,0.0,0.0,0.0,0.0,0.0,0.0
3460000,3380000,9.302488e-10,0.0,8.281938e-05,5.4990613e-12,0.0,186.86005,0.0,0.0,0.0,0.0,0.0,0.0,0.0,0.0,0.0,0.0,nan,0.0,0.0,0.0,0.0,5.3759904e-05,inf,0.0,0.0,0.00024551034,0.0,0.0,0.0,0.0,0.0,0.0,0.0,0.0
3468000,3388000,9.302488e-10,0.0,8.281938e-05,5.4990613e-12,0.0,186.86005,0.0,0.0,0.0,0.0,0.0,0.0,0.0,0.0,0.0,0.0,nan,0.0,0.0,0.0,0.0,5.3759904e-05,inf,0.0,0.0,0.0005826323,0.0,0.0,0.0,0.0,0.0,0.0,0.0,0.0
3476000,3396000,9.302488e-10,0.0,8.281938e-05,5.4990613e-12,0.0,186.86005,0.0,0.0,0.0,0.0,0.0,0.0,0.0,0.0,0.0,0.0,nan,0.0,0.0,0.0,0.0,5.3759904e-05,inf,0.0,0.0,3.4779376e-05,0.0,0.0,0.0,0.0,0.0,0.0,0.0,0.0
3484000,3404000,9.302488e-10,0.0,8.281938e-05,5.4990613e-12,0.0,186.86005,0.0,0.0,0.0,0.0,0.0,0.0,0.0,0.0,0.0,0.0,nan,0.0,0.0,0.0,0.0,5.3759904e-05,inf,0.0,0.0,1.7605238e-05,0.0,0.0,0.0,0.0,0.0,0.0,0.0,0.0
3492000,3412000,9.302488e-10,0.0,8.281938e-05,5.4990613e-12,0.0,186.86005,0.0,0.0,0.0,0.0,0.0,0.0,0.0,0.0,0.0,0.0,nan,0.0,0.0,0.0,0.0,8.003854e-05,inf,0.0,0.0,0.00036671633,0.0,0.0,0.0,0.0,0.0,0.0,0.0,0.0
3500000,3420000,9.302488e-10,0.0,8.281938e-05,5.4990613e-12,0.0,186.86005,0.0,0.0,0.0,0.0,0.0,0.0,0.0,0.0,0.0,0.0,nan,0.0,0.0,0.0,0.0,8.003854e-05,inf,0.0,0.0,0.00013679678,0.0,0.0,0.0,0.0,0.0,0.0,0.0,0.0
3508000,3428000,9.302488e-10,0.0,8.281938e-05,5.4990613e-12,0.0,186.86005,0.0,0.0,0.0,0.0,0.0,0.0,0.0,0.0,0.0,0.0,nan,0.0,0.0,0.0,0.0,8.003854e-05,inf,0.0,0.0,0.00010441335,0.0,0.0,0.0,0.0,0.0,0.0,0.0,0.0
3516000,3436000,9.302488e-10,0.0,8.281938e-05,5.4990613e-12,0.0,186.86005,0.0,0.0,0.0,0.0,0.0,0.0,0.0,0.0,0.0,0.0,nan,0.0,0.0,0.0,0.0,8.003854e-05,inf,0.0,0.0,0.00027603883,0.0,0.0,0.0,0.0,0.0,0.0,0.0,0.0
3524000,3444000,9.302488e-10,0.0,8.281938e-05,5.4990613e-12,0.0,186.86005,0.0,0.0,0.0,0.0,0.0,0.0,0.0,0.0,0.0,0.0,nan,0.0,0.0,0.0,0.0,8.003854e-05,inf,0.0,0.0,0.00043791134,0.0,0.0,0.0,0.0,0.0,0.0,0.0,0.0
3532000,3452000,9.302488e-10,0.0,8.281938e-05,5.4990613e-12,0.0,186.86005,0.0,0.0,0.0,0.0,0.0,0.0,0.0,0.0,0.0,0.0,nan,0.0,0.0,0.0,0.0,8.003854e-05,inf,0.0,0.0,8.785569e-05,0.0,0.0,0.0,0.0,0.0,0.0,0.0,0.0
3540000,3460000,9.302488e-10,0.0,8.281938e-05,5.4990613e-12,0.0,186.86005,0.0,0.0,0.0,0.0,0.0,0.0,0.0,0.0,0.0,0.0,nan,0.0,0.0,0.0,0.0,8.003854e-05,inf,0.0,0.0,8.583731e-05,0.0,0.0,0.0,0.0,0.0,0.0,0.0,0.0
3548000,3468000,9.302488e-10,0.0,8.281938e-05,5.4990613e-12,0.0,186.86005,0.0,0.0,0.0,0.0,0.0,0.0,0.0,0.0,0.0,0.0,nan,0.0,0.0,0.0,0.0,8.003854e-05,inf,0.0,0.0,0.0010162,0.0,0.0,0.0,0.0,0.0,0.0,0.0,0.0
3556000,3476000,9.302488e-10,0.0,8.281938e-05,5.4990613e-12,0.0,186.86005,0.0,0.0,0.0,0.0,0.0,0.0,0.0,0.0,0.0,0.0,nan,0.0,0.0,0.0,0.0,8.003854e-05,inf,0.0,0.0,0.00060341164,0.0,0.0,0.0,0.0,0.0,0.0,0.0,0.0
3564000,3484000,9.302488e-10,0.0,8.281938e-05,5.4990613e-12,0.0,186.86005,0.0,0.0,0.0,0.0,0.0,0.0,0.0,0.0,0.0,0.0,nan,0.0,0.0,0.0,0.0,2.3022565e-07,inf,0.0,0.0,1.5983711e-05,0.0,0.0,0.0,0.0,0.0,0.0,0.0,0.0
3572000,3492000,9.302488e-10,0.0,8.281938e-05,5.4990613e-12,0.0,186.86005,0.0,0.0,0.0,0.0,0.0,0.0,0.0,0.0,0.0,0.0,nan,0.0,0.0,0.0,0.0,2.3022565e-07,inf,0.0,0.0,0.00011671914,0.0,0.0,0.0,0.0,0.0,0.0,0.0,0.0
3580000,3500000,9.302488e-10,0.0,8.281938e-05,5.4990613e-12,0.0,186.86005,0.0,0.0,0.0,0.0,0.0,0.0,0.0,0.0,0.0,0.0,nan,0.0,0.0,0.0,0.0,2.3022565e-07,inf,0.0,0.0,5.4911407e-06,0.0,0.0,0.0,0.0,0.0,0.0,0.0,0.0
3588000,3508000,9.302488e-10,0.0,8.281938e-05,5.4990613e-12,0.0,186.86005,0.0,0.0,0.0,0.0,0.0,0.0,0.0,0.0,0.0,0.0,nan,0.0,0.0,0.0,0.0,2.3022565e-07,inf,0.0,0.0,0.00015792222,0.0,0.0,0.0,0.0,0.0,0.0,0.0,0.0
3596000,3516000,9.302488e-10,0.0,8.281938e-05,5.4990613e-12,0.0,186.86005,0.0,0.0,0.0,0.0,0.0,0.0,0.0,0.0,0.0,0.0,nan,0.0,0.0,0.0,0.0,2.3022565e-07,inf,0.0,0.0,0.00034536282,0.0,0.0,0.0,0.0,0.0,0.0,0.0,0.0
3604000,3524000,9.302488e-10,0.0,8.281938e-05,5.4990613e-12,0.0,186.86005,0.0,0.0,0.0,0.0,0.0,0.0,0.0,0.0,0.0,0.0,nan,0.0,0.0,0.0,0.0,2.3022565e-07,inf,0.0,0.0,0.0002434827,0.0,0.0,0.0,0.0,0.0,0.0,0.0,0.0
3612000,3532000,9.302488e-10,0.0,8.281938e-05,5.4990613e-12,0.0,186.86005,0.0,0.0,0.0,0.0,0.0,0.0,0.0,0.0,0.0,0.0,nan,0.0,0.0,0.0,0.0,2.3022565e-07,inf,0.0,0.0,0.00062622677,0.0,0.0,0.0,0.0,0.0,0.0,0.0,0.0
3620000,3540000,9.302488e-10,0.0,8.281938e-05,5.4990613e-12,0.0,186.86005,0.0,0.0,0.0,0.0,0.0,0.0,0.0,0.0,0.0,0.0,nan,0.0,0.0,0.0,0.0,2.3022565e-07,inf,0.0,0.0,6.875145e-05,0.0,0.0,0.0,0.0,0.0,0.0,0.0,0.0
3628000,3548000,9.302488e-10,0.0,8.281938e-05,5.4990613e-12,0.0,186.86005,0.0,0.0,0.0,0.0,0.0,0.0,0.0,0.0,0.0,0.0,nan,0.0,0.0,0.0,0.0,2.3022565e-07,inf,0.0,0.0,0.00029294568,0.0,0.0,0.0,0.0,0.0,0.0,0.0,0.0
3636000,3556000,9.302488e-10,0.0,8.281938e-05,5.4990613e-12,0.0,186.86005,0.0,0.0,0.0,0.0,0.0,0.0,0.0,0.0,0.0,0.0,nan,0.0,0.0,0.0,0.0,0.00024638893,inf,0.0,0.0,0.00024053016,0.0,0.0,0.0,0.0,0.0,0.0,0.0,0.0
3644000,3564000,9.302488e-10,0.0,8.281938e-05,5.4990613e-12,0.0,186.86005,0.0,0.0,0.0,0.0,0.0,0.0,0.0,0.0,0.0,0.0,nan,0.0,0.0,0.0,0.0,0.00024638893,inf,0.0,0.0,0.00049932406,0.0,0.0,0.0,0.0,0.0,0.0,0.0,0.0
3652000,3572000,9.302488e-10,0.0,8.281938e-05,5.4990613e-12,0.0,186.86005,0.0,0.0,0.0,0.0,0.0,0.0,0.0,0.0,0.0,0.0,nan,0.0,0.0,0.0,0.0,0.00024638893,inf,0.0,0.0,0.00040104403,0.0,0.0,0.0,0.0,0.0,0.0,0.0,0.0
3660000,3580000,9.302488e-10,0.0,8.281938e-05,5.4990613e-12,0.0,186.86005,0.0,0.0,0.0,0.0,0.0,0.0,0.0,0.0,0.0,0.0,nan,0.0,0.0,0.0,0.0,0.00024638893,inf,0.0,0.0,0.0002513092,0.0,0.0,0.0,0.0,0.0,0.0,0.0,0.0
3668000,3588000,9.302488e-10,0.0,8.281938e-05,5.4990613e-12,0.0,186.86005,0.0,0.0,0.0,0.0,0.0,0.0,0.0,0.0,0.0,0.0,nan,0.0,0.0,0.0,0.0,0.00024638893,inf,0.0,0.0,0.000116387855,0.0,0.0,0.0,0.0,0.0,0.0,0.0,0.0
3676000,3596000,9.302488e-10,0.0,8.281938e-05,5.4990613e-12,0.0,186.86005,0.0,0.0,0.0,0.0,0.0,0.0,0.0,0.0,0.0,0.0,nan,0.0,0.0,0.0,0.0,0.00024638893,inf,0.0,0.0,0.00040455195,0.0,0.0,0.0,0.0,0.0,0.0,0.0,0.0
3684000,3604000,9.302488e-10,0.0,8.281938e-05,5.4990613e-12,0.0,186.86005,0.0,0.0,0.0,0.0,0.0,0.0,0.0,0.0,0.0,0.0,nan,0.0,0.0,0.0,0.0,0.00024638893,inf,0.0,0.0,0.00029469258,0.0,0.0,0.0,0.0,0.0,0.0,0.0,0.0
3692000,3612000,9.302488e-10,0.0,8.281938e-05,5.4990613e-12,0.0,186.86005,0.0,0.0,0.0,0.0,0.0,0.0,0.0,0.0,0.0,0.0,nan,0.0,0.0,0.0,0.0,0.00024638893,inf,0.0,0.0,3.090421e-05,0.0,0.0,0.0,0.0,0.0,0.0,0.0,0.0
3700000,3620000,9.302488e-10,0.0,8.281938e-05,5.4990613e-12,0.0,186.86005,0.0,0.0,0.0,0.0,0.0,0.0,0.0,0.0,0.0,0.0,nan,0.0,0.0,0.0,0.0,9.070268e-06,inf,0.0,0.0,0.00027853993,0.0,0.0,0.0,0.0,0.0,0.0,0.0,0.0
3708000,3628000,9.302488e-10,0.0,8.281938e-05,5.4990613e-12,0.0,186.86005,0.0,0.0,0.0,0.0,0.0,0.0,0.0,0.0,0.0,0.0,nan,0.0,0.0,0.0,0.0,9.070268e-06,inf,0.0,0.0,0.00037549064,0.0,0.0,0.0,0.0,0.0,0.0,0.0,0.0
3716000,3636000,9.302488e-10,0.0,8.281938e-05,5.4990613e-12,0.0,186.86005,0.0,0.0,0.0,0.0,0.0,0.0,0.0,0.0,0.0,0.0,nan,0.0,0.0,0.0,0.0,9.070268e-06,inf,0.0,0.0,0.0001072459,0.0,0.0,0.0,0.0,0.0,0.0,0.0,0.0
3724000,3644000,9.302488e-10,0.0,8.281938e-05,5.4990613e-12,0.0,186.86005,0.0,0.0,0.0,0.0,0.0,0.0,0.0,0.0,0.0,0.0,nan,0.0,0.0,0.0,0.0,9.070268e-06,inf,0.0,0.0,0.00045613584,0.0,0.0,0.0,0.0,0.0,0.0,0.0,0.0
3732000,3652000,9.302488e-10,0.0,8.281938e-05,5.4990613e-12,0.0,186.86005,0.0,0.0,0.0,0.0,0.0,0.0,0.0,0.0,0.0,0.0,nan,0.0,0.0,0.0,0.0,9.070268e-06,inf,0.0,0.0,0.001147513,0.0,0.0,0.0,0.0,0.0,0.0,0.0,0.0
3740000,3660000,9.302488e-10,0.0,8.281938e-05,5.4990613e-12,0.0,186.86005,0.0,0.0,0.0,0.0,0.0,0.0,0.0,0.0,0.0,0.0,nan,0.0,0.0,0.0,0.0,9.070268e-06,inf,0.0,0.0,0.00016541698,0.0,0.0,0.0,0.0,0.0,0.0,0.0,0.0
3748000,3668000,9.302488e-10,0.0,8.281938e-05,5.4990613e-12,0.0,186.86005,0.0,0.0,0.0,0.0,0.0,0.0,0.0,0.0,0.0,0.0,nan,0.0,0.0,0.0,0.0,9.070268e-06,inf,0.0,0.0,0.00089778216,0.0,0.0,0.0,0.0,0.0,0.0,0.0,0.0
3756000,3676000,9.302488e-10,0.0,8.281938e-05,5.4990613e-12,0.0,186.86005,0.0,0.0,0.0,0.0,0.0,0.0,0.0,0.0,0.0,0.0,nan,0.0,0.0,0.0,0.0,9.070268e-06,inf,0.0,0.0,0.00029967722,0.0,0.0,0.0,0.0,0.0,0.0,0.0,0.0
3764000,3684000,9.302488e-10,0.0,8.281938e-05,5.4990613e-12,0.0,186.86005,0.0,0.0,0.0,0.0,0.0,0.0,0.0,0.0,0.0,0.0,nan,0.0,0.0,0.0,0.0,9.070268e-06,inf,0.0,0.0,0.00037694638,0.0,0.0,0.0,0.0,0.0,0.0,0.0,0.0
3772000,3692000,9.302488e-10,0.0,8.281938e-05,5.4990613e-12,0.0,186.86005,0.0,0.0,0.0,0.0,0.0,0.0,0.0,0.0,0.0,0.0,nan,0.0,0.0,0.0,0.0,0.00027230056,inf,0.0,0.0,0.0005884278,0.0,0.0,0.0,0.0,0.0,0.0,0.0,0.0
3780000,3700000,9.302488e-10,0.0,8.281938e-05,5.4990613e-12,0.0,186.86005,0.0,0.0,0.0,0.0,0.0,0.0,0.0,0.0,0.0,0.0,nan,0.0,0.0,0.0,0.0,0.00027230056,inf,0.0,0.0,0.0006850534,0.0,0.0,0.0,0.0,0.0,0.0,0.0,0.0
3788000,3708000,9.302488e-10,0.0,8.281938e-05,5.4990613e-12,0.0,186.86005,0.0,0.0,0.0,0.0,0.0,0.0,0.0,0.0,0.0,0.0,nan,0.0,0.0,0.0,0.0,0.00027230056,inf,0.0,0.0,0.00022189697,0.0,0.0,0.0,0.0,0.0,0.0,0.0,0.0
3796000,3716000,9.302488e-10,0.0,8.281938e-05,5.4990613e-12,0.0,186.86005,0.0,0.0,0.0,0.0,0.0,0.0,0.0,0.0,0.0,0.0,nan,0.0,0.0,0.0,0.0,0.00027230056,inf,0.0,0.0,0.00015030317,0.0,0.0,0.0,0.0,0.0,0.0,0.0,0.0
3804000,3724000,9.302488e-10,0.0,8.281938e-05,5.4990613e-12,0.0,186.86005,0.0,0.0,0.0,0.0,0.0,0.0,0.0,0.0,0.0,0.0,nan,0.0,0.0,0.0,0.0,0.00027230056,inf,0.0,0.0,0.0003625472,0.0,0.0,0.0,0.0,0.0,0.0,0.0,0.0
3812000,3732000,1.2143734e-06,0.0,2.8490516e-05,4.1535125e-10,0.0,366.54025,0.0,0.0,0.0,0.0,0.0,0.0,0.0,0.0,0.0,0.0,nan,0.0,0.0,0.0,0.0,0.00027230056,inf,0.0,0.0,0.0007399874,0.0,0.0,0.0,0.0,0.0,0.0,0.0,0.0
3820000,3740000,1.2143734e-06,0.0,2.8490516e-05,4.1535125e-10,0.0,366.54025,0.0,0.0,0.0,0.0,0.0,0.0,0.0,0.0,0.0,0.0,nan,0.0,0.0,0.0,0.0,0.00027230056,inf,0.0,0.0,0.00078691955,0.0,0.0,0.0,0.0,0.0,0.0,0.0,0.0
3828000,3748000,1.2143734e-06,0.0,2.8490516e-05,4.1535125e-10,0.0,366.54025,0.0,0.0,0.0,0.0,0.0,0.0,0.0,0.0,0.0,0.0,nan,0.0,0.0,0.0,0.0,0.00027230056,inf,0.0,0.0,0.0002704552,0.0,0.0,0.0,0.0,0.0,0.0,0.0,0.0
3836000,3756000,1.2143734e-06,0.0,2.8490516e-05,4.1535125e-10,0.0,366.54025,0.0,0.0,0.0,0.0,0.0,0.0,0.0,0.0,0.0,0.0,nan,0.0,0.0,0.0,0.0,0.00013853465,inf,0.0,0.0,0.00022887648,0.0,0.0,0.0,0.0,0.0,0.0,0.0,0.0
3844000,3764000,1.2143734e-06,0.0,2.8490516e-05,4.1535125e-10,0.0,366.54025,0.0,0.0,0.0,0.0,0.0,0.0,0.0,0.0,0.0,0.0,nan,0.0,0.0,0.0,0.0,0.00013853465,inf,0.0,0.0,8.5072876e-05,0.0,0.0,0.0,0.0,0.0,0.0,0.0,0.0
3852000,3772000,1.2143734e-06,0.0,2.8490516e-05,4.1535125e-10,0.0,366.54025,0.0,0.0,0.0,0.0,0.0,0.0,0.0,0.0,0.0,0.0,nan,0.0,0.0,0.0,0.0,0.00013853465,inf,0.0,0.0,0.00043542983,0.0,0.0,0.0,0.0,0.0,0.0,0.0,0.0
3860000,3780000,1.2143734e-06,0.0,2.8490516e-05,4.1535125e-10,0.0,366.54025,0.0,0.0,0.0,0.0,0.0,0.0,0.0,0.0,0.0,0.0,nan,0.0,0.0,0.0,0.0,0.00013853465,inf,0.0,0.0,0.00035631395,0.0,0.0,0.0,0.0,0.0,0.0,0.0,0.0
3868000,3788000,1.2143734e-06,0.0,2.8490516e-05,4.1535125e-10,0.0,366.54025,0.0,0.0,0.0,0.0,0.0,0.0,0.0,0.0,0.0,0.0,nan,0.0,0.0,0.0,0.0,0.00013853465,inf,0.0,0.0,0.00050268014,0.0,0.0,0.0,0.0,0.0,0.0,0.0,0.0
3876000,3796000,1.2143734e-06,0.0,2.8490516e-05,4.1535125e-10,0.0,366.54025,0.0,0.0,0.0,0.0,0.0,0.0,0.0,0.0,0.0,0.0,nan,0.0,0.0,0.0,0.0,0.00013853465,inf,0.0,0.0,0.00031785006,0.0,0.0,0.0,0.0,0.0,0.0,0.0,0.0
3884000,3804000,1.2143734e-06,0.0,2.8490516e-05,4.1535125e-10,0.0,366.54025,0.0,0.0,0.0,0.0,0.0,0.0,0.0,0.0,0.0,0.0,nan,0.0,0.0,0.0,0.0,0.00013853465,inf,0.0,0.0,0.00033161405,0.0,0.0,0.0,0.0,0.0,0.0,0.0,0.0
3892000,3812000,1.2143734e-06,0.0,2.8490516e-05,4.1535125e-10,0.0,366.54025,0.0,0.0,0.0,0.0,0.0,0.0,0.0,0.0,0.0,0.0,nan,0.0,0.0,0.0,0.0,0.00013853465,inf,0.0,0.0,0.00015556211,0.0,0.0,0.0,0.0,0.0,0.0,0.0,0.0
3900000,3820000,1.2143734e-06,0.0,2.8490516e-05,4.1535125e-10,0.0,366.54025,0.0,0.0,0.0,0.0,0.0,0.0,0.0,0.0,0.0,0.0,nan,0.0,0.0,0.0,0.0,0.00013853465,inf,0.0,0.0,0.0007176746,0.0,0.0,0.0,0.0,0.0,0.0,0.0,0.0
3908000,3828000,1.2143734e-06,0.0,2.8490516e-05,4.1535125e-10,0.0,366.54025,0.0,0.0,0.0,0.0,0.0,0.0,0.0,0.0,0.0,0.0,nan,0.0,0.0,0.0,0.0,1.2799683e-05,inf,0.0,0.0,0.0001644473,0.0,0.0,0.0,0.0,0.0,0.0,0.0,0.0
3916000,3836000,1.2143734e-06,0.0,2.8490516e-05,4.1535125e-10,0.0,366.54025,0.0,0.0,0.0,0.0,0.0,0.0,0.0,0.0,0.0,0.0,nan,0.0,0.0,0.0,0.0,1.2799683e-05,inf,0.0,0.0,0.0005436689,0.0,0.0,0.0,0.0,0.0,0.0,0.0,0.0
3924000,3844000,1.2143734e-06,0.0,2.8490516e-05,4.1535125e-10,0.0,366.54025,0.0,0.0,0.0,0.0,0.0,0.0,0.0,0.0,0.0,0.0,nan,0.0,0.0,0.0,0.0,1.2799683e-05,inf,0.0,0.0,0.0013749084,0.0,0.0,0.0,0.0,0.0,0.0,0.0,0.0
3932000,3852000,1.2143734e-06,0.0,2.8490516e-05,4.1535125e-10,0.0,366.54025,0.0,0.0,0.0,0.0,0.0,0.0,0.0,0.0,0.0,0.0,nan,0.0,0.0,0.0,0.0,1.2799683e-05,inf,0.0,0.0,0.0024553826,0.0,0.0,0.0,0.0,0.0,0.0,0.0,0.0
3940000,3860000,1.2143734e-06,0.0,2.8490516e-05,4.1535125e-10,0.0,366.54025,0.0,0.0,0.0,0.0,0.0,0.0,0.0,0.0,0.0,0.0,nan,0.0,0.0,0.0,0.0,1.2799683e-05,inf,0.0,0.0,0.0003851986,0.0,0.0,0.0,0.0,0.0,0.0,0.0,0.0
3948000,3868000,1.2143734e-06,0.0,2.8490516e-05,4.1535125e-10,0.0,366.54025,0.0,0.0,0.0,0.0,0.0,0.0,0.0,0.0,0.0,0.0,nan,0.0,0.0,0.0,0.0,1.2799683e-05,inf,0.0,0.0,0.00024061506,0.0,0.0,0.0,0.0,0.0,0.0,0.0,0.0
3956000,3876000,1.2143734e-06,0.0,2.8490516e-05,4.1535125e-10,0.0,366.54025,0.0,0.0,0.0,0.0,0.0,0.0,0.0,0.0,0.0,0.0,nan,0.0,0.0,0.0,0.0,1.2799683e-05,inf,0.0,0.0,0.00024444956,0.0,0.0,0.0,0.0,0.0,0.0,0.0,0.0
3964000,3884000,1.2143734e-06,0.0,2.8490516e-05,4.1535125e-10,0.0,366.54025,0.0,0.0,0.0,0.0,0.0,0.0,0.0,0.0,0.0,0.0,nan,0.0,0.0,0.0,0.0,1.2799683e-05,inf,0.0,0.0,0.0027071668,0.0,0.0,0.0,0.0,0.0,0.0,0.0,0.0
3972000,3892000,1.2143734e-06,0.0,2.8490516e-05,4.1535125e-10,0.0,366.54025,0.0,0.0,0.0,0.0,0.0,0.0,0.0,0.0,0.0,0.0,nan,0.0,0.0,0.0,0.0,1.2799683e-05,inf,0.0,0.0,0.00071260444,0.0,0.0,0.0,0.0,0.0,0.0,0.0,0.0
3980000,3900000,1.2143734e-06,0.0,2.8490516e-05,4.1535125e-10,0.0,366.54025,0.0,0.0,0.0,0.0,0.0,0.0,0.0,0.0,0.0,0.0,nan,0.0,0.0,0.0,0.0,0.0006816729,inf,0.0,0.0,0.00057532813,0.0,0.0,0.0,0.0,0.0,0.0,0.0,0.0
3988000,3908000,1.2143734e-06,0.0,2.8490516e-05,4.1535125e-10,0.0,366.54025,0.0,0.0,0.0,0.0,0.0,0.0,0.0,0.0,0.0,0.0,nan,0.0,0.0,0.0,0.0,0.0006816729,inf,0.0,0.0,0.0006810852,0.0,0.0,0.0,0.0,0.0,0.0,0.0,0.0
3996000,3916000,1.2143734e-06,0.0,2.8490516e-05,4.1535125e-10,0.0,366.54025,0.0,0.0,0.0,0.0,0.0,0.0,0.0,0.0,0.0,0.0,nan,0.0,0.0,0.0,0.0,0.0006816729,inf,0.0,0.0,0.00023780827,0.0,0.0,0.0,0.0,0.0,0.0,0.0,0.0
4004000,3924000,1.2143734e-06,0.0,2.8490516e-05,4.1535125e-10,0.0,366.54025,0.0,0.0,0.0,0.0,0.0,0.0,0.0,0.0,0.0,0.0,nan,0.0,0.0,0.0,0.0,0.0006816729,inf,0.0,0.0,0.0007758403,0.0,0.0,0.0,0.0,0.0,0.0,0.0,0.0
4012000,3932000,1.2143734e-06,0.0,2.8490516e-05,4.1535125e-10,0.0,366.54025,0.0,0.0,0.0,0.0,0.0,0.0,0.0,0.0,0.0,0.0,nan,0.0,0.0,0.0,0.0,0.0006816729,inf,0.0,0.0,0.00017581068,0.0,0.0,0.0,0.0,0.0,0.0,0.0,0.0
4020000,3940000,1.2143734e-06,0.0,2.8490516e-05,4.1535125e-10,0.0,366.54025,0.0,0.0,0.0,0.0,0.0,0.0,0.0,0.0,0.0,0.0,nan,0.0,0.0,0.0,0.0,0.0006816729,inf,0.0,0.0,0.0002456737,0.0,0.0,0.0,0.0,0.0,0.0,0.0,0.0
4028000,3948000,1.2143734e-06,0.0,2.8490516e-05,4.1535125e-10,0.0,366.54025,0.0,0.0,0.0,0.0,0.0,0.0,0.0,0.0,0.0,0.0,nan,0.0,0.0,0.0,0.0,0.0006816729,inf,0.0,0.0,0.0003453875,0.0,0.0,0.0,0.0,0.0,0.0,0.0,0.0
4036000,3956000,1.2143734e-06,0.0,2.8490516e-05,4.1535125e-10,0.0,366.54025,0.0,0.0,0.0,0.0,0.0,0.0,0.0,0.0,0.0,0.0,nan,0.0,0.0,0.0,0.0,0.0006816729,inf,0.0,0.0,0.00014765808,0.0,0.0,0.0,0.0,0.0,0.0,0.0,0.0
4044000,3964000,1.2143734e-06,0.0,2.8490516e-05,4.1535125e-10,0.0,366.54025,0.0,0.0,0.0,0.0,0.0,0.0,0.0,0.0,0.0,0.0,nan,0.0,0.0,0.0,0.0,0.0006816729,inf,0.0,0.0,2.6577789e-06,0.0,0.0,0.0,0.0,0.0,0.0,0.0,0.0
4052000,3972000,1.2143734e-06,0.0,2.8490516e-05,4.1535125e-10,0.0,366.54025,0.0,0.0,0.0,0.0,0.0,0.0,0.0,0.0,0.0,0.0,nan,0.0,0.0,0.0,0.0,3.6414756e-05,inf,0.0,0.0,7.9666184e-05,0.0,0.0,0.0,0.0,0.0,0.0,0.0,0.0
4060000,3980000,1.2143734e-06,0.0,2.8490516e-05,4.1535125e-10,0.0,366.54025,0.0,0.0,0.0,0.0,0.0,0.0,0.0,0.0,0.0,0.0,nan,0.0,0.0,0.0,0.0,3.6414756e-05,inf,0.0,0.0,3.8412833e-05,0.0,0.0,0.0,0.0,0.0,0.0,0.0,0.0
4068000,3988000,1.2143734e-06,0.0,2.8490516e-05,4.1535125e-10,0.0,366.54025,0.0,0.0,0.0,0.0,0.0,0.0,0.0,0.0,0.0,0.0,nan,0.0,0.0,0.0,0.0,3.6414756e-05,inf,0.0,0.0,6.9148446e-05,0.0,0.0,0.0,0.0,0.0,0.0,0.0,0.0
4076000,3996000,1.2143734e-06,0.0,2.8490516e-05,4.1535125e-10,0.0,366.54025,0.0,0.0,0.0,0.0,0.0,0.0,0.0,0.0,0.0,0.0,nan,0.0,0.0,0.0,0.0,3.6414756e-05,inf,0.0,0.0,7.18412e-05,0.0,0.0,0.0,0.0,0.0,0.0,0.0,0.0
4084000,4004000,1.2143734e-06,0.0,2.8490516e-05,4.1535125e-10,0.0,366.54025,0.0,0.0,0.0,0.0,0.0,0.0,0.0,0.0,0.0,0.0,nan,0.0,0.0,0.0,0.0,3.6414756e-05,inf,0.0,0.0,0.00048541705,0.0,0.0,0.0,0.0,0.0,0.0,0.0,0.0
4092000,4012000,1.2143734e-06,0.0,2.8490516e-05,4.1535125e-10,0.0,366.54025,0.0,0.0,0.0,0.0,0.0,0.0,0.0,0.0,0.0,0.0,nan,0.0,0.0,0.0,0.0,3.6414756e-05,inf,0.0,0.0,2.4998597e-05,0.0,0.0,0.0,0.0,0.0,0.0,0.0,0.0
4100000,4020000,1.2143734e-06,0.0,2.8490516e-05,4.1535125e-10,0.0,366.54025,0.0,0.0,0.0,0.0,0.0,0.0,0.0,0.0,0.0,0.0,nan,0.0,0.0,0.0,0.0,3.6414756e-05,inf,0.0,0.0,0.0005518832,0.0,0.0,0.0,0.0,0.0,0.0,0.0,0.0
4108000,4028000,1.2143734e-06,0.0,2.8490516e-05,4.1535125e-10,0.0,366.54025,0.0,0.0,0.0,0.0,0.0,0.0,0.0,0.0,0.0,0.0,nan,0.0,0.0,0.0,0.0,3.6414756e-05,inf,0.0,0.0,7.70924e-06,0.0,0.0,0.0,0.0,0.0,0.0,0.0,0.0
4116000,4036000,1.2143734e-06,0.0,2.8490516e-05,4.1535125e-10,0.0,366.54025,0.0,0.0,0.0,0.0,0.0,0.0,0.0,0.0,0.0,0.0,nan,0.0,0.0,0.0,0.0,1.33898275e-05,inf,0.0,0.0,0.00043696706,0.0,0.0,0.0,0.0,0.0,0.0,0.0,0.0
4124000,4044000,1.2143734e-06,0.0,2.8490516e-05,4.1535125e-10,0.0,366.54025,0.0,0.0,0.0,0.0,0.0,0.0,0.0,8.032543e-14,0.0,0.0,nan,0.0,0.0,0.0,0.0,1.33898275e-05,inf,0.0,0.0,0.00036594566,0.0,0.0,0.0,0.0,0.0,0.0,0.0,0.0
4132000,4052000,1.2143734e-06,0.0,2.8490516e-05,4.1535125e-10,0.0,366.54025,0.0,0.0,0.0,0.0,0.0,0.0,0.0,8.032543e-14,0.0,0.0,nan,0.0,0.0,0.0,0.0,1.33898275e-05,inf,0.0,0.0,7.514143e-05,0.0,0.0,0.0,0.0,0.0,0.0,0.0,0.0
4140000,4060000,1.2143734e-06,0.0,2.8490516e-05,4.1535125e-10,0.0,366.54025,0.0,0.0,0.0,0.0,0.0,0.0,0.0,8.032543e-14,0.0,0.0,nan,0.0,0.0,0.0,0.0,1.33898275e-05,inf,0.0,0.0,0.00036558573,0.0,0.0,0.0,0.0,0.0,0.0,0.0,0.0
4148000,4068000,1.2143734e-06,0.0,2.8490516e-05,4.1535125e-10,0.0,366.54025,0.0,0.0,0.0,0.0,0.0,0.0,0.0,8.032543e-14,0.0,0.0,nan,0.0,0.0,0.0,0.0,1.33898275e-05,inf,0.0,0.0,2.5298448e-05,0.0,0.0,0.0,0.0,0.0,0.0,0.0,0.0
4156000,4076000,1.2143734e-06,0.0,2.8490516e-05,4.1535125e-10,0.0,366.54025,0.0,0.0,0.0,0.0,0.0,0.0,0.0,8.032543e-14,0.0,0.0,nan,0.0,0.0,0.0,0.0,1.33898275e-05,inf,0.0,0.0,8.944599e-07,0.0,0.0,0.0,0.0,0.0,0.0,0.0,0.0
4164000,4084000,1.2143734e-06,0.0,2.8490516e-05,4.1535125e-10,0.0,366.54025,0.0,0.0,0.0,0.0,0.0,0.0,0.0,8.032543e-14,0.0,0.0,nan,0.0,0.0,0.0,0.0,1.33898275e-05,inf,0.0,0.0,0.00023086077,0.0,0.0,0.0,0.0,0.0,0.0,0.0,0.0
4172000,4092000,1.2143734e-06,0.0,2.8490516e-05,4.1535125e-10,0.0,366.54025,0.0,0.0,0.0,0.0,0.0,0.0,0.0,8.032543e-14,0.0,0.0,nan,0.0,0.0,0.0,0.0,1.33898275e-05,inf,0.0,0.0,0.00035333764,0.0,0.0,0.0,0.0,0.0,0.0,0.0,0.0
4180000,4100000,1.2143734e-06,0.0,2.8490516e-05,4.1535125e-10,0.0,366.54025,0.0,0.0,0.0,0.0,0.0,0.0,0.0,8.032543e-14,0.0,0.0,nan,0.0,0.0,0.0,0.0,1.33898275e-05,inf,0.0,0.0,0.00041641277,0.0,0.0,0.0,0.0,0.0,0.0,0.0,0.0
4188000,4108000,1.2143734e-06,0.0,2.8490516e-05,4.1535125e-10,0.0,366.54025,0.0,0.0,0.0,0.0,0.0,0.0,0.0,1.4169199e-06,0.0,0.0,nan,0.0,0.0,0.0,0.0,0.00048714713,inf,0.0,0.0,0.0005763935,0.0,0.0,0.0,0.0,0.0,0.0,0.0,0.0
4196000,4116000,1.2143734e-06,0.0,2.8490516e-05,4.1535125e-10,0.0,366.54025,0.0,0.0,0.0,0.0,0.0,0.0,0.0,1.4169199e-06,0.0,0.0,nan,0.0,0.0,0.0,0.0,0.00048714713,inf,0.0,0.0,4.923153e-05,0.0,0.0,0.0,0.0,0.0,0.0,0.0,0.0
4204000,4124000,3.1869386e-05,0.0,9.2968956e-05,2.819112e-10,0.0,1.8725061e-11,0.0,0.0,0.0,0.0,0.0,0.0,0.0,1.4169199e-06,0.0,0.0,nan,0.0,0.0,0.0,0.0,0.00048714713,inf,0.0,0.0,0.001271213,0.0,0.0,0.0,0.0,0.0,0.0,0.0,0.0
4212000,4132000,3.1869386e-05,0.0,9.2968956e-05,2.819112e-10,0.0,1.8725061e-11,0.0,0.0,0.0,0.0,0.0,0.0,0.0,1.4169199e-06,0.0,0.0,nan,0.0,0.0,0.0,0.0,0.00048714713,inf,0.0,0.0,0.0003439999,0.0,0.0,0.0,0.0,0.0,0.0,0.0,0.0
4220000,4140000,3.1869386e-05,0.0,9.2968956e-05,2.819112e-10,0.0,1.8725061e-11,0.0,0.0,0.0,0.0,0.0,0.0,0.0,1.4169199e-06,0.0,0.0,nan,0.0,0.0,0.0,0.0,0.00048714713,inf,0.0,0.0,0.00010575431,0.0,0.0,0.0,0.0,0.0,0.0,0.0,0.0
4228000,4148000,3.1869386e-05,0.0,9.2968956e-05,2.819112e-10,0.0,1.8725061e-11,0.0,0.0,0.0,0.0,0.0,0.0,0.0,1.4169199e-06,0.0,0.0,nan,0.0,0.0,0.0,0.0,0.00048714713,inf,0.0,0.0,0.0002955576,0.0,0.0,0.0,0.0,0.0,0.0,0.0,0.0
4236000,4156000,3.1869386e-05,0.0,9.2968956e-05,2.819112e-10,0.0,1.8725061e-11,0.0,0.0,0.0,0.0,0.0,0.0,0.0,1.4169199e-06,0.0,0.0,nan,0.0,0.0,0.0,0.0,0.00048714713,inf,0.0,0.0,0.00057230634,0.0,0.0,0.0,0.0,0.0,0.0,0.0,0.0
4244000,4164000,3.1869386e-05,0.0,9.2968956e-05,2.819112e-10,0.0,1.8725061e-11,0.0,0.0,0.0,0.0,0.0,0.0,0.0,6.2226165e-05,0.0,0.0,nan,0.0,0.0,0.0,0.0,0.00048714713,inf,0.0,0.0,3.300668e-05,0.0,0.0,0.0,0.0,0.0,0.0,0.0,0.0
4252000,4172000,3.1869386e-05,0.0,9.2968956e-05,2.819112e-10,0.0,1.8725061e-11,0.0,0.0,0.0,0.0,0.0,0.0,0.0,6.2226165e-05,0.0,0.0,nan,0.0,0.0,0.0,0.0,0.00048714713,inf,0.0,0.0,0.0004504918,0.0,0.0,0.0,0.0,0.0,0.0,0.0,0.0
4260000,4180000,3.1869386e-05,0.0,9.2968956e-05,2.819112e-10,0.0,1.8725061e-11,0.0,0.0,0.0,0.0,0.0,0.0,0.0,6.2226165e-05,0.0,0.0,nan,0.0,0.0,0.0,0.0,0.00016148468,inf,0.0,0.0,4.7507343e-05,0.0,0.0,0.0,0.0,0.0,0.0,0.0,0.0
4268000,4188000,3.1869386e-05,0.0,9.2968956e-05,2.819112e-10,0.0,1.8725061e-11,0.0,0.0,0.0,0.0,0.0,0.0,0.0,6.2226165e-05,0.0,0.0,nan,0.0,0.0,0.0,0.0,0.00016148468,inf,0.0,0.0,0.0002593354,0.0,0.0,0.0,0.0,0.0,0.0,0.0,0.0
4276000,4196000,3.1869386e-05,0.0,9.2968956e-05,2.819112e-10,0.0,1.8725061e-11,0.0,0.0,0.0,0.0,0.0,0.0,0.0,6.2226165e-05,0.0,0.0,nan,0.0,0.0,0.0,0.0,0.00016148468,inf,0.0,0.0,0.0010495988,0.0,0.0,0.0,0.0,0.0,0.0,0.0,0.0
4284000,4204000,3.1869386e-05,0.0,9.2968956e-05,2.819112e-10,0.0,1.8725061e-11,0.0,0.0,0.0,0.0,0.0,0.0,0.0,6.2226165e-05,0.0,0.0,nan,0.0,0.0,0.0,0.0,0.00016148468,inf,0.0,0.0,0.00019629537,0.0,0.0,0.0,0.0,0.0,0.0,0.0,0.0
4292000,4212000,3.1869386e-05,0.0,9.2968956e-05,2.819112e-10,0.0,1.8725061e-11,0.0,0.0,0.0,0.0,0.0,0.0,0.0,6.2226165e-05,0.0,0.0,nan,0.0,0.0,0.0,0.0,0.00016148468,inf,0.0,0.0,0.00026392646,0.0,0.0,0.0,0.0,0.0,0.0,0.0,0.0
4300000,4220000,3.1869386e-05,0.0,9.2968956e-05,2.819112e-10,0.0,1.8725061e-11,0.0,0.0,0.0,0.0,0.0,0.0,0.0,6.2226165e-05,0.0,0.0,nan,0.0,0.0,0.0,0.0,0.00016148468,inf,0.0,0.0,0.0008462085,0.0,0.0,0.0,0.0,0.0,0.0,0.0,0.0
4308000,4228000,3.1869386e-05,0.0,9.2968956e-05,2.819112e-10,0.0,1.8725061e-11,0.0,0.0,0.0,0.0,0.0,0.0,0.0,2.8946142e-06,0.0,0.0,nan,0.0,0.0,0.0,0.0,0.00016148468,inf,0.0,0.0,0.00026190194,0.0,0.0,0.0,0.0,0.0,0.0,0.0,0.0
4316000,4236000,3.1869386e-05,0.0,9.2968956e-05,2.819112e-10,0.0,1.8725061e-11,0.0,0.0,0.0,0.0,0.0,0.0,0.0,2.8946142e-06,0.0,0.0,nan,0.0,0.0,0.0,0.0,0.00016148468,inf,0.0,0.0,0.00043333287,0.0,0.0,0.0,0.0,0.0,0.0,0.0,0.0
4324000,4244000,3.1869386e-05,0.0,9.2968956e-05,2.819112e-10,0.0,1.8725061e-11,0.0,0.0,0.0,0.0,0.0,0.0,0.0,2.8946142e-06,0.0,0.0,nan,0.0,0.0,0.0,0.0,0.00016148468,inf,0.0,0.0,0.0009128168,0.0,0.0,0.0,0.0,0.0,0.0,0.0,0.0
4332000,4252000,3.1869386e-05,0.0,9.2968956e-05,2.819112e-10,0.0,1.8725061e-11,0.0,0.0,0.0,0.0,0.0,0.0,0.0,2.8946142e-06,0.0,0.0,nan,0.0,0.0,0.0,0.0,3.817705e-06,inf,0.0,0.0,9.958502e-05,0.0,0.0,0.0,0.0,0.0,0.0,0.0,0.0
4340000,4260000,3.1869386e-05,0.0,9.2968956e-05,2.819112e-10,0.0,1.8725061e-11,0.0,0.0,0.0,0.0,0.0,0.0,0.0,2.8946142e-06,0.0,0.0,nan,0.0,0.0,0.0,0.0,3.817705e-06,inf,0.0,0.0,0.00029028536,0.0,0.0,0.0,0.0,0.0,0.0,0.0,0.0
4348000,4268000,3.1869386e-05,0.0,9.2968956e-05,2.819112e-10,0.0,1.8725061e-11,0.0,0.0,0.0,0.0,0.0,0.0,0.0,2.8946142e-06,0.0,0.0,nan,0.0,0.0,0.0,0.0,3.817705e-06,inf,0.0,0.0,0.00076108135,0.0,0.0,0.0,0.0,0.0,0.0,0.0,0.0
4356000,4276000,3.1869386e-05,0.0,9.2968956e-05,2.819112e-10,0.0,1.8725061e-11,0.0,0.0,0.0,0.0,0.0,0.0,0.0,2.8946142e-06,0.0,0.0,nan,0.0,0.0,0.0,0.0,3.817705e-06,inf,0.0,0.0,0.00019937448,0.0,0.0,0.0,0.0,0.0,0.0,0.0,0.0
4364000,4284000,3.1869386e-05,0.0,9.2968956e-05,2.819112e-10,0.0,1.8725061e-11,0.0,0.0,0.0,0.0,0.0,0.0,0.0,9.659971e-07,0.0,0.0,nan,0.0,0.0,0.0,0.0,3.817705e-06,inf,0.0,0.0,0.0003386717,0.0,0.0,0.0,0.0,0.0,0.0,0.0,0.0
4372000,4292000,3.1869386e-05,0.0,9.2968956e-05,2.819112e-10,0.0,1.8725061e-11,0.0,0.0,0.0,0.0,0.0,0.0,0.0,9.659971e-07,0.0,0.0,nan,0.0,0.0,0.0,0.0,3.817705e-06,inf,0.0,0.0,0.00018629883,0.0,0.0,0.0,0.0,0.0,0.0,0.0,0.0
4380000,4300000,3.1869386e-05,0.0,9.2968956e-05,2.819112e-10,0.0,1.8725061e-11,0.0,0.0,0.0,0.0,0.0,0.0,0.0,9.659971e-07,0.0,0.0,nan,0.0,0.0,0.0,0.0,3.817705e-06,inf,0.0,0.0,0.00019244474,0.0,0.0,0.0,0.0,0.0,0.0,0.0,0.0
4388000,4308000,3.1869386e-05,0.0,9.2968956e-05,2.819112e-10,0.0,1.8725061e-11,0.0,0.0,0.0,0.0,0.0,0.0,0.0,9.659971e-07,0.0,0.0,nan,0.0,0.0,0.0,0.0,3.817705e-06,inf,0.0,0.0,2.9513776e-05,0.0,0.0,0.0,0.0,0.0,0.0,0.0,0.0
4396000,4316000,3.1869386e-05,0.0,9.2968956e-05,2.819112e-10,0.0,1.8725061e-11,0.0,0.0,0.0,0.0,0.0,0.0,0.0,9.659971e-07,0.0,0.0,nan,0.0,0.0,0.0,0.0,3.817705e-06,inf,0.0,0.0,0.0001327284,0.0,0.0,0.0,0.0,0.0,0.0,0.0,0.0
4404000,4324000,3.1869386e-05,0.0,9.2968956e-05,2.819112e-10,0.0,1.8725061e-11,0.0,0.0,0.0,0.0,0.0,0.0,0.0,9.659971e-07,0.0,0.0,nan,0.0,0.0,0.0,0.0,0.0004810057,inf,0.0,0.0,0.00048521705,0.0,0.0,0.0,0.0,0.0,0.0,0.0,0.0
4412000,4332000,3.1869386e-05,0.0,9.2968956e-05,2.819112e-10,0.0,1.8725061e-11,0.0,0.0,0.0,0.0,0.0,0.0,0.0,1.4633007e-06,0.0,0.0,nan,0.0,0.0,0.0,0.0,0.0004810057,inf,0.0,0.0,0.0002464994,0.0,0.0,0.0,0.0,0.0,0.0,0.0,0.0
4420000,4340000,3.1869386e-05,0.0,9.2968956e-05,2.819112e-10,0.0,1.8725061e-11,0.0,0.0,0.0,0.0,0.0,0.0,0.0,1.4633007e-06,0.0,0.0,nan,0.0,0.0,0.0,0.0,0.0004810057,inf,0.0,0.0,0.00014852142,0.0,0.0,0.0,0.0,0.0,0.0,0.0,0.0
4428000,4348000,3.1869386e-05,0.0,9.2968956e-05,2.819112e-10,0.0,1.8725061e-11,0.0,0.0,0.0,0.0,0.0,0.0,0.0,1.4633007e-06,0.0,0.0,nan,0.0,0.0,0.0,0.0,0.0004810057,inf,0.0,0.0,0.00029766408,0.0,0.0,0.0,0.0,0.0,0.0,0.0,0.0
4436000,4356000,3.1869386e-05,0.0,9.2968956e-05,2.819112e-10,0.0,1.8725061e-11,0.0,0.0,0.0,0.0,0.0,0.0,0.0,1.4633007e-06,0.0,0.0,nan,0.0,0.0,0.0,0.0,0.0004810057,inf,0.0,0.0,0.00016077279,0.0,0.0,0.0,0.0,0.0,0.0,0.0,0.0
4444000,4364000,3.1869386e-05,0.0,9.2968956e-05,2.819112e-10,0.0,1.8725061e-11,0.0,0.0,0.0,0.0,0.0,0.0,0.0,1.4633007e-06,0.0,0.0,nan,0.0,0.0,0.0,0.0,0.0004810057,inf,0.0,0.0,4.6577272e-05,0.0,0.0,0.0,0.0,0.0,0.0,0.0,0.0
4452000,4372000,3.1869386e-05,0.0,9.2968956e-05,2.819112e-10,0.0,1.8725061e-11,0.0,0.0,0.0,0.0,0.0,0.0,0.0,1.4633007e-06,0.0,0.0,nan,0.0,0.0,0.0,0.0,0.0004810057,inf,0.0,0.0,0.0009241099,0.0,0.0,0.0,0.0,0.0,0.0,0.0,0.0
4460000,4380000,3.1869386e-05,0.0,9.2968956e-05,2.819112e-10,0.0,1.8725061e-11,0.0,0.0,0.0,0.0,0.0,0.0,0.0,1.4633007e-06,0.0,0.0,nan,0.0,0.0,0.0,0.0,0.0004810057,inf,0.0,0.0,0.00039288122,0.0,0.0,0.0,0.0,0.0,0.0,0.0,0.0
4468000,4388000,3.1869386e-05,0.0,9.2968956e-05,2.819112e-10,0.0,1.8725061e-11,0.0,0.0,0.0,0.0,0.0,0.0,0.0,1.4633007e-06,0.0,0.0,nan,0.0,0.0,0.0,0.0,0.0004810057,inf,0.0,0.0,0.00023089693,0.0,0.0,0.0,0.0,0.0,0.0,0.0,0.0
4476000,4396000,3.1869386e-05,0.0,9.2968956e-05,2.819112e-10,0.0,1.8725061e-11,0.0,0.0,0.0,0.0,0.0,0.0,0.0,7.2085186e-06,0.0,0.0,nan,0.0,0.0,0.0,0.0,0.0001478479,inf,0.0,0.0,0.0020871018,0.0,0.0,0.0,0.0,0.0,0.0,0.0,0.0
4484000,4404000,3.1869386e-05,0.0,9.2968956e-05,2.819112e-10,0.0,1.8725061e-11,0.0,0.0,0.0,0.0,0.0,0.0,0.0,7.2085186e-06,0.0,0.0,nan,0.0,0.0,0.0,0.0,0.0001478479,inf,0.0,0.0,0.0002709188,0.0,0.0,0.0,0.0,0.0,0.0,0.0,0.0
4492000,4412000,3.1869386e-05,0.0,9.2968956e-05,2.819112e-10,0.0,1.8725061e-11,0.0,0.0,0.0,0.0,0.0,0.0,0.0,7.2085186e-06,0.0,0.0,nan,0.0,0.0,0.0,0.0,0.0001478479,inf,0.0,0.0,0.00011537263,0.0,0.0,0.0,0.0,0.0,0.0,0.0,0.0
4500000,4420000,3.1869386e-05,0.0,9.2968956e-05,2.819112e-10,0.0,1.8725061e-11,0.0,0.0,0.0,0.0,0.0,0.0,0.0,7.2085186e-06,0.0,0.0,nan,0.0,0.0,0.0,0.0,0.0001478479,inf,0.0,0.0,6.327003e-06,0.0,0.0,0.0,0.0,0.0,0.0,0.0,0.0
4508000,4428000,3.1869386e-05,0.0,9.2968956e-05,2.819112e-10,0.0,1.8725061e-11,0.0,0.0,0.0,0.0,0.0,0.0,0.0,7.2085186e-06,0.0,0.0,nan,0.0,0.0,0.0,0.0,0.0001478479,inf,0.0,0.0,0.00034703861,0.0,0.0,0.0,0.0,0.0,0.0,0.0,0.0
4516000,4436000,3.1869386e-05,0.0,9.2968956e-05,2.819112e-10,0.0,1.8725061e-11,0.0,0.0,0.0,0.0,0.0,0.0,0.0,7.2085186e-06,0.0,0.0,nan,0.0,0.0,0.0,0.0,0.0001478479,inf,0.0,0.0,0.0001807269,0.0,0.0,0.0,0.0,0.0,0.0,0.0,0.0
4524000,4444000,3.1869386e-05,0.0,9.2968956e-05,2.819112e-10,0.0,1.8725061e-11,0.0,0.0,0.0,0.0,0.0,0.0,0.0,7.2085186e-06,0.0,0.0,nan,0.0,0.0,0.0,0.0,0.0001478479,inf,0.0,0.0,0.00054480357,0.0,0.0,0.0,0.0,0.0,0.0,0.0,0.0
4532000,4452000,3.1869386e-05,0.0,9.2968956e-05,2.819112e-10,0.0,1.8725061e-11,0.0,0.0,0.0,0.0,0.0,0.0,0.0,4.3980585e-08,0.0,0.0,nan,0.0,0.0,0.0,0.0,0.0001478479,inf,0.0,0.0,0.0001353558,0.0,0.0,0.0,0.0,0.0,0.0,0.0,0.0
4540000,4460000,3.1869386e-05,0.0,9.2968956e-05,2.819112e-10,0.0,1.8725061e-11,0.0,0.0,0.0,0.0,0.0,0.0,0.0,4.3980585e-08,0.0,0.0,nan,0.0,0.0,0.0,0.0,0.0001478479,inf,0.0,0.0,0.00015218691,0.0,0.0,0.0,0.0,0.0,0.0,0.0,0.0
4548000,4468000,3.1869386e-05,0.0,9.2968956e-05,2.819112e-10,0.0,1.8725061e-11,0.0,0.0,0.0,0.0,0.0,0.0,0.0,4.3980585e-08,0.0,0.0,nan,0.0,0.0,0.0,0.0,8.383221e-05,inf,0.0,0.0,0.00014273988,0.0,0.0,0.0,0.0,0.0,0.0,0.0,0.0
4556000,4476000,3.1869386e-05,0.0,9.2968956e-05,2.819112e-10,0.0,1.8725061e-11,0.0,0.0,0.0,0.0,0.0,0.0,0.0,4.3980585e-08,0.0,0.0,nan,0.0,0.0,0.0,0.0,8.383221e-05,inf,0.0,0.0,0.00020505334,0.0,0.0,0.0,0.0,0.0,0.0,0.0,0.0
4564000,4484000,3.1869386e-05,0.0,9.2968956e-05,2.819112e-10,0.0,1.8725061e-11,0.0,0.0,0.0,0.0,0.0,0.0,0.0,4.3980585e-08,0.0,0.0,nan,0.0,0.0,0.0,0.0,8.383221e-05,inf,0.0,0.0,0.00033623385,0.0,0.0,0.0,0.0,0.0,0.0,0.0,0.0
4572000,4492000,3.1869386e-05,0.0,9.2968956e-05,2.819112e-10,0.0,1.8725061e-11,0.0,0.0,0.0,0.0,0.0,0.0,0.0,4.3980585e-08,0.0,0.0,nan,0.0,0.0,0.0,0.0,8.383221e-05,inf,0.0,0.0,1.6906553e-05,0.0,0.0,0.0,0.0,0.0,0.0,0.0,0.0
4580000,4500000,3.1869386e-05,0.0,9.2968956e-05,2.819112e-10,0.0,1.8725061e-11,0.0,0.0,0.0,0.0,0.0,0.0,0.0,4.3980585e-08,0.0,0.0,nan,0.0,0.0,0.0,0.0,8.383221e-05,inf,0.0,0.0,8.576286e-05,0.0,0.0,0.0,0.0,0.0,0.0,0.0,0.0
4588000,4508000,3.1869386e-05,0.0,9.2968956e-05,2.819112e-10,0.0,1.8725061e-11,0.0,0.0,0.0,0.0,0.0,0.0,0.0,4.3980585e-08,0.0,0.0,nan,0.0,0.0,0.0,0.0,8.383221e-05,inf,0.0,0.0,0.00040357004,0.0,0.0,0.0,0.0,0.0,0.0,0.0,0.0
4596000,4516000,3.1869386e-05,0.0,9.2968956e-05,2.819112e-10,0.0,1.8725061e-11,0.0,0.0,0.0,0.0,0.0,0.0,0.0,8.571182e-06,0.0,0.0,nan,0.0,0.0,0.0,0.0,8.383221e-05,inf,0.0,0.0,0.0011344117,0.0,0.0,0.0,0.0,0.0,0.0,0.0,0.0
4604000,4524000,3.1869386e-05,0.0,9.2968956e-05,2.819112e-10,0.0,1.8725061e-11,0.0,0.0,0.0,0.0,0.0,0.0,0.0,8.571182e-06,0.0,0.0,nan,0.0,0.0,0.0,0.0,8.383221e-05,inf,0.0,0.0,0.001095432,0.0,0.0,0.0,0.0,0.0,0.0,0.0,0.0
4612000,4532000,0.0001255093,0.0,0.00014585599,2.078459e-06,0.0,9.789403e-09,0.0,0.0,0.0,0.0,0.0,0.0,0.0,8.571182e-06,0.0,0.0,nan,0.0,0.0,0.0,0.0,8.383221e-05,inf,0.0,0.0,1.0850841e-05,0.0,0.0,0.0,0.0,0.0,0.0,0.0,0.0
4620000,4540000,0.0001255093,0.0,0.00014585599,2.078459e-06,0.0,9.789403e-09,0.0,0.0,0.0,0.0,0.0,0.0,0.0,8.571182e-06,0.0,0.0,nan,0.0,0.0,0.0,0.0,2.2394752e-05,inf,0.0,0.0,0.0001620426,0.0,0.0,0.0,0.0,0.0,0.0,0.0,0.0
4628000,4548000,0.0001255093,0.0,0.00014585599,2.078459e-06,0.0,9.789403e-09,0.0,0.0,0.0,0.0,0.0,0.0,0.0,8.571182e-06,0.0,0.0,nan,0.0,0.0,0.0,0.0,2.2394752e-05,inf,0.0,0.0,0.00074860814,0.0,0.0,0.0,0.0,0.0,0.0,0.0,0.0
4636000,4556000,0.0001255093,0.0,0.00014585599,2.078459e-06,0.0,9.789403e-09,0.0,0.0,0.0,0.0,0.0,0.0,0.0,8.571182e-06,0.0,0.0,nan,0.0,0.0,0.0,0.0,2.2394752e-05,inf,0.0,0.0,0.0013237603,0.0,0.0,0.0,0.0,0.0,0.0,0.0,0.0
4644000,4564000,0.0001255093,0.0,0.00014585599,2.078459e-06,0.0,9.789403e-09,0.0,0.0,0.0,0.0,0.0,0.0,0.0,8.571182e-06,0.0,0.0,nan,0.0,0.0,0.0,0.0,2.2394752e-05,inf,0.0,0.0,0.00028149708,0.0,0.0,0.0,0.0,0.0,0.0,0.0,0.0
4652000,4572000,0.0001255093,0.0,0.00014585599,2.078459e-06,0.0,9.789403e-09,0.0,0.0,0.0,0.0,0.0,0.0,0.0,4.7470104e-07,0.0,0.0,nan,0.0,0.0,0.0,0.0,2.2394752e-05,inf,0.0,0.0,0.00028363115,0.0,0.0,0.0,0.0,0.0,0.0,0.0,0.0
4660000,4580000,0.0001255093,0.0,0.00014585599,2.078459e-06,0.0,9.789403e-09,0.0,0.0,0.0,0.0,0.0,0.0,0.0,4.7470104e-07,0.0,0.0,nan,0.0,0.0,0.0,0.0,2.2394752e-05,inf,0.0,0.0,0.0008231803,0.0,0.0,0.0,0.0,0.0,0.0,0.0,0.0
4668000,4588000,0.0001255093,0.0,0.00014585599,2.078459e-06,0.0,9.789403e-09,0.0,0.0,0.0,0.0,0.0,0.0,0.0,4.7470104e-07,0.0,0.0,nan,0.0,0.0,0.0,0.0,2.2394752e-05,inf,0.0,0.0,0.00079207926,0.0,0.0,0.0,0.0,0.0,0.0,0.0,0.0
4676000,4596000,0.0001255093,0.0,0.00014585599,2.078459e-06,0.0,9.789403e-09,0.0,0.0,0.0,0.0,0.0,0.0,0.0,4.7470104e-07,0.0,0.0,nan,0.0,0.0,0.0,0.0,2.2394752e-05,inf,0.0,0.0,0.000612709,0.0,0.0,0.0,0.0,0.0,0.0,0.0,0.0
4684000,4604000,0.0001255093,0.0,0.00014585599,2.078459e-06,0.0,9.789403e-09,0.0,0.0,0.0,0.0,0.0,0.0,0.0,4.7470104e-07,0.0,0.0,nan,0.0,0.0,0.0,0.0,2.2394752e-05,inf,0.0,0.0,0.00030600184,0.0,0.0,0.0,0.0,0.0,0.0,0.0,0.0
4692000,4612000,0.0001255093,0.0,0.00014585599,2.078459e-06,0.0,9.789403e-09,0.0,0.0,0.0,0.0,0.0,0.0,0.0,4.7470104e-07,0.0,0.0,nan,0.0,0.0,0.0,0.0,2.247449e-05,inf,0.0,0.0,0.00047164338,0.0,0.0,0.0,0.0,0.0,0.0,0.0,0.0
4700000,4620000,0.0001255093,0.0,0.00014585599,2.078459e-06,0.0,9.789403e-09,0.0,0.0,0.0,0.0,0.0,0.0,0.0,4.7470104e-07,0.0,0.0,nan,0.0,0.0,0.0,0.0,2.247449e-05,inf,0.0,0.0,0.0019283547,0.0,0.0,0.0,0.0,0.0,0.0,0.0,0.0
4708000,4628000,0.0001255093,0.0,0.00014585599,2.078459e-06,0.0,9.789403e-09,0.0,0.0,0.0,0.0,0.0,0.0,0.0,4.7470104e-07,0.0,0.0,nan,0.0,0.0,0.0,0.0,2.247449e-05,inf,0.0,0.0,0.00016561204,0.0,0.0,0.0,0.0,0.0,0.0,0.0,0.0
4716000,4636000,0.0001255093,0.0,0.00014585599,2.078459e-06,0.0,9.789403e-09,0.0,0.0,0.0,0.0,0.0,0.0,0.0,3.7152354e-06,0.0,0.0,nan,0.0,0.0,0.0,0.0,2.247449e-05,inf,0.0,0.0,0.00079599256,0.0,0.0,0.0,0.0,0.0,0.0,0.0,0.0
4724000,4644000,0.0001255093,0.0,0.00014585599,2.078459e-06,0.0,9.789403e-09,0.0,0.0,0.0,0.0,0.0,0.0,0.0,3.7152354e-06,0.0,0.0,nan,0.0,0.0,0.0,0.0,2.247449e-05,inf,0.0,0.0,0.00062115514,0.0,0.0,0.0,0.0,0.0,0.0,0.0,0.0
4732000,4652000,0.0001255093,0.0,0.00014585599,2.078459e-06,0.0,9.789403e-09,0.0,0.0,0.0,0.0,0.0,0.0,0.0,3.7152354e-06,0.0,0.0,nan,0.0,0.0,0.0,0.0,2.247449e-05,inf,0.0,0.0,2.0416282e-05,0.0,0.0,0.0,0.0,0.0,0.0,0.0,0.0
4740000,4660000,0.0001255093,0.0,0.00014585599,2.078459e-06,0.0,9.789403e-09,0.0,0.0,0.0,0.0,0.0,0.0,0.0,3.7152354e-06,0.0,0.0,nan,0.0,0.0,0.0,0.0,2.247449e-05,inf,0.0,0.0,0.0001733652,0.0,0.0,0.0,0.0,0.0,0.0,0.0,0.0
4748000,4668000,0.0001255093,0.0,0.00014585599,2.078459e-06,0.0,9.789403e-09,0.0,0.0,0.0,0.0,0.0,0.0,0.0,3.7152354e-06,0.0,0.0,nan,0.0,0.0,0.0,0.0,2.247449e-05,inf,0.0,0.0,3.2945416e-05,0.0,0.0,0.0,0.0,0.0,0.0,0.0,0.0
4756000,4676000,0.0001255093,0.0,0.00014585599,2.078459e-06,0.0,9.789403e-09,0.0,0.0,0.0,0.0,0.0,0.0,0.0,3.7152354e-06,0.0,0.0,nan,0.0,0.0,0.0,0.0,2.247449e-05,inf,0.0,0.0,0.00017139444,0.0,0.0,0.0,0.0,0.0,0.0,0.0,0.0
4764000,4684000,0.0001255093,0.0,0.00014585599,2.078459e-06,0.0,9.789403e-09,0.0,0.0,0.0,0.0,0.0,0.0,0.0,3.7152354e-06,0.0,0.0,nan,0.0,0.0,0.0,0.0,4.9660383e-05,inf,0.0,0.0,0.00082089024,0.0,0.0,0.0,0.0,0.0,0.0,0.0,0.0
4772000,4692000,0.0001255093,0.0,0.00014585599,2.078459e-06,0.0,9.789403e-09,0.0,0.0,0.0,0.0,0.0,0.0,0.0,1.7871429e-06,0.0,0.0,nan,0.0,0.0,0.0,0.0,4.9660383e-05,inf,0.0,0.0,0.00039918176,0.0,0.0,0.0,0.0,0.0,0.0,0.0,0.0
4780000,4700000,0.0001255093,0.0,0.00014585599,2.078459e-06,0.0,9.789403e-09,0.0,0.0,0.0,0.0,0.0,0.0,0.0,1.7871429e-06,0.0,0.0,nan,0.0,0.0,0.0,0.0,4.9660383e-05,inf,0.0,0.0,0.00035163047,0.0,0.0,0.0,0.0,0.0,0.0,0.0,0.0
4788000,4708000,0.0001255093,0.0,0.00014585599,2.078459e-06,0.0,9.789403e-09,0.0,0.0,0.0,0.0,0.0,0.0,0.0,1.7871429e-06,0.0,0.0,nan,0.0,0.0,0.0,0.0,4.9660383e-05,inf,0.0,0.0,0.00021481533,0.0,0.0,0.0,0.0,0.0,0.0,0.0,0.0
4796000,4716000,0.0001255093,0.0,0.00014585599,2.078459e-06,0.0,9.789403e-09,0.0,0.0,0.0,0.0,0.0,0.0,0.0,1.7871429e-06,0.0,0.0,nan,0.0,0.0,0.0,0.0,4.9660383e-05,inf,0.0,0.0,0.0017296722,0.0,0.0,0.0,0.0,0.0,0.0,0.0,0.0
4804000,4724000,0.0001255093,0.0,0.00014585599,2.078459e-06,0.0,9.789403e-09,0.0,0.0,0.0,0.0,0.0,0.0,0.0,1.7871429e-06,0.0,0.0,nan,0.0,0.0,0.0,0.0,4.9660383e-05,inf,0.0,0.0,0.00052903866,0.0,0.0,0.0,0.0,0.0,0.0,0.0,0.0
4812000,4732000,0.0001255093,0.0,0.00014585599,2.078459e-06,0.0,9.789403e-09,0.0,0.0,0.0,0.0,0.0,0.0,0.0,1.7871429e-06,0.0,0.0,nan,0.0,0.0,0.0,0.0,4.9660383e-05,inf,0.0,0.0,0.0002339483,0.0,0.0,0.0,0.0,0.0,0.0,0.0,0.0
4820000,4740000,0.0001255093,0.0,0.00014585599,2.078459e-06,0.0,9.789403e-09,0.0,0.0,0.0,0.0,0.0,0.0,0.0,1.7871429e-06,0.0,0.0,nan,0.0,0.0,0.0,0.0,4.9660383e-05,inf,0.0,0.0,0.0009612955,0.0,0.0,0.0,0.0,0.0,0.0,0.0,0.0
4828000,4748000,0.0001255093,0.0,0.00014585599,2.078459e-06,0.0,9.789403e-09,0.0,0.0,0.0,0.0,0.0,0.0,0.0,1.7871429e-06,0.0,0.0,nan,0.0,0.0,0.0,0.0,4.9660383e-05,inf,0.0,0.0,0.00010911991,0.0,0.0,0.0,0.0,0.0,0.0,0.0,0.0
4836000,4756000,0.0001255093,0.0,0.00014585599,2.078459e-06,0.0,9.789403e-09,0.0,0.0,0.0,0.0,0.0,0.0,0.0,1.8296876e-05,0.0,0.0,nan,0.0,0.0,0.0,0.0,0.0004982125,inf,0.0,0.0,0.00012925405,0.0,0.0,0.0,0.0,0.0,0.0,0.0,0.0
4844000,4764000,0.0001255093,0.0,0.00014585599,2.078459e-06,0.0,9.789403e-09,0.0,0.0,0.0,0.0,0.0,0.0,0.0,1.8296876e-05,0.0,0.0,nan,0.0,0.0,0.0,0.0,0.0004982125,inf,0.0,0.0,0.0007248525,0.0,0.0,0.0,0.0,0.0,0.0,0.0,0.0
4852000,4772000,0.0001255093,0.0,0.00014585599,2.078459e-06,0.0,9.789403e-09,0.0,0.0,0.0,0.0,0.0,0.0,0.0,1.8296876e-05,0.0,0.0,nan,0.0,0.0,0.0,0.0,0.0004982125,inf,0.0,0.0,6.248965e-05,0.0,0.0,0.0,0.0,0.0,0.0,0.0,0.0
4860000,4780000,0.0001255093,0.0,0.00014585599,2.078459e-06,0.0,9.789403e-09,0.0,0.0,0.0,0.0,0.0,0.0,0.0,1.8296876e-05,0.0,0.0,nan,0.0,0.0,0.0,0.0,0.0004982125,inf,0.0,0.0,0.00048390607,0.0,0.0,0.0,0.0,0.0,0.0,0.0,0.0
4868000,4788000,0.0001255093,0.0,0.00014585599,2.078459e-06,0.0,9.789403e-09,0.0,0.0,0.0,0.0,0.0,0.0,0.0,1.8296876e-05,0.0,0.0,nan,0.0,0.0,0.0,0.0,0.0004982125,inf,0.0,0.0,0.00048407607,0.0,0.0,0.0,0.0,0.0,0.0,0.0,0.0
4876000,4796000,0.0001255093,0.0,0.00014585599,2.078459e-06,0.0,9.789403e-09,0.0,0.0,0.0,0.0,0.0,0.0,0.0,1.8296876e-05,0.0,0.0,nan,0.0,0.0,0.0,0.0,0.0004982125,inf,0.0,0.0,0.0007231863,0.0,0.0,0.0,0.0,0.0,0.0,0.0,0.0
4884000,4804000,0.0001255093,0.0,0.00014585599,2.078459e-06,0.0,9.789403e-09,0.0,0.0,0.0,0.0,0.0,0.0,0.0,1.8296876e-05,0.0,0.0,nan,0.0,0.0,0.0,0.0,0.0004982125,inf,0.0,0.0,0.00016982727,0.0,0.0,0.0,0.0,0.0,0.0,0.0,0.0
4892000,4812000,0.0001255093,0.0,0.00014585599,2.078459e-06,0.0,9.789403e-09,0.0,0.0,0.0,0.0,0.0,0.0,0.0,2.2727761e-05,0.0,0.0,nan,0.0,0.0,0.0,0.0,0.0004982125,inf,0.0,0.0,0.0023060762,0.0,0.0,0.0,0.0,0.0,0.0,0.0,0.0
4900000,4820000,0.0001255093,0.0,0.00014585599,2.078459e-06,0.0,9.789403e-09,0.0,0.0,0.0,0.0,0.0,0.0,0.0,2.2727761e-05,0.0,0.0,nan,0.0,0.0,0.0,0.0,0.0004982125,inf,0.0,0.0,0.0015086499,0.0,0.0,0.0,0.0,0.0,0.0,0.0,0.0
4908000,4828000,0.0001255093,0.0,0.00014585599,2.078459e-06,0.0,9.789403e-09,0.0,0.0,0.0,0.0,0.0,0.0,0.0,2.2727761e-05,0.0,0.0,nan,0.0,0.0,0.0,0.0,0.0003103363,inf,0.0,0.0,0.00082060084,0.0,0.0,0.0,0.0,0.0,0.0,0.0,0.0
4916000,4836000,0.0001255093,0.0,0.00014585599,2.078459e-06,0.0,9.789403e-09,0.0,0.0,0.0,0.0,0.0,0.0,0.0,2.2727761e-05,0.0,0.0,nan,0.0,0.0,0.0,0.0,0.0003103363,inf,0.0,0.0,0.00016415145,0.0,0.0,0.0,0.0,0.0,0.0,0.0,0.0
4924000,4844000,0.0001255093,0.0,0.00014585599,2.078459e-06,0.0,9.789403e-09,0.0,0.0,0.0,0.0,0.0,0.0,0.0,2.2727761e-05,0.0,0.0,nan,0.0,0.0,0.0,0.0,0.0003103363,inf,0.0,0.0,0.00037484677,0.0,0.0,0.0,0.0,0.0,0.0,0.0,0.0
4932000,4852000,0.0001255093,0.0,0.00014585599,2.078459e-06,0.0,9.789403e-09,0.0,0.0,0.0,0.0,0.0,0.0,0.0,2.2727761e-05,0.0,0.0,nan,0.0,0.0,0.0,0.0,0.0003103363,inf,0.0,0.0,0.00021993657,0.0,0.0,0.0,0.0,0.0,0.0,0.0,0.0
4940000,4860000,0.0001255093,0.0,0.00014585599,2.078459e-06,0.0,9.789403e-09,0.0,0.0,0.0,0.0,0.0,0.0,0.0,1.8223878e-05,0.0,0.0,nan,0.0,0.0,0.0,0.0,0.0003103363,inf,0.0,0.0,8.621486e-05,0.0,0.0,0.0,0.0,0.0,0.0,0.0,0.0
4948000,4868000,0.0001255093,0.0,0.00014585599,2.078459e-06,0.0,9.789403e-09,0.0,0.0,0.0,0.0,0.0,0.0,0.0,1.8223878e-05,0.0,0.0,nan,0.0,0.0,0.0,0.0,0.0003103363,inf,0.0,0.0,5.9887432e-05,0.0,0.0,0.0,0.0,0.0,0.0,0.0,0.0
4956000,4876000,0.0001255093,0.0,0.00014585599,2.078459e-06,0.0,9.789403e-09,0.0,0.0,0.0,0.0,0.0,0.0,0.0,1.8223878e-05,0.0,0.0,nan,0.0,0.0,0.0,0.0,0.0003103363,inf,0.0,0.0,0.0007380632,0.0,0.0,0.0,0.0,0.0,0.0,0.0,0.0
4964000,4884000,0.0001255093,0.0,0.00014585599,2.078459e-06,0.0,9.789403e-09,0.0,0.0,0.0,0.0,0.0,0.0,0.0,1.8223878e-05,0.0,0.0,nan,0.0,0.0,0.0,0.0,0.0003103363,inf,0.0,0.0,0.00013143488,0.0,0.0,0.0,0.0,0.0,0.0,0.0,0.0
4972000,4892000,0.0001255093,0.0,0.00014585599,2.078459e-06,0.0,9.789403e-09,0.0,0.0,0.0,0.0,0.0,0.0,0.0,1.8223878e-05,0.0,0.0,nan,0.0,0.0,0.0,0.0,0.0003103363,inf,0.0,0.0,9.268139e-05,0.0,0.0,0.0,0.0,0.0,0.0,0.0,0.0
4980000,4900000,0.0001255093,0.0,0.00014585599,2.078459e-06,0.0,9.789403e-09,0.0,0.0,0.0,0.0,0.0,0.0,0.0,1.8223878e-05,0.0,0.0,nan,0.0,0.0,0.0,0.0,1.0813746e-06,inf,0.0,0.0,0.00041658606,0.0,0.0,0.0,0.0,0.0,0.0,0.0,0.0
4988000,4908000,0.0001255093,0.0,0.00014585599,2.078459e-06,0.0,9.789403e-09,0.0,0.0,0.0,0.0,0.0,0.0,0.0,1.8223878e-05,0.0,0.0,nan,0.0,0.0,0.0,0.0,1.0813746e-06,inf,0.0,0.0,3.2137166e-05,0.0,0.0,0.0,0.0,0.0,0.0,0.0,0.0
4996000,4916000,0.0001255093,0.0,0.00014585599,2.078459e-06,0.0,9.789403e-09,0.0,0.0,0.0,0.0,0.0,0.0,0.0,1.8223878e-05,0.0,0.0,nan,0.0,0.0,0.0,0.0,1.0813746e-06,inf,0.0,0.0,8.714168e-05,0.0,0.0,0.0,0.0,0.0,0.0,0.0,0.0
5004000,4924000,1.9213885e-06,0.0,6.1710224e-08,2.33419e-06,0.0,9.441375e-09,0.0,0.0,0.0,0.0,0.0,0.0,0.0,3.1261784e-06,0.0,0.0,nan,0.0,0.0,0.0,0.0,1.0813746e-06,inf,0.0,0.0,0.0009025923,0.0,0.0,0.0,0.0,0.0,0.0,0.0,0.0
5012000,4932000,1.9213885e-06,0.0,6.1710224e-08,2.33419e-06,0.0,9.441375e-09,0.0,0.0,0.0,0.0,0.0,0.0,0.0,3.1261784e-06,0.0,0.0,nan,0.0,0.0,0.0,0.0,1.0813746e-06,inf,0.0,0.0,9.3003895e-05,0.0,0.0,0.0,0.0,0.0,0.0,0.0,0.0
5020000,4940000,1.9213885e-06,0.0,6.1710224e-08,2.33419e-06,0.0,9.441375e-09,0.0,0.0,0.0,0.0,0.0,0.0,0.0,3.1261784e-06,0.0,0.0,nan,0.0,0.0,0.0,0.0,1.0813746e-06,inf,0.0,0.0,0.0011992253,0.0,0.0,0.0,0.0,0.0,0.0,0.0,0.0
5028000,4948000,1.9213885e-06,0.0,6.1710224e-08,2.33419e-06,0.0,9.441375e-09,0.0,0.0,0.0,0.0,0.0,0.0,0.0,3.1261784e-06,0.0,0.0,nan,0.0,0.0,0.0,0.0,1.0813746e-06,inf,0.0,0.0,0.00018922774,0.0,0.0,0.0,0.0,0.0,0.0,0.0,0.0
5036000,4956000,1.9213885e-06,0.0,6.1710224e-08,2.33419e-06,0.0,9.441375e-09,0.0,0.0,0.0,0.0,0.0,0.0,0.0,3.1261784e-06,0.0,0.0,nan,0.0,0.0,0.0,0.0,1.0813746e-06,inf,0.0,0.0,9.282574e-05,0.0,0.0,0.0,0.0,0.0,0.0,0.0,0.0
5044000,4964000,1.9213885e-06,0.0,6.1710224e-08,2.33419e-06,0.0,9.441375e-09,0.0,0.0,0.0,0.0,0.0,0.0,0.0,3.1261784e-06,0.0,0.0,nan,0.0,0.0,0.0,0.0,1.0813746e-06,inf,0.0,0.0,0.00016811311,0.0,0.0,0.0,0.0,0.0,0.0,0.0,0.0
5052000,4972000,1.9213885e-06,0.0,6.1710224e-08,2.33419e-06,0.0,9.441375e-09,0.0,0.0,0.0,0.0,0.0,0.0,0.0,3.1261784e-06,0.0,0.0,nan,0.0,0.0,0.0,0.0,1.29479995e-05,inf,0.0,0.0,5.908369e-06,0.0,0.0,0.0,0.0,0.0,0.0,0.0,0.0
5060000,4980000,1.9213885e-06,0.0,6.1710224e-08,2.33419e-06,0.0,9.441375e-09,0.0,0.0,0.0,0.0,0.0,0.0,0.0,1.0101511e-05,0.0,0.0,nan,0.0,0.0,0.0,0.0,1.29479995e-05,inf,0.0,0.0,0.00040861886,0.0,0.0,0.0,0.0,0.0,0.0,0.0,0.0
5068000,4988000,1.9213885e-06,0.0,6.1710224e-08,2.33419e-06,0.0,9.441375e-09,0.0,0.0,0.0,0.0,0.0,0.0,0.0,1.0101511e-05,0.0,0.0,nan,0.0,0.0,0.0,0.0,1.29479995e-05,inf,0.0,0.0,0.00044258972,0.0,0.0,0.0,0.0,0.0,0.0,0.0,0.0
5076000,4996000,1.9213885e-06,0.0,6.1710224e-08,2.33419e-06,0.0,9.441375e-09,0.0,0.0,0.0,0.0,0.0,0.0,0.0,1.0101511e-05,0.0,0.0,nan,0.0,0.0,0.0,0.0,1.29479995e-05,inf,0.0,0.0,0.00029253628,0.0,0.0,0.0,0.0,0.0,0.0,0.0,0.0
5084000,5004000,1.9213885e-06,0.0,6.1710224e-08,2.33419e-06,0.0,9.441375e-09,0.0,0.0,0.0,0.0,0.0,0.0,0.0,1.0101511e-05,0.0,0.0,nan,0.0,0.0,0.0,0.0,1.29479995e-05,inf,0.0,0.0,0.00046068386,0.0,0.0,0.0,0.0,0.0,0.0,0.0,0.0
5092000,5012000,1.9213885e-06,0.0,6.1710224e-08,2.33419e-06,0.0,9.441375e-09,0.0,0.0,0.0,0.0,0.0,0.0,0.0,1.0101511e-05,0.0,0.0,nan,0.0,0.0,0.0,0.0,1.29479995e-05,inf,0.0,0.0,0.0001236162,0.0,0.0,0.0,0.0,0.0,0.0,0.0,0.0
5100000,5020000,1.9213885e-06,0.0,6.1710224e-08,2.33419e-06,0.0,9.441375e-09,0.0,0.0,0.0,0.0,0.0,0.0,0.0,1.0101511e-05,0.0,0.0,nan,0.0,0.0,0.0,0.0,1.29479995e-05,inf,0.0,0.0,0.00044512664,0.0,0.0,0.0,0.0,0.0,0.0,0.0,0.0
5108000,5028000,1.9213885e-06,0.0,6.1710224e-08,2.33419e-06,0.0,9.441375e-09,0.0,0.0,0.0,0.0,0.0,0.0,0.0,1.0101511e-05,0.0,0.0,nan,0.0,0.0,0.0,0.0,1.29479995e-05,inf,0.0,0.0,0.00013969718,0.0,0.0,0.0,0.0,0.0,0.0,0.0,0.0
5116000,5036000,1.9213885e-06,0.0,6.1710224e-08,2.33419e-06,0.0,9.441375e-09,0.0,0.0,0.0,0.0,0.0,0.0,0.0,1.0101511e-05,0.0,0.0,nan,0.0,0.0,0.0,0.0,1.29479995e-05,inf,0.0,0.0,1.5129533e-05,0.0,0.0,0.0,0.0,0.0,0.0,0.0,0.0
5124000,5044000,1.9213885e-06,0.0,6.1710224e-08,2.33419e-06,0.0,9.441375e-09,0.0,0.0,0.0,0.0,0.0,0.0,0.0,1.0766402e-05,0.0,0.0,nan,0.0,0.0,0.0,0.0,0.00028404934,inf,0.0,0.0,0.0001515632,0.0,0.0,0.0,0.0,0.0,0.0,0.0,0.0
5132000,5052000,1.9213885e-06,0.0,6.1710224e-08,2.33419e-06,0.0,9.441375e-09,0.0,0.0,0.0,0.0,0.0,0.0,0.0,1.0766402e-05,0.0,0.0,nan,0.0,0.0,0.0,0.0,0.00028404934,inf,0.0,0.0,0.001477716,0.0,0.0,0.0,0.0,0.0,0.0,0.0,0.0
5140000,5060000,1.9213885e-06,0.0,6.1710224e-08,2.33419e-06,0.0,9.441375e-09,0.0,0.0,0.0,0.0,0.0,0.0,0.0,1.0766402e-05,0.0,0.0,nan,0.0,0.0,0.0,0.0,0.00028404934,inf,0.0,0.0,0.00022326678,0.0,0.0,0.0,0.0,0.0,0.0,0.0,0.0
5148000,5068000,1.9213885e-06,0.0,6.1710224e-08,2.33419e-06,0.0,9.441375e-09,0.0,0.0,0.0,0.0,0.0,0.0,0.0,1.0766402e-05,0.0,0.0,nan,0.0,0.0,0.0,0.0,0.00028404934,inf,0.0,0.0,0.00011093484,0.0,0.0,0.0,0.0,0.0,0.0,0.0,0.0
5156000,5076000,1.9213885e-06,0.0,6.1710224e-08,2.33419e-06,0.0,9.441375e-09,0.0,0.0,0.0,0.0,0.0,0.0,0.0,1.0766402e-05,0.0,0.0,nan,0.0,0.0,0.0,0.0,0.00028404934,inf,0.0,0.0,0.00015822875,0.0,0.0,0.0,0.0,0.0,0.0,0.0,0.0
5164000,5084000,1.9213885e-06,0.0,6.1710224e-08,2.33419e-06,0.0,9.441375e-09,0.0,0.0,0.0,0.0,0.0,0.0,0.0,1.0766402e-05,0.0,0.0,nan,0.0,0.0,0.0,0.0,0.00028404934,inf,0.0,0.0,0.00030802636,0.0,0.0,0.0,0.0,0.0,0.0,0.0,0.0
5172000,5092000,1.9213885e-06,0.0,6.1710224e-08,2.33419e-06,0.0,9.441375e-09,0.0,0.0,0.0,0.0,0.0,0.0,0.0,1.0766402e-05,0.0,0.0,nan,0.0,0.0,0.0,0.0,0.00028404934,inf,0.0,0.0,0.00045370258,0.0,0.0,0.0,0.0,0.0,0.0,0.0,0.0
5180000,5100000,1.9213885e-06,0.0,6.1710224e-08,2.33419e-06,0.0,9.441375e-09,0.0,0.0,0.0,0.0,0.0,0.0,0.0,9.300489e-05,0.0,0.0,nan,0.0,0.0,0.0,0.0,0.00028404934,inf,0.0,0.0,6.0539318e-05,0.0,0.0,0.0,0.0,0.0,0.0,0.0,0.0
5188000,5108000,1.9213885e-06,0.0,6.1710224e-08,2.33419e-06,0.0,9.441375e-09,0.0,0.0,0.0,0.0,0.0,0.0,0.0,9.300489e-05,0.0,0.0,nan,0.0,0.0,0.0,0.0,0.00028404934,inf,0.0,0.0,0.00019410625,0.0,0.0,0.0,0.0,0.0,0.0,0.0,0.0
5196000,5116000,1.9213885e-06,0.0,6.1710224e-08,2.33419e-06,0.0,9.441375e-09,0.0,0.0,0.0,0.0,0.0,0.0,0.0,9.300489e-05,0.0,0.0,nan,0.0,0.0,0.0,0.0,1.7269712e-06,inf,0.0,0.0,0.00043345237,0.0,0.0,0.0,0.0,0.0,0.0,0.0,0.0
5204000,5124000,1.9213885e-06,0.0,6.1710224e-08,2.33419e-06,0.0,9.441375e-09,0.0,0.0,0.0,0.0,0.0,0.0,0.0,9.300489e-05,0.0,0.0,nan,0.0,0.0,0.0,0.0,1.7269712e-06,inf,0.0,0.0,0.0012678811,0.0,0.0,0.0,0.0,0.0,0.0,0.0,0.0
5212000,5132000,1.9213885e-06,0.0,6.1710224e-08,2.33419e-06,0.0,9.441375e-09,0.0,0.0,0.0,0.0,0.0,0.0,0.0,9.300489e-05,0.0,0.0,nan,0.0,0.0,0.0,0.0,1.7269712e-06,inf,0.0,0.0,2.4226158e-05,0.0,0.0,0.0,0.0,0.0,0.0,0.0,0.0
5220000,5140000,1.9213885e-06,0.0,6.1710224e-08,2.33419e-06,0.0,9.441375e-09,0.0,0.0,0.0,0.0,0.0,0.0,0.0,9.300489e-05,0.0,0.0,nan,0.0,0.0,0.0,0.0,1.7269712e-06,inf,0.0,0.0,0.0008672239,0.0,0.0,0.0,0.0,0.0,0.0,0.0,0.0
5228000,5148000,1.9213885e-06,0.0,6.1710224e-08,2.33419e-06,0.0,9.441375e-09,0.0,0.0,0.0,0.0,0.0,0.0,0.0,9.300489e-05,0.0,0.0,nan,0.0,0.0,0.0,0.0,1.7269712e-06,inf,0.0,0.0,0.00093904714,0.0,0.0,0.0,0.0,0.0,0.0,0.0,0.0
5236000,5156000,1.9213885e-06,0.0,6.1710224e-08,2.33419e-06,0.0,9.441375e-09,0.0,0.0,0.0,0.0,0.0,0.0,0.0,9.300489e-05,0.0,0.0,nan,0.0,0.0,0.0,0.0,1.7269712e-06,inf,0.0,0.0,0.00018236459,0.0,0.0,0.0,0.0,0.0,0.0,0.0,0.0
5244000,5164000,1.9213885e-06,0.0,6.1710224e-08,2.33419e-06,0.0,9.441375e-09,0.0,0.0,0.0,0.0,0.0,0.0,0.0,3.4563618e-05,0.0,0.0,nan,0.0,0.0,0.0,0.0,1.7269712e-06,inf,0.0,0.0,0.00026614053,0.0,0.0,0.0,0.0,0.0,0.0,0.0,0.0
5252000,5172000,1.9213885e-06,0.0,6.1710224e-08,2.33419e-06,0.0,9.441375e-09,0.0,0.0,0.0,0.0,0.0,0.0,0.0,3.4563618e-05,0.0,0.0,nan,0.0,0.0,0.0,0.0,1.7269712e-06,inf,0.0,0.0,0.00028428633,0.0,0.0,0.0,0.0,0.0,0.0,0.0,0.0
5260000,5180000,1.9213885e-06,0.0,6.1710224e-08,2.33419e-06,0.0,9.441375e-09,0.0,0.0,0.0,0.0,0.0,0.0,0.0,3.4563618e-05,0.0,0.0,nan,0.0,0.0,0.0,0.0,1.7269712e-06,inf,0.0,0.0,0.000253897,0.0,0.0,0.0,0.0,0.0,0.0,0.0,0.0
5268000,5188000,1.9213885e-06,0.0,6.1710224e-08,2.33419e-06,0.0,9.441375e-09,0.0,0.0,0.0,0.0,0.0,0.0,0.0,3.4563618e-05,0.0,0.0,nan,0.0,0.0,0.0,0.0,7.519502e-05,inf,0.0,0.0,0.0003728915,0.0,0.0,0.0,0.0,0.0,0.0,0.0,0.0
5276000,5196000,1.9213885e-06,0.0,6.1710224e-08,2.33419e-06,0.0,9.441375e-09,0.0,0.0,0.0,0.0,0.0,0.0,0.0,3.4563618e-05,0.0,0.0,nan,0.0,0.0,0.0,0.0,7.519502e-05,inf,0.0,0.0,0.00031477178,0.0,0.0,0.0,0.0,0.0,0.0,0.0,0.0
5284000,5204000,1.9213885e-06,0.0,6.1710224e-08,2.33419e-06,0.0,9.441375e-09,0.0,0.0,0.0,0.0,0.0,0.0,0.0,3.4563618e-05,0.0,0.0,nan,0.0,0.0,0.0,0.0,7.519502e-05,inf,0.0,0.0,0.00024354241,0.0,0.0,0.0,0.0,0.0,0.0,0.0,0.0
5292000,5212000,1.9213885e-06,0.0,6.1710224e-08,2.33419e-06,0.0,9.441375e-09,0.0,0.0,0.0,0.0,0.0,0.0,0.0,3.4563618e-05,0.0,0.0,nan,0.0,0.0,0.0,0.0,7.519502e-05,inf,0.0,0.0,0.0010594968,0.0,0.0,0.0,0.0,0.0,0.0,0.0,0.0
5300000,5220000,1.9213885e-06,0.0,6.1710224e-08,2.33419e-06,0.0,9.441375e-09,0.0,0.0,0.0,0.0,0.0,0.0,0.0,4.8372098e-05,0.0,0.0,nan,0.0,0.0,0.0,0.0,7.519502e-05,inf,0.0,0.0,0.003667443,0.0,0.0,0.0,0.0,0.0,0.0,0.0,0.0
5308000,5228000,1.9213885e-06,0.0,6.1710224e-08,2.33419e-06,0.0,9.441375e-09,0.0,0.0,0.0,0.0,0.0,0.0,0.0,4.8372098e-05,0.0,0.0,nan,0.0,0.0,0.0,0.0,7.519502e-05,inf,0.0,0.0,0.003168814,0.0,0.0,0.0,0.0,0.0,0.0,0.0,0.0
5316000,5236000,1.9213885e-06,0.0,6.1710224e-08,2.33419e-06,0.0,9.441375e-09,0.0,0.0,0.0,0.0,0.0,0.0,0.0,4.8372098e-05,0.0,0.0,nan,0.0,0.0,0.0,0.0,7.519502e-05,inf,0.0,0.0,6.234227e-05,0.0,0.0,0.0,0.0,0.0,0.0,0.0,0.0
5324000,5244000,1.9213885e-06,0.0,6.1710224e-08,2.33419e-06,0.0,9.441375e-09,0.0,0.0,0.0,0.0,0.0,0.0,0.0,4.8372098e-05,0.0,0.0,nan,0.0,0.0,0.0,0.0,7.519502e-05,inf,0.0,0.0,0.00023295263,0.0,0.0,0.0,0.0,0.0,0.0,0.0,0.0
5332000,5252000,1.9213885e-06,0.0,6.1710224e-08,2.33419e-06,0.0,9.441375e-09,0.0,0.0,0.0,0.0,0.0,0.0,0.0,4.8372098e-05,0.0,0.0,nan,0.0,0.0,0.0,0.0,7.519502e-05,inf,0.0,0.0,9.0556375e-07,0.0,0.0,0.0,0.0,0.0,0.0,0.0,0.0
5340000,5260000,1.9213885e-06,0.0,6.1710224e-08,2.33419e-06,0.0,9.441375e-09,0.0,0.0,0.0,0.0,0.0,0.0,0.0,4.8372098e-05,0.0,0.0,nan,0.0,0.0,0.0,0.0,0.00013783136,inf,0.0,0.0,0.00018638163,0.0,0.0,0.0,0.0,0.0,0.0,0.0,0.0
5348000,5268000,1.9213885e-06,0.0,6.1710224e-08,2.33419e-06,0.0,9.441375e-09,0.0,0.0,0.0,0.0,0.0,0.0,0.0,4.8372098e-05,0.0,0.0,nan,0.0,0.0,0.0,0.0,0.00013783136,inf,0.0,0.0,0.00060995464,0.0,0.0,0.0,0.0,0.0,0.0,0.0,0.0
5356000,5276000,1.9213885e-06,0.0,6.1710224e-08,2.33419e-06,0.0,9.441375e-09,0.0,0.0,0.0,0.0,0.0,0.0,0.0,4.8372098e-05,0.0,0.0,nan,0.0,0.0,0.0,0.0,0.00013783136,inf,0.0,0.0,0.001104793,0.0,0.0,0.0,0.0,0.0,0.0,0.0,0.0
5364000,5284000,1.9213885e-06,0.0,6.1710224e-08,2.33419e-06,0.0,9.441375e-09,0.0,0.0,0.0,0.0,0.0,0.0,0.0,2.6023886e-06,0.0,0.0,nan,0.0,0.0,0.0,0.0,0.00013783136,inf,0.0,0.0,2.7837385e-05,0.0,0.0,0.0,0.0,0.0,0.0,0.0,0.0
5372000,5292000,1.9213885e-06,0.0,6.1710224e-08,2.33419e-06,0.0,9.441375e-09,0.0,0.0,0.0,0.0,0.0,0.0,0.0,2.6023886e-06,0.0,0.0,nan,0.0,0.0,0.0,0.0,0.00013783136,inf,0.0,0.0,1.6203223e-05,0.0,0.0,0.0,0.0,0.0,0.0,0.0,0.0
5380000,5300000,1.9213885e-06,0.0,6.1710224e-08,2.33419e-06,0.0,9.441375e-09,0.0,0.0,0.0,0.0,0.0,0.0,0.0,2.6023886e-06,0.0,0.0,nan,0.0,0.0,0.0,0.0,0.00013783136,inf,0.0,0.0,1.0301491e-05,0.0,0.0,0.0,0.0,0.0,0.0,0.0,0.0
5388000,5308000,1.9213885e-06,0.0,6.1710224e-08,2.33419e-06,0.0,9.441375e-09,0.0,0.0,0.0,0.0,0.0,0.0,0.0,2.6023886e-06,0.0,0.0,nan,0.0,0.0,0.0,0.0,0.00013783136,inf,0.0,0.0,0.0010250957,0.0,0.0,0.0,0.0,0.0,0.0,0.0,0.0
5396000,5316000,1.9213885e-06,0.0,6.1710224e-08,2.33419e-06,0.0,9.441375e-09,0.0,0.0,0.0,0.0,0.0,0.0,0.0,2.6023886e-06,0.0,0.0,nan,0.0,0.0,0.0,0.0,0.00013783136,inf,0.0,0.0,0.0007407656,0.0,0.0,0.0,0.0,0.0,0.0,0.0,0.0
5404000,5324000,4.0065377e-05,0.0,0.00028559755,2.2235765e-06,0.0,2.978383e-06,0.0,0.0,0.0,0.0,0.0,0.0,0.0,2.6023886e-06,0.0,0.0,nan,0.0,0.0,0.0,0.0,0.00013783136,inf,0.0,0.0,2.7246224e-05,0.0,0.0,0.0,0.0,0.0,0.0,0.0,0.0
5412000,5332000,4.0065377e-05,0.0,0.00028559755,2.2235765e-06,0.0,2.978383e-06,0.0,0.0,0.0,0.0,0.0,0.0,0.0,2.6023886e-06,0.0,0.0,nan,0.0,0.0,0.0,0.0,0.00011394192,inf,0.0,0.0,0.00021631572,0.0,0.0,0.0,0.0,0.0,0.0,0.0,0.0
5420000,5340000,4.0065377e-05,0.0,0.00028559755,2.2235765e-06,0.0,2.978383e-06,0.0,0.0,0.0,0.0,0.0,0.0,0.0,4.6752702e-05,0.0,0.0,nan,0.0,0.0,0.0,0.0,0.00011394192,inf,0.0,0.0,0.00056690123,0.0,0.0,0.0,0.0,0.0,0.0,0.0,0.0
5428000,5348000,4.0065377e-05,0.0,0.00028559755,2.2235765e-06,0.0,2.978383e-06,0.0,0.0,0.0,0.0,0.0,0.0,0.0,4.6752702e-05,0.0,0.0,nan,0.0,0.0,0.0,0.0,0.00011394192,inf,0.0,0.0,0.00017086505,0.0,0.0,0.0,0.0,0.0,0.0,0.0,0.0
5436000,5356000,4.0065377e-05,0.0,0.00028559755,2.2235765e-06,0.0,2.978383e-06,0.0,0.0,0.0,0.0,0.0,0.0,0.0,4.6752702e-05,0.0,0.0,nan,0.0,0.0,0.0,0.0,0.00011394192,inf,0.0,0.0,0.0003380468,0.0,0.0,0.0,0.0,0.0,0.0,0.0,0.0
5444000,5364000,4.0065377e-05,0.0,0.00028559755,2.2235765e-06,0.0,2.978383e-06,0.0,0.0,0.0,0.0,0.0,0.0,0.0,4.6752702e-05,0.0,0.0,nan,0.0,0.0,0.0,0.0,0.00011394192,inf,0.0,0.0,0.0010112472,0.0,0.0,0.0,0.0,0.0,0.0,0.0,0.0
5452000,5372000,4.0065377e-05,0.0,0.00028559755,2.2235765e-06,0.0,2.978383e-06,0.0,0.0,0.0,0.0,0.0,0.0,0.0,4.6752702e-05,0.0,0.0,nan,0.0,0.0,0.0,0.0,0.00011394192,inf,0.0,0.0,0.00017611572,0.0,0.0,0.0,0.0,0.0,0.0,0.0,0.0
