timestamp,timestamp_sample,xyz[0],xyz[1],xyz[2]
3180000,3180000,-0.22569123,0.19066775,-9.953415
3184000,3184000,-0.23281792,0.18964663,-9.950008
3232000,3232000,-0.18639508,0.17016509,-9.955598
3280000,3280000,-0.19913325,0.20033406,-9.924202
3332000,3332000,-0.21898346,0.19511908,-9.931635
3380000,3380000,-0.19030344,0.20930834,-9.910369
3432000,3432000,-0.22087629,0.17932333,-9.827884
3480000,3480000,-0.19269066,0.20571615,-9.823695
3532000,3532000,-0.19737795,0.19245875,-9.827939
3580000,3580000,-0.21874496,0.18190424,-9.820517
3632000,3632000,-0.20978585,0.21527812,-9.815571
3676000,3676000,-0.20900354,0.17573044,-9.823706
3728000,3728000,-0.20507187,0.2090397,-9.792692
3780000,3780000,-0.2032907,0.17838933,-9.826193
3828000,3828000,-0.22714546,0.17536739,-9.814071
3876000,3876000,-0.23893532,0.17877555,-9.846002
3928000,3928000,-0.22020736,0.22585322,-9.802131
3980000,3980000,-0.21733151,0.19462809,-9.827734
4032000,4032000,-0.2291859,0.18496439,-9.801177
4080000,4080000,-0.2291665,0.1999093,-9.808396
4132000,4132000,-0.20707485,0.22659628,-9.828827
4180000,4180000,-0.23572649,0.20150788,-9.799021
4232000,4232000,-0.19775417,0.19451989,-9.816685
4276000,4276000,-0.22246888,0.21529603,-9.805479
4332000,4332000,-0.24382752,0.18098722,-9.827057
4380000,4380000,-0.20204777,0.18864775,-9.820657
4428000,4428000,-0.21962737,0.18022364,-9.7880945
4480000,4480000,-0.232797,0.18183304,-9.821365
4532000,4532000,-0.21803032,0.17232807,-9.818703
4580000,4580000,-0.1973009,0.19672498,-9.795767
4632000,4632000,-0.22526853,0.17252642,-9.817329
4680000,4680000,-0.22394854,0.1875271,-9.811758
4732000,4732000,-0.2170292,0.17573915,-9.794215
4780000,4780000,-0.22387777,0.19706997,-9.79233
4828000,4828000,-0.23981893,0.21071084,-9.832938
4880000,4880000,-0.21907583,0.16139588,-9.835313
4932000,4932000,-0.19086505,0.19336544,-9.826148
4980000,4980000,-0.20903592,0.16921368,-9.810572
5032000,5032000,-0.21078306,0.16670093,-9.814556
5080000,5080000,-0.21791616,0.1729475,-9.848386
5132000,5132000,-0.18978876,0.17774278,-9.818378
5180000,5180000,-0.22312209,0.19612357,-9.814386
5232000,5232000,-0.19799407,0.2271815,-9.777191
5280000,5280000,-0.21674147,0.20766182,-9.843195
5332000,5332000,-0.21605033,0.18320295,-9.790528
5380000,5380000,-0.21180594,0.19052774,-9.81005
5432000,5432000,-0.21655868,0.16488867,-9.833316
5480000,5480000,-0.20864229,0.19844061,-9.822995
5532000,5532000,-0.19090657,0.17062405,-9.796577
5580000,5580000,-0.22853127,0.17840853,-9.805985
5632000,5632000,-0.22196177,0.15808876,-9.794637
5680000,5680000,-0.20466562,0.18026507,-9.793667
5732000,5732000,-0.20241037,0.18686016,-9.8122635
5780000,5780000,-0.21105966,0.1877504,-9.828902
5832000,5832000,-0.2326761,0.14989299,-9.835075
5880000,5880000,-0.19869213,0.18267815,-9.790317
5932000,5932000,-0.21591063,0.19085512,-9.820219
5980000,5980000,-0.22340757,0.18164611,-9.822501
6028000,6028000,-0.2104014,0.1808577,-9.819098
6076000,6076000,-0.21924892,0.17232043,-9.790863
6132000,6132000,-0.19109452,0.18849513,-9.804535
6176000,6176000,-0.23975345,0.17301042,-9.794105
6232000,6232000,-0.2412677,0.20845632,-9.815648
6280000,6280000,-0.22624654,0.19766986,-9.788429
6332000,6332000,-0.22879611,0.17126262,-9.806226
6380000,6380000,-0.2226089,0.17843798,-9.786595
6432000,6432000,-0.20412734,0.1954836,-9.794577
6480000,6480000,-0.19213283,0.187683,-9.822067
6532000,6532000,-0.20894395,0.16715905,-9.817873
6576000,6576000,-0.19517082,0.1778027,-9.818281
6632000,6632000,-0.21327765,0.20240243,-9.833935
6680000,6680000,-0.20666778,0.1876183,-9.7884
6732000,6732000,-0.19846907,0.18121198,-9.783155
6780000,6780000,-0.18250412,0.19095615,-9.806109
6832000,6832000,-0.20074224,0.18959425,-9.816542
6880000,6880000,-0.21999756,0.21015055,-9.821363
6932000,6932000,-0.20411062,0.18103078,-9.804718
6980000,6980000,-0.20373292,0.1826748,-9.800936
7032000,7032000,-0.20474574,0.18652707,-9.804146
7080000,7080000,-0.20969963,0.19609717,-9.7913
7132000,7132000,-0.2107107,0.20212251,-9.814745
7180000,7180000,-0.19694301,0.20307572,-9.809458
7232000,7232000,-0.2112731,0.161392,-9.796415
7276000,7276000,-0.19788918,0.16920805,-9.840549
7332000,7332000,-0.20675483,0.17777441,-9.78213
7380000,7380000,-0.19193573,0.16407907,-9.778767
7432000,7432000,-0.2156985,0.18148498,-9.790866
7480000,7480000,-0.21218866,0.17445552,-9.825248
7532000,7532000,-0.21273257,0.18785602,-9.797376
7580000,7580000,-0.21298765,0.18516594,-9.806525
7632000,7632000,-0.20981142,0.15348893,-9.807208
7680000,7680000,-0.22159632,0.18106043,-9.799868
7732000,7732000,-0.2274353,0.16434449,-9.812178
7780000,7780000,-0.20245275,0.19359148,-9.804148
7832000,7832000,-0.20852476,0.16802695,-9.8249855
7876000,7876000,-0.18190819,0.17699228,-9.794193
7932000,7932000,-0.22693199,0.15407369,-9.814206
7980000,7980000,-0.20764676,0.15394358,-9.809713
8028000,8028000,-0.21114437,0.16852444,-9.806169
8080000,8080000,-0.20660304,0.16980602,-9.8292265
8132000,8132000,-0.2254942,0.19854404,-9.802278
8180000,8180000,-0.21200284,0.18640892,-9.810939
8232000,8232000,-0.19590786,0.16411284,-9.798927
8280000,8280000,-0.17919025,0.17706849,-9.802777
8332000,8332000,-0.21878074,0.13631248,-9.818474
8380000,8380000,-0.20099835,0.17368096,-9.822587
8432000,8432000,-0.20017198,0.16803841,-9.787793
8480000,8480000,-0.21271215,0.19272818,-9.786036
8528000,8528000,-0.20152892,0.21817318,-9.797312
8580000,8580000,-0.21382234,0.1656703,-9.822321
8628000,8628000,-0.20267965,0.18407583,-9.79413
8676000,8676000,-0.19189802,0.20009673,-9.790585
8728000,8728000,-0.18846723,0.2000321,-9.806273
8776000,8776000,-0.19086751,0.19187446,-9.801354
8832000,8832000,-0.20129639,0.18938704,-9.808921
8880000,8880000,-0.19776428,0.19683348,-9.809055
8932000,8932000,-0.1626205,0.15218565,-9.764305
8980000,8980000,-0.18331611,0.19489655,-9.788803
9032000,9032000,-0.20148143,0.18504134,-9.795885
9080000,9080000,-0.19800241,0.18193498,-9.800087
9128000,9128000,-0.18288977,0.19158225,-9.807359
9176000,9176000,-0.17988682,0.16225173,-9.806803
9228000,9228000,-0.19285773,0.16148518,-9.786726
9276000,9276000,-0.19101888,0.17203817,-9.798904
9328000,9328000,-0.22058293,0.16753024,-9.786925
9380000,9380000,-0.21559455,0.17353645,-9.796582
9428000,9428000,-0.21228091,0.15343069,-9.797926
9476000,9476000,-0.18996628,0.16975413,-9.807943
9532000,9532000,-0.1865086,0.15798207,-9.832662
9580000,9580000,-0.19454667,0.18165216,-9.791332
9632000,9632000,-0.19792832,0.19456723,-9.814483
9680000,9680000,-0.19763094,0.16323715,-9.783364
9732000,9732000,-0.18047689,0.17373008,-9.778217
9776000,9776000,-0.19200268,0.1863606,-9.792041
9832000,9832000,-0.22819796,0.16981551,-9.799366
9880000,9880000,-0.18213506,0.17558013,-9.800488
9932000,9932000,-0.19154347,0.16324228,-9.793826
9980000,9980000,-0.20015432,0.19537471,-9.783289
10028000,10028000,-0.19952859,0.19094574,-9.786918
10080000,10080000,-0.20396313,0.15855321,-9.796024
10132000,10132000,-0.22743341,0.17814535,-9.805851
10180000,10180000,-0.17877357,0.1694232,-9.783128
10232000,10232000,-0.20390075,0.1589837,-9.801352
10280000,10280000,-0.17492425,0.16177067,-9.81036
10332000,10332000,-0.2046717,0.17239442,-9.794457
10380000,10380000,-0.18054834,0.16593191,-9.809625
10432000,10432000,-0.22096732,0.16663006,-9.774054
10480000,10480000,-0.19693801,0.17889133,-9.783545
10528000,10528000,-0.1958893,0.18430838,-9.7996235
10576000,10576000,-0.18074644,0.19204721,-9.798925
10628000,10628000,-0.17806618,0.14765753,-9.808061
10676000,10676000,-0.19212061,0.1293478,-9.782667
10732000,10732000,-0.18862018,0.14255841,-9.798715
10780000,10780000,-0.19947532,0.17504275,-9.775314
10832000,10832000,-0.19249439,0.17554393,-9.766692
10880000,10880000,-0.19214132,0.18861169,-9.795132
10932000,10932000,-0.19823462,0.16719581,-9.794423
10980000,10980000,-0.20382984,0.17537393,-9.796073
11032000,11032000,-0.22800454,0.1553837,-9.774459
11080000,11080000,-0.2103365,0.1720365,-9.799521
11132000,11132000,-0.16590689,0.15975538,-9.783936
11176000,11176000,-0.20330097,0.16440731,-9.779271
11232000,11232000,-0.18225308,0.15609176,-9.80611
11280000,11280000,-0.19041267,0.15246472,-9.795488
11332000,11332000,-0.20574772,0.1433497,-9.800958
11380000,11380000,-0.16163938,0.18303882,-9.786891
11432000,11432000,-0.19504064,0.137247,-9.786436
11480000,11480000,-0.17895825,0.16923009,-9.776352
11532000,11532000,-0.2082131,0.15471725,-9.786817
11580000,11580000,-0.21581228,0.14127442,-9.797426
11632000,11632000,-0.19037373,0.17695738,-9.773294
11676000,11676000,-0.21946378,0.1829713,-9.798119
11728000,11728000,-0.21095777,0.15253288,-9.807017
11776000,11776000,-0.16992353,0.17358962,-9.789988
11832000,11832000,-0.22377262,0.15437077,-9.781561
11880000,11880000,-0.18931419,0.19726668,-9.821016
11932000,11932000,-0.17838475,0.16046321,-9.789244
11980000,11980000,-0.19513191,0.16469015,-9.787056
12032000,12032000,-0.18214938,0.17502666,-9.778258
12080000,12080000,-0.1995233,0.15518667,-9.80724
12132000,12132000,-0.19775599,0.13391781,-9.7923565
12176000,12176000,-0.18325034,0.14821196,-9.785283
12232000,12232000,-0.187886,0.16162463,-9.78925
12280000,12280000,-0.20814168,0.15779862,-9.800655
12328000,12328000,-0.20341802,0.160695,-9.785204
12380000,12380000,-0.19707045,0.17129163,-9.808854
12428000,12428000,-0.20372352,0.16541603,-9.770614
12480000,12480000,-0.20468134,0.169228,-9.775141
12532000,12532000,-0.16390218,0.16541466,-9.78761
12580000,12580000,-0.17600542,0.17967945,-9.810799
12632000,12632000,-0.16869141,0.18025991,-9.772823
12680000,12680000,-0.20347926,0.20228732,-9.802658
12732000,12732000,-0.20429692,0.19445926,-9.815495
12780000,12780000,-0.17528188,0.15902364,-9.794449
12832000,12832000,-0.19349122,0.17642297,-9.789383
12880000,12880000,-0.17130218,0.17799702,-9.785916
12932000,12932000,-0.19706132,0.14970304,-9.777136
12980000,12980000,-0.19096719,0.1993839,-9.761369
13032000,13032000,-0.1793535,0.1617569,-9.792955
13080000,13080000,-0.1844809,0.15571386,-9.8014345
13132000,13132000,-0.17545451,0.19208276,-9.789434
13180000,13180000,-0.18894432,0.16977376,-9.786771
13232000,13232000,-0.20789316,0.19790083,-9.809984
13280000,13280000,-0.19887878,0.1700969,-9.791961
13332000,13332000,-0.19714253,0.15857992,-9.788428
13380000,13380000,-0.18952242,0.16270044,-9.7896595
13432000,13432000,-0.19662301,0.16246846,-9.780612
13480000,13480000,-0.17236564,0.17213783,-9.800886
13532000,13532000,-0.1936528,0.15883298,-9.816938
13580000,13580000,-0.18309243,0.16446844,-9.783516
13632000,13632000,-0.17338434,0.1654352,-9.81201
13676000,13676000,-0.16951357,0.17046398,-9.813555
13732000,13732000,-0.20662361,0.173124,-9.80662
13780000,13780000,-0.22229764,0.17233148,-9.780325
13832000,13832000,-0.17403862,0.16150041,-9.772678
13876000,13876000,-0.20224008,0.13944411,-9.82481
13932000,13932000,-0.1971364,0.18686113,-9.774029
13980000,13980000,-0.16364697,0.15140608,-9.798359
14032000,14032000,-0.17673242,0.16070718,-9.797528
14080000,14080000,-0.17516994,0.15431051,-9.782427
14132000,14132000,-0.20195399,0.14257514,-9.815115
14180000,14180000,-0.18183625,0.15429698,-9.805916
14232000,14232000,-0.18588409,0.17715266,-9.779597
14280000,14280000,-0.16282439,0.17788073,-9.803377
14332000,14332000,-0.17338184,0.14746864,-9.804248
14380000,14380000,-0.19125123,0.13206212,-9.78663
14432000,14432000,-0.19185843,0.18384781,-9.810102
14480000,14480000,-0.17592455,0.16170624,-9.79615
14532000,14532000,-0.17019069,0.17740425,-9.794137
14576000,14576000,-0.17470159,0.15833457,-9.804696
14628000,14628000,-0.15526071,0.13042188,-9.806038
14676000,14676000,-0.20611095,0.17444749,-9.779811
14728000,14728000,-0.19199954,0.157473,-9.797529
14776000,14776000,-0.19762893,0.15717566,-9.808023
14832000,14832000,-0.18466985,0.1607382,-9.806021
14876000,14876000,-0.20123288,0.16459133,-9.790101
14932000,14932000,-0.16651726,0.18685608,-9.794191
14980000,14980000,-0.19146533,0.15023977,-9.779187
15032000,15032000,-0.17308354,0.1547271,-9.776062
15080000,15080000,-0.18486285,0.16228096,-9.778137
15132000,15132000,-0.19775063,0.14605346,-9.813355
15180000,15180000,-0.18785481,0.165905,-9.793392
15232000,15232000,-0.15681942,0.1691868,-9.803066
15276000,15276000,-0.17449099,0.17904703,-9.779527
15332000,15332000,-0.18346612,0.15516956,-9.815552
15376000,15376000,-0.1669741,0.17068017,-9.785634
15432000,15432000,-0.15795928,0.15117304,-9.796225
15480000,15480000,-0.14375252,0.17306867,-9.825941
15532000,15532000,-0.1831356,0.14334321,-9.772167
15576000,15576000,-0.19783422,0.1265531,-9.792191
15632000,15632000,-0.20545366,0.15333362,-9.814032
15680000,15680000,-0.17050299,0.16320498,-9.780237
15732000,15732000,-0.19444191,0.15254965,-9.806333
15776000,15776000,-0.1552402,0.14282978,-9.811231
15832000,15832000,-0.16435558,0.1384646,-9.796924
15880000,15880000,-0.1773058,0.15976268,-9.781042
15932000,15932000,-0.18009584,0.15508734,-9.761503
15980000,15980000,-0.17694458,0.13774338,-9.765017
16032000,16032000,-0.1783678,0.14607237,-9.788591
16076000,16076000,-0.15317354,0.15894327,-9.794958
16132000,16132000,-0.18505415,0.15222509,-9.753077
16180000,16180000,-0.1764452,0.13709691,-9.773078
16232000,16232000,-0.16941746,0.15809007,-9.779924
16280000,16280000,-0.16427928,0.1572648,-9.792426
16332000,16332000,-0.19201222,0.15319595,-9.784899
16380000,16380000,-0.17957273,0.14758468,-9.783232
16428000,16428000,-0.16427033,0.13854524,-9.776145
16480000,16480000,-0.15197772,0.16804358,-9.792273
16528000,16528000,-0.17147404,0.150565,-9.764011
16580000,16580000,-0.15956312,0.1553028,-9.787074
16632000,16632000,-0.15613377,0.12487389,-9.803623
16680000,16680000,-0.17088002,0.17552103,-9.80483
16732000,16732000,-0.16126248,0.17084807,-9.777673
16780000,16780000,-0.1813736,0.14073165,-9.766533
16828000,16828000,-0.16012317,0.16171086,-9.785854
16880000,16880000,-0.1461848,0.16130044,-9.767505
16932000,16932000,-0.1844553,0.1348845,-9.783438
16980000,16980000,-0.17907009,0.13573268,-9.77529
17032000,17032000,-0.14175998,0.15711781,-9.782588
17080000,17080000,-0.1956896,0.17269617,-9.789421
17132000,17132000,-0.1585202,0.14386177,-9.779075
17180000,17180000,-0.1538689,0.15186581,-9.782743
17232000,17232000,-0.19193858,0.13354029,-9.788319
17276000,17276000,-0.16761759,0.15436047,-9.800003
17332000,17332000,-0.19286303,0.159399,-9.792568
17380000,17380000,-0.16836776,0.15694845,-9.775637
17432000,17432000,-0.16296501,0.160389,-9.808853
17480000,17480000,-0.1766721,0.14925802,-9.8217945
17532000,17532000,-0.17134911,0.15831129,-9.812453
17580000,17580000,-0.16906461,0.13940234,-9.821264
17632000,17632000,-0.16709167,0.17861554,-9.776043
17680000,17680000,-0.17826489,0.14681219,-9.797085
17732000,17732000,-0.17925322,0.14834593,-9.7861395
17780000,17780000,-0.13763185,0.14789857,-9.817253
17832000,17832000,-0.12690517,0.16875106,-9.794602
17880000,17880000,-0.150354,0.13844717,-9.785938
17932000,17932000,-0.1666088,0.13029118,-9.796783
17980000,17980000,-0.15671477,0.17187086,-9.984795
18028000,18028000,-0.13572617,0.18348938,-10.06659
18076000,18076000,-0.13449027,0.13715896,-10.148001
18132000,18132000,-0.14429371,0.07591971,-10.249123
18180000,18180000,-0.09212819,0.007764074,-10.238743
18232000,18232000,-0.019226631,-0.06946191,-10.25312
18280000,18280000,-0.12416512,0.12976539,-10.161598
18332000,18332000,-0.16533959,0.1393911,-10.271475
18380000,18380000,-0.1759215,0.12690157,-10.412777
18432000,18432000,-0.1566115,0.11553933,-10.545085
18480000,18480000,-0.11981715,0.1206429,-10.6400175
18532000,18532000,-0.11665751,0.06989538,-10.675941
18580000,18580000,-0.09910485,0.109888926,-10.7137375
18632000,18632000,-0.083096616,0.08845917,-10.73006
18680000,18680000,-0.08731366,0.063604966,-10.741152
18732000,18732000,-0.06898166,0.086134866,-10.741364
18780000,18780000,-0.062323757,0.072917424,-10.697986
18832000,18832000,-0.11706832,0.08039161,-10.62562
18876000,18876000,-0.13079944,0.07468023,-10.398516
18928000,18928000,-0.09516742,0.085632555,-10.131438
18980000,18980000,-0.09604957,0.08648211,-9.900463
19032000,19032000,-0.080796055,0.09137175,-9.656322
19080000,19080000,-0.09403133,0.09123686,-9.608117
19132000,19132000,-0.10915257,0.07435474,-9.747785
19180000,19180000,-0.11291124,0.114162676,-9.850643
19228000,19228000,-0.10466918,0.101538196,-9.916904
19280000,19280000,-0.08173815,0.08302476,-9.981277
19332000,19332000,-0.10014865,0.10806027,-9.953737
19380000,19380000,-0.10528587,0.08098112,-9.94939
19432000,19432000,-0.11029198,0.12731406,-9.983166
19480000,19480000,-0.12531096,0.09653426,-9.945311
19532000,19532000,-0.13227192,0.10997874,-9.895307
19580000,19580000,-0.12949052,0.13215974,-9.907649
19632000,19632000,-0.14460081,0.13235082,-9.903548
19680000,19680000,-0.13345778,0.14170823,-9.879882
19732000,19732000,-0.13784167,0.14497809,-9.8383045
19780000,19780000,-0.11483616,0.120217904,-9.870136
19832000,19832000,-0.15335901,0.1477658,-9.848038
19880000,19880000,-0.14699557,0.14683801,-9.869304
19932000,19932000,-0.1315585,0.13060582,-9.855511
19980000,19980000,-0.15280578,0.15035914,-9.793928
20032000,20032000,-0.1642128,0.14584848,-9.784323
20080000,20080000,-0.13151525,0.14946388,-9.802925
20132000,20132000,-0.13206713,0.17860655,-9.776529
20176000,20176000,-0.19719182,0.17448899,-9.752438
20232000,20232000,-0.1652962,0.16280845,-9.768183
20280000,20280000,-0.1654872,0.16856207,-9.75351
20332000,20332000,-0.17661151,0.17744756,-9.713537
20376000,20376000,-0.15183592,0.17389125,-9.73729
20432000,20432000,-0.17172644,0.18642893,-9.743771
20480000,20480000,-0.20091175,0.17484698,-9.709236
20532000,20532000,-0.17435563,0.19478267,-9.711931
20580000,20580000,-0.1957297,0.18225083,-9.680084
20632000,20632000,-0.19015092,0.15248635,-9.713404
20680000,20680000,-0.19428442,0.19801338,-9.714024
20732000,20732000,-0.2011438,0.19615257,-9.668498
20780000,20780000,-0.18995768,0.19831343,-9.660888
20832000,20832000,-0.15950379,0.2089638,-9.66418
20880000,20880000,-0.18265675,0.18972242,-9.683704
20932000,20932000,-0.18386836,0.20043977,-9.648248
20980000,20980000,-0.19106384,0.19968459,-9.654675
21032000,21032000,-0.1926225,0.2004679,-9.655693
21080000,21080000,-0.20278908,0.19536975,-9.656033
21132000,21132000,-0.19613108,0.21623275,-9.607527
21180000,21180000,-0.19975749,0.21595407,-9.616065
21232000,21232000,-0.20160088,0.18440992,-9.603998
21280000,21280000,-0.22080794,0.19053009,-9.596754
21332000,21332000,-0.21319744,0.19112754,-9.4946
21380000,21380000,-0.19300714,0.1812633,-9.3246
21432000,21432000,-0.19366819,0.19450675,-9.101953
21480000,21480000,-0.20665216,0.20308995,-8.9050045
21532000,21532000,-0.20048252,0.18612243,-8.686283
21580000,21580000,-0.19192602,0.1877816,-8.545252
21632000,21632000,-0.21493608,0.19009805,-8.621573
21680000,21680000,-0.19872399,0.2012774,-8.894981
21732000,21732000,-0.19078013,0.18837512,-9.119389
21780000,21780000,-0.21866673,0.18735749,-9.301149
21828000,21828000,-0.21181357,0.20189783,-9.536776
21880000,21880000,-0.190142,0.19708079,-9.698009
21932000,21932000,-0.2269719,0.20794886,-9.826971
21980000,21980000,-0.19765376,0.1753184,-9.9273815
22032000,22032000,-0.18400624,0.17263009,-10.0256605
22080000,22080000,-0.19238016,0.16971952,-10.059139
22132000,22132000,-0.19029304,0.18832676,-10.005039
22180000,22180000,-0.2034857,0.18403496,-9.942115
22232000,22232000,-0.20566985,0.19556434,-9.872411
22276000,22276000,-0.19941211,0.19293894,-9.825263
22328000,22328000,-0.19999167,0.20382127,-9.773766
22376000,22376000,-0.18954062,0.20323637,-9.756206
22432000,22432000,-0.19317538,0.16688356,-9.747823
22476000,22476000,-0.18895379,0.18532476,-9.743786
22532000,22532000,-0.16031307,0.17737201,-9.722506
22580000,22580000,-0.17023362,0.14912601,-9.74276
22628000,22628000,-0.17862502,0.17245273,-9.725944
22680000,22680000,-0.18158491,0.19014165,-9.7542515
22732000,22732000,-0.14259872,0.1676701,-9.7459135
22780000,22780000,-0.18612391,0.17077096,-9.740979
22832000,22832000,-0.16862276,0.15951276,-9.74745
22876000,22876000,-0.17299193,0.17234948,-9.733204
22932000,22932000,-0.16399737,0.18191981,-9.748432
22980000,22980000,-0.13129492,0.17445135,-9.785996
23028000,23028000,-0.1560095,0.18647522,-9.765642
23080000,23080000,-0.14806047,0.14628175,-9.744098
23132000,23132000,-0.1541379,0.17728028,-9.701026
23180000,23180000,-0.13451794,0.17913602,-9.690938
23228000,23228000,-0.15075113,0.1899531,-9.722118
23276000,23276000,-0.16611025,0.17410089,-9.711329
23332000,23332000,-0.1412037,0.1677752,-9.72033
23380000,23380000,-0.13692725,0.1664936,-9.738074
23432000,23432000,-0.12865856,0.16913156,-9.733408
23480000,23480000,-0.14667583,0.17831928,-9.733041
23532000,23532000,-0.14392963,0.15938494,-9.697514
23576000,23576000,-0.12023714,0.18691494,-9.681883
23628000,23628000,-0.13812086,0.17235659,-9.697367
23676000,23676000,-0.1296427,0.17399736,-9.724533
23732000,23732000,-0.1298013,0.15660071,-9.752645
23776000,23776000,-0.14277709,0.16747582,-9.717306
23828000,23828000,-0.14114049,0.17930402,-9.759202
23880000,23880000,-0.14719766,0.17555636,-9.760767
23928000,23928000,-0.1596472,0.16488054,-9.715881
23980000,23980000,-0.119118676,0.17277081,-9.7304325
24032000,24032000,-0.11868122,0.15482645,-9.71933
24080000,24080000,-0.13859409,0.16722971,-9.706998
24132000,24132000,-0.15198119,0.16381042,-9.749918
24180000,24180000,-0.15501325,0.15539058,-9.736843
24232000,24232000,-0.15860346,0.15106189,-9.753893
24280000,24280000,-0.15050453,0.13803333,-9.760704
24332000,24332000,-0.14610185,0.1605272,-9.722019
24380000,24380000,-0.15444244,0.14834401,-9.671246
24432000,24432000,-0.14789547,0.1616207,-9.70499
24480000,24480000,-0.14743508,0.14062488,-9.722408
24532000,24532000,-0.13713406,0.14600271,-9.698144
24580000,24580000,-0.12495525,0.16033563,-9.713192
24632000,24632000,-0.14193454,0.16088489,-9.747627
24680000,24680000,-0.1415841,0.1657753,-9.757676
24732000,24732000,-0.15883592,0.14697391,-9.731869
24780000,24780000,-0.13479143,0.16231659,-9.7338
24828000,24828000,-0.15011398,0.15904298,-9.755555
24880000,24880000,-0.15547122,0.16105458,-9.777833
24932000,24932000,-0.15155104,0.1488042,-9.754945
24976000,24976000,-0.13932379,0.14876272,-9.773915
25032000,25032000,-0.13281919,0.1592558,-9.776928
25080000,25080000,-0.15289676,0.16496648,-9.799312
25132000,25132000,-0.17149809,0.15985747,-9.770525
25180000,25180000,-0.17927986,0.16191769,-9.778158
25232000,25232000,-0.16341399,0.16884908,-9.781951
25280000,25280000,-0.13017818,0.16525318,-9.783067
25332000,25332000,-0.155782,0.15622635,-9.77495
25380000,25380000,-0.17424536,0.1711843,-9.793919
25432000,25432000,-0.14085199,0.1653101,-9.777355
25480000,25480000,-0.1633111,0.15651447,-9.801653
25532000,25532000,-0.1787352,0.16946112,-9.744715
25580000,25580000,-0.18381944,0.16500723,-9.744879
25632000,25632000,-0.17222364,0.17789519,-9.760687
25680000,25680000,-0.16794758,0.14323933,-9.779802
25732000,25732000,-0.16398816,0.17519006,-9.769939
25780000,25780000,-0.15810096,0.17613769,-9.734226
25832000,25832000,-0.18742429,0.16662264,-9.787625
25880000,25880000,-0.1583148,0.17561655,-9.779033
25932000,25932000,-0.16645026,0.16461974,-9.75979
25976000,25976000,-0.16904564,0.20124932,-9.738797
26028000,26028000,-0.18703786,0.15729302,-9.754662
26080000,26080000,-0.15924935,0.16012603,-9.733011
26132000,26132000,-0.14514734,0.18776965,-9.74898
26180000,26180000,-0.16141479,0.16374777,-9.777592
26232000,26232000,-0.15081519,0.15263186,-9.789829
26280000,26280000,-0.17363566,0.16845396,-9.762578
26328000,26328000,-0.1466651,0.16293105,-9.730852
26376000,26376000,-0.19532451,0.19231734,-9.737683
26432000,26432000,-0.19730286,0.16528751,-9.716423
26480000,26480000,-0.18460777,0.18814032,-9.739086
26532000,26532000,-0.18046093,0.18197002,-9.776679
26580000,26580000,-0.15861976,0.19810562,-9.78479
26632000,26632000,-0.16633254,0.18352973,-9.766165
26680000,26680000,-0.17624635,0.16830173,-9.780233
26732000,26732000,-0.17812976,0.18132699,-9.7591095
26780000,26780000,-0.1711225,0.18904202,-9.735831
26832000,26832000,-0.18632638,0.18127471,-9.717125
26876000,26876000,-0.1821107,0.16949789,-9.724752
26928000,26928000,-0.17409807,0.1707563,-9.762301
26980000,26980000,-0.18844493,0.19975525,-9.778024
27032000,27032000,-0.19274747,0.18017784,-9.793129
27080000,27080000,-0.19475283,0.19145551,-9.790686
27128000,27128000,-0.16710858,0.16787817,-9.78622
27176000,27176000,-0.15458229,0.17395382,-9.784088
27228000,27228000,-0.18749917,0.19577107,-9.791509
27276000,27276000,-0.19164386,0.17938878,-9.782401
27332000,27332000,-0.17785536,0.19955656,-9.803663
27376000,27376000,-0.18895246,0.19641912,-9.779002
27432000,27432000,-0.14338352,0.17017871,-9.803696
27480000,27480000,-0.17232355,0.2028988,-9.806726
27532000,27532000,-0.1606578,0.16956049,-9.758055
27580000,27580000,-0.16064902,0.21165699,-9.751532
27632000,27632000,-0.17720689,0.19882089,-9.752146
27680000,27680000,-0.18969688,0.18823004,-9.772744
27732000,27732000,-0.18658772,0.18131386,-9.770775
27780000,27780000,-0.18530832,0.18603607,-9.790335
27832000,27832000,-0.15854535,0.20595083,-9.805651
27880000,27880000,-0.17530815,0.18490145,-9.801296
27932000,27932000,-0.1793945,0.19603226,-9.774761
27980000,27980000,-0.17184871,0.18481871,-9.75505
28032000,28032000,-0.15771148,0.1586436,-9.7737665
28080000,28080000,-0.16391921,0.18959095,-9.774717
28132000,28132000,-0.17523527,0.20085734,-9.753771
28180000,28180000,-0.16492525,0.1683378,-9.803275
28232000,28232000,-0.17495498,0.18656373,-9.792831
28280000,28280000,-0.18010662,0.1884844,-9.763639
28332000,28332000,-0.1623157,0.1918843,-9.7709055
28380000,28380000,-0.15577555,0.18385923,-9.75776
28432000,28432000,-0.18575323,0.17958346,-9.72936
28480000,28480000,-0.16099823,0.1732186,-9.757084
28532000,28532000,-0.17508689,0.18730325,-9.747094
28580000,28580000,-0.15362158,0.1687038,-9.771938
28632000,28632000,-0.15934607,0.19235405,-9.761723
28680000,28680000,-0.1819661,0.17791227,-9.769901
28732000,28732000,-0.17243198,0.1562272,-9.748715
28780000,28780000,-0.19538558,0.19571021,-9.75096
28832000,28832000,-0.15080127,0.1804094,-9.75116
28876000,28876000,-0.16794118,0.1696868,-9.763307
28932000,28932000,-0.16207784,0.17251186,-9.749325
28980000,28980000,-0.15281431,0.19671014,-9.783289
29032000,29032000,-0.15843701,0.21022016,-9.799759
29080000,29080000,-0.1894813,0.2075897,-9.769075
29132000,29132000,-0.19760163,0.1767806,-9.761056
29176000,29176000,-0.1606009,0.17222792,-9.725981
29232000,29232000,-0.17661801,0.1644113,-9.723975
29280000,29280000,-0.16550767,0.14873353,-9.739668
29332000,29332000,-0.17246795,0.1762495,-9.716759
29380000,29380000,-0.1760623,0.18405366,-9.781786
29432000,29432000,-0.17612118,0.19905183,-9.77684
29480000,29480000,-0.15592372,0.17049748,-9.804934
29532000,29532000,-0.19290352,0.16726886,-9.764447
29580000,29580000,-0.17030288,0.17924568,-9.775991
29632000,29632000,-0.18692097,0.16449878,-9.78647
29676000,29676000,-0.15713704,0.17707434,-9.814338
29728000,29728000,-0.19124585,0.1750811,-9.789408
29780000,29780000,-0.20352653,0.14953431,-9.83343
29832000,29832000,-0.17856072,0.19918157,-9.797806
29880000,29880000,-0.20043266,0.18354253,-9.822042
29932000,29932000,-0.19780485,0.19357046,-9.790186
29980000,29980000,-0.1732395,0.16777764,-9.761041
30028000,30028000,-0.16601656,0.15357605,-9.799837
30076000,30076000,-0.17149219,0.14195167,-9.788759
30128000,30128000,-0.17799816,0.15044834,-9.786807
30176000,30176000,-0.1945892,0.17115542,-9.797974
30228000,30228000,-0.17416145,0.15669191,-9.791692
30276000,30276000,-0.16495861,0.16925555,-9.797837
30328000,30328000,-0.18044433,0.15418419,-9.770084
30380000,30380000,-0.19263606,0.15549894,-9.761756
30432000,30432000,-0.1818851,0.153037,-9.725894
30480000,30480000,-0.18906155,0.17581931,-9.756576
30532000,30532000,-0.20850223,0.17008273,-9.768587
30580000,30580000,-0.17590442,0.1625475,-9.766959
30628000,30628000,-0.18149342,0.17454477,-9.798485
30676000,30676000,-0.19331,0.14797375,-9.808063
30728000,30728000,-0.15567826,0.2043027,-9.777487
30780000,30780000,-0.17399058,0.18593667,-9.752161
30828000,30828000,-0.17253917,0.17589732,-9.722457
30880000,30880000,-0.16293871,0.16489118,-9.770996
30928000,30928000,-0.18707627,0.13367316,-9.789665
30980000,30980000,-0.19743446,0.1742306,-9.781157
31032000,31032000,-0.16237596,0.1757558,-9.762617
31080000,31080000,-0.19015542,0.16070345,-9.803381
31132000,31132000,-0.19339663,0.18804325,-9.780658
31180000,31180000,-0.21157642,0.14684282,-9.781226
31228000,31228000,-0.196096,0.16473517,-9.763084
31276000,31276000,-0.18494317,0.13757753,-9.7993555
31332000,31332000,-0.17703424,0.14167821,-9.821649
31380000,31380000,-0.19404742,0.1563508,-9.8221855
31428000,31428000,-0.18668185,0.16199622,-9.80378
31480000,31480000,-0.18132469,0.1642961,-9.819988
31532000,31532000,-0.16105704,0.1673691,-9.770673
31580000,31580000,-0.17275387,0.1556828,-9.7788925
31632000,31632000,-0.16877757,0.15406004,-9.7501545
31680000,31680000,-0.20574975,0.13577035,-9.765238
31732000,31732000,-0.17061496,0.16205065,-9.774463
31780000,31780000,-0.18089652,0.14959385,-9.7907095
31832000,31832000,-0.18690279,0.1464497,-9.811681
31880000,31880000,-0.1888685,0.14280519,-9.802984
31932000,31932000,-0.19055533,0.16956815,-9.76037
31980000,31980000,-0.22349201,0.17694609,-9.767496
32032000,32032000,-0.18313214,0.17378496,-9.751821
32080000,32080000,-0.2043801,0.16649428,-9.749339
32132000,32132000,-0.19252354,0.14914401,-9.769261
32180000,32180000,-0.18338405,0.14588268,-9.78061
32232000,32232000,-0.17316845,0.13758007,-9.793668
32280000,32280000,-0.18398477,0.14207336,-9.767481
32332000,32332000,-0.17470641,0.13116354,-9.782978
32380000,32380000,-0.20823362,0.14465001,-9.744686
32432000,32432000,-0.1865242,0.13588475,-9.741731
32480000,32480000,-0.155759,0.15194815,-9.765456
32528000,32528000,-0.16272414,0.15866819,-9.769929
32576000,32576000,-0.19881916,0.15018098,-9.764293
32632000,32632000,-0.2008183,0.1584397,-9.79999
32680000,32680000,-0.19521022,0.16053279,-9.780628
32732000,32732000,-0.194303,0.16470729,-9.75459
32776000,32776000,-0.1917837,0.14683148,-9.734479
32828000,32828000,-0.14934641,0.1384908,-9.737968
32876000,32876000,-0.20414235,0.13160482,-9.760273
32928000,32928000,-0.20987056,0.11454097,-9.778508
32976000,32976000,-0.18309878,0.13338101,-9.8209095
33032000,33032000,-0.1895183,0.15694329,-9.796003
33080000,33080000,-0.18985064,0.16970031,-9.766427
33132000,33132000,-0.20570812,0.15838695,-9.726375
33180000,33180000,-0.19771907,0.14638695,-9.745353
33232000,33232000,-0.16887401,0.13615158,-9.721704
33280000,33280000,-0.19600274,0.13905656,-9.731188
33332000,33332000,-0.20606673,0.12311568,-9.739867
33380000,33380000,-0.17993096,0.15800697,-9.768242
33432000,33432000,-0.16807993,0.14027458,-9.793084
33480000,33480000,-0.18946399,0.16185531,-9.797197
33532000,33532000,-0.19617468,0.15132442,-9.76128
33576000,33576000,-0.1953964,0.15328598,-9.767758
33628000,33628000,-0.16786775,0.14944005,-9.739766
33676000,33676000,-0.1628258,0.13307062,-9.757422
33732000,33732000,-0.1792086,0.15520233,-9.769897
33780000,33780000,-0.18903339,0.1538143,-9.818111
33828000,33828000,-0.1896293,0.17837667,-9.793967
33876000,33876000,-0.20569554,0.1304802,-9.827383
33932000,33932000,-0.19304329,0.14390907,-9.796908
33980000,33980000,-0.19293198,0.12942407,-9.795723
34032000,34032000,-0.19025934,0.15985772,-9.790251
34080000,34080000,-0.18307848,0.14421241,-9.801871
34132000,34132000,-0.17095771,0.15399083,-9.787174
34180000,34180000,-0.1917018,0.1461299,-9.79414
34232000,34232000,-0.21006514,0.14908668,-9.796372
34280000,34280000,-0.19254695,0.1442006,-9.816703
34328000,34328000,-0.19699365,0.17229846,-9.798572
34376000,34376000,-0.19908032,0.14674962,-9.75696
34428000,34428000,-0.21357688,0.15321343,-9.7645
34476000,34476000,-0.19222893,0.18579969,-9.747023
34532000,34532000,-0.19606173,0.14790499,-9.775352
34580000,34580000,-0.18533514,0.1740234,-9.778406
34632000,34632000,-0.19026525,0.16527714,-9.82057
34680000,34680000,-0.19999948,0.15905467,-9.810521
34728000,34728000,-0.21408589,0.16484864,-9.773106
34780000,34780000,-0.1714961,0.16370386,-9.76243
34828000,34828000,-0.2049148,0.16817911,-9.777326
34880000,34880000,-0.1838757,0.17178537,-9.748904
34932000,34932000,-0.19084245,0.16837353,-9.792133
34980000,34980000,-0.20719746,0.15688506,-9.790594
35032000,35032000,-0.1971679,0.13640548,-9.795553
35076000,35076000,-0.21682703,0.13748927,-9.793833
35128000,35128000,-0.20421654,0.14215678,-9.799479
35180000,35180000,-0.2203299,0.14742067,-9.801232
35232000,35232000,-0.2131095,0.1477154,-9.762846
35280000,35280000,-0.2000483,0.15704457,-9.763372
35332000,35332000,-0.20063859,0.15150341,-9.826135
35380000,35380000,-0.1826082,0.16472718,-9.796133
35432000,35432000,-0.19470675,0.14797686,-9.84332
35480000,35480000,-0.18388227,0.18389776,-9.808287
35532000,35532000,-0.1979905,0.14851296,-9.799641
35580000,35580000,-0.19972913,0.15144777,-9.771692
35632000,35632000,-0.20787627,0.16591936,-9.787556
35680000,35680000,-0.20352861,0.15897541,-9.7928505
35732000,35732000,-0.19291003,0.14584303,-9.821852
35780000,35780000,-0.20998986,0.14635327,-9.814722
35832000,35832000,-0.19343863,0.17631158,-9.79963
35880000,35880000,-0.1940244,0.18552862,-9.822851
35932000,35932000,-0.20372353,0.15092912,-9.798406
35980000,35980000,-0.22803459,0.14687146,-9.776103
36032000,36032000,-0.18134403,0.15273964,-9.788773
36080000,36080000,-0.20434773,0.15103528,-9.816413
36132000,36132000,-0.23093185,0.17392333,-9.828852
36180000,36180000,-0.23387638,0.17524664,-9.811601
36232000,36232000,-0.20819242,0.17815992,-9.81979
36280000,36280000,-0.21308091,0.16361535,-9.805609
36332000,36332000,-0.19199583,0.16187115,-9.7982025
36380000,36380000,-0.20301779,0.15754485,-9.7725315
36428000,36428000,-0.18812807,0.17545617,-9.778514
36480000,36480000,-0.19288984,0.1979769,-9.789438
36532000,36532000,-0.20254308,0.15353432,-9.784129
36580000,36580000,-0.18012801,0.15705036,-9.793451
36632000,36632000,-0.19985041,0.16834255,-9.79727
36676000,36676000,-0.21841897,0.17053433,-9.8122015
36732000,36732000,-0.1875859,0.1883926,-9.757265
36776000,36776000,-0.20184456,0.1684782,-9.758977
36832000,36832000,-0.17847972,0.17322299,-9.760995
36876000,36876000,-0.18592155,0.1677879,-9.783985
36928000,36928000,-0.18087567,0.1551468,-9.803749
36980000,36980000,-0.21333432,0.17514223,-9.810686
37032000,37032000,-0.15352961,0.16448975,-9.829779
37080000,37080000,-0.18530616,0.15009634,-9.798175
37132000,37132000,-0.18409276,0.18786639,-9.787648
37180000,37180000,-0.17098284,0.17705871,-9.808182
37232000,37232000,-0.19940871,0.1587807,-9.782898
37280000,37280000,-0.1777931,0.17320105,-9.814718
37332000,37332000,-0.15749638,0.17638066,-9.822399
37380000,37380000,-0.2031696,0.18051797,-9.8174095
37432000,37432000,-0.1837881,0.16984153,-9.8252325
37480000,37480000,-0.18571946,0.1540578,-9.791508
37532000,37532000,-0.190904,0.16124427,-9.785223
37580000,37580000,-0.19957641,0.17136176,-9.769531
37632000,37632000,-0.17711778,0.17077431,-9.765774
37680000,37680000,-0.18304884,0.18945475,-9.754236
37732000,37732000,-0.19986376,0.16449562,-9.771587
37780000,37780000,-0.1750724,0.13669789,-9.813248
37832000,37832000,-0.16147819,0.18400405,-9.814459
37876000,37876000,-0.1879904,0.20306626,-9.8306465
37928000,37928000,-0.171358,0.19505203,-9.778198
37976000,37976000,-0.16880241,0.19703007,-9.765306
38032000,38032000,-0.19337156,0.17026503,-9.749984
38076000,38076000,-0.17155594,0.18479411,-9.768391
38128000,38128000,-0.1856566,0.207069,-9.775257
38180000,38180000,-0.18260065,0.16597193,-9.724037
38228000,38228000,-0.18268871,0.19640633,-9.398717
38276000,38276000,-0.19848223,0.1909489,-9.006506
38328000,38328000,-0.17297032,0.15591803,-8.681463
38380000,38380000,-0.19929445,0.18702483,-8.38526
38432000,38432000,-0.19159062,0.17225718,-8.118467
38480000,38480000,-0.18064536,0.13758223,-7.926169
38532000,38532000,-0.21718752,0.15937002,-7.739359
38580000,38580000,-0.17604183,0.15681243,-7.591303
38628000,38628000,-0.20664595,0.15676865,-7.9823027
38676000,38676000,-0.20314083,0.17615288,-8.481121
38732000,38732000,-0.19951041,0.14583997,-8.943656
38776000,38776000,-0.20322128,0.16106147,-9.330828
38832000,38832000,-0.2098168,0.15812957,-9.684304
38876000,38876000,-0.18501428,0.15717342,-9.918068
38928000,38928000,-0.18699232,0.18021223,-10.199768
38976000,38976000,-0.19601354,0.16240105,-10.421148
39032000,39032000,-0.20108187,0.16643684,-10.451557
39080000,39080000,-0.18830559,0.1331828,-10.267423
39132000,39132000,-0.19482194,0.14801887,-10.046572
39176000,39176000,-0.2026763,0.16979569,-9.916851
39232000,39232000,-0.17638104,0.19366401,-9.78727
39280000,39280000,-0.20644093,0.14249206,-9.739822
39332000,39332000,-0.20634183,0.14612854,-9.725643
39380000,39380000,-0.21614973,0.1689301,-9.706982
39428000,39428000,-0.20756958,0.15802531,-9.721178
39480000,39480000,-0.24259716,0.171105,-9.716848
39532000,39532000,-0.18394929,0.1634208,-9.689285
39580000,39580000,-0.20198202,0.15683873,-9.664657
39632000,39632000,-0.18823999,0.15203257,-9.712847
39676000,39676000,-0.19905882,0.1679627,-9.715698
39728000,39728000,-0.21092653,0.15085596,-9.6971855
39776000,39776000,-0.19423121,0.13900462,-9.753775
39828000,39828000,-0.16978133,0.16883518,-9.770097
39876000,39876000,-0.19716462,0.16614915,-9.7711735
39928000,39928000,-0.21184222,0.15757716,-9.739155
39980000,39980000,-0.21069212,0.14868882,-9.755494
40028000,40028000,-0.22462392,0.16091359,-9.728589
40080000,40080000,-0.17992212,0.14921641,-9.746739
40132000,40132000,-0.17883097,0.16493683,-9.779097
40180000,40180000,-0.20350456,0.1509214,-9.779322
40232000,40232000,-0.22405264,0.15104173,-9.768709
40280000,40280000,-0.21529841,0.13704075,-9.768322
40332000,40332000,-0.19393522,0.16101044,-9.755384
40380000,40380000,-0.17767097,0.15439662,-9.740673
40432000,40432000,-0.18352683,0.16802669,-9.726332
40476000,40476000,-0.2186093,0.13734165,-9.7376795
40528000,40528000,-0.18809956,0.14733353,-9.773112
40580000,40580000,-0.19082427,0.14552248,-9.793079
40628000,40628000,-0.18326655,0.1783213,-9.818524
40676000,40676000,-0.18911335,0.19064905,-9.794531
40728000,40728000,-0.20443918,0.14492932,-9.765311
40780000,40780000,-0.2041702,0.11892701,-9.778259
40832000,40832000,-0.2222046,0.17718893,-9.755925
40880000,40880000,-0.22605608,0.15135705,-9.750601
40932000,40932000,-0.2262877,0.16563517,-9.756838
40980000,40980000,-0.20078504,0.14261714,-9.789965
41028000,41028000,-0.21377936,0.14421427,-9.814222
41080000,41080000,-0.20602696,0.176403,-9.779203
41132000,41132000,-0.17109792,0.15542644,-9.733553
41180000,41180000,-0.19127256,0.1719445,-9.733204
41232000,41232000,-0.21887268,0.15240826,-9.765665
41280000,41280000,-0.19061427,0.1540724,-9.742948
41332000,41332000,-0.1748763,0.17393723,-9.7536545
41380000,41380000,-0.19256075,0.172155,-9.778689
41432000,41432000,-0.18520564,0.169066,-9.79805
41480000,41480000,-0.19063088,0.16804586,-9.80154
41532000,41532000,-0.21032983,0.17657778,-9.800218
41580000,41580000,-0.21043316,0.18313643,-9.771124
41628000,41628000,-0.2149927,0.1689857,-9.7637415
41676000,41676000,-0.1712122,0.15345177,-9.765921
41728000,41728000,-0.18223667,0.16599098,-9.765678
41776000,41776000,-0.20021446,0.14225954,-9.811201
41828000,41828000,-0.20232603,0.15170603,-9.8189125
41880000,41880000,-0.18547826,0.13211273,-9.787638
41932000,41932000,-0.18145242,0.17909524,-9.769594
41980000,41980000,-0.1927886,0.1477925,-9.743212
42032000,42032000,-0.18182516,0.18304002,-9.745974
42080000,42080000,-0.1910248,0.20013765,-9.736378
42132000,42132000,-0.19365193,0.18096235,-9.765896
42176000,42176000,-0.18413293,0.15703122,-9.775606
42232000,42232000,-0.21054943,0.17424963,-9.792236
42280000,42280000,-0.16901298,0.18418643,-9.80134
42332000,42332000,-0.019007461,1.0353613,14.506891
42380000,42380000,-0.18072715,0.17777012,-14.031466
42428000,42428000,-0.21399108,0.17335789,-13.913336
42480000,42480000,-0.17804821,0.16848966,-12.432175
42532000,42532000,-0.1930331,0.1734126,-11.210865
42580000,42580000,-0.21039677,0.16130313,-10.517672
42628000,42628000,-0.18080118,0.15783681,-10.09613
42680000,42680000,-0.18854213,0.15915611,-9.752327
42732000,42732000,-0.18072115,0.1777755,-9.298582
42776000,42776000,-0.21783057,0.20004697,-9.1201725
42832000,42832000,-0.22322795,0.16699827,-8.99221
42880000,42880000,-0.18045855,0.18367831,-9.024451
42932000,42932000,-0.18179438,0.15681309,-9.104675
42980000,42980000,-0.19249307,0.1937877,-9.192389
43032000,43032000,-0.20752424,0.1413101,-9.310558
43080000,43080000,-0.17740975,0.14977318,-9.217048
43132000,43132000,-0.18778458,0.1633288,-8.964311
43176000,43176000,-0.19928963,0.16417612,-8.838872
43232000,43232000,-0.21095243,0.18414342,-8.868284
43280000,43280000,-0.19273901,0.16591549,-8.917911
43328000,43328000,-0.17195606,0.16569304,-9.066906
43376000,43376000,-0.18128425,0.16167527,-9.169779
43432000,43432000,-0.18455873,0.1949355,-9.325079
43480000,43480000,-0.17074169,0.19018333,-9.252488
43532000,43532000,-0.18692861,0.16925497,-9.038514
43580000,43580000,-0.19848856,0.14499463,-8.928622
43632000,43632000,-0.17544279,0.16064832,-8.953083
43680000,43680000,-0.19616958,0.1772317,-9.073673
43732000,43732000,-0.1901661,0.16269578,-9.161727
43780000,43780000,-0.19263667,0.18782854,-9.286189
43832000,43832000,-0.19450672,0.16060627,-9.43123
43880000,43880000,-0.20774087,0.17920232,-9.297027
43932000,43932000,-0.1983846,0.19147368,-9.105362
43976000,43976000,-0.21334538,0.1558471,-9.009063
44028000,44028000,-0.2038036,0.16201676,-9.0474205
44076000,44076000,-0.21373598,0.16754979,-9.1532
44132000,44132000,-0.20024253,0.17261219,-9.309177
44176000,44176000,-0.20297524,0.16279101,-9.46328
44228000,44228000,-0.20995626,0.15677847,-9.601729
44276000,44276000,-0.19957563,0.12586169,-9.572084
44332000,44332000,-0.21636945,0.14343691,-9.315746
44380000,44380000,-0.17861764,0.14702109,-9.210703
44432000,44432000,-0.16883683,0.14331664,-9.220381
44480000,44480000,-0.18169686,0.11877576,-9.301754
44532000,44532000,-0.22720689,0.16915056,-9.438798
44576000,44576000,-0.2039122,0.15724778,-9.586622
44628000,44628000,-0.2102579,0.14891809,-9.70127
44676000,44676000,-0.20136698,0.16364664,-9.610745
44728000,44728000,-0.21214128,0.14344904,-9.408936
44776000,44776000,-0.23747902,0.16158453,-9.27503
44832000,44832000,-0.18547094,0.1226865,-9.334787
44880000,44880000,-0.20169137,0.13528734,-9.396902
44932000,44932000,-0.20767923,0.15176044,-9.523472
44980000,44980000,-0.20143723,0.15013225,-9.668105
45032000,45032000,-0.17727627,0.13279566,-9.837152
45080000,45080000,-0.21641146,0.11788072,-9.678372
45128000,45128000,-0.19200054,0.1309362,-9.460905
45180000,45180000,-0.18786839,0.11353877,-9.582551
45232000,45232000,-0.18384227,0.16926074,-9.788228
45280000,45280000,-0.19931707,0.14026718,-9.774813
45328000,45328000,-0.18920103,0.1825181,-9.783949
45380000,45380000,-0.221277,0.16831288,-9.800157
45432000,45432000,-0.19550516,0.16984463,-9.790616
45476000,45476000,-0.20762378,0.13253486,-9.78377
45528000,45528000,-0.20423663,0.14651114,-9.818629
45580000,45580000,-0.20514098,0.15511994,-9.790409
45632000,45632000,-0.21289057,0.1417764,-9.809086
45680000,45680000,-0.20887545,0.15039892,-9.791964
45732000,45732000,-0.23352325,0.14603786,-9.777417
45780000,45780000,-0.2088263,0.14722763,-9.805992
45832000,45832000,-0.18025999,0.15011151,-9.794989
45880000,45880000,-0.18187593,0.16324204,-9.788464
45932000,45932000,-0.19533926,0.116984725,-9.795079
45980000,45980000,-0.2003425,0.1343301,-9.7940035
46032000,46032000,-0.20900282,0.15765828,-9.80799
46080000,46080000,-0.20737472,0.16182694,-9.812884
46132000,46132000,-0.19152547,0.16616553,-9.7879505
46180000,46180000,-0.19979964,0.16028139,-9.788637
46232000,46232000,-0.19972017,0.15828747,-9.788178
46280000,46280000,-0.20286608,0.1536239,-9.76241
46332000,46332000,-0.20613693,0.1421048,-9.7719345
46376000,46376000,-0.19911385,0.15228048,-9.787548
46432000,46432000,-0.21328813,0.122766495,-9.798261
46476000,46476000,-0.19923896,0.14328718,-9.787913
46532000,46532000,-0.20410459,0.15420325,-9.785832
46580000,46580000,-0.2261032,0.14180468,-9.7927
46632000,46632000,-0.2124649,0.14026275,-9.785702
46680000,46680000,-0.20447288,0.14817533,-9.794716
46732000,46732000,-0.18258415,0.12607361,-9.810732
46780000,46780000,-0.19438088,0.14175713,-9.805601
46832000,46832000,-0.18918957,0.16293839,-9.829378
46880000,46880000,-0.20985988,0.1529559,-9.806038
46932000,46932000,-0.20706443,0.15925208,-9.806747
46976000,46976000,-0.2086078,0.15033396,-9.816808
47032000,47032000,-0.22206458,0.16382799,-9.828299
47080000,47080000,-0.21610773,0.16558346,-9.812973
47132000,47132000,-0.19243129,0.14873427,-9.794254
47180000,47180000,-0.18484095,0.12923123,-9.808092
47232000,47232000,-0.20059732,0.14811651,-9.788666
47280000,47280000,-0.19561677,0.13834628,-9.8171835
47332000,47332000,-0.2097114,0.16220754,-9.788763
47380000,47380000,-0.19738486,0.14689742,-9.794979
47432000,47432000,-0.20572703,0.16279338,-9.823038
47480000,47480000,-0.2090259,0.15954679,-9.793402
47532000,47532000,-0.20242497,0.1681734,-9.778242
47580000,47580000,-0.22159259,0.15453054,-9.783969
47632000,47632000,-0.22745116,0.14348502,-9.780553
47680000,47680000,-0.20757918,0.16409256,-9.81016
47732000,47732000,-0.22019733,0.14939737,-9.795918
47780000,47780000,-0.19757237,0.16690193,-9.793227
47828000,47828000,-0.21132281,0.14610107,-9.791167
47880000,47880000,-0.2373533,0.1441887,-9.775394
47932000,47932000,-0.2303586,0.14245805,-9.801025
47980000,47980000,-0.21022877,0.13540716,-9.806832
48032000,48032000,-0.20621206,0.14268504,-9.806321
48080000,48080000,-0.19139625,0.15587667,-9.812203
48132000,48132000,-0.20551594,0.15448903,-9.794294
48180000,48180000,-0.2072923,0.16211855,-9.787114
48232000,48232000,-0.2248272,0.14125611,-9.787764
48280000,48280000,-0.21270302,0.14759284,-9.802418
48332000,48332000,-0.22876807,0.14802474,-9.828919
48376000,48376000,-0.19538772,0.14843507,-9.79989
48428000,48428000,-0.23361373,0.16793701,-9.800381
48476000,48476000,-0.22640182,0.167828,-9.803693
48528000,48528000,-0.22121836,0.13918298,-9.797105
48576000,48576000,-0.20242561,0.1562111,-9.814205
48628000,48628000,-0.22465399,0.1397138,-9.806409
48676000,48676000,-0.21896774,0.17202953,-9.802962
48732000,48732000,-0.2073834,0.16412877,-9.795593
48776000,48776000,-0.2025939,0.1708757,-9.804764
48828000,48828000,-0.22864091,0.1724235,-9.833537
48876000,48876000,-0.21290347,0.16749065,-9.819408
48928000,48928000,-0.20301963,0.17380227,-9.818716
48980000,48980000,-0.19918674,0.1531526,-9.806229
49028000,49028000,-0.19174257,0.17801946,-9.789629
49080000,49080000,-0.19388682,0.1749019,-9.806711
49128000,49128000,-0.18768205,0.14073616,-9.783875
49176000,49176000,-0.21373743,0.19232187,-9.791349
49228000,49228000,-0.21761696,0.14598075,-9.783864
49276000,49276000,-0.22387369,0.13283964,-9.787359
49332000,49332000,-0.2011509,0.17171589,-9.811773
49380000,49380000,-0.20508553,0.18402742,-9.773474
49432000,49432000,-0.2028958,0.17067374,-9.813233
49480000,49480000,-0.21001291,0.15280627,-9.808105
49532000,49532000,-0.22982955,0.17690615,-9.827304
49580000,49580000,-0.19802168,0.14037088,-9.791752
49632000,49632000,-0.20439461,0.13559425,-9.82675
49680000,49680000,-0.21602221,0.15861994,-9.831279
49728000,49728000,-0.20772442,0.1841043,-9.798091
49780000,49780000,-0.19906354,0.16535687,-9.822233
49832000,49832000,-0.19856773,0.16955033,-9.792728
49880000,49880000,-0.20918693,0.17410553,-9.819807
49932000,49932000,-0.19697934,0.1742391,-9.820242
49980000,49980000,-0.20022817,0.17996675,-9.794605
50028000,50028000,-0.19840503,0.17227294,-9.8352995
50076000,50076000,-0.23204759,0.15320334,-9.815105
50128000,50128000,-0.18323453,0.17829245,-9.831376
50176000,50176000,-0.2059963,0.16234933,-9.822168
50228000,50228000,-0.19894269,0.17378879,-9.807934
50276000,50276000,-0.21417475,0.15870497,-9.838434
50328000,50328000,-0.18476093,0.19611154,-9.82542
50376000,50376000,-0.21673247,0.1795287,-9.819418
50432000,50432000,-0.21460181,0.16349736,-9.845472
50480000,50480000,-0.2003913,0.15344954,-9.820319
50528000,50528000,-0.21415268,0.18902797,-9.834599
50580000,50580000,-0.21247745,0.17191745,-9.792892
50632000,50632000,-0.23440546,0.1405484,-9.823008
50680000,50680000,-0.22285257,0.16334103,-9.835079
50732000,50732000,-0.23612384,0.15527251,-9.798151
50776000,50776000,-0.2173578,0.17021519,-9.821465
50832000,50832000,-0.18421248,0.1506737,-9.807533
50880000,50880000,-0.2086705,0.15152854,-9.7934065
50932000,50932000,-0.19402397,0.157103,-9.806721
50980000,50980000,-0.20105053,0.17071438,-9.8078575
51028000,51028000,-0.20864022,0.15736742,-9.835503
51080000,51080000,-0.20809023,0.14099346,-9.797165
51132000,51132000,-0.20715019,0.15476897,-9.823471
51180000,51180000,-0.19489473,0.12614422,-9.838602
51232000,51232000,-0.22515127,0.15243112,-9.805933
51276000,51276000,-0.21366663,0.15941404,-9.82627
51328000,51328000,-0.21497309,0.17413196,-9.822072
51376000,51376000,-0.20138352,0.15364274,-9.817652
51432000,51432000,-0.21201017,0.17900497,-9.847887
51476000,51476000,-0.20638119,0.1471003,-9.795431
51532000,51532000,-0.21367064,0.16249019,-9.823856
51580000,51580000,-0.20707408,0.14712234,-9.820748
51632000,51632000,-0.22944313,0.15194152,-9.813679
51680000,51680000,-0.19550072,0.1698862,-9.82137
51732000,51732000,-0.21261866,0.1677438,-9.827072
51776000,51776000,-0.17803706,0.15863712,-9.825124
51832000,51832000,-0.19543481,0.18435107,-9.838358
51880000,51880000,-0.22025965,0.17888318,-9.822273
51932000,51932000,-0.2177209,0.13597992,-9.802223
51980000,51980000,-0.21504252,0.15134595,-9.824171
52032000,52032000,-0.21287169,0.1527159,-9.806347
52080000,52080000,-0.21766706,0.16481812,-9.832271
52132000,52132000,-0.20318067,0.14657526,-9.843676
52180000,52180000,-0.20124698,0.13991651,-9.808985
52232000,52232000,-0.23294185,0.111824,-9.841716
52280000,52280000,-0.20910896,0.14600763,-9.853748
52328000,52328000,-0.17023128,0.167939,-9.810886
52380000,52380000,-0.23995812,0.17275713,-9.805271
52432000,52432000,-0.19568288,0.14908573,-9.829213
52476000,52476000,-0.17226627,0.13660713,-9.807045
52532000,52532000,-0.20673093,0.15925722,-9.847147
52580000,52580000,-0.21588549,0.15635458,-9.799323
52632000,52632000,-0.2434842,0.13818425,-9.786343
52676000,52676000,-0.2277906,0.1745524,-9.812485
52732000,52732000,-0.21504226,0.15868497,-9.832901
52780000,52780000,-0.17946851,0.16476156,-9.8138275
52828000,52828000,-0.17894919,0.13949096,-9.822733
52880000,52880000,-0.190165,0.1624164,-9.825678
52932000,52932000,-0.21759981,0.17181237,-9.81381
52980000,52980000,-0.218907,0.12788677,-9.82472
53028000,53028000,-0.23238117,0.17415062,-9.807735
53080000,53080000,-0.2184169,0.14119658,-9.793896
53132000,53132000,-0.21152893,0.1548019,-9.8379545
53176000,53176000,-0.20465802,0.14966641,-9.815971
