timestamp,timestamp_sample,states[0],states[1],states[2],states[3],states[4],states[5],states[6],states[7],states[8],states[9],states[10],states[11],states[12],states[13],states[14],states[15],states[16],states[17],states[18],states[19],states[20],states[21],states[22],states[23],covariances[0],covariances[1],covariances[2],covariances[3],covariances[4],covariances[5],covariances[6],covariances[7],covariances[8],covariances[9],covariances[10],covariances[11],covariances[12],covariances[13],covariances[14],covariances[15],covariances[16],covariances[17],covariances[18],covariances[19],covariances[20],covariances[21],covariances[22],covariances[23],n_states
3924000,3844000,0.9998841,-0.010070257,-0.011423741,-0.00021877681,0.0029264018,-0.0011132291,-0.008189119,0.0003532348,-7.190179e-05,-0.0017103567,-1.7191422e-06,-2.3039569e-05,-8.5473104e-08,-1.7323788e-05,1.7179349e-05,-0.0009858034,0.0,0.0,0.0,0.0,0.0,0.0,0.0,0.0,1.3827481e-07,0.0005525189,0.00055266183,0.00044850347,0.0121231135,0.012123913,0.0023811164,0.00042787383,0.00042789703,25.000137,2.6942757e-07,2.6956738e-07,2.802736e-07,3.771634e-06,3.771902e-06,4.0373052e-07,0.0,0.0,0.0,0.0,0.0,0.0,0.0,0.0,24
4924000,4844000,0.9998943,-0.009646922,-0.010882028,-0.0001271462,4.7816648e-05,-0.0030533245,-0.009828337,0.00011543902,-0.0004537349,0.012274627,-1.1127591e-05,-4.2513017e-05,3.6403964e-07,-2.4067702e-05,2.1994074e-05,-0.001036748,0.0,0.0,0.0,0.0,0.0,0.0,0.0,0.0,5.1631105e-08,0.00019321225,0.00019327698,0.0007051119,0.0026703505,0.0026702723,0.008124957,0.00015938055,0.00015937863,4.1112604,6.9913804e-09,6.9916455e-09,6.85037e-08,3.7580458e-06,3.7583616e-06,2.2610695e-07,0.0,0.0,0.0,0.0,0.0,0.0,0.0,0.0,24
5924000,5844000,0.9999025,-0.00924104,-0.010476829,-0.00019820599,0.00041147147,-0.00029738923,-0.007846013,0.00010152114,0.00012783518,0.00050468114,-1.3221628e-05,-4.4535405e-05,6.114741e-07,-2.6886546e-05,2.3786277e-05,-0.0010712098,0.0,0.0,0.0,0.0,0.0,0.0,0.0,0.0,4.2959822e-08,0.00016437203,0.00016442178,0.0005089573,0.0012276692,0.001227631,0.007817774,9.764375e-05,9.764318e-05,0.61518306,9.724784e-10,9.716543e-10,1.9334895e-08,3.7528441e-06,3.753209e-06,9.9254194e-08,0.0,0.0,0.0,0.0,0.0,0.0,0.0,0.0,24
6924000,6844000,0.999906,-0.008795676,-0.010517573,-0.00016578815,-0.0011833346,0.0027284035,-0.0030130595,-0.00030416413,0.00021927455,-0.0023256002,-1.2778661e-05,-4.3741147e-05,6.843521e-07,-2.5871599e-05,2.3152506e-05,-0.0010851183,0.0,0.0,0.0,0.0,0.0,0.0,0.0,0.0,3.966445e-08,0.00015884636,0.00015888571,0.00044979484,0.00084771996,0.0008476908,0.0077098785,7.2905925e-05,7.290538e-05,0.3366774,3.192214e-10,3.1858344e-10,9.071291e-09,3.751333e-06,3.7517111e-06,5.889728e-08,0.0,0.0,0.0,0.0,0.0,0.0,0.0,0.0,24
7924000,7844000,0.9999058,-0.008936719,-0.0104162665,-0.00034943654,-0.00022610213,0.0028603075,1.244992e-05,0.00015002122,0.0009061718,-0.0009517532,-1.0669022e-05,-4.3570755e-05,5.2835094e-07,-2.5709469e-05,1.9959605e-05,-0.0010873551,0.0,0.0,0.0,0.0,0.0,0.0,0.0,0.0,3.8133912e-08,0.00015793875,0.00015798821,0.0003439211,0.001192514,0.0011925006,0.0063589993,0.00015390273,0.0001539021,0.23512532,1.7045086e-10,1.703056e-10,4.326436e-09,3.7509978e-06,3.7513757e-06,5.0000075e-08,0.0,0.0,0.0,0.0,0.0,0.0,0.0,0.0,24
8924000,8844000,0.9999087,-0.008798213,-0.010250781,-0.0004642809,0.0020309447,0.002745498,0.00058838166,0.000115667885,0.00041719046,-0.0019765634,-1.0022356e-05,-4.3374774e-05,7.812244e-08,-2.5367608e-05,1.8334893e-05,-0.0010873703,0.0,0.0,0.0,0.0,0.0,0.0,0.0,0.0,3.621969e-08,0.00015655205,0.00015660262,0.00027764012,0.0009756761,0.0009757654,0.0056414297,0.000121331745,0.00012133514,0.6716225,9.5857565e-11,9.575754e-11,2.3970288e-09,3.7505276e-06,3.7508992e-06,5e-08,0.0,0.0,0.0,0.0,0.0,0.0,0.0,0.0,24
9924000,9844000,0.9999124,-0.008829292,-0.009863272,-0.00041317727,0.0025422722,0.0015964204,0.003481552,0.000737323,0.00054860377,0.0003224059,-9.368524e-06,-4.3963533e-05,-2.3053725e-07,-2.7657716e-05,1.6971182e-05,-0.0010853371,0.0,0.0,0.0,0.0,0.0,0.0,0.0,0.0,3.4801936e-08,0.00015578343,0.0001558374,0.00023262118,0.00083112693,0.0008311511,0.0052712066,9.8248995e-05,9.82513e-05,0.17447352,6.2260086e-11,6.221745e-11,1.4700026e-09,3.7502148e-06,3.750599e-06,5.000022e-08,0.0,0.0,0.0,0.0,0.0,0.0,0.0,0.0,24
10924000,10844000,0.9999157,-0.00866794,-0.009651155,-0.00044520208,0.00015974781,-0.0023071554,0.008680917,-9.075826e-05,-0.00039534684,0.004014443,-9.317715e-06,-4.4088014e-05,-4.6651778e-07,-2.8506243e-05,1.731221e-05,-0.0010785582,0.0,0.0,0.0,0.0,0.0,0.0,0.0,0.0,3.3596717e-08,0.00015537937,0.00015542943,0.00020016466,0.0007223081,0.00072217186,0.0050385604,8.0797785e-05,8.079295e-05,0.1137399,4.462434e-11,4.4579024e-11,9.698091e-10,3.7500522e-06,3.750461e-06,5.0000185e-08,0.0,0.0,0.0,0.0,0.0,0.0,0.0,0.0,24
11924000,11844000,0.99991846,-0.008425155,-0.009584738,-0.00045836737,-0.0033385502,-0.0015911566,0.013984989,-0.00046534697,-0.00046301205,0.003482553,-9.796571e-06,-4.3820644e-05,-6.2248733e-07,-2.934541e-05,1.9267784e-05,-0.0010627497,0.0,0.0,0.0,0.0,0.0,0.0,0.0,0.0,3.27991e-08,0.00015521504,0.00015526076,0.0001890324,0.00063373224,0.0006335638,0.004844486,6.717816e-05,6.71725e-05,0.08065569,3.4323933e-11,3.4267852e-11,7.2397793e-10,3.7499753e-06,3.7503441e-06,5e-08,0.0,0.0,0.0,0.0,0.0,0.0,0.0,0.0,24
12924000,12844000,0.9999196,-0.008221499,-0.009649965,-0.00044781883,0.00032478897,0.0050321165,0.014280021,-3.4428977e-05,0.001026669,0.005896511,-9.866374e-06,-4.3543583e-05,-7.787033e-07,-2.926866e-05,2.0782385e-05,-0.001049784,0.0,0.0,0.0,0.0,0.0,0.0,0.0,0.0,3.2120095e-08,0.00015527941,0.00015532326,0.00016722734,0.0009312156,0.00093096896,0.005354733,0.00013750416,0.00013748469,0.07006861,2.8949723e-11,2.8910523e-11,5.2277793e-10,3.7498162e-06,3.7501395e-06,5.000011e-08,0.0,0.0,0.0,0.0,0.0,0.0,0.0,0.0,24
13924000,13844000,0.99992,-0.008338867,-0.009495413,-0.00042546162,0.001761454,0.0008599066,0.0106422305,0.00064414757,0.0005639002,0.0031834084,-9.4844e-06,-4.3638483e-05,-8.871064e-07,-3.1108735e-05,1.9596566e-05,-0.001034631,0.0,0.0,0.0,0.0,0.0,0.0,0.0,0.0,3.1476784e-08,0.00015501592,0.00015506193,0.00014998566,0.00083926145,0.0008391078,0.0051791766,0.00011499773,0.0001149874,0.059751328,2.4181018e-11,2.4169515e-11,3.91369e-10,3.7495179e-06,3.7498432e-06,5.000007e-08,0.0,0.0,0.0,0.0,0.0,0.0,0.0,0.0,24
14924000,14844000,0.9999246,-0.008228961,-0.009116059,-0.00037357034,0.0021397767,-0.00043030584,0.0066144327,0.0005444941,-0.00021824146,0.0037877688,-9.513503e-06,-4.3809687e-05,-9.666205e-07,-3.3766377e-05,2.0674443e-05,-0.001023256,0.0,0.0,0.0,0.0,0.0,0.0,0.0,0.0,3.0176142e-08,0.0001547615,0.00015480586,0.00013602144,0.0007575046,0.0007572841,0.0050617475,9.63415e-05,9.633019e-05,0.056286454,2.0847513e-11,2.0847607e-11,3.0180008e-10,3.7491407e-06,3.7495015e-06,5e-08,0.0,0.0,0.0,0.0,0.0,0.0,0.0,0.0,24
15924000,15844000,0.9999296,-0.008028235,-0.008740463,-0.0002936254,0.0023090807,-0.0019444993,0.010475755,0.001475007,-3.7266418e-06,0.0056886994,-9.518722e-06,-4.3876113e-05,-9.888554e-07,-3.4828638e-05,2.0942934e-05,-0.0010191213,0.0,0.0,0.0,0.0,0.0,0.0,0.0,0.0,2.8543106e-08,0.00015526202,0.00015530457,0.00014532355,0.019200034,0.019201364,0.007035761,0.0019926918,0.0019925877,0.056537766,2.0097247e-11,2.010081e-11,2.7426775e-10,3.7489679e-06,3.749361e-06,5.000018e-08,0.0,0.0,0.0,0.0,0.0,0.0,0.0,0.0,24
16924000,16844000,0.99993026,-0.008179026,-0.008528875,-0.00025982692,0.0022274628,-0.008276793,0.022394683,0.0040439907,-0.0045585637,0.016212087,-9.51898e-06,-4.3876385e-05,-9.888857e-07,-3.4828638e-05,2.0942934e-05,-0.0010175197,0.0,0.0,0.0,0.0,0.0,0.0,0.0,0.0,2.8278736e-08,0.00015615218,0.00015619541,0.00017065245,0.14494886,0.14496163,0.011214767,0.08843791,0.08844493,0.07122269,2.0608586e-11,2.0612144e-11,2.7477975e-10,3.7489679e-06,3.749361e-06,5.0000146e-08,0.0,0.0,0.0,0.0,0.0,0.0,0.0,0.0,24
17924000,17844000,0.99993277,-0.008052943,-0.008341719,-0.00017254801,0.00030374638,-0.013319058,0.025766078,0.0046939165,-0.015410083,0.03092066,-9.519765e-06,-4.3877062e-05,-9.890251e-07,-3.4828638e-05,2.0942934e-05,-0.0010137626,0.0,0.0,0.0,0.0,0.0,0.0,0.0,0.0,2.7066301e-08,0.00015478219,0.00015481214,0.00019813044,0.3843949,0.38445622,0.014862301,0.6240708,0.6241717,0.08907503,2.1115373e-11,2.111895e-11,2.752917e-10,3.7489679e-06,3.749361e-06,5e-08,0.0,0.0,0.0,0.0,0.0,0.0,0.0,0.0,24
18924000,18844000,0.99992114,-0.008507862,-0.008642207,0.00328752,-0.16114415,0.17123832,-0.53489745,-0.063801356,0.05767937,-0.15120332,-9.520555e-06,-4.387757e-05,-9.892077e-07,-3.4828638e-05,2.0942934e-05,-0.0010086499,0.0,0.0,0.0,0.0,0.0,0.0,0.0,0.0,2.9793961e-08,0.00014829959,0.00014830676,0.00022772966,0.7304697,0.730783,0.01784734,2.2295973,2.2303808,0.11870299,2.1612856e-11,2.161649e-11,2.758034e-10,3.7489679e-06,3.749361e-06,5.0000224e-08,0.0,0.0,0.0,0.0,0.0,0.0,0.0,0.0,24
19924000,19844000,0.99970233,-0.018313393,-0.01598651,0.0020572161,0.009554808,-0.05623941,-0.6465663,-0.13489203,0.11206009,-0.77182996,-9.516094e-06,-4.3873177e-05,-9.88504e-07,-3.4828638e-05,2.0942934e-05,-0.0010021474,0.0,0.0,0.0,0.0,0.0,0.0,0.0,0.0,8.331577e-08,0.00012658726,0.00012660996,0.00025940523,1.0107243,1.0112349,0.018114606,5.1129627,5.116012,0.12897813,2.2081375e-11,2.2085174e-11,2.7631436e-10,3.7489679e-06,3.749361e-06,5.000015e-08,0.0,0.0,0.0,0.0,0.0,0.0,0.0,0.0,24
20924000,20844000,0.999849,-0.0122553725,-0.012201525,0.0016865527,0.123523764,-0.17432235,-0.5931312,-0.036686182,-0.023668826,-1.4360595,-9.51357e-06,-4.386828e-05,-9.881214e-07,-3.4828638e-05,2.0942934e-05,-0.0009931921,0.0,0.0,0.0,0.0,0.0,0.0,0.0,0.0,3.2330032e-08,9.2779264e-05,9.2765025e-05,0.0002934147,1.0743527,1.0748472,0.018737223,8.143846,8.148499,0.1480773,2.252151e-11,2.2525516e-11,2.7682526e-10,3.7489679e-06,3.749361e-06,5.000004e-08,0.0,0.0,0.0,0.0,0.0,0.0,0.0,0.0,24
21924000,21844000,0.9999149,-0.009686443,-0.008586261,0.0016254394,0.11196982,-0.15017758,-0.11807547,0.06372945,-0.1341816,-1.9077613,-9.5198e-06,-4.3869375e-05,-9.89298e-07,-3.4828638e-05,2.0942934e-05,-0.0009810287,0.0,0.0,0.0,0.0,0.0,0.0,0.0,0.0,1.2669717e-08,6.0497405e-05,6.049733e-05,0.00032955615,0.92622554,0.92658496,0.017320376,9.891964,9.896574,0.14230219,2.2954343e-11,2.2958465e-11,2.7733604e-10,3.7489679e-06,3.749361e-06,5.0000224e-08,0.0,0.0,0.0,0.0,0.0,0.0,0.0,0.0,24
22924000,22844000,0.99994576,-0.008425236,-0.0058388235,0.0018459599,0.05722685,-0.11493162,-0.1435079,0.09119321,-0.16997065,-2.0943508,-9.529417e-06,-4.3873362e-05,-9.90938e-07,-3.4828638e-05,2.0942934e-05,-0.00097034196,0.0,0.0,0.0,0.0,0.0,0.0,0.0,0.0,5.7663305e-09,3.8390746e-05,3.840424e-05,0.00036784724,0.7334184,0.7335808,0.017730327,10.2686615,10.271865,0.15259798,2.33965e-11,2.3400625e-11,2.7784652e-10,3.7489679e-06,3.749361e-06,5.000004e-08,0.0,0.0,0.0,0.0,0.0,0.0,0.0,0.0,24
23924000,23844000,0.9999515,-0.0075525944,-0.006314282,0.00046313286,-0.0011864774,-0.07055332,-0.08171482,0.06658805,-0.17656726,-2.2591567,-9.536075e-06,-4.3874767e-05,-9.92169e-07,-3.4828638e-05,2.0942934e-05,-0.00095700345,0.0,0.0,0.0,0.0,0.0,0.0,0.0,0.0,3.5039094e-09,2.7905395e-05,2.791172e-05,0.00040829205,0.6224163,0.6224814,0.016834896,11.004895,11.007193,0.14071612,2.3859229e-11,2.3863241e-11,2.783576e-10,3.7489679e-06,3.749361e-06,5.000022e-08,0.0,0.0,0.0,0.0,0.0,0.0,0.0,0.0,24
24924000,24844000,0.9999065,-0.009470634,-0.009853603,0.00046278586,-0.0019214156,-0.057344522,-0.014275856,0.02721081,-0.14627288,-2.3464222,-9.543092e-06,-4.3874774e-05,-9.931063e-07,-3.4828638e-05,2.0942934e-05,-0.00094639277,0.0,0.0,0.0,0.0,0.0,0.0,0.0,0.0,4.4614166e-09,2.020294e-05,2.0194813e-05,0.00045087098,0.47693285,0.47692508,0.017800504,10.233335,10.234481,0.15020919,2.4311613e-11,2.4315426e-11,2.7886898e-10,3.7489679e-06,3.749361e-06,5.000015e-08,0.0,0.0,0.0,0.0,0.0,0.0,0.0,0.0,24
25924000,25844000,0.9999035,-0.00976092,-0.009854346,0.00081967993,0.034436997,-0.06680622,0.0032733828,0.027647909,-0.13526353,-2.4081726,-9.548334e-06,-4.3872486e-05,-9.938104e-07,-3.4828638e-05,2.0942934e-05,-0.0009312765,0.0,0.0,0.0,0.0,0.0,0.0,0.0,0.0,3.5901233e-09,1.6316728e-05,1.6310027e-05,0.0004956687,0.37625486,0.37622014,0.017302142,9.416135,9.416636,0.13960057,2.4757297e-11,2.476084e-11,2.793807e-10,3.7489679e-06,3.749361e-06,5.0000185e-08,0.0,0.0,0.0,0.0,0.0,0.0,0.0,0.0,24
26924000,26844000,0.9999173,-0.009217607,-0.008879514,0.0012517421,0.042464793,-0.06710979,0.04221925,0.04743885,-0.13879882,-2.433104,-9.555025e-06,-4.387204e-05,-9.944328e-07,-3.4828638e-05,2.0942934e-05,-0.0009182524,0.0,0.0,0.0,0.0,0.0,0.0,0.0,0.0,2.8983695e-09,1.458778e-05,1.4584893e-05,0.0005426671,0.30922782,0.3091807,0.018360795,8.666604,8.666767,0.15003039,2.5185364e-11,2.5188684e-11,2.7989244e-10,3.7489679e-06,3.749361e-06,5.000011e-08,0.0,0.0,0.0,0.0,0.0,0.0,0.0,0.0,24
27924000,27844000,0.99992466,-0.009668837,-0.0074588633,0.0012919173,0.018941367,-0.06320997,0.05015292,0.05384026,-0.14028595,-2.452981,-9.56302e-06,-4.3872522e-05,-9.951084e-07,-3.4828638e-05,2.0942934e-05,-0.00089972257,0.0,0.0,0.0,0.0,0.0,0.0,0.0,0.0,2.5695226e-09,1.409694e-05,1.411124e-05,0.00059184793,0.26716885,0.26710758,0.017734554,8.018878,8.018849,0.13991073,2.558184e-11,2.5584954e-11,2.8040417e-10,3.7489679e-06,3.749361e-06,5e-08,0.0,0.0,0.0,0.0,0.0,0.0,0.0,0.0,24
28924000,28844000,0.99992204,-0.009045564,-0.00849197,0.001442842,-0.010907325,-0.055699274,0.07308635,0.0388464,-0.15096918,-2.4546926,-9.5712885e-06,-4.3873148e-05,-9.9559e-07,-3.4828638e-05,2.0942934e-05,-0.000883443,0.0,0.0,0.0,0.0,0.0,0.0,0.0,0.0,2.8391385e-09,1.4704827e-05,1.4699912e-05,0.000643206,0.25939113,0.25931582,0.018773876,8.087857,8.087645,0.1522207,2.5966628e-11,2.5969546e-11,2.8091598e-10,3.7489679e-06,3.749361e-06,5.0000185e-08,0.0,0.0,0.0,0.0,0.0,0.0,0.0,0.0,24
29924000,29844000,0.99992204,-0.008474649,-0.009032971,0.0015920966,-0.015513782,-0.038349617,0.07982925,0.01474678,-0.14036027,-2.468604,-9.583505e-06,-4.3871863e-05,-9.960416e-07,-3.4828638e-05,2.0942934e-05,-0.0008575962,0.0,0.0,0.0,0.0,0.0,0.0,0.0,0.0,3.0962277e-09,1.5354659e-05,1.5335736e-05,0.0006967638,0.24701853,0.24693634,0.017961925,7.58473,7.584387,0.14169374,2.6256813e-11,2.6259384e-11,2.8142785e-10,3.7489679e-06,3.749361e-06,5.000022e-08,0.0,0.0,0.0,0.0,0.0,0.0,0.0,0.0,24
30924000,30844000,0.99992776,-0.008440434,-0.008398564,0.0016617348,-0.02577769,-0.03327195,0.08990852,-0.0060857353,-0.12779999,-2.4617286,-9.598414e-06,-4.386971e-05,-9.962754e-07,-3.4828638e-05,2.0942934e-05,-0.00083726825,0.0,0.0,0.0,0.0,0.0,0.0,0.0,0.0,3.1761076e-09,1.625969e-05,1.6248045e-05,0.0007525319,0.2463435,0.24625324,0.018775675,7.194878,7.194431,0.15220194,2.6451015e-11,2.6453194e-11,2.8193986e-10,3.7489679e-06,3.749361e-06,5.000011e-08,0.0,0.0,0.0,0.0,0.0,0.0,0.0,0.0,24
31924000,31844000,0.9999273,-0.008360329,-0.008496545,0.0018613028,-0.04534188,-0.034385905,0.083091475,-0.03455483,-0.11856022,-2.4810941,-9.614938e-06,-4.3863467e-05,-9.962952e-07,-3.4828638e-05,2.0942934e-05,-0.0008082954,0.0,0.0,0.0,0.0,0.0,0.0,0.0,0.0,3.7365266e-09,1.7295559e-05,1.7280307e-05,0.0008104937,0.25460428,0.25450805,0.017882304,6.907955,6.907414,0.14121093,2.6517375e-11,2.6519032e-11,2.824518e-10,3.7489679e-06,3.749361e-06,5.0000075e-08,0.0,0.0,0.0,0.0,0.0,0.0,0.0,0.0,24
32924000,32844000,0.9999304,-0.008513438,-0.007942273,0.001938466,-0.06829508,-0.046847682,0.0980101,-0.071874864,-0.11766429,-2.4762678,-9.63487e-06,-4.3851567e-05,-9.959738e-07,-3.4828638e-05,2.0942934e-05,-0.0007854833,0.0,0.0,0.0,0.0,0.0,0.0,0.0,0.0,4.014547e-09,1.8320019e-05,1.8314033e-05,0.0008706704,0.2691762,0.2690781,0.018691693,6.713492,6.712869,0.1515954,2.6423481e-11,2.6424416e-11,2.8296365e-10,3.7489679e-06,3.749361e-06,5.0000036e-08,0.0,0.0,0.0,0.0,0.0,0.0,0.0,0.0,24
33924000,33844000,0.99992234,-0.00939235,-0.008009167,0.0017348024,-0.09759231,-0.06589923,0.10726096,-0.1276581,-0.13803796,-2.4842253,-9.654641e-06,-4.3833683e-05,-9.953818e-07,-3.4828638e-05,2.0942934e-05,-0.0007553062,0.0,0.0,0.0,0.0,0.0,0.0,0.0,0.0,4.1028634e-09,1.9615018e-05,1.9620398e-05,0.00093303865,0.3006681,0.30056787,0.017841013,7.0679765,7.067206,0.14082816,2.6316749e-11,2.6316813e-11,2.8347538e-10,3.7489679e-06,3.749361e-06,5e-08,0.0,0.0,0.0,0.0,0.0,0.0,0.0,0.0,24
34924000,34844000,0.99992275,-0.008989165,-0.008376697,0.0019058957,-0.120215155,-0.0839374,0.1052128,-0.18337196,-0.16481373,-2.4604,-9.687213e-06,-4.379949e-05,-9.941842e-07,-3.4828638e-05,2.0942934e-05,-0.00073377,0.0,0.0,0.0,0.0,0.0,0.0,0.0,0.0,4.6478377e-09,2.0399953e-05,2.0390955e-05,0.0009976358,0.32199815,0.32190388,0.018804291,7.0189176,7.018125,0.1529983,2.5873833e-11,2.5872225e-11,2.8398658e-10,3.7489679e-06,3.749361e-06,5.0000256e-08,0.0,0.0,0.0,0.0,0.0,0.0,0.0,0.0,24
35924000,35844000,0.999914,-0.010053058,-0.008271175,0.0016312492,-0.14195424,-0.09939904,0.08617446,-0.24094583,-0.19348592,-2.4691064,-9.731588e-06,-4.374698e-05,-9.924204e-07,-3.4828638e-05,2.0942934e-05,-0.000705154,0.0,0.0,0.0,0.0,0.0,0.0,0.0,0.0,4.4970485e-09,2.091322e-05,2.0924566e-05,0.001064435,0.34289628,0.34281316,0.017943254,7.025282,7.024517,0.14200819,2.5229666e-11,2.5225499e-11,2.844971e-10,3.7489679e-06,3.749361e-06,5.000022e-08,0.0,0.0,0.0,0.0,0.0,0.0,0.0,0.0,24
36924000,36844000,0.9999212,-0.0103885885,-0.006866464,0.0016041162,-0.18466355,-0.120707795,0.077488124,-0.30484504,-0.22988795,-2.4550803,-9.788139e-06,-4.3674707e-05,-9.901524e-07,-3.4828638e-05,2.0942934e-05,-0.00068771484,0.0,0.0,0.0,0.0,0.0,0.0,0.0,0.0,4.2752335e-09,2.1097356e-05,2.1139664e-05,0.001133488,0.36098516,0.3609336,0.01876341,7.064857,7.064155,0.15238206,2.4405668e-11,2.4397864e-11,2.8500627e-10,3.7489679e-06,3.749361e-06,5.000011e-08,0.0,0.0,0.0,0.0,0.0,0.0,0.0,0.0,24
37924000,37844000,0.99992,-0.010418954,-0.007049343,0.0013305406,-0.20962675,-0.13971668,0.06021668,-0.37580252,-0.26824707,-2.4627314,-9.859795e-06,-4.3577264e-05,-9.873024e-07,-3.4828638e-05,2.0942934e-05,-0.0006675697,0.0,0.0,0.0,0.0,0.0,0.0,0.0,0.0,3.7889527e-09,2.1000375e-05,2.1036538e-05,0.0012047378,0.37454608,0.37451768,0.017914018,7.114972,7.1144056,0.14152266,2.3444477e-11,2.3431614e-11,2.85513e-10,3.7489679e-06,3.749361e-06,5.0000075e-08,0.0,0.0,0.0,0.0,0.0,0.0,0.0,0.0,24
38924000,38844000,0.99990875,-0.00796701,-0.010825927,0.0013811032,-0.22150834,-0.12099892,0.86092234,-0.4696833,-0.31620947,-2.191675,-9.92714e-06,-4.3481767e-05,-9.84686e-07,-3.4828638e-05,2.0942934e-05,-0.00065192557,0.0,0.0,0.0,0.0,0.0,0.0,0.0,0.0,4.1811137e-09,2.1336038e-05,2.1218708e-05,0.001278169,0.39376116,0.39377058,0.018699484,7.701241,7.700786,0.15159492,2.2717682e-11,2.2699728e-11,2.8601843e-10,3.7489679e-06,3.749361e-06,5e-08,0.0,0.0,0.0,0.0,0.0,0.0,0.0,0.0,24
39924000,39844000,0.99993885,-0.008786262,-0.006569097,0.0014287836,-0.22178303,-0.110694274,0.7584961,-0.5054602,-0.31481978,-1.5248654,-1.001593e-05,-4.3346838e-05,-9.811289e-07,-3.4828638e-05,2.0942934e-05,-0.0006280451,0.0,0.0,0.0,0.0,0.0,0.0,0.0,0.0,3.215154e-09,2.0662646e-05,2.0668082e-05,0.0013539575,0.3985746,0.39860207,0.017957773,7.716216,7.7159677,0.14219974,2.1663728e-11,2.163861e-11,2.8651972e-10,3.7489679e-06,3.749361e-06,5.0000185e-08,0.0,0.0,0.0,0.0,0.0,0.0,0.0,0.0,24
40924000,40844000,0.99993056,-0.00905518,-0.007431525,0.0012567369,-0.24418372,-0.10797109,0.783746,-0.5414444,-0.30593935,-0.81301373,-1.0102313e-05,-4.3202195e-05,-9.774336e-07,-3.4828638e-05,2.0942934e-05,-0.00061129464,0.0,0.0,0.0,0.0,0.0,0.0,0.0,0.0,3.0916993e-09,1.9970956e-05,1.9955523e-05,0.00143185,0.39696065,0.3970356,0.01875516,7.703017,7.703001,0.15235387,2.0638387e-11,2.0605658e-11,2.870189e-10,3.7489679e-06,3.749361e-06,5.0000075e-08,0.0,0.0,0.0,0.0,0.0,0.0,0.0,0.0,24
41924000,41844000,0.99992,-0.009401238,-0.008399133,0.0010011835,-0.24266167,-0.102060266,0.7893451,-0.5704689,-0.295019,-0.12645687,-1.0186048e-05,-4.3048018e-05,-9.735087e-07,-3.4828638e-05,2.0942934e-05,-0.00058381225,0.0,0.0,0.0,0.0,0.0,0.0,0.0,0.0,2.9745821e-09,1.9205587e-05,1.9163574e-05,0.0015119594,0.39109492,0.39117867,0.017863495,7.6576796,7.657887,0.14106777,1.9681258e-11,1.9640565e-11,2.875157e-10,3.7489679e-06,3.749361e-06,5.000004e-08,0.0,0.0,0.0,0.0,0.0,0.0,0.0,0.0,24
42924000,42844000,0.9999334,-0.009117632,-0.007045687,0.0006634386,-0.22848964,-0.088703044,0.79450715,-0.57608086,-0.27521574,0.5697187,-1.0264456e-05,-4.2891028e-05,-9.694787e-07,-3.4828638e-05,2.0942934e-05,-0.00057408825,0.0,0.0,0.0,0.0,0.0,0.0,0.0,0.0,2.2521982e-09,1.8353607e-05,1.8335486e-05,0.0015943892,0.38192478,0.38199368,0.016011406,7.58039,7.5807233,0.15010066,1.881886e-11,1.8770199e-11,2.8801114e-10,3.7489679e-06,3.749361e-06,5.000114e-08,0.0,0.0,0.0,0.0,0.0,0.0,0.0,0.0,24
43924000,43844000,0.9999473,-0.0064939535,-0.007907502,0.00091653515,-0.22356924,-0.059653766,1.339023,-0.5637412,-0.2503575,0.9833307,-1.0343869e-05,-4.2728858e-05,-9.644627e-07,-3.4828638e-05,2.0942934e-05,-0.00056555244,0.0,0.0,0.0,0.0,0.0,0.0,0.0,0.0,1.6793932e-09,1.7599636e-05,1.748695e-05,0.0016790443,0.3647694,0.3648492,0.012667627,7.469451,7.4698677,0.13477044,1.8065474e-11,1.8009235e-11,2.8850652e-10,3.7489679e-06,3.749361e-06,5.0000185e-08,0.0,0.0,0.0,0.0,0.0,0.0,0.0,0.0,24
44924000,44844000,0.9999551,-0.0051557804,-0.007917461,0.0006548159,-0.22707331,-0.003088195,1.6488038,-0.5935793,-0.20895986,1.7956606,-1.0398343e-05,-4.260021e-05,-9.595436e-07,-3.4828638e-05,2.0942934e-05,-0.00052975246,0.0,0.0,0.0,0.0,0.0,0.0,0.0,0.0,1.2483715e-09,1.7433085e-05,1.7288432e-05,0.0017659562,0.36959895,0.3696723,0.012882066,7.919458,7.9200435,0.136273,1.7648423e-11,1.7586604e-11,2.8900568e-10,3.7489679e-06,3.749361e-06,5.000011e-08,0.0,0.0,0.0,0.0,0.0,0.0,0.0,0.0,24
45924000,45844000,0.99993515,-0.008239998,-0.00783159,0.00068156363,-0.20435746,-0.018407376,0.933783,-0.5612163,-0.15456916,1.9854436,-1.0445528e-05,-4.2442683e-05,-9.5150506e-07,-3.4828638e-05,2.0942934e-05,-0.0005022311,0.0,0.0,0.0,0.0,0.0,0.0,0.0,0.0,1.9135356e-09,1.6775424e-05,1.6691944e-05,0.0018550397,0.36220196,0.36224484,0.011141021,7.7650924,7.7656727,0.122625045,1.7097091e-11,1.7029187e-11,2.8950245e-10,3.7489679e-06,3.749361e-06,5.000114e-08,0.0,0.0,0.0,0.0,0.0,0.0,0.0,0.0,24
46924000,46844000,0.9999368,-0.0079491045,-0.007916696,0.000843453,-0.1958377,-0.031083213,0.81513625,-0.5330493,-0.12771493,2.1445103,-1.04791725e-05,-4.2302207e-05,-9.4391635e-07,-3.4828638e-05,2.0942934e-05,-0.0004933362,0.0,0.0,0.0,0.0,0.0,0.0,0.0,0.0,1.8404802e-09,1.620965e-05,1.610636e-05,0.0019464415,0.35017455,0.3502075,0.010817675,7.608359,7.608857,0.12645727,1.6640002e-11,1.6566883e-11,2.9000058e-10,3.7489679e-06,3.749361e-06,5.0000185e-08,0.0,0.0,0.0,0.0,0.0,0.0,0.0,0.0,24
47924000,47844000,0.9999392,-0.007681202,-0.007864328,0.0009325615,-0.19185932,-0.03370579,0.65440273,-0.50349134,-0.11587573,1.9644172,-1.0510399e-05,-4.2163796e-05,-9.357643e-07,-3.4828638e-05,2.0942934e-05,-0.00043941694,0.0,0.0,0.0,0.0,0.0,0.0,0.0,0.0,1.7915162e-09,1.5722644e-05,1.5605909e-05,0.002040116,0.3387576,0.3387882,0.011414869,7.448469,7.4489017,0.11554911,1.626571e-11,1.6187966e-11,2.905001e-10,3.7489679e-06,3.749361e-06,5.000011e-08,0.0,0.0,0.0,0.0,0.0,0.0,0.0,0.0,24
48924000,48844000,0.9999408,-0.0073834243,-0.007917669,0.0010847767,-0.19606218,-0.03483293,0.5573047,-0.48937732,-0.10821094,1.9698163,-1.0538158e-05,-4.2040898e-05,-9.2944407e-07,-3.4828638e-05,2.0942934e-05,-0.0003635127,0.0,0.0,0.0,0.0,0.0,0.0,0.0,0.0,1.9216597e-09,1.5321253e-05,1.5184971e-05,0.0021360593,0.32819727,0.32823333,0.013811109,7.289186,7.289571,0.12244072,1.5962714e-11,1.5880783e-11,2.9100086e-10,3.7489679e-06,3.749361e-06,5e-08,0.0,0.0,0.0,0.0,0.0,0.0,0.0,0.0,24
49924000,49844000,0.99994296,-0.007053398,-0.007934024,0.0011861539,-0.19985783,-0.023372171,0.4016079,-0.5127581,-0.105333775,1.6957408,-1.05616355e-05,-4.1936695e-05,-9.2411483e-07,-3.4828638e-05,2.0942934e-05,-0.00021626845,0.0,0.0,0.0,0.0,0.0,0.0,0.0,0.0,2.0879944e-09,1.5410422e-05,1.5255193e-05,0.002234292,0.33605617,0.3360941,0.01581727,7.688181,7.688604,0.12020962,1.5866542e-11,1.5781458e-11,2.915045e-10,3.7489679e-06,3.749361e-06,5.000018e-08,0.0,0.0,0.0,0.0,0.0,0.0,0.0,0.0,24
50924000,50844000,0.99993443,-0.0067516835,-0.009173085,0.0011474432,-0.001546642,0.002129148,0.10221875,-0.00043135538,0.00034209155,1.1679767,-1.0597763e-05,-4.100102e-05,-9.0784727e-07,-0.00014673139,4.3268494e-05,0.00014278412,0.0,0.0,0.0,0.0,0.0,0.0,0.0,0.0,5.1559085e-10,3.30742e-06,3.2642097e-06,0.00049874536,0.005643556,0.0056445305,0.0072265,0.00023387793,0.00023389312,0.08470327,1.0629921e-11,1.060802e-11,7.1307286e-11,2.5094564e-06,2.5096674e-06,5.0000114e-08,0.0,0.0,0.0,0.0,0.0,0.0,0.0,0.0,24
51924000,51844000,0.99993557,-0.0065223547,-0.009203628,0.0012686136,0.001116703,2.9091534e-05,0.012845278,0.00024765215,-9.7536235e-05,0.94340086,-1.0597346e-05,-4.0994084e-05,-8.9663064e-07,-0.00012599495,6.8289926e-05,0.00020544558,0.0,0.0,0.0,0.0,0.0,0.0,0.0,0.0,5.9769595e-10,4.0518426e-06,4.025532e-06,0.00028707786,0.0012328721,0.0012328934,0.0059792376,0.00011646903,0.00011647037,0.069085844,1.1101222e-11,1.108937e-11,4.473102e-11,2.2393257e-07,2.2394725e-07,5.0000075e-08,0.0,0.0,0.0,0.0,0.0,0.0,0.0,0.0,24
52924000,52844000,0.9999368,-0.0063271034,-0.009190466,0.0014071448,0.00062952563,0.001579243,-0.016171038,-7.948632e-05,0.00016226934,0.85372585,-1.0593148e-05,-4.09923e-05,-8.7674965e-07,-0.00012594026,7.5789365e-05,0.00020525127,0.0,0.0,0.0,0.0,0.0,0.0,0.0,0.0,7.0634065e-10,4.958839e-06,4.9410555e-06,0.00018929408,0.0006836312,0.00068363093,0.0054154275,7.622636e-05,7.6226424e-05,0.0628657,1.157879e-11,1.1571569e-11,3.2835398e-11,1.3271908e-07,1.3273238e-07,5.000026e-08,0.0,0.0,0.0,0.0,0.0,0.0,0.0,0.0,24
