timestamp,timestamp_sample,device_id,magnetometer_ga[0],magnetometer_ga[1],magnetometer_ga[2],calibration_count
3180000,3123272,197388,0.009413962,-0.21674828,0.43056583,0
3196000,3196000,197388,0.0033419938,-0.21002601,0.4268649,0
3328000,3267636,197388,0.009160675,-0.2161429,0.42814642,0
3340000,3340000,197388,0.012660593,-0.21598403,0.42978668,0
3468000,3410909,197388,0.01013486,-0.21591681,0.42817792,0
3484000,3484000,197388,0.011749654,-0.21494421,0.4287155,0
3616000,3555636,197388,0.009104835,-0.21554255,0.42772767,0
3624000,3624000,197388,0.0123511525,-0.21878135,0.4332559,0
3748000,3692800,197388,0.009235315,-0.2161175,0.43094608,0
3760000,3760000,197388,0.013743717,-0.22415705,0.42743188,0
3892000,3830909,197388,0.0113577815,-0.21712297,0.4292258,0
3900000,3900000,197388,0.01636749,-0.21190172,0.4328792,0
4020000,3968400,197388,0.013008857,-0.21459348,0.42904076,0
4036000,4036000,197388,0.012808267,-0.22182585,0.42728752,0
4164000,4107272,197388,0.008621911,-0.21623993,0.42939308,0
4180000,4180000,197388,0.013723361,-0.21311402,0.43066972,0
4308000,4250181,197388,0.012100953,-0.21703099,0.42799535,0
4324000,4324000,197388,0.008135787,-0.21868804,0.42701617,0
4456000,4395636,197388,0.00929907,-0.21568088,0.42799404,0
4468000,4468000,197388,0.009546011,-0.220509,0.42202428,0
4596000,4538909,197388,0.010205589,-0.2169486,0.4301982,0
4612000,4612000,197388,0.010164719,-0.21258825,0.4332285,0
4744000,4683636,197388,0.011994468,-0.21553414,0.4292044,0
4756000,4756000,197388,0.0069941115,-0.21392806,0.42504522,0
4888000,4826545,197388,0.007598437,-0.21642406,0.42914274,0
4900000,4900000,197388,0.010195808,-0.20989199,0.433321,0
5028000,4971272,197388,0.010904264,-0.21752152,0.428917,0
5044000,5044000,197388,0.0074450066,-0.21399981,0.42868078,0
5176000,5115272,197388,0.009766013,-0.21733555,0.42686355,0
5188000,5188000,197388,0.011537077,-0.21643636,0.43498546,0
5316000,5258545,197388,0.012014216,-0.2150916,0.43067408,0
5332000,5332000,197388,0.011853095,-0.21234015,0.4277736,0
5464000,5402545,197388,0.010476698,-0.2164673,0.42853686,0
5476000,5476000,197388,0.008566035,-0.2120963,0.43500993,0
5604000,5546545,197388,0.009326612,-0.2141454,0.43066025,0
5620000,5620000,197388,-0.0021378382,-0.21789359,0.431334,0
5748000,5690909,197388,0.010801426,-0.21736458,0.4280176,0
5764000,5764000,197388,0.009518993,-0.22132732,0.4288793,0
5896000,5834909,197388,0.009027538,-0.21568291,0.42874545,0
5908000,5908000,197388,0.015113272,-0.21213068,0.42134902,0
6036000,5978909,197388,0.009543935,-0.21459997,0.42882296,0
6052000,6052000,197388,0.011429091,-0.21676148,0.42689377,0
6180000,6122909,197388,0.009533843,-0.21378663,0.4298534,0
6196000,6196000,197388,0.014029706,-0.21748877,0.42580673,0
6328000,6266909,197388,0.009732823,-0.21576111,0.4281266,0
6340000,6340000,197388,0.0040869275,-0.21992612,0.42827982,0
6468000,6410181,197388,0.011197588,-0.21658924,0.42933846,0
6484000,6484000,197388,0.0079702465,-0.21798606,0.4292184,0
6612000,6554181,197388,0.010373315,-0.2153077,0.42815194,0
6628000,6628000,197388,0.0036997308,-0.21806319,0.42513877,0
6760000,6699272,197388,0.009720385,-0.21719544,0.4316461,0
6772000,6772000,197388,0.013847364,-0.21740998,0.42754683,0
6900000,6842545,197388,0.009425482,-0.21647069,0.42916837,0
6916000,6916000,197388,0.009257532,-0.21588933,0.4293177,0
7044000,6987636,197388,0.0114482725,-0.21423253,0.42768463,0
7060000,7060000,197388,0.007461725,-0.21874861,0.4360076,0
7192000,7131636,197388,0.010235406,-0.21499185,0.4299094,0
7204000,7204000,197388,0.008166374,-0.2190806,0.43064633,0
7336000,7274909,197388,0.008972378,-0.21351478,0.43254706,0
7348000,7348000,197388,0.009379464,-0.21451321,0.4349738,0
7476000,7419272,197388,0.010664019,-0.21688731,0.43118092,0
7492000,7492000,197388,0.007750586,-0.21237479,0.4320271,0
7620000,7563272,197388,0.0109952325,-0.21463951,0.429365,0
7636000,7636000,197388,0.011102006,-0.22008337,0.42161456,0
7764000,7707636,197388,0.010642466,-0.21584618,0.42711434,0
7780000,7780000,197388,0.008626935,-0.21267502,0.43231097,0
7908000,7850909,197388,0.0105048,-0.2154045,0.42989948,0
7924000,7924000,197388,0.009429914,-0.21742743,0.4275865,0
8056000,7995636,197388,0.011208836,-0.21747126,0.42805466,0
8068000,8068000,197388,0.007395983,-0.21672158,0.4245603,0
8196000,8139636,197388,0.008904506,-0.21656945,0.42986426,0
8212000,8212000,197388,0.0049069147,-0.21572159,0.43026227,0
8340000,8282909,197388,0.008257013,-0.21608083,0.42908865,0
8352000,8352000,197388,0.00885609,-0.21539323,0.42848945,0
8476000,8421600,197388,0.010284337,-0.21431075,0.42745015,0
8500000,8492000,197388,0.0077674203,-0.21447319,0.43379056,0
8604000,8559111,197388,0.009003204,-0.21694379,0.42819804,0
8632000,8626000,197388,0.009571435,-0.21473172,0.4317967,0
8752000,8697600,197388,0.009730452,-0.21711989,0.42788678,0
8772000,8768000,197388,0.011253784,-0.214477,0.42967057,0
8884000,8835111,197388,0.009130081,-0.21542405,0.4282136,0
8908000,8902000,197388,0.0051717907,-0.21540768,0.42854846,0
9028000,8972400,197388,0.009131758,-0.214407,0.42825982,0
9040000,9040000,197388,0.011579174,-0.2150205,0.43153834,0
9172000,9111272,197388,0.008757407,-0.21736887,0.42945164,0
9184000,9184000,197388,0.008844201,-0.22019699,0.42400545,0
9316000,9254909,197388,0.00974301,-0.21589588,0.42948768,0
9328000,9328000,197388,0.011457771,-0.21103674,0.43208027,0
9460000,9398545,197388,0.008692105,-0.2165069,0.43012413,0
9468000,9468000,197388,0.004702518,-0.21649283,0.43242025,0
9592000,9537200,197388,0.0071843597,-0.21673048,0.43012723,0
9604000,9604000,197388,0.007931109,-0.20990852,0.42164233,0
9732000,9674181,197388,0.010841096,-0.21569261,0.42850146,0
9748000,9748000,197388,0.009137221,-0.2152877,0.42614627,0
9876000,9818545,197388,0.009385389,-0.2156311,0.42631269,0
9892000,9892000,197388,0.009090688,-0.21961771,0.43034086,0
10020000,9962545,197388,0.009048829,-0.21858871,0.43105677,0
10036000,10036000,197388,0.008744879,-0.21985887,0.42847654,0
10168000,10106545,197388,0.009711669,-0.2145676,0.42842278,0
10180000,10180000,197388,0.012234588,-0.21588172,0.4298599,0
10312000,10250909,197388,0.00939418,-0.21636686,0.43067166,0
10324000,10324000,197388,0.010318276,-0.21240799,0.42573944,0
10452000,10394181,197388,0.010326668,-0.21410966,0.42961594,0
10468000,10468000,197388,0.012401652,-0.21705043,0.42542174,0
10600000,10539272,197388,0.0090051135,-0.21594213,0.42879063,0
10612000,10612000,197388,0.0046344297,-0.2197254,0.43494776,0
10744000,10682909,197388,0.009950218,-0.21425828,0.43062028,0
10756000,10756000,197388,0.0069899526,-0.21459505,0.4348427,0
10884000,10826181,197388,0.008621249,-0.21579608,0.42798114,0
10900000,10900000,197388,0.007932492,-0.21861628,0.43428868,0
11032000,10970909,197388,0.008997373,-0.21531844,0.42897606,0
11040000,11040000,197388,0.012414922,-0.21370581,0.4274548,0
11164000,11108400,197388,0.009390572,-0.21755393,0.431394,0
11188000,11180000,197388,0.008793415,-0.21597102,0.42651737,0
11296000,11247111,197388,0.008962825,-0.21750435,0.43060446,0
11332000,11318666,197388,0.013102166,-0.21383682,0.42986053,0
11440000,11390666,197388,0.0096983705,-0.21631685,0.4295505,0
11464000,11458000,197388,0.0061205016,-0.21261182,0.43092668,0
11584000,11529200,197388,0.008999025,-0.21638052,0.42891294,0
11596000,11596000,197388,0.014233502,-0.2174245,0.42657566,0
11728000,11666545,197388,0.007473845,-0.21521287,0.42940903,0
11740000,11740000,197388,0.014352168,-0.2186129,0.42900628,0
11872000,11811636,197388,0.009521894,-0.21451259,0.42944154,0
11884000,11884000,197388,0.007698201,-0.21115062,0.42961368,0
12016000,11954545,197388,0.009994189,-0.2152944,0.4272869,0
12028000,12028000,197388,0.0047616363,-0.20755473,0.4311612,0
12160000,12099272,197388,0.008402842,-0.2155394,0.4285234,0
12172000,12172000,197388,0.009083634,-0.21734974,0.42223367,0
12304000,12242545,197388,0.010474645,-0.21794608,0.42930883,0
12316000,12316000,197388,0.0037972124,-0.22030762,0.42872402,0
12448000,12386545,197388,0.009739732,-0.21834199,0.42894208,0
12460000,12460000,197388,0.012176097,-0.21413982,0.42755336,0
12588000,12530909,197388,0.010735055,-0.21555851,0.42782515,0
12604000,12604000,197388,0.013932921,-0.21851276,0.4245472,0
12736000,12674909,197388,0.0096336,-0.21626306,0.4287498,0
12748000,12748000,197388,0.012623851,-0.21337263,0.4262542,0
12876000,12818545,197388,0.008602196,-0.216248,0.42769876,0
12892000,12892000,197388,0.005921521,-0.21340752,0.42840385,0
13024000,12963272,197388,0.008033385,-0.21460673,0.4305449,0
13036000,13036000,197388,0.012069772,-0.22282352,0.42681795,0
13168000,13106909,197388,0.010813228,-0.2156862,0.42698002,0
13180000,13180000,197388,0.011553577,-0.216384,0.4315438,0
13312000,13251636,197388,0.007920369,-0.21685681,0.4291888,0
13324000,13324000,197388,0.012132491,-0.21428782,0.43350455,0
13456000,13394909,197388,0.010340861,-0.21758832,0.4320044,0
13468000,13468000,197388,0.0035152293,-0.21214668,0.4317962,0
13600000,13539636,197388,0.009249264,-0.21722974,0.42972314,0
13612000,13612000,197388,0.0047227303,-0.21355309,0.43050015,0
13744000,13684000,197388,0.008842681,-0.21724176,0.4293694,0
13756000,13756000,197388,0.013136447,-0.20814629,0.43353578,0
13888000,13828000,197388,0.009417397,-0.21607675,0.428676,0
13900000,13900000,197388,0.016069463,-0.21492957,0.43688118,0
14032000,13972000,197388,0.010773467,-0.21756414,0.42852026,0
14044000,14044000,197388,0.0133069735,-0.2134177,0.435527,0
14176000,14115636,197388,0.010215095,-0.2156249,0.4300829,0
14188000,14188000,197388,0.01622871,-0.21813937,0.4256124,0
14320000,14259636,197388,0.00932343,-0.21472228,0.4270371,0
14332000,14332000,197388,0.0074708005,-0.21415,0.4226811,0
14464000,14403272,197388,0.009851848,-0.21635497,0.43044508,0
14476000,14476000,197388,0.008326911,-0.20816076,0.42964646,0
14608000,14547272,197388,0.00956249,-0.21513498,0.42960304,0
14620000,14620000,197388,0.008210754,-0.21375525,0.42775387,0
14752000,14692000,197388,0.009370925,-0.21719682,0.4293699,0
14764000,14764000,197388,0.017240765,-0.21306477,0.4214883,0
14896000,14836000,197388,0.011183634,-0.21533813,0.4310719,0
14908000,14908000,197388,0.008351532,-0.2102828,0.43180278,0
15040000,14978909,197388,0.008004162,-0.21557029,0.43059596,0
15052000,15052000,197388,0.01192475,-0.21058136,0.43159267,0
15184000,15122909,197388,0.009907832,-0.21565747,0.43002766,0
15196000,15196000,197388,0.0071652117,-0.22200783,0.43025264,0
15328000,15266181,197388,0.01106223,-0.21407533,0.43077388,0
15340000,15340000,197388,0.008473936,-0.21500127,0.42907116,0
15468000,15410181,197388,0.011883266,-0.21545231,0.43068463,0
15484000,15484000,197388,0.006318669,-0.2150651,0.42956024,0
15612000,15555272,197388,0.0111682685,-0.21537784,0.43002966,0
15628000,15628000,197388,0.0123875905,-0.21692568,0.42989528,0
15760000,15699636,197388,0.01013703,-0.21613815,0.4296369,0
15772000,15772000,197388,0.004807344,-0.22039637,0.43075007,0
15904000,15843636,197388,0.009728334,-0.21634163,0.43030277,0
15916000,15916000,197388,0.01590277,-0.21358818,0.4247178,0
16044000,15986545,197388,0.010609915,-0.21632223,0.4294339,0
16060000,16060000,197388,0.015953347,-0.2184671,0.43566838,0
16188000,16130181,197388,0.01056647,-0.21536082,0.4303658,0
16204000,16204000,197388,0.015912347,-0.21495536,0.43684384,0
16336000,16275636,197388,0.010155191,-0.21508059,0.4303497,0
16348000,16348000,197388,0.011514748,-0.21260999,0.4298835,0
16480000,16418909,197388,0.009273772,-0.21887554,0.4283999,0
16492000,16492000,197388,0.008715948,-0.21538922,0.4281977,0
16620000,16562181,197388,0.008886689,-0.21769428,0.42773408,0
16636000,16636000,197388,0.0068656574,-0.21382633,0.42903262,0
16764000,16706181,197388,0.010212304,-0.21660998,0.43009967,0
16780000,16780000,197388,0.0062095798,-0.21081576,0.4329063,0
16912000,16850181,197388,0.0107861785,-0.21537331,0.42933196,0
16924000,16924000,197388,0.0067601013,-0.21407738,0.431637,0
17056000,16994181,197388,0.008984855,-0.21391492,0.42847323,0
17068000,17068000,197388,0.012721281,-0.21950454,0.42850155,0
17200000,17138909,197388,0.009722846,-0.2148641,0.43069664,0
17212000,17212000,197388,0.013424717,-0.20936175,0.4267804,0
17344000,17282545,197388,0.00835717,-0.2169919,0.43043923,0
17356000,17356000,197388,0.010939969,-0.21191885,0.4314718,0
17488000,17427272,197388,0.009603632,-0.21599714,0.4294198,0
17500000,17500000,197388,0.011166375,-0.2151119,0.43126166,0
17632000,17570909,197388,0.009389915,-0.21657869,0.43026656,0
17644000,17644000,197388,0.009874548,-0.2212869,0.43400985,0
17776000,17714909,197388,0.008882719,-0.21563765,0.42848152,0
17788000,17788000,197388,0.014839417,-0.21767879,0.42950404,0
17920000,17858545,197388,0.008683664,-0.21836598,0.42897162,0
17932000,17932000,197388,0.012436471,-0.20942244,0.43115816,0
18060000,18002909,197388,0.008614557,-0.21459603,0.43146768,0
18076000,18076000,197388,0.010679984,-0.21168786,0.43367735,0
18208000,18146545,197388,0.0070608044,-0.20628574,0.43381286,0
18220000,18220000,197388,0.004256128,-0.1969462,0.43424806,0
18352000,18291636,197388,-0.006440809,-0.19425397,0.4421484,0
18364000,18364000,197388,-0.011589532,-0.19040753,0.43656284,0
18492000,18434909,197388,-0.017294858,-0.19160633,0.44069967,0
18508000,18508000,197388,-0.005924063,-0.19574748,0.4350102,0
18640000,18578545,197388,-0.006678855,-0.20238797,0.43583912,0
18652000,18652000,197388,0.0024277861,-0.20322946,0.43546647,0
18784000,18722545,197388,0.004310706,-0.21055846,0.43071842,0
18796000,18796000,197388,0.0051147104,-0.21911827,0.43254277,0
18928000,18868000,197388,0.00883969,-0.21602897,0.42843184,0
18940000,18940000,197388,0.011301998,-0.21743514,0.43163455,0
19068000,19011636,197388,0.010622178,-0.22013552,0.42795563,0
19084000,19084000,197388,0.012490957,-0.22541745,0.42472243,0
19212000,19155636,197388,0.013025044,-0.22307295,0.42551294,0
19228000,19228000,197388,0.015327539,-0.22404961,0.42241183,0
19360000,19299636,197388,0.0143308,-0.2236714,0.42381293,0
19372000,19372000,197388,0.016792793,-0.22367446,0.4216735,0
19504000,19442181,197388,0.013785937,-0.22471957,0.42416102,0
19516000,19516000,197388,0.014318705,-0.21909335,0.42894298,0
19644000,19586909,197388,0.01586607,-0.22612679,0.4237182,0
19660000,19660000,197388,0.018332718,-0.2225563,0.4311449,0
19788000,19730181,197388,0.014726897,-0.2247671,0.42481917,0
19804000,19804000,197388,0.018761234,-0.22371975,0.41755804,0
19936000,19874909,197388,0.013707246,-0.22387645,0.42469496,0
19948000,19948000,197388,0.01391121,-0.22098297,0.43014258,0
20080000,20018181,197388,0.013570889,-0.2233035,0.42552394,0
20092000,20092000,197388,0.018813161,-0.22415735,0.4260847,0
20224000,20162909,197388,0.015034428,-0.22218847,0.4274474,0
20236000,20236000,197388,0.014508386,-0.22124524,0.4329277,0
20368000,20307272,197388,0.014807309,-0.22067131,0.42537913,0
20380000,20380000,197388,0.012375168,-0.22037403,0.42504454,0
20512000,20451636,197388,0.011551286,-0.21869454,0.42739683,0
20524000,20524000,197388,0.013715318,-0.22398862,0.4270675,0
20656000,20595272,197388,0.011546192,-0.22087291,0.4269301,0
20668000,20668000,197388,0.010999633,-0.22317559,0.43214092,0
20800000,20740000,197388,0.012856548,-0.21836813,0.42621374,0
20812000,20812000,197388,0.013076989,-0.22057444,0.42264563,0
20944000,20884000,197388,0.013349204,-0.2162877,0.427879,0
20956000,20956000,197388,0.010195851,-0.21231759,0.42875051,0
21088000,21028000,197388,0.011988752,-0.21597052,0.42853007,0
21100000,21100000,197388,0.016481457,-0.21732812,0.42662498,0
21228000,21170909,197388,0.010419381,-0.21574585,0.42939144,0
21244000,21244000,197388,0.013181855,-0.21808757,0.42872995,0
21376000,21313818,197388,0.010334206,-0.21717419,0.4270031,0
21388000,21388000,197388,0.011988571,-0.21237254,0.4309543,0
21520000,21458545,197388,0.009334848,-0.21662281,0.42945564,0
21532000,21532000,197388,0.0048677535,-0.21900743,0.42781436,0
21660000,21602909,197388,0.00845847,-0.21561606,0.42985138,0
21676000,21676000,197388,0.011670908,-0.21756619,0.4297512,0
21808000,21747636,197388,0.008024739,-0.21451296,0.42832676,0
21820000,21820000,197388,0.013709947,-0.21741483,0.42769778,0
21952000,21892000,197388,0.007051695,-0.21517208,0.4296741,0
21964000,21964000,197388,0.013750832,-0.21353032,0.42130595,0
22096000,22034909,197388,0.009094881,-0.21634807,0.42854774,0
22108000,22108000,197388,0.0030146078,-0.21489397,0.42784485,0
22240000,22178545,197388,0.0076810657,-0.21351603,0.43088546,0
22252000,22252000,197388,0.019268442,-0.21858546,0.43197155,0
22380000,22322909,197388,0.00747392,-0.21579719,0.4295716,0
22396000,22396000,197388,0.0060294294,-0.21228561,0.43425202,0
22528000,22467272,197388,0.00863195,-0.21537612,0.4283609,0
22540000,22540000,197388,-0.000388747,-0.21431707,0.4328677,0
22668000,22610181,197388,0.0077283573,-0.21546257,0.42877975,0
22684000,22684000,197388,0.009586679,-0.21481477,0.435225,0
22812000,22754909,197388,0.0060894727,-0.21471772,0.42879072,0
22828000,22828000,197388,0.00032365156,-0.22127843,0.43516165,0
22960000,22898909,197388,0.005790235,-0.21469386,0.42961216,0
22972000,22972000,197388,0.008113115,-0.22071196,0.430521,0
23100000,23042545,197388,0.0035389839,-0.21527931,0.42802787,0
23116000,23116000,197388,0.0044131884,-0.21662436,0.42750934,0
23244000,23187272,197388,0.0058852634,-0.21543907,0.42975384,0
23260000,23260000,197388,0.0029743882,-0.21274655,0.43045333,0
23392000,23331636,197388,0.0052668853,-0.21178545,0.43099436,0
23404000,23404000,197388,0.0035878532,-0.21381955,0.43229654,0
23532000,23474545,197388,0.003414957,-0.21467704,0.43119544,0
23548000,23548000,197388,0.008239282,-0.21150209,0.4387343,0
23680000,23619272,197388,0.0060254885,-0.2148578,0.4316326,0
23692000,23692000,197388,0.0076795756,-0.2169724,0.42849836,0
23824000,23762909,197388,0.0071617896,-0.21557924,0.42836237,0
23836000,23836000,197388,0.009921168,-0.21161923,0.42850843,0
23964000,23906909,197388,0.0074181035,-0.21419929,0.43025765,0
23980000,23980000,197388,0.00419046,-0.21712863,0.42737624,0
24112000,24052000,197388,0.0069985953,-0.21479575,0.42770764,0
24124000,24124000,197388,0.011397631,-0.21325459,0.42793807,0
24252000,24194545,197388,0.008349312,-0.21452187,0.42877805,0
24268000,24268000,197388,0.014345083,-0.21569383,0.4251115,0
24396000,24338181,197388,0.01041752,-0.2137439,0.4300662,0
24412000,24412000,197388,0.00426263,-0.21105863,0.42456856,0
24544000,24483636,197388,0.010403695,-0.21620864,0.4306299,0
24556000,24556000,197388,0.013007313,-0.22062132,0.41879463,0
24688000,24627272,197388,0.010331158,-0.2154157,0.42933214,0
24700000,24700000,197388,0.008848279,-0.21166904,0.4260011,0
24828000,24770909,197388,0.01161985,-0.21564311,0.43015862,0
24844000,24844000,197388,0.009489476,-0.22365363,0.43382382,0
24976000,24915636,197388,0.0108584985,-0.21611087,0.42873725,0
24988000,24988000,197388,0.011811992,-0.21362965,0.42847693,0
25116000,25058909,197388,0.010434573,-0.21473858,0.42868876,0
25132000,25132000,197388,0.013128111,-0.21526437,0.42762965,0
25264000,25202545,197388,0.012010881,-0.21680021,0.42979506,0
25276000,25276000,197388,0.014059705,-0.21794902,0.42923284,0
25408000,25347272,197388,0.010607588,-0.21671666,0.42961097,0
25420000,25420000,197388,0.015506042,-0.21877003,0.43092564,0
25552000,25491272,197388,0.010978999,-0.21464758,0.4269465,0
25564000,25564000,197388,0.0128371,-0.21740732,0.4353124,0
25696000,25635272,197388,0.010805069,-0.21599096,0.42839974,0
25708000,25708000,197388,0.011752239,-0.2189776,0.42577654,0
25836000,25778909,197388,0.010040413,-0.21726978,0.43034437,0
25852000,25852000,197388,0.007547583,-0.22128408,0.4262015,0
25984000,25922545,197388,0.010141581,-0.21737082,0.42814013,0
25996000,25996000,197388,0.011761795,-0.21640575,0.42801854,0
26128000,26066909,197388,0.010187316,-0.21556787,0.4287519,0
26140000,26140000,197388,0.014206675,-0.21532373,0.42663747,0
26272000,26211636,197388,0.010541866,-0.21608889,0.4267781,0
26284000,26284000,197388,0.0076299226,-0.21652988,0.4271363,0
26416000,26355272,197388,0.010115104,-0.21564879,0.42627123,0
26428000,26428000,197388,0.011587518,-0.21580915,0.43105552,0
26560000,26498909,197388,0.011066236,-0.21604575,0.42876753,0
26572000,26572000,197388,0.012933986,-0.21433876,0.43445444,0
26700000,26643272,197388,0.00963276,-0.21442947,0.42697892,0
26716000,26716000,197388,0.0040895897,-0.21765357,0.43686348,0
26848000,26787636,197388,0.009575726,-0.21415207,0.42883262,0
26860000,26860000,197388,0.013292538,-0.21983603,0.42181808,0
26992000,26930909,197388,0.007463504,-0.2163359,0.42670354,0
27004000,27004000,197388,0.0054175416,-0.21625365,0.43062335,0
27132000,27073818,197388,0.009461304,-0.21645829,0.43026236,0
27144000,27144000,197388,0.013638017,-0.21904947,0.4231238,0
27268000,27213600,197388,0.0075988113,-0.21609648,0.42793083,0
27292000,27286000,197388,0.0041764667,-0.2177275,0.4253795,0
27412000,27356800,197388,0.008853673,-0.21625605,0.42599878,0
27424000,27424000,197388,0.009489249,-0.221581,0.42548355,0
27556000,27495636,197388,0.008648949,-0.22033922,0.42790678,0
27568000,27568000,197388,0.006101839,-0.21452686,0.44010335,0
27700000,27640000,197388,0.008819918,-0.21789965,0.4283027,0
27708000,27708000,197388,0.01557696,-0.22050229,0.42769054,0
27828000,27776800,197388,0.009770688,-0.21596849,0.42912278,0
27844000,27844000,197388,0.00424814,-0.2117723,0.43013456,0
27976000,27915272,197388,0.007803855,-0.21752995,0.43188027,0
27988000,27988000,197388,0.011436801,-0.21403426,0.42590165,0
28120000,28059272,197388,0.0112296445,-0.2179542,0.42809576,0
28132000,28132000,197388,0.0023547753,-0.21585028,0.4256709,0
28264000,28204000,197388,0.009218186,-0.21552156,0.43010324,0
28276000,28276000,197388,0.008275046,-0.21095386,0.4338006,0
28408000,28347636,197388,0.00714536,-0.2167407,0.42854294,0
28420000,28420000,197388,0.0121597415,-0.21119039,0.42688704,0
28552000,28491636,197388,0.010754406,-0.21650313,0.42955208,0
28564000,28564000,197388,0.009353187,-0.2259355,0.427211,0
28696000,28636000,197388,0.0079981135,-0.21846876,0.4289335,0
28708000,28708000,197388,0.0139004495,-0.2159484,0.42714518,0
28836000,28779272,197388,0.009570732,-0.21647042,0.42763993,0
28852000,28852000,197388,0.0044341274,-0.21319543,0.42719132,0
28980000,28922545,197388,0.010190916,-0.2175228,0.42946467,0
28996000,28996000,197388,0.003176161,-0.2134511,0.42483866,0
29128000,29066909,197388,0.009826076,-0.21613596,0.43033332,0
29140000,29140000,197388,0.007878119,-0.21561536,0.4351186,0
29268000,29210181,197388,0.011379363,-0.21633142,0.43147427,0
29284000,29284000,197388,0.008977102,-0.21166812,0.43471023,0
29416000,29355272,197388,0.009278069,-0.21603763,0.4314611,0
29428000,29428000,197388,0.010757947,-0.21498658,0.43336916,0
29556000,29498181,197388,0.010690773,-0.21494897,0.42809358,0
29568000,29568000,197388,0.0088052545,-0.21449827,0.43108124,0
29692000,29636800,197388,0.009651554,-0.21559563,0.42988798,0
29704000,29704000,197388,0.009388762,-0.21780847,0.42696458,0
29836000,29775272,197388,0.008651327,-0.21556734,0.43050268,0
29844000,29844000,197388,0.017893462,-0.22161974,0.42998055,0
29968000,29913600,197388,0.0080173155,-0.2157032,0.43059522,0
29988000,29984000,197388,0.006026036,-0.2195116,0.4320873,0
30100000,30051111,197388,0.011228414,-0.21494874,0.42712107,0
30136000,30122666,197388,0.0070919804,-0.2138472,0.42789996,0
30244000,30194666,197388,0.009183059,-0.2169536,0.42922583,0
30276000,30265333,197388,0.011340426,-0.21791485,0.4306187,0
30376000,30333500,197388,0.01043843,-0.2164956,0.42881954,0
30420000,30404000,197388,0.008095281,-0.21628752,0.42695606,0
30508000,30472000,197388,0.007282124,-0.21483219,0.42772642,0
30568000,30542400,197388,0.009756436,-0.21612437,0.42821667,0
30640000,30609333,197388,0.010922411,-0.21533144,0.43281782,0
30708000,30680666,197388,0.008606184,-0.21428876,0.43242735,0
30784000,30752666,197388,0.009383456,-0.21599148,0.4315009,0
30852000,30824666,197388,0.012342012,-0.21572767,0.4288448,0
30928000,30897333,197388,0.009215336,-0.21567631,0.42950666,0
30988000,30964000,197388,0.009049623,-0.2166264,0.42655954,0
31068000,31034285,197388,0.008016079,-0.21649648,0.42689002,0
31120000,31102000,197388,0.008905942,-0.21319798,0.42749834,0
31212000,31173000,197388,0.008730207,-0.21671067,0.42812863,0
31252000,31240000,197388,0.011845424,-0.21426275,0.42994544,0
31360000,31312000,197388,0.007820538,-0.21529083,0.43060577,0
31396000,31382666,197388,0.009613391,-0.21552667,0.4309418,0
31500000,31454666,197388,0.010507987,-0.21402162,0.42973715,0
31540000,31526666,197388,0.0076889484,-0.21170172,0.43064564,0
31636000,31593500,197388,0.011023341,-0.21406253,0.42960986,0
31684000,31666000,197388,0.009759828,-0.21641736,0.42738667,0
31780000,31737500,197388,0.009855525,-0.21581316,0.42884976,0
31828000,31809000,197388,0.0060858633,-0.21459967,0.43134445,0
31924000,31881000,197388,0.010700734,-0.21646236,0.43059826,0
31972000,31952000,197388,0.008440616,-0.21504869,0.43016553,0
32068000,32024500,197388,0.009294543,-0.21697465,0.42838183,0
32104000,32092000,197388,0.011363132,-0.21468888,0.42849267,0
32212000,32163111,197388,0.009492212,-0.21461597,0.4282085,0
32244000,32233333,197388,0.010800625,-0.2186657,0.42700052,0
32344000,32301000,197388,0.011546266,-0.2158203,0.42909545,0
32380000,32368000,197388,0.007427664,-0.21312544,0.4293139,0
32484000,32439555,197388,0.007409929,-0.21644424,0.42837468,0
32524000,32512000,197388,0.0070867576,-0.2168028,0.4311808,0
32628000,32582222,197388,0.010172275,-0.21487449,0.428859,0
32668000,32654666,197388,0.010698726,-0.21376011,0.43081862,0
32772000,32726222,197388,0.007003194,-0.21521713,0.43028006,0
32812000,32798666,197388,0.00743225,-0.21517232,0.43082258,0
32916000,32870222,197388,0.0077951187,-0.21646817,0.43124837,0
32944000,32938000,197388,0.0053168396,-0.2124762,0.4290699,0
33064000,33009600,197388,0.008293294,-0.21655326,0.4287243,0
33088000,33082000,197388,0.00773622,-0.21376774,0.4292141,0
33208000,33152800,197388,0.009065144,-0.21652947,0.43078518,0
33220000,33220000,197388,0.011591773,-0.2154912,0.43686515,0
33352000,33290909,197388,0.008714953,-0.2148981,0.4299424,0
33364000,33364000,197388,0.010640694,-0.21443805,0.42812517,0
33492000,33434909,197388,0.008892884,-0.21547888,0.42992827,0
33508000,33508000,197388,0.012682216,-0.21380486,0.42654005,0
33636000,33578181,197388,0.008887174,-0.21642832,0.42935395,0
33652000,33652000,197388,0.00696488,-0.21690406,0.42986625,0
33780000,33722181,197388,0.008356378,-0.21618561,0.42816114,0
33792000,33792000,197388,0.008574586,-0.21016876,0.43097156,0
33916000,33860800,197388,0.008208385,-0.21585333,0.43068656,0
33928000,33928000,197388,0.014992441,-0.21159549,0.43183178,0
34060000,33998545,197388,0.010381559,-0.21377553,0.42969346,0
34068000,34068000,197388,0.013022989,-0.21267644,0.42724267,0
34188000,34136800,197388,0.010950824,-0.21539052,0.43006346,0
34204000,34204000,197388,0.010161396,-0.21279153,0.42551208,0
34336000,34276000,197388,0.010575376,-0.21587685,0.4296042,0
34348000,34348000,197388,0.0031336509,-0.2130087,0.43146402,0
34476000,34418545,197388,0.011450884,-0.21782017,0.42999408,0
34492000,34492000,197388,0.008623098,-0.21953069,0.43058226,0
34620000,34562909,197388,0.010355018,-0.21516761,0.42994085,0
34636000,34636000,197388,0.013600813,-0.21481486,0.42408836,0
34768000,34706909,197388,0.0062329494,-0.21691616,0.42772946,0
34780000,34780000,197388,0.008814144,-0.21574132,0.4344715,0
34908000,34850909,197388,0.009318454,-0.21598785,0.42749766,0
34924000,34924000,197388,0.0060828975,-0.21697854,0.43142134,0
35052000,34994545,197388,0.010891083,-0.21437076,0.42883295,0
35064000,35064000,197388,0.009632289,-0.21905553,0.4344156,0
35188000,35132400,197388,0.009306005,-0.21528839,0.429957,0
35200000,35200000,197388,0.0035825912,-0.21693164,0.4253411,0
35332000,35272000,197388,0.011078611,-0.21574385,0.4272523,0
35340000,35340000,197388,0.007923388,-0.21865323,0.431816,0
35464000,35410000,197388,0.0087983655,-0.215292,0.429054,0
35484000,35480000,197388,0.009577704,-0.21248198,0.43316677,0
35596000,35546666,197388,0.011322463,-0.21535905,0.42817593,0
35628000,35617333,197388,0.0115928,-0.21826814,0.42894086,0
35724000,35684000,197388,0.009954032,-0.2181093,0.42740965,0
35760000,35750666,197388,0.013884439,-0.21274999,0.43090305,0
35872000,35821333,197388,0.007611709,-0.21792647,0.428548,0
35896000,35890000,197388,0.012985157,-0.21460836,0.42841333,0
36016000,35960400,197388,0.008482217,-0.21574675,0.42789158,0
36028000,36028000,197388,0.009788628,-0.2154627,0.43172356,0
36160000,36100000,197388,0.0090758465,-0.21632998,0.43071327,0
36172000,36172000,197388,0.010790268,-0.22011766,0.43458942,0
36304000,36244000,197388,0.009125248,-0.21656156,0.42835855,0
36316000,36316000,197388,0.0038658567,-0.21962677,0.4315548,0
36444000,36386909,197388,0.0077747446,-0.21760724,0.4286883,0
36460000,36460000,197388,0.008428883,-0.21991865,0.4320978,0
36592000,36531272,197388,0.008004179,-0.21508993,0.42800242,0
36604000,36604000,197388,0.008264906,-0.21700193,0.4237064,0
36736000,36675636,197388,0.009758592,-0.21682452,0.42802328,0
36748000,36748000,197388,0.0032986046,-0.21638013,0.43420175,0
36876000,36818909,197388,0.009933692,-0.2152539,0.4274242,0
36888000,36888000,197388,0.005949342,-0.2117317,0.42254308,0
37012000,36957200,197388,0.007452802,-0.2166692,0.4284547,0
37024000,37024000,197388,0.009878311,-0.20882349,0.4298026,0
37156000,37094909,197388,0.008688563,-0.21788017,0.42886037,0
37168000,37168000,197388,0.01447497,-0.21459498,0.4202593,0
37300000,37239272,197388,0.009759943,-0.21645659,0.42722258,0
37312000,37312000,197388,0.0057308716,-0.21657674,0.43048754,0
37444000,37382545,197388,0.009738866,-0.2145376,0.42909783,0
37456000,37456000,197388,0.013558096,-0.22374487,0.42652673,0
37588000,37527636,197388,0.010138311,-0.21814358,0.4282903,0
37596000,37596000,197388,0.006998361,-0.21459273,0.4300759,0
37720000,37665200,197388,0.008030395,-0.21888201,0.42802182,0
37732000,37732000,197388,0.014329001,-0.21431202,0.43218943,0
37864000,37803636,197388,0.009880934,-0.2189443,0.42922217,0
37876000,37876000,197388,0.008934479,-0.2152772,0.4288333,0
38004000,37946545,197388,0.009441786,-0.21558046,0.42916742,0
38020000,38020000,197388,0.008792447,-0.21776809,0.42814475,0
38148000,38090545,197388,0.010214736,-0.21585707,0.42951053,0
38164000,38164000,197388,0.0099325795,-0.2169572,0.4287301,0
38296000,38234545,197388,0.010274741,-0.21661952,0.42782402,0
38304000,38304000,197388,0.0085341735,-0.21536136,0.4341505,0
38428000,38373600,197388,0.013388685,-0.21628873,0.43009216,0
38452000,38444000,197388,0.01342784,-0.21571045,0.42286107,0
38560000,38511111,197388,0.0107958205,-0.21587498,0.42969882,0
38584000,38578000,197388,0.0144184865,-0.21611276,0.43323803,0
38704000,38649600,197388,0.01234916,-0.21566418,0.4293653,0
38724000,38720000,197388,0.011000995,-0.21452418,0.426686,0
38836000,38788000,197388,0.01175502,-0.21570298,0.43078697,0
38872000,38860000,197388,0.014280533,-0.21532647,0.42688808,0
38980000,38931555,197388,0.012635456,-0.2147993,0.42979223,0
39016000,39004000,197388,0.010163025,-0.21884142,0.42508388,0
39124000,39075111,197388,0.010291654,-0.21569847,0.42799416,0
39148000,39142000,197388,0.00829484,-0.21957882,0.42644194,0
39268000,39213200,197388,0.009854366,-0.21501474,0.42843315,0
39280000,39280000,197388,0.012271026,-0.21885219,0.4323262,0
39412000,39351272,197388,0.011553155,-0.21538384,0.42834944,0
39420000,39420000,197388,0.015821768,-0.2174312,0.43173838,0
39540000,39488400,197388,0.010898525,-0.21409178,0.43026835,0
39556000,39556000,197388,0.011410543,-0.21128462,0.43324038,0
39688000,39627636,197388,0.011066033,-0.2168152,0.42772776,0
39700000,39700000,197388,0.00840468,-0.2125292,0.42668214,0
39828000,39771636,197388,0.008132427,-0.21559653,0.42860192,0
39844000,39844000,197388,0.0075947903,-0.2144742,0.43241724,0
39972000,39914181,197388,0.009125035,-0.21606486,0.42945793,0
39988000,39988000,197388,0.01349385,-0.22271298,0.4312764,0
40116000,40058181,197388,0.010172532,-0.21736877,0.42905968,0
40132000,40132000,197388,0.010459545,-0.21548958,0.4313169,0
40264000,40203272,197388,0.0086442735,-0.21791431,0.42883825,0
40276000,40276000,197388,0.0024614425,-0.21731728,0.43619475,0
40408000,40348000,197388,0.0073133525,-0.21610138,0.4293721,0
40420000,40420000,197388,0.0036816113,-0.21530813,0.428224,0
40552000,40492000,197388,0.009543961,-0.21426427,0.42956305,0
40564000,40564000,197388,0.011372491,-0.21481004,0.42665234,0
40696000,40636000,197388,0.009830672,-0.21656089,0.42868668,0
40708000,40708000,197388,0.006926634,-0.22080296,0.4241602,0
40840000,40779272,197388,0.009821909,-0.21731323,0.4289828,0
40852000,40852000,197388,0.008480956,-0.21355216,0.42824665,0
40984000,40924000,197388,0.010831003,-0.21667092,0.4292564,0
40996000,40996000,197388,0.007376982,-0.2120469,0.42755273,0
41124000,41066909,197388,0.012280506,-0.21651496,0.42856297,0
41140000,41140000,197388,0.01726323,-0.21106973,0.43766007,0
41272000,41210545,197388,0.010470165,-0.21746606,0.42922816,0
41284000,41284000,197388,0.0059184916,-0.21740614,0.42805853,0
41412000,41353818,197388,0.00857347,-0.21914792,0.42994756,0
41424000,41424000,197388,0.010077786,-0.2178146,0.42554188,0
41548000,41492400,197388,0.008320279,-0.21597414,0.42930385,0
41560000,41560000,197388,0.012191849,-0.22423804,0.42920333,0
41692000,41631272,197388,0.010025218,-0.2177717,0.43081835,0
41704000,41704000,197388,0.0079752235,-0.22153503,0.43116683,0
41836000,41774909,197388,0.011982066,-0.21613659,0.43085593,0
41848000,41848000,197388,0.012163805,-0.21652332,0.43020877,0
41980000,41919636,197388,0.01147044,-0.21619225,0.4287713,0
41992000,41992000,197388,0.006013382,-0.21522781,0.42505336,0
42124000,42063272,197388,0.010535156,-0.220697,0.42927527,0
42136000,42136000,197388,0.010774455,-0.21304114,0.42834315,0
42268000,42207272,197388,0.010290382,-0.21689169,0.42967927,0
42280000,42280000,197388,0.00782432,-0.21572848,0.42686775,0
42412000,42350909,197388,0.009842427,-0.21680816,0.42950466,0
42424000,42424000,197388,0.013823981,-0.21875818,0.4272892,0
42556000,42495272,197388,0.012689181,-0.21969059,0.4276422,0
42568000,42568000,197388,0.013892898,-0.21669947,0.42739582,0
42700000,42639272,197388,0.01162266,-0.21866034,0.43011698,0
42712000,42712000,197388,0.015313849,-0.2259402,0.42600414,0
42844000,42784000,197388,0.011759887,-0.21795246,0.42734203,0
42852000,42852000,197388,0.0077289753,-0.22170638,0.42712623,0
42972000,42920800,197388,0.010362576,-0.21666895,0.42749164,0
42988000,42988000,197388,0.005453852,-0.22077991,0.42253676,0
43120000,43059636,197388,0.010660069,-0.21648698,0.4277553,0
43132000,43132000,197388,0.018115664,-0.21987642,0.42465734,0
43264000,43202545,197388,0.009463084,-0.21458596,0.42755705,0
43276000,43276000,197388,0.005048637,-0.21653952,0.43910378,0
43408000,43348000,197388,0.011312962,-0.21606854,0.42883822,0
43420000,43420000,197388,0.015781995,-0.21093348,0.43177092,0
43548000,43489818,197388,0.008843951,-0.21547617,0.42759168,0
43560000,43560000,197388,0.016487438,-0.21011889,0.4305188,0
43684000,43627600,197388,0.010993579,-0.21399848,0.42963067,0
43696000,43696000,197388,0.0050636968,-0.2100947,0.42844728,0
43828000,43766545,197388,0.010653444,-0.21262325,0.43240055,0
43840000,43840000,197388,0.0143553475,-0.21584037,0.4254883,0
43972000,43911272,197388,0.008594715,-0.21485257,0.42801017,0
43980000,43980000,197388,0.0070945714,-0.21495932,0.42967004,0
44100000,44049200,197388,0.009599475,-0.21585003,0.43029627,0
44116000,44116000,197388,0.006839,-0.21460007,0.42703524,0
44248000,44187636,197388,0.010016951,-0.21634907,0.43119696,0
44260000,44260000,197388,0.012974214,-0.21236825,0.43249008,0
44392000,44331272,197388,0.011201099,-0.2143739,0.4288487,0
44404000,44404000,197388,0.010627435,-0.21883138,0.4304289,0
44532000,44474545,197388,0.011419659,-0.21398759,0.4339233,0
44548000,44548000,197388,0.011615946,-0.21118908,0.43235242,0
44680000,44618909,197388,0.010852576,-0.21375613,0.4321156,0
44692000,44692000,197388,0.010495612,-0.2061395,0.42975888,0
44824000,44763636,197388,0.009645216,-0.21331716,0.43044278,0
44836000,44836000,197388,0.011143197,-0.22044319,0.43056917,0
44968000,44908000,197388,0.011260119,-0.2151431,0.4294215,0
44980000,44980000,197388,0.009651586,-0.2143888,0.43321362,0
45108000,45050909,197388,0.009078385,-0.21423295,0.42891586,0
45124000,45124000,197388,0.01006789,-0.21492167,0.42698455,0
45256000,45194909,197388,0.009670035,-0.21493292,0.42687201,0
45268000,45268000,197388,0.009747329,-0.2160195,0.42496505,0
45396000,45338909,197388,0.010133325,-0.2176872,0.43036732,0
45412000,45412000,197388,0.007180517,-0.2186553,0.42952085,0
45540000,45482545,197388,0.0113863135,-0.21554945,0.42948025,0
45556000,45556000,197388,0.008658193,-0.22207053,0.42809117,0
45684000,45626181,197388,0.011130238,-0.21671212,0.4297444,0
45700000,45700000,197388,0.00824302,-0.21032141,0.42731786,0
45828000,45770909,197388,0.011755523,-0.21732043,0.42977437,0
45844000,45844000,197388,0.0043737544,-0.21357101,0.42726704,0
45972000,45914181,197388,0.010740197,-0.2176289,0.4294457,0
45988000,45988000,197388,0.012156237,-0.21945547,0.42947188,0
46120000,46059636,197388,0.01181572,-0.21558021,0.43050918,0
46132000,46132000,197388,0.0083161,-0.21255036,0.43269873,0
46260000,46203272,197388,0.011929478,-0.21624455,0.42735142,0
46276000,46276000,197388,0.012514426,-0.21557483,0.43500286,0
46408000,46346909,197388,0.010821347,-0.21529858,0.42929912,0
46420000,46420000,197388,0.013487889,-0.2185399,0.4277051,0
46548000,46490545,197388,0.010763884,-0.21393709,0.43166876,0
46564000,46564000,197388,0.013651077,-0.21666871,0.4268032,0
46692000,46634545,197388,0.009941717,-0.21633333,0.42798573,0
46708000,46708000,197388,0.0074517927,-0.21406695,0.42882457,0
46840000,46778909,197388,0.009391774,-0.21512349,0.42923936,0
46852000,46852000,197388,0.0013829996,-0.21346018,0.42955276,0
46980000,46922909,197388,0.010795283,-0.21726908,0.42885432,0
46996000,46996000,197388,0.009016819,-0.21190766,0.430464,0
47128000,47067272,197388,0.010109782,-0.21611299,0.42982912,0
47140000,47140000,197388,0.010635994,-0.22126958,0.42729872,0
47272000,47211636,197388,0.009779771,-0.21614912,0.43021563,0
47284000,47284000,197388,0.008788545,-0.21597786,0.43273443,0
47412000,47355272,197388,0.011280564,-0.21711572,0.4309239,0
47428000,47428000,197388,0.00646418,-0.21697249,0.4327669,0
47556000,47498909,197388,0.011077608,-0.215597,0.42948598,0
47572000,47572000,197388,0.004861713,-0.22808911,0.4293765,0
47700000,47643636,197388,0.009938048,-0.21815208,0.4304677,0
47716000,47716000,197388,0.010753133,-0.22241555,0.42829713,0
47848000,47787636,197388,0.009730898,-0.21505499,0.43125933,0
47860000,47860000,197388,0.009971584,-0.21805903,0.43265134,0
47988000,47930909,197388,0.010213134,-0.21529417,0.42941484,0
48000000,48000000,197388,0.012840559,-0.22153603,0.4291485,0
48124000,48068000,197388,0.010115973,-0.2171463,0.43047842,0
48148000,48140000,197388,0.010167578,-0.21704203,0.42952064,0
48256000,48206666,197388,0.011115739,-0.21753578,0.4275275,0
48292000,48278666,197388,0.009480003,-0.21618222,0.4263228,0
48400000,48349777,197388,0.010510446,-0.21705,0.42808402,0
48436000,48422666,197388,0.010045946,-0.21483198,0.43031257,0
48540000,48494222,197388,0.010588938,-0.21516556,0.43017754,0
48580000,48566666,197388,0.013359464,-0.2145893,0.42919287,0
48676000,48633500,197388,0.011969218,-0.21745485,0.42993587,0
48724000,48704000,197388,0.009293843,-0.21452402,0.4309904,0
48808000,48770857,197388,0.01122653,-0.21560772,0.42768314,0
48856000,48838000,197388,0.009167862,-0.21781358,0.42353195,0
48952000,48909000,197388,0.011358436,-0.2142571,0.4300558,0
48996000,48980000,197388,0.012082262,-0.216433,0.43010437,0
49092000,49052000,197388,0.011925491,-0.21733591,0.4299118,0
49132000,49118666,197388,0.009959107,-0.2191864,0.42677784,0
49236000,49190222,197388,0.011938226,-0.21523811,0.43142396,0
49264000,49258000,197388,0.012225695,-0.21367563,0.427992,0
49384000,49329600,197388,0.012689434,-0.21646023,0.42880192,0
49404000,49400000,197388,0.004365333,-0.21509074,0.43052915,0
49528000,49472400,197388,0.010508994,-0.2152454,0.42970753,0
49540000,49540000,197388,0.009253505,-0.21434301,0.4226582,0
49668000,49610181,197388,0.010284717,-0.21701726,0.42880377,0
49684000,49684000,197388,0.01589841,-0.21672429,0.42778453,0
49812000,49754909,197388,0.011388513,-0.21667841,0.42786616,0
49828000,49828000,197388,0.0053482833,-0.22354345,0.4323925,0
49956000,49898181,197388,0.01109386,-0.21512537,0.43046588,0
49968000,49968000,197388,0.011484272,-0.21013801,0.4301266,0
50092000,50036800,197388,0.010826508,-0.21933539,0.42829773,0
50116000,50108000,197388,0.013699038,-0.22319219,0.4273929,0
50220000,50174666,197388,0.011874773,-0.21562153,0.42889872,0
50260000,50246666,197388,0.009632282,-0.21595666,0.42923898,0
50368000,50319111,197388,0.011804802,-0.21753934,0.4293356,0
50404000,50390666,197388,0.00964338,-0.21532488,0.43309805,0
50508000,50461777,197388,0.011796016,-0.21559617,0.4294164,0
50548000,50534666,197388,0.012440528,-0.21642739,0.42477033,0
50644000,50602000,197388,0.010633269,-0.21817784,0.42990598,0
50692000,50672000,197388,0.010860739,-0.21560755,0.42834383,0
50776000,50738857,197388,0.01156919,-0.21519679,0.42734858,0
50836000,50810400,197388,0.009770545,-0.2132823,0.43092337,0
50908000,50877333,197388,0.009334555,-0.2129294,0.4301594,0
50976000,50948000,197388,0.011658143,-0.21654558,0.4290017,0
51052000,51020000,197388,0.010829033,-0.21610725,0.42895776,0
51112000,51087200,197388,0.010810365,-0.2150855,0.42624393,0
51192000,51158857,197388,0.009274094,-0.21393007,0.42919683,0
51256000,51231200,197388,0.011933203,-0.21982594,0.43024096,0
51340000,51303428,197388,0.010733594,-0.21663742,0.4281963,0
51396000,51375200,197388,0.010954999,-0.215219,0.42597374,0
51472000,51442000,197388,0.0078582885,-0.21543637,0.43069887,0
51540000,51512666,197388,0.012819402,-0.21661931,0.43150303,0
51604000,51580000,197388,0.011334869,-0.21696968,0.42797992,0
51688000,51650285,197388,0.0116029,-0.21563485,0.42879224,0
51732000,51717000,197388,0.012560189,-0.21566173,0.4330419,0
51828000,51788500,197388,0.010286214,-0.21856157,0.42920908,0
51880000,51861000,197388,0.011817591,-0.21241987,0.42878145,0
51964000,51928000,197388,0.009830167,-0.21696684,0.43061215,0
52020000,51997600,197388,0.009909651,-0.21695495,0.42969233,0
52096000,52066000,197388,0.01007851,-0.21479206,0.42855304,0
52164000,52136000,197388,0.010785634,-0.219264,0.43037736,0
52228000,52203200,197388,0.009368446,-0.21847539,0.4300409,0
52300000,52270000,197388,0.009705199,-0.21281451,0.42922983,0
52372000,52341333,197388,0.011676639,-0.21454118,0.42984986,0
52432000,52408000,197388,0.01091283,-0.21636724,0.42970166,0
52516000,52478857,197388,0.011175046,-0.21487486,0.42848077,0
52564000,52546000,197388,0.011196159,-0.21390384,0.42811215,0
52660000,52616500,197388,0.011063536,-0.21637328,0.42788798,0
52708000,52689000,197388,0.009647462,-0.21684271,0.42870033,0
52804000,52761000,197388,0.012083065,-0.21700172,0.42837667,0
52852000,52833000,197388,0.013054576,-0.21422115,0.4285693,0
52948000,52905500,197388,0.011498606,-0.21736246,0.42749748,0
52996000,52977000,197388,0.008412921,-0.214133,0.43074858,0
53080000,53044000,197388,0.009235944,-0.21685278,0.4296566,0
53140000,53115200,197388,0.008384645,-0.21805659,0.42846146,0
