timestamp,x,y,z,vx,vy,vz,acceleration[0],acceleration[1],acceleration[2],thrust[0],thrust[1],thrust[2],yaw,yawspeed
3180000,nan,nan,nan,nan,nan,nan,0.0,0.0,100.0,-0.0,-0.0,-0.001,-6.0625942e-05,0.0
3188000,nan,nan,nan,nan,nan,nan,0.0,0.0,100.0,-0.0,-0.0,-0.001,-6.395733e-05,0.0
3276000,nan,nan,nan,nan,nan,nan,0.0,0.0,100.0,-0.0,-0.0,-0.001,1.6125096,0.0
3372000,nan,nan,nan,nan,nan,nan,0.0,0.0,100.0,-0.0,-0.0,-0.001,1.6125523,0.0
3476000,nan,nan,nan,nan,nan,nan,0.0,0.0,100.0,-0.0,-0.0,-0.001,1.6165326,0.0
3580000,nan,nan,nan,nan,nan,nan,0.0,0.0,100.0,-0.0,-0.0,-0.001,1.6166095,0.0
3676000,nan,nan,nan,nan,nan,nan,0.0,0.0,100.0,-0.0,-0.0,-0.001,1.6169862,0.0
3772000,nan,nan,nan,nan,nan,nan,0.0,0.0,100.0,-0.0,-0.0,-0.001,1.6174946,0.0
3876000,nan,nan,nan,nan,nan,nan,0.0,0.0,100.0,-0.0,-0.0,-0.001,1.618113,0.0
3980000,nan,nan,nan,nan,nan,nan,0.0,0.0,100.0,-0.0,-0.0,-0.001,1.6182387,0.0
4076000,nan,nan,nan,nan,nan,nan,0.0,0.0,100.0,-0.0,-0.0,-0.001,1.6172725,0.0
4180000,nan,nan,nan,nan,nan,nan,0.0,0.0,100.0,-0.0,-0.0,-0.001,1.6163722,0.0
4276000,nan,nan,nan,nan,nan,nan,0.0,0.0,100.0,-0.0,-0.0,-0.001,1.6166451,0.0
4380000,nan,nan,nan,nan,nan,nan,0.0,0.0,100.0,-0.0,-0.0,-0.001,1.6166441,0.0
4476000,nan,nan,nan,nan,nan,nan,0.0,0.0,100.0,-0.0,-0.0,-0.001,1.6170505,0.0
4572000,nan,nan,nan,nan,nan,nan,0.0,0.0,100.0,-0.0,-0.0,-0.001,1.6181449,0.0
4676000,nan,nan,nan,nan,nan,nan,0.0,0.0,100.0,-0.0,-0.0,-0.001,1.6191647,0.0
4772000,nan,nan,nan,nan,nan,nan,0.0,0.0,100.0,-0.0,-0.0,-0.001,1.6197075,0.0
4876000,nan,nan,nan,nan,nan,nan,0.0,0.0,100.0,-0.0,-0.0,-0.001,1.6199163,0.0
4972000,nan,nan,nan,nan,nan,nan,0.0,0.0,100.0,-0.0,-0.0,-0.001,1.6209785,0.0
5076000,nan,nan,nan,nan,nan,nan,0.0,0.0,100.0,-0.0,-0.0,-0.001,1.6219101,0.0
5172000,nan,nan,nan,nan,nan,nan,0.0,0.0,100.0,-0.0,-0.0,-0.001,1.6223786,0.0
5276000,nan,nan,nan,nan,nan,nan,0.0,0.0,100.0,-0.0,-0.0,-0.001,1.6231426,0.0
5372000,nan,nan,nan,nan,nan,nan,0.0,0.0,100.0,-0.0,-0.0,-0.001,1.6230986,0.0
5476000,nan,nan,nan,nan,nan,nan,0.0,0.0,100.0,-0.0,-0.0,-0.001,1.6225213,0.0
5580000,nan,nan,nan,nan,nan,nan,0.0,0.0,100.0,-0.0,-0.0,-0.001,1.6222177,0.0
5676000,nan,nan,nan,nan,nan,nan,0.0,0.0,100.0,-0.0,-0.0,-0.001,1.6226344,0.0
5772000,nan,nan,nan,nan,nan,nan,0.0,0.0,100.0,-0.0,-0.0,-0.001,1.6250486,0.0
5876000,nan,nan,nan,nan,nan,nan,0.0,0.0,100.0,-0.0,-0.0,-0.001,1.627028,0.0
5972000,nan,nan,nan,nan,nan,nan,0.0,0.0,100.0,-0.0,-0.0,-0.001,1.6275686,0.0
6076000,nan,nan,nan,nan,nan,nan,0.0,0.0,100.0,-0.0,-0.0,-0.001,1.6266031,0.0
6172000,nan,nan,nan,nan,nan,nan,0.0,0.0,100.0,-0.0,-0.0,-0.001,1.6255667,0.0
6276000,nan,nan,nan,nan,nan,nan,0.0,0.0,100.0,-0.0,-0.0,-0.001,1.6251007,0.0
6372000,nan,nan,nan,nan,nan,nan,0.0,0.0,100.0,-0.0,-0.0,-0.001,1.6243125,0.0
6476000,nan,nan,nan,nan,nan,nan,0.0,0.0,100.0,-0.0,-0.0,-0.001,1.6245441,0.0
6572000,nan,nan,nan,nan,nan,nan,0.0,0.0,100.0,-0.0,-0.0,-0.001,1.625257,0.0
6676000,nan,nan,nan,nan,nan,nan,0.0,0.0,100.0,-0.0,-0.0,-0.001,1.625834,0.0
6772000,nan,nan,nan,nan,nan,nan,0.0,0.0,100.0,-0.0,-0.0,-0.001,1.6266371,0.0
6876000,nan,nan,nan,nan,nan,nan,0.0,0.0,100.0,-0.0,-0.0,-0.001,1.6272988,0.0
6972000,nan,nan,nan,nan,nan,nan,0.0,0.0,100.0,-0.0,-0.0,-0.001,1.6268092,0.0
7076000,nan,nan,nan,nan,nan,nan,0.0,0.0,100.0,-0.0,-0.0,-0.001,1.6264251,0.0
7172000,nan,nan,nan,nan,nan,nan,0.0,0.0,100.0,-0.0,-0.0,-0.001,1.626098,0.0
7276000,nan,nan,nan,nan,nan,nan,0.0,0.0,100.0,-0.0,-0.0,-0.001,1.6262884,0.0
7380000,nan,nan,nan,nan,nan,nan,0.0,0.0,100.0,-0.0,-0.0,-0.001,1.6267135,0.0
7476000,nan,nan,nan,nan,nan,nan,0.0,0.0,100.0,-0.0,-0.0,-0.001,1.6269976,0.0
7572000,nan,nan,nan,nan,nan,nan,0.0,0.0,100.0,-0.0,-0.0,-0.001,1.6269072,0.0
7676000,nan,nan,nan,nan,nan,nan,0.0,0.0,100.0,-0.0,-0.0,-0.001,1.6269192,0.0
7772000,nan,nan,nan,nan,nan,nan,0.0,0.0,100.0,-0.0,-0.0,-0.001,1.6267198,0.0
7876000,nan,nan,nan,nan,nan,nan,0.0,0.0,100.0,-0.0,-0.0,-0.001,1.6262625,0.0
7980000,nan,nan,nan,nan,nan,nan,0.0,0.0,100.0,-0.0,-0.0,-0.001,1.6260653,0.0
8076000,nan,nan,nan,nan,nan,nan,0.0,0.0,100.0,-0.0,-0.0,-0.001,1.625979,0.0
8172000,nan,nan,nan,nan,nan,nan,0.0,0.0,100.0,-0.0,-0.0,-0.001,1.6257342,0.0
8276000,nan,nan,nan,nan,nan,nan,0.0,0.0,100.0,-0.0,-0.0,-0.001,1.6259158,0.0
8380000,nan,nan,nan,nan,nan,nan,0.0,0.0,100.0,-0.0,-0.0,-0.001,1.626753,0.0
8476000,nan,nan,nan,nan,nan,nan,0.0,0.0,100.0,-0.0,-0.0,-0.001,1.6274118,0.0
8572000,nan,nan,nan,nan,nan,nan,0.0,0.0,100.0,-0.0,-0.0,-0.001,1.6275691,0.0
8676000,nan,nan,nan,nan,nan,nan,0.0,0.0,100.0,-0.0,-0.0,-0.001,1.6277013,0.0
8772000,nan,nan,nan,nan,nan,nan,0.0,0.0,100.0,-0.0,-0.0,-0.001,1.6277612,0.0
8876000,nan,nan,nan,nan,nan,nan,0.0,0.0,100.0,-0.0,-0.0,-0.001,1.6275197,0.0
8972000,nan,nan,nan,nan,nan,nan,0.0,0.0,100.0,-0.0,-0.0,-0.001,1.6272185,0.0
9076000,nan,nan,nan,nan,nan,nan,0.0,0.0,100.0,-0.0,-0.0,-0.001,1.6276109,0.0
9172000,nan,nan,nan,nan,nan,nan,0.0,0.0,100.0,-0.0,-0.0,-0.001,1.6277452,0.0
9276000,nan,nan,nan,nan,nan,nan,0.0,0.0,100.0,-0.0,-0.0,-0.001,1.6275922,0.0
9380000,nan,nan,nan,nan,nan,nan,0.0,0.0,100.0,-0.0,-0.0,-0.001,1.6275891,0.0
9476000,nan,nan,nan,nan,nan,nan,0.0,0.0,100.0,-0.0,-0.0,-0.001,1.627426,0.0
9572000,nan,nan,nan,nan,nan,nan,0.0,0.0,100.0,-0.0,-0.0,-0.001,1.6273313,0.0
9676000,nan,nan,nan,nan,nan,nan,0.0,0.0,100.0,-0.0,-0.0,-0.001,1.6280539,0.0
9772000,nan,nan,nan,nan,nan,nan,0.0,0.0,100.0,-0.0,-0.0,-0.001,1.6284736,0.0
9876000,nan,nan,nan,nan,nan,nan,0.0,0.0,100.0,-0.0,-0.0,-0.001,1.6283948,0.0
9972000,nan,nan,nan,nan,nan,nan,0.0,0.0,100.0,-0.0,-0.0,-0.001,1.6282115,0.0
10076000,nan,nan,nan,nan,nan,nan,0.0,0.0,100.0,-0.0,-0.0,-0.001,1.6280253,0.0
10180000,nan,nan,nan,nan,nan,nan,0.0,0.0,100.0,-0.0,-0.0,-0.001,1.6279546,0.0
10276000,nan,nan,nan,nan,nan,nan,0.0,0.0,100.0,-0.0,-0.0,-0.001,1.627823,0.0
10372000,nan,nan,nan,nan,nan,nan,0.0,0.0,100.0,-0.0,-0.0,-0.001,1.6273412,0.0
10476000,nan,nan,nan,nan,nan,nan,0.0,0.0,100.0,-0.0,-0.0,-0.001,1.6270558,0.0
10572000,nan,nan,nan,nan,nan,nan,0.0,0.0,100.0,-0.0,-0.0,-0.001,1.6266276,0.0
10676000,nan,nan,nan,nan,nan,nan,0.0,0.0,100.0,-0.0,-0.0,-0.001,1.6261297,0.0
10780000,nan,nan,nan,nan,nan,nan,0.0,0.0,100.0,-0.0,-0.0,-0.001,1.6264019,0.0
10876000,nan,nan,nan,nan,nan,nan,0.0,0.0,100.0,-0.0,-0.0,-0.001,1.6267933,0.0
10972000,nan,nan,nan,nan,nan,nan,0.0,0.0,100.0,-0.0,-0.0,-0.001,1.6270248,0.0
11076000,nan,nan,nan,nan,nan,nan,0.0,0.0,100.0,-0.0,-0.0,-0.001,1.6272128,0.0
11172000,nan,nan,nan,nan,nan,nan,0.0,0.0,100.0,-0.0,-0.0,-0.001,1.6270559,0.0
11276000,nan,nan,nan,nan,nan,nan,0.0,0.0,100.0,-0.0,-0.0,-0.001,1.6266078,0.0
11380000,nan,nan,nan,nan,nan,nan,0.0,0.0,100.0,-0.0,-0.0,-0.001,1.6265224,0.0
11476000,nan,nan,nan,nan,nan,nan,0.0,0.0,100.0,-0.0,-0.0,-0.001,1.6262544,0.0
11572000,nan,nan,nan,nan,nan,nan,0.0,0.0,100.0,-0.0,-0.0,-0.001,1.6259722,0.0
11676000,nan,nan,nan,nan,nan,nan,0.0,0.0,100.0,-0.0,-0.0,-0.001,1.626149,0.0
11772000,nan,nan,nan,nan,nan,nan,0.0,0.0,100.0,-0.0,-0.0,-0.001,1.6257595,0.0
11876000,nan,nan,nan,nan,nan,nan,0.0,0.0,100.0,-0.0,-0.0,-0.001,1.6252987,0.0
11972000,nan,nan,nan,nan,nan,nan,0.0,0.0,100.0,-0.0,-0.0,-0.001,1.6247796,0.0
12076000,nan,nan,nan,nan,nan,nan,0.0,0.0,100.0,-0.0,-0.0,-0.001,1.6247451,0.0
12172000,nan,nan,nan,nan,nan,nan,0.0,0.0,100.0,-0.0,-0.0,-0.001,1.6250098,0.0
12276000,nan,nan,nan,nan,nan,nan,0.0,0.0,100.0,-0.0,-0.0,-0.001,1.625351,0.0
12372000,nan,nan,nan,nan,nan,nan,0.0,0.0,100.0,-0.0,-0.0,-0.001,1.6253996,0.0
12476000,nan,nan,nan,nan,nan,nan,0.0,0.0,100.0,-0.0,-0.0,-0.001,1.6256464,0.0
12572000,nan,nan,nan,nan,nan,nan,0.0,0.0,100.0,-0.0,-0.0,-0.001,1.625807,0.0
12676000,nan,nan,nan,nan,nan,nan,0.0,0.0,100.0,-0.0,-0.0,-0.001,1.6253831,0.0
12780000,nan,nan,nan,nan,nan,nan,0.0,0.0,100.0,-0.0,-0.0,-0.001,1.6246635,0.0
12876000,nan,nan,nan,nan,nan,nan,0.0,0.0,100.0,-0.0,-0.0,-0.001,1.6241841,0.0
12972000,nan,nan,nan,nan,nan,nan,0.0,0.0,100.0,-0.0,-0.0,-0.001,1.6238738,0.0
13076000,nan,nan,nan,nan,nan,nan,0.0,0.0,100.0,-0.0,-0.0,-0.001,1.6241308,0.0
13172000,nan,nan,nan,nan,nan,nan,0.0,0.0,100.0,-0.0,-0.0,-0.001,1.6242982,0.0
13276000,nan,nan,nan,nan,nan,nan,0.0,0.0,100.0,-0.0,-0.0,-0.001,1.6240351,0.0
13372000,nan,nan,nan,nan,nan,nan,0.0,0.0,100.0,-0.0,-0.0,-0.001,1.6236656,0.0
13476000,nan,nan,nan,nan,nan,nan,0.0,0.0,100.0,-0.0,-0.0,-0.001,1.6234488,0.0
13572000,nan,nan,nan,nan,nan,nan,0.0,0.0,100.0,-0.0,-0.0,-0.001,1.6233833,0.0
13676000,nan,nan,nan,nan,nan,nan,0.0,0.0,100.0,-0.0,-0.0,-0.001,1.6237509,0.0
13772000,nan,nan,nan,nan,nan,nan,0.0,0.0,100.0,-0.0,-0.0,-0.001,1.6242284,0.0
13876000,nan,nan,nan,nan,nan,nan,0.0,0.0,100.0,-0.0,-0.0,-0.001,1.6243032,0.0
13980000,nan,nan,nan,nan,nan,nan,0.0,0.0,100.0,-0.0,-0.0,-0.001,1.6240487,0.0
14076000,nan,nan,nan,nan,nan,nan,0.0,0.0,100.0,-0.0,-0.0,-0.001,1.6234479,0.0
14172000,nan,nan,nan,nan,nan,nan,0.0,0.0,100.0,-0.0,-0.0,-0.001,1.6228229,0.0
14276000,nan,nan,nan,nan,nan,nan,0.0,0.0,100.0,-0.0,-0.0,-0.001,1.6222667,0.0
14372000,nan,nan,nan,nan,nan,nan,0.0,0.0,100.0,-0.0,-0.0,-0.001,1.6215775,0.0
14476000,nan,nan,nan,nan,nan,nan,0.0,0.0,100.0,-0.0,-0.0,-0.001,1.6212748,0.0
14572000,-0.0118495235,0.010933442,0.03452229,-0.00013159824,-0.0001464617,2.3353603,0.01585211,-0.014243468,9.463144,2.8089993e-05,-2.5239471e-05,-0.01751393,1.6213506,0.0
14676000,-0.0118373465,0.010932227,0.039367285,-0.0017512694,0.0007586667,2.1463695,0.0065334886,-0.008802832,9.1759405,2.1946542e-05,-2.9569459e-05,-0.032157242,1.6214767,0.0
14772000,-0.011815128,0.0109299775,0.03316319,-0.0032942104,0.0017817498,1.9719162,0.0039156075,-0.0033308219,8.869074,1.2571632e-05,-1.0694093e-05,-0.047803104,1.621574,0.0
14876000,-0.011779167,0.010926321,0.037300225,-0.004404566,0.0025130943,1.7829251,0.0031339026,-0.0031281444,8.502221,1.6252076e-05,-1.6222217e-05,-0.06650737,1.6214005,0.0
14972000,-0.011734995,0.010921819,0.033064798,-0.004953877,0.0029085465,1.608472,0.0039010807,-0.0032699227,8.123421,2.270869e-05,-1.903464e-05,-0.085820824,1.6207668,0.0
15076000,-0.01167525,0.010915723,0.035089824,-0.007436231,0.0034417761,1.419481,-0.011491137,-0.00056807837,7.6763144,-0.00012422785,-6.1413552e-06,-0.10861689,1.6204326,0.0
15172000,-0.011609123,0.01090897,0.029795151,-0.009716418,0.0037784223,1.2450278,-0.018905774,0.002297878,7.2319384,-0.0002584676,3.1415115e-05,-0.13127378,1.620473,0.0
15276000,-0.011525594,0.010900434,0.031908397,-0.011606248,0.0039155255,1.0560371,-0.022994883,-0.0023569171,6.7114997,-0.00037159224,-3.808726e-05,-0.15780875,1.6202474,0.0
15372000,-0.011437513,0.010891428,0.029057002,-0.012866539,0.0038040574,0.88158476,-0.0232158,-0.0039688977,6.194476,-0.00043874947,-7.5007185e-05,-0.18416962,1.6202933,0.0
15476000,-0.011330199,0.010880452,0.029594513,-0.012654353,0.0047743935,0.6925949,-0.020348685,-0.0041633304,5.5988927,-0.00044734514,-9.152659e-05,-0.21453592,1.620292,0.0
15572000,-0.011220165,0.010869194,0.025949823,-0.012106398,0.005591673,0.5181426,-0.027134895,0.0055905925,5.01231,-0.00067155145,0.0001383595,-0.24444333,1.6201687,0.0
15676000,-0.011089067,0.010855778,0.026669083,-0.01160861,0.006339478,0.32915258,-0.020635212,0.009589729,4.337337,-0.00058571016,0.00027219503,-0.27885735,1.6202118,0.0
15772000,-0.010957078,0.010842268,0.025680438,-0.011144785,0.006831446,0.15470028,-0.0228764,0.008810717,3.6812005,-0.0007256221,0.00027946927,-0.312311,1.6200659,0.0
15876000,-0.010802196,0.010826412,0.025072,-0.010788925,0.00726554,0.05269588,-0.02415946,0.0074085933,3.2901325,-0.0008133668,0.00024942213,-0.33224994,1.6198275,0.0
15972000,-0.010648252,0.010810649,0.023411775,-0.010534416,0.00753107,0.0033477088,-0.023834514,0.012592213,3.0884447,-0.00083655247,0.00044196608,-0.34253314,1.6200074,0.0
16076000,-0.0104695875,0.010792354,0.022715248,-0.0102604665,0.0076486515,-0.049822327,-0.021129588,0.0072567114,2.8634965,-0.0007667912,0.00026334552,-0.3540023,1.619663,0.0
16180000,-0.01029369,0.0107743405,0.023139883,-0.010018294,0.007552622,-0.0984489,-0.02379646,0.007963493,2.646104,-0.00088650745,0.00029666995,-0.36508626,1.6190374,0.0
16276000,-0.0100912405,0.010753605,0.020783445,-0.009663783,0.0068384293,-0.15212257,-0.025774999,0.002557478,2.4033937,-0.000996155,9.884168e-05,-0.37746102,1.6183454,0.0
16380000,-0.009893388,0.010733338,0.020895965,-0.009454568,0.005950569,-0.19987725,-0.027924346,0.004455209,2.165171,-0.0011114092,0.00017732051,-0.389607,1.6177424,0.0
16476000,-0.009667155,0.010710162,0.018830486,-0.009358862,0.0051945546,-0.25466436,-0.027803734,0.00042915763,1.8919035,-0.0011317823,1.7469345e-05,-0.40353978,1.6173309,0.0
16572000,-0.009447347,0.010687644,0.021231245,-0.009313454,0.0044648475,-0.3015741,-0.026404772,4.0971558e-05,1.6382995,-0.00111382,1.728284e-06,-0.41647,1.6171594,0.0
16676000,-0.009197331,0.010662029,0.017763099,-0.008910079,0.0041702827,-0.3569084,-0.028436465,0.0014373062,1.3408346,-0.001245287,6.2942374e-05,-0.43163645,1.6171845,0.0
16772000,-0.00895557,0.010637257,0.019289132,-0.008557217,0.0040177586,-0.40300333,-0.03246728,0.0019709272,1.0772756,-0.0014792177,8.979595e-05,-0.44507423,1.6172982,0.0
16876000,-0.0086817695,0.010609201,0.015223788,-0.008370448,0.003761483,-0.45945007,-0.030892488,-0.0029427772,0.75025785,-0.0014459016,-0.00013773466,-0.4617475,1.6174668,0.0
16972000,-0.008418053,0.010582179,0.019238167,-0.008289195,0.0034112546,-0.50477386,-0.03224068,-0.0001259775,0.4693935,-0.0015593492,-6.093014e-06,-0.4760676,1.6176505,0.0
17076000,-0.008120469,0.010551685,0.014333553,-0.007769611,0.0034022043,-0.56177723,-0.02921984,-5.712692e-05,0.12268472,-0.0014763484,-2.8863687e-06,-0.49374482,1.6177624,0.0
17180000,-0.007838565,0.0105228,0.018149573,-0.0074535646,0.0033930156,-0.6063244,-0.037037607,-0.0004971377,-0.18368745,-0.0019183208,-2.5748683e-05,-0.50936544,1.6177783,0.0
17276000,-0.007533942,0.010491592,0.01318431,-0.00744705,0.0032783193,-0.6642791,-0.03724735,0.00073416776,-0.5467818,-0.0019961686,3.9345694e-05,-0.5278781,1.6175636,0.0
17372000,-0.0072545446,0.010462971,0.019140782,-0.0076117744,0.0031514666,-0.7079965,-0.035115827,0.0014477166,-0.861398,-0.0019499998,8.039244e-05,-0.5439191,1.6172445,0.0
17476000,-0.006954903,0.010432285,0.013015431,-0.0070970613,0.0031727084,-0.76657605,-0.033710234,0.0014181478,-1.2554017,-0.0019358675,8.143955e-05,-0.56400764,1.6169873,0.0
17572000,-0.006682151,0.010404358,0.01834663,-0.0065972116,0.0032340374,-0.8094874,-0.034680538,0.001585291,-2.0778904,-0.0021313373,9.742611e-05,-0.6059429,1.6167561,0.0
17676000,-0.0063920463,0.010374661,0.011950449,-0.006343498,0.0032223994,-0.8691008,-0.03272614,0.0042208424,-2.4976976,-0.0020938434,0.00027005273,-0.6273471,1.6165978,0.0
17772000,-0.0061303745,0.0103478795,0.01969754,-0.006291466,0.0031867332,-0.91121125,-0.036494292,0.0034720364,-2.8443573,-0.0024083306,0.00022912657,-0.64502186,1.6165262,0.0
17876000,-0.005854877,0.010319689,0.0099265305,-0.0048890105,0.004099246,-0.9712039,-0.031732596,0.004958785,-3.2842848,-0.0021600267,0.00033754273,-0.6674519,1.6165464,0.0
17972000,-0.0056092283,0.010294559,0.015252528,-0.003685162,0.0049310257,-1.0125488,-0.02751189,0.007460635,-3.6294017,-0.0019235254,0.00052161893,-0.685048,1.6162218,0.0
18076000,-0.0053540184,0.010268457,0.00437796,-0.0025930414,0.0055083833,-1.0735588,-0.007939971,0.0048789065,-3.9786603,-0.0005064522,0.0003112018,-0.7028552,1.6159028,0.0
18180000,-0.005129975,0.010245549,0.007841651,-0.0012506316,0.005852748,-1.1132431,0.015409885,0.011348105,-4.184677,0.0011392918,0.0008389941,-0.7133591,1.6168239,0.0
18276000,-0.004901525,0.010222196,-0.011470531,0.001176057,0.006278395,-1.1752716,0.07950716,0.050106864,-4.478368,0.0059036436,0.0037205839,-0.72833323,1.620513,0.0
18372000,-0.004706069,0.010202222,-0.015239888,0.0064459154,0.008898417,-1.2144271,0.23770192,0.20808537,-4.6647215,0.017884687,0.015656337,-0.7378346,1.6230315,0.0
18476000,-0.0045137275,0.010182576,-0.044021577,0.01719341,0.017120318,-1.2759529,0.35993683,0.35666955,-4.8464293,0.027420904,0.027171995,-0.7470991,1.6233531,0.0
18572000,-0.0043565,0.010166525,-0.05842582,0.031064462,0.029527579,-1.3132795,0.41908514,0.42651153,-4.8713784,0.031980626,0.032547336,-0.7483712,1.6226673,0.0
18676000,-0.0042112754,0.0101517085,-0.10485778,0.048407547,0.044421807,-1.373804,0.44600564,0.43891436,-4.93655,0.03418694,0.033643387,-0.75169396,1.6218888,0.0
18772000,-0.004104036,0.010140775,-0.1371828,0.06492059,0.058609873,-1.4091573,0.45891944,0.43500346,-4.877323,0.035035606,0.033209775,-0.7486743,1.6213809,0.0
18876000,-0.0040220185,0.0101324245,-0.2026995,0.082209565,0.07377009,-1.4462649,0.46551922,0.4486309,-4.4943542,0.034612324,0.03335664,-0.72914827,1.6208388,0.0
18972000,-0.003972986,0.010127658,-0.24752705,0.097284116,0.087262064,-1.4256366,0.47814465,0.46261704,-4.0958595,0.034560636,0.033438288,-0.7088307,1.6205723,0.0
19076000,-0.003924155,0.0101228915,-0.31993574,0.11763617,0.10232824,-1.4005704,0.50713545,0.47301406,-4.208007,0.03695129,0.034465108,-0.71454865,1.6203513,0.0
19172000,-0.003881476,0.010118592,-0.36609682,0.1352128,0.11525371,-1.3658974,0.5123151,0.474285,-4.2948155,0.03756021,0.034772046,-0.71897465,1.6199089,0.0
19276000,-0.0038381396,0.010114184,-0.4362794,0.15112945,0.12749667,-1.3529384,0.50254,0.46187696,-4.401144,0.037122104,0.034118365,-0.7243959,1.6194419,0.0
19380000,-0.003800674,0.010110348,-0.48361492,0.16357973,0.13746025,-1.3184593,0.47789,0.44512507,-4.3164687,0.035089765,0.032683954,-0.72007865,1.6190372,0.0
19476000,-0.0037627004,0.010106432,-0.55724305,0.17297758,0.14664039,-1.3096951,0.4662599,0.44096336,-4.3741617,0.034376193,0.032511145,-0.7230202,1.6187748,0.0
19572000,-0.0037296647,0.010103032,-0.609469,0.17977117,0.15413083,-1.2788937,0.4477864,0.42811763,-4.291035,0.032820445,0.031378828,-0.7187819,1.6184175,0.0
19676000,-0.0036949404,0.010099566,-0.6850984,0.18414032,0.15974201,-1.2631145,0.4256589,0.41453755,-4.350192,0.031329338,0.030510781,-0.72179806,1.6182501,0.0
19780000,-0.0036643874,0.010096557,-0.73846006,0.18571344,0.1629215,-1.2262126,0.3970501,0.38987723,-4.263941,0.029046047,0.02852132,-0.7174005,1.6180327,0.0
19876000,-0.0036331494,0.010093502,-0.8175295,0.18583614,0.16654798,-1.2135527,0.37699693,0.3841447,-4.3124804,0.027674139,0.028198833,-0.71987534,1.6177073,0.0
19972000,-0.0036060587,0.010090864,-0.8754956,0.1841251,0.16867088,-1.1801035,0.35143667,0.36453074,-4.225778,0.025639197,0.026594479,-0.7154547,1.6173173,0.0
20076000,-0.0035785441,0.010088146,-0.9544745,0.18017235,0.16848478,-1.1599622,0.326864,0.34605366,-4.2791686,0.0239374,0.025342725,-0.71817684,1.6170524,0.0
20172000,-0.0035548063,0.010085701,-1.0111846,0.1749249,0.1663713,-1.1257797,0.3065146,0.33113578,-4.2131357,0.022342995,0.024137726,-0.71481013,1.6170015,0.0
20276000,-0.0035308986,0.0100831725,-1.0907463,0.17290944,0.16501823,-1.1040692,0.29928824,0.32166293,-4.252757,0.021876259,0.02351172,-0.71683025,1.616691,0.0
20372000,-0.0035105217,0.010080964,-1.149132,0.17079312,0.16289434,-1.0686878,0.29312927,0.30737907,-4.175482,0.021308137,0.022343982,-0.7128903,1.6164203,0.0
20476000,-0.0034892187,0.010078708,-1.2264984,0.16634831,0.15870962,-1.045305,0.27468705,0.2913944,-4.22592,0.020040654,0.021259593,-0.71546197,1.616253,0.0
20572000,-0.0034701994,0.010076747,-1.2824205,0.16053237,0.15343237,-1.0096018,0.2545752,0.2748493,-4.1613626,0.01848761,0.019959945,-0.7121704,1.6162623,0.0
20676000,-0.0034505883,0.010074757,-1.3596815,0.15405639,0.14980008,-0.98477864,0.23933555,0.27136117,-4.1945934,0.01742225,0.01975353,-0.71386474,1.616215,0.0
20780000,-0.0034334625,0.010073046,-1.4166667,0.14644036,0.14535367,-0.94269586,0.22685026,0.2615558,-4.103741,0.01640673,0.018916773,-0.70923257,1.6161598,0.0
20876000,-0.0034159627,0.01007133,-1.4896479,0.13845587,0.1399161,-0.92151463,0.2136372,0.24866433,-4.170479,0.015524872,0.018070271,-0.7126352,1.6161183,0.0
20972000,-0.0034007872,0.010069851,-1.5419998,0.12980117,0.13345659,-0.8847641,0.19876058,0.23341084,-4.110541,0.014381621,0.01688879,-0.7095792,1.6128331,0.0
21076000,-0.0033854234,0.010068287,-1.6130422,0.12198154,0.12631802,-0.8575975,0.18937485,0.22745688,-4.1378746,0.013729696,0.016490646,-0.7109729,1.61296,0.0
21172000,-0.0033722632,0.0100669,-1.6657213,0.11474925,0.119292036,-0.8200219,0.18432881,0.21482877,-4.062126,0.013291102,0.015490316,-0.70711076,1.6134505,0.0
21276000,-0.0033591264,0.0100654755,-1.7379469,0.10631667,0.11111373,-0.796455,0.17408054,0.20360306,-4.007754,0.012501187,0.014621278,-0.70433855,1.6127812,0.0
21380000,-0.0033480527,0.010064234,-1.8045827,0.09750867,0.102604516,-0.75086963,0.16454908,0.19108018,-3.6567602,0.011517209,0.013374188,-0.68644285,1.6121963,0.0
21476000,-0.0033372222,0.010062971,-1.8699905,0.09190215,0.09466696,-0.6701878,0.16941664,0.18570688,-3.2636423,0.011512462,0.012619442,-0.6663995,1.6119783,0.0
21580000,-0.0033283308,0.010061882,-1.9209037,0.08628421,0.08623048,-0.55699223,0.1730178,0.18011855,-3.164535,0.011667688,0.012146535,-0.6613464,1.6120235,0.0
21676000,-0.003319916,0.010060793,-1.9644746,0.08078867,0.0787149,-0.4561398,0.17282353,0.17577676,-3.552619,0.012003848,0.01220897,-0.68113315,1.6128259,0.0
21780000,-0.0033130874,0.010059878,-1.9960647,0.074676506,0.07089201,-0.3868028,0.16716428,0.17222212,-3.8882003,0.01190182,0.012261929,-0.698243,1.613812,0.0
21876000,-0.0033057712,0.010059004,-2.0236044,0.06967576,0.06376121,-0.33775312,0.16490553,0.16580021,-4.1248026,0.011943257,0.012008055,-0.7103064,1.6140605,0.0
21972000,-0.003299189,0.010058306,-2.0451837,0.06463779,0.05697139,-0.31310785,0.15983228,0.16066614,-4.282432,0.011708916,0.011770002,-0.71834326,1.6136642,0.0
22076000,-0.0032924498,0.010057669,-2.0665412,0.058939334,0.05008174,-0.30168623,0.15168384,0.15434474,-4.2983613,0.011123019,0.0113181425,-0.71915543,1.6136258,-0.001311954
22180000,-0.0032866343,0.010057114,-2.085299,0.05308828,0.043565713,-0.2916716,0.14693633,0.14934826,-0.17851844,0.010678545,0.010853832,-0.7127427,1.6136258,-0.0012453818
22276000,-0.0032805596,0.010056537,-2.1047463,0.04815111,0.037423372,-0.28119928,0.14852591,0.14713839,-0.13945483,0.01075349,0.010653033,-0.70995426,1.6136258,-0.0005066518
22372000,-0.0032751795,0.010056027,-2.1219182,0.04348753,0.031627074,-0.26991248,0.1504241,0.14126751,-0.12062855,0.010870518,0.010208811,-0.7086105,1.6136258,-0.00048094286
22476000,-0.0032696186,0.010055503,-2.1397038,0.038620457,0.02591605,-0.25837815,0.14584875,0.1373065,-0.11812674,0.010536312,0.009919208,-0.7084319,1.6136258,-0.00019565936
22572000,-0.0032647368,0.010055044,-2.1553922,0.03427643,0.021123383,-0.24850003,0.1413135,0.13452214,-0.11909624,0.01021047,0.009719769,-0.7085011,1.6136258,-0.00018573107
22676000,-0.0032597245,0.010054563,-2.1716273,0.030436847,0.014424461,-0.23746477,0.14219168,0.11834149,-0.12243341,0.010277456,0.008553592,-0.7087393,1.6136258,-7.5559954e-05
22772000,-0.0032552665,0.0100541385,-2.1859365,0.027373536,0.007999387,-0.2277274,0.14608812,0.107941546,-0.11562182,0.010550489,0.0077955415,-0.7082531,1.6136258,-7.172584e-05
22876000,-0.0032506408,0.010053702,-2.200725,0.02421935,0.0017568842,-0.2177219,0.14447865,0.105071254,-0.123306386,0.010442467,0.007594223,-0.7088016,1.6136258,-2.9179831e-05
22972000,-0.003246582,0.01005332,-2.2137372,0.021429334,-0.0031493516,-0.20894627,0.1449512,0.10469121,-0.116815105,0.010469822,0.007561844,-0.70833826,1.6136258,-2.7699169e-05
23076000,-0.0032424168,0.010052925,-2.2271671,0.016418505,-0.00771288,-0.19596076,0.12814662,0.10216129,-0.10070022,0.0092424685,0.0073682973,-0.707188,1.6136258,-1.1268701e-05
23172000,-0.0032387564,0.010052575,-2.2389808,0.011239482,-0.011185656,-0.18416126,0.12006372,0.10796772,-0.08725248,0.008646918,0.007775771,-0.7062281,1.6136258,-1.06968955e-05
23276000,-0.0032349485,0.010052215,-2.2511616,0.006137909,-0.014118234,-0.17283928,0.116425134,0.111094125,-0.100526676,0.008394842,0.008010449,-0.7071756,1.6136258,-4.35176e-06
23380000,-0.0032316118,0.010051901,-2.2618544,0.0017066996,-0.016292706,-0.16295277,0.11733942,0.11148281,-0.09344592,0.00845625,0.008034184,-0.70667017,1.6136258,-4.1309395e-06
23476000,-0.003228191,0.010051576,-2.2728662,-0.0012458173,-0.01694685,-0.15233266,0.12186519,0.118742384,-0.09157096,0.008780477,0.008555475,-0.70653635,1.6136258,-1.6805675e-06
23572000,-0.0032251682,0.010051287,-2.282606,-0.0035820708,-0.016996352,-0.14214584,0.12181083,0.12410629,-0.07924557,0.008766581,0.008931782,-0.7056565,1.6136258,-1.5952908e-06
23676000,-0.0032220322,0.01005099,-2.2926517,-0.0055781733,-0.016821755,-0.13308044,0.12864438,0.12756547,-0.10024607,0.009276124,0.009198328,-0.7071556,1.6136258,-6.490034e-07
23772000,-0.003219293,0.010050731,-2.301468,-0.006978487,-0.016528644,-0.12632915,0.13021329,0.12876035,-0.09513031,0.009384239,0.009279529,-0.7067904,1.6136258,-6.1607125e-07
23876000,-0.0032164818,0.010050462,-2.3105466,-0.008597997,-0.015614012,-0.1158191,0.12877828,0.13554788,-0.090221226,0.009277764,0.009765475,-0.70644,1.6136258,-2.506329e-07
23972000,-0.0032139951,0.010050227,-2.3185136,-0.0099695,-0.01456841,-0.10666335,0.12557834,0.1369233,-0.06989613,0.009027587,0.009843154,-0.7049892,1.6136258,-2.3791506e-07
24076000,-0.0032114491,0.010049985,-2.3267176,-0.011153407,-0.013465298,-0.09872074,0.1256737,0.142649,-0.0910849,0.009054348,0.010277359,-0.70650166,1.6136258,-9.67897e-08
24180000,-0.0032092037,0.0100497715,-2.333918,-0.012043453,-0.012335378,-0.09261871,0.12745298,0.1481148,-0.08507549,0.009175828,0.01066335,-0.7060727,1.6136258,-9.187832e-08
24276000,-0.0032068957,0.010049554,-2.3413317,-0.010147574,-0.007922407,-0.082654536,0.13979426,0.1679845,-0.083677925,0.010063079,0.012092351,-0.7059729,1.6136258,-3.7378356e-08
24380000,-0.003204873,0.010049362,-2.3478384,-0.007464678,-0.0026602133,-0.07205625,0.15263337,0.18158594,-0.05186079,0.010952474,0.013030016,-0.7037018,1.6136258,-3.5481673e-08
24476000,-0.0032027834,0.010049164,-2.3545368,-0.005274676,0.0015395554,-0.065192476,0.15673336,0.18537584,-0.08620688,0.011286152,0.013348656,-0.70615345,1.6136258,-1.4434814e-08
24572000,-0.003200952,0.01004899,-2.3604162,-0.0033986086,0.0050559025,-0.060335025,0.15644144,0.18693961,-0.07722254,0.011254061,0.013448034,-0.70551217,1.6136258,-1.3702352e-08
24676000,-0.0031990614,0.010048811,-2.3664672,-0.0013111328,0.010317393,-0.053783655,0.16557938,0.19774301,-0.094523355,0.011933826,0.01425196,-0.70674706,1.6136258,-5.5744533e-09
24772000,-0.003197403,0.010048653,-2.371779,0.00045077084,0.014973161,-0.048611384,0.16303664,0.20213553,-0.07760636,0.011729234,0.014542097,-0.7055395,1.6136258,-5.2915903e-09
24876000,-0.0031956993,0.010048492,-2.377234,0.0019373856,0.018869527,-0.04466462,0.16377486,0.20660788,-0.104555376,0.011816133,0.014906476,-0.70746315,1.6136258,-2.1527489e-09
24972000,-0.0031942164,0.010048351,-2.3819816,0.0029633027,0.021558262,-0.04225089,0.16317667,0.20353043,-0.09739877,0.011763528,0.014672658,-0.70695233,1.6136258,-2.0435125e-09
25076000,-0.0031926916,0.010048206,-2.3868632,0.003428139,0.0255311,-0.03842568,0.16349731,0.20936371,-0.1100034,0.011800686,0.01511117,-0.70785207,1.6136258,-8.3135104e-10
25180000,-0.0031913554,0.010048078,-2.3911426,0.0036242637,0.028835684,-0.035354707,0.16165987,0.21483392,-0.09684582,0.011653411,0.015486514,-0.7069129,1.6136258,-7.891659e-10
25276000,-0.0031899814,0.010047949,-2.395544,0.0037042415,0.030935593,-0.033537626,0.16158858,0.20856799,-0.11085893,0.011664918,0.015056314,-0.7079131,1.6136258,-3.2105202e-10
25380000,-0.0031887756,0.010047835,-2.3994067,0.0037081197,0.03226073,-0.031835463,0.16095436,0.20831247,-0.10272905,0.011608751,0.015024431,-0.7073328,1.6136258,-3.0476094e-10
25476000,-0.003187534,0.010047719,-2.4033837,0.0048956433,0.033019118,-0.027657986,0.16570912,0.20490824,-0.09834876,0.011947623,0.014773877,-0.70702016,1.6136258,-1.2398423e-10
25572000,-0.0031864438,0.010047616,-2.406875,0.0061466503,0.033149138,-0.02357445,0.16486895,0.2035993,-0.091760464,0.011877947,0.014668267,-0.7065499,1.6136258,-1.1769294e-10
25676000,-0.0031853209,0.010047509,-2.410472,0.007198534,0.032727808,-0.020765543,0.16906823,0.19565341,-0.09892522,0.012189533,0.014106281,-0.7070613,1.6136258,-4.7880373e-11
25772000,-0.0031843344,0.010047417,-2.4136329,0.007940052,0.031885803,-0.01911905,0.17003033,0.19275233,-0.10231751,0.012262834,0.013901577,-0.7073034,1.6136258,-4.5450785e-11
25876000,-0.0031833178,0.010047321,-2.416891,0.008594542,0.032053247,-0.01285338,0.1688216,0.19576678,-0.0856522,0.012154813,0.014094811,-0.7061139,1.6136258,-1.8490496e-11
25972000,-0.0031824256,0.010047237,-2.419752,0.009054698,0.032068126,-0.007615328,0.17560644,0.19712076,-0.0775148,0.012632974,0.014180695,-0.705533,1.6136258,-1.7552236e-11
26076000,-0.0031815057,0.010047149,-2.422699,0.009465942,0.03160816,-0.0042808056,0.17370185,0.19455177,-0.08904132,0.012512242,0.01401412,-0.70635575,1.6136258,-7.1406804e-12
26180000,-0.0031806978,0.010047071,-2.4252884,0.009728203,0.030628422,-0.0027205944,0.17338468,0.1897386,-0.09860343,0.012500144,0.0136791775,-0.70703834,1.6136258,-6.778342e-12
26276000,-0.003179865,0.0100469915,-2.427957,0.00817411,0.030068628,0.002493143,0.16248195,0.1889208,-0.08159527,0.011694051,0.013596891,-0.70582426,1.6136258,-2.7575962e-12
26372000,-0.0031791339,0.0100469235,-2.4303024,0.006411411,0.029253112,0.006614208,0.15797997,0.19123854,-0.08082394,0.011369082,0.013762547,-0.70576924,1.6136258,-2.6176682e-12
26476000,-0.0031783793,0.010046853,-2.43272,0.004722972,0.028077219,0.008851767,0.15557346,0.19021347,-0.09295425,0.011210509,0.013706641,-0.70663506,1.6136258,-1.0649317e-12
26580000,-0.0031777166,0.0100467885,-2.4348445,0.0033522234,0.026713224,0.0095562935,0.1583429,0.1856975,-0.101746686,0.011419304,0.01339205,-0.7072627,1.6136258,-1.0108941e-12
26676000,-0.0031770328,0.010046723,-2.4370363,0.0030698744,0.023401381,0.014290571,0.16153224,0.1758668,-0.086419225,0.011631095,0.012663252,-0.7061686,1.6136258,-4.112565e-13
26780000,-0.003176431,0.010046667,-2.438964,0.0031393657,0.019494891,0.018943071,0.16530573,0.169533,-0.07651281,0.0118923,0.012196416,-0.7054615,1.6136258,-3.9038822e-13
26876000,-0.0031758095,0.010046609,-2.440953,0.0033259052,0.016260931,0.020870209,0.1667735,0.16623695,-0.09013647,0.012014408,0.011975753,-0.70643395,1.6136258,-1.5881952e-13
26972000,-0.0031752633,0.0100465575,-2.442702,0.0035855272,0.013417464,0.021140814,0.17205748,0.16539034,-0.09986503,0.012407778,0.011926983,-0.70712835,1.6136258,-1.5076056e-13
27076000,-0.0031747003,0.010046505,-2.4445057,0.003928537,0.010843131,0.022946835,0.17025533,0.1653694,-0.10117733,0.012277413,0.01192508,-0.70722204,1.6136258,-6.13331e-14
27172000,-0.0031742053,0.01004646,-2.4460907,0.0042142137,0.0087924795,0.024020195,0.17085019,0.15839918,-0.09965019,0.012319676,0.0114218565,-0.707113,1.6136258,-5.8220884e-14
27276000,-0.0031736956,0.010046411,-2.4477239,0.0046285256,0.006789535,0.023765802,0.17721894,0.16257879,-0.10718782,0.012788469,0.011732007,-0.7076511,1.6136258,-2.3685684e-14
27372000,-0.0031732484,0.01004637,-2.4491584,0.0051134503,0.0052917437,0.022384167,0.18053178,0.16540565,-0.11867787,0.013042514,0.011949726,-0.70847124,1.6136258,-2.2483805e-14
27476000,-0.0031727874,0.010046327,-2.4506369,0.0045292946,0.0017023503,0.024652958,0.1753116,0.15387449,-0.10435838,0.012648113,0.011101501,-0.7074491,1.6136258,-9.146964e-15
27572000,-0.003172382,0.010046289,-2.4519355,0.0037706974,-0.0017593352,0.026637077,0.17220575,0.14961849,-0.10259825,0.012421394,0.010792149,-0.7073235,1.6136258,-8.682822e-15
27676000,-0.003171965,0.01004625,-2.4532723,0.0032491083,-0.0046865735,0.026665688,0.17362286,0.15064816,-0.11500515,0.012539746,0.01088042,-0.7082091,1.6136258,-3.5323849e-15
27772000,-0.0031716,0.010046216,-2.4544442,0.003014971,-0.0066841696,0.025793076,0.1739445,0.15125614,-0.12112557,0.012571071,0.010931371,-0.70864594,1.6136258,-3.353142e-15
27876000,-0.0031712241,0.010046181,-2.4556487,0.0007680756,-0.010792589,0.028820515,0.1666613,0.14321795,-0.099376485,0.012016352,0.010326077,-0.7070935,1.6136258,-1.3641405e-15
27972000,-0.003170895,0.010046152,-2.4567037,-0.0012576437,-0.014213924,0.030966997,0.1604638,0.14176154,-0.09513774,0.011565816,0.010217805,-0.7067909,1.6136258,-1.2949201e-15
28076000,-0.0031705536,0.010046121,-2.4577975,-0.0028106365,-0.016859753,0.031121492,0.16268519,0.13760318,-0.10598516,0.011736837,0.009927308,-0.70756525,1.6136258,-5.2680537e-16
28180000,-0.003170254,0.010046093,-2.458757,-0.0037141412,-0.018644955,0.029539585,0.16287579,0.14015405,-0.11850916,0.011766672,0.010125181,-0.7084592,1.6136258,-5.000738e-16
28276000,-0.0031699454,0.010046064,-2.459745,-0.0043115183,-0.0189911,0.03342104,0.16482207,0.14760694,-0.0969805,0.011880718,0.010639816,-0.7069225,1.6136258,-2.0344228e-16
28380000,-0.0031696744,0.010046039,-2.4606116,-0.004606995,-0.018553836,0.037204027,0.16386792,0.15663713,-0.08656697,0.0118007045,0.01127999,-0.70617914,1.6136258,-1.9311907e-16
28476000,-0.003169396,0.010046012,-2.4615037,-0.0045471992,-0.017657459,0.03868842,0.16766484,0.16313423,-0.088508405,0.012075482,0.011749181,-0.7063177,1.6136258,-7.856558e-17
28580000,-0.003169152,0.010045988,-2.4622862,-0.0041401302,-0.016343864,0.038505793,0.17140527,0.16415499,-0.10752321,0.012369055,0.011845856,-0.707675,1.6136258,-7.457894e-17
28676000,-0.0031689005,0.010045965,-2.463092,-0.006744627,-0.015970452,0.042910814,0.1609266,0.17039613,-0.08862801,0.011590177,0.012272188,-0.70632625,1.6136258,-3.034054e-17
28780000,-0.0031686795,0.010045945,-2.4637997,-0.009684621,-0.015372127,0.046747446,0.15486081,0.17310715,-0.082190685,0.011146968,0.01246035,-0.70586675,1.6136258,-2.880098e-17
28876000,-0.0031684525,0.010045923,-2.4645276,-0.011547359,-0.014440502,0.047678232,0.14840251,0.17111382,-0.09476391,0.010693901,0.01233048,-0.7067642,1.6136258,-1.17169455e-17
28972000,-0.003168253,0.010045903,-2.465167,-0.012679958,-0.013298383,0.04668498,0.15362069,0.17339706,-0.11161505,0.011090118,0.012517805,-0.7079671,1.6136258,-1.1122395e-17
29076000,-0.0031680474,0.010045883,-2.4658248,-0.015236307,-0.012505214,0.052213192,0.1561636,0.17535084,-0.07900515,0.0112365885,0.012617185,-0.70563936,1.6136258,-4.524863e-18
29172000,-0.0031678667,0.010045866,-2.4664018,-0.017093543,-0.011659345,0.05655694,0.14900471,0.17876726,-0.06683345,0.010708227,0.012847114,-0.70477057,1.6136258,-4.295258e-18
29276000,-0.003167681,0.010045847,-2.4669957,-0.01827287,-0.010393805,0.05807233,0.14136623,0.18133974,-0.08222621,0.010174647,0.013051688,-0.7058693,1.6136258,-1.7474166e-18
29380000,-0.0031675175,0.010045831,-2.4675167,-0.018776922,-0.008969352,0.05691147,0.14818029,0.18466952,-0.10671036,0.010693534,0.013326805,-0.707617,1.6136258,-1.6587477e-18
29476000,-0.0031673498,0.010045814,-2.468053,-0.019447448,-0.009106427,0.057746172,0.15245087,0.17665747,-0.099620804,0.010993211,0.012738747,-0.70711094,1.6136258,-6.748193e-19
29580000,-0.0031672027,0.010045801,-2.4685242,-0.01961663,-0.009122579,0.05717063,0.14957292,0.1803467,-0.10368615,0.010788941,0.013008703,-0.7074011,1.6136258,-6.405771e-19
29676000,-0.0031670514,0.010045789,-2.469009,-0.019288678,-0.008687151,0.05487442,0.15008439,0.18218467,-0.113638744,0.010836234,0.013153904,-0.7081115,1.6136258,-2.606025e-19
29772000,-0.0031669186,0.010045778,-2.4694338,-0.01857883,-0.007889382,0.05166745,0.15391766,0.18805021,-0.124990284,0.011127057,0.013594578,-0.7089218,1.6136258,-2.473788e-19
29876000,-0.003166782,0.010045766,-2.4698718,-0.018743249,-0.008013681,0.052969933,0.15679473,0.18623146,-0.10394735,0.011310392,0.013433814,-0.70741975,1.6136258,-1.0063978e-19
29972000,-0.0031666618,0.010045755,-2.470256,-0.018773038,-0.008077383,0.054566383,0.15446481,0.18508647,-0.09458263,0.011130967,0.013337609,-0.7067513,1.6136258,-9.553304e-20
30076000,-0.0031665384,0.010045743,-2.4706519,-0.018262694,-0.0076562287,0.053949594,0.15213609,0.18286265,-0.10032784,0.010971192,0.013187019,-0.7071614,1.6136258,-3.8865188e-20
30172000,-0.0031664302,0.010045731,-2.470999,-0.017477557,-0.006980338,0.05194235,0.15499032,0.18622841,-0.11198153,0.011189431,0.013444647,-0.70799327,1.6136258,-3.6893057e-20
30276000,-0.0031663189,0.010045719,-2.4713566,-0.017844887,-0.00951966,0.054833412,0.15161894,0.1708843,-0.08930237,0.01092056,0.012308173,-0.7063744,1.6136258,-1.5009002e-20
30372000,-0.0031662208,0.010045708,-2.4716702,-0.018190028,-0.012277272,0.057530403,0.14921744,0.16986626,-0.082631275,0.0107393665,0.012225489,-0.7058982,1.6136258,-1.4247402e-20
30476000,-0.00316612,0.010045697,-2.471993,-0.018059004,-0.014089094,0.05760646,0.15019004,0.16727474,-0.097978525,0.01082707,0.012058692,-0.7069937,1.6136258,-5.7961935e-21
30572000,-0.0031660318,0.010045689,-2.4722764,-0.017589673,-0.014864241,0.05581665,0.15033615,0.17165132,-0.114094615,0.010855125,0.012394202,-0.70814407,1.6136258,-5.502079e-21
30676000,-0.0031659408,0.010045679,-2.4725678,-0.017536888,-0.015910747,0.059199333,0.15118416,0.17194127,-0.089063555,0.010888856,0.012383862,-0.70635736,1.6136258,-2.2383806e-21
30772000,-0.0031658614,0.010045674,-2.4728236,-0.01729474,-0.016467404,0.06212592,0.15460016,0.16977881,-0.07724202,0.011123244,0.012215326,-0.70551354,1.6136258,-2.124799e-21
30876000,-0.0031657792,0.010045669,-2.4730875,-0.01647356,-0.016350372,0.06300688,0.15753552,0.17052507,-0.08937829,0.011347145,0.012282769,-0.70637983,1.6136258,-8.644204e-22
30972000,-0.0031657068,0.010045664,-2.4733188,-0.015417298,-0.015692266,0.061677694,0.16056146,0.17622009,-0.10239359,0.011580339,0.012709702,-0.7073088,1.6136258,-8.2055726e-22
31076000,-0.0031656325,0.01004566,-2.473556,-0.015869452,-0.0175663,0.062994,0.15324058,0.16738825,-0.0983679,0.011047444,0.012067381,-0.7070215,1.6136258,-3.3382284e-22
31172000,-0.0031655675,0.010045655,-2.473765,-0.016410569,-0.019433891,0.06344795,0.14887962,0.16928175,-0.09796576,0.010734151,0.012205135,-0.7069928,1.6136258,-3.168837e-22
31276000,-0.003165501,0.01004565,-2.47398,-0.016513543,-0.020238187,0.06151128,0.1464296,0.1707391,-0.11099521,0.010570044,0.012324828,-0.7079228,1.6136258,-1.2891608e-22
31372000,-0.003165442,0.010045646,-2.4741685,-0.01628722,-0.020110073,0.058324337,0.14712979,0.17611153,-0.1197681,0.010630782,0.012724841,-0.708549,1.6136258,-1.2237453e-22
31476000,-0.0031653813,0.010045641,-2.4743626,-0.016095666,-0.020794388,0.060234547,0.14988776,0.17364644,-0.09834029,0.010806384,0.012519301,-0.7070195,1.6136258,-4.9784968e-23
31572000,-0.0031653321,0.010045636,-2.474533,-0.015732644,-0.02114486,0.062203646,0.15144856,0.1726344,-0.08858074,0.010907622,0.012433467,-0.7063229,1.6136258,-4.7258735e-23
31676000,-0.003165283,0.010045632,-2.4747086,-0.015014551,-0.020710684,0.06182885,0.14948663,0.1760032,-0.09781356,0.01077532,0.012686692,-0.70698196,1.6136258,-1.9226015e-23
31772000,-0.0031652378,0.010045627,-2.4748623,-0.014142135,-0.019670147,0.05951047,0.15003026,0.17850557,-0.112659305,0.010833596,0.012889782,-0.7080416,1.6136258,-1.8250434e-23
31876000,-0.0031651887,0.0100456225,-2.4750202,-0.012964478,-0.02162308,0.062037706,0.1513003,0.17286836,-0.09060979,0.010900205,0.012454043,-0.70646775,1.6136258,-7.424726e-24
31972000,-0.0031651445,0.010045618,-2.475159,-0.011779071,-0.023586128,0.06450558,0.15578532,0.16814126,-0.0850117,0.0112175355,0.012107241,-0.70606816,1.6136258,-7.047974e-24
32076000,-0.0031650995,0.010045613,-2.4753017,-0.010404309,-0.024409084,0.06422949,0.1611255,0.17081153,-0.09650412,0.011613819,0.012311982,-0.70688844,1.6136258,-2.8672887e-24
32172000,-0.0031650597,0.0100456085,-2.4754272,-0.009093927,-0.024149267,0.062299013,0.15772656,0.1731415,-0.111502394,0.011385574,0.012498311,-0.70795906,1.6136258,-2.7217946e-24
32276000,-0.0031650185,0.010045604,-2.4755561,-0.007553853,-0.026055101,0.066385746,0.15335386,0.16812912,-0.0879499,0.011044365,0.012108462,-0.70627785,1.6136258,-1.1072929e-24
32380000,-0.003164983,0.010045599,-2.4756699,-0.0062185233,-0.027407035,0.06925964,0.15464872,0.16733132,-0.07966291,0.011127757,0.012040335,-0.70568633,1.6136258,-1.0511057e-24
32476000,-0.0031649459,0.010045595,-2.4757864,-0.005195311,-0.027502587,0.06901765,0.15580012,0.1681851,-0.093764156,0.01122891,0.0121215265,-0.7066929,1.6136258,-4.276156e-25
32572000,-0.0031649135,0.010045593,-2.4758887,-0.0043246658,-0.026773114,0.06687379,0.15493388,0.17416678,-0.10729345,0.011180484,0.012568386,-0.7076586,1.6136258,-4.059172e-25
32676000,-0.00316488,0.01004559,-2.4759943,-0.0039980155,-0.028243558,0.07032657,0.15676,0.16741818,-0.08333044,0.011285302,0.012052594,-0.7059481,1.6136258,-1.6513709e-25
32772000,-0.0031648506,0.010045588,-2.4760869,-0.0038928937,-0.029528307,0.073182344,0.14985597,0.16204399,-0.075983986,0.010780086,0.011656847,-0.7054237,1.6136258,-1.5675756e-25
32876000,-0.0031648208,0.010045585,-2.476182,-0.0038549579,-0.02973526,0.073200226,0.14650871,0.1688135,-0.093520276,0.010558289,0.012165705,-0.70667547,1.6136258,-6.377282e-26
32972000,-0.0031647943,0.010045583,-2.4762657,-0.0039089746,-0.028915197,0.07123685,0.14478825,0.17448513,-0.101431765,0.01044143,0.012583027,-0.7072402,1.6136258,-6.0536816e-26
33076000,-0.0031647673,0.010045581,-2.4763503,-0.0015837617,-0.030515037,0.07630515,0.15580499,0.1700097,-0.06998581,0.011201168,0.012222378,-0.7049956,1.6136258,-2.4627863e-26
33172000,-0.0031647438,0.010045579,-2.476424,0.00097417115,-0.03180301,0.080947876,0.15912387,0.17203256,-0.054384083,0.011422408,0.012349035,-0.7038819,1.6136258,-2.3378175e-26
33276000,-0.003164734,0.010045578,-2.4765015,0.0031573323,-0.03176239,0.08228207,0.16212443,0.17362756,-0.069900826,0.011656015,0.012483039,-0.7049895,1.6136258,-9.510816e-27
33380000,-0.003164734,0.010045578,-2.4765697,0.004680576,-0.030593388,0.08019805,0.15943408,0.17542142,-0.09109904,0.011486993,0.012638858,-0.7065027,1.6136258,-9.028211e-27
33476000,-0.003164734,0.010045578,-2.4766393,0.007580087,-0.031714655,0.08245516,0.16714609,0.1695677,-0.07751108,0.0120267,0.012200944,-0.7055327,1.6136258,-3.6728982e-27
33572000,-0.003164734,0.010045578,-2.4767003,0.010331551,-0.03249688,0.08354235,0.17277926,0.1716384,-0.07468024,0.012426656,0.012344602,-0.70533067,1.6136258,-3.486525e-27
33676000,-0.003164734,0.010045578,-2.4767637,0.012430049,-0.0320243,0.08152485,0.170194,0.17311883,-0.09732276,0.012268517,0.012479356,-0.7069469,1.6136258,-1.4184039e-27
33772000,-0.003164734,0.010045578,-2.4768193,0.013620756,-0.030585878,0.07741761,0.16835053,0.18170206,-0.11743455,0.012161416,0.013125913,-0.7083825,1.6136258,-1.3464301e-27
33876000,-0.003164734,0.010045578,-2.476877,0.014467724,-0.03058395,0.07808733,0.16709262,0.18079533,-0.095101655,0.0120438645,0.01303154,-0.70678836,1.6136258,-5.477608e-28
33980000,-0.003164734,0.010045578,-2.4769273,0.014756719,-0.030288694,0.0787766,0.1613868,0.18036434,-0.08408891,0.011618437,0.012984654,-0.70600224,1.6136258,-5.199659e-28
34076000,-0.003164734,0.010045578,-2.4769797,0.01452108,-0.029030427,0.07690191,0.15932794,0.1854437,-0.09550567,0.011483042,0.01336525,-0.7068172,1.6136258,-2.115349e-28
34180000,-0.003164734,0.010045578,-2.4770246,0.013818778,-0.026805054,0.07266569,0.15404004,0.19416907,-0.11143985,0.011120601,0.014017633,-0.7079546,1.6136258,-2.0080104e-28
34276000,-0.003164734,0.010045578,-2.4770713,0.01488658,-0.02822515,0.07466006,0.16070275,0.18227911,-0.084604405,0.01157057,0.013124065,-0.7060391,1.6136258,-8.169079e-29
34372000,-0.003164734,0.010045578,-2.4771128,0.01590462,-0.029617285,0.07641888,0.15933123,0.17516738,-0.07029182,0.011455006,0.012593535,-0.70501745,1.6136258,-7.754558e-29
34476000,-0.003164734,0.010045578,-2.477155,0.016260423,-0.029735371,0.07532048,0.16311209,0.17813873,-0.08747466,0.011747522,0.012829758,-0.70624393,1.6136258,-3.1547446e-29
34572000,-0.003164734,0.010045578,-2.477192,0.01611993,-0.028753519,0.072190285,0.16038123,0.18728557,-0.1051141,0.011571082,0.013512161,-0.707503,1.6136258,-2.994664e-29
34676000,-0.003164734,0.010045578,-2.4772303,0.017214658,-0.030061519,0.07461643,0.1617159,0.18368034,-0.08274025,0.011640023,0.013220986,-0.705906,1.6136258,-1.2183029e-29
34772000,-0.003164734,0.010045578,-2.4772637,0.017925978,-0.030673638,0.07590604,0.16345963,0.18193781,-0.07311048,0.011755328,0.013084199,-0.7052186,1.6136258,-1.1564828e-29
34876000,-0.003164734,0.010045578,-2.477298,0.018062092,-0.029999409,0.07431221,0.16422959,0.18575709,-0.09116599,0.011830759,0.013381555,-0.70650744,1.6136258,-4.7048565e-30
34980000,-0.003164734,0.010045578,-2.4773278,0.017728632,-0.02820051,0.0705502,0.16269441,0.1937115,-0.11029087,0.0117446445,0.013983718,-0.70787257,1.6136258,-4.4661187e-30
35076000,-0.003164734,0.010045578,-2.4773588,0.018913329,-0.029380642,0.07135749,0.16218561,0.18802948,-0.09579457,0.011689115,0.013551746,-0.70683783,1.6136258,-1.8169268e-30
35180000,-0.003164734,0.010045578,-2.4773865,0.019858008,-0.0302658,0.07152033,0.16210976,0.18742068,-0.086302,0.011674694,0.0134975165,-0.70616025,1.6136258,-1.7247308e-30
35276000,-0.003164734,0.010045578,-2.4774148,0.020024125,-0.029708277,0.06953287,0.1649508,0.19342615,-0.10307661,0.011898018,0.013951966,-0.7073576,1.6136258,-7.0166288e-31
35380000,-0.003164734,0.010045578,-2.4774399,0.019615183,-0.027901145,0.06563997,0.16388133,0.19786046,-0.11563474,0.011835293,0.014289223,-0.70825404,1.6136258,-6.660585e-31
35476000,-0.003164734,0.010045578,-2.4774656,0.022633145,-0.029253962,0.06613493,0.17547457,0.1877827,-0.0962542,0.012648705,0.013535911,-0.7068706,1.6136258,-2.7096892e-31
35580000,-0.003164734,0.010045578,-2.4774888,0.025764003,-0.030388743,0.06606579,0.17610703,0.18532203,-0.09317643,0.012691048,0.01335512,-0.7066509,1.6136258,-2.572192e-31
35676000,-0.003164734,0.010045578,-2.4775124,0.027416248,-0.030079423,0.06392288,0.1797786,0.19157979,-0.10100485,0.012964348,0.013815366,-0.7072097,1.6136258,-1.0464308e-31
35780000,-0.003164734,0.010045578,-2.4775324,0.028125465,-0.028544143,0.059951544,0.17436965,0.19541106,-0.11275247,0.012588907,0.014108026,-0.7080483,1.6136258,-9.93332e-32
35876000,-0.003164734,0.010045578,-2.4775538,0.03088938,-0.032980934,0.060103416,0.18394233,0.17339408,-0.10188718,0.013267404,0.01250658,-0.7072727,1.6136258,-4.041118e-32
35980000,-0.003164734,0.010045578,-2.4775717,0.032972705,-0.036757365,0.059337378,0.18047439,0.1699521,-0.09738638,0.013010321,0.012251773,-0.70695144,1.6136258,-3.8360604e-32
36076000,-0.003164734,0.010045578,-2.4775906,0.033645026,-0.038352206,0.05688572,0.17691179,0.16759813,-0.105912104,0.012763487,0.012091543,-0.70756,1.6136258,-1.5606036e-32
36180000,-0.003164734,0.010045578,-2.4776068,0.033270728,-0.03834752,0.05317831,0.17609717,0.18203922,-0.1152438,0.012716813,0.013145918,-0.7082261,1.6136258,-1.4814143e-32
36276000,-0.003164734,0.010045578,-2.4776225,0.03495375,-0.04241804,0.054954767,0.18381329,0.16729447,-0.095099896,0.013246865,0.012056405,-0.70678824,1.6136258,-6.026757e-33
36380000,-0.003164734,0.010045578,-2.4776368,0.03638559,-0.04613659,0.05635953,0.18614234,0.1577011,-0.08304668,0.013397842,0.011350746,-0.70592785,1.6136258,-5.7209426e-33
36476000,-0.003164734,0.010045578,-2.4776511,0.036637172,-0.047530495,0.055361986,0.18672593,0.16137536,-0.093863025,0.013455688,0.011628896,-0.70669997,1.6136258,-2.3274197e-33
36580000,-0.003164734,0.010045578,-2.4776638,0.03598823,-0.04716689,0.052838087,0.17866375,0.16817659,-0.10496203,0.012889626,0.012133034,-0.7074922,1.6136258,-2.2093198e-33
36676000,-0.003164734,0.010045578,-2.4776766,0.0374716,-0.048824105,0.053795815,0.18456957,0.1676941,-0.09259597,0.013299308,0.012083331,-0.7066095,1.6136258,-8.988056e-34
36772000,-0.003164734,0.010045578,-2.4776883,0.038666617,-0.049645558,0.054248333,0.18685824,0.16906172,-0.09255662,0.013463904,0.012181592,-0.7066067,1.6136258,-8.531976e-34
36876000,-0.003164734,0.010045578,-2.4777007,0.038761154,-0.048666216,0.052516222,0.18728694,0.17265734,-0.10529401,0.013510911,0.012455527,-0.7075159,1.6136258,-3.471017e-34
36972000,-0.003164734,0.010045578,-2.4777112,0.037964437,-0.04648506,0.049599648,0.18160447,0.18266656,-0.11495786,0.013114627,0.013191326,-0.7082057,1.6136258,-3.2948875e-34
37076000,-0.003164734,0.010045578,-2.4777222,0.039510258,-0.04751384,0.04975891,0.18402763,0.17167251,-0.103322856,0.013274326,0.012383124,-0.70737517,1.6136258,-1.3404411e-34
37172000,-0.003164734,0.010045578,-2.4777315,0.040442687,-0.047963094,0.04908991,0.18638174,0.17048329,-0.10303384,0.013444312,0.012297507,-0.70735455,1.6136258,-1.2724234e-34
37276000,-0.003164734,0.010045578,-2.477741,0.0402504,-0.04680102,0.046455145,0.18608452,0.1761734,-0.108613126,0.013430136,0.012714829,-0.7077528,1.6136258,-5.1765304e-35
37372000,-0.003164734,0.010045578,-2.4777496,0.03918058,-0.044549033,0.0431633,0.18139707,0.1833358,-0.115860865,0.013102218,0.013242251,-0.70827013,1.6136258,-4.9138585e-35
37476000,-0.003164734,0.010045578,-2.477759,0.040738154,-0.045989238,0.04476452,0.18709713,0.17416033,-0.09943306,0.013491341,0.012558485,-0.70709753,1.6136258,-1.9990782e-35
37572000,-0.003164734,0.010045578,-2.4777665,0.041687585,-0.046797827,0.04585409,0.18893918,0.17348845,-0.09414758,0.0136156995,0.01250226,-0.70672023,1.6136258,-1.8976395e-35
37676000,-0.003164734,0.010045578,-2.4777749,0.04143099,-0.045953423,0.044367075,0.18374003,0.17455441,-0.10287619,0.013253301,0.012590737,-0.7073433,1.6136258,-7.720063e-36
37780000,-0.003164734,0.010045578,-2.4777822,0.040103845,-0.043686967,0.041422606,0.17537993,0.18455175,-0.11910095,0.012670741,0.01333338,-0.70850146,1.6136258,-7.328325e-36
37876000,-0.003164734,0.010045578,-2.4777896,0.039638113,-0.04512729,0.042806387,0.1794223,0.17414236,-0.09995414,0.012938243,0.012557504,-0.7071347,1.6136258,-2.9813425e-36
37972000,-0.003164734,0.010045578,-2.4777963,0.03877895,-0.0462275,0.04380989,0.18054208,0.17275007,-0.09303161,0.013009849,0.012448358,-0.7066406,1.6136258,-2.8300611e-36
38076000,-0.003164734,0.010045578,-2.4778032,0.03705636,-0.045689728,0.04314208,0.17617248,0.17264707,-0.10511654,0.0127092,0.012454877,-0.7075032,1.6136258,-1.1513383e-36
38172000,-0.0032062517,0.010095217,-2.4776952,0.033254746,-0.041940022,0.04713031,0.1356679,0.22252445,0.12673227,0.00955914,0.015679039,-0.6909484,1.6136829,0.00029270037
38276000,-0.0035413564,0.010506479,-2.4751098,0.02884252,-0.038671143,0.0949166,0.13898599,0.22129185,0.5675948,0.009346411,0.014881246,-0.659485,1.6136829,0.00011907769
38380000,-0.004149182,0.011255743,-2.4667013,0.024611048,-0.035270847,0.17487745,0.14113888,0.22534445,0.79808307,0.009254972,0.0147766275,-0.6430327,1.6136829,0.00011303534
38476000,-0.0051310314,0.012467888,-2.4468508,0.019568041,-0.02953624,0.2996143,0.14075765,0.23329568,1.0598519,0.008960807,0.014851894,-0.6243476,1.6136829,4.5985555e-05
38572000,-0.0063358513,0.01395643,-2.4148932,0.014510401,-0.022717565,0.44073907,0.14069536,0.25582376,0.90698785,0.009113814,0.016571479,-0.6352591,1.6136829,4.3652115e-05
38676000,-0.007964445,0.015969457,-2.36482,0.008380011,-0.017604858,0.5674528,0.13228008,0.2536401,0.24036318,0.009210541,0.017660728,-0.68284285,1.6136829,1.7758754e-05
38772000,-0.009766258,0.018197276,-2.3078523,0.002374487,-0.012593189,0.64452225,0.12329261,0.24863346,-0.18344593,0.008965187,0.01807931,-0.71309435,1.6136829,1.6857626e-05
38876000,-0.011976484,0.020932468,-2.238711,-0.002041852,-0.00855943,0.6866159,0.15677117,0.19380292,-0.517713,0.011780729,0.014563518,-0.7369544,1.6136829,6.858096e-06
38972000,-0.013923152,0.023338316,-2.1718173,-0.002963217,-0.008119764,0.6905557,0.14672391,0.20053937,-0.67981786,0.011199073,0.015306673,-0.7485255,1.6136829,6.510098e-06
39076000,-0.01584611,0.02571425,-2.0990171,-0.003456601,-0.009162962,0.6949579,0.13797233,0.19535975,-0.40172753,0.010252036,0.01451621,-0.7286313,1.6136829,2.6484674e-06
39172000,-0.017504504,0.027763303,-2.031817,-0.0038760258,-0.010106914,0.7036721,0.13764755,0.20058477,-0.25257042,0.010076414,0.014683697,-0.71801424,1.6136829,2.5140769e-06
39276000,-0.019182172,0.029836169,-1.9590172,-0.004652653,-0.00989734,0.711477,0.14097196,0.19933936,-0.21146846,0.010278503,0.01453417,-0.7150946,1.6136829,1.0227882e-06
39372000,-0.020629056,0.031623885,-1.891817,-0.005517738,-0.0087874625,0.716116,0.13985732,0.2075044,-0.21463913,0.010201256,0.015135463,-0.71532094,1.6136829,9.708891e-07
39476000,-0.022092715,0.03343233,-1.819017,-0.005304196,-0.012227144,0.7241532,0.14639989,0.19513421,-0.20345381,0.010666365,0.014217037,-0.71452254,1.6136829,3.9498153e-07
39572000,-0.023355035,0.034992006,-1.751817,-0.0049010552,-0.015771627,0.73034567,0.14769381,0.17858271,-0.20746607,0.010765941,0.013017546,-0.71480894,1.6136829,3.7493902e-07
39676000,-0.024631951,0.036569726,-1.679017,-0.0047599184,-0.018023152,0.733581,0.15115473,0.17274946,-0.22846344,0.011039496,0.012616655,-0.71630776,1.6136829,1.5253441e-07
39772000,-0.02573323,0.037930425,-1.611817,-0.004842777,-0.01884408,0.73423237,0.14740913,0.17632516,-0.24915975,0.010787769,0.012903917,-0.71778506,1.6136829,1.4479438e-07
39876000,-0.026847238,0.039306853,-1.5390171,-0.004045016,-0.021759966,0.73912877,0.15162869,0.17237478,-0.23588753,0.011083224,0.012599649,-0.71683764,1.6136829,5.8905904e-08
39972000,-0.027808022,0.04049395,-1.4718174,-0.0032350696,-0.024084322,0.7432901,0.15539756,0.16996974,-0.23328656,0.011355657,0.012420516,-0.71665204,1.6136829,5.591685e-08
40076000,-0.028779894,0.041694757,-1.3990175,-0.0027190698,-0.024960337,0.7446719,0.15199623,0.17235082,-0.24462768,0.011119751,0.012608854,-0.7174615,1.6136829,2.2748347e-08
40172000,-0.029618092,0.042730406,-1.3318175,-0.002561214,-0.024584608,0.7441043,0.15333751,0.18136485,-0.25890693,0.011234334,0.013287768,-0.7184808,1.6136829,2.1594031e-08
40276000,-0.030465959,0.043778,-1.2590173,-0.0014451044,-0.025089866,0.7472041,0.15453233,0.17866978,-0.24822876,0.011309287,0.01307576,-0.7177186,1.6136829,8.7849825e-09
40372000,-0.031197218,0.04468151,-1.1918174,-0.00046172738,-0.02518056,0.74945337,0.15477729,0.17821693,-0.24326673,0.011321017,0.013035485,-0.7173644,1.6136829,8.339208e-09
40476000,-0.03193688,0.045595422,-1.1190174,8.570403e-05,-0.024217833,0.74914426,0.15662748,0.18589915,-0.262878,0.0114798965,0.013625343,-0.71876425,1.6136829,3.3925946e-09
40572000,-0.032574844,0.04638368,-1.0518173,0.00024020812,-0.022471648,0.7469508,0.15546946,0.19138846,-0.27983317,0.0114142215,0.0140513135,-0.7199745,1.6136829,3.2204448e-09
40676000,-0.033220153,0.04718099,-0.9790173,0.00057761045,-0.022451967,0.7494737,0.16134898,0.1845191,-0.25901946,0.011822231,0.013519931,-0.7184888,1.6136829,1.310156e-09
40772000,-0.033776734,0.047868673,-0.91181725,0.00080408715,-0.022380775,0.75184536,0.15540509,0.19026475,-0.2454961,0.0113697,0.013920092,-0.7175235,1.6136829,1.2436749e-09
40876000,-0.034339707,0.048564278,-0.8390173,0.000731966,-0.02116613,0.7519006,0.15659466,0.20134753,-0.25447956,0.011467488,0.014744757,-0.7181648,1.6136829,5.0595744e-10
40972000,-0.03482529,0.04916424,-0.7718172,0.00045415107,-0.019173872,0.75018156,0.15279168,0.20393029,-0.27173114,0.0112084905,0.0149599165,-0.7193962,1.6136829,4.8028376e-10
41076000,-0.035316456,0.049771097,-0.69901717,0.0011662277,-0.019305896,0.7539666,0.15697952,0.19720282,-0.24516335,0.011484425,0.014427111,-0.7174998,1.6136829,1.953912e-10
41172000,-0.035740104,0.050294533,-0.63181716,0.0019783238,-0.019526869,0.7573505,0.16296375,0.1962578,-0.23916316,0.01191467,0.014348878,-0.7170715,1.6136829,1.8547651e-10
41276000,-0.03616861,0.050823983,-0.5590172,0.002579208,-0.01872396,0.75777346,0.16469128,0.19631787,-0.25423455,0.012060761,0.014376855,-0.7181473,1.6136829,7.54564e-11
41380000,-0.03653823,0.051280666,-0.49181715,0.0028910309,-0.017118527,0.75035477,0.16133979,0.19940348,-0.29289627,0.011860535,0.014658702,-0.720907,1.6136829,7.162752e-11
41476000,-0.036912084,0.0517426,-0.4190172,0.003158359,-0.01609325,0.7582053,0.16157906,0.20167021,-0.25614515,0.011835964,0.014772715,-0.71828365,1.6136829,2.9139836e-11
41580000,-0.037234545,0.05214104,-0.35181716,0.0032613147,-0.014597708,0.7541207,0.16715483,0.20901708,-0.27121332,0.012262054,0.0153329605,-0.7193592,1.6136829,2.7661198e-11
41676000,-0.03756072,0.052544054,-0.27901712,0.003260941,-0.0126081705,0.75874656,0.16444618,0.20942974,-0.26013017,0.012049325,0.0153453685,-0.7185681,1.6136829,1.1253253e-11
41772000,-0.037842076,0.052891687,-0.21181713,0.0031666951,-0.0103388615,0.75604856,0.1626356,0.21098521,-0.27585778,0.011934913,0.015483021,-0.71969074,1.6136829,1.0682231e-11
41876000,-0.038126666,0.0532433,-0.13901713,0.0028650737,-0.0102801565,0.75946033,0.16057777,0.20297335,-0.24760807,0.011751791,0.014854488,-0.71767426,1.6136829,4.3457937e-12
41972000,-0.038372133,0.053546596,-0.07181712,0.0025147898,-0.010579916,0.7627432,0.1634649,0.19862206,-0.23290133,0.011945328,0.014514463,-0.7166245,1.6136829,4.125276e-12
42076000,-0.03862045,0.0538534,0.0009828806,0.002124561,-0.010267567,0.763112,0.16455758,0.19847983,-0.24537262,0.012039787,0.014521696,-0.7175147,1.6136829,1.6782635e-12
42172000,-0.03883462,0.05411803,0.06818288,0.0018224404,-0.009458448,0.76107776,0.16320083,0.20077038,-0.26422194,0.011961956,0.014715649,-0.7188602,1.6136829,1.5931038e-12
42276000,-0.039051253,0.0543857,0.14098288,0.0010948828,-0.009457335,0.76463073,0.16224076,0.19656767,-0.24116507,0.01186719,0.014378051,-0.7172144,1.6136829,6.481137e-13
42372000,-0.03923813,0.054616597,0.20818287,0.001967844,-0.008742659,0.7366108,0.24747907,0.21920554,-2.3937166,0.021977268,0.01946645,-0.87085116,1.6136829,6.152267e-13
42476000,-0.039427154,0.05485014,0.28098288,0.0036063548,-0.007593147,0.70751464,0.1736992,0.18448475,-0.97625864,0.01362989,0.014476213,-0.7695574,1.6136829,2.5028932e-13
42572000,-0.039590206,0.055051602,0.3481829,0.0041219005,-0.006793064,0.70526135,0.16538823,0.18398428,-0.4154632,0.01230289,0.013686214,-0.72949797,1.6136829,2.3758895e-13
42676000,-0.039755136,0.055255383,0.42098287,0.0029493538,-0.0074586705,0.7636309,0.16311161,0.18803804,0.045678526,0.011585851,0.013356381,-0.69658566,1.6136829,9.665701e-14
42772000,-0.03989741,0.055431176,0.48818287,0.00157401,-0.008040758,0.82415175,0.1693996,0.19536555,0.22761264,0.011808471,0.0136185,-0.68361557,1.6136829,9.1752364e-14
42876000,-0.040041316,0.055608984,0.5609829,0.0005755018,-0.007770804,0.8690302,0.17110386,0.20289227,0.18144587,0.011984518,0.014211052,-0.6869379,1.6136829,3.7327112e-14
42972000,-0.040165454,0.055762365,0.62818295,-4.443305e-05,-0.006896371,0.8941598,0.16988699,0.20240864,0.08036491,0.012026913,0.01432924,-0.694179,1.6136829,3.543303e-14
43076000,-0.040291023,0.055917513,0.70098287,-0.0020465457,-0.0072182626,0.9677608,0.15843983,0.20068811,0.296028,0.010967212,0.013891637,-0.6788088,1.6136829,1.4415029e-14
43172000,-0.04039934,0.05605134,0.7681829,-0.004069569,-0.0075419517,1.0324981,0.15377833,0.20124502,0.38427454,0.010545499,0.013800574,-0.67253375,1.6136829,1.3683568e-14
43276000,-0.0405089,0.05618671,0.84098285,-0.005697887,-0.0072371606,1.0738297,0.15923661,0.2041214,0.27435037,0.011049235,0.014163736,-0.6804149,1.6136829,5.5668115e-15
43372000,-0.040603418,0.056303497,0.90818274,-0.0067243073,-0.006462946,1.0914867,0.15254304,0.20297231,0.13733144,0.010736616,0.014286038,-0.6901972,1.6136829,5.2843357e-15
43476000,-0.04069902,0.056421634,0.9809828,-0.01128855,-0.007055216,1.1558268,0.1367496,0.19492345,0.3254937,0.009438007,0.013452976,-0.6767662,1.6136829,2.149797e-15
43572000,-0.040780842,0.056522727,1.0476334,-0.016003314,-0.0077406475,1.2095754,0.12521407,0.19853105,0.38985986,0.008582014,0.013607066,-0.6721717,1.6136829,2.0407103e-15
43676000,-0.04086348,0.056624826,1.1196855,-0.020041876,-0.0077861557,1.2373328,0.118246935,0.19958602,0.26259053,0.008215092,0.0138660455,-0.68125623,1.6136829,8.3021103e-16
43780000,-0.0409347,0.05671283,1.1860908,-0.02297801,-0.0072248057,1.2349395,0.12545115,0.2021786,0.06525592,0.00889416,0.014333938,-0.695342,1.6136829,7.880838e-16
43876000,-0.04100669,0.05680177,1.2579211,-0.026649032,-0.0072057424,1.2935375,0.12013664,0.19898085,0.27744734,0.00833317,0.013802128,-0.68019575,1.6136829,3.2061187e-16
43972000,-0.04106875,0.05687844,1.324108,-0.029425664,-0.0068225213,1.330153,0.12032105,0.2075006,0.28723916,0.008335967,0.014375857,-0.6794968,1.6136829,3.043431e-16
