timestamp,timestamp_sample,time_last_fuse,device_id,observation,observation_variance,innovation,innovation_variance,test_ratio,estimator_instance,fusion_enabled,innovation_rejected,fused
3076000,3047000,0,0,1.6086617,0.0,-1.6090832,0.0,0.0,0,0,0,0
3204000,3118190,3124000,0,1.626551,0.0,-1.6270621,0.0,inf,0,0,1,0
3276000,3190939,3124000,0,1.65702,0.0,-0.04487264,0.0,inf,0,0,1,0
3348000,3262742,3124000,0,1.6289493,0.0,-0.01684165,0.0,inf,0,0,1,0
3420000,3335124,3340000,0,1.6102741,0.0,0.0060322285,0.10012682,5.3759904e-05,0,1,0,1
3492000,3406156,3412000,0,1.6229953,0.0,-0.0073235035,0.09912701,8.003854e-05,0,1,0,1
3564000,3479262,3484000,0,1.6159607,0.0,0.0003912449,0.09835512,2.3022565e-07,0,1,0,1
3636000,3551014,3556000,0,1.629113,0.0,-0.012760043,0.097754434,0.00024638893,0,1,0,1
3700000,3619384,3620000,0,1.6149164,0.0,0.0024421215,0.09726751,9.070268e-06,0,1,0,1
3772000,3688275,3692000,0,1.63051,0.0,-0.013355613,0.09690194,0.00027230056,0,1,0,1
3836000,3755481,3756000,0,1.6086029,0.0,0.009511113,0.09659567,0.00013853465,0,1,0,1
3908000,3826471,3828000,0,1.6202848,0.0,-0.002887845,0.09638333,1.2799683e-05,0,1,0,1
3980000,3895567,3900000,0,1.5965955,0.0,0.021057844,0.096228816,0.0006816729,0,1,0,1
4052000,3964024,3972000,0,1.6114566,0.0,0.004864335,0.09612202,3.6414756e-05,0,1,0,1
4116000,4031631,4036000,0,1.6130571,0.0,0.0029480457,0.09601671,1.33898275e-05,0,1,0,1
4188000,4102958,4108000,0,1.6334754,0.0,-0.017778635,0.09598205,0.00048714713,0,1,0,1
4260000,4175692,4180000,0,1.606598,0.0,0.010235667,0.09597416,0.00016148468,0,1,0,1
4332000,4245919,4252000,0,1.6146281,0.0,0.0015739202,0.095987886,3.817705e-06,0,1,0,1
4404000,4319743,4324000,0,1.6337427,0.0,-0.017669559,0.09601841,0.0004810057,0,1,0,1
4476000,4391420,4396000,0,1.6269716,0.0,-0.009798408,0.09606147,0.0001478479,0,1,0,1
4548000,4463786,4468000,0,1.6252395,0.0,-0.007380247,0.09611347,8.383221e-05,0,1,0,1
4620000,4534727,4540000,0,1.6222166,0.0,-0.003815651,0.09617105,2.2394752e-05,0,1,0,1
4692000,4607821,4612000,0,1.6226697,0.0,-0.003823638,0.096231446,2.247449e-05,0,1,0,1
4764000,4679486,4684000,0,1.6135749,0.0,0.005685568,0.096292175,4.9660383e-05,0,1,0,1
4836000,4751851,4756000,0,1.6370096,0.0,-0.018013954,0.09635113,0.0004982125,0,1,0,1
4908000,4822419,4828000,0,1.6344373,0.0,-0.01422143,0.09640671,0.0003103363,0,1,0,1
4980000,4895876,4900000,0,1.622136,0.0,-0.00083971024,0.09645751,1.0813746e-06,0,1,0,1
5052000,4967166,4972000,0,1.618562,0.0,0.0029063225,0.09650243,1.29479995e-05,0,1,0,1
5124000,5039897,5044000,0,1.6350068,0.0,-0.013615251,0.096540794,0.00028404934,0,1,0,1
5196000,5111185,5116000,0,1.6234913,0.0,-0.0010617971,0.09657203,1.7269712e-06,0,1,0,1
5268000,5183914,5188000,0,1.6156459,0.0,0.0070072412,0.09659583,7.519502e-05,0,1,0,1
5340000,5254472,5260000,0,1.6128602,0.0,0.009487748,0.09661211,0.00013783136,0,1,0,1
5412000,5327928,5332000,0,1.6131555,0.0,0.008626819,0.09662092,0.00011394192,0,1,0,1
5484000,5398484,5404000,0,1.620045,0.0,0.0013508797,0.096622385,2.7938877e-06,0,1,0,1
5556000,5471940,5476000,0,1.629901,0.0,-0.0084017515,0.09661682,0.00010807874,0,1,0,1
5628000,5542494,5548000,0,1.6255378,0.0,-0.003311038,0.09660454,1.6787428e-05,0,1,0,1
5700000,5615950,5620000,0,1.6800203,0.0,-0.057412624,0.09658597,0.005048404,0,1,0,1
5772000,5686867,5692000,0,1.617963,0.0,0.008790731,0.09656152,0.00011838571,0,1,0,1
5844000,5759958,5764000,0,1.6240847,0.0,0.002289772,0.096531756,8.034662e-06,0,1,0,1
5916000,5830874,5836000,0,1.6263307,0.0,0.0001269579,0.09649708,2.4709195e-08,0,1,0,1
5988000,5903965,5908000,0,1.5958316,0.0,0.030816913,0.09645794,0.0014564433,0,1,0,1
6060000,5974880,5980000,0,1.6237775,0.0,0.001029849,0.09641485,1.6272585e-06,0,1,0,1
6132000,6047971,6052000,0,1.614483,0.0,0.010509133,0.0963682,0.00016953268,0,1,0,1
6204000,6118885,6124000,0,1.6238042,0.0,0.0006289482,0.096318446,6.075383e-07,0,1,0,1
6276000,6191976,6196000,0,1.6019075,0.0,0.022579193,0.09626597,0.0007834249,0,1,0,1
6348000,6262889,6268000,0,1.6226811,0.0,0.0004899502,0.096211165,3.6908952e-07,0,1,0,1
6420000,6335980,6340000,0,1.6494697,0.0,-0.026148915,0.096154355,0.0010519419,0,1,0,1
6492000,6406164,6412000,0,1.6161506,0.0,0.009038806,0.09609587,0.00012576817,0,1,0,1
6564000,6479983,6484000,0,1.6314073,0.0,-0.0066553354,0.09603605,6.8227426e-05,0,1,0,1
6636000,6550167,6556000,0,1.6197324,0.0,0.005559325,0.095975116,4.763639e-05,0,1,0,1
6708000,6623986,6628000,0,1.6514864,0.0,-0.026338696,0.09591329,0.0010699491,0,1,0,1
6780000,6695261,6700000,0,1.6235487,0.0,0.0034643412,0.095850855,1.852246e-05,0,1,0,1
6852000,6767989,6772000,0,1.6034224,0.0,0.023543715,0.09578801,0.0008560364,0,1,0,1
6924000,6838535,6844000,0,1.6248941,0.0,0.00077295303,0.095724896,9.2328264e-07,0,1,0,1
6996000,6911991,6916000,0,1.6256776,0.0,0.00015294552,0.09566168,3.6173365e-08,0,1,0,1
7068000,6983628,6988000,0,1.6149304,0.0,0.011020303,0.095598504,0.00018792706,0,1,0,1
7140000,7055992,7060000,0,1.6350858,0.0,-0.009688735,0.0955355,0.00014535258,0,1,0,1
7212000,7127630,7132000,0,1.6210632,0.0,0.004921317,0.09547275,3.7526373e-05,0,1,0,1
7284000,7199994,7204000,0,1.6309447,0.0,-0.0051267147,0.0954104,4.075078e-05,0,1,0,1
7356000,7270904,7276000,0,1.6274437,0.0,-0.0012512207,0.09534843,2.4288888e-06,0,1,0,1
7428000,7343995,7348000,0,1.6255971,0.0,0.00085651875,0.095287055,1.1389199e-06,0,1,0,1
7500000,7415268,7420000,0,1.6192079,0.0,0.0073480606,0.09522627,8.387683e-05,0,1,0,1
7572000,7487996,7492000,0,1.6334785,0.0,-0.0072547197,0.09516606,8.1811166e-05,0,1,0,1
7644000,7559268,7564000,0,1.6173618,0.0,0.009282708,0.095106624,0.0001340269,0,1,0,1
7716000,7631996,7636000,0,1.6163013,0.0,0.009881616,0.0950479,0.00015197312,0,1,0,1
7788000,7703633,7708000,0,1.618607,0.0,0.0071697235,0.0949899,8.005357e-05,0,1,0,1
7860000,7775997,7780000,0,1.6288538,0.0,-0.003326416,0.09493274,1.7242111e-05,0,1,0,1
7932000,7846907,7852000,0,1.6194164,0.0,0.006370902,0.094876386,6.328447e-05,0,1,0,1
8004000,7919998,7924000,0,1.6243335,0.0,0.0011366606,0.094820835,2.0156317e-06,0,1,0,1
8076000,7991634,7996000,0,1.6158891,0.0,0.009609699,0.094766125,0.00014415172,0,1,0,1
8148000,8063998,8068000,0,1.633621,0.0,-0.008555293,0.09471226,0.00011431862,0,1,0,1
8220000,8135635,8140000,0,1.6267642,0.0,-0.001226902,0.094659224,2.3523946e-06,0,1,0,1
8292000,8207999,8212000,0,1.6459657,0.0,-0.020288587,0.094607055,0.0006436257,0,1,0,1
8364000,8278908,8284000,0,1.6297276,0.0,-0.003004074,0.09455572,1.4118445e-05,0,1,0,1
8428000,8347999,8348000,0,1.6266613,0.0,0.00034844875,0.09448625,1.9009144e-07,0,1,0,1
8500000,8417599,8420000,0,1.6196176,0.0,0.007403493,0.094437964,8.5857864e-05,0,1,0,1
8572000,8487999,8492000,0,1.6324078,0.0,-0.005601883,0.09439039,4.9180577e-05,0,1,0,1
8636000,8555110,8556000,0,1.625757,0.0,0.0014331341,0.094325915,3.221039e-06,0,1,0,1
8708000,8621999,8628000,0,1.6233253,0.0,0.0039283037,0.09428106,2.4212464e-05,0,1,0,1
8780000,8693600,8700000,0,1.6223705,0.0,0.004822254,0.09423687,3.6503345e-05,0,1,0,1
8844000,8764000,8764000,0,1.6150792,0.0,0.011984944,0.09417685,0.00022562189,0,1,0,1
8916000,8831111,8836000,0,1.6251578,0.0,0.0014218092,0.094135076,3.1767609e-06,0,1,0,1
8980000,8898000,8900000,0,1.6441447,0.0,-0.01755917,0.09407812,0.00048481126,0,1,0,1
9052000,8968400,8972000,0,1.6250187,0.0,0.0024511814,0.09403854,9.451449e-06,0,1,0,1
9116000,9036000,9036000,0,1.6134114,0.0,0.01405108,0.09398439,0.00031075423,0,1,0,1
9188000,9107272,9108000,0,1.6266806,0.0,0.00028455257,0.09394681,1.2749595e-07,0,1,0,1
9260000,9180000,9180000,0,1.6258488,0.0,0.001155138,0.09390971,2.101893e-06,0,1,0,1
9332000,9250909,9252000,0,1.6220351,0.0,0.0049836636,0.09387309,3.9138995e-05,0,1,0,1
9404000,9324000,9324000,0,1.6138151,0.0,0.013200402,0.093836956,0.0002746969,0,1,0,1
9476000,9394545,9396000,0,1.6272521,0.0,-0.00067842007,0.09380129,7.258417e-07,0,1,0,1
9548000,9464000,9468000,0,1.6462947,0.0,-0.01951778,0.09376612,0.0006009913,0,1,0,1
9620000,9533200,9540000,0,1.6341134,0.0,-0.00649333,0.093731426,6.654311e-05,0,1,0,1
9684000,9600000,9604000,0,1.6298413,0.0,-0.0018802881,0.09368439,5.58258e-06,0,1,0,1
9756000,9670181,9676000,0,1.6162826,0.0,0.011909723,0.093651414,0.00022404866,0,1,0,1
9828000,9744000,9748000,0,1.6240355,0.0,0.0037617683,0.09361885,2.236012e-05,0,1,0,1
9900000,9814545,9820000,0,1.6229354,0.0,0.0047358274,0.09358673,3.545119e-05,0,1,0,1
9972000,9888000,9892000,0,1.6247222,0.0,0.0028882027,0.09355504,1.31899e-05,0,1,0,1
10044000,9958545,9964000,0,1.624982,0.0,0.0026168823,0.09352377,1.0831777e-05,0,1,0,1
10116000,10032000,10036000,0,1.6262685,0.0,0.001306653,0.09349295,2.7014382e-06,0,1,0,1
10188000,10102545,10108000,0,1.6216688,0.0,0.005892873,0.093462534,5.4962933e-05,0,1,0,1
10260000,10176000,10180000,0,1.6097902,0.0,0.01757276,0.09343254,0.00048891705,0,1,0,1
10332000,10246909,10252000,0,1.6233994,0.0,0.0033967495,0.09340297,1.8273415e-05,0,1,0,1
10404000,10320000,10324000,0,1.6181155,0.0,0.008546233,0.093373805,0.000115711824,0,1,0,1
10476000,10390181,10396000,0,1.618518,0.0,0.007900596,0.09334505,9.891946e-05,0,1,0,1
10548000,10464000,10468000,0,1.6082685,0.0,0.017977238,0.093316704,0.0005123183,0,1,0,1
10620000,10535272,10540000,0,1.6247238,0.0,0.0009044409,0.09328873,1.297133e-06,0,1,0,1
10692000,10608000,10612000,0,1.6460018,0.0,-0.020359755,0.093261175,0.0006575027,0,1,0,1
10764000,10678909,10684000,0,1.6204576,0.0,0.0059121847,0.093234,5.5459383e-05,0,1,0,1
10836000,10752000,10756000,0,1.6349217,0.0,-0.0087291,0.09320722,0.00012093243,0,1,0,1
10908000,10822181,10828000,0,1.6262351,0.0,0.00039863586,0.093180805,2.5227814e-07,0,1,0,1
10980000,10896000,10900000,0,1.6301832,0.0,-0.003516078,0.093154766,1.9632032e-05,0,1,0,1
11052000,10966909,10972000,0,1.624353,0.0,0.0024766922,0.09312908,9.743435e-06,0,1,0,1
11116000,11036000,11036000,0,1.6076299,0.0,0.01916039,0.09309483,0.0005833598,0,1,0,1
11188000,11104400,11108000,0,1.6227794,0.0,0.0034794807,0.09307032,1.9242922e-05,0,1,0,1
11260000,11176000,11180000,0,1.6251138,0.0,0.001039505,0.093046136,1.7179407e-06,0,1,0,1
11324000,11243111,11244000,0,1.6245143,0.0,0.0015646219,0.093013786,3.8933626e-06,0,1,0,1
11396000,11314666,11316000,0,1.6041781,0.0,0.021983027,0.09299067,0.0007687569,0,1,0,1
11468000,11386666,11388000,0,1.6206154,0.0,0.00486362,0.092967816,3.7639165e-05,0,1,0,1
11540000,11454000,11460000,0,1.6382314,0.0,-0.012785077,0.092945285,0.0002601553,0,1,0,1
11612000,11525200,11532000,0,1.624163,0.0,0.0017056465,0.09292304,4.6313544e-06,0,1,0,1
11676000,11592000,11596000,0,1.5990596,0.0,0.026787043,0.09289325,0.0011426645,0,1,0,1
11748000,11662545,11668000,0,1.6314567,0.0,-0.0063790083,0.09287194,6.481494e-05,0,1,0,1
11820000,11736000,11740000,0,1.5987039,0.0,0.02656877,0.09285087,0.0011246315,0,1,0,1
11892000,11807636,11812000,0,1.6212188,0.0,0.0032207966,0.09283008,1.6530701e-05,0,1,0,1
11964000,11880000,11884000,0,1.6299623,0.0,-0.005607009,0.09280954,5.0109862e-05,0,1,0,1
12036000,11950545,11956000,0,1.6185772,0.0,0.0059405565,0.09278927,5.6261317e-05,0,1,0,1
12108000,12024000,12028000,0,1.6445606,0.0,-0.020234942,0.09276924,0.0006529099,0,1,0,1
12180000,12095272,12100000,0,1.6260794,0.0,-0.0010229349,0.09274947,1.6689293e-06,0,1,0,1
12252000,12168000,12172000,0,1.6223631,0.0,0.0027356148,0.092729904,1.1938326e-05,0,1,0,1
12324000,12238545,12244000,0,1.6165744,0.0,0.00842917,0.092710614,0.00011336877,0,1,0,1
12396000,12312000,12316000,0,1.6480708,0.0,-0.023281932,0.092691556,0.0008650699,0,1,0,1
12468000,12382545,12388000,0,1.6201655,0.0,0.005436182,0.092672735,4.7172547e-05,0,1,0,1
12540000,12456000,12460000,0,1.6082146,0.0,0.0172081,0.092654146,0.0004727748,0,1,0,1
12612000,12526909,12532000,0,1.6152562,0.0,0.009795904,0.09263578,0.00015323701,0,1,0,1
12684000,12600000,12604000,0,1.6001352,0.0,0.024682641,0.09261762,0.0009730675,0,1,0,1
12756000,12670909,12676000,0,1.6207088,0.0,0.003358245,0.092599705,1.8016419e-05,0,1,0,1
12828000,12744000,12748000,0,1.6059835,0.0,0.017980337,0.092582,0.000516562,0,1,0,1
12900000,12814545,12820000,0,1.6256089,0.0,-0.0020754337,0.09256452,6.8837726e-06,0,1,0,1
12972000,12888000,12892000,0,1.6386324,0.0,-0.01505363,0.09254725,0.00036221987,0,1,0,1
13044000,12959272,12964000,0,1.6284198,0.0,-0.004438877,0.0925302,3.1500404e-05,0,1,0,1
13116000,13032000,13036000,0,1.6092886,0.0,0.014814734,0.09251334,0.0003509431,0,1,0,1
13188000,13102909,13108000,0,1.6146214,0.0,0.009077311,0.09249669,0.00013177758,0,1,0,1
13260000,13176000,13180000,0,1.6115676,0.0,0.011953235,0.09248024,0.00022854687,0,1,0,1
13332000,13247636,13252000,0,1.628604,0.0,-0.0053595304,0.092463985,4.595516e-05,0,1,0,1
13404000,13320000,13324000,0,1.6086982,0.0,0.014673233,0.09244793,0.00034451473,0,1,0,1
13476000,13390909,13396000,0,1.6171929,0.0,0.005823612,0.09243204,5.427699e-05,0,1,0,1
13548000,13464000,13468000,0,1.6501906,0.0,-0.027381659,0.09241635,0.0012001182,0,1,0,1
13620000,13535636,13540000,0,1.6222341,0.0,0.0013643503,0.09240087,2.980088e-06,0,1,0,1
13692000,13608000,13612000,0,1.6441096,0.0,-0.02048707,0.09238557,0.00067206135,0,1,0,1
13764000,13680000,13684000,0,1.6241446,0.0,3.5762787e-06,0.09237044,2.0482505e-11,0,1,0,1
13836000,13752000,13756000,0,1.6029665,0.0,0.021239161,0.09235548,0.00072254584,0,1,0,1
13908000,13824000,13828000,0,1.6211395,0.0,0.0024670362,0.0923407,9.75015e-06,0,1,0,1
13980000,13896000,13900000,0,1.5898703,0.0,0.03363943,0.092326105,0.0018131181,0,1,0,1
14052000,13968000,13972000,0,1.6147379,0.0,0.007966757,0.09231166,0.00010170913,0,1,0,1
14124000,14040000,14044000,0,1.602783,0.0,0.019816518,0.0922974,0.0006293882,0,1,0,1
14196000,14111636,14116000,0,1.6172296,0.0,0.0049039125,0.09228329,3.8549228e-05,0,1,0,1
14268000,14184000,14188000,0,1.5883046,0.0,0.033683896,0.09226935,0.0018190326,0,1,0,1
14340000,14255636,14260000,0,1.620978,0.0,9.6440315e-05,0.09225557,1.4913446e-08,0,1,0,1
14412000,14328000,14332000,0,1.629248,0.0,-0.008215547,0.09224194,0.0001082425,0,1,0,1
14484000,14399272,14404000,0,1.6184441,0.0,0.0027544498,0.09222847,1.2169089e-05,0,1,0,1
14556000,14472000,14476000,0,1.6255845,0.0,-0.004522085,0.09221516,3.280413e-05,0,1,0,1
14628000,14543272,14548000,0,1.619255,0.0,0.0019322634,0.09220199,5.99026e-06,0,1,0,1
14700000,14616000,14620000,0,1.6254047,0.0,-0.0042773485,0.09218897,2.935781e-05,0,1,0,1
14772000,14688000,14692000,0,1.6201016,0.0,0.0011775494,0.0921761,2.2253241e-06,0,1,0,1
14844000,14760000,14764000,0,1.5809894,0.0,0.040290833,0.09216338,0.0026055982,0,1,0,1
14916000,14832000,14836000,0,1.6113545,0.0,0.008990645,0.092150785,0.00012975857,0,1,0,1
14988000,14904000,14908000,0,1.6251608,0.0,-0.0050877333,0.092138335,4.1558673e-05,0,1,0,1
15060000,14974909,14980000,0,1.6265873,0.0,-0.006410241,0.09212603,6.5981134e-05,0,1,0,1
15132000,15048000,15052000,0,1.6074171,0.0,0.012916446,0.09211385,0.00026792573,0,1,0,1
15204000,15118909,15124000,0,1.6172534,0.0,0.002806306,0.09210181,1.2648971e-05,0,1,0,1
15276000,15192000,15196000,0,1.6301019,0.0,-0.010149956,0.0920899,0.0001654892,0,1,0,1
15348000,15262181,15268000,0,1.6114286,0.0,0.008690238,0.09207813,0.000121327765,0,1,0,1
15420000,15336000,15340000,0,1.6234374,0.0,-0.003540039,0.09206646,2.013576e-05,0,1,0,1
15492000,15406181,15412000,0,1.6071092,0.0,0.012896538,0.09205492,0.00026727148,0,1,0,1
15564000,15480000,15484000,0,1.6334476,0.0,-0.013727546,0.092043504,0.00030286284,0,1,0,1
15636000,15551272,15556000,0,1.61006,0.0,0.009993315,0.092032224,0.00016052126,0,1,0,1
15708000,15624000,15628000,0,1.6043538,0.0,0.015496373,0.09202106,0.0003860346,0,1,0,1
15780000,15695636,15700000,0,1.6147772,0.0,0.0047376156,0.092010014,3.6085927e-05,0,1,0,1
15852000,15768000,15772000,0,1.639923,0.0,-0.020479321,0.09199908,0.00067437434,0,1,0,1
15924000,15839636,15844000,0,1.6165826,0.0,0.0032919645,0.09198826,1.7427346e-05,0,1,0,1
15996000,15912000,15916000,0,1.5859851,0.0,0.033840656,0.09197755,0.0018418279,0,1,0,1
16068000,15982545,15988000,0,1.611976,0.0,0.007072091,0.091966964,8.0448364e-05,0,1,0,1
16140000,16056000,16060000,0,1.5871158,0.0,0.03176546,0.09195648,0.0016232347,0,1,0,1
16212000,16126181,16132000,0,1.6119848,0.0,0.0061551332,0.091946095,6.095298e-05,0,1,0,1
16284000,16200000,16204000,0,1.5868258,0.0,0.031155705,0.09193583,0.0015618659,0,1,0,1
16356000,16271636,16276000,0,1.6139351,0.0,0.003289342,0.09192566,1.7411438e-05,0,1,0,1
16428000,16344000,16348000,0,1.606972,0.0,0.010210395,0.0919156,0.00016778348,0,1,0,1
16500000,16414909,16420000,0,1.6179454,0.0,-0.0010147095,0.09190564,1.6572752e-06,0,1,0,1
16572000,16488000,16492000,0,1.6203021,0.0,-0.0033518076,0.091895774,1.8084895e-05,0,1,0,1
16644000,16558181,16564000,0,1.6195349,0.0,-0.0025424957,0.09188601,1.0406973e-05,0,1,0,1
16716000,16632000,16636000,0,1.6293046,0.0,-0.01228559,0.09187635,0.00024301981,0,1,0,1
16788000,16702181,16708000,0,1.6134356,0.0,0.0037937164,0.091866784,2.3175258e-05,0,1,0,1
16860000,16776000,16780000,0,1.632911,0.0,-0.015761971,0.09185732,0.00040009274,0,1,0,1
16932000,16846181,16852000,0,1.610539,0.0,0.0069121122,0.09184795,7.694944e-05,0,1,0,1
17004000,16920000,16924000,0,1.6299822,0.0,-0.012636542,0.091838665,0.0002572079,0,1,0,1
17076000,16990181,16996000,0,1.6188482,0.0,-0.0012608767,0.091829464,2.561041e-06,0,1,0,1
17148000,17064000,17068000,0,1.6014634,0.0,0.016156197,0.09182036,0.0004205258,0,1,0,1
17220000,17134909,17140000,0,1.615445,0.0,0.0018626451,0.091811344,5.59007e-06,0,1,0,1
17292000,17208000,17212000,0,1.596577,0.0,0.02065289,0.09180241,0.00068732304,0,1,0,1
17364000,17278545,17284000,0,1.6219838,0.0,-0.0052087307,0.091793574,4.3722488e-05,0,1,0,1
17436000,17352000,17356000,0,1.6092913,0.0,0.007564664,0.091784805,9.22278e-05,0,1,0,1
17508000,17423272,17428000,0,1.6158499,0.0,0.00083100796,0.09177613,1.1130994e-06,0,1,0,1
17580000,17496000,17500000,0,1.6084659,0.0,0.008158207,0.09176755,0.00010728862,0,1,0,1
17652000,17566909,17572000,0,1.6170524,0.0,-0.00073361397,0.09175903,8.6764027e-07,0,1,0,1
17724000,17640000,17644000,0,1.6151291,0.0,0.0011764765,0.09175061,2.2315721e-06,0,1,0,1
17796000,17710909,17716000,0,1.6191183,0.0,-0.002878666,0.09174226,1.3361845e-05,0,1,0,1
17868000,17784000,17788000,0,1.5906738,0.0,0.025618196,0.09173398,0.0010583278,0,1,0,1
17940000,17854545,17860000,0,1.61973,0.0,-0.0038827658,0.09172578,2.4313322e-05,0,1,0,1
18012000,17928000,17932000,0,1.6008421,0.0,0.015038967,0.09171767,0.0003647845,0,1,0,1
18084000,17998909,18004000,0,1.6200371,0.0,-0.004461646,0.09170962,3.210914e-05,0,1,0,1
18156000,18072000,18076000,0,1.6099547,0.0,0.0057439804,0.091701694,5.322331e-05,0,1,0,1
18228000,18142545,18148000,0,1.6189965,0.0,-0.0028141737,0.09169391,1.2776581e-05,0,1,0,1
18300000,18216000,18220000,0,1.6085856,0.0,0.009559035,0.09168605,0.00014742742,0,1,0,1
18372000,18287636,18292000,0,1.6211662,0.0,-0.00019729137,0.09167847,6.280615e-08,0,1,0,1
18444000,18360000,18364000,0,1.6091774,0.0,0.0136784315,0.091671206,0.00030192078,0,1,0,1
18516000,18430909,18436000,0,1.624513,0.0,-0.0013650656,0.091663726,3.0072038e-06,0,1,0,1
18588000,18504000,18508000,0,1.5859704,0.0,0.036046267,0.09165618,0.0020970663,0,1,0,1
18660000,18574545,18580000,0,1.6209948,0.0,0.0006213188,0.09164745,6.231061e-07,0,1,0,1
18732000,18648000,18652000,0,1.6091886,0.0,0.012458324,0.09163965,0.000250547,0,1,0,1
18804000,18718545,18724000,0,1.623813,0.0,-0.002603531,0.09163219,1.0942858e-05,0,1,0,1
18876000,18792000,18796000,0,1.6335367,0.0,-0.012596726,0.09162485,0.00025618603,0,1,0,1
18948000,18864000,18868000,0,1.6218995,0.0,-0.00076949596,0.09161782,9.56062e-07,0,1,0,1
19020000,18936000,18940000,0,1.6130615,0.0,0.0076709986,0.09161016,9.501967e-05,0,1,0,1
19092000,19007636,19012000,0,1.6193739,0.0,0.001052022,0.09160311,1.7872807e-06,0,1,0,1
19164000,19080000,19084000,0,1.6146777,0.0,0.0055425167,0.09159612,4.9612412e-05,0,1,0,1
19236000,19151636,19156000,0,1.6170353,0.0,0.0028092861,0.091589205,1.2746796e-05,0,1,0,1
19308000,19224000,19228000,0,1.6109079,0.0,0.008617759,0.09158235,0.00011995828,0,1,0,1
19380000,19295636,19300000,0,1.6201952,0.0,-0.0010602474,0.09157554,1.8158848e-06,0,1,0,1
19452000,19368000,19372000,0,1.6103927,0.0,0.008594155,0.091568775,0.00011931975,0,1,0,1
19524000,19438181,19444000,0,1.6259918,0.0,-0.0072647333,0.09156208,8.526623e-05,0,1,0,1
19596000,19512000,19516000,0,1.6241438,0.0,-0.0054813623,0.09155543,4.8545196e-05,0,1,0,1
19668000,19582909,19588000,0,1.6164109,0.0,0.002154708,0.09154884,7.502005e-06,0,1,0,1
19740000,19656000,19660000,0,1.6057963,0.0,0.0125614405,0.09154229,0.00025498256,0,1,0,1
19812000,19726181,19732000,0,1.6226296,0.0,-0.00466311,0.09153582,3.514095e-05,0,1,0,1
19884000,19800000,19804000,0,1.6014597,0.0,0.016380906,0.091528945,0.00043368133,0,1,0,1
19956000,19870909,19876000,0,1.6258482,0.0,-0.008438587,0.09152257,0.00011509717,0,1,0,1
20028000,19944000,19948000,0,1.6245214,0.0,-0.007111788,0.09151626,8.175469e-05,0,1,0,1
20100000,20014181,20020000,0,1.624712,0.0,-0.0073901415,0.09150999,8.82857e-05,0,1,0,1
20172000,20088000,20092000,0,1.5989478,0.0,0.018335342,0.09150377,0.00054349104,0,1,0,1
20244000,20158909,20164000,0,1.6156145,0.0,0.0012562275,0.09149658,2.5514382e-06,0,1,0,1
20316000,20232000,20236000,0,1.617257,0.0,-0.0005880594,0.091490485,5.5913904e-07,0,1,0,1
20388000,20303272,20308000,0,1.6129504,0.0,0.003570795,0.091484435,2.06175e-05,0,1,0,1
20460000,20376000,20380000,0,1.6234682,0.0,-0.0071132183,0.091478445,8.1821396e-05,0,1,0,1
20532000,20447636,20452000,0,1.6269599,0.0,-0.010612488,0.0914725,0.0001821366,0,1,0,1
20604000,20520000,20524000,0,1.615674,0.0,0.0008252859,0.09146659,1.1015386e-06,0,1,0,1
20676000,20591272,20596000,0,1.6240329,0.0,-0.0076845884,0.091459624,9.5513584e-05,0,1,0,1
20748000,20664000,20668000,0,1.625582,0.0,-0.009242892,0.09145383,0.00013818701,0,1,0,1
20820000,20736000,20740000,0,1.6145226,0.0,0.0018303394,0.09144809,5.4192847e-06,0,1,0,1
20892000,20808000,20812000,0,1.6119267,0.0,0.0037704706,0.09144254,2.2998325e-05,0,1,0,1
20964000,20880000,20884000,0,1.6104314,0.0,0.0018663406,0.10143686,5.0797153e-06,0,1,0,1
21036000,20952000,20956000,0,1.625011,0.0,-0.012922883,0.100147545,0.00024667883,0,1,0,1
21108000,21024000,21028000,0,1.6152945,0.0,-0.0018706322,0.09911964,5.2224036e-06,0,1,0,1
21180000,21096000,21100000,0,1.5924307,0.0,0.021120667,0.098281,0.00067142735,0,1,0,1
21252000,21166909,21172000,0,1.620179,0.0,-0.00853312,0.09758378,0.00011038027,0,1,0,1
21324000,21240000,21244000,0,1.6051557,0.0,0.0071207285,0.09699503,7.7330835e-05,0,1,0,1
21396000,21309818,21316000,0,1.6173985,0.0,-0.0057305098,0.0964913,5.0344464e-05,0,1,0,1
21468000,21384000,21388000,0,1.6081172,0.0,0.0038894415,0.09605536,2.3297336e-05,0,1,0,1
21540000,21454545,21460000,0,1.6197406,0.0,-0.008064032,0.09567453,0.000100545236,0,1,0,1
21612000,21528000,21532000,0,1.6393839,0.0,-0.02724564,0.09533896,0.0011517997,0,1,0,1
21684000,21598909,21604000,0,1.621317,0.0,-0.007751465,0.09504106,9.352111e-05,0,1,0,1
21756000,21672000,21676000,0,1.605693,0.0,0.008564234,0.09477497,0.000114481874,0,1,0,1
21828000,21743636,21748000,0,1.6223723,0.0,-0.0085891485,0.0945356,0.0001154405,0,1,0,1
21900000,21816000,21820000,0,1.5949448,0.0,0.01917684,0.094319314,0.0005767755,0,1,0,1
21972000,21888000,21892000,0,1.6265386,0.0,-0.013246179,0.09412291,0.00027576502,0,1,0,1
22044000,21960000,21964000,0,1.5930043,0.0,0.020754933,0.09394378,0.00067830965,0,1,0,1
22116000,22030909,22036000,0,1.6156418,0.0,-0.002804041,0.093779765,1.2402605e-05,0,1,0,1
22188000,22104000,22108000,0,1.6440561,0.0,-0.03116715,0.093629055,0.0015347473,0,1,0,1
22260000,22174545,22180000,0,1.6211864,0.0,-0.0071874857,0.09349005,8.174138e-05,0,1,0,1
22332000,22248000,22252000,0,1.5658063,0.0,0.048377633,0.093361534,0.0037082979,0,1,0,1
22404000,22318909,22324000,0,1.6204898,0.0,-0.008030891,0.09324235,0.000102321676,0,1,0,1
22476000,22392000,22396000,0,1.6272378,0.0,-0.014441729,0.09313153,0.00033127982,0,1,0,1
22548000,22463272,22468000,0,1.6137154,0.0,-0.00054335594,0.093028225,4.694696e-07,0,1,0,1
22620000,22536000,22540000,0,1.6574575,0.0,-0.044240594,0.09293167,0.0031155266,0,1,0,1
22692000,22606181,22612000,0,1.617727,0.0,-0.003053546,0.09284132,1.4856654e-05,0,1,0,1
22764000,22680000,22684000,0,1.6087189,0.0,0.006125927,0.092756584,5.9848357e-05,0,1,0,1
22836000,22750909,22756000,0,1.6237823,0.0,-0.009107113,0.09267695,0.0001323863,0,1,0,1
22908000,22824000,22828000,0,1.6489747,0.0,-0.034154058,0.09260198,0.0018634498,0,1,0,1
22980000,22894909,22900000,0,1.6209667,0.0,-0.005310178,0.09253129,4.507989e-05,0,1,0,1
23052000,22968000,22972000,0,1.6091595,0.0,0.0065490007,0.09246451,6.8616464e-05,0,1,0,1
23124000,23038545,23044000,0,1.6298436,0.0,-0.014578342,0.09240138,0.00034024456,0,1,0,1
23196000,23112000,23116000,0,1.6255127,0.0,-0.010099411,0.09234161,0.00016339848,0,1,0,1
23268000,23183272,23188000,0,1.6190603,0.0,-0.0036238432,0.09228495,2.1050444e-05,0,1,0,1
23340000,23256000,23260000,0,1.6334901,0.0,-0.018252134,0.09223115,0.000534322,0,1,0,1
23412000,23327636,23332000,0,1.622883,0.0,-0.007460594,0.09218002,8.932302e-05,0,1,0,1
23484000,23400000,23404000,0,1.6314614,0.0,-0.016182065,0.092131324,0.0004204496,0,1,0,1
23556000,23470545,23476000,0,1.6324906,0.0,-0.017181873,0.092085004,0.00047424794,0,1,0,1
23628000,23544000,23548000,0,1.6103158,0.0,0.0052058697,0.092040844,4.3557142e-05,0,1,0,1
23700000,23615272,23620000,0,1.6217507,0.0,-0.006597638,0.09199871,6.999203e-05,0,1,0,1
23772000,23688000,23692000,0,1.6145507,0.0,0.0004826784,0.091958486,3.7478077e-07,0,1,0,1
23844000,23758909,23764000,0,1.6176332,0.0,-0.0029685497,0.09192,1.4181821e-05,0,1,0,1
23916000,23832000,23836000,0,1.6044605,0.0,0.010048151,0.09188323,0.00016255093,0,1,0,1
23988000,23902909,23908000,0,1.6172315,0.0,-0.0031075478,0.09184802,1.5553178e-05,0,1,0,1
24060000,23976000,23980000,0,1.6328993,0.0,-0.01892519,0.0918143,0.0005770634,0,1,0,1
24132000,24048000,24052000,0,1.6204528,0.0,-0.0062719584,0.09178198,6.3401894e-05,0,1,0,1
24204000,24120000,24124000,0,1.5998259,0.0,0.014192104,0.09175104,0.00032474013,0,1,0,1
24276000,24190545,24196000,0,1.6148756,0.0,-0.0011446476,0.09172127,2.1131332e-06,0,1,0,1
24348000,24264000,24268000,0,1.5867095,0.0,0.02695465,0.0916927,0.0011721576,0,1,0,1
24420000,24334181,24340000,0,1.6068939,0.0,0.006185055,0.09166525,6.1735605e-05,0,1,0,1
24492000,24408000,24412000,0,1.6383092,0.0,-0.025398493,0.09163887,0.0010413327,0,1,0,1
24564000,24479636,24484000,0,1.6115835,0.0,0.0017493963,0.0916135,4.941631e-06,0,1,0,1
24636000,24552000,24556000,0,1.6002499,0.0,0.013064027,0.091589086,0.00027565364,0,1,0,1
24708000,24623272,24628000,0,1.6144288,0.0,-0.0013324022,0.09156558,2.8680836e-06,0,1,0,1
24780000,24696000,24700000,0,1.6218004,0.0,-0.008656502,0.091542944,0.0001210914,0,1,0,1
24852000,24766909,24772000,0,1.6097196,0.0,0.0036147833,0.09152114,2.1120126e-05,0,1,0,1
24924000,24840000,24844000,0,1.6213608,0.0,-0.008051991,0.09150012,0.000104818595,0,1,0,1
24996000,24911636,24916000,0,1.6148362,0.0,-0.0014390945,0.09147986,3.3489334e-06,0,1,0,1
25068000,24984000,24988000,0,1.6106586,0.0,0.0027935505,0.0914603,1.2622163e-05,0,1,0,1
25140000,25054909,25060000,0,1.6176158,0.0,-0.004281521,0.09144145,2.9655575e-05,0,1,0,1
25212000,25128000,25132000,0,1.6046606,0.0,0.008718729,0.09142325,0.00012299941,0,1,0,1
25284000,25198545,25204000,0,1.6108125,0.0,0.0024501085,0.09140569,9.715179e-06,0,1,0,1
25356000,25272000,25276000,0,1.6015016,0.0,0.011755943,0.09138872,0.00022370502,0,1,0,1
25428000,25343272,25348000,0,1.6182995,0.0,-0.0052042007,0.0913723,4.38477e-05,0,1,0,1
25500000,25416000,25420000,0,1.595279,0.0,0.017890453,0.09135647,0.00051827077,0,1,0,1
25572000,25487272,25492000,0,1.6157491,0.0,-0.0028960705,0.091341175,1.3583292e-05,0,1,0,1
25644000,25560000,25564000,0,1.6074405,0.0,0.005402446,0.0913264,4.7275687e-05,0,1,0,1
25716000,25631272,25636000,0,1.6156933,0.0,-0.0029296875,0.091312096,1.39048925e-05,0,1,0,1
25788000,25704000,25708000,0,1.6106902,0.0,0.002221465,0.091298275,7.9959445e-06,0,1,0,1
25860000,25774909,25780000,0,1.6184747,0.0,-0.0055572987,0.09128486,5.0047463e-05,0,1,0,1
25932000,25848000,25852000,0,1.6293716,0.0,-0.016400337,0.091271944,0.00043593487,0,1,0,1
26004000,25918545,25924000,0,1.6166055,0.0,-0.0033632517,0.09125944,1.8335566e-05,0,1,0,1
26076000,25992000,25996000,0,1.6089529,0.0,0.0043781996,0.09124734,3.107594e-05,0,1,0,1
26148000,26062909,26068000,0,1.616791,0.0,-0.0033705235,0.09123563,1.8419743e-05,0,1,0,1
26220000,26136000,26140000,0,1.59716,0.0,0.016328812,0.09122425,0.00043236662,0,1,0,1
26292000,26207636,26212000,0,1.614742,0.0,-0.0014643669,0.09121329,3.477723e-06,0,1,0,1
26364000,26280000,26284000,0,1.6281646,0.0,-0.014927149,0.09120267,0.00036140945,0,1,0,1
26436000,26351272,26356000,0,1.6157376,0.0,-0.0023454428,0.091192394,8.923689e-06,0,1,0,1
26508000,26424000,26428000,0,1.6089709,0.0,0.00449121,0.09118243,3.2724187e-05,0,1,0,1
26580000,26494909,26500000,0,1.6112078,0.0,0.0021637678,0.0911728,7.5964276e-06,0,1,0,1
26652000,26568000,26572000,0,1.6029023,0.0,0.010390878,0.09116344,0.00017520122,0,1,0,1
26724000,26639272,26644000,0,1.618,0.0,-0.004846096,0.09115442,3.811182e-05,0,1,0,1
26796000,26712000,26716000,0,1.6450852,0.0,-0.031814218,0.09114567,0.001642706,0,1,0,1
26868000,26783636,26788000,0,1.6170156,0.0,-0.0032571554,0.09113719,1.722006e-05,0,1,0,1
26940000,26856000,26860000,0,1.5980945,0.0,0.015969038,0.09112899,0.00041395612,0,1,0,1
27012000,26926909,26932000,0,1.6247448,0.0,-0.010908127,0.09112105,0.0001931679,0,1,0,1
27084000,27000000,27004000,0,1.6340306,0.0,-0.020120263,0.09111334,0.0006572623,0,1,0,1
27156000,27069818,27076000,0,1.614292,0.0,-0.000151515,0.0911059,3.727504e-08,0,1,0,1
27220000,27140000,27140000,0,1.5939778,0.0,0.02016902,0.09109798,0.00066056295,0,1,0,1
27292000,27209600,27212000,0,1.6227709,0.0,-0.009015083,0.09109101,0.00013198279,0,1,0,1
27364000,27282000,27284000,0,1.6386241,0.0,-0.024822831,0.09108425,0.0010007203,0,1,0,1
27436000,27352800,27356000,0,1.6162916,0.0,-0.002195835,0.0910777,7.831424e-06,0,1,0,1
27500000,27420000,27420000,0,1.6136626,0.0,0.00041902065,0.091070645,2.8519756e-07,0,1,0,1
27572000,27491636,27492000,0,1.6179614,0.0,-0.0038968325,0.09106452,2.466764e-05,0,1,0,1
27644000,27564000,27564000,0,1.6303332,0.0,-0.016269326,0.09105859,0.0004300031,0,1,0,1
27716000,27636000,27636000,0,1.6156522,0.0,-0.0014697313,0.091052845,3.5094233e-06,0,1,0,1
27788000,27704000,27708000,0,1.5832165,0.0,0.031015754,0.09104729,0.0015629714,0,1,0,1
27860000,27772800,27780000,0,1.6097906,0.0,0.0040118694,0.091041915,2.6152038e-05,0,1,0,1
27924000,27840000,27844000,0,1.6366222,0.0,-0.022960424,0.09103596,0.0008566436,0,1,0,1
27996000,27911272,27916000,0,1.6194694,0.0,-0.005650282,0.09103092,5.188056e-05,0,1,0,1
28068000,27984000,27988000,0,1.6008085,0.0,0.012990475,0.09102605,0.00027424435,0,1,0,1
28140000,28055272,28060000,0,1.6016204,0.0,0.0120334625,0.091021344,0.00023533759,0,1,0,1
28212000,28128000,28132000,0,1.6432724,0.0,-0.029760242,0.09101681,0.0014394769,0,1,0,1
28284000,28200000,28204000,0,1.6101323,0.0,0.0036580563,0.0910124,2.1749713e-05,0,1,0,1
28356000,28272000,28276000,0,1.614435,0.0,-0.0007622242,0.09100815,9.443621e-07,0,1,0,1
28428000,28343636,28348000,0,1.6201648,0.0,-0.006439209,0.09100404,6.739966e-05,0,1,0,1
28500000,28416000,28420000,0,1.5967915,0.0,0.016994476,0.09100007,0.0004694909,0,1,0,1
28572000,28487636,28492000,0,1.6061215,0.0,0.0074938536,0.09099624,9.1293594e-05,0,1,0,1
28644000,28560000,28564000,0,1.6145321,0.0,-0.0009108782,0.09099253,1.3488641e-06,0,1,0,1
28716000,28632000,28636000,0,1.6214418,0.0,-0.0078321695,0.09098896,9.9730685e-05,0,1,0,1
28788000,28704000,28708000,0,1.5932541,0.0,0.020382643,0.0909855,0.0006754639,0,1,0,1
28860000,28775272,28780000,0,1.6148628,0.0,-0.0014806986,0.09098217,3.5647608e-06,0,1,0,1
28932000,28848000,28852000,0,1.6398158,0.0,-0.026477218,0.09097895,0.0011398747,0,1,0,1
29004000,28918545,28924000,0,1.6123956,0.0,0.0009807348,0.090975925,1.5639758e-06,0,1,0,1
29076000,28992000,28996000,0,1.6457441,0.0,-0.032298684,0.09097293,0.0016963319,0,1,0,1
29148000,29062909,29068000,0,1.6144078,0.0,-0.0005890131,0.09097004,5.641633e-07,0,1,0,1
29220000,29136000,29140000,0,1.6243167,0.0,-0.010528088,0.09096726,0.00018024666,0,1,0,1
29292000,29206181,29212000,0,1.6074537,0.0,0.006435156,0.09096458,6.7344045e-05,0,1,0,1
29364000,29280000,29284000,0,1.6194726,0.0,-0.005655527,0.090962,5.201631e-05,0,1,0,1
29436000,29351272,29356000,0,1.6185071,0.0,-0.0047124624,0.09095951,3.6116115e-05,0,1,0,1
29508000,29424000,29428000,0,1.6118238,0.0,0.0020208359,0.09095712,6.641692e-06,0,1,0,1
29580000,29494181,29500000,0,1.6119928,0.0,0.0017700195,0.090954825,5.0954636e-06,0,1,0,1
29644000,29564000,29564000,0,1.6212146,0.0,-0.0075280666,0.09095174,9.217417e-05,0,1,0,1
29716000,29632800,29636000,0,1.6166235,0.0,-0.0029566288,0.09094961,1.4218249e-05,0,1,0,1
29780000,29700000,29700000,0,1.6174798,0.0,-0.0038239956,0.09094669,2.3784894e-05,0,1,0,1
29852000,29771272,29772000,0,1.6214918,0.0,-0.007894039,0.09094473,0.00010136181,0,1,0,1
29924000,29840000,29844000,0,1.5788652,0.0,0.0348171,0.09094285,0.0019718322,0,1,0,1
29996000,29909600,29916000,0,1.6255716,0.0,-0.012230754,0.09094106,0.00024333234,0,1,0,1
30060000,29980000,29980000,0,1.6354979,0.0,-0.02208519,0.09093844,0.0007934291,0,1,0,1
30132000,30047111,30052000,0,1.6103065,0.0,0.0032359362,0.090936795,1.7033879e-05,0,1,0,1
30204000,30118666,30124000,0,1.6301668,0.0,-0.016721845,0.090935215,0.0004548724,0,1,0,1
30276000,30190666,30196000,0,1.6199368,0.0,-0.006300688,0.090933695,6.458095e-05,0,1,0,1
30348000,30261333,30268000,0,1.6097826,0.0,0.0039402246,0.09093224,2.525675e-05,0,1,0,1
30412000,30329500,30332000,0,1.6134177,0.0,0.00017344952,0.090929955,4.894322e-08,0,1,0,1
30484000,30400000,30404000,0,1.6232837,0.0,-0.009742618,0.09092864,0.00015442017,0,1,0,1
30548000,30468000,30468000,0,1.6263361,0.0,-0.012624741,0.090926476,0.00025930323,0,1,0,1
30620000,30538400,30540000,0,1.6136686,0.0,0.00013005733,0.09092527,2.7519366e-08,0,1,0,1
30692000,30605333,30612000,0,1.6080194,0.0,0.005676031,0.09092414,5.241598e-05,0,1,0,1
30764000,30676666,30684000,0,1.6193624,0.0,-0.005882621,0.09092306,5.630164e-05,0,1,0,1
30836000,30748666,30756000,0,1.6160947,0.0,-0.0025480986,0.09092204,1.0563713e-05,0,1,0,1
30908000,30820666,30828000,0,1.6018836,0.0,0.011722207,0.090921074,0.00022356694,0,1,0,1
30980000,30893333,30900000,0,1.6164694,0.0,-0.0030175447,0.09092014,1.4814967e-05,0,1,0,1
31044000,30960000,30964000,0,1.6174098,0.0,-0.003927231,0.09091832,2.5094285e-05,0,1,0,1
31116000,31030285,31036000,0,1.6227535,0.0,-0.009251595,0.0909175,0.00013926407,0,1,0,1
31180000,31098000,31100000,0,1.6190352,0.0,-0.0055299997,0.09091578,4.975816e-05,0,1,0,1
31252000,31169000,31172000,0,1.6197,0.0,-0.0061883926,0.09091505,6.231223e-05,0,1,0,1
31316000,31236000,31236000,0,1.6040765,0.0,0.009463549,0.09091341,0.0001457248,0,1,0,1
31388000,31308000,31308000,0,1.6231744,0.0,-0.009713411,0.090912774,0.0001535225,0,1,0,1
31460000,31378666,31380000,0,1.6149058,0.0,-0.001372695,0.090912156,3.0660517e-06,0,1,0,1
31532000,31450666,31452000,0,1.6104882,0.0,0.0030810833,0.0909116,1.5446887e-05,0,1,0,1
31604000,31522666,31524000,0,1.6247287,0.0,-0.011252642,0.09091108,0.00020603713,0,1,0,1
31676000,31589500,31596000,0,1.6087334,0.0,0.004786372,0.090910584,3.7277932e-05,0,1,0,1
31748000,31662000,31668000,0,1.6144432,0.0,-0.0009199381,0.09091013,1.3770772e-06,0,1,0,1
31820000,31733500,31740000,0,1.6143687,0.0,-0.0009109974,0.0909097,1.3504466e-06,0,1,0,1
31892000,31805000,31812000,0,1.6328884,0.0,-0.019329071,0.09090931,0.0006079487,0,1,0,1
31964000,31877000,31884000,0,1.6113297,0.0,0.002495885,0.09090895,1.0136682e-05,0,1,0,1
32028000,31948000,31948000,0,1.622064,0.0,-0.0083088875,0.09090764,0.00011234111,0,1,0,1
32108000,32020500,32028000,0,1.617062,0.0,-0.0033209324,0.090908326,1.7946086e-05,0,1,0,1
32172000,32088000,32092000,0,1.6062486,0.0,0.0075085163,0.09090707,9.17411e-05,0,1,0,1
32244000,32159111,32164000,0,1.6152995,0.0,-0.0014798641,0.09090676,3.5636974e-06,0,1,0,1
32316000,32229333,32236000,0,1.6093891,0.0,0.0043611526,0.090906546,3.0950006e-05,0,1,0,1
32380000,32297000,32300000,0,1.6056616,0.0,0.007927656,0.09090537,0.00010227122,0,1,0,1
32444000,32364000,32364000,0,1.625292,0.0,-0.011793971,0.090904206,0.00022635468,0,1,0,1
32516000,32435555,32436000,0,1.624736,0.0,-0.011392593,0.09090413,0.00021121022,0,1,0,1
32588000,32508000,32508000,0,1.6264912,0.0,-0.01277411,0.09090395,0.0002655412,0,1,0,1
32660000,32578222,32580000,0,1.6115566,0.0,0.002115488,0.09090391,7.282692e-06,0,1,0,1
32732000,32650666,32652000,0,1.6095831,0.0,0.0041633844,0.090903826,2.8207474e-05,0,1,0,1
32804000,32722222,32724000,0,1.6277535,0.0,-0.014067054,0.09090377,0.00032201625,0,1,0,1
32876000,32794666,32796000,0,1.6256605,0.0,-0.011621475,0.09090367,0.00021978318,0,1,0,1
32948000,32866222,32868000,0,1.6232779,0.0,-0.009231687,0.09090364,0.0001386865,0,1,0,1
33020000,32934000,32940000,0,1.6344341,0.0,-0.020579219,0.09090368,0.0006891752,0,1,0,1
33092000,33005600,33012000,0,1.6204611,0.0,-0.0064356327,0.09090367,6.739915e-05,0,1,0,1
33164000,33078000,33084000,0,1.6240275,0.0,-0.010042667,0.090903684,0.00016412321,0,1,0,1
33236000,33148800,33156000,0,1.6183357,0.0,-0.0043376684,0.090903714,3.0618536e-05,0,1,0,1
33300000,33216000,33220000,0,1.6066449,0.0,0.007290721,0.090902746,8.650024e-05,0,1,0,1
33372000,33286909,33292000,0,1.6197404,0.0,-0.0060230494,0.090902805,5.9034912e-05,0,1,0,1
33444000,33360000,33364000,0,1.6106817,0.0,0.0033221245,0.090902805,1.7960063e-05,0,1,0,1
33516000,33430909,33436000,0,1.6190499,0.0,-0.0050816536,0.09090289,4.202288e-05,0,1,0,1
33588000,33504000,33508000,0,1.6004578,0.0,0.013550878,0.09090297,0.00029882032,0,1,0,1
33660000,33574181,33580000,0,1.6188926,0.0,-0.005129099,0.09090306,4.281116e-05,0,1,0,1
33732000,33648000,33652000,0,1.6278181,0.0,-0.0140116215,0.09090315,0.00031948555,0,1,0,1
33804000,33718181,33724000,0,1.6207868,0.0,-0.006943226,0.09090325,7.845064e-05,0,1,0,1
33868000,33788000,33788000,0,1.6203063,0.0,-0.006475568,0.09090234,6.823921e-05,0,1,0,1
33940000,33856800,33860000,0,1.6229928,0.0,-0.009142637,0.09090248,0.00013602558,0,1,0,1
34004000,33924000,33924000,0,1.5905243,0.0,0.023454309,0.09090159,0.00089521456,0,1,0,1
34076000,33994545,33996000,0,1.6134211,0.0,0.00028717518,0.09090173,1.3420694e-07,0,1,0,1
34148000,34064000,34068000,0,1.5999538,0.0,0.013402104,0.09090197,0.00029229815,0,1,0,1
34220000,34132800,34140000,0,1.6111516,0.0,0.002101779,0.090902105,7.188752e-06,0,1,0,1
34284000,34200000,34204000,0,1.6147739,0.0,-0.0015954971,0.09090124,4.142625e-06,0,1,0,1
34356000,34272000,34276000,0,1.6143987,0.0,-0.0011593103,0.090901405,2.187168e-06,0,1,0,1
34428000,34344000,34348000,0,1.6508719,0.0,-0.03767419,0.090901576,0.0023097754,0,1,0,1
34500000,34414545,34420000,0,1.6097863,0.0,0.0037351847,0.09090173,2.2704155e-05,0,1,0,1
34572000,34488000,34492000,0,1.6216785,0.0,-0.008125544,0.0909019,0.000107444765,0,1,0,1
34644000,34558909,34564000,0,1.612945,0.0,0.0006920099,0.09090206,7.792993e-07,0,1,0,1
34716000,34632000,34636000,0,1.5965481,0.0,0.01708877,0.090902224,0.00047522632,0,1,0,1
34788000,34702909,34708000,0,1.6334382,0.0,-0.019968271,0.09090238,0.00064887194,0,1,0,1
34860000,34776000,34780000,0,1.622197,0.0,-0.008551359,0.090902545,0.000119000186,0,1,0,1
34932000,34846909,34852000,0,1.6191839,0.0,-0.0055390596,0.0909027,4.9928516e-05,0,1,0,1
35004000,34920000,34924000,0,1.6346775,0.0,-0.021040201,0.090902865,0.00072040304,0,1,0,1
35076000,34990545,34996000,0,1.6118731,0.0,0.0019907951,0.09090301,6.449532e-06,0,1,0,1
35140000,35060000,35060000,0,1.6191853,0.0,-0.0053863525,0.09090214,4.721378e-05,0,1,0,1
35212000,35128400,35132000,0,1.6206217,0.0,-0.0068695545,0.09090229,7.679548e-05,0,1,0,1
35276000,35196000,35196000,0,1.647312,0.0,-0.033511758,0.09090143,0.0018275827,0,1,0,1
35348000,35268000,35268000,0,1.6111026,0.0,0.0029429197,0.09090158,1.40941465e-05,0,1,0,1
35420000,35336000,35340000,0,1.6271446,0.0,-0.013202786,0.09090173,0.00028366933,0,1,0,1
35492000,35406000,35412000,0,1.6229695,0.0,-0.008960843,0.09090188,0.00013067071,0,1,0,1
35556000,35476000,35476000,0,1.620249,0.0,-0.006158352,0.09090101,6.171826e-05,0,1,0,1
35628000,35542666,35548000,0,1.6114844,0.0,0.0026131868,0.09090115,1.1112836e-05,0,1,0,1
35700000,35613333,35620000,0,1.609754,0.0,0.0042124987,0.0909013,2.8877716e-05,0,1,0,1
35764000,35680000,35684000,0,1.6169536,0.0,-0.0027581453,0.090900354,1.238004e-05,0,1,0,1
35828000,35746666,35748000,0,1.5982589,0.0,0.015900373,0.09089948,0.0004114401,0,1,0,1
35900000,35817333,35820000,0,1.6286552,0.0,-0.0148438215,0.09089962,0.00035857726,0,1,0,1
35972000,35886000,35892000,0,1.6030344,0.0,0.010776043,0.09089976,0.00018897714,0,1,0,1
36044000,35956400,35964000,0,1.6236615,0.0,-0.009958029,0.09089988,0.00016137521,0,1,0,1
36108000,36024000,36028000,0,1.6161824,0.0,-0.0024199486,0.09089898,9.5303e-06,0,1,0,1
36180000,36096000,36100000,0,1.6177735,0.0,-0.0040792227,0.0908991,2.7079994e-05,0,1,0,1
36252000,36168000,36172000,0,1.6098188,0.0,0.0038520098,0.090899214,2.4147266e-05,0,1,0,1
36324000,36240000,36244000,0,1.6171726,0.0,-0.0036004782,0.09089932,2.109663e-05,0,1,0,1
36396000,36312000,36316000,0,1.6434976,0.0,-0.029851198,0.090899415,0.0014501596,0,1,0,1
36468000,36382909,36388000,0,1.6245561,0.0,-0.010566831,0.0908995,0.00018171105,0,1,0,1
36540000,36456000,36460000,0,1.6204872,0.0,-0.0063308477,0.09089957,6.522518e-05,0,1,0,1
36612000,36527272,36532000,0,1.6206207,0.0,-0.00642395,0.09089965,6.715765e-05,0,1,0,1
36684000,36600000,36604000,0,1.618931,0.0,-0.00470376,0.0908997,3.6006528e-05,0,1,0,1
36756000,36671636,36676000,0,1.6124027,0.0,0.0017825365,0.09089974,5.1709167e-06,0,1,0,1
36828000,36744000,36748000,0,1.6445537,0.0,-0.030489326,0.09089978,0.0015128162,0,1,0,1
36900000,36814909,36820000,0,1.6124467,0.0,0.0018581152,0.09089981,5.6186977e-06,0,1,0,1
36964000,36884000,36884000,0,1.6318762,0.0,-0.017559886,0.090898834,0.000501809,0,1,0,1
37036000,36953200,36956000,0,1.6257917,0.0,-0.01144588,0.09089884,0.00021320305,0,1,0,1
37100000,37020000,37020000,0,1.6142946,0.0,9.8228455e-05,0.09089786,1.57027e-08,0,1,0,1
37172000,37090909,37092000,0,1.621521,0.0,-0.0072404146,0.090897866,8.531522e-05,0,1,0,1
37244000,37164000,37164000,0,1.5926425,0.0,0.021587253,0.090897866,0.00075839314,0,1,0,1
37316000,37235272,37236000,0,1.6153407,0.0,-0.0014141798,0.09089786,3.254685e-06,0,1,0,1
37388000,37308000,37308000,0,1.6342902,0.0,-0.020474672,0.090897836,0.0006822346,0,1,0,1
37460000,37378545,37380000,0,1.6151806,0.0,-0.0011897087,0.09089779,2.3034634e-06,0,1,0,1
37532000,37452000,37452000,0,1.5983391,0.0,0.015583634,0.090897754,0.0003952189,0,1,0,1
37604000,37523636,37524000,0,1.6147199,0.0,-0.0009496212,0.09089769,1.4675785e-06,0,1,0,1
37676000,37592000,37596000,0,1.6295938,0.0,-0.015797734,0.09089762,0.0004061537,0,1,0,1
37748000,37661200,37668000,0,1.6236244,0.0,-0.009760499,0.090897545,0.00015504054,0,1,0,1
37812000,37728000,37732000,0,1.5926988,0.0,0.021283746,0.09089648,0.000737229,0,1,0,1
37884000,37799636,37804000,0,1.6148123,0.0,-0.0010774136,0.090896375,1.8891725e-06,0,1,0,1
37956000,37872000,37876000,0,1.6201558,0.0,-0.0064721107,0.09089628,6.817091e-05,0,1,0,1
38028000,37942545,37948000,0,1.6180977,0.0,-0.004366517,0.09089617,3.1029736e-05,0,1,0,1
38100000,38016000,38020000,0,1.6205388,0.0,-0.006814599,0.09089604,7.5576885e-05,0,1,0,1
38172000,38086545,38092000,0,1.6129081,0.0,0.0008969307,0.090895906,1.3092628e-06,0,1,0,1
38244000,38160000,38164000,0,1.6140549,0.0,-0.00027871132,0.09089574,1.2642094e-07,0,1,0,1
38316000,38230545,38236000,0,1.6139671,0.0,-0.00055122375,0.09089575,4.944992e-07,0,1,0,1
38380000,38300000,38300000,0,1.6273282,0.0,-0.013807774,0.0908946,0.00031028627,0,1,0,1
38452000,38369600,38372000,0,1.6074824,0.0,0.0062094927,0.09089442,6.2752115e-05,0,1,0,1
38524000,38440000,38444000,0,1.607911,0.0,0.0057018995,0.09089424,5.291224e-05,0,1,0,1
38588000,38507111,38508000,0,1.621567,0.0,-0.008022547,0.09089308,0.00010474832,0,1,0,1
38660000,38574000,38580000,0,1.6050254,0.0,0.008463621,0.09089289,0.00011658317,0,1,0,1
38732000,38645600,38652000,0,1.6156365,0.0,-0.0022575855,0.09089269,8.294932e-06,0,1,0,1
38796000,38716000,38716000,0,1.6235032,0.0,-0.0101403,0.090891525,0.00016735223,0,1,0,1
38868000,38784000,38788000,0,1.6217896,0.0,-0.008332014,0.0908913,0.00011298766,0,1,0,1
38940000,38856000,38860000,0,1.6097101,0.0,0.00376904,0.090891056,2.3120314e-05,0,1,0,1
39012000,38927555,38932000,0,1.6154197,0.0,-0.001995802,0.09089082,6.4828837e-06,0,1,0,1
39084000,39000000,39004000,0,1.6215606,0.0,-0.008186102,0.090890564,0.00010906586,0,1,0,1
39156000,39071111,39076000,0,1.6173173,0.0,-0.0038590431,0.09089031,2.4237901e-05,0,1,0,1
39220000,39138000,39140000,0,1.6253394,0.0,-0.011794448,0.09088909,0.00022641064,0,1,0,1
39292000,39209200,39212000,0,1.6175916,0.0,-0.0038963556,0.090888806,2.4709283e-05,0,1,0,1
39356000,39276000,39276000,0,1.6074978,0.0,0.006254792,0.09088758,6.367583e-05,0,1,0,1
39428000,39347272,39348000,0,1.6114002,0.0,0.0022473335,0.090887286,8.220254e-06,0,1,0,1
39500000,39416000,39420000,0,1.592553,0.0,0.021044612,0.09088699,0.00072083104,0,1,0,1
39572000,39484400,39492000,0,1.6163921,0.0,-0.0030498505,0.090886675,1.5139455e-05,0,1,0,1
39636000,39552000,39556000,0,1.613842,0.0,-0.00051796436,0.09088542,4.3667555e-07,0,1,0,1
39708000,39623636,39628000,0,1.6131984,0.0,0.00015640259,0.0908851,3.9815166e-08,0,1,0,1
39780000,39696000,39700000,0,1.6234741,0.0,-0.010158777,0.09088477,0.00016797519,0,1,0,1
39852000,39767636,39772000,0,1.6230489,0.0,-0.00965488,0.09088441,0.00015172518,0,1,0,1
39924000,39840000,39844000,0,1.6252356,0.0,-0.011689663,0.09088406,0.00022241783,0,1,0,1
39996000,39910181,39916000,0,1.6177716,0.0,-0.0040369034,0.09088369,2.6525531e-05,0,1,0,1
40068000,39984000,39988000,0,1.5978769,0.0,0.015870929,0.09088331,0.00040999064,0,1,0,1
40140000,40054181,40060000,0,1.6123681,0.0,0.0012238026,0.09088292,2.4377757e-06,0,1,0,1
40212000,40128000,40132000,0,1.6111431,0.0,0.0024499893,0.09088252,9.770153e-06,0,1,0,1
40284000,40199272,40204000,0,1.620232,0.0,-0.0066536665,0.0908821,7.206046e-05,0,1,0,1
40356000,40272000,40276000,0,1.6507483,0.0,-0.037135363,0.090881675,0.0022446695,0,1,0,1
40428000,40344000,40348000,0,1.6280096,0.0,-0.014042139,0.090881236,0.0003209561,0,1,0,1
40500000,40416000,40420000,0,1.6452354,0.0,-0.031235099,0.09088079,0.0015880604,0,1,0,1
40572000,40488000,40492000,0,1.6169777,0.0,-0.0027412176,0.090880334,1.2231239e-05,0,1,0,1
40644000,40560000,40564000,0,1.6084117,0.0,0.005789876,0.09087986,5.456627e-05,0,1,0,1
40716000,40632000,40636000,0,1.6167867,0.0,-0.0028123856,0.09087938,1.2874718e-05,0,1,0,1
40788000,40704000,40708000,0,1.6312032,0.0,-0.017302275,0.09087889,0.00048730042,0,1,0,1
40860000,40775272,40780000,0,1.618072,0.0,-0.00412035,0.090878405,2.763509e-05,0,1,0,1
40932000,40848000,40852000,0,1.6241503,0.0,-0.010251641,0.09087788,0.0001710732,0,1,0,1
41004000,40920000,40924000,0,1.6134946,0.0,0.0004067421,0.09087737,2.6929968e-07,0,1,0,1
41076000,40992000,40996000,0,1.6310549,0.0,-0.017225027,0.09087683,0.00048296983,0,1,0,1
41148000,41062909,41068000,0,1.6083977,0.0,0.005428314,0.09087629,4.7965917e-05,0,1,0,1
41220000,41136000,41140000,0,1.5849185,0.0,0.028856754,0.090875745,0.0013555025,0,1,0,1
41292000,41206545,41212000,0,1.6171616,0.0,-0.0037435293,0.090875186,2.2812377e-05,0,1,0,1
41364000,41280000,41284000,0,1.6380466,0.0,-0.02461183,0.09087462,0.0009860492,0,1,0,1
41436000,41349818,41356000,0,1.6251335,0.0,-0.01150775,0.09087404,0.00021557297,0,1,0,1
41500000,41420000,41420000,0,1.6174912,0.0,-0.0038603544,0.09087258,2.4259109e-05,0,1,0,1
41572000,41488400,41492000,0,1.6263423,0.0,-0.012719989,0.090872,0.00026338844,0,1,0,1
41636000,41556000,41556000,0,1.6091348,0.0,0.0045814514,0.09087054,3.4169327e-05,0,1,0,1
41708000,41627272,41628000,0,1.6193954,0.0,-0.005646348,0.09086994,5.190012e-05,0,1,0,1
41780000,41700000,41700000,0,1.6299202,0.0,-0.01621914,0.09086934,0.0004282443,0,1,0,1
41852000,41770909,41772000,0,1.6117556,0.0,0.0020358562,0.09086872,6.747349e-06,0,1,0,1
41924000,41844000,41844000,0,1.6108,0.0,0.0029796362,0.09086809,1.4453346e-05,0,1,0,1
41996000,41915636,41916000,0,1.6142164,0.0,-0.00062930584,0.09086747,6.44716e-07,0,1,0,1
42068000,41988000,41988000,0,1.6395065,0.0,-0.025970459,0.09086683,0.0010980124,0,1,0,1
42140000,42059272,42060000,0,1.6172605,0.0,-0.0034729242,0.09086618,1.9635489e-05,0,1,0,1
42212000,42132000,42132000,0,1.6146157,0.0,-0.00089097023,0.09086552,1.2923514e-06,0,1,0,1
42284000,42203272,42204000,0,1.6166078,0.0,-0.0028374195,0.09086486,1.3107037e-05,0,1,0,1
42356000,42276000,42276000,0,1.6281763,0.0,-0.014342308,0.09086419,0.0003348873,0,1,0,1
42428000,42346909,42348000,0,1.6187761,0.0,-0.004831791,0.09086351,3.8008446e-05,0,1,0,1
42500000,42420000,42420000,0,1.6022515,0.0,0.012138009,0.090862766,0.00023986246,0,1,0,1
42572000,42491272,42492000,0,1.6099697,0.0,0.0042272806,0.09086208,2.909329e-05,0,1,0,1
42644000,42564000,42564000,0,1.6022985,0.0,0.011730552,0.09086137,0.00022403245,0,1,0,1
42716000,42635272,42636000,0,1.610874,0.0,0.0029714108,0.09086065,1.4374836e-05,0,1,0,1
42788000,42708000,42708000,0,1.5919508,0.0,0.021411538,0.090859994,0.0007464082,0,1,0,1
42860000,42780000,42780000,0,1.6066484,0.0,0.006434202,0.09085925,6.740213e-05,0,1,0,1
42932000,42848000,42852000,0,1.6260546,0.0,-0.013216853,0.09085851,0.00028440935,0,1,0,1
43004000,42916800,42924000,0,1.61493,0.0,-0.001958251,0.090857774,6.243498e-06,0,1,0,1
43068000,42984000,42988000,0,1.639621,0.0,-0.02666974,0.090856194,0.0011580742,0,1,0,1
43140000,43055636,43060000,0,1.6164175,0.0,-0.0031392574,0.09085546,1.6045607e-05,0,1,0,1
43212000,43128000,43132000,0,1.5815473,0.0,0.031875014,0.09085469,0.0016542715,0,1,0,1
43284000,43198545,43204000,0,1.6224461,0.0,-0.009238362,0.09085393,0.00013896314,0,1,0,1
43356000,43272000,43276000,0,1.6441157,0.0,-0.03072381,0.090853155,0.0015369633,0,1,0,1
43428000,43344000,43348000,0,1.613318,0.0,0.0003424883,0.09085238,1.9098906e-07,0,1,0,1
43500000,43416000,43420000,0,1.591446,0.0,0.022238612,0.09085159,0.0008052601,0,1,0,1
43572000,43485818,43492000,0,1.625077,0.0,-0.011682153,0.0908508,0.00022221345,0,1,0,1
43636000,43556000,43556000,0,1.5873849,0.0,0.02612853,0.090849206,0.001111635,0,1,0,1
43708000,43623600,43628000,0,1.613887,0.0,-0.0006572008,0.09084841,7.0328633e-07,0,1,0,1
43772000,43692000,43692000,0,1.6424111,0.0,-0.029092789,0.090846814,0.0013782067,0,1,0,1
43844000,43762545,43764000,0,1.6158284,0.0,-0.0022268295,0.09084602,8.074608e-06,0,1,0,1
43916000,43836000,43836000,0,1.5982755,0.0,0.015395999,0.09084521,0.000385982,0,1,0,1
43988000,43907272,43908000,0,1.6262729,0.0,-0.012881279,0.0908444,0.00027019242,0,1,0,1
44060000,43976000,43980000,0,1.6336433,0.0,-0.02014327,0.09084359,0.0006607224,0,1,0,1
44132000,44045200,44052000,0,1.6218237,0.0,-0.008102655,0.09084276,0.00010690986,0,1,0,1
44196000,44112000,44116000,0,1.6350203,0.0,-0.021347642,0.09084116,0.0007421138,0,1,0,1
44268000,44183636,44188000,0,1.6216778,0.0,-0.0077980757,0.09084033,9.902606e-05,0,1,0,1
44340000,44256000,44260000,0,1.6083846,0.0,0.005604267,0.090839505,5.1146537e-05,0,1,0,1
44412000,44327272,44332000,0,1.6171825,0.0,-0.0032414198,0.09083868,1.7110122e-05,0,1,0,1
44484000,44400000,44404000,0,1.6192014,0.0,-0.0053185225,0.09083783,4.6064735e-05,0,1,0,1
44556000,44470545,44476000,0,1.6142668,0.0,-0.00038182735,0.09083699,2.3742405e-07,0,1,0,1
44628000,44544000,44548000,0,1.6125137,0.0,0.001330018,0.09083613,2.8807779e-06,0,1,0,1
44700000,44614909,44620000,0,1.6160563,0.0,-0.0023002625,0.090835266,8.616951e-06,0,1,0,1
44772000,44688000,44692000,0,1.6175104,0.0,-0.0038232803,0.09083441,2.3805385e-05,0,1,0,1
44844000,44759636,44764000,0,1.6219785,0.0,-0.008250475,0.09083354,0.00011085749,0,1,0,1
44916000,44832000,44836000,0,1.6150576,0.0,-0.0013707876,0.090832666,3.060213e-06,0,1,0,1
44988000,44904000,44908000,0,1.6140188,0.0,-0.00026619434,0.09083179,1.1540195e-07,0,1,0,1
45060000,44976000,44980000,0,1.6221578,0.0,-0.008441806,0.09083091,0.00011606209,0,1,0,1
45132000,45046909,45052000,0,1.624683,0.0,-0.010951877,0.09083001,0.00019534444,0,1,0,1
45204000,45120000,45124000,0,1.6196728,0.0,-0.0058499575,0.09082912,5.5735723e-05,0,1,0,1
45276000,45190909,45196000,0,1.6213546,0.0,-0.00764668,0.09082824,9.5230986e-05,0,1,0,1
45348000,45264000,45268000,0,1.6208124,0.0,-0.007073164,0.09082734,8.1482474e-05,0,1,0,1
45420000,45334909,45340000,0,1.6196128,0.0,-0.0058009624,0.09082643,5.4807653e-05,0,1,0,1
45492000,45408000,45412000,0,1.6335077,0.0,-0.019627571,0.09082551,0.00062744925,0,1,0,1
45564000,45478545,45484000,0,1.6132742,0.0,0.0007824898,0.0908246,9.972573e-07,0,1,0,1
45636000,45552000,45556000,0,1.6263614,0.0,-0.012327552,0.09082368,0.00024751865,0,1,0,1
45708000,45622181,45628000,0,1.6145644,0.0,-0.00037801266,0.09082276,2.3274018e-07,0,1,0,1
45780000,45696000,45700000,0,1.6281134,0.0,-0.013866186,0.09082183,0.00031316784,0,1,0,1
45852000,45766909,45772000,0,1.6119137,0.0,0.0024974346,0.09082089,1.0159114e-05,0,1,0,1
45924000,45840000,45844000,0,1.6471571,0.0,-0.03278458,0.090819955,0.0017506985,0,1,0,1
45996000,45910181,45916000,0,1.6167951,0.0,-0.0020666122,0.09081902,6.9565594e-06,0,1,0,1
46068000,45984000,45988000,0,1.6101011,0.0,0.004626274,0.09081808,3.4861314e-05,0,1,0,1
46140000,46055636,46060000,0,1.6113881,0.0,0.0033522844,0.09081714,1.8304896e-05,0,1,0,1
46212000,46128000,46132000,0,1.6285968,0.0,-0.013849616,0.09081618,0.00031243925,0,1,0,1
46284000,46199272,46204000,0,1.6108987,0.0,0.0038897991,0.090815224,2.4646148e-05,0,1,0,1
46356000,46272000,46276000,0,1.6087946,0.0,0.005998969,0.09081426,5.8620903e-05,0,1,0,1
46428000,46342909,46348000,0,1.616417,0.0,-0.0017257929,0.09081331,4.8515576e-06,0,1,0,1
46500000,46416000,46420000,0,1.6037215,0.0,0.01107657,0.09081235,0.00019985683,0,1,0,1
46572000,46486545,46492000,0,1.6168703,0.0,-0.002177,0.09081138,7.720225e-06,0,1,0,1
46644000,46560000,46564000,0,1.6031923,0.0,0.01154387,0.0908104,0.00021708041,0,1,0,1
46716000,46630545,46636000,0,1.6208972,0.0,-0.006273389,0.09080943,6.411016e-05,0,1,0,1
46788000,46704000,46708000,0,1.6329468,0.0,-0.018238664,0.09080846,0.0005418924,0,1,0,1
46860000,46774909,46780000,0,1.6234429,0.0,-0.008505702,0.09080748,0.000117856085,0,1,0,1
46932000,46848000,46852000,0,1.6621894,0.0,-0.04712653,0.0908065,0.0036179903,0,1,0,1
47004000,46918909,46924000,0,1.6165276,0.0,-0.0010532141,0.090805516,1.8070676e-06,0,1,0,1
47076000,46992000,46996000,0,1.6249213,0.0,-0.009373784,0.090804525,0.00014314486,0,1,0,1
47148000,47063272,47068000,0,1.6196785,0.0,-0.0040125847,0.090803534,2.6230044e-05,0,1,0,1
47220000,47136000,47140000,0,1.6171716,0.0,-0.0014636517,0.09080254,3.490043e-06,0,1,0,1
47292000,47207636,47212000,0,1.6213979,0.0,-0.0056396723,0.09080155,5.181647e-05,0,1,0,1
47364000,47280000,47284000,0,1.6261938,0.0,-0.010408163,0.09080055,0.00017648713,0,1,0,1
47436000,47351272,47356000,0,1.6141843,0.0,0.0016664267,0.09079956,4.5242023e-06,0,1,0,1
47508000,47424000,47428000,0,1.6373084,0.0,-0.021547675,0.090798564,0.0007564413,0,1,0,1
47580000,47494909,47500000,0,1.6148821,0.0,0.0010441542,0.09079756,1.7762678e-06,0,1,0,1
47652000,47568000,47572000,0,1.6437784,0.0,-0.027813673,0.09079656,0.0012603776,0,1,0,1
47724000,47639636,47644000,0,1.6205813,0.0,-0.0043301582,0.09079555,3.0548952e-05,0,1,0,1
47796000,47712000,47716000,0,1.6166761,0.0,-0.0003862381,0.09079454,2.430546e-07,0,1,0,1
47868000,47783636,47788000,0,1.6212171,0.0,-0.0049078465,0.09079353,3.9244645e-05,0,1,0,1
47940000,47856000,47860000,0,1.620174,0.0,-0.0037328005,0.09079252,2.2702456e-05,0,1,0,1
48012000,47926909,47932000,0,1.6185639,0.0,-0.002049446,0.09079151,6.843545e-06,0,1,0,1
48076000,47996000,47996000,0,1.606515,0.0,0.010011792,0.09078984,0.00016332015,0,1,0,1
48148000,48064000,48068000,0,1.6192851,0.0,-0.0028195381,0.09078883,1.29531945e-05,0,1,0,1
48220000,48136000,48140000,0,1.6191785,0.0,-0.0026391745,0.09078782,1.1349114e-05,0,1,0,1
48284000,48202666,48204000,0,1.614576,0.0,0.0019772053,0.09078616,6.369967e-06,0,1,0,1
48356000,48274666,48276000,0,1.6222298,0.0,-0.0057064295,0.09078515,5.3060026e-05,0,1,0,1
48428000,48345777,48348000,0,1.6173406,0.0,-0.0007457733,0.09078415,9.062688e-07,0,1,0,1
48500000,48418666,48420000,0,1.6196648,0.0,-0.0030605793,0.09078314,1.5263546e-05,0,1,0,1
48572000,48490222,48492000,0,1.6171558,0.0,-0.00053334236,0.090782136,4.6351641e-07,0,1,0,1
48644000,48562666,48564000,0,1.6038119,0.0,0.012828946,0.09078113,0.00026818825,0,1,0,1
48716000,48629500,48636000,0,1.6107485,0.0,0.005854368,0.09078012,5.5849938e-05,0,1,0,1
48780000,48700000,48700000,0,1.6232909,0.0,-0.006716132,0.09077847,7.350366e-05,0,1,0,1
48852000,48766857,48772000,0,1.6138176,0.0,0.0028773546,0.090777464,1.3491557e-05,0,1,0,1
48916000,48834000,48836000,0,1.6232452,0.0,-0.0065510273,0.090775825,6.9936184e-05,0,1,0,1
48988000,48905000,48908000,0,1.613176,0.0,0.0036017895,0.09077483,2.1140955e-05,0,1,0,1
49060000,48976000,48980000,0,1.6103806,0.0,0.0064469576,0.09077382,6.773332e-05,0,1,0,1
49132000,49048000,49052000,0,1.6111968,0.0,0.005638242,0.090772815,5.1806586e-05,0,1,0,1
49196000,49114666,49116000,0,1.620366,0.0,-0.0035651922,0.09077119,2.0714346e-05,0,1,0,1
49268000,49186222,49188000,0,1.611109,0.0,0.005740404,0.090770185,5.370257e-05,0,1,0,1
49340000,49254000,49260000,0,1.6094466,0.0,0.0074288845,0.090769194,8.994191e-05,0,1,0,1
49412000,49325600,49332000,0,1.6074104,0.0,0.009409189,0.09076819,0.00014428596,0,1,0,1
49476000,49396000,49396000,0,1.6476549,0.0,-0.030920982,0.09076658,0.0015582385,0,1,0,1
49556000,49468400,49476000,0,1.6178465,0.0,-0.0008188486,0.09076619,1.0927894e-06,0,1,0,1
49620000,49536000,49540000,0,1.6230993,0.0,-0.0060925484,0.090764575,6.049715e-05,0,1,0,1
49692000,49606181,49612000,0,1.6187869,0.0,-0.0017418861,0.090763584,4.94517e-06,0,1,0,1
49764000,49680000,49684000,0,1.5919888,0.0,0.02507341,0.090762585,0.0010246446,0,1,0,1
49836000,49750909,49756000,0,1.6137705,0.0,0.0030771494,0.09076158,1.5432934e-05,0,1,0,1
49908000,49824000,49828000,0,1.6423272,0.0,-0.025551796,0.09076058,0.0010641403,0,1,0,1
49980000,49894181,49900000,0,1.6152208,0.0,0.0017428398,0.09075958,4.950805e-06,0,1,0,1
50044000,49964000,49964000,0,1.6127837,0.0,0.004128933,0.09075799,2.7787159e-05,0,1,0,1
50116000,50032800,50036000,0,1.6162419,0.0,0.0006221533,0.09075699,6.3091096e-07,0,1,0,1
50188000,50104000,50108000,0,1.6031493,0.0,0.01370275,0.09075599,0.00030605082,0,1,0,1
50252000,50170666,50172000,0,1.6113421,0.0,0.0054239035,0.090754405,4.795231e-05,0,1,0,1
50324000,50242666,50244000,0,1.6220456,0.0,-0.0053622723,0.090753414,4.686926e-05,0,1,0,1
50396000,50315111,50316000,0,1.611764,0.0,0.0049259663,0.09075243,3.9552866e-05,0,1,0,1
50468000,50386666,50388000,0,1.6222262,0.0,-0.005506754,0.09075144,4.9430066e-05,0,1,0,1
50540000,50457777,50460000,0,1.6115366,0.0,0.00521183,0.09075045,4.42777e-05,0,1,0,1
50612000,50530666,50532000,0,1.6083777,0.0,0.008295655,0.09074945,0.000112178794,0,1,0,1
50684000,50598000,50604000,0,1.617563,0.0,-0.00093746185,0.09074846,1.432588e-06,0,1,0,1
50748000,50668000,50668000,0,1.6160984,0.0,0.0005326271,0.09074689,4.6245356e-07,0,1,0,1
50820000,50734857,50740000,0,1.6125455,0.0,0.004075408,0.09074591,2.7075e-05,0,1,0,1
50892000,50806400,50812000,0,1.6214706,0.0,-0.0048766136,0.09074493,3.876749e-05,0,1,0,1
50956000,50873333,50876000,0,1.623475,0.0,-0.0068325996,0.09074337,7.610451e-05,0,1,0,1
51028000,50944000,50948000,0,1.6126164,0.0,0.0041179657,0.09074238,2.7644493e-05,0,1,0,1
51100000,51016000,51020000,0,1.6165438,0.0,0.00015723705,0.090741396,4.0304883e-08,0,1,0,1
51164000,51083200,51084000,0,1.6163579,0.0,0.00042283535,0.09073985,2.9147267e-07,0,1,0,1
51236000,51154857,51156000,0,1.6240865,0.0,-0.0072767735,0.09073888,8.632521e-05,0,1,0,1
51308000,51227200,51228000,0,1.6117457,0.0,0.0052182674,0.09073791,4.4393284e-05,0,1,0,1
51380000,51299428,51300000,0,1.6170819,0.0,-0.00023126602,0.09073693,8.719526e-08,0,1,0,1
51452000,51371200,51372000,0,1.6157713,0.0,0.0010408163,0.09073596,1.7661276e-06,0,1,0,1
