timestamp,timestamp_sample,gyro_device_id,gyro_bias[0],gyro_bias[1],gyro_bias[2],gyro_bias_limit,gyro_bias_variance[0],gyro_bias_variance[1],gyro_bias_variance[2],accel_device_id,accel_bias[0],accel_bias[1],accel_bias[2],accel_bias_limit,accel_bias_variance[0],accel_bias_variance[1],accel_bias_variance[2],mag_device_id,mag_bias[0],mag_bias[1],mag_bias[2],mag_bias_limit,mag_bias_variance[0],mag_bias_variance[1],mag_bias_variance[2],gyro_bias_valid,gyro_bias_stable,accel_bias_valid,accel_bias_stable,mag_bias_valid,mag_bias_stable
3076000,3076000,1310988,0.0,0.0,0.0,0.15,0.009960121,0.009960121,0.009960038,1310988,0.0,0.0,0.0,0.4,0.039840482,0.039840482,0.039840482,197388,0.0,0.0,0.0,0.5,0.0,0.0,0.0,1,0,1,0,1,0
3396000,3316000,1310988,2.2177639e-05,-0.0003512578,1.4372491e-05,0.15,0.010154402,0.010158359,0.0032562213,1310988,-0.0015345489,0.00171872,-0.10177155,0.4,0.04091654,0.040920887,0.004499116,197388,0.0,0.0,0.0,0.5,0.0,0.0,0.0,1,0,1,0,1,0
3444000,3364000,1310988,2.2408676e-05,-0.00035477878,1.498812e-05,0.15,0.010359035,0.0103630815,0.003293703,1310988,-0.0015499417,0.0017359481,-0.102791935,0.4,0.041741133,0.041745573,0.004589793,197388,0.0,0.0,0.0,0.5,0.0025000002,0.0025000002,0.0025000002,1,0,1,0,1,0
3500000,3420000,1310988,2.2337703e-05,-0.0003588626,-5.9415515e-06,0.15,0.010589856,0.010593992,0.003366271,1310988,-0.0015664313,0.0017558854,-0.10393083,0.4,0.04267121,0.042675752,0.004692068,197388,0.0,0.0,0.0,0.5,0.0025000002,0.0025000002,0.0025000002,1,0,1,0,1,0
3556000,3476000,1310988,2.2570786e-05,-0.00036260716,-6.003549e-06,0.15,0.010812011,0.010816234,0.0034368897,1310988,-0.0015827762,0.0017742073,-0.1050153,0.4,0.04356638,0.043571014,0.004790504,197388,0.0,0.0,0.0,0.5,0.0025000002,0.0025000002,0.0025000002,1,0,1,0,1,0
3604000,3524000,1310988,5.3822918e-05,-0.00044732512,-6.8122495e-06,0.15,0.0108577935,0.010862024,0.0034918303,1310988,-0.001204031,0.0019793496,-0.10604642,0.4,0.040914394,0.040918574,0.004835339,197388,0.0,0.0,0.0,0.5,0.0025000002,0.0025000002,0.0025000002,1,0,1,0,1,0
3668000,3588000,1310988,5.2713844e-05,-0.00045277405,-0.00011222013,0.15,0.011089469,0.011093792,0.003559676,1310988,-0.0012140111,0.0020039396,-0.10717178,0.4,0.0417874,0.04179167,0.0049385186,197388,0.0,0.0,0.0,0.5,0.0025000002,0.0025000002,0.0025000002,1,0,1,0,1,0
3732000,3652000,1310988,5.3657743e-05,-0.00045707606,-8.788501e-05,0.15,0.0113098845,0.011314295,0.0036198709,1310988,-0.0012267008,0.002022912,-0.10823165,0.4,0.04261798,0.042622328,0.005036684,197388,0.0,0.0,0.0,0.5,0.0025000002,0.0025000002,0.0025000002,1,0,1,0,1,0
3780000,3700000,1310988,6.813264e-05,-0.0009489451,-0.00026838228,0.15,0.010389986,0.0103941215,0.0036531661,1310988,0.00019868444,0.002161304,-0.10901307,0.4,0.0338947,0.03389754,0.0050992793,197388,0.0,0.0,0.0,0.5,0.0025000002,0.0025000002,0.0025000002,1,0,1,0,1,0
3820000,3740000,1310988,5.0591818e-05,-0.001104328,-0.0002708563,0.15,0.010143548,0.010147601,0.0036933287,1310988,0.00025736695,0.0021828983,-0.11007087,0.4,0.03419479,0.034197807,0.00501908,197388,0.0,0.0,0.0,0.5,0.0025000002,0.0025000002,0.0025000002,1,0,1,0,1,0
3892000,3812000,1310988,5.3542924e-05,-0.0011145601,-0.00013188962,0.15,0.010334051,0.010338186,0.003741315,1310988,0.00025817743,0.002199151,-0.11109977,0.4,0.034837015,0.034840073,0.005113351,197388,0.0,0.0,0.0,0.5,0.0025000002,0.0025000002,0.0025000002,1,0,1,0,1,0
3972000,3892000,1310988,5.3135307e-05,-0.0011252305,-0.00018267777,0.15,0.010531963,0.010536186,0.0037846165,1310988,0.0002611969,0.0022215112,-0.112158604,0.4,0.035504226,0.03550732,0.005211291,197388,0.0,0.0,0.0,0.5,0.0025000002,0.0025000002,0.0025000002,1,0,1,0,1,0
3988000,3908000,1310988,-0.00019229898,-0.0021696456,0.00021734429,0.15,0.008043091,0.008046523,0.003761004,1310988,0.0006621734,0.002168654,-0.1123703,0.4,0.035267156,0.035270803,0.005229708,197388,0.0,0.0,0.0,0.5,0.0025000002,0.0025000002,0.0025000002,1,0,1,0,1,0
4020000,3940000,1310988,-0.00031485656,-0.002546987,0.00021844699,0.15,0.0073613334,0.0073645837,0.00378697,1310988,0.00042847736,0.0022795876,-0.11360722,0.4,0.035252478,0.035255894,0.004976333,197388,0.0,0.0,0.0,0.5,0.0025000002,0.0025000002,0.0025000002,1,0,1,0,1,0
4108000,4028000,1310988,-0.0003158332,-0.002570611,0.00032409994,0.15,0.0074945707,0.0074978927,0.0038118486,1310988,0.00043125698,0.0022975362,-0.11463089,0.4,0.035890598,0.03589406,0.0050664195,197388,0.0,0.0,0.0,0.5,0.0025000002,0.0025000002,0.0025000002,1,0,1,0,1,0
4196000,4116000,1310988,-0.00081021135,-0.0039412174,-4.057976e-05,0.15,0.0038729787,0.0038751545,0.003763636,1310988,-0.000291411,0.0026410252,-0.115542024,0.4,0.0353279,0.03533023,0.0051482497,197388,0.0,0.0,0.0,0.5,0.0025000002,0.0025000002,0.0025000002,1,0,1,0,1,0
4228000,4148000,1310988,-0.00083494425,-0.004104266,-4.0877396e-05,0.15,0.0034188575,0.0034208233,0.003784115,1310988,-0.0004693292,0.0027005402,-0.1170615,0.4,0.035077088,0.035079323,0.004727455,197388,0.0,0.0,0.0,0.5,0.0025000002,0.0025000002,0.0025000002,1,0,1,0,1,0
4340000,4260000,1310988,-0.00083659746,-0.004144971,0.0002724187,0.15,0.0034797569,0.0034817792,0.0037108962,1310988,-0.00047820286,0.0027176416,-0.11810039,0.4,0.035702374,0.035704616,0.0048117395,197388,0.0,0.0,0.0,0.5,0.0025000002,0.0025000002,0.0025000002,1,0,1,0,1,0
4436000,4356000,1310988,-0.0010120155,-0.0049329977,-0.00024145482,0.15,0.0012591984,0.0012600095,0.0036781435,1310988,-0.0012241743,0.0029578656,-0.120262325,0.4,0.03415061,0.03415246,0.004311902,197388,0.0,0.0,0.0,0.5,0.0025000002,0.0025000002,0.0025000002,1,0,1,0,1,0
4580000,4500000,1310988,-0.0010312245,-0.0049668844,-0.0007742245,0.15,0.0012812597,0.001282099,0.0035585952,1310988,-0.0012249218,0.0029948,-0.12131443,0.4,0.034750756,0.034752622,0.004387696,197388,0.0,0.0,0.0,0.5,0.0025000002,0.0025000002,0.0025000002,1,0,1,0,1,0
4644000,4564000,1310988,-0.0012865016,-0.005294406,-0.0008958824,0.15,0.000494156,0.000494355,0.0034822884,1310988,-0.0016281847,0.0033557005,-0.12310296,0.4,0.033834115,0.0338364,0.0038097927,197388,0.0,0.0,0.0,0.5,0.0025000002,0.0025000002,0.0025000002,1,0,1,0,1,0
4820000,4740000,1310988,-0.0016381799,-0.005396854,-0.0008315733,0.15,0.0002354001,0.00023532167,0.00332404,1310988,-0.001718352,0.003871427,-0.12409759,0.4,0.033846132,0.033848792,0.0038718532,197388,0.0,0.0,0.0,0.5,0.0025000002,0.0025000002,0.0025000002,1,0,1,0,1,0
4852000,4772000,1310988,-0.001689128,-0.005381683,-0.001445555,0.15,0.00022451804,0.00022443089,0.003220828,1310988,-0.0017208116,0.0039734705,-0.12548824,0.4,0.03389978,0.033902686,0.003294601,197388,0.0,0.0,0.0,0.5,0.0025000002,0.0025000002,0.0025000002,1,0,1,0,1,0
5060000,4980000,1310988,-0.0019377191,-0.0053457827,-0.0018712092,0.15,0.00011720733,0.000117005955,0.0029216872,1310988,-0.0016392655,0.0044071157,-0.12747817,0.4,0.034092378,0.034095764,0.0028155704,197388,0.0,0.0,0.0,0.5,0.0025000002,0.0025000002,0.0025000002,1,0,1,0,1,0
5268000,5188000,1310988,-0.0020199846,-0.005398294,-0.0021502937,0.15,6.844783e-05,6.8229056e-05,0.0026104015,1310988,-0.0017211217,0.0045759575,-0.12921149,0.4,0.03430185,0.034305528,0.0023960567,197388,0.0,0.0,0.0,0.5,0.0025000002,0.0025000002,0.0025000002,1,0,1,0,1,0
5476000,5396000,1310988,-0.0019252218,-0.0054516145,-0.0015479225,0.15,4.3636614e-05,4.342403e-05,0.0024125506,1310988,-0.0017913011,0.004400314,-0.13055804,0.4,0.034490306,0.03449411,0.0020412235,197388,0.0,0.0,0.0,0.5,0.0025000002,0.0025000002,0.0025000002,1,0,1,0,1,0
5684000,5604000,1310988,-0.0017951989,-0.005471946,-0.0018900062,0.15,2.968732e-05,2.9503342e-05,0.0021190806,1310988,-0.0018138067,0.004092904,-0.13175568,0.4,0.03464692,0.034650758,0.0017469276,197388,0.0,0.0,0.0,0.5,0.0025000002,0.0025000002,0.0025000002,1,0,1,0,1,0
5700000,5620000,1310988,-0.0018352534,-0.005438222,-0.0037024035,0.15,2.9654875e-05,2.9481045e-05,0.0020238375,1310988,-0.0017744837,0.00412987,-0.13178562,0.4,0.034662616,0.03466646,0.0017477222,197388,0.0,0.0,0.0,0.5,0.0025000002,0.0025000002,0.0025000002,1,0,1,0,1,0
5908000,5828000,1310988,-0.0017450035,-0.005470475,-0.003369061,0.15,2.1248798e-05,2.1086475e-05,0.0018522341,1310988,-0.0018194368,0.00391453,-0.13276118,0.4,0.034784444,0.034788314,0.0015052934,197388,0.0,0.0,0.0,0.5,0.0025000002,0.0025000002,0.0025000002,1,0,1,0,1,0
6132000,6052000,1310988,-0.0016888214,-0.0055209403,-0.002152037,0.15,1.5780415e-05,1.564184e-05,0.0015399053,1310988,-0.0018978636,0.00380999,-0.13363196,0.4,0.03488861,0.03489253,0.0013067377,197388,0.0,0.0,0.0,0.5,0.0025000002,0.0025000002,0.0025000002,1,0,1,0,1,0
6516000,6436000,1310988,-0.0016643082,-0.0054885806,-0.00196895,0.15,9.570914e-06,9.447776e-06,0.0012245456,1310988,-0.0017557986,0.0037560626,-0.1347874,0.4,0.035002973,0.035006937,0.0010081603,197388,0.0,0.0,0.0,0.5,0.0025000002,0.0025000002,0.0025000002,1,0,1,0,1,0
7108000,7028000,1310988,-0.0015447845,-0.00534575,-0.0017830292,0.15,5.318289e-06,5.225356e-06,0.00085789274,1310988,-0.0012081412,0.0033527398,-0.13554645,0.4,0.035100657,0.03510453,0.000802881,197388,0.0,0.0,0.0,0.5,0.0025000002,0.0025000002,0.0025000002,1,0,1,0,1,0
7940000,7860000,1310988,-0.0012725944,-0.0053713713,-0.0014978162,0.15,2.8790896e-06,2.8294169e-06,0.00052490813,1310988,-0.0013132407,0.0022676094,-0.13587129,0.4,0.03514994,0.035153594,0.00078019634,197388,0.0,0.0,0.0,0.5,0.0025000002,0.0025000002,0.0025000002,1,0,1,0,1,0
8940000,8860000,1310988,-0.001232955,-0.005346511,-0.0014991052,0.15,1.9679064e-06,1.934951e-06,0.0003178995,1310988,-0.0011994338,0.00203563,-0.13596824,0.4,0.035161227,0.03516484,0.0007809782,197388,0.0,0.0,0.0,0.5,0.0025000002,0.0025000002,0.0025000002,1,0,1,0,1,0
9940000,9860000,1310988,-0.001228768,-0.0053504584,-0.0014172577,0.15,1.9019458e-06,1.880403e-06,0.00020640428,1310988,-0.001225584,0.0020250399,-0.13580818,0.4,0.035170108,0.03517379,0.0007811761,197388,0.0,0.0,0.0,0.5,0.0025000002,0.0025000002,0.0025000002,1,0,1,0,1,0
10940000,10860000,1310988,-0.0011983463,-0.0053576883,-0.0010686915,0.15,1.8056345e-06,1.7909649e-06,0.00014076867,1310988,-0.0012694458,0.0018872869,-0.13582014,0.4,0.035170123,0.035173804,0.00078122993,197388,0.0,0.0,0.0,0.5,0.0025000002,0.0025000002,0.0025000002,1,0,1,0,1,0
11940000,11860000,1310988,-0.0011704867,-0.0053871186,-0.0005747081,0.15,1.5237554e-06,1.5131602e-06,0.000100116355,1310988,-0.0014416819,0.0018348902,-0.13558668,0.4,0.03516028,0.03516395,0.0007812492,197388,0.0,0.0,0.0,0.5,0.0025000002,0.0025000002,0.0025000002,1,0,1,0,1,0
12940000,12860000,1310988,-0.0011797802,-0.0053750505,-0.00040122535,0.15,1.2551585e-06,1.247197e-06,7.363331e-05,1310988,-0.0013565811,0.001922617,-0.13494037,0.4,0.035148982,0.03515261,0.0007812487,197388,0.0,0.0,0.0,0.5,0.0025000002,0.0025000002,0.0025000002,1,0,1,0,1,0
13812000,13732000,1310988,-0.0011871873,-0.005383609,-0.00045191674,0.15,8.8079986e-07,8.7462746e-07,5.7831898e-05,1310988,-0.0014621242,0.0020624294,-0.13393122,0.4,0.035130937,0.03513454,0.00078124576,197388,0.0,0.0,0.0,0.5,0.0025000002,0.0025000002,0.0025000002,1,0,1,0,1,0
14812000,14732000,1310988,-0.0011445708,-0.005411617,-7.360157e-05,0.15,6.963211e-07,6.916208e-07,4.4595097e-05,1310988,-0.0017826535,0.001966099,-0.13322552,0.4,0.0351203,0.035123933,0.00078124634,197388,0.0,0.0,0.0,0.5,0.0025000002,0.0025000002,0.0025000002,1,0,1,0,1,0
15812000,15732000,1310988,-0.001129918,-0.005431398,0.00014328056,0.15,5.1272747e-07,5.0909625e-07,3.5097033e-05,1310988,-0.0020599614,0.0020791064,-0.13182366,0.4,0.03510672,0.035110563,0.00078124576,197388,0.0,0.0,0.0,0.5,0.0025000002,0.0025000002,0.0025000002,1,0,1,0,1,0
16612000,16532000,1310988,-0.0011285983,-0.0054349154,0.00038422793,0.15,4.3463828e-07,4.315888e-07,2.9442428e-05,1310988,-0.0021489589,0.0021980254,-0.13072234,0.4,0.035098948,0.035103086,0.00078124576,197388,0.0,0.0,0.0,0.5,0.0025000002,0.0025000002,0.0025000002,1,0,1,0,1,0
17436000,17356000,1310988,-0.0011362856,-0.005438762,0.0003949189,0.15,3.791522e-07,3.7657225e-07,2.4578432e-05,1310988,-0.0022289595,0.0023718104,-0.12972358,0.4,0.035091687,0.035096213,0.00078124576,197388,0.0,0.0,0.0,0.5,0.0025000002,0.0025000002,0.0025000002,1,0,1,0,1,0
17804000,17724000,1310988,-0.0011440364,-0.0054440587,0.00040777054,0.15,3.5732063e-07,3.5490837e-07,2.2868644e-05,1310988,-0.0023287607,0.0025736792,-0.1286686,0.4,0.035088096,0.035092857,0.00078124576,197388,0.0,0.0,0.0,0.5,0.0025000002,0.0025000002,0.0025000002,1,0,1,0,1,0
18804000,18724000,1310988,-0.0011423957,-0.0054401443,0.0005941304,0.15,3.235658e-07,3.215922e-07,1.8849225e-05,1310988,-0.002240673,0.0025651196,-0.12808289,0.4,0.035064477,0.035069507,0.0007812492,197388,0.0,0.0,0.0,0.5,0.0025000002,0.0025000002,0.0025000002,1,0,1,0,1,0
19004000,18924000,1310988,-0.0011641912,-0.0054440796,0.0005772605,0.15,3.07976e-07,3.0604758e-07,1.8352006e-05,1310988,-0.0023913323,0.0037959116,-0.12762895,0.4,0.035015646,0.03502047,0.00078124576,197388,0.0,0.0,0.0,0.5,0.0025000002,0.0025000002,0.0025000002,1,0,1,0,1,0
19812000,19732000,1310988,-0.0011706675,-0.005464198,0.0006289753,0.15,2.8406973e-07,2.8233032e-07,1.5723712e-05,1310988,-0.0035345664,0.0045497753,-0.12616874,0.4,0.034951773,0.034956478,0.00078124576,197388,0.0,0.0,0.0,0.5,0.0025000002,0.0025000002,0.0025000002,1,0,1,0,1,0
20212000,20132000,1310988,-0.0011898233,-0.0054743374,0.0006416707,0.15,2.7421567e-07,2.725662e-07,1.47716855e-05,1310988,-0.003957728,0.0054921843,-0.12533043,0.4,0.034932397,0.034937415,0.00078124576,197388,0.0,0.0,0.0,0.5,0.0025000002,0.0025000002,0.0025000002,1,0,1,0,1,0
20604000,20524000,1310988,-0.0011948174,-0.005485635,0.0006290897,0.15,2.6546851e-07,2.639427e-07,1.372948e-05,1310988,-0.004453419,0.0058580507,-0.12429542,0.4,0.034921736,0.034927182,0.00078124576,197388,0.0,0.0,0.0,0.5,0.0025000002,0.0025000002,0.0025000002,1,0,1,0,1,0
21012000,20932000,1310988,-0.001201438,-0.0054883696,0.0006124696,0.15,2.5820776e-07,2.5677434e-07,1.3089218e-05,1310988,-0.0044697304,0.005816615,-0.12328695,0.4,0.034906294,0.034912422,0.00078124576,197388,0.0,0.0,0.0,0.5,0.0025000002,0.0025000002,0.0025000002,1,0,1,0,1,0
21412000,21332000,1310988,-0.0012090916,-0.0054886336,0.00060906756,0.15,2.5487313e-07,2.5343408e-07,1.3087723e-05,1310988,-0.004122901,0.0018027006,-0.12261468,0.4,0.033011638,0.033017904,0.00078124576,197388,0.0,0.0,0.0,0.5,0.0025000002,0.0025000002,0.0025000002,1,0,1,0,1,0
21804000,21724000,1310988,-0.0012104736,-0.0054884036,0.00060648593,0.15,2.551411e-07,2.5368715e-07,1.3087051e-05,1310988,-0.004132772,0.0003204374,-0.12167893,0.4,0.028947579,0.028953126,0.00078124576,197388,0.0,0.0,0.0,0.5,0.0025000002,0.0025000002,0.0025000002,1,0,1,0,1,0
22212000,22132000,1310988,-0.0012107313,-0.0054879836,0.00060414954,0.15,2.5750523e-07,2.5604544e-07,1.3084215e-05,1310988,-0.005215381,-0.00075847283,-0.121338405,0.4,0.024943035,0.024947774,0.00078124576,197388,0.0,0.0,0.0,0.5,0.0025000002,0.0025000002,0.0025000002,1,0,1,0,1,0
22612000,22532000,1310988,-0.0012104234,-0.005487962,0.0006064821,0.15,2.6016787e-07,2.587111e-07,1.3079013e-05,1310988,-0.008262243,-0.0020588995,-0.12120704,0.4,0.022261305,0.022265535,0.00078124576,197388,0.0,0.0,0.0,0.5,0.0025000002,0.0025000002,0.0025000002,1,0,1,0,1,0
23012000,22932000,1310988,-0.0012116679,-0.0054879515,0.00059108157,0.15,2.6273958e-07,2.6128987e-07,1.3066924e-05,1310988,-0.008348093,0.0005566889,-0.120304674,0.4,0.02064813,0.02065206,0.00078124576,197388,0.0,0.0,0.0,0.5,0.0025000002,0.0025000002,0.0025000002,1,0,1,0,1,0
23812000,23732000,1310988,-0.001212746,-0.005488118,0.00057366665,0.15,2.6777107e-07,2.6633563e-07,1.3027283e-05,1310988,-0.0079063885,0.00074588734,-0.11862909,0.4,0.019087914,0.019091498,0.00078124576,197388,0.0,0.0,0.0,0.5,0.0025000002,0.0025000002,0.0025000002,1,0,1,0,1,0
24212000,24132000,1310988,-0.001211768,-0.0054869126,0.00057172927,0.15,2.7038377e-07,2.689543e-07,1.2994052e-05,1310988,-0.006271694,-0.00071145245,-0.117317565,0.4,0.01870865,0.018712124,0.00078124576,197388,0.0,0.0,0.0,0.5,0.0025000002,0.0025000002,0.0025000002,1,0,1,0,1,0
24612000,24532000,1310988,-0.0012118642,-0.0054862015,0.0005729076,0.15,2.7311674e-07,2.716925e-07,1.295985e-05,1310988,-0.0053379424,-0.0008306997,-0.116738014,0.4,0.018457754,0.018461227,0.00078124576,197388,0.0,0.0,0.0,0.5,0.0025000002,0.0025000002,0.0025000002,1,0,1,0,1,0
25412000,25332000,1310988,-0.0012120248,-0.005485741,0.0005783514,0.15,2.7894845e-07,2.7753552e-07,1.2859544e-05,1310988,-0.004632257,-0.0009736111,-0.115670316,0.4,0.018172592,0.018176148,0.00078124576,197388,0.0,0.0,0.0,0.5,0.0025000002,0.0025000002,0.0025000002,1,0,1,0,1,0
25804000,25724000,1310988,-0.0012121291,-0.005485685,0.0005828594,0.15,2.8194586e-07,2.8054075e-07,1.2788913e-05,1310988,-0.004295057,-0.00097417063,-0.11454496,0.4,0.018092146,0.01809573,0.00078124576,197388,0.0,0.0,0.0,0.5,0.0025000002,0.0025000002,0.0025000002,1,0,1,0,1,0
26204000,26124000,1310988,-0.0012125592,-0.0054855454,0.0005722893,0.15,2.8506605e-07,2.836689e-07,1.27215235e-05,1310988,-0.004149369,-0.0005681494,-0.11341437,0.4,0.01803473,0.01803833,0.00078124576,197388,0.0,0.0,0.0,0.5,0.0025000002,0.0025000002,0.0025000002,1,0,1,0,1,0
26612000,26532000,1310988,-0.0012126216,-0.0054854346,0.00057528185,0.15,2.882522e-07,2.8686645e-07,1.26288605e-05,1310988,-0.0045715994,-0.0007091118,-0.11219314,0.4,0.017993473,0.017997077,0.00078124576,197388,0.0,0.0,0.0,0.5,0.0025000002,0.0025000002,0.0025000002,1,0,1,0,1,0
27412000,27332000,1310988,-0.0012124236,-0.005484015,0.0005490903,0.15,2.9428526e-07,2.9292184e-07,1.2426327e-05,1310988,-0.0049159983,-0.0005396645,-0.11059771,0.4,0.017943438,0.017946927,0.00078124576,197388,0.0,0.0,0.0,0.5,0.0025000002,0.0025000002,0.0025000002,1,0,1,0,1,0
27804000,27724000,1310988,-0.001210827,-0.0054823197,0.00055379985,0.15,2.9699018e-07,2.9563964e-07,1.2297905e-05,1310988,-0.00523579,-0.00031898596,-0.10961757,0.4,0.017929273,0.01793268,0.00078124576,197388,0.0,0.0,0.0,0.5,0.0025000002,0.0025000002,0.0025000002,1,0,1,0,1,0
28212000,28132000,1310988,-0.0012108375,-0.005482285,0.00053842406,0.15,2.9953745e-07,2.9820146e-07,1.2157015e-05,1310988,-0.0051883636,-0.00035895238,-0.10828348,0.4,0.01791968,0.017922997,0.00078124576,197388,0.0,0.0,0.0,0.5,0.0025000002,0.0025000002,0.0025000002,1,0,1,0,1,0
28612000,28532000,1310988,-0.001206776,-0.0054811486,0.000548631,0.15,3.016684e-07,3.003462e-07,1.2030044e-05,1310988,-0.005274568,-0.00016573437,-0.10684426,0.4,0.017913286,0.01791651,0.00078124576,197388,0.0,0.0,0.0,0.5,0.0025000002,0.0025000002,0.0025000002,1,0,1,0,1,0
29004000,28924000,1310988,-0.0012038373,-0.005480159,0.0005393159,0.15,3.032975e-07,3.0199587e-07,1.1865407e-05,1310988,-0.005294521,-0.00013045924,-0.10508709,0.4,0.017909009,0.01791214,0.00078124576,197388,0.0,0.0,0.0,0.5,0.0025000002,0.0025000002,0.0025000002,1,0,1,0,1,0
29812000,29732000,1310988,-0.0012004157,-0.005474582,0.0005075284,0.15,3.050465e-07,3.0381062e-07,1.1532672e-05,1310988,-0.0054113665,-0.00013249514,-0.10339964,0.4,0.017904524,0.017907495,0.00078124576,197388,0.0,0.0,0.0,0.5,0.0025000002,0.0025000002,0.0025000002,1,0,1,0,1,0
30212000,30132000,1310988,-0.0011972178,-0.0054663215,0.00049719476,0.15,3.048898e-07,3.0369702e-07,1.1335941e-05,1310988,-0.0054371916,-0.0002003131,-0.10203698,0.4,0.01790343,0.017906334,0.00078124576,197388,0.0,0.0,0.0,0.5,0.0025000002,0.0025000002,0.0025000002,1,0,1,0,1,0
30612000,30532000,1310988,-0.0011964404,-0.005463521,0.0004826367,0.15,3.0403777e-07,3.0288632e-07,1.1164953e-05,1310988,-0.005403907,-0.00025150532,-0.10054669,0.4,0.01790254,0.017905403,0.00078124576,197388,0.0,0.0,0.0,0.5,0.0025000002,0.0025000002,0.0025000002,1,0,1,0,1,0
31412000,31332000,1310988,-0.0011917047,-0.005450901,0.00047307214,0.15,3.0013447e-07,2.990776e-07,1.0728642e-05,1310988,-0.0052885097,-0.0003758385,-0.09855446,0.4,0.01790042,0.01790325,0.00078124576,197388,0.0,0.0,0.0,0.5,0.0025000002,0.0025000002,0.0025000002,1,0,1,0,1,0
31812000,31732000,1310988,-0.0011926574,-0.005440121,0.00047171168,0.15,2.9713934e-07,2.9612562e-07,1.0538091e-05,1310988,-0.0051133092,-0.0004262272,-0.097311914,0.4,0.017898854,0.017901683,0.00078124576,197388,0.0,0.0,0.0,0.5,0.0025000002,0.0025000002,0.0025000002,1,0,1,0,1,0
32204000,32124000,1310988,-0.0011940491,-0.0054311585,0.00045895972,0.15,2.9348354e-07,2.925161e-07,1.0302116e-05,1310988,-0.0049387245,-0.000461908,-0.09593156,0.4,0.017896917,0.017899755,0.00078124576,197388,0.0,0.0,0.0,0.5,0.0025000002,0.0025000002,0.0025000002,1,0,1,0,1,0
32612000,32532000,1310988,-0.0011921993,-0.0054212273,0.00044325672,0.15,2.893258e-07,2.8839287e-07,1.0060957e-05,1310988,-0.0047397176,-0.0005491728,-0.094438404,0.4,0.017894603,0.01789747,0.00078124576,197388,0.0,0.0,0.0,0.5,0.0025000002,0.0025000002,0.0025000002,1,0,1,0,1,0
33012000,32932000,1310988,-0.0012002218,-0.0054097823,0.00042562818,0.15,2.8464675e-07,2.8374433e-07,9.85656e-06,1310988,-0.0044498676,-0.0004632144,-0.09248465,0.4,0.017891971,0.017894888,0.00078124576,197388,0.0,0.0,0.0,0.5,0.0025000002,0.0025000002,0.0025000002,1,0,1,0,1,0
33412000,33332000,1310988,-0.0012080363,-0.0053995475,0.0003997252,0.15,2.795809e-07,2.7871312e-07,9.606593e-06,1310988,-0.0042164074,-0.00035584776,-0.09125481,0.4,0.017889136,0.017892104,0.00078124576,197388,0.0,0.0,0.0,0.5,0.0025000002,0.0025000002,0.0025000002,1,0,1,0,1,0
33812000,33732000,1310988,-0.0012085808,-0.0053919638,0.00039040457,0.15,2.7424082e-07,2.7339544e-07,9.353447e-06,1310988,-0.0040328554,-0.00036730125,-0.09002609,0.4,0.017886097,0.017889133,0.00078124576,197388,0.0,0.0,0.0,0.5,0.0025000002,0.0025000002,0.0025000002,1,0,1,0,1,0
34212000,34132000,1310988,-0.0012142159,-0.005378076,0.00040604858,0.15,2.6872215e-07,2.6789354e-07,9.1417805e-06,1310988,-0.0036861915,-0.0002894882,-0.088684455,0.4,0.017882647,0.017885748,0.00078124576,197388,0.0,0.0,0.0,0.5,0.0025000002,0.0025000002,0.0025000002,1,0,1,0,1,0
34604000,34524000,1310988,-0.0012185705,-0.0053672413,0.00037706227,0.15,2.6308606e-07,2.6228665e-07,8.8861325e-06,1310988,-0.00342345,-0.00022224986,-0.08739542,0.4,0.017879,0.017882137,0.00078124576,197388,0.0,0.0,0.0,0.5,0.0025000002,0.0025000002,0.0025000002,1,0,1,0,1,0
35012000,34932000,1310988,-0.0012231522,-0.0053552757,0.00035174954,0.15,2.574924e-07,2.5672125e-07,8.629809e-06,1310988,-0.0031448144,-0.0001582312,-0.086390056,0.4,0.017875241,0.017878419,0.00078124576,197388,0.0,0.0,0.0,0.5,0.0025000002,0.0025000002,0.0025000002,1,0,1,0,1,0
35804000,35724000,1310988,-0.0012412546,-0.0053220848,0.0003078503,0.15,2.4644623e-07,2.457198e-07,8.1630915e-06,1310988,-0.00237036,0.0001226693,-0.08501099,0.4,0.01786742,0.017870724,0.00078124576,197388,0.0,0.0,0.0,0.5,0.0025000002,0.0025000002,0.0025000002,1,0,1,0,1,0
36212000,36132000,1310988,-0.0012475842,-0.005303292,0.00030461993,0.15,2.4120015e-07,2.4048646e-07,7.911867e-06,1310988,-0.0018911555,0.00021871988,-0.08390364,0.4,0.01786336,0.01786675,0.00078124576,197388,0.0,0.0,0.0,0.5,0.0025000002,0.0025000002,0.0025000002,1,0,1,0,1,0
37004000,36924000,1310988,-0.0012633213,-0.0052769575,0.00023575313,0.15,2.31274e-07,2.3056921e-07,7.45835e-06,1310988,-0.0012377052,0.00045588036,-0.08276749,0.4,0.017855708,0.01785931,0.00078124576,197388,0.0,0.0,0.0,0.5,0.0025000002,0.0025000002,0.0025000002,1,0,1,0,1,0
37812000,37732000,1310988,-0.0012746968,-0.00524939,0.00022907689,0.15,2.2242095e-07,2.2173285e-07,6.977873e-06,1310988,-0.00053956517,0.00063326024,-0.08110137,0.4,0.017848702,0.017852515,0.00078124576,197388,0.0,0.0,0.0,0.5,0.0025000002,0.0025000002,0.0025000002,1,0,1,0,1,0
38612000,38532000,1310988,-0.00127662,-0.005225333,0.00021020163,0.15,2.1478958e-07,2.141397e-07,6.5542777e-06,1310988,-0.00027305572,0.0006923876,-0.078681104,0.4,0.017844602,0.01784858,0.00078124576,197388,0.0,0.0,0.0,0.5,0.0025000002,0.0025000002,0.0025000002,1,0,1,0,1,0
39012000,38932000,1310988,-0.0012794778,-0.00521728,0.00020384107,0.15,2.1159339e-07,2.1098629e-07,6.330846e-06,1310988,-0.00040948892,0.00060882326,-0.0769027,0.4,0.01783833,0.017842386,0.00078124576,197388,0.0,0.0,0.0,0.5,0.0025000002,0.0025000002,0.0025000002,1,0,1,0,1,0
39412000,39332000,1310988,-0.0012817868,-0.005201085,0.00019073806,0.15,2.08462e-07,2.078922e-07,6.1495966e-06,1310988,-0.00059119216,0.0005491182,-0.075817935,0.4,0.01783673,0.017840873,0.00078124576,197388,0.0,0.0,0.0,0.5,0.0025000002,0.0025000002,0.0025000002,1,0,1,0,1,0
39812000,39732000,1310988,-0.0012846595,-0.0051919287,0.00019738378,0.15,2.0548504e-07,2.0495796e-07,5.937117e-06,1310988,-0.0006246482,0.0004906373,-0.07453123,0.4,0.017835759,0.017839974,0.00078124576,197388,0.0,0.0,0.0,0.5,0.0025000002,0.0025000002,0.0025000002,1,0,1,0,1,0
40212000,40132000,1310988,-0.0012875262,-0.0051862104,0.0001939841,0.15,2.02675e-07,2.0218296e-07,5.7304633e-06,1310988,-0.0006092876,0.00046498372,-0.073486686,0.4,0.017835325,0.017839601,0.00078124576,197388,0.0,0.0,0.0,0.5,0.0025000002,0.0025000002,0.0025000002,1,0,1,0,1,0
40612000,40532000,1310988,-0.0012893592,-0.005178283,0.00013796383,0.15,2.00042e-07,1.9957241e-07,5.5632263e-06,1310988,-0.00058591296,0.00048032505,-0.072195254,0.4,0.017835174,0.017839503,0.00078124576,197388,0.0,0.0,0.0,0.5,0.0025000002,0.0025000002,0.0025000002,1,0,1,0,1,0
41012000,40932000,1310988,-0.001292831,-0.005170084,0.0001212205,0.15,1.9755304e-07,1.9710694e-07,5.3673602e-06,1310988,-0.0004965247,0.00048598635,-0.07056623,0.4,0.017835027,0.017839402,0.00078124576,197388,0.0,0.0,0.0,0.5,0.0025000002,0.0025000002,0.0025000002,1,0,1,0,1,0
41412000,41332000,1310988,-0.0012934058,-0.005167474,0.00011459135,0.15,1.9523452e-07,1.9480696e-07,5.209286e-06,1310988,-0.0004397324,0.00049182045,-0.06949317,0.4,0.017834712,0.017839126,0.00078124576,197388,0.0,0.0,0.0,0.5,0.0025000002,0.0025000002,0.0025000002,1,0,1,0,1,0
41812000,41732000,1310988,-0.0012940776,-0.0051603275,8.808114e-05,0.15,1.9305278e-07,1.9264863e-07,5.0249178e-06,1310988,-0.00032363334,0.00049438316,-0.06791236,0.4,0.01783407,0.017838512,0.00078124576,197388,0.0,0.0,0.0,0.5,0.0025000002,0.0025000002,0.0025000002,1,0,1,0,1,0
42204000,42124000,1310988,-0.00129447,-0.005157576,7.3699994e-05,0.15,1.909984e-07,1.9061495e-07,4.8765246e-06,1310988,-0.00025105604,0.00050060457,-0.06646339,0.4,0.01783307,0.017837534,0.00078124576,197388,0.0,0.0,0.0,0.5,0.0025000002,0.0025000002,0.0025000002,1,0,1,0,1,0
43012000,42932000,1310988,-0.0012910494,-0.00515282,8.544182e-05,0.15,1.871516e-07,1.8682042e-07,4.5363754e-06,1310988,-0.00045630796,0.00046488104,-0.064945236,0.4,0.017548565,0.017552884,0.00078124576,197388,0.0,0.0,0.0,0.5,0.0025000002,0.0025000002,0.0025000002,1,0,1,0,1,0
43412000,43332000,1310988,-0.0012850015,-0.005150523,6.4679014e-05,0.15,1.8669512e-07,1.8638201e-07,4.4023814e-06,1310988,-0.0004991064,0.0028517114,-0.06167065,0.4,0.016544081,0.016547961,0.00078124576,197388,0.0,0.0,0.0,0.5,0.0025000002,0.0025000002,0.0025000002,1,0,1,0,1,0
43804000,43724000,1310988,-0.0012831787,-0.0051502897,6.8790854e-05,0.15,1.8774914e-07,1.8745634e-07,4.24638e-06,1310988,0.0007941392,0.002805806,-0.057101455,0.4,0.015153378,0.015156764,0.00078124576,197388,0.0,0.0,0.0,0.5,0.0025000002,0.0025000002,0.0025000002,1,0,1,0,1,0
44212000,44132000,1310988,-0.0012812867,-0.0051483577,4.2945234e-05,0.15,1.8999673e-07,1.8972376e-07,4.0965315e-06,1310988,0.001097799,0.003975407,-0.05102951,0.4,0.013791274,0.013794307,0.00078124576,197388,0.0,0.0,0.0,0.5,0.0025000002,0.0025000002,0.0025000002,1,0,1,0,1,0
44604000,44524000,1310988,-0.0012800342,-0.0051473086,3.7276845e-05,0.15,1.9264485e-07,1.923873e-07,3.976471e-06,1310988,0.0023247192,0.0039397473,-0.04392739,0.4,0.012708683,0.012711577,0.00078124576,197388,0.0,0.0,0.0,0.5,0.0025000002,0.0025000002,0.0025000002,1,0,1,0,1,0
45004000,44924000,1310988,-0.0012791809,-0.005146415,2.9835694e-05,0.15,1.9555735e-07,1.9531655e-07,3.8368285e-06,1310988,0.004613945,0.0033372992,-0.035767537,0.4,0.01189319,0.011896153,0.00078124576,197388,0.0,0.0,0.0,0.5,0.0025000002,0.0025000002,0.0025000002,1,0,1,0,1,0
46004000,45924000,1310988,-0.0012804964,-0.005143462,-3.1480424e-05,0.15,2.030144e-07,2.0280784e-07,3.5320083e-06,1310988,0.0046630506,0.0028655957,-0.035131853,0.4,0.011874358,0.0118773235,0.0007812595,197388,0.0,0.0,0.0,0.5,0.0025000002,0.0025000002,0.0025000002,1,1,1,0,1,0
46204000,46124000,1310988,-0.0012814585,-0.0051433886,-2.7497159e-05,0.15,2.0430986e-07,2.0410597e-07,3.491169e-06,1310988,0.005631779,0.00103865,-0.033819217,0.4,0.011610062,0.011612888,0.00078124576,197388,0.0,0.0,0.0,0.5,0.0025000002,0.0025000002,0.0025000002,1,1,1,0,1,0
46612000,46532000,1310988,-0.0012827645,-0.0051416866,-2.6257716e-05,0.15,2.0717192e-07,2.0697922e-07,3.3704243e-06,1310988,0.0049844524,-0.0019003787,-0.031475086,0.4,0.011021492,0.011024041,0.00078124576,197388,0.0,0.0,0.0,0.5,0.0025000002,0.0025000002,0.0025000002,1,1,1,0,1,0
47012000,46932000,1310988,-0.0012850323,-0.005141288,-5.8460053e-05,0.15,2.0993733e-07,2.0975477e-07,3.2544108e-06,1310988,0.0071443734,-0.0055421973,-0.02834109,0.4,0.010249738,0.010252014,0.00078124576,197388,0.0,0.0,0.0,0.5,0.0025000002,0.0025000002,0.0025000002,1,1,1,0,1,0
47404000,47324000,1310988,-0.0012855417,-0.005139926,-7.270708e-05,0.15,2.1264084e-07,2.1246612e-07,3.1617558e-06,1310988,0.007539724,-0.0072050635,-0.024584398,0.4,0.009459624,0.009461766,0.00078124576,197388,0.0,0.0,0.0,0.5,0.0025000002,0.0025000002,0.0025000002,1,1,1,0,1,0
47812000,47732000,1310988,-0.0012874004,-0.0051409784,-9.556987e-05,0.15,2.1545706e-07,2.1529218e-07,3.0541987e-06,1310988,0.011759075,-0.010596179,-0.019918881,0.4,0.008729929,0.008732123,0.00078124576,197388,0.0,0.0,0.0,0.5,0.0025000002,0.0025000002,0.0025000002,1,1,1,0,1,0
48212000,48132000,1310988,-0.0012867204,-0.005139264,-9.727687e-05,0.15,2.1821393e-07,2.180565e-07,2.968416e-06,1310988,0.011783764,-0.011066473,-0.015242027,0.4,0.008112746,0.008115167,0.00078124576,197388,0.0,0.0,0.0,0.5,0.0025000002,0.0025000002,0.0025000002,1,1,1,0,1,0
48604000,48524000,1310988,-0.0012875311,-0.005139088,-0.000101842015,0.15,2.2089161e-07,2.2074329e-07,2.8687891e-06,1310988,0.013651061,-0.013109653,-0.010515241,0.4,0.0076122843,0.007615061,0.00078124576,197388,0.0,0.0,0.0,0.5,0.0025000002,0.0025000002,0.0025000002,1,1,1,0,1,0
49012000,48932000,1310988,-0.001287558,-0.005136625,-9.668089e-05,0.15,2.2366103e-07,2.2352165e-07,2.7734475e-06,1310988,0.013233216,-0.014553931,-0.005183872,0.4,0.007205748,0.0072089904,0.00078124576,197388,0.0,0.0,0.0,0.5,0.0025000002,0.0025000002,0.0025000002,1,1,1,0,1,0
49412000,49332000,1310988,-0.0012878223,-0.0051344777,-8.363428e-05,0.15,2.263204e-07,2.2618981e-07,2.682075e-06,1310988,0.013080314,-0.016168352,-2.7453932e-05,0.4,0.0068814373,0.006885207,0.00078124576,197388,0.0,0.0,0.0,0.5,0.0025000002,0.0025000002,0.0025000002,1,1,1,0,1,0
49812000,49732000,1310988,-0.0012876901,-0.005131971,-8.962352e-05,0.15,2.2891878e-07,2.2879539e-07,2.6093785e-06,1310988,0.01297445,-0.017068913,0.0048709083,0.4,0.0066230143,0.006627336,0.00078124576,197388,0.0,0.0,0.0,0.5,0.0025000002,0.0025000002,0.0025000002,1,1,1,0,1,0
50212000,50132000,1310988,-0.001287367,-0.0051289974,-9.044498e-05,0.15,2.3142064e-07,2.313068e-07,2.5248223e-06,1310988,0.012673786,-0.017866716,0.00967637,0.4,0.0064169588,0.0064218338,0.00078124576,197388,0.0,0.0,0.0,0.5,0.0025000002,0.0025000002,0.0025000002,1,1,1,0,1,0
50604000,50524000,1310988,-0.0012854572,-0.0051271385,-8.862264e-05,0.15,2.3375779e-07,2.3365192e-07,2.4575459e-06,1310988,0.012886246,-0.017815141,0.013849599,0.4,0.00625333,0.006258738,0.00078124576,197388,0.0,0.0,0.0,0.5,0.0025000002,0.0025000002,0.0025000002,1,1,1,0,1,0
51004000,50924000,1310988,-0.0012833859,-0.005126808,-8.8674635e-05,0.15,2.3600938e-07,2.3591241e-07,2.3793245e-06,1310988,0.013616033,-0.017685905,0.017422348,0.4,0.006122374,0.0061282814,0.00078124576,197388,0.0,0.0,0.0,0.5,0.0025000002,0.0025000002,0.0025000002,1,1,1,0,1,0
51412000,51332000,1310988,-0.0012819436,-0.0051241945,-8.767778e-05,0.15,2.3813911e-07,2.3805023e-07,2.304457e-06,1310988,0.0134698665,-0.017751902,0.020396817,0.4,0.006017466,0.00602385,0.00078124576,197388,0.0,0.0,0.0,0.5,0.0025000002,0.0025000002,0.0025000002,1,1,1,0,1,0
51812000,51732000,1310988,-0.001277995,-0.005121862,-8.380152e-05,0.15,2.4000286e-07,2.3992172e-07,2.2325996e-06,1310988,0.0133714685,-0.01717466,0.022801405,0.4,0.0059344005,0.0059412224,0.00078124576,197388,0.0,0.0,0.0,0.5,0.0025000002,0.0025000002,0.0025000002,1,1,1,0,1,0
52212000,52132000,1310988,-0.0012751527,-0.0051191696,-8.759091e-05,0.15,2.4163336e-07,2.4155915e-07,2.163766e-06,1310988,0.013255333,-0.016912172,0.025022192,0.4,0.00586904,0.0058762603,0.00078124576,197388,0.0,0.0,0.0,0.5,0.0025000002,0.0025000002,0.0025000002,1,1,1,0,1,0
52612000,52532000,1310988,-0.0012722553,-0.005117859,-8.9280285e-05,0.15,2.4300218e-07,2.4293308e-07,2.1091666e-06,1310988,0.013294773,-0.016633414,0.02633679,0.4,0.005818182,0.005825753,0.00078124576,197388,0.0,0.0,0.0,0.5,0.0025000002,0.0025000002,0.0025000002,1,1,1,0,1,0
53004000,52924000,1310988,-0.0012659208,-0.0051139793,-8.239771e-05,0.15,2.4402726e-07,2.4396414e-07,2.0453906e-06,1310988,0.01291449,-0.015934523,0.027160924,0.4,0.0057791765,0.0057870653,0.00078124576,197388,0.0,0.0,0.0,0.5,0.0025000002,0.0025000002,0.0025000002,1,1,1,0,1,0
