timestamp,timestamp_sample,control[0],control[1],control[2],control[3],control[4],control[5],control[6],control[7],control[8],control[9],control[10],control[11],reversible_flags
3180000,3180000,0.0,0.0,0.0,0.0,nan,nan,nan,nan,nan,nan,nan,nan,0
3184000,3184000,0.0,0.0,0.0,0.0,nan,nan,nan,nan,nan,nan,nan,nan,0
3280000,3280000,0.0,0.0,0.0,0.0,nan,nan,nan,nan,nan,nan,nan,nan,0
3380000,3380000,0.0,0.0,0.0,0.0,nan,nan,nan,nan,nan,nan,nan,nan,0
3480000,3480000,0.0019999994,1.8626451e-09,0.0020000013,0.0,nan,nan,nan,nan,nan,nan,nan,nan,0
3580000,3580000,0.0019999999,0.0,0.0019999999,0.0,nan,nan,nan,nan,nan,nan,nan,nan,0
3676000,3676000,0.0020000003,0.0,0.0020000003,0.0,nan,nan,nan,nan,nan,nan,nan,nan,0
3780000,3780000,0.0020000022,0.0,0.0020000022,0.0,nan,nan,nan,nan,nan,nan,nan,nan,0
3880000,3880000,0.0019999966,3.7252903e-09,0.0020000003,0.0,nan,nan,nan,nan,nan,nan,nan,nan,0
3980000,3980000,0.0019999992,0.0,0.0020000024,0.0,nan,nan,nan,nan,nan,nan,nan,nan,0
4080000,4080000,0.0020000027,1.8626451e-09,0.0019999961,0.0,nan,nan,nan,nan,nan,nan,nan,nan,0
4180000,4180000,0.0020000003,0.0,0.0019999966,3.7252903e-09,nan,nan,nan,nan,nan,nan,nan,nan,0
4276000,4276000,0.0020000022,0.0,0.0019999985,0.0,nan,nan,nan,nan,nan,nan,nan,nan,0
4380000,4380000,0.0019999985,0.0,0.0020000022,0.0,nan,nan,nan,nan,nan,nan,nan,nan,0
4480000,4480000,0.0020000003,0.0,0.0020000003,0.0,nan,nan,nan,nan,nan,nan,nan,nan,0
4580000,4580000,0.0019999996,0.0,0.0020000017,0.0,nan,nan,nan,nan,nan,nan,nan,nan,0
4676000,4676000,0.0019999952,0.0,0.0020000017,1.8626451e-09,nan,nan,nan,nan,nan,nan,nan,nan,0
4780000,4780000,0.002,1.8626451e-09,0.0019999987,0.0,nan,nan,nan,nan,nan,nan,nan,nan,0
4880000,4880000,0.0020000013,0.0,0.0020000013,0.0,nan,nan,nan,nan,nan,nan,nan,nan,0
4980000,4980000,0.0020000013,0.0,0.0020000013,0.0,nan,nan,nan,nan,nan,nan,nan,nan,0
5080000,5080000,0.0019999985,1.8626451e-09,0.0020000022,0.0,nan,nan,nan,nan,nan,nan,nan,nan,0
5180000,5180000,0.0020000013,0.0,0.0019999994,0.0,nan,nan,nan,nan,nan,nan,nan,nan,0
5276000,5276000,0.0020000003,0.0,0.0020000003,0.0,nan,nan,nan,nan,nan,nan,nan,nan,0
5380000,5380000,0.0020000013,0.0,0.0019999994,0.0,nan,nan,nan,nan,nan,nan,nan,nan,0
5480000,5480000,0.001999997,0.0,0.0020000008,9.313226e-10,nan,nan,nan,nan,nan,nan,nan,nan,0
5580000,5580000,0.0020000013,0.0,0.0019999994,0.0,nan,nan,nan,nan,nan,nan,nan,nan,0
5680000,5680000,0.0020000013,0.0,0.0019999994,1.8626451e-09,nan,nan,nan,nan,nan,nan,nan,nan,0
5780000,5780000,0.0020000027,0.0,0.001999999,0.0,nan,nan,nan,nan,nan,nan,nan,nan,0
5880000,5880000,0.0020000013,0.0,0.0020000013,0.0,nan,nan,nan,nan,nan,nan,nan,nan,0
5980000,5980000,0.0020000003,0.0,0.0020000003,0.0,nan,nan,nan,nan,nan,nan,nan,nan,0
6080000,6080000,0.0020000022,0.0,0.0019999985,0.0,nan,nan,nan,nan,nan,nan,nan,nan,0
6180000,6180000,0.0019999994,0.0,0.0020000013,0.0,nan,nan,nan,nan,nan,nan,nan,nan,0
6280000,6280000,0.0019999996,0.0,0.0019999992,1.8626451e-09,nan,nan,nan,nan,nan,nan,nan,nan,0
6380000,6380000,0.0019999994,0.0,0.0020000013,0.0,nan,nan,nan,nan,nan,nan,nan,nan,0
6480000,6480000,0.0019999994,0.0,0.0020000013,0.0,nan,nan,nan,nan,nan,nan,nan,nan,0
6580000,6580000,0.0020000013,0.0,0.0019999994,0.0,nan,nan,nan,nan,nan,nan,nan,nan,0
6680000,6680000,0.0019999994,0.0,0.0019999994,0.0,nan,nan,nan,nan,nan,nan,nan,nan,0
6780000,6780000,0.0019999994,0.0,0.0020000013,0.0,nan,nan,nan,nan,nan,nan,nan,nan,0
6880000,6880000,0.0019999994,0.0,0.0020000013,0.0,nan,nan,nan,nan,nan,nan,nan,nan,0
6980000,6980000,0.0019999994,0.0,0.0019999975,1.8626451e-09,nan,nan,nan,nan,nan,nan,nan,nan,0
7076000,7076000,0.002,3.7252903e-09,0.0019999987,0.0,nan,nan,nan,nan,nan,nan,nan,nan,0
7180000,7180000,0.0020000013,0.0,0.0019999994,0.0,nan,nan,nan,nan,nan,nan,nan,nan,0
7276000,7276000,0.0020000022,0.0,0.0019999985,0.0,nan,nan,nan,nan,nan,nan,nan,nan,0
7380000,7380000,0.0019999994,0.0,0.0020000013,0.0,nan,nan,nan,nan,nan,nan,nan,nan,0
7480000,7480000,0.0019999996,0.0,0.0019999992,1.8626451e-09,nan,nan,nan,nan,nan,nan,nan,nan,0
7580000,7580000,0.0020000013,0.0,0.0019999994,0.0,nan,nan,nan,nan,nan,nan,nan,nan,0
7680000,7680000,0.0020000022,0.0,0.0019999994,9.313226e-10,nan,nan,nan,nan,nan,nan,nan,nan,0
7780000,7780000,0.0019999968,0.0,0.002000002,1.8626451e-09,nan,nan,nan,nan,nan,nan,nan,nan,0
7880000,7880000,0.0020000003,0.0,0.0020000003,0.0,nan,nan,nan,nan,nan,nan,nan,nan,0
7980000,7980000,0.0019999985,0.0,0.0019999985,0.0,nan,nan,nan,nan,nan,nan,nan,nan,0
8080000,8080000,0.0019999978,9.313226e-10,0.0020000022,0.0,nan,nan,nan,nan,nan,nan,nan,nan,0
8180000,8180000,0.0020000013,0.0,0.0019999994,0.0,nan,nan,nan,nan,nan,nan,nan,nan,0
8280000,8280000,0.0019999992,1.8626451e-09,0.0019999996,0.0,nan,nan,nan,nan,nan,nan,nan,nan,0
8380000,8380000,0.0019999996,0.0,0.0019999992,1.8626451e-09,nan,nan,nan,nan,nan,nan,nan,nan,0
8476000,8476000,0.0020000022,0.0,0.0020000022,0.0,nan,nan,nan,nan,nan,nan,nan,nan,0
8580000,8580000,0.0019999996,0.0,0.0019999992,1.8626451e-09,nan,nan,nan,nan,nan,nan,nan,nan,0
8676000,8676000,0.0020000013,0.0,0.0019999994,0.0,nan,nan,nan,nan,nan,nan,nan,nan,0
8776000,8776000,0.0019999994,0.0,0.0020000013,0.0,nan,nan,nan,nan,nan,nan,nan,nan,0
8880000,8880000,0.0020000013,0.0,0.0020000013,0.0,nan,nan,nan,nan,nan,nan,nan,nan,0
8980000,8980000,0.0020000017,0.0,0.0020000017,0.0,nan,nan,nan,nan,nan,nan,nan,nan,0
9080000,9080000,0.0019999999,0.0,0.0019999999,0.0,nan,nan,nan,nan,nan,nan,nan,nan,0
9180000,9180000,0.0020000013,0.0,0.0019999994,0.0,nan,nan,nan,nan,nan,nan,nan,nan,0
9280000,9280000,0.0020000013,0.0,0.0020000013,0.0,nan,nan,nan,nan,nan,nan,nan,nan,0
9376000,9376000,0.0020000013,0.0,0.0020000013,0.0,nan,nan,nan,nan,nan,nan,nan,nan,0
9480000,9480000,0.0019999961,0.0,0.0020000008,1.8626451e-09,nan,nan,nan,nan,nan,nan,nan,nan,0
9580000,9580000,0.0019999994,0.0,0.0020000013,0.0,nan,nan,nan,nan,nan,nan,nan,nan,0
9680000,9680000,0.0019999978,0.0,0.002000001,1.8626451e-09,nan,nan,nan,nan,nan,nan,nan,nan,0
9776000,9776000,0.0019999994,1.8626451e-09,0.0020000013,0.0,nan,nan,nan,nan,nan,nan,nan,nan,0
9880000,9880000,0.0020000003,0.0,0.0019999985,1.8626451e-09,nan,nan,nan,nan,nan,nan,nan,nan,0
9976000,9976000,0.0020000003,0.0,0.0020000003,1.8626451e-09,nan,nan,nan,nan,nan,nan,nan,nan,0
10080000,10080000,0.0020000036,1.8626451e-09,0.0019999952,0.0,nan,nan,nan,nan,nan,nan,nan,nan,0
10180000,10180000,0.0019999999,0.0,0.0020000017,0.0,nan,nan,nan,nan,nan,nan,nan,nan,0
10280000,10280000,0.0020000003,0.0,0.0020000003,0.0,nan,nan,nan,nan,nan,nan,nan,nan,0
10380000,10380000,0.0019999996,0.0,0.002000001,1.8626451e-09,nan,nan,nan,nan,nan,nan,nan,nan,0
10480000,10480000,0.0020000013,0.0,0.0019999994,0.0,nan,nan,nan,nan,nan,nan,nan,nan,0
10580000,10580000,0.0020000013,0.0,0.0019999994,1.8626451e-09,nan,nan,nan,nan,nan,nan,nan,nan,0
10680000,10680000,0.0019999992,1.8626451e-09,0.0019999996,0.0,nan,nan,nan,nan,nan,nan,nan,nan,0
10780000,10780000,0.001999998,0.0,0.0020000008,1.8626451e-09,nan,nan,nan,nan,nan,nan,nan,nan,0
10880000,10880000,0.0019999999,0.0,0.0020000027,1.8626451e-09,nan,nan,nan,nan,nan,nan,nan,nan,0
10980000,10980000,0.0019999992,3.7252903e-09,0.0019999996,0.0,nan,nan,nan,nan,nan,nan,nan,nan,0
11076000,11076000,0.0020000013,0.0,0.0019999994,0.0,nan,nan,nan,nan,nan,nan,nan,nan,0
11176000,11176000,0.0020000013,0.0,0.0019999994,0.0,nan,nan,nan,nan,nan,nan,nan,nan,0
11280000,11280000,0.0019999978,0.0,0.002000001,1.8626451e-09,nan,nan,nan,nan,nan,nan,nan,nan,0
11380000,11380000,0.0019999999,1.8626451e-09,0.001999997,0.0,nan,nan,nan,nan,nan,nan,nan,nan,0
11480000,11480000,0.0020000036,1.8626451e-09,0.0019999952,0.0,nan,nan,nan,nan,nan,nan,nan,nan,0
11580000,11580000,0.0020000013,0.0,0.0019999994,0.0,nan,nan,nan,nan,nan,nan,nan,nan,0
11676000,11676000,0.0020000013,0.0,0.0019999994,0.0,nan,nan,nan,nan,nan,nan,nan,nan,0
11776000,11776000,0.002,9.313226e-10,0.0019999996,0.0,nan,nan,nan,nan,nan,nan,nan,nan,0
11880000,11880000,0.0019999975,1.8626451e-09,0.0019999994,0.0,nan,nan,nan,nan,nan,nan,nan,nan,0
11980000,11980000,0.0020000013,0.0,0.0020000013,0.0,nan,nan,nan,nan,nan,nan,nan,nan,0
12080000,12080000,0.0019999985,0.0,0.0020000003,0.0,nan,nan,nan,nan,nan,nan,nan,nan,0
12180000,12180000,0.0020000013,0.0,0.0020000013,0.0,nan,nan,nan,nan,nan,nan,nan,nan,0
12280000,12280000,0.0019999994,0.0,0.0020000013,0.0,nan,nan,nan,nan,nan,nan,nan,nan,0
12376000,12376000,0.0020000013,0.0,0.0019999994,0.0,nan,nan,nan,nan,nan,nan,nan,nan,0
12480000,12480000,0.0019999978,0.0,0.0020000013,1.8626451e-09,nan,nan,nan,nan,nan,nan,nan,nan,0
12580000,12580000,0.0020000013,0.0,0.0019999994,1.8626451e-09,nan,nan,nan,nan,nan,nan,nan,nan,0
12680000,12680000,0.0020000008,1.8626451e-09,0.0019999961,0.0,nan,nan,nan,nan,nan,nan,nan,nan,0
12780000,12780000,0.0019999975,1.8626451e-09,0.0020000013,0.0,nan,nan,nan,nan,nan,nan,nan,nan,0
12876000,12876000,0.0019999999,0.0,0.0020000017,0.0,nan,nan,nan,nan,nan,nan,nan,nan,0
12980000,12980000,0.0019999975,9.313226e-10,0.0020000022,0.0,nan,nan,nan,nan,nan,nan,nan,nan,0
13076000,13076000,0.0019999945,0.0,0.0020000006,3.7252903e-09,nan,nan,nan,nan,nan,nan,nan,nan,0
13180000,13180000,0.0019999992,3.7252903e-09,0.0019999996,0.0,nan,nan,nan,nan,nan,nan,nan,nan,0
13280000,13280000,0.0019999994,0.0,0.0019999994,0.0,nan,nan,nan,nan,nan,nan,nan,nan,0
13380000,13380000,0.001999998,0.0,0.0020000027,1.8626451e-09,nan,nan,nan,nan,nan,nan,nan,nan,0
13480000,13480000,0.0020000003,0.0,0.0020000022,0.0,nan,nan,nan,nan,nan,nan,nan,nan,0
13580000,13580000,0.0020000013,0.0,0.0019999975,1.8626451e-09,nan,nan,nan,nan,nan,nan,nan,nan,0
13676000,13676000,0.0019999961,0.0,0.0020000008,1.8626451e-09,nan,nan,nan,nan,nan,nan,nan,nan,0
13776000,13776000,0.0020000017,1.8626451e-09,0.001999999,0.0,nan,nan,nan,nan,nan,nan,nan,nan,0
13876000,13876000,0.0020000003,0.0,0.0019999975,9.313226e-10,nan,nan,nan,nan,nan,nan,nan,nan,0
13980000,13980000,0.0020000013,0.0,0.0019999994,0.0,nan,nan,nan,nan,nan,nan,nan,nan,0
14080000,14080000,0.0019999996,0.0,0.002000002,9.313226e-10,nan,nan,nan,nan,nan,nan,nan,nan,0
14180000,14180000,0.0019999961,0.0,0.0020000008,1.8626451e-09,nan,nan,nan,nan,nan,nan,nan,nan,0
14280000,14280000,0.0020000013,0.0,0.0019999994,0.0,nan,nan,nan,nan,nan,nan,nan,nan,0
14380000,14380000,0.002,1.8626451e-09,0.0019999968,0.0,nan,nan,nan,nan,nan,nan,nan,nan,0
14480000,14480000,0.0020000013,0.0,0.0019999994,0.0,nan,nan,nan,nan,nan,nan,nan,nan,0
14580000,14580000,0.02815155,0.0068763904,0.035027944,0.0,nan,nan,nan,nan,nan,nan,nan,nan,0
14680000,14680000,0.03617332,0.025283314,0.051983252,0.010284086,nan,nan,nan,nan,nan,nan,nan,nan,0
14776000,14776000,0.051272072,0.04201502,0.06632009,0.026145361,nan,nan,nan,nan,nan,nan,nan,nan,0
14880000,14880000,0.07100427,0.059823554,0.08629282,0.04277012,nan,nan,nan,nan,nan,nan,nan,nan,0
14980000,14980000,0.09160505,0.08159016,0.10721629,0.06287179,nan,nan,nan,nan,nan,nan,nan,nan,0
15080000,15080000,0.11053906,0.103296995,0.12712006,0.08621892,nan,nan,nan,nan,nan,nan,nan,nan,0
15180000,15180000,0.1354256,0.12758838,0.1523278,0.10975427,nan,nan,nan,nan,nan,nan,nan,nan,0
15276000,15276000,0.15950574,0.15207998,0.17800152,0.1331734,nan,nan,nan,nan,nan,nan,nan,nan,0
15380000,15380000,0.18817553,0.18084909,0.20862538,0.15903057,nan,nan,nan,nan,nan,nan,nan,nan,0
15480000,15480000,0.21732484,0.2081692,0.2377464,0.18553816,nan,nan,nan,nan,nan,nan,nan,nan,0
15576000,15576000,0.24833576,0.24043593,0.27364624,0.21535917,nan,nan,nan,nan,nan,nan,nan,nan,0
15680000,15680000,0.28087342,0.27141175,0.30830523,0.2439038,nan,nan,nan,nan,nan,nan,nan,nan,0
15776000,15776000,0.31517196,0.30462018,0.34266368,0.27545482,nan,nan,nan,nan,nan,nan,nan,nan,0
15880000,15880000,0.3363775,0.32806173,0.36937603,0.29526734,nan,nan,nan,nan,nan,nan,nan,nan,0
15980000,15980000,0.34738055,0.33849165,0.38026834,0.3039972,nan,nan,nan,nan,nan,nan,nan,nan,0
16076000,16076000,0.3604884,0.34839857,0.39656475,0.31028268,nan,nan,nan,nan,nan,nan,nan,nan,0
16176000,16176000,0.37021267,0.35948578,0.40965682,0.32032806,nan,nan,nan,nan,nan,nan,nan,nan,0
16280000,16280000,0.38408336,0.37090048,0.42483774,0.32947293,nan,nan,nan,nan,nan,nan,nan,nan,0
16380000,16380000,0.39536926,0.3830515,0.44007227,0.3391628,nan,nan,nan,nan,nan,nan,nan,nan,0
16480000,16480000,0.4105659,0.39580983,0.45757303,0.3491818,nan,nan,nan,nan,nan,nan,nan,nan,0
16580000,16580000,0.42393026,0.40905657,0.47332245,0.35957652,nan,nan,nan,nan,nan,nan,nan,nan,0
16680000,16680000,0.43868917,0.42422396,0.4897434,0.37281007,nan,nan,nan,nan,nan,nan,nan,nan,0
16780000,16780000,0.4521625,0.43763232,0.50696015,0.38355166,nan,nan,nan,nan,nan,nan,nan,nan,0
16880000,16880000,0.4692888,0.45276743,0.526753,0.3963267,nan,nan,nan,nan,nan,nan,nan,nan,0
16980000,16980000,0.48475242,0.468549,0.54385316,0.4071258,nan,nan,nan,nan,nan,nan,nan,nan,0
17076000,17076000,0.5022833,0.48467457,0.56420505,0.42184585,nan,nan,nan,nan,nan,nan,nan,nan,0
17180000,17180000,0.5185486,0.4996152,0.58309156,0.43390614,nan,nan,nan,nan,nan,nan,nan,nan,0
17276000,17276000,0.53616077,0.5184784,0.6043945,0.4500307,nan,nan,nan,nan,nan,nan,nan,nan,0
17380000,17380000,0.5526702,0.5351988,0.6233223,0.4644989,nan,nan,nan,nan,nan,nan,nan,nan,0
17480000,17480000,0.57386863,0.55332214,0.6457857,0.48069233,nan,nan,nan,nan,nan,nan,nan,nan,0
17580000,17580000,0.6161235,0.5959623,0.69030285,0.52139777,nan,nan,nan,nan,nan,nan,nan,nan,0
17680000,17680000,0.6371411,0.6165371,0.7144473,0.5381983,nan,nan,nan,nan,nan,nan,nan,nan,0
17780000,17780000,0.6550372,0.6354963,0.7350902,0.5544816,nan,nan,nan,nan,nan,nan,nan,nan,0
17880000,17880000,0.677323,0.6570539,0.7589723,0.5733593,nan,nan,nan,nan,nan,nan,nan,nan,0
17976000,17976000,0.6982984,0.6727265,0.77710176,0.5920765,nan,nan,nan,nan,nan,nan,nan,nan,0
18076000,18076000,0.7286132,0.67807263,0.7816313,0.622184,nan,nan,nan,nan,nan,nan,nan,nan,0
18176000,18176000,0.72921324,0.6897378,0.7608427,0.67331016,nan,nan,nan,nan,nan,nan,nan,nan,0
18276000,18276000,0.72448784,0.72015184,0.72435987,0.74383676,nan,nan,nan,nan,nan,nan,nan,nan,0
18380000,18380000,0.72966,0.7430495,0.7171167,0.763043,nan,nan,nan,nan,nan,nan,nan,nan,0
18476000,18476000,0.74466753,0.75148284,0.7421052,0.75715464,nan,nan,nan,nan,nan,nan,nan,nan,0
18576000,18576000,0.7549722,0.74359465,0.75800085,0.742476,nan,nan,nan,nan,nan,nan,nan,nan,0
18676000,18676000,0.7617983,0.7459307,0.7679597,0.74270767,nan,nan,nan,nan,nan,nan,nan,nan,0
18780000,18780000,0.7566044,0.74323314,0.7610767,0.7400013,nan,nan,nan,nan,nan,nan,nan,nan,0
18876000,18876000,0.7345846,0.72897255,0.73657906,0.72735924,nan,nan,nan,nan,nan,nan,nan,nan,0
18980000,18980000,0.713211,0.7072165,0.7140704,0.70734215,nan,nan,nan,nan,nan,nan,nan,nan,0
19080000,19080000,0.7194016,0.7126937,0.7191969,0.71403205,nan,nan,nan,nan,nan,nan,nan,nan,0
19180000,19180000,0.724895,0.7164957,0.7254795,0.71630687,nan,nan,nan,nan,nan,nan,nan,nan,0
19280000,19280000,0.7302663,0.72347695,0.7313955,0.7219746,nan,nan,nan,nan,nan,nan,nan,nan,0
19380000,19380000,0.7248905,0.71917367,0.72838956,0.7168135,nan,nan,nan,nan,nan,nan,nan,nan,0
19476000,19476000,0.7291547,0.72184205,0.7285392,0.7215735,nan,nan,nan,nan,nan,nan,nan,nan,0
19576000,19576000,0.723424,0.7170661,0.72387666,0.71649164,nan,nan,nan,nan,nan,nan,nan,nan,0
19676000,19676000,0.7266246,0.721104,0.727669,0.7197206,nan,nan,nan,nan,nan,nan,nan,nan,0
19780000,19780000,0.7227575,0.7159326,0.72347295,0.7149946,nan,nan,nan,nan,nan,nan,nan,nan,0
19880000,19880000,0.7239664,0.7197132,0.7238979,0.71956754,nan,nan,nan,nan,nan,nan,nan,nan,0
19980000,19980000,0.7198022,0.71282697,0.72067136,0.71233034,nan,nan,nan,nan,nan,nan,nan,nan,0
20076000,20076000,0.7229296,0.7173221,0.7232543,0.7154827,nan,nan,nan,nan,nan,nan,nan,nan,0
20176000,20176000,0.7192373,0.7137329,0.7196204,0.7122065,nan,nan,nan,nan,nan,nan,nan,nan,0
20280000,20280000,0.7219553,0.7152618,0.7203103,0.71560293,nan,nan,nan,nan,nan,nan,nan,nan,0
20376000,20376000,0.7173105,0.7110055,0.71705365,0.7116374,nan,nan,nan,nan,nan,nan,nan,nan,0
20480000,20480000,0.71904206,0.71458143,0.719172,0.7139092,nan,nan,nan,nan,nan,nan,nan,nan,0
20576000,20576000,0.7150619,0.71070313,0.717112,0.71022826,nan,nan,nan,nan,nan,nan,nan,nan,0
20680000,20680000,0.7170259,0.7128856,0.71804035,0.7122476,nan,nan,nan,nan,nan,nan,nan,nan,0
20776000,20776000,0.7133746,0.7072424,0.7125662,0.7079067,nan,nan,nan,nan,nan,nan,nan,nan,0
20876000,20876000,0.7162355,0.7110632,0.7167338,0.710478,nan,nan,nan,nan,nan,nan,nan,nan,0
20980000,20980000,0.7116415,0.7064571,0.7127648,0.7088397,nan,nan,nan,nan,nan,nan,nan,nan,0
21080000,21080000,0.7145391,0.70914423,0.71411335,0.7097067,nan,nan,nan,nan,nan,nan,nan,nan,0
21180000,21180000,0.7098404,0.7052602,0.7078745,0.7066457,nan,nan,nan,nan,nan,nan,nan,nan,0
21276000,21276000,0.7089003,0.70153755,0.7080013,0.7015527,nan,nan,nan,nan,nan,nan,nan,nan,0
21376000,21376000,0.69032866,0.6827183,0.68942815,0.68369496,nan,nan,nan,nan,nan,nan,nan,nan,0
21476000,21476000,0.6689127,0.66347414,0.6676117,0.6632378,nan,nan,nan,nan,nan,nan,nan,nan,0
21576000,21576000,0.6630674,0.65750635,0.66164464,0.65750873,nan,nan,nan,nan,nan,nan,nan,nan,0
21680000,21680000,0.68241835,0.6774248,0.6831198,0.6773509,nan,nan,nan,nan,nan,nan,nan,nan,0
21780000,21780000,0.69966614,0.69578874,0.70112795,0.69446164,nan,nan,nan,nan,nan,nan,nan,nan,0
21880000,21880000,0.7121985,0.7082777,0.7131964,0.70826423,nan,nan,nan,nan,nan,nan,nan,nan,0
21980000,21980000,0.7212157,0.71573114,0.7213432,0.71584994,nan,nan,nan,nan,nan,nan,nan,nan,0
22080000,22080000,0.7233165,0.716462,0.7228271,0.7171268,nan,nan,nan,nan,nan,nan,nan,nan,0
22180000,22180000,0.71653414,0.7104832,0.7163589,0.710641,nan,nan,nan,nan,nan,nan,nan,nan,0
22276000,22276000,0.713873,0.7076617,0.71264833,0.70796216,nan,nan,nan,nan,nan,nan,nan,nan,0
22380000,22380000,0.7107712,0.7059243,0.7110085,0.7073652,nan,nan,nan,nan,nan,nan,nan,nan,0
22480000,22480000,0.7124789,0.70570636,0.7114405,0.7055045,nan,nan,nan,nan,nan,nan,nan,nan,0
22580000,22580000,0.7117838,0.70525235,0.7119799,0.70554906,nan,nan,nan,nan,nan,nan,nan,nan,0
22680000,22680000,0.71311426,0.7054072,0.71245843,0.705253,nan,nan,nan,nan,nan,nan,nan,nan,0
22780000,22780000,0.7109589,0.7051508,0.71181625,0.70557207,nan,nan,nan,nan,nan,nan,nan,nan,0
22880000,22880000,0.71118474,0.7062817,0.71230567,0.706533,nan,nan,nan,nan,nan,nan,nan,nan,0
22980000,22980000,0.71032065,0.7061086,0.7108283,0.7065661,nan,nan,nan,nan,nan,nan,nan,nan,0
23076000,23076000,0.7101262,0.7044619,0.71168756,0.7041017,nan,nan,nan,nan,nan,nan,nan,nan,0
23180000,23180000,0.7100911,0.7025429,0.7090297,0.7036313,nan,nan,nan,nan,nan,nan,nan,nan,0
23280000,23280000,0.71126544,0.70265037,0.7118071,0.7038381,nan,nan,nan,nan,nan,nan,nan,nan,0
23380000,23380000,0.7110014,0.70294505,0.70926356,0.70424956,nan,nan,nan,nan,nan,nan,nan,nan,0
23480000,23480000,0.71013916,0.70377463,0.7082191,0.70533884,nan,nan,nan,nan,nan,nan,nan,nan,0
23580000,23580000,0.70910543,0.7028481,0.70776814,0.70334816,nan,nan,nan,nan,nan,nan,nan,nan,0
23676000,23676000,0.70910436,0.7049779,0.7097725,0.70554,nan,nan,nan,nan,nan,nan,nan,nan,0
23780000,23780000,0.71024483,0.7037244,0.70990306,0.70378184,nan,nan,nan,nan,nan,nan,nan,nan,0
23880000,23880000,0.71015245,0.70381266,0.70914936,0.70423853,nan,nan,nan,nan,nan,nan,nan,nan,0
23980000,23980000,0.7074617,0.70276594,0.70857155,0.70166326,nan,nan,nan,nan,nan,nan,nan,nan,0
24080000,24080000,0.7110351,0.7035478,0.7102023,0.7018059,nan,nan,nan,nan,nan,nan,nan,nan,0
24180000,24180000,0.70878255,0.7023827,0.7113932,0.7023775,nan,nan,nan,nan,nan,nan,nan,nan,0
24280000,24280000,0.70966303,0.7033434,0.7078333,0.7049097,nan,nan,nan,nan,nan,nan,nan,nan,0
24380000,24380000,0.7067426,0.7006736,0.70644814,0.701857,nan,nan,nan,nan,nan,nan,nan,nan,0
24480000,24480000,0.7104786,0.7023325,0.71068543,0.7021029,nan,nan,nan,nan,nan,nan,nan,nan,0
24580000,24580000,0.70960903,0.70243603,0.70852417,0.70235085,nan,nan,nan,nan,nan,nan,nan,nan,0
24680000,24680000,0.7105505,0.703103,0.7101326,0.7047483,nan,nan,nan,nan,nan,nan,nan,nan,0
24776000,24776000,0.70771706,0.7038311,0.7086072,0.7031596,nan,nan,nan,nan,nan,nan,nan,nan,0
24876000,24876000,0.71024764,0.70528203,0.7110572,0.704629,nan,nan,nan,nan,nan,nan,nan,nan,0
24980000,24980000,0.7106319,0.7035179,0.71139055,0.7032691,nan,nan,nan,nan,nan,nan,nan,nan,0
25080000,25080000,0.71091765,0.7060257,0.7106696,0.70539486,nan,nan,nan,nan,nan,nan,nan,nan,0
25180000,25180000,0.71135426,0.7027947,0.7107711,0.70392644,nan,nan,nan,nan,nan,nan,nan,nan,0
25280000,25280000,0.71147716,0.7050722,0.7125427,0.7037443,nan,nan,nan,nan,nan,nan,nan,nan,0
25380000,25380000,0.7116864,0.7039835,0.7119667,0.702947,nan,nan,nan,nan,nan,nan,nan,nan,0
25480000,25480000,0.7117684,0.70353204,0.709669,0.70493084,nan,nan,nan,nan,nan,nan,nan,nan,0
25580000,25580000,0.7100746,0.704017,0.70928806,0.7038279,nan,nan,nan,nan,nan,nan,nan,nan,0
25680000,25680000,0.71088904,0.7030423,0.7117696,0.7037077,nan,nan,nan,nan,nan,nan,nan,nan,0
25780000,25780000,0.71023184,0.7051518,0.71067685,0.70412445,nan,nan,nan,nan,nan,nan,nan,nan,0
25880000,25880000,0.70872736,0.7044992,0.7085405,0.7044289,nan,nan,nan,nan,nan,nan,nan,nan,0
25980000,25980000,0.70925075,0.7024157,0.7084397,0.70304805,nan,nan,nan,nan,nan,nan,nan,nan,0
26080000,26080000,0.7094342,0.70359373,0.7094977,0.7037769,nan,nan,nan,nan,nan,nan,nan,nan,0
26180000,26180000,0.71110445,0.7031039,0.7107746,0.7040945,nan,nan,nan,nan,nan,nan,nan,nan,0
26280000,26280000,0.70866585,0.7032284,0.7093757,0.70337796,nan,nan,nan,nan,nan,nan,nan,nan,0
26380000,26380000,0.7091484,0.7030784,0.70934,0.70241284,nan,nan,nan,nan,nan,nan,nan,nan,0
26480000,26480000,0.7101638,0.7046629,0.7076447,0.7046115,nan,nan,nan,nan,nan,nan,nan,nan,0
26576000,26576000,0.7100364,0.7043938,0.71027607,0.7051878,nan,nan,nan,nan,nan,nan,nan,nan,0
26676000,26676000,0.7110927,0.70092875,0.7107681,0.70348173,nan,nan,nan,nan,nan,nan,nan,nan,0
26776000,26776000,0.70913965,0.7017046,0.70953554,0.70222557,nan,nan,nan,nan,nan,nan,nan,nan,0
26876000,26876000,0.7092265,0.7035274,0.7094196,0.7040184,nan,nan,nan,nan,nan,nan,nan,nan,0
26980000,26980000,0.7098894,0.7051812,0.70936084,0.7049195,nan,nan,nan,nan,nan,nan,nan,nan,0
27076000,27076000,0.7102844,0.7048336,0.7102541,0.7046767,nan,nan,nan,nan,nan,nan,nan,nan,0
27176000,27176000,0.71099347,0.7034381,0.71021754,0.7045712,nan,nan,nan,nan,nan,nan,nan,nan,0
27276000,27276000,0.71029496,0.70559794,0.71084803,0.7046113,nan,nan,nan,nan,nan,nan,nan,nan,0
27380000,27380000,0.71174926,0.7056717,0.71240664,0.7049402,nan,nan,nan,nan,nan,nan,nan,nan,0
27480000,27480000,0.7098087,0.70518094,0.7108912,0.705263,nan,nan,nan,nan,nan,nan,nan,nan,0
27580000,27580000,0.71147966,0.7040883,0.7105615,0.70392984,nan,nan,nan,nan,nan,nan,nan,nan,0
27680000,27680000,0.7113088,0.7052451,0.71089494,0.70588636,nan,nan,nan,nan,nan,nan,nan,nan,0
27780000,27780000,0.7115894,0.70625854,0.7109099,0.7066089,nan,nan,nan,nan,nan,nan,nan,nan,0
27880000,27880000,0.7101993,0.7041822,0.7107815,0.7044757,nan,nan,nan,nan,nan,nan,nan,nan,0
27980000,27980000,0.7099109,0.70383334,0.708848,0.7052452,nan,nan,nan,nan,nan,nan,nan,nan,0
28076000,28076000,0.7123617,0.70322025,0.71028966,0.7047921,nan,nan,nan,nan,nan,nan,nan,nan,0
28176000,28176000,0.7120752,0.70552343,0.71024245,0.7065345,nan,nan,nan,nan,nan,nan,nan,nan,0
28280000,28280000,0.7092213,0.7045471,0.71025777,0.70478046,nan,nan,nan,nan,nan,nan,nan,nan,0
28376000,28376000,0.70982945,0.7032854,0.7094466,0.70298433,nan,nan,nan,nan,nan,nan,nan,nan,0
28480000,28480000,0.7102532,0.7024908,0.7095986,0.70355177,nan,nan,nan,nan,nan,nan,nan,nan,0
28576000,28576000,0.71078324,0.70476246,0.71043456,0.7053436,nan,nan,nan,nan,nan,nan,nan,nan,0
28680000,28680000,0.70904016,0.7046182,0.70911735,0.70386463,nan,nan,nan,nan,nan,nan,nan,nan,0
28780000,28780000,0.7089727,0.7033445,0.7090472,0.70282286,nan,nan,nan,nan,nan,nan,nan,nan,0
28876000,28876000,0.7096278,0.7030373,0.7114485,0.70358366,nan,nan,nan,nan,nan,nan,nan,nan,0
28980000,28980000,0.7109302,0.7043084,0.7108012,0.70661825,nan,nan,nan,nan,nan,nan,nan,nan,0
29080000,29080000,0.70876974,0.7033024,0.70872074,0.70320725,nan,nan,nan,nan,nan,nan,nan,nan,0
29176000,29176000,0.7070343,0.70306087,0.7073472,0.7023542,nan,nan,nan,nan,nan,nan,nan,nan,0
29276000,29276000,0.70914936,0.7029957,0.70899147,0.70280516,nan,nan,nan,nan,nan,nan,nan,nan,0
29380000,29380000,0.71010226,0.7043255,0.7106537,0.70602447,nan,nan,nan,nan,nan,nan,nan,nan,0
29480000,29480000,0.71086514,0.70400894,0.7114471,0.70325696,nan,nan,nan,nan,nan,nan,nan,nan,0
29580000,29580000,0.7105829,0.70456284,0.71027726,0.70471233,nan,nan,nan,nan,nan,nan,nan,nan,0
29676000,29676000,0.71017766,0.7067377,0.710491,0.7057097,nan,nan,nan,nan,nan,nan,nan,nan,0
29780000,29780000,0.7103757,0.7073646,0.71070653,0.7081105,nan,nan,nan,nan,nan,nan,nan,nan,0
29876000,29876000,0.71196604,0.7035878,0.71204555,0.70365894,nan,nan,nan,nan,nan,nan,nan,nan,0
29980000,29980000,0.7107222,0.70299226,0.71165216,0.70249206,nan,nan,nan,nan,nan,nan,nan,nan,0
30080000,30080000,0.71089715,0.703839,0.7108941,0.70380056,nan,nan,nan,nan,nan,nan,nan,nan,0
30180000,30180000,0.7105314,0.70623565,0.7104076,0.7056622,nan,nan,nan,nan,nan,nan,nan,nan,0
30276000,30276000,0.7111454,0.7028682,0.71136767,0.70149463,nan,nan,nan,nan,nan,nan,nan,nan,0
30380000,30380000,0.7082333,0.7040995,0.70984,0.70216995,nan,nan,nan,nan,nan,nan,nan,nan,0
30480000,30480000,0.71027344,0.7038092,0.70976746,0.7045164,nan,nan,nan,nan,nan,nan,nan,nan,0
30580000,30580000,0.7116321,0.70605814,0.71027726,0.7053751,nan,nan,nan,nan,nan,nan,nan,nan,0
30676000,30676000,0.7090816,0.70523393,0.70968074,0.7030525,nan,nan,nan,nan,nan,nan,nan,nan,0
30780000,30780000,0.70771825,0.70359796,0.7084882,0.70302314,nan,nan,nan,nan,nan,nan,nan,nan,0
30880000,30880000,0.70822626,0.70499325,0.7090448,0.7039195,nan,nan,nan,nan,nan,nan,nan,nan,0
30980000,30980000,0.7103152,0.7052338,0.7106718,0.70385015,nan,nan,nan,nan,nan,nan,nan,nan,0
31080000,31080000,0.711546,0.70238227,0.7126291,0.7026961,nan,nan,nan,nan,nan,nan,nan,nan,0
31180000,31180000,0.7102073,0.70402324,0.7097499,0.7047378,nan,nan,nan,nan,nan,nan,nan,nan,0
31280000,31280000,0.7100972,0.70515,0.71036017,0.70644534,nan,nan,nan,nan,nan,nan,nan,nan,0
31380000,31380000,0.7114232,0.7049154,0.7118609,0.7067724,nan,nan,nan,nan,nan,nan,nan,nan,0
31480000,31480000,0.7104994,0.70455974,0.7098512,0.7047272,nan,nan,nan,nan,nan,nan,nan,nan,0
31580000,31580000,0.70919114,0.7045035,0.70828027,0.7040909,nan,nan,nan,nan,nan,nan,nan,nan,0
31680000,31680000,0.7105649,0.70480436,0.71038437,0.70258594,nan,nan,nan,nan,nan,nan,nan,nan,0
31780000,31780000,0.71089536,0.70516247,0.7111745,0.7057347,nan,nan,nan,nan,nan,nan,nan,nan,0
31880000,31880000,0.71001613,0.7028579,0.7113594,0.70311815,nan,nan,nan,nan,nan,nan,nan,nan,0
31980000,31980000,0.70976955,0.7029321,0.71003026,0.702312,nan,nan,nan,nan,nan,nan,nan,nan,0
32076000,32076000,0.7089898,0.7047961,0.7090966,0.7050091,nan,nan,nan,nan,nan,nan,nan,nan,0
32180000,32180000,0.710445,0.70601815,0.7113706,0.7048098,nan,nan,nan,nan,nan,nan,nan,nan,0
32280000,32280000,0.70896214,0.70435244,0.7100047,0.70296085,nan,nan,nan,nan,nan,nan,nan,nan,0
32380000,32380000,0.71022207,0.7023719,0.7092365,0.7015226,nan,nan,nan,nan,nan,nan,nan,nan,0
32476000,32476000,0.71010303,0.70435965,0.7083951,0.70441055,nan,nan,nan,nan,nan,nan,nan,nan,0
32576000,32576000,0.71034116,0.70518667,0.71113247,0.7047735,nan,nan,nan,nan,nan,nan,nan,nan,0
32680000,32680000,0.71010023,0.70210415,0.7098196,0.70318156,nan,nan,nan,nan,nan,nan,nan,nan,0
32776000,32776000,0.70829386,0.70285714,0.7089693,0.7020278,nan,nan,nan,nan,nan,nan,nan,nan,0
32880000,32880000,0.7089406,0.7048004,0.7081633,0.70510864,nan,nan,nan,nan,nan,nan,nan,nan,0
32976000,32976000,0.710005,0.7048611,0.7098801,0.7051095,nan,nan,nan,nan,nan,nan,nan,nan,0
33080000,33080000,0.7092168,0.7021806,0.7083079,0.7017151,nan,nan,nan,nan,nan,nan,nan,nan,0
33180000,33180000,0.70771,0.70084834,0.7067594,0.7010136,nan,nan,nan,nan,nan,nan,nan,nan,0
33280000,33280000,0.7071046,0.703406,0.7082258,0.7016438,nan,nan,nan,nan,nan,nan,nan,nan,0
33376000,33376000,0.7093632,0.7037154,0.71003383,0.70305896,nan,nan,nan,nan,nan,nan,nan,nan,0
33480000,33480000,0.7083325,0.7026278,0.70910865,0.7034501,nan,nan,nan,nan,nan,nan,nan,nan,0
33580000,33580000,0.709258,0.7018636,0.7080654,0.70300543,nan,nan,nan,nan,nan,nan,nan,nan,0
33680000,33680000,0.71044767,0.7045393,0.70961404,0.70361936,nan,nan,nan,nan,nan,nan,nan,nan,0
33780000,33780000,0.7118059,0.70668036,0.71050614,0.7054412,nan,nan,nan,nan,nan,nan,nan,nan,0
33876000,33876000,0.7107071,0.70388675,0.7104625,0.7037858,nan,nan,nan,nan,nan,nan,nan,nan,0
33980000,33980000,0.70891464,0.70428544,0.7091805,0.70267004,nan,nan,nan,nan,nan,nan,nan,nan,0
34080000,34080000,0.70985126,0.7039613,0.7097382,0.7044159,nan,nan,nan,nan,nan,nan,nan,nan,0
34180000,34180000,0.7106222,0.7058973,0.71011066,0.7058014,nan,nan,nan,nan,nan,nan,nan,nan,0
34280000,34280000,0.71084565,0.7020571,0.70951384,0.703318,nan,nan,nan,nan,nan,nan,nan,nan,0
34380000,34380000,0.70990646,0.7006796,0.7085563,0.70174927,nan,nan,nan,nan,nan,nan,nan,nan,0
34476000,34476000,0.7083197,0.70337516,0.7090008,0.70433295,nan,nan,nan,nan,nan,nan,nan,nan,0
34580000,34580000,0.7094914,0.70626295,0.70910496,0.7060469,nan,nan,nan,nan,nan,nan,nan,nan,0
34680000,34680000,0.7101543,0.7015235,0.7103802,0.70305914,nan,nan,nan,nan,nan,nan,nan,nan,0
34780000,34780000,0.7083234,0.7021358,0.7086843,0.7026078,nan,nan,nan,nan,nan,nan,nan,nan,0
34880000,34880000,0.70908904,0.7040505,0.7100466,0.70307565,nan,nan,nan,nan,nan,nan,nan,nan,0
34980000,34980000,0.709578,0.7054861,0.7105508,0.7063432,nan,nan,nan,nan,nan,nan,nan,nan,0
35076000,35076000,0.70974034,0.70357203,0.7103466,0.7048103,nan,nan,nan,nan,nan,nan,nan,nan,0
35180000,35180000,0.708819,0.70356756,0.71014726,0.70308375,nan,nan,nan,nan,nan,nan,nan,nan,0
35280000,35280000,0.7104738,0.70547205,0.70924485,0.70519,nan,nan,nan,nan,nan,nan,nan,nan,0
35380000,35380000,0.7104342,0.7066711,0.70968074,0.70677966,nan,nan,nan,nan,nan,nan,nan,nan,0
35480000,35480000,0.7107087,0.70221466,0.7114671,0.70441717,nan,nan,nan,nan,nan,nan,nan,nan,0
35580000,35580000,0.7086998,0.7045239,0.7097861,0.7042385,nan,nan,nan,nan,nan,nan,nan,nan,0
35680000,35680000,0.7090647,0.7054331,0.7103825,0.7049732,nan,nan,nan,nan,nan,nan,nan,nan,0
35780000,35780000,0.7103707,0.70734507,0.7106858,0.70458955,nan,nan,nan,nan,nan,nan,nan,nan,0
35876000,35876000,0.71239114,0.7030223,0.7114309,0.7035561,nan,nan,nan,nan,nan,nan,nan,nan,0
35976000,35976000,0.70941776,0.7045439,0.7112971,0.7031955,nan,nan,nan,nan,nan,nan,nan,nan,0
36080000,36080000,0.7097256,0.7058881,0.7099901,0.7054409,nan,nan,nan,nan,nan,nan,nan,nan,0
36180000,36180000,0.7097897,0.70704174,0.7098891,0.70693433,nan,nan,nan,nan,nan,nan,nan,nan,0
36280000,36280000,0.7118168,0.70235574,0.7107669,0.7036691,nan,nan,nan,nan,nan,nan,nan,nan,0
36380000,36380000,0.71019244,0.70219606,0.7099362,0.7022815,nan,nan,nan,nan,nan,nan,nan,nan,0
36480000,36480000,0.70899,0.704497,0.7105064,0.70356447,nan,nan,nan,nan,nan,nan,nan,nan,0
36580000,36580000,0.7088821,0.7064216,0.7096725,0.7055678,nan,nan,nan,nan,nan,nan,nan,nan,0
36680000,36680000,0.71134317,0.7028565,0.71012574,0.7035297,nan,nan,nan,nan,nan,nan,nan,nan,0
36776000,36776000,0.7089864,0.7035825,0.7100297,0.7044327,nan,nan,nan,nan,nan,nan,nan,nan,0
36880000,36880000,0.7106175,0.7039714,0.71086806,0.7051834,nan,nan,nan,nan,nan,nan,nan,nan,0
36980000,36980000,0.7108239,0.70614946,0.71110946,0.7057168,nan,nan,nan,nan,nan,nan,nan,nan,0
37080000,37080000,0.71203554,0.70275575,0.71202165,0.70377994,nan,nan,nan,nan,nan,nan,nan,nan,0
37180000,37180000,0.7106989,0.7040334,0.7111419,0.70448244,nan,nan,nan,nan,nan,nan,nan,nan,0
37280000,37280000,0.71072185,0.70474356,0.7109649,0.7053456,nan,nan,nan,nan,nan,nan,nan,nan,0
37380000,37380000,0.71026635,0.7067749,0.7108437,0.706175,nan,nan,nan,nan,nan,nan,nan,nan,0
37480000,37480000,0.7103931,0.70408523,0.71057886,0.7045987,nan,nan,nan,nan,nan,nan,nan,nan,0
37580000,37580000,0.7094163,0.703765,0.71109813,0.7035681,nan,nan,nan,nan,nan,nan,nan,nan,0
37680000,37680000,0.7096875,0.70487696,0.7102221,0.70496637,nan,nan,nan,nan,nan,nan,nan,nan,0
37780000,37780000,0.7097111,0.70775545,0.71159166,0.70588535,nan,nan,nan,nan,nan,nan,nan,nan,0
37876000,37876000,0.7122219,0.70272577,0.7122063,0.703019,nan,nan,nan,nan,nan,nan,nan,nan,0
37976000,37976000,0.7100358,0.7033231,0.7094872,0.70439506,nan,nan,nan,nan,nan,nan,nan,nan,0
38076000,38076000,0.7104242,0.70461255,0.7104622,0.7050665,nan,nan,nan,nan,nan,nan,nan,nan,0
38180000,38180000,0.689578,0.69274867,0.6918528,0.69058985,nan,nan,nan,nan,nan,nan,nan,nan,0
38276000,38276000,0.6626151,0.65289766,0.66055167,0.6554949,nan,nan,nan,nan,nan,nan,nan,nan,0
38380000,38380000,0.6438419,0.6352216,0.64272785,0.6369671,nan,nan,nan,nan,nan,nan,nan,nan,0
38480000,38480000,0.6226347,0.6163688,0.6222442,0.61698115,nan,nan,nan,nan,nan,nan,nan,nan,0
38580000,38580000,0.6357225,0.6344239,0.6377023,0.6343132,nan,nan,nan,nan,nan,nan,nan,nan,0
38676000,38676000,0.6808557,0.675527,0.6832077,0.6747916,nan,nan,nan,nan,nan,nan,nan,nan,0
38776000,38776000,0.713703,0.70751196,0.7132858,0.70729923,nan,nan,nan,nan,nan,nan,nan,nan,0
38876000,38876000,0.74298686,0.72843546,0.740018,0.7308016,nan,nan,nan,nan,nan,nan,nan,nan,0
38980000,38980000,0.7486377,0.7495622,0.75179607,0.74506664,nan,nan,nan,nan,nan,nan,nan,nan,0
39080000,39080000,0.7308546,0.7260627,0.7310146,0.72638834,nan,nan,nan,nan,nan,nan,nan,nan,0
39180000,39180000,0.71955943,0.717027,0.71985364,0.7165,nan,nan,nan,nan,nan,nan,nan,nan,0
39280000,39280000,0.7162357,0.7116567,0.71599734,0.71125144,nan,nan,nan,nan,nan,nan,nan,nan,0
39380000,39380000,0.7180776,0.7130855,0.71804684,0.7130049,nan,nan,nan,nan,nan,nan,nan,nan,0
39480000,39480000,0.71811944,0.7081239,0.7173092,0.70944977,nan,nan,nan,nan,nan,nan,nan,nan,0
39580000,39580000,0.71912295,0.7123605,0.71795785,0.7105927,nan,nan,nan,nan,nan,nan,nan,nan,0
39676000,39676000,0.71800995,0.7118228,0.7182109,0.711164,nan,nan,nan,nan,nan,nan,nan,nan,0
39776000,39776000,0.71835005,0.71428144,0.7186578,0.71394175,nan,nan,nan,nan,nan,nan,nan,nan,0
39876000,39876000,0.71795046,0.71261054,0.71802366,0.71362156,nan,nan,nan,nan,nan,nan,nan,nan,0
39980000,39980000,0.7196479,0.71502244,0.7192796,0.71344835,nan,nan,nan,nan,nan,nan,nan,nan,0
40080000,40080000,0.7181018,0.7127475,0.71990657,0.7131624,nan,nan,nan,nan,nan,nan,nan,nan,0
40180000,40180000,0.7212863,0.7160114,0.72191525,0.7155527,nan,nan,nan,nan,nan,nan,nan,nan,0
40276000,40276000,0.7200673,0.7123347,0.71942365,0.71376014,nan,nan,nan,nan,nan,nan,nan,nan,0
40380000,40380000,0.72115314,0.71461624,0.72077143,0.7137473,nan,nan,nan,nan,nan,nan,nan,nan,0
40480000,40480000,0.7197197,0.715316,0.7195436,0.71417296,nan,nan,nan,nan,nan,nan,nan,nan,0
40580000,40580000,0.7234807,0.7166856,0.72373015,0.71691144,nan,nan,nan,nan,nan,nan,nan,nan,0
40676000,40676000,0.721866,0.71319157,0.7211072,0.7129272,nan,nan,nan,nan,nan,nan,nan,nan,0
40780000,40780000,0.7205545,0.71576875,0.7196353,0.71503556,nan,nan,nan,nan,nan,nan,nan,nan,0
40880000,40880000,0.7198327,0.7136713,0.7200352,0.71330446,nan,nan,nan,nan,nan,nan,nan,nan,0
40976000,40976000,0.7211519,0.7141217,0.72116286,0.71533203,nan,nan,nan,nan,nan,nan,nan,nan,0
41080000,41080000,0.72030944,0.7121763,0.7201908,0.7124896,nan,nan,nan,nan,nan,nan,nan,nan,0
41180000,41180000,0.7218337,0.71264046,0.7204183,0.71436334,nan,nan,nan,nan,nan,nan,nan,nan,0
41280000,41280000,0.71902007,0.71518475,0.72012746,0.71236074,nan,nan,nan,nan,nan,nan,nan,nan,0
41376000,41376000,0.7226924,0.71691316,0.72244334,0.7158417,nan,nan,nan,nan,nan,nan,nan,nan,0
41480000,41480000,0.7194398,0.7150312,0.7195577,0.7143139,nan,nan,nan,nan,nan,nan,nan,nan,0
41580000,41580000,0.72087914,0.7151231,0.7197424,0.71642697,nan,nan,nan,nan,nan,nan,nan,nan,0
41676000,41676000,0.7214407,0.71363205,0.7210323,0.7124095,nan,nan,nan,nan,nan,nan,nan,nan,0
41776000,41776000,0.7215104,0.7156328,0.72043353,0.7157448,nan,nan,nan,nan,nan,nan,nan,nan,0
41880000,41880000,0.72074765,0.7131843,0.7201029,0.7119603,nan,nan,nan,nan,nan,nan,nan,nan,0
41980000,41980000,0.719828,0.71380407,0.72085357,0.7129982,nan,nan,nan,nan,nan,nan,nan,nan,0
42080000,42080000,0.71812963,0.71403503,0.7180823,0.7138797,nan,nan,nan,nan,nan,nan,nan,nan,0
42176000,42176000,0.7214518,0.71595037,0.72157824,0.7174606,nan,nan,nan,nan,nan,nan,nan,nan,0
42280000,42280000,0.71954393,0.71250117,0.7184663,0.71362245,nan,nan,nan,nan,nan,nan,nan,nan,0
42376000,42376000,0.87287056,0.8681151,0.8794965,0.86490107,nan,nan,nan,nan,nan,nan,nan,nan,0
42480000,42480000,0.77694005,0.7708,0.78083575,0.76692396,nan,nan,nan,nan,nan,nan,nan,nan,0
42580000,42580000,0.7331151,0.72591746,0.73216635,0.72772115,nan,nan,nan,nan,nan,nan,nan,nan,0
42680000,42680000,0.70015293,0.69576746,0.69867307,0.6956871,nan,nan,nan,nan,nan,nan,nan,nan,0
42780000,42780000,0.6875706,0.6803695,0.68534786,0.68212444,nan,nan,nan,nan,nan,nan,nan,nan,0
42880000,42880000,0.6884609,0.6824212,0.6874179,0.68200374,nan,nan,nan,nan,nan,nan,nan,nan,0
42980000,42980000,0.6980898,0.6912584,0.6976122,0.6907634,nan,nan,nan,nan,nan,nan,nan,nan,0
43080000,43080000,0.6830049,0.67582095,0.6828014,0.6743449,nan,nan,nan,nan,nan,nan,nan,nan,0
43176000,43176000,0.6734191,0.6672465,0.6738144,0.66938096,nan,nan,nan,nan,nan,nan,nan,nan,0
43276000,43276000,0.68078554,0.6750559,0.6810802,0.675834,nan,nan,nan,nan,nan,nan,nan,nan,0
43376000,43376000,0.69146454,0.68425834,0.6915764,0.6847437,nan,nan,nan,nan,nan,nan,nan,nan,0
43480000,43480000,0.6789513,0.67477304,0.68171525,0.672423,nan,nan,nan,nan,nan,nan,nan,nan,0
43580000,43580000,0.6757558,0.6687519,0.6748713,0.67007744,nan,nan,nan,nan,nan,nan,nan,nan,0
43680000,43680000,0.68118757,0.67689383,0.68031627,0.6777986,nan,nan,nan,nan,nan,nan,nan,nan,0
43780000,43780000,0.6958208,0.6896965,0.69539076,0.6912577,nan,nan,nan,nan,nan,nan,nan,nan,0
43880000,43880000,0.6836653,0.6770006,0.6826627,0.6756534,nan,nan,nan,nan,nan,nan,nan,nan,0
43976000,43976000,0.6800133,0.6749437,0.68068945,0.67443776,nan,nan,nan,nan,nan,nan,nan,nan,0
44080000,44080000,0.6917836,0.68731457,0.6910718,0.68753856,nan,nan,nan,nan,nan,nan,nan,nan,0
44180000,44180000,0.70765543,0.70070934,0.7075933,0.70125496,nan,nan,nan,nan,nan,nan,nan,nan,0
44280000,44280000,0.6953159,0.68796223,0.69748694,0.6870648,nan,nan,nan,nan,nan,nan,nan,nan,0
44380000,44380000,0.6928656,0.6842732,0.6916093,0.68582094,nan,nan,nan,nan,nan,nan,nan,nan,0
44476000,44476000,0.6987364,0.6938076,0.69838387,0.69462484,nan,nan,nan,nan,nan,nan,nan,nan,0
44576000,44576000,0.71086603,0.70482004,0.709721,0.7046877,nan,nan,nan,nan,nan,nan,nan,nan,0
44676000,44676000,0.69858336,0.69365156,0.69974744,0.6919334,nan,nan,nan,nan,nan,nan,nan,nan,0
44776000,44776000,0.6953537,0.688663,0.6965744,0.6892024,nan,nan,nan,nan,nan,nan,nan,nan,0
44880000,44880000,0.70601517,0.6980587,0.706376,0.6995083,nan,nan,nan,nan,nan,nan,nan,nan,0
44980000,44980000,0.7194642,0.7135926,0.7200499,0.7127104,nan,nan,nan,nan,nan,nan,nan,nan,0
45080000,45080000,0.70410657,0.69869363,0.704977,0.69797343,nan,nan,nan,nan,nan,nan,nan,nan,0
45180000,45180000,0.5167198,0.51941174,0.53229415,0.5019011,nan,nan,nan,nan,nan,nan,nan,nan,0
45280000,45280000,0.48568428,0.49514103,0.5076444,0.47418353,nan,nan,nan,nan,nan,nan,nan,nan,0
45380000,45380000,0.46108386,0.4721406,0.48551643,0.4489679,nan,nan,nan,nan,nan,nan,nan,nan,0
45480000,45480000,0.41914317,0.4327143,0.44646278,0.40544596,nan,nan,nan,nan,nan,nan,nan,nan,0
45580000,45580000,0.37397692,0.39064628,0.40617177,0.36152148,nan,nan,nan,nan,nan,nan,nan,nan,0
45676000,45676000,0.33848524,0.35502887,0.372915,0.3219848,nan,nan,nan,nan,nan,nan,nan,nan,0
45780000,45780000,0.30770525,0.32846516,0.3475958,0.29098353,nan,nan,nan,nan,nan,nan,nan,nan,0
45880000,45880000,0.28574398,0.3077875,0.3288634,0.26759097,nan,nan,nan,nan,nan,nan,nan,nan,0
45980000,45980000,0.26160386,0.28558934,0.30828887,0.24219608,nan,nan,nan,nan,nan,nan,nan,nan,0
46076000,46076000,0.24051616,0.26612008,0.29239735,0.21926433,nan,nan,nan,nan,nan,nan,nan,nan,0
46180000,46180000,0.22093065,0.2465594,0.27510726,0.19515656,nan,nan,nan,nan,nan,nan,nan,nan,0
46280000,46280000,0.1980963,0.22553082,0.25576186,0.1718234,nan,nan,nan,nan,nan,nan,nan,nan,0
46380000,46380000,0.17437714,0.20300385,0.23437448,0.14781868,nan,nan,nan,nan,nan,nan,nan,nan,0
46476000,46476000,0.15342017,0.18472937,0.21745472,0.124890834,nan,nan,nan,nan,nan,nan,nan,nan,0
46580000,46580000,0.13067223,0.16566713,0.19969295,0.10218278,nan,nan,nan,nan,nan,nan,nan,nan,0
46680000,46680000,0.11022766,0.14236309,0.18198648,0.076235764,nan,nan,nan,nan,nan,nan,nan,nan,0
46780000,46780000,0.102264084,0.13500749,0.17753457,0.065193854,nan,nan,nan,nan,nan,nan,nan,nan,0
46880000,46880000,0.10301122,0.13520412,0.18005587,0.06172875,nan,nan,nan,nan,nan,nan,nan,nan,0
46980000,46980000,0.10300302,0.13416328,0.18381624,0.05901742,nan,nan,nan,nan,nan,nan,nan,nan,0
47076000,47076000,0.102640375,0.13486224,0.18533698,0.057160344,nan,nan,nan,nan,nan,nan,nan,nan,0
47180000,47180000,0.10234823,0.13458645,0.18762669,0.05543856,nan,nan,nan,nan,nan,nan,nan,nan,0
47276000,47276000,0.10121471,0.13475472,0.19103539,0.052995175,nan,nan,nan,nan,nan,nan,nan,nan,0
47380000,47380000,0.100691624,0.13734128,0.19278452,0.04918253,nan,nan,nan,nan,nan,nan,nan,nan,0
47480000,47480000,0.10010421,0.13638982,0.19625641,0.047249507,nan,nan,nan,nan,nan,nan,nan,nan,0
47576000,47576000,0.10041118,0.13582824,0.19886635,0.044894177,nan,nan,nan,nan,nan,nan,nan,nan,0
47680000,47680000,0.0996183,0.1354802,0.20263006,0.042271413,nan,nan,nan,nan,nan,nan,nan,nan,0
47780000,47780000,0.09944035,0.1354546,0.20662642,0.0384786,nan,nan,nan,nan,nan,nan,nan,nan,0
47876000,47876000,0.09957797,0.13498633,0.20761178,0.037823882,nan,nan,nan,nan,nan,nan,nan,nan,0
47980000,47980000,0.09743071,0.1377927,0.20738131,0.037395217,nan,nan,nan,nan,nan,nan,nan,nan,0
48080000,48080000,0.094679564,0.13902667,0.20882447,0.03746925,nan,nan,nan,nan,nan,nan,nan,nan,0
48180000,48180000,0.09564703,0.13863277,0.21179698,0.03392315,nan,nan,nan,nan,nan,nan,nan,nan,0
48280000,48280000,0.09495704,0.13916543,0.21500449,0.030873017,nan,nan,nan,nan,nan,nan,nan,nan,0
48380000,48380000,0.09375921,0.14123014,0.2170599,0.027950717,nan,nan,nan,nan,nan,nan,nan,nan,0
48480000,48480000,0.09149187,0.14233693,0.21835814,0.027813008,nan,nan,nan,nan,nan,nan,nan,nan,0
48576000,48576000,0.0908387,0.14268844,0.22180289,0.02466992,nan,nan,nan,nan,nan,nan,nan,nan,0
48676000,48676000,0.08932802,0.14423245,0.22401966,0.02241981,nan,nan,nan,nan,nan,nan,nan,nan,0
48776000,48776000,0.08814907,0.14380078,0.22497362,0.023076508,nan,nan,nan,nan,nan,nan,nan,nan,0
48880000,48880000,0.0871144,0.1463921,0.22684647,0.019647006,nan,nan,nan,nan,nan,nan,nan,nan,0
48980000,48980000,0.08654744,0.14576203,0.22946645,0.018224023,nan,nan,nan,nan,nan,nan,nan,nan,0
49080000,49080000,0.08589967,0.14614409,0.23096238,0.016993806,nan,nan,nan,nan,nan,nan,nan,nan,0
49176000,49176000,0.085965894,0.14613725,0.23425156,0.01364525,nan,nan,nan,nan,nan,nan,nan,nan,0
49276000,49276000,0.084978916,0.1472473,0.23715869,0.010615082,nan,nan,nan,nan,nan,nan,nan,nan,0
49380000,49380000,0.08486883,0.14757933,0.23927112,0.008280671,nan,nan,nan,nan,nan,nan,nan,nan,0
49480000,49480000,0.084908076,0.14660788,0.24166529,0.006818734,nan,nan,nan,nan,nan,nan,nan,nan,0
49580000,49580000,0.102725685,0.13272792,0.24197096,0.0025753924,nan,nan,nan,nan,nan,nan,nan,nan,0
49676000,49676000,0.10722699,0.12858424,0.24181592,0.0023728134,nan,nan,nan,nan,nan,nan,nan,nan,0
49780000,49780000,0.11203255,0.12451991,0.24149458,0.001952927,nan,nan,nan,nan,nan,nan,nan,nan,0
49880000,49880000,0.11320097,0.12245526,0.24188311,0.0024606225,nan,nan,nan,nan,nan,nan,nan,nan,0
49980000,49980000,0.11089051,0.12401497,0.24220859,0.0028858965,nan,nan,nan,nan,nan,nan,nan,nan,0
50076000,50076000,0.11179067,0.12319419,0.24217418,0.0028409373,nan,nan,nan,nan,nan,nan,nan,nan,0
50176000,50176000,0.113217674,0.12204206,0.242055,0.0026852202,nan,nan,nan,nan,nan,nan,nan,nan,0
50280000,50280000,0.002000004,0.0,0.0019999966,0.0,nan,nan,nan,nan,nan,nan,nan,nan,0
50380000,50380000,0.0020000013,0.0,0.001999992,7.450581e-09,nan,nan,nan,nan,nan,nan,nan,nan,0
50480000,50480000,0.0019999985,0.0,0.0020000136,0.0,nan,nan,nan,nan,nan,nan,nan,nan,0
50580000,50580000,0.002000004,0.0,0.0020000115,0.0,nan,nan,nan,nan,nan,nan,nan,nan,0
50680000,50680000,0.0019999966,0.0,0.0020000115,0.0,nan,nan,nan,nan,nan,nan,nan,nan,0
50780000,50780000,0.00199999,0.0,0.001999996,7.450581e-09,nan,nan,nan,nan,nan,nan,nan,nan,0
50880000,50880000,0.0019999966,0.0,0.0019999966,0.0,nan,nan,nan,nan,nan,nan,nan,nan,0
50980000,50980000,0.002000006,0.0,0.0020000134,0.0,nan,nan,nan,nan,nan,nan,nan,nan,0
51080000,51080000,0.0019999966,0.0,0.0019999966,0.0,nan,nan,nan,nan,nan,nan,nan,nan,0
51180000,51180000,0.0020000078,0.0,0.0020000075,0.0,nan,nan,nan,nan,nan,nan,nan,nan,0
51280000,51280000,0.0019999985,0.0,0.0019999985,0.0,nan,nan,nan,nan,nan,nan,nan,nan,0
51376000,51376000,0.0019999966,0.0,0.0019999966,0.0,nan,nan,nan,nan,nan,nan,nan,nan,0
51476000,51476000,0.002000004,0.0,0.0020000115,0.0,nan,nan,nan,nan,nan,nan,nan,nan,0
51580000,51580000,0.002000004,0.0,0.0019999966,0.0,nan,nan,nan,nan,nan,nan,nan,nan,0
51680000,51680000,0.0020000003,0.0,0.0019999929,0.0,nan,nan,nan,nan,nan,nan,nan,nan,0
51776000,51776000,0.0019999899,0.0,0.0019999961,7.450581e-09,nan,nan,nan,nan,nan,nan,nan,nan,0
51880000,51880000,0.002000004,0.0,0.0020000117,0.0,nan,nan,nan,nan,nan,nan,nan,nan,0
51980000,51980000,0.002000019,0.0,0.0019999817,0.0,nan,nan,nan,nan,nan,nan,nan,nan,0
52080000,52080000,0.002000004,0.0,0.0019999966,0.0,nan,nan,nan,nan,nan,nan,nan,nan,0
52180000,52180000,0.0019999966,0.0,0.0020000113,0.0,nan,nan,nan,nan,nan,nan,nan,nan,0
52280000,52280000,0.0019999994,0.0,0.0019999994,0.0,nan,nan,nan,nan,nan,nan,nan,nan,0
52380000,52380000,0.0020000013,0.0,0.0019999994,0.0,nan,nan,nan,nan,nan,nan,nan,nan,0
52480000,52480000,0.0020000022,0.0,0.0020000003,0.0,nan,nan,nan,nan,nan,nan,nan,nan,0
52580000,52580000,0.0020000003,0.0,0.0019999985,0.0,nan,nan,nan,nan,nan,nan,nan,nan,0
52676000,52676000,0.0019999994,0.0,0.0020000003,9.313226e-10,nan,nan,nan,nan,nan,nan,nan,nan,0
52780000,52780000,0.0020000013,0.0,0.0019999994,0.0,nan,nan,nan,nan,nan,nan,nan,nan,0
52876000,52876000,0.0020000017,1.8626451e-09,0.001999999,0.0,nan,nan,nan,nan,nan,nan,nan,nan,0
52980000,52980000,0.0019999992,1.8626451e-09,0.0019999996,0.0,nan,nan,nan,nan,nan,nan,nan,nan,0
53076000,53076000,0.0020000006,0.0,0.0019999982,1.8626451e-09,nan,nan,nan,nan,nan,nan,nan,nan,0
53176000,53176000,0.0019999994,0.0,0.0019999994,0.0,nan,nan,nan,nan,nan,nan,nan,nan,0
