timestamp,timestamp_sample,ref_timestamp,ref_lat,ref_lon,x,y,z,delta_xy[0],delta_xy[1],delta_z,vx,vy,vz,z_deriv,delta_vxy[0],delta_vxy[1],delta_vz,ax,ay,az,heading,delta_heading,ref_alt,dist_bottom,eph,epv,evh,evv,vxy_max,vz_max,hagl_min,hagl_max,xy_valid,z_valid,v_xy_valid,v_z_valid,xy_reset_counter,z_reset_counter,vxy_reset_counter,vz_reset_counter,heading_reset_counter,heading_good_for_control,xy_global,z_global,dist_bottom_valid,dist_bottom_sensor_bitfield,dead_reckoning
3604000,3604000,0,nan,nan,0.0010572042,-0.00023976354,-0.0073082894,-5.1371288e-08,1.2035016e-08,0.0,0.0048135817,-0.0010824534,-0.023102453,-0.017682813,-8.561881e-06,2.005836e-06,0.0018587112,0.009244409,0.014376986,-0.0030398367,-0.00010438507,0.0,nan,0.10762666,0.011179604,5.7735023,0.07511529,0.023657095,inf,inf,inf,inf,0,0,0,0,1,1,1,1,0,0,0,0,0,0,1
4108000,4108000,0,nan,nan,0.0021992468,-0.00052408216,-0.0053166407,-5.1371288e-08,1.2035016e-08,0.0,0.006385583,-0.0024930877,-0.011959677,-0.0053246645,-8.561881e-06,2.005836e-06,0.0018587112,0.013420968,-0.02337717,-0.02217572,-0.00019976012,0.0,nan,0.1024695,0.023144884,4.472177,0.11032724,0.06103075,inf,inf,inf,inf,0,0,0,0,1,1,1,1,0,0,0,0,0,0,1
4604000,4604000,4204000,47.3977508,8.5456073,0.0016341405,-0.0008748386,-0.006825026,-5.1371288e-08,1.2035016e-08,0.0,0.0046585663,-0.0041645938,-0.011676626,-0.005825972,-8.561881e-06,2.005836e-06,0.0018587112,0.017538752,-0.020639475,-0.030652618,-4.8510283e-06,0.0,488.09784,0.10080868,0.027529612,3.7799075,0.107571796,0.08699818,inf,inf,inf,inf,0,0,0,0,1,1,1,1,0,0,1,1,0,0,1
5100000,5100000,4204000,47.3977508,8.5456073,0.00039424145,-0.001773323,-0.0025082356,-5.1371288e-08,1.2035016e-08,0.0,0.0017512386,-0.004666867,-0.009837839,4.611531e-06,-8.561881e-06,2.005836e-06,0.0018587112,0.010747142,-0.00464209,0.013759359,-0.00016690751,0.0,488.09784,0.1,0.015535153,1.4314288,0.062996835,0.09024213,inf,inf,inf,inf,0,1,0,1,1,1,1,1,0,0,1,1,0,0,1
5604000,5604000,4204000,47.3977508,8.5456073,-0.0001366798,0.0003318729,0.0041589313,-5.1371288e-08,1.2035016e-08,0.0,0.00062214484,0.002671895,-0.008436674,0.0053111687,-8.561881e-06,2.005836e-06,0.0018587112,0.012929071,-0.010808812,-0.026961787,-6.39509e-05,0.0,488.09784,0.10179183,0.01927754,0.9050554,0.06466751,0.09465123,inf,inf,inf,inf,0,1,0,1,1,1,1,1,0,0,1,1,0,0,1
6100000,6100000,4204000,47.3977508,8.5456073,-0.00031988177,0.0010328161,0.0004331912,-5.1371288e-08,1.2035016e-08,0.0,-0.00040596622,0.0010233332,-0.008219453,-0.00048439446,-8.561881e-06,2.005836e-06,0.0018587112,-0.004614718,-0.0045554475,-0.0037085263,-0.00015628489,0.0,488.09784,0.1,0.012642354,0.7317886,0.045222808,0.08595958,inf,inf,inf,inf,0,1,0,1,1,1,1,1,0,0,1,1,0,0,1
6604000,6604000,4204000,47.3977508,8.5456073,-0.0017400745,0.00070375344,-0.0014024503,-5.1371288e-08,1.2035016e-08,0.0,-0.004959999,0.0016072606,-0.0046036597,0.0007242487,-8.561881e-06,2.005836e-06,0.0018587112,-0.011792027,0.025926068,-0.004834495,-0.00012376429,0.0,488.09784,0.1,0.015586184,0.63214236,0.04939896,0.08603396,inf,inf,inf,inf,0,1,0,1,1,1,1,1,0,0,1,1,0,0,1
7100000,7100000,4204000,47.3977508,8.5456073,-0.0019929162,0.0021693152,-0.0016012964,-5.1371288e-08,1.2035016e-08,0.0,-0.0028484,0.008480738,-8.838314e-05,0.0040949406,-8.561881e-06,2.005836e-06,0.0018587112,-0.01835785,0.0115964785,0.012747011,-0.00022417116,0.0,488.09784,0.10059848,0.018568018,0.5587505,0.05278264,0.08526623,inf,inf,inf,inf,0,1,0,1,1,1,1,1,0,0,1,1,0,0,1
7604000,7604000,4204000,47.3977508,8.5456073,-0.0003458556,0.003412181,0.0025941913,-5.1371288e-08,1.2035016e-08,0.0,0.00021172618,0.0070328997,0.0024713625,0.007844959,-8.561881e-06,2.005836e-06,0.0018587112,0.0018038262,-0.0018918216,-0.031855885,-0.0005549551,0.0,488.09784,0.1,0.013533558,0.5066518,0.04253768,0.07811841,inf,inf,inf,inf,0,1,0,1,1,1,1,1,0,0,1,1,0,0,1
8100000,8100000,4204000,47.3977508,8.5456073,-3.2461478e-05,0.0017365963,0.0013644424,-5.1371288e-08,1.2035016e-08,0.0,-0.0013169362,0.0023164533,0.0010668705,0.002799887,-8.561881e-06,2.005836e-06,0.0018587112,-0.014738179,0.035597287,-0.0016540288,-0.00070414663,0.0,488.09784,0.1,0.016180404,0.47276172,0.046327464,0.07798648,inf,inf,inf,inf,0,1,0,1,1,1,1,1,0,0,1,1,0,0,1
8604000,8604000,4204000,47.3977508,8.5456073,-0.0006058452,0.0003039191,-0.0029984352,-5.1371288e-08,1.2035016e-08,0.0,-0.0008808415,0.001442172,0.0015889159,-0.0008421957,-8.561881e-06,2.005836e-06,0.0018587112,-0.008135,0.015749594,-0.0021755693,-0.0007872628,0.0,488.09784,0.1,0.012084165,0.44492567,0.03829982,0.07302031,inf,inf,inf,inf,0,1,0,1,1,1,1,1,0,0,1,1,0,0,1
9100000,9100000,4204000,47.3977508,8.5456073,0.0006537327,0.0005513176,-0.0023455932,-5.1371288e-08,1.2035016e-08,0.0010096165,0.0034398444,0.0031775662,0.002989547,0.00041792978,-8.561881e-06,2.005836e-06,0.0018587112,-0.0037213028,-0.006410977,0.013867392,-0.0007675723,0.0,488.09784,0.1,0.014430476,0.6142793,0.042126663,0.07395775,inf,inf,inf,inf,0,1,0,1,1,2,1,1,0,0,1,1,0,0,1
9604000,9604000,4204000,47.3977508,8.5456073,0.0018772415,0.0010232992,-0.0028612947,-5.1371288e-08,1.2035016e-08,0.0010096165,0.0049000205,0.0033755081,0.003793983,0.0015097942,-8.561881e-06,2.005836e-06,0.0018587112,0.022841252,0.0076645077,0.0201473,-0.00064161874,0.0,488.09784,0.10077202,0.010986624,0.47892565,0.035453804,0.07529016,inf,inf,inf,inf,0,1,0,1,1,2,1,1,0,0,1,1,0,0,1
10100000,10100000,4204000,47.3977508,8.5456073,0.0016836209,0.00064656435,0.0020061056,-5.1371288e-08,1.2035016e-08,0.0010096165,0.0020880888,0.0013665797,0.0072011864,0.008035176,-8.561881e-06,2.005836e-06,0.0018587112,0.013270284,-0.033498667,0.022849066,-0.0007010983,0.0,488.09784,0.1,0.013021468,0.40732738,0.03895792,0.07171276,inf,inf,inf,inf,0,1,0,1,1,2,1,1,0,0,1,1,0,0,1
10604000,10604000,4204000,47.3977508,8.5456073,-0.0002672522,-0.00096295774,0.0049823117,-5.1371288e-08,1.2035016e-08,0.0010096165,-0.0018259301,-0.0022641253,0.008004361,0.008304867,-8.561881e-06,2.005836e-06,0.0018587112,-0.024688195,0.01775891,0.054479573,-0.00081803586,0.0,488.09784,0.1,0.015762642,0.36463296,0.043032687,0.07338151,inf,inf,inf,inf,0,1,0,1,1,2,1,1,0,0,1,1,0,0,1
11100000,11100000,4204000,47.3977508,8.5456073,-0.0008950638,-0.0022831033,0.007579518,-5.1371288e-08,1.2035016e-08,0.0010096165,-0.0028772259,-0.005484972,0.012987319,0.011243759,-8.561881e-06,2.005836e-06,0.0018587112,0.05877997,-0.025388695,0.027453525,-0.00076785247,0.0,488.09784,0.1,0.011836711,0.3171521,0.036322944,0.07009644,inf,inf,inf,inf,0,1,0,1,1,2,1,1,0,0,1,1,0,0,1
11604000,11604000,4204000,47.3977508,8.5456073,-0.0015462498,-0.002834496,0.009482408,-5.1371288e-08,1.2035016e-08,0.0010096165,-0.0041682706,-0.006435429,0.017728731,0.012307876,-8.561881e-06,2.005836e-06,0.0018587112,-0.03362521,0.019178506,0.026584601,-0.00073234964,0.0,488.09784,0.1,0.0143165905,0.29800236,0.04037542,0.071887925,inf,inf,inf,inf,0,1,0,1,1,2,1,1,0,0,1,1,0,0,1
12100000,12100000,4204000,47.3977508,8.5456073,-0.002288365,-0.0017783393,0.00946148,-5.1371288e-08,1.2035016e-08,0.0010096165,-0.0055187535,-0.0022085244,0.016083708,0.0065259454,-8.561881e-06,2.005836e-06,0.0018587112,-0.029722925,-0.00825728,0.016777774,-0.0007856909,0.0,488.09784,0.1,0.010859851,0.2847016,0.034274064,0.07356451,inf,inf,inf,inf,0,1,0,1,1,2,1,1,0,0,1,1,0,0,1
12604000,12604000,4204000,47.3977508,8.5456073,-0.0015509715,-0.00020908761,0.009180627,-5.1371288e-08,1.2035016e-08,0.0010096165,-0.0011916263,0.002866257,0.015486936,0.0040682163,-8.561881e-06,2.005836e-06,0.0018587112,0.02992396,-0.0085160425,0.013083219,-0.0006753188,0.0,488.09784,0.1,0.013052356,0.27314723,0.03805156,0.07081295,inf,inf,inf,inf,0,1,0,1,1,2,1,1,0,0,1,1,0,0,1
13108000,13108000,4204000,47.3977508,8.5456073,7.786497e-05,0.0023677896,0.007439671,-5.1371288e-08,1.2035016e-08,0.0010096165,0.00086125784,0.005327761,0.01483781,0.0012204373,-8.561881e-06,2.005836e-06,0.0018587112,-0.0011369556,0.008192408,0.026958993,-0.00079132715,0.0,488.09784,0.1,0.01574572,0.25634336,0.041971013,0.07245187,inf,inf,inf,inf,0,1,0,1,1,2,1,1,0,0,1,1,0,0,1
13604000,13604000,4204000,47.3977508,8.5456073,0.0013277329,0.0026242035,0.0067405105,-5.1371288e-08,1.2035016e-08,0.0010096165,0.0041947956,0.004630232,0.013135129,-0.00057939044,-8.561881e-06,2.005836e-06,0.0018587112,0.005000416,-0.007912545,0.023825092,-0.00065330724,0.0,488.09784,0.1,0.011933553,0.24876286,0.035897214,0.06961469,inf,inf,inf,inf,0,1,0,1,1,2,1,1,0,0,1,1,0,0,1
14100000,14100000,4204000,47.3977508,8.5456073,0.0015947975,0.00092755386,0.0045112805,-5.1371288e-08,1.2035016e-08,0.0010096165,0.0031937181,-0.00069689064,0.01173855,-0.0024298779,-8.561881e-06,2.005836e-06,0.0018587112,0.013266006,0.0011470546,-0.028274952,-0.0005889529,0.0,488.09784,0.1,0.014153676,0.24518172,0.03946247,0.07138184,inf,inf,inf,inf,0,1,0,1,1,2,1,1,0,0,1,1,0,0,1
14604000,14604000,4204000,47.3977508,8.5456073,0.0013700834,-0.00086218637,0.005154296,-5.1371288e-08,1.2035016e-08,0.0010096165,0.0036693423,-0.001985085,0.009346445,-0.002340797,-8.561881e-06,2.005836e-06,0.0018587112,0.00211726,-0.011401716,0.015536322,-0.0007370157,0.0,488.09784,0.10047023,0.010982826,0.24305461,0.034118354,0.07336289,inf,inf,inf,inf,0,1,0,1,1,2,1,1,0,0,1,1,0,0,1
15108000,15108000,4204000,47.3977508,8.5456073,0.001312847,-0.00060982374,0.0034858023,-5.1371288e-08,1.2035016e-08,0.0010096165,0.0022592163,-0.00011513871,0.008034306,-0.0030515154,-8.561881e-06,2.005836e-06,0.0018587112,-0.015997661,-0.013396085,0.0049686055,-0.000604962,0.0,488.09784,0.1,0.0131795965,0.23208255,0.037800297,0.0704346,inf,inf,inf,inf,0,1,0,1,1,2,1,1,0,0,1,1,0,0,1
15604000,15604000,4204000,47.3977508,8.5456073,0.0012229535,-0.00011193392,0.0028625487,-5.1371288e-08,1.2035016e-08,0.0010096165,0.0018644086,-0.00072313816,0.009485367,-0.00071241317,-8.561881e-06,2.005836e-06,0.0018587112,-0.03365772,-0.024977474,0.026264226,-0.000570629,0.0,488.09784,0.10070861,0.02485318,0.234636,0.0907705,0.076857194,inf,inf,inf,inf,0,1,0,1,1,2,1,1,0,0,1,1,0,0,1
16108000,16108000,4204000,47.3977508,8.5456073,0.0018071849,-0.0007564881,0.006312091,-5.1371288e-08,1.2035016e-08,0.0010096165,0.002816925,-0.0027388511,0.011856598,0.0043756138,-8.561881e-06,2.005836e-06,0.0018587112,-0.0003964087,0.011970303,-0.016832722,-0.00045179873,0.0,488.09784,0.10073939,0.102255896,0.24437565,0.25843582,0.08829588,inf,inf,inf,inf,0,1,0,1,1,2,1,1,0,0,1,1,0,0,1
16604000,16604000,4204000,47.3977508,8.5456073,0.0032818823,-0.00294613,0.01243659,-5.1371288e-08,1.2035016e-08,0.0010096165,0.002256971,-0.006196915,0.018941272,0.013241494,-8.561881e-06,2.005836e-06,0.0018587112,-0.009503477,0.013831158,0.015282071,-0.00044565523,0.0,488.09784,0.10023669,0.26807457,0.2580929,0.4284873,0.099377476,inf,inf,inf,inf,0,1,0,1,1,2,1,1,0,0,1,1,0,0,1
17100000,17100000,4204000,47.3977508,8.5456073,0.004467374,-0.0070175333,0.020132398,-5.1371288e-08,1.2035016e-08,0.0010096165,0.002193564,-0.010232458,0.023904268,0.01784996,-8.561881e-06,2.005836e-06,0.0018587112,0.0005174806,-0.0003922614,0.014276243,-0.00021696232,0.0,488.09784,0.1,0.519374,0.2675258,0.5987756,0.10841087,inf,inf,inf,inf,0,1,0,1,1,2,1,1,0,0,1,1,0,0,1
17604000,17604000,4204000,47.3977508,8.5456073,0.0050546993,-0.0129391635,0.028441515,-5.1371288e-08,1.2035016e-08,0.0010096165,0.0003773582,-0.013194253,0.024883624,0.01743718,-8.561881e-06,2.005836e-06,0.0018587112,0.007630689,-0.021929458,-0.023771076,-0.00031719138,0.0,488.09784,0.1,0.86033607,0.28933102,0.77100885,0.11789986,inf,inf,inf,inf,0,1,0,1,1,2,1,1,0,0,1,1,0,0,1
18100000,18100000,4204000,47.3977508,8.5456073,0.00488377,-0.018869687,0.034196027,-5.1371288e-08,1.2035016e-08,0.0010096165,0.001967528,-0.008695025,-0.012517514,-0.020873865,-8.561881e-06,2.005836e-06,0.0018587112,0.004007859,0.09088811,-0.36718413,-0.00021678057,0.0,488.09784,0.1,1.2761518,0.31147563,0.93785495,0.12565844,inf,inf,inf,inf,0,1,0,1,1,2,1,1,0,0,1,1,0,0,1
18604000,18604000,4204000,47.3977508,8.5456073,-0.023459174,0.014521165,-0.04172857,-5.1371288e-08,1.2035016e-08,0.0010096165,-0.15616237,0.16660796,-0.3163714,-0.3261282,-8.561881e-06,2.005836e-06,0.0018587112,-0.22383018,0.22329777,-0.9459657,0.007165082,0.0,488.09784,0.17580242,1.7614566,0.3184903,1.1014061,0.1274429,inf,inf,inf,inf,0,1,0,1,1,2,1,1,0,0,1,1,0,0,1
19100000,19100000,4204000,47.3977508,8.5456073,-0.101700716,0.09660043,-0.30036476,-5.1371288e-08,1.2035016e-08,0.0010096165,-0.13560441,0.13417883,-0.5704006,-0.5834746,-8.561881e-06,2.005836e-06,0.0018587112,0.121994674,-0.18045677,0.16325897,0.0061148433,0.0,488.09784,0.43443862,2.3022966,0.3388312,1.2551059,0.13181435,inf,inf,inf,inf,0,1,0,1,1,2,1,1,0,0,1,1,0,0,1
19604000,19604000,4204000,47.3977508,8.5456073,-0.14222902,0.12841523,-0.6092475,-5.1371288e-08,1.2035016e-08,0.0010096165,-0.03928877,0.0040066694,-0.6283287,-0.6432263,-8.561881e-06,2.005836e-06,0.0018587112,0.17042539,-0.237834,-0.03744475,0.005066122,0.0,488.09784,0.74332136,2.8262665,0.35653448,1.3532794,0.13501485,inf,inf,inf,inf,0,1,0,1,1,2,1,1,0,0,1,1,0,0,1
20108000,20108000,4204000,47.3977508,8.5456073,-0.12589638,0.09014114,-0.9445955,-5.1371288e-08,1.2035016e-08,0.0010096165,0.051784907,-0.10452909,-0.6481729,-0.6658313,-8.561881e-06,2.005836e-06,0.0018587112,0.13333417,-0.16078274,-0.01650769,0.0042618243,0.0,488.09784,1.0786693,3.3730235,0.37388715,1.4403301,0.13763684,inf,inf,inf,inf,0,1,0,1,1,2,1,1,0,0,1,1,0,0,1
20604000,20604000,4204000,47.3977508,8.5456073,-0.07210446,0.014655274,-1.2766416,-5.1371288e-08,1.2035016e-08,0.0010096165,0.10685153,-0.16111955,-0.61897033,-0.641979,-8.561881e-06,2.005836e-06,0.0018587112,0.046603337,-0.092922285,0.110479064,0.0038301959,0.0,488.09784,1.4107155,3.8668768,0.361843,1.4917674,0.1325032,inf,inf,inf,inf,0,1,0,1,1,2,1,1,0,0,1,1,0,0,1
21108000,21108000,4204000,47.3977508,8.5456073,-0.0031652,-0.070606746,-1.5931019,-5.1371288e-08,1.2035016e-08,0.0010096165,0.13267404,-0.18132041,-0.555232,-0.5835117,-8.561881e-06,2.005836e-06,0.0018587112,0.05063673,-0.033658564,0.17002596,0.0036384196,0.0,488.09784,1.7271757,4.129474,0.37175176,1.4510777,0.13292122,inf,inf,inf,inf,0,1,0,1,1,2,1,1,0,0,1,1,0,0,1
21604000,21604000,4204000,47.3977508,8.5456073,0.05817387,-0.13826472,-1.8465896,-5.1371288e-08,1.2035016e-08,0.0010096165,0.12827727,-0.16790567,-0.28047103,-0.3125073,-8.561881e-06,2.005836e-06,0.0018587112,-0.051162392,0.016548146,1.2598996,0.0033503037,0.0,488.09784,1.9806634,4.4468,0.38127565,1.4344234,0.1335098,inf,inf,inf,inf,0,1,0,1,1,2,1,1,0,0,1,1,0,0,1
22108000,22108000,4204000,47.3977508,8.5456073,0.09735077,-0.18013734,-1.9419105,-5.1371288e-08,1.2035016e-08,0.0010096165,0.10563123,-0.15260014,-0.14401712,-0.179488,-8.561881e-06,2.005836e-06,0.0018587112,-0.0041176095,0.009431008,-0.21357647,0.003417168,0.0,488.09784,2.0759845,4.4643807,0.39055148,1.3303437,0.13430168,inf,inf,inf,inf,0,1,0,1,1,2,1,1,0,0,1,1,0,0,1
22604000,22604000,4204000,47.3977508,8.5456073,0.11259571,-0.20032017,-2.0422049,-5.1371288e-08,1.2035016e-08,0.0010096165,0.07666477,-0.13294059,-0.15294454,-0.1901219,-8.561881e-06,2.005836e-06,0.0018587112,-0.04221426,0.018121745,0.07309205,0.003632295,0.0,488.09784,2.1762786,4.6284027,0.39562693,1.2887675,0.13457789,inf,inf,inf,inf,0,1,0,1,1,2,1,1,0,0,1,1,0,0,1
23100000,23100000,4204000,47.3977508,8.5456073,0.10825984,-0.2057719,-2.138686,-5.1371288e-08,1.2035016e-08,0.0010096165,0.0426088,-0.11492562,-0.13245839,-0.17463057,-8.561881e-06,2.005836e-06,0.0018587112,-0.051993124,0.040221665,0.07458217,0.0033192711,0.0,488.09784,2.27276,4.746059,0.37470177,1.2403315,0.12947504,inf,inf,inf,inf,0,1,0,1,1,2,1,1,0,0,1,1,0,0,1
23604000,23604000,4204000,47.3977508,8.5456073,0.085450515,-0.19615652,-2.2215595,-5.1371288e-08,1.2035016e-08,0.0010096165,0.00864643,-0.085268475,-0.09545264,-0.14017358,-8.561881e-06,2.005836e-06,0.0018587112,-0.03615295,0.013184631,0.099966295,0.0017925337,0.0,488.09784,2.3556333,4.5836954,0.3801944,1.1295196,0.13073254,inf,inf,inf,inf,0,1,0,1,1,2,1,1,0,0,1,1,0,0,1
24100000,24100000,4204000,47.3977508,8.5456073,0.058890086,-0.1789265,-2.2815106,-5.1371288e-08,1.2035016e-08,0.0010096165,-0.007961741,-0.06447966,-0.062213846,-0.10492737,-8.561881e-06,2.005836e-06,0.0018587112,-0.02178477,0.0035854753,0.11725257,0.0006170262,0.0,488.09784,2.4155846,4.6360345,0.3869568,1.0825582,0.13248932,inf,inf,inf,inf,0,1,0,1,1,2,1,1,0,0,1,1,0,0,1
24604000,24604000,4204000,47.3977508,8.5456073,0.033560414,-0.15943527,-2.3264987,-5.1371288e-08,1.2035016e-08,0.0010096165,-0.010451651,-0.05646727,-0.02523739,-0.06754023,-8.561881e-06,2.005836e-06,0.0018587112,0.06030204,-0.008288901,0.031934116,0.0007593483,0.0,488.09784,2.4605727,4.4426875,0.36519367,0.98802745,0.12810047,inf,inf,inf,inf,0,1,0,1,1,2,1,1,0,0,1,1,0,0,1
25100000,25100000,4204000,47.3977508,8.5456073,0.019985294,-0.14509392,-2.3598928,-5.1371288e-08,1.2035016e-08,0.0010096165,0.008311527,-0.06063084,-0.007139785,-0.05265109,-8.561881e-06,2.005836e-06,0.0018587112,0.05330609,-0.023310246,0.016203148,0.0012149866,0.0,488.09784,2.4939666,4.46503,0.3721649,0.94977915,0.13024406,inf,inf,inf,inf,0,1,0,1,1,2,1,1,0,0,1,1,0,0,1
25604000,25604000,4204000,47.3977508,8.5456073,0.021392133,-0.14050311,-2.3868754,-5.1371288e-08,1.2035016e-08,0.0010096165,0.027410967,-0.06541669,0.00043432825,-0.046419606,-8.561881e-06,2.005836e-06,0.0018587112,0.051246908,-0.005933703,0.042621043,0.0014735147,0.0,488.09784,2.5209494,4.484541,0.3780943,0.9159405,0.13216212,inf,inf,inf,inf,0,1,0,1,1,2,1,1,0,0,1,1,0,0,1
26100000,26100000,4204000,47.3977508,8.5456073,0.030724179,-0.13857871,-2.4096947,-5.1371288e-08,1.2035016e-08,0.0010096165,0.037787255,-0.0682144,0.017336126,-0.031466026,-8.561881e-06,2.005836e-06,0.0018587112,0.020483697,-0.020328036,0.047507692,0.0022307355,0.0,488.09784,2.5437684,4.283645,0.38560116,0.84674877,0.1343628,inf,inf,inf,inf,0,1,0,1,1,2,1,1,0,0,1,1,0,0,1
26604000,26604000,4204000,47.3977508,8.5456073,0.04336542,-0.14237477,-2.4209595,-5.1371288e-08,1.2035016e-08,0.0010096165,0.04283024,-0.07091227,0.035509937,-0.012112594,-8.561881e-06,2.005836e-06,0.0018587112,-9.273935e-05,0.024008142,0.023270955,0.0023586412,0.0,488.09784,2.5550332,4.29505,0.3916874,0.8229959,0.13614836,inf,inf,inf,inf,0,1,0,1,1,2,1,1,0,0,1,1,0,0,1
27100000,27100000,4204000,47.3977508,8.5456073,0.05336243,-0.14464551,-2.4347737,-5.1371288e-08,1.2035016e-08,0.0010096165,0.037485722,-0.066182725,0.04946141,-0.0062949196,-8.561881e-06,2.005836e-06,0.0018587112,-0.018393183,-0.048280645,0.007470138,0.0026935758,0.0,488.09784,2.5688477,4.1124372,0.37214032,0.7712053,0.13227428,inf,inf,inf,inf,0,1,0,1,1,2,1,1,0,0,1,1,0,0,1
27604000,27604000,4204000,47.3977508,8.5456073,0.05782689,-0.14597538,-2.4407814,-5.1371288e-08,1.2035016e-08,0.0010096165,0.02709551,-0.06477149,0.052227683,-0.005381678,-8.561881e-06,2.005836e-06,0.0018587112,-0.047673427,-0.024152642,0.03688782,0.0027099808,0.0,488.09784,2.5748553,4.1223354,0.38065866,0.75731665,0.13450544,inf,inf,inf,inf,0,1,0,1,1,2,1,1,0,0,1,1,0,0,1
28100000,28100000,4204000,47.3977508,8.5456073,0.05546919,-0.14911963,-2.4438713,-5.1371288e-08,1.2035016e-08,0.0010096165,0.01133429,-0.061924662,0.057201035,-0.00079150335,-8.561881e-06,2.005836e-06,0.0018587112,0.006823902,0.025630549,0.055605542,0.0026913206,0.0,488.09784,2.5779452,4.125407,0.38608086,0.74635994,0.13591813,inf,inf,inf,inf,0,1,0,1,1,2,1,1,0,0,1,1,0,0,1
28604000,28604000,4204000,47.3977508,8.5456073,0.044278257,-0.14836393,-2.446626,-5.1371288e-08,1.2035016e-08,0.0010096165,-0.0065417932,-0.055862803,0.066474736,0.0067760674,-8.561881e-06,2.005836e-06,0.0018587112,-0.031259652,-0.018373014,0.038755123,0.0029936563,0.0,488.09784,2.5807,3.9715633,0.3946692,0.71546733,0.13793038,inf,inf,inf,inf,0,1,0,1,1,2,1,1,0,0,1,1,0,0,1
29108000,29108000,4204000,47.3977508,8.5456073,0.029721865,-0.14709294,-2.4540346,-5.1371288e-08,1.2035016e-08,0.0010096165,-0.011766468,-0.04809122,0.076667204,0.0068735117,-8.561881e-06,2.005836e-06,0.0018587112,0.026482709,-0.005229798,0.041293908,0.0033129323,0.0,488.09784,2.5881085,3.9841084,0.37332502,0.71380633,0.1332807,inf,inf,inf,inf,0,1,0,1,1,2,1,1,0,0,1,1,0,0,1
29604000,29604000,4204000,47.3977508,8.5456073,0.017104883,-0.14221957,-2.4542704,-5.1371288e-08,1.2035016e-08,0.0010096165,-0.013624382,-0.04052722,0.089199856,0.013288675,-8.561881e-06,2.005836e-06,0.0018587112,0.016666802,-0.006896574,0.008743255,0.0033531855,0.0,488.09784,2.588344,3.8442018,0.3810351,0.69392055,0.13507536,inf,inf,inf,inf,0,1,0,1,1,2,1,1,0,0,1,1,0,0,1
30108000,30108000,4204000,47.3977508,8.5456073,0.005630287,-0.13531761,-2.4529939,-5.1371288e-08,1.2035016e-08,0.0010096165,-0.016859222,-0.03595405,0.083950534,0.0063097803,-8.561881e-06,2.005836e-06,0.0018587112,0.021494051,0.049180172,0.05559623,0.0033100832,0.0,488.09784,2.5870676,3.8626893,0.38955677,0.69997525,0.13696468,inf,inf,inf,inf,0,1,0,1,1,2,1,1,0,0,1,1,0,0,1
30604000,30604000,4204000,47.3977508,8.5456073,-0.0044927606,-0.13081294,-2.4523842,-5.1371288e-08,1.2035016e-08,0.0010096165,-0.022662172,-0.036420714,0.089269005,0.011395122,-8.561881e-06,2.005836e-06,0.0018587112,-0.017170124,-0.024972016,-0.0008428469,0.0034184936,0.0,488.09784,2.5864582,3.879157,0.39470538,0.7081052,0.13803004,inf,inf,inf,inf,0,1,0,1,1,2,1,1,0,0,1,1,0,0,1
31108000,31108000,4204000,47.3977508,8.5456073,-0.017046442,-0.12462072,-2.4604168,-5.1371288e-08,1.2035016e-08,0.0010096165,-0.031146506,-0.03298422,0.09284976,0.0049222223,-8.561881e-06,2.005836e-06,0.0018587112,-0.028337423,-0.020512102,0.046581957,0.0034773815,0.0,488.09784,2.5944905,3.766624,0.37527326,0.70172244,0.13367198,inf,inf,inf,inf,0,1,0,1,1,2,1,1,0,0,1,1,0,0,1
31604000,31604000,4204000,47.3977508,8.5456073,-0.032451075,-0.12132764,-2.4638665,-5.1371288e-08,1.2035016e-08,0.0010096165,-0.042604435,-0.03384889,0.08716394,-0.0036757577,-8.561881e-06,2.005836e-06,0.0018587112,-0.009944734,-0.027296932,0.029199755,0.0035650001,0.0,488.09784,2.5979404,3.7918198,0.38046956,0.715587,0.13481301,inf,inf,inf,inf,0,1,0,1,1,2,1,1,0,0,1,1,0,0,1
32100000,32100000,4204000,47.3977508,8.5456073,-0.04992824,-0.11871956,-2.4656389,-5.1371288e-08,1.2035016e-08,0.0010096165,-0.052771877,-0.03471729,0.0918233,0.0013786664,-8.561881e-06,2.005836e-06,0.0018587112,-0.04709087,-0.026082924,0.047601756,0.0038782172,0.0,488.09784,2.5997128,3.690503,0.3879163,0.7145393,0.1364359,inf,inf,inf,inf,0,1,0,1,1,2,1,1,0,0,1,1,0,0,1
32604000,32604000,4204000,47.3977508,8.5456073,-0.070511036,-0.119294144,-2.467217,-5.1371288e-08,1.2035016e-08,0.0010096165,-0.065093204,-0.04395419,0.096329406,0.0059668934,-8.561881e-06,2.005836e-06,0.0018587112,-0.02730527,0.027783316,0.003814697,0.0039290763,0.0,488.09784,2.6012907,3.7298381,0.39642194,0.73316866,0.13827427,inf,inf,inf,inf,0,1,0,1,1,2,1,1,0,0,1,1,0,0,1
33100000,33100000,4204000,47.3977508,8.5456073,-0.09405228,-0.12462594,-2.4760087,-5.1371288e-08,1.2035016e-08,0.0010096165,-0.078884915,-0.049969554,0.09802919,-0.0005407722,-8.561881e-06,2.005836e-06,0.0018587112,-0.017961472,-0.009876312,0.0200849,0.0039248164,0.0,488.09784,2.6100826,3.7696533,0.37376663,0.7524522,0.133221,inf,inf,inf,inf,0,1,0,1,1,2,1,1,0,0,1,1,0,0,1
33604000,33604000,4204000,47.3977508,8.5456073,-0.12046592,-0.13089472,-2.4756486,-5.1371288e-08,1.2035016e-08,0.0010096165,-0.092105895,-0.05875638,0.111512884,0.010920284,-8.561881e-06,2.005836e-06,0.0018587112,-0.06810321,-0.043283463,0.06378721,0.0037059123,0.0,488.09784,2.6097226,3.6910644,0.38209346,0.75692713,0.13510613,inf,inf,inf,inf,0,1,0,1,1,2,1,1,0,0,1,1,0,0,1
34100000,34100000,4204000,47.3977508,8.5456073,-0.14952631,-0.14337401,-2.4666784,-5.1371288e-08,1.2035016e-08,0.0010096165,-0.10461123,-0.073550396,0.10880586,0.012279502,-8.561881e-06,2.005836e-06,0.0018587112,-0.045857318,-0.0432708,0.019590368,0.0037114068,0.0,488.09784,2.6007524,3.740621,0.3873362,0.77809924,0.13626869,inf,inf,inf,inf,0,1,0,1,1,2,1,1,0,0,1,1,0,0,1
34604000,34604000,4204000,47.3977508,8.5456073,-0.1789513,-0.15930876,-2.4602304,-5.1371288e-08,1.2035016e-08,0.0010096165,-0.115593106,-0.08186754,0.10658422,0.0131583745,-8.561881e-06,2.005836e-06,0.0018587112,-0.0686574,-0.045197636,0.00723917,0.003942919,0.0,488.09784,2.594304,3.6722593,0.36791933,0.7834426,0.13185763,inf,inf,inf,inf,0,1,0,1,1,2,1,1,0,0,1,1,0,0,1
35100000,35100000,4204000,47.3977508,8.5456073,-0.20912924,-0.17550226,-2.4612703,-5.1371288e-08,1.2035016e-08,0.0010096165,-0.12850566,-0.08777765,0.10250592,0.005467492,-8.561881e-06,2.005836e-06,0.0018587112,-0.024685198,-0.04434408,-0.013855285,0.003951208,0.0,488.09784,2.595344,3.7304754,0.3731896,0.8049804,0.13309985,inf,inf,inf,inf,0,1,0,1,1,2,1,1,0,0,1,1,0,0,1
35604000,35604000,4204000,47.3977508,8.5456073,-0.24226567,-0.19326265,-2.4601133,-5.1371288e-08,1.2035016e-08,0.0010096165,-0.13986103,-0.09482765,0.0943903,-0.0022985933,-8.561881e-06,2.005836e-06,0.0018587112,-0.04549004,-0.02456155,0.0043334435,0.0037274968,0.0,488.09784,2.5941873,3.6689513,0.3814776,0.8092605,0.13499077,inf,inf,inf,inf,0,1,0,1,1,2,1,1,0,0,1,1,0,0,1
36100000,36100000,4204000,47.3977508,8.5456073,-0.2722467,-0.2106758,-2.4584248,-5.1371288e-08,1.2035016e-08,0.0010096165,-0.1521998,-0.10957621,0.083821945,-0.007754634,-8.561881e-06,2.005836e-06,0.0018587112,-0.07135399,-0.05021611,0.0095982095,0.0033179827,0.0,488.09784,2.5924988,3.733921,0.38906196,0.8299898,0.13669293,inf,inf,inf,inf,0,1,0,1,1,2,1,1,0,0,1,1,0,0,1
36604000,36604000,4204000,47.3977508,8.5456073,-0.30900016,-0.23326425,-2.4576507,-5.1371288e-08,1.2035016e-08,0.0010096165,-0.17657647,-0.119336985,0.07756615,-0.0068918113,-8.561881e-06,2.005836e-06,0.0018587112,-0.07026307,-0.05209728,0.031527128,0.0034764085,0.0,488.09784,2.5917244,3.8085353,0.36731145,0.8511179,0.13175672,inf,inf,inf,inf,0,1,0,1,1,2,1,1,0,0,1,1,0,0,1
37108000,37108000,4204000,47.3977508,8.5456073,-0.34911668,-0.25506467,-2.463457,-5.1371288e-08,1.2035016e-08,0.0010096165,-0.19723739,-0.1296761,0.06967856,-0.014396176,-8.561881e-06,2.005836e-06,0.0018587112,-0.054731365,-0.05209137,-0.010061077,0.0030838177,0.0,488.09784,2.5975308,3.750486,0.37557507,0.8514372,0.13368197,inf,inf,inf,inf,0,1,0,1,1,2,1,1,0,0,1,1,0,0,1
37604000,37604000,4204000,47.3977508,8.5456073,-0.389715,-0.27772498,-2.4630096,-5.1371288e-08,1.2035016e-08,0.0010096165,-0.21025361,-0.13845828,0.062303305,-0.014119245,-8.561881e-06,2.005836e-06,0.0018587112,-0.055309366,-0.030689828,0.027001834,0.0028395457,0.0,488.09784,2.5970836,3.822976,0.3808687,0.8694437,0.1348991,inf,inf,inf,inf,0,1,0,1,1,2,1,1,0,0,1,1,0,0,1
38108000,38108000,4204000,47.3977508,8.5456073,-0.43114796,-0.30223516,-2.459264,-5.1371288e-08,1.2035016e-08,0.0010096165,-0.22137891,-0.14614692,0.06253341,-0.0051675094,-8.561881e-06,2.005836e-06,0.0018587112,-0.067875616,-0.049793087,0.0075642015,0.0027956872,0.0,488.09784,2.593338,3.7634487,0.38919652,0.86594975,0.13674925,inf,inf,inf,inf,0,1,0,1,1,2,1,1,0,0,1,1,0,0,1
38604000,38604000,4204000,47.3977508,8.5456073,-0.46488178,-0.31770945,-2.365489,-5.1371288e-08,1.2035016e-08,0.0010096165,-0.22820549,-0.12913573,0.6495489,0.5856286,-8.561881e-06,2.005836e-06,0.0018587112,-0.04064456,0.049355086,1.9900285,0.0028988738,0.0,488.09784,2.4995627,3.8361516,0.3965537,0.8761835,0.13832772,inf,inf,inf,inf,0,1,0,1,1,2,1,1,0,0,1,1,0,0,1
39100000,39100000,4204000,47.3977508,8.5456073,-0.49423233,-0.32356596,-2.0079997,-5.1371288e-08,1.2035016e-08,0.0010096165,-0.21660821,-0.120903924,0.73980874,0.66902095,-8.561881e-06,2.005836e-06,0.0018587112,-0.021581974,-0.028062262,-0.35433003,0.002818805,0.0,488.09784,2.1420736,3.9080014,0.375929,0.8868516,0.133748,inf,inf,inf,inf,0,1,0,1,1,2,1,1,0,0,1,1,0,0,1
39604000,39604000,4204000,47.3977508,8.5456073,-0.51354325,-0.32363358,-1.6784018,-5.1371288e-08,1.2035016e-08,0.0010096165,-0.22113249,-0.11374749,0.74765545,0.67445815,-8.561881e-06,2.005836e-06,0.0018587112,-0.00045816702,-0.016242381,0.1382092,0.002908369,0.0,488.09784,1.8124757,3.8401723,0.38199732,0.8787479,0.13513267,inf,inf,inf,inf,0,1,0,1,1,2,1,1,0,0,1,1,0,0,1
40108000,40108000,4204000,47.3977508,8.5456073,-0.53282243,-0.32074323,-1.3305137,-5.1371288e-08,1.2035016e-08,0.0010096165,-0.23322472,-0.11048324,0.7729696,0.7006087,-8.561881e-06,2.005836e-06,0.0018587112,-0.072545744,-0.03866918,0.04474539,0.0031120677,0.0,488.09784,1.4645876,3.9164786,0.39015508,0.8910245,0.13692732,inf,inf,inf,inf,0,1,0,1,1,2,1,1,0,0,1,1,0,0,1
40604000,40604000,4204000,47.3977508,8.5456073,-0.55650115,-0.31852192,-0.97988456,-5.1371288e-08,1.2035016e-08,0.0010096165,-0.24522951,-0.111164674,0.78399706,0.7137247,-8.561881e-06,2.005836e-06,0.0018587112,-0.054965507,-0.028171299,0.0040018926,0.002930436,0.0,488.09784,1.1139584,3.8381104,0.39509383,0.8780728,0.13797449,inf,inf,inf,inf,0,1,0,1,1,2,1,1,0,0,1,1,0,0,1
41100000,41100000,4204000,47.3977508,8.5456073,-0.5753012,-0.31357172,-0.6349512,-5.1371288e-08,1.2035016e-08,0.0010096165,-0.25125673,-0.109388866,0.7844627,0.708016,-8.561881e-06,2.005836e-06,0.0018587112,-0.041487902,0.020088073,0.04765298,0.0023477387,0.0,488.09784,0.769025,3.9056065,0.37452316,0.88737994,0.13340664,inf,inf,inf,inf,0,1,0,1,1,2,1,1,0,0,1,1,0,0,1
41604000,41604000,4204000,47.3977508,8.5456073,-0.5972094,-0.3108389,-0.27933055,-5.1371288e-08,1.2035016e-08,0.0010096165,-0.25231028,-0.10573499,0.79443073,0.7137972,-8.561881e-06,2.005836e-06,0.0018587112,-0.034540743,-0.01582084,0.04469696,0.0022443854,0.0,488.09784,0.4134044,3.9789424,0.38263047,0.89662844,0.13524218,inf,inf,inf,inf,0,1,0,1,1,2,1,1,0,0,1,1,0,0,1
42100000,42100000,4204000,47.3977508,8.5456073,-0.6083734,-0.30461815,0.07050767,-5.1371288e-08,1.2035016e-08,0.0010096165,-0.24370565,-0.10223536,0.79957956,0.71544904,-8.561881e-06,2.005836e-06,0.0018587112,-0.06564054,-0.038947064,0.04216097,0.0018856496,0.0,488.09784,0.1,3.8925273,0.3876716,0.87997437,0.13636178,inf,inf,inf,inf,0,1,0,1,1,2,1,1,0,0,1,1,0,0,1
42604000,42604000,4204000,47.3977508,8.5456073,-0.6154307,-0.29312533,0.4869147,-5.1371288e-08,1.2035016e-08,0.0010096165,-0.23303573,-0.09323519,0.7310471,0.6466904,-8.561881e-06,2.005836e-06,0.0018587112,-0.006643167,-0.03587402,-0.41133627,0.0018201614,0.0,488.09784,0.1,3.961559,0.3958914,0.8874413,0.13413653,inf,inf,inf,inf,0,1,0,1,1,2,1,1,0,0,1,1,0,0,1
43100000,43100000,4204000,47.3977508,8.5456073,-0.6182534,-0.28564194,0.7458326,-5.1371288e-08,1.2035016e-08,0.0010096165,-0.23727262,-0.089012146,0.9481442,0.77822137,-8.561881e-06,2.005836e-06,0.0018587112,-0.031540036,-0.022168795,0.71162444,0.0016264055,0.0,488.09784,0.1,3.8713844,0.37096354,0.86777455,0.120445706,inf,inf,inf,inf,0,1,0,1,1,2,1,1,0,0,1,1,0,0,1
43604000,43604000,4204000,47.3977508,8.5456073,-0.612712,-0.27290905,1.0348089,-5.1371288e-08,1.2035016e-08,0.0010096165,-0.23343822,-0.07621832,1.2708436,0.9464383,-8.561881e-06,2.005836e-06,0.0018587112,-0.061711833,-0.0019439466,0.8942773,0.0018211884,0.0,488.09784,0.1,3.9360456,0.37466532,0.8701618,0.11584869,inf,inf,inf,inf,0,1,0,1,1,2,1,1,0,0,1,1,0,0,1
44100000,44100000,4204000,47.3977508,8.5456073,-0.6114562,-0.25432366,1.3733563,-5.1371288e-08,1.2035016e-08,0.0010096165,-0.23390988,-0.044846874,1.516917,1.0448469,-8.561881e-06,2.005836e-06,0.0018587112,-0.041324016,0.028353736,0.5691098,0.0017780007,0.0,488.09784,0.1,3.9932148,0.3764474,0.8716487,0.11372083,inf,inf,inf,inf,0,1,0,1,1,2,1,1,0,0,1,1,0,0,1
44604000,44604000,4204000,47.3977508,8.5456073,-0.603319,-0.2218441,1.7570363,-5.1371288e-08,1.2035016e-08,0.0010096165,-0.22867675,-0.016874287,1.6348985,1.0434285,-8.561881e-06,2.005836e-06,0.0018587112,-0.051113237,0.054255605,0.19132811,0.0015666019,0.0,488.09784,0.1,3.9009936,0.35213256,0.8510369,0.10942083,inf,inf,inf,inf,0,1,0,1,1,2,1,1,0,0,1,1,0,0,1
45100000,45100000,4204000,47.3977508,8.5456073,-0.59582955,-0.18255536,2.0855246,-5.1371288e-08,1.2035016e-08,0.0010096165,-0.22633494,0.012694934,1.6713405,0.9368746,-8.561881e-06,2.005836e-06,0.0018587112,-0.0551603,0.040588576,0.23967399,0.00139131,0.0,488.09784,0.1,3.95429,0.3544776,0.85413,0.111893326,inf,inf,inf,inf,0,1,0,1,1,2,1,1,0,0,1,1,0,0,1
45604000,45604000,4204000,47.3977508,8.5456073,-0.5833653,-0.15756129,2.1574466,-5.1371288e-08,1.2035016e-08,0.0010096165,-0.21020903,-0.016261892,1.0137768,0.20379214,-8.561881e-06,2.005836e-06,0.0018587112,-0.05072496,-0.011394295,0.03928877,0.0013979742,0.0,488.09784,0.1,3.8629184,0.35795873,0.8417242,0.10954629,inf,inf,inf,inf,0,1,0,1,1,2,1,1,0,0,1,1,0,0,1
46100000,46100000,4204000,47.3977508,8.5456073,-0.56745803,-0.13860159,2.192771,-5.1371288e-08,1.2035016e-08,0.0010096165,-0.20523794,-0.019751072,0.93251014,0.10308535,-8.561881e-06,2.005836e-06,0.0018587112,-0.056033194,-0.054783106,0.04831608,0.0016385809,0.0,488.09784,0.1,3.9159055,0.3586361,0.84584355,0.105868325,inf,inf,inf,inf,0,1,0,1,1,2,1,1,0,0,1,1,0,0,1
46604000,46604000,4204000,47.3977508,8.5456073,-0.5575217,-0.12708521,2.2093685,-5.1371288e-08,1.2035016e-08,0.0010096165,-0.2014595,-0.026124109,0.86215425,0.04252796,-8.561881e-06,2.005836e-06,0.0018587112,-0.061492983,-0.03809574,0.041603107,0.0016978077,0.0,488.09784,0.1,3.9743986,0.3399481,0.8506302,0.10125655,inf,inf,inf,inf,0,1,0,1,1,2,1,1,0,0,1,1,0,0,1
47108000,47108000,4204000,47.3977508,8.5456073,-0.54107404,-0.12023495,2.1429827,-5.1371288e-08,1.2035016e-08,0.0010096165,-0.19907111,-0.031544276,0.77614856,-0.076675534,-8.561881e-06,2.005836e-06,0.0018587112,-0.04575439,-0.038721144,0.018347984,0.0019024718,0.0,488.09784,0.14790034,3.88152,0.34311542,0.8325029,0.10252477,inf,inf,inf,inf,0,1,0,1,1,2,1,1,0,0,1,1,0,0,1
47604000,47604000,4204000,47.3977508,8.5456073,-0.5308921,-0.116641626,2.0880532,-5.1371288e-08,1.2035016e-08,0.0010096165,-0.19622608,-0.033539042,0.70636225,-0.13713557,-8.561881e-06,2.005836e-06,0.0018587112,-0.027229076,-0.035957117,0.06297696,0.0018765619,0.0,488.09784,0.20282984,3.9324338,0.34452525,0.83648676,0.1052551,inf,inf,inf,inf,0,1,0,1,1,2,1,1,0,0,1,1,0,0,1
48100000,48100000,4204000,47.3977508,8.5456073,-0.52441794,-0.11387151,2.0493648,-5.1371288e-08,1.2035016e-08,0.0010096165,-0.19780865,-0.03475591,0.64693546,-0.15281145,-8.561881e-06,2.005836e-06,0.0018587112,-0.027957764,-0.038415648,0.040432435,0.0020985554,0.0,488.09784,0.24151826,3.834906,0.34839657,0.8181224,0.10960937,inf,inf,inf,inf,0,1,0,1,1,2,1,1,0,0,1,1,0,0,1
48604000,48604000,4204000,47.3977508,8.5456073,-0.51693255,-0.11129978,2.0049388,-5.1371288e-08,1.2035016e-08,0.0010096165,-0.19879994,-0.036010098,0.5885386,-0.15792981,-8.561881e-06,2.005836e-06,0.0018587112,-0.017845508,-0.019123064,0.04921015,0.0021310733,0.0,488.09784,0.28594422,3.8898556,0.33398008,0.82302403,0.11182237,inf,inf,inf,inf,0,1,0,1,1,2,1,1,0,0,1,1,0,0,1
49100000,49100000,4204000,47.3977508,8.5456073,-0.51580596,-0.10948544,1.8979352,-5.1371288e-08,1.2035016e-08,0.0010096165,-0.1990892,-0.032423012,0.5189812,-0.22563684,-8.561881e-06,2.005836e-06,0.0018587112,-0.04448161,0.003324414,0.054093074,0.0024725427,0.0,488.09784,0.3929479,3.9394176,0.3390209,0.82726157,0.117342405,inf,inf,inf,inf,0,1,0,1,1,2,1,1,0,0,1,1,0,0,1
49604000,49604000,4204000,47.3977508,8.5456073,-0.51050407,-0.1048827,1.7958319,-5.1371288e-08,1.2035016e-08,0.0010096165,-0.19948705,-0.027377814,0.45289567,-0.26685575,-8.561881e-06,2.005836e-06,0.0018587112,-0.082967445,-0.00022140738,0.024173407,0.00253766,0.0,488.09784,0.49505115,3.8475492,0.3479368,0.81062996,0.123436764,inf,inf,inf,inf,0,1,0,1,1,2,1,1,0,0,1,1,0,0,1
50100000,50100000,4204000,47.3977508,8.5456073,-0.51081896,-0.097552106,1.7027898,-5.1371288e-08,1.2035016e-08,0.0010096165,-0.19854197,-0.017453035,0.3879789,-0.28355736,-8.561881e-06,2.005836e-06,0.0018587112,-0.04698921,0.013531534,0.012762844,0.0024115946,0.0,488.09784,0.5880933,3.89621,0.35773662,0.8152359,0.12915426,inf,inf,inf,inf,0,1,0,1,1,2,1,1,0,0,1,1,0,0,1
50604000,50604000,4204000,47.3977508,8.5456073,-0.07101893,-0.017074585,1.3731377,-5.1371288e-08,1.2035016e-08,0.0010096165,-0.055609435,0.0042339233,0.21431541,-0.5797285,-8.561881e-06,2.005836e-06,0.0018587112,0.005921916,0.013664423,0.0076098363,0.0023739943,0.0,488.09784,0.1,0.014959551,0.30069077,0.1016436,0.09798373,inf,inf,inf,inf,0,1,0,1,1,2,1,1,0,0,1,1,0,0,1
51100000,51100000,4204000,47.3977508,8.5456073,0.06697903,0.015209277,1.0428194,-5.1371288e-08,1.2035016e-08,0.0010096165,0.013711659,0.0063394667,0.06999549,-0.6973182,-8.561881e-06,2.005836e-06,0.0018587112,0.017872531,-0.022083832,-0.024251638,0.0025701982,0.0,488.09784,0.15091884,0.01941534,0.28483126,0.09620154,0.0873293,inf,inf,inf,inf,0,1,0,1,1,2,1,1,0,0,1,1,0,0,1
51604000,51604000,4204000,47.3977508,8.5456073,0.08202049,0.015654352,0.88062197,-5.1371288e-08,1.2035016e-08,0.0010096165,0.025249438,0.00054013496,-0.0005324604,-0.58714455,-8.561881e-06,2.005836e-06,0.0018587112,0.010584117,0.009674462,-0.04502665,0.0026672448,0.0,488.09784,0.22076923,0.022398243,0.2696325,0.074204296,0.07684647,inf,inf,inf,inf,0,1,0,1,1,2,1,1,0,0,1,1,0,0,1
52100000,52100000,4204000,47.3977508,8.5456073,0.07001641,0.013065983,0.80399877,-5.1371288e-08,1.2035016e-08,0.0010096165,0.018298848,0.0032166815,-0.031714153,-0.4395658,-8.561881e-06,2.005836e-06,0.0018587112,0.016555786,-0.00010899384,-0.01979619,0.002637003,0.0,488.09784,0.24367565,0.013539681,0.26271886,0.043422095,0.07582878,inf,inf,inf,inf,0,1,0,1,1,2,1,1,0,0,1,1,0,0,1
52604000,52604000,4204000,47.3977508,8.5456073,0.055077016,0.010917624,0.75915295,-5.1371288e-08,1.2035016e-08,0.0010096165,0.014494597,0.0019538733,-0.046673603,-0.316485,-8.561881e-06,2.005836e-06,0.0018587112,0.017508587,-0.0034000329,-0.016122123,0.002835508,0.0,488.09784,0.18586749,0.015625443,0.24695589,0.043085366,0.07113287,inf,inf,inf,inf,0,1,0,1,1,2,1,1,0,0,1,1,0,0,1
53100000,53100000,4204000,47.3977508,8.5456073,0.04344718,0.009120329,0.7162448,-5.1371288e-08,1.2035016e-08,0.0010096165,0.012873137,0.004843983,-0.051953137,-0.24039216,-8.561881e-06,2.005836e-06,0.0018587112,0.010893665,0.02652699,-0.045814548,0.0030757582,0.0,488.09784,0.19194263,0.011443133,0.24386181,0.035052348,0.072481975,inf,inf,inf,inf,0,1,0,1,1,2,1,1,0,0,1,1,0,0,1
