timestamp,timestamp_sample,time_utc_usec,device_id,lat,lon,alt,alt_ellipsoid,s_variance_m_s,c_variance_rad,eph,epv,hdop,vdop,noise_per_ms,jamming_indicator,vel_m_s,vel_n_m_s,vel_e_m_s,vel_d_m_s,cog_rad,timestamp_time_relative,heading,heading_offset,heading_accuracy,rtcm_injection_rate,automatic_gain_control,fix_type,jamming_state,vel_ned_valid,satellites_used,selected_rtcm_instance
3804000,0,1698223809071345,0,473977508,85456074,488111,488111,0.25,0.5,1.0,1.0,0.0,0.0,0,0,0.0,0.0,0.0,-0.02,0.84648466,0,nan,nan,0.0,0.0,0,3,0,1,10,0
4604000,0,1698223809871345,0,473977508,85456074,488102,488102,0.25,0.5,1.0,1.0,0.0,0.0,0,0,0.0,0.02,0.01,-0.04,0.5337217,0,nan,nan,0.0,0.0,0,3,0,1,10,0
5804000,0,1698223811071345,0,473977508,85456074,488103,488103,0.25,0.5,1.0,1.0,0.0,0.0,0,0,0.0,0.0,0.01,-0.02,2.0909042,0,nan,nan,0.0,0.0,0,3,0,1,10,0
6604000,0,1698223811871345,0,473977508,85456074,488109,488109,0.25,0.5,1.0,1.0,0.0,0.0,0,0,0.0,-0.01,-0.01,-0.01,3.7323864,0,nan,nan,0.0,0.0,0,3,0,1,10,0
7804000,0,1698223813071345,0,473977508,85456074,488102,488102,0.25,0.5,1.0,1.0,0.0,0.0,0,0,0.0,0.01,0.0,0.02,6.1915555,0,nan,nan,0.0,0.0,0,3,0,1,10,0
8604000,0,1698223813871345,0,473977508,85456074,488103,488103,0.25,0.5,1.0,1.0,0.0,0.0,0,0,0.0,-0.02,0.0,0.049999997,3.0592132,0,nan,nan,0.0,0.0,0,3,0,1,10,0
9804000,0,1698223815071345,0,473977508,85456074,488092,488092,0.25,0.5,1.0,1.0,0.0,0.0,0,0,0.0,-0.02,0.01,-0.03,2.5197318,0,nan,nan,0.0,0.0,0,3,0,1,10,0
10608000,0,1698223815871345,0,473977508,85456074,488096,488096,0.25,0.5,1.0,1.0,0.0,0.0,0,0,0.0,0.0,0.0,0.02,2.4808109,0,nan,nan,0.0,0.0,0,3,0,1,10,0
11804000,0,1698223817071345,0,473977507,85456074,488110,488110,0.25,0.5,1.0,1.0,0.0,0.0,0,0,0.0,0.0,0.0,0.0,2.5560346,0,nan,nan,0.0,0.0,0,3,0,1,10,0
12604000,0,1698223817871345,0,473977508,85456074,488103,488103,0.25,0.5,1.0,1.0,0.0,0.0,0,0,0.0,-0.01,0.01,-0.03,2.3366466,0,nan,nan,0.0,0.0,0,3,0,1,10,0
13804000,0,1698223819071345,0,473977508,85456075,488110,488110,0.25,0.5,1.0,1.0,0.0,0.0,0,0,0.0,-0.01,0.0,-0.01,2.7277749,0,nan,nan,0.0,0.0,0,3,0,1,10,0
14604000,0,1698223819871345,0,473977508,85456074,488107,488107,0.25,0.5,1.0,1.0,0.0,0.0,0,0,0.0,0.01,-0.01,0.0,5.3831186,0,nan,nan,0.0,0.0,0,3,0,1,10,0
15804000,0,1698223821071345,0,473977508,85456073,488099,488099,0.25,0.5,1.0,1.0,0.0,0.0,0,0,0.0,0.0,0.0,-0.01,0.9061749,0,nan,nan,0.0,0.0,0,3,0,1,10,0
16604000,0,1698223821875345,0,473977508,85456074,488099,488099,0.25,0.5,1.0,1.0,0.0,0.0,0,0,0.0,0.0,0.0,-0.01,5.1710615,0,nan,nan,0.0,0.0,0,3,0,1,10,0
17804000,0,1698223823071345,0,473977508,85456074,488107,488107,0.25,0.5,1.0,1.0,0.0,0.0,0,0,0.0,-0.02,-0.01,-0.089999996,3.6737432,0,nan,nan,0.0,0.0,0,3,0,1,10,0
18604000,0,1698223823875345,0,473977498,85456061,488330,488330,0.25,0.5,1.0,1.0,0.0,0.0,0,0,0.26,-0.19,-0.17,-0.61,3.8695693,0,nan,nan,0.0,0.0,0,3,0,1,10,0
19804000,0,1698223825071345,0,473977489,85456049,489110,489110,0.25,0.5,1.0,1.0,0.0,0.0,0,0,0.04,0.06,0.01,-0.71999997,0.16528267,0,nan,nan,0.0,0.0,0,3,0,1,10,0
20604000,0,1698223825875345,0,473977497,85456053,489710,489710,0.25,0.5,1.0,1.0,0.0,0.0,0,0,0.26999998,0.26999998,-0.089999996,-0.96999997,5.9362135,0,nan,nan,0.0,0.0,0,3,0,1,10,0
21804000,0,1698223827071345,0,473977564,85455985,491033,491033,0.25,0.5,1.0,1.0,0.0,0.0,0,0,0.91999996,0.71999997,-0.57,-1.0699999,5.610535,0,nan,nan,0.0,0.0,0,3,0,1,10,0
22604000,0,1698223827875345,0,473977587,85455959,491839,491839,0.25,0.5,1.0,1.0,0.0,0.0,0,0,0.29,-0.21,0.22,-0.71999997,2.3251276,0,nan,nan,0.0,0.0,0,3,0,1,10,0
23804000,0,1698223829071345,0,473977494,85456084,492062,492062,0.25,0.5,1.0,1.0,0.0,0.0,0,0,1.67,-1.1999999,1.15,0.47,2.3771384,0,nan,nan,0.0,0.0,0,3,0,1,10,0
24604000,0,1698223829875345,0,473977409,85456204,491368,491368,0.25,0.5,1.0,1.0,0.0,0.0,0,0,1.4699999,-1.05,1.02,1.18,2.3710296,0,nan,nan,0.0,0.0,0,3,0,1,10,0
25804000,0,1698223831071345,0,473977332,85456329,489650,489650,0.25,0.5,1.0,1.0,0.0,0.0,0,0,0.64,-0.37,0.51,1.52,2.1978931,0,nan,nan,0.0,0.0,0,3,0,1,10,0
26600000,0,1698223831875345,0,473977324,85456363,488387,488387,0.25,0.5,1.0,1.0,0.0,0.0,0,0,0.19,0.13,0.14999999,1.4599999,0.83775806,0,nan,nan,0.0,0.0,0,3,0,1,10,0
27804000,0,1698223833071345,0,473977327,85456365,488092,488092,0.25,0.5,1.0,1.0,0.0,0.0,0,0,0.0,0.0,0.02,0.01,1.2444197,0,nan,nan,0.0,0.0,0,3,0,1,10,0
28604000,0,1698223833875345,0,473977327,85456365,488098,488098,0.25,0.5,1.0,1.0,0.0,0.0,0,0,0.0,0.01,0.0,-0.01,0.42917645,0,nan,nan,0.0,0.0,0,3,0,1,10,0
29804000,0,1698223835071345,0,473977327,85456365,488100,488100,0.25,0.5,1.0,1.0,0.0,0.0,0,0,0.0,0.0,0.0,0.01,6.065019,0,nan,nan,0.0,0.0,0,3,0,1,10,0
30604000,0,1698223835875345,0,473977328,85456363,488144,488144,0.25,0.5,1.0,1.0,0.0,0.0,0,0,0.08,0.03,-0.07,-0.17999999,5.152386,0,nan,nan,0.0,0.0,0,3,0,1,10,0
31804000,0,1698223837071345,0,473977482,85456148,489248,489248,0.25,0.5,1.0,1.0,0.0,0.0,0,0,2.62,1.8299999,-1.86,-1.4499999,5.4892344,0,nan,nan,0.0,0.0,0,3,0,1,10,0
32604000,0,1698223837871345,0,473977564,85456000,490201,490201,0.25,0.5,1.0,1.0,0.0,0.0,0,0,0.95,0.51,-0.79999995,-0.93,5.2790976,0,nan,nan,0.0,0.0,0,3,0,1,10,0
33804000,0,1698223839075345,0,473977556,85455983,490963,490963,0.25,0.5,1.0,1.0,0.0,0.0,0,0,0.56,-0.39999998,0.35,-0.38,2.4178045,0,nan,nan,0.0,0.0,0,3,0,1,10,0
34604000,0,1698223839871345,0,473977524,85456033,491219,491219,0.25,0.5,1.0,1.0,0.0,0.0,0,0,0.64,-0.38,0.48999998,-0.21,2.2408283,0,nan,nan,0.0,0.0,0,3,0,1,10,0
35804000,0,1698223841075345,0,473977495,85456094,491356,491356,0.25,0.5,1.0,1.0,0.0,0.0,0,0,0.25,-0.11,0.24,0.0,2.003987,0,nan,nan,0.0,0.0,0,3,0,1,10,0
36604000,0,1698223841871345,0,473977493,85456107,491358,491358,0.25,0.5,1.0,1.0,0.0,0.0,0,0,0.04,0.02,0.03,0.06,0.89866996,0,nan,nan,0.0,0.0,0,3,0,1,10,0
37804000,0,1698223843075345,0,473977501,85456102,491247,491247,0.25,0.5,1.0,1.0,0.0,0.0,0,0,0.11,0.089999996,-0.06,0.12,5.658008,0,nan,nan,0.0,0.0,0,3,0,1,10,0
38604000,0,1698223843871345,0,473977507,85456095,491147,491147,0.25,0.5,1.0,1.0,0.0,0.0,0,0,0.099999994,0.089999996,-0.049999997,0.16,5.803045,0,nan,nan,0.0,0.0,0,3,0,1,10,0
39804000,0,1698223845075345,0,473977515,85456088,491001,491001,0.25,0.5,1.0,1.0,0.0,0.0,0,0,0.06,0.049999997,-0.01,0.099999994,5.9269633,0,nan,nan,0.0,0.0,0,3,0,1,10,0
40604000,0,1698223845871345,0,473977519,85456085,490905,490905,0.25,0.5,1.0,1.0,0.0,0.0,0,0,0.06,0.06,-0.01,0.089999996,5.9788,0,nan,nan,0.0,0.0,0,3,0,1,10,0
41804000,0,1698223847075345,0,473977525,85456080,490822,490822,0.25,0.5,1.0,1.0,0.0,0.0,0,0,0.06,0.04,-0.02,0.049999997,5.8402205,0,nan,nan,0.0,0.0,0,3,0,1,10,0
42604000,0,1698223847871345,0,473977528,85456078,490765,490765,0.25,0.5,1.0,1.0,0.0,0.0,0,0,0.04,0.03,-0.01,0.04,5.7704077,0,nan,nan,0.0,0.0,0,3,0,1,10,0
43804000,0,1698223849075345,0,473977531,85456077,490719,490719,0.25,0.5,1.0,1.0,0.0,0.0,0,0,0.01,0.01,-0.01,0.04,5.533566,0,nan,nan,0.0,0.0,0,3,0,1,10,0
44604000,0,1698223849871345,0,473977532,85456076,490701,490701,0.25,0.5,1.0,1.0,0.0,0.0,0,0,0.0,0.01,0.0,0.01,5.8283525,0,nan,nan,0.0,0.0,0,3,0,1,10,0
45804000,0,1698223851075345,0,473977531,85456074,490681,490681,0.25,0.5,1.0,1.0,0.0,0.0,0,0,0.02,-0.01,0.0,-0.01,3.1134927,0,nan,nan,0.0,0.0,0,3,0,1,10,0
46604000,0,1698223851871345,0,473977528,85456073,490683,490683,0.25,0.5,1.0,1.0,0.0,0.0,0,0,0.03,-0.02,0.01,-0.01,2.6841416,0,nan,nan,0.0,0.0,0,3,0,1,10,0
47804000,0,1698223853075345,0,473977526,85456072,490683,490683,0.25,0.5,1.0,1.0,0.0,0.0,0,0,0.01,-0.02,-0.04,-0.02,4.2936845,0,nan,nan,0.0,0.0,0,3,0,1,10,0
48604000,0,1698223853871345,0,473977525,85456072,490668,490668,0.25,0.5,1.0,1.0,0.0,0.0,0,0,0.0,0.0,-0.03,0.03,4.92113,0,nan,nan,0.0,0.0,0,3,0,1,10,0
49804000,0,1698223855075345,0,473977523,85456073,490704,490704,0.25,0.5,1.0,1.0,0.0,0.0,0,0,0.01,-0.01,0.0,-0.01,2.5884976,0,nan,nan,0.0,0.0,0,3,0,1,10,0
50604000,0,1698223855871345,0,473977519,85456071,490803,490803,0.25,0.5,1.0,1.0,0.0,0.0,0,0,0.25,-0.24,-0.02,-0.39,3.2299063,0,nan,nan,0.0,0.0,0,3,0,1,10,0
51804000,0,1698223857075345,0,473977432,85456071,491709,491709,0.25,0.5,1.0,1.0,0.0,0.0,0,0,1.12,-1.11,0.01,-0.87,3.1272807,0,nan,nan,0.0,0.0,0,3,0,1,10,0
52608000,0,1698223857871345,0,473977364,85456073,492332,492332,0.25,0.5,1.0,1.0,0.0,0.0,0,0,0.62,-0.62,0.01,-0.59,3.1201248,0,nan,nan,0.0,0.0,0,3,0,1,10,0
53804000,0,1698223859075345,0,473977380,85456076,492417,492417,0.25,0.5,1.0,1.0,0.0,0.0,0,0,0.9,0.87,0.0,0.55,6.2812653,0,nan,nan,0.0,0.0,0,3,0,1,10,0
54604000,0,1698223859871345,0,473977474,85456073,491616,491616,0.25,0.5,1.0,1.0,0.0,0.0,0,0,1.64,1.63,-0.02,1.42,6.267128,0,nan,nan,0.0,0.0,0,3,0,1,10,0
55804000,0,1698223861075345,0,473977681,85456063,489399,489399,0.25,0.5,1.0,1.0,0.0,0.0,0,0,2.23,2.22,-0.06,2.27,6.2543874,0,nan,nan,0.0,0.0,0,3,0,1,10,0
56604000,0,1698223861871345,0,473977837,85456058,488105,488105,0.25,0.5,1.0,1.0,0.0,0.0,0,0,1.0,0.98999995,0.13,-0.01,0.13404128,0,nan,nan,0.0,0.0,0,3,0,1,10,0
57804000,0,1698223863075345,0,473977848,85456058,488098,488098,0.25,0.5,1.0,1.0,0.0,0.0,0,0,0.0,0.01,0.0,-0.01,0.42533672,0,nan,nan,0.0,0.0,0,3,0,1,10,0
58604000,0,1698223863871345,0,473977847,85456058,488105,488105,0.25,0.5,1.0,1.0,0.0,0.0,0,0,0.0,-0.01,0.02,0.049999997,2.0781636,0,nan,nan,0.0,0.0,0,3,0,1,10,0
59804000,0,1698223865075345,0,473977848,85456058,488107,488107,0.25,0.5,1.0,1.0,0.0,0.0,0,0,0.0,0.01,0.0,0.02,6.0550704,0,nan,nan,0.0,0.0,0,3,0,1,10,0
60604000,0,1698223865871345,0,473977848,85456058,488112,488112,0.25,0.5,1.0,1.0,0.0,0.0,0,0,0.0,0.02,0.0,-0.01,0.28187066,0,nan,nan,0.0,0.0,0,3,0,1,10,0
61804000,0,1698223867075345,0,473977848,85456059,488126,488126,0.25,0.5,1.0,1.0,0.0,0.0,0,0,0.01,0.0,0.01,-0.01,1.7477727,0,nan,nan,0.0,0.0,0,3,0,1,10,0
62604000,0,1698223867871345,0,473977853,85456062,488137,488137,0.25,0.5,1.0,1.0,0.0,0.0,0,0,0.26999998,0.19999999,0.14999999,-0.03,0.6473426,0,nan,nan,0.0,0.0,0,3,0,1,10,0
63804000,0,1698223869075345,0,473977875,85456108,488114,488114,0.25,0.5,1.0,1.0,0.0,0.0,0,0,0.0,0.0,0.0,-0.02,5.01852,0,nan,nan,0.0,0.0,0,3,0,1,10,0
64604000,0,1698223869871345,0,473977875,85456109,488107,488107,0.25,0.5,1.0,1.0,0.0,0.0,0,0,0.0,-0.03,-0.03,0.04,3.9404297,0,nan,nan,0.0,0.0,0,3,0,1,10,0
65804000,0,1698223871075345,0,473977875,85456108,488100,488100,0.25,0.5,1.0,1.0,0.0,0.0,0,0,0.0,0.0,-0.01,0.01,4.886922,0,nan,nan,0.0,0.0,0,3,0,1,10,0
66604000,0,1698223871871345,0,473977875,85456108,488105,488105,0.25,0.5,1.0,1.0,0.0,0.0,0,0,0.0,0.01,0.0,-0.03,5.6328754,0,nan,nan,0.0,0.0,0,3,0,1,10,0
67804000,0,1698223873075345,0,473977875,85456109,488096,488096,0.25,0.5,1.0,1.0,0.0,0.0,0,0,0.0,0.0,0.0,-0.01,1.1623893,0,nan,nan,0.0,0.0,0,3,0,1,10,0
68604000,0,1698223873871345,0,473977875,85456108,488101,488101,0.25,0.5,1.0,1.0,0.0,0.0,0,0,0.0,-0.01,-0.01,-0.01,3.7254052,0,nan,nan,0.0,0.0,0,3,0,1,10,0
69804000,0,1698223875075345,0,473977875,85456108,488106,488106,0.25,0.5,1.0,1.0,0.0,0.0,0,0,0.0,0.0,0.01,0.0,1.8338175,0,nan,nan,0.0,0.0,0,3,0,1,10,0
70604000,0,1698223875871345,0,473977875,85456108,488099,488099,0.25,0.5,1.0,1.0,0.0,0.0,0,0,0.0,0.0,-0.01,-0.01,4.2010074,0,nan,nan,0.0,0.0,0,3,0,1,10,0
71804000,0,1698223877075345,0,473977875,85456108,488114,488114,0.25,0.5,1.0,1.0,0.0,0.0,0,0,0.0,0.02,-0.01,-0.01,5.8850756,0,nan,nan,0.0,0.0,0,3,0,1,10,0
72604000,0,1698223877871345,0,473977875,85456108,488099,488099,0.25,0.5,1.0,1.0,0.0,0.0,0,0,0.0,0.01,0.0,0.0,6.270968,0,nan,nan,0.0,0.0,0,3,0,1,10,0
73804000,0,1698223879075345,0,473977875,85456108,488110,488110,0.25,0.5,1.0,1.0,0.0,0.0,0,0,0.0,0.02,0.01,-0.01,0.4087561,0,nan,nan,0.0,0.0,0,3,0,1,10,0
74604000,0,1698223879871345,0,473977875,85456108,488100,488100,0.25,0.5,1.0,1.0,0.0,0.0,0,0,0.0,-0.01,0.0,-0.04,2.601762,0,nan,nan,0.0,0.0,0,3,0,1,10,0
75804000,0,1698223881075345,0,473977875,85456109,488100,488100,0.25,0.5,1.0,1.0,0.0,0.0,0,0,0.0,0.0,-0.01,-0.02,4.804193,0,nan,nan,0.0,0.0,0,3,0,1,10,0
76604000,0,1698223881871345,0,473977875,85456109,488100,488100,0.25,0.5,1.0,1.0,0.0,0.0,0,0,0.0,0.02,0.0,0.04,6.1505404,0,nan,nan,0.0,0.0,0,3,0,1,10,0
77804000,0,1698223883075345,0,473977875,85456108,488105,488105,0.25,0.5,1.0,1.0,0.0,0.0,0,0,0.0,0.01,-0.01,-0.02,5.475272,0,nan,nan,0.0,0.0,0,3,0,1,10,0
78604000,0,1698223883871345,0,473977875,85456108,488108,488108,0.25,0.5,1.0,1.0,0.0,0.0,0,0,0.0,0.0,0.01,0.02,1.876578,0,nan,nan,0.0,0.0,0,3,0,1,10,0
79804000,0,1698223885075345,0,473977875,85456108,488104,488104,0.25,0.5,1.0,1.0,0.0,0.0,0,0,0.0,-0.01,0.01,0.03,2.538232,0,nan,nan,0.0,0.0,0,3,0,1,10,0
80604000,0,1698223885871345,0,473977875,85456108,488107,488107,0.25,0.5,1.0,1.0,0.0,0.0,0,0,0.0,0.0,0.01,-0.01,1.065698,0,nan,nan,0.0,0.0,0,3,0,1,10,0
81800000,0,1698223887075345,0,473977854,85456136,488272,488272,0.25,0.5,1.0,1.0,0.0,0.0,0,0,1.16,-1.12,0.35999998,-0.01,2.82499,0,nan,nan,0.0,0.0,0,3,0,1,10,0
82604000,0,1698223887871345,0,473977743,85456102,488106,488106,0.25,0.5,1.0,1.0,0.0,0.0,0,0,0.0,0.0,0.0,-0.01,0.70581114,0,nan,nan,0.0,0.0,0,3,0,1,10,0
83804000,0,1698223889075345,0,473977743,85456101,488096,488096,0.25,0.5,1.0,1.0,0.0,0.0,0,0,0.0,0.0,0.0,-0.01,2.314481,0,nan,nan,0.0,0.0,0,3,0,1,10,0
84604000,0,1698223889871345,0,473977743,85456101,488090,488090,0.25,0.5,1.0,1.0,0.0,0.0,0,0,0.0,0.0,0.0,-0.03,0.43860123,0,nan,nan,0.0,0.0,0,3,0,1,10,0
85804000,0,1698223891075345,0,473977743,85456102,488095,488095,0.25,0.5,1.0,1.0,0.0,0.0,0,0,0.0,0.01,0.01,0.0,0.8981464,0,nan,nan,0.0,0.0,0,3,0,1,10,0
86604000,0,1698223891871345,0,473977743,85456101,488105,488105,0.25,0.5,1.0,1.0,0.0,0.0,0,0,0.0,-0.01,0.0,0.02,3.0529299,0,nan,nan,0.0,0.0,0,3,0,1,10,0
87804000,0,1698223893075345,0,473977742,85456102,488102,488102,0.25,0.5,1.0,1.0,0.0,0.0,0,0,0.0,0.0,0.01,0.0,1.4693925,0,nan,nan,0.0,0.0,0,3,0,1,10,0
88604000,0,1698223893871345,0,473977743,85456102,488103,488103,0.25,0.5,1.0,1.0,0.0,0.0,0,0,0.0,0.01,0.01,0.03,0.99117243,0,nan,nan,0.0,0.0,0,3,0,1,10,0
89804000,0,1698223895075345,0,473977743,85456102,488091,488091,0.25,0.5,1.0,1.0,0.0,0.0,0,0,0.0,0.0,-0.01,0.01,4.256509,0,nan,nan,0.0,0.0,0,3,0,1,10,0
90604000,0,1698223895871345,0,473977743,85456102,488102,488102,0.25,0.5,1.0,1.0,0.0,0.0,0,0,0.0,0.01,0.0,-0.02,6.1725316,0,nan,nan,0.0,0.0,0,3,0,1,10,0
91804000,0,1698223897075345,0,473977743,85456102,488097,488097,0.25,0.5,1.0,1.0,0.0,0.0,0,0,0.0,0.0,0.0,0.0,3.6276667,0,nan,nan,0.0,0.0,0,3,0,1,10,0
92604000,0,1698223897871345,0,473977743,85456101,488106,488106,0.25,0.5,1.0,1.0,0.0,0.0,0,0,0.0,0.02,-0.01,-0.04,5.6691785,0,nan,nan,0.0,0.0,0,3,0,1,10,0
93804000,0,1698223899075345,0,473977743,85456102,488094,488094,0.25,0.5,1.0,1.0,0.0,0.0,0,0,0.0,0.0,0.0,-0.02,0.48694685,0,nan,nan,0.0,0.0,0,3,0,1,10,0
94604000,0,1698223899871345,0,473977743,85456101,488116,488116,0.25,0.5,1.0,1.0,0.0,0.0,0,0,0.0,-0.03,0.0,-0.03,2.8647833,0,nan,nan,0.0,0.0,0,3,0,1,10,0
95804000,0,1698223901075345,0,473977743,85456102,488107,488107,0.25,0.5,1.0,1.0,0.0,0.0,0,0,0.0,-0.01,0.0,0.01,3.3941417,0,nan,nan,0.0,0.0,0,3,0,1,10,0
96604000,0,1698223901871345,0,473977743,85456102,488112,488112,0.25,0.5,1.0,1.0,0.0,0.0,0,0,0.0,0.0,-0.01,0.0,4.9780283,0,nan,nan,0.0,0.0,0,3,0,1,10,0
97804000,0,1698223903075345,0,473977743,85456101,488103,488103,0.25,0.5,1.0,1.0,0.0,0.0,0,0,0.0,0.0,0.02,0.01,1.4159856,0,nan,nan,0.0,0.0,0,3,0,1,10,0
98604000,0,1698223903871345,0,473977743,85456102,488102,488102,0.25,0.5,1.0,1.0,0.0,0.0,0,0,0.0,-0.01,-0.01,0.0,4.037994,0,nan,nan,0.0,0.0,0,3,0,1,10,0
