timestamp,timestamp_sample,device_id,magnetometer_ga[0],magnetometer_ga[1],magnetometer_ga[2],calibration_count
3228000,3171272,197388,0.007996431,-0.21444094,0.42801628,0
3244000,3244000,197388,0.008166994,-0.22039428,0.43158716,0
3372000,3315272,197388,0.010598248,-0.21693356,0.4284595,0
3388000,3388000,197388,0.011967629,-0.21971911,0.4251026,0
3516000,3458545,197388,0.009036914,-0.21455501,0.42861542,0
3532000,3532000,197388,0.010543971,-0.20994367,0.42719194,0
3664000,3602909,197388,0.010410568,-0.21695079,0.42939433,0
3676000,3676000,197388,0.0057816585,-0.21710347,0.42763993,0
3808000,3746545,197388,0.010181616,-0.21698053,0.4298451,0
3820000,3820000,197388,0.011510726,-0.2147896,0.43202254,0
3948000,3890909,197388,0.012829329,-0.21585974,0.42937678,0
3964000,3964000,197388,0.012440238,-0.21378548,0.42928588,0
4096000,4036000,197388,0.011072086,-0.21636266,0.42885065,0
4108000,4108000,197388,0.00018584289,-0.2138204,0.43316028,0
4240000,4179636,197388,0.010638248,-0.21762599,0.42827567,0
4252000,4252000,197388,0.007988659,-0.21790615,0.4313569,0
4384000,4323272,197388,0.010667568,-0.21509598,0.4290491,0
4396000,4396000,197388,0.0069457083,-0.21301103,0.42866403,0
4528000,4467636,197388,0.00996012,-0.21743734,0.42682138,0
4540000,4540000,197388,0.011253883,-0.22112648,0.43212444,0
4672000,4612000,197388,0.011719371,-0.21575904,0.43109393,0
4684000,4684000,197388,0.009117897,-0.20763583,0.4280336,0
4816000,4755636,197388,0.009458557,-0.21598476,0.42965898,0
4828000,4828000,197388,0.006182859,-0.2184627,0.42708164,0
4960000,4898545,197388,0.008360201,-0.21679224,0.42719722,0
4972000,4972000,197388,0.009596094,-0.21596369,0.43175364,0
5104000,5042909,197388,0.01092976,-0.2169028,0.42897668,0
5116000,5116000,197388,0.009485276,-0.21519054,0.42982575,0
5248000,5187636,197388,0.01167665,-0.21566407,0.42925802,0
5260000,5260000,197388,0.011546331,-0.22072841,0.43010786,0
5392000,5330909,197388,0.0116070565,-0.21539879,0.42865542,0
5404000,5404000,197388,0.0074100285,-0.21907283,0.4326523,0
5532000,5474545,197388,0.009974177,-0.2154075,0.4300367,0
5548000,5548000,197388,0.00914997,-0.21418707,0.4337378,0
5680000,5618909,197388,0.008264567,-0.21669385,0.4296172,0
5692000,5692000,197388,0.010819141,-0.21261686,0.42459476,0
5824000,5762909,197388,0.010217972,-0.21504349,0.42873544,0
5836000,5836000,197388,0.0032846346,-0.21613753,0.4259216,0
5964000,5906909,197388,0.010578201,-0.21569327,0.4277828,0
5980000,5980000,197388,0.012677219,-0.2129458,0.43061733,0
6112000,6050909,197388,0.009377566,-0.21555795,0.4295962,0
6124000,6124000,197388,0.0103835715,-0.2114115,0.43213555,0
6256000,6193818,197388,0.010455714,-0.21397635,0.42883202,0
6268000,6268000,197388,0.0121272905,-0.2146567,0.4233935,0
6396000,6338545,197388,0.009512444,-0.21700124,0.42779845,0
6412000,6412000,197388,0.008531912,-0.21577391,0.43162033,0
6540000,6482545,197388,0.009389042,-0.21538566,0.430199,0
6556000,6556000,197388,0.016640246,-0.22017927,0.42320928,0
6688000,6627636,197388,0.009775368,-0.21781595,0.42862892,0
6700000,6700000,197388,0.008122162,-0.21288766,0.43265024,0
6832000,6771636,197388,0.009823802,-0.21654789,0.42986506,0
6844000,6844000,197388,0.006286981,-0.22103935,0.43089572,0
6976000,6914545,197388,0.010624965,-0.2153304,0.4291663,0
6988000,6988000,197388,0.014115975,-0.20998009,0.42945197,0
7120000,7058909,197388,0.011016251,-0.21523808,0.42936513,0
7132000,7132000,197388,0.01556722,-0.2117918,0.43176648,0
7260000,7202545,197388,0.007687406,-0.21495488,0.43075484,0
7276000,7276000,197388,0.015137452,-0.21651939,0.42763406,0
7408000,7347272,197388,0.010240224,-0.2126262,0.43266577,0
7420000,7420000,197388,0.015183165,-0.22002092,0.4347967,0
7552000,7491636,197388,0.008832464,-0.2159417,0.42984948,0
7564000,7564000,197388,0.012706193,-0.22196808,0.4292716,0
7696000,7636000,197388,0.012752166,-0.21577395,0.42867917,0
7708000,7708000,197388,0.012540931,-0.21601605,0.42573655,0
7840000,7780000,197388,0.009125622,-0.21477087,0.4277676,0
7848000,7848000,197388,0.007913508,-0.21455874,0.42960358,0
7972000,7917200,197388,0.010470627,-0.21744183,0.42934495,0
7984000,7984000,197388,0.015316819,-0.21886759,0.42928925,0
8116000,8056000,197388,0.01072466,-0.21684782,0.42785537,0
8128000,8128000,197388,0.010338107,-0.21860467,0.4327567,0
8260000,8198181,197388,0.0065237163,-0.21617487,0.4295657,0
8268000,8268000,197388,0.012313618,-0.21492128,0.43015236,0
8388000,8336400,197388,0.010461429,-0.21611643,0.4279015,0
8404000,8404000,197388,0.008198794,-0.21276331,0.42868945,0
8532000,8474909,197388,0.008597828,-0.21486348,0.43071613,0
8548000,8548000,197388,0.013859456,-0.21663918,0.4261825,0
8680000,8619272,197388,0.00885827,-0.2162616,0.42699668,0
8692000,8692000,197388,0.009697637,-0.21708962,0.4334617,0
8824000,8761818,197388,0.0101951985,-0.21650085,0.42928037,0
8836000,8836000,197388,0.0061369957,-0.21197225,0.4309753,0
8964000,8906909,197388,0.008696108,-0.21560605,0.42631072,0
8980000,8980000,197388,0.012817852,-0.20985359,0.4358544,0
9112000,9051636,197388,0.009106402,-0.21695137,0.4292605,0
9124000,9124000,197388,0.006172988,-0.21530227,0.42388856,0
9256000,9195636,197388,0.009472956,-0.21627867,0.42995447,0
9268000,9268000,197388,0.010214683,-0.21909148,0.43090725,0
9396000,9338909,197388,0.008236949,-0.21692011,0.42916116,0
9412000,9412000,197388,0.010632495,-0.21023965,0.42876405,0
9544000,9482545,197388,0.008803033,-0.21604618,0.4312148,0
9556000,9556000,197388,0.006391156,-0.21607572,0.42739695,0
9688000,9627636,197388,0.009332885,-0.2150517,0.4276697,0
9700000,9700000,197388,0.011131325,-0.22021656,0.4322163,0
9828000,9771272,197388,0.009156987,-0.21597007,0.42763725,0
9844000,9844000,197388,0.0053058416,-0.21631216,0.42225766,0
9976000,9915636,197388,0.010014792,-0.21715191,0.4300034,0
9988000,9988000,197388,0.0070475615,-0.2195546,0.43012306,0
10120000,10059636,197388,0.009483423,-0.21591738,0.42946917,0
10132000,10132000,197388,0.0074079363,-0.21580654,0.4287176,0
10260000,10202909,197388,0.009602268,-0.21522391,0.42858055,0
10276000,10276000,197388,0.010936976,-0.2198837,0.4348196,0
10408000,10348000,197388,0.011232482,-0.21468434,0.4295799,0
10420000,10420000,197388,0.006517562,-0.21519509,0.4297488,0
10552000,10491636,197388,0.009199776,-0.21565542,0.42880532,0
10564000,10564000,197388,0.010382993,-0.2196284,0.42822245,0
10692000,10634181,197388,0.008742214,-0.21515782,0.43052253,0
10708000,10708000,197388,0.006189474,-0.21731766,0.43492568,0
10836000,10779636,197388,0.009599352,-0.21453755,0.42908263,0
10852000,10852000,197388,0.0050657233,-0.22007862,0.4200129,0
10984000,10922909,197388,0.009681415,-0.21585883,0.42899168,0
10996000,10996000,197388,0.009935035,-0.21860139,0.42880306,0
11128000,11067272,197388,0.007910226,-0.2163904,0.43149266,0
11140000,11140000,197388,0.014596021,-0.21575272,0.43053237,0
11272000,11211636,197388,0.009204089,-0.2172879,0.42954344,0
11284000,11284000,197388,0.010580376,-0.21319325,0.430627,0
11416000,11354545,197388,0.010606053,-0.21565746,0.4302265,0
11428000,11428000,197388,0.0063622007,-0.21997908,0.43249002,0
11556000,11497818,197388,0.008326531,-0.2161576,0.4290384,0
11572000,11572000,197388,0.012439759,-0.21808858,0.42734718,0
11704000,11642909,197388,0.00796384,-0.21557191,0.4287931,0
11716000,11716000,197388,0.0047394955,-0.21046895,0.43090564,0
11848000,11787636,197388,0.010550304,-0.21518831,0.42915398,0
11860000,11860000,197388,0.006791645,-0.20837224,0.4268379,0
11992000,11931272,197388,0.009376818,-0.2149301,0.42762887,0
12004000,12004000,197388,0.012325154,-0.21894076,0.43350914,0
12136000,12074909,197388,0.008383048,-0.21454547,0.42854342,0
12148000,12148000,197388,0.008046853,-0.21205544,0.4341991,0
12280000,12219636,197388,0.010232125,-0.21833909,0.42822644,0
12292000,12292000,197388,0.009627463,-0.21166769,0.42874536,0
12424000,12363636,197388,0.009588019,-0.21812266,0.42917538,0
12436000,12436000,197388,0.009383806,-0.22095226,0.42776215,0
12564000,12507272,197388,0.010747833,-0.21532409,0.42817056,0
12580000,12580000,197388,0.008041191,-0.21639113,0.42485458,0
12708000,12651272,197388,0.009958986,-0.21673335,0.42835787,0
12724000,12724000,197388,0.010435935,-0.21977071,0.43272915,0
12856000,12794909,197388,0.010132879,-0.21610172,0.42753989,0
12868000,12868000,197388,0.0042620776,-0.21956435,0.4238075,0
13000000,12939636,197388,0.008131348,-0.21411884,0.4300043,0
13012000,13012000,197388,0.0040865475,-0.21612106,0.4329861,0
13140000,13083272,197388,0.009637272,-0.21605267,0.42726362,0
13156000,13156000,197388,0.014157339,-0.21609429,0.42558324,0
13288000,13227272,197388,0.009246034,-0.21670997,0.42919728,0
13300000,13300000,197388,0.0094362,-0.2184421,0.4282974,0
13432000,13370909,197388,0.009875308,-0.21731281,0.4321121,0
13444000,13444000,197388,0.017288271,-0.21723485,0.428076,0
13572000,13515272,197388,0.008014869,-0.2165024,0.4306079,0
13588000,13588000,197388,0.010460213,-0.21647914,0.42750713,0
13716000,13659272,197388,0.008570484,-0.21614704,0.4294417,0
13732000,13732000,197388,0.008726288,-0.21737084,0.42929998,0
13860000,13802909,197388,0.00979795,-0.21664712,0.4285871,0
13876000,13876000,197388,0.005862309,-0.21872327,0.43040228,0
14008000,13947636,197388,0.011396569,-0.21703109,0.4297443,0
14020000,14020000,197388,0.009404832,-0.21574947,0.427154,0
14148000,14090909,197388,0.010373279,-0.21619041,0.43006277,0
14164000,14164000,197388,0.012169753,-0.21003488,0.43679142,0
14292000,14235272,197388,0.010548416,-0.21506886,0.4276878,0
14308000,14308000,197388,0.0068363547,-0.21241124,0.42393962,0
14436000,14378909,197388,0.009346442,-0.2153499,0.42998976,0
14448000,14448000,197388,0.011133035,-0.2148266,0.42732337,0
14572000,14517600,197388,0.008694531,-0.21622701,0.4291307,0
14596000,14588000,197388,0.009534789,-0.20891032,0.42762178,0
14716000,14660400,197388,0.0100979,-0.2174412,0.4294862,0
14728000,14728000,197388,0.012053506,-0.2172936,0.42637298,0
14860000,14798545,197388,0.011501481,-0.21557048,0.4302054,0
14872000,14872000,197388,0.014440029,-0.21628104,0.43326077,0
15004000,14943636,197388,0.007511243,-0.21570866,0.43025625,0
15012000,15012000,197388,0.0053692786,-0.2047002,0.43358913,0
15136000,15081600,197388,0.010052883,-0.21537474,0.43001786,0
15156000,15152000,197388,0.010977667,-0.21318665,0.43158805,0
15268000,15219555,197388,0.009651868,-0.2154926,0.43162635,0
15304000,15290666,197388,0.012377337,-0.21566331,0.42751223,0
15412000,15362666,197388,0.01273742,-0.21369328,0.43194503,0
15436000,15430000,197388,0.011906853,-0.21878797,0.42860585,0
15556000,15500000,197388,0.010017788,-0.21593828,0.42989007,0
15568000,15568000,197388,0.013781562,-0.2116298,0.42636076,0
15700000,15639272,197388,0.010310203,-0.21605557,0.4300992,0
15708000,15708000,197388,0.009646699,-0.21811818,0.42403537,0
15828000,15776800,197388,0.009952616,-0.21510576,0.43032438,0
15844000,15844000,197388,0.0067076995,-0.21876271,0.4312534,0
15976000,15915636,197388,0.0108081745,-0.21616185,0.42891175,0
15988000,15988000,197388,0.012269305,-0.21770099,0.43848124,0
16120000,16060000,197388,0.011020788,-0.21688455,0.42985132,0
16132000,16132000,197388,0.012415813,-0.21545,0.42721823,0
16264000,16203636,197388,0.010986723,-0.21499623,0.4315176,0
16276000,16276000,197388,0.0033522502,-0.21809137,0.4306395,0
16408000,16346545,197388,0.009700426,-0.2165765,0.42907768,0
16420000,16420000,197388,0.014434003,-0.21918723,0.4288177,0
16548000,16490181,197388,0.009123242,-0.21784014,0.42761874,0
16564000,16564000,197388,0.006521849,-0.20973192,0.4261529,0
16696000,16635636,197388,0.009409093,-0.2166472,0.42888466,0
16708000,16708000,197388,0.007954849,-0.21589035,0.4293303,0
16840000,16779272,197388,0.009200491,-0.21607836,0.43074626,0
16852000,16852000,197388,0.010399752,-0.21207786,0.42802304,0
16980000,16922545,197388,0.010383037,-0.21592258,0.43006542,0
16996000,16996000,197388,0.011872633,-0.21274075,0.429107,0
17124000,17066909,197388,0.008477576,-0.21466467,0.4283203,0
17140000,17140000,197388,0.007499439,-0.2162274,0.42340806,0
17272000,17210181,197388,0.010490604,-0.214834,0.4303883,0
17284000,17284000,197388,0.004993293,-0.21905342,0.42652398,0
17412000,17354181,197388,0.010033025,-0.21614511,0.43225488,0
17428000,17428000,197388,0.001360674,-0.21296132,0.43470216,0
17556000,17498181,197388,0.008775895,-0.21542244,0.42847055,0
17572000,17572000,197388,0.01506549,-0.21938524,0.43004864,0
17700000,17642545,197388,0.0099499095,-0.21454987,0.4304694,0
17716000,17716000,197388,0.008660981,-0.20846118,0.42928317,0
17848000,17788000,197388,0.002983917,-0.2042187,0.43543786,0
17860000,17860000,197388,-0.006457584,-0.19741254,0.4428632,0
17988000,17930545,197388,-0.012286097,-0.19233179,0.44184613,0
18004000,18004000,197388,-0.020555547,-0.18988805,0.44450688,0
18132000,18074545,197388,-0.016229285,-0.1930989,0.4393793,0
18148000,18148000,197388,-0.011719808,-0.19977422,0.43732157,0
18280000,18218909,197388,-0.0016917944,-0.20524518,0.43608472,0
18292000,18292000,197388,0.0063286372,-0.20682697,0.4384174,0
18424000,18362909,197388,0.0065614353,-0.21331911,0.43051508,0
18436000,18436000,197388,0.0036041813,-0.22129922,0.42467758,0
18568000,18507272,197388,0.00853597,-0.21772537,0.42699385,0
18580000,18580000,197388,0.013214359,-0.22697988,0.42477128,0
18712000,18651636,197388,0.010275215,-0.2194171,0.42813945,0
18724000,18724000,197388,0.010891461,-0.22156121,0.42265415,0
18856000,18795272,197388,0.013333023,-0.22306064,0.42625126,0
18868000,18868000,197388,0.019930882,-0.22058682,0.42192307,0
19000000,18939272,197388,0.015027287,-0.22542514,0.4248142,0
19012000,19012000,197388,0.018627247,-0.2348704,0.4219072,0
19140000,19083272,197388,0.015879355,-0.22436433,0.42499432,0
19156000,19156000,197388,0.017479716,-0.23548064,0.4181325,0
19288000,19226909,197388,0.016481116,-0.22365859,0.42321342,0
19300000,19300000,197388,0.013304956,-0.22553895,0.41850594,0
19432000,19370909,197388,0.015576934,-0.22547373,0.42434645,0
19444000,19444000,197388,0.019678978,-0.22039084,0.426847,0
19572000,19513818,197388,0.014777496,-0.22432172,0.4239271,0
19588000,19588000,197388,0.01958814,-0.22410971,0.42750534,0
19720000,19659636,197388,0.014377638,-0.22427434,0.42471123,0
19732000,19732000,197388,0.020791328,-0.22874662,0.42758122,0
19860000,19803272,197388,0.0129895555,-0.22129638,0.42586327,0
19876000,19876000,197388,0.016006501,-0.21870185,0.4243997,0
20004000,19946545,197388,0.012141764,-0.22273235,0.42704493,0
20020000,20020000,197388,0.013524032,-0.21619007,0.4289219,0
20152000,20091272,197388,0.011622643,-0.22122529,0.42710853,0
20164000,20164000,197388,0.0044819457,-0.22721156,0.42183968,0
20292000,20234545,197388,-0.00030134927,-0.23367438,0.4208406,0
20308000,20308000,197388,-0.009293281,-0.23164544,0.4197586,0
20440000,20380000,197388,-0.013220224,-0.2416116,0.4140882,0
20452000,20452000,197388,-0.021512195,-0.24093251,0.4027144,0
20580000,20522545,197388,-0.020696973,-0.24822292,0.4121828,0
20596000,20596000,197388,-0.020971859,-0.24914563,0.40919167,0
20728000,20667272,197388,-0.023490867,-0.2528277,0.40864426,0
20740000,20740000,197388,-0.026499331,-0.2569921,0.41139537,0
20872000,20811636,197388,-0.02112624,-0.25064227,0.40659797,0
20884000,20884000,197388,-0.022788422,-0.25001374,0.41221914,0
21012000,20955272,197388,-0.016304007,-0.24805252,0.41075036,0
21028000,21028000,197388,-0.025615176,-0.2426031,0.40868506,0
21156000,21098545,197388,-0.01963395,-0.24903658,0.40934226,0
21172000,21172000,197388,-0.021515701,-0.24398789,0.41982746,0
21304000,21242909,197388,-0.016858382,-0.2388713,0.41435704,0
21316000,21316000,197388,-0.0077208513,-0.24187633,0.41746336,0
21444000,21386545,197388,-0.0075386846,-0.23184599,0.4210484,0
21460000,21460000,197388,-0.009876064,-0.23098212,0.41847086,0
21588000,21530181,197388,-0.0025444739,-0.22544639,0.42637253,0
21604000,21604000,197388,0.006145452,-0.21367213,0.42974526,0
21732000,21674909,197388,0.014424002,-0.20327492,0.43279377,0
21748000,21748000,197388,0.026560422,-0.18973865,0.4318228,0
21876000,21818909,197388,0.028590934,-0.18910544,0.44220683,0
21892000,21892000,197388,0.03142929,-0.18412542,0.44057983,0
22020000,21962909,197388,0.03701212,-0.18003738,0.44311723,0
22036000,22036000,197388,0.049123716,-0.17162913,0.4450123,0
22168000,22106181,197388,0.053896207,-0.16230197,0.44903135,0
22180000,22180000,197388,0.051581085,-0.15162429,0.4575036,0
22308000,22250181,197388,0.06472505,-0.1525313,0.45088595,0
22324000,22324000,197388,0.063319825,-0.14929649,0.45166308,0
22452000,22394181,197388,0.06757376,-0.14929852,0.45246065,0
22468000,22468000,197388,0.06908611,-0.14813806,0.449369,0
22600000,22539636,197388,0.07270138,-0.14421533,0.45192125,0
22612000,22612000,197388,0.06995287,-0.13931663,0.45548016,0
22744000,22684000,197388,0.07164103,-0.14524284,0.4517742,0
22756000,22756000,197388,0.07038711,-0.14388028,0.44582254,0
22884000,22826545,197388,0.06859841,-0.14964518,0.45195824,0
22900000,22900000,197388,0.06478288,-0.15544148,0.44898096,0
23028000,22971272,197388,0.063496895,-0.15314382,0.45155883,0
23044000,23044000,197388,0.065469556,-0.14919607,0.44342807,0
23176000,23114545,197388,0.060184535,-0.15666483,0.448406,0
23188000,23188000,197388,0.060126316,-0.16565259,0.44438753,0
23316000,23257454,197388,0.052678723,-0.16663878,0.44866073,0
23332000,23332000,197388,0.04791895,-0.16993421,0.45034936,0
23464000,23404000,197388,0.04487812,-0.17306858,0.44688126,0
23476000,23476000,197388,0.04731671,-0.17255244,0.45003536,0
23608000,23546909,197388,0.041645464,-0.17858022,0.4441356,0
23620000,23620000,197388,0.031699855,-0.18179178,0.44017944,0
23752000,23692000,197388,0.030609017,-0.1952995,0.44026288,0
23764000,23764000,197388,0.023400018,-0.1988793,0.4374853,0
23892000,23834545,197388,0.028825622,-0.19431324,0.43566713,0
23908000,23908000,197388,0.030950418,-0.19551454,0.43753362,0
24040000,23979636,197388,0.022172274,-0.2026028,0.43523282,0
24052000,24052000,197388,0.01366301,-0.2103631,0.43033773,0
24184000,24122181,197388,0.013118571,-0.21240112,0.4292912,0
24196000,24196000,197388,0.011529501,-0.21262024,0.43232,0
24328000,24266909,197388,0.014700305,-0.21072835,0.43068552,0
24340000,24340000,197388,0.019404605,-0.2097683,0.43766454,0
24472000,24411636,197388,0.010580465,-0.21593063,0.42871207,0
24484000,24484000,197388,0.009775379,-0.22345704,0.42849883,0
24616000,24554545,197388,0.0011644668,-0.2274395,0.42322537,0
24628000,24628000,197388,0.007793269,-0.22681998,0.42667273,0
24756000,24698545,197388,0.0065040365,-0.22167023,0.42600837,0
24772000,24772000,197388,0.0013000311,-0.22527827,0.42505485,0
24904000,24842909,197388,-0.0017774092,-0.23057821,0.42242905,0
24916000,24916000,197388,-0.01249803,-0.2298895,0.4170189,0
25044000,24986545,197388,-0.0040097507,-0.23349513,0.4186932,0
25060000,25060000,197388,-0.0025828555,-0.22870979,0.42067167,0
25192000,25131636,197388,0.0010145294,-0.22773802,0.42428282,0
25204000,25204000,197388,-0.0055485168,-0.22808264,0.42091772,0
25336000,25275272,197388,-0.008607069,-0.23730944,0.41921613,0
25348000,25348000,197388,-0.01050503,-0.23845364,0.41713142,0
25480000,25419636,197388,-0.009766851,-0.23450054,0.41894367,0
25492000,25492000,197388,-0.0044092713,-0.22582313,0.41676757,0
25620000,25562545,197388,-0.000398695,-0.22874278,0.42062736,0
25636000,25636000,197388,-0.0016651282,-0.23074517,0.42354974,0
25764000,25706909,197388,0.0033298647,-0.24469833,0.41474223,0
25780000,25780000,197388,0.012161365,-0.24036945,0.41640267,0
25908000,25850909,197388,0.031478234,-0.23640832,0.41671604,0
25924000,25924000,197388,0.050679516,-0.23202929,0.4264456,0
26056000,25995636,197388,0.06942157,-0.22600912,0.41804788,0
26068000,26068000,197388,0.08131012,-0.22430892,0.41484687,0
26200000,26139272,197388,0.10048171,-0.22208579,0.41264692,0
26212000,26212000,197388,0.1171639,-0.2129006,0.41070968,0
26340000,26281818,197388,0.13604482,-0.19874509,0.41218862,0
26356000,26356000,197388,0.14924823,-0.18439607,0.415166,0
26488000,26428000,197388,0.16332644,-0.19076765,0.40891647,0
26496000,26496000,197388,0.17028508,-0.18220966,0.40595874,0
26620000,26566000,197388,0.18082915,-0.17821524,0.40780124,0
26644000,26636000,197388,0.18794024,-0.16239107,0.40760967,0
26752000,26703555,197388,0.1828425,-0.12787549,0.42276403,0
26788000,26776000,197388,0.1773595,-0.11931385,0.42770833,0
26896000,26846666,197388,0.18101607,-0.11658544,0.43004945,0
26920000,26914000,197388,0.17783311,-0.118306294,0.41959435,0
27040000,26985200,197388,0.17929977,-0.1201659,0.42818147,0
27052000,27052000,197388,0.18383847,-0.11752692,0.42742926,0
27184000,27122909,197388,0.18179624,-0.119127885,0.42963597,0
27196000,27196000,197388,0.18253292,-0.118889175,0.43029717,0
27324000,27266545,197388,0.17953685,-0.11809087,0.4267373,0
27340000,27340000,197388,0.18293288,-0.12021415,0.42816502,0
27468000,27409454,197388,0.18031302,-0.12018673,0.42733514,0
27480000,27480000,197388,0.17895511,-0.12026517,0.42988098,0
27604000,27549200,197388,0.17968145,-0.1217975,0.42787695,0
27628000,27620000,197388,0.18163222,-0.11654504,0.43022045,0
27732000,27686666,197388,0.18327162,-0.120336086,0.42851514,0
27760000,27754000,197388,0.1824717,-0.11942725,0.42980695,0
27876000,27824800,197388,0.1811196,-0.11786758,0.4310064,0
27892000,27892000,197388,0.17614725,-0.12349563,0.43230683,0
28020000,27963636,197388,0.18149294,-0.12041761,0.42954454,0
28036000,28036000,197388,0.18478665,-0.119492255,0.4260153,0
28168000,28107272,197388,0.18284225,-0.119574465,0.42811656,0
28180000,28180000,197388,0.18091081,-0.11593938,0.4343452,0
28308000,28251272,197388,0.18148945,-0.11867373,0.42981592,0
28324000,28324000,197388,0.1749008,-0.117701784,0.4297416,0
28452000,28394545,197388,0.18132238,-0.11908874,0.4284542,0
28468000,28468000,197388,0.18432818,-0.120554246,0.4275383,0
28600000,28539636,197388,0.18258762,-0.12049703,0.42982432,0
28612000,28612000,197388,0.18124937,-0.120944895,0.42983878,0
28744000,28682909,197388,0.1801372,-0.12122452,0.4285362,0
28756000,28756000,197388,0.18133815,-0.11547952,0.43083477,0
28888000,28827636,197388,0.18188047,-0.11798929,0.42785645,0
28900000,28900000,197388,0.18094952,-0.12415127,0.4306629,0
29028000,28970545,197388,0.18077748,-0.120999716,0.42909092,0
29044000,29044000,197388,0.17849347,-0.116707504,0.4336354,0
29172000,29114181,197388,0.18186443,-0.11913546,0.42880064,0
29188000,29188000,197388,0.17556408,-0.112112045,0.43283007,0
29316000,29258545,197388,0.18273042,-0.12009263,0.4313469,0
29332000,29332000,197388,0.18161312,-0.12455548,0.42424917,0
29464000,29403636,197388,0.1817466,-0.11873828,0.4317846,0
29476000,29476000,197388,0.17710431,-0.11839363,0.42266273,0
29604000,29546909,197388,0.17968762,-0.1189636,0.4284355,0
29620000,29620000,197388,0.17635734,-0.11258966,0.4237613,0
29748000,29690545,197388,0.18177031,-0.12000724,0.4295136,0
29764000,29764000,197388,0.17698564,-0.112032525,0.4302582,0
29892000,29834545,197388,0.18076028,-0.1199563,0.4302141,0
29908000,29908000,197388,0.17834722,-0.11644894,0.43492776,0
30036000,29978181,197388,0.1795363,-0.12358865,0.4280505,0
30052000,30052000,197388,0.18096334,-0.121317655,0.4240825,0
30180000,30121818,197388,0.18124159,-0.13226807,0.42307338,0
30196000,30196000,197388,0.18001647,-0.13799606,0.4226121,0
30328000,30266545,197388,0.18166266,-0.15492466,0.41795662,0
30340000,30340000,197388,0.18162072,-0.16182865,0.40962368,0
30472000,30410909,197388,0.17983046,-0.18187463,0.40451255,0
30484000,30484000,197388,0.17920469,-0.19469006,0.4031823,0
30616000,30555272,197388,0.18149944,-0.2295459,0.3812982,0
30628000,30628000,197388,0.18343809,-0.25789088,0.37038648,0
30756000,30698545,197388,0.19412248,-0.28850117,0.33142424,0
30772000,30772000,197388,0.21928239,-0.3185855,0.30393773,0
30904000,30842909,197388,0.23718403,-0.31022745,0.28248516,0
30916000,30916000,197388,0.25338757,-0.29585785,0.2733095,0
31044000,30986545,197388,0.26957968,-0.2716013,0.28816792,0
31060000,31060000,197388,0.282209,-0.23351729,0.3144015,0
31192000,31130909,197388,0.28690958,-0.1633843,0.3432332,0
31204000,31204000,197388,0.2790101,-0.09404593,0.38129926,0
31336000,31275272,197388,0.25787964,-0.0062551135,0.4028916,0
31348000,31348000,197388,0.22799279,0.06165792,0.4254238,0
31476000,31418909,197388,0.19181328,0.096219555,0.43005213,0
31492000,31492000,197388,0.15420838,0.11688667,0.44363746,0
31624000,31563636,197388,0.1404669,0.12312647,0.44340217,0
31636000,31636000,197388,0.12723322,0.13481542,0.44681197,0
31764000,31706909,197388,0.11054863,0.12829329,0.44852123,0
31780000,31780000,197388,0.10510708,0.12931362,0.44884756,0
31912000,31850909,197388,0.09089643,0.13728693,0.4526927,0
31924000,31924000,197388,0.08402127,0.13792603,0.45329937,0
32056000,31994909,197388,0.07440941,0.14491777,0.45083654,0
32068000,32068000,197388,0.069366515,0.14414603,0.45757347,0
32196000,32138909,197388,0.06473519,0.15134981,0.45097727,0
32212000,32212000,197388,0.06127121,0.15776569,0.44857913,0
32344000,32283272,197388,0.06649349,0.15411603,0.4495582,0
32356000,32356000,197388,0.065835156,0.16288105,0.45271504,0
32484000,32426545,197388,0.062402207,0.15850917,0.4477218,0
32500000,32500000,197388,0.05777965,0.16139396,0.4504295,0
32628000,32570909,197388,0.06562,0.16248974,0.447473,0
32644000,32644000,197388,0.067092046,0.16304736,0.44410652,0
32776000,32715272,197388,0.07032683,0.16519868,0.44725186,0
32788000,32788000,197388,0.07150086,0.16461185,0.44893488,0
32920000,32859272,197388,0.07320103,0.16541965,0.4463206,0
32932000,32932000,197388,0.07809455,0.1695923,0.44207862,0
33064000,33003636,197388,0.07731228,0.16627821,0.44291914,0
33076000,33076000,197388,0.086634696,0.16975787,0.44067827,0
33208000,33147636,197388,0.08712625,0.16662408,0.44282386,0
33220000,33220000,197388,0.09303595,0.16831072,0.44817662,0
33348000,33290545,197388,0.092326775,0.16982898,0.44073236,0
33364000,33364000,197388,0.096991435,0.17096627,0.4382797,0
33492000,33434545,197388,0.09956805,0.16997465,0.43911415,0
33508000,33508000,197388,0.10802173,0.17152591,0.43468094,0
33636000,33578909,197388,0.1072734,0.16917203,0.43676165,0
33652000,33652000,197388,0.10755733,0.16913995,0.43673033,0
33784000,33724000,197388,0.1112237,0.17017655,0.4343997,0
33792000,33792000,197388,0.11433301,0.17624617,0.43642658,0
33916000,33860400,197388,0.11755496,0.17014699,0.43519664,0
33940000,33932000,197388,0.12405266,0.17419103,0.43488628,0
34048000,33999111,197388,0.12542512,0.17160088,0.43258792,0
34072000,34066000,197388,0.12958607,0.17079937,0.43085217,0
34192000,34137200,197388,0.12923554,0.16977547,0.43191662,0
34204000,34204000,197388,0.13051869,0.17205152,0.42669204,0
34336000,34276000,197388,0.13387746,0.1683895,0.42994878,0
34348000,34348000,197388,0.12924093,0.17081317,0.43108618,0
34480000,34420000,197388,0.13962078,0.16588342,0.42916387,0
34492000,34492000,197388,0.13871367,0.16411418,0.42932382,0
34624000,34562909,197388,0.14242996,0.16827475,0.4282356,0
34636000,34636000,197388,0.14775118,0.16825238,0.42189416,0
34768000,34706545,197388,0.14219297,0.1656407,0.42502448,0
34780000,34780000,197388,0.14603989,0.1663743,0.4314309,0
34908000,34850545,197388,0.14725646,0.16579822,0.42435393,0
34924000,34924000,197388,0.14478323,0.1645,0.42819935,0
35056000,34995272,197388,0.15061407,0.16669074,0.42544,0
35068000,35068000,197388,0.15049064,0.16153644,0.43080288,0
35196000,35139272,197388,0.15058883,0.16477007,0.42568445,0
35212000,35212000,197388,0.15147655,0.1650938,0.42758983,0
35344000,35282545,197388,0.15388782,0.16374303,0.42320538,0
35356000,35356000,197388,0.14902367,0.16330376,0.42452288,0
35484000,35426545,197388,0.15294614,0.16470666,0.4256333,0
35500000,35500000,197388,0.1530069,0.16776377,0.42146772,0
35632000,35570545,197388,0.1558587,0.16267109,0.4245055,0
35644000,35644000,197388,0.15127048,0.16605715,0.42632174,0
35772000,35715272,197388,0.15531375,0.1630888,0.42368904,0
35788000,35788000,197388,0.15447243,0.16452657,0.42395166,0
35920000,35860000,197388,0.15360777,0.16202739,0.42555422,0
35932000,35932000,197388,0.14841272,0.15945658,0.4233826,0
36060000,36002181,197388,0.15290026,0.16301808,0.4239413,0
36076000,36076000,197388,0.15545288,0.16530113,0.4249428,0
36204000,36147272,197388,0.15491237,0.16311212,0.42892435,0
36220000,36220000,197388,0.15835771,0.16231571,0.43026692,0
36352000,36291636,197388,0.15188913,0.16064715,0.42510507,0
36364000,36364000,197388,0.15188295,0.16019766,0.42531174,0
36496000,36435272,197388,0.15266277,0.16097462,0.42631346,0
36508000,36508000,197388,0.15914717,0.15322113,0.4303241,0
36636000,36578909,197388,0.15165856,0.16216634,0.424541,0
36652000,36652000,197388,0.1496799,0.1649705,0.42926475,0
36780000,36722181,197388,0.15140638,0.16061655,0.4261004,0
36796000,36796000,197388,0.15512474,0.1685223,0.42486918,0
36928000,36867636,197388,0.1488252,0.16372386,0.42679784,0
36940000,36940000,197388,0.14356188,0.15849505,0.43325263,0
37068000,37010909,197388,0.1484746,0.16130175,0.42642912,0
37084000,37084000,197388,0.15010427,0.15820912,0.4309965,0
37216000,37155636,197388,0.14821415,0.16205692,0.42529353,0
37228000,37228000,197388,0.14551662,0.16291042,0.42579618,0
37360000,37299272,197388,0.14786342,0.16411746,0.42828682,0
37372000,37372000,197388,0.14523335,0.16143727,0.43069017,0
37500000,37443272,197388,0.14849085,0.16227266,0.4275127,0
37516000,37516000,197388,0.1437758,0.15988354,0.4295559,0
37644000,37586545,197388,0.145382,0.16208974,0.4289176,0
37660000,37660000,197388,0.14385252,0.1664419,0.4271299,0
37788000,37729818,197388,0.14581569,0.16064286,0.42548895,0
37804000,37804000,197388,0.15008673,0.1601099,0.4327127,0
37932000,37874545,197388,0.14432125,0.16387627,0.430014,0
37948000,37948000,197388,0.14447348,0.15972917,0.42663506,0
38076000,38018545,197388,0.14636987,0.16412748,0.4287832,0
38092000,38092000,197388,0.1447536,0.16558193,0.42540586,0
38224000,38164000,197388,0.14415789,0.16297989,0.43018365,0
38236000,38236000,197388,0.14407063,0.15818098,0.43058968,0
38364000,38306545,197388,0.14581461,0.16209765,0.4271683,0
38380000,38380000,197388,0.14461428,0.16785823,0.43478644,0
38508000,38451272,197388,0.143772,0.16150127,0.42882395,0
38524000,38524000,197388,0.15022099,0.15710643,0.42754656,0
38652000,38594181,197388,0.14239697,0.16230701,0.42926797,0
38668000,38668000,197388,0.14568524,0.16239405,0.43173286,0
38800000,38738909,197388,0.14429648,0.16245857,0.428503,0
38812000,38812000,197388,0.1443206,0.1589864,0.43281025,0
38940000,38882545,197388,0.14291513,0.1632062,0.42890328,0
38956000,38956000,197388,0.14098209,0.162087,0.4308858,0
39084000,39026181,197388,0.14419578,0.16216256,0.42783922,0
39100000,39100000,197388,0.14218588,0.16441292,0.4211681,0
39232000,39171272,197388,0.1411757,0.16225322,0.4281248,0
39244000,39244000,197388,0.14737453,0.1638451,0.41988075,0
39376000,39315272,197388,0.14471486,0.16237164,0.42887,0
39388000,39388000,197388,0.1470444,0.16227299,0.4270624,0
39516000,39458545,197388,0.14202496,0.16614546,0.42980957,0
39532000,39532000,197388,0.15319341,0.15849085,0.4261782,0
39664000,39603636,197388,0.14347738,0.16270554,0.42760286,0
39676000,39676000,197388,0.14735065,0.15961227,0.4292198,0
39808000,39748000,197388,0.14340638,0.162505,0.42746264,0
39820000,39820000,197388,0.13809337,0.1675982,0.42675123,0
39948000,39890545,197388,0.14313762,0.16183653,0.43065333,0
39964000,39964000,197388,0.14503576,0.16767907,0.4263008,0
40096000,40034545,197388,0.14453343,0.16196057,0.42906237,0
40108000,40108000,197388,0.15282531,0.1500788,0.42497402,0
40236000,40178545,197388,0.14347243,0.16035141,0.4291212,0
40248000,40248000,197388,0.14173187,0.16753165,0.43631554,0
40372000,40316800,197388,0.14259271,0.16305397,0.42936707,0
40396000,40388000,197388,0.13858303,0.1625247,0.42676657,0
40516000,40460400,197388,0.143197,0.16598287,0.4287773,0
40528000,40528000,197388,0.14327106,0.16161984,0.4273747,0
40660000,40600000,197388,0.14385808,0.16383775,0.42798132,0
40672000,40672000,197388,0.1462341,0.16400109,0.4278566,0
40804000,40743636,197388,0.14307871,0.16290118,0.42898786,0
40816000,40816000,197388,0.1423668,0.1571295,0.4281445,0
40948000,40887272,197388,0.14382873,0.16200908,0.42976046,0
40960000,40960000,197388,0.14754836,0.164142,0.4239032,0
41092000,41031636,197388,0.14506778,0.16320269,0.42863232,0
41100000,41100000,197388,0.14511307,0.16723411,0.42809987,0
41224000,41169600,197388,0.14434132,0.16242397,0.4290262,0
41248000,41242000,197388,0.14501467,0.16557704,0.43174765,0
41368000,41313600,197388,0.1425488,0.15994185,0.42914715,0
41392000,41386000,197388,0.13721451,0.16689195,0.42999667,0
41512000,41457200,197388,0.14230159,0.16323695,0.42892757,0
41524000,41524000,197388,0.13867319,0.1648326,0.42751607,0
41656000,41595636,197388,0.14279875,0.16293927,0.43056372,0
41668000,41668000,197388,0.13970189,0.15925376,0.42792407,0
41800000,41739272,197388,0.14348556,0.16119075,0.4311097,0
41812000,41812000,197388,0.14516203,0.167941,0.43299916,0
41944000,41883272,197388,0.14344434,0.16583425,0.4290406,0
41956000,41956000,197388,0.13732238,0.16730005,0.43074417,0
42088000,42027272,197388,0.14286557,0.16103914,0.42880264,0
42100000,42100000,197388,0.14380717,0.15819028,0.43193614,0
42228000,42171272,197388,0.14310956,0.16159312,0.4309408,0
42244000,42244000,197388,0.14386702,0.16286148,0.4286978,0
42376000,42314909,197388,0.14109579,0.16439696,0.42935407,0
42388000,42388000,197388,0.13868947,0.16160074,0.43101066,0
42520000,42458909,197388,0.14380996,0.16070218,0.42934957,0
42532000,42532000,197388,0.14290032,0.16835588,0.4304376,0
42664000,42602909,197388,0.14399055,0.16384096,0.4317185,0
42676000,42676000,197388,0.14045745,0.16106434,0.424922,0
42808000,42747272,197388,0.14291659,0.16198315,0.42834505,0
42820000,42820000,197388,0.14732768,0.16137207,0.43151563,0
42952000,42891272,197388,0.14346203,0.16203937,0.42814946,0
42964000,42964000,197388,0.13856985,0.15878311,0.4287626,0
43092000,43034909,197388,0.14124028,0.16344361,0.42773795,0
43108000,43108000,197388,0.13962814,0.16473302,0.4279767,0
43240000,43179272,197388,0.14260383,0.16460387,0.42741007,0
43252000,43252000,197388,0.13330069,0.16904894,0.43510303,0
43384000,43323272,197388,0.14227116,0.16328333,0.43037203,0
43396000,43396000,197388,0.14419766,0.15783931,0.4328695,0
43528000,43466909,197388,0.1412968,0.16470571,0.42850617,0
43540000,43540000,197388,0.14032601,0.15849465,0.42772245,0
43672000,43611272,197388,0.1435423,0.16469835,0.4288924,0
43680000,43680000,197388,0.1407465,0.16734716,0.43514448,0
43804000,43749200,197388,0.14159258,0.16447522,0.43189907,0
43828000,43820000,197388,0.14184141,0.16431928,0.43347055,0
43936000,43887111,197388,0.14053462,0.16202536,0.42787796,0
43960000,43954000,197388,0.14098835,0.1647903,0.42634434,0
44080000,44025600,197388,0.1410415,0.1609817,0.42906103,0
44100000,44096000,197388,0.1409789,0.15936127,0.4341453,0
44212000,44164000,197388,0.14033735,0.15947476,0.4301652,0
44248000,44236000,197388,0.14238624,0.16302025,0.4334211,0
44356000,44307111,197388,0.14438099,0.16414428,0.42888522,0
44388000,44377333,197388,0.13803756,0.15954672,0.4287743,0
44488000,44445500,197388,0.14430706,0.16243793,0.43282107,0
44536000,44518000,197388,0.1399248,0.15996733,0.43440473,0
44628000,44589000,197388,0.14253575,0.1623345,0.43035057,0
44680000,44661000,197388,0.14272828,0.16178262,0.43451387,0
44772000,44732500,197388,0.14058939,0.16396111,0.42933846,0
44812000,44800000,197388,0.14313063,0.16234052,0.42887354,0
44916000,44870222,197388,0.14469822,0.15964086,0.4292299,0
44956000,44942666,197388,0.14111179,0.16113274,0.4285278,0
45064000,45015111,197388,0.14040947,0.16068077,0.42976698,0
45100000,45086666,197388,0.14119433,0.16247103,0.4275133,0
45204000,45158222,197388,0.14106186,0.16250125,0.4268949,0
45244000,45230666,197388,0.14135113,0.16393465,0.4279173,0
45348000,45301777,197388,0.14061983,0.16187389,0.43104067,0
45376000,45370000,197388,0.14114428,0.16122565,0.4293681,0
45492000,45440800,197388,0.14143305,0.16171177,0.4294052,0
45508000,45508000,197388,0.13872588,0.16040473,0.43553963,0
45640000,45578545,197388,0.14216724,0.1617562,0.42982858,0
45652000,45652000,197388,0.14583015,0.15853599,0.43143472,0
45780000,45722545,197388,0.14134614,0.1610473,0.43041366,0
45796000,45796000,197388,0.137726,0.1565109,0.42857155,0
45924000,45867272,197388,0.14358687,0.1624624,0.42989177,0
45940000,45940000,197388,0.13454427,0.16366161,0.4303324,0
46068000,46010545,197388,0.14317058,0.16288914,0.42986393,0
46084000,46084000,197388,0.13852614,0.15568137,0.43138114,0
46216000,46154909,197388,0.14360894,0.16260783,0.42977005,0
46228000,46228000,197388,0.1437324,0.16189069,0.42778668,0
46356000,46298909,197388,0.14184059,0.162518,0.4302937,0
46372000,46372000,197388,0.14550087,0.16258132,0.42775208,0
46500000,46442181,197388,0.14180742,0.1653121,0.4305727,0
46516000,46516000,197388,0.14349984,0.16820669,0.43535048,0
46644000,46586181,197388,0.14152327,0.16320255,0.42975593,0
46660000,46660000,197388,0.13898344,0.16624673,0.42720467,0
46792000,46731272,197388,0.14055654,0.1644526,0.42816395,0
46804000,46804000,197388,0.142585,0.1705558,0.4286959,0
46936000,46874545,197388,0.14134715,0.16228609,0.42963672,0
46948000,46948000,197388,0.14519705,0.1602909,0.43175724,0
47080000,47019272,197388,0.14105332,0.16424942,0.4286717,0
47092000,47092000,197388,0.14440541,0.1621931,0.42827478,0
47224000,47162909,197388,0.14274272,0.16273797,0.43071353,0
47236000,47236000,197388,0.1444193,0.16635306,0.42764312,0
47364000,47307272,197388,0.14274095,0.16259101,0.42973477,0
47380000,47380000,197388,0.14227079,0.16316378,0.43163124,0
47512000,47450909,197388,0.14267662,0.16358328,0.4304151,0
47524000,47524000,197388,0.14015844,0.16515814,0.4256151,0
47652000,47594909,197388,0.14239192,0.16088475,0.4306543,0
47668000,47668000,197388,0.14062338,0.1636026,0.43075004,0
47800000,47739272,197388,0.141574,0.16122429,0.42955148,0
47812000,47812000,197388,0.14278422,0.16457148,0.43442738,0
47944000,47883272,197388,0.1424766,0.1637724,0.4302504,0
47956000,47956000,197388,0.13769494,0.15915501,0.42949042,0
48084000,48027636,197388,0.1434935,0.1632379,0.4302673,0
48100000,48100000,197388,0.1362696,0.16128655,0.43290636,0
48232000,48172000,197388,0.1411075,0.16211444,0.42739457,0
48244000,48244000,197388,0.14641632,0.16514054,0.42771167,0
48372000,48314181,197388,0.14240555,0.16366656,0.42829254,0
48388000,48388000,197388,0.13925177,0.16115087,0.42779717,0
48520000,48460000,197388,0.14124754,0.16413863,0.4303491,0
48532000,48532000,197388,0.13999404,0.16226654,0.4259299,0
48664000,48603636,197388,0.14374425,0.16266403,0.43019825,0
48676000,48676000,197388,0.14236973,0.15998082,0.43087912,0
48808000,48747272,197388,0.14202784,0.16399345,0.42900428,0
48820000,48820000,197388,0.14335974,0.16344157,0.42028472,0
48952000,48891272,197388,0.1413269,0.16359347,0.42900395,0
48964000,48964000,197388,0.14147045,0.1644569,0.4320271,0
49096000,49034909,197388,0.14272082,0.16183619,0.43027437,0
49108000,49108000,197388,0.14226942,0.15880506,0.41762587,0
49236000,49178545,197388,0.14220348,0.16322307,0.4318524,0
49252000,49252000,197388,0.14222182,0.16538072,0.42747605,0
49384000,49323272,197388,0.14331344,0.16234699,0.42946973,0
49396000,49396000,197388,0.13237962,0.16147788,0.42717773,0
49524000,49466545,197388,0.14152129,0.1638283,0.43043488,0
49540000,49540000,197388,0.14093451,0.16463853,0.42279273,0
49672000,49611272,197388,0.14190175,0.16165875,0.42907408,0
49684000,49684000,197388,0.1473658,0.16154116,0.42825854,0
49812000,49755272,197388,0.14287487,0.16143131,0.42839164,0
49828000,49828000,197388,0.13706371,0.15457979,0.43283612,0
49960000,49899272,197388,0.14314453,0.16317794,0.43072948,0
49972000,49972000,197388,0.1435973,0.16818455,0.4303612,0
50104000,50042181,197388,0.1425186,0.15821968,0.4287893,0
50116000,50116000,197388,0.14364131,0.15012296,0.43066904,0
50248000,50187272,197388,0.13485786,0.15361263,0.43526837,0
50260000,50260000,197388,0.12381272,0.14480811,0.44087452,0
50388000,50331272,197388,0.121332474,0.13918789,0.44477504,0
50404000,50404000,197388,0.11748083,0.1358479,0.44704607,0
50536000,50475272,197388,0.11380855,0.13265358,0.4476468,0
50548000,50548000,197388,0.11536074,0.12655064,0.44471112,0
50680000,50619272,197388,0.10850857,0.1252897,0.45091626,0
50688000,50688000,197388,0.10270713,0.1250077,0.45449522,0
50812000,50757600,197388,0.106673025,0.12624899,0.4513516,0
50836000,50828000,197388,0.102706194,0.12581348,0.4536226,0
50940000,50894666,197388,0.10611204,0.1285651,0.4523193,0
50968000,50962000,197388,0.11016829,0.12801309,0.45051634,0
51088000,51033200,197388,0.10711014,0.12623791,0.44969186,0
51100000,51100000,197388,0.10567,0.124553494,0.45214203,0
51228000,51170909,197388,0.10790478,0.12970924,0.44970644,0
51240000,51240000,197388,0.117286414,0.12905113,0.45210725,0
51364000,51308800,197388,0.11575601,0.13643809,0.44419098,0
51376000,51376000,197388,0.11364608,0.13754015,0.44239774,0
51508000,51447636,197388,0.11874119,0.14202268,0.44485345,0
51520000,51520000,197388,0.121460125,0.13949212,0.44789624,0
51652000,51590181,197388,0.1246684,0.14614052,0.4416908,0
51660000,51660000,197388,0.13118958,0.15370658,0.43311712,0
51784000,51729600,197388,0.13422716,0.15665054,0.43437228,0
51808000,51802000,197388,0.13869071,0.15492597,0.42983449,0
51924000,51872800,197388,0.13935474,0.16297677,0.43186355,0
51940000,51940000,197388,0.13667819,0.16267504,0.4345988,0
52068000,52010181,197388,0.14501016,0.16939421,0.42540717,0
52084000,52084000,197388,0.14942124,0.17416175,0.41849622,0
52212000,52155272,197388,0.1555253,0.17660806,0.41874346,0
52228000,52228000,197388,0.15898257,0.18300256,0.42106235,0
52360000,52299272,197388,0.15952973,0.18510112,0.41552302,0
52372000,52372000,197388,0.15687571,0.18514504,0.4151296,0
52500000,52442909,197388,0.16660237,0.1911086,0.40895048,0
52516000,52516000,197388,0.17222276,0.19741754,0.40002364,0
52644000,52586181,197388,0.17385088,0.19813009,0.40113783,0
52660000,52660000,197388,0.17962945,0.20264846,0.39770237,0
52792000,52731272,197388,0.1761097,0.19916452,0.3998545,0
52804000,52804000,197388,0.18136561,0.19504042,0.39714417,0
52936000,52875272,197388,0.18284047,0.20528285,0.39337996,0
52948000,52948000,197388,0.18620694,0.20720093,0.39263186,0
53076000,53018909,197388,0.18397436,0.20908053,0.3920101,0
53092000,53092000,197388,0.18409705,0.21197563,0.3928903,0
53220000,53162545,197388,0.18535252,0.20901288,0.39046225,0
53236000,53236000,197388,0.19559756,0.21683985,0.39496404,0
53368000,53307636,197388,0.1890502,0.21171145,0.38781372,0
53380000,53380000,197388,0.19466174,0.21543615,0.385187,0
53512000,53451272,197388,0.19168475,0.21079402,0.3859179,0
53524000,53524000,197388,0.18612236,0.2127253,0.37998512,0
53652000,53593818,197388,0.19078322,0.21247205,0.38641748,0
53668000,53668000,197388,0.19195013,0.20705362,0.38748038,0
53800000,53738909,197388,0.19231004,0.21060328,0.38765362,0
53812000,53812000,197388,0.1926701,0.21027322,0.38116926,0
53944000,53883272,197388,0.1912204,0.21378002,0.38704872,0
53956000,53956000,197388,0.19012892,0.22037157,0.38315913,0
54084000,54026909,197388,0.1916622,0.2118143,0.38887677,0
54100000,54100000,197388,0.1854533,0.21117543,0.39515314,0
54232000,54171636,197388,0.18930595,0.20988257,0.3889324,0
54244000,54244000,197388,0.18413474,0.21177073,0.3854064,0
54376000,54315272,197388,0.18933977,0.20913309,0.39095154,0
54388000,54388000,197388,0.1823313,0.21039297,0.38908377,0
54520000,54459636,197388,0.18676165,0.20496707,0.39171252,0
54532000,54532000,197388,0.18541577,0.19565043,0.39967135,0
54664000,54604000,197388,0.1836533,0.20458053,0.3964736,0
54676000,54676000,197388,0.17781293,0.19742009,0.401736,0
54808000,54746909,197388,0.182602,0.1989713,0.39735556,0
54820000,54820000,197388,0.1811046,0.19392335,0.41088676,0
54948000,54889818,197388,0.17258538,0.19224422,0.40221906,0
54960000,54960000,197388,0.17147513,0.19260374,0.40883037,0
55084000,55029600,197388,0.17118172,0.19098072,0.4062614,0
55108000,55100000,197388,0.17418233,0.19578394,0.4022353,0
55216000,55166666,197388,0.17610545,0.19944617,0.39826322,0
55252000,55238666,197388,0.18091542,0.20093161,0.39813995,0
55360000,55310666,197388,0.18823494,0.20455869,0.39272702,0
55396000,55382666,197388,0.18769573,0.209313,0.3885115,0
55492000,55450000,197388,0.19081461,0.21197227,0.3846344,0
55540000,55522000,197388,0.19775182,0.21354084,0.38022262,0
55636000,55594000,197388,0.19818775,0.2151221,0.3790094,0
55684000,55666000,197388,0.20134705,0.21933968,0.37670463,0
55780000,55737000,197388,0.20258653,0.2219329,0.37675872,0
55828000,55808000,197388,0.20515442,0.22433159,0.37290537,0
55912000,55875428,197388,0.20363314,0.22323479,0.37587467,0
55972000,55948000,197388,0.18029895,0.20281951,0.39357287,0
56056000,56020000,197388,0.17200528,0.1974463,0.40407708,0
56116000,56091200,197388,0.19349034,0.20532227,0.3941764,0
56196000,56161714,197388,0.24069136,0.20784202,0.36093166,0
56260000,56234400,197388,0.27220532,0.19586135,0.34451053,0
56332000,56301333,197388,0.23032759,0.14732221,0.39394522,0
56404000,56373333,197388,0.17931542,0.15704082,0.41858375,0
56476000,56444000,197388,0.15807346,0.15871792,0.4257114,0
56548000,56516666,197388,0.15338814,0.16565315,0.4229213,0
56608000,56584000,197388,0.15758096,0.16687986,0.42093602,0
56692000,56656000,197388,0.16041383,0.16873835,0.42057517,0
56752000,56728000,197388,0.16656491,0.16711847,0.4189979,0
56836000,56800000,197388,0.17527899,0.16905694,0.4160648,0
56896000,56871200,197388,0.18102515,0.16645405,0.4103867,0
56976000,56942857,197388,0.18708201,0.16757445,0.40793553,0
57028000,57010000,197388,0.18842901,0.16322172,0.40846437,0
57124000,57082000,197388,0.18447994,0.16064116,0.41345713,0
57172000,57152000,197388,0.15188977,0.1593104,0.4272274,0
57252000,57219428,197388,0.14328414,0.16085227,0.4287176,0
57316000,57291200,197388,0.14520448,0.16049926,0.4297444,0
57388000,57358000,197388,0.14499071,0.16245435,0.42542267,0
57460000,57429333,197388,0.14404695,0.16138656,0.4306869,0
57532000,57501333,197388,0.14212695,0.16214886,0.43029296,0
57604000,57572666,197388,0.14630042,0.1626008,0.43051428,0
57664000,57640000,197388,0.1428342,0.16200235,0.42939302,0
57748000,57710857,197388,0.14686084,0.16021715,0.4297488,0
57808000,57783200,197388,0.14346641,0.16349976,0.43102604,0
57892000,57854285,197388,0.1409544,0.1605621,0.42920387,0
57940000,57922000,197388,0.14309818,0.16271156,0.42992127,0
58036000,57993500,197388,0.1423005,0.16287586,0.43010446,0
58084000,58065000,197388,0.1418031,0.16257547,0.42942852,0
58180000,58137500,197388,0.14564933,0.16052015,0.42929795,0
58228000,58209000,197388,0.1433201,0.16171983,0.42984146,0
58324000,58281500,197388,0.14214942,0.16009122,0.42948252,0
58372000,58353000,197388,0.14492823,0.1622799,0.42915428,0
58468000,58424500,197388,0.14524701,0.15877107,0.42803347,0
58516000,58496000,197388,0.14443667,0.16349106,0.432666,0
58600000,58563428,197388,0.1464341,0.16238156,0.42896205,0
58660000,58635200,197388,0.143244,0.1642655,0.42739448,0
58744000,58706857,197388,0.1423408,0.16191761,0.4290772,0
58804000,58779200,197388,0.14523886,0.1610708,0.4292388,0
58876000,58846000,197388,0.14281145,0.1590007,0.4293505,0
58948000,58918000,197388,0.14376226,0.1598059,0.4286716,0
59020000,58988666,197388,0.14589489,0.16217858,0.42723346,0
59092000,59060666,197388,0.14280367,0.15955111,0.4276449,0
59164000,59133333,197388,0.14335,0.16393486,0.43196186,0
59236000,59204666,197388,0.14498843,0.1604693,0.42758605,0
59296000,59272000,197388,0.14217673,0.16209179,0.429162,0
59380000,59344000,197388,0.14522466,0.16117017,0.43237257,0
59440000,59414400,197388,0.14178312,0.16264987,0.42859885,0
59524000,59486857,197388,0.144718,0.16221824,0.4299068,0
59584000,59559200,197388,0.14464413,0.16361935,0.4272875,0
59668000,59630285,197388,0.1432271,0.16271232,0.43106017,0
59716000,59697000,197388,0.14172585,0.15917936,0.43019536,0
59812000,59769500,197388,0.14224541,0.16027315,0.4306694,0
59860000,59840000,197388,0.14562438,0.16498612,0.4312564,0
59956000,59911500,197388,0.14129779,0.16263516,0.4304667,0
59992000,59978666,197388,0.14279054,0.16115972,0.42788407,0
60100000,60050222,197388,0.1433686,0.16165954,0.42889667,0
60124000,60118000,197388,0.14273721,0.15859964,0.42812532,0
60244000,60189600,197388,0.1433625,0.15972099,0.43113533,0
60268000,60262000,197388,0.14396295,0.16048202,0.42879307,0
60388000,60333600,197388,0.14329085,0.16236201,0.42965457,0
60412000,60406000,197388,0.14470764,0.15864834,0.4286359,0
60532000,60477200,197388,0.14159821,0.16135435,0.42847243,0
60544000,60544000,197388,0.14041805,0.15556653,0.43175238,0
60676000,60616000,197388,0.14742315,0.16285399,0.4309729,0
60684000,60684000,197388,0.14734243,0.15942898,0.42600197,0
60808000,60752800,197388,0.14369701,0.15921369,0.43309647,0
60820000,60820000,197388,0.14625768,0.15985718,0.42762312,0
60952000,60891636,197388,0.14297643,0.16239567,0.4296522,0
60964000,60964000,197388,0.144613,0.15963967,0.4339772,0
61096000,61035636,197388,0.14250365,0.168312,0.42646956,0
61108000,61108000,197388,0.14000838,0.16481249,0.417999,0
61236000,61178545,197388,0.14335763,0.17429335,0.42427987,0
61252000,61252000,197388,0.14625105,0.17943102,0.419464,0
61380000,61323272,197388,0.14230467,0.1858356,0.4180507,0
61392000,61392000,197388,0.14348027,0.19548316,0.41052884,0
61516000,61461200,197388,0.1440276,0.19536439,0.41456953,0
61540000,61532000,197388,0.14005393,0.20068958,0.41060185,0
61648000,61599111,197388,0.14349814,0.20024565,0.40980068,0
61684000,61670666,197388,0.13836834,0.20789137,0.40679905,0
61788000,61742222,197388,0.14478736,0.21298325,0.4047872,0
61828000,61814666,197388,0.14448391,0.21443042,0.40471447,0
61924000,61881500,197388,0.14640382,0.21931143,0.4032085,0
61972000,61953000,197388,0.14417073,0.21516216,0.40295923,0
62056000,62020000,197388,0.1426382,0.223154,0.40161434,0
62116000,62091200,197388,0.1432003,0.22357936,0.40083787,0
62200000,62162285,197388,0.14606403,0.22510771,0.4020825,0
62248000,62229000,197388,0.1478126,0.22209823,0.39931753,0
62344000,62301000,197388,0.15307292,0.21842113,0.40191913,0
62392000,62373000,197388,0.15455906,0.21112174,0.40371415,0
62488000,62445000,197388,0.159254,0.2069196,0.403485,0
62524000,62512000,197388,0.15904002,0.20383506,0.40834674,0
62632000,62584000,197388,0.15499695,0.19914272,0.40729162,0
62668000,62656000,197388,0.15390448,0.20220362,0.410002,0
62776000,62726666,197388,0.15229818,0.1969649,0.414729,0
62812000,62798666,197388,0.14776124,0.19513786,0.41007778,0
62920000,62870666,197388,0.14199887,0.19813399,0.41614166,0
62944000,62938000,197388,0.1369319,0.2047782,0.4117325,0
63064000,63008800,197388,0.132618,0.20487607,0.41553995,0
63076000,63076000,197388,0.13024034,0.20846899,0.41111192,0
63208000,63147272,197388,0.13804014,0.19416003,0.41764867,0
63216000,63216000,197388,0.16227616,0.17173901,0.42063946,0
63336000,63285600,197388,0.15772088,0.14907993,0.4310434,0
63364000,63358000,197388,0.1623143,0.1505239,0.4308942,0
63484000,63429200,197388,0.15803936,0.1485436,0.42820016,0
63508000,63500000,197388,0.16200706,0.14938962,0.42494386,0
63616000,63566666,197388,0.15757413,0.14639641,0.427869,0
63652000,63638666,197388,0.15732668,0.14751278,0.42715693,0
63760000,63711111,197388,0.1568914,0.14845614,0.4294323,0
63792000,63781333,197388,0.1585363,0.14778635,0.43103346,0
63892000,63848500,197388,0.15931997,0.14907683,0.428576,0
63940000,63921000,197388,0.15571383,0.15084508,0.42765608,0
64024000,63988000,197388,0.15782468,0.14725526,0.42900667,0
64084000,64059200,197388,0.15566967,0.15070339,0.42795697,0
64168000,64130857,197388,0.15890646,0.14855234,0.42905188,0
64216000,64198000,197388,0.15772079,0.14825214,0.42803568,0
64308000,64268500,197388,0.15647416,0.15091355,0.43252033,0
64348000,64336000,197388,0.15840684,0.14956483,0.43044347,0
64452000,64405777,197388,0.1560707,0.15051344,0.4281965,0
64480000,64474000,197388,0.15845084,0.14356236,0.42980373,0
64596000,64545200,197388,0.15563624,0.14920463,0.4288383,0
64624000,64616000,197388,0.15739888,0.1488074,0.43095565,0
64732000,64683555,197388,0.15510426,0.14954565,0.4296879,0
64764000,64754666,197388,0.15850972,0.14970145,0.43044755,0
64876000,64826666,197388,0.15629645,0.15085696,0.43029848,0
64912000,64898666,197388,0.15075998,0.15159594,0.43369687,0
65008000,64965500,197388,0.14507371,0.14851953,0.4348711,0
65056000,65037000,197388,0.13206941,0.1482898,0.43423548,0
65152000,65109500,197388,0.1284852,0.14726765,0.4378711,0
65200000,65182000,197388,0.13039204,0.14785257,0.4366058,0
65292000,65252500,197388,0.13066047,0.14988577,0.43926904,0
65332000,65320000,197388,0.13518623,0.14784607,0.43452758,0
65440000,65391111,197388,0.14101945,0.14946404,0.43429866,0
65464000,65458000,197388,0.14528126,0.14754552,0.43174243,0
65584000,65529600,197388,0.15666167,0.15081586,0.4292799,0
65608000,65602000,197388,0.1558651,0.14244515,0.429547,0
65724000,65673200,197388,0.15913062,0.14927544,0.43103534,0
65740000,65740000,197388,0.15936548,0.14734937,0.4242879,0
65872000,65810545,197388,0.15693195,0.1487484,0.4288241,0
65884000,65884000,197388,0.1531112,0.14642149,0.44147038,0
66016000,65955272,197388,0.1560927,0.14903946,0.4293265,0
66028000,66028000,197388,0.1554589,0.15141255,0.42665723,0
66160000,66098909,197388,0.15484367,0.14676337,0.43053803,0
66172000,66172000,197388,0.16212027,0.14684892,0.41938508,0
66300000,66243272,197388,0.15796569,0.14913835,0.43148026,0
66316000,66316000,197388,0.15478243,0.14944038,0.43484306,0
66448000,66387636,197388,0.15686452,0.14885557,0.4301274,0
66460000,66460000,197388,0.15261355,0.1510384,0.42683592,0
66592000,66530545,197388,0.1569848,0.14845903,0.42848787,0
66604000,66604000,197388,0.15547396,0.14744222,0.4315776,0
66736000,66674909,197388,0.15828907,0.1477028,0.42909908,0
66748000,66748000,197388,0.15803018,0.149618,0.4255296,0
66876000,66819272,197388,0.15664946,0.14879575,0.42843634,0
66892000,66892000,197388,0.1521331,0.15392162,0.43024305,0
67024000,66964000,197388,0.15518713,0.14883745,0.42933938,0
67036000,67036000,197388,0.1587948,0.14503624,0.42157188,0
67168000,67108000,197388,0.15849379,0.1504294,0.42955673,0
67180000,67180000,197388,0.16857053,0.1432055,0.43103474,0
67308000,67250909,197388,0.1581416,0.1485003,0.42837015,0
67324000,67324000,197388,0.16080447,0.14627859,0.42973092,0
67452000,67394545,197388,0.15605903,0.14998287,0.42877388,0
67468000,67468000,197388,0.15757859,0.14976045,0.4314091,0
67600000,67538181,197388,0.15707801,0.14975488,0.42772335,0
67612000,67612000,197388,0.15526293,0.1492095,0.42401695,0
67740000,67682545,197388,0.15651128,0.14998235,0.43054184,0
67756000,67756000,197388,0.16148825,0.14551178,0.42828605,0
67888000,67826909,197388,0.15655911,0.14819224,0.4292154,0
67900000,67900000,197388,0.15565862,0.14420676,0.42783943,0
68028000,67971636,197388,0.15796554,0.15008795,0.4283069,0
68044000,68044000,197388,0.1555219,0.15301217,0.43257368,0
68176000,68116000,197388,0.15557832,0.15106136,0.43020344,0
68188000,68188000,197388,0.15996468,0.15198241,0.42894307,0
68320000,68258545,197388,0.1559851,0.14876238,0.43013683,0
68332000,68332000,197388,0.1548705,0.1479561,0.4271297,0
68460000,68402909,197388,0.15694185,0.15035707,0.42967543,0
68476000,68476000,197388,0.16221312,0.1505618,0.43017122,0
68608000,68546545,197388,0.15551834,0.14896955,0.42943075,0
68620000,68620000,197388,0.155899,0.15137377,0.4284668,0
68748000,68690545,197388,0.15775396,0.14721055,0.42903018,0
68764000,68764000,197388,0.16288592,0.1438366,0.42541003,0
68896000,68834545,197388,0.1580623,0.14909248,0.4296987,0
68908000,68908000,197388,0.15398145,0.14995083,0.4301547,0
69040000,68979272,197388,0.15567262,0.1475331,0.43065763,0
69052000,69052000,197388,0.15325579,0.15172061,0.4206116,0
69184000,69122909,197388,0.15541376,0.14805265,0.430386,0
69196000,69196000,197388,0.15525684,0.14506288,0.42128906,0
69324000,69266545,197388,0.15533856,0.1497303,0.4300535,0
69340000,69340000,197388,0.15829943,0.14981095,0.4292966,0
69472000,69411636,197388,0.15581813,0.14791471,0.43034738,0
69484000,69484000,197388,0.15109536,0.14080591,0.4275074,0
69616000,69554545,197388,0.15903531,0.14860015,0.43103895,0
69628000,69628000,197388,0.152866,0.15462086,0.42978188,0
69760000,69698545,197388,0.15771721,0.14639996,0.42998254,0
69772000,69772000,197388,0.15577757,0.14779967,0.43449095,0
69904000,69842909,197388,0.15640691,0.14758426,0.4291374,0
69916000,69916000,197388,0.1496327,0.14999297,0.42420894,0
70044000,69986181,197388,0.15457976,0.15017298,0.42960662,0
70060000,70060000,197388,0.1644309,0.14720239,0.43617052,0
70188000,70130545,197388,0.15729955,0.14549589,0.4309895,0
70204000,70204000,197388,0.15793426,0.14617224,0.43357375,0
70336000,70274181,197388,0.15677875,0.14772168,0.43183887,0
70348000,70348000,197388,0.15629424,0.14192027,0.4289042,0
70480000,70419272,197388,0.15646932,0.14874823,0.43039045,0
70492000,70492000,197388,0.15967277,0.14776497,0.42788914,0
70624000,70563636,197388,0.15770282,0.15002695,0.42826694,0
70636000,70636000,197388,0.14502272,0.15188918,0.42562228,0
70768000,70708000,197388,0.15829252,0.14903446,0.4304437,0
70780000,70780000,197388,0.1559836,0.14928345,0.42820153,0
70912000,70851636,197388,0.15639476,0.1488483,0.42913532,0
70924000,70924000,197388,0.16061261,0.14630644,0.4304177,0
71056000,70996000,197388,0.15921772,0.14697745,0.42929348,0
71068000,71068000,197388,0.15582016,0.14879557,0.4278383,0
71200000,71138545,197388,0.15813068,0.1484799,0.42977333,0
71212000,71212000,197388,0.15405513,0.14991185,0.43021762,0
71344000,71283272,197388,0.15723686,0.14869122,0.4290482,0
71356000,71356000,197388,0.15502149,0.14785512,0.42953306,0
71484000,71426545,197388,0.1576994,0.1508378,0.4292958,0
71496000,71496000,197388,0.15061077,0.15122664,0.42771515,0
71620000,71565200,197388,0.1559708,0.1493728,0.4277512,0
71632000,71632000,197388,0.15752691,0.1444962,0.43127346,0
71764000,71702545,197388,0.15663901,0.14973086,0.4303032,0
71772000,71772000,197388,0.15614793,0.14839958,0.43474677,0
71892000,71840800,197388,0.15761161,0.15048283,0.42882332,0
71920000,71912000,197388,0.16217391,0.14771932,0.4311592,0
72028000,71979111,197388,0.15838297,0.15142646,0.42884725,0
72052000,72046000,197388,0.15668997,0.14593488,0.43053487,0
72172000,72116400,197388,0.1560822,0.1508808,0.43085313,0
72196000,72188000,197388,0.15501757,0.14932537,0.42466348,0
72304000,72254666,197388,0.15616077,0.14958884,0.43054485,0
72328000,72322000,197388,0.16133666,0.14887345,0.4289677,0
72448000,72393600,197388,0.15704754,0.14882062,0.4298552,0
72472000,72466000,197388,0.1607002,0.14955896,0.42839533,0
72592000,72537600,197388,0.15606585,0.14996684,0.42992783,0
72616000,72610000,197388,0.15437013,0.15136524,0.43633956,0
72732000,72680800,197388,0.15779923,0.1511561,0.4290329,0
72748000,72748000,197388,0.15497485,0.15013227,0.42636794,0
72876000,72818181,197388,0.15775923,0.15043595,0.43110466,0
72892000,72892000,197388,0.15544102,0.15293676,0.41812086,0
73024000,72963636,197388,0.15619212,0.14839792,0.42997885,0
73036000,73036000,197388,0.1547318,0.14448498,0.4232549,0
73164000,73107272,197388,0.15734215,0.15057072,0.42883286,0
73180000,73180000,197388,0.15576091,0.1475245,0.4305072,0
73312000,73251272,197388,0.1578174,0.14862494,0.42829558,0
73324000,73324000,197388,0.16147982,0.15325427,0.43036693,0
73456000,73395272,197388,0.15727921,0.14814515,0.42851683,0
73468000,73468000,197388,0.15452199,0.14946209,0.42981964,0
73600000,73538909,197388,0.15783437,0.14834222,0.4298347,0
73612000,73612000,197388,0.1593628,0.14413977,0.43412462,0
73744000,73683636,197388,0.15745296,0.14950126,0.43133974,0
73756000,73756000,197388,0.15867572,0.14595117,0.4270125,0
73884000,73825818,197388,0.15583858,0.14927214,0.42794427,0
73900000,73900000,197388,0.16105764,0.14545842,0.43187347,0
74028000,73971272,197388,0.15508747,0.14908397,0.42875943,0
74044000,74044000,197388,0.15951593,0.1518562,0.4308163,0
74172000,74114545,197388,0.15682769,0.14741552,0.4287598,0
74188000,74188000,197388,0.1532728,0.14187483,0.4308227,0
74320000,74260000,197388,0.15524755,0.1475482,0.42852315,0
74332000,74332000,197388,0.15944412,0.15172346,0.42930377,0
74460000,74402909,197388,0.1562544,0.14781676,0.43041715,0
74476000,74476000,197388,0.15796852,0.14173195,0.4273192,0
