timestamp,timestamp_sample,time_last_fuse,device_id,observation,observation_variance,innovation,innovation_variance,test_ratio,estimator_instance,fusion_enabled,innovation_rejected,fused
3412000,3289297,0,0,-488.10403,1.0,488.10287,101.00001,94.35422,3,0,1,0
3812000,3689575,0,0,-488.11102,1.0,488.11014,34.333336,277.57455,3,0,1,0
4204000,4089740,0,0,-0.0033569336,1.0,-9.825337e-05,21.000443,1.838766e-11,3,0,0,0
4604000,4489843,0,0,-0.0043640137,1.0,-0.0013758172,15.287216,4.9528257e-09,3,0,0,0
5004000,4889905,0,0,-0.0043640137,1.0,-0.013547102,5.111334,1.436212e-06,3,0,0,0
5404000,5289943,0,0,0.00064086914,1.0,0.0037621553,2.2283068,2.5407297e-07,3,0,0,0
5812000,5689966,0,0,-0.0053710938,1.0,0.010505169,1.7231262,2.561822e-06,3,0,0,0
6212000,6089980,0,0,-0.00036621094,1.0,0.005467461,1.5134746,7.9005304e-07,3,0,0,0
6612000,6489988,0,0,-0.011352539,1.0,0.015805129,1.3990607,7.141995e-06,3,0,0,0
7004000,6889993,0,0,-0.012359619,1.0,0.018135704,1.3360825,9.84681e-06,3,0,0,0
7412000,7289996,0,0,-0.006378174,1.0,0.01615426,1.2844431,8.126794e-06,3,0,0,0
7812000,7689998,0,0,-0.0043640137,1.0,0.011835588,1.248201,4.489057e-06,3,0,0,0
8212000,8089999,0,0,-0.0053710938,1.0,0.010470126,1.2242211,3.5818214e-06,3,0,0,0
8612000,8489999,8532000,0,-0.0053710938,1.0,0.007054102,1.2016687,1.6563753e-06,3,0,0,0
9012000,8890000,8932000,0,-0.008361816,1.0,0.004853865,1.6369674,5.7569883e-07,3,1,0,1
9404000,9290000,9324000,0,-0.0033569336,1.0,-0.0035572378,1.3194466,3.8361358e-07,3,1,0,1
9804000,9690000,9724000,0,0.005645752,1.0,-0.0069745574,1.2180662,1.5974321e-06,3,1,0,1
10204000,10090000,10124000,0,0.0066223145,1.0,-0.004853212,1.164375,8.0914367e-07,3,1,0,1
10612000,10494000,10532000,0,0.0016479492,1.0,0.00026134402,1.1329162,2.4115003e-09,3,1,0,1
11004000,10890000,10924000,0,0.00064086914,1.0,0.0028132687,1.112287,2.8462009e-07,3,1,0,1
11404000,11290000,11324000,0,-0.015380859,1.0,0.019937724,1.0987549,1.4471393e-05,3,1,0,1
11812000,11690000,11732000,0,-0.012359619,1.0,0.017502401,1.0882295,1.1259906e-05,3,1,0,1
12204000,12090000,12124000,0,-0.0033569336,1.0,0.008406615,1.0801303,2.6171351e-06,3,1,0,1
12612000,12490000,12532000,0,-0.0053710938,1.0,0.009512356,1.074028,3.3699273e-06,3,1,0,1
13004000,12890000,12924000,0,-0.0073547363,1.0,0.012933487,1.0704843,6.2504455e-06,3,1,0,1
13404000,13290000,13324000,0,-0.011352539,1.0,0.018104406,1.066548,1.2292725e-05,3,1,0,1
13812000,13690000,13732000,0,-0.012359619,1.0,0.017554313,1.0634518,1.1590705e-05,3,1,0,1
14204000,14090000,14124000,0,-0.014373779,1.0,0.019050108,1.0609783,1.3681963e-05,3,1,0,1
14604000,14490000,14524000,0,-0.0093688965,1.0,0.015583564,1.0587438,9.174928e-06,3,1,0,1
15012000,14890000,14932000,0,-0.010375977,1.0,0.015479239,1.0569797,9.067604e-06,3,1,0,1
15412000,15290000,15332000,0,-0.018371582,1.0,0.024582906,1.0586529,2.283352e-05,3,1,0,1
15804000,15690000,15724000,0,-0.001373291,1.0,0.009799616,1.0619761,3.617124e-06,3,1,0,1
16204000,16090000,16124000,0,-0.006378174,1.0,0.01791687,1.0668516,1.20359455e-05,3,1,0,1
16612000,16490000,16532000,0,-0.001373291,1.0,0.017419465,1.0737057,1.1304318e-05,3,1,0,1
17012000,16890000,16932000,0,-0.002380371,1.0,0.024384348,1.0818092,2.198526e-05,3,1,0,1
17404000,17290000,17324000,0,-0.008361816,1.0,0.03718158,1.0913275,5.0671122e-05,3,1,0,1
17804000,17690000,17724000,0,-0.0093688965,1.0,0.040032934,1.1014073,5.8203204e-05,3,1,0,1
18204000,18090000,18124000,0,-0.06335449,1.0,0.039033048,1.1115248,5.4828422e-05,3,1,0,1
18604000,18490000,18524000,0,-0.23236084,1.0,0.03059581,1.1211069,3.339926e-05,3,1,0,1
19012000,18894000,18932000,0,-0.47836304,1.0,0.033620656,1.1303296,4.0000665e-05,3,1,0,1
19412000,19290000,19332000,0,-0.7423706,1.0,0.045093536,1.139102,7.140457e-05,3,1,0,1
19804000,19690000,19724000,0,-1.0123596,1.0,0.0495345,1.1442043,8.5777225e-05,3,1,0,1
20212000,20090000,20132000,0,-1.3043518,1.0,0.07885969,1.1492316,0.00021645246,3,1,0,1
20612000,20490000,20532000,0,-1.6123657,1.0,0.17841065,1.1520613,0.001105162,3,1,0,1
21004000,20890000,20924000,0,-2.0493774,1.0,0.4049536,1.1549487,0.00567947,3,1,0,1
21412000,21290000,21332000,0,-2.531372,1.0,0.6925112,1.1565742,0.016585939,3,1,0,1
21804000,21690000,21724000,0,-2.9353638,1.0,0.9783244,1.1560104,0.033117995,3,1,0,1
22204000,22090000,22124000,0,-3.3703613,1.0,1.2728891,1.1557932,0.056073934,3,1,0,1
22612000,22490000,22532000,0,-3.7413635,1.0,1.5276744,1.1560001,0.08075394,3,1,0,1
23004000,22890000,22924000,0,-3.9933777,1.0,1.7190044,1.1565865,0.102196455,3,1,0,1
23404000,23290000,23324000,0,-4.0653687,1.0,1.7661502,1.1558568,0.10794716,3,1,0,1
23804000,23690000,23724000,0,-3.9643555,1.0,1.6847522,1.1550866,0.09829185,3,1,0,1
24212000,24090000,24132000,0,-3.687378,1.0,1.4700553,1.1547568,0.074857764,3,1,0,1
24604000,24490000,24524000,0,-3.2703552,1.0,1.1223052,1.1548978,0.043625288,3,1,0,1
25004000,24890000,24924000,0,-2.7503662,1.0,0.67897844,1.1538959,0.015981052,3,1,0,1
25412000,25290000,25332000,0,-2.1723633,1.0,0.15946388,1.153714,0.00088163035,3,1,0,1
25804000,25690000,25724000,0,-1.5523682,1.0,-0.45243192,1.1542382,0.007093671,3,1,0,1
26212000,26090000,26132000,0,-0.90338135,1.0,-1.1316226,1.1545396,0.044366416,3,1,0,1
26604000,26486000,26524000,0,-0.28936768,1.0,-1.7914534,1.1555139,0.11109533,3,1,0,1
27004000,26890000,26924000,0,-0.0073547363,1.0,-2.4778972,1.1551578,0.21261077,3,1,0,1
27404000,27286000,27324000,0,0.00064086914,1.0,-2.9050682,1.1535101,0.2926518,3,1,0,1
27812000,27690000,27732000,0,0.005645752,1.0,-3.1930103,1.1513456,0.35420522,3,1,0,1
28212000,28090000,28132000,0,-0.012359619,1.0,-3.3224769,1.1476911,0.38473254,3,1,0,1
28604000,28490000,28524000,0,-0.00036621094,1.0,-3.3903766,1.1448615,0.40160856,3,1,0,1
29004000,28890000,28924000,0,-0.0093688965,1.0,-3.2839952,1.140971,0.37808585,3,1,0,1
29404000,29290000,29324000,0,-0.015380859,1.0,-3.0563037,1.1374377,0.32849246,3,1,0,1
29812000,29690000,29732000,0,-0.002380371,1.0,-2.722711,1.1350584,0.26124313,3,1,0,1
30204000,30090000,30124000,0,-0.008361816,1.0,-2.2717092,1.1323979,0.1822915,3,1,0,1
30612000,30490000,30532000,0,-0.0463562,1.0,-1.8599616,1.1330667,0.12212723,3,1,0,1
31004000,30890000,30924000,0,-0.20437622,1.0,-1.4904636,1.1317865,0.0785124,3,1,0,1
31404000,31290000,31324000,0,-0.5213623,1.0,-1.2103049,1.1310263,0.05180561,3,1,0,1
31804000,31690000,31724000,0,-1.1503601,1.0,-0.9430857,1.131415,0.031444184,3,1,0,1
32204000,32090000,32124000,0,-1.6893616,1.0,-0.69954777,1.1300501,0.017321961,3,1,0,1
32604000,32490000,32524000,0,-2.103363,1.0,-0.50315976,1.1285052,0.008973631,3,1,0,1
33012000,32894000,32932000,0,-2.4273682,1.0,-0.3421867,1.1262157,0.0041587674,3,1,0,1
33412000,33290000,33332000,0,-2.6773682,1.0,-0.1881373,1.1250759,0.0012584268,3,1,0,1
33804000,33690000,33724000,0,-2.8653564,1.0,-0.04049468,1.1252884,5.8289737e-05,3,1,0,1
34212000,34090000,34132000,0,-3.0233765,1.0,0.09820318,1.1257833,0.00034265438,3,1,0,1
34604000,34490000,34524000,0,-3.1213684,1.0,0.18891048,1.1259142,0.0012678469,3,1,0,1
35012000,34890000,34932000,0,-3.1853638,1.0,0.26085997,1.1277529,0.0024135755,3,1,0,1
35412000,35290000,35332000,0,-3.2313538,1.0,0.32724547,1.1310065,0.003787409,3,1,0,1
35812000,35690000,35732000,0,-3.2583618,1.0,0.36540294,1.1333826,0.0047122412,3,1,0,1
36212000,36090000,36132000,0,-3.2783813,1.0,0.39488983,1.1360666,0.005490452,3,1,0,1
36604000,36490000,36524000,0,-3.260376,1.0,0.3932178,1.1398634,0.005425922,3,1,0,1
37012000,36890000,36932000,0,-3.233368,1.0,0.38028836,1.1435425,0.0050586397,3,1,0,1
37412000,37290000,37332000,0,-3.1953735,1.0,0.3591931,1.1463954,0.004501751,3,1,0,1
37812000,37690000,37732000,0,-3.149353,1.0,0.32801867,1.1489991,0.0037457384,3,1,0,1
38212000,38090000,38132000,0,-3.108368,1.0,0.30420613,1.1512308,0.003215389,3,1,0,1
38604000,38490000,38524000,0,-3.0493774,1.0,0.26536226,1.1542592,0.0024402535,3,1,0,1
39004000,38890000,38924000,0,-3.0073547,1.0,0.24323797,1.155729,0.0020477017,3,1,0,1
39404000,39290000,39324000,0,-2.9553528,1.0,0.21029925,1.1568419,0.00152919,3,1,0,1
39812000,39690000,39732000,0,-2.9033813,1.0,0.17918491,1.1582315,0.0011088365,3,1,0,1
40212000,40090000,40132000,0,-2.8573608,1.0,0.15070462,1.1584411,0.00078422227,3,1,0,1
40604000,40490000,40524000,0,-2.807373,1.0,0.12721682,1.1596951,0.00055821973,3,1,0,1
41004000,40890000,40924000,0,-2.7663574,1.0,0.101988554,1.1594278,0.00035885512,3,1,0,1
41404000,41290000,41324000,0,-2.7383728,1.0,0.089059114,1.158978,0.00027374207,3,1,0,1
41804000,41690000,41724000,0,-2.7243652,1.0,0.090280056,1.1583302,0.00028145645,3,1,0,1
42204000,42090000,42124000,0,-2.6953735,1.0,0.07339835,1.1595896,0.00018583532,3,1,0,1
42612000,42490000,42532000,0,-2.6673584,1.0,0.05940628,1.1594096,0.000121755285,3,1,0,1
43012000,42890000,42932000,0,-2.6633606,1.0,0.0665617,1.1584122,0.00015298388,3,1,0,1
43412000,43290000,43332000,0,-2.6383667,1.0,0.051018238,1.1575505,8.9943744e-05,3,1,0,1
43812000,43690000,43732000,0,-2.6213684,1.0,0.048796177,1.1567374,8.233733e-05,3,1,0,1
44212000,44090000,44132000,0,-2.609375,1.0,0.049810648,1.1579881,8.570384e-05,3,1,0,1
44604000,44490000,44524000,0,-2.603363,1.0,0.053752422,1.1565621,9.992798e-05,3,1,0,1
45012000,44890000,44932000,0,-2.5943604,1.0,0.053928852,1.15673,0.00010057043,3,1,0,1
45404000,45290000,45324000,0,-2.5913696,1.0,0.05855751,1.1554962,0.00011870163,3,1,0,1
45804000,45690000,45724000,0,-2.583374,1.0,0.05803871,1.1551027,0.00011664736,3,1,0,1
46212000,46090000,46132000,0,-2.583374,1.0,0.070031166,1.1573623,0.00016950142,3,1,0,1
46604000,46490000,46524000,0,-2.5853577,1.0,0.07643628,1.1561179,0.00020214218,3,1,0,1
47004000,46890000,46924000,0,-2.576355,1.0,0.07178211,1.1556547,0.00017834641,3,1,0,1
47412000,47290000,47332000,0,-2.584381,1.0,0.08806133,1.1578665,0.00026789957,3,1,0,1
47812000,47690000,47732000,0,-2.5853577,1.0,0.09474063,1.1572638,0.0003102417,3,1,0,1
48212000,48090000,48132000,0,-2.5863647,1.0,0.097946405,1.1566463,0.00033176946,3,1,0,1
48612000,48490000,48532000,0,-2.5703735,1.0,0.08929086,1.1580267,0.0002753946,3,1,0,1
49004000,48890000,48924000,0,-2.5803528,1.0,0.10032582,1.1566925,0.00034807075,3,1,0,1
49412000,49290000,49332000,0,-2.5953674,1.0,0.11797547,1.1568874,0.00048122962,3,1,0,1
49804000,49690000,49724000,0,-2.6063538,1.0,0.13161278,1.155692,0.00059953425,3,1,0,1
50212000,50090000,50132000,0,-2.6213684,1.0,0.15091276,1.157952,0.0007867221,3,1,0,1
50612000,50490000,50532000,0,-2.7053528,1.0,0.2620113,1.1554248,0.0023766123,3,1,0,1
51004000,50890000,50924000,0,-2.9293823,1.0,0.47848487,1.1562299,0.007920493,3,1,0,1
51412000,51290000,51332000,0,-3.248352,1.0,0.7621455,1.1565748,0.020089172,3,1,0,1
51804000,51690000,51724000,0,-3.6113586,1.0,1.0696433,1.1553645,0.03961128,3,1,0,1
52212000,52090000,52132000,0,-3.9433594,1.0,1.3711715,1.1576084,0.06496536,3,1,0,1
52612000,52494000,52532000,0,-4.234375,1.0,1.6277997,1.1570358,0.09160415,3,1,0,1
53012000,52890000,52932000,0,-4.4153748,1.0,1.7951226,1.1564472,0.11146087,3,1,0,1
53412000,53290000,53332000,0,-4.458374,1.0,1.8499908,1.1558886,0.11843585,3,1,0,1
53804000,53690000,53724000,0,-4.3193665,1.0,1.7627718,1.1566483,0.107461005,3,1,0,1
54212000,54094000,54132000,0,-4.003357,1.0,1.5403228,1.1568851,0.08203388,3,1,0,1
54604000,54490000,54524000,0,-3.5183716,1.0,1.167006,1.1575357,0.047062155,3,1,0,1
55004000,54890000,54924000,0,-2.885376,1.0,0.6657872,1.1569515,0.015325538,3,1,0,1
55412000,55290000,55332000,0,-2.1643677,1.0,0.099772215,1.1570963,0.00034411985,3,1,0,1
55804000,55690000,55724000,0,-1.3013611,1.0,-0.55314445,1.1557868,0.010589109,3,1,0,1
56204000,56090000,56124000,0,-0.3713684,1.0,-1.236898,1.1552749,0.052971516,3,1,0,1
56612000,56490000,56532000,0,-0.0073547363,1.0,-1.9760965,1.1549497,0.13524252,3,1,0,1
57004000,56890000,56924000,0,-0.02935791,1.0,-2.5463338,1.153945,0.22475302,3,1,0,1
57404000,57290000,57324000,0,-0.001373291,1.0,-3.1638796,1.1509075,0.34790406,3,1,0,1
57804000,57690000,57724000,0,-0.00036621094,1.0,-3.774825,1.1490549,0.49603567,3,1,0,1
58204000,58086000,58124000,0,-0.002380371,1.0,-4.247002,1.1449459,0.6301443,3,1,0,1
58604000,58490000,58524000,0,-0.0073547363,1.0,-4.5672297,1.1406646,0.7314889,3,1,0,1
59012000,58890000,58932000,0,-0.008361816,1.0,-4.746344,1.1369476,0.79257065,3,1,0,1
59404000,59290000,59324000,0,-0.001373291,1.0,-4.737124,1.1340045,0.7915434,3,1,0,1
59804000,59690000,59724000,0,-0.0093688965,1.0,-4.5537677,1.1306475,0.7336256,3,1,0,1
60204000,60086000,60124000,0,-0.020355225,1.0,-4.20918,1.1281009,0.62821317,3,1,0,1
60612000,60490000,60532000,0,-0.014373779,1.0,-3.8603425,1.1282136,0.5283483,3,1,0,1
61012000,60890000,60932000,0,-0.011352539,1.0,-3.5057263,1.1274852,0.4360188,3,1,0,1
61412000,61290000,61332000,0,-0.019378662,1.0,-3.1515079,1.1277187,0.35228652,3,1,0,1
61812000,61690000,61732000,0,-0.028381348,1.0,-2.7966468,1.1301914,0.2768109,3,1,0,1
62204000,62086000,62124000,0,-0.039367676,1.0,-2.4268906,1.1315348,0.20820564,3,1,0,1
62612000,62490000,62532000,0,-0.039367676,1.0,-2.0596511,1.1346022,0.14955595,3,1,0,1
63012000,62890000,62932000,0,-0.038360596,1.0,-1.707416,1.138932,0.10238609,3,1,0,1
63412000,63290000,63332000,0,-0.0043640137,1.0,-1.3782645,1.1419135,0.0665414,3,1,0,1
63812000,63690000,63732000,0,-0.016357422,1.0,-1.0581075,1.1437778,0.039154157,3,1,0,1
64212000,64090000,64132000,0,-0.011352539,1.0,-0.79428524,1.1440821,0.022057476,3,1,0,1
64612000,64490000,64532000,0,-0.0093688965,1.0,-0.5457681,1.1448363,0.010407176,3,1,0,1
65012000,64890000,64932000,0,-0.011352539,1.0,-0.34430742,1.1430336,0.0041485257,3,1,0,1
65412000,65290000,65332000,0,-0.016357422,1.0,-0.16310857,1.1408035,0.0009328305,3,1,0,1
65804000,65690000,65724000,0,-0.002380371,1.0,-0.0125088,1.137963,5.500006e-06,3,1,0,1
66204000,66090000,66124000,0,-0.001373291,1.0,0.13886635,1.1374809,0.00067812525,3,1,0,1
66612000,66490000,66532000,0,-0.0073547363,1.0,0.26494938,1.1364089,0.0024708775,3,1,0,1
67012000,66890000,66932000,0,-0.002380371,1.0,0.35619193,1.1353468,0.0044699186,3,1,0,1
67404000,67290000,67324000,0,-0.00036621094,1.0,0.4295457,1.1343827,0.0065060765,3,1,0,1
67812000,67690000,67732000,0,0.0016479492,1.0,0.5122396,1.1366979,0.00923339,3,1,0,1
68212000,68090000,68132000,0,-0.013366699,1.0,0.57328814,1.1375356,0.011556889,3,1,0,1
68604000,68490000,68524000,0,-0.0033569336,1.0,0.58296585,1.1382873,0.011942475,3,1,0,1
69004000,68890000,68924000,0,-0.002380371,1.0,0.6134377,1.1416924,0.0131841395,3,1,0,1
69412000,69294000,69332000,0,-0.011352539,1.0,0.6253199,1.1444174,0.013667216,3,1,0,1
69812000,69690000,69732000,0,-0.008361816,1.0,0.6078903,1.1465843,0.01289153,3,1,0,1
70204000,70090000,70124000,0,-0.008361816,1.0,0.5768258,1.1481397,0.011591899,3,1,0,1
70612000,70490000,70532000,0,-0.001373291,1.0,0.5392894,1.1509401,0.010107671,3,1,0,1
71012000,70890000,70932000,0,-0.015380859,1.0,0.52089524,1.154556,0.009400387,3,1,0,1
71404000,71290000,71324000,0,-0.008361816,1.0,0.46035397,1.1551924,0.0073381984,3,1,0,1
71804000,71690000,71724000,0,-0.016357422,1.0,0.41808143,1.15624,0.0060469136,3,1,0,1
72204000,72090000,72124000,0,-0.0033569336,1.0,0.36055318,1.1589427,0.0044867997,3,1,0,1
72612000,72490000,72532000,0,-0.001373291,1.0,0.30432892,1.1600344,0.0031935635,3,1,0,1
73004000,72890000,72924000,0,-0.011352539,1.0,0.26166362,1.1592479,0.002362492,3,1,0,1
73404000,73290000,73324000,0,-0.0053710938,1.0,0.20825523,1.1590613,0.0014967369,3,1,0,1
73804000,73690000,73724000,0,-0.012359619,1.0,0.17275955,1.1607078,0.00102854,3,1,0,1
74204000,74090000,74124000,0,-0.0043640137,1.0,0.11842248,1.1600974,0.0004835416,3,1,0,1
74604000,74490000,74524000,0,-0.002380371,1.0,0.07489402,1.1593796,0.00019352123,3,1,0,1
75004000,74890000,74924000,0,-0.0093688965,1.0,0.0421678,1.1585484,6.139143e-05,3,1,0,1
75404000,75290000,75324000,0,-0.008361816,1.0,0.0019906806,1.1577748,1.3691123e-07,3,1,0,1
75804000,75690000,75724000,0,-0.002380371,1.0,-0.03916268,1.1569965,5.3024036e-05,3,1,0,1
76212000,76090000,76132000,0,-0.0043640137,1.0,-0.06936964,1.1589565,0.00016608549,3,1,0,1
76604000,76490000,76524000,0,-0.002380371,1.0,-0.09615274,1.1574376,0.00031951093,3,1,0,1
77004000,76890000,76924000,0,-0.0053710938,1.0,-0.11617819,1.1568716,0.00046668525,3,1,0,1
77404000,77290000,77324000,0,-0.006378174,1.0,-0.13388385,1.1563821,0.0006200333,3,1,0,1
77812000,77690000,77732000,0,-0.0073547363,1.0,-0.14508703,1.1565537,0.0007280335,3,1,0,1
78212000,78090000,78132000,0,-0.006378174,1.0,-0.16155183,1.1559908,0.00090308656,3,1,0,1
78604000,78490000,78524000,0,-0.010375977,1.0,-0.16590142,1.1567,0.0009517864,3,1,0,1
79012000,78890000,78932000,0,-0.0053710938,1.0,-0.1783857,1.1569239,0.0011002092,3,1,0,1
79404000,79290000,79324000,0,0.0016479492,1.0,-0.18854462,1.1556185,0.0012304777,3,1,0,1
79812000,79690000,79732000,0,-0.006378174,1.0,-0.1812841,1.1558666,0.0011372913,3,1,0,1
80204000,80090000,80124000,0,-0.019378662,1.0,-0.16224192,1.156623,0.0009103205,3,1,0,1
80612000,80490000,80532000,0,-0.0093688965,1.0,-0.043378443,1.1569496,6.505691e-05,3,1,0,1
81012000,80890000,80932000,0,0.005645752,1.0,0.18817072,1.1564741,0.0012246955,3,1,0,1
81412000,81290000,81332000,0,-0.07836914,1.0,0.5081672,1.156074,0.008934856,3,1,0,1
81804000,81686000,81724000,0,-0.17437744,1.0,0.8279324,1.1559067,0.023720672,3,1,0,1
82204000,82090000,82124000,0,-0.18536377,1.0,1.06651,1.1531682,0.039454557,3,1,0,1
82604000,82490000,82524000,0,-0.008361816,1.0,1.5439771,1.1495641,0.08294849,3,1,0,1
83004000,82890000,82924000,0,-0.0093688965,1.0,2.6071138,1.1474632,0.23694153,3,1,0,1
83404000,83290000,83324000,0,-0.0053710938,1.0,3.450266,1.1443156,0.4161207,3,1,0,1
83804000,83690000,83724000,0,0.0016479492,1.0,4.160444,1.1437156,0.6053705,3,1,0,1
84204000,84090000,84124000,0,-0.0073547363,1.0,4.82721,1.1546612,0.80723095,3,1,0,1
84612000,84490000,84532000,0,-4.109271,1.0,5.0991025,13.266004,0.07839843,3,1,0,1
85004000,84890000,84924000,0,-4.1162596,1.0,1.7391336,1.6558888,0.07306253,3,1,0,1
85404000,85290000,85324000,0,-4.1262693,1.0,1.9396145,1.3793509,0.10909782,3,1,0,1
85804000,85690000,85724000,0,-4.114276,1.0,2.1601691,1.3610044,0.13714375,3,1,0,1
86212000,86090000,86132000,0,-4.1222715,1.0,2.4831495,1.4157342,0.1742144,3,1,0,1
86604000,86490000,86524000,0,-4.124255,1.0,2.6096792,1.4683071,0.18553136,3,1,0,1
87012000,86890000,86932000,0,-4.110278,1.0,2.5981507,1.5100391,0.17881358,3,1,0,1
87404000,87290000,87324000,0,-4.128253,1.0,2.4042435,1.5335053,0.15077579,3,1,0,1
87804000,87690000,87724000,0,-4.1212645,1.0,2.1993306,1.5318184,0.12630883,3,1,0,1
88204000,88090000,88124000,0,-4.1202574,1.0,1.969553,1.5271096,0.101607345,3,1,0,1
88612000,88490000,88532000,0,-4.1222715,1.0,1.652981,1.551105,0.07046193,3,1,0,1
89012000,88894000,88932000,0,-4.1252623,1.0,1.4019666,1.5402372,0.051044356,3,1,0,1
89412000,89290000,89332000,0,-4.1202574,1.0,1.1446469,1.5300722,0.034252413,3,1,0,1
89804000,89690000,89724000,0,-4.110278,1.0,0.91528416,1.5121903,0.022159778,3,1,0,1
90204000,90090000,90124000,0,-4.1162596,1.0,0.6405742,1.5223978,0.010781291,3,1,0,1
90612000,90490000,90532000,0,-4.1212645,1.0,0.56190896,1.5120953,0.008352428,3,1,0,1
91012000,90890000,90932000,0,-4.1262693,1.0,0.6094637,1.4915833,0.009961119,3,1,0,1
91404000,91290000,91324000,0,-4.1252623,1.0,0.6026697,1.4860657,0.00977644,3,1,0,1
91804000,91690000,91724000,0,-4.1162596,1.0,0.6697798,1.4703311,0.012204188,3,1,0,1
92204000,92090000,92124000,0,-4.1262693,1.0,0.75054765,1.4561439,0.015474345,3,1,0,1
92604000,92490000,92524000,0,-4.1252623,1.0,0.7985289,1.4446626,0.017655289,3,1,0,1
93004000,92890000,92924000,0,-4.1232786,1.0,0.78063226,1.4526242,0.0167803,3,1,0,1
93404000,93290000,93324000,0,-4.124255,1.0,0.8095076,1.4441843,0.01815011,3,1,0,1
93804000,93690000,93724000,0,-4.113269,1.0,0.8140466,1.435965,0.01845928,3,1,0,1
94212000,94090000,94132000,0,-4.128253,1.0,0.82167125,1.4345139,0.018825714,3,1,0,1
94604000,94490000,94524000,0,-4.135272,1.0,0.80224967,1.42392,0.018079795,3,1,0,1
95004000,94890000,94924000,0,-4.119281,1.0,0.71884036,1.4324379,0.014429427,3,1,0,1
95404000,95290000,95324000,0,-4.1252623,1.0,0.6940589,1.4138473,0.013628564,3,1,0,1
95804000,95690000,95724000,0,-4.1262693,1.0,0.6094382,1.3877017,0.0107059,3,1,0,1
96204000,96090000,96124000,0,-4.130267,1.0,0.39837694,1.3714362,0.004628846,3,1,0,1
96612000,96490000,96532000,0,-4.131274,1.0,0.22338772,1.3490423,0.0014796295,3,1,0,1
97012000,96890000,96932000,0,-4.124255,1.0,0.35641313,1.161539,0.004374552,3,1,0,1
97404000,97290000,97324000,0,-4.1262693,1.0,0.40519786,1.1182312,0.005873036,3,1,0,1
97812000,97690000,97732000,0,-4.1222715,1.0,0.40934515,1.1023359,0.0060803043,3,1,0,1
98204000,98090000,98124000,0,-4.1252623,1.0,0.4219377,1.0906533,0.00652935,3,1,0,1
98604000,98490000,98524000,0,-4.1212645,1.0,0.4187672,1.0819198,0.0064835115,3,1,0,1
99004000,98890000,98924000,0,-4.124255,1.0,0.42082047,1.0750877,0.0065888534,3,1,0,1
99404000,99290000,99324000,0,-4.1152525,1.0,0.4087608,1.0696913,0.0062479847,3,1,0,1
