timestamp,timestamp_sample,time_last_fuse,device_id,observation,observation_variance,innovation,innovation_variance,test_ratio,estimator_instance,fusion_enabled,innovation_rejected,fused
4172000,4091713,0,0,-0.0030822754,12.25,-1.4767051e-05,32.25036,2.7046619e-13,3,0,0,0
4236000,4151738,0,0,0.0975647,12.25,-0.10139885,32.250534,1.2752318e-05,3,0,0,0
4292000,4211746,0,0,0.020233154,12.25,-0.023649044,28.917143,7.7362733e-07,3,0,0,0
4356000,4271775,0,0,-0.046295166,12.25,0.04215313,28.917362,2.4578817e-06,3,0,0,0
4412000,4331781,0,0,0.0037231445,12.25,-0.008547152,28.917603,1.01051e-07,3,0,0,0
4476000,4391806,0,0,0.019683838,12.25,-0.02456489,26.536657,9.0958525e-07,3,0,0,0
4532000,4451812,0,0,0.038360596,12.25,-0.043200802,26.536798,2.8131642e-06,3,0,0,0
4596000,4511833,0,0,0.06704712,12.25,-0.072684936,26.537165,7.963322e-06,3,0,0,0
4652000,4571838,0,0,-0.04660034,12.25,0.040234994,26.537548,2.4400968e-06,3,0,0,0
4716000,4631857,0,0,0.013366699,12.25,-0.018712644,24.751556,5.658844e-07,3,0,0,0
4772000,4691861,0,0,-0.02722168,12.25,0.02120446,24.751951,7.266161e-07,3,0,0,0
4836000,4750876,4756000,0,0.052612305,12.25,-0.05940787,24.75248,5.70334e-06,3,0,0,0
4892000,4811881,4812000,0,-0.03857422,12.25,0.031088449,24.753017,1.5618162e-06,3,1,0,1
4956000,4870893,4876000,0,-0.0057373047,12.25,-0.017492117,18.437784,6.637981e-07,3,1,0,1
5012000,4927896,4932000,0,0.01776123,12.25,-0.03576754,16.36137,3.1276525e-06,3,1,0,1
5060000,4978572,4980000,0,0.0036621094,12.25,-0.013250012,15.328432,4.5813638e-07,3,1,0,1
5124000,5039912,5044000,0,0.064697266,12.25,-0.071816705,14.71034,1.4024528e-05,3,1,0,1
5180000,5099919,5100000,0,0.03652954,12.25,-0.032253083,14.299055,2.9100142e-06,3,1,0,1
5244000,5159924,5164000,0,-0.024505615,12.25,0.032678187,14.005702,3.0497977e-06,3,1,0,1
5300000,5219931,5220000,0,0.027130127,12.25,-0.02372504,13.785891,1.6331987e-06,3,1,0,1
5364000,5277934,5284000,0,-0.0057373047,12.25,0.011740547,13.614947,4.0496798e-07,3,1,0,1
5420000,5338607,5340000,0,-0.024505615,12.25,0.028738953,13.478395,2.4511148e-06,3,1,0,1
5484000,5399944,5404000,0,-0.043273926,12.25,0.044198055,13.366817,5.8457235e-06,3,1,0,1
5540000,5459949,5460000,0,0.01776123,12.25,-0.020322008,13.273621,1.2445256e-06,3,1,0,1
5604000,5519952,5524000,0,0.13513184,12.25,-0.13679054,13.1950655,5.672318e-05,3,1,0,1
5660000,5579956,5580000,0,0.041229248,12.25,-0.033687204,13.127752,3.4577974e-06,3,1,0,1
5724000,5639959,5644000,0,0.013061523,12.25,-0.003969555,13.069543,4.8226212e-08,3,1,0,1
5780000,5699962,5700000,0,-0.062072754,12.25,0.07176542,13.018234,1.5824806e-05,3,1,0,1
5844000,5759965,5764000,0,0.0036621094,12.25,0.0011400031,12.973373,4.006998e-09,3,1,0,1
5900000,5819968,5820000,0,0.022460938,12.25,-0.018324208,12.933497,1.038471e-06,3,1,0,1
5964000,5877970,5884000,0,-0.024505615,12.25,0.030002775,12.897489,2.7917574e-06,3,1,0,1
6012000,5927971,5932000,0,0.008361816,12.25,-0.0048440723,12.865363,7.295569e-08,3,1,0,1
6068000,5987974,5988000,0,0.01776123,12.25,-0.014592323,12.836408,6.635374e-07,3,1,0,1
6132000,6047976,6052000,0,-0.0010375977,12.25,0.004165988,12.810215,5.4192554e-08,3,1,0,1
6188000,6107978,6108000,0,0.045928955,12.25,-0.04238214,12.785713,5.6195404e-06,3,1,0,1
6252000,6165979,6172000,0,-0.0057373047,12.25,0.0104734525,12.7638445,3.437623e-07,3,1,0,1
6300000,6215980,6220000,0,0.08816528,12.25,-0.08429549,12.743624,2.2303639e-05,3,1,0,1
6356000,6274648,6276000,0,-0.010406494,12.25,0.016976535,12.725081,9.05936e-07,3,1,0,1
6420000,6335983,6340000,0,-0.019805908,12.25,0.026303262,12.70737,2.1778278e-06,3,1,0,1
6476000,6395985,6396000,0,0.013061523,12.25,-0.007974675,12.691463,2.0043532e-07,3,1,0,1
6540000,6455986,6460000,0,-0.03857422,12.25,0.043424614,12.676792,5.9500767e-06,3,1,0,1
6596000,6515987,6516000,0,0.022460938,12.25,-0.018504795,12.662331,1.0817201e-06,3,1,0,1
6660000,6575988,6580000,0,0.022460938,12.25,-0.018342644,12.649558,1.0639188e-06,3,1,0,1
6716000,6635989,6636000,0,-0.024505615,12.25,0.028789762,12.63755,2.623453e-06,3,1,0,1
6780000,6695989,6700000,0,-0.019805908,12.25,0.02369269,12.625628,1.7784257e-06,3,1,0,1
6836000,6755990,6756000,0,0.041229248,12.25,-0.03837264,12.615038,4.6689024e-06,3,1,0,1
6900000,6815991,6820000,0,0.0975647,12.25,-0.09392974,12.605188,2.7997348e-05,3,1,0,1
6956000,6875992,6876000,0,-0.019805908,12.25,0.025827438,12.595845,2.1183384e-06,3,1,0,1
7020000,6935992,6940000,0,0.07879639,12.25,-0.073094495,12.586258,1.6979806e-05,3,1,0,1
7076000,6994659,6996000,0,0.027130127,12.25,-0.019719314,12.577907,1.236617e-06,3,1,0,1
7140000,7055993,7060000,0,0.027130127,12.25,-0.019460618,12.570126,1.2051293e-06,3,1,0,1
7196000,7114660,7116000,0,0.05999756,12.25,-0.051540602,12.561768,8.45879e-06,3,1,0,1
7260000,7175994,7180000,0,-0.0010375977,12.25,0.010578402,12.554758,3.565265e-07,3,1,0,1
7316000,7235995,7236000,0,0.031829834,12.25,-0.02273028,12.548035,1.647001e-06,3,1,0,1
7380000,7295995,7300000,0,0.008361816,12.25,0.0010715546,12.541773,3.662096e-09,3,1,0,1
7436000,7355996,7356000,0,0.050628662,12.25,-0.040904608,12.534723,5.339366e-06,3,1,0,1
7500000,7415996,7420000,0,-0.043273926,12.25,0.05381891,12.52903,9.247245e-06,3,1,0,1
7556000,7475996,7476000,0,-0.015106201,12.25,0.024356313,12.52353,1.8947693e-06,3,1,0,1
7620000,7535997,7540000,0,-0.010406494,12.25,0.019178754,12.51738,1.1754043e-06,3,1,0,1
7676000,7595997,7596000,0,0.01776123,12.25,-0.009442519,12.512346,2.8503422e-07,3,1,0,1
7740000,7655997,7660000,0,-0.06677246,12.25,0.07519412,12.507662,1.8082214e-05,3,1,0,1
7796000,7715997,7716000,0,0.041229248,12.25,-0.034436442,12.503105,3.7938366e-06,3,1,0,1
7860000,7775998,7780000,0,-0.080841064,12.25,0.08843665,12.497759,2.5031819e-05,3,1,0,1
7916000,7835998,7836000,0,0.0036621094,12.25,0.002090374,12.49356,1.3990132e-08,3,1,0,1
7980000,7895998,7900000,0,0.09286499,12.25,-0.08727697,12.489667,2.4395431e-05,3,1,0,1
8036000,7954664,7956000,0,-0.029205322,12.25,0.036662273,12.484734,4.3064506e-06,3,1,0,1
8100000,8015998,8020000,0,-0.07144165,12.25,0.07810881,12.481131,1.9552672e-05,3,1,0,1
8156000,8075999,8076000,0,0.013061523,12.25,-0.007954149,12.477595,2.0282268e-07,3,1,0,1
8220000,8135999,8140000,0,0.01776123,12.25,-0.012687098,12.474336,5.1613955e-07,3,1,0,1
8276000,8195999,8196000,0,-0.09024048,12.25,0.09589714,12.469919,2.9499022e-05,3,1,0,1
8340000,8255999,8260000,0,0.0036621094,12.25,9.085052e-05,12.466887,2.6482365e-11,3,1,0,1
8396000,8315999,8316000,0,-0.024505615,12.25,0.028097905,12.463889,2.533695e-06,3,1,0,1
8460000,8375999,8380000,0,-0.029205322,12.25,0.032580815,12.459942,3.4077511e-06,3,1,0,1
8516000,8435999,8436000,0,-0.019805908,12.25,0.022520231,12.45714,1.6284984e-06,3,1,0,1
8580000,8495999,8500000,0,-0.029205322,12.25,0.031451978,12.454575,3.1770714e-06,3,1,0,1
8636000,8555999,8556000,0,0.052947998,12.250405,-0.058352675,13.250408,1.0279034e-05,3,1,0,1
8700000,8616000,8620000,0,-0.087890625,12.251488,0.086801514,13.176058,2.2873313e-05,3,1,0,1
8756000,8676000,8676000,0,0.09051514,12.252434,-0.097771645,13.112192,2.9161543e-05,3,1,0,1
8820000,8736000,8740000,0,0.024749756,12.253515,-0.025651237,13.0570135,2.015732e-06,3,1,0,1
8876000,8796000,8796000,0,-0.045654297,12.254461,0.046311803,13.008608,6.5949653e-06,3,1,0,1
8940000,8856000,8860000,0,-0.012786865,12.255541,0.010703618,12.966133,3.5343592e-07,3,1,0,1
8996000,8916000,8916000,0,-0.017456055,12.256485,0.0147301,12.928309,6.713201e-07,3,1,0,1
9060000,8976000,8980000,0,-0.11605835,12.257564,0.110639885,12.646794,3.8717113e-05,3,1,0,1
9116000,9033333,9036000,0,-0.01272583,12.258506,0.0039060684,12.635864,4.829862e-08,3,1,0,1
9164000,9084000,9084000,0,-0.05026245,12.259312,0.041323826,12.625549,5.410168e-06,3,1,0,1
9228000,9144000,9148000,0,0.048339844,12.260386,-0.05848281,12.616235,1.0843929e-05,3,1,0,1
9284000,9204000,9204000,0,-0.022125244,12.261324,0.013631718,12.607259,5.89577e-07,3,1,0,1
9348000,9264000,9268000,0,0.020111084,12.262396,-0.029003475,12.5991125,2.6706693e-06,3,1,0,1
9404000,9324000,9324000,0,0.038879395,12.26333,-0.04701834,12.591321,7.0230103e-06,3,1,0,1
9468000,9383000,9388000,0,-0.03161621,12.264398,0.025544558,12.506775,2.086947e-06,3,1,0,1
9524000,9440000,9444000,0,0.09048462,12.265327,-0.09705245,12.503134,3.0133815e-05,3,1,0,1
9572000,9492000,9492000,0,0.06689453,12.26612,-0.07159948,12.499632,1.640524e-05,3,1,0,1
9636000,9552000,9556000,0,-0.0036315918,12.267181,0.00030731363,12.496673,3.022938e-10,3,1,0,1
9692000,9612000,9612000,0,0.06680298,12.268104,-0.07016577,12.493496,1.5762555e-05,3,1,0,1
9756000,9672000,9676000,0,0.033843994,12.269159,-0.035880815,12.490856,4.1228013e-06,3,1,0,1
9812000,9730666,9732000,0,-0.013183594,12.270077,0.013118586,12.449147,5.5296096e-07,3,1,0,1
9876000,9792000,9796000,0,-0.031921387,12.271126,0.031824537,12.447994,3.2545036e-06,3,1,0,1
9932000,9852000,9852000,0,0.062042236,12.272037,-0.06263822,12.446503,1.26093155e-05,3,1,0,1
9996000,9912000,9916000,0,0.052520752,12.273079,-0.052094206,12.445502,8.722208e-06,3,1,0,1
10052000,9972000,9972000,0,-0.027374268,12.273982,0.028686991,12.444404,2.6451842e-06,3,1,0,1
10116000,10032000,10036000,0,0.033721924,12.275018,-0.032938793,12.443243,3.4877214e-06,3,1,0,1
10172000,10092000,10092000,0,0.014892578,12.275914,-0.013445476,12.442269,5.811828e-07,3,1,0,1
10236000,10150000,10156000,0,-0.1541748,12.276941,0.1567702,12.418332,7.916327e-05,3,1,0,1
10284000,10200000,10204000,0,0.09500122,12.277695,-0.09398439,12.417828,2.845285e-05,3,1,0,1
10340000,10260000,10260000,0,-0.008514404,12.278579,0.0104672965,12.417203,3.5294354e-07,3,1,0,1
10404000,10320000,10324000,0,-0.0037841797,12.279595,0.0058514304,12.417153,1.10296575e-07,3,1,0,1
10460000,10380000,10380000,0,0.00091552734,12.280471,0.0012749771,12.416961,5.2366005e-09,3,1,0,1
10524000,10440000,10444000,0,-0.031951904,12.281478,0.03391087,12.416567,3.7045575e-06,3,1,0,1
10580000,10498666,10500000,0,-0.008392334,12.282344,0.010251338,12.416429,3.3855122e-07,3,1,0,1
10644000,10560000,10564000,0,0.06677246,12.283341,-0.06473653,12.400922,1.3517764e-05,3,1,0,1
10700000,10620000,10620000,0,0.043121338,12.284199,-0.040176302,12.401142,5.206408e-06,3,1,0,1
10764000,10680000,10684000,0,0.033599854,12.285186,-0.030512039,12.401114,3.002906e-06,3,1,0,1
10820000,10740000,10740000,0,0.028808594,12.286033,-0.02508958,12.401365,2.0303798e-06,3,1,0,1
10884000,10800000,10804000,0,-0.093322754,12.287009,0.097729295,12.401867,3.0805088e-05,3,1,0,1
10940000,10860000,10860000,0,-0.06484985,12.287846,0.06783981,12.401611,1.4844005e-05,3,1,0,1
11004000,10920000,10924000,0,0.066833496,12.288812,-0.063963816,12.402134,1.3195697e-05,3,1,0,1
11060000,10980000,10980000,0,0.005584717,12.289637,-0.0019342273,12.391094,1.2077176e-08,3,1,0,1
11124000,11040000,11044000,0,-0.097717285,12.290591,0.10199481,12.391838,3.357998e-05,3,1,0,1
11180000,11100000,11100000,0,0.034088135,12.291405,-0.03127129,12.39178,3.156588e-06,3,1,0,1
11244000,11160000,11164000,0,0.10443115,12.292348,-0.10072414,12.392533,3.2746662e-05,3,1,0,1
11300000,11220000,11220000,0,0.010192871,12.29315,-0.0050589414,12.393106,8.260363e-08,3,1,0,1
11364000,11280000,11284000,0,-0.032104492,12.294081,0.036521498,12.39322,4.3049986e-06,3,1,0,1
11420000,11340000,11340000,0,0.09008789,12.29487,-0.0871488,12.384903,2.4529587e-05,3,1,0,1
11484000,11400000,11404000,0,0.052215576,12.29579,-0.04787311,12.38581,7.4014856e-06,3,1,0,1
11540000,11460000,11460000,0,0.01449585,12.296567,-0.009050436,12.386532,2.6451437e-07,3,1,0,1
11604000,11520000,11524000,0,0.00036621094,12.297473,0.004249626,12.386759,5.8318143e-08,3,1,0,1
11660000,11580000,11580000,0,-0.013702393,12.298238,0.019076284,12.387476,1.1750727e-06,3,1,0,1
11724000,11640000,11644000,0,0.00045776367,12.299131,0.005718395,12.388449,1.05582366e-07,3,1,0,1
11780000,11700000,11700000,0,-0.022979736,12.299883,0.027875423,12.388394,2.5089262e-06,3,1,0,1
11844000,11760000,11764000,0,-0.046325684,12.300764,0.05049493,12.382174,8.236802e-06,3,1,0,1
11900000,11820000,11820000,0,0.010223389,12.301502,-0.0055973646,12.382986,1.0120497e-07,3,1,0,1
11956000,11876000,11876000,0,0.0524292,12.302235,-0.046962515,12.383826,7.1237364e-06,3,1,0,1
12012000,11928000,11932000,0,0.052246094,12.30296,-0.0475792,12.383844,7.3120436e-06,3,1,0,1
12068000,11988000,11988000,0,-0.013702393,12.30368,0.019400332,12.384667,1.2156091e-06,3,1,0,1
12132000,12048000,12052000,0,-0.12158203,12.304529,0.1280295,12.385749,5.293681e-05,3,1,0,1
12188000,12108000,12108000,0,0.07147217,12.305236,-0.06705287,12.385706,1.4520246e-05,3,1,0,1
12252000,12168000,12172000,0,-0.093170166,12.306071,0.09818468,12.380782,3.114579e-05,3,1,0,1
12308000,12228000,12228000,0,0.019958496,12.306764,-0.014820316,12.381666,7.0957094e-07,3,1,0,1
12372000,12288000,12292000,0,-0.116241455,12.307585,0.12231167,12.3828125,4.832551e-05,3,1,0,1
12428000,12348000,12348000,0,0.04864502,12.308264,-0.04449705,12.382805,6.395926e-06,3,1,0,1
12492000,12408000,12412000,0,-0.036071777,12.309071,0.04126557,12.383927,5.5001847e-06,3,1,0,1
12548000,12468000,12468000,0,-0.054656982,12.309735,0.060340486,12.384845,1.1759451e-05,3,1,0,1
12612000,12528000,12532000,0,0.0066833496,12.310529,-0.0025574667,12.385005,2.1124372e-08,3,1,0,1
12668000,12588000,12588000,0,-0.073150635,12.311179,0.07733621,12.380748,1.932319e-05,3,1,0,1
12732000,12648000,12652000,0,0.054016113,12.311959,-0.049433682,12.381913,7.894382e-06,3,1,0,1
12788000,12708000,12708000,0,0.0021362305,12.312595,0.0034847544,12.382871,3.922681e-08,3,1,0,1
12852000,12768000,12772000,0,-0.09173584,12.31336,0.096130274,12.38305,2.9850575e-05,3,1,0,1
12908000,12828000,12828000,0,0.040222168,12.313983,-0.035638303,12.383981,4.1023595e-06,3,1,0,1
12972000,12886000,12892000,0,-0.08203125,12.3147335,0.087675184,12.3851795,2.4826246e-05,3,1,0,1
13020000,12936000,12940000,0,-0.0064697266,12.315207,0.009409217,12.3803005,2.8604595e-07,3,1,0,1
13076000,12996000,12996000,0,-0.053344727,12.315809,0.056901574,12.381227,1.0460318e-05,3,1,0,1
13140000,13056000,13060000,0,0.120666504,12.316542,-0.116622254,12.382416,4.393569e-05,3,1,0,1
13196000,13114666,13116000,0,0.040222168,12.31713,-0.034824744,12.383394,3.9173838e-06,3,1,0,1
13260000,13176000,13180000,0,0.09637451,12.317848,-0.09207179,12.383531,2.738222e-05,3,1,0,1
13316000,13236000,13236000,0,-0.016815186,12.318422,0.022312984,12.384478,1.6080429e-06,3,1,0,1
13380000,13296000,13300000,0,0.053710938,12.319126,-0.04753255,12.385695,7.296622e-06,3,1,0,1
13436000,13354666,13356000,0,-0.04046631,12.319687,0.044519186,12.381482,6.4029746e-06,3,1,0,1
13500000,13416000,13420000,0,-0.030822754,12.320375,0.035391793,12.382654,4.046238e-06,3,1,0,1
13556000,13476000,13476000,0,-0.096343994,12.320922,0.10139499,12.383616,3.320821e-05,3,1,0,1
13620000,13536000,13540000,0,0.016937256,12.321598,-0.011641623,12.384852,4.3771988e-07,3,1,0,1
13676000,13596000,13596000,0,-0.044158936,12.32213,0.048299607,12.384681,7.534638e-06,3,1,0,1
13740000,13656000,13660000,0,-0.015716553,12.322792,0.020324565,12.385879,1.334061e-06,3,1,0,1
13796000,13716000,13716000,0,-0.015594482,12.32331,0.020718237,12.386858,1.3861315e-06,3,1,0,1
13860000,13776000,13780000,0,0.01739502,12.323958,-0.014442266,12.3831835,6.7374935e-07,3,1,0,1
13916000,13834666,13836000,0,-0.020263672,12.324463,0.02382173,12.384121,1.832911e-06,3,1,0,1
13980000,13896000,13900000,0,-0.11401367,12.325096,0.118103124,12.385326,4.5047982e-05,3,1,0,1
14036000,13956000,13956000,0,0.050994873,12.325587,-0.046897043,12.386314,7.10246e-06,3,1,0,1
14100000,14016000,14020000,0,0.07891846,12.326208,-0.07574974,12.386325,1.8530189e-05,3,1,0,1
14156000,14076000,14076000,0,0.008026123,12.326685,-0.003890343,12.387276,4.8871986e-08,3,1,0,1
14220000,14136000,14140000,0,0.20516968,12.327292,-0.20142008,12.384987,0.00013102978,3,1,0,1
14276000,14196000,14196000,0,0.09124756,12.327756,-0.087654784,12.384814,2.4815427e-05,3,1,0,1
14340000,14256000,14260000,0,0.11886597,12.32835,-0.1142385,12.385986,4.214581e-05,3,1,0,1
14396000,14316000,14316000,0,0.028930664,12.3288,-0.02319924,12.38694,1.7379748e-06,3,1,0,1
14460000,14376000,14380000,0,0.10391235,12.329381,-0.09743391,12.388173,3.0653002e-05,3,1,0,1
14516000,14436000,14436000,0,-0.046936035,12.329819,0.052692324,12.38787,8.96516e-06,3,1,0,1
14580000,14496000,14500000,0,-0.018432617,12.330386,0.024535712,12.389061,1.9436538e-06,3,1,0,1
14636000,14556000,14556000,0,-0.037078857,12.330811,0.042735342,12.386743,5.897626e-06,3,1,0,1
14700000,14616000,14620000,0,-0.022705078,12.331365,0.027282814,12.386751,2.4037035e-06,3,1,0,1
14756000,14676000,14676000,0,-0.036621094,12.331777,0.041486226,12.387668,5.557485e-06,3,1,0,1
14820000,14736000,14740000,0,-0.017547607,12.332318,0.022712171,12.388859,1.6655051e-06,3,1,0,1
14876000,14796000,14796000,0,0.010772705,12.332718,-0.005275334,12.389827,8.9845166e-08,3,1,0,1
14940000,14856000,14860000,0,-0.012756348,12.333247,0.017460687,12.389714,9.842861e-07,3,1,0,1
14996000,14916000,14916000,0,0.010864258,12.333634,-0.0,12.390642,1.1127238e-07,3,1,0,1
15060000,14974000,14980000,0,-0.05960083,12.334151,0.06420464,12.388742,1.3309618e-05,3,1,0,1
15116000,15034666,15036000,0,0.015960693,12.334526,-0.0,12.389707,4.0651983e-07,3,1,0,1
15180000,15096000,15100000,0,-0.09213257,12.3350315,0.09741357,12.390961,3.063331e-05,3,1,0,1
15236000,15156000,15156000,0,0.05407715,12.335394,-0.0,12.391983,7.672518e-06,3,1,0,1
15300000,15214000,15220000,0,-0.054229736,12.335887,0.060122207,12.393311,1.1666551e-05,3,1,0,1
15348000,15264000,15268000,0,0.007232666,12.336103,-0.0,12.394116,4.4987982e-09,3,1,0,1
15404000,15324000,15324000,0,-0.08666992,12.336452,0.093248405,12.395231,2.8060036e-05,3,1,0,1
15468000,15384000,15388000,0,-0.07662964,12.33693,0.08200715,12.393364,2.1705719e-05,3,1,0,1
15524000,15444000,15444000,0,-0.04788208,12.337267,0.053441066,12.394521,9.216807e-06,3,1,0,1
15588000,15502000,15508000,0,0.013519287,12.337734,-0.0,12.396014,1.8398583e-07,3,1,0,1
15644000,15562666,15564000,0,0.03692627,12.338059,-0.0,12.397247,2.9732212e-06,3,1,0,1
15708000,15624000,15628000,0,0.12591553,12.338515,-0.0,12.398835,4.5378365e-05,3,1,0,1
15764000,15681333,15684000,0,-0.0064086914,12.33883,0.014403388,12.400151,6.6920984e-07,3,1,0,1
15812000,15732000,15732000,0,-0.015686035,12.3390045,0.023639347,12.397548,1.8029978e-06,3,1,0,1
15876000,15791000,15796000,0,-0.043670654,12.339447,0.052302863,12.399224,8.8250345e-06,3,1,0,1
15932000,15848000,15852000,0,-0.04800415,12.339748,0.05704447,12.400621,1.0496478e-05,3,1,0,1
15980000,15900000,15900000,0,0.008758545,12.3399105,0.00058610924,12.401717,1.1079886e-09,3,1,0,1
16044000,15960000,15964000,0,-0.118011475,12.34034,0.12817861,12.403551,5.298404e-05,3,1,0,1
16100000,16020000,16020000,0,0.023773193,12.340629,-0.0,12.405085,5.850168e-07,3,1,0,1
16164000,16080000,16084000,0,-0.042022705,12.341047,0.0532631,12.407038,9.146287e-06,3,1,0,1
16220000,16140000,16140000,0,0.033477783,12.341326,-0.0,12.404453,1.6800702e-06,3,1,0,1
16284000,16200000,16204000,0,0.09902954,12.341735,-0.0,12.406452,2.4638015e-05,3,1,0,1
16340000,16260000,16260000,0,-0.051849365,12.342003,0.06432481,12.408129,1.3338615e-05,3,1,0,1
16404000,16320000,16324000,0,-0.02319336,12.342402,0.03632938,12.41026,4.253977e-06,3,1,0,1
16460000,16378666,16380000,0,-0.022918701,12.342661,0.036795005,12.412048,4.3630907e-06,3,1,0,1
16524000,16440000,16444000,0,-0.032043457,12.343051,0.04686109,12.414316,7.0755787e-06,3,1,0,1
16580000,16500000,16500000,0,-0.017578125,12.3433,0.033188857,12.416221,3.5485846e-06,3,1,0,1
16644000,16560000,16564000,0,-0.054901123,12.34368,0.07039856,12.413485,1.5969594e-05,3,1,0,1
16700000,16620000,16620000,0,-0.05908203,12.34392,0.07534207,12.415418,1.8288316e-05,3,1,0,1
16764000,16680000,16684000,0,-0.11483765,12.344291,0.13202468,12.417861,5.614659e-05,3,1,0,1
16820000,16740000,16740000,0,-0.001159668,12.3445215,0.018772654,12.419917,1.1349916e-06,3,1,0,1
16884000,16800000,16804000,0,0.06942749,12.344884,-0.0,12.422511,8.20987e-06,3,1,0,1
16940000,16860000,16860000,0,0.045562744,12.345105,-0.0,12.424692,2.0617174e-06,3,1,0,1
17004000,16920000,16924000,0,0.054748535,12.345459,-0.0,12.427439,3.4924506e-06,3,1,0,1
17060000,16980000,16980000,0,0.0592041,12.345672,-0.0,12.42339,4.618681e-06,3,1,0,1
17124000,17040000,17044000,0,-0.10070801,12.346017,0.12364482,12.426146,4.92125e-05,3,1,0,1
17180000,17100000,17100000,0,0.012908936,12.346221,0.010655187,12.428464,3.6539674e-07,3,1,0,1
17244000,17160000,17164000,0,-0.057434082,12.346558,0.08257936,12.431377,2.1942382e-05,3,1,0,1
17300000,17220000,17220000,0,0.023040771,12.346754,0.0030078683,12.433827,2.9105347e-08,3,1,0,1
17364000,17280000,17284000,0,0.023071289,12.347083,0.0046846364,12.4369,7.0582914e-08,3,1,0,1
17420000,17338666,17340000,0,-0.07080078,12.347272,0.09694032,12.431764,3.0236824e-05,3,1,0,1
17484000,17400000,17404000,0,-0.046569824,12.347592,0.07376313,12.434811,1.7502478e-05,3,1,0,1
17540000,17460000,17460000,0,0.047912598,12.347773,-0.0,12.437371,1.2498836e-06,3,1,0,1
17604000,17520000,17524000,0,0.094696045,12.348085,-0.0,12.440578,1.3488998e-05,3,1,0,1
17660000,17580000,17580000,0,0.0002746582,12.348258,0.03096597,12.44327,3.0824417e-06,3,1,0,1
17724000,17640000,17644000,0,0.05218506,12.348564,-0.0,12.44664,1.3476119e-06,3,1,0,1
17780000,17700000,17700000,0,0.03793335,12.34873,-0.0,12.449456,1.4374761e-07,3,1,0,1
17844000,17760000,17764000,0,0.070739746,12.349029,-0.0,12.443413,6.604078e-06,3,1,0,1
17900000,17820000,17820000,0,0.0234375,12.349187,-0.0,12.4461775,6.4520616e-09,3,1,0,1
17964000,17880000,17884000,0,-0.04699707,12.349478,0.06358372,12.4496355,1.29895825e-05,3,1,0,1
18020000,17940000,17940000,0,-0.055877686,12.349629,0.06591732,12.452519,1.3957313e-05,3,1,0,1
18084000,18000000,18004000,0,-0.08822632,12.349914,0.08888421,12.456129,2.5370331e-05,3,1,0,1
18140000,18060000,18060000,0,0.029846191,12.350059,-0.0,12.459133,5.093181e-06,3,1,0,1
18204000,18118000,18124000,0,-0.03616333,12.350337,0.011949794,12.462878,4.583133e-07,3,1,0,1
18252000,18168000,18172000,0,-0.13937378,12.350341,0.098066255,12.453746,3.0888667e-05,3,1,0,1
18308000,18228000,18228000,0,-0.044677734,12.350478,-0.0,12.456697,7.571459e-07,3,1,0,1
18372000,18286000,18292000,0,-0.115234375,12.350749,0.031160273,12.460388,3.1169577e-06,3,1,0,1
18420000,18336000,18340000,0,-0.14785767,12.350746,0.042990215,12.462745,5.9317867e-06,3,1,0,1
18476000,18396000,18396000,0,-0.0630188,12.350878,-0.0,12.465853,1.5188882e-05,3,1,0,1
18540000,18456000,18460000,0,-0.17623901,12.351143,0.01080057,12.469742,3.741932e-07,3,1,0,1
18596000,18516000,18516000,0,-0.2090149,12.351269,0.011966974,12.472955,4.592607e-07,3,1,0,1
18660000,18576000,18580000,0,-0.2746582,12.351528,0.0370356,12.463417,4.4021176e-06,3,1,0,1
18716000,18636000,18636000,0,-0.40579224,12.351648,0.13518623,12.466512,5.8638107e-05,3,1,0,1
18780000,18696000,18700000,0,-0.47042847,12.351901,0.1618889,12.470385,8.406482e-05,3,1,0,1
18836000,18756000,18756000,0,-0.40808105,12.352015,0.06626943,12.473565,1.4083021e-05,3,1,0,1
18900000,18816000,18820000,0,-0.40753174,12.352262,0.028553337,12.47757,2.6136277e-06,3,1,0,1
18956000,18873333,18876000,0,-0.44015503,12.35237,0.028532118,12.48086,2.6090568e-06,3,1,0,1
19004000,18924000,18924000,0,-0.30844116,12.352342,-0.0,12.483395,5.54781e-05,3,1,0,1
19068000,18984000,18988000,0,-0.5207825,12.352584,0.038835377,12.471987,4.8370366e-06,3,1,0,1
19124000,19044000,19044000,0,-0.5298767,12.352687,0.013675034,12.475166,5.9961224e-07,3,1,0,1
19188000,19103000,19108000,0,-0.5907898,12.352923,0.035148084,12.479154,3.959845e-06,3,1,0,1
19244000,19164000,19164000,0,-0.62335205,12.353021,0.032666743,12.482399,3.4195864e-06,3,1,0,1
19308000,19224000,19228000,0,-0.6512451,12.353251,0.020100474,12.486503,1.2942905e-06,3,1,0,1
19364000,19284000,19284000,0,-0.6041565,12.353345,-0.0,12.489851,1.2547838e-05,3,1,0,1
19428000,19344000,19348000,0,-0.76898193,12.353571,0.055961072,12.476906,1.0039802e-05,3,1,0,1
19484000,19404000,19404000,0,-0.86712646,12.353658,0.117679596,12.480063,4.438595e-05,3,1,0,1
19548000,19464000,19468000,0,-0.8614502,12.353878,0.069462776,12.484063,1.5459958e-05,3,1,0,1
19604000,19524000,19524000,0,-1.0674438,12.35396,0.23841059,12.487327,0.00018207135,3,1,0,1
19668000,19584000,19588000,0,-0.957489,12.3541765,0.08439028,12.491399,2.2805196e-05,3,1,0,1
19724000,19644000,19644000,0,-0.9520874,12.354254,0.04165548,12.49473,5.554915e-06,3,1,0,1
19788000,19704000,19708000,0,-0.9517517,12.3544655,-0.0,12.498932,1.552404e-09,3,1,0,1
19844000,19764000,19764000,0,-1.0597534,12.354539,0.06468898,12.483696,1.3408414e-05,3,1,0,1
19908000,19824000,19828000,0,-1.1202393,12.354745,0.08303225,12.487632,2.2083786e-05,3,1,0,1
19964000,19884000,19884000,0,-1.1054382,12.354813,0.031059384,12.490858,3.0892525e-06,3,1,0,1
20028000,19944000,19948000,0,-1.1239319,12.355015,0.007914305,12.494929,2.0051723e-07,3,1,0,1
20084000,20004000,20004000,0,-1.184906,12.355079,0.032977343,12.498167,3.4805269e-06,3,1,0,1
20148000,20064000,20068000,0,-1.2221985,12.355277,0.03159535,12.502322,3.193858e-06,3,1,0,1
20204000,20124000,20124000,0,-1.1608887,12.355337,-0.0,12.505656,1.1689664e-05,3,1,0,1
20268000,20184000,20188000,0,-1.2271423,12.355531,-0.0,12.489844,4.3385876e-06,3,1,0,1
20324000,20240000,20244000,0,-1.434021,12.355586,0.14310014,12.492961,6.55654e-05,3,1,0,1
20372000,20292000,20292000,0,-1.414032,12.355505,0.09893203,12.495344,3.133182e-05,3,1,0,1
20436000,20352000,20356000,0,-1.539978,12.355696,0.19417727,12.499378,0.00012066139,3,1,0,1
20492000,20412000,20412000,0,-1.5289307,12.355748,0.15533662,12.502557,7.719849e-05,3,1,0,1
20556000,20472000,20476000,0,-1.5886536,12.355935,0.18432331,12.506664,0.00010866234,3,1,0,1
20612000,20532000,20532000,0,-1.6199646,12.355985,0.1883272,12.509941,0.00011340463,3,1,0,1
20676000,20592000,20596000,0,-1.637146,12.356168,0.15068913,12.493268,7.2702234e-05,3,1,0,1
20732000,20652000,20652000,0,-1.8002014,12.356212,0.28686273,12.496324,0.0002634062,3,1,0,1
20796000,20710000,20716000,0,-1.6615906,12.356391,0.11635697,12.500272,4.332368e-05,3,1,0,1
20844000,20760000,20764000,0,-1.8859863,12.356297,0.3181517,12.5026045,0.00032383815,3,1,0,1
20900000,20818666,20820000,0,-1.8598022,12.356339,0.26404285,12.505714,0.00022299768,3,1,0,1
20964000,20880000,20884000,0,-1.8997803,12.356517,0.2745391,12.509755,0.00024100146,3,1,0,1
21020000,20940000,20940000,0,-2.0523682,12.356556,0.34716856,12.491979,0.0003859309,3,1,0,1
21084000,21000000,21004000,0,-2.1386108,12.356729,0.40464687,12.495788,0.0005241417,3,1,0,1
21140000,21058666,21060000,0,-2.116394,12.356764,0.35743356,12.498781,0.0004088678,3,1,0,1
21204000,21118000,21124000,0,-2.315216,12.356934,0.5317683,12.502666,0.0009046952,3,1,0,1
21252000,21168000,21172000,0,-2.3952026,12.35683,0.5932354,12.504937,0.0011257256,3,1,0,1
21308000,21228000,21228000,0,-2.2962341,12.356863,0.47699404,12.508047,0.0007276062,3,1,0,1
21372000,21288000,21292000,0,-2.4189148,12.357032,0.5880338,12.5119505,0.0011054511,3,1,0,1
21428000,21346666,21348000,0,-2.554718,12.357063,0.6219206,12.493696,0.0012383371,3,1,0,1
21492000,21406000,21412000,0,-2.5775452,12.357227,0.6394701,12.497442,0.0013088182,3,1,0,1
21540000,21456000,21460000,0,-2.684723,12.357119,0.7422354,12.499582,0.0017629818,3,1,0,1
21596000,21516000,21516000,0,-2.6220398,12.357146,0.6757457,12.502591,0.0014609204,3,1,0,1
21660000,21576000,21580000,0,-2.6303406,12.35731,0.6830958,12.506438,0.001492415,3,1,0,1
21716000,21636000,21636000,0,-2.76062,12.357336,0.8124726,12.509487,0.0021107555,3,1,0,1
21780000,21696000,21700000,0,-2.8804321,12.357496,0.93136,12.513326,0.0027728248,3,1,0,1
21836000,21756000,21756000,0,-2.8959045,12.357519,0.8106692,12.494961,0.0021038386,3,1,0,1
21900000,21816000,21820000,0,-2.888916,12.357676,0.8029723,12.498655,0.0020634686,3,1,0,1
21956000,21876000,21876000,0,-3.0322266,12.357695,0.9447365,12.501541,0.0028557347,3,1,0,1
22020000,21936000,21940000,0,-3.0522766,12.357848,0.9639635,12.50531,0.0029722594,3,1,0,1
22076000,21996000,21996000,0,-3.137848,12.357864,1.0488353,12.508299,0.0035178422,3,1,0,1
22140000,22056000,22060000,0,-3.2696838,12.358016,1.1829414,12.512138,0.0044735773,3,1,0,1
22196000,22116000,22116000,0,-3.1561584,12.358029,1.0697582,12.51509,0.0036576088,3,1,0,1
22260000,22176000,22180000,0,-3.2502136,12.358179,0.99614286,12.4973135,0.0031760447,3,1,0,1
22316000,22236000,22236000,0,-3.3448486,12.358189,1.0964344,12.500205,0.0038468756,3,1,0,1
22380000,22296000,22300000,0,-3.4010925,12.358334,1.1607988,12.50385,0.0043105246,3,1,0,1
22436000,22356000,22356000,0,-3.4332886,12.358342,1.2002909,12.50679,0.0046077315,3,1,0,1
22500000,22414000,22420000,0,-3.5872192,12.358485,1.3671875,12.510572,0.0059763906,3,1,0,1
22548000,22464000,22468000,0,-3.4767761,12.3583555,1.2629642,12.512722,0.0050990623,3,1,0,1
22604000,22524000,22524000,0,-3.5409546,12.358363,1.3397701,12.515638,0.005736771,3,1,0,1
22668000,22584000,22588000,0,-3.6138916,12.358507,1.2224712,12.497783,0.004783043,3,1,0,1
22724000,22644000,22644000,0,-3.6267395,12.358511,1.2519431,12.500653,0.005015295,3,1,0,1
22788000,22704000,22708000,0,-3.6346436,12.358651,1.2810972,12.504266,0.00525008,3,1,0,1
22844000,22764000,22764000,0,-3.7361755,12.358653,1.4019318,12.507184,0.006285708,3,1,0,1
22908000,22824000,22828000,0,-3.691162,12.35879,1.3827102,12.510945,0.0061126878,3,1,0,1
22964000,22882666,22884000,0,-3.7026062,12.358791,1.4173715,12.51391,0.006421468,3,1,0,1
23028000,22944000,22948000,0,-3.713745,12.358927,1.2235804,12.496152,0.0047923517,3,1,0,1
23084000,23004000,23004000,0,-3.7171936,12.358924,1.2542224,12.498982,0.0050342465,3,1,0,1
23148000,23064000,23068000,0,-3.7719727,12.359056,1.3428626,12.502622,0.005769286,3,1,0,1
23204000,23124000,23124000,0,-3.760254,12.359052,1.357223,12.505417,0.00589202,3,1,0,1
23268000,23184000,23188000,0,-3.6310425,12.359182,1.263752,12.509128,0.005106892,3,1,0,1
23324000,23242666,23244000,0,-3.6857605,12.359176,1.3508279,12.512054,0.00583353,3,1,0,1
23388000,23304000,23308000,0,-3.622345,12.359304,1.327558,12.515836,0.0056325775,3,1,0,1
23444000,23364000,23364000,0,-3.685852,12.359296,1.1823637,12.49719,0.0044745547,3,1,0,1
23508000,23424000,23428000,0,-3.6661377,12.359422,1.20468,12.500771,0.0046437257,3,1,0,1
23564000,23484000,23484000,0,-3.608612,12.35941,1.1822221,12.5036125,0.004471185,3,1,0,1
23628000,23544000,23548000,0,-3.527832,12.359534,1.1419406,12.50717,0.0041704983,3,1,0,1
23684000,23604000,23604000,0,-3.5272217,12.359522,1.1785612,12.510051,0.0044412496,3,1,0,1
23748000,23664000,23668000,0,-3.5450745,12.359645,1.2419059,12.513772,0.0049300254,3,1,0,1
23804000,23724000,23724000,0,-3.4262085,12.359631,1.1611755,12.516688,0.0043088985,3,1,0,1
23868000,23784000,23788000,0,-3.467682,12.359752,1.0174422,12.498801,0.0033129214,3,1,0,1
23924000,23844000,23844000,0,-3.3460693,12.359735,0.93541694,12.50159,0.0027996595,3,1,0,1
23988000,23904000,23908000,0,-3.2251587,12.359853,0.86191034,12.50518,0.0023762614,3,1,0,1
24044000,23962666,23964000,0,-3.2457886,12.359834,0.9206743,12.507919,0.0027107345,3,1,0,1
24108000,24022000,24028000,0,-3.1860352,12.359951,0.9080534,12.511574,0.0026361544,3,1,0,1
24156000,24072000,24076000,0,-3.140503,12.359796,0.89513016,12.51362,0.0025612349,3,1,0,1
24212000,24132000,24132000,0,-3.1514587,12.359779,0.9459808,12.516499,0.0028598402,3,1,0,1
24276000,24192000,24196000,0,-3.1525574,12.359898,0.7902944,12.498672,0.001998821,3,1,0,1
24332000,24252000,24252000,0,-3.0281982,12.359878,0.7041073,12.501426,0.0015862737,3,1,0,1
24396000,24312000,24316000,0,-2.8811646,12.359994,0.6015723,12.504977,0.0011575846,3,1,0,1
24452000,24372000,24372000,0,-2.8664856,12.359973,0.6223686,12.507705,0.0012387328,3,1,0,1
24516000,24432000,24436000,0,-2.7671204,12.360087,0.5655751,12.511321,0.0010226745,3,1,0,1
24572000,24492000,24492000,0,-2.691742,12.360065,0.52611613,12.514154,0.0008847524,3,1,0,1
24636000,24552000,24556000,0,-2.6542358,12.360179,0.3781681,12.496686,0.00045775695,3,1,0,1
24692000,24612000,24612000,0,-2.5194397,12.360153,0.27612996,12.499346,0.00024400558,3,1,0,1
24756000,24672000,24676000,0,-2.5029297,12.360265,0.29947186,12.502845,0.00028692157,3,1,0,1
24812000,24732000,24732000,0,-2.453308,12.360238,0.2822857,12.505606,0.00025487837,3,1,0,1
24876000,24792000,24796000,0,-2.3663025,12.360348,0.22906828,12.509131,0.00016778872,3,1,0,1
24932000,24852000,24852000,0,-2.1670837,12.360321,0.05898094,12.511936,1.1121385e-05,3,1,0,1
24996000,24912000,24916000,0,-2.1618652,12.36043,0.08740568,12.5155735,2.441679e-05,3,1,0,1
25052000,24972000,24972000,0,-1.9216614,12.360402,-0.0,12.497339,0.00015090109,3,1,0,1
25116000,25030000,25036000,0,-1.876648,12.360508,-0.0,12.500772,0.00017514691,3,1,0,1
25172000,25090666,25092000,0,-1.9397583,12.360477,-0.0,12.50351,6.9012e-05,3,1,0,1
25236000,25152000,25156000,0,-1.8565674,12.360583,-0.0,12.507053,0.00013518771,3,1,0,1
25292000,25212000,25212000,0,-1.6893616,12.360552,-0.0,12.509822,0.00040319024,3,1,0,1
25356000,25272000,25276000,0,-1.5939026,12.360657,-0.0,12.513441,0.0005978952,3,1,0,1
25412000,25332000,25332000,0,-1.4803467,12.360624,-0.0,12.5162735,0.0009063797,3,1,0,1
25476000,25392000,25396000,0,-1.4803467,12.360728,-0.0,12.498738,0.00093808566,3,1,0,1
25532000,25452000,25452000,0,-1.395935,12.360694,-0.0,12.501467,0.0012149512,3,1,0,1
25596000,25512000,25516000,0,-1.2511597,12.360795,-0.0,12.504995,0.0018104907,3,1,0,1
25652000,25572000,25572000,0,-1.1827087,12.36076,-0.0,12.507783,0.0021320744,3,1,0,1
25716000,25632000,25636000,0,-1.1429749,12.360861,-0.0,12.511392,0.002341982,3,1,0,1
25772000,25690666,25692000,0,-1.0003357,12.360825,-0.0,12.514232,0.003206164,3,1,0,1
25836000,25752000,25756000,0,-0.9951477,12.360925,-0.0,12.496945,0.0029026468,3,1,0,1
25892000,25812000,25812000,0,-0.8251648,12.360887,-0.0,12.499674,0.0040790453,3,1,0,1
25956000,25872000,25876000,0,-0.83987427,12.360985,-0.0,12.503204,0.00403855,3,1,0,1
26012000,25932000,25932000,0,-0.6338806,12.360946,-0.0,12.506001,0.0057409755,3,1,0,1
26076000,25992000,25996000,0,-0.6175842,12.361043,-0.0,12.5096245,0.0060133673,3,1,0,1
26132000,26052000,26052000,0,-0.40441895,12.361004,-0.0,12.512479,0.008198174,3,1,0,1
26196000,26112000,26116000,0,-0.35760498,12.3611,-0.0,12.516187,0.008925226,3,1,0,1
26252000,26172000,26172000,0,-0.32546997,12.361061,-0.0,12.497942,0.007916706,3,1,0,1
26316000,26232000,26236000,0,-0.292511,12.3611555,-0.0,12.501473,0.008512895,3,1,0,1
26372000,26290666,26292000,0,-0.19430542,12.361114,-0.0,12.504282,0.0098318895,3,1,0,1
26436000,26352000,26356000,0,-0.16293335,12.361208,-0.0,12.507916,0.010533799,3,1,0,1
26492000,26412000,26412000,0,-0.028839111,12.361165,-0.0,12.510789,0.012528682,3,1,0,1
26556000,26472000,26476000,0,-0.069885254,12.361259,-0.0,12.514505,0.012509742,3,1,0,1
26612000,26532000,26532000,0,0.05807495,12.361217,-0.0,12.496408,0.011590498,3,1,0,1
26676000,26592000,26596000,0,0.13973999,12.361308,-0.0,12.499949,0.01314775,3,1,0,1
26732000,26652000,26652000,0,0.20150757,12.361263,-0.0,12.502759,0.014490778,3,1,0,1
26796000,26712000,26716000,0,0.24359131,12.361355,-0.0,12.506392,0.016247675,3,1,0,1
26852000,26772000,26772000,0,0.2657776,12.36131,-0.0,12.50924,0.018448545,3,1,0,1
26916000,26830000,26836000,0,0.18807983,12.361401,-0.0,12.512889,0.019496305,3,1,0,1
26964000,26880000,26884000,0,0.26467896,12.36122,-0.0,12.514885,0.022569317,3,1,0,1
27020000,26940000,26940000,0,0.14248657,12.361178,-0.0,12.49668,0.017387224,3,1,0,1
27084000,26998000,27004000,0,0.15930176,12.361271,-0.0,12.500076,0.019864399,3,1,0,1
27132000,27048000,27052000,0,0.16531372,12.361092,-2.6064732,12.501984,0.021736398,3,1,0,1
27188000,27108000,27108000,0,0.076416016,12.361051,-2.6170394,12.504612,0.021908382,3,1,0,1
27252000,27168000,27172000,0,0.118896484,12.361146,-2.7758746,12.508018,0.024641732,3,1,0,1
27308000,27226666,27228000,0,0.11300659,12.361105,-2.8658369,12.510649,0.0262593,3,1,0,1
27372000,27288000,27292000,0,0.115722656,12.361199,-2.983076,12.514014,0.028444089,3,1,0,1
27428000,27348000,27348000,0,-0.004699707,12.361158,-2.565911,12.495924,0.021075351,3,1,0,1
27484000,27404000,27404000,0,0.12741089,12.361115,-2.7933886,12.498381,0.0249729,3,1,0,1
27540000,27454000,27460000,0,0.003967285,12.361074,-2.7621179,12.5008335,0.024412116,3,1,0,1
27596000,27514666,27516000,0,-0.07220459,12.361033,-2.779749,12.503248,0.024719989,3,1,0,1
27660000,27576000,27580000,0,-0.106292725,12.361129,-2.8537083,12.506409,0.02604633,3,1,0,1
27716000,27636000,27636000,0,-0.14102173,12.361088,-2.9074366,12.508826,0.027031116,3,1,0,1
27780000,27696000,27700000,0,-0.152771,12.361183,-3.0020761,12.511934,0.028812367,3,1,0,1
27836000,27756000,27756000,0,-0.2263794,12.361141,-2.5901654,12.49418,0.021478662,3,1,0,1
27900000,27816000,27820000,0,-0.0663147,12.361235,-2.8522105,12.49712,0.026038336,3,1,0,1
27956000,27874666,27876000,0,-0.20440674,12.361191,-2.7954473,12.499376,0.025007732,3,1,0,1
28020000,27936000,27940000,0,-0.22927856,12.361283,-2.8696318,12.502279,0.026346512,3,1,0,1
28076000,27994666,27996000,0,-0.15621948,12.361239,-3.0203793,12.504514,0.029182073,3,1,0,1
28140000,28056000,28060000,0,-0.21594238,12.361331,-3.0501566,12.507436,0.029753359,3,1,0,1
28196000,28114666,28116000,0,-0.29003906,12.361286,-3.0506988,12.509604,0.029758776,3,1,0,1
28260000,28176000,28180000,0,-0.36883545,12.361378,-2.6237464,12.493059,0.022041183,3,1,0,1
28316000,28236000,28236000,0,-0.3828125,12.361331,-2.680112,12.495155,0.02299451,3,1,0,1
28380000,28296000,28300000,0,-0.38790894,12.361421,-2.75619,12.497898,0.024313157,3,1,0,1
28436000,28356000,28356000,0,-0.47817993,12.361374,-2.73333,12.499948,0.023907598,3,1,0,1
28500000,28416000,28420000,0,-0.46966553,12.361464,-2.816953,12.502687,0.025387257,3,1,0,1
28556000,28476000,28476000,0,-0.45254517,12.361416,-2.892321,12.504752,0.026759496,3,1,0,1
28620000,28536000,28540000,0,-0.52053833,12.361505,-2.4644907,12.48898,0.019453034,3,1,0,1
28676000,28596000,28596000,0,-0.44396973,12.361456,-2.595816,12.490951,0.021578053,3,1,0,1
28740000,28654000,28660000,0,-0.5046692,12.361543,-2.5967088,12.493542,0.021588424,3,1,0,1
28796000,28714666,28716000,0,-0.6452637,12.361493,-2.5035486,12.495509,0.020064026,3,1,0,1
28860000,28776000,28780000,0,-0.58776855,12.36158,-2.620268,12.498078,0.021973955,3,1,0,1
28916000,28836000,28836000,0,-0.59710693,12.36153,-2.651822,12.500041,0.022502838,3,1,0,1
28980000,28894000,28900000,0,-0.6442261,12.361617,-2.6514735,12.502648,0.022492232,3,1,0,1
29028000,28944000,28948000,0,-0.559906,12.361431,-2.3559275,12.486314,0.017780729,3,1,0,1
29084000,29002666,29004000,0,-0.7499695,12.361383,-2.1984394,12.488199,0.015480649,3,1,0,1
29148000,29064000,29068000,0,-0.74142456,12.361471,-2.2453926,12.490693,0.016145742,3,1,0,1
29204000,29124000,29124000,0,-0.6816406,12.3614235,-2.3320258,12.49259,0.017413022,3,1,0,1
29268000,29184000,29188000,0,-0.8245239,12.361511,-2.2217696,12.495081,0.015802251,3,1,0,1
29324000,29242666,29244000,0,-0.6800537,12.361463,-2.3862755,12.4969845,0.018226191,3,1,0,1
29388000,29302000,29308000,0,-0.7388916,12.361549,-2.3478193,12.499523,0.017639892,3,1,0,1
29436000,29352000,29356000,0,-0.7128906,12.361365,-2.0110202,12.483929,0.012958108,3,1,0,1
29492000,29409333,29412000,0,-0.82003784,12.361319,-1.9138432,12.485777,0.011734298,3,1,0,1
29540000,29460000,29460000,0,-0.70565796,12.361137,-2.0320885,12.487049,0.013227732,3,1,0,1
29604000,29520000,29524000,0,-0.7659912,12.36123,-1.9781778,12.489519,0.012532707,3,1,0,1
29660000,29580000,29580000,0,-0.9526367,12.361185,-1.7944193,12.491383,0.010310918,3,1,0,1
29724000,29640000,29644000,0,-0.89346313,12.361278,-1.8539007,12.493893,0.011003608,3,1,0,1
29780000,29700000,29700000,0,-0.7315674,12.361233,-2.0092244,12.495801,0.012922686,3,1,0,1
29844000,29760000,29764000,0,-0.9701233,12.361324,-1.436336,12.482031,0.0066112997,3,1,0,1
29900000,29820000,29820000,0,-0.9359741,12.361278,-1.4585507,12.483889,0.00681637,3,1,0,1
29964000,29880000,29884000,0,-0.9114075,12.361367,-1.4672194,12.486356,0.006896272,3,1,0,1
30020000,29940000,29940000,0,-0.9338989,12.3613205,-1.4253888,12.488254,0.006507662,3,1,0,1
30084000,29998000,30004000,0,-0.96069336,12.361409,-1.3779755,12.490762,0.006080706,3,1,0,1
30140000,30060000,30060000,0,-1.0480957,12.361362,-1.2678154,12.4927,0.005146544,3,1,0,1
30204000,30119000,30124000,0,-1.0218201,12.361451,-1.2718735,12.495282,0.0051784734,3,1,0,1
30260000,30180000,30180000,0,-0.86416626,12.361403,-1.1420555,12.481365,0.004179962,3,1,0,1
30324000,30240000,30244000,0,-1.0433655,12.36149,-0.9406668,12.48387,0.0028351916,3,1,0,1
30380000,30300000,30300000,0,-1.0658569,12.361442,-0.8999723,12.485815,0.002594785,3,1,0,1
30444000,30360000,30364000,0,-1.0175476,12.361528,-0.93006897,12.488395,0.0027706628,3,1,0,1
30500000,30420000,30420000,0,-1.1103516,12.361479,-0.8229984,12.490382,0.0021691134,3,1,0,1
30564000,30480000,30484000,0,-1.1177063,12.361566,-0.8006017,12.493036,0.0020522254,3,1,0,1
30620000,30540000,30540000,0,-1.0591125,12.361515,-0.6279032,12.4794,0.0012637225,3,1,0,1
30684000,30600000,30604000,0,-1.0975952,12.361601,-0.58000326,12.481957,0.0010780481,3,1,0,1
30740000,30660000,30660000,0,-1.121582,12.361549,-0.5493134,12.483953,0.0009668259,3,1,0,1
30804000,30720000,30724000,0,-1.2767334,12.361634,-0.39385736,12.486572,0.0004969294,3,1,0,1
30860000,30780000,30780000,0,-1.2473755,12.361582,-0.42806923,12.488597,0.00058691384,3,1,0,1
30924000,30840000,30844000,0,-1.2370911,12.361667,-0.44823325,12.491252,0.00064337195,3,1,0,1
30980000,30900000,30900000,0,-1.3162231,12.361615,-0.37677097,12.493301,0.00045450393,3,1,0,1
31044000,30959000,30964000,0,-1.3430481,12.361699,-0.18728113,12.480365,0.00011241409,3,1,0,1
31100000,31020000,31020000,0,-1.2226562,12.361646,-0.3225119,12.48233,0.00033331575,3,1,0,1
31164000,31079000,31084000,0,-1.3523254,12.361729,-0.20913315,12.484919,0.00014012643,3,1,0,1
31220000,31140000,31140000,0,-1.3682556,12.361675,-0.21209323,12.486921,0.0001440981,3,1,0,1
31284000,31200000,31204000,0,-1.5157166,12.361758,-0.09842515,12.489551,3.1025967e-05,3,1,0,1
31340000,31260000,31260000,0,-1.4179993,12.361705,-0.2462933,12.49156,0.0001942444,3,1,0,1
31404000,31320000,31324000,0,-1.5845032,12.361788,-0.14874053,12.494218,7.082875e-05,3,1,0,1
31460000,31376000,31380000,0,-1.7548828,12.361733,0.09503031,12.480664,2.8943201e-05,3,1,0,1
31508000,31428000,31428000,0,-1.8291321,12.361545,0.10474825,12.482008,3.5161636e-05,3,1,0,1
31572000,31488000,31492000,0,-1.9267883,12.3616295,0.11931527,12.484551,4.5611992e-05,3,1,0,1
31628000,31548000,31548000,0,-2.0196228,12.361578,0.1403538,12.486506,6.310552e-05,3,1,0,1
31692000,31608000,31612000,0,-2.0465393,12.361662,0.087590694,12.489073,2.4572297e-05,3,1,0,1
31748000,31668000,31668000,0,-2.130249,12.36161,0.101388454,12.491015,3.291844e-05,3,1,0,1
31812000,31726000,31732000,0,-2.2467346,12.361694,0.25416374,12.478273,0.00020707739,3,1,0,1
31868000,31785333,31788000,0,-2.3852844,12.361641,0.33108664,12.480143,0.00035133687,3,1,0,1
31916000,31836000,31836000,0,-2.5701294,12.361454,0.4639325,12.4814415,0.00068977085,3,1,0,1
31980000,31894000,31900000,0,-2.4720764,12.36154,0.2958486,12.483887,0.00028044597,3,1,0,1
32036000,31956000,31956000,0,-2.5163574,12.361489,0.2849729,12.485768,0.0002601668,3,1,0,1
32100000,32016000,32020000,0,-2.7297974,12.361576,0.43870997,12.488247,0.0006164722,3,1,0,1
32156000,32076000,32076000,0,-2.7352905,12.361526,0.3891673,12.490113,0.00048502747,3,1,0,1
32220000,32136000,32140000,0,-2.8491821,12.361611,0.5285213,12.477528,0.0008954811,3,1,0,1
32276000,32192000,32196000,0,-2.7975159,12.361559,0.430377,12.479328,0.0005936998,3,1,0,1
32324000,32244000,32244000,0,-2.8547058,12.361373,0.4495101,12.480572,0.00064759643,3,1,0,1
32388000,32302000,32308000,0,-2.9492798,12.361461,0.49364614,12.482941,0.0007808625,3,1,0,1
32436000,32352000,32356000,0,-2.9965515,12.361277,0.5053365,12.484184,0.00081820326,3,1,0,1
32492000,32412000,32412000,0,-3.0718384,12.361231,0.54157066,12.486008,0.00093960785,3,1,0,1
32556000,32472000,32476000,0,-3.1186523,12.361321,0.5434468,12.488407,0.00094594737,3,1,0,1
32612000,32529333,32532000,0,-3.1654663,12.361276,0.6121795,12.475553,0.001201594,3,1,0,1
32660000,32580000,32580000,0,-3.1036682,12.361094,0.52115226,12.476764,0.0008707376,3,1,0,1
32724000,32639000,32644000,0,-3.2492676,12.361187,0.6323707,12.479085,0.0012818015,3,1,0,1
32780000,32700000,32700000,0,-3.2529907,12.361143,0.6033597,12.480851,0.0011667247,3,1,0,1
32844000,32759000,32764000,0,-3.3931885,12.361235,0.7120693,12.483207,0.0016247192,3,1,0,1
32900000,32816000,32820000,0,-3.5276794,12.36119,0.8189781,12.485004,0.002148898,3,1,0,1
32948000,32868000,32868000,0,-3.4405823,12.361011,0.7074816,12.486232,0.001603463,3,1,0,1
33012000,32928000,32932000,0,-3.4671326,12.361105,0.7047739,12.488623,0.0015909079,3,1,0,1
33068000,32988000,32988000,0,-3.5360107,12.361063,0.7896323,12.475949,0.0019991077,3,1,0,1
33132000,33048000,33052000,0,-3.5947266,12.361156,0.8254018,12.478264,0.0021839195,3,1,0,1
33188000,33106666,33108000,0,-3.6014404,12.361113,0.8100302,12.480036,0.0021030356,3,1,0,1
33252000,33166000,33172000,0,-3.589569,12.361205,0.77804065,12.482398,0.001939843,3,1,0,1
33300000,33216000,33220000,0,-3.5450745,12.361025,0.7180078,12.483637,0.001651875,3,1,0,1
33356000,33276000,33276000,0,-3.6044312,12.360984,0.7624786,12.485464,0.0018625613,3,1,0,1
33412000,33332000,33332000,0,-3.6305237,12.360944,0.77283835,12.487298,0.0019132373,3,1,0,1
33468000,33384000,33388000,0,-3.6799927,12.360905,0.83058906,12.4749,0.002212052,3,1,0,1
33524000,33444000,33444000,0,-3.7007751,12.360866,0.8400595,12.476698,0.0022624575,3,1,0,1
33588000,33504000,33508000,0,-3.6275635,12.360962,0.7544856,12.479071,0.0018246504,3,1,0,1
33644000,33564000,33564000,0,-3.6818848,12.360921,0.8000767,12.480912,0.0020515257,3,1,0,1
33708000,33624000,33628000,0,-3.7358093,12.361017,0.8460243,12.4833555,0.0022934766,3,1,0,1
33764000,33684000,33684000,0,-3.808075,12.360976,0.9111104,12.485243,0.0026595306,3,1,0,1
33828000,33744000,33748000,0,-3.7765198,12.361072,0.8763566,12.473639,0.0024627966,3,1,0,1
33884000,33804000,33804000,0,-3.8344421,12.361029,0.9296622,12.47548,0.0027711059,3,1,0,1
33948000,33864000,33868000,0,-3.8308716,12.361122,0.92206454,12.477916,0.0027254648,3,1,0,1
34004000,33924000,33924000,0,-3.827362,12.361079,0.91340613,12.47981,0.0026741137,3,1,0,1
34068000,33984000,33988000,0,-3.7535095,12.361172,0.83705974,12.482322,0.0022453163,3,1,0,1
34124000,34044000,34044000,0,-3.7789307,12.361128,0.8608415,12.484277,0.0023743403,3,1,0,1
34188000,34104000,34108000,0,-3.8651733,12.36122,0.9470992,12.486864,0.0028734098,3,1,0,1
34244000,34162666,34164000,0,-3.8426514,12.3611765,0.91120243,12.474602,0.002662337,3,1,0,1
34308000,34224000,34228000,0,-3.8908691,12.361267,0.9609804,12.477114,0.0029605671,3,1,0,1
34364000,34284000,34284000,0,-3.877594,12.361221,0.947737,12.479088,0.0028790738,3,1,0,1
34428000,34344000,34348000,0,-3.855072,12.361312,0.92614603,12.481684,0.0027488167,3,1,0,1
34484000,34404000,34404000,0,-3.9172363,12.361265,0.9895699,12.483724,0.0031376812,3,1,0,1
34548000,34464000,34468000,0,-3.8567505,12.361355,0.9319911,12.486413,0.002782568,3,1,0,1
34604000,34524000,34524000,0,-3.9188843,12.361308,0.99657774,12.488518,0.0031810568,3,1,0,1
34668000,34582000,34588000,0,-3.8255005,12.361398,0.8848176,12.476764,0.0025099528,3,1,0,1
34716000,34632000,34636000,0,-3.831665,12.361215,0.89333534,12.478231,0.0025582088,3,1,0,1
34772000,34692000,34692000,0,-3.9317017,12.36117,0.99743605,12.480328,0.00318863,3,1,0,1
34836000,34750000,34756000,0,-3.8382874,12.361261,0.9082706,12.483068,0.002643438,3,1,0,1
34884000,34800000,34804000,0,-4.003937,12.36108,1.0765836,12.48461,0.0037134758,3,1,0,1
34940000,34860000,34860000,0,-3.8910522,12.361038,0.9670794,12.48681,0.0029959376,3,1,0,1
35004000,34920000,34924000,0,-3.8589783,12.361133,0.9420428,12.4896965,0.0028421658,3,1,0,1
35060000,34980000,34980000,0,-3.897522,12.361091,0.95515966,12.477137,0.0029248057,3,1,0,1
35124000,35040000,35044000,0,-3.9500427,12.361183,1.0157251,12.4799385,0.003306739,3,1,0,1
35180000,35100000,35100000,0,-3.8752747,12.361138,0.9461522,12.482167,0.0028687455,3,1,0,1
35244000,35160000,35164000,0,-3.9090881,12.361231,0.9881022,12.485079,0.0031280408,3,1,0,1
35300000,35220000,35220000,0,-3.9049988,12.361186,0.9887953,12.487379,0.0031318536,3,1,0,1
35364000,35280000,35284000,0,-3.9384766,12.361278,1.030796,12.4903965,0.003402744,3,1,0,1
35420000,35338666,35340000,0,-3.9574585,12.361233,1.0177615,12.477548,0.0033206474,3,1,0,1
35484000,35400000,35404000,0,-3.9577637,12.361322,1.0260687,12.480455,0.0033742904,3,1,0,1
35540000,35460000,35460000,0,-3.868805,12.361276,0.9434788,12.482788,0.002852415,3,1,0,1
35604000,35518000,35524000,0,-3.7805786,12.361365,0.8645263,12.485823,0.0023944138,3,1,0,1
35660000,35578666,35580000,0,-3.9042969,12.361319,0.9960866,12.488243,0.0031779923,3,1,0,1
35724000,35640000,35644000,0,-3.8860474,12.361408,0.985821,12.491381,0.0031120437,3,1,0,1
35780000,35698666,35700000,0,-3.8115234,12.361361,0.9183297,12.493883,0.0026999756,3,1,0,1
35844000,35760000,35764000,0,-3.86438,12.36145,0.93810964,12.4811735,0.002820407,3,1,0,1
35900000,35820000,35820000,0,-3.9311218,12.361402,1.0115254,12.483596,0.00327849,3,1,0,1
35964000,35880000,35884000,0,-3.8516846,12.361488,0.94139576,12.48675,0.0028389327,3,1,0,1
36020000,35940000,35940000,0,-3.782257,12.36144,0.8793614,12.489275,0.0024766095,3,1,0,1
36084000,36000000,36004000,0,-3.8307495,12.3615265,0.9369974,12.492536,0.002811164,3,1,0,1
36140000,36060000,36060000,0,-3.8270874,12.361478,0.94098926,12.495148,0.0028345748,3,1,0,1
36204000,36120000,36124000,0,-3.804596,12.361565,0.92873764,12.498535,0.002760495,3,1,0,1
36260000,36180000,36180000,0,-3.7446594,12.361515,0.82859087,12.484496,0.0021997294,3,1,0,1
36324000,36240000,36244000,0,-3.7419434,12.361601,0.83589363,12.487748,0.002238092,3,1,0,1
36380000,36300000,36300000,0,-3.7203674,12.361549,0.82287955,12.490368,0.0021684894,3,1,0,1
36444000,36360000,36364000,0,-3.8397827,12.361635,0.9533801,12.493755,0.0029100415,3,1,0,1
36500000,36420000,36420000,0,-3.7890015,12.361584,0.9084053,12.496451,0.0026413905,3,1,0,1
36564000,36480000,36484000,0,-3.7808838,12.36167,0.91089296,12.499955,0.0026551327,3,1,0,1
36620000,36540000,36540000,0,-3.7633667,12.361618,0.8529508,12.485429,0.0023307975,3,1,0,1
36684000,36598000,36604000,0,-3.7510376,12.361702,0.8521366,12.48879,0.0023257236,3,1,0,1
36732000,36648000,36652000,0,-3.7246094,12.361514,0.83039045,12.490759,0.002208187,3,1,0,1
36788000,36708000,36708000,0,-3.6984253,12.3614645,0.81283975,12.4935,0.002115367,3,1,0,1
36852000,36768000,36772000,0,-3.7005615,12.361551,0.8262234,12.497032,0.0021849829,3,1,0,1
36908000,36828000,36828000,0,-3.7025452,12.361503,0.8369596,12.499861,0.0022416294,3,1,0,1
36972000,36888000,36892000,0,-3.7467346,12.361589,0.89077663,12.503496,0.0025384356,3,1,0,1
37028000,36948000,36948000,0,-3.6401672,12.36154,0.74435544,12.488219,0.0017746808,3,1,0,1
37092000,37008000,37012000,0,-3.6757812,12.361625,0.7923534,12.491707,0.0020103704,3,1,0,1
37148000,37068000,37068000,0,-3.5653992,12.361574,0.6893375,12.494503,0.0015212647,3,1,0,1
37212000,37126000,37132000,0,-3.5263672,12.361659,0.66252685,12.498114,0.0014048258,3,1,0,1
37260000,37176000,37180000,0,-3.6519165,12.361473,0.79560184,12.500229,0.0020255062,3,1,0,1
37316000,37236000,37236000,0,-3.611969,12.361425,0.7641821,12.503155,0.0018682461,3,1,0,1
37380000,37296000,37300000,0,-3.5253296,12.361514,0.6871135,12.506911,0.001509965,3,1,0,1
37436000,37356000,37356000,0,-3.6083984,12.361465,0.73356915,12.490954,0.0017232427,3,1,0,1
37500000,37416000,37420000,0,-3.5924683,12.361553,0.72914886,12.49455,0.0017020479,3,1,0,1
37556000,37476000,37476000,0,-3.5155334,12.361504,0.65927815,12.49743,0.0013911586,3,1,0,1
37620000,37536000,37540000,0,-3.4720764,12.36159,0.62735367,12.501144,0.001259317,3,1,0,1
37676000,37594666,37596000,0,-3.5087585,12.36154,0.6735115,12.504116,0.001451099,3,1,0,1
37740000,37656000,37660000,0,-3.5778503,12.361627,0.75397086,12.50794,0.0018179559,3,1,0,1
37796000,37714666,37716000,0,-3.5195007,12.361577,0.7017598,12.510975,0.0015745114,3,1,0,1
37860000,37776000,37780000,0,-3.4146423,12.361664,0.56457806,12.495029,0.0010204006,3,1,0,1
37916000,37834666,37836000,0,-3.4612732,12.361612,0.62111783,12.49795,0.0012347221,3,1,0,1
37980000,37896000,37900000,0,-3.4416199,12.361697,0.6108942,12.501689,0.001194052,3,1,0,1
38036000,37956000,37956000,0,-3.4924927,12.361646,0.67043114,12.504689,0.00143779,3,1,0,1
38092000,38012000,38012000,0,-3.50531,12.361595,0.6911881,12.507724,0.0015278271,3,1,0,1
38148000,38064000,38068000,0,-3.3723755,12.361546,0.56593156,12.51079,0.0010240073,3,1,0,1
38204000,38124000,38124000,0,-3.3955078,12.361498,0.5963564,12.513876,0.0011367891,3,1,0,1
38268000,38184000,38188000,0,-3.427765,12.361586,0.598721,12.497338,0.0011473382,3,1,0,1
38324000,38244000,38244000,0,-3.4036255,12.361536,0.5829172,12.500304,0.0010873096,3,1,0,1
38388000,38304000,38308000,0,-3.4782715,12.361622,0.6660943,12.504101,0.0014193156,3,1,0,1
38444000,38364000,38364000,0,-3.3971863,12.361572,0.59184265,12.507141,0.0011202487,3,1,0,1
38508000,38424000,38428000,0,-3.2839355,12.361658,0.4882903,12.511048,0.000762294,3,1,0,1
38564000,38484000,38484000,0,-3.2748718,12.3616085,0.48804736,12.514153,0.0007613467,3,1,0,1
38628000,38544000,38548000,0,-3.2094727,12.361694,0.39603496,12.497235,0.00050201087,3,1,0,1
38684000,38604000,38604000,0,-3.2669678,12.361643,0.46324015,12.500198,0.0006866817,3,1,0,1
38748000,38664000,38668000,0,-3.2815857,12.361727,0.48846912,12.504,0.0007632824,3,1,0,1
38804000,38722666,38724000,0,-3.3476562,12.361675,0.56091714,12.5070305,0.0010062438,3,1,0,1
38868000,38784000,38788000,0,-3.2816162,12.361759,0.50370145,12.510932,0.0008111791,3,1,0,1
38924000,38844000,38844000,0,-3.2958984,12.361708,0.5254264,12.514031,0.00088244263,3,1,0,1
38988000,38902000,38908000,0,-3.1409607,12.361792,0.3793962,12.518022,0.00045994963,3,1,0,1
39036000,38952000,38956000,0,-3.156372,12.361605,0.36675763,12.498903,0.00043047345,3,1,0,1
39092000,39008000,39012000,0,-3.2235107,12.361555,0.4424467,12.501883,0.00062633475,3,1,0,1
39156000,39070000,39076000,0,-3.2947083,12.361641,0.52268314,12.505703,0.0008738339,3,1,0,1
39204000,39120000,39124000,0,-3.1820374,12.361455,0.41282248,12.507919,0.00054500636,3,1,0,1
39260000,39180000,39180000,0,-3.1642761,12.361408,0.4022057,12.510991,0.00051720743,3,1,0,1
39324000,39240000,39244000,0,-3.0949707,12.361498,0.34194922,12.514941,0.00037372694,3,1,0,1
39380000,39300000,39300000,0,-3.1717224,12.361451,0.42675948,12.518065,0.00058195466,3,1,0,1
39444000,39360000,39364000,0,-3.1773071,12.361541,0.41085792,12.500324,0.0005401595,3,1,0,1
39500000,39418666,39420000,0,-3.1689453,12.361491,0.40963793,12.503305,0.00053682836,3,1,0,1
39564000,39480000,39484000,0,-3.1418152,12.361579,0.39100933,12.507133,0.00048896356,3,1,0,1
39620000,39538666,39540000,0,-3.2134705,12.36153,0.46810174,12.510174,0.00070061133,3,1,0,1
39684000,39600000,39604000,0,-3.0918884,12.361617,0.3539071,12.514091,0.00040034947,3,1,0,1
39740000,39660000,39660000,0,-3.0605774,12.361568,0.32968497,12.517188,0.0003473374,3,1,0,1
39804000,39720000,39724000,0,-3.020111,12.361655,0.2980988,12.521184,0.00028388016,3,1,0,1
39860000,39780000,39780000,0,-3.153595,12.361606,0.4130442,12.502091,0.00054584636,3,1,0,1
39924000,39838000,39844000,0,-2.9996643,12.361691,0.26663613,12.505874,0.00022739658,3,1,0,1
39972000,39888000,39892000,0,-3.1287537,12.361505,0.4015751,12.508063,0.00051570754,3,1,0,1
40028000,39948000,39948000,0,-3.0171814,12.361457,0.29554844,12.511096,0.0002792685,3,1,0,1
40092000,40006000,40012000,0,-2.9910889,12.361546,0.27638912,12.514997,0.00024415812,3,1,0,1
40140000,40056000,40060000,0,-3.1576233,12.361362,0.44826865,12.517217,0.0006421389,3,1,0,1
40196000,40116000,40116000,0,-3.073822,12.361319,0.3689909,12.520316,0.00043498672,3,1,0,1
40260000,40176000,40180000,0,-2.9108887,12.36141,0.19081879,12.502037,0.000116498806,3,1,0,1
40316000,40236000,40236000,0,-2.942047,12.361364,0.22931671,12.504996,0.00016820845,3,1,0,1
40380000,40296000,40300000,0,-2.907135,12.361454,0.20236182,12.5088,0.00013094879,3,1,0,1
40436000,40356000,40356000,0,-2.96167,12.361407,0.26361585,12.511814,0.00022216863,3,1,0,1
40500000,40416000,40420000,0,-2.888916,12.361497,0.19694948,12.5156975,0.00012396944,3,1,0,1
40556000,40476000,40476000,0,-2.8824768,12.36145,0.19711423,12.518759,0.00012414655,3,1,0,1
40620000,40536000,40540000,0,-2.96521,12.361539,0.27000093,12.50052,0.0002332719,3,1,0,1
40676000,40594666,40596000,0,-2.962799,12.36149,0.27217364,12.503436,0.00023698603,3,1,0,1
40740000,40656000,40660000,0,-2.8523865,12.361578,0.16812873,12.507187,9.040328e-05,3,1,0,1
40796000,40716000,40716000,0,-2.8978271,12.361528,0.21961617,12.510162,0.00015421466,3,1,0,1
40860000,40776000,40780000,0,-3.088379,12.361616,0.41652393,12.513998,0.000554554,3,1,0,1
40916000,40834666,40836000,0,-2.915619,12.361567,0.24547982,12.517018,0.00019257094,3,1,0,1
40980000,40896000,40900000,0,-2.9134216,12.361654,0.24897718,12.520926,0.00019803531,3,1,0,1
41036000,40953333,40956000,0,-2.8736572,12.361605,0.1994381,12.501658,0.00012726488,3,1,0,1
41084000,41004000,41004000,0,-2.7826843,12.36142,0.111587524,12.503771,3.9833663e-05,3,1,0,1
41148000,41064000,41068000,0,-2.945984,12.361508,0.28163218,12.507502,0.0002536612,3,1,0,1
41204000,41124000,41124000,0,-2.8542786,12.361461,0.19348931,12.510458,0.000119701814,3,1,0,1
41268000,41184000,41188000,0,-2.8431702,12.361549,0.1879332,12.514271,0.000112891554,3,1,0,1
41324000,41244000,41244000,0,-3.0292969,12.361502,0.37788486,12.517272,0.0004563198,3,1,0,1
41388000,41304000,41308000,0,-2.8851013,12.361589,0.23685718,12.521154,0.00017922092,3,1,0,1
41444000,41364000,41364000,0,-2.7233582,12.361542,0.06654549,12.501883,1.4168432e-05,3,1,0,1
41508000,41424000,41428000,0,-2.901184,12.361628,0.2503612,12.505558,0.00020048922,3,1,0,1
41564000,41484000,41484000,0,-2.8942566,12.361578,0.24688649,12.508473,0.00019491729,3,1,0,1
41628000,41544000,41548000,0,-2.7793884,12.361664,0.13617682,12.512234,5.928319e-05,3,1,0,1
41684000,41604000,41604000,0,-2.6936646,12.361614,0.054932594,12.515199,9.644561e-06,3,1,0,1
41748000,41664000,41668000,0,-2.8621826,12.3617,0.22904539,12.519032,0.00016762252,3,1,0,1
41804000,41724000,41724000,0,-2.9493408,12.36165,0.31934595,12.522035,0.0003257676,3,1,0,1
41868000,41784000,41788000,0,-2.8901672,12.361736,0.25025845,12.503491,0.00020035777,3,1,0,1
41924000,41844000,41844000,0,-2.681366,12.361684,0.04353881,12.506366,6.0629213e-06,3,1,0,1
41988000,41904000,41908000,0,-2.8406067,12.361768,0.20842218,12.510074,0.00013889544,3,1,0,1
42044000,41964000,41964000,0,-2.8809814,12.361716,0.25159025,12.513002,0.00020234201,3,1,0,1
42108000,42024000,42028000,0,-2.817688,12.3618,0.1912694,12.516788,0.00011691173,3,1,0,1
42164000,42084000,42084000,0,-2.7549438,12.361748,0.13083148,12.519754,5.4687578e-05,3,1,0,1
42228000,42143000,42148000,0,-2.7115479,12.361832,0.081679106,12.501342,2.1346434e-05,3,1,0,1
42284000,42204000,42204000,0,-2.677948,12.361778,0.05228901,12.504178,8.746326e-06,3,1,0,1
42348000,42264000,42268000,0,-2.80896,12.36186,0.18795347,12.507835,0.000112974005,3,1,0,1
42404000,42324000,42324000,0,-2.7227478,12.361807,0.10447025,12.510727,3.489496e-05,3,1,0,1
42468000,42383000,42388000,0,-2.7875366,12.361889,0.17365599,12.514465,9.638894e-05,3,1,0,1
42524000,42444000,42444000,0,-2.7719116,12.361835,0.16086936,12.517401,8.269752e-05,3,1,0,1
42588000,42504000,42508000,0,-2.7798462,12.3619175,0.17195272,12.521208,9.445651e-05,3,1,0,1
42644000,42564000,42564000,0,-2.862854,12.361863,0.24950576,12.501862,0.00019918034,3,1,0,1
42708000,42623000,42628000,0,-2.762024,12.361944,0.15132904,12.505469,7.324949e-05,3,1,0,1
42764000,42680000,42684000,0,-2.7841492,12.361888,0.1759181,12.508324,9.896507e-05,3,1,0,1
42812000,42730666,42732000,0,-2.674591,12.361699,0.06822252,12.510395,1.4881424e-05,3,1,0,1
42876000,42792000,42796000,0,-2.819519,12.361783,0.21757674,12.514115,0.00015131598,3,1,0,1
42932000,42850666,42852000,0,-2.714264,12.361731,0.114238024,12.517036,4.1704207e-05,3,1,0,1
