timestamp,roll_body,pitch_body,yaw_body,yaw_sp_move_rate,q_d[0],q_d[1],q_d[2],q_d[3],thrust_body[0],thrust_body[1],thrust_body[2],reset_integral,fw_control_yaw_wheel
3228000,0.0,0.0,0.00019607165,0.0,1.0,0.0,0.0,9.803582e-05,0.0,0.0,-0.001,0,0
3236000,0.0,0.0,0.00020018153,0.0,1.0,0.0,0.0,0.000100090765,0.0,0.0,-0.001,0,0
3276000,0.0,-0.0,1.6396971,0.0,0.6823319,0.0,0.0,0.73104256,0.0,0.0,-0.001,0,0
3324000,0.0,-0.0,1.6396697,0.0,0.68234193,0.0,0.0,0.73103315,0.0,0.0,-0.001,0,0
3372000,0.0,-0.0,1.6396492,0.0,0.68234944,0.0,0.0,0.7310262,0.0,0.0,-0.001,0,0
3420000,0.0,-0.0,1.6395866,0.0,0.68237233,0.0,0.0,0.7310048,0.0,0.0,-0.001,0,0
3476000,0.0,-0.0,1.6337409,0.0,0.684506,0.0,0.0,0.72900724,0.0,0.0,-0.001,0,0
3524000,0.0,-0.0,1.6331444,0.0,0.68472344,0.0,0.0,0.728803,0.0,0.0,-0.001,0,0
3572000,0.0,-0.0,1.6324949,0.0,0.68496007,0.0,0.0,0.7285806,0.0,0.0,-0.001,0,0
3628000,0.0,-0.0,1.6317971,0.0,0.6852142,0.0,0.0,0.72834164,0.0,0.0,-0.001,0,0
3676000,0.0,-0.0,1.631257,0.0,0.68541086,0.0,0.0,0.72815657,0.0,0.0,-0.001,0,0
3724000,0.0,-0.0,1.6307405,0.0,0.6855989,0.0,0.0,0.7279795,0.0,0.0,-0.001,0,0
3772000,0.0,-0.0,1.6304697,0.0,0.6856975,0.0,0.0,0.7278866,0.0,0.0,-0.001,0,0
3820000,0.0,-0.0,1.6305981,0.0,0.68565077,0.0,0.0,0.72793067,0.0,0.0,-0.001,0,0
3876000,0.0,-0.0,1.6308169,0.0,0.6855711,0.0,0.0,0.72800577,0.0,0.0,-0.001,0,0
3924000,0.0,-0.0,1.6308559,0.0,0.6855569,0.0,0.0,0.72801906,0.0,0.0,-0.001,0,0
3972000,0.0,-0.0,1.6307223,0.0,0.6856055,0.0,0.0,0.7279733,0.0,0.0,-0.001,0,0
4028000,0.0,-0.0,1.6301098,0.0,0.68582845,0.0,0.0,0.72776324,0.0,0.0,-0.001,0,0
4076000,0.0,-0.0,1.6293743,0.0,0.686096,0.0,0.0,0.727511,0.0,0.0,-0.001,0,0
4124000,0.0,-0.0,1.6286334,0.0,0.6863655,0.0,0.0,0.7272568,0.0,0.0,-0.001,0,0
4172000,0.0,-0.0,1.6280459,0.0,0.6865791,0.0,0.0,0.7270551,0.0,0.0,-0.001,0,0
4220000,0.0,-0.0,1.628316,0.0,0.6864809,0.0,0.0,0.7271479,0.0,0.0,-0.001,0,0
4276000,0.0,-0.0,1.6291031,0.0,0.6861947,0.0,0.0,0.72741795,0.0,0.0,-0.001,0,0
4324000,0.0,-0.0,1.6296456,0.0,0.68599737,0.0,0.0,0.72760403,0.0,0.0,-0.001,0,0
4372000,0.0,-0.0,1.6300633,0.0,0.6858454,0.0,0.0,0.72774726,0.0,0.0,-0.001,0,0
4420000,0.0,-0.0,1.6302512,0.0,0.685777,0.0,0.0,0.72781175,0.0,0.0,-0.001,0,0
4476000,0.0,-0.0,1.6302083,0.0,0.6857926,0.0,0.0,0.727797,0.0,0.0,-0.001,0,0
4524000,0.0,-0.0,1.6302679,0.0,0.6857709,0.0,0.0,0.7278175,0.0,0.0,-0.001,0,0
4572000,0.0,-0.0,1.6303751,0.0,0.6857319,0.0,0.0,0.72785425,0.0,0.0,-0.001,0,0
4620000,0.0,-0.0,1.6303545,0.0,0.6857394,0.0,0.0,0.72784716,0.0,0.0,-0.001,0,0
4676000,0.0,-0.0,1.6300609,0.0,0.6858462,0.0,0.0,0.72774655,0.0,0.0,-0.001,0,0
4724000,0.0,-0.0,1.6295438,0.0,0.6860344,0.0,0.0,0.72756916,0.0,0.0,-0.001,0,0
4772000,0.0,-0.0,1.6290778,0.0,0.68620384,0.0,0.0,0.72740936,0.0,0.0,-0.001,0,0
4820000,0.0,-0.0,1.6286043,0.0,0.6863761,0.0,0.0,0.72724676,0.0,0.0,-0.001,0,0
4876000,0.0,-0.0,1.6282104,0.0,0.68651927,0.0,0.0,0.72711164,0.0,0.0,-0.001,0,0
4924000,0.0,-0.0,1.6281265,0.0,0.6865498,0.0,0.0,0.72708285,0.0,0.0,-0.001,0,0
4972000,0.0,-0.0,1.6282691,0.0,0.6864979,0.0,0.0,0.7271317,0.0,0.0,-0.001,0,0
5028000,0.0,-0.0,1.6285673,0.0,0.6863895,0.0,0.0,0.72723407,0.0,0.0,-0.001,0,0
5076000,0.0,-0.0,1.6286924,0.0,0.686344,0.0,0.0,0.72727704,0.0,0.0,-0.001,0,0
5124000,0.0,-0.0,1.6286937,0.0,0.68634355,0.0,0.0,0.7272776,0.0,0.0,-0.001,0,0
5172000,0.0,-0.0,1.6284028,0.0,0.68644935,0.0,0.0,0.7271776,0.0,0.0,-0.001,0,0
5220000,0.0,-0.0,1.6280872,0.0,0.6865641,0.0,0.0,0.7270693,0.0,0.0,-0.001,0,0
5276000,0.0,-0.0,1.6277792,0.0,0.686676,0.0,0.0,0.7269636,0.0,0.0,-0.001,0,0
5324000,0.0,-0.0,1.6271926,0.0,0.68688923,0.0,0.0,0.7267621,0.0,0.0,-0.001,0,0
5372000,0.0,-0.0,1.6267157,0.0,0.6870625,0.0,0.0,0.7265983,0.0,0.0,-0.001,0,0
5420000,0.0,-0.0,1.626154,0.0,0.6872666,0.0,0.0,0.7264053,0.0,0.0,-0.001,0,0
5476000,0.0,-0.0,1.6254488,0.0,0.68752265,0.0,0.0,0.726163,0.0,0.0,-0.001,0,0
5524000,0.0,-0.0,1.6251769,0.0,0.68762136,0.0,0.0,0.72606945,0.0,0.0,-0.001,0,0
5572000,0.0,-0.0,1.6251079,0.0,0.6876464,0.0,0.0,0.7260458,0.0,0.0,-0.001,0,0
5620000,0.0,-0.0,1.625057,0.0,0.68766487,0.0,0.0,0.7260283,0.0,0.0,-0.001,0,0
5676000,0.0,-0.0,1.6250142,0.0,0.6876804,0.0,0.0,0.7260135,0.0,0.0,-0.001,0,0
5724000,0.0,-0.0,1.6250459,0.0,0.6876689,0.0,0.0,0.72602445,0.0,0.0,-0.001,0,0
5772000,0.0,-0.0,1.6251359,0.0,0.68763626,0.0,0.0,0.7260553,0.0,0.0,-0.001,0,0
5820000,0.0,-0.0,1.625014,0.0,0.6876805,0.0,0.0,0.72601354,0.0,0.0,-0.001,0,0
5876000,0.0,-0.0,1.6247077,0.0,0.6877917,0.0,0.0,0.7259081,0.0,0.0,-0.001,0,0
5924000,0.0,-0.0,1.6245563,0.0,0.6878466,0.0,0.0,0.72585607,0.0,0.0,-0.001,0,0
5972000,0.0,-0.0,1.6249905,0.0,0.687689,0.0,0.0,0.7260054,0.0,0.0,-0.001,0,0
6020000,0.0,-0.0,1.6254007,0.0,0.6875401,0.0,0.0,0.72614646,0.0,0.0,-0.001,0,0
6076000,0.0,-0.0,1.6255627,0.0,0.6874813,0.0,0.0,0.72620213,0.0,0.0,-0.001,0,0
6124000,0.0,-0.0,1.6252052,0.0,0.6876111,0.0,0.0,0.72607917,0.0,0.0,-0.001,0,0
6172000,0.0,-0.0,1.6248024,0.0,0.6877573,0.0,0.0,0.7259407,0.0,0.0,-0.001,0,0
6228000,0.0,-0.0,1.6243647,0.0,0.68791616,0.0,0.0,0.72579014,0.0,0.0,-0.001,0,0
6276000,0.0,-0.0,1.6240757,0.0,0.688021,0.0,0.0,0.7256908,0.0,0.0,-0.001,0,0
6324000,0.0,-0.0,1.6237943,0.0,0.6881231,0.0,0.0,0.725594,0.0,0.0,-0.001,0,0
6372000,0.0,-0.0,1.6234273,0.0,0.68825626,0.0,0.0,0.7254676,0.0,0.0,-0.001,0,0
6420000,0.0,-0.0,1.6229625,0.0,0.6884248,0.0,0.0,0.7253077,0.0,0.0,-0.001,0,0
6476000,0.0,-0.0,1.6225753,0.0,0.68856525,0.0,0.0,0.7251744,0.0,0.0,-0.001,0,0
6524000,0.0,-0.0,1.6223757,0.0,0.6886376,0.0,0.0,0.7251057,0.0,0.0,-0.001,0,0
6572000,0.0,-0.0,1.6224037,0.0,0.6886274,0.0,0.0,0.72511536,0.0,0.0,-0.001,0,0
6620000,0.0,-0.0,1.6224658,0.0,0.6886049,0.0,0.0,0.72513676,0.0,0.0,-0.001,0,0
6676000,0.0,-0.0,1.622018,0.0,0.68876725,0.0,0.0,0.72498256,0.0,0.0,-0.001,0,0
6724000,0.0,-0.0,1.621361,0.0,0.6890054,0.0,0.0,0.72475624,0.0,0.0,-0.001,0,0
6772000,0.0,-0.0,1.6207948,0.0,0.68921053,0.0,0.0,0.72456115,0.0,0.0,-0.001,0,0
6820000,0.0,-0.0,1.6205578,0.0,0.6892964,0.0,0.0,0.7244794,0.0,0.0,-0.001,0,0
6876000,0.0,-0.0,1.6205301,0.0,0.68930644,0.0,0.0,0.72446996,0.0,0.0,-0.001,0,0
6924000,0.0,-0.0,1.6206266,0.0,0.6892715,0.0,0.0,0.7245031,0.0,0.0,-0.001,0,0
6972000,0.0,-0.0,1.621009,0.0,0.6891329,0.0,0.0,0.72463495,0.0,0.0,-0.001,0,0
7020000,0.0,-0.0,1.621308,0.0,0.6890246,0.0,0.0,0.72473794,0.0,0.0,-0.001,0,0
7076000,0.0,-0.0,1.6214184,0.0,0.68898463,0.0,0.0,0.7247759,0.0,0.0,-0.001,0,0
7124000,0.0,-0.0,1.6209855,0.0,0.68914145,0.0,0.0,0.72462684,0.0,0.0,-0.001,0,0
7172000,0.0,-0.0,1.6204737,0.0,0.6893268,0.0,0.0,0.72445047,0.0,0.0,-0.001,0,0
7220000,0.0,-0.0,1.6199552,0.0,0.6895147,0.0,0.0,0.7242718,0.0,0.0,-0.001,0,0
7276000,0.0,-0.0,1.6189953,0.0,0.6898622,0.0,0.0,0.7239407,0.0,0.0,-0.001,0,0
7324000,0.0,-0.0,1.6185818,0.0,0.69001186,0.0,0.0,0.7237981,0.0,0.0,-0.001,0,0
7372000,0.0,-0.0,1.618266,0.0,0.6901261,0.0,0.0,0.72368914,0.0,0.0,-0.001,0,0
7420000,0.0,-0.0,1.6178192,0.0,0.69028777,0.0,0.0,0.72353494,0.0,0.0,-0.001,0,0
7476000,0.0,-0.0,1.6173731,0.0,0.6904492,0.0,0.0,0.7233809,0.0,0.0,-0.001,0,0
7524000,0.0,-0.0,1.6169316,0.0,0.69060886,0.0,0.0,0.7232286,0.0,0.0,-0.001,0,0
7572000,0.0,-0.0,1.616361,0.0,0.69081515,0.0,0.0,0.7230314,0.0,0.0,-0.001,0,0
7620000,0.0,-0.0,1.6160158,0.0,0.6909399,0.0,0.0,0.7229122,0.0,0.0,-0.001,0,0
7676000,0.0,-0.0,1.6157693,0.0,0.691029,0.0,0.0,0.7228271,0.0,0.0,-0.001,0,0
7724000,0.0,-0.0,1.6155939,0.0,0.6910924,0.0,0.0,0.7227665,0.0,0.0,-0.001,0,0
7772000,0.0,-0.0,1.6152815,0.0,0.6912053,0.0,0.0,0.7226585,0.0,0.0,-0.001,0,0
7820000,0.0,-0.0,1.6148919,0.0,0.69134605,0.0,0.0,0.7225238,0.0,0.0,-0.001,0,0
7876000,0.0,-0.0,1.614566,0.0,0.69146377,0.0,0.0,0.72241116,0.0,0.0,-0.001,0,0
7924000,0.0,-0.0,1.6143813,0.0,0.69153047,0.0,0.0,0.7223473,0.0,0.0,-0.001,0,0
7972000,0.0,-0.0,1.6145915,0.0,0.6914546,0.0,0.0,0.72242004,0.0,0.0,-0.001,0,0
8028000,0.0,-0.0,1.614868,0.0,0.69135463,0.0,0.0,0.7225156,0.0,0.0,-0.001,0,0
8076000,0.0,-0.0,1.6149186,0.0,0.6913364,0.0,0.0,0.72253305,0.0,0.0,-0.001,0,0
8124000,0.0,-0.0,1.6146199,0.0,0.69144434,0.0,0.0,0.7224298,0.0,0.0,-0.001,0,0
8172000,0.0,-0.0,1.6143203,0.0,0.6915525,0.0,0.0,0.7223262,0.0,0.0,-0.001,0,0
8220000,0.0,-0.0,1.6140885,0.0,0.6916362,0.0,0.0,0.7222461,0.0,0.0,-0.001,0,0
8276000,0.0,-0.0,1.6138864,0.0,0.6917092,0.0,0.0,0.72217613,0.0,0.0,-0.001,0,0
8324000,0.0,-0.0,1.6141901,0.0,0.69159955,0.0,0.0,0.72228116,0.0,0.0,-0.001,0,0
8372000,0.0,-0.0,1.6143678,0.0,0.69153535,0.0,0.0,0.7223426,0.0,0.0,-0.001,0,0
8428000,0.0,-0.0,1.6144276,0.0,0.6915138,0.0,0.0,0.7223633,0.0,0.0,-0.001,0,0
8476000,0.0,-0.0,1.6144904,0.0,0.69149107,0.0,0.0,0.7223851,0.0,0.0,-0.001,0,0
8524000,0.0,-0.0,1.6146418,0.0,0.6914364,0.0,0.0,0.72243744,0.0,0.0,-0.001,0,0
8572000,0.0,-0.0,1.6148508,0.0,0.6913609,0.0,0.0,0.7225096,0.0,0.0,-0.001,0,0
8620000,0.0,-0.0,1.6151034,0.0,0.69126964,0.0,0.0,0.72259694,0.0,0.0,-0.001,0,0
8676000,0.0,-0.0,1.6150899,0.0,0.6912745,0.0,0.0,0.72259223,0.0,0.0,-0.001,0,0
8724000,0.0,-0.0,1.6149901,0.0,0.6913105,0.0,0.0,0.7225578,0.0,0.0,-0.001,0,0
8772000,0.0,-0.0,1.6149659,0.0,0.6913193,0.0,0.0,0.7225494,0.0,0.0,-0.001,0,0
8828000,0.0,-0.0,1.6150032,0.0,0.6913058,0.0,0.0,0.7225623,0.0,0.0,-0.001,0,0
8876000,0.0,-0.0,1.6150457,0.0,0.6912905,0.0,0.0,0.722577,0.0,0.0,-0.001,0,0
8924000,0.0,-0.0,1.6151503,0.0,0.69125265,0.0,0.0,0.72261316,0.0,0.0,-0.001,0,0
8972000,0.0,-0.0,1.6154945,0.0,0.6911283,0.0,0.0,0.72273207,0.0,0.0,-0.001,0,0
9028000,0.0,-0.0,1.615935,0.0,0.6909691,0.0,0.0,0.72288436,0.0,0.0,-0.001,0,0
9076000,0.0,-0.0,1.6161724,0.0,0.6908833,0.0,0.0,0.7229663,0.0,0.0,-0.001,0,0
9124000,0.0,-0.0,1.616224,0.0,0.6908647,0.0,0.0,0.72298414,0.0,0.0,-0.001,0,0
9172000,0.0,-0.0,1.6161869,0.0,0.6908781,0.0,0.0,0.72297126,0.0,0.0,-0.001,0,0
9228000,0.0,-0.0,1.6162391,0.0,0.6908592,0.0,0.0,0.7229893,0.0,0.0,-0.001,0,0
9276000,0.0,-0.0,1.6165209,0.0,0.69075733,0.0,0.0,0.72308666,0.0,0.0,-0.001,0,0
9324000,0.0,-0.0,1.6168656,0.0,0.69063264,0.0,0.0,0.7232058,0.0,0.0,-0.001,0,0
9380000,0.0,-0.0,1.6170946,0.0,0.69054985,0.0,0.0,0.72328484,0.0,0.0,-0.001,0,0
9420000,0.0,-0.0,1.6172384,0.0,0.6904979,0.0,0.0,0.72333443,0.0,0.0,-0.001,0,0
9476000,0.0,-0.0,1.6174757,0.0,0.69041204,0.0,0.0,0.7234163,0.0,0.0,-0.001,0,0
9524000,0.0,-0.0,1.6175461,0.0,0.6903866,0.0,0.0,0.72344065,0.0,0.0,-0.001,0,0
9572000,0.0,-0.0,1.6175582,0.0,0.6903822,0.0,0.0,0.7234449,0.0,0.0,-0.001,0,0
9620000,0.0,-0.0,1.6176872,0.0,0.6903355,0.0,0.0,0.72348934,0.0,0.0,-0.001,0,0
9676000,0.0,-0.0,1.6179553,0.0,0.69023854,0.0,0.0,0.7235819,0.0,0.0,-0.001,0,0
9724000,0.0,-0.0,1.6181712,0.0,0.6901604,0.0,0.0,0.72365654,0.0,0.0,-0.001,0,0
9780000,0.0,-0.0,1.6183752,0.0,0.6900866,0.0,0.0,0.7237268,0.0,0.0,-0.001,0,0
9828000,0.0,-0.0,1.6184436,0.0,0.69006187,0.0,0.0,0.72375035,0.0,0.0,-0.001,0,0
9876000,0.0,-0.0,1.6184875,0.0,0.69004595,0.0,0.0,0.72376555,0.0,0.0,-0.001,0,0
9924000,0.0,-0.0,1.6184613,0.0,0.6900555,0.0,0.0,0.72375643,0.0,0.0,-0.001,0,0
9972000,0.0,-0.0,1.6187598,0.0,0.6899474,0.0,0.0,0.7238595,0.0,0.0,-0.001,0,0
10028000,0.0,-0.0,1.6190461,0.0,0.68984383,0.0,0.0,0.7239582,0.0,0.0,-0.001,0,0
10076000,0.0,-0.0,1.6191763,0.0,0.6897967,0.0,0.0,0.7240032,0.0,0.0,-0.001,0,0
10124000,0.0,-0.0,1.6193976,0.0,0.6897165,0.0,0.0,0.7240796,0.0,0.0,-0.001,0,0
10172000,0.0,-0.0,1.6195626,0.0,0.6896568,0.0,0.0,0.7241364,0.0,0.0,-0.001,0,0
10220000,0.0,-0.0,1.6197208,0.0,0.6895995,0.0,0.0,0.7241909,0.0,0.0,-0.001,0,0
10276000,0.0,-0.0,1.6199284,0.0,0.68952435,0.0,0.0,0.72426254,0.0,0.0,-0.001,0,0
10324000,0.0,-0.0,1.6200111,0.0,0.68949443,0.0,0.0,0.72429097,0.0,0.0,-0.001,0,0
10372000,0.0,-0.0,1.6200666,0.0,0.6894743,0.0,0.0,0.72431016,0.0,0.0,-0.001,0,0
10420000,0.0,-0.0,1.6200545,0.0,0.6894787,0.0,0.0,0.7243059,0.0,0.0,-0.001,0,0
10476000,0.0,-0.0,1.6199707,0.0,0.68950903,0.0,0.0,0.7242771,0.0,0.0,-0.001,0,0
10524000,0.0,-0.0,1.6199248,0.0,0.68952566,0.0,0.0,0.72426134,0.0,0.0,-0.001,0,0
10572000,0.0,-0.0,1.6199523,0.0,0.6895157,0.0,0.0,0.72427076,0.0,0.0,-0.001,0,0
10620000,0.0,-0.0,1.620091,0.0,0.68946546,0.0,0.0,0.7243185,0.0,0.0,-0.001,0,0
10676000,0.0,-0.0,1.620139,0.0,0.6894481,0.0,0.0,0.7243352,0.0,0.0,-0.001,0,0
10724000,0.0,-0.0,1.6201142,0.0,0.68945706,0.0,0.0,0.72432655,0.0,0.0,-0.001,0,0
10772000,0.0,-0.0,1.6202067,0.0,0.68942356,0.0,0.0,0.7243585,0.0,0.0,-0.001,0,0
10828000,0.0,-0.0,1.6204474,0.0,0.6893364,0.0,0.0,0.7244414,0.0,0.0,-0.001,0,0
10876000,0.0,-0.0,1.620677,0.0,0.6892532,0.0,0.0,0.72452056,0.0,0.0,-0.001,0,0
10924000,0.0,-0.0,1.6207973,0.0,0.68920964,0.0,0.0,0.724562,0.0,0.0,-0.001,0,0
10972000,0.0,-0.0,1.6210555,0.0,0.6891161,0.0,0.0,0.7246509,0.0,0.0,-0.001,0,0
11020000,0.0,-0.0,1.6213006,0.0,0.6890273,0.0,0.0,0.7247354,0.0,0.0,-0.001,0,0
11076000,0.0,-0.0,1.6214817,0.0,0.6889617,0.0,0.0,0.7247977,0.0,0.0,-0.001,0,0
11124000,0.0,-0.0,1.6215531,0.0,0.6889358,0.0,0.0,0.72482234,0.0,0.0,-0.001,0,0
11172000,0.0,-0.0,1.6215811,0.0,0.6889256,0.0,0.0,0.72483206,0.0,0.0,-0.001,0,0
11220000,0.0,-0.0,1.6215714,0.0,0.68892914,0.0,0.0,0.7248287,0.0,0.0,-0.001,0,0
11276000,0.0,-0.0,1.621298,0.0,0.68902826,0.0,0.0,0.72473454,0.0,0.0,-0.001,0,0
11324000,0.0,-0.0,1.6211594,0.0,0.68907845,0.0,0.0,0.72468686,0.0,0.0,-0.001,0,0
11372000,0.0,-0.0,1.6209644,0.0,0.6891491,0.0,0.0,0.72461957,0.0,0.0,-0.001,0,0
11420000,0.0,-0.0,1.6208215,0.0,0.6892009,0.0,0.0,0.72457033,0.0,0.0,-0.001,0,0
11476000,0.0,-0.0,1.620711,0.0,0.68924093,0.0,0.0,0.7245323,0.0,0.0,-0.001,0,0
11524000,0.0,-0.0,1.6206485,0.0,0.6892636,0.0,0.0,0.72451067,0.0,0.0,-0.001,0,0
11572000,0.0,-0.0,1.6207174,0.0,0.6892386,0.0,0.0,0.72453445,0.0,0.0,-0.001,0,0
11628000,0.0,-0.0,1.6209245,0.0,0.68916357,0.0,0.0,0.72460586,0.0,0.0,-0.001,0,0
11676000,0.0,-0.0,1.6209881,0.0,0.6891405,0.0,0.0,0.7246278,0.0,0.0,-0.001,0,0
11724000,0.0,-0.0,1.6209219,0.0,0.6891645,0.0,0.0,0.72460496,0.0,0.0,-0.001,0,0
11772000,0.0,-0.0,1.6208802,0.0,0.6891796,0.0,0.0,0.7245906,0.0,0.0,-0.001,0,0
11820000,0.0,-0.0,1.6209595,0.0,0.68915087,0.0,0.0,0.7246179,0.0,0.0,-0.001,0,0
11876000,0.0,-0.0,1.6212083,0.0,0.68906075,0.0,0.0,0.7247036,0.0,0.0,-0.001,0,0
11924000,0.0,-0.0,1.6213073,0.0,0.68902487,0.0,0.0,0.7247378,0.0,0.0,-0.001,0,0
11972000,0.0,-0.0,1.6214215,0.0,0.6889835,0.0,0.0,0.724777,0.0,0.0,-0.001,0,0
12020000,0.0,-0.0,1.6215506,0.0,0.6889367,0.0,0.0,0.7248215,0.0,0.0,-0.001,0,0
12076000,0.0,-0.0,1.6216998,0.0,0.6888826,0.0,0.0,0.724873,0.0,0.0,-0.001,0,0
12124000,0.0,-0.0,1.6216583,0.0,0.68889767,0.0,0.0,0.7248586,0.0,0.0,-0.001,0,0
12172000,0.0,-0.0,1.6215304,0.0,0.688944,0.0,0.0,0.7248146,0.0,0.0,-0.001,0,0
12220000,0.0,-0.0,1.6214285,0.0,0.68898094,0.0,0.0,0.7247795,0.0,0.0,-0.001,0,0
12276000,0.0,-0.0,1.6214314,0.0,0.6889799,0.0,0.0,0.72478044,0.0,0.0,-0.001,0,0
12324000,0.0,-0.0,1.6214283,0.0,0.688981,0.0,0.0,0.7247794,0.0,0.0,-0.001,0,0
12380000,0.0,-0.0,1.6214868,0.0,0.68895984,0.0,0.0,0.7247995,0.0,0.0,-0.001,0,0
12428000,0.0,-0.0,1.621459,0.0,0.6889699,0.0,0.0,0.72479,0.0,0.0,-0.001,0,0
12476000,0.0,-0.0,1.6214336,0.0,0.6889791,0.0,0.0,0.7247812,0.0,0.0,-0.001,0,0
12524000,0.0,-0.0,1.6214366,0.0,0.688978,0.0,0.0,0.7247822,0.0,0.0,-0.001,0,0
12572000,0.0,-0.0,1.6214505,0.0,0.68897295,0.0,0.0,0.72478706,0.0,0.0,-0.001,0,0
12620000,0.0,-0.0,1.6213503,0.0,0.68900925,0.0,0.0,0.72475255,0.0,0.0,-0.001,0,0
12676000,0.0,-0.0,1.6212503,0.0,0.6890455,0.0,0.0,0.72471815,0.0,0.0,-0.001,0,0
12724000,0.0,-0.0,1.621223,0.0,0.68905544,0.0,0.0,0.7247086,0.0,0.0,-0.001,0,0
12772000,0.0,-0.0,1.6212103,0.0,0.68906,0.0,0.0,0.7247044,0.0,0.0,-0.001,0,0
12828000,0.0,-0.0,1.6212293,0.0,0.6890531,0.0,0.0,0.7247109,0.0,0.0,-0.001,0,0
12876000,0.0,-0.0,1.6211557,0.0,0.68907976,0.0,0.0,0.7246856,0.0,0.0,-0.001,0,0
12924000,0.0,-0.0,1.6210952,0.0,0.6891017,0.0,0.0,0.7246647,0.0,0.0,-0.001,0,0
12980000,0.0,-0.0,1.6211331,0.0,0.689088,0.0,0.0,0.7246777,0.0,0.0,-0.001,0,0
13020000,0.0,-0.0,1.6212401,0.0,0.6890492,0.0,0.0,0.7247146,0.0,0.0,-0.001,0,0
13076000,0.0,-0.0,1.621502,0.0,0.6889543,0.0,0.0,0.7248048,0.0,0.0,-0.001,0,0
13124000,0.0,-0.0,1.621804,0.0,0.68884486,0.0,0.0,0.7249089,0.0,0.0,-0.001,0,0
13172000,0.0,-0.0,1.6221461,0.0,0.6887208,0.0,0.0,0.72502667,0.0,0.0,-0.001,0,0
13220000,0.0,-0.0,1.6223686,0.0,0.6886402,0.0,0.0,0.72510326,0.0,0.0,-0.001,0,0
13276000,0.0,-0.0,1.6223298,0.0,0.68865424,0.0,0.0,0.7250899,0.0,0.0,-0.001,0,0
13324000,0.0,-0.0,1.622135,0.0,0.6887249,0.0,0.0,0.72502285,0.0,0.0,-0.001,0,0
13372000,0.0,-0.0,1.6219288,0.0,0.6887996,0.0,0.0,0.7249518,0.0,0.0,-0.001,0,0
13420000,0.0,-0.0,1.6218193,0.0,0.6888393,0.0,0.0,0.72491413,0.0,0.0,-0.001,0,0
13476000,0.0,-0.0,1.6217017,0.0,0.68888193,0.0,0.0,0.7248736,0.0,0.0,-0.001,0,0
13524000,0.0,-0.0,1.6216719,0.0,0.6888927,0.0,0.0,0.7248634,0.0,0.0,-0.001,0,0
13572000,0.0,-0.0,1.6213621,0.0,0.689005,0.0,0.0,0.72475654,0.0,0.0,-0.001,0,0
13620000,0.0,-0.0,1.6211125,0.0,0.68909544,0.0,0.0,0.72467065,0.0,0.0,-0.001,0,0
13676000,0.0,-0.0,1.6208564,0.0,0.68918824,0.0,0.0,0.7245824,0.0,0.0,-0.001,0,0
13724000,0.0,-0.0,1.620732,0.0,0.6892333,0.0,0.0,0.7245395,0.0,0.0,-0.001,0,0
13772000,0.0,-0.0,1.6206926,0.0,0.68924755,0.0,0.0,0.7245259,0.0,0.0,-0.001,0,0
13820000,0.0,-0.0,1.6206495,0.0,0.6892632,0.0,0.0,0.724511,0.0,0.0,-0.001,0,0
13876000,0.0,-0.0,1.620667,0.0,0.68925685,0.0,0.0,0.72451705,0.0,0.0,-0.001,0,0
13924000,0.0,-0.0,1.6207061,0.0,0.68924266,0.0,0.0,0.72453064,0.0,0.0,-0.001,0,0
13972000,0.0,-0.0,1.6207849,0.0,0.6892141,0.0,0.0,0.7245578,0.0,0.0,-0.001,0,0
14028000,0.0,-0.0,1.6210021,0.0,0.68913543,0.0,0.0,0.72463256,0.0,0.0,-0.001,0,0
14076000,0.0,-0.0,1.621085,0.0,0.6891054,0.0,0.0,0.7246611,0.0,0.0,-0.001,0,0
14124000,-0.0021265028,0.001039629,1.6210784,0.0,0.68910694,-0.0011093825,-0.0004122862,0.72465867,0.0,0.0,-0.01122758,0,0
14172000,-0.002323265,0.0010765498,1.6210425,0.0,0.68911976,-0.0011905634,-0.0004708363,0.7246464,0.0,0.0,-0.017440615,0,0
14228000,-0.0020599565,0.0010008949,1.6209406,0.0,0.68915695,-0.001072447,-0.00040144665,0.7246112,0.0,0.0,-0.025289722,0,0
14276000,-0.001818812,0.0011580536,1.6207772,0.0,0.68921614,-0.0010463144,-0.0002598396,0.724555,0.0,0.0,-0.032444194,0,0
14324000,-0.001397832,0.0008876266,1.6205614,0.0,0.68929464,-0.00080329337,-0.00020043274,0.7244806,0.0,0.0,-0.0399166,0,0
14372000,-0.00108204,0.0007857029,1.6203929,0.0,0.6893558,-0.0006575459,-0.000121112585,0.72442263,0.0,0.0,-0.04786955,0,0
14420000,-0.0012473648,0.00084205554,1.6203073,0.0,0.6893867,-0.0007349481,-0.00016154013,0.7243931,0.0,0.0,-0.056344185,0,0
14476000,-0.00089745375,0.0010497267,1.6202703,0.0,0.68940026,-0.0006895531,3.6792164e-05,0.7243803,0.0,0.0,-0.06680721,0,0
14524000,-0.0011330711,0.001302453,1.6203121,0.0,0.6893849,-0.00086230616,3.8550716e-05,0.7243948,0.0,0.0,-0.076252334,0,0
14572000,-0.0011423719,0.0012943036,1.620315,0.0,0.6893838,-0.00086256047,3.2371743e-05,0.7243959,0.0,0.0,-0.086064346,0,0
14620000,-0.0002994926,0.0014748836,1.6202695,0.0,0.68940055,-0.00063742325,0.00039991975,0.7243801,0.0,0.0,-0.09611283,0,0
14676000,-0.00019360299,0.0006628387,1.6202955,0.0,0.6893913,-0.00030681063,0.0001583557,0.72438914,0.0,0.0,-0.10839677,0,0
14724000,-0.00022111558,0.0002651739,1.6202844,0.0,0.68939537,-0.00017226207,1.1318418e-05,0.7243854,0.0,0.0,-0.11961947,0,0
14772000,0.0,-0.0,1.6202717,0.0,0.6894,0.0,0.0,0.7243809,0.0,0.0,-0.13115898,0,0
14820000,0.00028471817,0.00019530712,1.6201992,0.0,0.6894263,2.7410171e-05,0.00017044357,0.72435594,0.0,0.0,-0.14303604,0,0
14876000,0.0,-0.0,1.6200374,0.0,0.6894849,0.0,0.0,0.7243001,0.0,0.0,-0.15756905,0,0
14924000,0.0,-0.0,1.6198246,0.0,0.68956196,0.0,0.0,0.7242267,0.0,0.0,-0.17056155,0,0
14972000,0.0,-0.0,1.6196053,0.0,0.68964136,0.0,0.0,0.7241511,0.0,0.0,-0.18399331,0,0
15020000,0.00068540516,-8.400539e-05,1.6192862,0.0,0.6897569,0.00026679313,0.00021915906,0.724041,0.0,0.0,-0.19779707,0,0
15076000,0.0013727745,-0.00015112713,1.6191467,0.0,0.6898072,0.00052818237,0.00044481514,0.7239929,0.0,0.0,-0.21450984,0,0
15124000,0.001920536,-8.3849394e-05,1.6192272,0.0,0.6897779,0.00069272623,0.000666335,0.7240204,0.0,0.0,-0.22912216,0,0
15172000,0.0021599964,-0.00047116913,1.6193688,0.0,0.68972635,0.00091548316,0.0006195046,0.7240693,0.0,0.0,-0.2442717,0,0
15220000,0.002598224,-0.00021015646,1.6194144,0.0,0.6897098,0.0009720963,0.00086819404,0.7240848,0.0,0.0,-0.25978857,0,0
15276000,0.0026519988,-1.5998032e-05,1.61941,0.0,0.68971145,0.00092034944,0.0009546173,0.7240831,0.0,0.0,-0.27849278,0,0
15324000,0.0026065747,2.6533238e-05,1.6193762,0.0,0.68972373,0.00088930264,0.0009528239,0.72407144,0.0,0.0,-0.29496306,0,0
15372000,0.0026708087,0.00013907727,1.6193465,0.0,0.6897345,0.0008707246,0.0010148782,0.72406113,0.0,0.0,-0.31194082,0,0
15420000,0.002605676,7.338968e-05,1.6192081,0.0,0.68978465,0.0008721105,0.00096858427,0.7240135,0.0,0.0,-0.3282874,0,0
15476000,0.002403866,0.00025037685,1.6189972,0.0,0.6898611,0.0007385381,0.0009564913,0.72394073,0.0,0.0,-0.33210045,0,0
15524000,0.0025974659,-0.00021932881,1.6187855,0.0,0.6899374,0.0009754276,0.0008644498,0.72386783,0.0,0.0,-0.3386529,0,0
15572000,0.0029907273,-0.0007696122,1.6185325,0.0,0.6900284,0.0013103599,0.00081678806,0.72378063,0.0,0.0,-0.3429694,0,0
15628000,0.002586332,-0.001500532,1.6183563,0.0,0.69009197,0.0014353872,0.00041813674,0.72372025,0.0,0.0,-0.34918055,0,0
15676000,0.0022902354,-0.0011451371,1.6181469,0.0,0.6901682,0.0012046625,0.00043349285,0.7236479,0.0,0.0,-0.35364679,0,0
15724000,0.0022539666,-0.0012149712,1.617989,0.0,0.6902253,0.0012174456,0.0003961751,0.7235934,0.0,0.0,-0.360854,0,0
15780000,0.002545619,-0.0011262487,1.6177814,0.0,0.6903003,0.0012860543,0.0005321799,0.72352165,0.0,0.0,-0.3671974,0,0
15828000,0.0025735113,-0.0008054913,1.6176481,0.0,0.6903487,0.0011796874,0.0006529011,0.7234756,0.0,0.0,-0.3718327,0,0
15876000,0.0026186304,-0.0009441321,1.6175729,0.0,0.69037575,0.0012454365,0.0006213204,0.7234497,0.0,0.0,-0.3768207,0,0
15924000,0.0023976718,-0.001234076,1.6175747,0.0,0.6903751,0.0012740436,0.00044131005,0.7234504,0.0,0.0,-0.38468853,0,0
15980000,0.0025202325,-0.0013688975,1.6176221,0.0,0.69035774,0.0013651077,0.0004391368,0.72346675,0.0,0.0,-0.3917635,0,0
16020000,0.0023163373,-0.0011956232,1.6176033,0.0,0.6903648,0.0012320526,0.0004251804,0.72346026,0.0,0.0,-0.3968725,0,0
16076000,0.0022435493,-0.00089874666,1.6176147,0.0,0.6903609,0.0010995353,0.0005013336,0.72346413,0.0,0.0,-0.40266132,0,0
16124000,0.0023126844,-0.0010990945,1.6174889,0.0,0.69040626,0.0011959005,0.00045711055,0.7234208,0.0,0.0,-0.41111562,0,0
16172000,0.002300239,-0.0010706115,1.6173553,0.0,0.6904546,0.0011813324,0.00046236254,0.7233746,0.0,0.0,-0.41695848,0,0
16220000,0.0023200666,-0.00090342655,1.61715,0.0,0.690529,0.0011277631,0.000527135,0.7233037,0.0,0.0,-0.42400503,0,0
16276000,0.002643171,-0.00040768678,1.6168723,0.0,0.6906294,0.0010601477,0.0008150007,0.7232076,0.0,0.0,-0.43016356,0,0
16324000,0.0027618108,-0.00049012183,1.6167139,0.0,0.69068664,0.0011309902,0.00082934555,0.7231529,0.0,0.0,-0.43935442,0,0
16380000,0.0028095182,-0.0005762412,1.6166811,0.0,0.6906984,0.0011786178,0.0008168354,0.7231415,0.0,0.0,-0.44722003,0,0
16428000,0.0030853443,-0.00036961286,1.6167688,0.0,0.6906666,0.0011991202,0.0009879776,0.7231717,0.0,0.0,-0.453718,0,0
16476000,0.0027791795,-0.00015739503,1.6168815,0.0,0.6906262,0.0010166027,0.0009506159,0.72321063,0.0,0.0,-0.4603163,0,0
16524000,0.0027706465,-0.00026856342,1.6169037,0.0,0.6906181,0.0010538452,0.0009091542,0.7232183,0.0,0.0,-0.47031945,0,0
16572000,0.0026052347,-8.766023e-05,1.6168017,0.0,0.6906552,0.00093135715,0.00091175985,0.7231831,0.0,0.0,-0.4772738,0,0
16620000,0.0027500016,-0.0002586356,1.6166879,0.0,0.6906962,0.0010432239,0.00090500445,0.72314376,0.0,0.0,-0.48502067,0,0
16676000,0.0027764302,-0.00020011488,1.6166481,0.0,0.6907106,0.0010312102,0.0009347498,0.7231299,0.0,0.0,-0.4924461,0,0
16724000,0.0029663588,-0.00014902884,1.6166549,0.0,0.69070804,0.0010783286,0.0010210677,0.72313225,0.0,0.0,-0.5029272,0,0
16772000,0.0033523322,-0.0002945542,1.6166945,0.0,0.69069344,0.001264221,0.0011103898,0.7231457,0.0,0.0,-0.51027465,0,0
16820000,0.0030863343,-0.0001062591,1.6167704,0.0,0.69066626,0.0011042361,0.0010792811,0.72317207,0.0,0.0,-0.5184893,0,0
16876000,0.003194131,0.00022256639,1.6168634,0.0,0.69063276,0.001022506,0.0012318608,0.7232039,0.0,0.0,-0.5266606,0,0
16924000,0.0032935895,-1.8001036e-05,1.6169341,0.0,0.690607,0.0011437983,0.0011847938,0.7232284,0.0,0.0,-0.53777224,0,0
16972000,0.0033645988,-6.6109256e-05,1.6169413,0.0,0.69060427,0.0011857105,0.0011938642,0.7232309,0.0,0.0,-0.5456662,0,0
17020000,0.003587619,6.0075006e-05,1.6169058,0.0,0.6906171,0.0012171131,0.0013180617,0.72321844,0.0,0.0,-0.554143,0,0
17076000,0.003068734,-2.0300125e-05,1.6168355,0.0,0.6906428,0.0010670408,0.0011026366,0.7231945,0.0,0.0,-0.5627294,0,0
17124000,0.0033633923,-0.00011175583,1.616736,0.0,0.6906785,0.0012019211,0.0011775426,0.72316,0.0,0.0,-0.6000302,0,0
17172000,0.0036693197,-8.221058e-05,1.616593,0.0,0.69073004,0.0012969798,0.0012982704,0.7231105,0.0,0.0,-0.60829526,0,0
17220000,0.003859634,-6.638311e-05,1.6165391,0.0,0.6907494,0.0013570222,0.0013725092,0.72309166,0.0,0.0,-0.6171776,0,0
17276000,0.0037013665,-9.472557e-05,1.6165322,0.0,0.69075197,0.0013126122,0.0013054949,0.7230894,0.0,0.0,-0.6264552,0,0
17324000,0.003729376,-0.00039808085,1.6165632,0.0,0.6907406,0.0014319436,0.0012108721,0.72310024,0.0,0.0,-0.6390168,0,0
17372000,0.0034666462,-0.00015005119,1.6165844,0.0,0.6907332,0.0012515167,0.0012015575,0.72310764,0.0,0.0,-0.6478281,0,0
17428000,0.0033295795,1.9342147e-05,1.6167029,0.0,0.6906906,0.0011428621,0.0012105712,0.7231485,0.0,0.0,-0.6576652,0,0
17476000,0.003291029,-0.00013109228,1.6167557,0.0,0.6906714,0.0011839117,0.0011447116,0.7231668,0.0,0.0,-0.6666183,0,0
17524000,0.0035238157,-0.00046789044,1.6168531,0.0,0.6906358,0.0013860278,0.0011126426,0.72320056,0.0,0.0,-0.6795635,0,0
17572000,0.00269502,-9.29606e-05,1.6170111,0.0,0.6905794,0.00096418045,0.0009424959,0.7232554,0.0,0.0,-0.68755573,0,0
17620000,0.0019796132,-0.00036640075,1.6172441,0.0,0.6904953,0.00081597257,0.0005894639,0.72333616,0.0,0.0,-0.6944811,0,0
17676000,0.0005740921,-0.00062102673,1.6172743,0.0,0.69048476,0.00042280974,-6.7709734e-06,0.7233469,0.0,0.0,-0.7008441,0,0
17724000,-0.0005703681,-0.0009310067,1.6174024,0.0,0.6904385,0.0001398389,-0.000527701,0.72339094,0.0,0.0,-0.71045464,0,0
17772000,-0.0016922981,-0.0010344253,1.6181302,0.0,0.69017524,-0.00020971429,-0.00096927624,0.72364163,0.0,0.0,-0.715485,0,0
17820000,-0.0035287947,-0.0014867348,1.6195942,0.0,0.68964505,-0.0006785009,-0.0017903416,0.72414505,0.0,0.0,-0.7204335,0,0
17876000,-0.009734736,-0.0056635616,1.6219138,0.0,0.68880415,-0.0012997779,-0.0054790727,0.72492564,0.0,0.0,-0.72602254,0,0
17924000,-0.018443171,-0.013601851,1.6234602,0.0,0.68824464,-0.0014127868,-0.011370281,0.72538817,0.0,0.0,-0.7363616,0,0
17972000,-0.02630912,-0.02136605,1.6243596,0.0,0.6879212,-0.001295683,-0.016894875,0.7255875,0.0,0.0,-0.7406311,0,0
18020000,-0.033386257,-0.028837446,1.6248193,0.0,0.68775856,-0.001013592,-0.02203126,0.7256045,0.0,0.0,-0.74406314,0,0
18076000,-0.039764784,-0.03525222,1.6248797,0.0,0.68774086,-0.00087788963,-0.02654974,0.7254701,0.0,0.0,-0.7454268,0,0
18124000,-0.043691505,-0.039755993,1.6247075,0.0,0.68780696,-0.00059596053,-0.029521376,0.72529286,0.0,0.0,-0.7518792,0,0
18172000,-0.04600031,-0.04250138,1.6245553,0.0,0.6878645,-0.0003959239,-0.031301808,0.7251637,0.0,0.0,-0.75174886,0,0
18220000,-0.047152925,-0.043409403,1.6244482,0.0,0.68790406,-0.00046452403,-0.03203166,0.7250943,0.0,0.0,-0.7519302,0,0
18276000,-0.048628684,-0.04330453,1.624313,0.0,0.6879524,-0.001012373,-0.032530583,0.7250257,0.0,0.0,-0.749614,0,0
18324000,-0.049427047,-0.043126598,1.6242024,0.0,0.68799174,-0.0013533701,-0.032758787,0.7249776,0.0,0.0,-0.75511914,0,0
18372000,-0.050127607,-0.043290637,1.6241285,0.0,0.6880183,-0.0015360578,-0.03306904,0.72493786,0.0,0.0,-0.7509159,0,0
18428000,-0.050412554,-0.04340082,1.6238544,0.0,0.6881176,-0.001598656,-0.033209965,0.72483706,0.0,0.0,-0.73697525,0,0
18476000,-0.050895426,-0.043717694,1.6236932,0.0,0.68817616,-0.001652531,-0.033493727,0.7247683,0.0,0.0,-0.7274761,0,0
18524000,-0.05175654,-0.04410997,1.6235119,0.0,0.6882418,-0.0018095993,-0.033940434,0.7246848,0.0,0.0,-0.719137,0,0
18572000,-0.052044407,-0.04462093,1.6234391,0.0,0.68826884,-0.0017245647,-0.034220297,0.72464615,0.0,0.0,-0.7114952,0,0
18620000,-0.05271268,-0.045435894,1.6233968,0.0,0.68828505,-0.0016596711,-0.034742493,0.7246061,0.0,0.0,-0.70860714,0,0
18676000,-0.05329889,-0.046166573,1.6233662,0.0,0.6882969,-0.0015969189,-0.035205986,0.72457254,0.0,0.0,-0.71359086,0,0
18724000,-0.05338237,-0.046741657,1.623191,0.0,0.6883613,-0.0014201641,-0.03543376,0.72450066,0.0,0.0,-0.7230187,0,0
18772000,-0.053252287,-0.04629648,1.6230267,0.0,0.6884201,-0.0015397448,-0.03523349,0.7244542,0.0,0.0,-0.7246007,0,0
18820000,-0.052304164,-0.04630068,1.6228042,0.0,0.6885014,-0.0012157488,-0.03489136,0.72439426,0.0,0.0,-0.72290206,0,0
18876000,-0.05169449,-0.046426974,1.6226243,0.0,0.68856704,-0.000963194,-0.034713876,0.7243407,0.0,0.0,-0.7220904,0,0
18924000,-0.050778974,-0.045768775,1.6223956,0.0,0.6886494,-0.00089055556,-0.034155868,0.724289,0.0,0.0,-0.72682714,0,0
18972000,-0.050020844,-0.04527054,1.6221911,0.0,0.68872315,-0.0008135932,-0.03370988,0.72423995,0.0,0.0,-0.7258345,0,0
19020000,-0.04971775,-0.044273466,1.6219287,0.0,0.68881696,-0.0010750304,-0.033257034,0.7241712,0.0,0.0,-0.72263974,0,0
19076000,-0.05031941,-0.043933447,1.621578,0.0,0.6889431,-0.0014113407,-0.03335767,0.724046,0.0,0.0,-0.7204524,0,0
19124000,-0.049758915,-0.043401502,1.6212912,0.0,0.6890465,-0.0014157756,-0.032971524,0.72396535,0.0,0.0,-0.7246789,0,0
19180000,-0.0493786,-0.04290051,1.6208876,0.0,0.68919206,-0.0014728728,-0.032661144,0.7238407,0.0,0.0,-0.7208177,0,0
19228000,-0.0485981,-0.04235246,1.6206307,0.0,0.68928474,-0.0014066024,-0.032189835,0.72377366,0.0,0.0,-0.71997863,0,0
19276000,-0.047428675,-0.041019097,1.6204183,0.0,0.68936044,-0.0014898936,-0.031307414,0.72374016,0.0,0.0,-0.7189804,0,0
19324000,-0.045961216,-0.040117603,1.6201957,0.0,0.68944067,-0.0013140073,-0.03046581,0.7237,0.0,0.0,-0.72327673,0,0
19372000,-0.04434407,-0.0388397,1.6200696,0.0,0.6894856,-0.0012212156,-0.02944044,0.7236998,0.0,0.0,-0.7222887,0,0
19420000,-0.043452006,-0.038401306,1.6200397,0.0,0.6894964,-0.0010728785,-0.028966632,0.7237088,0.0,0.0,-0.71924406,0,0
19476000,-0.042207293,-0.03774061,1.6199862,0.0,0.6895156,-0.00088379096,-0.028288616,0.7237177,0.0,0.0,-0.7171626,0,0
19524000,-0.040799826,-0.03697081,1.6199119,0.0,0.6895422,-0.00067834766,-0.027514094,0.7237224,0.0,0.0,-0.7210711,0,0
19572000,-0.03982839,-0.03590385,1.6196975,0.0,0.689619,-0.00073266844,-0.026794914,0.72367615,0.0,0.0,-0.72009736,0,0
19620000,-0.038696866,-0.035461918,1.6195973,0.0,0.6896552,-0.0005038368,-0.026233181,0.72366244,0.0,0.0,-0.71735764,0,0
19676000,-0.037271373,-0.034207646,1.6193576,0.0,0.6897412,-0.00046945064,-0.025285121,0.7236142,0.0,0.0,-0.7158639,0,0
19724000,-0.035864163,-0.033154946,1.6191436,0.0,0.689818,-0.0003678628,-0.02441312,0.72357094,0.0,0.0,-0.7199789,0,0
19772000,-0.03446402,-0.031871412,1.6189961,0.0,0.68987066,-0.00035129863,-0.023464095,0.7235521,0.0,0.0,-0.7190549,0,0
19820000,-0.03330814,-0.031147672,1.618812,0.0,0.68993694,-0.00021666432,-0.022796394,0.7235104,0.0,0.0,-0.7161408,0,0
19876000,-0.032113113,-0.031175215,1.618497,0.0,0.6900509,0.00020202945,-0.022373615,0.7234149,0.0,0.0,-0.71379423,0,0
19924000,-0.03071384,-0.030333508,1.6183238,0.0,0.69011307,0.00037834785,-0.021577246,0.72337973,0.0,0.0,-0.7174247,0,0
19972000,-0.029528843,-0.029438462,1.6181467,0.0,0.6901766,0.00046151824,-0.020839984,0.7233407,0.0,0.0,-0.71631336,0,0
20020000,-0.04220348,-0.015968114,1.6179827,0.0,0.6901749,-0.008787631,-0.020776954,0.72329086,0.0,0.0,-0.7184795,0,0
20076000,-0.061059665,0.004324923,1.6178734,0.0,0.6898971,-0.022634374,-0.020594506,0.72326034,0.0,0.0,-0.72909546,0,0
20124000,-0.071105205,0.015772272,1.6178071,0.0,0.68963164,-0.03023795,-0.020276945,0.72324467,0.0,0.0,-0.7416676,0,0
20172000,-0.078898616,0.025114011,1.6176,0.0,0.6894173,-0.036302466,-0.019868342,0.72318125,0.0,0.0,-0.74780667,0,0
20228000,-0.08455043,0.03261101,1.6171939,0.0,0.68930686,-0.040962078,-0.019316683,0.72305256,0.0,0.0,-0.7497288,0,0
20276000,-0.08779075,0.036013473,1.6167186,0.0,0.6893373,-0.04331168,-0.019303476,0.72288686,0.0,0.0,-0.7504199,0,0
20324000,-0.09115655,0.04039868,1.616227,0.0,0.68933994,-0.04605871,-0.018994743,0.72272277,0.0,0.0,-0.75553644,0,0
20380000,-0.09549794,0.045365307,1.6157645,0.0,0.6892831,-0.04935049,-0.018836977,0.72256386,0.0,0.0,-0.7537202,0,0
20428000,-0.09928174,0.05007861,1.6154828,0.0,0.6891669,-0.05235601,-0.01856852,0.72247005,0.0,0.0,-0.75437057,0,0
20476000,-0.10278334,0.055070817,1.6153125,0.0,0.6889978,-0.055362727,-0.01810397,0.722419,0.0,0.0,-0.7548172,0,0
20524000,-0.10687673,0.060322516,1.61518,0.0,0.6887773,-0.058665287,-0.017764075,0.72237706,0.0,0.0,-0.75944346,0,0
20572000,-0.110628285,0.06572434,1.6150925,0.0,0.68853104,-0.06190247,-0.01724975,0.72235405,0.0,0.0,-0.75966984,0,0
20620000,-0.10940847,0.06539132,1.6148609,0.0,0.6886627,-0.061364602,-0.016917156,0.72228235,0.0,0.0,-0.756647,0,0
20676000,-0.10854966,0.04664365,1.4963912,0.0,0.73077875,-0.055590082,-0.019829692,0.680058,0.0,0.0,-0.74904513,0,0
20724000,-0.10508462,0.045919616,1.4993855,0.0,0.729874,-0.05404998,-0.018997584,0.6811766,0.0,0.0,-0.74866885,0,0
20772000,-0.10371847,0.047217373,1.5036461,0.0,0.728424,-0.053953674,-0.018172575,0.68275714,0.0,0.0,-0.74661535,0,0
20820000,-0.10390773,0.050131902,1.5090281,0.0,0.72650135,-0.054968484,-0.017321208,0.68474394,0.0,0.0,-0.7448088,0,0
20876000,-0.10469699,0.055621557,1.5169892,0.0,0.7235968,-0.057066683,-0.01581966,0.6876778,0.0,0.0,-0.74547195,0,0
20924000,-0.1063401,0.060824793,1.5233159,0.0,0.7212207,-0.059398256,-0.014684848,0.6899978,0.0,0.0,-0.7427523,0,0
20972000,-0.10848142,0.06661532,1.5283589,0.0,0.71923953,-0.062127106,-0.013485698,0.6918474,0.0,0.0,-0.735917,0,0
21020000,-0.10131132,0.06249302,1.5331758,0.0,0.71790934,-0.058096755,-0.012632964,0.6935931,0.0,0.0,-0.7223556,0,0
21076000,-0.081994586,0.047025796,1.5369421,0.0,0.71750176,-0.045786686,-0.011589367,0.69495356,0.0,0.0,-0.7070382,0,0
21124000,-0.072907366,0.040244214,1.5394282,0.0,0.71697694,-0.040159974,-0.010919151,0.6958534,0.0,0.0,-0.6895427,0,0
21172000,-0.06792476,0.035561338,1.5423634,0.0,0.71614,-0.036730494,-0.010920643,0.6969039,0.0,0.0,-0.6814978,0,0
21220000,-0.065551266,0.033841223,1.5452427,0.0,0.71520936,-0.03526645,-0.01076102,0.69793695,0.0,0.0,-0.687104,0,0
21276000,-0.06506987,0.033784326,1.5480944,0.0,0.71422285,-0.035059303,-0.010663397,0.6989584,0.0,0.0,-0.70018494,0,0
21324000,-0.06613746,0.03547254,1.5499088,0.0,0.7135398,-0.036020372,-0.010465655,0.6996099,0.0,0.0,-0.7118732,0,0
21372000,-0.06787441,0.038154207,1.5516754,0.0,0.71284044,-0.03756796,-0.010148591,0.7002458,0.0,0.0,-0.7218468,0,0
21428000,-0.047996227,0.020824272,1.5530815,0.0,0.712923,-0.02441105,-0.009390593,0.70075446,0.0,0.0,-0.72700083,0,0
21476000,-0.022052292,-0.0024600488,1.5537579,0.0,0.71307063,-0.0070003704,-0.008606881,0.7010043,0.0,0.0,-0.7255662,0,0
21524000,-0.0057336483,-0.01714322,1.5545157,0.0,0.7128275,0.0039678994,-0.008120586,0.70128125,0.0,0.0,-0.7290914,0,0
21572000,0.0053987084,-0.026761986,1.5555576,0.0,0.7123822,0.011312154,-0.007639328,0.70165896,0.0,0.0,-0.7315761,0,0
21620000,0.011937468,-0.032853134,1.5565474,0.0,0.711949,0.015781464,-0.0075072935,0.7020137,0.0,0.0,-0.73528993,0,0
21676000,0.014814603,-0.03502741,1.5572485,0.0,0.71166056,0.017571177,-0.007265377,0.7022661,0.0,0.0,-0.7356684,0,0
21724000,0.014464987,-0.0342334,1.5572886,0.001130562,0.71165645,0.017168181,-0.007105188,0.7022819,0.0,0.0,-0.73621154,0,0
21772000,0.012723838,-0.032097533,1.5572886,0.00093465776,0.7116886,0.015798798,-0.0069563882,0.70228297,0.0,0.0,-0.7355879,0,0
21820000,0.02452266,-0.043290548,1.5572886,0.0010731943,0.7114597,0.023925636,-0.0067970967,0.70228654,0.0,0.0,-0.7309549,0,0
21876000,0.0519959,-0.069303624,1.5572886,0.0008872307,0.71056604,0.042817265,-0.006408456,0.70229733,0.0,0.0,-0.71679956,0,0
21924000,0.065510474,-0.08232944,1.5572886,0.00043660178,0.7099352,0.052180357,-0.006298889,0.702303,0.0,0.0,-0.71050626,0,0
21972000,0.07473523,-0.09181921,1.5572886,0.00036094725,0.7094157,0.058775708,-0.0064371345,0.7023058,0.0,0.0,-0.7078207,0,0
22020000,0.08034342,-0.097452745,1.5572886,0.00041444742,0.70907396,0.062735386,-0.0064728362,0.70230794,0.0,0.0,-0.7083179,0,0
22076000,0.08272623,-0.10006506,1.5572886,0.0003426318,0.70891494,0.06449368,-0.00656585,0.70230836,0.0,0.0,-0.7101217,0,0
22124000,0.082390554,-0.09931034,1.5572886,0.0001686074,0.7089501,0.06411077,-0.00641511,0.70230937,0.0,0.0,-0.7134266,0,0
22172000,0.08037353,-0.09747649,1.5572886,0.00013939104,0.7090723,0.06275437,-0.006470711,0.70230806,0.0,0.0,-0.7157327,0,0
22220000,0.08604135,-0.10365157,1.5572886,0.00016005177,0.708688,0.06692249,-0.0066782045,0.702309,0.0,0.0,-0.71010053,0,0
22276000,0.09418491,-0.11295933,1.5572886,0.00013231793,0.70807695,0.07305918,-0.007131251,0.7023094,0.0,0.0,-0.6957923,0,0
22324000,0.09812682,-0.11759928,1.5572886,6.511299e-05,0.70775676,0.07607465,-0.007398403,0.7023092,0.0,0.0,-0.690041,0,0
22372000,0.100343265,-0.12074864,1.5572886,5.3830176e-05,0.70755,0.077958174,-0.007740954,0.70230734,0.0,0.0,-0.6881346,0,0
22420000,0.10165126,-0.1225873,1.5572886,6.180897e-05,0.70742637,0.07906251,-0.007936032,0.7023063,0.0,0.0,-0.6891062,0,0
22476000,0.101095416,-0.12274088,1.5572886,5.1098683e-05,0.7074423,0.07891949,-0.00818587,0.70230347,0.0,0.0,-0.6918861,0,0
22524000,0.0999319,-0.121489346,1.5572886,2.5145404e-05,0.7075371,0.078071155,-0.008149023,0.7023032,0.0,0.0,-0.69610065,0,0
22572000,0.0979069,-0.11990579,1.5572886,2.0788197e-05,0.7076769,0.076802,-0.008296517,0.70230055,0.0,0.0,-0.69922614,0,0
22620000,0.09415986,-0.11678041,1.5572886,2.3869456e-05,0.7079368,0.07438475,-0.008499972,0.7022964,0.0,0.0,-0.69545114,0,0
22676000,0.0884638,-0.11208036,1.5572886,1.9733347e-05,0.70831424,0.070726305,-0.00882739,0.70228964,0.0,0.0,-0.6792561,0,0
22724000,0.085057676,-0.109634496,1.5572886,9.71068e-06,0.7085183,0.06866516,-0.009152957,0.7022843,0.0,0.0,-0.67245847,0,0
22772000,0.082858585,-0.108350284,1.5572886,8.02801e-06,0.70863694,0.067437194,-0.0094681075,0.70227945,0.0,0.0,-0.6702908,0,0
22820000,0.08109841,-0.107277125,1.5572886,9.217933e-06,0.7087318,0.06643836,-0.009704241,0.70227563,0.0,0.0,-0.6713985,0,0
22876000,0.079540186,-0.106664695,1.5572886,7.620646e-06,0.70880353,0.06567204,-0.01003343,0.70227075,0.0,0.0,-0.6748878,0,0
22924000,0.07806898,-0.10622525,1.5572886,3.7500818e-06,0.708866,0.06499696,-0.010393631,0.7022652,0.0,0.0,-0.6795293,0,0
22972000,0.07711545,-0.1052988,1.5572886,3.1002658e-06,0.7089268,0.06433503,-0.010398737,0.7022647,0.0,0.0,-0.68288577,0,0
23028000,0.06624003,-0.095010735,1.5572886,3.5597918e-06,0.70956886,0.056879018,-0.010556018,0.7022574,0.0,0.0,-0.67636305,0,0
23076000,0.053919822,-0.08335299,1.5572886,2.9429495e-06,0.7102009,0.048423782,-0.010733114,0.7022497,0.0,0.0,-0.6639747,0,0
23124000,0.04655927,-0.076962866,1.5572886,1.4482107e-06,0.7105176,0.04357032,-0.011043396,0.70224243,0.0,0.0,-0.6585028,0,0
23172000,0.041831758,-0.073298745,1.5572886,1.197264e-06,0.7106945,0.04060624,-0.0113993045,0.70223534,0.0,0.0,-0.6571073,0,0
23220000,0.039151408,-0.071343474,1.5572886,1.3747244e-06,0.7107868,0.038968217,-0.011644569,0.7022307,0.0,0.0,-0.65849084,0,0
23276000,0.038477845,-0.071082264,1.5572886,1.1365115e-06,0.710805,0.038637247,-0.01178811,0.7022282,0.0,0.0,-0.6624464,0,0
23324000,0.03898899,-0.07196021,1.5572886,5.592716e-07,0.71077794,0.03912673,-0.0119210845,0.7022263,0.0,0.0,-0.6673685,0,0
23372000,0.0404775,-0.07392435,1.5572886,4.623608e-07,0.71070915,0.040344324,-0.012097449,0.7022239,0.0,0.0,-0.6708723,0,0
23420000,0.025688939,-0.06053606,1.5572886,5.3089263e-07,0.7112086,0.0303918,-0.012525239,0.7022121,0.0,0.0,-0.666341,0,0
23476000,0.005600032,-0.04315644,1.5572886,4.3889932e-07,0.7116554,0.017146243,-0.013393522,0.70219177,0.0,0.0,-0.6563749,0,0
23524000,-0.0030391165,-0.035575394,1.5572886,2.1598014e-07,0.71177185,0.011410341,-0.013728818,0.70218384,0.0,0.0,-0.6543184,0,0
23572000,-0.0077635394,-0.03168633,1.5572886,1.78555e-07,0.71181476,0.008363395,-0.014003536,0.7021779,0.0,0.0,-0.6552747,0,0
23620000,-0.009295624,-0.030604584,1.5572886,2.0502071e-07,0.71182525,0.0074382713,-0.014156476,0.70217454,0.0,0.0,-0.6581928,0,0
23676000,-0.0072121625,-0.03311818,1.5572886,1.6949463e-07,0.71180606,0.009062401,-0.014319495,0.7021717,0.0,0.0,-0.66407686,0,0
23724000,-0.0029114552,-0.03692298,1.5572886,8.3407464e-08,0.7117631,0.0119289225,-0.014163557,0.7021755,0.0,0.0,-0.6709326,0,0
23772000,0.0024761593,-0.042564444,1.5572886,6.8954584e-08,0.711686,0.015826833,-0.014279618,0.7021743,0.0,0.0,-0.67649406,0,0
23820000,-0.012714858,-0.02830735,1.5572886,7.9175145e-08,0.7118438,0.00541465,-0.014539425,0.70216644,0.0,0.0,-0.67617464,0,0
23876000,-0.034919947,-0.008317321,1.5572886,6.545564e-08,0.71180266,-0.009508192,-0.015221623,0.70215017,0.0,0.0,-0.672686,0,0
23924000,-0.043508243,-0.00036990675,1.5572886,3.221039e-08,0.7117007,-0.015354941,-0.015408671,0.70214605,0.0,0.0,-0.67351794,0,0
23972000,-0.047031358,0.003208342,1.5572886,2.662896e-08,0.7116421,-0.017864777,-0.0153722325,0.7021467,0.0,0.0,-0.6747533,0,0
24020000,-0.046155572,0.0021742736,1.5572886,3.0575947e-08,0.7116587,-0.017190142,-0.015432738,0.70214546,0.0,0.0,-0.6765217,0,0
24076000,-0.04079122,-0.002888526,1.5572886,2.5277734e-08,0.71173817,-0.013503809,-0.015351042,0.70214725,0.0,0.0,-0.6809036,0,0
24124000,-0.033245556,-0.010141032,1.5572886,1.2439046e-08,0.71181804,-0.0082719065,-0.015282753,0.70214903,0.0,0.0,-0.6861835,0,0
24172000,-0.023985459,-0.018930588,1.5572886,1.0283602e-08,0.7118629,-0.0018895923,-0.015159535,0.7021523,0.0,0.0,-0.6903019,0,0
24220000,-0.033385154,-0.011763671,1.5572886,1.1807853e-08,0.7118238,-0.0077518234,-0.015909174,0.70213515,0.0,0.0,-0.6923843,0,0
24276000,-0.06121879,0.012775222,1.5572886,9.7617825e-09,0.711381,-0.026269935,-0.016948681,0.7021109,0.0,0.0,-0.6927975,0,0
24324000,-0.07171001,0.021547241,1.5572886,4.8037245e-09,0.7110962,-0.033078484,-0.01751035,0.70209783,0.0,0.0,-0.69313717,0,0
24372000,-0.075598545,0.024232863,1.5572886,3.971333e-09,0.71098405,-0.03540291,-0.01791982,0.7020877,0.0,0.0,-0.69354427,0,0
24420000,-0.07359894,0.022350758,1.5572886,4.55997e-09,0.71105117,-0.034031916,-0.017887553,0.7020884,0.0,0.0,-0.6940372,0,0
24476000,-0.066395916,0.015558527,1.5572886,3.7698165e-09,0.71127117,-0.02908788,-0.017775746,0.70209056,0.0,0.0,-0.6957584,0,0
24524000,-0.056403276,0.00612448,1.5572886,1.8551076e-09,0.7115193,-0.02222284,-0.017624682,0.7020939,0.0,0.0,-0.6982546,0,0
24580000,-0.042374447,-0.006836646,1.5572886,2.1300746e-09,0.7117532,-0.012681059,-0.017311743,0.70210177,0.0,0.0,-0.70079523,0,0
24628000,-0.065411165,0.01414223,1.5572886,1.7609744e-09,0.71130544,-0.028240724,-0.017933998,0.7020864,0.0,0.0,-0.70605594,0,0
24676000,-0.08404344,0.031048713,1.5572886,1.4558319e-09,0.71069413,-0.04079437,-0.01845918,0.70207477,0.0,0.0,-0.7102925,0,0
24724000,-0.091259755,0.03800782,1.5572886,7.164076e-10,0.7103881,-0.045797274,-0.018516295,0.70207435,0.0,0.0,-0.7121733,0,0
24772000,-0.09211153,0.039265476,1.5572886,5.922682e-10,0.71033967,-0.0465405,-0.018367818,0.70207846,0.0,0.0,-0.71233577,0,0
24820000,-0.08773989,0.03538947,1.5572886,6.800551e-10,0.71052504,-0.043629307,-0.018212307,0.70208186,0.0,0.0,-0.71165365,0,0
24876000,-0.07712897,0.025464233,1.5572886,5.6221483e-10,0.71093464,-0.036378797,-0.01801893,0.7020854,0.0,0.0,-0.71072495,0,0
24924000,-0.06476315,0.013959636,1.5572886,2.7666314e-10,0.71131706,-0.027946183,-0.017771488,0.70209056,0.0,0.0,-0.7105622,0,0
24972000,-0.050582826,0.0007957867,1.5572886,2.2872282e-10,0.71163154,-0.018281542,-0.017477486,0.70209754,0.0,0.0,-0.71070373,0,0
25020000,-0.06567477,0.015158969,1.5572886,2.6262445e-10,0.7112874,-0.02869122,-0.017664762,0.70209336,0.0,0.0,-0.7161116,0,0
25076000,-0.08934809,0.038271904,1.5572886,2.1711678e-10,0.71042573,-0.045210786,-0.017751254,0.7020942,0.0,0.0,-0.7252285,0,0
25124000,-0.096111424,0.04555037,1.5572886,1.0684208e-10,0.7100918,-0.050162714,-0.01753574,0.70210105,0.0,0.0,-0.72730094,0,0
25172000,-0.09633703,0.046182137,1.5572886,8.8328435e-11,0.71007025,-0.0504641,-0.017390145,0.7021049,0.0,0.0,-0.7263886,0,0
25228000,-0.08930757,0.040546548,1.5572886,1.0142061e-10,0.7103751,-0.045993492,-0.016927674,0.7021148,0.0,0.0,-0.7231238,0,0
25276000,-0.07877663,0.03151548,1.5572886,8.3846395e-11,0.7107901,-0.03908634,-0.016444178,0.70212483,0.0,0.0,-0.72019506,0,0
25324000,-0.06535907,0.018617263,1.5572886,4.1260394e-11,0.7112418,-0.029792318,-0.01632338,0.702126,0.0,0.0,-0.71764386,0,0
25372000,-0.050210595,0.0045163357,1.5572886,3.4110777e-11,0.71160036,-0.019455137,-0.016022924,0.70213217,0.0,0.0,-0.7154519,0,0
25420000,-0.056735683,0.01067195,1.5572886,3.916673e-11,0.7114635,-0.023937121,-0.01612325,0.7021301,0.0,0.0,-0.71914697,0,0
25476000,-0.0874013,0.03702336,1.5258727,-0.17505237,0.72143734,-0.0443513,-0.016817523,0.69085336,0.0,0.0,-0.7330595,0,0
25524000,-0.09867545,0.041503977,1.4756072,-0.27449006,0.7381999,-0.05042581,-0.017831516,0.6724584,0.0,0.0,-0.73645693,0,0
25572000,-0.10162549,0.040361583,1.4441912,-0.34570566,0.74862367,-0.0514274,-0.0184403,0.6607404,0.0,0.0,-0.7340404,0,0
25620000,-0.09860614,0.033461846,1.400209,-0.6200956,0.76320744,-0.048451293,-0.018969292,0.6440551,0.0,0.0,-0.7283332,0,0
25676000,-0.085836284,0.023001956,1.368793,-0.6876975,0.77372414,-0.040504728,-0.0182204,0.63196385,0.0,0.0,-0.7206464,0,0
25724000,-0.07078034,0.008515947,1.3185275,-0.52676016,0.78984904,-0.03057435,-0.018309427,0.61226505,0.0,0.0,-0.7147947,0,0
25772000,-0.052972563,-0.004791204,1.2871115,-0.5542623,0.79972243,-0.019748656,-0.01780675,0.5997808,0.0,0.0,-0.710523,0,0
25820000,-0.07179328,-0.00040372153,1.2431293,-0.7853982,0.8124488,-0.029059095,-0.021062408,0.5819268,0.0,0.0,-0.7184042,0,0
25876000,-0.10340858,0.00786926,1.2117133,-0.7853982,0.82079387,-0.04472006,-0.026200525,0.56886816,0.0,0.0,-0.73627883,0,0
25924000,-0.11544494,0.0036275606,1.1614478,-0.6241821,0.8346145,-0.04922634,-0.03013669,0.5478021,0.0,0.0,-0.7428165,0,0
25972000,-0.11886614,-0.002064976,1.1300318,-0.6348029,0.84312123,-0.04961457,-0.032673936,0.53443176,0.0,0.0,-0.7430817,0,0
26028000,-0.1135174,-0.012889644,1.0860496,-0.7853982,0.8549421,-0.045242015,-0.03482127,0.51557213,0.0,0.0,-0.7384692,0,0
26076000,-0.103059836,-0.022440316,1.0546336,-0.7853982,0.86324984,-0.038869057,-0.035600547,0.5020174,0.0,0.0,-0.7328729,0,0
26124000,-0.088008255,-0.03412754,1.0043681,-0.66180456,0.87591875,-0.030347884,-0.036112837,0.48014715,0.0,0.0,-0.7269583,0,0
26172000,-0.0706099,-0.043912347,0.9729521,-0.66590613,0.8835843,-0.02093748,-0.035893433,0.46642467,0.0,0.0,-0.72110015,0,0
26228000,-0.08698736,-0.045103967,0.9289698,-0.7853982,0.893419,-0.028771454,-0.039614312,0.44654828,0.0,0.0,-0.7290802,0,0
26276000,-0.11659633,-0.042985547,0.89755386,-0.7853982,0.8997834,-0.04317514,-0.04460345,0.4318986,0.0,0.0,-0.747962,0,0
26324000,-0.12787308,-0.046826378,0.8472883,-0.67633384,0.9100999,-0.048624415,-0.047556095,0.40876922,0.0,0.0,-0.75686544,0,0
26380000,-0.12980299,-0.051689487,0.8033061,-0.7853982,0.9188267,-0.04959315,-0.049081527,0.38844436,0.0,0.0,-0.7565634,0,0
26420000,-0.12472527,-0.055862583,0.77189016,-0.7853982,0.92493665,-0.04722296,-0.0492742,0.37394407,0.0,0.0,-0.7520729,0,0
26476000,-0.1117109,-0.060895454,0.74047416,-0.7853982,0.9309713,-0.04102137,-0.048526663,0.35952035,0.0,0.0,-0.743224,0,0
26524000,-0.09479959,-0.06743767,0.6902087,-0.68194467,0.93998927,-0.033171132,-0.047709133,0.33621967,0.0,0.0,-0.73480636,0,0
26572000,-0.0774871,-0.07077591,0.65879273,-0.6825564,0.94537896,-0.025192464,-0.04597478,0.32173008,0.0,0.0,-0.7270354,0,0
26620000,-0.09476069,-0.07428941,0.6148104,-0.7853982,0.9519278,-0.03388692,-0.049676977,0.30036208,0.0,0.0,-0.73649025,0,0
26676000,-0.28368825,-0.18810582,0.58339447,-0.7853982,0.9477659,-0.10806224,-0.12951872,0.270716,0.0,0.0,-0.7080716,0,0
26724000,-0.1663728,-0.15658857,0.533129,-0.68411136,0.96011263,-0.059378434,-0.097011544,0.2554344,0.0,0.0,-0.3334277,0,0
26772000,-0.18519999,-0.14356405,0.50171304,-0.6843476,0.9637123,-0.071615666,-0.092072405,0.24010949,0.0,0.0,-0.3207005,0,0
26820000,-0.1878497,-0.14558417,0.45773077,-0.7853982,0.9686114,-0.07467215,-0.091740504,0.21863145,0.0,0.0,-0.29707992,0,0
26876000,-0.18783765,-0.14965603,0.42631483,-0.7853982,0.97182065,-0.0756567,-0.09252778,0.20317301,0.0,0.0,-0.26561022,0,0
26924000,-0.18102394,-0.15759738,0.37604937,-0.68494815,0.9766482,-0.07386635,-0.09385613,0.17858629,0.0,0.0,-0.23531875,0,0
26980000,-0.17325354,-0.16325875,0.3320671,-0.7853982,0.9804441,-0.07161903,-0.09436735,0.15714617,0.0,0.0,-0.19720596,0,0
27020000,-0.19181155,-0.17505212,0.30065122,-0.7853982,0.98166496,-0.08128543,-0.10031729,0.14022495,0.0,0.0,-0.18428706,0,0
27076000,-0.21728721,-0.18981951,0.26923528,-0.7853982,0.9820557,-0.094321564,-0.10784332,0.122637,0.0,0.0,-0.17454313,0,0
27124000,-0.22300237,-0.2034908,0.21896984,-0.68527144,0.98396605,-0.09900281,-0.11243006,0.09679217,0.0,0.0,-0.16052885,0,0
27172000,-0.22814104,-0.21144739,0.18755391,-0.68530667,0.9847376,-0.10287317,-0.11497924,0.08055292,0.0,0.0,-0.1431536,0,0
27220000,-0.2276678,-0.22164117,0.14357163,-0.7853982,0.98579115,-0.10471976,-0.117692165,0.058293026,0.0,0.0,-0.12302639,0,0
27276000,-0.22818923,-0.22731845,0.11215568,-0.7853982,0.98626,-0.10661948,-0.11883995,0.042433105,0.0,0.0,-0.12,0,0
27324000,-0.2216403,-0.23627093,0.061890192,-0.68539613,0.9868694,-0.10614579,-0.120479725,0.017507635,0.0,0.0,-0.12,0,0
27372000,-0.21846545,-0.24000289,0.030474262,-0.6854098,0.98697567,-0.10640593,-0.12063541,0.0019876698,0.0,0.0,-0.12,0,0
27420000,-0.22543587,-0.2575514,-0.013508039,-0.7853982,0.98530644,-0.11240735,-0.12684883,-0.02109982,0.0,0.0,-0.12,0,0
27476000,-0.23918946,-0.27723488,-0.04492397,-0.7853982,0.98271525,-0.12121684,-0.13449836,-0.03856712,0.0,0.0,-0.12,0,0
27524000,-0.23811015,-0.29416,-0.09518946,-0.6854444,0.98026055,-0.124281645,-0.13975826,-0.064116605,0.0,0.0,-0.12,0,0
27572000,-0.24017422,-0.3045282,-0.12660539,-0.6854496,0.97819674,-0.12770149,-0.14279164,-0.08021245,0.0,0.0,-0.12,0,0
27620000,-0.23665029,-0.31655166,-0.17058769,-0.7853982,0.9754458,-0.12948336,-0.14601377,-0.102076195,0.0,0.0,-0.12,0,0
27676000,-0.2376536,-0.32485732,-0.2020036,-0.7853982,0.9729519,-0.13258158,-0.14796087,-0.117874555,0.0,0.0,-0.12,0,0
27724000,-0.23000824,-0.33603677,-0.2522691,-0.685463,0.96921057,-0.13313457,-0.15057212,-0.14224675,0.0,0.0,-0.12,0,0
27772000,-0.22830158,-0.34223527,-0.283685,-0.68546504,0.9664084,-0.1350282,-0.15160953,-0.15759714,0.0,0.0,-0.11999999,0,0
27820000,-0.22300556,-0.35858265,-0.32766727,-0.7853982,0.96152914,-0.13692777,-0.15699397,-0.17906825,0.0,0.0,-0.12,0,0
27876000,-0.22379252,-0.38111967,-0.35908315,-0.7853982,0.95629615,-0.14149196,-0.16561887,-0.1950593,0.0,0.0,-0.13215558,0,0
27924000,-0.2143288,-0.3993172,-0.40934864,-0.68547034,0.94985926,-0.14272635,-0.17177346,-0.21883881,0.0,0.0,-0.13839446,0,0
27972000,-0.21128222,-0.4117725,-0.44076452,-0.6854711,0.94516754,-0.14516217,-0.17581448,-0.23382808,0.0,0.0,-0.13915494,0,0
28020000,-0.2031487,-0.42552,-0.4847468,-0.7853982,0.9388523,-0.14663477,-0.18014205,-0.25417203,0.0,0.0,-0.13701649,0,0
28076000,-0.20171966,-0.43680733,-0.51616275,-0.7853982,0.9335476,-0.1500607,-0.18334302,-0.26899058,0.0,0.0,-0.13543537,0,0
28124000,-0.19039202,-0.44998994,-0.56642824,-0.685473,0.9257978,-0.1510272,-0.18735148,-0.29152802,0.0,0.0,-0.13488752,0,0
28172000,-0.18648428,-0.4596664,-0.5978441,-0.68547326,0.9202364,-0.15343638,-0.19006869,-0.30577147,0.0,0.0,-0.13476355,0,0
28228000,-0.17013763,-0.47476828,-0.6418265,-0.7853982,0.912698,-0.15227677,-0.19629887,-0.32443947,0.0,0.0,-0.14753294,0,0
28276000,-0.15540583,-0.48796204,-0.67324245,-0.7853982,0.9069649,-0.15064724,-0.20244181,-0.3372498,0.0,0.0,-0.16587766,0,0
28324000,-0.13538311,-0.50180787,-0.72350794,-0.68547404,0.897974,-0.14894995,-0.2084894,-0.35775512,0.0,0.0,-0.18036547,0,0
28372000,-0.12586223,-0.5125745,-0.7549239,-0.6854742,0.89158446,-0.14979504,-0.21275772,-0.37063813,0.0,0.0,-0.1915594,0,0
28428000,-0.11174656,-0.5259466,-0.7989062,-0.7853982,0.8825676,-0.15062079,-0.21814203,-0.3883322,0.0,0.0,-0.20165439,0,0
28476000,-0.10351873,-0.5366061,-0.8303221,-0.7853982,0.8755994,-0.1524273,-0.22213063,-0.40093586,0.0,0.0,-0.20831376,0,0
28524000,-0.09252191,-0.54779446,-0.86751825,-0.62712896,0.8673767,-0.15395696,-0.22646244,-0.41553548,0.0,0.0,-0.21399294,0,0
28572000,-0.09866729,-0.55676186,-0.87276274,-0.538436,0.86460865,-0.1589778,-0.22870338,-0.4181778,0.0,0.0,-0.21872842,0,0
28628000,-0.094817586,-0.5604838,-0.87751776,-0.6441379,0.86341745,-0.15859555,-0.23076117,-0.4196511,0.0,0.0,-0.23634744,0,0
28676000,-0.09087407,-0.56179744,-0.8754095,-0.5205575,0.86399317,-0.15690836,-0.23232798,-0.41823348,0.0,0.0,-0.26418927,0,0
28724000,-0.09275409,-0.56644857,-0.874315,-0.2523037,0.86344457,-0.15851095,-0.23405518,-0.417799,0.0,0.0,-0.28943193,0,0
28772000,-0.096231766,-0.5731487,-0.874982,-0.21131647,0.8621107,-0.16140942,-0.23620301,-0.41823477,0.0,0.0,-0.31266254,0,0
28820000,-0.10028493,-0.5806445,-0.87760556,-0.25610942,0.86019135,-0.16494106,-0.23841198,-0.4195533,0.0,0.0,-0.33450168,0,0
28876000,-0.10664662,-0.5908019,-0.8806497,-0.22851266,0.85758674,-0.17003591,-0.24124642,-0.42122793,0.0,0.0,-0.35806358,0,0
28924000,-0.11056904,-0.60103285,-0.88744545,-0.13812312,0.85434353,-0.17455457,-0.24428034,-0.42421097,0.0,0.0,-0.3783141,0,0
28980000,-0.116200045,-0.613733,-0.8952127,-0.19813871,0.85033077,-0.18042077,-0.24789701,-0.42770663,0.0,0.0,-0.4011539,0,0
29028000,-0.10783125,-0.60987085,-0.89496446,-0.16506703,0.85169774,-0.17606273,-0.24803518,-0.42672166,0.0,0.0,-0.4312717,0,0
29076000,-0.104532935,-0.6088591,-0.89149535,-0.116872855,0.8528727,-0.17402558,-0.24860293,-0.4248762,0.0,0.0,-0.46729532,0,0
29124000,-0.10680601,-0.61247087,-0.888673,-0.047230013,0.8527445,-0.17535764,-0.24993195,-0.4238048,0.0,0.0,-0.50252444,0,0
29172000,-0.10992851,-0.61933637,-0.88853025,-0.03875713,0.85148466,-0.1780232,-0.2522564,-0.4238493,0.0,0.0,-0.5373069,0,0
29220000,-0.11351398,-0.6276287,-0.89034754,-0.053915296,0.849536,-0.18140933,-0.2549199,-0.42472947,0.0,0.0,-0.57184917,0,0
29276000,-0.11929374,-0.63929033,-0.8930178,-0.05924331,0.8466617,-0.18649288,-0.2584811,-0.42611265,0.0,0.0,-0.61237705,0,0
29324000,-0.12302483,-0.65110904,-0.8995269,-0.053781018,0.8430857,-0.19123796,-0.26215997,-0.42884347,0.0,0.0,-0.64825416,0,0
29372000,-0.12758693,-0.66418153,-0.90489346,-0.06494637,0.839425,-0.1964385,-0.2662729,-0.43113372,0.0,0.0,-0.68572694,0,0
29420000,-0.12088782,-0.66306317,-0.90610117,-0.08016897,0.8399958,-0.19356625,-0.26711926,-0.43079746,0.0,0.0,-0.7236546,0,0
29476000,-0.11526859,-0.659536,-0.90115446,-0.038420342,0.8421538,-0.18984567,-0.26728725,-0.42812744,0.0,0.0,-0.7752535,0,0
29524000,-0.11778363,-0.6638599,-0.89635736,-0.0012677992,0.8422557,-0.1911114,-0.2690633,-0.4262473,0.0,0.0,-0.82286966,0,0
29572000,-0.120484084,-0.6718423,-0.8952187,0.002969782,0.84096426,-0.19365363,-0.27202407,-0.42577022,0.0,0.0,-0.8724757,0,0
29628000,-0.12517951,-0.68368405,-0.89592445,-0.00038980565,0.8384349,-0.19802603,-0.27603132,-0.4261682,0.0,0.0,-0.9323224,0,0
29676000,-0.12926461,-0.69523,-0.8979899,-0.0115980925,0.8356813,-0.20226216,-0.27989313,-0.42706746,0.0,0.0,-0.985503,0,0
29724000,-0.124525666,-0.65997314,-0.9037888,-0.027699571,0.84063065,-0.19417697,-0.26523495,-0.43044847,0.0,0.0,-1.0,0,0
29780000,-0.11470789,-0.5945138,-0.9111405,-0.06927446,0.8498279,-0.17787461,-0.238479,-0.43506435,0.0,0.0,-1.0,0,0
29828000,-0.09821748,-0.5271255,-0.91189814,-0.06663914,0.86016303,-0.15712558,-0.21275772,-0.43607947,0.0,0.0,-1.0,0,0
29876000,-0.08141634,-0.4441372,-0.90569043,-0.020178413,0.8724765,-0.13198058,-0.18051542,-0.4344882,0.0,0.0,-1.0,0,0
29924000,-0.0651308,-0.3445377,-0.89916635,0.014150851,0.88440156,-0.10334719,-0.14036144,-0.4329572,0.0,0.0,-1.0,0,0
29980000,-0.05792935,-0.29930365,-0.8967249,0.028386163,0.8888405,-0.090410054,-0.121886946,-0.43235663,0.0,0.0,-1.0,0,0
30028000,-0.05398624,-0.30001852,-0.89668554,0.023897337,0.8889733,-0.08880692,-0.12305988,-0.4320834,0.0,0.0,-1.0,0,0
30076000,-0.050607007,-0.3005897,-0.89760756,0.0147824865,0.8888813,-0.08748334,-0.12400432,-0.43227258,0.0,0.0,-1.0,0,0
30124000,-0.04825402,-0.30096495,-0.9007747,-0.0047654817,0.8882709,-0.08671471,-0.124543004,-0.43352544,0.0,0.0,-1.0,0,0
30172000,-0.04654457,-0.3012261,-0.9036803,-0.015058647,0.8876952,-0.08619277,-0.124904804,-0.4347031,0.0,0.0,-1.0,0,0
30220000,-0.041658975,-0.30191922,-0.9011184,-0.0037310745,0.88840884,-0.08401083,-0.1263827,-0.43324277,0.0,0.0,-1.0,0,0
30276000,-0.036304563,-0.30258894,-0.8932161,0.041169107,0.8902861,-0.08126962,-0.12816258,-0.42937195,0.0,0.0,-1.0,0,0
30324000,-0.034840044,-0.30275586,-0.8828751,0.058766164,0.892541,-0.07998736,-0.12896676,-0.42466477,0.0,0.0,-1.0,0,0
30372000,-0.032751776,-0.30298182,-0.8777472,0.06776661,0.8936933,-0.07877053,-0.12971357,-0.4222342,0.0,0.0,-1.0,0,0
30420000,-0.031354003,-0.30312514,-0.8721696,0.10595631,0.89491177,-0.077812806,-0.13029031,-0.41964573,0.0,0.0,-1.0,0,0
30476000,-0.029379014,-0.30331695,-0.86924726,0.10403892,0.89558643,-0.0767777,-0.13090299,-0.41820392,0.0,0.0,-1.0,0,0
30524000,-0.02769466,-0.30347046,-0.86621225,0.062405523,0.89627326,-0.07585587,-0.1314393,-0.41672996,0.0,0.0,-1.0,0,0
30572000,-0.022776077,-0.30386668,-0.86513245,0.0555795,0.89665365,-0.07366169,-0.13268143,-0.4159109,0.0,0.0,-1.0,0,0
30620000,-0.017215142,-0.30422112,-0.86098045,0.083367266,0.8976907,-0.07096319,-0.13414408,-0.41366777,0.0,0.0,-1.0,0,0
30676000,-0.011471779,-0.30448335,-0.8528042,0.1146101,0.89955443,-0.06788469,-0.13572793,-0.40959913,0.0,0.0,-1.0,0,0
30724000,-0.018091938,-0.30417183,-0.84127367,0.09939296,0.90169597,-0.07002338,-0.13463706,-0.40486297,0.0,0.0,-1.0,0,0
30772000,-0.030234978,-0.30323535,-0.8353589,0.10430014,0.9025175,-0.07491875,-0.13197571,-0.40302807,0.0,0.0,-1.0,0,0
30820000,-0.0474265,-0.30109257,-0.8291631,0.1509916,0.90324557,-0.08185218,-0.12779132,-0.40139383,0.0,0.0,-1.0,0,0
30876000,-0.072221026,-0.29626903,-0.8264068,0.14045975,0.903079,-0.09192886,-0.12074555,-0.40176865,0.0,0.0,-1.0,0,0
30924000,-0.093943626,-0.2784648,-0.824996,0.074076876,0.9036436,-0.09817642,-0.108360074,-0.4025514,0.0,0.0,-1.0,0,0
30972000,-0.097713,-0.21201865,-0.82591355,0.05749989,0.9076358,-0.0868939,-0.07731135,-0.40332332,0.0,0.0,-1.0,0,0
31028000,-0.08683785,-0.13396046,-0.8263411,0.0638949,0.9117711,-0.06651184,-0.043851577,-0.40289786,0.0,0.0,-0.99999994,0,0
31076000,-0.072074994,-0.069922104,-0.8250903,0.059950504,0.91444415,-0.04699216,-0.017563622,-0.40159076,0.0,0.0,-1.0,0,0
31124000,-0.0551414,-0.01528288,-0.8243876,0.03204178,0.9157848,-0.02831768,0.0040449686,-0.4006494,0.0,0.0,-0.9909453,0,0
31180000,-0.035496082,0.048989493,-0.82434833,0.0369618,0.916007,-0.0064458214,0.029544985,-0.40002084,0.0,0.0,-0.9432124,0,0
31228000,-0.025001047,0.086620025,-0.8243563,0.03051024,0.9155365,0.0059009013,0.04467027,-0.3997032,0.0,0.0,-0.87337625,0,0
31276000,-0.022304574,0.099228784,-0.82439804,0.025009464,0.91527927,0.009661974,0.04989961,-0.3996005,0.0,0.0,-0.8109187,0,0
31324000,-0.023818554,0.10125981,-0.8243981,0.012307032,0.9152446,0.009375971,0.051131073,-0.39953122,0.0,0.0,-0.7651259,0,0
31372000,-0.025358591,0.1014631,-0.8243981,0.0101744635,0.9152472,0.00871194,0.051531684,-0.39948842,0.0,0.0,-0.7344885,0,0
31420000,-0.026109189,0.11037824,-0.82439804,0.011682539,0.91505754,0.010154427,0.05575851,-0.39932132,0.0,0.0,-0.71535176,0,0
31476000,-0.023999121,0.12823324,-0.8243981,0.009658183,0.91460156,0.014695641,0.06349921,-0.3990687,0.0,0.0,-0.7034672,0,0
31524000,-0.020762665,0.14012508,-0.82439804,0.004752743,0.91423607,0.018556042,0.06828703,-0.3989548,0.0,0.0,-0.6985714,0,0
