timestamp,timestamp_sample,time_last_fuse,device_id,observation,observation_variance,innovation,innovation_variance,test_ratio,estimator_instance,fusion_enabled,innovation_rejected,fused
4172000,4091649,0,0,-0.0036010742,12.25,-1.2025703e-06,32.25041,1.7936831e-15,0,0,0,0
4236000,4151680,0,0,0.096954346,12.25,-0.101420596,32.250603,1.2757761e-05,0,0,0,0
4292000,4211689,0,0,0.019683838,12.25,-0.023645986,28.917204,7.734256e-07,0,0,0,0
4356000,4271725,0,0,-0.046966553,12.25,0.04215663,28.917442,2.458283e-06,0,0,0,0
4412000,4331733,0,0,0.0029296875,12.25,-0.008533014,28.917702,1.0071661e-07,0,0,0,0
4476000,4391763,0,0,0.01889038,12.25,-0.024576277,26.536758,9.104253e-07,0,0,0,0
4532000,4451770,0,0,0.037628174,12.25,-0.043207053,26.536901,2.8139675e-06,0,0,0,0
4596000,4511796,0,0,0.06619263,12.25,-0.07268592,26.537294,7.963499e-06,0,0,0,0
4652000,4571802,0,0,-0.047546387,12.25,0.04022036,26.537704,2.438308e-06,0,0,0,0
4716000,4631825,0,0,0.01260376,12.25,-0.018707927,24.751678,5.6559645e-07,0,0,0,0
4772000,4691830,0,0,-0.028076172,12.25,0.021213597,24.752098,7.272381e-07,0,0,0,0
4836000,4750848,4756000,0,0.051757812,12.25,-0.059500013,24.752659,5.721004e-06,0,0,0,0
4892000,4811854,4812000,0,-0.039520264,12.25,0.03099892,24.753227,1.5528205e-06,0,1,0,1
4956000,4870869,4876000,0,-0.0066833496,12.25,-0.017500907,18.437838,6.6446347e-07,0,1,0,1
5012000,4927873,4932000,0,0.016815186,12.25,-0.03584373,16.361404,3.1409847e-06,0,1,0,1
5060000,4978551,4980000,0,0.0027160645,12.25,-0.013367352,15.32846,4.6628585e-07,0,1,0,1
5124000,5039892,5044000,0,0.06375122,12.25,-0.071908996,14.710361,1.4060576e-05,0,1,0,1
5180000,5099901,5100000,0,0.035583496,12.25,-0.032382753,14.299077,2.9334556e-06,0,1,0,1
5244000,5159907,5164000,0,-0.02545166,12.25,0.03250771,14.005729,3.0180543e-06,0,1,0,1
5300000,5219915,5220000,0,0.026184082,12.25,-0.023924649,13.785921,1.6607923e-06,0,1,0,1
5364000,5277920,5284000,0,-0.0066833496,12.25,0.011580847,13.614972,3.940251e-07,0,1,0,1
5420000,5338593,5340000,0,-0.02545166,12.25,0.028559608,13.478424,2.4206129e-06,0,1,0,1
5484000,5399932,5404000,0,-0.04421997,12.25,0.043996178,13.366852,5.7924294e-06,0,1,0,1
5540000,5459938,5460000,0,0.016815186,12.25,-0.020479513,13.273647,1.2638891e-06,0,1,0,1
5604000,5519941,5524000,0,0.13418579,12.25,-0.13696058,13.195098,5.6864148e-05,0,1,0,1
5660000,5579946,5580000,0,0.040283203,12.25,-0.03386415,13.127789,3.4942088e-06,0,1,0,1
5724000,5639950,5644000,0,0.0121154785,12.25,-0.004153994,13.069585,5.2811668e-08,0,1,0,1
5780000,5699954,5700000,0,-0.0630188,12.25,0.07161927,13.018267,1.5760377e-05,0,1,0,1
5844000,5759957,5764000,0,0.0027160645,12.25,0.0009937529,12.973412,3.0448264e-09,0,1,0,1
5900000,5819960,5820000,0,0.021514893,12.25,-0.018467184,12.93354,1.0547363e-06,0,1,0,1
5964000,5877963,5884000,0,-0.02545166,12.25,0.029883813,12.897523,2.769655e-06,0,1,0,1
6012000,5927965,5932000,0,0.0074157715,12.25,-0.0049553206,12.8654,7.634493e-08,0,1,0,1
6068000,5987968,5988000,0,0.016815186,12.25,-0.014693653,12.836449,6.727825e-07,0,1,0,1
6132000,6047970,6052000,0,-0.0019836426,12.25,0.0040779896,12.810261,5.192712e-08,0,1,0,1
6188000,6107973,6108000,0,0.04498291,12.25,-0.042460565,12.785749,5.6403405e-06,0,1,0,1
6252000,6165974,6172000,0,-0.0066833496,12.25,0.010412873,12.763885,3.39796e-07,0,1,0,1
6300000,6215976,6220000,0,0.08721924,12.25,-0.08434044,12.743667,2.2327355e-05,0,1,0,1
6356000,6274644,6276000,0,-0.011352539,12.25,0.01695175,12.725129,9.0328916e-07,0,1,0,1
6420000,6335979,6340000,0,-0.020751953,12.25,0.026273318,12.707408,2.1728654e-06,0,1,0,1
6476000,6395981,6396000,0,0.0121154785,12.25,-0.007982189,12.6915045,2.0081256e-07,0,1,0,1
6540000,6455982,6460000,0,-0.039520264,12.25,0.043445133,12.676838,5.955679e-06,0,1,0,1
6596000,6515984,6516000,0,0.021514893,12.25,-0.018510126,12.662367,1.0823403e-06,0,1,0,1
6660000,6575985,6580000,0,0.021514893,12.25,-0.018317519,12.649597,1.0610029e-06,0,1,0,1
6716000,6635986,6636000,0,-0.02545166,12.25,0.028843619,12.637593,2.6332684e-06,0,1,0,1
6780000,6695987,6700000,0,-0.020751953,12.25,0.02371067,12.625663,1.781121e-06,0,1,0,1
6836000,6755988,6756000,0,0.040283203,12.25,-0.038324915,12.615075,4.657282e-06,0,1,0,1
6900000,6815989,6820000,0,0.09661865,12.25,-0.09384512,12.605228,2.7946837e-05,0,1,0,1
6956000,6875990,6876000,0,-0.020751953,12.25,0.025945775,12.595888,2.1377873e-06,0,1,0,1
7020000,6935991,6940000,0,0.07785034,12.25,-0.07302645,12.586293,1.694816e-05,0,1,0,1
7076000,6994657,6996000,0,0.026184082,12.25,-0.01961647,12.577944,1.2237481e-06,0,1,0,1
7140000,7055992,7060000,0,0.026184082,12.25,-0.01931536,12.570166,1.187202e-06,0,1,0,1
7196000,7114659,7116000,0,0.059051514,12.25,-0.051463034,12.5618,8.433326e-06,0,1,0,1
7260000,7175993,7180000,0,-0.0019836426,12.25,0.010698405,12.554792,3.6466034e-07,0,1,0,1
7316000,7235994,7236000,0,0.030883789,12.25,-0.022571623,12.548072,1.6240843e-06,0,1,0,1
7380000,7295994,7300000,0,0.0074157715,12.25,0.0012767678,12.541813,5.1990443e-09,0,1,0,1
7436000,7355995,7356000,0,0.049682617,12.25,-0.040777955,12.534756,5.306339e-06,0,1,0,1
7500000,7415995,7420000,0,-0.04421997,12.25,0.053992327,12.529064,9.306909e-06,0,1,0,1
7556000,7475996,7476000,0,-0.016052246,12.25,0.024571918,12.523567,1.9284576e-06,0,1,0,1
7620000,7535996,7540000,0,-0.011352539,12.25,0.01931288,12.51741,1.1918993e-06,0,1,0,1
7676000,7595996,7596000,0,0.016815186,12.25,-0.009266786,12.512378,2.745228e-07,0,1,0,1
7740000,7655996,7660000,0,-0.067718506,12.25,0.075420275,12.507696,1.8191096e-05,0,1,0,1
7796000,7715997,7716000,0,0.040283203,12.25,-0.03416532,12.503141,3.7343227e-06,0,1,0,1
7860000,7775997,7780000,0,-0.08178711,12.25,0.088618405,12.497788,2.513476e-05,0,1,0,1
7916000,7835997,7836000,0,0.0027160645,12.25,0.0023163883,12.493591,1.7178904e-08,0,1,0,1
7980000,7895998,7900000,0,0.091918945,12.25,-0.08699736,12.4897,2.4239303e-05,0,1,0,1
8036000,7954664,7956000,0,-0.030151367,12.25,0.03684073,12.48476,4.3484674e-06,0,1,0,1
8100000,8015998,8020000,0,-0.072387695,12.25,0.07833937,12.48116,1.9668227e-05,0,1,0,1
8156000,8075998,8076000,0,0.0121154785,12.25,-0.007676844,12.477626,1.8892675e-07,0,1,0,1
8220000,8135998,8140000,0,0.016815186,12.25,-0.012353513,12.474369,4.8935317e-07,0,1,0,1
8276000,8195998,8196000,0,-0.09118652,12.25,0.09612275,12.469946,2.9637926e-05,0,1,0,1
8340000,8255999,8260000,0,0.0027160645,12.25,0.0003709686,12.466915,4.4154533e-10,0,1,0,1
8396000,8315999,8316000,0,-0.02545166,12.25,0.028427048,12.463919,2.5933964e-06,0,1,0,1
8460000,8375999,8380000,0,-0.030151367,12.25,0.032805625,12.459967,3.4549337e-06,0,1,0,1
8516000,8435999,8436000,0,-0.020751953,12.25,0.02279246,12.457166,1.6681042e-06,0,1,0,1
8580000,8495999,8500000,0,-0.030151367,12.25,0.03178103,12.454602,3.2438893e-06,0,1,0,1
8636000,8555999,8556000,0,0.05203247,12.250405,-0.05675271,13.250523,9.722999e-06,0,1,0,1
8700000,8615999,8620000,0,-0.08880615,12.251488,0.091558054,13.177524,2.5445988e-05,0,1,0,1
8756000,8675999,8676000,0,0.08959961,12.252434,-0.09049172,13.115848,2.4973611e-05,0,1,0,1
8820000,8735999,8740000,0,0.023834229,12.253515,-0.015534449,13.06422,7.388703e-07,0,1,0,1
8876000,8796000,8796000,0,-0.046569824,12.254461,0.058674246,13.019564,1.0576905e-05,0,1,0,1
8940000,8856000,8860000,0,-0.013702393,12.255542,0.025581285,12.982258,2.016297e-06,0,1,0,1
8996000,8916000,8916000,0,-0.018371582,12.256486,0.031626932,12.949274,3.0897882e-06,0,1,0,1
9060000,8976000,8980000,0,-0.11694336,12.257565,0.1159789,12.652592,4.2524425e-05,0,1,0,1
9116000,9033333,9036000,0,-0.01361084,12.258506,0.0101684695,12.644204,3.2709934e-07,0,1,0,1
9164000,9084000,9084000,0,-0.05114746,12.259312,0.048376136,12.636234,7.4080626e-06,0,1,0,1
9228000,9144000,9148000,0,0.047454834,12.260386,-0.05036917,12.630646,8.034595e-06,0,1,0,1
9284000,9204000,9204000,0,-0.022979736,12.261325,0.022655182,12.625285,1.6261247e-06,0,1,0,1
9348000,9264000,9268000,0,0.01928711,12.262396,-0.01898115,12.621682,1.141794e-06,0,1,0,1
9404000,9324000,9324000,0,0.03805542,12.26333,-0.036080126,12.618,4.126725e-06,0,1,0,1
9468000,9383000,9388000,0,-0.032409668,12.264399,0.03191915,12.519322,3.2552311e-06,0,1,0,1
9524000,9440000,9444000,0,0.08969116,12.265328,-0.09006575,12.518544,2.5919435e-05,0,1,0,1
9572000,9492000,9492000,0,0.066101074,12.266121,-0.06396115,12.517467,1.3073024e-05,0,1,0,1
9636000,9552000,9556000,0,-0.004425049,12.267181,0.008806097,12.5182,2.4779075e-07,0,1,0,1
9692000,9612000,9612000,0,0.06600952,12.268105,-0.06095083,12.518578,1.187037e-05,0,1,0,1
9756000,9672000,9676000,0,0.033050537,12.26916,-0.025773555,12.520152,2.122262e-06,0,1,0,1
9812000,9730666,9732000,0,-0.013946533,12.270077,0.0142561775,12.512598,6.4970874e-07,0,1,0,1
9876000,9792000,9796000,0,-0.032684326,12.271127,0.034062292,12.4671335,3.722555e-06,0,1,0,1
9932000,9852000,9852000,0,0.061279297,12.2720375,-0.060110852,12.46863,1.1591696e-05,0,1,0,1
9996000,9912000,9916000,0,0.05178833,12.27308,-0.049284026,12.47107,7.790559e-06,0,1,0,1
10052000,9972000,9972000,0,-0.02810669,12.273984,0.03178019,12.473031,3.238926e-06,0,1,0,1
10116000,10032000,10036000,0,0.032989502,12.27502,-0.029341146,12.475988,2.7601914e-06,0,1,0,1
10172000,10092000,10092000,0,0.014160156,12.275915,-0.009564805,12.478362,2.9326122e-07,0,1,0,1
10236000,10150000,10156000,0,-0.15490723,12.276943,0.15899312,12.441384,8.127332e-05,0,1,0,1
10284000,10200000,10204000,0,0.0942688,12.277697,-0.09195308,12.442997,2.7181133e-05,0,1,0,1
10340000,10260000,10260000,0,-0.009246826,12.278581,0.013176052,12.445401,5.579839e-07,0,1,0,1
10404000,10320000,10324000,0,-0.0045166016,12.279597,0.008714904,12.448665,2.440408e-07,0,1,0,1
10460000,10380000,10380000,0,0.00021362305,12.280473,0.004243251,12.451372,5.7841593e-08,0,1,0,1
10524000,10440000,10444000,0,-0.03265381,12.28148,0.03754009,12.454983,4.525926e-06,0,1,0,1
10580000,10498666,10500000,0,-0.009094238,12.282347,0.013947269,12.457962,6.245847e-07,0,1,0,1
10644000,10560000,10564000,0,0.06607056,12.283344,-0.05969185,12.429459,1.14666855e-05,0,1,0,1
10700000,10620000,10620000,0,0.04244995,12.284202,-0.03475346,12.432166,3.8860585e-06,0,1,0,1
10764000,10680000,10684000,0,0.032958984,12.285189,-0.024090605,12.435664,1.8667512e-06,0,1,0,1
10820000,10740000,10740000,0,0.028198242,12.286036,-0.018316703,12.438595,1.0789051e-06,0,1,0,1
10884000,10800000,10804000,0,-0.093933105,12.287013,0.10492977,12.442352,3.5396057e-05,0,1,0,1
10940000,10860000,10860000,0,-0.065460205,12.287849,0.07596803,12.445482,1.854855e-05,0,1,0,1
11004000,10920000,10924000,0,0.06625366,12.2888155,-0.055725537,12.449474,9.977402e-06,0,1,0,1
11060000,10980000,10980000,0,0.0050354004,12.289641,0.0046900157,12.424823,7.0813876e-08,0,1,0,1
11124000,11040000,11044000,0,-0.0982666,12.290597,0.1089803,12.42838,3.8224465e-05,0,1,0,1
11180000,11100000,11100000,0,0.033569336,12.29141,-0.023117568,12.43137,1.7195915e-06,0,1,0,1
11244000,11160000,11164000,0,0.10391235,12.292354,-0.09205567,12.43513,2.7259051e-05,0,1,0,1
11300000,11220000,11220000,0,0.00970459,12.293156,0.0042834682,12.438274,5.9005295e-08,0,1,0,1
11364000,11280000,11284000,0,-0.032562256,12.294088,0.047777083,12.44222,7.338401e-06,0,1,0,1
11420000,11340000,11340000,0,0.08969116,12.294878,-0.07796631,12.420875,1.9575904e-05,0,1,0,1
11484000,11400000,11404000,0,0.051849365,12.295797,-0.03798116,12.4244,4.644308e-06,0,1,0,1
11540000,11460000,11460000,0,0.014160156,12.296576,0.0013763076,12.427368,6.096939e-09,0,1,0,1
11604000,11520000,11524000,0,6.1035156e-05,12.2974825,0.016997667,12.43106,9.2967355e-07,0,1,0,1
11660000,11580000,11580000,0,-0.013977051,12.298247,0.032270305,12.43415,3.3500403e-06,0,1,0,1
11724000,11640000,11644000,0,0.00024414062,12.299142,0.019357862,12.437993,1.2051038e-06,0,1,0,1
11780000,11700000,11700000,0,-0.023132324,12.299894,0.044014163,12.441193,6.228491e-06,0,1,0,1
11844000,11760000,11764000,0,-0.046417236,12.300776,0.06043559,12.422407,1.1760878e-05,0,1,0,1
11900000,11820000,11820000,0,0.0101623535,12.301515,0.0045966087,12.425307,6.8018636e-08,0,1,0,1
11956000,11876000,11876000,0,0.0524292,12.302247,-0.03636156,12.428255,4.2553456e-06,0,1,0,1
12012000,11928000,11932000,0,0.05227661,12.302974,-0.034505457,12.43125,3.831076e-06,0,1,0,1
12068000,11988000,11988000,0,-0.01361084,12.303695,0.03312726,12.434289,3.5302871e-06,0,1,0,1
12132000,12048000,12052000,0,-0.12142944,12.304544,0.14224482,12.43805,6.5069966e-05,0,1,0,1
12188000,12108000,12108000,0,0.07168579,12.305252,-0.05097457,12.441177,8.354215e-06,0,1,0,1
12252000,12168000,12172000,0,-0.09286499,12.3060875,0.10911156,12.423929,3.833033e-05,0,1,0,1
12308000,12228000,12228000,0,0.02029419,12.306781,-0.0037604123,12.426777,4.551687e-08,0,1,0,1
12372000,12288000,12292000,0,-0.115875244,12.307603,0.13399176,12.43029,5.777433e-05,0,1,0,1
12428000,12348000,12348000,0,0.049041748,12.308283,-0.03088201,12.433225,3.0682256e-06,0,1,0,1
12492000,12408000,12412000,0,-0.035614014,12.309092,0.05568175,12.436849,9.971843e-06,0,1,0,1
12548000,12468000,12468000,0,-0.054107666,12.309757,0.07506433,12.439859,1.8118062e-05,0,1,0,1
12612000,12528000,12532000,0,0.007293701,12.310552,0.0058014756,12.438316,1.0823689e-07,0,1,0,1
12668000,12588000,12588000,0,-0.072509766,12.311203,0.08464304,12.426586,2.3061668e-05,0,1,0,1
12732000,12648000,12652000,0,0.0546875,12.311983,-0.041904967,12.42997,5.6509434e-06,0,1,0,1
12788000,12708000,12708000,0,0.0028381348,12.31262,0.011644474,12.432793,4.362456e-07,0,1,0,1
12852000,12768000,12772000,0,-0.09100342,12.313387,0.10690817,12.436278,3.6761343e-05,0,1,0,1
12908000,12828000,12828000,0,0.041015625,12.31401,-0.024788816,12.439171,1.9759689e-06,0,1,0,1
12972000,12886000,12892000,0,-0.08117676,12.314762,0.09926954,12.44275,3.1679305e-05,0,1,0,1
13020000,12936000,12940000,0,-0.005554199,12.315236,0.018892419,12.426312,1.148928e-06,0,1,0,1
13076000,12996000,12996000,0,-0.05239868,12.315841,0.0668986,12.428985,1.4403181e-05,0,1,0,1
13140000,13056000,13060000,0,0.121673584,12.316573,-0.10622844,12.432281,3.630704e-05,0,1,0,1
13196000,13114666,13116000,0,0.041290283,12.3171625,-0.02342958,12.435023,1.7658036e-06,0,1,0,1
13260000,13176000,13180000,0,0.09750366,12.317882,-0.07771837,12.438415,1.9424164e-05,0,1,0,1
13316000,13236000,13236000,0,-0.015594482,12.318458,0.03766545,12.441223,4.561243e-06,0,1,0,1
13380000,13296000,13300000,0,0.055023193,12.319162,-0.031568907,12.444703,3.2032774e-06,0,1,0,1
13436000,13354666,13356000,0,-0.0390625,12.319725,0.054018583,12.429442,9.39063e-06,0,1,0,1
13500000,13416000,13420000,0,-0.02935791,12.3204155,0.045382116,12.43262,6.626235e-06,0,1,0,1
13556000,13476000,13476000,0,-0.09484863,12.320963,0.111838914,12.435261,4.023379e-05,0,1,0,1
13620000,13536000,13540000,0,0.018493652,12.321639,-0.0009524282,12.438529,2.9171279e-09,0,1,0,1
13676000,13596000,13596000,0,-0.042541504,12.322173,0.061486922,12.441236,1.2155197e-05,0,1,0,1
13740000,13656000,13660000,0,-0.014007568,12.322836,0.03401337,12.444593,3.718592e-06,0,1,0,1
13796000,13716000,13716000,0,-0.013793945,12.323356,0.034918055,12.447361,3.9181655e-06,0,1,0,1
13860000,13776000,13780000,0,0.01928711,12.324005,-0.0052192863,12.433114,8.763999e-08,0,1,0,1
13916000,13834666,13836000,0,-0.018310547,12.324512,0.033709098,12.43566,3.6549834e-06,0,1,0,1
13980000,13896000,13900000,0,-0.11199951,12.325147,0.12861222,12.438821,5.3191867e-05,0,1,0,1
14036000,13956000,13956000,0,0.05307007,12.325639,-0.036286224,12.441434,4.2332417e-06,0,1,0,1
14100000,14016000,14020000,0,0.08105469,12.326261,-0.06229704,12.444682,1.247415e-05,0,1,0,1
14156000,14076000,14076000,0,0.010223389,12.326739,0.010607751,12.447359,3.616008e-07,0,1,0,1
14220000,14136000,14140000,0,0.2074585,12.327348,-0.1936122,12.433693,0.0001205939,0,1,0,1
14276000,14196000,14196000,0,0.09359741,12.327813,-0.07675405,12.436153,1.8948573e-05,0,1,0,1
14340000,14256000,14260000,0,0.121276855,12.328408,-0.10217907,12.439216,3.357306e-05,0,1,0,1
14396000,14316000,14316000,0,0.031433105,12.32886,-0.009992028,12.441746,3.209859e-07,0,1,0,1
14460000,14376000,14380000,0,0.10650635,12.329442,-0.08333262,12.444899,2.2320231e-05,0,1,0,1
14516000,14436000,14436000,0,-0.04425049,12.329881,0.069675565,12.4474945,1.5600517e-05,0,1,0,1
14580000,14496000,14500000,0,-0.015625,12.33045,0.042105995,12.450736,5.695775e-06,0,1,0,1
14636000,14556000,14556000,0,-0.03414917,12.330876,0.054452375,12.436739,9.536458e-06,0,1,0,1
14700000,14616000,14620000,0,-0.019683838,12.331432,0.041092373,12.439716,5.4296515e-06,0,1,0,1
14756000,14676000,14676000,0,-0.0335083,12.331845,0.05589758,12.442173,1.0044995e-05,0,1,0,1
14820000,14736000,14740000,0,-0.014343262,12.332389,0.037798174,12.445244,4.591961e-06,0,1,0,1
14876000,14796000,14796000,0,0.0140686035,12.332789,0.010434894,12.44777,3.4990046e-07,0,1,0,1
14940000,14856000,14860000,0,-0.0093688965,12.333321,0.035350025,12.450933,4.014556e-06,0,1,0,1
14996000,14916000,14916000,0,0.014373779,12.33371,0.01267359,12.4535265,5.159017e-07,0,1,0,1
15060000,14974000,14980000,0,-0.05596924,12.3342285,0.07475281,12.440184,1.7967523e-05,0,1,0,1
15116000,15034666,15036000,0,0.019683838,12.334604,-0.0,12.4425745,2.482634e-10,0,1,0,1
15180000,15096000,15100000,0,-0.08831787,12.335111,0.10924399,12.44557,3.8356615e-05,0,1,0,1
15236000,15156000,15156000,0,0.05795288,12.335475,-0.0,12.448034,4.316788e-06,0,1,0,1
15300000,15214000,15220000,0,-0.05026245,12.33597,0.07313557,12.451126,1.7183384e-05,0,1,0,1
15348000,15264000,15268000,0,0.011291504,12.336187,0.01210231,12.453055,4.704577e-07,0,1,0,1
15404000,15324000,15324000,0,-0.08251953,12.336537,0.10722376,12.455617,3.6921287e-05,0,1,0,1
15468000,15384000,15388000,0,-0.072387695,12.337018,0.09004015,12.442446,2.6063133e-05,0,1,0,1
15524000,15444000,15444000,0,-0.0435791,12.337356,0.06179298,12.444809,1.227298e-05,0,1,0,1
15588000,15502000,15508000,0,0.0178833,12.337824,0.0013435856,12.447778,5.8009455e-09,0,1,0,1
15644000,15562666,15564000,0,0.04135132,12.338151,-0.0,12.450216,1.3821016e-06,0,1,0,1
15708000,15624000,15628000,0,0.13040161,12.338608,-0.0,12.453284,3.754975e-05,0,1,0,1
15764000,15681333,15684000,0,-0.0018310547,12.338924,0.02561223,12.455796,2.1066057e-06,0,1,0,1
15812000,15732000,15732000,0,-0.011016846,12.339101,0.028505366,12.44185,2.6123316e-06,0,1,0,1
15876000,15791000,15796000,0,-0.038970947,12.339544,0.057786778,12.444701,1.073328e-05,0,1,0,1
15932000,15848000,15852000,0,-0.04324341,12.339846,0.06291619,12.447045,1.27209205e-05,0,1,0,1
15980000,15900000,15900000,0,0.013549805,12.340009,0.006758729,12.448856,1.4677788e-07,0,1,0,1
16044000,15960000,15964000,0,-0.11315918,12.34044,0.13503814,12.451852,5.857859e-05,0,1,0,1
16100000,16020000,16020000,0,0.028656006,12.340729,-0.0,12.454305,1.3519056e-07,0,1,0,1
16164000,16080000,16084000,0,-0.037109375,12.341149,0.061038114,12.4574,1.1962854e-05,0,1,0,1
16220000,16140000,16140000,0,0.03845215,12.341429,-0.0,12.444038,1.4915739e-06,0,1,0,1
16284000,16200000,16204000,0,0.104034424,12.341839,-0.0,12.446879,2.3498074e-05,0,1,0,1
16340000,16260000,16260000,0,-0.046844482,12.342108,0.06681565,12.449212,1.4344141e-05,0,1,0,1
16404000,16320000,16324000,0,-0.018188477,12.342507,0.03926454,12.452158,4.952408e-06,0,1,0,1
16460000,16378666,16380000,0,-0.0178833,12.342767,0.04015389,12.454571,5.1782918e-06,0,1,0,1
16524000,16440000,16444000,0,-0.026977539,12.343158,0.050732773,12.457623,8.264224e-06,0,1,0,1
16580000,16500000,16500000,0,-0.012512207,12.343408,0.037483238,12.460114,4.51037e-06,0,1,0,1
16644000,16560000,16564000,0,-0.049804688,12.343789,0.068333745,12.447217,1.5005766e-05,0,1,0,1
16700000,16620000,16620000,0,-0.053985596,12.344028,0.07356858,12.449508,1.738972e-05,0,1,0,1
16764000,16680000,16684000,0,-0.10977173,12.344399,0.13063104,12.452408,5.4815006e-05,0,1,0,1
16820000,16740000,16740000,0,0.0038757324,12.34463,0.017535858,12.454782,9.875928e-07,0,1,0,1
16884000,16800000,16804000,0,0.07443237,12.344994,-0.0,12.45779,8.412187e-06,0,1,0,1
16940000,16860000,16860000,0,0.050567627,12.345215,-0.0,12.460244,2.0874393e-06,0,1,0,1
17004000,16920000,16924000,0,0.059753418,12.34557,-0.0,12.463359,3.4011225e-06,0,1,0,1
17060000,16980000,16980000,0,0.064208984,12.345782,-0.0,12.449729,5.818299e-06,0,1,0,1
17124000,17040000,17044000,0,-0.09573364,12.3461275,0.11943925,12.452586,4.5824167e-05,0,1,0,1
17180000,17100000,17100000,0,0.017852783,12.346332,0.0066531952,12.454923,1.4216067e-07,0,1,0,1
17244000,17160000,17164000,0,-0.052520752,12.346668,0.07908367,12.457889,2.008118e-05,0,1,0,1
17300000,17220000,17220000,0,0.027923584,12.346865,-0.0,12.460309,1.1138041e-10,0,1,0,1
17364000,17280000,17284000,0,0.027923584,12.347193,0.0020270832,12.463382,1.3187645e-08,0,1,0,1
17420000,17338666,17340000,0,-0.06594849,12.347382,0.09050083,12.449916,2.631472e-05,0,1,0,1
17484000,17400000,17404000,0,-0.041778564,12.347701,0.067689516,12.452731,1.4717641e-05,0,1,0,1
17540000,17460000,17460000,0,0.052642822,12.347881,-0.0,12.455032,2.0766072e-06,0,1,0,1
17604000,17520000,17524000,0,0.099365234,12.348193,-0.0,12.457958,1.5737925e-05,0,1,0,1
17660000,17580000,17580000,0,0.00491333,12.348366,0.026124533,12.460345,2.1909223e-06,0,1,0,1
17724000,17640000,17644000,0,0.056793213,12.348671,-0.0,12.463381,1.9827728e-06,0,1,0,1
17780000,17700000,17700000,0,0.042510986,12.348836,-0.0,12.46585,3.6376056e-07,0,1,0,1
17844000,17760000,17764000,0,0.075286865,12.349134,-0.0,12.452781,1.0835099e-05,0,1,0,1
17900000,17820000,17820000,0,0.027893066,12.349292,-0.0,12.455047,6.225271e-07,0,1,0,1
17964000,17880000,17884000,0,-0.042663574,12.349582,0.05138571,12.457932,8.478104e-06,0,1,0,1
18020000,17940000,17940000,0,-0.05166626,12.349731,0.054081056,12.460284,9.389065e-06,0,1,0,1
18084000,18000000,18004000,0,-0.084106445,12.350016,0.07741092,12.463283,1.9232335e-05,0,1,0,1
18140000,18060000,18060000,0,0.03387451,12.350159,-0.0,12.465718,8.335146e-06,0,1,0,1
18204000,18118000,18124000,0,-0.032226562,12.350436,0.0011277422,12.468825,4.079943e-09,0,1,0,1
18252000,18168000,18172000,0,-0.13552856,12.350438,0.08881651,12.454351,2.5335312e-05,0,1,0,1
18308000,18228000,18228000,0,-0.040924072,12.3505745,-0.0,12.4566145,1.8790769e-06,0,1,0,1
18372000,18286000,18292000,0,-0.11154175,12.350844,0.02268006,12.459502,1.6513824e-06,0,1,0,1
18420000,18336000,18340000,0,-0.14422607,12.350839,0.034857407,12.461258,3.9002125e-06,0,1,0,1
18476000,18396000,18396000,0,-0.059448242,12.350969,-0.0,12.463644,1.8792518e-05,0,1,0,1
18540000,18456000,18460000,0,-0.17272949,12.351233,0.0034610778,12.466686,3.8435424e-08,0,1,0,1
18596000,18516000,18516000,0,-0.2055664,12.351357,0.0050478876,12.469156,8.174144e-08,0,1,0,1
18660000,18576000,18580000,0,-0.27127075,12.351615,0.025910616,12.455921,2.1559545e-06,0,1,0,1
18716000,18636000,18636000,0,-0.40249634,12.351732,0.12444687,12.458185,4.9724815e-05,0,1,0,1
18780000,18696000,18700000,0,-0.46722412,12.351983,0.15164134,12.461078,7.3814146e-05,0,1,0,1
18836000,18756000,18756000,0,-0.40493774,12.352095,0.056440443,12.4634285,1.0223586e-05,0,1,0,1
18900000,18816000,18820000,0,-0.40447998,12.352341,0.019199759,12.4664345,1.1827944e-06,0,1,0,1
18956000,18873333,18876000,0,-0.43719482,12.352447,0.01960066,12.468871,1.232464e-06,0,1,0,1
19004000,18924000,18924000,0,-0.3055725,12.352416,-0.0,12.47071,6.2971914e-05,0,1,0,1
19068000,18984000,18988000,0,-0.5180054,12.352656,0.027122647,12.457324,2.3621058e-06,0,1,0,1
19124000,19044000,19044000,0,-0.52719116,12.3527565,0.0023366213,12.459586,1.7528027e-08,0,1,0,1
19188000,19103000,19108000,0,-0.5881958,12.352991,0.024181664,12.462481,1.8768427e-06,0,1,0,1
19244000,19164000,19164000,0,-0.6208496,12.353086,0.021997273,12.464831,1.5527849e-06,0,1,0,1
19308000,19224000,19228000,0,-0.6488342,12.353315,0.009842753,12.467836,3.108151e-07,0,1,0,1
19364000,19284000,19284000,0,-0.60180664,12.353406,-0.0,12.470272,1.6861784e-05,0,1,0,1
19428000,19344000,19348000,0,-0.76672363,12.35363,0.04328525,12.456969,6.016272e-06,0,1,0,1
19484000,19404000,19404000,0,-0.8649597,12.353714,0.10527861,12.459193,3.5583642e-05,0,1,0,1
19548000,19464000,19468000,0,-0.859375,12.353932,0.057556808,12.462043,1.06332045e-05,0,1,0,1
19604000,19524000,19524000,0,-1.0654602,12.354012,0.22692007,12.4643545,0.00016524793,0,1,0,1
19668000,19584000,19588000,0,-0.9555969,12.354225,0.07356328,12.467317,1.7362376e-05,0,1,0,1
19724000,19644000,19644000,0,-0.95028687,12.3543005,0.031302094,12.469715,3.1430422e-06,0,1,0,1
19788000,19704000,19708000,0,-0.9500122,12.354509,-0.0,12.472787,3.6456132e-07,0,1,0,1
19844000,19764000,19764000,0,-1.0581055,12.354581,0.0476799,12.458696,7.2989114e-06,0,1,0,1
19908000,19824000,19828000,0,-1.1187439,12.354784,0.06627107,12.461499,1.4097354e-05,0,1,0,1
19964000,19884000,19884000,0,-1.1040955,12.35485,0.014691949,12.463774,6.927384e-07,0,1,0,1
20028000,19944000,19948000,0,-1.1227417,12.355049,-0.0,12.466689,2.1417391e-07,0,1,0,1
20084000,20004000,20004000,0,-1.1838379,12.35511,0.016968966,12.469049,9.237137e-07,0,1,0,1
20148000,20064000,20068000,0,-1.2212524,12.355306,0.015859723,12.472076,8.067007e-07,0,1,0,1
20204000,20124000,20124000,0,-1.1600952,12.355363,-0.0,12.47452,1.8457431e-05,0,1,0,1
20268000,20184000,20188000,0,-1.226471,12.355555,-0.0,12.460861,1.6435026e-05,0,1,0,1
20324000,20240000,20244000,0,-1.4336548,12.355607,0.1079905,12.463095,3.742874e-05,0,1,0,1
20372000,20292000,20292000,0,-1.413971,12.355523,0.064237,12.464779,1.32417645e-05,0,1,0,1
20436000,20352000,20356000,0,-1.5401917,12.355712,0.15959632,12.467694,8.171835e-05,0,1,0,1
20492000,20412000,20412000,0,-1.5294495,12.355762,0.12124777,12.470052,4.715625e-05,0,1,0,1
20556000,20472000,20476000,0,-1.589447,12.355947,0.15054047,12.47308,7.26763e-05,0,1,0,1
20612000,20532000,20532000,0,-1.6210327,12.355992,0.07919216,12.470889,2.0115322e-05,0,1,0,1
20676000,20592000,20596000,0,-1.6391296,12.3561735,0.05766952,12.461806,1.0675093e-05,0,1,0,1
20732000,20652000,20652000,0,-1.8029785,12.3562155,0.19341755,12.464041,0.000120058496,0,1,0,1
20796000,20710000,20716000,0,-1.6651611,12.356392,0.022496462,12.466914,1.6237885e-06,0,1,0,1
20844000,20760000,20764000,0,-1.8903503,12.356295,0.22415578,12.468631,0.00016119113,0,1,0,1
20900000,20818666,20820000,0,-1.8649597,12.356335,0.17021942,12.470992,9.2934555e-05,0,1,0,1
20964000,20880000,20884000,0,-1.9057312,12.35651,0.18035674,12.47403,0.000104308085,0,1,0,1
21020000,20940000,20940000,0,-2.059143,12.356547,0.17395973,12.4599285,9.71498e-05,0,1,0,1
21084000,21000000,21004000,0,-2.1468506,12.356717,0.23018873,12.462693,0.00017006548,0,1,0,1
21140000,21058666,21060000,0,-2.1260986,12.3567505,0.18270671,12.464935,0.00010712207,0,1,0,1
21204000,21118000,21124000,0,-2.326416,12.356917,0.35602796,12.467821,0.0004066658,0,1,0,1
21252000,21168000,21172000,0,-2.407898,12.356812,0.41830945,12.469544,0.00056131254,0,1,0,1
21308000,21228000,21228000,0,-2.3104248,12.356843,0.3025093,12.471919,0.00029349737,0,1,0,1
21372000,21288000,21292000,0,-2.4346008,12.35701,0.41329956,12.474976,0.00054770935,0,1,0,1
21428000,21346666,21348000,0,-2.5718994,12.357038,0.36731505,12.460777,0.00043310408,0,1,0,1
21492000,21406000,21412000,0,-2.5969238,12.3572,0.38406348,12.463557,0.0004733954,0,1,0,1
21540000,21456000,21460000,0,-2.7062988,12.357089,0.48805666,12.465221,0.0007643645,0,1,0,1
21596000,21516000,21516000,0,-2.6457825,12.357116,0.42209744,12.467515,0.00057161757,0,1,0,1
21660000,21576000,21580000,0,-2.65625,12.357277,0.42903566,12.470468,0.00059042405,0,1,0,1
21716000,21636000,21636000,0,-2.7886963,12.357301,0.5589287,12.472857,0.0010018597,0,1,0,1
21780000,21696000,21700000,0,-2.9106445,12.357459,0.6780913,12.475932,0.0014742233,0,1,0,1
21836000,21756000,21756000,0,-2.9282837,12.35748,0.4834199,12.461622,0.0007501264,0,1,0,1
21900000,21816000,21820000,0,-2.9241028,12.357635,0.47380853,12.464413,0.0007204335,0,1,0,1
21956000,21876000,21876000,0,-3.0702515,12.357652,0.6150093,12.466674,0.0012135922,0,1,0,1
22020000,21936000,21940000,0,-3.0931396,12.357803,0.6323285,12.469584,0.0012826067,0,1,0,1
22076000,21996000,21996000,0,-3.181549,12.357818,0.71648383,12.471937,0.0016464132,0,1,0,1
22140000,22056000,22060000,0,-3.3162231,12.357967,0.8485272,12.474965,0.0023086187,0,1,0,1
22196000,22116000,22116000,0,-3.2055664,12.357979,0.7353203,12.477404,0.0017333605,0,1,0,1
22260000,22176000,22180000,0,-3.3024902,12.358127,0.59295917,12.463571,0.0011284103,0,1,0,1
22316000,22236000,22236000,0,-3.4006042,12.358134,0.6891873,12.465789,0.0015241046,0,1,0,1
22380000,22296000,22300000,0,-3.4603577,12.358278,0.74791694,12.468649,0.0017945161,0,1,0,1
22436000,22356000,22356000,0,-3.4961243,12.358284,0.7831881,12.470956,0.001967399,0,1,0,1
22500000,22414000,22420000,0,-3.653656,12.358426,0.9434755,12.473927,0.002854421,0,1,0,1
22548000,22464000,22468000,0,-3.5468445,12.3582945,0.8373275,12.47568,0.0022479491,0,1,0,1
22604000,22524000,22524000,0,-3.614685,12.358301,0.910274,12.478103,0.002656169,0,1,0,1
22668000,22584000,22588000,0,-3.6913147,12.358442,0.7555659,12.464193,0.0018320634,0,1,0,1
22724000,22644000,22644000,0,-3.7082214,12.358445,0.7773428,12.466398,0.0019388498,0,1,0,1
22788000,22704000,22708000,0,-3.7202148,12.358583,0.7968819,12.469241,0.0020370793,0,1,0,1
22844000,22764000,22764000,0,-3.8259583,12.358584,0.9098871,12.47153,0.0026553103,0,1,0,1
22908000,22824000,22828000,0,-3.7851868,12.358721,0.8800974,12.474479,0.0024836995,0,1,0,1
22964000,22882666,22884000,0,-3.8009949,12.35872,0.90706944,12.476847,0.0026377658,0,1,0,1
23028000,22944000,22948000,0,-3.8165588,12.358853,0.71483207,12.463128,0.0016399892,0,1,0,1
23084000,23004000,23004000,0,-3.8244019,12.35885,0.7354326,12.4652815,0.0017355761,0,1,0,1
23148000,23064000,23068000,0,-3.8836975,12.35898,0.8110018,12.46806,0.0021101085,0,1,0,1
23204000,23124000,23124000,0,-3.8766174,12.358974,0.81762457,12.470294,0.0021443279,0,1,0,1
23268000,23184000,23188000,0,-3.7521057,12.359103,0.7116449,12.473176,0.0016240882,0,1,0,1
23324000,23242666,23244000,0,-3.811615,12.359096,0.78939915,12.475489,0.0019980012,0,1,0,1
23388000,23304000,23308000,0,-3.7530823,12.359223,0.75402045,12.478473,0.0018224885,0,1,0,1
23444000,23364000,23364000,0,-3.8215942,12.359214,0.6688082,12.464134,0.0014354929,0,1,0,1
23508000,23424000,23428000,0,-3.806366,12.359338,0.67797923,12.466848,0.0014748102,0,1,0,1
23564000,23484000,23484000,0,-3.7534485,12.359325,0.64595103,12.46903,0.0013385251,0,1,0,1
23628000,23544000,23548000,0,-3.6773376,12.359448,0.59556603,12.47185,0.0011375983,0,1,0,1
23684000,23604000,23604000,0,-3.6815186,12.359434,0.6232543,12.474112,0.0012456067,0,1,0,1
23748000,23664000,23668000,0,-3.7042236,12.359556,0.6750243,12.4770355,0.0014607885,0,1,0,1
23804000,23724000,23724000,0,-3.590332,12.35954,0.568872,12.474832,0.0010376583,0,1,0,1
23868000,23784000,23788000,0,-3.636963,12.35966,0.5498183,12.465571,0.0009700322,0,1,0,1
23924000,23844000,23844000,0,-3.5194702,12.359642,0.45940828,12.467706,0.00067712844,0,1,0,1
23988000,23904000,23908000,0,-3.4027405,12.359759,0.37496948,12.470469,0.00045099217,0,1,0,1
24044000,23962666,23964000,0,-3.4276428,12.359739,0.4283955,12.472687,0.00058855873,0,1,0,1
24108000,24022000,24028000,0,-3.3721924,12.359856,0.40577626,12.475559,0.00052792626,0,1,0,1
24156000,24072000,24076000,0,-3.3310547,12.359699,0.388654,12.477233,0.00048424816,0,1,0,1
24212000,24132000,24132000,0,-3.3464355,12.359681,0.4665885,12.475031,0.00069804984,0,1,0,1
24276000,24192000,24196000,0,-3.3517456,12.359798,0.4221053,12.465753,0.00057171966,0,1,0,1
24332000,24252000,24252000,0,-3.2306213,12.359777,0.32934523,12.467883,0.0003479926,0,1,0,1
24396000,24312000,24316000,0,-3.0868835,12.359893,0.21827197,12.47065,0.00015281531,0,1,0,1
24452000,24372000,24372000,0,-3.0755615,12.359871,0.23508477,12.472872,0.00017723216,0,1,0,1
24516000,24432000,24436000,0,-2.9795837,12.359984,0.17037582,12.475754,9.306987e-05,0,1,0,1
24572000,24492000,24492000,0,-2.9076843,12.3599615,0.12538218,12.478067,5.0394636e-05,0,1,0,1
24636000,24552000,24556000,0,-2.8737183,12.360074,0.1584692,12.464477,8.058899e-05,0,1,0,1
24692000,24612000,24612000,0,-2.7408447,12.360048,0.05272484,12.466586,8.91955e-06,0,1,0,1
24756000,24672000,24676000,0,-2.7263184,12.360159,0.069117546,12.469329,1.5324755e-05,0,1,0,1
24812000,24732000,24732000,0,-2.6787415,12.360131,0.04680133,12.471537,7.025162e-06,0,1,0,1
24876000,24792000,24796000,0,-2.593811,12.360241,-0.0,12.474407,3.962907e-07,0,1,0,1
24932000,24852000,24852000,0,-2.396698,12.360213,-0.0,12.476717,0.00011103195,0,1,0,1
24996000,24912000,24916000,0,-2.3936462,12.360321,-0.0,12.479716,8.808661e-05,0,1,0,1
25052000,24972000,24972000,0,-2.1556702,12.360292,-0.0,12.465341,0.00022710659,0,1,0,1
25116000,25030000,25036000,0,-2.111084,12.360397,-0.0,12.468072,0.00026478586,0,1,0,1
25172000,25090666,25092000,0,-2.174652,12.360367,-0.0,12.470281,0.00013469004,0,1,0,1
25236000,25152000,25156000,0,-2.0919495,12.360472,-0.0,12.47315,0.00023202781,0,1,0,1
25292000,25212000,25212000,0,-1.925293,12.360439,-0.0,12.475468,0.0005714287,0,1,0,1
25356000,25272000,25276000,0,-1.8304138,12.360543,-0.0,12.4784775,0.0008164832,0,1,0,1
25412000,25332000,25332000,0,-1.7175293,12.360511,-0.0,12.476085,0.0005463232,0,1,0,1
25476000,25392000,25396000,0,-1.7164917,12.360613,-0.0,12.46684,0.00052838674,0,1,0,1
25532000,25452000,25452000,0,-1.6308899,12.360579,-0.0,12.469051,0.0007458406,0,1,0,1
25596000,25512000,25516000,0,-1.4849243,12.360679,-0.0,12.471924,0.0012323026,0,1,0,1
25652000,25572000,25572000,0,-1.4153137,12.360643,-0.0,12.474252,0.0015066904,0,1,0,1
25716000,25632000,25636000,0,-1.3744202,12.3607435,-0.0,12.4772625,0.0016900712,0,1,0,1
25772000,25690666,25692000,0,-1.2306213,12.360707,-0.0,12.479704,0.0024432684,0,1,0,1
25836000,25752000,25756000,0,-1.2243042,12.360806,-0.0,12.465723,0.0012379265,0,1,0,1
25892000,25812000,25812000,0,-1.0513916,12.360768,-0.0,12.46793,0.002033169,0,1,0,1
25956000,25872000,25876000,0,-1.0631714,12.360866,-0.0,12.470795,0.00199157,0,1,0,1
26012000,25932000,25932000,0,-0.8542175,12.3608265,-0.0,12.473114,0.0032198252,0,1,0,1
26076000,25992000,25996000,0,-0.83496094,12.360923,-0.0,12.476121,0.0034063207,0,1,0,1
26132000,26052000,26052000,0,-0.6187744,12.360884,-0.0,12.47856,0.0050806105,0,1,0,1
26196000,26112000,26116000,0,-0.5689392,12.36098,-0.0,12.481709,0.0056327707,0,1,0,1
26252000,26172000,26172000,0,-0.53375244,12.360939,-0.0,12.466761,0.0034646452,0,1,0,1
26316000,26232000,26236000,0,-0.49606323,12.361033,-0.0,12.469608,0.0038161448,0,1,0,1
26372000,26290666,26292000,0,-0.3930664,12.3609915,-0.0,12.471915,0.0046740063,0,1,0,1
26436000,26352000,26356000,0,-0.35687256,12.361085,-0.0,12.474902,0.005108409,0,1,0,1
26492000,26412000,26412000,0,-0.21786499,12.361042,-0.0,12.477325,0.006478435,0,1,0,1
26556000,26472000,26476000,0,-0.2539978,12.3611355,-0.0,12.480452,0.006395679,0,1,0,1
26612000,26532000,26532000,0,-0.121032715,12.361093,-0.0,12.465628,0.0044767666,0,1,0,1
26676000,26592000,26596000,0,-0.032958984,12.361184,-0.0,12.468447,0.005376414,0,1,0,1
26732000,26652000,26652000,0,0.035308838,12.361139,-0.0,12.47073,0.0061678356,0,1,0,1
26796000,26712000,26716000,0,0.083984375,12.36123,-0.0,12.473671,0.007221106,0,1,0,1
26852000,26772000,26772000,0,0.11288452,12.361184,-0.0,12.476026,0.008619311,0,1,0,1
26916000,26830000,26836000,0,0.041931152,12.361276,-0.0,12.47905,0.009222002,0,1,0,1
26964000,26880000,26884000,0,0.12536621,12.361094,-0.0,12.480798,0.011276935,0,1,0,1
27020000,26940000,26940000,0,0.010101318,12.361052,-0.0,12.466007,0.006797393,0,1,0,1
27084000,26998000,27004000,0,0.03466797,12.361144,-0.0,12.468703,0.008238843,0,1,0,1
27132000,27048000,27052000,0,0.048583984,12.360965,-1.7089331,12.470259,0.009367736,0,1,0,1
27188000,27108000,27108000,0,-0.032348633,12.360924,-1.7218544,12.47242,0.009508284,0,1,0,1
27252000,27168000,27172000,0,0.018066406,12.361018,-1.8813204,12.475193,0.011348494,0,1,0,1
27308000,27226666,27228000,0,0.020080566,12.360977,-1.9752576,12.477382,0.012507889,0,1,0,1
27372000,27288000,27292000,0,0.030670166,12.361072,-2.0924473,12.480197,0.014032906,0,1,0,1
27428000,27348000,27348000,0,-0.081848145,12.36103,-1.6490363,12.465757,0.00872573,0,1,0,1
27484000,27404000,27404000,0,0.058410645,12.360987,-1.8781326,12.467716,0.01131685,0,1,0,1
27540000,27454000,27460000,0,-0.056915283,12.360946,-1.8488111,12.469687,0.0109645175,0,1,0,1
27596000,27514666,27516000,0,-0.125,12.360905,-1.8663671,12.471668,0.011171965,0,1,0,1
27660000,27576000,27580000,0,-0.15100098,12.361,-1.93946,12.474231,0.012061682,0,1,0,1
27716000,27636000,27636000,0,-0.17764282,12.360959,-1.9958026,12.476229,0.0127706155,0,1,0,1
27780000,27696000,27700000,0,-0.18133545,12.361053,-2.0876002,12.478816,0.013969514,0,1,0,1
27836000,27756000,27756000,0,-0.24685669,12.3610115,-1.6793631,12.464875,0.009050265,0,1,0,1
27900000,27816000,27820000,0,-0.078704834,12.361104,-1.9375515,12.467201,0.012044743,0,1,0,1
27956000,27874666,27876000,0,-0.2086792,12.361061,-1.8807566,12.469009,0.011347319,0,1,0,1
28020000,27936000,27940000,0,-0.22543335,12.361153,-1.948756,12.471363,0.012180384,0,1,0,1
28076000,27994666,27996000,0,-0.14419556,12.361109,-2.0997,12.473185,0.014138298,0,1,0,1
28140000,28056000,28060000,0,-0.19577026,12.3612,-2.1267729,12.475563,0.014502473,0,1,0,1
28196000,28114666,28116000,0,-0.2616577,12.3611555,-2.12502,12.477393,0.014476455,0,1,0,1
28260000,28176000,28180000,0,-0.33224487,12.361247,-1.7270324,12.464571,0.009571579,0,1,0,1
28316000,28236000,28236000,0,-0.33825684,12.3612,-1.7803667,12.466235,0.01017053,0,1,0,1
28380000,28296000,28300000,0,-0.33535767,12.36129,-1.8499856,12.46842,0.010979568,0,1,0,1
28436000,28356000,28356000,0,-0.41757202,12.361243,-1.8212852,12.470101,0.010640106,0,1,0,1
28500000,28416000,28420000,0,-0.40093994,12.361333,-1.8987267,12.472315,0.01156213,0,1,0,1
28556000,28476000,28476000,0,-0.37564087,12.361285,-1.971844,12.47401,0.012468063,0,1,0,1
28620000,28536000,28540000,0,-0.43545532,12.361374,-1.6019862,12.461951,0.008237425,0,1,0,1
28676000,28596000,28596000,0,-0.3511963,12.361325,-1.727742,12.463505,0.009580266,0,1,0,1
28740000,28654000,28660000,0,-0.4041748,12.361412,-1.719655,12.465559,0.009489228,0,1,0,1
28796000,28714666,28716000,0,-0.5369568,12.361362,-1.6214123,12.467137,0.008434905,0,1,0,1
28860000,28776000,28780000,0,-0.47161865,12.361449,-1.7256901,12.469229,0.009553137,0,1,0,1
28916000,28836000,28836000,0,-0.47296143,12.3614,-1.7525265,12.470831,0.009851305,0,1,0,1
28980000,28894000,28900000,0,-0.51208496,12.361486,-1.7437713,12.4729595,0.009751458,0,1,0,1
29028000,28944000,28948000,0,-0.41967773,12.361301,-1.5570855,12.460476,0.007783058,0,1,0,1
29084000,29002666,29004000,0,-0.6026306,12.361253,-1.3924348,12.461965,0.006223336,0,1,0,1
29148000,29064000,29068000,0,-0.58688354,12.361341,-1.4284387,12.46395,0.0065482836,0,1,0,1
29204000,29124000,29124000,0,-0.5198059,12.361294,-1.5080462,12.465475,0.0072976067,0,1,0,1
29268000,29184000,29188000,0,-0.6553345,12.361382,-1.3839846,12.467508,0.006145296,0,1,0,1
29324000,29242666,29244000,0,-0.50338745,12.361333,-1.5417945,12.469068,0.0076256883,0,1,0,1
29388000,29302000,29308000,0,-0.554718,12.361421,-1.493288,12.471149,0.007152217,0,1,0,1
29436000,29352000,29356000,0,-0.52108765,12.361236,-1.293486,12.459136,0.0053715,0,1,0,1
29492000,29409333,29412000,0,-0.6218262,12.361189,-1.188162,12.4606,0.004531817,0,1,0,1
29540000,29460000,29460000,0,-0.50097656,12.361009,-1.3017176,12.461616,0.0054390025,0,1,0,1
29604000,29520000,29524000,0,-0.5548096,12.361101,-1.2364389,12.463599,0.0049063875,0,1,0,1
29660000,29580000,29580000,0,-0.7348633,12.361057,-1.0417783,12.46513,0.0034826822,0,1,0,1
29724000,29640000,29644000,0,-0.66900635,12.361149,-1.0897435,12.4671755,0.003810136,0,1,0,1
29780000,29700000,29700000,0,-0.5003052,12.361105,-1.2374378,12.468754,0.004912287,0,1,0,1
29844000,29760000,29764000,0,-0.7319946,12.3611965,-0.83893085,12.458052,0.0022597592,0,1,0,1
29900000,29820000,29820000,0,-0.6925049,12.36115,-0.8526317,12.459522,0.0023338962,0,1,0,1
29964000,29880000,29884000,0,-0.6625366,12.36124,-0.84988713,12.4614935,0.0023185285,0,1,0,1
30020000,29940000,29940000,0,-0.6795349,12.361194,-0.7999536,12.463021,0.0020538382,0,1,0,1
30084000,29998000,30004000,0,-0.70077515,12.361283,-0.7386973,12.465068,0.0017510491,0,1,0,1
30140000,30060000,30060000,0,-0.7824707,12.361236,-0.6206311,12.466655,0.0012358823,0,1,0,1
30204000,30119000,30124000,0,-0.75042725,12.361325,-0.6791247,12.466238,0.0014798703,0,1,0,1
30260000,30180000,30180000,0,-0.5874939,12.361278,-0.6747619,12.457758,0.001461912,0,1,0,1
30324000,30240000,30244000,0,-0.7625427,12.361364,-0.46283674,12.459741,0.00068771205,0,1,0,1
30380000,30300000,30300000,0,-0.78079224,12.361316,-0.41390002,12.461289,0.0005499053,0,1,0,1
30444000,30360000,30364000,0,-0.7281494,12.361403,-0.43316412,12.46336,0.00060218485,0,1,0,1
30500000,30420000,30420000,0,-0.8165283,12.361354,-0.3158226,12.464977,0.00032007735,0,1,0,1
30564000,30480000,30484000,0,-0.81933594,12.361441,-0.28266072,12.467135,0.00025634465,0,1,0,1
30620000,30540000,30540000,0,-0.75613403,12.361391,-0.2847396,12.456252,0.00026035646,0,1,0,1
30684000,30600000,30604000,0,-0.7915344,12.361476,-0.22430909,12.458261,0.00016154605,0,1,0,1
30740000,30660000,30660000,0,-0.8123474,12.361425,-0.18510324,12.459837,0.00010999569,0,1,0,1
30804000,30720000,30724000,0,-0.9642334,12.36151,-0.018754244,12.461941,1.1289467e-06,0,1,0,1
30860000,30780000,30780000,0,-0.9315491,12.361459,-0.0440408,12.4635935,6.224824e-06,0,1,0,1
30924000,30840000,30844000,0,-0.9178467,12.361544,-0.05113381,12.465795,8.389892e-06,0,1,0,1
30980000,30900000,30900000,0,-0.9934387,12.361492,0.028915763,12.4675255,2.6825574e-06,0,1,0,1
31044000,30959000,30964000,0,-1.0166626,12.361576,0.07264358,12.457083,1.6944865e-05,0,1,0,1
31100000,31020000,31020000,0,-0.8939514,12.361524,-0.051562548,12.458695,8.536035e-06,0,1,0,1
31164000,31079000,31084000,0,-1.0211792,12.361607,0.07267302,12.460841,1.6953489e-05,0,1,0,1
31220000,31140000,31140000,0,-1.0346069,12.361553,0.07878393,12.462537,1.992181e-05,0,1,0,1
31284000,31200000,31204000,0,-1.1794739,12.361637,0.20356607,12.4647875,0.00013297987,0,1,0,1
31340000,31260000,31260000,0,-1.0790405,12.361583,0.06729257,12.466555,1.4529403e-05,0,1,0,1
31404000,31320000,31324000,0,-1.2427368,12.361666,0.17588282,12.468879,9.923833e-05,0,1,0,1
31460000,31376000,31380000,0,-1.4101868,12.361612,0.29154885,12.457735,0.00027292513,0,1,0,1
31508000,31428000,31428000,0,-1.482666,12.3614235,0.3116889,12.458889,0.00031190572,0,1,0,1
31572000,31488000,31492000,0,-1.5784912,12.361508,0.33794844,12.461049,0.0003666117,0,1,0,1
31628000,31548000,31548000,0,-1.6693726,12.361457,0.36872303,12.462741,0.00043636205,0,1,0,1
31692000,31608000,31612000,0,-1.6942444,12.361542,0.32761884,12.464967,0.00034443443,0,1,0,1
31748000,31668000,31668000,0,-1.7758179,12.36149,0.35409403,12.466705,0.00040229582,0,1,0,1
31812000,31726000,31732000,0,-1.8900452,12.361575,0.37985682,12.4563055,0.00046335155,0,1,0,1
31868000,31785333,31788000,0,-2.0274963,12.361522,0.46672738,12.457898,0.000699426,0,1,0,1
31916000,31836000,31836000,0,-2.2111206,12.361335,0.6079583,12.45903,0.0011866519,0,1,0,1
31980000,31894000,31900000,0,-2.111786,12.361422,0.45504236,12.46116,0.0006646687,0,1,0,1
32036000,31956000,31956000,0,-2.154663,12.361371,0.4542737,12.462821,0.0006623367,0,1,0,1
32100000,32016000,32020000,0,-2.3665771,12.361458,0.61985326,12.465012,0.0012329489,0,1,0,1
32156000,32076000,32076000,0,-2.3704224,12.361407,0.5839108,12.466718,0.0010939587,0,1,0,1
32220000,32136000,32140000,0,-2.4825745,12.361494,0.60577095,12.456356,0.0011783814,0,1,0,1
32276000,32192000,32196000,0,-2.4302063,12.361442,0.51760495,12.457926,0.0008602231,0,1,0,1
32324000,32244000,32244000,0,-2.4866028,12.361257,0.54500985,12.45904,0.0009536393,0,1,0,1
32388000,32302000,32308000,0,-2.5803223,12.361344,0.6035265,12.461144,0.0011692158,0,1,0,1
32436000,32352000,32356000,0,-2.626587,12.36116,0.62348104,12.462292,0.0012476954,0,1,0,1
32492000,32412000,32412000,0,-2.7008362,12.361115,0.6695812,12.463957,0.0014388335,0,1,0,1
32556000,32472000,32476000,0,-2.7464905,12.361207,0.6859212,12.466156,0.0015096486,0,1,0,1
32612000,32529333,32532000,0,-2.7920227,12.361161,0.6346946,12.465187,0.0012926792,0,1,0,1
32660000,32580000,32580000,0,-2.7300415,12.360981,0.55648994,12.456472,0.0009944423,0,1,0,1
32724000,32639000,32644000,0,-2.8753357,12.3610735,0.67768,12.45853,0.0014744924,0,1,0,1
32780000,32700000,32700000,0,-2.878662,12.36103,0.66011715,12.46014,0.0013988756,0,1,0,1
32844000,32759000,32764000,0,-3.018341,12.361122,0.7788005,12.46227,0.0019467729,0,1,0,1
32900000,32816000,32820000,0,-3.1522217,12.361077,0.8945613,12.463935,0.0025681776,0,1,0,1
32948000,32868000,32868000,0,-3.0644531,12.360899,0.79077363,12.465117,0.0020066332,0,1,0,1
33012000,32928000,32932000,0,-3.0902405,12.360993,0.72471356,12.4646635,0.0016854358,0,1,0,1
33068000,32988000,32988000,0,-3.1589355,12.360951,0.7730377,12.456484,0.0019189595,0,1,0,1
33132000,33048000,33052000,0,-3.2177734,12.361045,0.8173156,12.4585495,0.0021447272,0,1,0,1
33188000,33106666,33108000,0,-3.2245483,12.361002,0.81154823,12.460168,0.0021142908,0,1,0,1
33252000,33166000,33172000,0,-3.2126465,12.361094,0.78800344,12.462312,0.0019930473,0,1,0,1
33300000,33216000,33220000,0,-3.1680603,12.360915,0.73451734,12.463488,0.0017315081,0,1,0,1
33356000,33276000,33276000,0,-3.2272644,12.360874,0.7863128,12.465193,0.0019840458,0,1,0,1
33412000,33332000,33332000,0,-3.2531433,12.360835,0.73913,12.464198,0.0017532236,0,1,0,1
33468000,33384000,33388000,0,-3.3029175,12.360796,0.7672875,12.456085,0.0018905783,0,1,0,1
33524000,33444000,33444000,0,-3.3242493,12.360757,0.7831073,12.457686,0.0019690879,0,1,0,1
33588000,33504000,33508000,0,-3.2515564,12.360853,0.7059183,12.459806,0.0015997703,0,1,0,1
33644000,33564000,33564000,0,-3.306305,12.360813,0.7577002,12.461473,0.0018428306,0,1,0,1
33708000,33624000,33628000,0,-3.3605957,12.360909,0.81052685,12.463677,0.0021083783,0,1,0,1
33764000,33684000,33684000,0,-3.433197,12.360869,0.88198686,12.465409,0.0024961904,0,1,0,1
33828000,33744000,33748000,0,-3.401886,12.360965,0.7636261,12.45514,0.0018727202,0,1,0,1
33884000,33804000,33804000,0,-3.4608154,12.360923,0.8223407,12.456738,0.002171497,0,1,0,1
33948000,33864000,33868000,0,-3.458191,12.361016,0.820611,12.458855,0.0021620041,0,1,0,1
34004000,33924000,33924000,0,-3.4555664,12.360973,0.81855035,12.460522,0.002150872,0,1,0,1
34068000,33984000,33988000,0,-3.3825378,12.361067,0.7481067,12.462728,0.0017962799,0,1,0,1
34124000,34044000,34044000,0,-3.4087524,12.361023,0.7773819,12.464464,0.0019393456,0,1,0,1
34188000,34104000,34108000,0,-3.4957275,12.361116,0.8695955,12.46676,0.0024262804,0,1,0,1
34244000,34162666,34164000,0,-3.473877,12.361072,0.7595804,12.455836,0.0018528257,0,1,0,1
34308000,34224000,34228000,0,-3.5234375,12.361163,0.81437516,12.457957,0.0021294241,0,1,0,1
34364000,34284000,34284000,0,-3.5114746,12.361117,0.8061912,12.459632,0.00208656,0,1,0,1
34428000,34344000,34348000,0,-3.4902039,12.361208,0.7907927,12.461846,0.0020072565,0,1,0,1
34484000,34404000,34404000,0,-3.5535889,12.361162,0.85939336,12.463596,0.002370285,0,1,0,1
34548000,34464000,34468000,0,-3.4942627,12.361252,0.8073826,12.465905,0.0020916783,0,1,0,1
34604000,34524000,34524000,0,-3.557495,12.361206,0.82085943,12.46475,0.0021622903,0,1,0,1
34668000,34582000,34588000,0,-3.4656677,12.361296,0.70072937,12.457169,0.0015766718,0,1,0,1
34716000,34632000,34636000,0,-3.4734802,12.361112,0.7138047,12.458364,0.0016359042,0,1,0,1
34772000,34692000,34692000,0,-3.5751038,12.361068,0.8225913,12.460089,0.0021722363,0,1,0,1
34836000,34750000,34756000,0,-3.4832458,12.361159,0.73937106,12.462363,0.0017546256,0,1,0,1
34884000,34800000,34804000,0,-3.6503906,12.360979,0.9125488,12.463646,0.0026725575,0,1,0,1
34940000,34860000,34860000,0,-3.538971,12.360937,0.80836296,12.465484,0.0020968323,0,1,0,1
35004000,34920000,34924000,0,-3.5083008,12.361032,0.78870034,12.467903,0.001995679,0,1,0,1
35060000,34980000,34980000,0,-3.5482178,12.360989,0.74809694,12.456713,0.0017971003,0,1,0,1
35124000,35040000,35044000,0,-3.6026,12.361081,0.8132868,12.458951,0.0021235668,0,1,0,1
35180000,35100000,35100000,0,-3.5296326,12.361037,0.74863315,12.460732,0.0017990967,0,1,0,1
35244000,35160000,35164000,0,-3.5651855,12.36113,0.7954881,12.4630785,0.0020309633,0,1,0,1
35300000,35220000,35220000,0,-3.5628052,12.361085,0.80236435,12.464947,0.0020659168,0,1,0,1
35364000,35280000,35284000,0,-3.597931,12.3611765,0.84967184,12.467401,0.0023162558,0,1,0,1
35420000,35338666,35340000,0,-3.6185303,12.361132,0.7927711,12.456139,0.002018237,0,1,0,1
35484000,35400000,35404000,0,-3.620819,12.361222,0.8068197,12.458405,0.0020900203,0,1,0,1
35540000,35460000,35460000,0,-3.5338135,12.361176,0.72920704,12.460213,0.0017070108,0,1,0,1
35604000,35518000,35524000,0,-3.4475098,12.361265,0.65518284,12.462591,0.0013777697,0,1,0,1
35660000,35578666,35580000,0,-3.5730896,12.3612175,0.79171634,12.46449,0.0020115217,0,1,0,1
35724000,35640000,35644000,0,-3.5566711,12.361307,0.7880628,12.466983,0.0019926007,0,1,0,1
35780000,35698666,35700000,0,-3.4838867,12.361259,0.72605205,12.468972,0.0016910827,0,1,0,1
35844000,35760000,35764000,0,-3.5384521,12.361348,0.70933056,12.457912,0.001615519,0,1,0,1
35900000,35820000,35820000,0,-3.6072083,12.3612995,0.7888701,12.459749,0.0019978443,0,1,0,1
35964000,35880000,35884000,0,-3.5297546,12.361387,0.72387123,12.46216,0.0016818579,0,1,0,1
36020000,35940000,35940000,0,-3.4622498,12.361338,0.6670394,12.46409,0.0014279151,0,1,0,1
36084000,36000000,36004000,0,-3.5126343,12.361425,0.7312939,12.46662,0.0017159128,0,1,0,1
36140000,36060000,36060000,0,-3.5108032,12.361376,0.74078465,12.468646,0.0017604538,0,1,0,1
36204000,36120000,36124000,0,-3.4900818,12.361463,0.7341697,12.471294,0.0017287866,0,1,0,1
36260000,36180000,36180000,0,-3.4318848,12.361412,0.5985739,12.459315,0.0011502742,0,1,0,1
36324000,36240000,36244000,0,-3.431244,12.361498,0.61209035,12.461756,0.001202574,0,1,0,1
36380000,36300000,36300000,0,-3.4116821,12.361446,0.6041188,12.463715,0.0011712706,0,1,0,1
36444000,36360000,36364000,0,-3.5330505,12.361531,0.73969126,12.466276,0.0017555946,0,1,0,1
36500000,36420000,36420000,0,-3.4841614,12.36148,0.70185065,12.468333,0.0015803053,0,1,0,1
36564000,36480000,36484000,0,-3.4778748,12.361565,0.7099056,12.471018,0.001616439,0,1,0,1
36620000,36540000,36540000,0,-3.4621582,12.361513,0.6248996,12.458881,0.0012537226,0,1,0,1
36684000,36598000,36604000,0,-3.4518738,12.361597,0.628947,12.461346,0.0012697645,0,1,0,1
36732000,36648000,36652000,0,-3.4274292,12.361408,0.6138985,12.46278,0.0012095901,0,1,0,1
36788000,36708000,36708000,0,-3.4031677,12.361359,0.6014862,12.464804,0.0011609831,0,1,0,1
36852000,36768000,36772000,0,-3.407196,12.361445,0.62006927,12.467443,0.0012335677,0,1,0,1
36908000,36828000,36828000,0,-3.4110107,12.361396,0.63617635,12.469565,0.001298266,0,1,0,1
36972000,36888000,36892000,0,-3.4570007,12.361483,0.6972501,12.47233,0.0015591561,0,1,0,1
37028000,36948000,36948000,0,-3.3521729,12.361432,0.53011656,12.4598675,0.00090217195,0,1,0,1
37092000,37008000,37012000,0,-3.3897095,12.361517,0.58290076,12.4623995,0.001090555,0,1,0,1
37148000,37068000,37068000,0,-3.281189,12.361465,0.48660874,12.464439,0.00075988355,0,1,0,1
37212000,37126000,37132000,0,-3.2439575,12.36155,0.4647286,12.467097,0.0006929365,0,1,0,1
37260000,37176000,37180000,0,-3.3712769,12.361363,0.6028049,12.468656,0.0011657191,0,1,0,1
37316000,37236000,37236000,0,-3.3330383,12.361316,0.5767491,12.470838,0.0010669356,0,1,0,1
37380000,37296000,37300000,0,-3.2480469,12.361403,0.5068824,12.473672,0.0008239107,0,1,0,1
37436000,37356000,37356000,0,-3.3327332,12.361355,0.5304606,12.460881,0.00090326974,0,1,0,1
37500000,37416000,37420000,0,-3.318634,12.361442,0.5308111,12.463474,0.0009042756,0,1,0,1
37556000,37476000,37476000,0,-3.2434387,12.361391,0.467525,12.465565,0.000701387,0,1,0,1
37620000,37536000,37540000,0,-3.2016907,12.361478,0.44040632,12.468286,0.00062224345,0,1,0,1
37676000,37594666,37596000,0,-3.2400208,12.361427,0.49138737,12.470476,0.00077450625,0,1,0,1
37740000,37656000,37660000,0,-3.31073,12.361513,0.5768702,12.473322,0.0010671712,0,1,0,1
37796000,37714666,37716000,0,-3.2539368,12.361463,0.5318308,12.475611,0.0009068702,0,1,0,1
37860000,37776000,37780000,0,-3.1505737,12.361548,0.37622905,12.462984,0.00045429982,0,1,0,1
37916000,37834666,37836000,0,-3.198883,12.361496,0.437191,12.465076,0.00061334873,0,1,0,1
37980000,37896000,37900000,0,-3.1808777,12.361581,0.43326497,12.467796,0.0006022509,0,1,0,1
38036000,37956000,37956000,0,-3.2333374,12.361528,0.49750328,12.469989,0.0007939366,0,1,0,1
38092000,38012000,38012000,0,-3.2476807,12.361477,0.5231652,12.472227,0.00087779626,0,1,0,1
38148000,38064000,38068000,0,-3.1162415,12.361427,0.40296412,12.474512,0.00052067795,0,1,0,1
38204000,38124000,38124000,0,-3.140808,12.361379,0.43992496,12.476842,0.0006204582,0,1,0,1
38268000,38184000,38188000,0,-3.1744385,12.361465,0.42478013,12.463931,0.00057907304,0,1,0,1
38324000,38244000,38244000,0,-3.1518555,12.361415,0.41340804,12.466058,0.0005483889,0,1,0,1
38388000,38304000,38308000,0,-3.2279968,12.361501,0.50265765,12.46882,0.00081054895,0,1,0,1
38444000,38364000,38364000,0,-3.1483765,12.36145,0.43317652,12.4710455,0.0006018482,0,1,0,1
38508000,38424000,38428000,0,-3.0365295,12.361536,0.3342383,12.473932,0.00035823585,0,1,0,1
38564000,38484000,38484000,0,-3.028839,12.361485,0.3383844,12.4762535,0.0003671102,0,1,0,1
38628000,38544000,38548000,0,-2.9647827,12.36157,0.23677158,12.463259,0.00017992334,0,1,0,1
38684000,38604000,38604000,0,-3.0237122,12.361518,0.3077755,12.465372,0.00030396448,0,1,0,1
38748000,38664000,38668000,0,-3.039734,12.361602,0.33706284,12.468117,0.000364486,0,1,0,1
38804000,38722666,38724000,0,-3.1071472,12.361549,0.41524148,12.470328,0.0005530744,0,1,0,1
38868000,38784000,38788000,0,-3.042389,12.361633,0.36247826,12.473196,0.00042135306,0,1,0,1
38924000,38844000,38844000,0,-3.0579224,12.361581,0.38853455,12.475504,0.0004840176,0,1,0,1
38988000,38902000,38908000,0,-2.9042053,12.361664,0.24700475,12.478491,0.00019557282,0,1,0,1
39036000,38952000,38956000,0,-2.920807,12.361476,0.21130657,12.464049,0.00014329363,0,1,0,1
39092000,39008000,39012000,0,-2.9893188,12.361425,0.29047418,12.466186,0.00027073317,0,1,0,1
39156000,39070000,39076000,0,-3.0618591,12.361511,0.3744402,12.468957,0.00044977444,0,1,0,1
39204000,39120000,39124000,0,-2.9505005,12.361325,0.27009892,12.47059,0.00023400155,0,1,0,1
39260000,39180000,39180000,0,-2.934021,12.361278,0.26325107,12.472861,0.0002222461,0,1,0,1
39324000,39240000,39244000,0,-2.8659363,12.361366,0.20676708,12.475801,0.00013707376,0,1,0,1
39380000,39300000,39300000,0,-2.9439087,12.361319,0.29522824,12.478166,0.00027939913,0,1,0,1
39444000,39360000,39364000,0,-2.9506836,12.361407,0.26788163,12.464756,0.0002302831,0,1,0,1
39500000,39418666,39420000,0,-2.9436035,12.361358,0.27018166,12.4669075,0.00023421407,0,1,0,1
39564000,39480000,39484000,0,-2.9177246,12.361444,0.25509286,12.469696,0.00020873762,0,1,0,1
39620000,39538666,39540000,0,-2.99057,12.361395,0.33706713,12.471943,0.00036438345,0,1,0,1
39684000,39600000,39604000,0,-2.8701477,12.361482,0.22668648,12.474852,0.00016476912,0,1,0,1
39740000,39660000,39660000,0,-2.8399658,12.361432,0.20596838,12.47719,0.00013600169,0,1,0,1
39804000,39720000,39724000,0,-2.8005981,12.361518,0.1778779,12.480215,0.00010141027,0,1,0,1
39860000,39780000,39780000,0,-2.9351501,12.361468,0.27899694,12.465927,0.00024976654,0,1,0,1
39924000,39838000,39844000,0,-2.7824097,12.361553,0.13594675,12.46868,5.9289414e-05,0,1,0,1
39972000,39888000,39892000,0,-2.9126587,12.361366,0.27389455,12.4703,0.00024063006,0,1,0,1
40028000,39948000,39948000,0,-2.8022156,12.361318,0.17129493,12.472554,9.410087e-05,0,1,0,1
40092000,40006000,40012000,0,-2.7772217,12.361406,0.15649009,12.475474,7.8519326e-05,0,1,0,1
40140000,40056000,40060000,0,-2.9448242,12.361222,0.33147526,12.477186,0.00035224558,0,1,0,1
40196000,40116000,40116000,0,-2.8620605,12.361177,0.25589705,12.479568,0.00020988962,0,1,0,1
40260000,40176000,40180000,0,-2.7001343,12.361268,0.06874895,12.465889,1.5165925e-05,0,1,0,1
40316000,40236000,40236000,0,-2.7323914,12.361221,0.10989261,12.468058,3.8743437e-05,0,1,0,1
40380000,40296000,40300000,0,-2.6985474,12.361311,0.08571482,12.470868,2.3565415e-05,0,1,0,1
40436000,40356000,40356000,0,-2.7541199,12.361264,0.14969397,12.473129,7.186098e-05,0,1,0,1
40500000,40416000,40420000,0,-2.682373,12.361353,0.08704758,12.476055,2.4293835e-05,0,1,0,1
40556000,40476000,40476000,0,-2.6769104,12.361305,0.08996248,12.478404,2.5943214e-05,0,1,0,1
40620000,40536000,40540000,0,-2.76062,12.361394,0.15010667,12.464851,7.230576e-05,0,1,0,1
40676000,40594666,40596000,0,-2.7592773,12.361345,0.15593863,12.466989,7.801998e-05,0,1,0,1
40740000,40656000,40660000,0,-2.6499023,12.361432,0.054635763,12.469758,9.5753785e-06,0,1,0,1
40796000,40716000,40716000,0,-2.69635,12.361383,0.108588934,12.471987,3.781773e-05,0,1,0,1
40860000,40776000,40780000,0,-2.8878784,12.36147,0.30812907,12.474873,0.00030443122,0,1,0,1
40916000,40834666,40836000,0,-2.716095,12.361421,0.14132762,12.477189,6.4032036e-05,0,1,0,1
40980000,40896000,40900000,0,-2.7148438,12.361506,0.14761686,12.480187,6.984106e-05,0,1,0,1
41036000,40953333,40956000,0,-2.6759949,12.361457,0.08248067,12.465829,2.182947e-05,0,1,0,1
41084000,41004000,41004000,0,-2.5860596,12.361272,-0.0021743774,12.467394,1.5168903e-08,0,1,0,1
41148000,41064000,41068000,0,-2.7503967,12.36136,0.16996431,12.470168,9.266232e-05,0,1,0,1
41204000,41124000,41124000,0,-2.659668,12.361312,0.084433794,12.472399,2.2863494e-05,0,1,0,1
41268000,41184000,41188000,0,-2.6495056,12.361401,0.081217766,12.475288,2.1150054e-05,0,1,0,1
41324000,41244000,41244000,0,-2.8365784,12.361352,0.27437234,12.477607,0.00024132892,0,1,0,1
41388000,41304000,41308000,0,-2.6932983,12.36144,0.13633251,12.480608,5.9569385e-05,0,1,0,1
41444000,41364000,41364000,0,-2.5324402,12.361391,-0.042343855,12.466136,5.7531925e-06,0,1,0,1
41508000,41424000,41428000,0,-2.7112122,12.361477,0.14399004,12.468864,6.651169e-05,0,1,0,1
41564000,41484000,41484000,0,-2.7052307,12.361427,0.14292908,12.471059,6.5523614e-05,0,1,0,1
41628000,41544000,41548000,0,-2.591278,12.361513,0.034613848,12.473903,3.8420003e-06,0,1,0,1
41684000,41604000,41604000,0,-2.5064697,12.361463,-0.04451084,12.476184,6.3519906e-06,0,1,0,1
41748000,41664000,41668000,0,-2.6758728,12.361548,0.1321528,12.47914,5.5979373e-05,0,1,0,1
41804000,41724000,41724000,0,-2.7638855,12.361498,0.2248683,12.481506,0.00016205016,0,1,0,1
41868000,41784000,41788000,0,-2.705536,12.361583,0.14427447,12.467508,6.6781984e-05,0,1,0,1
41924000,41844000,41844000,0,-2.4976807,12.361531,-0.059574604,12.469666,1.13848555e-05,0,1,0,1
41988000,41904000,41908000,0,-2.657837,12.361615,0.10692525,12.472463,3.6666406e-05,0,1,0,1
42044000,41964000,41964000,0,-2.6991272,12.361563,0.15227604,12.474708,7.435202e-05,0,1,0,1
42108000,42024000,42028000,0,-2.6367188,12.361647,0.094240904,12.477618,2.8471293e-05,0,1,0,1
42164000,42084000,42084000,0,-2.574829,12.361593,0.03655386,12.479947,4.2826614e-06,0,1,0,1
42228000,42143000,42148000,0,-2.532257,12.361677,-0.024192572,12.466166,1.8779809e-06,0,1,0,1
42284000,42204000,42204000,0,-2.4996033,12.361624,-0.051962376,12.4682865,8.66226e-06,0,1,0,1
42348000,42264000,42268000,0,-2.6315308,12.361706,0.08569741,12.47104,2.3555522e-05,0,1,0,1
42404000,42324000,42324000,0,-2.5462341,12.361651,0.0041668415,12.4732485,5.567938e-08,0,1,0,1
42468000,42383000,42388000,0,-2.6119385,12.361733,0.07502794,12.476115,1.80479e-05,0,1,0,1
42524000,42444000,42444000,0,-2.5971985,12.361679,0.064184904,12.478411,1.3205854e-05,0,1,0,1
42588000,42504000,42508000,0,-2.6059875,12.361761,0.07764506,12.481386,1.9320789e-05,0,1,0,1
42644000,42564000,42564000,0,-2.6898193,12.361707,0.14486694,12.466824,6.733529e-05,0,1,0,1
42708000,42623000,42628000,0,-2.5899048,12.361788,0.0485425,12.469531,7.558822e-06,0,1,0,1
42764000,42680000,42684000,0,-2.6129456,12.361732,0.07528782,12.471703,1.8179571e-05,0,1,0,1
42812000,42730666,42732000,0,-2.504303,12.361542,-0.030543804,12.473312,2.991744e-06,0,1,0,1
42876000,42792000,42796000,0,-2.650116,12.361627,0.120195866,12.476178,4.6318823e-05,0,1,0,1
