timestamp,timestamp_sample,xyz[0],xyz[1],xyz[2],xyz_derivative[0],xyz_derivative[1],xyz_derivative[2]
3228000,0,6.390551e-05,7.5069205e-05,7.55059e-09,0.0,0.0,0.0
3232000,0,6.390552e-05,7.50692e-05,7.537948e-09,0.0,0.0,0.0
3240000,0,6.390556e-05,7.506919e-05,7.512669e-09,0.0,0.0,0.0
3248000,0,6.390559e-05,7.506918e-05,7.487388e-09,0.0,0.0,0.0
3260000,0,6.390564e-05,7.506916e-05,7.449466e-09,0.0,0.0,0.0
3268000,0,6.390567e-05,7.5069154e-05,7.4241844e-09,0.0,0.0,0.0
3280000,0,6.390571e-05,7.506914e-05,7.386263e-09,0.0,0.0,0.0
3288000,0,6.390575e-05,7.5069125e-05,7.360982e-09,0.0,0.0,0.0
3300000,0,6.390579e-05,7.506911e-05,7.3230604e-09,0.0,0.0,0.0
3308000,0,6.390582e-05,7.5069096e-05,7.2977784e-09,0.0,0.0,0.0
3320000,0,6.390587e-05,7.506908e-05,7.2598576e-09,0.0,0.0,0.0
3328000,0,6.39059e-05,7.5069074e-05,7.2345756e-09,0.0,0.0,0.0
3340000,0,6.390595e-05,7.506905e-05,7.196655e-09,0.0,0.0,0.0
3348000,0,6.390597e-05,7.5069045e-05,7.171373e-09,0.0,0.0,0.0
3360000,0,6.390602e-05,7.506903e-05,7.133452e-09,0.0,0.0,0.0
3368000,0,6.390605e-05,7.5069016e-05,7.10817e-09,0.0,0.0,0.0
3380000,0,6.39061e-05,7.5069e-05,7.0702493e-09,0.0,0.0,0.0
3388000,0,6.390613e-05,7.506899e-05,7.0449677e-09,0.0,0.0,0.0
3400000,0,6.390618e-05,7.506897e-05,7.007046e-09,0.0,0.0,0.0
3408000,0,6.3906205e-05,7.5068965e-05,6.981764e-09,0.0,0.0,0.0
3420000,0,6.390626e-05,7.506894e-05,6.9438433e-09,0.0,0.0,0.0
3428000,0,6.3906286e-05,7.5068936e-05,6.9185613e-09,0.0,0.0,0.0
3440000,0,6.390634e-05,7.506892e-05,6.8806405e-09,0.0,0.0,0.0
3448000,0,6.3906366e-05,7.506891e-05,6.855359e-09,0.0,0.0,0.0
3460000,0,6.390642e-05,7.506889e-05,6.8174377e-09,0.0,0.0,0.0
3468000,0,6.3906446e-05,7.506888e-05,6.792156e-09,0.0,0.0,0.0
3480000,0,6.390649e-05,7.506886e-05,6.754235e-09,0.0,0.0,0.0
3488000,0,6.390652e-05,7.5068856e-05,6.7289534e-09,0.0,0.0,0.0
3500000,0,6.390657e-05,7.506884e-05,6.691032e-09,0.0,0.0,0.0
3508000,0,6.39066e-05,7.506883e-05,6.6657506e-09,0.0,0.0,0.0
3520000,0,6.390665e-05,7.506881e-05,6.627829e-09,0.0,0.0,0.0
3528000,0,6.390668e-05,7.50688e-05,6.602548e-09,0.0,0.0,0.0
3540000,0,6.390672e-05,7.506878e-05,6.564626e-09,0.0,0.0,0.0
3548000,0,6.390676e-05,7.5068776e-05,6.539345e-09,0.0,0.0,0.0
3560000,0,6.39068e-05,7.5068754e-05,6.5014234e-09,0.0,0.0,0.0
3568000,0,6.390683e-05,7.506875e-05,6.4761423e-09,0.0,0.0,0.0
3580000,0,6.390688e-05,7.506873e-05,6.4382206e-09,0.0,0.0,0.0
3588000,0,6.390691e-05,7.506872e-05,6.4129395e-09,0.0,0.0,0.0
3600000,0,6.390696e-05,7.50687e-05,6.375018e-09,0.0,0.0,0.0
3608000,0,6.3907e-05,7.5068696e-05,6.349738e-09,0.0,0.0,0.0
3620000,0,6.3907035e-05,7.5068674e-05,6.311815e-09,0.0,0.0,0.0
3628000,0,6.390708e-05,7.506867e-05,6.2865353e-09,0.0,0.0,0.0
3640000,0,6.3907115e-05,7.5068645e-05,6.2486123e-09,0.0,0.0,0.0
3648000,0,6.390715e-05,7.506864e-05,6.2233325e-09,0.0,0.0,0.0
3660000,0,6.3907195e-05,7.506862e-05,6.1854095e-09,0.0,0.0,0.0
3668000,0,6.390723e-05,7.506861e-05,6.1601297e-09,0.0,0.0,0.0
3680000,0,6.3907275e-05,7.5068594e-05,6.1222067e-09,0.0,0.0,0.0
3688000,0,6.390731e-05,7.506859e-05,6.096927e-09,0.0,0.0,0.0
3700000,0,6.390735e-05,7.5068565e-05,6.059004e-09,0.0,0.0,0.0
3708000,0,6.390739e-05,7.506856e-05,6.033724e-09,0.0,0.0,0.0
3720000,0,6.3907435e-05,7.506854e-05,5.9958025e-09,0.0,0.0,0.0
3728000,0,6.3907464e-05,7.506853e-05,5.9705214e-09,0.0,0.0,0.0
3740000,0,6.3907515e-05,7.5068514e-05,5.9325997e-09,0.0,0.0,0.0
3748000,0,6.3907544e-05,7.50685e-05,5.9073186e-09,0.0,0.0,0.0
3760000,0,6.3907595e-05,7.5068485e-05,5.869397e-09,0.0,0.0,0.0
3768000,0,6.3907624e-05,7.506848e-05,5.844116e-09,0.0,0.0,0.0
3780000,0,6.390767e-05,7.5068456e-05,5.806194e-09,0.0,0.0,0.0
3788000,0,6.3907704e-05,7.506845e-05,5.780913e-09,0.0,0.0,0.0
3800000,0,6.390775e-05,7.5068434e-05,5.7429914e-09,0.0,0.0,0.0
3808000,0,6.390778e-05,7.506842e-05,5.7177094e-09,0.0,0.0,0.0
3820000,0,6.390783e-05,7.5068405e-05,5.6797886e-09,0.0,0.0,0.0
3828000,0,6.390785e-05,7.506839e-05,5.6545066e-09,0.0,0.0,0.0
3840000,0,6.39079e-05,7.5068376e-05,5.616586e-09,0.0,0.0,0.0
3848000,0,6.390793e-05,7.506837e-05,5.591304e-09,0.0,0.0,0.0
3860000,0,6.390798e-05,7.5068354e-05,5.553383e-09,0.0,0.0,0.0
3868000,0,6.390801e-05,7.506834e-05,5.528101e-09,0.0,0.0,0.0
3880000,0,6.390806e-05,7.5068325e-05,5.4901803e-09,0.0,0.0,0.0
3888000,0,6.390809e-05,7.506831e-05,5.4648983e-09,0.0,0.0,0.0
3900000,0,6.390814e-05,7.5068296e-05,5.426977e-09,0.0,0.0,0.0
3908000,0,6.390816e-05,7.506828e-05,5.4016955e-09,0.0,0.0,0.0
3920000,0,6.390821e-05,7.506827e-05,5.363774e-09,0.0,0.0,0.0
3928000,0,6.390824e-05,7.506826e-05,5.338492e-09,0.0,0.0,0.0
3940000,0,6.3908294e-05,7.5068245e-05,5.300571e-09,0.0,0.0,0.0
3948000,0,6.390832e-05,7.506823e-05,5.275289e-09,0.0,0.0,0.0
3960000,0,6.390837e-05,7.5068216e-05,5.2373683e-09,0.0,0.0,0.0
3968000,0,6.3908396e-05,7.50682e-05,5.2120863e-09,0.0,0.0,0.0
3980000,0,6.390845e-05,7.506819e-05,5.174165e-09,0.0,0.0,0.0
3988000,0,6.3908476e-05,7.506817e-05,5.1488835e-09,0.0,0.0,0.0
4000000,0,6.390853e-05,7.506816e-05,5.1109623e-09,0.0,0.0,0.0
4008000,0,6.3908556e-05,7.506815e-05,5.0856808e-09,0.0,0.0,0.0
4020000,0,6.39086e-05,7.506813e-05,5.047759e-09,0.0,0.0,0.0
4028000,0,6.3908636e-05,7.506812e-05,5.022478e-09,0.0,0.0,0.0
4040000,0,6.390868e-05,7.506811e-05,4.9845563e-09,0.0,0.0,0.0
4048000,0,6.390871e-05,7.506809e-05,4.959275e-09,0.0,0.0,0.0
4060000,0,6.390876e-05,7.506808e-05,4.9213535e-09,0.0,0.0,0.0
4068000,0,6.390879e-05,7.506807e-05,4.8960724e-09,0.0,0.0,0.0
4080000,0,6.390883e-05,7.506805e-05,4.8581503e-09,0.0,0.0,0.0
4088000,0,6.390887e-05,7.506804e-05,4.832869e-09,0.0,0.0,0.0
4100000,0,6.390891e-05,7.506803e-05,4.7949476e-09,0.0,0.0,0.0
4108000,0,6.3908956e-05,7.506801e-05,4.7696678e-09,0.0,0.0,0.0
4120000,0,6.390899e-05,7.5068e-05,4.7317448e-09,0.0,0.0,0.0
4128000,0,6.390903e-05,7.506799e-05,4.706465e-09,0.0,0.0,0.0
4140000,0,6.390907e-05,7.506797e-05,4.668542e-09,0.0,0.0,0.0
4148000,0,6.390911e-05,7.506796e-05,4.643262e-09,0.0,0.0,0.0
4160000,0,6.3909145e-05,7.506794e-05,4.605339e-09,0.0,0.0,0.0
4168000,0,6.390919e-05,7.506793e-05,4.5800594e-09,0.0,0.0,0.0
4180000,0,6.3909225e-05,7.506792e-05,4.5421364e-09,0.0,0.0,0.0
4188000,0,6.390926e-05,7.50679e-05,4.5168567e-09,0.0,0.0,0.0
4200000,0,6.3909305e-05,7.506789e-05,4.4789332e-09,0.0,0.0,0.0
4208000,0,6.390934e-05,7.506788e-05,4.4536534e-09,0.0,0.0,0.0
4220000,0,6.390939e-05,7.506786e-05,4.415732e-09,0.0,0.0,0.0
4228000,0,6.390942e-05,7.506785e-05,4.3904507e-09,0.0,0.0,0.0
4240000,0,6.3909465e-05,7.506784e-05,4.352529e-09,0.0,0.0,0.0
4248000,0,6.39095e-05,7.506782e-05,4.327248e-09,0.0,0.0,0.0
4260000,0,6.3909545e-05,7.506781e-05,4.2893262e-09,0.0,0.0,0.0
4268000,0,6.3909574e-05,7.5067794e-05,4.264045e-09,0.0,0.0,0.0
4280000,0,6.3909625e-05,7.506778e-05,4.2261235e-09,0.0,0.0,0.0
4288000,0,6.3909654e-05,7.506777e-05,4.200842e-09,0.0,0.0,0.0
4300000,0,6.3909705e-05,7.506775e-05,4.1629202e-09,0.0,0.0,0.0
4308000,0,6.390973e-05,7.506774e-05,4.1376382e-09,0.0,0.0,0.0
4320000,0,6.390978e-05,7.506773e-05,4.0997175e-09,0.0,0.0,0.0
4328000,0,6.390981e-05,7.506771e-05,4.0744355e-09,0.0,0.0,0.0
4340000,0,6.390986e-05,7.50677e-05,4.0365147e-09,0.0,0.0,0.0
4348000,0,6.390989e-05,7.5067685e-05,4.0112327e-09,0.0,0.0,0.0
4360000,0,6.390994e-05,7.506767e-05,3.9733115e-09,0.0,0.0,0.0
4368000,0,6.390996e-05,7.506766e-05,3.94803e-09,0.0,0.0,0.0
4380000,0,6.391001e-05,7.506764e-05,3.9101087e-09,0.0,0.0,0.0
4388000,0,6.391004e-05,7.506763e-05,3.8848267e-09,0.0,0.0,0.0
4400000,0,6.391009e-05,7.506762e-05,3.846906e-09,0.0,0.0,0.0
4408000,0,6.391012e-05,7.5067604e-05,3.821624e-09,0.0,0.0,0.0
4420000,0,6.391016e-05,7.506759e-05,3.7837022e-09,0.0,0.0,0.0
4428000,0,6.391019e-05,7.5067575e-05,3.7584207e-09,0.0,0.0,0.0
4440000,0,6.391024e-05,7.506756e-05,3.7204995e-09,0.0,0.0,0.0
4448000,0,6.391027e-05,7.5067546e-05,3.6952177e-09,0.0,0.0,0.0
4460000,0,6.3910324e-05,7.506753e-05,3.6572965e-09,0.0,0.0,0.0
4468000,0,6.391035e-05,7.5067524e-05,3.6320147e-09,0.0,0.0,0.0
4480000,0,6.3910404e-05,7.506751e-05,3.5940935e-09,0.0,0.0,0.0
4488000,0,6.3910426e-05,7.5067495e-05,3.568812e-09,0.0,0.0,0.0
4500000,0,6.391048e-05,7.506748e-05,3.5308907e-09,0.0,0.0,0.0
4508000,0,6.3910506e-05,7.5067466e-05,3.505609e-09,0.0,0.0,0.0
4520000,0,6.391056e-05,7.506745e-05,3.4676872e-09,0.0,0.0,0.0
4528000,0,6.3910586e-05,7.5067444e-05,3.442406e-09,0.0,0.0,0.0
4540000,0,6.391063e-05,7.506742e-05,3.4044843e-09,0.0,0.0,0.0
4548000,0,6.3910666e-05,7.5067415e-05,3.3792031e-09,0.0,0.0,0.0
4560000,0,6.391071e-05,7.50674e-05,3.3412813e-09,0.0,0.0,0.0
4568000,0,6.391074e-05,7.5067386e-05,3.3160001e-09,0.0,0.0,0.0
4580000,0,6.391079e-05,7.506737e-05,3.2780785e-09,0.0,0.0,0.0
4588000,0,6.391082e-05,7.506736e-05,3.2527971e-09,0.0,0.0,0.0
4600000,0,6.391087e-05,7.506734e-05,3.2148755e-09,0.0,0.0,0.0
4608000,0,6.39109e-05,7.5067335e-05,3.1895944e-09,0.0,0.0,0.0
4620000,0,6.391094e-05,7.506731e-05,3.1516725e-09,0.0,0.0,0.0
4628000,0,6.3910986e-05,7.5067306e-05,3.1263927e-09,0.0,0.0,0.0
4640000,0,6.391102e-05,7.506729e-05,3.0884697e-09,0.0,0.0,0.0
4648000,0,6.391106e-05,7.506728e-05,3.0631897e-09,0.0,0.0,0.0
4660000,0,6.39111e-05,7.506726e-05,3.0252667e-09,0.0,0.0,0.0
4668000,0,6.391114e-05,7.506725e-05,2.9999867e-09,0.0,0.0,0.0
4680000,0,6.3911175e-05,7.506723e-05,2.9620637e-09,0.0,0.0,0.0
4688000,0,6.391122e-05,7.5067226e-05,2.936784e-09,0.0,0.0,0.0
4700000,0,6.3911255e-05,7.5067204e-05,2.8988607e-09,0.0,0.0,0.0
4708000,0,6.391129e-05,7.50672e-05,2.873581e-09,0.0,0.0,0.0
4720000,0,6.391134e-05,7.506718e-05,2.835659e-09,0.0,0.0,0.0
4728000,0,6.391137e-05,7.506717e-05,2.810378e-09,0.0,0.0,0.0
4740000,0,6.391142e-05,7.506715e-05,2.7724563e-09,0.0,0.0,0.0
4748000,0,6.391145e-05,7.506714e-05,2.747175e-09,0.0,0.0,0.0
4760000,0,6.3911495e-05,7.5067124e-05,2.7092533e-09,0.0,0.0,0.0
4768000,0,6.3911524e-05,7.506712e-05,2.683972e-09,0.0,0.0,0.0
4780000,0,6.3911575e-05,7.50671e-05,2.6460503e-09,0.0,0.0,0.0
4788000,0,6.3911604e-05,7.506709e-05,2.6207692e-09,0.0,0.0,0.0
4800000,0,6.3911655e-05,7.506707e-05,2.5828473e-09,0.0,0.0,0.0
4808000,0,6.391168e-05,7.506706e-05,2.5575655e-09,0.0,0.0,0.0
4820000,0,6.391173e-05,7.5067044e-05,2.5196443e-09,0.0,0.0,0.0
4828000,0,6.391176e-05,7.506703e-05,2.4943625e-09,0.0,0.0,0.0
4840000,0,6.391181e-05,7.5067015e-05,2.4564413e-09,0.0,0.0,0.0
4848000,0,6.391184e-05,7.506701e-05,2.4311595e-09,0.0,0.0,0.0
4860000,0,6.391189e-05,7.5066986e-05,2.3932385e-09,0.0,0.0,0.0
4868000,0,6.391192e-05,7.506698e-05,2.3679565e-09,0.0,0.0,0.0
4880000,0,6.391197e-05,7.5066964e-05,2.3300355e-09,0.0,0.0,0.0
4888000,0,6.391199e-05,7.506695e-05,2.3047535e-09,0.0,0.0,0.0
4900000,0,6.391204e-05,7.5066935e-05,2.2668325e-09,0.0,0.0,0.0
4908000,0,6.391207e-05,7.506692e-05,2.2415507e-09,0.0,0.0,0.0
4920000,0,6.391211e-05,7.5066906e-05,2.2036288e-09,0.0,0.0,0.0
4928000,0,6.391214e-05,7.50669e-05,2.178347e-09,0.0,0.0,0.0
4940000,0,6.391219e-05,7.506688e-05,2.1404258e-09,0.0,0.0,0.0
4948000,0,6.391222e-05,7.506687e-05,2.115144e-09,0.0,0.0,0.0
4960000,0,6.391227e-05,7.5066855e-05,2.0772228e-09,0.0,0.0,0.0
4968000,0,6.39123e-05,7.506684e-05,2.051941e-09,0.0,0.0,0.0
4980000,0,6.3912354e-05,7.5066826e-05,2.0140198e-09,0.0,0.0,0.0
4988000,0,6.3912375e-05,7.506681e-05,1.988738e-09,0.0,0.0,0.0
5000000,0,6.391243e-05,7.50668e-05,1.9508168e-09,0.0,0.0,0.0
5008000,0,6.3912456e-05,7.506679e-05,1.9255353e-09,0.0,0.0,0.0
5020000,0,6.391251e-05,7.506677e-05,1.8876134e-09,0.0,0.0,0.0
5028000,0,6.3912536e-05,7.506676e-05,1.8623322e-09,0.0,0.0,0.0
5040000,0,6.391258e-05,7.5066746e-05,1.8244104e-09,0.0,0.0,0.0
5048000,0,6.3912616e-05,7.506673e-05,1.7991292e-09,0.0,0.0,0.0
5060000,0,6.391266e-05,7.506672e-05,1.7612074e-09,0.0,0.0,0.0
5068000,0,6.391269e-05,7.50667e-05,1.7359262e-09,0.0,0.0,0.0
5080000,0,6.391274e-05,7.506669e-05,1.6980044e-09,0.0,0.0,0.0
5088000,0,6.391277e-05,7.506667e-05,1.6727232e-09,0.0,0.0,0.0
5100000,0,6.391281e-05,7.506666e-05,1.6348014e-09,0.0,0.0,0.0
5108000,0,6.391285e-05,7.506665e-05,1.6095202e-09,0.0,0.0,0.0
5120000,0,6.391289e-05,7.506663e-05,1.5715984e-09,0.0,0.0,0.0
5128000,0,6.391293e-05,7.506662e-05,1.5463184e-09,0.0,0.0,0.0
5140000,0,6.391297e-05,7.506661e-05,1.5083954e-09,0.0,0.0,0.0
5148000,0,6.391301e-05,7.506659e-05,1.4831154e-09,0.0,0.0,0.0
5160000,0,6.391305e-05,7.506658e-05,1.4451924e-09,0.0,0.0,0.0
5168000,0,6.391309e-05,7.506657e-05,1.4199124e-09,0.0,0.0,0.0
5180000,0,6.3913125e-05,7.506655e-05,1.3819894e-09,0.0,0.0,0.0
5188000,0,6.391317e-05,7.506654e-05,1.3567094e-09,0.0,0.0,0.0
5200000,0,6.3913205e-05,7.506652e-05,1.3187864e-09,0.0,0.0,0.0
5208000,0,6.391324e-05,7.506651e-05,1.2935064e-09,0.0,0.0,0.0
5220000,0,6.391329e-05,7.50665e-05,1.2555846e-09,0.0,0.0,0.0
5228000,0,6.391332e-05,7.5066484e-05,1.2303033e-09,0.0,0.0,0.0
5240000,0,6.3913365e-05,7.506647e-05,1.1923816e-09,0.0,0.0,0.0
5248000,0,6.39134e-05,7.506646e-05,1.1671003e-09,0.0,0.0,0.0
5260000,0,6.3913445e-05,7.506644e-05,1.1291785e-09,0.0,0.0,0.0
5268000,0,6.3913474e-05,7.506643e-05,1.1038973e-09,0.0,0.0,0.0
5280000,0,6.3913525e-05,7.506642e-05,1.0659755e-09,0.0,0.0,0.0
5288000,0,6.3913554e-05,7.5066404e-05,1.0406943e-09,0.0,0.0,0.0
5300000,0,6.3913605e-05,7.506639e-05,1.0027725e-09,0.0,0.0,0.0
5308000,0,6.3913634e-05,7.5066375e-05,9.774913e-10,0.0,0.0,0.0
5320000,0,6.391368e-05,7.506636e-05,9.395695e-10,0.0,0.0,0.0
5328000,0,6.391371e-05,7.5066346e-05,9.142876e-10,0.0,0.0,0.0
5340000,0,6.391376e-05,7.506633e-05,8.763664e-10,0.0,0.0,0.0
5348000,0,6.391379e-05,7.5066324e-05,8.510846e-10,0.0,0.0,0.0
5360000,0,6.391384e-05,7.506631e-05,8.1316337e-10,0.0,0.0,0.0
5368000,0,6.391386e-05,7.5066295e-05,7.8788154e-10,0.0,0.0,0.0
5380000,0,6.391391e-05,7.506628e-05,7.4996037e-10,0.0,0.0,0.0
5388000,0,6.391394e-05,7.5066266e-05,7.2467854e-10,0.0,0.0,0.0
5400000,0,6.391399e-05,7.506625e-05,6.867573e-10,0.0,0.0,0.0
5408000,0,6.391402e-05,7.506624e-05,6.614755e-10,0.0,0.0,0.0
5420000,0,6.391406e-05,7.506622e-05,6.2355365e-10,0.0,0.0,0.0
5428000,0,6.391409e-05,7.5066215e-05,5.9827193e-10,0.0,0.0,0.0
5440000,0,6.391414e-05,7.506619e-05,5.603506e-10,0.0,0.0,0.0
5448000,0,6.391417e-05,7.5066186e-05,5.350689e-10,0.0,0.0,0.0
5460000,0,6.391422e-05,7.506617e-05,4.9714755e-10,0.0,0.0,0.0
5468000,0,6.3914245e-05,7.506616e-05,4.718658e-10,0.0,0.0,0.0
5480000,0,6.3914296e-05,7.506614e-05,4.3394452e-10,0.0,0.0,0.0
5488000,0,6.3914325e-05,7.506613e-05,4.086628e-10,0.0,0.0,0.0
5500000,0,6.391438e-05,7.506611e-05,3.7074147e-10,0.0,0.0,0.0
5508000,0,6.3914405e-05,7.5066106e-05,3.4545974e-10,0.0,0.0,0.0
5520000,0,6.391445e-05,7.5066084e-05,3.075379e-10,0.0,0.0,0.0
5528000,0,6.3914486e-05,7.506608e-05,2.822567e-10,0.0,0.0,0.0
5540000,0,6.391453e-05,7.506606e-05,2.4433486e-10,0.0,0.0,0.0
5548000,0,6.391456e-05,7.506605e-05,2.1905364e-10,0.0,0.0,0.0
5560000,0,6.391461e-05,7.506603e-05,1.811318e-10,0.0,0.0,0.0
5568000,0,6.391464e-05,7.506602e-05,1.5585058e-10,0.0,0.0,0.0
5580000,0,6.391468e-05,7.5066004e-05,1.1792875e-10,0.0,0.0,0.0
5588000,0,6.391472e-05,7.506599e-05,9.264752e-11,0.0,0.0,0.0
5600000,0,6.391476e-05,7.5065975e-05,5.4725686e-11,0.0,0.0,0.0
5608000,0,6.391479e-05,7.506597e-05,2.9444457e-11,0.0,0.0,0.0
5620000,0,6.391484e-05,7.5065946e-05,-8.477378e-12,0.0,0.0,0.0
5628000,0,6.391488e-05,7.506594e-05,-3.3757438e-11,0.0,0.0,0.0
5640000,0,6.3914915e-05,7.5065924e-05,-7.168044e-11,0.0,0.0,0.0
5648000,0,6.391496e-05,7.506591e-05,-9.69605e-11,0.0,0.0,0.0
5660000,0,6.3914995e-05,7.5065895e-05,-1.3488351e-10,0.0,0.0,0.0
5668000,0,6.391503e-05,7.506589e-05,-1.6016358e-10,0.0,0.0,0.0
5680000,0,6.3915075e-05,7.5065866e-05,-1.9808657e-10,0.0,0.0,0.0
5688000,0,6.391511e-05,7.506586e-05,-2.2336664e-10,0.0,0.0,0.0
5700000,0,6.391515e-05,7.506584e-05,-2.6128966e-10,0.0,0.0,0.0
5708000,0,6.391519e-05,7.506583e-05,-2.865697e-10,0.0,0.0,0.0
5720000,0,6.3915235e-05,7.5065815e-05,-3.2449157e-10,0.0,0.0,0.0
5728000,0,6.3915264e-05,7.50658e-05,-3.4977285e-10,0.0,0.0,0.0
5740000,0,6.3915315e-05,7.5065785e-05,-3.8769465e-10,0.0,0.0,0.0
5748000,0,6.3915344e-05,7.506578e-05,-4.1297593e-10,0.0,0.0,0.0
5760000,0,6.3915395e-05,7.506576e-05,-4.5089774e-10,0.0,0.0,0.0
5768000,0,6.3915424e-05,7.506575e-05,-4.7617904e-10,0.0,0.0,0.0
5780000,0,6.391547e-05,7.5065735e-05,-5.141008e-10,0.0,0.0,0.0
5788000,0,6.39155e-05,7.506572e-05,-5.393821e-10,0.0,0.0,0.0
5800000,0,6.391555e-05,7.5065705e-05,-5.7730387e-10,0.0,0.0,0.0
5808000,0,6.391558e-05,7.506569e-05,-6.025852e-10,0.0,0.0,0.0
5820000,0,6.391563e-05,7.5065676e-05,-6.40507e-10,0.0,0.0,0.0
5828000,0,6.391565e-05,7.506566e-05,-6.6578887e-10,0.0,0.0,0.0
5840000,0,6.39157e-05,7.506565e-05,-7.0371015e-10,0.0,0.0,0.0
5848000,0,6.391573e-05,7.506564e-05,-7.28992e-10,0.0,0.0,0.0
5860000,0,6.391578e-05,7.506562e-05,-7.669132e-10,0.0,0.0,0.0
5868000,0,6.391581e-05,7.506561e-05,-7.9219503e-10,0.0,0.0,0.0
5880000,0,6.391586e-05,7.5065596e-05,-8.301163e-10,0.0,0.0,0.0
5888000,0,6.391588e-05,7.506558e-05,-8.5539814e-10,0.0,0.0,0.0
5900000,0,6.391593e-05,7.506557e-05,-8.933194e-10,0.0,0.0,0.0
5908000,0,6.391596e-05,7.506555e-05,-9.1860125e-10,0.0,0.0,0.0
5920000,0,6.3916006e-05,7.506554e-05,-9.565231e-10,0.0,0.0,0.0
5928000,0,6.3916035e-05,7.506552e-05,-9.818049e-10,0.0,0.0,0.0
5940000,0,6.3916086e-05,7.506551e-05,-1.0197262e-09,0.0,0.0,0.0
5948000,0,6.3916115e-05,7.50655e-05,-1.045008e-09,0.0,0.0,0.0
5960000,0,6.3916166e-05,7.506548e-05,-1.0829293e-09,0.0,0.0,0.0
5968000,0,6.3916195e-05,7.506547e-05,-1.1082111e-09,0.0,0.0,0.0
5980000,0,6.3916246e-05,7.506546e-05,-1.1461324e-09,0.0,0.0,0.0
5988000,0,6.391627e-05,7.506544e-05,-1.1714141e-09,0.0,0.0,0.0
6000000,0,6.391632e-05,7.506543e-05,-1.2093355e-09,0.0,0.0,0.0
6008000,0,6.391635e-05,7.5065414e-05,-1.2346172e-09,0.0,0.0,0.0
6020000,0,6.39164e-05,7.50654e-05,-1.2725391e-09,0.0,0.0,0.0
6028000,0,6.391643e-05,7.506539e-05,-1.2978203e-09,0.0,0.0,0.0
6040000,0,6.391647e-05,7.506537e-05,-1.3357422e-09,0.0,0.0,0.0
6048000,0,6.39165e-05,7.506536e-05,-1.3610234e-09,0.0,0.0,0.0
6060000,0,6.391655e-05,7.506534e-05,-1.3989453e-09,0.0,0.0,0.0
6068000,0,6.391658e-05,7.5065334e-05,-1.4242265e-09,0.0,0.0,0.0
6080000,0,6.391663e-05,7.506532e-05,-1.4621484e-09,0.0,0.0,0.0
6088000,0,6.391666e-05,7.5065305e-05,-1.4874297e-09,0.0,0.0,0.0
6100000,0,6.3916705e-05,7.506529e-05,-1.5253515e-09,0.0,0.0,0.0
6108000,0,6.391674e-05,7.5065276e-05,-1.5506328e-09,0.0,0.0,0.0
6120000,0,6.3916785e-05,7.506526e-05,-1.5885546e-09,0.0,0.0,0.0
6128000,0,6.391682e-05,7.5065254e-05,-1.6138348e-09,0.0,0.0,0.0
6140000,0,6.3916865e-05,7.506523e-05,-1.6517578e-09,0.0,0.0,0.0
6148000,0,6.39169e-05,7.5065225e-05,-1.677038e-09,0.0,0.0,0.0
6160000,0,6.391694e-05,7.506521e-05,-1.714961e-09,0.0,0.0,0.0
6168000,0,6.391698e-05,7.5065196e-05,-1.7402411e-09,0.0,0.0,0.0
6180000,0,6.391702e-05,7.506518e-05,-1.7781641e-09,0.0,0.0,0.0
6188000,0,6.3917054e-05,7.5065174e-05,-1.8034442e-09,0.0,0.0,0.0
6200000,0,6.39171e-05,7.506515e-05,-1.8413672e-09,0.0,0.0,0.0
6208000,0,6.3917134e-05,7.5065145e-05,-1.8666473e-09,0.0,0.0,0.0
6220000,0,6.391718e-05,7.506512e-05,-1.9045692e-09,0.0,0.0,0.0
6228000,0,6.3917214e-05,7.5065116e-05,-1.9298505e-09,0.0,0.0,0.0
6240000,0,6.391726e-05,7.50651e-05,-1.9677724e-09,0.0,0.0,0.0
6248000,0,6.391729e-05,7.506509e-05,-1.9930537e-09,0.0,0.0,0.0
6260000,0,6.391734e-05,7.506507e-05,-2.0309754e-09,0.0,0.0,0.0
6268000,0,6.391737e-05,7.506506e-05,-2.0562567e-09,0.0,0.0,0.0
6280000,0,6.391741e-05,7.506504e-05,-2.0941786e-09,0.0,0.0,0.0
6288000,0,6.391745e-05,7.5065036e-05,-2.11946e-09,0.0,0.0,0.0
6300000,0,6.391749e-05,7.5065014e-05,-2.1573818e-09,0.0,0.0,0.0
6308000,0,6.391752e-05,7.506501e-05,-2.1826632e-09,0.0,0.0,0.0
6320000,0,6.391757e-05,7.506499e-05,-2.2205848e-09,0.0,0.0,0.0
6328000,0,6.391759e-05,7.506498e-05,-2.2458668e-09,0.0,0.0,0.0
6340000,0,6.391764e-05,7.506496e-05,-2.283788e-09,0.0,0.0,0.0
6348000,0,6.391767e-05,7.506495e-05,-2.3090698e-09,0.0,0.0,0.0
6360000,0,6.391772e-05,7.5064934e-05,-2.3469913e-09,0.0,0.0,0.0
6368000,0,6.391775e-05,7.506492e-05,-2.372273e-09,0.0,0.0,0.0
6380000,0,6.39178e-05,7.5064905e-05,-2.4101943e-09,0.0,0.0,0.0
6388000,0,6.3917825e-05,7.50649e-05,-2.4354763e-09,0.0,0.0,0.0
6400000,0,6.3917876e-05,7.5064876e-05,-2.4733975e-09,0.0,0.0,0.0
6408000,0,6.3917905e-05,7.506487e-05,-2.4986793e-09,0.0,0.0,0.0
6420000,0,6.391795e-05,7.5064854e-05,-2.5366012e-09,0.0,0.0,0.0
6428000,0,6.391798e-05,7.506484e-05,-2.561883e-09,0.0,0.0,0.0
6440000,0,6.391803e-05,7.5064825e-05,-2.5998044e-09,0.0,0.0,0.0
6448000,0,6.391806e-05,7.506481e-05,-2.6250861e-09,0.0,0.0,0.0
6460000,0,6.391811e-05,7.5064796e-05,-2.6630076e-09,0.0,0.0,0.0
6468000,0,6.391814e-05,7.506478e-05,-2.6882894e-09,0.0,0.0,0.0
6480000,0,6.391818e-05,7.506477e-05,-2.7262106e-09,0.0,0.0,0.0
6488000,0,6.391821e-05,7.506476e-05,-2.7514924e-09,0.0,0.0,0.0
6500000,0,6.391826e-05,7.506474e-05,-2.7894138e-09,0.0,0.0,0.0
6508000,0,6.391829e-05,7.506473e-05,-2.8146956e-09,0.0,0.0,0.0
6520000,0,6.3918334e-05,7.5064716e-05,-2.8526175e-09,0.0,0.0,0.0
6528000,0,6.391837e-05,7.50647e-05,-2.8778988e-09,0.0,0.0,0.0
6540000,0,6.3918415e-05,7.506469e-05,-2.9158207e-09,0.0,0.0,0.0
6548000,0,6.391844e-05,7.506467e-05,-2.9411018e-09,0.0,0.0,0.0
6560000,0,6.3918495e-05,7.506466e-05,-2.9790237e-09,0.0,0.0,0.0
6568000,0,6.3918524e-05,7.506464e-05,-3.004305e-09,0.0,0.0,0.0
6580000,0,6.391857e-05,7.506463e-05,-3.042227e-09,0.0,0.0,0.0
6588000,0,6.3918604e-05,7.506462e-05,-3.0675082e-09,0.0,0.0,0.0
6600000,0,6.391865e-05,7.50646e-05,-3.1054301e-09,0.0,0.0,0.0
6608000,0,6.391868e-05,7.506459e-05,-3.1307115e-09,0.0,0.0,0.0
6620000,0,6.391873e-05,7.506458e-05,-3.1686334e-09,0.0,0.0,0.0
6628000,0,6.3918764e-05,7.506456e-05,-3.1939136e-09,0.0,0.0,0.0
6640000,0,6.39188e-05,7.506455e-05,-3.2318364e-09,0.0,0.0,0.0
6648000,0,6.3918844e-05,7.506454e-05,-3.2571168e-09,0.0,0.0,0.0
6660000,0,6.391888e-05,7.506452e-05,-3.2950396e-09,0.0,0.0,0.0
6668000,0,6.391892e-05,7.506451e-05,-3.3203198e-09,0.0,0.0,0.0
6680000,0,6.391896e-05,7.506449e-05,-3.3582428e-09,0.0,0.0,0.0
6688000,0,6.3919e-05,7.506448e-05,-3.383523e-09,0.0,0.0,0.0
6700000,0,6.391903e-05,7.506446e-05,-3.421446e-09,0.0,0.0,0.0
6708000,0,6.391908e-05,7.5064454e-05,-3.4467262e-09,0.0,0.0,0.0
6720000,0,6.391912e-05,7.506444e-05,-3.4846481e-09,0.0,0.0,0.0
6728000,0,6.391915e-05,7.5064425e-05,-3.5099295e-09,0.0,0.0,0.0
6740000,0,6.39192e-05,7.506441e-05,-3.5478513e-09,0.0,0.0,0.0
6748000,0,6.391923e-05,7.50644e-05,-3.5731327e-09,0.0,0.0,0.0
6760000,0,6.391927e-05,7.506438e-05,-3.6110546e-09,0.0,0.0,0.0
6768000,0,6.391931e-05,7.5064374e-05,-3.636336e-09,0.0,0.0,0.0
6780000,0,6.391935e-05,7.506436e-05,-3.6742576e-09,0.0,0.0,0.0
6788000,0,6.391938e-05,7.5064345e-05,-3.699539e-09,0.0,0.0,0.0
6800000,0,6.391943e-05,7.506433e-05,-3.737461e-09,0.0,0.0,0.0
6808000,0,6.391946e-05,7.5064316e-05,-3.762742e-09,0.0,0.0,0.0
6820000,0,6.3919506e-05,7.50643e-05,-3.8006642e-09,0.0,0.0,0.0
6828000,0,6.3919535e-05,7.506429e-05,-3.825946e-09,0.0,0.0,0.0
6840000,0,6.3919586e-05,7.506427e-05,-3.8638674e-09,0.0,0.0,0.0
6848000,0,6.3919615e-05,7.506426e-05,-3.889149e-09,0.0,0.0,0.0
6860000,0,6.3919666e-05,7.506424e-05,-3.9270707e-09,0.0,0.0,0.0
6868000,0,6.391969e-05,7.5064236e-05,-3.9523522e-09,0.0,0.0,0.0
6880000,0,6.391974e-05,7.506422e-05,-3.9902734e-09,0.0,0.0,0.0
6888000,0,6.391977e-05,7.506421e-05,-4.0155554e-09,0.0,0.0,0.0
6900000,0,6.391982e-05,7.506419e-05,-4.0534767e-09,0.0,0.0,0.0
6908000,0,6.391985e-05,7.506418e-05,-4.0787587e-09,0.0,0.0,0.0
6920000,0,6.391989e-05,7.506416e-05,-4.1166808e-09,0.0,0.0,0.0
6928000,0,6.391992e-05,7.506415e-05,-4.1419623e-09,0.0,0.0,0.0
6940000,0,6.391997e-05,7.5064134e-05,-4.1798836e-09,0.0,0.0,0.0
6948000,0,6.392e-05,7.506412e-05,-4.2051655e-09,0.0,0.0,0.0
6960000,0,6.3920044e-05,7.5064105e-05,-4.2430868e-09,0.0,0.0,0.0
6968000,0,6.392007e-05,7.50641e-05,-4.2683688e-09,0.0,0.0,0.0
6980000,0,6.3920124e-05,7.5064076e-05,-4.30629e-09,0.0,0.0,0.0
6988000,0,6.392015e-05,7.506407e-05,-4.331572e-09,0.0,0.0,0.0
7000000,0,6.3920204e-05,7.5064054e-05,-4.369493e-09,0.0,0.0,0.0
7008000,0,6.392023e-05,7.506404e-05,-4.394775e-09,0.0,0.0,0.0
7020000,0,6.392028e-05,7.5064025e-05,-4.432697e-09,0.0,0.0,0.0
7028000,0,6.3920306e-05,7.506401e-05,-4.4579784e-09,0.0,0.0,0.0
7040000,0,6.392036e-05,7.5063996e-05,-4.4959e-09,0.0,0.0,0.0
7048000,0,6.3920386e-05,7.506398e-05,-4.5211817e-09,0.0,0.0,0.0
7060000,0,6.392043e-05,7.506397e-05,-4.5591033e-09,0.0,0.0,0.0
7068000,0,6.3920466e-05,7.506396e-05,-4.584385e-09,0.0,0.0,0.0
7080000,0,6.392051e-05,7.506394e-05,-4.6223065e-09,0.0,0.0,0.0
7088000,0,6.392054e-05,7.506393e-05,-4.647588e-09,0.0,0.0,0.0
7100000,0,6.392059e-05,7.5063916e-05,-4.6855098e-09,0.0,0.0,0.0
7108000,0,6.392062e-05,7.50639e-05,-4.7107913e-09,0.0,0.0,0.0
7120000,0,6.392066e-05,7.506389e-05,-4.748713e-09,0.0,0.0,0.0
7128000,0,6.39207e-05,7.506388e-05,-4.773993e-09,0.0,0.0,0.0
7140000,0,6.392074e-05,7.506386e-05,-4.811916e-09,0.0,0.0,0.0
7148000,0,6.392078e-05,7.506385e-05,-4.8371964e-09,0.0,0.0,0.0
7160000,0,6.392082e-05,7.506383e-05,-4.8751194e-09,0.0,0.0,0.0
7168000,0,6.392086e-05,7.506382e-05,-4.9003996e-09,0.0,0.0,0.0
7180000,0,6.3920896e-05,7.50638e-05,-4.9383226e-09,0.0,0.0,0.0
7188000,0,6.392093e-05,7.506379e-05,-4.963603e-09,0.0,0.0,0.0
7200000,0,6.3920976e-05,7.506378e-05,-5.001526e-09,0.0,0.0,0.0
7208000,0,6.392101e-05,7.506376e-05,-5.026806e-09,0.0,0.0,0.0
7220000,0,6.3921056e-05,7.506375e-05,-5.064728e-09,0.0,0.0,0.0
7228000,0,6.392109e-05,7.5063734e-05,-5.0900093e-09,0.0,0.0,0.0
7240000,0,6.3921136e-05,7.506372e-05,-5.1279314e-09,0.0,0.0,0.0
7248000,0,6.3921165e-05,7.506371e-05,-5.1532125e-09,0.0,0.0,0.0
7260000,0,6.3921216e-05,7.506369e-05,-5.1911346e-09,0.0,0.0,0.0
7268000,0,6.3921245e-05,7.506368e-05,-5.2164157e-09,0.0,0.0,0.0
7280000,0,6.392129e-05,7.506367e-05,-5.254338e-09,0.0,0.0,0.0
7288000,0,6.3921325e-05,7.5063654e-05,-5.279619e-09,0.0,0.0,0.0
7300000,0,6.392137e-05,7.506364e-05,-5.317541e-09,0.0,0.0,0.0
7308000,0,6.39214e-05,7.5063625e-05,-5.342822e-09,0.0,0.0,0.0
7320000,0,6.392145e-05,7.506361e-05,-5.3807443e-09,0.0,0.0,0.0
7328000,0,6.392147e-05,7.5063595e-05,-5.4060263e-09,0.0,0.0,0.0
7340000,0,6.392152e-05,7.506358e-05,-5.4439475e-09,0.0,0.0,0.0
7348000,0,6.392155e-05,7.506357e-05,-5.4692295e-09,0.0,0.0,0.0
7360000,0,6.39216e-05,7.506355e-05,-5.5071507e-09,0.0,0.0,0.0
7368000,0,6.392163e-05,7.5063545e-05,-5.5324327e-09,0.0,0.0,0.0
7380000,0,6.392168e-05,7.506353e-05,-5.570354e-09,0.0,0.0,0.0
7388000,0,6.39217e-05,7.5063515e-05,-5.595636e-09,0.0,0.0,0.0
7400000,0,6.3921754e-05,7.50635e-05,-5.633557e-09,0.0,0.0,0.0
7408000,0,6.392178e-05,7.5063486e-05,-5.658839e-09,0.0,0.0,0.0
7420000,0,6.392183e-05,7.506347e-05,-5.696761e-09,0.0,0.0,0.0
7428000,0,6.3921856e-05,7.506346e-05,-5.722043e-09,0.0,0.0,0.0
7440000,0,6.392191e-05,7.506344e-05,-5.759964e-09,0.0,0.0,0.0
7448000,0,6.3921936e-05,7.506343e-05,-5.785246e-09,0.0,0.0,0.0
7460000,0,6.392199e-05,7.506341e-05,-5.8231673e-09,0.0,0.0,0.0
7468000,0,6.392201e-05,7.5063406e-05,-5.8484493e-09,0.0,0.0,0.0
7480000,0,6.392206e-05,7.5063384e-05,-5.8863705e-09,0.0,0.0,0.0
7488000,0,6.392209e-05,7.506338e-05,-5.9116525e-09,0.0,0.0,0.0
7500000,0,6.392214e-05,7.506336e-05,-5.9495737e-09,0.0,0.0,0.0
7508000,0,6.392217e-05,7.506335e-05,-5.9748557e-09,0.0,0.0,0.0
7520000,0,6.392221e-05,7.506333e-05,-6.0127774e-09,0.0,0.0,0.0
7528000,0,6.392224e-05,7.506332e-05,-6.038059e-09,0.0,0.0,0.0
7540000,0,6.392229e-05,7.5063304e-05,-6.0759806e-09,0.0,0.0,0.0
7548000,0,6.392232e-05,7.506329e-05,-6.101262e-09,0.0,0.0,0.0
7560000,0,6.3922365e-05,7.5063275e-05,-6.139184e-09,0.0,0.0,0.0
7568000,0,6.39224e-05,7.506327e-05,-6.1644654e-09,0.0,0.0,0.0
7580000,0,6.3922445e-05,7.5063246e-05,-6.202387e-09,0.0,0.0,0.0
7588000,0,6.3922475e-05,7.506324e-05,-6.2276686e-09,0.0,0.0,0.0
7600000,0,6.3922525e-05,7.5063224e-05,-6.2655907e-09,0.0,0.0,0.0
7608000,0,6.3922555e-05,7.506321e-05,-6.290872e-09,0.0,0.0,0.0
7620000,0,6.39226e-05,7.5063195e-05,-6.328794e-09,0.0,0.0,0.0
7628000,0,6.392264e-05,7.506318e-05,-6.354074e-09,0.0,0.0,0.0
7640000,0,6.392268e-05,7.5063166e-05,-6.391997e-09,0.0,0.0,0.0
7648000,0,6.3922715e-05,7.506316e-05,-6.4172774e-09,0.0,0.0,0.0
7660000,0,6.392276e-05,7.506314e-05,-6.4552004e-09,0.0,0.0,0.0
7668000,0,6.3922795e-05,7.506313e-05,-6.4804806e-09,0.0,0.0,0.0
7680000,0,6.392283e-05,7.506311e-05,-6.5184036e-09,0.0,0.0,0.0
7688000,0,6.3922875e-05,7.50631e-05,-6.543684e-09,0.0,0.0,0.0
7700000,0,6.392291e-05,7.5063086e-05,-6.581607e-09,0.0,0.0,0.0
7708000,0,6.392295e-05,7.506307e-05,-6.606887e-09,0.0,0.0,0.0
7720000,0,6.3923e-05,7.506306e-05,-6.644809e-09,0.0,0.0,0.0
7728000,0,6.392303e-05,7.506304e-05,-6.6700903e-09,0.0,0.0,0.0
7740000,0,6.392307e-05,7.506303e-05,-6.7080124e-09,0.0,0.0,0.0
7748000,0,6.39231e-05,7.506302e-05,-6.7332935e-09,0.0,0.0,0.0
7760000,0,6.392315e-05,7.5063e-05,-6.7712156e-09,0.0,0.0,0.0
7768000,0,6.392318e-05,7.506299e-05,-6.796497e-09,0.0,0.0,0.0
7780000,0,6.3923224e-05,7.506298e-05,-6.834419e-09,0.0,0.0,0.0
7788000,0,6.392326e-05,7.506296e-05,-6.8597004e-09,0.0,0.0,0.0
7800000,0,6.3923304e-05,7.506295e-05,-6.897622e-09,0.0,0.0,0.0
7808000,0,6.392333e-05,7.506293e-05,-6.9229036e-09,0.0,0.0,0.0
7820000,0,6.3923384e-05,7.506292e-05,-6.9608252e-09,0.0,0.0,0.0
7828000,0,6.3923406e-05,7.5062904e-05,-6.9861072e-09,0.0,0.0,0.0
7840000,0,6.392346e-05,7.506289e-05,-7.0240285e-09,0.0,0.0,0.0
7848000,0,6.3923486e-05,7.5062875e-05,-7.0493105e-09,0.0,0.0,0.0
7860000,0,6.392354e-05,7.506286e-05,-7.087232e-09,0.0,0.0,0.0
7868000,0,6.3923566e-05,7.506285e-05,-7.1125137e-09,0.0,0.0,0.0
7880000,0,6.392361e-05,7.506283e-05,-7.1504354e-09,0.0,0.0,0.0
7888000,0,6.392364e-05,7.5062824e-05,-7.175717e-09,0.0,0.0,0.0
7900000,0,6.392369e-05,7.506281e-05,-7.2136386e-09,0.0,0.0,0.0
7908000,0,6.392372e-05,7.5062795e-05,-7.23892e-09,0.0,0.0,0.0
7920000,0,6.392376e-05,7.506278e-05,-7.2768422e-09,0.0,0.0,0.0
7928000,0,6.392379e-05,7.5062766e-05,-7.302124e-09,0.0,0.0,0.0
7940000,0,6.392384e-05,7.506275e-05,-7.3400455e-09,0.0,0.0,0.0
7948000,0,6.392387e-05,7.506274e-05,-7.365327e-09,0.0,0.0,0.0
7960000,0,6.3923915e-05,7.506272e-05,-7.4032487e-09,0.0,0.0,0.0
7968000,0,6.3923944e-05,7.506271e-05,-7.4285302e-09,0.0,0.0,0.0
7980000,0,6.3923995e-05,7.506269e-05,-7.466452e-09,0.0,0.0,0.0
7988000,0,6.3924024e-05,7.5062686e-05,-7.4917335e-09,0.0,0.0,0.0
8000000,0,6.3924075e-05,7.5062664e-05,-7.529655e-09,0.0,0.0,0.0
8008000,0,6.3924104e-05,7.506266e-05,-7.554937e-09,0.0,0.0,0.0
8020000,0,6.392415e-05,7.506264e-05,-7.592859e-09,0.0,0.0,0.0
8028000,0,6.392418e-05,7.506263e-05,-7.61814e-09,0.0,0.0,0.0
8040000,0,6.392423e-05,7.506261e-05,-7.6560625e-09,0.0,0.0,0.0
8048000,0,6.392426e-05,7.50626e-05,-7.681344e-09,0.0,0.0,0.0
8060000,0,6.39243e-05,7.5062584e-05,-7.719265e-09,0.0,0.0,0.0
8068000,0,6.392433e-05,7.506257e-05,-7.744546e-09,0.0,0.0,0.0
8080000,0,6.392438e-05,7.5062555e-05,-7.782469e-09,0.0,0.0,0.0
8088000,0,6.392441e-05,7.506255e-05,-7.80775e-09,0.0,0.0,0.0
8100000,0,6.392445e-05,7.5062526e-05,-7.845672e-09,0.0,0.0,0.0
8108000,0,6.392449e-05,7.506252e-05,-7.870954e-09,0.0,0.0,0.0
8120000,0,6.392453e-05,7.50625e-05,-7.908875e-09,0.0,0.0,0.0
8128000,0,6.392457e-05,7.506249e-05,-7.9341556e-09,0.0,0.0,0.0
8140000,0,6.3924614e-05,7.5062475e-05,-7.972078e-09,0.0,0.0,0.0
8148000,0,6.392465e-05,7.506246e-05,-7.997359e-09,0.0,0.0,0.0
8160000,0,6.392469e-05,7.5062446e-05,-8.035282e-09,0.0,0.0,0.0
8168000,0,6.392473e-05,7.506244e-05,-8.060562e-09,0.0,0.0,0.0
8180000,0,6.392477e-05,7.506242e-05,-8.098485e-09,0.0,0.0,0.0
8188000,0,6.39248e-05,7.506241e-05,-8.123766e-09,0.0,0.0,0.0
8200000,0,6.392485e-05,7.506239e-05,-8.161688e-09,0.0,0.0,0.0
8208000,0,6.392488e-05,7.506238e-05,-8.186968e-09,0.0,0.0,0.0
8220000,0,6.392493e-05,7.5062366e-05,-8.224891e-09,0.0,0.0,0.0
8228000,0,6.3924956e-05,7.506235e-05,-8.250172e-09,0.0,0.0,0.0
8240000,0,6.392501e-05,7.506234e-05,-8.288094e-09,0.0,0.0,0.0
8248000,0,6.3925036e-05,7.506232e-05,-8.313376e-09,0.0,0.0,0.0
8260000,0,6.392508e-05,7.506231e-05,-8.351297e-09,0.0,0.0,0.0
8268000,0,6.3925116e-05,7.506229e-05,-8.3765785e-09,0.0,0.0,0.0
8280000,0,6.392516e-05,7.506228e-05,-8.4145e-09,0.0,0.0,0.0
8288000,0,6.392519e-05,7.506227e-05,-8.439782e-09,0.0,0.0,0.0
8300000,0,6.392524e-05,7.506225e-05,-8.477704e-09,0.0,0.0,0.0
8308000,0,6.392527e-05,7.506224e-05,-8.502985e-09,0.0,0.0,0.0
8320000,0,6.392531e-05,7.506222e-05,-8.5409075e-09,0.0,0.0,0.0
8328000,0,6.392534e-05,7.506221e-05,-8.566189e-09,0.0,0.0,0.0
8340000,0,6.392539e-05,7.50622e-05,-8.60411e-09,0.0,0.0,0.0
8348000,0,6.392542e-05,7.5062184e-05,-8.629392e-09,0.0,0.0,0.0
8360000,0,6.3925465e-05,7.506217e-05,-8.667314e-09,0.0,0.0,0.0
8368000,0,6.3925494e-05,7.5062155e-05,-8.692595e-09,0.0,0.0,0.0
8380000,0,6.3925545e-05,7.506214e-05,-8.730517e-09,0.0,0.0,0.0
8388000,0,6.3925574e-05,7.5062126e-05,-8.755799e-09,0.0,0.0,0.0
8400000,0,6.3925625e-05,7.506211e-05,-8.79372e-09,0.0,0.0,0.0
8408000,0,6.392565e-05,7.5062104e-05,-8.819002e-09,0.0,0.0,0.0
8420000,0,6.39257e-05,7.506208e-05,-8.856924e-09,0.0,0.0,0.0
8428000,0,6.392573e-05,7.5062075e-05,-8.882206e-09,0.0,0.0,0.0
8440000,0,6.392577e-05,7.506205e-05,-8.920128e-09,0.0,0.0,0.0
8448000,0,6.39258e-05,7.5062046e-05,-8.945409e-09,0.0,0.0,0.0
8460000,0,6.392585e-05,7.506203e-05,-8.9833305e-09,0.0,0.0,0.0
8468000,0,6.392588e-05,7.506202e-05,-9.0086125e-09,0.0,0.0,0.0
8480000,0,6.392593e-05,7.5062e-05,-9.046534e-09,0.0,0.0,0.0
8488000,0,6.392595e-05,7.506199e-05,-9.071815e-09,0.0,0.0,0.0
8500000,0,6.3926e-05,7.506197e-05,-9.109737e-09,0.0,0.0,0.0
8508000,0,6.392603e-05,7.506196e-05,-9.135019e-09,0.0,0.0,0.0
8520000,0,6.3926076e-05,7.5061944e-05,-9.172941e-09,0.0,0.0,0.0
8528000,0,6.392611e-05,7.506194e-05,-9.198222e-09,0.0,0.0,0.0
8540000,0,6.3926156e-05,7.5061915e-05,-9.236144e-09,0.0,0.0,0.0
8548000,0,6.3926185e-05,7.506191e-05,-9.261425e-09,0.0,0.0,0.0
8560000,0,6.3926236e-05,7.5061886e-05,-9.299347e-09,0.0,0.0,0.0
8568000,0,6.3926265e-05,7.506188e-05,-9.324629e-09,0.0,0.0,0.0
8580000,0,6.392631e-05,7.5061864e-05,-9.362551e-09,0.0,0.0,0.0
8588000,0,6.392634e-05,7.506185e-05,-9.387832e-09,0.0,0.0,0.0
8600000,0,6.392639e-05,7.5061835e-05,-9.425754e-09,0.0,0.0,0.0
8608000,0,6.392642e-05,7.506182e-05,-9.4510355e-09,0.0,0.0,0.0
8620000,0,6.392646e-05,7.5061806e-05,-9.488957e-09,0.0,0.0,0.0
8628000,0,6.3926505e-05,7.50618e-05,-9.514238e-09,0.0,0.0,0.0
8640000,0,6.392654e-05,7.506178e-05,-9.552161e-09,0.0,0.0,0.0
8648000,0,6.392658e-05,7.506177e-05,-9.577441e-09,0.0,0.0,0.0
8660000,0,6.392662e-05,7.506175e-05,-9.615364e-09,0.0,0.0,0.0
8668000,0,6.392666e-05,7.506174e-05,-9.640645e-09,0.0,0.0,0.0
8680000,0,6.3926695e-05,7.506172e-05,-9.678567e-09,0.0,0.0,0.0
8688000,0,6.392674e-05,7.506171e-05,-9.7038475e-09,0.0,0.0,0.0
8700000,0,6.3926775e-05,7.50617e-05,-9.74177e-09,0.0,0.0,0.0
8708000,0,6.392681e-05,7.506168e-05,-9.767051e-09,0.0,0.0,0.0
8720000,0,6.392686e-05,7.506167e-05,-9.804973e-09,0.0,0.0,0.0
8728000,0,6.392689e-05,7.506165e-05,-9.830254e-09,0.0,0.0,0.0
8740000,0,6.3926935e-05,7.506164e-05,-9.8681765e-09,0.0,0.0,0.0
8748000,0,6.3926964e-05,7.506163e-05,-9.893458e-09,0.0,0.0,0.0
8760000,0,6.3927015e-05,7.506161e-05,-9.931379e-09,0.0,0.0,0.0
8768000,0,6.3927044e-05,7.50616e-05,-9.956661e-09,0.0,0.0,0.0
8780000,0,6.392709e-05,7.506159e-05,-9.994583e-09,0.0,0.0,0.0
8788000,0,6.392712e-05,7.506157e-05,-1.0019864e-08,0.0,0.0,0.0
8800000,0,6.392717e-05,7.506156e-05,-1.0057787e-08,0.0,0.0,0.0
8808000,0,6.39272e-05,7.506154e-05,-1.0083068e-08,0.0,0.0,0.0
8820000,0,6.392725e-05,7.506153e-05,-1.0120989e-08,0.0,0.0,0.0
8828000,0,6.392727e-05,7.5061515e-05,-1.0146271e-08,0.0,0.0,0.0
8840000,0,6.392732e-05,7.50615e-05,-1.0184193e-08,0.0,0.0,0.0
8848000,0,6.392735e-05,7.5061485e-05,-1.0209474e-08,0.0,0.0,0.0
8860000,0,6.39274e-05,7.506147e-05,-1.0247396e-08,0.0,0.0,0.0
8868000,0,6.392742e-05,7.506146e-05,-1.0272678e-08,0.0,0.0,0.0
8880000,0,6.392747e-05,7.506144e-05,-1.03105995e-08,0.0,0.0,0.0
8888000,0,6.39275e-05,7.5061434e-05,-1.03358815e-08,0.0,0.0,0.0
8900000,0,6.392755e-05,7.506141e-05,-1.0373803e-08,0.0,0.0,0.0
8908000,0,6.392758e-05,7.5061405e-05,-1.0399084e-08,0.0,0.0,0.0
8920000,0,6.3927626e-05,7.506139e-05,-1.0437007e-08,0.0,0.0,0.0
8928000,0,6.3927655e-05,7.5061376e-05,-1.0462288e-08,0.0,0.0,0.0
8940000,0,6.3927706e-05,7.506136e-05,-1.050021e-08,0.0,0.0,0.0
8948000,0,6.392773e-05,7.506135e-05,-1.0525492e-08,0.0,0.0,0.0
8960000,0,6.392778e-05,7.506133e-05,-1.0563413e-08,0.0,0.0,0.0
8968000,0,6.392781e-05,7.506132e-05,-1.0588694e-08,0.0,0.0,0.0
8980000,0,6.392786e-05,7.50613e-05,-1.0626616e-08,0.0,0.0,0.0
8988000,0,6.392789e-05,7.506129e-05,-1.0651898e-08,0.0,0.0,0.0
9000000,0,6.392793e-05,7.5061274e-05,-1.068982e-08,0.0,0.0,0.0
9008000,0,6.392796e-05,7.506127e-05,-1.0715102e-08,0.0,0.0,0.0
9020000,0,6.392801e-05,7.5061245e-05,-1.0753023e-08,0.0,0.0,0.0
9028000,0,6.392804e-05,7.506124e-05,-1.07783045e-08,0.0,0.0,0.0
9040000,0,6.3928084e-05,7.5061216e-05,-1.0816227e-08,0.0,0.0,0.0
9048000,0,6.392811e-05,7.506121e-05,-1.0841508e-08,0.0,0.0,0.0
9060000,0,6.3928164e-05,7.5061194e-05,-1.087943e-08,0.0,0.0,0.0
9068000,0,6.392819e-05,7.506118e-05,-1.0904711e-08,0.0,0.0,0.0
9080000,0,6.392824e-05,7.5061165e-05,-1.09426335e-08,0.0,0.0,0.0
9088000,0,6.392827e-05,7.506115e-05,-1.0967915e-08,0.0,0.0,0.0
9100000,0,6.392832e-05,7.5061136e-05,-1.1005836e-08,0.0,0.0,0.0
9108000,0,6.3928346e-05,7.506112e-05,-1.1031118e-08,0.0,0.0,0.0
9120000,0,6.392839e-05,7.506111e-05,-1.106904e-08,0.0,0.0,0.0
9128000,0,6.392843e-05,7.50611e-05,-1.109432e-08,0.0,0.0,0.0
9140000,0,6.392847e-05,7.506108e-05,-1.1132243e-08,0.0,0.0,0.0
9148000,0,6.3928506e-05,7.506107e-05,-1.1157524e-08,0.0,0.0,0.0
9160000,0,6.392855e-05,7.506105e-05,-1.1195446e-08,0.0,0.0,0.0
9168000,0,6.3928586e-05,7.506104e-05,-1.12207275e-08,0.0,0.0,0.0
9180000,0,6.392862e-05,7.506103e-05,-1.125865e-08,0.0,0.0,0.0
9188000,0,6.3928666e-05,7.506101e-05,-1.128393e-08,0.0,0.0,0.0
9200000,0,6.39287e-05,7.5061e-05,-1.1321853e-08,0.0,0.0,0.0
9208000,0,6.392874e-05,7.506098e-05,-1.1347134e-08,0.0,0.0,0.0
9220000,0,6.392878e-05,7.506097e-05,-1.1385056e-08,0.0,0.0,0.0
9228000,0,6.392882e-05,7.506096e-05,-1.1410337e-08,0.0,0.0,0.0
9240000,0,6.392886e-05,7.506094e-05,-1.1448259e-08,0.0,0.0,0.0
9248000,0,6.392889e-05,7.506093e-05,-1.147354e-08,0.0,0.0,0.0
9260000,0,6.392894e-05,7.506091e-05,-1.1511462e-08,0.0,0.0,0.0
9268000,0,6.392897e-05,7.50609e-05,-1.1536744e-08,0.0,0.0,0.0
9280000,0,6.3929016e-05,7.506089e-05,-1.1574666e-08,0.0,0.0,0.0
9288000,0,6.3929045e-05,7.5060874e-05,-1.1599947e-08,0.0,0.0,0.0
9300000,0,6.3929096e-05,7.506086e-05,-1.1637869e-08,0.0,0.0,0.0
9308000,0,6.3929125e-05,7.5060845e-05,-1.16631504e-08,0.0,0.0,0.0
9320000,0,6.392917e-05,7.506083e-05,-1.1701072e-08,0.0,0.0,0.0
9328000,0,6.39292e-05,7.5060816e-05,-1.1726354e-08,0.0,0.0,0.0
9340000,0,6.392925e-05,7.50608e-05,-1.1764276e-08,0.0,0.0,0.0
9348000,0,6.392928e-05,7.506079e-05,-1.1789557e-08,0.0,0.0,0.0
9360000,0,6.392932e-05,7.506077e-05,-1.18274786e-08,0.0,0.0,0.0
9368000,0,6.392935e-05,7.5060765e-05,-1.18527606e-08,0.0,0.0,0.0
9380000,0,6.39294e-05,7.506074e-05,-1.1890682e-08,0.0,0.0,0.0
9388000,0,6.392943e-05,7.5060736e-05,-1.1915964e-08,0.0,0.0,0.0
9400000,0,6.392948e-05,7.506072e-05,-1.1953886e-08,0.0,0.0,0.0
9408000,0,6.39295e-05,7.506071e-05,-1.1979167e-08,0.0,0.0,0.0
9420000,0,6.3929554e-05,7.506069e-05,-1.20170895e-08,0.0,0.0,0.0
9428000,0,6.392958e-05,7.506068e-05,-1.2042371e-08,0.0,0.0,0.0
9440000,0,6.392963e-05,7.506066e-05,-1.2080292e-08,0.0,0.0,0.0
9448000,0,6.3929656e-05,7.506065e-05,-1.2105574e-08,0.0,0.0,0.0
9460000,0,6.392971e-05,7.5060634e-05,-1.2143496e-08,0.0,0.0,0.0
9468000,0,6.3929736e-05,7.506062e-05,-1.2168777e-08,0.0,0.0,0.0
9480000,0,6.392978e-05,7.5060605e-05,-1.2206699e-08,0.0,0.0,0.0
9488000,0,6.392981e-05,7.506059e-05,-1.2231981e-08,0.0,0.0,0.0
9500000,0,6.392986e-05,7.5060576e-05,-1.2269902e-08,0.0,0.0,0.0
9508000,0,6.392989e-05,7.506057e-05,-1.2295184e-08,0.0,0.0,0.0
9520000,0,6.392993e-05,7.506055e-05,-1.2333106e-08,0.0,0.0,0.0
9528000,0,6.392996e-05,7.506054e-05,-1.2358387e-08,0.0,0.0,0.0
9540000,0,6.393001e-05,7.506052e-05,-1.239631e-08,0.0,0.0,0.0
9548000,0,6.393004e-05,7.506051e-05,-1.2421591e-08,0.0,0.0,0.0
9560000,0,6.3930085e-05,7.5060496e-05,-1.24595125e-08,0.0,0.0,0.0
9568000,0,6.393012e-05,7.506048e-05,-1.2484794e-08,0.0,0.0,0.0
9580000,0,6.3930165e-05,7.506047e-05,-1.2522716e-08,0.0,0.0,0.0
9588000,0,6.3930194e-05,7.506045e-05,-1.2547997e-08,0.0,0.0,0.0
9600000,0,6.3930245e-05,7.506044e-05,-1.2585919e-08,0.0,0.0,0.0
9608000,0,6.3930274e-05,7.506042e-05,-1.2611201e-08,0.0,0.0,0.0
9620000,0,6.393032e-05,7.506041e-05,-1.2649123e-08,0.0,0.0,0.0
9628000,0,6.3930354e-05,7.50604e-05,-1.2674403e-08,0.0,0.0,0.0
9640000,0,6.39304e-05,7.506038e-05,-1.2712326e-08,0.0,0.0,0.0
9648000,0,6.3930434e-05,7.506037e-05,-1.27376065e-08,0.0,0.0,0.0
9660000,0,6.393047e-05,7.506035e-05,-1.2775529e-08,0.0,0.0,0.0
9668000,0,6.3930514e-05,7.506034e-05,-1.280081e-08,0.0,0.0,0.0
9680000,0,6.393055e-05,7.506033e-05,-1.2838733e-08,0.0,0.0,0.0
9688000,0,6.393059e-05,7.5060314e-05,-1.2864013e-08,0.0,0.0,0.0
9700000,0,6.393062e-05,7.50603e-05,-1.29019355e-08,0.0,0.0,0.0
9708000,0,6.393067e-05,7.5060285e-05,-1.2927217e-08,0.0,0.0,0.0
9720000,0,6.393071e-05,7.506027e-05,-1.2965138e-08,0.0,0.0,0.0
9728000,0,6.393074e-05,7.5060256e-05,-1.2990419e-08,0.0,0.0,0.0
9740000,0,6.393079e-05,7.506024e-05,-1.3028342e-08,0.0,0.0,0.0
9748000,0,6.393082e-05,7.5060234e-05,-1.3053623e-08,0.0,0.0,0.0
9760000,0,6.3930864e-05,7.506021e-05,-1.3091545e-08,0.0,0.0,0.0
9768000,0,6.393089e-05,7.5060205e-05,-1.3116827e-08,0.0,0.0,0.0
9780000,0,6.3930944e-05,7.506018e-05,-1.3154748e-08,0.0,0.0,0.0
9788000,0,6.393097e-05,7.5060176e-05,-1.31800295e-08,0.0,0.0,0.0
9800000,0,6.393102e-05,7.506016e-05,-1.3217952e-08,0.0,0.0,0.0
9808000,0,6.3931046e-05,7.506015e-05,-1.3243233e-08,0.0,0.0,0.0
9820000,0,6.39311e-05,7.506013e-05,-1.3281155e-08,0.0,0.0,0.0
9828000,0,6.3931126e-05,7.506012e-05,-1.3306437e-08,0.0,0.0,0.0
9840000,0,6.393117e-05,7.50601e-05,-1.33443585e-08,0.0,0.0,0.0
9848000,0,6.39312e-05,7.506009e-05,-1.336964e-08,0.0,0.0,0.0
9860000,0,6.393125e-05,7.5060074e-05,-1.3407561e-08,0.0,0.0,0.0
9868000,0,6.393128e-05,7.506006e-05,-1.3432843e-08,0.0,0.0,0.0
9880000,0,6.393133e-05,7.5060045e-05,-1.3470765e-08,0.0,0.0,0.0
9888000,0,6.393135e-05,7.506004e-05,-1.3496047e-08,0.0,0.0,0.0
9900000,0,6.39314e-05,7.5060016e-05,-1.3533969e-08,0.0,0.0,0.0
9908000,0,6.393143e-05,7.506001e-05,-1.355925e-08,0.0,0.0,0.0
9920000,0,6.3931475e-05,7.505999e-05,-1.3597172e-08,0.0,0.0,0.0
9928000,0,6.3931504e-05,7.505998e-05,-1.3622453e-08,0.0,0.0,0.0
9940000,0,6.3931555e-05,7.5059965e-05,-1.3660375e-08,0.0,0.0,0.0
9948000,0,6.3931584e-05,7.505995e-05,-1.3685657e-08,0.0,0.0,0.0
9960000,0,6.393163e-05,7.5059936e-05,-1.3723579e-08,0.0,0.0,0.0
9968000,0,6.393166e-05,7.505992e-05,-1.374886e-08,0.0,0.0,0.0
9980000,0,6.393171e-05,7.505991e-05,-1.37867815e-08,0.0,0.0,0.0
9988000,0,6.393174e-05,7.505989e-05,-1.38120635e-08,0.0,0.0,0.0
10000000,0,6.393178e-05,7.505988e-05,-1.3849985e-08,0.0,0.0,0.0
10008000,0,6.393181e-05,7.505986e-05,-1.3875267e-08,0.0,0.0,0.0
10020000,0,6.393186e-05,7.505985e-05,-1.3913189e-08,0.0,0.0,0.0
10028000,0,6.393189e-05,7.505984e-05,-1.393847e-08,0.0,0.0,0.0
10040000,0,6.393193e-05,7.505982e-05,-1.39763925e-08,0.0,0.0,0.0
10048000,0,6.393196e-05,7.505981e-05,-1.4001674e-08,0.0,0.0,0.0
10060000,0,6.393201e-05,7.505979e-05,-1.4039595e-08,0.0,0.0,0.0
10068000,0,6.393204e-05,7.505978e-05,-1.4064876e-08,0.0,0.0,0.0
10080000,0,6.3932086e-05,7.505976e-05,-1.4102799e-08,0.0,0.0,0.0
10088000,0,6.393212e-05,7.5059754e-05,-1.412808e-08,0.0,0.0,0.0
10100000,0,6.3932166e-05,7.505974e-05,-1.4166002e-08,0.0,0.0,0.0
10108000,0,6.3932195e-05,7.5059725e-05,-1.4191284e-08,0.0,0.0,0.0
10120000,0,6.393224e-05,7.505971e-05,-1.4229205e-08,0.0,0.0,0.0
10128000,0,6.393228e-05,7.5059696e-05,-1.42544865e-08,0.0,0.0,0.0
10140000,0,6.393232e-05,7.505968e-05,-1.4292409e-08,0.0,0.0,0.0
10148000,0,6.3932355e-05,7.5059674e-05,-1.4317689e-08,0.0,0.0,0.0
10160000,0,6.39324e-05,7.505965e-05,-1.4355612e-08,0.0,0.0,0.0
10168000,0,6.3932435e-05,7.5059645e-05,-1.4380893e-08,0.0,0.0,0.0
10180000,0,6.393247e-05,7.505962e-05,-1.44188155e-08,0.0,0.0,0.0
10188000,0,6.393251e-05,7.5059615e-05,-1.4444096e-08,0.0,0.0,0.0
10200000,0,6.393255e-05,7.5059594e-05,-1.4482018e-08,0.0,0.0,0.0
10208000,0,6.393259e-05,7.505959e-05,-1.4507299e-08,0.0,0.0,0.0
10220000,0,6.393263e-05,7.505957e-05,-1.4545221e-08,0.0,0.0,0.0
10228000,0,6.393266e-05,7.505956e-05,-1.4570503e-08,0.0,0.0,0.0
10240000,0,6.393271e-05,7.505954e-05,-1.4608425e-08,0.0,0.0,0.0
10248000,0,6.393274e-05,7.505953e-05,-1.4633706e-08,0.0,0.0,0.0
10260000,0,6.3932785e-05,7.505951e-05,-1.4671628e-08,0.0,0.0,0.0
10268000,0,6.393282e-05,7.50595e-05,-1.46969095e-08,0.0,0.0,0.0
10280000,0,6.3932865e-05,7.5059485e-05,-1.4734831e-08,0.0,0.0,0.0
10288000,0,6.3932894e-05,7.505948e-05,-1.4760112e-08,0.0,0.0,0.0
10300000,0,6.3932945e-05,7.5059455e-05,-1.4798035e-08,0.0,0.0,0.0
10308000,0,6.3932974e-05,7.505945e-05,-1.4823316e-08,0.0,0.0,0.0
10320000,0,6.393302e-05,7.5059426e-05,-1.4861238e-08,0.0,0.0,0.0
10328000,0,6.393305e-05,7.505942e-05,-1.488652e-08,0.0,0.0,0.0
10340000,0,6.39331e-05,7.5059404e-05,-1.492444e-08,0.0,0.0,0.0
10348000,0,6.393312e-05,7.505939e-05,-1.4949723e-08,0.0,0.0,0.0
10360000,0,6.393317e-05,7.5059375e-05,-1.4987645e-08,0.0,0.0,0.0
10368000,0,6.39332e-05,7.505936e-05,-1.5012926e-08,0.0,0.0,0.0
10380000,0,6.393325e-05,7.5059346e-05,-1.5050848e-08,0.0,0.0,0.0
10388000,0,6.393327e-05,7.505933e-05,-1.5076129e-08,0.0,0.0,0.0
10400000,0,6.393332e-05,7.505932e-05,-1.511405e-08,0.0,0.0,0.0
10408000,0,6.393335e-05,7.50593e-05,-1.5139333e-08,0.0,0.0,0.0
10420000,0,6.3933396e-05,7.505929e-05,-1.5177255e-08,0.0,0.0,0.0
10428000,0,6.3933425e-05,7.505927e-05,-1.5202536e-08,0.0,0.0,0.0
10440000,0,6.3933476e-05,7.505926e-05,-1.5240458e-08,0.0,0.0,0.0
10448000,0,6.3933505e-05,7.5059244e-05,-1.5265739e-08,0.0,0.0,0.0
10460000,0,6.393355e-05,7.505923e-05,-1.530366e-08,0.0,0.0,0.0
10468000,0,6.393358e-05,7.505922e-05,-1.5328943e-08,0.0,0.0,0.0
10480000,0,6.393363e-05,7.50592e-05,-1.5366865e-08,0.0,0.0,0.0
10488000,0,6.393366e-05,7.505919e-05,-1.5392146e-08,0.0,0.0,0.0
10500000,0,6.39337e-05,7.505917e-05,-1.5430068e-08,0.0,0.0,0.0
10508000,0,6.393373e-05,7.5059164e-05,-1.5455349e-08,0.0,0.0,0.0
10520000,0,6.393378e-05,7.505915e-05,-1.549327e-08,0.0,0.0,0.0
10528000,0,6.393381e-05,7.5059135e-05,-1.5518554e-08,0.0,0.0,0.0
10540000,0,6.3933854e-05,7.505912e-05,-1.5556475e-08,0.0,0.0,0.0
10548000,0,6.393388e-05,7.5059106e-05,-1.5581756e-08,0.0,0.0,0.0
10560000,0,6.3933934e-05,7.505909e-05,-1.5619678e-08,0.0,0.0,0.0
10568000,0,6.393396e-05,7.505908e-05,-1.5644959e-08,0.0,0.0,0.0
10580000,0,6.393401e-05,7.505906e-05,-1.568288e-08,0.0,0.0,0.0
10588000,0,6.3934036e-05,7.505905e-05,-1.5708164e-08,0.0,0.0,0.0
10600000,0,6.393409e-05,7.505903e-05,-1.5746085e-08,0.0,0.0,0.0
10608000,0,6.3934116e-05,7.5059026e-05,-1.5771366e-08,0.0,0.0,0.0
10620000,0,6.393416e-05,7.5059004e-05,-1.5809288e-08,0.0,0.0,0.0
10628000,0,6.39342e-05,7.5059e-05,-1.583457e-08,0.0,0.0,0.0
10640000,0,6.393424e-05,7.5058975e-05,-1.587249e-08,0.0,0.0,0.0
10648000,0,6.3934276e-05,7.505897e-05,-1.5897772e-08,0.0,0.0,0.0
10660000,0,6.393431e-05,7.5058946e-05,-1.5935695e-08,0.0,0.0,0.0
10668000,0,6.3934356e-05,7.505894e-05,-1.5960975e-08,0.0,0.0,0.0
10680000,0,6.393439e-05,7.5058924e-05,-1.5998898e-08,0.0,0.0,0.0
10688000,0,6.393443e-05,7.505891e-05,-1.602418e-08,0.0,0.0,0.0
10700000,0,6.393447e-05,7.5058895e-05,-1.6062101e-08,0.0,0.0,0.0
10708000,0,6.393451e-05,7.505888e-05,-1.6087382e-08,0.0,0.0,0.0
10720000,0,6.393455e-05,7.5058866e-05,-1.6125304e-08,0.0,0.0,0.0
10728000,0,6.393458e-05,7.505886e-05,-1.6150585e-08,0.0,0.0,0.0
10740000,0,6.393463e-05,7.505884e-05,-1.6188507e-08,0.0,0.0,0.0
10748000,0,6.393466e-05,7.505883e-05,-1.621379e-08,0.0,0.0,0.0
10760000,0,6.3934705e-05,7.505881e-05,-1.6251711e-08,0.0,0.0,0.0
10768000,0,6.3934734e-05,7.50588e-05,-1.6276992e-08,0.0,0.0,0.0
10780000,0,6.3934785e-05,7.505878e-05,-1.6314914e-08,0.0,0.0,0.0
10788000,0,6.3934815e-05,7.505877e-05,-1.6340195e-08,0.0,0.0,0.0
10800000,0,6.393486e-05,7.505876e-05,-1.6378117e-08,0.0,0.0,0.0
10808000,0,6.393489e-05,7.505874e-05,-1.6403398e-08,0.0,0.0,0.0
10820000,0,6.393494e-05,7.505873e-05,-1.6441321e-08,0.0,0.0,0.0
10828000,0,6.393496e-05,7.505871e-05,-1.6466602e-08,0.0,0.0,0.0
10840000,0,6.393501e-05,7.50587e-05,-1.6504524e-08,0.0,0.0,0.0
10848000,0,6.393504e-05,7.5058684e-05,-1.6529805e-08,0.0,0.0,0.0
10860000,0,6.393509e-05,7.505867e-05,-1.6567727e-08,0.0,0.0,0.0
10868000,0,6.393512e-05,7.5058655e-05,-1.6593008e-08,0.0,0.0,0.0
10880000,0,6.3935164e-05,7.505864e-05,-1.6630931e-08,0.0,0.0,0.0
10888000,0,6.393519e-05,7.5058626e-05,-1.6656212e-08,0.0,0.0,0.0
10900000,0,6.3935244e-05,7.505861e-05,-1.6694134e-08,0.0,0.0,0.0
10908000,0,6.393527e-05,7.5058604e-05,-1.6719415e-08,0.0,0.0,0.0
10920000,0,6.393532e-05,7.505858e-05,-1.6757337e-08,0.0,0.0,0.0
10928000,0,6.3935346e-05,7.5058575e-05,-1.678262e-08,0.0,0.0,0.0
10940000,0,6.393539e-05,7.505855e-05,-1.6820541e-08,0.0,0.0,0.0
10948000,0,6.393542e-05,7.5058546e-05,-1.6845823e-08,0.0,0.0,0.0
10960000,0,6.393547e-05,7.5058524e-05,-1.6883744e-08,0.0,0.0,0.0
10968000,0,6.39355e-05,7.505852e-05,-1.6909025e-08,0.0,0.0,0.0
10980000,0,6.393555e-05,7.50585e-05,-1.6946947e-08,0.0,0.0,0.0
10988000,0,6.393557e-05,7.505849e-05,-1.6972228e-08,0.0,0.0,0.0
11000000,0,6.393562e-05,7.505847e-05,-1.701015e-08,0.0,0.0,0.0
11008000,0,6.393565e-05,7.505846e-05,-1.7035433e-08,0.0,0.0,0.0
11020000,0,6.3935695e-05,7.5058444e-05,-1.7073354e-08,0.0,0.0,0.0
11028000,0,6.3935724e-05,7.505843e-05,-1.7098635e-08,0.0,0.0,0.0
11040000,0,6.3935775e-05,7.5058415e-05,-1.7136557e-08,0.0,0.0,0.0
11048000,0,6.3935804e-05,7.50584e-05,-1.7161838e-08,0.0,0.0,0.0
11060000,0,6.393585e-05,7.5058386e-05,-1.719976e-08,0.0,0.0,0.0
11068000,0,6.3935884e-05,7.505837e-05,-1.7225043e-08,0.0,0.0,0.0
11080000,0,6.393593e-05,7.505836e-05,-1.7262964e-08,0.0,0.0,0.0
11088000,0,6.393596e-05,7.505835e-05,-1.7288246e-08,0.0,0.0,0.0
11100000,0,6.3936e-05,7.505833e-05,-1.7326167e-08,0.0,0.0,0.0
11108000,0,6.393604e-05,7.505832e-05,-1.7351448e-08,0.0,0.0,0.0
11120000,0,6.393608e-05,7.50583e-05,-1.738937e-08,0.0,0.0,0.0
11128000,0,6.393612e-05,7.505829e-05,-1.7414651e-08,0.0,0.0,0.0
11140000,0,6.393615e-05,7.505828e-05,-1.7452574e-08,0.0,0.0,0.0
11148000,0,6.39362e-05,7.505826e-05,-1.7477854e-08,0.0,0.0,0.0
11160000,0,6.393623e-05,7.505825e-05,-1.7515777e-08,0.0,0.0,0.0
11168000,0,6.393627e-05,7.505823e-05,-1.7541058e-08,0.0,0.0,0.0
11180000,0,6.393631e-05,7.505822e-05,-1.757898e-08,0.0,0.0,0.0
11188000,0,6.393635e-05,7.5058204e-05,-1.7604261e-08,0.0,0.0,0.0
11200000,0,6.3936386e-05,7.505819e-05,-1.7642183e-08,0.0,0.0,0.0
11208000,0,6.393642e-05,7.505818e-05,-1.7667464e-08,0.0,0.0,0.0
11220000,0,6.393647e-05,7.505816e-05,-1.7705386e-08,0.0,0.0,0.0
11228000,0,6.39365e-05,7.505815e-05,-1.7730668e-08,0.0,0.0,0.0
11240000,0,6.3936546e-05,7.505813e-05,-1.776859e-08,0.0,0.0,0.0
11248000,0,6.3936575e-05,7.5058124e-05,-1.7793871e-08,0.0,0.0,0.0
11260000,0,6.3936626e-05,7.50581e-05,-1.7831793e-08,0.0,0.0,0.0
11268000,0,6.3936655e-05,7.5058095e-05,-1.7857074e-08,0.0,0.0,0.0
11280000,0,6.39367e-05,7.505808e-05,-1.7894996e-08,0.0,0.0,0.0
11288000,0,6.393673e-05,7.5058066e-05,-1.7920277e-08,0.0,0.0,0.0
11300000,0,6.393678e-05,7.505805e-05,-1.79582e-08,0.0,0.0,0.0
11308000,0,6.39368e-05,7.505804e-05,-1.7983481e-08,0.0,0.0,0.0
11320000,0,6.393685e-05,7.505802e-05,-1.8021403e-08,0.0,0.0,0.0
11328000,0,6.393688e-05,7.505801e-05,-1.8046684e-08,0.0,0.0,0.0
11340000,0,6.393693e-05,7.505799e-05,-1.8084606e-08,0.0,0.0,0.0
11348000,0,6.3936954e-05,7.505798e-05,-1.8109887e-08,0.0,0.0,0.0
11360000,0,6.3937005e-05,7.5057964e-05,-1.8147809e-08,0.0,0.0,0.0
11368000,0,6.3937034e-05,7.505795e-05,-1.8173091e-08,0.0,0.0,0.0
11380000,0,6.3937085e-05,7.5057935e-05,-1.8211013e-08,0.0,0.0,0.0
11388000,0,6.393711e-05,7.505793e-05,-1.8236294e-08,0.0,0.0,0.0
11400000,0,6.393716e-05,7.5057906e-05,-1.8274216e-08,0.0,0.0,0.0
11408000,0,6.393719e-05,7.50579e-05,-1.8299497e-08,0.0,0.0,0.0
11420000,0,6.393723e-05,7.505788e-05,-1.8337419e-08,0.0,0.0,0.0
11428000,0,6.393726e-05,7.505787e-05,-1.8362702e-08,0.0,0.0,0.0
11440000,0,6.393731e-05,7.505785e-05,-1.8400623e-08,0.0,0.0,0.0
11448000,0,6.393734e-05,7.505784e-05,-1.8425904e-08,0.0,0.0,0.0
11460000,0,6.393738e-05,7.5057826e-05,-1.8463826e-08,0.0,0.0,0.0
11468000,0,6.393741e-05,7.505781e-05,-1.8489107e-08,0.0,0.0,0.0
11480000,0,6.393746e-05,7.50578e-05,-1.8527029e-08,0.0,0.0,0.0
11488000,0,6.393749e-05,7.505778e-05,-1.8552312e-08,0.0,0.0,0.0
11500000,0,6.3937536e-05,7.505777e-05,-1.8590233e-08,0.0,0.0,0.0
11508000,0,6.3937565e-05,7.505775e-05,-1.8615514e-08,0.0,0.0,0.0
11520000,0,6.3937616e-05,7.505774e-05,-1.8653436e-08,0.0,0.0,0.0
11528000,0,6.3937645e-05,7.5057724e-05,-1.8678717e-08,0.0,0.0,0.0
11540000,0,6.393769e-05,7.505771e-05,-1.8716639e-08,0.0,0.0,0.0
11548000,0,6.393772e-05,7.5057695e-05,-1.874192e-08,0.0,0.0,0.0
11560000,0,6.393777e-05,7.505768e-05,-1.8779843e-08,0.0,0.0,0.0
11568000,0,6.39378e-05,7.5057666e-05,-1.8805125e-08,0.0,0.0,0.0
11580000,0,6.393784e-05,7.505765e-05,-1.8843046e-08,0.0,0.0,0.0
11588000,0,6.393787e-05,7.5057644e-05,-1.8868327e-08,0.0,0.0,0.0
11600000,0,6.393792e-05,7.505762e-05,-1.8906249e-08,0.0,0.0,0.0
11608000,0,6.393795e-05,7.5057615e-05,-1.893153e-08,0.0,0.0,0.0
11620000,0,6.3937994e-05,7.505759e-05,-1.8969452e-08,0.0,0.0,0.0
11628000,0,6.393803e-05,7.5057585e-05,-1.8994733e-08,0.0,0.0,0.0
11640000,0,6.3938074e-05,7.5057564e-05,-1.9032656e-08,0.0,0.0,0.0
11648000,0,6.393811e-05,7.505756e-05,-1.9057936e-08,0.0,0.0,0.0
11660000,0,6.393815e-05,7.505754e-05,-1.909586e-08,0.0,0.0,0.0
11668000,0,6.393818e-05,7.505753e-05,-1.912114e-08,0.0,0.0,0.0
11680000,0,6.393823e-05,7.505751e-05,-1.9159062e-08,0.0,0.0,0.0
11688000,0,6.393826e-05,7.50575e-05,-1.9184343e-08,0.0,0.0,0.0
11700000,0,6.39383e-05,7.505748e-05,-1.9222265e-08,0.0,0.0,0.0
11708000,0,6.3938336e-05,7.505747e-05,-1.9247546e-08,0.0,0.0,0.0
11720000,0,6.393839e-05,7.5057455e-05,-1.9285467e-08,0.0,0.0,0.0
11728000,0,6.3938416e-05,7.505745e-05,-1.931075e-08,0.0,0.0,0.0
11740000,0,6.393846e-05,7.5057425e-05,-1.9348672e-08,0.0,0.0,0.0
11748000,0,6.393849e-05,7.505742e-05,-1.9373953e-08,0.0,0.0,0.0
11760000,0,6.393854e-05,7.5057396e-05,-1.9411875e-08,0.0,0.0,0.0
11768000,0,6.393857e-05,7.505739e-05,-1.9437156e-08,0.0,0.0,0.0
11780000,0,6.393861e-05,7.505737e-05,-1.9475078e-08,0.0,0.0,0.0
11788000,0,6.393864e-05,7.505736e-05,-1.9500359e-08,0.0,0.0,0.0
11800000,0,6.393869e-05,7.5057345e-05,-1.9538282e-08,0.0,0.0,0.0
11808000,0,6.3938714e-05,7.505733e-05,-1.9563563e-08,0.0,0.0,0.0
11820000,0,6.3938765e-05,7.5057316e-05,-1.9601485e-08,0.0,0.0,0.0
11828000,0,6.3938794e-05,7.50573e-05,-1.9626766e-08,0.0,0.0,0.0
11840000,0,6.3938845e-05,7.505729e-05,-1.9664688e-08,0.0,0.0,0.0
11848000,0,6.393887e-05,7.505727e-05,-1.9689969e-08,0.0,0.0,0.0
11860000,0,6.393892e-05,7.505726e-05,-1.972789e-08,0.0,0.0,0.0
11868000,0,6.393895e-05,7.505724e-05,-1.9753173e-08,0.0,0.0,0.0
11880000,0,6.3939e-05,7.505723e-05,-1.9791095e-08,0.0,0.0,0.0
11888000,0,6.393902e-05,7.5057214e-05,-1.9816376e-08,0.0,0.0,0.0
11900000,0,6.393907e-05,7.50572e-05,-1.9854298e-08,0.0,0.0,0.0
11908000,0,6.39391e-05,7.5057185e-05,-1.9879579e-08,0.0,0.0,0.0
11920000,0,6.3939144e-05,7.505717e-05,-1.99175e-08,0.0,0.0,0.0
11928000,0,6.393917e-05,7.5057156e-05,-1.9942782e-08,0.0,0.0,0.0
11940000,0,6.3939224e-05,7.505714e-05,-1.9980705e-08,0.0,0.0,0.0
11948000,0,6.393925e-05,7.5057134e-05,-2.0005986e-08,0.0,0.0,0.0
11960000,0,6.39393e-05,7.505711e-05,-2.0043908e-08,0.0,0.0,0.0
11968000,0,6.3939326e-05,7.5057105e-05,-2.0069189e-08,0.0,0.0,0.0
11980000,0,6.393938e-05,7.505708e-05,-2.010711e-08,0.0,0.0,0.0
11988000,0,6.3939406e-05,7.5057076e-05,-2.0132392e-08,0.0,0.0,0.0
12000000,0,6.393945e-05,7.505706e-05,-2.0170313e-08,0.0,0.0,0.0
12008000,0,6.393948e-05,7.505705e-05,-2.0195596e-08,0.0,0.0,0.0
12020000,0,6.393952e-05,7.505703e-05,-2.0233518e-08,0.0,0.0,0.0
12028000,0,6.393956e-05,7.505702e-05,-2.0258799e-08,0.0,0.0,0.0
12040000,0,6.39396e-05,7.5057e-05,-2.029672e-08,0.0,0.0,0.0
12048000,0,6.393963e-05,7.505699e-05,-2.0322002e-08,0.0,0.0,0.0
12060000,0,6.3939675e-05,7.5056974e-05,-2.0359924e-08,0.0,0.0,0.0
12068000,0,6.393971e-05,7.505696e-05,-2.0385205e-08,0.0,0.0,0.0
12080000,0,6.3939755e-05,7.5056945e-05,-2.0423126e-08,0.0,0.0,0.0
12088000,0,6.3939784e-05,7.505693e-05,-2.044841e-08,0.0,0.0,0.0
12100000,0,6.393983e-05,7.5056916e-05,-2.048633e-08,0.0,0.0,0.0
12108000,0,6.393987e-05,7.505691e-05,-2.0511612e-08,0.0,0.0,0.0
12120000,0,6.393991e-05,7.505689e-05,-2.0549534e-08,0.0,0.0,0.0
12128000,0,6.3939944e-05,7.505688e-05,-2.0574815e-08,0.0,0.0,0.0
12140000,0,6.393998e-05,7.505686e-05,-2.0612736e-08,0.0,0.0,0.0
12148000,0,6.3940024e-05,7.505685e-05,-2.0638018e-08,0.0,0.0,0.0
12160000,0,6.394006e-05,7.505683e-05,-2.0675941e-08,0.0,0.0,0.0
12168000,0,6.39401e-05,7.505682e-05,-2.070122e-08,0.0,0.0,0.0
12180000,0,6.394013e-05,7.50568e-05,-2.0739144e-08,0.0,0.0,0.0
12188000,0,6.394018e-05,7.505679e-05,-2.0764425e-08,0.0,0.0,0.0
12200000,0,6.394021e-05,7.505677e-05,-2.0802347e-08,0.0,0.0,0.0
12208000,0,6.394025e-05,7.505676e-05,-2.0827628e-08,0.0,0.0,0.0
12220000,0,6.39403e-05,7.505675e-05,-2.086555e-08,0.0,0.0,0.0
12228000,0,6.394033e-05,7.5056734e-05,-2.089083e-08,0.0,0.0,0.0
12240000,0,6.394037e-05,7.505672e-05,-2.0928752e-08,0.0,0.0,0.0
12248000,0,6.39404e-05,7.5056705e-05,-2.0954033e-08,0.0,0.0,0.0
12260000,0,6.394045e-05,7.505669e-05,-2.0991957e-08,0.0,0.0,0.0
12268000,0,6.394048e-05,7.5056676e-05,-2.1017238e-08,0.0,0.0,0.0
12280000,0,6.3940526e-05,7.505666e-05,-2.105516e-08,0.0,0.0,0.0
12288000,0,6.3940555e-05,7.505665e-05,-2.108044e-08,0.0,0.0,0.0
12300000,0,6.3940606e-05,7.505663e-05,-2.1118362e-08,0.0,0.0,0.0
12308000,0,6.394063e-05,7.505662e-05,-2.1143643e-08,0.0,0.0,0.0
12320000,0,6.394068e-05,7.50566e-05,-2.1181565e-08,0.0,0.0,0.0
12328000,0,6.394071e-05,7.5056596e-05,-2.1206848e-08,0.0,0.0,0.0
12340000,0,6.394075e-05,7.5056574e-05,-2.124477e-08,0.0,0.0,0.0
12348000,0,6.394078e-05,7.505657e-05,-2.127005e-08,0.0,0.0,0.0
12360000,0,6.394083e-05,7.5056545e-05,-2.1307972e-08,0.0,0.0,0.0
12368000,0,6.394086e-05,7.505654e-05,-2.1333253e-08,0.0,0.0,0.0
12380000,0,6.3940905e-05,7.505652e-05,-2.1371175e-08,0.0,0.0,0.0
12388000,0,6.394093e-05,7.505651e-05,-2.1396456e-08,0.0,0.0,0.0
12400000,0,6.394098e-05,7.5056494e-05,-2.1434378e-08,0.0,0.0,0.0
12408000,0,6.394101e-05,7.505648e-05,-2.145966e-08,0.0,0.0,0.0
12420000,0,6.394106e-05,7.5056465e-05,-2.1497582e-08,0.0,0.0,0.0
12428000,0,6.394109e-05,7.505645e-05,-2.1522863e-08,0.0,0.0,0.0
12440000,0,6.394113e-05,7.5056436e-05,-2.1560785e-08,0.0,0.0,0.0
12448000,0,6.394116e-05,7.505642e-05,-2.1586066e-08,0.0,0.0,0.0
12460000,0,6.394121e-05,7.505641e-05,-2.1623988e-08,0.0,0.0,0.0
12468000,0,6.394124e-05,7.505639e-05,-2.1649269e-08,0.0,0.0,0.0
12480000,0,6.394128e-05,7.505638e-05,-2.168719e-08,0.0,0.0,0.0
12488000,0,6.394131e-05,7.505636e-05,-2.1712474e-08,0.0,0.0,0.0
12500000,0,6.394136e-05,7.505635e-05,-2.1750395e-08,0.0,0.0,0.0
12508000,0,6.394139e-05,7.5056334e-05,-2.1775676e-08,0.0,0.0,0.0
12520000,0,6.3941436e-05,7.505632e-05,-2.1813598e-08,0.0,0.0,0.0
12528000,0,6.3941465e-05,7.5056305e-05,-2.183888e-08,0.0,0.0,0.0
12540000,0,6.394151e-05,7.505629e-05,-2.18768e-08,0.0,0.0,0.0
12548000,0,6.3941545e-05,7.505628e-05,-2.1902082e-08,0.0,0.0,0.0
12560000,0,6.394159e-05,7.505626e-05,-2.1940004e-08,0.0,0.0,0.0
12568000,0,6.394162e-05,7.5056254e-05,-2.1965286e-08,0.0,0.0,0.0
12580000,0,6.394166e-05,7.505623e-05,-2.2003208e-08,0.0,0.0,0.0
12588000,0,6.39417e-05,7.5056225e-05,-2.202849e-08,0.0,0.0,0.0
12600000,0,6.394174e-05,7.50562e-05,-2.2066411e-08,0.0,0.0,0.0
12608000,0,6.394178e-05,7.5056196e-05,-2.2091692e-08,0.0,0.0,0.0
12620000,0,6.3941814e-05,7.5056174e-05,-2.2129614e-08,0.0,0.0,0.0
12628000,0,6.394186e-05,7.505617e-05,-2.2154895e-08,0.0,0.0,0.0
12640000,0,6.3941894e-05,7.505615e-05,-2.2192816e-08,0.0,0.0,0.0
12648000,0,6.394193e-05,7.505614e-05,-2.2218098e-08,0.0,0.0,0.0
12660000,0,6.394197e-05,7.505612e-05,-2.2256021e-08,0.0,0.0,0.0
12668000,0,6.394201e-05,7.505611e-05,-2.2281302e-08,0.0,0.0,0.0
12680000,0,6.394205e-05,7.5056094e-05,-2.2319224e-08,0.0,0.0,0.0
12688000,0,6.394208e-05,7.505608e-05,-2.2344505e-08,0.0,0.0,0.0
