timestamp,timestamp_sample,xyz[0],xyz[1],xyz[2]
3228000,3228000,0.0008579367,0.0010218772,0.00038851248
3232000,3232000,0.0012378657,0.0010063108,0.00036167607
3248000,3248000,0.0007464185,0.001023985,-0.00011424429
3268000,3268000,0.0007466166,0.0011273002,-0.00019246455
3288000,3288000,0.00055772276,0.0007188115,0.0003263529
3308000,3308000,-0.0011379025,0.0010142928,-1.5110473e-05
3328000,3328000,-0.0003897025,0.00014691433,-3.6907142e-05
3344000,3344000,0.0010342007,-0.00022010427,-0.00022120606
3368000,3368000,-0.00021610026,-0.0001971123,0.0002292809
3388000,3388000,-5.4373013e-05,0.000806983,-9.916998e-05
3404000,3404000,6.604097e-05,0.001300006,0.00018674474
3424000,3424000,0.000604715,0.0011806324,0.000238572
3448000,3448000,1.4376725e-05,9.172733e-05,1.3589036e-05
3468000,3468000,0.02255258,0.025712248,-9.815346e-05
3488000,3488000,0.021712994,0.023714982,0.00023684806
3508000,3508000,0.020616625,0.023485037,0.00012917053
3528000,3528000,0.020399362,0.023834763,0.0003406702
3548000,3548000,0.021234928,0.023389503,2.6254764e-05
3568000,3568000,0.019828595,0.02371804,2.2213348e-05
3588000,3588000,0.019601151,0.024946708,0.00031617223
3608000,3608000,0.020713693,0.022443164,0.0001813496
3628000,3628000,0.01869792,0.023907723,0.00043662894
3648000,3648000,0.020367766,0.024171043,0.00023195262
3668000,3668000,0.01839049,0.02368935,0.00025408316
3688000,3688000,0.019002944,0.023138639,0.0002559276
3708000,3708000,0.019909848,0.023579933,0.00042760881
3728000,3728000,0.019537942,0.022908514,9.458039e-05
3748000,3748000,0.019016968,0.024018193,0.00034428347
3764000,3764000,0.019245986,0.023506368,0.00057707925
3784000,3784000,0.020296765,0.023737863,0.0002295483
3804000,3804000,0.020051325,0.02335972,-3.7394464e-05
3824000,3824000,0.020915242,0.022388494,0.0005059369
3844000,3844000,0.020351438,0.024151707,0.00017194966
3864000,3864000,0.019825803,0.023503542,-0.00017141986
3888000,3888000,0.019767493,0.022841578,-0.00047521407
3908000,3908000,0.019224215,0.023452548,0.00029598104
3928000,3928000,0.01955333,0.024646007,-0.0002782056
3944000,3944000,0.01891813,0.023794724,2.0596433e-06
3964000,3964000,0.020088315,0.025246415,0.00045235112
3988000,3988000,0.019079959,0.023982394,0.0002305004
4004000,4004000,0.020269534,0.02427405,0.00018290899
4024000,4024000,0.020385405,0.023188034,3.765243e-05
4048000,4048000,0.018445395,0.02330742,0.00048560236
4068000,4068000,0.019053737,0.024652423,0.0004927708
4084000,4084000,0.021276787,0.022704368,0.00092634466
4108000,4108000,0.018704824,0.023978822,0.00014379126
4124000,4124000,0.020493826,0.022725627,0.0009664019
4148000,4148000,0.019931609,0.023749448,0.00014602144
4168000,4168000,0.020490495,0.021710351,0.0005221965
4188000,4188000,0.020141967,0.023209497,4.1399733e-05
4208000,4208000,0.018673623,0.022550412,0.000110275556
4228000,4228000,0.018986417,0.023364123,-2.9743533e-06
4248000,4248000,0.019383032,0.022916215,0.00044844826
4268000,4268000,0.019728113,0.023588793,9.985e-05
4288000,4288000,0.01879365,0.023200342,-7.7147226e-05
4308000,4308000,0.020176489,0.022681696,0.0003696783
4328000,4328000,0.019484717,0.021971801,-0.00016088726
4348000,4348000,0.01908907,0.023415476,-9.528357e-05
4368000,4368000,0.018914882,0.022686392,0.00034527617
4388000,4388000,0.020802286,0.021920212,0.0002909435
4408000,4408000,0.01968924,0.022135483,0.00029828283
4424000,4424000,0.01934218,0.02303962,-0.00035279818
4448000,4448000,0.019894958,0.021347206,-0.00028156146
4468000,4468000,0.019150516,0.02130376,0.00013196228
4488000,4488000,0.020205773,0.022116933,0.00014830935
4504000,4504000,0.018898353,0.021234944,-2.34387e-05
4528000,4528000,0.019308077,0.02247431,-1.795832e-05
4544000,4544000,0.019283963,0.022253023,-0.00028509062
4568000,4568000,0.019628633,0.022450758,-0.00046129414
4588000,4588000,0.01960221,0.020961436,-0.00034997906
4608000,4608000,0.019806456,0.020616036,-1.5070243e-05
4624000,4624000,0.01986409,0.021541951,-0.00020230061
4648000,4648000,0.019525906,0.02259128,0.00032192847
4668000,4668000,0.020317802,0.020898683,-0.00030222532
4688000,4688000,0.01909762,0.021033514,0.0007062095
4708000,4708000,0.019643864,0.0207528,1.246963e-05
4728000,4728000,0.019299211,0.022265987,-5.056779e-05
4744000,4744000,0.019625874,0.02104963,-0.00023760875
4768000,4768000,0.019339098,0.021496957,0.00015368286
4784000,4784000,0.018589746,0.021480916,0.0004278916
4808000,4808000,0.017569046,0.021579156,0.0002929076
4828000,4828000,0.019153293,0.020727444,0.0009912808
4848000,4848000,0.018026486,0.020387733,0.00024418716
4868000,4868000,0.01930454,0.021333361,8.681667e-05
4888000,4888000,0.018908167,0.020958928,0.00025103762
4908000,4908000,0.018072328,0.020766243,7.303483e-05
4928000,4928000,0.018383082,0.020823207,0.0003194836
4944000,4944000,0.019517317,0.02044372,0.0007760032
4968000,4968000,0.017734285,0.02080659,0.0003947416
4988000,4988000,0.018983543,0.021165047,0.00016488919
5008000,5008000,0.0175873,0.02002578,0.00015919084
5028000,5028000,0.01830738,0.020102277,-0.00010851142
5044000,5044000,0.017764334,0.020988114,0.0007226157
5068000,5068000,0.017825399,0.021047644,0.00057836884
5088000,5088000,0.017090518,0.021007193,0.0005299814
5108000,5108000,0.018925179,0.020751685,0.0005598234
5128000,5128000,0.018088443,0.02050608,0.00013351665
5148000,5148000,0.01717526,0.020144453,0.0002974261
5164000,5164000,0.018320598,0.020973627,0.00070496055
5188000,5188000,0.017222123,0.021575658,-0.00011858519
5208000,5208000,0.017943982,0.020399254,0.00074841623
5228000,5228000,0.017265439,0.021450294,0.00034830646
5248000,5248000,0.01845984,0.021150257,-0.00039905673
5268000,5268000,0.017001957,0.020618675,-0.0003507603
5288000,5288000,0.017645571,0.02133313,0.0009830137
5308000,5308000,0.017707992,0.020904055,0.0002277906
5328000,5328000,0.017569285,0.020722575,0.0008959663
5348000,5348000,0.017580612,0.019817695,-3.8585742e-05
5368000,5368000,0.017832356,0.020585949,0.00011052569
5388000,5388000,0.016260667,0.02040161,0.00074939936
5408000,5408000,0.017901026,0.02058634,9.302704e-05
5428000,5428000,0.017489856,0.02082535,0.0006106999
5448000,5448000,0.0176332,0.021275736,0.0004320667
5468000,5468000,0.017703533,0.020997388,-1.8098788e-05
5488000,5488000,0.017271077,0.02050645,0.00063350936
5508000,5508000,0.017091414,0.020325186,0.00046969028
5524000,5524000,0.018209131,0.020878468,-3.4082517e-05
5548000,5548000,0.017046602,0.02043604,0.000268978
5568000,5568000,0.017955467,0.020210693,0.0005656094
5588000,5588000,0.01782749,0.021876952,0.000231507
5608000,5608000,0.017232986,0.020354737,0.00022901851
5624000,5624000,0.017990362,0.020918466,0.001322773
5648000,5648000,0.01801759,0.020507718,0.00040015095
5668000,5668000,0.018351916,0.02040429,0.0006456219
5684000,5684000,0.017461037,0.02001367,0.00021693514
5704000,5704000,0.017553683,0.019956317,0.00034581075
5724000,5724000,0.018945204,0.021524437,0.00060902006
5744000,5744000,0.017772824,0.020091796,0.00058896793
5768000,5768000,0.017521655,0.020242283,-0.00012219655
5788000,5788000,0.01776492,0.020837309,0.00024564093
5804000,5804000,0.018783135,0.020213567,0.00065751997
5824000,5824000,0.0182371,0.021007841,0.00041272808
5848000,5848000,0.017305255,0.02025974,0.00084831734
5864000,5864000,0.018060323,0.020964246,0.0007490634
5888000,5888000,0.017597007,0.020689461,0.00045025238
5904000,5904000,0.017727746,0.019652385,0.00058050145
5928000,5928000,0.017983958,0.020533644,0.00025462345
5944000,5944000,0.017727993,0.02102851,0.0005305331
5964000,5964000,0.018516064,0.02052088,-5.3949657e-06
5984000,5984000,0.017038064,0.020168347,-1.1705444e-05
6008000,6008000,0.017926596,0.021012848,0.00022988165
6024000,6024000,0.018627558,0.019709345,0.00047232435
6048000,6048000,0.017708225,0.018889694,-0.000126471
6064000,6064000,0.017827323,0.020342704,3.667355e-05
6088000,6088000,0.018661454,0.020215027,0.00064393313
6108000,6108000,0.016562948,0.019285828,0.00043231566
6128000,6128000,0.018370112,0.019418309,0.00021359064
6148000,6148000,0.019306323,0.019844834,0.00043467034
6168000,6168000,0.017296907,0.02162795,0.0006745387
6188000,6188000,0.017332273,0.019740509,0.00052895024
6208000,6208000,0.017882641,0.02131219,0.0007021219
6228000,6228000,0.017671203,0.019495074,0.00014346803
6248000,6248000,0.017892538,0.020364268,0.00035214276
6268000,6268000,0.017826729,0.022525627,0.000287896
6288000,6288000,0.01725661,0.01951615,0.00036995055
6308000,6308000,0.017718365,0.020779327,0.00017929623
6328000,6328000,0.017627645,0.021645121,0.00047805245
6348000,6348000,0.017109934,0.020528765,0.00037979032
6368000,6368000,0.01721251,0.020784857,0.0005332755
6388000,6388000,0.017464286,0.019397726,0.0005455222
6408000,6408000,0.017580977,0.021255963,0.00045415424
6428000,6428000,0.017419485,0.019907523,0.00048791716
6444000,6444000,0.01764923,0.020119324,0.00077493937
6468000,6468000,0.018045269,0.020219902,-0.00038684322
6488000,6488000,0.017591005,0.02033231,0.0009439719
6504000,6504000,0.017706197,0.02041676,0.0007825737
6528000,6528000,0.01752768,0.019988663,0.00062038156
6548000,6548000,0.01801458,0.019891221,0.00043559447
6568000,6568000,0.016232114,0.02019712,8.386453e-05
6588000,6588000,0.017254615,0.021092623,-3.8527465e-05
6608000,6608000,0.017545445,0.020804264,0.00092960504
6628000,6628000,0.016297588,0.02127399,-1.868289e-05
6644000,6644000,0.017626993,0.020022225,0.00041124012
6668000,6668000,0.01652132,0.020267991,0.0007414447
6688000,6688000,0.017422972,0.021629252,0.00024533115
6708000,6708000,0.017016616,0.021406788,0.00090182974
6728000,6728000,0.015950587,0.020436386,0.0006629064
6748000,6748000,0.017270083,0.021083687,0.0004128452
6768000,6768000,0.017911619,0.019884828,0.000561782
6788000,6788000,0.017307816,0.020548347,0.0005214147
6804000,6804000,0.016596653,0.020705242,0.00050750945
6828000,6828000,0.017162064,0.021127477,0.0006726611
6844000,6844000,0.016347945,0.020907646,0.001030428
6864000,6864000,0.017436983,0.020650517,0.0004290377
6884000,6884000,0.01565361,0.020542545,0.00029884285
6908000,6908000,0.018264534,0.019715441,0.00018680499
6928000,6928000,0.016480146,0.021887148,0.00057040306
6948000,6948000,0.017310094,0.02020619,0.00023672667
6968000,6968000,0.016936366,0.02071406,0.0008845605
6988000,6988000,0.016778583,0.019736366,0.00057752064
7008000,7008000,0.017051376,0.020537417,0.00033178134
7028000,7028000,0.01704081,0.021346908,0.00034414485
7048000,7048000,0.018006494,0.020541178,0.0008516488
7068000,7068000,0.01663324,0.019952543,0.00064891233
7088000,7088000,0.017831521,0.020729985,0.00074052037
7108000,7108000,0.01637047,0.019878307,0.0011138313
7128000,7128000,0.017455181,0.019283433,0.0010579076
7148000,7148000,0.017039591,0.021481235,0.0011091994
7168000,7168000,0.01749193,0.021287886,0.000496395
7188000,7188000,0.017106576,0.019355433,7.666461e-06
7208000,7208000,0.016879393,0.021745712,0.0013701742
7224000,7224000,0.018078033,0.021039642,0.0005583792
7244000,7244000,0.016271569,0.020831656,0.0012445642
7264000,7264000,0.017112967,0.02052797,0.00063987303
7284000,7284000,0.017022105,0.020391565,0.0006801138
7308000,7308000,0.017001495,0.020800186,0.00048678156
7328000,7328000,0.016262451,0.020727575,0.00062041753
7348000,7348000,0.016671883,0.021364259,0.00043979587
7368000,7368000,0.01625633,0.02046128,0.0008402466
7388000,7388000,0.018010797,0.021209175,0.00067852525
7404000,7404000,0.016800264,0.019881703,0.0005122155
7424000,7424000,0.017432207,0.02197126,0.0008508915
7448000,7448000,0.01660461,0.020459004,0.0010465594
7464000,7464000,0.017278105,0.02156932,0.0010298643
7484000,7484000,0.017268913,0.019987833,0.00046299142
7504000,7504000,0.017533757,0.021059142,0.0006812197
7528000,7528000,0.01698015,0.020009054,0.0014009982
7548000,7548000,0.0169434,0.021276914,0.00090420584
7568000,7568000,0.017325174,0.020249808,0.00045180056
7588000,7588000,0.0165996,0.020391177,0.0016220391
7608000,7608000,0.0172415,0.020715622,0.00051329396
7628000,7628000,0.018209836,0.020111531,0.00074517546
7648000,7648000,0.016397668,0.020179665,0.00091226056
7668000,7668000,0.017892316,0.020933319,0.00035476102
7688000,7688000,0.017780883,0.020205421,0.0005755233
7708000,7708000,0.017387414,0.021811124,0.000164703
7728000,7728000,0.017877463,0.019796817,0.0010056294
7748000,7748000,0.01763058,0.021109352,0.0009657062
7764000,7764000,0.017110424,0.020201461,0.0005881294
7788000,7788000,0.016791599,0.020898134,0.00077272294
7808000,7808000,0.017232608,0.019621352,0.00077687023
7828000,7828000,0.018653445,0.020009413,0.00022015293
7848000,7848000,0.016850675,0.021512615,0.00087101705
7868000,7868000,0.016501887,0.021228325,0.00035171572
7888000,7888000,0.018174706,0.020339618,0.00047844648
7908000,7908000,0.016958436,0.020256156,0.00077724643
7928000,7928000,0.017439682,0.020495273,0.0012795163
7944000,7944000,0.017283851,0.020043265,0.0008327178
7968000,7968000,0.017787157,0.020263014,0.00066085905
7988000,7988000,0.017457817,0.019481428,0.0006842175
8008000,8008000,0.017543083,0.02051331,0.0005776346
8028000,8028000,0.01753295,0.0201998,0.0007999977
8048000,8048000,0.01754422,0.0217255,0.001165905
8064000,8064000,0.016965054,0.019944668,0.0008194119
8088000,8088000,0.017337022,0.02149256,0.0010538951
8108000,8108000,0.01743686,0.020053053,0.0011923487
8124000,8124000,0.01766919,0.019461712,0.0010126039
8148000,8148000,0.017356036,0.020903721,0.0012068674
8168000,8168000,0.016370336,0.020471508,0.0009331894
8188000,8188000,0.017389428,0.019554844,0.0007714983
8204000,8204000,0.017593121,0.019461187,0.0006426456
8228000,8228000,0.017931381,0.019690612,0.0006303903
8244000,8244000,0.017483115,0.01996504,0.0007743381
8268000,8268000,0.016981518,0.020819928,0.0012032251
8288000,8288000,0.018332638,0.02113701,0.00061529013
8308000,8308000,0.016747395,0.020080604,0.0005563238
8328000,8328000,0.015915876,0.019669533,0.00053664664
8348000,8348000,0.016633166,0.01950241,0.0009797442
8364000,8364000,0.018190552,0.020525273,0.0012995313
8388000,8388000,0.017795665,0.020874202,0.0007514295
8408000,8408000,0.01756877,0.020552635,0.0011782752
8428000,8428000,0.017417448,0.020995269,0.0011315079
8448000,8448000,0.01686084,0.020022571,0.00043940946
8468000,8468000,0.017902441,0.019623721,0.00076223665
8488000,8488000,0.017222699,0.02042563,0.00079784024
8508000,8508000,0.016502013,0.019134784,0.001174594
8528000,8528000,0.017642856,0.019966502,0.00039525973
8548000,8548000,0.016580509,0.019739427,0.0006798265
8568000,8568000,0.017389052,0.02066256,0.00079261494
8588000,8588000,0.017108865,0.020366583,0.0009838557
8608000,8608000,0.016920697,0.02076432,0.0007249253
8628000,8628000,0.017735997,0.020795427,0.0005323278
8648000,8648000,0.018561801,0.02074237,0.00071636465
8668000,8668000,0.016502177,0.020149969,0.0008542421
8688000,8688000,0.017432684,0.019390188,0.0005974168
8708000,8708000,0.018139053,0.020640813,0.0012890095
8728000,8728000,0.017558495,0.020543696,0.00046445854
8748000,8748000,0.0174663,0.021078598,0.000730914
8768000,8768000,0.01698154,0.020000532,0.0011573522
8788000,8788000,0.017639969,0.020206982,0.0007650082
8808000,8808000,0.017693494,0.019390525,0.0008772434
8828000,8828000,0.017065516,0.021023817,0.00079137244
8848000,8848000,0.01696738,0.020162076,0.00078844157
8868000,8868000,0.017514609,0.018855158,0.00095298974
8888000,8888000,0.017006341,0.02180102,0.0009237907
8904000,8904000,0.015746849,0.0200259,0.0005433591
8928000,8928000,0.0180895,0.020712538,0.0007125286
8948000,8948000,0.01709023,0.020449683,0.00071224605
8968000,8968000,0.017051438,0.019916944,0.00033556917
8984000,8984000,0.016575381,0.021192933,0.00037437407
9008000,9008000,0.018074954,0.019868618,0.000762606
9028000,9028000,0.018245745,0.020242967,0.00067168276
9048000,9048000,0.016633198,0.02030735,0.0006829218
9068000,9068000,0.01797656,0.02037142,0.0005473728
9088000,9088000,0.016876312,0.019714767,0.00054632087
9108000,9108000,0.017181067,0.020290436,0.0006181097
9128000,9128000,0.017593069,0.019053219,0.000993071
9148000,9148000,0.018393971,0.020766646,0.00019934394
9168000,9168000,0.017509062,0.020371316,0.0005021388
9188000,9188000,0.016961852,0.019768834,0.00058403047
9208000,9208000,0.017582979,0.019934023,0.00043839557
9228000,9228000,0.017546672,0.019364482,0.0013795631
9248000,9248000,0.017422283,0.02016712,-2.2938568e-05
9268000,9268000,0.016918318,0.02031309,0.00036954728
9288000,9288000,0.01677822,0.020262463,0.0005206835
9308000,9308000,0.017751683,0.02073754,0.0005126313
9328000,9328000,0.01795902,0.018700987,4.2233758e-05
9348000,9348000,0.017409995,0.020695264,0.00066338544
9368000,9368000,0.017148191,0.020636754,0.00055256544
9388000,9388000,0.017262606,0.021061277,0.0005591356
9404000,9404000,0.017758828,0.01842761,0.00029510274
9428000,9428000,0.017119326,0.018811988,-2.7680491e-05
9444000,9444000,0.017215624,0.020151423,0.00034112978
9464000,9464000,0.01679447,0.020897752,0.00085201795
9484000,9484000,0.017247558,0.019408815,0.00082420354
9508000,9508000,0.0164175,0.019842228,0.000732994
9528000,9528000,0.016654827,0.020289332,0.0006989695
9548000,9548000,0.016595416,0.019853925,0.0005161518
9568000,9568000,0.017224137,0.02143399,0.0007129708
9588000,9588000,0.01699888,0.02026177,0.0007076521
9608000,9608000,0.015956903,0.019730877,7.042797e-05
9628000,9628000,0.01694785,0.01893915,0.00076619134
9644000,9644000,0.018010495,0.019742003,0.00061129883
9664000,9664000,0.016145734,0.020331101,0.00048852514
9684000,9684000,0.017664855,0.018653523,0.0006824731
9708000,9708000,0.016888332,0.019448178,0.00065786205
9728000,9728000,0.017016383,0.019671796,0.00063449674
9748000,9748000,0.016743898,0.02008309,0.00066065986
9768000,9768000,0.016462978,0.021279966,0.0007742963
9784000,9784000,0.017920593,0.019746935,0.0008925879
9804000,9804000,0.017204449,0.01990213,0.00056810444
9824000,9824000,0.016782647,0.018886402,0.00078689866
9848000,9848000,0.017558862,0.019969579,-0.00013355064
9868000,9868000,0.015964031,0.018923981,0.0006693002
9884000,9884000,0.018254016,0.020090913,0.00039423868
9908000,9908000,0.016815135,0.019096918,0.00093853177
9924000,9924000,0.017039154,0.021326026,0.00093702937
9948000,9948000,0.016736079,0.019642634,-0.00040585976
9964000,9964000,0.017082628,0.020328913,0.0003705034
9988000,9988000,0.01747273,0.018999653,0.000581888
10004000,10004000,0.016684335,0.020232733,0.0002978848
10024000,10024000,0.017560525,0.020253923,0.00028345548
10044000,10044000,0.016551169,0.019068873,0.0007140026
10064000,10064000,0.01748107,0.020639436,0.000584579
10084000,10084000,0.017135689,0.020160686,0.0003169152
10104000,10104000,0.016838335,0.019901311,0.00027082357
10128000,10128000,0.016995313,0.019150803,0.00055720983
10148000,10148000,0.016696747,0.020290734,0.0005937163
10168000,10168000,0.017220031,0.020583566,0.0003429357
10188000,10188000,0.01721326,0.020349633,0.00031955817
10204000,10204000,0.016327767,0.019471334,0.00031732518
10224000,10224000,0.017273257,0.020422524,7.778478e-05
10244000,10244000,0.017096845,0.018910345,0.000479363
10264000,10264000,0.016807945,0.018959537,0.0005138875
10288000,10288000,0.015787078,0.018955879,0.00067440857
10304000,10304000,0.017779216,0.019294038,0.00055253087
10328000,10328000,0.015938912,0.020206746,0.00070429
10344000,10344000,0.017425435,0.019358434,0.0004911673
10364000,10364000,0.016041521,0.01979311,0.00041445327
10388000,10388000,0.017135078,0.019962974,0.00027804356
10408000,10408000,0.016453786,0.019216448,0.00020117951
10428000,10428000,0.017080648,0.019820593,0.00032982536
10444000,10444000,0.016944343,0.018752733,0.00041632578
10464000,10464000,0.01666863,0.021349343,-3.4490018e-05
10484000,10484000,0.016681943,0.019847866,0.0008932745
10508000,10508000,0.017575862,0.019439865,0.00028854818
10524000,10524000,0.01752673,0.020972624,0.00046884184
10548000,10548000,0.018045492,0.019094082,0.00021370985
10568000,10568000,0.016859485,0.020012619,0.00048645903
10588000,10588000,0.016430745,0.019391092,0.00043914985
10608000,10608000,0.01665909,0.020012723,-3.8955128e-05
10628000,10628000,0.017078856,0.020108713,0.00040090966
10648000,10648000,0.01728737,0.019787453,0.0008133822
10668000,10668000,0.016641147,0.019514922,-0.000100363584
10688000,10688000,0.017305244,0.01953266,0.0003141954
10708000,10708000,0.016040763,0.018424,0.0006334043
10728000,10728000,0.015738519,0.019100314,0.0006345087
10748000,10748000,0.01644607,0.019567462,5.2394207e-05
10768000,10768000,0.0165296,0.019041443,6.142561e-05
10788000,10788000,0.016883517,0.019423122,0.0003235589
10808000,10808000,0.01603461,0.019150026,0.0003584752
10828000,10828000,0.016261263,0.02068788,0.0003493613
10848000,10848000,0.016330315,0.020156665,4.4791027e-06
10868000,10868000,0.016818535,0.019034268,0.00018776674
10888000,10888000,0.01769644,0.020122642,0.0007094267
10908000,10908000,0.016778314,0.019592166,0.0002295998
10928000,10928000,0.0171921,0.019005459,0.00015417345
10948000,10948000,0.016745077,0.02002016,0.0006343524
10968000,10968000,0.016490417,0.02009194,0.0007373408
10988000,10988000,0.01569226,0.020098668,0.00029099736
11008000,11008000,0.015906539,0.019379532,0.00017736382
11024000,11024000,0.016715866,0.0172877,6.204215e-05
11044000,11044000,0.016758954,0.020244917,0.00010402708
11064000,11064000,0.01804624,0.019125434,0.00017034057
11084000,11084000,0.01639978,0.020085067,-0.00036178343
11108000,11108000,0.017039325,0.020631766,0.00012014979
11124000,11124000,0.01691296,0.019303309,0.0010670171
11148000,11148000,0.017427247,0.020078352,4.074399e-05
11164000,11164000,0.017060935,0.019464314,0.00022075162
11188000,11188000,0.016566394,0.017911056,0.00035267306
11208000,11208000,0.016841626,0.020113023,0.00082192104
11228000,11228000,0.016528236,0.019232543,0.0006666402
11248000,11248000,0.016804615,0.018770333,0.0004858386
11268000,11268000,0.017113674,0.018357538,0.00010957623
11288000,11288000,0.016184276,0.018943612,-9.0208e-05
11308000,11308000,0.0168961,0.0185912,-0.00021362129
11328000,11328000,0.016822936,0.019392638,0.00029427322
11348000,11348000,0.016582562,0.01861143,0.00024129062
11368000,11368000,0.015584909,0.01910106,0.00046689264
11388000,11388000,0.016261976,0.01942373,0.00010130741
11404000,11404000,0.016759174,0.018686784,2.670763e-05
11424000,11424000,0.016660247,0.018338101,-0.00034517935
11448000,11448000,0.016482703,0.019605774,0.00024069313
11468000,11468000,0.017365174,0.019789916,0.00042413795
11484000,11484000,0.016138822,0.018605584,0.0004313969
11508000,11508000,0.01640761,0.019820632,6.774937e-05
11528000,11528000,0.017191248,0.02014981,0.0005766062
11548000,11548000,0.016731279,0.019660542,0.00047757375
11568000,11568000,0.01660212,0.019757913,0.00026283722
11588000,11588000,0.016785596,0.019822164,0.00023578345
11604000,11604000,0.017250098,0.019733189,-4.565277e-05
11628000,11628000,0.015435168,0.018138988,-9.610321e-05
11648000,11648000,0.016374229,0.019529795,0.00025739492
11668000,11668000,0.01692734,0.01962661,2.3000513e-05
11688000,11688000,0.01737559,0.018277965,0.00058945175
11708000,11708000,0.01691896,0.019434148,-7.482433e-05
11724000,11724000,0.01697795,0.019800082,0.000120593155
11744000,11744000,0.017407645,0.01977259,0.00036011636
11768000,11768000,0.01600976,0.020660207,0.00041568207
11788000,11788000,0.016449755,0.017714463,0.00048852636
11804000,11804000,0.017859206,0.019073274,0.0004658519
11824000,11824000,0.016866991,0.018721556,0.00010128397
11844000,11844000,0.016554775,0.019575194,0.0001820623
11868000,11868000,0.016362634,0.0185243,0.0006390791
11884000,11884000,0.016819505,0.018803613,0.0005515905
11908000,11908000,0.016812986,0.018449692,0.00035355557
11924000,11924000,0.01735924,0.019935688,0.00036204286
11948000,11948000,0.016201345,0.018407974,0.000109224035
11968000,11968000,0.016725298,0.018768206,0.0006840889
11988000,11988000,0.01671191,0.019101145,0.0001014635
12008000,12008000,0.016704228,0.01812518,0.00012481574
12028000,12028000,0.01613007,0.01966064,0.00018696835
12048000,12048000,0.016534433,0.01949341,-0.0003006006
12068000,12068000,0.01648561,0.018037915,7.232567e-05
12084000,12084000,0.01658584,0.019078199,-7.5404205e-05
12108000,12108000,0.016703326,0.019725326,8.141756e-06
12128000,12128000,0.017007068,0.019252976,0.00027421725
12144000,12144000,0.01641664,0.020036364,0.00049621204
12164000,12164000,0.015528027,0.018223895,0.00029669688
12184000,12184000,0.01638124,0.01830396,3.679967e-05
12204000,12204000,0.016387885,0.019789593,0.00048939436
12228000,12228000,0.015825165,0.019685468,0.00054532476
12248000,12248000,0.016895961,0.018286489,0.00018004038
12268000,12268000,0.016903942,0.019475374,0.00036829448
12284000,12284000,0.015919013,0.018595133,0.00043895995
12308000,12308000,0.016138824,0.017556405,0.00047280287
12328000,12328000,0.01563164,0.019073313,0.00015417024
12348000,12348000,0.017858084,0.020514445,0.000300999
12368000,12368000,0.016502667,0.019153167,-0.00030753177
12388000,12388000,0.016962105,0.01872918,-0.00063978136
12404000,12404000,0.016385214,0.019146884,0.00030385025
12428000,12428000,0.016985882,0.018467953,0.0010928774
12448000,12448000,0.016432071,0.020718403,0.00033679992
12468000,12468000,0.015850347,0.019959582,0.0002585902
12488000,12488000,0.017122818,0.019850958,0.00024425014
12508000,12508000,0.015956542,0.018644117,-0.00017537449
12528000,12528000,0.01748104,0.018580854,-8.132695e-05
12548000,12548000,0.017372953,0.019463452,0.00020028844
12564000,12564000,0.016979408,0.019054037,0.00017748693
12588000,12588000,0.016886812,0.02007265,0.00038890942
12608000,12608000,0.015999375,0.018829998,0.00046220337
12628000,12628000,0.016354531,0.017472303,0.0006245524
12648000,12648000,0.01649372,0.019210957,0.0007998055
12668000,12668000,0.016959459,0.01896045,-0.0002967268
12688000,12688000,0.01606747,0.01978805,0.0004415814
12708000,12708000,0.015815327,0.020522634,0.00055039214
12724000,12724000,0.016265586,0.018926708,0.0005891129
12748000,12748000,0.018002331,0.019002257,-5.4936136e-05
12768000,12768000,0.015717281,0.019447226,0.00036528867
12788000,12788000,0.016384657,0.018413309,0.00010162685
12808000,12808000,0.015178755,0.020152425,-0.00015782216
12828000,12828000,0.016292693,0.017565947,0.00067232887
12848000,12848000,0.016149037,0.019833054,0.0006563521
12868000,12868000,0.016758172,0.020353725,0.00013035754
12884000,12884000,0.01610981,0.018996071,0.00029534957
12904000,12904000,0.01582936,0.019859267,0.0005081277
12924000,12924000,0.0155303115,0.017906304,-0.00034727636
12948000,12948000,0.016246486,0.018947264,0.00044304496
12968000,12968000,0.016114842,0.019573627,-5.055113e-05
12988000,12988000,0.015784549,0.020054273,0.0006620743
13008000,13008000,0.016150862,0.019214528,0.00041615023
13028000,13028000,0.016687905,0.019720834,-8.8790315e-05
13048000,13048000,0.01642996,0.020092826,0.00041151038
13068000,13068000,0.01686431,0.018574273,-1.0640047e-05
13088000,13088000,0.01641308,0.018906886,0.00016022738
13108000,13108000,0.015571866,0.017614655,0.0008668963
13124000,13124000,0.016821552,0.019889025,-0.0001812436
13144000,13144000,0.01670044,0.020706842,0.0002874515
13168000,13168000,0.016571043,0.01704722,0.0001023923
13188000,13188000,0.016779976,0.019235225,0.00027542288
13208000,13208000,0.01707229,0.0189506,0.000209839
13228000,13228000,0.01727002,0.018949622,0.00045083984
13248000,13248000,0.017090717,0.018674508,-1.8866698e-05
13268000,13268000,0.016581913,0.01905592,0.0002928092
13288000,13288000,0.015514096,0.019711865,-7.250218e-05
13308000,13308000,0.015910137,0.018006152,0.00086480373
13328000,13328000,0.0171019,0.01854976,0.00029986916
13348000,13348000,0.017644336,0.019065993,3.4212335e-05
13368000,13368000,0.01595281,0.019078668,0.00032099785
13388000,13388000,0.016764939,0.017521553,-0.00061494054
13408000,13408000,0.015579303,0.019509472,0.00070330704
13428000,13428000,0.017477918,0.019429557,0.00062430557
13448000,13448000,0.016417634,0.0181261,2.7369197e-05
13468000,13468000,0.01659901,0.01867767,4.5911875e-07
13488000,13488000,0.017131949,0.019619403,0.00033367673
13508000,13508000,0.016340876,0.018468242,2.203266e-05
13528000,13528000,0.016165704,0.019953908,5.818808e-05
13548000,13548000,0.015850553,0.01936469,0.00028523305
13568000,13568000,0.015544124,0.019142471,0.00022032647
13588000,13588000,0.01595847,0.018232122,-3.1520216e-05
13608000,13608000,0.016526727,0.018712472,0.0003898955
13628000,13628000,0.015809437,0.018629033,0.00036702948
13648000,13648000,0.016916892,0.020089203,0.00030696817
13668000,13668000,0.015843531,0.018983942,0.00082684634
13684000,13684000,0.015523899,0.019127838,0.00023280852
13708000,13708000,0.015663242,0.020070465,-0.00020927729
13724000,13724000,0.016397415,0.018781234,3.6629594e-05
13748000,13748000,0.01617996,0.018346535,-4.341046e-05
13768000,13768000,0.016129103,0.019094754,0.00040621785
13788000,13788000,0.01624248,0.018786224,0.000573242
13808000,13808000,0.01669252,0.019001715,0.0006221276
13828000,13828000,0.015960928,0.019754607,0.00014561941
13848000,13848000,0.015717797,0.019044012,0.00062724866
13868000,13868000,0.015767472,0.019695325,0.00035955416
13888000,13888000,0.016183773,0.0181404,0.0005609947
13908000,13908000,0.015835429,0.019225754,-3.9005654e-06
13924000,13924000,0.017006129,0.019145412,0.00028216522
13948000,13948000,0.015499211,0.018668804,7.589609e-05
13968000,13968000,0.016643982,0.018926652,1.7234857e-05
13988000,13988000,0.015069159,0.018691551,-0.00033598157
14008000,14008000,0.015978819,0.018515773,0.00013051201
14028000,14028000,0.016345691,0.018465338,-0.00012747692
14048000,14048000,0.016357787,0.019093351,-0.000107777436
14068000,14068000,0.015391808,0.01824296,0.00015449701
14088000,14088000,0.016019031,0.019728012,0.00036379704
14108000,14108000,0.016168904,0.018390607,0.0001485811
14128000,14128000,0.01606934,0.018940726,0.00086386345
14148000,14148000,0.015034396,0.019755578,0.0002493226
14168000,14168000,0.013702546,0.02023852,0.00025313752
14188000,14188000,0.014353663,0.020270957,0.00026825536
14208000,14208000,0.012819825,0.019456184,0.0003864312
14228000,14228000,0.01446811,0.019577898,0.0002442701
14248000,14248000,0.014830516,0.019632699,0.0005223944
14268000,14268000,0.01442605,0.01868364,-0.00041792943
14288000,14288000,0.013989469,0.0195308,0.0004820116
14308000,14308000,0.013351178,0.019188689,0.0005028811
14328000,14328000,0.015302463,0.01943185,0.0003171464
14348000,14348000,0.014506061,0.019876776,0.00023137059
14364000,14364000,0.014093104,0.020123323,0.0003538164
14388000,14388000,0.015049525,0.019455152,0.0005068265
14408000,14408000,0.015044523,0.019384854,0.00037739938
14428000,14428000,0.014817875,0.020477014,0.00023899226
14448000,14448000,0.015074905,0.01884353,0.00048898254
14468000,14468000,0.014209693,0.019498143,0.00061001297
14488000,14488000,0.016444448,0.019970268,0.00025239977
14508000,14508000,0.013888605,0.020870347,-0.0003102621
14528000,14528000,0.015848914,0.018956466,0.00014489595
14548000,14548000,0.0151330205,0.018621061,-0.00033451893
14564000,14564000,0.014846163,0.019866966,-3.7821104e-05
14588000,14588000,0.016079271,0.019529177,8.463323e-05
14608000,14608000,0.0152105065,0.020036517,0.00013753977
14628000,14628000,0.016247744,0.020199496,0.00038615736
14648000,14648000,0.016278794,0.020118555,-6.7448724e-05
14668000,14668000,0.0154982405,0.020338986,-0.0002208292
14688000,14688000,0.016129566,0.019317979,0.00036735676
14708000,14708000,0.015247055,0.018041309,-0.00012782091
14728000,14728000,0.014133899,0.019063583,0.00075440475
14748000,14748000,0.017566426,0.018656204,-0.00022596102
14768000,14768000,0.01635365,0.017335698,-0.00011448325
14788000,14788000,0.015829438,0.019672778,0.0003261086
14808000,14808000,0.016961839,0.018138167,-3.370234e-05
14824000,14824000,0.015918482,0.019184941,-0.00016427133
14848000,14848000,0.01657844,0.018379578,0.0004255733
14868000,14868000,0.016336769,0.01872882,0.00023172508
14884000,14884000,0.016482564,0.019323438,0.0005824582
14908000,14908000,0.016339509,0.018540723,0.000623659
14924000,14924000,0.015595706,0.018100342,-1.7589917e-05
14948000,14948000,0.017928177,0.01885387,-0.00014235094
14968000,14968000,0.017651781,0.01888716,-6.332642e-05
14988000,14988000,0.019075634,0.02109898,0.0003374038
15008000,15008000,0.018934121,0.020534737,0.0005898833
15028000,15028000,0.020237833,0.021570137,0.00028600267
15048000,15048000,0.020877836,0.021747088,-0.000112099086
15068000,15068000,0.020720415,0.023999795,5.0082817e-05
15088000,15088000,0.022776255,0.022440642,-0.00039407625
15108000,15108000,0.022701008,0.023636855,0.0006505447
15128000,15128000,0.022574106,0.023567487,0.0002275439
15148000,15148000,0.02432252,0.024252206,0.000118357115
15164000,15164000,0.023595564,0.024037186,-5.8701266e-05
15188000,15188000,0.025023105,0.024656847,0.0003182408
15208000,15208000,0.026430247,0.025097894,0.00030204275
15228000,15228000,0.026815418,0.026392462,0.00028702183
15248000,15248000,0.025993308,0.025736712,0.00038854236
15268000,15268000,0.02773971,0.02707987,0.00047500405
15284000,15284000,0.028342925,0.026784606,-0.00017307408
15308000,15308000,0.029170996,0.027287716,0.0007124352
15324000,15324000,0.028171761,0.028818753,-1.9767638e-05
15348000,15348000,0.028947601,0.029420396,2.7333468e-05
15368000,15368000,0.029840052,0.029139612,-0.00031943523
15388000,15388000,0.030859519,0.030056277,9.731675e-05
15404000,15404000,0.030716063,0.029509673,-3.4466648e-06
15428000,15428000,0.030737963,0.030980682,-0.00025900328
15444000,15444000,0.031379778,0.030723171,0.00043944485
15468000,15468000,0.03291052,0.03138124,8.3740306e-05
15488000,15488000,0.03212638,0.032391306,0.0002280752
15508000,15508000,0.032506116,0.032899752,0.000349976
15524000,15524000,0.033085953,0.031609207,0.00044676397
15548000,15548000,0.033805292,0.032379422,-6.405776e-05
15568000,15568000,0.034960195,0.033610575,0.00042301434
15588000,15588000,0.035294075,0.032644775,0.00029433117
15608000,15608000,0.03521565,0.03440194,0.00038004515
15628000,15628000,0.037324406,0.03255694,-0.00019818882
15648000,15648000,0.03668044,0.034633882,0.0009728509
15668000,15668000,0.036365453,0.033623215,-0.00025686796
15688000,15688000,0.03671983,0.035768684,8.901064e-05
15708000,15708000,0.03748132,0.03566161,0.0001098309
15728000,15728000,0.038607165,0.036852475,0.00042773754
15748000,15748000,0.038191166,0.03673614,-0.0003296937
15768000,15768000,0.03866956,0.036731288,0.0002907081
15788000,15788000,0.04049481,0.037082914,0.00016254977
15808000,15808000,0.040398236,0.037671767,0.00025306956
15828000,15828000,0.040861662,0.03813224,6.144592e-05
15848000,15848000,0.04131457,0.03884666,0.00029099287
15868000,15868000,0.04186904,0.03999858,0.00016136073
15884000,15884000,0.042686787,0.039632034,-6.429606e-05
15908000,15908000,0.042905044,0.04019506,0.000112314796
15928000,15928000,0.04302933,0.040887542,-2.7774346e-05
15948000,15948000,0.04406088,0.04071825,0.00062251947
15968000,15968000,0.045024864,0.041171037,0.00024866126
15988000,15988000,0.04567495,0.041246112,0.0010131479
16008000,16008000,0.044407725,0.042225115,0.00045817846
16028000,16028000,0.045598198,0.04202919,-5.448256e-05
16048000,16048000,0.04630068,0.042114303,0.000278202
16068000,16068000,0.047097262,0.043540675,-4.9941737e-05
16088000,16088000,0.04752217,0.042840395,0.0004641332
16108000,16108000,0.047056157,0.045726433,0.0004534929
16124000,16124000,0.04778876,0.044000383,0.0004060301
16148000,16148000,0.04851589,0.045846835,0.00055575336
16168000,16168000,0.050130453,0.04462989,-0.00013068714
16188000,16188000,0.04841131,0.04661558,0.00033137196
16208000,16208000,0.050941266,0.045368567,0.0008049741
16228000,16228000,0.05079009,0.048092645,0.0006296408
16248000,16248000,0.051871195,0.047067598,0.0006039109
16268000,16268000,0.05298607,0.047875684,0.0004349021
16288000,16288000,0.051511604,0.048450615,0.00011125265
16308000,16308000,0.0533691,0.04921599,0.00020368738
16328000,16328000,0.052865013,0.047961388,0.0005723526
16348000,16348000,0.054123674,0.050452195,0.000356246
16368000,16368000,0.053915687,0.049635123,0.00039733743
16388000,16388000,0.0550343,0.050952278,0.00067382795
16408000,16408000,0.05647011,0.05057058,0.00020713647
16428000,16428000,0.05689296,0.051320173,1.2922392e-06
16448000,16448000,0.056880075,0.050674275,0.00045279716
16468000,16468000,0.05768595,0.050695952,0.00032314492
16488000,16488000,0.056974277,0.054212097,-4.170451e-05
16508000,16508000,0.057547923,0.053606857,0.00023877117
16528000,16528000,0.059322383,0.05320918,-0.00011145641
16548000,16548000,0.059088197,0.05349764,0.00042253433
16568000,16568000,0.05877123,0.055505935,0.00049052294
16584000,16584000,0.059885666,0.05523748,0.00030398637
16604000,16604000,0.061869618,0.056177884,0.0004305103
16624000,16624000,0.061767455,0.056225173,0.0004915787
16644000,16644000,0.061729547,0.057213616,0.00018377659
16664000,16664000,0.06316237,0.057643276,0.00042741114
16688000,16688000,0.06267654,0.05742318,0.0002462705
16704000,16704000,0.06357835,0.058231402,0.00046396055
16724000,16724000,0.06353162,0.059022546,0.00047153165
16744000,16744000,0.064216495,0.057484414,0.00074743386
16768000,16768000,0.06543297,0.05922249,0.00026793103
16784000,16784000,0.06569294,0.05911462,0.0002847861
16804000,16804000,0.06572282,0.05914415,0.00018316756
16828000,16828000,0.06558913,0.059471216,8.706272e-05
16848000,16848000,0.06843413,0.061723627,0.00023118405
16868000,16868000,0.06705079,0.061761707,0.00020024131
16888000,16888000,0.07027531,0.062987424,3.7337508e-05
16904000,16904000,0.06840472,0.06173507,0.00044768854
16924000,16924000,0.069185995,0.06176938,0.00014963996
16944000,16944000,0.0699411,0.06441963,0.00034928246
16964000,16964000,0.06989749,0.0632614,0.0003312219
16984000,16984000,0.07165347,0.06419168,0.0005847746
17008000,17008000,0.07148029,0.0658974,0.00041670116
17028000,17028000,0.07252401,0.06564671,0.00024808434
17048000,17048000,0.07345819,0.0650014,0.0003903219
17068000,17068000,0.07243262,0.06579457,0.00020734221
17088000,17088000,0.073468715,0.06585856,-0.00020847499
17104000,17104000,0.074022055,0.06746267,0.0001372235
17124000,17124000,0.073580556,0.06719264,0.00042205473
17144000,17144000,0.075261265,0.06725421,0.00048544706
17164000,17164000,0.07588557,0.068821535,0.0006597118
17184000,17184000,0.07713374,0.069497414,0.0004981308
17204000,17204000,0.07686478,0.06932826,0.00038245815
17224000,17224000,0.07891029,0.0697354,0.00036933878
17244000,17244000,0.07800504,0.069412954,0.0006596114
17268000,17268000,0.078924,0.06965653,0.0002961731
17288000,17288000,0.079417214,0.07030646,7.3087416e-05
17308000,17308000,0.07942075,0.07107627,0.0005773831
17328000,17328000,0.080487154,0.07334647,0.0003066203
17348000,17348000,0.080600426,0.070714146,8.944617e-05
17368000,17368000,0.080478586,0.07306693,0.00023997136
17388000,17388000,0.08137957,0.07392756,6.615832e-05
17408000,17408000,0.082974985,0.07351954,0.0007426386
17428000,17428000,0.0818069,0.073617876,0.00033172098
17448000,17448000,0.08286993,0.07527736,0.00059342454
17468000,17468000,0.08310991,0.07454867,0.00028232255
17488000,17488000,0.08481285,0.074816436,0.00036415126
17504000,17504000,0.08402018,0.07576805,0.00044824535
17528000,17528000,0.08579589,0.07681999,0.0004914159
17548000,17548000,0.08413739,0.07623112,0.00056745147
17568000,17568000,0.08096696,0.076474644,0.001006385
17588000,17588000,0.07791783,0.07709142,9.403097e-05
17608000,17608000,0.072049625,0.077218376,0.00033017702
17628000,17628000,0.06690065,0.078640476,0.00042241684
17648000,17648000,0.06144514,0.077479094,0.00071973045
17668000,17668000,0.056044914,0.07473088,0.00079024327
17688000,17688000,0.050956525,0.07020849,-5.9882295e-06
17708000,17708000,0.046705246,0.066428475,-0.0009278658
17728000,17728000,0.04104537,0.057796147,-0.0019808824
17748000,17748000,0.03470069,0.05408571,-0.003388252
17768000,17768000,0.02791696,0.045740828,-0.0039524226
17788000,17788000,0.022799594,0.038904157,-0.004970754
17808000,17808000,0.014879016,0.030249754,-0.0067656827
17828000,17828000,0.007098691,0.01982103,-0.0075068283
17848000,17848000,-0.00040926645,0.010613978,-0.007948805
17864000,17864000,-0.0066868444,-0.000906433,-0.0076135965
17888000,17888000,-0.016120655,-0.011603248,-0.005515161
17908000,17908000,-0.021024583,-0.021194754,-0.0044303215
17928000,17928000,-0.022882108,-0.020623554,-0.002366624
17948000,17948000,-0.018759826,-0.022446575,-0.002210129
17968000,17968000,-0.01916173,-0.02165012,-0.000896986
17988000,17988000,-0.016092312,-0.020736085,-0.0012551104
18008000,18008000,-0.013933118,-0.017194808,-0.00056783523
18028000,18028000,-0.010347352,-0.016322885,-0.0009023071
18048000,18048000,-0.007923055,-0.011334014,-0.00035319073
18068000,18068000,-0.006982336,-0.007783425,-0.0009103684
18088000,18088000,-0.002350756,-0.0050960574,-0.0006360201
18108000,18108000,-0.0019080339,-0.00053584995,-0.0002518588
18124000,18124000,0.0016644578,0.0017947608,-0.00062911946
18148000,18148000,0.003904366,0.004543647,-0.0010440296
18168000,18168000,0.00233402,0.008777349,-0.00053449627
18188000,18188000,0.004912611,0.00934088,-0.0005797634
18208000,18208000,0.004046782,0.011706905,-0.0008194804
18228000,18228000,0.0056481394,0.013751619,-0.00051567535
18244000,18244000,0.0067214295,0.014405651,-8.3885185e-05
18268000,18268000,0.0068601873,0.014853064,-0.00060600624
18288000,18288000,0.004031012,0.014586765,-0.00027358445
18308000,18308000,0.0050432757,0.014727561,-9.39084e-05
18328000,18328000,0.0028713015,0.014426656,-0.00042276699
18348000,18348000,0.0021527922,0.012791734,-0.00074748485
18368000,18368000,0.0017732189,0.0098584555,5.3855503e-05
18388000,18388000,0.0040008714,0.009485805,4.1444437e-06
18408000,18408000,0.0020930623,0.008239698,-4.7699636e-05
18428000,18428000,0.002005692,0.008442072,-0.00038438116
18448000,18448000,0.0025377912,0.0066401465,-0.00067491084
18468000,18468000,0.00072923745,0.00563656,-0.0004021136
18488000,18488000,0.0007820063,0.0050867544,-7.035519e-05
18508000,18508000,0.0014611075,0.004149702,-0.00054679706
18528000,18528000,0.0022462392,0.003923232,-0.0005051528
18548000,18548000,0.000988272,0.003998951,-0.000359788
18568000,18568000,-0.00019325531,0.0035337114,-0.00015066455
18588000,18588000,0.0007456519,0.0038250182,-0.00018994106
18608000,18608000,0.0006057882,0.0027870429,5.8620702e-05
18628000,18628000,0.00042219437,0.0040211836,-0.00061682885
18644000,18644000,0.0003428345,0.0026801117,-0.0006382595
18668000,18668000,-0.000489005,0.002842292,-0.00014931997
18684000,18684000,0.0009453376,0.0040894295,-0.0004665057
18708000,18708000,-5.6700315e-05,0.004831501,0.0003534841
18728000,18728000,0.0023179976,0.0055597243,-0.00031035702
18748000,18748000,0.0010540623,0.004694861,-0.00032633965
18768000,18768000,0.00061156217,0.005588692,-0.0007615818
18788000,18788000,0.00035924878,0.005674629,0.00040033934
18808000,18808000,0.0016317407,0.0045773555,0.00036450627
18828000,18828000,0.0009002866,0.006569521,0.00050676055
18848000,18848000,0.0022417922,0.0059556966,-0.0003780113
18868000,18868000,0.002804177,0.004965356,-0.00018894632
18888000,18888000,0.0012119125,0.0058339937,0.00038007525
18908000,18908000,0.0008432069,0.0063359905,0.00028253067
18928000,18928000,0.0016319252,0.0065876786,0.00024228633
18944000,18944000,0.0003380892,0.006614563,1.8841296e-05
18964000,18964000,0.0008840258,0.0059387283,-0.00010002908
18984000,18984000,0.0010448693,0.0061675874,-0.0003856413
19004000,19004000,0.0024519542,0.00581078,-9.6176576e-05
19028000,19028000,0.00046620498,0.0059110485,0.00054121716
19048000,19048000,-0.0007039878,0.0047262176,-0.00024049927
19068000,19068000,-0.0020425406,0.005266005,0.0003520842
19088000,19088000,-0.0013277013,0.0040277457,-0.00055940665
19108000,19108000,-0.0010330275,0.0047039,-6.390909e-05
19128000,19128000,-0.0004091507,0.0043718177,0.0006641956
19148000,19148000,0.0004568128,0.0038863667,0.00037398105
19168000,19168000,0.00026495018,0.0047734543,0.00037920804
19188000,19188000,0.0004064547,0.004381259,-0.00036904943
19208000,19208000,-0.0006205394,0.003212943,0.00015063383
19228000,19228000,0.0013205289,0.0047689527,0.00076549203
19248000,19248000,0.0024270574,0.0051543973,0.0001360471
19268000,19268000,0.0026323951,0.0058681695,-0.000459565
19284000,19284000,2.4235342e-05,0.004833078,0.0003383657
19308000,19308000,0.0014908339,0.0057516065,0.00013744773
19328000,19328000,0.0013142321,0.0060706045,-0.0002262784
19348000,19348000,0.0010359734,0.004528882,-3.7998136e-05
19368000,19368000,0.0018419048,0.0054088472,8.722476e-06
19384000,19384000,0.0018924626,0.0061994456,-0.00014681823
19404000,19404000,-7.47625e-05,0.0051428545,-0.00022076591
19428000,19428000,0.0014241257,0.004008987,3.910827e-06
19448000,19448000,-0.00060046103,0.0031484754,0.000261257
19468000,19468000,-0.0008560332,0.0045776316,-0.00015383269
19488000,19488000,0.00048797444,0.0036532208,0.0002673372
19508000,19508000,0.0008853262,0.0036857105,-0.0004072592
19528000,19528000,0.0010733581,0.0035484578,8.070345e-05
19548000,19548000,0.0010011545,0.004918707,2.1653585e-05
19568000,19568000,-0.0016960333,0.0049316655,0.00043598775
19588000,19588000,-3.2861448e-05,0.00396557,-0.000450252
19608000,19608000,-0.00044712727,0.00466184,-0.00050336495
19628000,19628000,-0.00067156384,0.0037569467,0.00021447446
19648000,19648000,-0.00013305162,0.005477123,3.7807535e-05
19668000,19668000,-0.0010457945,0.005030856,0.00036874446
19688000,19688000,-0.0009473384,0.0048185126,-0.00016250552
19708000,19708000,0.0012445562,0.0047795568,0.0002509043
19728000,19728000,-0.0011995804,0.0037603974,-0.00040508877
19748000,19748000,0.00096539577,0.004500291,-8.8788736e-05
19768000,19768000,0.0009522905,0.0048479033,0.00013877141
19788000,19788000,0.00038524825,0.0056235637,0.00025993682
19808000,19808000,-0.00044658402,0.005437383,-6.4603955e-06
19828000,19828000,-0.0016777633,0.0042254226,0.00023476162
19844000,19844000,0.0006073916,0.004794836,-0.0006725582
19864000,19864000,0.0010257697,0.0035432372,0.0005369339
19884000,19884000,-0.0008630571,0.00316815,-8.795253e-05
19904000,19904000,-0.0012848347,0.0038133655,-0.00034749703
19924000,19924000,-0.00035189197,0.0033834295,0.00016052237
19944000,19944000,0.0008336578,0.0046084467,-5.058298e-05
19964000,19964000,-0.0011730287,0.0035036237,0.00013358676
19984000,19984000,-0.00039771153,0.0037889685,-0.00029308777
20004000,20004000,-0.00010246369,0.0043519195,-0.00066419365
20024000,20024000,-0.015092831,0.01571016,0.0008637
20048000,20048000,-0.019023396,0.021632494,0.0004784775
20064000,20064000,-0.019988744,0.02344022,0.000524193
20088000,20088000,-0.01651822,0.021692317,0.00035890628
20108000,20108000,-0.013088426,0.018697448,0.0005821205
20128000,20128000,-0.009477925,0.01348163,8.6934015e-05
20148000,20148000,-0.0069298027,0.014115514,0.0007752739
20164000,20164000,-0.0061040297,0.0122230705,7.5887845e-05
20184000,20184000,-0.0018525166,0.0053576566,0.0005694403
20204000,20204000,-0.0025707483,0.0046462175,0.00055558863
20228000,20228000,0.0013200763,0.0017720747,6.9244925e-06
20248000,20248000,0.0046673226,-0.0028422195,-0.00020986432
20268000,20268000,0.005580958,-0.00523199,-0.00040259783
20288000,20288000,0.006314482,-0.0057990565,-0.00029391274
20308000,20308000,0.0053145885,-0.003922376,-0.0006623342
20328000,20328000,0.004995817,-0.004370576,-0.00020819964
20348000,20348000,0.0042357557,-0.0036042917,-0.0006814641
20368000,20368000,0.0023990793,-0.003858862,-0.0004755362
20388000,20388000,0.0039316653,-0.0009380393,-0.0003894646
20408000,20408000,0.002913016,-0.00050001196,-0.00044758868
20428000,20428000,0.00069669844,0.00057482393,-0.000699902
20448000,20448000,0.0005183271,0.0017521325,-0.00016726827
20464000,20464000,-0.0008302247,0.0034131836,-0.00064002164
20488000,20488000,-0.001172556,0.0038244189,-0.00058907573
20504000,20504000,-0.0014045027,0.004118563,-0.00016716703
20528000,20528000,-0.001211839,0.005206405,-0.00031791406
20548000,20548000,-0.0014965105,0.0060358946,0.0006421303
20568000,20568000,-0.0023371908,0.007832776,0.00013089374
20584000,20584000,-0.0007755741,0.0051351525,-4.972639e-05
20604000,20604000,-0.002551085,0.0064952066,0.0005303025
20624000,20624000,0.0029938659,0.0012849211,-0.00011097199
20648000,20648000,0.0071227853,-0.0032029627,-0.00032089965
20668000,20668000,0.009277972,-0.006418534,-0.0008569177
20688000,20688000,0.010000505,-0.006442528,-0.067284584
20708000,20708000,0.002471435,-0.017294202,-0.002023567
20728000,20728000,0.002565411,-0.011825902,0.000758035
20748000,20748000,0.001504289,-0.0051875636,0.0015377738
20768000,20768000,0.0015367889,0.0011603604,0.0022713246
20788000,20788000,0.0010481796,0.0064031975,0.002133187
20808000,20808000,0.0011658118,0.0066514844,0.0021189637
20828000,20828000,-0.0014828551,0.012439983,0.0021149428
20848000,20848000,-0.0037745452,0.014181353,0.002421956
20868000,20868000,-0.002546767,0.01580187,0.0020471774
20888000,20888000,-0.0047558635,0.016297556,0.0012024359
20908000,20908000,-0.0037414432,0.016318835,0.001046066
20928000,20928000,-0.005804365,0.016269179,0.0012428968
20948000,20948000,-0.0052145584,0.015592976,0.0018308405
20968000,20968000,-0.00576501,0.016554428,0.0010648503
20988000,20988000,-0.00684012,0.014773267,0.0009883116
21008000,21008000,-0.005778645,0.013362241,0.0015411597
21028000,21028000,0.004368589,0.0034857392,0.0005928895
21048000,21048000,0.013303048,-0.0069536096,-0.00065711717
21068000,21068000,0.019861829,-0.01616751,-0.0010434203
21088000,21088000,0.019423444,-0.017297443,-0.0006992454
21108000,21108000,0.017482027,-0.017409977,-0.001072185
21128000,21128000,0.01266521,-0.012456682,-0.0014980307
21148000,21148000,0.007930012,-0.010497569,-0.0011394795
21168000,21168000,0.004501809,-0.005385876,-0.0014958075
21188000,21188000,-0.00033372152,-0.002781508,-0.000966933
21208000,21208000,-0.0041152453,0.0022595865,-0.00094065594
21228000,21228000,-0.008058398,0.005538432,-0.00044306382
21248000,21248000,-0.008910362,0.008712424,-0.00037641794
21268000,21268000,-0.011450639,0.011077929,-0.00022088777
21288000,21288000,-0.011711269,0.014431116,0.0007460537
21308000,21308000,-0.0120195635,0.016290871,0.000584777
21328000,21328000,-0.011550547,0.01685875,0.0013623682
21348000,21348000,-0.0133006405,0.01716016,0.0013010751
21368000,21368000,-0.01269649,0.018019512,0.00100466
21388000,21388000,-0.012115501,0.018001074,0.0009019516
21408000,21408000,-0.008565238,0.016185768,0.0010342143
21428000,21428000,0.0061502145,0.00016343361,0.0013711551
21448000,21448000,0.021435346,-0.014179774,0.000295831
21468000,21468000,0.032065175,-0.022609295,4.743538e-05
21488000,21488000,0.028888712,-0.021646297,-0.0017078915
21508000,21508000,0.0249541,-0.02092367,-0.0013374717
21528000,21528000,0.019353066,-0.016347036,-0.0014280746
21548000,21548000,0.013256536,-0.010646717,-0.0006387613
21564000,21564000,0.008398984,-0.0055147186,-0.0013669226
21588000,21588000,0.00261509,-0.00021982612,-0.0002925156
21608000,21608000,-0.0030555238,0.0068060076,-0.0005717966
21628000,21628000,-0.0073744594,0.011090589,-0.00027733683
21648000,21648000,-0.0105118565,0.013863095,-0.00037098344
21664000,21664000,-0.015169919,0.019366235,-0.00015569413
21684000,21684000,-0.015405415,0.021378983,0.0002109198
21708000,21708000,-0.016807463,0.025612565,0.0011248223
21728000,21728000,-0.01933389,0.026084475,0.0006815167
21744000,21744000,-0.017247612,0.026974246,0.00033646583
21764000,21764000,-0.01794933,0.024060965,0.0014738097
21784000,21784000,-0.014302896,0.02522,0.000979656
21808000,21808000,-0.015516412,0.023383439,0.0004853321
21828000,21828000,0.00073403073,0.006713662,0.00081338553
21848000,21848000,0.016893001,-0.0063531627,0.0010895972
21868000,21868000,0.024058774,-0.015465291,0.00052763673
21888000,21888000,0.02251994,-0.017745689,0.00036904786
21908000,21908000,0.020811558,-0.016794238,0.0011756029
21928000,21928000,0.014058902,-0.012993267,0.0005220502
21948000,21948000,0.0116857365,-0.009468542,0.0012572891
21968000,21968000,0.0032656365,-0.0040337867,0.0014039224
21988000,21988000,0.001165418,-0.0011653234,0.00122556
22008000,22008000,-0.0042122127,0.006171673,0.0010511412
22028000,22028000,-0.0061129243,0.008287294,0.0009647816
22044000,22044000,-0.009192397,0.012143653,0.0014800203
22068000,22068000,-0.012056203,0.014466749,0.0014864139
22088000,22088000,-0.0134188365,0.020060498,0.00093746715
22108000,22108000,-0.014030512,0.020572267,0.0012697488
22128000,22128000,-0.015817557,0.023352081,0.0005121872
22148000,22148000,-0.01568067,0.022538202,0.0010435756
22168000,22168000,-0.013722142,0.022658465,0.0014975076
22188000,22188000,-0.013261725,0.02069296,0.0015668083
22208000,22208000,-0.012134137,0.020843234,0.0013387431
22228000,22228000,-0.00320694,0.009252858,0.0020659687
22248000,22248000,0.0035788836,0.004430603,0.00053804927
22268000,22268000,0.0065869316,-0.0009368453,0.0008195865
22288000,22288000,0.006314327,-0.0017214832,0.0010152232
22308000,22308000,0.006980762,-0.0021588048,0.001137849
22328000,22328000,0.0041739396,-0.0019098916,0.00014468646
22348000,22348000,0.002743421,-0.0014862084,4.462494e-05
22368000,22368000,0.0019816745,0.0007723782,0.0004453216
22388000,22388000,-0.0005063469,0.0015340734,0.00018101576
22408000,22408000,-0.0011404364,0.0024150203,-9.3726776e-05
22428000,22428000,-0.0028764769,0.003604691,0.00044024893
22448000,22448000,-0.0013895263,0.004738986,0.0011895554
22468000,22468000,-0.00393412,0.007157587,-0.00015284409
22488000,22488000,-0.0029099786,0.007628289,-0.00029740855
22508000,22508000,-0.0054742093,0.0082911495,-0.00054488785
22528000,22528000,-0.004746074,0.010398123,-6.4393476e-05
22548000,22548000,-0.005242373,0.010434915,-1.7447863e-05
22568000,22568000,-0.002116337,0.009357525,-5.26887e-06
22588000,22588000,-0.0028128119,0.010440367,-0.00055500073
22608000,22608000,-0.0033883778,0.010467493,-0.00048771035
22628000,22628000,-0.0046405382,0.0108211255,-0.00025179045
22644000,22644000,-0.007328728,0.010436285,-0.00067774963
22668000,22668000,-0.0046586543,0.009184497,-7.401338e-05
22688000,22688000,-0.0033078685,0.007946439,-0.00016858801
22708000,22708000,-0.0027498356,0.0067274226,-0.0002381147
22728000,22728000,-0.0009027113,0.0044028116,-0.00014151458
22744000,22744000,-0.00037587574,0.0035566215,-0.0005215176
22768000,22768000,0.00105828,0.0014577599,-0.00026691303
22784000,22784000,0.004029472,-0.0005169518,-0.00019381904
22804000,22804000,0.002432745,-0.0004115866,0.00026234996
22828000,22828000,0.0038837013,-0.0020666686,-0.00039875612
22844000,22844000,0.00490907,-0.0020591873,-0.00046840066
22868000,22868000,0.0035263798,-0.0015180443,-3.5517027e-05
22888000,22888000,0.004090429,-0.0018373749,-0.00029426476
22908000,22908000,0.0048216204,-0.0017724714,-0.00037478135
22928000,22928000,0.005112381,-0.0028050784,-0.00024229795
22944000,22944000,0.0031954693,0.0002996605,-0.0001563054
22968000,22968000,0.004628551,-0.0009128094,-0.00066898495
22988000,22988000,0.003393874,-0.001155989,-0.0001338961
23008000,23008000,0.0031143678,-0.000558854,-0.00024602783
23028000,23028000,-0.0031854922,0.00627865,-3.4296143e-05
23048000,23048000,-0.009543426,0.012563018,-0.000326349
23068000,23068000,-0.012775688,0.016769603,-0.0011332564
23088000,23088000,-0.009641101,0.014904365,-0.0010055801
23108000,23108000,-0.008545436,0.012218293,-0.00087204704
23128000,23128000,-0.0047136345,0.010047474,-0.0010087471
23148000,23148000,-0.0024507171,0.008221637,-0.0012092337
23168000,23168000,0.0022299704,0.0042771725,-0.0008726707
23188000,23188000,0.0039756196,0.000723114,-0.0019581188
23208000,23208000,0.00524544,-0.0015932445,-0.00030263356
23228000,23228000,0.008966274,-0.005476428,-0.0009908144
23248000,23248000,0.009826371,-0.005347845,-0.000575728
23268000,23268000,0.009868561,-0.008407421,-0.00066258665
23288000,23288000,0.01235308,-0.008381257,-0.00072202855
23308000,23308000,0.009940688,-0.009804536,-0.0003527839
23328000,23328000,0.013253164,-0.009419186,-0.0006160715
23348000,23348000,0.009441247,-0.009529509,-0.00073629443
23368000,23368000,0.011143111,-0.007925787,0.000105734456
23388000,23388000,0.010268724,-0.008266079,-0.00016551526
23408000,23408000,0.010197902,-0.0073573,-0.0004991531
23428000,23428000,-0.007827352,0.008127365,-0.0002101805
23448000,23448000,-0.015678214,0.015665403,5.4544755e-05
23468000,23468000,-0.017427957,0.019705307,-0.0002586858
23488000,23488000,-0.015049886,0.019305648,-0.0008468623
23508000,23508000,-0.011364173,0.01615355,-0.0012706986
23528000,23528000,-0.005580386,0.011215236,-0.0010692299
23548000,23548000,-0.00081297103,0.008359671,-0.001415777
23568000,23568000,0.007398148,0.0026695519,-0.0009705427
23588000,23588000,0.010943726,-0.0018189584,-0.00080998684
23608000,23608000,0.013423833,-0.0044108815,-0.00092125556
23628000,23628000,0.016280495,-0.007682006,-0.00090524915
23648000,23648000,0.018857151,-0.012236781,-0.000993676
23668000,23668000,0.020353323,-0.0147261415,-0.0015614476
23684000,23684000,0.019199055,-0.014222926,-0.0008039968
23704000,23704000,0.0220549,-0.016532289,4.627061e-05
23724000,23724000,0.019237474,-0.016077854,-0.00046449841
23748000,23748000,0.01891405,-0.015057681,-0.00083805306
23768000,23768000,0.016166957,-0.015881004,-0.00038908588
23788000,23788000,0.016776599,-0.016613442,-0.0010940741
23808000,23808000,0.016364012,-0.012960003,-0.0006765172
23828000,23828000,-0.008014472,0.008212861,-0.0005134375
23848000,23848000,-0.019737048,0.018974718,-0.0004992605
23868000,23868000,-0.025118973,0.026033722,-0.0006364363
23884000,23884000,-0.023041591,0.02460261,-0.0006840218
23908000,23908000,-0.016118351,0.021103427,-0.0013660981
23928000,23928000,-0.009665594,0.014789399,-0.00068108184
23948000,23948000,-0.002717195,0.01161701,-0.00060535
23968000,23968000,0.0023193886,0.0047618165,-0.0014399546
23988000,23988000,0.008347545,0.00075271283,-0.00078257534
24008000,24008000,0.01067736,-0.0037061165,-0.0012840854
24028000,24028000,0.019289322,-0.008138407,-0.0021151302
24048000,24048000,0.018851338,-0.012250378,-5.4004253e-05
24064000,24064000,0.021871403,-0.014581595,-0.001958187
24084000,24084000,0.02346747,-0.018286819,-0.00094513956
24104000,24104000,0.023615146,-0.01832047,-0.0008776025
24124000,24124000,0.022830488,-0.021092692,-0.0011088942
24148000,24148000,0.024642743,-0.01992493,-0.0013017084
24168000,24168000,0.020063197,-0.018995121,-0.0011256597
24188000,24188000,0.019564547,-0.018048853,-0.0011938188
24208000,24208000,0.01622,-0.01712247,-0.0011367418
24228000,24228000,-0.0051257205,0.0014330395,-0.001023093
24244000,24244000,-0.021037143,0.018378071,-7.029972e-05
24264000,24264000,-0.028150668,0.025816953,-0.0007741172
24284000,24284000,-0.028706767,0.028102493,-0.00042941238
24304000,24304000,-0.024412699,0.0249358,-0.00063027535
24324000,24324000,-0.017452799,0.02203035,-3.0730793e-05
24344000,24344000,-0.009363395,0.015830807,-0.0008597403
24368000,24368000,-0.0021169097,0.009151615,4.535634e-05
24388000,24388000,0.0060813883,0.004117592,-0.0013756624
24408000,24408000,0.009204156,-0.0018241205,-0.0011904282
24428000,24428000,0.017674504,-0.0068842676,-0.0008599062
24448000,24448000,0.019827213,-0.011536415,-0.0017638587
24468000,24468000,0.025192814,-0.014697116,-0.0012333561
24488000,24488000,0.024788072,-0.01679794,-0.0014997318
24504000,24504000,0.026155911,-0.020077037,-0.001432546
24524000,24524000,0.026884599,-0.023109231,-0.0020458633
24544000,24544000,0.026972797,-0.022776775,-0.0016774278
24564000,24564000,0.023641527,-0.020959992,-0.0013543912
24588000,24588000,0.022753868,-0.020034537,-0.0017113334
24608000,24608000,0.017562341,-0.017551295,-0.0016935924
24628000,24628000,-0.013406179,0.01001472,-0.00050999795
24648000,24648000,-0.027634975,0.025975743,-0.00044840155
24668000,24668000,-0.03339909,0.030084623,0.00018476916
24688000,24688000,-0.027832016,0.029042276,-0.00047493292
24708000,24708000,-0.022095531,0.026602753,-0.00048738005
24724000,24724000,-0.016966837,0.021379165,-0.0002100711
24744000,24744000,-0.008674803,0.013804901,-0.00067665987
24768000,24768000,0.0005231621,0.007434324,-0.0009196289
24788000,24788000,0.00807855,0.002574286,-0.000995348
24808000,24808000,0.013119006,-0.0034643456,-0.000980744
24828000,24828000,0.018561386,-0.009183144,-0.0008755714
24848000,24848000,0.019829806,-0.013721193,-0.0011608071
