timestamp,timestamp_sample,yaw_composite,yaw_variance,yaw[0],yaw[1],yaw[2],yaw[3],yaw[4],innov_vn[0],innov_vn[1],innov_vn[2],innov_vn[3],innov_vn[4],innov_ve[0],innov_ve[1],innov_ve[2],innov_ve[3],innov_ve[4],weight[0],weight[1],weight[2],weight[3],weight[4],yaw_composite_valid
15012000,14932000,2.6779451,3.5801747,-2.5132742,-1.2566371,0.0,1.2566371,2.5132742,0.0,0.0,0.0,0.0,0.0,0.0,0.0,0.0,0.0,0.0,0.2,0.2,0.2,0.2,0.2,0
15020000,14940000,2.158799,3.6787088,-2.513278,-1.2566408,-3.707728e-06,1.2566334,2.5132704,0.0,0.0,0.0,0.0,0.0,0.0,0.0,0.0,0.0,0.0,0.2,0.2,0.2,0.2,0.2,0
15028000,14948000,2.976444,3.7675812,-2.5132694,-1.2566323,4.7982417e-06,1.2566419,2.513279,0.0,0.0,0.0,0.0,0.0,0.0,0.0,0.0,0.0,0.0,0.2,0.2,0.2,0.2,0.2,0
15036000,14956000,2.5829935,3.5579202,-2.5132709,-1.2566338,3.4317854e-06,1.2566406,2.5132775,0.0,0.0,0.0,0.0,0.0,0.0,0.0,0.0,0.0,0.0,0.2,0.2,0.2,0.2,0.2,0
15044000,14964000,-2.896614,3.7000182,-2.513263,-1.2566259,1.12592e-05,1.2566484,2.5132856,0.0,0.0,0.0,0.0,0.0,0.0,0.0,0.0,0.0,0.0,0.2,0.2,0.2,0.2,0.2,0
15052000,14972000,2.7468016,3.6075945,-2.513271,-1.2566339,3.2457647e-06,1.2566404,2.5132775,0.0,0.0,0.0,0.0,0.0,0.0,0.0,0.0,0.0,0.0,0.2,0.2,0.2,0.2,0.2,0
15060000,14980000,-2.6779451,3.580168,-2.5133047,-1.2566675,-3.0418043e-05,1.2566067,2.513244,0.0,0.0,0.0,0.0,0.0,0.0,0.0,0.0,0.0,0.0,0.2,0.2,0.2,0.2,0.2,0
15068000,14988000,-2.6779451,3.5801656,-2.513314,-1.2566769,-3.9767674e-05,1.2565973,2.5132344,0.0,0.0,0.0,0.0,0.0,0.0,0.0,0.0,0.0,0.0,0.2,0.2,0.2,0.2,0.2,0
15076000,14996000,-3.0172377,3.806996,-2.5133197,-1.2566826,-4.544157e-05,1.2565917,2.5132287,0.0,0.0,0.0,0.0,0.0,0.0,0.0,0.0,0.0,0.0,0.2,0.2,0.2,0.2,0.2,0
15084000,15004000,2.896614,3.7000597,-2.513335,-1.2566979,-6.0871134e-05,1.2565763,2.5132134,0.0,0.0,0.0,0.0,0.0,0.0,0.0,0.0,0.0,0.0,0.2,0.2,0.2,0.2,0.2,0
15092000,15012000,3.070285,3.8634021,-2.5133436,-1.2567064,-6.92358e-05,1.256568,2.513205,0.0,0.0,0.0,0.0,0.0,0.0,0.0,0.0,0.0,0.0,0.2,0.2,0.2,0.2,0.2,0
15100000,15020000,3.1415927,3.9477668,-2.5133398,-1.2567025,-6.541884e-05,1.2565717,2.5132089,0.0,0.0,0.0,0.0,0.0,0.0,0.0,0.0,0.0,0.0,0.2,0.2,0.2,0.2,0.2,0
15108000,15028000,2.6779451,3.5802054,-2.5133471,-1.2567098,-7.276279e-05,1.2565644,2.5132015,0.0,0.0,0.0,0.0,0.0,0.0,0.0,0.0,0.0,0.0,0.2,0.2,0.2,0.2,0.2,0
15116000,15036000,-2.896614,3.6999674,-2.5133371,-1.2567,-6.294372e-05,1.2565742,2.5132113,0.0,0.0,0.0,0.0,0.0,0.0,0.0,0.0,0.0,0.0,0.2,0.2,0.2,0.2,0.2,0
15124000,15044000,2.55359,3.5546951,-2.5133154,-1.2566782,-4.111382e-05,1.256596,2.5132332,0.0,0.0,0.0,0.0,0.0,0.0,0.0,0.0,0.0,0.0,0.2,0.2,0.2,0.2,0.2,0
15132000,15052000,-2.6779451,3.580167,-2.513324,-1.2566868,-4.9736347e-05,1.2565874,2.5132246,0.0,0.0,0.0,0.0,0.0,0.0,0.0,0.0,0.0,0.0,0.2,0.2,0.2,0.2,0.2,0
15140000,15060000,-3.0172377,3.8069866,-2.513334,-1.2566969,-5.9807007e-05,1.2565773,2.5132146,0.0,0.0,0.0,0.0,0.0,0.0,0.0,0.0,0.0,0.0,0.2,0.2,0.2,0.2,0.2,0
15148000,15068000,2.782822,3.6257548,-2.5133312,-1.256694,-5.6805977e-05,1.2565804,2.5132174,0.0,0.0,0.0,0.0,0.0,0.0,0.0,0.0,0.0,0.0,0.2,0.2,0.2,0.2,0.2,0
15156000,15076000,3.1415927,3.9477677,-2.5133421,-1.256705,-6.79018e-05,1.2565691,2.5132062,0.0,0.0,0.0,0.0,0.0,0.0,0.0,0.0,0.0,0.0,0.2,0.2,0.2,0.2,0.2,0
15164000,15084000,2.5829935,3.5579388,-2.5133376,-1.2567004,-6.324275e-05,1.2565739,2.513211,0.0,0.0,0.0,0.0,0.0,0.0,0.0,0.0,0.0,0.0,0.2,0.2,0.2,0.2,0.2,0
15172000,15092000,2.896614,3.700048,-2.513311,-1.2566738,-3.669457e-05,1.2566004,2.5132375,0.0,0.0,0.0,0.0,0.0,0.0,0.0,0.0,0.0,0.0,0.2,0.2,0.2,0.2,0.2,0
15180000,15100000,2.6779451,3.5802014,-2.5133169,-1.2566798,-4.26844e-05,1.2565944,2.5132315,0.0,0.0,0.0,0.0,0.0,0.0,0.0,0.0,0.0,0.0,0.2,0.2,0.2,0.2,0.2,0
15188000,15108000,-2.9304993,3.7270958,-2.513337,-1.2566998,-6.264474e-05,1.2565745,2.5132117,0.0,0.0,0.0,0.0,0.0,0.0,0.0,0.0,0.0,0.0,0.2,0.2,0.2,0.2,0.2,0
15196000,15116000,3.041924,3.8325946,-2.513323,-1.256686,-4.8790615e-05,1.2565883,2.5132256,0.0,0.0,0.0,0.0,0.0,0.0,0.0,0.0,0.0,0.0,0.2,0.2,0.2,0.2,0.2,0
15204000,15124000,-2.2455373,3.624783,-2.5133257,-1.2566886,-5.150632e-05,1.2565856,2.513223,0.0,0.0,0.0,0.0,0.0,0.0,0.0,0.0,0.0,0.0,0.2,0.2,0.2,0.2,0.2,0
15212000,15132000,3.070285,3.8633978,-2.5133314,-1.2566942,-5.7081874e-05,1.2565801,2.5132172,0.0,0.0,0.0,0.0,0.0,0.0,0.0,0.0,0.0,0.0,0.2,0.2,0.2,0.2,0.2,0
15220000,15140000,-2.3561945,3.5777705,-2.513346,-1.256709,-7.181075e-05,1.2565653,2.5132027,0.0,0.0,0.0,0.0,0.0,0.0,0.0,0.0,0.0,0.0,0.2,0.2,0.2,0.2,0.2,0
15228000,15148000,-2.6779451,3.580167,-2.5133471,-1.25671,-7.295254e-05,1.2565641,2.5132015,0.0,0.0,0.0,0.0,0.0,0.0,0.0,0.0,0.0,0.0,0.2,0.2,0.2,0.2,0.2,0
15236000,15156000,-2.8501358,3.666497,-2.5133538,-1.2567167,-7.959878e-05,1.2565576,2.5131948,0.0,0.0,0.0,0.0,0.0,0.0,0.0,0.0,0.0,0.0,0.2,0.2,0.2,0.2,0.2,0
15244000,15164000,2.9562447,3.7493634,-2.5133476,-1.2567105,-7.334549e-05,1.2565639,2.513201,0.0,0.0,0.0,0.0,0.0,0.0,0.0,0.0,0.0,0.0,0.2,0.2,0.2,0.2,0.2,0
15252000,15172000,-2.6779451,3.580172,-2.513337,-1.2566998,-6.266871e-05,1.2565745,2.5132117,0.0,0.0,0.0,0.0,0.0,0.0,0.0,0.0,0.0,0.0,0.2,0.2,0.2,0.2,0.2,0
15260000,15180000,-2.6779451,3.5801697,-2.5133464,-1.2567093,-7.222397e-05,1.256565,2.5132022,0.0,0.0,0.0,0.0,0.0,0.0,0.0,0.0,0.0,0.0,0.2,0.2,0.2,0.2,0.2,0
15268000,15188000,-3.070285,3.863251,-2.513353,-1.256716,-7.888091e-05,1.2565583,2.5131955,0.0,0.0,0.0,0.0,0.0,0.0,0.0,0.0,0.0,0.0,0.2,0.2,0.2,0.2,0.2,0
15276000,15196000,2.782822,3.6257977,-2.5133915,-1.2567543,-0.00011714594,1.25652,2.5131571,0.0,0.0,0.0,0.0,0.0,0.0,0.0,0.0,0.0,0.0,0.2,0.2,0.2,0.2,0.2,0
15284000,15204000,-2.819842,3.6469784,-2.5134125,-1.2567753,-0.00013810938,1.256499,2.5131364,0.0,0.0,0.0,0.0,0.0,0.0,0.0,0.0,0.0,0.0,0.2,0.2,0.2,0.2,0.2,0
15292000,15212000,2.8501358,3.6666472,-2.51341,-1.2567731,-0.0001359426,1.2565013,2.5131383,0.0,0.0,0.0,0.0,0.0,0.0,0.0,0.0,0.0,0.0,0.2,0.2,0.2,0.2,0.2,0
15300000,15220000,-2.819842,3.6469705,-2.513427,-1.2567899,-0.00015277357,1.2564845,2.5131216,0.0,0.0,0.0,0.0,0.0,0.0,0.0,0.0,0.0,0.0,0.2,0.2,0.2,0.2,0.2,0
15308000,15228000,2.9996955,3.7898405,-2.5134325,-1.2567954,-0.00015818435,1.256479,2.5131161,0.0,0.0,0.0,0.0,0.0,0.0,0.0,0.0,0.0,0.0,0.2,0.2,0.2,0.2,0.2,0
15316000,15236000,-2.9304993,3.72702,-2.5134397,-1.2568026,-0.0001653494,1.2564719,2.513109,0.0,0.0,0.0,0.0,0.0,0.0,0.0,0.0,0.0,0.0,0.2,0.2,0.2,0.2,0.2,0
15324000,15244000,3.1415927,3.9476476,-2.5134485,-1.2568113,-0.0001741433,1.256463,2.5131001,0.0,0.0,0.0,0.0,0.0,0.0,0.0,0.0,0.0,0.0,0.2,0.2,0.2,0.2,0.2,0
15332000,15252000,-2.7468016,3.607533,-2.513455,-1.2568178,-0.00018072527,1.2564566,2.5130937,0.0,0.0,0.0,0.0,0.0,0.0,0.0,0.0,0.0,0.0,0.2,0.2,0.2,0.2,0.2,0
15340000,15260000,-2.976444,3.7674305,-2.5134673,-1.2568301,-0.00019296572,1.2564443,2.5130816,0.0,0.0,0.0,0.0,0.0,0.0,0.0,0.0,0.0,0.0,0.2,0.2,0.2,0.2,0.2,0
15348000,15268000,-2.7468016,3.6075227,-2.5134807,-1.2568436,-0.00020648069,1.2564309,2.513068,0.0,0.0,0.0,0.0,0.0,0.0,0.0,0.0,0.0,0.0,0.2,0.2,0.2,0.2,0.2,0
15356000,15276000,2.863293,3.6757464,-2.513487,-1.25685,-0.0002128345,1.2564244,2.5130615,0.0,0.0,0.0,0.0,0.0,0.0,0.0,0.0,0.0,0.0,0.2,0.2,0.2,0.2,0.2,0
15364000,15284000,3.0961695,3.8930879,-2.5134768,-1.2568396,-0.0002024429,1.2564349,2.513072,0.0,0.0,0.0,0.0,0.0,0.0,0.0,0.0,0.0,0.0,0.2,0.2,0.2,0.2,0.2,0
15372000,15292000,-3.0860941,3.8809826,-2.5134714,-1.2568343,-0.00019704399,1.2564403,2.5130773,0.0,0.0,0.0,0.0,0.0,0.0,0.0,0.0,0.0,0.0,0.2,0.2,0.2,0.2,0.2,0
15380000,15300000,3.070285,3.8635762,-2.5134795,-1.2568423,-0.00020515526,1.2564322,2.5130692,0.0,0.0,0.0,0.0,0.0,0.0,0.0,0.0,0.0,0.0,0.2,0.2,0.2,0.2,0.2,0
15388000,15308000,-3.070285,3.8630943,-2.5135021,-1.256865,-0.00022785229,1.2564094,2.5130465,0.0,0.0,0.0,0.0,0.0,0.0,0.0,0.0,0.0,0.0,0.2,0.2,0.2,0.2,0.2,0
15396000,15316000,2.961739,3.7544298,-2.5135212,-1.256884,-0.00024677705,1.2563906,2.5130277,0.0,0.0,0.0,0.0,0.0,0.0,0.0,0.0,0.0,0.0,0.2,0.2,0.2,0.2,0.2,0
15404000,15324000,3.0791738,3.8736033,-2.5135152,-1.2568781,-0.00024092705,1.2563964,2.5130334,0.0,0.0,0.0,0.0,0.0,0.0,0.0,0.0,0.0,0.0,0.2,0.2,0.2,0.2,0.2,0
15412000,15332000,-2.612577,3.518596,-2.514082,-1.2623158,-0.0030599488,1.2600669,2.5180962,-0.049408644,0.039258868,0.11513097,0.0733549,-0.02833611,-0.025536785,-0.07650359,-0.0079253595,0.08542507,0.0745406,0.20284586,0.20060353,0.19753979,0.19786918,0.20114166,0
15420000,15340000,-2.612574,3.5185964,-2.5140812,-1.262315,-0.0030593034,1.2600675,2.518097,-0.049408644,0.039258868,0.11513097,0.0733549,-0.02833611,-0.025536785,-0.07650359,-0.0079253595,0.08542507,0.0745406,0.20284586,0.20060353,0.19753979,0.19786918,0.20114166,0
15428000,15348000,-2.6125689,3.518597,-2.514078,-1.2623117,-0.0030559949,1.2600708,2.5181003,-0.049408644,0.039258868,0.11513097,0.0733549,-0.02833611,-0.025536785,-0.07650359,-0.0079253595,0.08542507,0.0745406,0.20284586,0.20060353,0.19753979,0.19786918,0.20114166,0
15436000,15356000,-2.6125789,3.5185976,-2.5140858,-1.2623196,-0.003063828,1.2600629,2.5180924,-0.049408644,0.039258868,0.11513097,0.0733549,-0.02833611,-0.025536785,-0.07650359,-0.0079253595,0.08542507,0.0745406,0.20284586,0.20060353,0.19753979,0.19786918,0.20114166,0
15444000,15364000,-2.6125634,3.5185993,-2.514067,-1.2623006,-0.0030448402,1.260082,2.5181112,-0.049408644,0.039258868,0.11513097,0.0733549,-0.02833611,-0.025536785,-0.07650359,-0.0079253595,0.08542507,0.0745406,0.20284586,0.20060353,0.19753979,0.19786918,0.20114166,0
15452000,15372000,-2.6125603,3.5185997,-2.5140634,-1.2622969,-0.0030412516,1.2600856,2.518115,-0.049408644,0.039258868,0.11513097,0.0733549,-0.02833611,-0.025536785,-0.07650359,-0.0079253595,0.08542507,0.0745406,0.20284586,0.20060353,0.19753979,0.19786918,0.20114166,0
15460000,15380000,-2.6125715,3.5185995,-2.5140784,-1.2623122,-0.00305642,1.2600703,2.5180998,-0.049408644,0.039258868,0.11513097,0.0733549,-0.02833611,-0.025536785,-0.07650359,-0.0079253595,0.08542507,0.0745406,0.20284586,0.20060353,0.19753979,0.19786918,0.20114166,0
15468000,15388000,-2.612574,3.5186012,-2.5140765,-1.2623103,-0.0030544698,1.2600724,2.5181017,-0.049408644,0.039258868,0.11513097,0.0733549,-0.02833611,-0.025536785,-0.07650359,-0.0079253595,0.08542507,0.0745406,0.20284586,0.20060353,0.19753979,0.19786918,0.20114166,0
15476000,15396000,-2.6125681,3.518601,-2.514075,-1.2623088,-0.0030530526,1.2600737,2.5181031,-0.049408644,0.039258868,0.11513097,0.0733549,-0.02833611,-0.025536785,-0.07650359,-0.0079253595,0.08542507,0.0745406,0.20284586,0.20060353,0.19753979,0.19786918,0.20114166,0
15484000,15404000,-2.6125617,3.518602,-2.5140681,-1.2623019,-0.0030461103,1.2600807,2.51811,-0.049408644,0.039258868,0.11513097,0.0733549,-0.02833611,-0.025536785,-0.07650359,-0.0079253595,0.08542507,0.0745406,0.20284586,0.20060353,0.19753979,0.19786918,0.20114166,0
15492000,15412000,-2.6125708,3.5186021,-2.5140774,-1.2623112,-0.0030554666,1.2600713,2.5181007,-0.049408644,0.039258868,0.11513097,0.0733549,-0.02833611,-0.025536785,-0.07650359,-0.0079253595,0.08542507,0.0745406,0.20284586,0.20060353,0.19753979,0.19786918,0.20114166,0
15500000,15420000,-2.6125703,3.5186028,-2.5140772,-1.2623107,-0.0030549967,1.2600718,2.5181012,-0.049408644,0.039258868,0.11513097,0.0733549,-0.02833611,-0.025536785,-0.07650359,-0.0079253595,0.08542507,0.0745406,0.20284586,0.20060353,0.19753979,0.19786918,0.20114166,0
15508000,15428000,-2.6125607,3.5186048,-2.5140615,-1.262295,-0.0030392967,1.2600875,2.518117,-0.049408644,0.039258868,0.11513097,0.0733549,-0.02833611,-0.025536785,-0.07650359,-0.0079253595,0.08542507,0.0745406,0.20284586,0.20060353,0.19753979,0.19786918,0.20114166,0
15516000,15436000,-2.6125448,3.5186043,-2.5140514,-1.2622851,-0.0030293684,1.2600974,2.518127,-0.049408644,0.039258868,0.11513097,0.0733549,-0.02833611,-0.025536785,-0.07650359,-0.0079253595,0.08542507,0.0745406,0.20284586,0.20060353,0.19753979,0.19786918,0.20114166,0
15524000,15444000,-2.6125622,3.5186057,-2.5140626,-1.2622962,-0.0030404911,1.2600863,2.5181158,-0.049408644,0.039258868,0.11513097,0.0733549,-0.02833611,-0.025536785,-0.07650359,-0.0079253595,0.08542507,0.0745406,0.20284586,0.20060353,0.19753979,0.19786918,0.20114166,0
15532000,15452000,-2.6125708,3.5186067,-2.5140722,-1.2623059,-0.003050095,1.2600768,2.518106,-0.049408644,0.039258868,0.11513097,0.0733549,-0.02833611,-0.025536785,-0.07650359,-0.0079253595,0.08542507,0.0745406,0.20284586,0.20060353,0.19753979,0.19786918,0.20114166,0
15540000,15460000,-2.612559,3.5186064,-2.5140626,-1.2622964,-0.003040576,1.2600862,2.5181158,-0.049408644,0.039258868,0.11513097,0.0733549,-0.02833611,-0.025536785,-0.07650359,-0.0079253595,0.08542507,0.0745406,0.20284586,0.20060353,0.19753979,0.19786918,0.20114166,0
15548000,15468000,-2.6125576,3.5186071,-2.514062,-1.2622957,-0.0030399368,1.2600869,2.5181162,-0.049408644,0.039258868,0.11513097,0.0733549,-0.02833611,-0.025536785,-0.07650359,-0.0079253595,0.08542507,0.0745406,0.20284586,0.20060353,0.19753979,0.19786918,0.20114166,0
15556000,15476000,-2.612577,3.5186076,-2.514082,-1.2623158,-0.0030599032,1.2600669,2.5180962,-0.049408644,0.039258868,0.11513097,0.0733549,-0.02833611,-0.025536785,-0.07650359,-0.0079253595,0.08542507,0.0745406,0.20284586,0.20060353,0.19753979,0.19786918,0.20114166,0
15564000,15484000,-2.6125898,3.5186076,-2.5140982,-1.262332,-0.0030761515,1.2600507,2.51808,-0.049408644,0.039258868,0.11513097,0.0733549,-0.02833611,-0.025536785,-0.07650359,-0.0079253595,0.08542507,0.0745406,0.20284586,0.20060353,0.19753979,0.19786918,0.20114166,0
15572000,15492000,-2.612579,3.5186088,-2.514084,-1.2623179,-0.0030620897,1.2600647,2.518094,-0.049408644,0.039258868,0.11513097,0.0733549,-0.02833611,-0.025536785,-0.07650359,-0.0079253595,0.08542507,0.0745406,0.20284586,0.20060353,0.19753979,0.19786918,0.20114166,0
15580000,15500000,-2.6125722,3.5186095,-2.5140762,-1.26231,-0.0030542163,1.2600726,2.518102,-0.049408644,0.039258868,0.11513097,0.0733549,-0.02833611,-0.025536785,-0.07650359,-0.0079253595,0.08542507,0.0745406,0.20284586,0.20060353,0.19753979,0.19786918,0.20114166,0
15588000,15508000,-2.61258,3.51861,-2.514084,-1.2623178,-0.003062035,1.2600647,2.518094,-0.049408644,0.039258868,0.11513097,0.0733549,-0.02833611,-0.025536785,-0.07650359,-0.0079253595,0.08542507,0.0745406,0.20284586,0.20060353,0.19753979,0.19786918,0.20114166,0
15596000,15516000,-2.6125636,3.5186112,-2.5140662,-1.2623,-0.0030442022,1.2600826,2.518112,-0.049408644,0.039258868,0.11513097,0.0733549,-0.02833611,-0.025536785,-0.07650359,-0.0079253595,0.08542507,0.0745406,0.20284586,0.20060353,0.19753979,0.19786918,0.20114166,0
15604000,15524000,-2.612575,3.5186117,-2.5140786,-1.2623124,-0.0030565632,1.2600702,2.5180995,-0.049408644,0.039258868,0.11513097,0.0733549,-0.02833611,-0.025536785,-0.07650359,-0.0079253595,0.08542507,0.0745406,0.20284586,0.20060353,0.19753979,0.19786918,0.20114166,0
15612000,15532000,-2.6125855,3.5186126,-2.5140882,-1.2623218,-0.003066054,1.2600608,2.51809,-0.049408644,0.039258868,0.11513097,0.0733549,-0.02833611,-0.025536785,-0.07650359,-0.0079253595,0.08542507,0.0745406,0.20284586,0.20060353,0.19753979,0.19786918,0.20114166,0
15620000,15540000,-2.6125762,3.5186129,-2.5140789,-1.2623127,-0.0030568046,1.26007,2.5180993,-0.049408644,0.039258868,0.11513097,0.0733549,-0.02833611,-0.025536785,-0.07650359,-0.0079253595,0.08542507,0.0745406,0.20284586,0.20060353,0.19753979,0.19786918,0.20114166,0
15628000,15548000,-2.6125648,3.5186126,-2.5140717,-1.2623055,-0.003049767,1.260077,2.5181065,-0.049408644,0.039258868,0.11513097,0.0733549,-0.02833611,-0.025536785,-0.07650359,-0.0079253595,0.08542507,0.0745406,0.20284586,0.20060353,0.19753979,0.19786918,0.20114166,0
15636000,15556000,-2.6125917,3.5186143,-2.514095,-1.2623289,-0.0030730655,1.2600538,2.518083,-0.049408644,0.039258868,0.11513097,0.0733549,-0.02833611,-0.025536785,-0.07650359,-0.0079253595,0.08542507,0.0745406,0.20284586,0.20060353,0.19753979,0.19786918,0.20114166,0
15644000,15564000,-2.612608,3.5186143,-2.5141144,-1.2623482,-0.0030923868,1.2600343,2.5180638,-0.049408644,0.039258868,0.11513097,0.0733549,-0.02833611,-0.025536785,-0.07650359,-0.0079253595,0.08542507,0.0745406,0.20284586,0.20060353,0.19753979,0.19786918,0.20114166,0
15652000,15572000,-2.6126118,3.5186155,-2.5141144,-1.2623482,-0.0030923048,1.2600346,2.5180638,-0.049408644,0.039258868,0.11513097,0.0733549,-0.02833611,-0.025536785,-0.07650359,-0.0079253595,0.08542507,0.0745406,0.20284586,0.20060353,0.19753979,0.19786918,0.20114166,0
15660000,15580000,-2.612618,3.5186162,-2.514122,-1.2623559,-0.0031000774,1.2600267,2.518056,-0.049408644,0.039258868,0.11513097,0.0733549,-0.02833611,-0.025536785,-0.07650359,-0.0079253595,0.08542507,0.0745406,0.20284586,0.20060353,0.19753979,0.19786918,0.20114166,0
15668000,15588000,-2.6126213,3.5186162,-2.5141273,-1.2623612,-0.003105365,1.2600214,2.5180507,-0.049408644,0.039258868,0.11513097,0.0733549,-0.02833611,-0.025536785,-0.07650359,-0.0079253595,0.08542507,0.0745406,0.20284586,0.20060353,0.19753979,0.19786918,0.20114166,0
15676000,15596000,-2.612628,3.5186179,-2.514127,-1.2623607,-0.0031048926,1.2600219,2.5180511,-0.049408644,0.039258868,0.11513097,0.0733549,-0.02833611,-0.025536785,-0.07650359,-0.0079253595,0.08542507,0.0745406,0.20284586,0.20060353,0.19753979,0.19786918,0.20114166,0
15684000,15604000,-2.6126282,3.518618,-2.514132,-1.2623658,-0.0031100253,1.2600168,2.5180461,-0.049408644,0.039258868,0.11513097,0.0733549,-0.02833611,-0.025536785,-0.07650359,-0.0079253595,0.08542507,0.0745406,0.20284586,0.20060353,0.19753979,0.19786918,0.20114166,0
15692000,15612000,-2.6126246,3.5186176,-2.5141323,-1.262366,-0.003110304,1.2600164,2.518046,-0.049408644,0.039258868,0.11513097,0.0733549,-0.02833611,-0.025536785,-0.07650359,-0.0079253595,0.08542507,0.0745406,0.20284586,0.20060353,0.19753979,0.19786918,0.20114166,0
15700000,15620000,-2.612606,3.5186183,-2.5141134,-1.2623473,-0.0030915397,1.2600353,2.5180645,-0.049408644,0.039258868,0.11513097,0.0733549,-0.02833611,-0.025536785,-0.07650359,-0.0079253595,0.08542507,0.0745406,0.20284586,0.20060353,0.19753979,0.19786918,0.20114166,0
15708000,15628000,-2.6125965,3.5186195,-2.5141022,-1.262336,-0.0030802386,1.2600466,2.518076,-0.049408644,0.039258868,0.11513097,0.0733549,-0.02833611,-0.025536785,-0.07650359,-0.0079253595,0.08542507,0.0745406,0.20284586,0.20060353,0.19753979,0.19786918,0.20114166,0
15716000,15636000,-2.6125944,3.5186207,-2.514098,-1.2623317,-0.003075875,1.2600509,2.5180802,-0.049408644,0.039258868,0.11513097,0.0733549,-0.02833611,-0.025536785,-0.07650359,-0.0079253595,0.08542507,0.0745406,0.20284586,0.20060353,0.19753979,0.19786918,0.20114166,0
15724000,15644000,-2.6126225,3.5186207,-2.5141258,-1.2623596,-0.0031037338,1.2600231,2.5180526,-0.049408644,0.039258868,0.11513097,0.0733549,-0.02833611,-0.025536785,-0.07650359,-0.0079253595,0.08542507,0.0745406,0.20284586,0.20060353,0.19753979,0.19786918,0.20114166,0
15732000,15652000,-2.6126444,3.5186224,-2.514144,-1.2623777,-0.0031218515,1.260005,2.5180342,-0.049408644,0.039258868,0.11513097,0.0733549,-0.02833611,-0.025536785,-0.07650359,-0.0079253595,0.08542507,0.0745406,0.20284586,0.20060353,0.19753979,0.19786918,0.20114166,0
15740000,15660000,-2.612634,3.5186222,-2.5141366,-1.2623703,-0.0031144544,1.2600124,2.5180418,-0.049408644,0.039258868,0.11513097,0.0733549,-0.02833611,-0.025536785,-0.07650359,-0.0079253595,0.08542507,0.0745406,0.20284586,0.20060353,0.19753979,0.19786918,0.20114166,0
15748000,15668000,-2.612621,3.5186234,-2.5141222,-1.2623559,-0.003100077,1.2600267,2.5180562,-0.049408644,0.039258868,0.11513097,0.0733549,-0.02833611,-0.025536785,-0.07650359,-0.0079253595,0.08542507,0.0745406,0.20284586,0.20060353,0.19753979,0.19786918,0.20114166,0
15756000,15676000,-2.61262,3.518624,-2.514123,-1.2623565,-0.0031007268,1.260026,2.5180554,-0.049408644,0.039258868,0.11513097,0.0733549,-0.02833611,-0.025536785,-0.07650359,-0.0079253595,0.08542507,0.0745406,0.20284586,0.20060353,0.19753979,0.19786918,0.20114166,0
15764000,15684000,-2.6126184,3.5186243,-2.5141196,-1.2623534,-0.003097511,1.2600293,2.5180588,-0.049408644,0.039258868,0.11513097,0.0733549,-0.02833611,-0.025536785,-0.07650359,-0.0079253595,0.08542507,0.0745406,0.20284586,0.20060353,0.19753979,0.19786918,0.20114166,0
15772000,15692000,-2.6126165,3.5186253,-2.514119,-1.2623527,-0.0030968988,1.2600299,2.5180593,-0.049408644,0.039258868,0.11513097,0.0733549,-0.02833611,-0.025536785,-0.07650359,-0.0079253595,0.08542507,0.0745406,0.20284586,0.20060353,0.19753979,0.19786918,0.20114166,0
15780000,15700000,-2.6126175,3.5186257,-2.5141191,-1.262353,-0.0030970387,1.2600298,2.5180593,-0.049408644,0.039258868,0.11513097,0.0733549,-0.02833611,-0.025536785,-0.07650359,-0.0079253595,0.08542507,0.0745406,0.20284586,0.20060353,0.19753979,0.19786918,0.20114166,0
15788000,15708000,-2.6126096,3.5186253,-2.5141182,-1.262352,-0.0030961966,1.2600306,2.5180602,-0.049408644,0.039258868,0.11513097,0.0733549,-0.02833611,-0.025536785,-0.07650359,-0.0079253595,0.08542507,0.0745406,0.20284586,0.20060353,0.19753979,0.19786918,0.20114166,0
15796000,15716000,-2.6125894,3.518627,-2.5140905,-1.2623242,-0.0030683395,1.2600585,2.5180879,-0.049408644,0.039258868,0.11513097,0.0733549,-0.02833611,-0.025536785,-0.07650359,-0.0079253595,0.08542507,0.0745406,0.20284586,0.20060353,0.19753979,0.19786918,0.20114166,0
15804000,15724000,-2.9133022,3.6466837,-2.5160027,-1.2632816,-0.0017431276,1.2618324,2.5178545,-0.1046472,0.01537033,0.119979195,0.06333901,-0.07558516,-0.05319105,-0.12351221,-0.030738093,0.09750312,0.08276612,0.20308407,0.1997002,0.1967495,0.19827363,0.20219256,0
15812000,15732000,-2.9133153,3.6466825,-2.5160177,-1.2632966,-0.0017582172,1.2618172,2.5178394,-0.1046472,0.01537033,0.119979195,0.06333901,-0.07558516,-0.05319105,-0.12351221,-0.030738093,0.09750312,0.08276612,0.20308407,0.1997002,0.1967495,0.19827363,0.20219256,0
15820000,15740000,-2.9133208,3.6466875,-2.516018,-1.2632967,-0.0017583605,1.2618171,2.5178392,-0.1046472,0.01537033,0.119979195,0.06333901,-0.07558516,-0.05319105,-0.12351221,-0.030738093,0.09750312,0.08276612,0.20308407,0.1997002,0.1967495,0.19827363,0.20219256,0
15828000,15748000,-2.9132967,3.646684,-2.5159993,-1.2632782,-0.0017398961,1.2618356,2.5178578,-0.1046472,0.01537033,0.119979195,0.06333901,-0.07558516,-0.05319105,-0.12351221,-0.030738093,0.09750312,0.08276612,0.20308407,0.1997002,0.1967495,0.19827363,0.20219256,0
15836000,15756000,-2.9133058,3.6466851,-2.516008,-1.2632867,-0.0017483252,1.2618272,2.5178494,-0.1046472,0.01537033,0.119979195,0.06333901,-0.07558516,-0.05319105,-0.12351221,-0.030738093,0.09750312,0.08276612,0.20308407,0.1997002,0.1967495,0.19827363,0.20219256,0
15844000,15764000,-2.9133039,3.6466856,-2.5160055,-1.2632844,-0.001746067,1.2618294,2.5178516,-0.1046472,0.01537033,0.119979195,0.06333901,-0.07558516,-0.05319105,-0.12351221,-0.030738093,0.09750312,0.08276612,0.20308407,0.1997002,0.1967495,0.19827363,0.20219256,0
15852000,15772000,-2.9133177,3.6466851,-2.5160215,-1.2633004,-0.0017620393,1.2618134,2.5178356,-0.1046472,0.01537033,0.119979195,0.06333901,-0.07558516,-0.05319105,-0.12351221,-0.030738093,0.09750312,0.08276612,0.20308407,0.1997002,0.1967495,0.19827363,0.20219256,0
15860000,15780000,-2.9133244,3.6466851,-2.5160284,-1.2633073,-0.0017688598,1.2618066,2.517829,-0.1046472,0.01537033,0.119979195,0.06333901,-0.07558516,-0.05319105,-0.12351221,-0.030738093,0.09750312,0.08276612,0.20308407,0.1997002,0.1967495,0.19827363,0.20219256,0
15868000,15788000,-2.913326,3.646686,-2.5160294,-1.2633083,-0.0017697973,1.2618057,2.517828,-0.1046472,0.01537033,0.119979195,0.06333901,-0.07558516,-0.05319105,-0.12351221,-0.030738093,0.09750312,0.08276612,0.20308407,0.1997002,0.1967495,0.19827363,0.20219256,0
15876000,15796000,-2.913343,3.646686,-2.516047,-1.2633262,-0.0017876142,1.2617879,2.51781,-0.1046472,0.01537033,0.119979195,0.06333901,-0.07558516,-0.05319105,-0.12351221,-0.030738093,0.09750312,0.08276612,0.20308407,0.1997002,0.1967495,0.19827363,0.20219256,0
15884000,15804000,-2.9133499,3.646689,-2.5160518,-1.2633308,-0.0017923418,1.2617831,2.5178053,-0.1046472,0.01537033,0.119979195,0.06333901,-0.07558516,-0.05319105,-0.12351221,-0.030738093,0.09750312,0.08276612,0.20308407,0.1997002,0.1967495,0.19827363,0.20219256,0
15892000,15812000,-2.9133577,3.6466901,-2.5160582,-1.2633371,-0.0017986406,1.2617769,2.5177991,-0.1046472,0.01537033,0.119979195,0.06333901,-0.07558516,-0.05319105,-0.12351221,-0.030738093,0.09750312,0.08276612,0.20308407,0.1997002,0.1967495,0.19827363,0.20219256,0
15900000,15820000,-2.9133651,3.646688,-2.5160694,-1.2633483,-0.0018099147,1.2617656,2.517788,-0.1046472,0.01537033,0.119979195,0.06333901,-0.07558516,-0.05319105,-0.12351221,-0.030738093,0.09750312,0.08276612,0.20308407,0.1997002,0.1967495,0.19827363,0.20219256,0
15908000,15828000,-2.9133651,3.6466923,-2.5160651,-1.2633439,-0.0018054508,1.26177,2.5177922,-0.1046472,0.01537033,0.119979195,0.06333901,-0.07558516,-0.05319105,-0.12351221,-0.030738093,0.09750312,0.08276612,0.20308407,0.1997002,0.1967495,0.19827363,0.20219256,0
15916000,15836000,-2.913355,3.6466908,-2.5160575,-1.2633364,-0.0017979861,1.2617775,2.5177996,-0.1046472,0.01537033,0.119979195,0.06333901,-0.07558516,-0.05319105,-0.12351221,-0.030738093,0.09750312,0.08276612,0.20308407,0.1997002,0.1967495,0.19827363,0.20219256,0
15924000,15844000,-2.9133594,3.646693,-2.5160599,-1.2633388,-0.0018002606,1.2617753,2.5177975,-0.1046472,0.01537033,0.119979195,0.06333901,-0.07558516,-0.05319105,-0.12351221,-0.030738093,0.09750312,0.08276612,0.20308407,0.1997002,0.1967495,0.19827363,0.20219256,0
15932000,15852000,-2.9133716,3.6466932,-2.5160725,-1.2633516,-0.0018130295,1.2617625,2.5177846,-0.1046472,0.01537033,0.119979195,0.06333901,-0.07558516,-0.05319105,-0.12351221,-0.030738093,0.09750312,0.08276612,0.20308407,0.1997002,0.1967495,0.19827363,0.20219256,0
15940000,15860000,-2.913383,3.646692,-2.5160863,-1.2633653,-0.0018268635,1.2617487,2.5177708,-0.1046472,0.01537033,0.119979195,0.06333901,-0.07558516,-0.05319105,-0.12351221,-0.030738093,0.09750312,0.08276612,0.20308407,0.1997002,0.1967495,0.19827363,0.20219256,0
15948000,15868000,-2.9133832,3.6466925,-2.516086,-1.2633651,-0.001826624,1.2617489,2.517771,-0.1046472,0.01537033,0.119979195,0.06333901,-0.07558516,-0.05319105,-0.12351221,-0.030738093,0.09750312,0.08276612,0.20308407,0.1997002,0.1967495,0.19827363,0.20219256,0
15956000,15876000,-2.9133842,3.646694,-2.5160868,-1.2633657,-0.0018273101,1.2617482,2.5177703,-0.1046472,0.01537033,0.119979195,0.06333901,-0.07558516,-0.05319105,-0.12351221,-0.030738093,0.09750312,0.08276612,0.20308407,0.1997002,0.1967495,0.19827363,0.20219256,0
15964000,15884000,-2.9133744,3.6466942,-2.5160778,-1.2633566,-0.0018181438,1.2617574,2.5177796,-0.1046472,0.01537033,0.119979195,0.06333901,-0.07558516,-0.05319105,-0.12351221,-0.030738093,0.09750312,0.08276612,0.20308407,0.1997002,0.1967495,0.19827363,0.20219256,0
15972000,15892000,-2.9133704,3.6466956,-2.5160723,-1.2633513,-0.0018128136,1.2617627,2.5177848,-0.1046472,0.01537033,0.119979195,0.06333901,-0.07558516,-0.05319105,-0.12351221,-0.030738093,0.09750312,0.08276612,0.20308407,0.1997002,0.1967495,0.19827363,0.20219256,0
15980000,15900000,-2.9133704,3.6466959,-2.5160723,-1.2633513,-0.0018128449,1.2617627,2.5177848,-0.1046472,0.01537033,0.119979195,0.06333901,-0.07558516,-0.05319105,-0.12351221,-0.030738093,0.09750312,0.08276612,0.20308407,0.1997002,0.1967495,0.19827363,0.20219256,0
15988000,15908000,-2.9133658,3.646696,-2.516069,-1.2633479,-0.0018094152,1.2617662,2.5177884,-0.1046472,0.01537033,0.119979195,0.06333901,-0.07558516,-0.05319105,-0.12351221,-0.030738093,0.09750312,0.08276612,0.20308407,0.1997002,0.1967495,0.19827363,0.20219256,0
15996000,15916000,-2.9133623,3.646698,-2.516063,-1.2633419,-0.001803444,1.2617722,2.5177941,-0.1046472,0.01537033,0.119979195,0.06333901,-0.07558516,-0.05319105,-0.12351221,-0.030738093,0.09750312,0.08276612,0.20308407,0.1997002,0.1967495,0.19827363,0.20219256,0
16004000,15924000,-2.9133506,3.6466959,-2.5160556,-1.2633345,-0.0017960265,1.2617795,2.5178018,-0.1046472,0.01537033,0.119979195,0.06333901,-0.07558516,-0.05319105,-0.12351221,-0.030738093,0.09750312,0.08276612,0.20308407,0.1997002,0.1967495,0.19827363,0.20219256,0
16012000,15932000,-2.9133465,3.646698,-2.516049,-1.2633281,-0.0017894832,1.2617861,2.5178082,-0.1046472,0.01537033,0.119979195,0.06333901,-0.07558516,-0.05319105,-0.12351221,-0.030738093,0.09750312,0.08276612,0.20308407,0.1997002,0.1967495,0.19827363,0.20219256,0
16020000,15940000,-2.9133453,3.6466978,-2.516049,-1.2633278,-0.0017893305,1.2617862,2.5178084,-0.1046472,0.01537033,0.119979195,0.06333901,-0.07558516,-0.05319105,-0.12351221,-0.030738093,0.09750312,0.08276612,0.20308407,0.1997002,0.1967495,0.19827363,0.20219256,0
16028000,15948000,-2.9133673,3.6467023,-2.516066,-1.263345,-0.0018064452,1.2617692,2.5177913,-0.1046472,0.01537033,0.119979195,0.06333901,-0.07558516,-0.05319105,-0.12351221,-0.030738093,0.09750312,0.08276612,0.20308407,0.1997002,0.1967495,0.19827363,0.20219256,0
16036000,15956000,-2.9133725,3.6467009,-2.516074,-1.2633529,-0.0018143547,1.2617612,2.5177834,-0.1046472,0.01537033,0.119979195,0.06333901,-0.07558516,-0.05319105,-0.12351221,-0.030738093,0.09750312,0.08276612,0.20308407,0.1997002,0.1967495,0.19827363,0.20219256,0
16044000,15964000,-2.9133737,3.6467004,-2.5160766,-1.2633556,-0.0018170592,1.2617586,2.5177808,-0.1046472,0.01537033,0.119979195,0.06333901,-0.07558516,-0.05319105,-0.12351221,-0.030738093,0.09750312,0.08276612,0.20308407,0.1997002,0.1967495,0.19827363,0.20219256,0
16052000,15972000,-2.9133837,3.646703,-2.516084,-1.2633629,-0.0018243646,1.2617512,2.5177734,-0.1046472,0.01537033,0.119979195,0.06333901,-0.07558516,-0.05319105,-0.12351221,-0.030738093,0.09750312,0.08276612,0.20308407,0.1997002,0.1967495,0.19827363,0.20219256,0
16060000,15980000,-2.9133995,3.6467037,-2.5160995,-1.2633785,-0.0018399986,1.2617357,2.5177577,-0.1046472,0.01537033,0.119979195,0.06333901,-0.07558516,-0.05319105,-0.12351221,-0.030738093,0.09750312,0.08276612,0.20308407,0.1997002,0.1967495,0.19827363,0.20219256,0
16068000,15988000,-2.9134285,3.6467023,-2.5161316,-1.2634107,-0.001872175,1.2617035,2.5177255,-0.1046472,0.01537033,0.119979195,0.06333901,-0.07558516,-0.05319105,-0.12351221,-0.030738093,0.09750312,0.08276612,0.20308407,0.1997002,0.1967495,0.19827363,0.20219256,0
16076000,15996000,-2.9134555,3.6467037,-2.5161567,-1.2634356,-0.00189705,1.2616786,2.5177007,-0.1046472,0.01537033,0.119979195,0.06333901,-0.07558516,-0.05319105,-0.12351221,-0.030738093,0.09750312,0.08276612,0.20308407,0.1997002,0.1967495,0.19827363,0.20219256,0
16084000,16004000,-2.9134688,3.6467037,-2.5161715,-1.2634504,-0.001911925,1.2616637,2.517686,-0.1046472,0.01537033,0.119979195,0.06333901,-0.07558516,-0.05319105,-0.12351221,-0.030738093,0.09750312,0.08276612,0.20308407,0.1997002,0.1967495,0.19827363,0.20219256,0
16092000,16012000,-2.913476,3.6467059,-2.5161762,-1.2634552,-0.0019165358,1.2616591,2.5176811,-0.1046472,0.01537033,0.119979195,0.06333901,-0.07558516,-0.05319105,-0.12351221,-0.030738093,0.09750312,0.08276612,0.20308407,0.1997002,0.1967495,0.19827363,0.20219256,0
16100000,16020000,-2.913468,3.6467054,-2.5161695,-1.2634485,-0.0019099279,1.2616657,2.5176878,-0.1046472,0.01537033,0.119979195,0.06333901,-0.07558516,-0.05319105,-0.12351221,-0.030738093,0.09750312,0.08276612,0.20308407,0.1997002,0.1967495,0.19827363,0.20219256,0
16108000,16028000,-2.9134583,3.6467056,-2.5161607,-1.2634397,-0.0019011165,1.2616744,2.5176966,-0.1046472,0.01537033,0.119979195,0.06333901,-0.07558516,-0.05319105,-0.12351221,-0.030738093,0.09750312,0.08276612,0.20308407,0.1997002,0.1967495,0.19827363,0.20219256,0
16116000,16036000,-2.913453,3.6467035,-2.516159,-1.2634381,-0.0018995712,1.2616761,2.5176983,-0.1046472,0.01537033,0.119979195,0.06333901,-0.07558516,-0.05319105,-0.12351221,-0.030738093,0.09750312,0.08276612,0.20308407,0.1997002,0.1967495,0.19827363,0.20219256,0
16124000,16044000,-2.9134607,3.646708,-2.5161614,-1.2634403,-0.0019017494,1.2616739,2.5176961,-0.1046472,0.01537033,0.119979195,0.06333901,-0.07558516,-0.05319105,-0.12351221,-0.030738093,0.09750312,0.08276612,0.20308407,0.1997002,0.1967495,0.19827363,0.20219256,0
16132000,16052000,-2.9134676,3.6467094,-2.5161676,-1.2634465,-0.0019079233,1.2616677,2.51769,-0.1046472,0.01537033,0.119979195,0.06333901,-0.07558516,-0.05319105,-0.12351221,-0.030738093,0.09750312,0.08276612,0.20308407,0.1997002,0.1967495,0.19827363,0.20219256,0
16140000,16060000,-2.9134636,3.646709,-2.5161643,-1.2634432,-0.0019046266,1.261671,2.5176933,-0.1046472,0.01537033,0.119979195,0.06333901,-0.07558516,-0.05319105,-0.12351221,-0.030738093,0.09750312,0.08276612,0.20308407,0.1997002,0.1967495,0.19827363,0.20219256,0
16148000,16068000,-2.913453,3.6467102,-2.5161538,-1.2634326,-0.0018941025,1.2616816,2.5177038,-0.1046472,0.01537033,0.119979195,0.06333901,-0.07558516,-0.05319105,-0.12351221,-0.030738093,0.09750312,0.08276612,0.20308407,0.1997002,0.1967495,0.19827363,0.20219256,0
16156000,16076000,-2.913476,3.6467118,-2.5161757,-1.2634546,-0.0019160097,1.2616596,2.5176818,-0.1046472,0.01537033,0.119979195,0.06333901,-0.07558516,-0.05319105,-0.12351221,-0.030738093,0.09750312,0.08276612,0.20308407,0.1997002,0.1967495,0.19827363,0.20219256,0
16164000,16084000,-2.913492,3.6467118,-2.5161922,-1.263471,-0.0019325166,1.2616432,2.5176654,-0.1046472,0.01537033,0.119979195,0.06333901,-0.07558516,-0.05319105,-0.12351221,-0.030738093,0.09750312,0.08276612,0.20308407,0.1997002,0.1967495,0.19827363,0.20219256,0
16172000,16092000,-2.9134915,3.6467109,-2.5161939,-1.2634728,-0.001934303,1.2616413,2.5176635,-0.1046472,0.01537033,0.119979195,0.06333901,-0.07558516,-0.05319105,-0.12351221,-0.030738093,0.09750312,0.08276612,0.20308407,0.1997002,0.1967495,0.19827363,0.20219256,0
16180000,16100000,-2.9134927,3.646711,-2.5161953,-1.2634742,-0.0019357135,1.2616398,2.517662,-0.1046472,0.01537033,0.119979195,0.06333901,-0.07558516,-0.05319105,-0.12351221,-0.030738093,0.09750312,0.08276612,0.20308407,0.1997002,0.1967495,0.19827363,0.20219256,0
16188000,16108000,-2.913505,3.6467142,-2.5162048,-1.2634835,-0.0019450453,1.2616305,2.5176528,-0.1046472,0.01537033,0.119979195,0.06333901,-0.07558516,-0.05319105,-0.12351221,-0.030738093,0.09750312,0.08276612,0.20308407,0.1997002,0.1967495,0.19827363,0.20219256,0
16196000,16116000,-2.9135141,3.6467104,-2.5162191,-1.2634981,-0.0019595912,1.2616161,2.5176382,-0.1046472,0.01537033,0.119979195,0.06333901,-0.07558516,-0.05319105,-0.12351221,-0.030738093,0.09750312,0.08276612,0.20308407,0.1997002,0.1967495,0.19827363,0.20219256,0
16204000,16124000,-2.913527,3.6467164,-2.516225,-1.263504,-0.0019654706,1.2616103,2.5176322,-0.1046472,0.01537033,0.119979195,0.06333901,-0.07558516,-0.05319105,-0.12351221,-0.030738093,0.09750312,0.08276612,0.20308407,0.1997002,0.1967495,0.19827363,0.20219256,0
16212000,16132000,2.7438502,3.5025227,-2.5211177,-1.2639065,0.0026629372,1.2648088,2.5149434,-0.13400131,0.015345015,0.14718358,0.07731629,-0.096246034,-0.07173162,-0.16105086,-0.04585357,0.11494405,0.097722985,0.20242257,0.19686036,0.19564117,0.20041935,0.20465659,0
16220000,16140000,2.7438385,3.5025222,-2.5211272,-1.263916,0.0026534298,1.2647994,2.5149338,-0.13400131,0.015345015,0.14718358,0.07731629,-0.096246034,-0.07173162,-0.16105086,-0.04585357,0.11494405,0.097722985,0.20242257,0.19686036,0.19564117,0.20041935,0.20465659,0
16228000,16148000,2.7438252,3.5025227,-2.5211403,-1.2639291,0.0026402422,1.2647861,2.5149207,-0.13400131,0.015345015,0.14718358,0.07731629,-0.096246034,-0.07173162,-0.16105086,-0.04585357,0.11494405,0.097722985,0.20242257,0.19686036,0.19564117,0.20041935,0.20465659,0
16236000,16156000,2.7438328,3.5025234,-2.5211334,-1.2639222,0.0026472716,1.2647932,2.5149276,-0.13400131,0.015345015,0.14718358,0.07731629,-0.096246034,-0.07173162,-0.16105086,-0.04585357,0.11494405,0.097722985,0.20242257,0.19686036,0.19564117,0.20041935,0.20465659,0
16244000,16164000,2.7438383,3.5025241,-2.5211275,-1.2639163,0.002653125,1.264799,2.5149336,-0.13400131,0.015345015,0.14718358,0.07731629,-0.096246034,-0.07173162,-0.16105086,-0.04585357,0.11494405,0.097722985,0.20242257,0.19686036,0.19564117,0.20041935,0.20465659,0
16252000,16172000,2.743851,3.5025246,-2.5211148,-1.2639034,0.0026659851,1.2648119,2.5149465,-0.13400131,0.015345015,0.14718358,0.07731629,-0.096246034,-0.07173162,-0.16105086,-0.04585357,0.11494405,0.097722985,0.20242257,0.19686036,0.19564117,0.20041935,0.20465659,0
16260000,16180000,2.7438512,3.5025241,-2.5211122,-1.2639009,0.002668533,1.2648145,2.5149488,-0.13400131,0.015345015,0.14718358,0.07731629,-0.096246034,-0.07173162,-0.16105086,-0.04585357,0.11494405,0.097722985,0.20242257,0.19686036,0.19564117,0.20041935,0.20465659,0
16268000,16188000,2.7438512,3.502526,-2.5211148,-1.2639036,0.0026658415,1.2648118,2.5149462,-0.13400131,0.015345015,0.14718358,0.07731629,-0.096246034,-0.07173162,-0.16105086,-0.04585357,0.11494405,0.097722985,0.20242257,0.19686036,0.19564117,0.20041935,0.20465659,0
16276000,16196000,2.743841,3.5025268,-2.5211253,-1.263914,0.0026554726,1.2648014,2.514936,-0.13400131,0.015345015,0.14718358,0.07731629,-0.096246034,-0.07173162,-0.16105086,-0.04585357,0.11494405,0.097722985,0.20242257,0.19686036,0.19564117,0.20041935,0.20465659,0
16284000,16204000,2.7438066,3.5025263,-2.5211575,-1.2639463,0.002623177,1.2647691,2.5149035,-0.13400131,0.015345015,0.14718358,0.07731629,-0.096246034,-0.07173162,-0.16105086,-0.04585357,0.11494405,0.097722985,0.20242257,0.19686036,0.19564117,0.20041935,0.20465659,0
16292000,16212000,2.7437973,3.5025277,-2.5211682,-1.263957,0.0026124362,1.2647583,2.5148928,-0.13400131,0.015345015,0.14718358,0.07731629,-0.096246034,-0.07173162,-0.16105086,-0.04585357,0.11494405,0.097722985,0.20242257,0.19686036,0.19564117,0.20041935,0.20465659,0
16300000,16220000,2.743777,3.5025282,-2.5211887,-1.2639774,0.002592001,1.2647378,2.5148726,-0.13400131,0.015345015,0.14718358,0.07731629,-0.096246034,-0.07173162,-0.16105086,-0.04585357,0.11494405,0.097722985,0.20242257,0.19686036,0.19564117,0.20041935,0.20465659,0
16308000,16228000,2.7437608,3.5025284,-2.5212038,-1.2639924,0.0025769998,1.264723,2.5148573,-0.13400131,0.015345015,0.14718358,0.07731629,-0.096246034,-0.07173162,-0.16105086,-0.04585357,0.11494405,0.097722985,0.20242257,0.19686036,0.19564117,0.20041935,0.20465659,0
16316000,16236000,2.7437584,3.5025303,-2.5212088,-1.2639976,0.0025718773,1.2647178,2.5148523,-0.13400131,0.015345015,0.14718358,0.07731629,-0.096246034,-0.07173162,-0.16105086,-0.04585357,0.11494405,0.097722985,0.20242257,0.19686036,0.19564117,0.20041935,0.20465659,0
16324000,16244000,2.7437322,3.50253,-2.521233,-1.2640219,0.0025475507,1.2646934,2.514828,-0.13400131,0.015345015,0.14718358,0.07731629,-0.096246034,-0.07173162,-0.16105086,-0.04585357,0.11494405,0.097722985,0.20242257,0.19686036,0.19564117,0.20041935,0.20465659,0
16332000,16252000,2.7437263,3.5025303,-2.5212388,-1.2640275,0.0025419495,1.2646878,2.5148225,-0.13400131,0.015345015,0.14718358,0.07731629,-0.096246034,-0.07173162,-0.16105086,-0.04585357,0.11494405,0.097722985,0.20242257,0.19686036,0.19564117,0.20041935,0.20465659,0
16340000,16260000,2.7437215,3.5025318,-2.521245,-1.2640339,0.0025355415,1.2646815,2.514816,-0.13400131,0.015345015,0.14718358,0.07731629,-0.096246034,-0.07173162,-0.16105086,-0.04585357,0.11494405,0.097722985,0.20242257,0.19686036,0.19564117,0.20041935,0.20465659,0
16348000,16268000,2.7437115,3.5025315,-2.5212533,-1.264042,0.0025273701,1.2646732,2.5148077,-0.13400131,0.015345015,0.14718358,0.07731629,-0.096246034,-0.07173162,-0.16105086,-0.04585357,0.11494405,0.097722985,0.20242257,0.19686036,0.19564117,0.20041935,0.20465659,0
16356000,16276000,2.7436984,3.5025318,-2.521265,-1.2640536,0.0025157488,1.2646617,2.5147963,-0.13400131,0.015345015,0.14718358,0.07731629,-0.096246034,-0.07173162,-0.16105086,-0.04585357,0.11494405,0.097722985,0.20242257,0.19686036,0.19564117,0.20041935,0.20465659,0
16364000,16284000,2.7437038,3.5025337,-2.5212624,-1.2640512,0.0025181905,1.2646642,2.5147986,-0.13400131,0.015345015,0.14718358,0.07731629,-0.096246034,-0.07173162,-0.16105086,-0.04585357,0.11494405,0.097722985,0.20242257,0.19686036,0.19564117,0.20041935,0.20465659,0
16372000,16292000,2.7437124,3.5025342,-2.5212529,-1.2640415,0.0025277913,1.2646737,2.5148082,-0.13400131,0.015345015,0.14718358,0.07731629,-0.096246034,-0.07173162,-0.16105086,-0.04585357,0.11494405,0.097722985,0.20242257,0.19686036,0.19564117,0.20041935,0.20465659,0
16380000,16300000,2.7437234,3.5025342,-2.5212407,-1.2640293,0.0025400727,1.264686,2.5148206,-0.13400131,0.015345015,0.14718358,0.07731629,-0.096246034,-0.07173162,-0.16105086,-0.04585357,0.11494405,0.097722985,0.20242257,0.19686036,0.19564117,0.20041935,0.20465659,0
16388000,16308000,2.7437263,3.502535,-2.5212388,-1.2640274,0.0025419989,1.2646879,2.5148225,-0.13400131,0.015345015,0.14718358,0.07731629,-0.096246034,-0.07173162,-0.16105086,-0.04585357,0.11494405,0.097722985,0.20242257,0.19686036,0.19564117,0.20041935,0.20465659,0
16396000,16316000,2.7437248,3.502536,-2.5212417,-1.2640303,0.0025390387,1.2646849,2.5148196,-0.13400131,0.015345015,0.14718358,0.07731629,-0.096246034,-0.07173162,-0.16105086,-0.04585357,0.11494405,0.097722985,0.20242257,0.19686036,0.19564117,0.20041935,0.20465659,0
16404000,16324000,2.7437139,3.5025377,-2.521254,-1.2640429,0.0025264928,1.2646724,2.514807,-0.13400131,0.015345015,0.14718358,0.07731629,-0.096246034,-0.07173162,-0.16105086,-0.04585357,0.11494405,0.097722985,0.20242257,0.19686036,0.19564117,0.20041935,0.20465659,0
16412000,16332000,2.743714,3.5025375,-2.5212524,-1.2640411,0.0025282977,1.2646742,2.5148087,-0.13400131,0.015345015,0.14718358,0.07731629,-0.096246034,-0.07173162,-0.16105086,-0.04585357,0.11494405,0.097722985,0.20242257,0.19686036,0.19564117,0.20041935,0.20465659,0
16420000,16340000,2.7437282,3.5025375,-2.5212371,-1.2640259,0.002543468,1.2646894,2.514824,-0.13400131,0.015345015,0.14718358,0.07731629,-0.096246034,-0.07173162,-0.16105086,-0.04585357,0.11494405,0.097722985,0.20242257,0.19686036,0.19564117,0.20041935,0.20465659,0
16428000,16348000,2.7437239,3.5025384,-2.5212421,-1.2640309,0.0025384405,1.2646844,2.514819,-0.13400131,0.015345015,0.14718358,0.07731629,-0.096246034,-0.07173162,-0.16105086,-0.04585357,0.11494405,0.097722985,0.20242257,0.19686036,0.19564117,0.20041935,0.20465659,0
16436000,16356000,2.743725,3.5025394,-2.5212412,-1.26403,0.0025394377,1.2646854,2.5148199,-0.13400131,0.015345015,0.14718358,0.07731629,-0.096246034,-0.07173162,-0.16105086,-0.04585357,0.11494405,0.097722985,0.20242257,0.19686036,0.19564117,0.20041935,0.20465659,0
16444000,16364000,2.7437067,3.502541,-2.5212622,-1.264051,0.002518546,1.2646644,2.514799,-0.13400131,0.015345015,0.14718358,0.07731629,-0.096246034,-0.07173162,-0.16105086,-0.04585357,0.11494405,0.097722985,0.20242257,0.19686036,0.19564117,0.20041935,0.20465659,0
16452000,16372000,2.7437153,3.50254,-2.5212498,-1.2640386,0.0025308083,1.2646767,2.5148113,-0.13400131,0.015345015,0.14718358,0.07731629,-0.096246034,-0.07173162,-0.16105086,-0.04585357,0.11494405,0.097722985,0.20242257,0.19686036,0.19564117,0.20041935,0.20465659,0
16460000,16380000,2.743725,3.50254,-2.5212388,-1.2640276,0.0025417856,1.2646878,2.5148222,-0.13400131,0.015345015,0.14718358,0.07731629,-0.096246034,-0.07173162,-0.16105086,-0.04585357,0.11494405,0.097722985,0.20242257,0.19686036,0.19564117,0.20041935,0.20465659,0
16468000,16388000,2.743712,3.502542,-2.5212545,-1.2640433,0.0025261033,1.264672,2.5148065,-0.13400131,0.015345015,0.14718358,0.07731629,-0.096246034,-0.07173162,-0.16105086,-0.04585357,0.11494405,0.097722985,0.20242257,0.19686036,0.19564117,0.20041935,0.20465659,0
16476000,16396000,2.7436986,3.5025432,-2.5212698,-1.2640586,0.002510854,1.2646568,2.5147915,-0.13400131,0.015345015,0.14718358,0.07731629,-0.096246034,-0.07173162,-0.16105086,-0.04585357,0.11494405,0.097722985,0.20242257,0.19686036,0.19564117,0.20041935,0.20465659,0
16484000,16404000,2.7436852,3.5025434,-2.5212827,-1.2640713,0.0024980379,1.2646439,2.5147786,-0.13400131,0.015345015,0.14718358,0.07731629,-0.096246034,-0.07173162,-0.16105086,-0.04585357,0.11494405,0.097722985,0.20242257,0.19686036,0.19564117,0.20041935,0.20465659,0
16492000,16412000,2.7436914,3.5025444,-2.5212765,-1.2640651,0.0025042081,1.2646501,2.5147848,-0.13400131,0.015345015,0.14718358,0.07731629,-0.096246034,-0.07173162,-0.16105086,-0.04585357,0.11494405,0.097722985,0.20242257,0.19686036,0.19564117,0.20041935,0.20465659,0
16500000,16420000,2.7436821,3.5025444,-2.521284,-1.2640729,0.0024964982,1.2646424,2.514777,-0.13400131,0.015345015,0.14718358,0.07731629,-0.096246034,-0.07173162,-0.16105086,-0.04585357,0.11494405,0.097722985,0.20242257,0.19686036,0.19564117,0.20041935,0.20465659,0
16508000,16428000,2.7436924,3.5025454,-2.521275,-1.2640638,0.002505574,1.2646515,2.514786,-0.13400131,0.015345015,0.14718358,0.07731629,-0.096246034,-0.07173162,-0.16105086,-0.04585357,0.11494405,0.097722985,0.20242257,0.19686036,0.19564117,0.20041935,0.20465659,0
16516000,16436000,2.743694,3.5025454,-2.5212722,-1.264061,0.00250844,1.2646544,2.5147889,-0.13400131,0.015345015,0.14718358,0.07731629,-0.096246034,-0.07173162,-0.16105086,-0.04585357,0.11494405,0.097722985,0.20242257,0.19686036,0.19564117,0.20041935,0.20465659,0
16524000,16444000,2.7436888,3.502546,-2.5212777,-1.2640663,0.002503077,1.264649,2.5147836,-0.13400131,0.015345015,0.14718358,0.07731629,-0.096246034,-0.07173162,-0.16105086,-0.04585357,0.11494405,0.097722985,0.20242257,0.19686036,0.19564117,0.20041935,0.20465659,0
16532000,16452000,2.7436812,3.5025473,-2.5212862,-1.2640749,0.0024944465,1.2646403,2.514775,-0.13400131,0.015345015,0.14718358,0.07731629,-0.096246034,-0.07173162,-0.16105086,-0.04585357,0.11494405,0.097722985,0.20242257,0.19686036,0.19564117,0.20041935,0.20465659,0
16540000,16460000,2.743668,3.5025473,-2.521298,-1.2640867,0.0024826555,1.2646286,2.514763,-0.13400131,0.015345015,0.14718358,0.07731629,-0.096246034,-0.07173162,-0.16105086,-0.04585357,0.11494405,0.097722985,0.20242257,0.19686036,0.19564117,0.20041935,0.20465659,0
16548000,16468000,2.743665,3.502548,-2.5213015,-1.2640902,0.0024792037,1.2646251,2.5147598,-0.13400131,0.015345015,0.14718358,0.07731629,-0.096246034,-0.07173162,-0.16105086,-0.04585357,0.11494405,0.097722985,0.20242257,0.19686036,0.19564117,0.20041935,0.20465659,0
16556000,16476000,2.7436616,3.5025473,-2.5213017,-1.2640903,0.0024790543,1.264625,2.5147595,-0.13400131,0.015345015,0.14718358,0.07731629,-0.096246034,-0.07173162,-0.16105086,-0.04585357,0.11494405,0.097722985,0.20242257,0.19686036,0.19564117,0.20041935,0.20465659,0
16564000,16484000,2.7436724,3.502549,-2.521293,-1.2640817,0.0024877095,1.2646337,2.5147681,-0.13400131,0.015345015,0.14718358,0.07731629,-0.096246034,-0.07173162,-0.16105086,-0.04585357,0.11494405,0.097722985,0.20242257,0.19686036,0.19564117,0.20041935,0.20465659,0
16572000,16492000,2.7436757,3.5025496,-2.5212903,-1.264079,0.002490404,1.2646363,2.514771,-0.13400131,0.015345015,0.14718358,0.07731629,-0.096246034,-0.07173162,-0.16105086,-0.04585357,0.11494405,0.097722985,0.20242257,0.19686036,0.19564117,0.20041935,0.20465659,0
16580000,16500000,2.7436478,3.502551,-2.5213196,-1.2641084,0.0024610076,1.264607,2.5147417,-0.13400131,0.015345015,0.14718358,0.07731629,-0.096246034,-0.07173162,-0.16105086,-0.04585357,0.11494405,0.097722985,0.20242257,0.19686036,0.19564117,0.20041935,0.20465659,0
16588000,16508000,2.7436528,3.5025527,-2.521317,-1.2641058,0.0024636996,1.2646096,2.5147443,-0.13400131,0.015345015,0.14718358,0.07731629,-0.096246034,-0.07173162,-0.16105086,-0.04585357,0.11494405,0.097722985,0.20242257,0.19686036,0.19564117,0.20041935,0.20465659,0
16596000,16516000,2.7436454,3.5025518,-2.521321,-1.2641098,0.0024596073,1.2646055,2.51474,-0.13400131,0.015345015,0.14718358,0.07731629,-0.096246034,-0.07173162,-0.16105086,-0.04585357,0.11494405,0.097722985,0.20242257,0.19686036,0.19564117,0.20041935,0.20465659,0
16604000,16524000,2.743657,3.5025537,-2.5213118,-1.2641006,0.002468858,1.2646148,2.5147495,-0.13400131,0.015345015,0.14718358,0.07731629,-0.096246034,-0.07173162,-0.16105086,-0.04585357,0.11494405,0.097722985,0.20242257,0.19686036,0.19564117,0.20041935,0.20465659,0
16612000,16532000,2.851529,3.537994,-2.5207574,-1.2646931,0.0015635376,1.264672,2.5157025,-0.15156868,0.013621846,0.16247375,0.08651385,-0.10625962,-0.060870834,-0.16340397,-0.036394775,0.14329372,0.12681115,0.20291638,0.19718774,0.19535848,0.19990994,0.20462744,0
16620000,16540000,2.8515327,3.5379956,-2.5207548,-1.2646906,0.0015660474,1.2646747,2.515705,-0.15156868,0.013621846,0.16247375,0.08651385,-0.10625962,-0.060870834,-0.16340397,-0.036394775,0.14329372,0.12681115,0.20291638,0.19718774,0.19535848,0.19990994,0.20462744,0
16628000,16548000,2.851528,3.5379963,-2.52076,-1.2646958,0.0015609596,1.2646695,2.5156999,-0.15156868,0.013621846,0.16247375,0.08651385,-0.10625962,-0.060870834,-0.16340397,-0.036394775,0.14329372,0.12681115,0.20291638,0.19718774,0.19535848,0.19990994,0.20462744,0
16636000,16556000,2.8515139,3.537996,-2.520773,-1.2647088,0.001548024,1.2646567,2.515687,-0.15156868,0.013621846,0.16247375,0.08651385,-0.10625962,-0.060870834,-0.16340397,-0.036394775,0.14329372,0.12681115,0.20291638,0.19718774,0.19535848,0.19990994,0.20462744,0
16644000,16564000,2.8515096,3.5379968,-2.5207777,-1.2647134,0.0015432907,1.2646519,2.5156822,-0.15156868,0.013621846,0.16247375,0.08651385,-0.10625962,-0.060870834,-0.16340397,-0.036394775,0.14329372,0.12681115,0.20291638,0.19718774,0.19535848,0.19990994,0.20462744,0
16652000,16572000,2.8515007,3.5379972,-2.5207858,-1.2647216,0.0015351127,1.2646437,2.515674,-0.15156868,0.013621846,0.16247375,0.08651385,-0.10625962,-0.060870834,-0.16340397,-0.036394775,0.14329372,0.12681115,0.20291638,0.19718774,0.19535848,0.19990994,0.20462744,0
16660000,16580000,2.851504,3.5379987,-2.5207837,-1.2647195,0.0015372994,1.2646459,2.5156763,-0.15156868,0.013621846,0.16247375,0.08651385,-0.10625962,-0.060870834,-0.16340397,-0.036394775,0.14329372,0.12681115,0.20291638,0.19718774,0.19535848,0.19990994,0.20462744,0
16668000,16588000,2.8514974,3.5379987,-2.5207894,-1.2647252,0.0015315709,1.2646402,2.5156705,-0.15156868,0.013621846,0.16247375,0.08651385,-0.10625962,-0.060870834,-0.16340397,-0.036394775,0.14329372,0.12681115,0.20291638,0.19718774,0.19535848,0.19990994,0.20462744,0
16676000,16596000,2.851489,3.5380006,-2.5207996,-1.2647355,0.0015212959,1.2646298,2.5156603,-0.15156868,0.013621846,0.16247375,0.08651385,-0.10625962,-0.060870834,-0.16340397,-0.036394775,0.14329372,0.12681115,0.20291638,0.19718774,0.19535848,0.19990994,0.20462744,0
16684000,16604000,2.8514795,3.5379992,-2.5208068,-1.2647425,0.0015143198,1.2646229,2.5156534,-0.15156868,0.013621846,0.16247375,0.08651385,-0.10625962,-0.060870834,-0.16340397,-0.036394775,0.14329372,0.12681115,0.20291638,0.19718774,0.19535848,0.19990994,0.20462744,0
16692000,16612000,2.8514857,3.5380025,-2.5208042,-1.2647401,0.0015167136,1.2646253,2.5156558,-0.15156868,0.013621846,0.16247375,0.08651385,-0.10625962,-0.060870834,-0.16340397,-0.036394775,0.14329372,0.12681115,0.20291638,0.19718774,0.19535848,0.19990994,0.20462744,0
16700000,16620000,2.8514833,3.538001,-2.520804,-1.2647399,0.0015169408,1.2646255,2.515656,-0.15156868,0.013621846,0.16247375,0.08651385,-0.10625962,-0.060870834,-0.16340397,-0.036394775,0.14329372,0.12681115,0.20291638,0.19718774,0.19535848,0.19990994,0.20462744,0
16708000,16628000,2.8514714,3.5380006,-2.5208142,-1.2647499,0.0015068757,1.2646155,2.5156457,-0.15156868,0.013621846,0.16247375,0.08651385,-0.10625962,-0.060870834,-0.16340397,-0.036394775,0.14329372,0.12681115,0.20291638,0.19718774,0.19535848,0.19990994,0.20462744,0
16716000,16636000,2.8514786,3.5380023,-2.5208082,-1.2647439,0.0015128911,1.2646215,2.515652,-0.15156868,0.013621846,0.16247375,0.08651385,-0.10625962,-0.060870834,-0.16340397,-0.036394775,0.14329372,0.12681115,0.20291638,0.19718774,0.19535848,0.19990994,0.20462744,0
16724000,16644000,2.8514824,3.5380037,-2.5208054,-1.2647411,0.0015157113,1.2646244,2.5156548,-0.15156868,0.013621846,0.16247375,0.08651385,-0.10625962,-0.060870834,-0.16340397,-0.036394775,0.14329372,0.12681115,0.20291638,0.19718774,0.19535848,0.19990994,0.20462744,0
16732000,16652000,2.8514786,3.538004,-2.5208087,-1.2647444,0.0015123886,1.264621,2.5156515,-0.15156868,0.013621846,0.16247375,0.08651385,-0.10625962,-0.060870834,-0.16340397,-0.036394775,0.14329372,0.12681115,0.20291638,0.19718774,0.19535848,0.19990994,0.20462744,0
16740000,16660000,2.8514757,3.5380037,-2.520811,-1.2647468,0.0015100242,1.2646186,2.515649,-0.15156868,0.013621846,0.16247375,0.08651385,-0.10625962,-0.060870834,-0.16340397,-0.036394775,0.14329372,0.12681115,0.20291638,0.19718774,0.19535848,0.19990994,0.20462744,0
16748000,16668000,2.851469,3.5380046,-2.520818,-1.2647537,0.001503048,1.2646117,2.5156422,-0.15156868,0.013621846,0.16247375,0.08651385,-0.10625962,-0.060870834,-0.16340397,-0.036394775,0.14329372,0.12681115,0.20291638,0.19718774,0.19535848,0.19990994,0.20462744,0
16756000,16676000,2.8514657,3.538005,-2.520821,-1.2647567,0.0015000084,1.2646086,2.515639,-0.15156868,0.013621846,0.16247375,0.08651385,-0.10625962,-0.060870834,-0.16340397,-0.036394775,0.14329372,0.12681115,0.20291638,0.19718774,0.19535848,0.19990994,0.20462744,0
16764000,16684000,2.8514748,3.5380063,-2.5208132,-1.2647489,0.0015078626,1.2646165,2.515647,-0.15156868,0.013621846,0.16247375,0.08651385,-0.10625962,-0.060870834,-0.16340397,-0.036394775,0.14329372,0.12681115,0.20291638,0.19718774,0.19535848,0.19990994,0.20462744,0
16772000,16692000,2.8514516,3.5380058,-2.5208347,-1.2647704,0.0014864347,1.264595,2.5156255,-0.15156868,0.013621846,0.16247375,0.08651385,-0.10625962,-0.060870834,-0.16340397,-0.036394775,0.14329372,0.12681115,0.20291638,0.19718774,0.19535848,0.19990994,0.20462744,0
16780000,16700000,2.851435,3.538007,-2.5208516,-1.2647874,0.0014693711,1.264578,2.5156083,-0.15156868,0.013621846,0.16247375,0.08651385,-0.10625962,-0.060870834,-0.16340397,-0.036394775,0.14329372,0.12681115,0.20291638,0.19718774,0.19535848,0.19990994,0.20462744,0
16788000,16708000,2.851433,3.538009,-2.5208561,-1.264792,0.0014648736,1.2645735,2.515604,-0.15156868,0.013621846,0.16247375,0.08651385,-0.10625962,-0.060870834,-0.16340397,-0.036394775,0.14329372,0.12681115,0.20291638,0.19718774,0.19535848,0.19990994,0.20462744,0
16796000,16716000,2.8514373,3.5380094,-2.5208507,-1.2647865,0.0014702772,1.2645789,2.5156093,-0.15156868,0.013621846,0.16247375,0.08651385,-0.10625962,-0.060870834,-0.16340397,-0.036394775,0.14329372,0.12681115,0.20291638,0.19718774,0.19535848,0.19990994,0.20462744,0
16804000,16724000,2.8514266,3.5380077,-2.520859,-1.2647948,0.0014620121,1.2645706,2.515601,-0.15156868,0.013621846,0.16247375,0.08651385,-0.10625962,-0.060870834,-0.16340397,-0.036394775,0.14329372,0.12681115,0.20291638,0.19718774,0.19535848,0.19990994,0.20462744,0
16812000,16732000,2.8514261,3.5380106,-2.520862,-1.264798,0.0014587553,1.2645674,2.5155978,-0.15156868,0.013621846,0.16247375,0.08651385,-0.10625962,-0.060870834,-0.16340397,-0.036394775,0.14329372,0.12681115,0.20291638,0.19718774,0.19535848,0.19990994,0.20462744,0
16820000,16740000,2.851405,3.5380087,-2.5208795,-1.2648152,0.0014415503,1.2645502,2.5155804,-0.15156868,0.013621846,0.16247375,0.08651385,-0.10625962,-0.060870834,-0.16340397,-0.036394775,0.14329372,0.12681115,0.20291638,0.19718774,0.19535848,0.19990994,0.20462744,0
16828000,16748000,2.8513982,3.5380096,-2.520887,-1.2648227,0.0014341051,1.2645427,2.515573,-0.15156868,0.013621846,0.16247375,0.08651385,-0.10625962,-0.060870834,-0.16340397,-0.036394775,0.14329372,0.12681115,0.20291638,0.19718774,0.19535848,0.19990994,0.20462744,0
16836000,16756000,2.8514009,3.538011,-2.5208852,-1.264821,0.0014358221,1.2645445,2.5155747,-0.15156868,0.013621846,0.16247375,0.08651385,-0.10625962,-0.060870834,-0.16340397,-0.036394775,0.14329372,0.12681115,0.20291638,0.19718774,0.19535848,0.19990994,0.20462744,0
16844000,16764000,2.851402,3.538011,-2.520883,-1.2648189,0.0014378886,1.2645465,2.5155768,-0.15156868,0.013621846,0.16247375,0.08651385,-0.10625962,-0.060870834,-0.16340397,-0.036394775,0.14329372,0.12681115,0.20291638,0.19718774,0.19535848,0.19990994,0.20462744,0
16852000,16772000,2.8514042,3.5380106,-2.5208805,-1.264816,0.0014406687,1.2645494,2.5155797,-0.15156868,0.013621846,0.16247375,0.08651385,-0.10625962,-0.060870834,-0.16340397,-0.036394775,0.14329372,0.12681115,0.20291638,0.19718774,0.19535848,0.19990994,0.20462744,0
16860000,16780000,2.8514223,3.5380147,-2.5208666,-1.2648023,0.0014544816,1.2645631,2.5155935,-0.15156868,0.013621846,0.16247375,0.08651385,-0.10625962,-0.060870834,-0.16340397,-0.036394775,0.14329372,0.12681115,0.20291638,0.19718774,0.19535848,0.19990994,0.20462744,0
16868000,16788000,2.8514104,3.5380132,-2.5208755,-1.264811,0.0014457551,1.2645544,2.5155847,-0.15156868,0.013621846,0.16247375,0.08651385,-0.10625962,-0.060870834,-0.16340397,-0.036394775,0.14329372,0.12681115,0.20291638,0.19718774,0.19535848,0.19990994,0.20462744,0
16876000,16796000,2.851408,3.538014,-2.5208783,-1.2648141,0.001442666,1.2645513,2.5155816,-0.15156868,0.013621846,0.16247375,0.08651385,-0.10625962,-0.060870834,-0.16340397,-0.036394775,0.14329372,0.12681115,0.20291638,0.19718774,0.19535848,0.19990994,0.20462744,0
16884000,16804000,2.8514109,3.5380135,-2.5208738,-1.2648095,0.0014472408,1.2645559,2.5155861,-0.15156868,0.013621846,0.16247375,0.08651385,-0.10625962,-0.060870834,-0.16340397,-0.036394775,0.14329372,0.12681115,0.20291638,0.19718774,0.19535848,0.19990994,0.20462744,0
16892000,16812000,2.8513978,3.5380156,-2.5208888,-1.2648246,0.0014321253,1.2645408,2.515571,-0.15156868,0.013621846,0.16247375,0.08651385,-0.10625962,-0.060870834,-0.16340397,-0.036394775,0.14329372,0.12681115,0.20291638,0.19718774,0.19535848,0.19990994,0.20462744,0
16900000,16820000,2.8514018,3.538015,-2.520883,-1.2648187,0.0014380993,1.2645468,2.515577,-0.15156868,0.013621846,0.16247375,0.08651385,-0.10625962,-0.060870834,-0.16340397,-0.036394775,0.14329372,0.12681115,0.20291638,0.19718774,0.19535848,0.19990994,0.20462744,0
16908000,16828000,2.85141,3.538016,-2.520875,-1.2648108,0.0014460082,1.2645547,2.515585,-0.15156868,0.013621846,0.16247375,0.08651385,-0.10625962,-0.060870834,-0.16340397,-0.036394775,0.14329372,0.12681115,0.20291638,0.19718774,0.19535848,0.19990994,0.20462744,0
16916000,16836000,2.851397,3.5380163,-2.520888,-1.2648238,0.0014330224,1.2645417,2.515572,-0.15156868,0.013621846,0.16247375,0.08651385,-0.10625962,-0.060870834,-0.16340397,-0.036394775,0.14329372,0.12681115,0.20291638,0.19718774,0.19535848,0.19990994,0.20462744,0
16924000,16844000,2.8513958,3.538019,-2.5208924,-1.2648282,0.0014286486,1.2645373,2.5155678,-0.15156868,0.013621846,0.16247375,0.08651385,-0.10625962,-0.060870834,-0.16340397,-0.036394775,0.14329372,0.12681115,0.20291638,0.19718774,0.19535848,0.19990994,0.20462744,0
16932000,16852000,2.8513916,3.5380173,-2.5208929,-1.2648284,0.0014283046,1.264537,2.5155673,-0.15156868,0.013621846,0.16247375,0.08651385,-0.10625962,-0.060870834,-0.16340397,-0.036394775,0.14329372,0.12681115,0.20291638,0.19718774,0.19535848,0.19990994,0.20462744,0
16940000,16860000,2.8513885,3.5380185,-2.520897,-1.2648327,0.0014240821,1.2645328,2.515563,-0.15156868,0.013621846,0.16247375,0.08651385,-0.10625962,-0.060870834,-0.16340397,-0.036394775,0.14329372,0.12681115,0.20291638,0.19718774,0.19535848,0.19990994,0.20462744,0
16948000,16868000,2.8513944,3.5380213,-2.5208933,-1.264829,0.0014277287,1.2645364,2.5155668,-0.15156868,0.013621846,0.16247375,0.08651385,-0.10625962,-0.060870834,-0.16340397,-0.036394775,0.14329372,0.12681115,0.20291638,0.19718774,0.19535848,0.19990994,0.20462744,0
16956000,16876000,2.8514078,3.538021,-2.520879,-1.2648147,0.0014420592,1.2645508,2.5155811,-0.15156868,0.013621846,0.16247375,0.08651385,-0.10625962,-0.060870834,-0.16340397,-0.036394775,0.14329372,0.12681115,0.20291638,0.19718774,0.19535848,0.19990994,0.20462744,0
16964000,16884000,2.8514216,3.5380213,-2.5208654,-1.2648011,0.0014556629,1.2645644,2.5155947,-0.15156868,0.013621846,0.16247375,0.08651385,-0.10625962,-0.060870834,-0.16340397,-0.036394775,0.14329372,0.12681115,0.20291638,0.19718774,0.19535848,0.19990994,0.20462744,0
