timestamp,timestamp_sample,gps_hvel[0],gps_hvel[1],gps_vvel,gps_hpos[0],gps_hpos[1],gps_vpos,ev_hvel[0],ev_hvel[1],ev_vvel,ev_hpos[0],ev_hpos[1],ev_vpos,rng_vpos,baro_vpos,aux_hvel[0],aux_hvel[1],aux_vvel,flow[0],flow[1],terr_flow[0],terr_flow[1],heading,mag_field[0],mag_field[1],mag_field[2],gravity[0],gravity[1],gravity[2],drag[0],drag[1],airspeed,beta,hagl,hagl_rate
3492000,3412000,0.0034247483,0.00029932422,-0.043642517,0.00024307818,-6.1501734e-05,488.10287,0.0,0.0,0.0,0.0,0.0,0.0,0.0,0.0,0.0,0.0,nan,0.0,0.0,0.0,0.0,0.0,0.0,0.0,0.0,0.021287356,0.019239452,-0.00013539405,0.0,0.0,0.0,0.0,0.0,0.0
3988000,3908000,0.0030995458,4.2721338e-05,0.012966711,0.00037436053,-2.5760026e-05,488.11014,0.0,0.0,0.0,0.0,0.0,0.0,0.0,0.0,0.0,0.0,nan,0.0,0.0,0.0,0.0,0.0,0.0,0.0,0.0,-0.023628116,0.021950383,0.0009272945,0.0,0.0,0.0,0.0,0.0,0.0
4492000,4412000,0.0020908709,-0.010914563,-0.021697635,0.0003073771,-0.00011658997,-9.825337e-05,0.0,0.0,0.0,0.0,0.0,0.0,0.0,-0.02456489,0.0,0.0,nan,0.0,0.0,0.0,0.0,0.0,0.0,0.0,0.0,-0.014403995,4.6487297e-05,0.00031086174,0.0,0.0,0.0,0.0,0.0,0.0
4988000,4908000,-0.017676715,-0.012869317,0.027198657,0.00039540703,-0.007802661,-0.0013758172,0.0,0.0,0.0,0.0,0.0,0.0,0.0,-0.017492117,0.0,0.0,nan,0.0,0.0,0.0,0.0,0.0,0.0,0.0,0.0,-0.004944711,0.009749031,0.00029000916,0.0,0.0,0.0,0.0,0.0,0.0
5492000,5412000,0.011145924,-0.008769899,-0.040701196,0.00018988125,-0.007612576,0.0037621553,0.0,0.0,0.0,0.0,0.0,0.0,0.0,0.044198055,0.0,0.0,nan,0.0,0.0,0.0,0.0,0.0,0.0,0.0,0.0,-0.004659087,0.0024541544,0.00014237304,0.0,0.0,0.0,0.0,0.0,0.0
5996000,5916000,0.00066969084,-0.009505877,0.009607572,0.00013131426,-0.0073520737,0.010505169,0.0,0.0,0.0,0.0,0.0,0.0,0.0,0.030002775,0.0,0.0,nan,0.0,0.0,0.0,0.0,0.0,0.0,0.0,0.0,-0.011860103,-0.027633011,-0.00030615117,0.0,0.0,0.0,0.0,0.0,0.0
6492000,6412000,0.0005705351,-0.0005084536,-0.009232305,0.00010231825,-0.00756615,0.005467461,0.0,0.0,0.0,0.0,0.0,0.0,0.0,-0.007974675,0.0,0.0,nan,0.0,0.0,0.0,0.0,0.0,0.0,0.0,0.0,-0.016709698,0.010681254,0.0005213128,0.0,0.0,0.0,0.0,0.0,0.0
6988000,6908000,0.0071968967,0.0101258075,0.0031742845,-0.00038216548,-0.007515845,0.015805129,0.0,0.0,0.0,0.0,0.0,0.0,0.0,0.025827438,0.0,0.0,nan,0.0,0.0,0.0,0.0,0.0,0.0,0.0,0.0,0.010447632,-0.020458015,-0.0006077271,0.0,0.0,0.0,0.0,0.0,0.0
7492000,7412000,-0.008847071,0.004800585,-0.05251009,6.207728e-06,-0.0067686774,0.01615426,0.0,0.0,0.0,0.0,0.0,0.0,0.0,-0.040904608,0.0,0.0,nan,0.0,0.0,0.0,0.0,0.0,0.0,0.0,0.0,-0.019812208,-0.0033069998,0.00033783127,0.0,0.0,0.0,0.0,0.0,0.0
7988000,7908000,-0.0098279435,0.0011712383,-0.021228824,0.00012021892,-0.0070712618,0.011835588,0.0,0.0,0.0,0.0,0.0,0.0,0.0,-0.08727697,0.0,0.0,nan,0.0,0.0,0.0,0.0,0.0,0.0,0.0,0.0,-0.0044761524,0.01886046,0.00041086975,0.0,0.0,0.0,0.0,0.0,0.0
8492000,8412000,-0.021615058,0.00076378515,-0.0029649138,-5.72657e-05,-0.007367846,0.010470126,0.0,0.0,0.0,0.0,0.0,0.0,0.0,0.032580815,0.0,0.0,nan,0.0,0.0,0.0,0.0,0.0,0.0,0.0,0.0,0.03816864,-0.010307238,-0.0010522502,0.0,0.0,0.0,0.0,0.0,0.0
8988000,8908000,0.019555982,0.001095074,-0.0513964,-0.00031777643,-0.0073415954,0.007054102,0.0,0.0,0.0,0.0,0.0,0.0,0.0,0.010703618,0.0,0.0,nan,0.0,0.0,0.0,0.0,0.0,0.0,0.0,0.0,-0.0029163684,-0.011702543,-0.0001517267,0.0,0.0,0.0,0.0,0.0,0.0
9492000,9412000,0.0031591228,0.022677403,-0.00045353174,0.0007798576,-0.0068456703,-0.0035572378,0.0,0.0,0.0,0.0,0.0,0.0,0.0,0.025544558,0.0,0.0,nan,0.0,0.0,0.0,0.0,0.0,0.0,0.0,0.0,0.024558432,0.016547838,-0.00025133914,0.0,0.0,0.0,0.0,0.0,0.0
9988000,9908000,0.023682525,-0.007087275,0.031675413,0.00082440756,-0.0068811066,-0.0069745574,0.0,0.0,0.0,0.0,0.0,0.0,0.0,-0.06263822,0.0,0.0,nan,0.0,0.0,0.0,0.0,0.0,0.0,0.0,0.0,-0.002930537,-0.00685718,-6.623203e-05,0.0,0.0,0.0,0.0,0.0,0.0
10492000,10412000,-0.019728974,-0.009766095,0.0044251233,0.00040122558,-0.014714971,-0.004853212,0.0,0.0,0.0,0.0,0.0,0.0,0.0,0.0012749771,0.0,0.0,nan,0.0,0.0,0.0,0.0,0.0,0.0,0.0,0.0,0.0027861209,0.020707207,0.00028950965,0.0,0.0,0.0,0.0,0.0,0.0
10988000,10908000,-0.0017524037,-0.001600132,-0.014996666,-0.00019796538,-0.007771637,0.00026134402,0.0,0.0,0.0,0.0,0.0,0.0,0.0,0.06783981,0.0,0.0,nan,0.0,0.0,0.0,0.0,0.0,0.0,0.0,0.0,0.026638417,0.013397007,-0.00033237642,0.0,0.0,0.0,0.0,0.0,0.0
11492000,11412000,-0.012267532,-0.0034670923,-0.009078827,-0.00032367435,-0.008151987,0.019937724,0.0,0.0,0.0,0.0,0.0,0.0,0.0,-0.04787311,0.0,0.0,nan,0.0,0.0,0.0,0.0,0.0,0.0,0.0,0.0,0.033661973,0.00724431,-0.00058697356,0.0,0.0,0.0,0.0,0.0,0.0
11996000,11916000,-0.003273558,-0.002536935,0.013967961,0.01063317,-0.008188688,0.017502401,0.0,0.0,0.0,0.0,0.0,0.0,0.0,-0.046962515,0.0,0.0,nan,0.0,0.0,0.0,0.0,0.0,0.0,0.0,0.0,-0.0014134002,-0.009978369,-0.0001464687,0.0,0.0,0.0,0.0,0.0,0.0
12492000,12412000,-0.0026520328,-0.00048960536,0.012202643,-0.0005711991,-0.007724777,0.008406615,0.0,0.0,0.0,0.0,0.0,0.0,0.0,0.04126557,0.0,0.0,nan,0.0,0.0,0.0,0.0,0.0,0.0,0.0,0.0,0.0188329,-0.028902134,-0.0008992891,0.0,0.0,0.0,0.0,0.0,0.0
12988000,12908000,0.010109958,-0.008305295,0.042219654,-0.00032545478,-0.0075655365,0.009512356,0.0,0.0,0.0,0.0,0.0,0.0,0.0,0.087675184,0.0,0.0,nan,0.0,0.0,0.0,0.0,0.0,0.0,0.0,0.0,0.006778595,-0.013639104,-0.00036738723,0.0,0.0,0.0,0.0,0.0,0.0
13492000,13412000,0.031698257,0.004049966,0.033428255,0.00027100556,-0.0063287034,0.018104406,0.0,0.0,0.0,0.0,0.0,0.0,0.0,0.044519186,0.0,0.0,nan,0.0,0.0,0.0,0.0,0.0,0.0,0.0,0.0,-0.043578893,-0.0442758,-9.550275e-05,0.0,0.0,0.0,0.0,0.0,0.0
13988000,13908000,0.013164262,0.0017165062,0.020967016,0.00085818133,-0.014215575,0.017554313,0.0,0.0,0.0,0.0,0.0,0.0,0.0,0.118103124,0.0,0.0,nan,0.0,0.0,0.0,0.0,0.0,0.0,0.0,0.0,-0.012344891,0.028251005,0.00065510295,0.0,0.0,0.0,0.0,0.0,0.0
14492000,14412000,-0.008368088,-0.0014609193,0.02080998,0.00044484134,1.3783004e-05,0.019050108,0.0,0.0,0.0,0.0,0.0,0.0,0.0,-0.09743391,0.0,0.0,nan,0.0,0.0,0.0,0.0,0.0,0.0,0.0,0.0,0.007269373,-0.0025343096,-0.0001797083,0.0,0.0,0.0,0.0,0.0,0.0
14988000,14908000,-0.0076820613,0.008692026,0.009567894,0.00044127528,-0.007907265,0.015583564,0.0,0.0,0.0,0.0,0.0,0.0,0.0,0.017460687,0.0,0.0,nan,0.0,0.0,0.0,0.0,0.0,0.0,0.0,0.0,-0.0067644105,0.0038175907,0.00018296516,0.0,0.0,0.0,0.0,0.0,0.0
15492000,15412000,0.0131183695,0.010051038,0.00934995,0.0014953065,-0.0075970385,0.024582906,0.0,0.0,0.0,0.0,0.0,0.0,0.0,0.08200715,0.0,0.0,nan,0.0,0.0,0.0,0.0,0.0,0.0,0.0,0.0,-0.005815376,-0.04262294,-0.0006770206,0.0,0.0,0.0,0.0,0.0,0.0
15988000,15908000,0.0030519867,-0.0007019766,0.022465894,0.0030808544,-0.00011108443,0.009799616,0.0,0.0,0.0,0.0,0.0,0.0,0.0,0.00058610924,0.0,0.0,nan,0.0,0.0,0.0,0.0,0.0,0.0,0.0,0.0,0.021038296,-0.013006198,-0.00061111123,0.0,0.0,0.0,0.0,0.0,0.0
16492000,16412000,0.004975603,-0.012786582,0.024717363,0.0047328128,-0.0009734049,0.01791687,0.0,0.0,0.0,0.0,0.0,0.0,0.0,0.036795005,0.0,0.0,nan,0.0,0.0,0.0,0.0,0.0,0.0,0.0,0.0,-0.00225501,0.022325223,0.00037222722,0.0,0.0,0.0,0.0,0.0,0.0
16996000,16916000,0.005402171,-0.006392982,0.030323567,0.00691841,-0.010383244,0.017419465,0.0,0.0,0.0,0.0,0.0,0.0,0.0,-0.0,0.0,0.0,nan,0.0,0.0,0.0,0.0,0.0,0.0,0.0,0.0,-0.009024095,0.022232652,0.0004878149,0.0,0.0,0.0,0.0,0.0,0.0
17492000,17412000,0.0043732896,-0.013073595,0.017749479,0.010567841,-0.017528055,0.03718158,0.0,0.0,0.0,0.0,0.0,0.0,0.0,0.07376313,0.0,0.0,nan,0.0,0.0,0.0,0.0,0.0,0.0,0.0,0.0,-0.017415218,-0.0043289084,0.00021049946,0.0,0.0,0.0,0.0,0.0,0.0
17988000,17908000,0.022078274,0.007883823,0.060710147,0.011434264,-0.021174503,0.040032934,0.0,0.0,0.0,0.0,0.0,0.0,0.0,0.06358372,0.0,0.0,nan,0.0,0.0,0.0,0.0,0.0,0.0,0.0,0.0,0.38150373,-0.4767187,0.007806065,0.0,0.0,0.0,0.0,0.0,0.0
18492000,18412000,0.026618674,0.2811702,0.00069737434,0.01582777,0.017335998,0.039033048,0.0,0.0,0.0,0.0,0.0,0.0,0.0,-0.0,0.0,0.0,nan,0.0,0.0,0.0,0.0,0.0,0.0,0.0,0.0,-0.06803287,0.08631003,0.001915575,0.0,0.0,0.0,0.0,0.0,0.0
18988000,18908000,0.038078457,0.33513847,0.03382212,0.040156133,0.17033722,0.03059581,0.0,0.0,0.0,0.0,0.0,0.0,0.0,0.028532118,0.0,0.0,nan,0.0,0.0,0.0,0.0,0.0,0.0,0.0,0.0,-0.16703527,0.24321298,0.009379339,0.0,0.0,0.0,0.0,0.0,0.0
19492000,19412000,0.014200675,0.0144508835,0.032512665,0.080379754,0.30262685,0.045093536,0.0,0.0,0.0,0.0,0.0,0.0,0.0,0.117679596,0.0,0.0,nan,0.0,0.0,0.0,0.0,0.0,0.0,0.0,0.0,-0.19086416,0.24231218,0.011026,0.0,0.0,0.0,0.0,0.0,0.0
19988000,19908000,0.0044840984,-0.12231649,0.0715521,0.10192094,0.27277508,0.0495345,0.0,0.0,0.0,0.0,0.0,0.0,0.0,0.031059384,0.0,0.0,nan,0.0,0.0,0.0,0.0,0.0,0.0,0.0,0.0,-0.14402016,0.11568998,0.0059264316,0.0,0.0,0.0,0.0,0.0,0.0
20492000,20412000,0.18301903,-0.08710481,0.1738025,0.13466313,0.19563809,0.07885969,0.0,0.0,0.0,0.0,0.0,0.0,0.0,0.15533662,0.0,0.0,nan,0.0,0.0,0.0,0.0,0.0,0.0,0.0,0.0,-0.4164649,-0.3659639,-0.062765606,0.0,0.0,0.0,0.0,0.0,0.0
20988000,20908000,0.20864162,0.26933303,0.5235387,0.21464771,0.2263048,0.17841065,0.0,0.0,0.0,0.0,0.0,0.0,0.0,0.2745391,0.0,0.0,nan,0.0,0.0,0.0,0.0,0.0,0.0,0.0,0.0,-0.33471233,-0.2360719,-0.048690364,0.0,0.0,0.0,0.0,0.0,0.0
21492000,21412000,-0.08494067,0.9493165,1.0768346,0.08253035,0.697299,0.6925112,0.0,0.0,0.0,0.0,0.0,0.0,0.0,0.6394701,0.0,0.0,nan,0.0,0.0,0.0,0.0,0.0,0.0,0.0,0.0,-0.48973206,-0.6488054,-0.077778004,0.0,0.0,0.0,0.0,0.0,0.0
21996000,21916000,0.124476254,1.2396666,1.2239505,-0.10815328,1.0936812,0.9783244,0.0,0.0,0.0,0.0,0.0,0.0,0.0,0.9447365,0.0,0.0,nan,0.0,0.0,0.0,0.0,0.0,0.0,0.0,0.0,-1.084795,-1.2675024,-0.005822559,0.0,0.0,0.0,0.0,0.0,0.0
22492000,22412000,0.8694799,1.4260129,1.3170443,-0.15981233,1.550056,1.2728891,0.0,0.0,0.0,0.0,0.0,0.0,0.0,1.2002909,0.0,0.0,nan,0.0,0.0,0.0,0.0,0.0,0.0,0.0,0.0,-1.3082434,-1.4976686,0.18558891,0.0,0.0,0.0,0.0,0.0,0.0
22988000,22908000,1.8510151,1.4892164,1.2647247,0.06647974,1.956157,1.5276744,0.0,0.0,0.0,0.0,0.0,0.0,0.0,1.4173715,0.0,0.0,nan,0.0,0.0,0.0,0.0,0.0,0.0,0.0,0.0,-0.76319057,-0.8613596,0.15137678,0.0,0.0,0.0,0.0,0.0,0.0
23492000,23412000,3.013651,1.1479921,0.8651629,1.196355,2.2758474,1.7661502,0.0,0.0,0.0,0.0,0.0,0.0,0.0,1.1823637,0.0,0.0,nan,0.0,0.0,0.0,0.0,0.0,0.0,0.0,0.0,0.05558678,0.060217146,-0.010603553,0.0,0.0,0.0,0.0,0.0,0.0
23988000,23908000,2.968596,0.8170823,0.49382117,2.0460086,2.3720646,1.6847522,0.0,0.0,0.0,0.0,0.0,0.0,0.0,0.86191034,0.0,0.0,nan,0.0,0.0,0.0,0.0,0.0,0.0,0.0,0.0,0.7330334,0.80707455,-0.12602496,0.0,0.0,0.0,0.0,0.0,0.0
24492000,24412000,2.518836,0.33001757,0.088988006,2.6203237,2.0218775,1.4700553,0.0,0.0,0.0,0.0,0.0,0.0,0.0,0.6223686,0.0,0.0,nan,0.0,0.0,0.0,0.0,0.0,0.0,0.0,0.0,1.2059177,1.3715314,-0.16082731,0.0,0.0,0.0,0.0,0.0,0.0
24988000,24908000,1.7746551,-0.24258018,-0.43150306,2.9527416,1.4539685,1.1223052,0.0,0.0,0.0,0.0,0.0,0.0,0.0,0.05898094,0.0,0.0,nan,0.0,0.0,0.0,0.0,0.0,0.0,0.0,0.0,1.5225391,1.7236251,-0.1208863,0.0,0.0,0.0,0.0,0.0,0.0
25492000,25412000,-0.02808255,-1.5275211,-1.2959418,2.9382944,-0.13186097,0.15946388,0.0,0.0,0.0,0.0,0.0,0.0,0.0,-0.0,0.0,0.0,nan,0.0,0.0,0.0,0.0,0.0,0.0,0.0,0.0,1.5515501,1.6409545,-0.09369141,0.0,0.0,0.0,0.0,0.0,0.0
25996000,25916000,-0.8834263,-2.0449395,-1.6233746,2.5747094,-1.0752985,-0.45243192,0.0,0.0,0.0,0.0,0.0,0.0,0.0,-0.0,0.0,0.0,nan,0.0,0.0,0.0,0.0,0.0,0.0,0.0,0.0,1.1139599,1.3923181,-0.047650866,0.0,0.0,0.0,0.0,0.0,0.0
26492000,26412000,-1.8237923,-2.4014673,-1.9264202,1.9741092,-2.0822616,-1.1316226,0.0,0.0,0.0,0.0,0.0,0.0,0.0,-0.0,0.0,0.0,nan,0.0,0.0,0.0,0.0,0.0,0.0,0.0,0.0,0.2997429,1.3410379,0.020884037,0.0,0.0,0.0,0.0,0.0,0.0
26996000,26916000,-2.5769792,-2.614184,-2.1614733,1.1850104,-3.0168557,-1.7914534,0.0,0.0,0.0,0.0,0.0,0.0,0.0,-0.0,0.0,0.0,nan,0.0,0.0,0.0,0.0,0.0,0.0,0.0,0.0,0.271361,0.258661,-0.012061596,0.0,0.0,0.0,0.0,0.0,0.0
27492000,27412000,-2.7643209,-2.271488,-2.299429,-0.50954723,-4.505807,-2.9050682,0.0,0.0,0.0,0.0,0.0,0.0,0.0,-2.7933886,0.0,0.0,nan,0.0,0.0,0.0,0.0,0.0,0.0,0.0,0.0,-0.077093184,-0.06070707,0.000988245,0.0,0.0,0.0,0.0,0.0,0.0
27988000,27908000,-2.6492574,-2.2462513,-2.1542954,-1.2617497,-5.137222,-3.1930103,0.0,0.0,0.0,0.0,0.0,0.0,0.0,-2.7954473,0.0,0.0,nan,0.0,0.0,0.0,0.0,0.0,0.0,0.0,0.0,-0.34596467,-0.34797087,-0.0062527657,0.0,0.0,0.0,0.0,0.0,0.0
28492000,28412000,-2.3793695,-2.193396,-1.8686862,-1.848772,-5.6699157,-3.3224769,0.0,0.0,0.0,0.0,0.0,0.0,0.0,-2.73333,0.0,0.0,nan,0.0,0.0,0.0,0.0,0.0,0.0,0.0,0.0,-0.61963123,-0.7082334,-0.035140038,0.0,0.0,0.0,0.0,0.0,0.0
28996000,28916000,-2.0127263,-2.1827278,-1.5493194,-2.2219932,-6.0983906,-3.3903766,0.0,0.0,0.0,0.0,0.0,0.0,0.0,-2.6514735,0.0,0.0,nan,0.0,0.0,0.0,0.0,0.0,0.0,0.0,0.0,-0.92379725,-0.97844356,-0.076879025,0.0,0.0,0.0,0.0,0.0,0.0
29492000,29412000,-0.93616,-2.220152,-0.74314415,-2.7063372,-7.172471,-3.0563037,0.0,0.0,0.0,0.0,0.0,0.0,0.0,-1.9138432,0.0,0.0,nan,0.0,0.0,0.0,0.0,0.0,0.0,0.0,0.0,-1.0720578,-1.1676894,-0.11036837,0.0,0.0,0.0,0.0,0.0,0.0
29996000,29916000,-0.2857646,-2.2104306,-0.1794843,-2.3956182,-7.468444,-2.722711,0.0,0.0,0.0,0.0,0.0,0.0,0.0,-1.4672194,0.0,0.0,nan,0.0,0.0,0.0,0.0,0.0,0.0,0.0,0.0,-1.1637814,-1.1993825,-0.12523949,0.0,0.0,0.0,0.0,0.0,0.0
30492000,30412000,0.19946744,-2.1816802,0.1712181,-1.8391211,-7.6541557,-2.2717092,0.0,0.0,0.0,0.0,0.0,0.0,0.0,-0.93006897,0.0,0.0,nan,0.0,0.0,0.0,0.0,0.0,0.0,0.0,0.0,-0.053365648,0.11094302,0.017706871,0.0,0.0,0.0,0.0,0.0,0.0
30988000,30908000,0.22712806,-2.0422075,0.23957087,-1.2850556,-7.8071065,-1.8599616,0.0,0.0,0.0,0.0,0.0,0.0,0.0,-0.37677097,0.0,0.0,nan,0.0,0.0,0.0,0.0,0.0,0.0,0.0,0.0,-1.9191184,4.200288,1.4294786,0.0,0.0,0.0,0.0,0.0,0.0
31492000,31412000,-3.7690146,-1.9624984,0.20277965,-1.8225981,-7.921529,-1.2103049,0.0,0.0,0.0,0.0,0.0,0.0,0.0,0.09503031,0.0,0.0,nan,0.0,0.0,0.0,0.0,0.0,0.0,0.0,0.0,0.99335647,-0.6136196,-0.09128809,0.0,0.0,0.0,0.0,0.0,0.0
31988000,31908000,-2.8519695,-1.6891319,0.33842158,-2.7690797,-7.7252345,-0.9430857,0.0,0.0,0.0,0.0,0.0,0.0,0.0,0.2958486,0.0,0.0,nan,0.0,0.0,0.0,0.0,0.0,0.0,0.0,0.0,2.311952,0.029802501,0.020802498,0.0,0.0,0.0,0.0,0.0,0.0
32492000,32412000,-1.4529063,-1.3607551,0.36002594,-3.2327192,-7.3216805,-0.69954777,0.0,0.0,0.0,0.0,0.0,0.0,0.0,0.54157066,0.0,0.0,nan,0.0,0.0,0.0,0.0,0.0,0.0,0.0,0.0,2.3294392,-0.29775363,0.11758518,0.0,0.0,0.0,0.0,0.0,0.0
32988000,32908000,-0.03342977,-1.2360227,0.40728927,-3.1385849,-6.816735,-0.50315976,0.0,0.0,0.0,0.0,0.0,0.0,0.0,0.7074816,0.0,0.0,nan,0.0,0.0,0.0,0.0,0.0,0.0,0.0,0.0,1.8046616,-0.47894514,0.10738087,0.0,0.0,0.0,0.0,0.0,0.0
33492000,33412000,2.0495806,-1.1970313,0.4197323,-1.7561307,-5.861324,-0.1881373,0.0,0.0,0.0,0.0,0.0,0.0,0.0,0.83058906,0.0,0.0,nan,0.0,0.0,0.0,0.0,0.0,0.0,0.0,0.0,1.0706279,-0.5260247,0.052830696,0.0,0.0,0.0,0.0,0.0,0.0
33988000,33908000,2.5733666,-1.1933738,0.4241026,-0.7663729,-5.4636226,-0.04049468,0.0,0.0,0.0,0.0,0.0,0.0,0.0,0.92206454,0.0,0.0,nan,0.0,0.0,0.0,0.0,0.0,0.0,0.0,0.0,0.4778997,-0.49765185,0.01590252,0.0,0.0,0.0,0.0,0.0,0.0
34492000,34412000,2.8843844,-1.2132764,0.43576664,0.29314515,-5.1551213,0.09820318,0.0,0.0,0.0,0.0,0.0,0.0,0.0,0.9895699,0.0,0.0,nan,0.0,0.0,0.0,0.0,0.0,0.0,0.0,0.0,0.143034,-0.43767393,0.0040750504,0.0,0.0,0.0,0.0,0.0,0.0
34988000,34908000,2.9643974,-1.2305224,0.42643934,1.3720345,-5.2496104,0.18891048,0.0,0.0,0.0,0.0,0.0,0.0,0.0,0.9670794,0.0,0.0,nan,0.0,0.0,0.0,0.0,0.0,0.0,0.0,0.0,-0.07101405,-0.39214668,0.0019578934,0.0,0.0,0.0,0.0,0.0,0.0
35492000,35412000,2.8608918,-1.0840851,0.34916127,3.1341763,-4.7988386,0.32724547,0.0,0.0,0.0,0.0,0.0,0.0,0.0,1.0260687,0.0,0.0,nan,0.0,0.0,0.0,0.0,0.0,0.0,0.0,0.0,-0.13130514,-0.3218474,0.002366066,0.0,0.0,0.0,0.0,0.0,0.0
35988000,35908000,2.741736,-1.0196942,0.31312904,3.794543,-4.597545,0.36540294,0.0,0.0,0.0,0.0,0.0,0.0,0.0,0.94139576,0.0,0.0,nan,0.0,0.0,0.0,0.0,0.0,0.0,0.0,0.0,-0.04258711,-0.2722579,0.0015392303,0.0,0.0,0.0,0.0,0.0,0.0
36492000,36412000,2.6194324,-0.9202106,0.31831643,4.3211117,-4.3954415,0.39488983,0.0,0.0,0.0,0.0,0.0,0.0,0.0,0.9533801,0.0,0.0,nan,0.0,0.0,0.0,0.0,0.0,0.0,0.0,0.0,0.03431365,-0.3028631,-0.0015144348,0.0,0.0,0.0,0.0,0.0,0.0
36988000,36908000,2.5728192,-0.7886345,0.2648329,4.7325625,-4.180371,0.3932178,0.0,0.0,0.0,0.0,0.0,0.0,0.0,0.89077663,0.0,0.0,nan,0.0,0.0,0.0,0.0,0.0,0.0,0.0,0.0,0.13025503,-0.2535843,-0.002453804,0.0,0.0,0.0,0.0,0.0,0.0
37492000,37412000,2.5432937,-0.6019651,0.22386608,5.401685,-3.7422645,0.3591931,0.0,0.0,0.0,0.0,0.0,0.0,0.0,0.73356915,0.0,0.0,nan,0.0,0.0,0.0,0.0,0.0,0.0,0.0,0.0,0.25125337,-0.28706536,-0.0039577484,0.0,0.0,0.0,0.0,0.0,0.0
37996000,37916000,2.539914,-0.51834667,0.1796723,5.6477146,-3.4994545,0.32801867,0.0,0.0,0.0,0.0,0.0,0.0,0.0,0.6108942,0.0,0.0,nan,0.0,0.0,0.0,0.0,0.0,0.0,0.0,0.0,0.26636136,-0.2793331,-0.002954483,0.0,0.0,0.0,0.0,0.0,0.0
38492000,38412000,2.5696254,-0.45182508,0.16148445,5.879295,-3.2629852,0.30420613,0.0,0.0,0.0,0.0,0.0,0.0,0.0,0.59184265,0.0,0.0,nan,0.0,0.0,0.0,0.0,0.0,0.0,0.0,0.0,0.31135005,-0.2567603,-0.0032081604,0.0,0.0,0.0,0.0,0.0,0.0
38988000,38908000,2.5925841,-0.36317915,0.10191643,6.0676813,-3.0121806,0.26536226,0.0,0.0,0.0,0.0,0.0,0.0,0.0,0.3793962,0.0,0.0,nan,0.0,0.0,0.0,0.0,0.0,0.0,0.0,0.0,0.3321073,-0.22211568,-0.0030441284,0.0,0.0,0.0,0.0,0.0,0.0
39492000,39412000,2.7158523,-0.25939316,0.09901414,6.8676233,-2.6910324,0.21029925,0.0,0.0,0.0,0.0,0.0,0.0,0.0,0.41085792,0.0,0.0,nan,0.0,0.0,0.0,0.0,0.0,0.0,0.0,0.0,0.3237755,-0.22874902,-0.0024147034,0.0,0.0,0.0,0.0,0.0,0.0
39988000,39908000,2.7500434,-0.15782139,0.10173045,7.0592685,-2.4278266,0.17918491,0.0,0.0,0.0,0.0,0.0,0.0,0.0,0.4015751,0.0,0.0,nan,0.0,0.0,0.0,0.0,0.0,0.0,0.0,0.0,0.27941877,-0.24369524,-0.0029945374,0.0,0.0,0.0,0.0,0.0,0.0
40492000,40412000,2.7537663,-0.046070784,0.05848778,7.202825,-2.1600907,0.15070462,0.0,0.0,0.0,0.0,0.0,0.0,0.0,0.26361585,0.0,0.0,nan,0.0,0.0,0.0,0.0,0.0,0.0,0.0,0.0,0.27240378,-0.17453465,-0.0021877289,0.0,0.0,0.0,0.0,0.0,0.0
40988000,40908000,2.718447,0.022861168,0.069347896,7.298776,-1.897688,0.12721682,0.0,0.0,0.0,0.0,0.0,0.0,0.0,0.24897718,0.0,0.0,nan,0.0,0.0,0.0,0.0,0.0,0.0,0.0,0.0,0.28718704,-0.14572373,-0.0021562576,0.0,0.0,0.0,0.0,0.0,0.0
41492000,41412000,2.7033746,0.2284888,0.031708263,7.459949,-1.3651564,0.089059114,0.0,0.0,0.0,0.0,0.0,0.0,0.0,0.06654549,0.0,0.0,nan,0.0,0.0,0.0,0.0,0.0,0.0,0.0,0.0,0.31460467,-0.18170916,-0.003312111,0.0,0.0,0.0,0.0,0.0,0.0
41988000,41908000,2.6788743,0.2915713,0.057214923,7.5056458,-1.0956436,0.090280056,0.0,0.0,0.0,0.0,0.0,0.0,0.0,0.20842218,0.0,0.0,nan,0.0,0.0,0.0,0.0,0.0,0.0,0.0,0.0,0.3077489,-0.18226033,-0.0027675629,0.0,0.0,0.0,0.0,0.0,0.0
42492000,42412000,2.6491344,0.38638252,0.05495946,7.528916,-0.82786787,0.07339835,0.0,0.0,0.0,0.0,0.0,0.0,0.0,0.17365599,0.0,0.0,nan,0.0,0.0,0.0,0.0,0.0,0.0,0.0,0.0,0.334114,-0.13806877,-0.0023918152,0.0,0.0,0.0,0.0,0.0,0.0
42988000,42908000,2.6261687,0.45780963,0.04885505,7.563004,-0.5717242,0.05940628,0.0,0.0,0.0,0.0,0.0,0.0,0.0,0.114238024,0.0,0.0,nan,0.0,0.0,0.0,0.0,0.0,0.0,0.0,0.0,0.33227068,-0.0958953,-0.0018882751,0.0,0.0,0.0,0.0,0.0,0.0
43492000,43412000,2.5291119,0.6237569,0.07632411,7.51162,-0.056872495,0.051018238,0.0,0.0,0.0,0.0,0.0,0.0,0.0,0.13564348,0.0,0.0,nan,0.0,0.0,0.0,0.0,0.0,0.0,0.0,0.0,0.28950474,-0.091446765,-0.0014724731,0.0,0.0,0.0,0.0,0.0,0.0
43988000,43908000,2.4863899,0.7166496,0.03639613,7.467549,0.1946745,0.048796177,0.0,0.0,0.0,0.0,0.0,0.0,0.0,0.059900045,0.0,0.0,nan,0.0,0.0,0.0,0.0,0.0,0.0,0.0,0.0,0.31924832,-0.07714084,-0.002128601,0.0,0.0,0.0,0.0,0.0,0.0
44492000,44412000,2.420394,0.7908601,0.06310808,7.38949,0.4511337,0.049810648,0.0,0.0,0.0,0.0,0.0,0.0,0.0,0.15487695,0.0,0.0,nan,0.0,0.0,0.0,0.0,0.0,0.0,0.0,0.0,0.3311623,-0.083809465,-0.0026416779,0.0,0.0,0.0,0.0,0.0,0.0
44996000,44916000,2.433137,0.870351,0.056351513,7.8117027,0.73781145,0.053752422,0.0,0.0,0.0,0.0,0.0,0.0,0.0,0.17190981,0.0,0.0,nan,0.0,0.0,0.0,0.0,0.0,0.0,0.0,0.0,0.3078928,-0.028826445,-0.0011911392,0.0,0.0,0.0,0.0,0.0,0.0
45492000,45412000,2.2755747,1.0404538,0.046329264,7.5671663,1.2621375,0.05855751,0.0,0.0,0.0,0.0,0.0,0.0,0.0,0.13653135,0.0,0.0,nan,0.0,0.0,0.0,0.0,0.0,0.0,0.0,0.0,0.32523158,-0.00817816,-0.0008678436,0.0,0.0,0.0,0.0,0.0,0.0
45988000,45908000,2.1992295,1.1086192,0.07459937,7.4061933,1.5197327,0.05803871,0.0,0.0,0.0,0.0,0.0,0.0,0.0,0.029615164,0.0,0.0,nan,0.0,0.0,0.0,0.0,0.0,0.0,0.0,0.0,0.28810346,-0.008769989,-0.00092983246,0.0,0.0,0.0,0.0,0.0,0.0
46492000,46412000,2.1147833,1.201194,0.045220677,7.263599,1.7800453,0.070031166,0.0,0.0,0.0,0.0,0.0,0.0,0.0,0.18352675,0.0,0.0,nan,0.0,0.0,0.0,0.0,0.0,0.0,0.0,0.0,0.27672738,0.0002641976,-0.000787735,0.0,0.0,0.0,0.0,0.0,0.0
46988000,46908000,2.0126908,1.2336669,0.07367136,7.0560265,2.0043619,0.07643628,0.0,0.0,0.0,0.0,0.0,0.0,0.0,0.06774807,0.0,0.0,nan,0.0,0.0,0.0,0.0,0.0,0.0,0.0,0.0,0.2700754,0.025199503,-0.00041484833,0.0,0.0,0.0,0.0,0.0,0.0
47492000,47412000,1.7835915,1.3407946,0.04851653,6.634879,2.456628,0.08806133,0.0,0.0,0.0,0.0,0.0,0.0,0.0,0.13942957,0.0,0.0,nan,0.0,0.0,0.0,0.0,0.0,0.0,0.0,0.0,0.2754138,0.009355828,-0.001124382,0.0,0.0,0.0,0.0,0.0,0.0
47988000,47908000,1.6952586,1.4337337,0.086054415,6.380712,2.6521406,0.09474063,0.0,0.0,0.0,0.0,0.0,0.0,0.0,0.088694096,0.0,0.0,nan,0.0,0.0,0.0,0.0,0.0,0.0,0.0,0.0,0.26696423,0.06452501,-0.0007505417,0.0,0.0,0.0,0.0,0.0,0.0
48492000,48412000,1.539174,1.4358739,0.046260994,6.111441,2.8335567,0.097946405,0.0,0.0,0.0,0.0,0.0,0.0,0.0,0.058107615,0.0,0.0,nan,0.0,0.0,0.0,0.0,0.0,0.0,0.0,0.0,0.28448278,0.07018758,-0.0005502701,0.0,0.0,0.0,0.0,0.0,0.0
48988000,48908000,1.4512415,1.5042489,0.03823673,5.8417926,3.0013497,0.08929086,0.0,0.0,0.0,0.0,0.0,0.0,0.0,0.12776423,0.0,0.0,nan,0.0,0.0,0.0,0.0,0.0,0.0,0.0,0.0,0.24567774,0.091226414,0.0006637573,0.0,0.0,0.0,0.0,0.0,0.0
49492000,49412000,1.2338343,1.5313395,0.06524508,5.2644773,3.297638,0.11797547,0.0,0.0,0.0,0.0,0.0,0.0,0.0,-0.088276386,0.0,0.0,nan,0.0,0.0,0.0,0.0,0.0,0.0,0.0,0.0,0.23084962,0.09509726,0.00079250336,0.0,0.0,0.0,0.0,0.0,0.0
49996000,49916000,1.1911118,1.6010352,0.07669191,5.348992,3.6574502,0.13161278,0.0,0.0,0.0,0.0,0.0,0.0,0.0,0.13667727,0.0,0.0,nan,0.0,0.0,0.0,0.0,0.0,0.0,0.0,0.0,0.21300982,0.13952878,0.0011854172,0.0,0.0,0.0,0.0,0.0,0.0
50492000,50412000,1.0961301,1.4169413,0.21668705,5.026021,3.7865548,0.15091276,0.0,0.0,0.0,0.0,0.0,0.0,0.0,0.23591447,0.0,0.0,nan,0.0,0.0,0.0,0.0,0.0,0.0,0.0,0.0,-0.19059725,-0.28363258,-0.043863297,0.0,0.0,0.0,0.0,0.0,0.0
50988000,50908000,1.1985549,1.1422449,0.536744,4.737993,3.7529137,0.2620113,0.0,0.0,0.0,0.0,0.0,0.0,0.0,0.40751815,0.0,0.0,nan,0.0,0.0,0.0,0.0,0.0,0.0,0.0,0.0,-0.00442034,-0.08986592,-0.010728836,0.0,0.0,0.0,0.0,0.0,0.0
51492000,51412000,1.7675985,0.8714765,1.1072631,4.598247,3.4969177,0.7621455,0.0,0.0,0.0,0.0,0.0,0.0,0.0,0.5914109,0.0,0.0,nan,0.0,0.0,0.0,0.0,0.0,0.0,0.0,0.0,-0.18372114,-0.2561565,-0.035593987,0.0,0.0,0.0,0.0,0.0,0.0
51988000,51908000,1.7780361,0.62586725,1.2716337,4.718553,3.2913578,1.0696433,0.0,0.0,0.0,0.0,0.0,0.0,0.0,0.9859884,0.0,0.0,nan,0.0,0.0,0.0,0.0,0.0,0.0,0.0,0.0,-0.40614516,-0.50826335,-0.04053116,0.0,0.0,0.0,0.0,0.0,0.0
52492000,52412000,1.5825012,0.2678117,1.4112706,4.854927,3.0009913,1.3711715,0.0,0.0,0.0,0.0,0.0,0.0,0.0,1.2573318,0.0,0.0,nan,0.0,0.0,0.0,0.0,0.0,0.0,0.0,0.0,-0.55780876,-0.68066114,0.009716034,0.0,0.0,0.0,0.0,0.0,0.0
52988000,52908000,1.160347,-0.14151837,1.347022,4.8926306,2.6039085,1.6277997,0.0,0.0,0.0,0.0,0.0,0.0,0.0,1.5002193,0.0,0.0,nan,0.0,0.0,0.0,0.0,0.0,0.0,0.0,0.0,-0.545707,-0.66507685,0.067266464,0.0,0.0,0.0,0.0,0.0,0.0
53492000,53412000,0.028923482,-0.8312992,0.91943747,4.4623737,1.5846272,1.8499908,0.0,0.0,0.0,0.0,0.0,0.0,0.0,1.2176073,0.0,0.0,nan,0.0,0.0,0.0,0.0,0.0,0.0,0.0,0.0,-0.3131311,-0.29880863,0.056415558,0.0,0.0,0.0,0.0,0.0,0.0
53996000,53916000,-0.5289309,-0.93536794,0.5134824,3.949473,1.0690366,1.7627718,0.0,0.0,0.0,0.0,0.0,0.0,0.0,0.98141646,0.0,0.0,nan,0.0,0.0,0.0,0.0,0.0,0.0,0.0,0.0,0.04975766,0.11485791,-0.017271996,0.0,0.0,0.0,0.0,0.0,0.0
54492000,54412000,-1.0715961,-0.8933168,0.020159125,3.2553933,0.6198802,1.5403228,0.0,0.0,0.0,0.0,0.0,0.0,0.0,0.61639476,0.0,0.0,nan,0.0,0.0,0.0,0.0,0.0,0.0,0.0,0.0,0.4324811,0.50611377,-0.10843563,0.0,0.0,0.0,0.0,0.0,0.0
54988000,54908000,-1.4830279,-0.62985355,-0.52794224,2.42185,0.30611566,1.167006,0.0,0.0,0.0,0.0,0.0,0.0,0.0,-0.0020165443,0.0,0.0,nan,0.0,0.0,0.0,0.0,0.0,0.0,0.0,0.0,0.79069006,0.9390729,-0.17429829,0.0,0.0,0.0,0.0,0.0,0.0
55492000,55412000,-1.9879509,0.3751932,-1.5449364,0.57754123,0.18605956,0.099772215,0.0,0.0,0.0,0.0,0.0,0.0,0.0,-0.7683692,0.0,0.0,nan,0.0,0.0,0.0,0.0,0.0,0.0,0.0,0.0,0.4820454,0.6480173,-0.14429665,0.0,0.0,0.0,0.0,0.0,0.0
55988000,55908000,-2.3879945,0.6009726,-1.9723964,-0.5499337,0.3590985,-0.55314445,0.0,0.0,0.0,0.0,0.0,0.0,0.0,-1.2857065,0.0,0.0,nan,0.0,0.0,0.0,0.0,0.0,0.0,0.0,0.0,0.21243685,0.3455379,-0.07140446,0.0,0.0,0.0,0.0,0.0,0.0
56492000,56412000,-2.7510011,0.901721,-2.4577084,-1.7870226,0.5831971,-1.236898,0.0,0.0,0.0,0.0,0.0,0.0,0.0,-2.1655478,0.0,0.0,nan,0.0,0.0,0.0,0.0,0.0,0.0,0.0,0.0,2.3034847,3.1106796,-0.76578236,0.0,0.0,0.0,0.0,0.0,0.0
56996000,56916000,-1.4658436,2.8444204,-2.6098812,-2.8749092,1.2005689,-1.9760965,0.0,0.0,0.0,0.0,0.0,0.0,0.0,-2.740327,0.0,0.0,nan,0.0,0.0,0.0,0.0,0.0,0.0,0.0,0.0,0.23170638,0.8937311,-0.032197952,0.0,0.0,0.0,0.0,0.0,0.0
57492000,57412000,-0.92013633,4.2988434,-2.6443932,-3.8048193,3.7669787,-3.1638796,0.0,0.0,0.0,0.0,0.0,0.0,0.0,-0.0,0.0,0.0,nan,0.0,0.0,0.0,0.0,0.0,0.0,0.0,0.0,0.18802637,0.40834332,0.008090973,0.0,0.0,0.0,0.0,0.0,0.0
57988000,57908000,-0.98553497,4.33264,-2.5358284,-4.1883264,4.9594717,-3.774825,0.0,0.0,0.0,0.0,0.0,0.0,0.0,-0.0,0.0,0.0,nan,0.0,0.0,0.0,0.0,0.0,0.0,0.0,0.0,-0.08464435,0.07116291,0.0034179688,0.0,0.0,0.0,0.0,0.0,0.0
58492000,58412000,-1.0276139,4.200936,-2.3522022,-4.551206,6.0188236,-4.247002,0.0,0.0,0.0,0.0,0.0,0.0,0.0,-0.0,0.0,0.0,nan,0.0,0.0,0.0,0.0,0.0,0.0,0.0,0.0,-0.40790024,-0.2491202,-0.020677567,0.0,0.0,0.0,0.0,0.0,0.0
58996000,58916000,-1.0471988,3.925575,-2.0930014,-4.8740773,6.9018164,-4.5672297,0.0,0.0,0.0,0.0,0.0,0.0,0.0,-0.0,0.0,0.0,nan,0.0,0.0,0.0,0.0,0.0,0.0,0.0,0.0,-0.6892315,-0.53078145,-0.058374405,0.0,0.0,0.0,0.0,0.0,0.0
59492000,59412000,-1.075987,3.0770154,-1.2181174,-5.4403925,7.9879966,-4.737124,0.0,0.0,0.0,0.0,0.0,0.0,0.0,-0.0,0.0,0.0,nan,0.0,0.0,0.0,0.0,0.0,0.0,0.0,0.0,-0.8803483,-0.67221713,-0.08884859,0.0,0.0,0.0,0.0,0.0,0.0
59988000,59908000,-1.0477797,2.5063674,-0.7705077,-5.656357,8.163832,-4.5537677,0.0,0.0,0.0,0.0,0.0,0.0,0.0,-0.0,0.0,0.0,nan,0.0,0.0,0.0,0.0,0.0,0.0,0.0,0.0,-0.9621266,-0.74656254,-0.10430384,0.0,0.0,0.0,0.0,0.0,0.0
60492000,60412000,-1.0578632,2.2276697,-0.38991207,-5.985489,8.720151,-4.20918,0.0,0.0,0.0,0.0,0.0,0.0,0.0,-0.0,0.0,0.0,nan,0.0,0.0,0.0,0.0,0.0,0.0,0.0,0.0,0.11696337,0.3269021,0.007870674,0.0,0.0,0.0,0.0,0.0,0.0
60988000,60908000,-1.1152905,2.1698375,-0.26588565,-6.1587963,8.554818,-3.8603425,0.0,0.0,0.0,0.0,0.0,0.0,0.0,-0.0,0.0,0.0,nan,0.0,0.0,0.0,0.0,0.0,0.0,0.0,0.0,0.09827991,0.29756576,0.0059041977,0.0,0.0,0.0,0.0,0.0,0.0
61492000,61412000,-1.1349657,2.039885,-0.083265185,-6.432863,8.095553,-3.1515079,0.0,0.0,0.0,0.0,0.0,0.0,0.0,-0.0,0.0,0.0,nan,0.0,0.0,0.0,0.0,0.0,0.0,0.0,0.0,0.11725451,0.39830726,-0.022162437,0.0,0.0,0.0,0.0,0.0,0.0
61988000,61908000,-1.1542392,1.9774758,0.0069368873,-6.5419674,7.8388753,-2.7966468,0.0,0.0,0.0,0.0,0.0,0.0,0.0,-0.0,0.0,0.0,nan,0.0,0.0,0.0,0.0,0.0,0.0,0.0,0.0,0.11020407,0.3254059,-0.03790188,0.0,0.0,0.0,0.0,0.0,0.0
62492000,62412000,-1.2077014,1.8863351,0.14217596,-6.638398,7.547633,-2.4268906,0.0,0.0,0.0,0.0,0.0,0.0,0.0,-0.0,0.0,0.0,nan,0.0,0.0,0.0,0.0,0.0,0.0,0.0,0.0,0.17991163,-0.6195037,0.04300642,0.0,0.0,0.0,0.0,0.0,0.0
62996000,62916000,-1.1643574,1.5096503,0.2515351,-6.741537,7.2299733,-2.0596511,0.0,0.0,0.0,0.0,0.0,0.0,0.0,0.2486682,0.0,0.0,nan,0.0,0.0,0.0,0.0,0.0,0.0,0.0,0.0,0.41533852,-0.60566145,0.026798248,0.0,0.0,0.0,0.0,0.0,0.0
63492000,63412000,-1.2239208,1.7276111,0.43180332,-6.8014383,6.1681376,-1.3782645,0.0,0.0,0.0,0.0,0.0,0.0,0.0,0.55987763,0.0,0.0,nan,0.0,0.0,0.0,0.0,0.0,0.0,0.0,0.0,0.098382965,0.2536912,0.005366802,0.0,0.0,0.0,0.0,0.0,0.0
63996000,63916000,-1.2161359,1.6582519,0.504736,-6.887027,5.916446,-1.0581075,0.0,0.0,0.0,0.0,0.0,0.0,0.0,0.9409574,0.0,0.0,nan,0.0,0.0,0.0,0.0,0.0,0.0,0.0,0.0,0.07169157,0.27990907,0.0055966377,0.0,0.0,0.0,0.0,0.0,0.0
64492000,64412000,-1.2124779,1.5976281,0.5225135,-6.956608,5.666701,-0.79428524,0.0,0.0,0.0,0.0,0.0,0.0,0.0,1.0383618,0.0,0.0,nan,0.0,0.0,0.0,0.0,0.0,0.0,0.0,0.0,0.0842091,0.25022647,0.0047006607,0.0,0.0,0.0,0.0,0.0,0.0
64988000,64908000,-1.1752274,1.5476424,0.5239519,-7.0098925,5.411836,-0.5457681,0.0,0.0,0.0,0.0,0.0,0.0,0.0,1.2572604,0.0,0.0,nan,0.0,0.0,0.0,0.0,0.0,0.0,0.0,0.0,0.14319193,0.26903364,0.005320072,0.0,0.0,0.0,0.0,0.0,0.0
65492000,65412000,-1.1798937,1.3908795,0.6255817,-7.070842,4.9347134,-0.16310857,0.0,0.0,0.0,0.0,0.0,0.0,0.0,1.4232924,0.0,0.0,nan,0.0,0.0,0.0,0.0,0.0,0.0,0.0,0.0,0.090587504,0.2192823,0.0059404373,0.0,0.0,0.0,0.0,0.0,0.0
65988000,65908000,-1.192912,1.3929807,0.60066044,-7.3021946,5.082836,-0.0125088,0.0,0.0,0.0,0.0,0.0,0.0,0.0,1.4951999,0.0,0.0,nan,0.0,0.0,0.0,0.0,0.0,0.0,0.0,0.0,0.07495299,0.22078513,0.0032744408,0.0,0.0,0.0,0.0,0.0,0.0
66492000,66412000,-1.1762547,1.3184812,0.6219944,-7.300557,4.843169,0.13886635,0.0,0.0,0.0,0.0,0.0,0.0,0.0,1.4896021,0.0,0.0,nan,0.0,0.0,0.0,0.0,0.0,0.0,0.0,0.0,0.04462558,0.20665173,0.0033097267,0.0,0.0,0.0,0.0,0.0,0.0
66988000,66908000,-1.1492636,1.2534847,0.6354652,-7.2950945,4.6203456,0.26494938,0.0,0.0,0.0,0.0,0.0,0.0,0.0,1.5915097,0.0,0.0,nan,0.0,0.0,0.0,0.0,0.0,0.0,0.0,0.0,0.06305337,0.16732574,0.0022711754,0.0,0.0,0.0,0.0,0.0,0.0
67492000,67412000,-1.0689629,1.1100852,0.5818757,-7.223569,4.15675,0.4295457,0.0,0.0,0.0,0.0,0.0,0.0,0.0,1.5220174,0.0,0.0,nan,0.0,0.0,0.0,0.0,0.0,0.0,0.0,0.0,0.024662197,0.15614331,0.0025491714,0.0,0.0,0.0,0.0,0.0,0.0
67988000,67908000,-1.0326878,1.0559262,0.5675899,-7.1841087,3.9495764,0.5122396,0.0,0.0,0.0,0.0,0.0,0.0,0.0,1.4751624,0.0,0.0,nan,0.0,0.0,0.0,0.0,0.0,0.0,0.0,0.0,0.037269875,0.12050777,0.0017008781,0.0,0.0,0.0,0.0,0.0,0.0
68492000,68412000,-0.99458355,0.99105865,0.50212276,-7.127851,3.746447,0.57328814,0.0,0.0,0.0,0.0,0.0,0.0,0.0,1.5218459,0.0,0.0,nan,0.0,0.0,0.0,0.0,0.0,0.0,0.0,0.0,0.054044187,0.14004616,0.0014576912,0.0,0.0,0.0,0.0,0.0,0.0
68988000,68908000,-0.9451609,0.9367252,0.51198995,-7.05779,3.53433,0.58296585,0.0,0.0,0.0,0.0,0.0,0.0,0.0,1.2676191,0.0,0.0,nan,0.0,0.0,0.0,0.0,0.0,0.0,0.0,0.0,0.026857361,0.12242409,0.0015282631,0.0,0.0,0.0,0.0,0.0,0.0
69492000,69412000,-0.87077695,0.82029253,0.46121043,-6.9206753,3.149268,0.6253199,0.0,0.0,0.0,0.0,0.0,0.0,0.0,1.0374721,0.0,0.0,nan,0.0,0.0,0.0,0.0,0.0,0.0,0.0,0.0,0.016634434,0.08632391,0.0011606216,0.0,0.0,0.0,0.0,0.0,0.0
69988000,69908000,-0.8231522,0.74391764,0.3753285,-6.8398175,2.9628108,0.6078903,0.0,0.0,0.0,0.0,0.0,0.0,0.0,1.1641068,0.0,0.0,nan,0.0,0.0,0.0,0.0,0.0,0.0,0.0,0.0,0.037288472,0.10323316,0.0008196831,0.0,0.0,0.0,0.0,0.0,0.0
70492000,70412000,-0.7618361,0.71028566,0.33957386,-6.7463646,2.7776833,0.5768258,0.0,0.0,0.0,0.0,0.0,0.0,0.0,0.89382803,0.0,0.0,nan,0.0,0.0,0.0,0.0,0.0,0.0,0.0,0.0,0.040834874,0.06799298,0.0002913475,0.0,0.0,0.0,0.0,0.0,0.0
70988000,70908000,-0.72170824,0.6580819,0.29432496,-6.6602497,2.6106114,0.5392894,0.0,0.0,0.0,0.0,0.0,0.0,0.0,0.82019097,0.0,0.0,nan,0.0,0.0,0.0,0.0,0.0,0.0,0.0,0.0,0.014909029,0.09092594,0.00088596344,0.0,0.0,0.0,0.0,0.0,0.0
71492000,71412000,-0.68547684,0.5713995,0.20117205,-6.636795,2.4700994,0.46035397,0.0,0.0,0.0,0.0,0.0,0.0,0.0,0.7630825,0.0,0.0,nan,0.0,0.0,0.0,0.0,0.0,0.0,0.0,0.0,0.03417021,0.03720715,-7.772446e-05,0.0,0.0,0.0,0.0,0.0,0.0
71988000,71908000,-0.62349564,0.5472021,0.17637418,-6.526025,2.3052013,0.41808143,0.0,0.0,0.0,0.0,0.0,0.0,0.0,0.5346966,0.0,0.0,nan,0.0,0.0,0.0,0.0,0.0,0.0,0.0,0.0,0.06972337,0.050772816,-0.00069999695,0.0,0.0,0.0,0.0,0.0,0.0
72492000,72412000,-0.5505789,0.49621192,0.14275397,-6.4110427,2.1475344,0.36055318,0.0,0.0,0.0,0.0,0.0,0.0,0.0,0.5738201,0.0,0.0,nan,0.0,0.0,0.0,0.0,0.0,0.0,0.0,0.0,0.0077873617,0.04471073,0.00033330917,0.0,0.0,0.0,0.0,0.0,0.0
72988000,72908000,-0.509922,0.4567558,0.09869846,-6.2966447,2.0011406,0.30432892,0.0,0.0,0.0,0.0,0.0,0.0,0.0,0.40456602,0.0,0.0,nan,0.0,0.0,0.0,0.0,0.0,0.0,0.0,0.0,0.026236564,0.009264214,-0.00031995773,0.0,0.0,0.0,0.0,0.0,0.0
73492000,73412000,-0.39871505,0.38578835,0.018418003,-6.0487256,1.717006,0.20825523,0.0,0.0,0.0,0.0,0.0,0.0,0.0,0.25782505,0.0,0.0,nan,0.0,0.0,0.0,0.0,0.0,0.0,0.0,0.0,0.021126732,0.017948017,-0.00015926361,0.0,0.0,0.0,0.0,0.0,0.0
73988000,73908000,-0.36944604,0.34425557,0.023596833,-5.923813,1.5875723,0.17275955,0.0,0.0,0.0,0.0,0.0,0.0,0.0,0.30886605,0.0,0.0,nan,0.0,0.0,0.0,0.0,0.0,0.0,0.0,0.0,0.035451278,0.0033469573,-0.0005578995,0.0,0.0,0.0,0.0,0.0,0.0
74492000,74412000,-0.29011282,0.32552496,-0.010143086,-5.7977295,1.457016,0.11842248,0.0,0.0,0.0,0.0,0.0,0.0,0.0,0.12357577,0.0,0.0,nan,0.0,0.0,0.0,0.0,0.0,0.0,0.0,0.0,0.06978956,0.017018335,-0.0011367798,0.0,0.0,0.0,0.0,0.0,0.0
74996000,74916000,-0.24331303,0.30075628,0.0074869394,-5.6707735,1.348581,0.07489402,0.0,0.0,0.0,0.0,0.0,0.0,0.0,0.14410897,0.0,0.0,nan,0.0,0.0,0.0,0.0,0.0,0.0,0.0,0.0,-0.009595364,-0.0068343137,7.867813e-05,0.0,0.0,0.0,0.0,0.0,0.0
75492000,75412000,-0.16157638,0.25733858,-0.05360529,-5.416802,1.1380006,0.0019906806,0.0,0.0,0.0,0.0,0.0,0.0,0.0,0.0805778,0.0,0.0,nan,0.0,0.0,0.0,0.0,0.0,0.0,0.0,0.0,0.04357381,0.0030701365,-0.0007004738,0.0,0.0,0.0,0.0,0.0,0.0
75996000,75916000,-0.1298855,0.2597434,-0.054266933,-5.3802147,1.1311967,-0.03916268,0.0,0.0,0.0,0.0,0.0,0.0,0.0,0.13883162,0.0,0.0,nan,0.0,0.0,0.0,0.0,0.0,0.0,0.0,0.0,0.0428973,-0.04605744,-0.0010867119,0.0,0.0,0.0,0.0,0.0,0.0
76492000,76412000,-0.101903826,0.22639729,-0.08332827,-5.244649,1.0339668,-0.06936964,0.0,0.0,0.0,0.0,0.0,0.0,0.0,-0.092030905,0.0,0.0,nan,0.0,0.0,0.0,0.0,0.0,0.0,0.0,0.0,0.04045254,-0.006225439,-0.00068712234,0.0,0.0,0.0,0.0,0.0,0.0
76988000,76908000,-0.0541952,0.20093471,-0.12891822,-5.1077824,0.9369635,-0.09615274,0.0,0.0,0.0,0.0,0.0,0.0,0.0,-0.025567755,0.0,0.0,nan,0.0,0.0,0.0,0.0,0.0,0.0,0.0,0.0,0.034229815,-0.062239997,-0.0009999275,0.0,0.0,0.0,0.0,0.0,0.0
77492000,77412000,0.083133355,0.15308511,-0.104182124,-4.835971,0.76420057,-0.13388385,0.0,0.0,0.0,0.0,0.0,0.0,0.0,-0.054308698,0.0,0.0,nan,0.0,0.0,0.0,0.0,0.0,0.0,0.0,0.0,0.029108346,-0.07880325,-0.001045227,0.0,0.0,0.0,0.0,0.0,0.0
77988000,77908000,0.102894336,0.13794626,-0.07403089,-4.6992283,0.6795151,-0.14508703,0.0,0.0,0.0,0.0,0.0,0.0,0.0,-0.04974608,0.0,0.0,nan,0.0,0.0,0.0,0.0,0.0,0.0,0.0,0.0,0.035999358,-0.07665178,-0.0010871887,0.0,0.0,0.0,0.0,0.0,0.0
78492000,78412000,0.18012737,0.11469554,-0.08386272,-4.563843,0.5960624,-0.16155183,0.0,0.0,0.0,0.0,0.0,0.0,0.0,-0.16056682,0.0,0.0,nan,0.0,0.0,0.0,0.0,0.0,0.0,0.0,0.0,0.03716585,-0.060509287,-0.0009160042,0.0,0.0,0.0,0.0,0.0,0.0
78988000,78908000,0.20255773,0.0701186,-0.10869396,-4.431623,0.5144541,-0.16590142,0.0,0.0,0.0,0.0,0.0,0.0,0.0,-0.08107075,0.0,0.0,nan,0.0,0.0,0.0,0.0,0.0,0.0,0.0,0.0,0.024176791,-0.07513482,-0.0007891655,0.0,0.0,0.0,0.0,0.0,0.0
79492000,79412000,0.2834194,0.023659753,-0.0388242,-4.173235,0.35827398,-0.18854462,0.0,0.0,0.0,0.0,0.0,0.0,0.0,-0.1085439,0.0,0.0,nan,0.0,0.0,0.0,0.0,0.0,0.0,0.0,0.0,0.016131617,-0.08842723,-0.00075769424,0.0,0.0,0.0,0.0,0.0,0.0
79996000,79916000,0.32890457,0.0022386936,-0.11068777,-4.0472417,0.28317893,-0.1812841,0.0,0.0,0.0,0.0,0.0,0.0,0.0,-0.023837253,0.0,0.0,nan,0.0,0.0,0.0,0.0,0.0,0.0,0.0,0.0,0.02588147,-0.06824779,-0.0007047653,0.0,0.0,0.0,0.0,0.0,0.0
80492000,80412000,0.39577556,-0.17568637,0.05244317,-3.92842,0.20059538,-0.16224192,0.0,0.0,0.0,0.0,0.0,0.0,0.0,-0.049010344,0.0,0.0,nan,0.0,0.0,0.0,0.0,0.0,0.0,0.0,0.0,-1.0298718,-1.1484267,-0.10792732,0.0,0.0,0.0,0.0,0.0,0.0
80988000,80908000,0.5668607,-0.73765314,0.4706594,-3.7689133,-0.032484904,-0.043378443,0.0,0.0,0.0,0.0,0.0,0.0,0.0,0.32783252,0.0,0.0,nan,0.0,0.0,0.0,0.0,0.0,0.0,0.0,0.0,-0.60582113,-0.90267646,-0.05407858,0.0,0.0,0.0,0.0,0.0,0.0
81492000,81412000,1.2442377,-1.6624101,1.0403678,-3.263955,-0.9552436,0.5081672,0.0,0.0,0.0,0.0,0.0,0.0,0.0,0.6402625,0.0,0.0,nan,0.0,0.0,0.0,0.0,0.0,0.0,0.0,0.0,1.3163514,-0.9460721,0.33640146,0.0,0.0,0.0,0.0,0.0,0.0
81988000,81908000,2.2237158,-1.053098,1.1337216,-2.6993985,-1.4728475,0.8279324,0.0,0.0,0.0,0.0,0.0,0.0,0.0,0.8351512,0.0,0.0,nan,0.0,0.0,0.0,0.0,0.0,0.0,0.0,0.0,2.850202,-1.2782817,3.446736,0.0,0.0,0.0,0.0,0.0,0.0
82492000,82412000,2.223767,0.25623885,1.0141367,-2.0274372,-1.4573271,1.06651,0.0,0.0,0.0,0.0,0.0,0.0,0.0,1.1870756,0.0,0.0,nan,0.0,0.0,0.0,0.0,0.0,0.0,0.0,0.0,8.517935,3.4765291,12.874459,0.0,0.0,0.0,0.0,0.0,0.0
82988000,82908000,0.49917498,-0.9859251,3.520522,-1.4802766,-1.2552662,1.5439771,0.0,0.0,0.0,0.0,0.0,0.0,0.0,2.2670739,0.0,0.0,nan,0.0,0.0,0.0,0.0,0.0,0.0,0.0,0.0,0.24791047,0.40315866,0.00608186,0.0,0.0,0.0,0.0,0.0,0.0
83492000,83412000,0.2844371,-1.2655687,3.5088112,-1.484088,-1.6638587,3.450266,0.0,0.0,0.0,0.0,0.0,0.0,0.0,2.8703926,0.0,0.0,nan,0.0,0.0,0.0,0.0,0.0,0.0,0.0,0.0,0.5944898,0.6760536,0.03662979,0.0,0.0,0.0,0.0,0.0,0.0
83988000,83908000,0.23644315,-1.558531,3.5984766,-1.452873,-1.8499033,4.160444,0.0,0.0,0.0,0.0,0.0,0.0,0.0,3.48978,0.0,0.0,nan,0.0,0.0,0.0,0.0,0.0,0.0,0.0,0.0,0.8588771,0.9780293,0.081803374,0.0,0.0,0.0,0.0,0.0,0.0
84492000,84412000,0.26291966,-1.9372829,2.869907,-1.3051196,-2.067852,4.82721,0.0,0.0,0.0,0.0,0.0,0.0,0.0,3.8411117,0.0,0.0,nan,0.0,0.0,0.0,0.0,0.0,0.0,0.0,0.0,1.0162163,1.1501954,0.11834248,0.0,0.0,0.0,0.0,0.0,0.0
84988000,84908000,0.5179949,-2.3436656,0.06801111,-0.8489946,-2.2610693,5.0991025,0.0,0.0,0.0,0.0,0.0,0.0,0.0,-3.2096379,0.0,0.0,nan,0.0,0.0,0.0,0.0,0.0,0.0,0.0,0.0,1.1234164,1.2161515,0.14056306,0.0,0.0,0.0,0.0,0.0,0.0
85492000,85412000,0.35183927,-3.3799164,0.8594474,-1.034101,-3.7399876,1.9396145,0.0,0.0,0.0,0.0,0.0,0.0,0.0,-2.8311229,0.0,0.0,nan,0.0,0.0,0.0,0.0,0.0,0.0,0.0,0.0,1.0952022,1.2292756,0.1391092,0.0,0.0,0.0,0.0,0.0,0.0
85996000,85916000,0.24013306,-3.8265417,1.2733843,-1.1685047,-4.5870028,2.1601691,0.0,0.0,0.0,0.0,0.0,0.0,0.0,-2.2153804,0.0,0.0,nan,0.0,0.0,0.0,0.0,0.0,0.0,0.0,0.0,0.90287435,1.0426346,0.09844104,0.0,0.0,0.0,0.0,0.0,0.0
86492000,86412000,0.18897955,-4.1648593,1.5072973,-1.2449552,-5.456476,2.4831495,0.0,0.0,0.0,0.0,0.0,0.0,0.0,-1.6906009,0.0,0.0,nan,0.0,0.0,0.0,0.0,0.0,0.0,0.0,0.0,0.6164198,0.8364942,0.05484946,0.0,0.0,0.0,0.0,0.0,0.0
86996000,86916000,0.256317,-4.4606376,1.4833108,-1.0613916,-6.657069,2.6096792,0.0,0.0,0.0,0.0,0.0,0.0,0.0,-1.3759253,0.0,0.0,nan,0.0,0.0,0.0,0.0,0.0,0.0,0.0,0.0,0.29939646,0.49943525,0.016102562,0.0,0.0,0.0,0.0,0.0,0.0
87492000,87412000,0.38553512,-4.4087324,0.96919394,-0.6838293,-7.9832687,2.4042435,0.0,0.0,0.0,0.0,0.0,0.0,0.0,-2.0850186,0.0,0.0,nan,0.0,0.0,0.0,0.0,0.0,0.0,0.0,0.0,-0.0564176,0.14834803,-0.0030681642,0.0,0.0,0.0,0.0,0.0,0.0
87988000,87908000,0.37054244,-4.12406,0.6452383,-0.5814831,-8.382388,2.1993306,0.0,0.0,0.0,0.0,0.0,0.0,0.0,-2.0423994,0.0,0.0,nan,0.0,0.0,0.0,0.0,0.0,0.0,0.0,0.0,-0.3611601,-0.1534032,-0.0012175285,0.0,0.0,0.0,0.0,0.0,0.0
88492000,88412000,0.2634374,-3.6524682,0.30861273,-0.6124022,-8.549942,1.969553,0.0,0.0,0.0,0.0,0.0,0.0,0.0,-1.9415529,0.0,0.0,nan,0.0,0.0,0.0,0.0,0.0,0.0,0.0,0.0,-0.6618171,-0.4101433,0.015189381,0.0,0.0,0.0,0.0,0.0,0.0
88988000,88908000,0.13443059,-3.0433543,-0.12173072,-0.71015453,-8.483458,1.652981,0.0,0.0,0.0,0.0,0.0,0.0,0.0,-1.9503863,0.0,0.0,nan,0.0,0.0,0.0,0.0,0.0,0.0,0.0,0.0,-0.87186307,-0.63298655,0.037587807,0.0,0.0,0.0,0.0,0.0,0.0
89492000,89412000,-0.27160943,-1.4687015,-0.69530845,-1.3390644,-7.5099196,1.1446469,0.0,0.0,0.0,0.0,0.0,0.0,0.0,-2.4385257,0.0,0.0,nan,0.0,0.0,0.0,0.0,0.0,0.0,0.0,0.0,-1.026247,-0.77605885,0.057316452,0.0,0.0,0.0,0.0,0.0,0.0
89988000,89908000,-0.47567737,-0.60533607,-1.001158,-1.7221056,-6.6617537,0.91528416,0.0,0.0,0.0,0.0,0.0,0.0,0.0,-2.416654,0.0,0.0,nan,0.0,0.0,0.0,0.0,0.0,0.0,0.0,0.0,-1.1032035,-0.8259666,0.06516551,0.0,0.0,0.0,0.0,0.0,0.0
90492000,90412000,-0.64492184,0.06735581,-1.0365313,-2.1728315,-5.6461406,0.6405742,0.0,0.0,0.0,0.0,0.0,0.0,0.0,-2.1986525,0.0,0.0,nan,0.0,0.0,0.0,0.0,0.0,0.0,0.0,0.0,-0.20875242,0.09367728,-0.007077889,0.0,0.0,0.0,0.0,0.0,0.0
90988000,90908000,-0.7573715,0.32155535,-0.76377726,-2.5905209,-4.646024,0.56190896,0.0,0.0,0.0,0.0,0.0,0.0,0.0,-2.1193094,0.0,0.0,nan,0.0,0.0,0.0,0.0,0.0,0.0,0.0,0.0,-0.185759,0.14219724,-0.006802539,0.0,0.0,0.0,0.0,0.0,0.0
91492000,91412000,-0.9033765,0.64138246,-0.3302177,-3.276566,-3.1825585,0.6026697,0.0,0.0,0.0,0.0,0.0,0.0,0.0,-2.0930693,0.0,0.0,nan,0.0,0.0,0.0,0.0,0.0,0.0,0.0,0.0,-0.21992862,0.06913561,-0.0075903414,0.0,0.0,0.0,0.0,0.0,0.0
91996000,91916000,-0.96532136,0.80029756,-0.2054812,-3.5490448,-2.3741374,0.6697798,0.0,0.0,0.0,0.0,0.0,0.0,0.0,-1.7578363,0.0,0.0,nan,0.0,0.0,0.0,0.0,0.0,0.0,0.0,0.0,-0.23544535,0.12034772,-0.008205925,0.0,0.0,0.0,0.0,0.0,0.0
92492000,92412000,-1.021213,0.9200087,-0.12449283,-3.7757812,-1.6561098,0.75054765,0.0,0.0,0.0,0.0,0.0,0.0,0.0,-1.4946678,0.0,0.0,nan,0.0,0.0,0.0,0.0,0.0,0.0,0.0,0.0,-0.20655453,0.059879698,-0.007521191,0.0,0.0,0.0,0.0,0.0,0.0
92988000,92908000,-1.0838044,1.0202994,0.0013511404,-3.9756787,-1.0355082,0.7985289,0.0,0.0,0.0,0.0,0.0,0.0,0.0,-1.2101524,0.0,0.0,nan,0.0,0.0,0.0,0.0,0.0,0.0,0.0,0.0,-0.2589178,0.09889811,-0.008923214,0.0,0.0,0.0,0.0,0.0,0.0
93492000,93412000,-1.1247188,1.1343939,0.04826946,-4.3012304,-0.053554073,0.8095076,0.0,0.0,0.0,0.0,0.0,0.0,0.0,-1.478435,0.0,0.0,nan,0.0,0.0,0.0,0.0,0.0,0.0,0.0,0.0,-0.25955105,0.10294239,-0.009065841,0.0,0.0,0.0,0.0,0.0,0.0
93988000,93908000,-1.1651621,1.1360604,0.060530793,-4.4347067,0.32793295,0.8140466,0.0,0.0,0.0,0.0,0.0,0.0,0.0,-1.1880159,0.0,0.0,nan,0.0,0.0,0.0,0.0,0.0,0.0,0.0,0.0,-0.2520972,0.10855903,-0.009049234,0.0,0.0,0.0,0.0,0.0,0.0
94492000,94412000,-1.2001528,1.1428404,0.017424004,-4.5621834,0.65400136,0.82167125,0.0,0.0,0.0,0.0,0.0,0.0,0.0,-1.1891286,0.0,0.0,nan,0.0,0.0,0.0,0.0,0.0,0.0,0.0,0.0,-0.23502913,0.10896896,-0.008787144,0.0,0.0,0.0,0.0,0.0,0.0
94996000,94916000,-1.1749737,1.1335574,0.070271306,-4.655094,0.9099432,0.80224967,0.0,0.0,0.0,0.0,0.0,0.0,0.0,-0.9498122,0.0,0.0,nan,0.0,0.0,0.0,0.0,0.0,0.0,0.0,0.0,-0.2478016,0.11136426,-0.009157037,0.0,0.0,0.0,0.0,0.0,0.0
95492000,95412000,-1.2146792,1.0865037,0.030726383,-4.81684,1.2738239,0.6940589,0.0,0.0,0.0,0.0,0.0,0.0,0.0,-1.1371565,0.0,0.0,nan,0.0,0.0,0.0,0.0,0.0,0.0,0.0,0.0,-0.23443367,0.123040184,-0.0089521725,0.0,0.0,0.0,0.0,0.0,0.0
95988000,95908000,-1.2236797,1.0522249,-0.026965762,-4.8810797,1.3840818,0.6094382,0.0,0.0,0.0,0.0,0.0,0.0,0.0,-0.0,0.0,0.0,nan,0.0,0.0,0.0,0.0,0.0,0.0,0.0,0.0,-0.25102887,0.11092591,-0.009266498,0.0,0.0,0.0,0.0,0.0,0.0
96492000,96412000,-1.2424333,1.01318,-0.12035319,-4.9289756,1.4653437,0.39837694,0.0,0.0,0.0,0.0,0.0,0.0,0.0,-0.0,0.0,0.0,nan,0.0,0.0,0.0,0.0,0.0,0.0,0.0,0.0,-0.2602112,0.10923034,-0.009526049,0.0,0.0,0.0,0.0,0.0,0.0
96996000,96916000,-1.2530314,0.9853018,-0.16582885,-5.0029154,1.5286944,0.22338772,0.0,0.0,0.0,0.0,0.0,0.0,0.0,-1.0757952,0.0,0.0,nan,0.0,0.0,0.0,0.0,0.0,0.0,0.0,0.0,-0.15546227,0.113884985,-0.0056876703,0.0,0.0,0.0,0.0,0.0,0.0
97492000,97412000,-0.06300853,-0.0037453019,-0.012350097,-2.6204913,-0.21894987,0.40519786,0.0,0.0,0.0,0.0,0.0,0.0,0.0,-0.86150694,0.0,0.0,nan,0.0,0.0,0.0,0.0,0.0,0.0,0.0,0.0,-0.05749139,0.012239678,-0.002014651,0.0,0.0,0.0,0.0,0.0,0.0
97988000,97908000,-0.011290235,-0.012831307,-0.020520898,-2.6158042,-0.20983307,0.40934515,0.0,0.0,0.0,0.0,0.0,0.0,0.0,-0.93859506,0.0,0.0,nan,0.0,0.0,0.0,0.0,0.0,0.0,0.0,0.0,-0.033107236,-0.00022365712,-0.0010878535,0.0,0.0,0.0,0.0,0.0,0.0
98492000,98412000,-0.014177811,-0.0028385576,-0.039334632,-2.6139061,-0.21705067,0.4219377,0.0,0.0,0.0,0.0,0.0,0.0,0.0,-0.70932794,0.0,0.0,nan,0.0,0.0,0.0,0.0,0.0,0.0,0.0,0.0,0.027909417,0.0028728526,0.000972605,0.0,0.0,0.0,0.0,0.0,0.0
98996000,98916000,0.005644891,0.015261173,-0.009756371,-2.6140208,-0.21719335,0.4187672,0.0,0.0,0.0,0.0,0.0,0.0,0.0,-0.7142565,0.0,0.0,nan,0.0,0.0,0.0,0.0,0.0,0.0,0.0,0.0,-0.011572315,-0.0166382,-9.818681e-05,0.0,0.0,0.0,0.0,0.0,0.0
99492000,99412000,-0.018115792,0.013064657,0.02072676,-2.6145077,-0.20985101,0.4087608,0.0,0.0,0.0,0.0,0.0,0.0,0.0,-0.68262506,0.0,0.0,nan,0.0,0.0,0.0,0.0,0.0,0.0,0.0,0.0,-0.015126012,-0.014383547,-0.00025778744,0.0,0.0,0.0,0.0,0.0,0.0
