timestamp,timestamp_sample,time_last_fuse,device_id,observation[0],observation[1],observation[2],observation_variance[0],observation_variance[1],observation_variance[2],innovation[0],innovation[1],innovation[2],innovation_variance[0],innovation_variance[1],innovation_variance[2],test_ratio[0],test_ratio[1],test_ratio[2],estimator_instance,fusion_enabled,innovation_rejected,fused
3412000,3289297,0,0,0.0,0.0,0.02,0.09,0.09,0.20250002,0.0034247483,0.00029932422,-0.043642517,0.12461375,0.12461975,0.20468381,3.764882e-06,2.8757878e-08,0.0003722169,3,1,0,0
3812000,3689575,0,0,0.0,0.0,-0.02,0.09,0.09,0.20250002,0.0030995458,4.2721338e-05,0.012966711,0.10503356,0.10503672,0.20378059,3.6587105e-06,6.9503797e-10,3.300326e-05,3,1,0,0
4204000,4089740,0,0,0.0,0.01,0.01,0.09,0.09,0.20250002,0.0020908709,-0.010914563,-0.021697635,0.09766483,0.09766495,0.20647657,1.7905077e-06,4.8790356e-05,9.120402e-05,3,1,0,0
4604000,4489843,0,0,0.02,0.01,-0.04,0.09,0.09,0.20250002,-0.017676715,-0.012869317,0.027198657,0.09436511,0.09436503,0.20922735,0.0001324499,7.0203685e-05,0.00014142835,3,1,0,0
5004000,4889905,0,0,0.0,0.0,-0.01,0.09,0.09,0.20250002,0.0005796252,-0.0033706757,-0.0018119048,0.09292999,0.09292992,0.21072891,1.4461008e-07,4.890332e-06,6.2317014e-07,3,1,0,0
5404000,5289943,0,0,-0.01,0.01,0.03,0.09,0.09,0.20250002,0.011145924,-0.008769899,-0.040701196,0.09199623,0.09199621,0.2110325,5.401596e-05,3.3440996e-05,0.00031399666,3,1,0,0
5812000,5689966,0,0,0.0,0.01,-0.02,0.09,0.09,0.20250002,0.00066969084,-0.009505877,0.009607572,0.09152923,0.0915292,0.21076848,1.9599678e-07,3.9489783e-05,1.7517883e-05,3,1,0,0
6212000,6089980,0,0,0.0,0.0,0.0,0.09,0.09,0.20250002,0.0005705351,-0.0005084536,-0.009232305,0.09123116,0.09123112,0.21021488,1.4271892e-07,1.13349486e-07,1.621873e-05,3,1,0,0
6612000,6489988,0,0,-0.01,-0.01,-0.01,0.09,0.09,0.20250002,0.0071968967,0.0101258075,0.0031742845,0.091044165,0.091044135,0.20963526,2.275613e-05,4.5047153e-05,1.922593e-06,3,1,0,0
7004000,6889993,0,0,-0.01,-0.01,-0.01,0.09,0.09,0.20250002,0.008771956,0.01384058,0.005419733,0.0908927,0.09089266,0.2090662,3.3862874e-05,8.4302366e-05,5.6199437e-06,3,1,0,0
7412000,7289996,0,0,0.01,0.0,0.049999997,0.09,0.09,0.20250002,-0.008847071,0.004800585,-0.05251009,0.09082032,0.09082028,0.20863363,3.4472752e-05,1.0149987e-05,0.0005286414,3,1,0,0
7812000,7689998,0,0,0.01,0.0,0.02,0.09,0.09,0.20250002,-0.0098279435,0.0011712383,-0.021228824,0.09075996,0.09075995,0.20920655,4.2568758e-05,6.045835e-07,8.616613e-05,3,1,0,0
8212000,8089999,0,0,0.02,0.0,0.0,0.09,0.09,0.20250002,-0.021615058,0.00076378515,-0.0029649138,0.09069801,0.090698026,0.20880279,0.00020605115,2.5727914e-07,1.6840222e-06,3,1,0,0
8612000,8489999,0,0,-0.02,0.0,0.049999997,0.09,0.09,0.20250002,0.019555982,0.001095074,-0.0513964,0.09113227,0.09113234,0.20848925,0.00016785995,5.263497e-07,0.00050680595,3,1,0,0
9012000,8890000,0,0,0.0,0.0,-0.01,0.09,0.09,0.20250002,0.002613761,0.0026281679,0.0092816595,0.091052204,0.0910523,0.20827316,3.0012438e-06,3.034417e-06,1.6545426e-05,3,1,0,0
9404000,9290000,0,0,0.0,-0.02,0.0,0.09,0.09,0.20250002,0.0031591228,0.022677403,-0.00045353174,0.0909656,0.09096566,0.20807554,4.388497e-06,0.00022613571,3.9541607e-08,3,1,0,0
9804000,9690000,0,0,-0.02,0.01,-0.03,0.09,0.09,0.20250002,0.023682525,-0.007087275,0.031675413,0.09090736,0.09090739,0.20793825,0.000246784,2.210138e-05,0.00019300573,3,1,0,0
10204000,10090000,0,0,0.02,0.01,0.0,0.09,0.09,0.20250002,-0.019728974,-0.009766095,0.0044251233,0.09085578,0.09085578,0.20782389,0.00017136274,4.1990337e-05,3.768906e-06,3,1,0,0
10612000,10494000,0,0,0.0,0.0,0.02,0.09,0.09,0.20250002,-0.0017524037,-0.001600132,-0.014996666,0.09082575,0.09082575,0.20775226,1.3524441e-06,1.1276196e-06,4.3301574e-05,3,1,0,0
11004000,10890000,0,0,0.01,-0.02,0.01,0.09,0.09,0.20250002,-0.010433753,0.01698628,-0.0018354673,0.090767406,0.0907674,0.20764136,4.7974583e-05,0.00012715302,6.489921e-07,3,1,0,0
11404000,11290000,0,0,0.01,0.0,0.02,0.09,0.09,0.20250002,-0.012267532,-0.0034670923,-0.009078827,0.09072857,0.09072853,0.20756376,6.634838e-05,5.2996465e-06,1.5884294e-05,3,1,0,0
11812000,11690000,0,0,0.0,0.0,0.0,0.09,0.09,0.20250002,-0.003273558,-0.002536935,0.013967961,0.09070684,0.090706736,0.20751789,4.7256335e-06,2.8381746e-06,3.7607155e-05,3,1,0,0
12204000,12090000,0,0,0.0,0.0,0.0,0.09,0.09,0.20250002,-0.0026520328,-0.00048960536,0.012202643,0.09065896,0.09065883,0.2074252,3.1031802e-06,1.0576506e-07,2.871483e-05,3,1,0,0
12612000,12490000,0,0,-0.01,0.01,-0.03,0.09,0.09,0.20250002,0.010109958,-0.008305295,0.042219654,0.090640515,0.09064039,0.20739046,4.510621e-05,3.0440262e-05,0.00034379578,3,1,0,0
13004000,12890000,0,0,0.01,0.0,0.01,0.09,0.09,0.20250002,-0.009621955,0.0038716292,0.0038445424,0.090605944,0.09060584,0.20796573,4.0872386e-05,6.61746e-06,2.8428735e-06,3,1,0,0
13404000,13290000,0,0,-0.03,0.0,-0.02,0.09,0.09,0.20250002,0.031698257,0.004049966,0.033428255,0.09093937,0.09093921,0.2079017,0.00044195578,7.2145895e-06,0.00021499548,3,1,0,0
13812000,13690000,0,0,-0.01,0.0,-0.01,0.09,0.09,0.20250002,0.013164262,0.0017165062,0.020967016,0.0909175,0.09091737,0.20786725,7.6243974e-05,1.2962952e-06,8.4595486e-05,3,1,0,0
14204000,14090000,0,0,0.01,0.0,-0.01,0.09,0.09,0.20250002,-0.008368088,-0.0014609193,0.02080998,0.09086643,0.090866245,0.2077844,3.0825417e-05,9.3952826e-07,8.336627e-05,3,1,0,0
14604000,14490000,0,0,0.01,-0.01,0.0,0.09,0.09,0.20250002,-0.0076820613,0.008692026,0.009567894,0.09083246,0.090832226,0.20772693,2.5988098e-05,3.327071e-05,1.7627874e-05,3,1,0,0
15012000,14890000,0,0,0.02,0.0,-0.02,0.09,0.09,0.20250002,-0.017917778,0.00043709308,0.026868526,0.09086157,0.09086137,0.20769794,0.00014133446,8.410631e-08,0.00013903221,3,1,0,0
15412000,15290000,0,0,-0.01,-0.01,0.0,0.09,0.09,0.20250002,0.0131183695,0.010051038,0.00934995,0.102457896,0.1024592,0.20906653,6.7185305e-05,3.9439452e-05,1.6726075e-05,3,1,0,0
15804000,15690000,0,0,0.0,0.0,-0.01,0.09,0.09,0.20250002,0.0030519867,-0.0007019766,0.022465894,0.13234113,0.1323465,0.2105833,2.8153372e-06,1.4893364e-07,9.5870164e-05,3,1,0,0
16204000,16090000,0,0,0.0,0.01,-0.01,0.09,0.09,0.20250002,0.004975603,-0.012786582,0.024717363,0.18178083,0.18179253,0.21225551,5.4475763e-06,3.5974346e-05,0.00011513444,3,1,0,0
16612000,16490000,0,0,0.0,0.0,-0.01,0.09,0.09,0.20250002,0.005402171,-0.006392982,0.030323567,0.2517506,0.25177094,0.21403542,4.636883e-06,6.4932383e-06,0.00017184422,3,1,0,0
17012000,16890000,0,0,0.0,0.0,0.0,0.09,0.09,0.20250002,0.0053457837,-0.0092414515,0.024563074,0.33901915,0.33905405,0.21574973,3.3717743e-06,1.0075612e-05,0.00011186009,3,1,0,0
17404000,17290000,0,0,0.0,0.0,0.01,0.09,0.09,0.20250002,0.0043732896,-0.013073595,0.017749479,0.4409747,0.4410328,0.21736014,1.7348533e-06,1.5501695e-05,5.7976413e-05,3,1,0,0
17804000,17690000,0,0,-0.02,-0.01,-0.089999996,0.09,0.09,0.20250002,0.022078274,0.007883823,0.060710147,0.5606925,0.5608043,0.21877329,3.477487e-05,4.433251e-06,0.00067388883,3,1,0,0
18204000,18090000,0,0,-0.16,-0.13,-0.25,0.09,0.09,0.20250002,0.026618674,0.2811702,0.00069737434,0.6951357,0.69538116,0.21986932,4.0772113e-05,0.0045475303,8.847638e-08,3,1,0,0
18604000,18490000,0,0,-0.19,-0.17,-0.61,0.09,0.09,0.20250002,0.038078457,0.33513847,0.03382212,0.85247064,0.8528483,0.22059904,6.8036075e-05,0.005267891,0.00020742351,3,1,0,0
19012000,18894000,0,0,-0.14999999,-0.13,-0.62,0.09,0.09,0.20250002,0.056868546,0.20882201,0.02945745,0.98303163,0.9835043,0.22126552,0.00013159419,0.0017735206,0.00015686879,3,1,0,0
19412000,19290000,0,0,-0.02,-0.04,-0.66999996,0.09,0.09,0.20250002,0.014200675,0.0144508835,0.032512665,1.0899423,1.0904903,0.22177747,7.4007285e-06,7.659968e-06,0.00019065477,3,1,0,0
19804000,19690000,0,0,0.06,0.01,-0.71999997,0.09,0.09,0.20250002,0.0044840984,-0.12231649,0.0715521,1.1581575,1.1587552,0.22184102,6.9445264e-07,0.0005164619,0.00092313,3,1,0,0
20212000,20090000,0,0,0.06,0.06,-0.69,0.09,0.09,0.20250002,0.18301903,-0.08710481,0.1738025,1.187118,1.1879578,0.22181976,0.0011286481,0.000255472,0.0054471805,3,1,0,0
20612000,20490000,0,0,0.26999998,-0.089999996,-0.96999997,0.09,0.09,0.20250002,0.20864162,0.26933303,0.5235387,1.1762031,1.1772524,0.221816,0.0014804016,0.0024647317,0.049427055,3,1,0,0
21004000,20890000,0,0,0.56,-0.35,-1.22,0.09,0.09,0.20250002,0.0051558614,0.6085402,0.83057654,1.1303288,1.1314297,0.2214787,9.4071413e-07,0.013092149,0.124591194,3,1,0,0
21412000,21290000,0,0,0.75,-0.55,-1.0699999,0.09,0.09,0.20250002,-0.08494067,0.9493165,1.0768346,1.0563729,1.0577134,0.2212675,0.00027319585,0.034081135,0.20962368,3,1,0,0
21804000,21690000,0,0,0.71999997,-0.57,-1.0699999,0.09,0.09,0.20250002,0.124476254,1.2396666,1.2239505,0.9745468,0.9763181,0.22103645,0.0006359608,0.06296199,0.27109644,3,1,0,0
22204000,22090000,0,0,0.34,-0.26999998,-1.02,0.09,0.09,0.20250002,0.8694799,1.4260129,1.3170443,0.8924277,0.89469707,0.22106515,0.033884887,0.09091403,0.31386325,3,1,0,0
22612000,22490000,0,0,-0.21,0.22,-0.71999997,0.09,0.09,0.20250002,1.8510151,1.4892164,1.2647247,0.8129636,0.8154236,0.2212627,0.16858107,0.108790845,0.2891637,3,1,0,0
23004000,22890000,0,0,-0.69,0.68,-0.39999998,0.09,0.09,0.20250002,2.6072087,1.3873825,1.163065,0.73699343,0.739277,0.22137682,0.3689334,0.10414662,0.24441947,3,1,0,0
23404000,23290000,0,0,-1.06,1.0,0.04,0.09,0.09,0.20250002,3.013651,1.1479921,0.8651629,0.6698692,0.6719308,0.2211863,0.5423203,0.078453675,0.13536225,3,1,0,0
23804000,23690000,0,0,-1.1999999,1.15,0.47,0.09,0.09,0.20250002,2.968596,0.8170823,0.49382117,0.6650212,0.6674576,0.22106476,0.530062,0.040009942,0.04412451,3,1,0,0
24212000,24090000,0,0,-1.2099999,1.12,0.82,0.09,0.09,0.20250002,2.518836,0.33001757,0.088988006,0.6065532,0.6089542,0.22077423,0.41839924,0.007154009,0.0014347446,3,1,0,0
24604000,24490000,0,0,-1.05,1.02,1.18,0.09,0.09,0.20250002,1.7746551,-0.24258018,-0.43150306,0.5554594,0.5575956,0.2205611,0.22679612,0.004221349,0.03376749,3,1,0,0
25004000,24890000,0,0,-0.82,0.87,1.42,0.09,0.09,0.20250002,0.879568,-0.87966275,-0.9024326,0.5146993,0.5160978,0.22062013,0.06012364,0.05997364,0.14765374,3,1,0,0
25412000,25290000,0,0,-0.59999996,0.71,1.52,0.09,0.09,0.20250002,-0.02808255,-1.5275211,-1.2959418,0.4838349,0.48386094,0.2210599,6.519824e-05,0.19289185,0.30389324,3,1,0,0
25804000,25690000,0,0,-0.37,0.51,1.52,0.09,0.09,0.20250002,-0.8834263,-2.0449395,-1.6233746,0.4590986,0.45744693,0.22132538,0.06799777,0.3656623,0.4762843,3,1,0,0
26212000,26090000,0,0,-0.099999994,0.29999998,1.53,0.09,0.09,0.20250002,-1.8237923,-2.4014673,-1.9264202,0.44076926,0.43902016,0.22172906,0.30185577,0.525447,0.6694828,3,1,0,0
26604000,26486000,0,0,0.13,0.14999999,1.4599999,0.09,0.09,0.20250002,-2.5769792,-2.614184,-2.1614733,0.42420584,0.42393455,0.22206864,0.6261886,0.6448125,0.8415356,3,1,0,0
27004000,26890000,0,0,0.0,0.0,0.04,0.09,0.09,0.20250002,-2.7326176,-2.3085334,-2.3636148,0.41509053,0.42054042,0.22070709,0.7195731,0.5069027,1.0125048,3,1,1,0
27404000,27286000,0,0,0.0,0.01,0.0,0.09,0.09,0.20250002,-2.7643209,-2.271488,-2.299429,0.39812902,0.40469825,0.21865094,0.7677381,0.50997573,0.9672721,3,1,0,0
27812000,27690000,0,0,0.0,0.02,0.01,0.09,0.09,0.20250002,-2.6492574,-2.2462513,-2.1542954,0.38382408,0.38926005,0.2169903,0.7314356,0.5184858,0.85552007,3,1,0,0
28212000,28090000,0,0,-0.01,-0.01,-0.02,0.09,0.09,0.20250002,-2.3793695,-2.193396,-1.8686862,0.37102762,0.3733563,0.21579385,0.61034805,0.5154311,0.6472823,3,1,0,0
28604000,28490000,0,0,0.01,0.0,-0.01,0.09,0.09,0.20250002,-2.0127263,-2.1827278,-1.5493194,0.35960543,0.35780784,0.21512629,0.45061246,0.53261,0.44632214,3,1,0,0
29004000,28890000,0,0,0.0,0.0,-0.04,0.09,0.09,0.20250002,-1.5542831,-2.2259798,-1.0994383,0.36664253,0.3603728,0.21481009,0.26355875,0.54998446,0.22508526,3,1,0,0
29404000,29290000,0,0,-0.02,0.0,0.07,0.09,0.09,0.20250002,-0.93616,-2.220152,-0.74314415,0.3580016,0.3482691,0.21486807,0.09792086,0.5661225,0.10280974,3,1,0,0
29812000,29690000,0,0,0.0,0.0,0.01,0.09,0.09,0.20250002,-0.2857646,-2.2104306,-0.1794843,0.35149238,0.34036255,0.21529832,0.009293107,0.57421166,0.0059851115,3,1,0,0
30204000,30090000,0,0,0.0,0.01,-0.04,0.09,0.09,0.20250002,0.19946744,-2.1816802,0.1712181,0.3465791,0.33644083,0.21596928,0.0045919977,0.56589186,0.005429594,3,1,0,0
30612000,30490000,0,0,0.03,-0.07,-0.17999999,0.09,0.09,0.20250002,0.22712806,-2.0422075,0.23957087,0.34613818,0.33696038,0.21676286,0.0059614517,0.49508628,0.010591151,3,1,0,0
31004000,30890000,0,0,1.0699999,-0.90999997,-0.45,0.09,0.09,0.20250002,-1.6318471,-2.2597857,0.19907585,0.36353415,0.33895242,0.21607958,0.2930041,0.602637,0.0073364065,3,1,0,0
31404000,31290000,0,0,2.24,-2.1499999,-1.41,0.09,0.09,0.20250002,-3.7690146,-1.9624984,0.20277965,0.39169312,0.35248885,0.2155872,1.4506736,0.43705213,0.007629319,3,1,1,0
31804000,31690000,0,0,1.8299999,-1.86,-1.4499999,0.09,0.09,0.20250002,-2.8519695,-1.6891319,0.33842158,0.37976396,0.35019326,0.2146623,0.8567143,0.3258962,0.021341274,3,1,0,0
32204000,32090000,0,0,1.13,-1.4,-1.15,0.09,0.09,0.20250002,-1.4529063,-1.3607551,0.36002594,0.36489952,0.3478254,0.21406922,0.23139922,0.21294068,0.024219956,3,1,0,0
32604000,32490000,0,0,0.51,-0.79999995,-0.93,0.09,0.09,0.20250002,-0.03342977,-1.2360227,0.40728927,0.35546923,0.349625,0.21390603,0.00012575487,0.17478754,0.031020075,3,1,0,0
33012000,32894000,0,0,0.01,-0.26,-0.76,0.09,0.09,0.20250002,1.2007031,-1.2097965,0.46839887,0.3513992,0.35593405,0.21414942,0.16410828,0.16448076,0.040980265,3,1,0,0
33412000,33290000,0,0,-0.26999998,0.12,-0.52,0.09,0.09,0.20250002,2.0495806,-1.1970313,0.4197323,0.3496975,0.36317977,0.2146375,0.48050448,0.15781538,0.03283214,3,1,0,0
33804000,33690000,0,0,-0.39999998,0.35,-0.38,0.09,0.09,0.20250002,2.5733666,-1.1933738,0.4241026,0.34882113,0.3691027,0.21527752,0.75938237,0.1543355,0.03341975,3,1,0,0
34212000,34090000,0,0,-0.45,0.48999998,-0.29,0.09,0.09,0.20250002,2.8843844,-1.2132764,0.43576664,0.3492632,0.3743557,0.21611992,0.95282567,0.15728779,0.03514578,3,1,0,0
34604000,34490000,0,0,-0.38,0.48999998,-0.21,0.09,0.09,0.20250002,2.9643974,-1.2305224,0.42643934,0.3605035,0.38853166,0.21703143,0.97504205,0.15588798,0.033515975,3,1,0,0
35012000,34890000,0,0,-0.29999998,0.42999998,-0.12,0.09,0.09,0.20250002,2.9454453,-1.1779431,0.38663357,0.3606438,0.38964856,0.2179201,0.96224004,0.14244118,0.027438594,3,1,0,0
35412000,35290000,0,0,-0.21,0.32,-0.049999997,0.09,0.09,0.20250002,2.8608918,-1.0840851,0.34916127,0.36010244,0.3888472,0.21892723,0.90915257,0.12089484,0.022274723,3,1,0,0
35812000,35690000,0,0,-0.11,0.24,0.0,0.09,0.09,0.20250002,2.741736,-1.0196942,0.31312904,0.35933122,0.3873175,0.21980962,0.83678967,0.10738232,0.017842676,3,1,0,0
36212000,36090000,0,0,-0.01,0.14,0.0,0.09,0.09,0.20250002,2.6194324,-0.9202106,0.31831643,0.3583093,0.38552704,0.22061354,0.76597804,0.087857656,0.018371556,3,1,0,0
36604000,36490000,0,0,0.02,0.03,0.06,0.09,0.09,0.20250002,2.5728192,-0.7886345,0.2648329,0.3565927,0.3832099,0.22137788,0.7425164,0.06491944,0.012672715,3,1,0,0
37012000,36890000,0,0,0.06,-0.03,0.11,0.09,0.09,0.20250002,2.5294218,-0.6828632,0.21615036,0.35559016,0.3819602,0.2220232,0.71970206,0.048832532,0.008417315,3,1,0,0
37412000,37290000,0,0,0.06,-0.049999997,0.089999996,0.09,0.09,0.20250002,2.5432937,-0.6019651,0.22386608,0.3541324,0.3806267,0.22246268,0.7306129,0.038080566,0.009011133,3,1,0,0
37812000,37690000,0,0,0.089999996,-0.06,0.12,0.09,0.09,0.20250002,2.539914,-0.51834667,0.1796723,0.35268703,0.37955964,0.22276019,0.73165864,0.028315261,0.0057967515,3,1,0,0
38212000,38090000,0,0,0.089999996,-0.049999997,0.12,0.09,0.09,0.20250002,2.5696254,-0.45182508,0.16148445,0.35136485,0.378618,0.22292103,0.7516943,0.02156748,0.0046791867,3,1,0,0
38604000,38490000,0,0,0.089999996,-0.049999997,0.16,0.09,0.09,0.20250002,2.5925841,-0.36317915,0.10191643,0.34978178,0.3771941,0.22307433,0.76864976,0.013987397,0.0018625109,3,1,0,0
39004000,38890000,0,0,0.07,-0.06,0.049999997,0.09,0.09,0.20250002,2.6326325,-0.2595801,0.18725742,0.3488939,0.37631217,0.2230309,0.7945972,0.007162333,0.0062888763,3,1,0,0
39404000,39290000,0,0,0.07,0.0,0.12,0.09,0.09,0.20250002,2.7158523,-0.25939316,0.09901414,0.35990947,0.38874593,0.22292292,0.8197454,0.0069232685,0.0017591373,3,1,0,0
39812000,39690000,0,0,0.049999997,-0.01,0.099999994,0.09,0.09,0.20250002,2.7500434,-0.15782139,0.10173045,0.36000916,0.38852748,0.22281174,0.840283,0.0025643066,0.0018579066,3,1,0,0
40212000,40090000,0,0,0.04,-0.03,0.12,0.09,0.09,0.20250002,2.7537663,-0.046070784,0.05848778,0.36004514,0.38768512,0.22260305,0.84247535,0.00021899393,0.00061469426,3,1,0,0
40604000,40490000,0,0,0.06,-0.01,0.089999996,0.09,0.09,0.20250002,2.718447,0.022861168,0.069347896,0.35998458,0.38648,0.22250178,0.8211412,5.4091593e-05,0.0008645558,3,1,0,0
41004000,40890000,0,0,0.03,-0.03,0.049999997,0.09,0.09,0.20250002,2.736019,0.13115425,0.08490409,0.36082155,0.3861877,0.22228879,0.8298617,0.0017816661,0.0012971783,3,1,0,0
41404000,41290000,0,0,0.04,-0.04,0.089999996,0.09,0.09,0.20250002,2.7033746,0.2284888,0.031708263,0.3620146,0.3859619,0.22208725,0.80750716,0.0054106,0.0001810845,3,1,0,0
41804000,41690000,0,0,0.04,-0.02,0.049999997,0.09,0.09,0.20250002,2.6788743,0.2915713,0.057214923,0.3636296,0.38609624,0.22206268,0.78941506,0.008807526,0.0005896619,3,1,0,0
42204000,42090000,0,0,0.04,-0.03,0.04,0.09,0.09,0.20250002,2.6491344,0.38638252,0.05495946,0.36565793,0.38648063,0.22188736,0.7677025,0.015451377,0.0005445182,3,1,0,0
42612000,42490000,0,0,0.03,-0.01,0.04,0.09,0.09,0.20250002,2.6261687,0.45780963,0.04885505,0.3686701,0.3876522,0.22178479,0.7482855,0.021626567,0.00043047426,3,1,0,0
43012000,42890000,0,0,0.01,0.0,0.03,0.09,0.09,0.20250002,2.6030874,0.53682506,0.0522213,0.37157372,0.38848975,0.22164533,0.7294449,0.029671943,0.0004921492,3,1,0,0
43412000,43290000,0,0,0.03,0.0,0.0,0.09,0.09,0.20250002,2.5291119,0.6237569,0.07632411,0.37485564,0.38945183,0.22154453,0.6825461,0.039961055,0.0010517741,3,1,0,0
43812000,43690000,0,0,0.01,-0.01,0.04,0.09,0.09,0.20250002,2.4863899,0.7166496,0.03639613,0.37843457,0.3905546,0.22162522,0.6534429,0.05260075,0.00023908439,3,1,0,0
44212000,44090000,0,0,0.01,0.0,0.01,0.09,0.09,0.20250002,2.420394,0.7908601,0.06310808,0.3823957,0.39194953,0.221567,0.6128005,0.06383064,0.00071899325,3,1,0,0
44604000,44490000,0,0,0.01,0.0,0.01,0.09,0.09,0.20250002,2.433137,0.870351,0.056351513,0.39920828,0.40716025,0.22146893,0.59318966,0.07441894,0.0005735329,3,1,0,0
45012000,44890000,0,0,0.0,-0.02,0.0,0.09,0.09,0.20250002,2.365369,0.9748901,0.06569999,0.4045667,0.4095932,0.22150394,0.5531815,0.092815086,0.00077948737,3,1,0,0
45404000,45290000,0,0,0.0,-0.01,0.02,0.09,0.09,0.20250002,2.2755747,1.0404538,0.046329264,0.40878657,0.4108859,0.22143325,0.5066938,0.10538635,0.0003877287,3,1,0,0
45804000,45690000,0,0,-0.01,0.0,-0.01,0.09,0.09,0.20250002,2.1992295,1.1086192,0.07459937,0.41388535,0.41309282,0.22158769,0.4674348,0.11900828,0.0010045803,3,1,0,0
46212000,46090000,0,0,-0.02,-0.02,0.02,0.09,0.09,0.20250002,2.1147833,1.201194,0.045220677,0.41966334,0.41595653,0.22163434,0.4262758,0.13875173,0.00036906006,3,1,0,0
46604000,46490000,0,0,-0.02,0.01,-0.01,0.09,0.09,0.20250002,2.0126908,1.2336669,0.07367136,0.4240356,0.41761595,0.22155535,0.3821306,0.14577354,0.0009798851,3,1,0,0
47004000,46890000,0,0,-0.03,-0.01,0.0,0.09,0.09,0.20250002,1.9210936,1.3120136,0.063709624,0.42898372,0.42001554,0.22169282,0.344125,0.16393487,0.00073234964,3,1,0,0
47412000,47290000,0,0,0.0,0.01,0.02,0.09,0.09,0.20250002,1.7835915,1.3407946,0.04851653,0.4343341,0.42302307,0.22172053,0.29297248,0.16998884,0.0004246524,3,1,0,0
47812000,47690000,0,0,-0.02,-0.04,-0.02,0.09,0.09,0.20250002,1.6952586,1.4337337,0.086054415,0.43884262,0.42546356,0.22167735,0.26195285,0.19325672,0.0013362416,3,1,0,0
48212000,48090000,0,0,0.02,0.0,0.02,0.09,0.09,0.20250002,1.539174,1.4358739,0.046260994,0.4431712,0.42778674,0.2216301,0.21382765,0.19278145,0.0003862435,3,1,0,0
48612000,48490000,0,0,0.0,-0.03,0.03,0.09,0.09,0.20250002,1.4512415,1.5042489,0.03823673,0.44720864,0.43014288,0.22174013,0.18837757,0.21041982,0.00026374072,3,1,0,0
49004000,48890000,0,0,0.0,0.01,-0.01,0.09,0.09,0.20250002,1.3376309,1.4974623,0.072595716,0.45024145,0.43171868,0.22163528,0.15895972,0.2077643,0.000951137,3,1,0,0
49412000,49290000,0,0,-0.01,0.01,0.0,0.09,0.09,0.20250002,1.2338343,1.5313395,0.06524508,0.4543803,0.43450803,0.22165018,0.13401523,0.2158764,0.00076822314,3,1,0,0
49804000,49690000,0,0,-0.01,0.0,-0.01,0.09,0.09,0.20250002,1.1911118,1.6010352,0.07669191,0.4747262,0.45289704,0.22155821,0.11954237,0.22639263,0.0010618698,3,1,0,0
50212000,50090000,0,0,-0.03,0.01,-0.049999997,0.09,0.09,0.20250002,1.0961301,1.4169413,0.21668705,0.472185,0.45470273,0.2217175,0.10178225,0.17661849,0.00847083,3,1,0,0
50612000,50490000,0,0,-0.24,-0.02,-0.39,0.09,0.09,0.20250002,1.1985549,1.1422449,0.536744,0.46748638,0.45674184,0.22164817,0.122915566,0.11426354,0.051991247,3,1,0,0
51004000,50890000,0,0,-0.68,-0.03,-0.68,0.09,0.09,0.20250002,1.525022,1.0376978,0.8383591,0.46602744,0.45753095,0.22154118,0.19961847,0.09414154,0.1269012,3,1,0,0
51412000,51290000,0,0,-1.02,0.0,-0.84999996,0.09,0.09,0.20250002,1.7675985,0.8714765,1.1072631,0.46462384,0.45868778,0.22155772,0.26898357,0.06622991,0.22134757,3,1,0,0
51804000,51690000,0,0,-1.11,0.01,-0.87,0.09,0.09,0.20250002,1.7780361,0.62586725,1.2716337,0.45986572,0.45748904,0.22161978,0.2749857,0.034248672,0.29186067,3,1,0,0
52212000,52090000,0,0,-0.97999996,0.01,-0.83,0.09,0.09,0.20250002,1.5825012,0.2678117,1.4112706,0.45602185,0.45698524,0.22166066,0.21966578,0.0062779356,0.3594115,3,1,0,0
52612000,52494000,0,0,-0.62,0.01,-0.59,0.09,0.09,0.20250002,1.160347,-0.14151837,1.347022,0.4535777,0.4553537,0.22164936,0.11873645,0.0017592873,0.32744843,3,1,0,0
53012000,52890000,0,0,-0.099999994,0.03,-0.28,0.09,0.09,0.20250002,0.5830771,-0.5517965,1.185865,0.45415178,0.4535928,0.22163951,0.029944075,0.026850458,0.25379515,3,1,0,0
53412000,53290000,0,0,0.39,0.02,0.089999996,0.09,0.09,0.20250002,0.028923482,-0.8312992,0.91943747,0.4563603,0.452065,0.22177191,7.33252e-05,0.061146814,0.15247473,3,1,0,0
53804000,53690000,0,0,0.87,0.0,0.55,0.09,0.09,0.20250002,-0.5289309,-0.93536794,0.5134824,0.45647854,0.45009655,0.22165987,0.024515318,0.07775338,0.04757995,3,1,0,0
54212000,54094000,0,0,1.3199999,0.01,1.01,0.09,0.09,0.20250002,-1.0715961,-0.8933168,0.020159125,0.4555097,0.45046332,0.22162664,0.1008381,0.0708617,7.334684e-05,3,1,0,0
54604000,54490000,0,0,1.63,-0.02,1.42,0.09,0.09,0.20250002,-1.4830279,-0.62985355,-0.52794224,0.45087487,0.45039824,0.22161277,0.19512038,0.035232417,0.050308116,3,1,0,0
55004000,54890000,0,0,1.8199999,-0.06,1.6999999,0.09,0.09,0.20250002,-1.7679422,-0.16300876,-1.0402594,0.46597287,0.47140148,0.2215213,0.26830915,0.0022547115,0.19540143,3,1,0,0
55412000,55290000,0,0,1.92,-0.089999996,1.99,0.09,0.09,0.20250002,-1.9879509,0.3751932,-1.5449364,0.46648157,0.47404513,0.22153758,0.3388729,0.011878189,0.43095687,3,1,0,0
55804000,55690000,0,0,2.22,-0.06,2.27,0.09,0.09,0.20250002,-2.3879945,0.6009726,-1.9723964,0.46742523,0.4744729,0.22145192,0.48799402,0.030447938,0.7026983,3,1,0,0
56204000,56090000,0,0,2.49,-0.099999994,2.12,0.09,0.09,0.20250002,-2.7510011,0.901721,-2.4577084,0.4753376,0.48027703,0.22159822,0.6368532,0.06771931,1.0903211,3,1,1,0
56612000,56490000,0,0,0.98999995,0.13,-0.01,0.09,0.09,0.20250002,-1.4658436,2.8444204,-2.6098812,0.5787667,0.5043422,0.22038603,0.1485018,0.6416856,1.2362815,3,1,1,0
57004000,56890000,0,0,0.0,-0.049999997,0.0,0.09,0.09,0.20250002,-0.8589996,4.156341,-2.652424,0.66127956,0.50968593,0.21897678,0.044633493,1.3557503,1.2851323,3,1,1,0
57404000,57290000,0,0,0.02,0.0,0.0,0.09,0.09,0.20250002,-0.92013633,4.2988434,-2.6443932,0.67489624,0.50696516,0.21736793,0.05017962,1.4580927,1.2868164,3,1,1,0
57804000,57690000,0,0,0.01,0.0,-0.01,0.09,0.09,0.20250002,-0.98553497,4.33264,-2.5358284,0.6728116,0.50367033,0.2159538,0.057744488,1.4907981,1.1910744,3,1,1,0
58204000,58086000,0,0,0.0,0.01,0.01,0.09,0.09,0.20250002,-1.0276139,4.200936,-2.3522022,0.65313447,0.4983965,0.21474093,0.06467216,1.4163712,1.0306103,3,1,1,0
58604000,58490000,0,0,-0.01,0.02,0.049999997,0.09,0.09,0.20250002,-1.0471988,3.925575,-2.0930014,0.619244,0.49140063,0.21392533,0.0708364,1.254385,0.8190998,3,1,1,0
59012000,58890000,0,0,-0.01,0.0,0.0,0.09,0.09,0.20250002,-1.0537742,3.5493152,-1.6619706,0.5771332,0.48375893,0.21359244,0.076962486,1.041646,0.5172742,3,1,1,0
59404000,59290000,0,0,0.02,-0.01,-0.01,0.09,0.09,0.20250002,-1.075987,3.0770154,-1.2181174,0.5326327,0.47389188,0.21350236,0.08694532,0.7991716,0.2779941,3,1,0,0
59804000,59690000,0,0,0.01,0.0,0.02,0.09,0.09,0.20250002,-1.0477797,2.5063674,-0.7705077,0.49214962,0.46444374,0.21377729,0.08922833,0.5410238,0.11108422,3,1,0,0
60204000,60086000,0,0,0.0,-0.02,0.01,0.09,0.09,0.20250002,-1.0578632,2.2276697,-0.38991207,0.48957095,0.4771151,0.21443096,0.091433086,0.41604322,0.028359976,3,1,0,0
60612000,60490000,0,0,0.02,0.0,-0.01,0.09,0.09,0.20250002,-1.1152905,2.1698375,-0.26588565,0.48309168,0.47290173,0.21529908,0.102992706,0.39823875,0.013134319,3,1,0,0
61012000,60890000,0,0,0.0,0.0,-0.01,0.09,0.09,0.20250002,-1.1198978,2.1131241,-0.18388407,0.47611228,0.46809265,0.21625075,0.105367675,0.38157347,0.006254471,3,1,0,0
61412000,61290000,0,0,0.0,0.01,-0.04,0.09,0.09,0.20250002,-1.1349657,2.039885,-0.083265185,0.46965063,0.46335587,0.21727441,0.109711096,0.35921684,0.001276375,3,1,0,0
61812000,61690000,0,0,0.0,0.01,-0.01,0.09,0.09,0.20250002,-1.1542392,1.9774758,0.0069368873,0.46331504,0.45842773,0.21840154,0.11502049,0.3412019,8.813199e-06,3,1,0,0
62204000,62086000,0,0,0.04,0.0,-0.02,0.09,0.09,0.20250002,-1.2077014,1.8863351,0.14217596,0.45548218,0.45276225,0.21935351,0.1280878,0.31436014,0.0036861051,3,1,0,0
62612000,62490000,0,0,0.19999999,0.14999999,-0.03,0.09,0.09,0.20250002,-1.1643574,1.5096503,0.2515351,0.445963,0.44317254,0.22031136,0.12160007,0.20570265,0.01148736,3,1,0,0
63012000,62890000,0,0,0.37,0.5,-0.02,0.09,0.09,0.20250002,-0.99373513,0.9845246,0.31164438,0.43831077,0.43223616,0.22121975,0.09011957,0.08969992,0.01756122,3,1,0,0
63412000,63290000,0,0,0.01,0.0,-0.01,0.09,0.09,0.20250002,-1.2239208,1.7276111,0.43180332,0.44137406,0.44061607,0.22139055,0.13575625,0.2709515,0.033687815,3,1,0,0
63812000,63690000,0,0,0.0,0.0,-0.02,0.09,0.09,0.20250002,-1.2161359,1.6582519,0.504736,0.4365458,0.43705449,0.2195982,0.13551718,0.2516665,0.04640447,3,1,0,0
64212000,64090000,0,0,0.0,-0.01,0.01,0.09,0.09,0.20250002,-1.2124779,1.5976281,0.5225135,0.43184653,0.43350783,0.21817479,0.13616899,0.23551275,0.050055347,3,1,0,0
64612000,64490000,0,0,-0.03,-0.03,0.04,0.09,0.09,0.20250002,-1.1752274,1.5476424,0.5239519,0.42732897,0.43003485,0.2170257,0.12928301,0.22279097,0.0505978,3,1,0,0
65012000,64890000,0,0,0.0,0.0,-0.03,0.09,0.09,0.20250002,-1.1839939,1.4638028,0.54931736,0.4237865,0.42682475,0.2162744,0.13231583,0.20080549,0.055808652,3,1,0,0
65412000,65290000,0,0,0.0,-0.02,0.02,0.09,0.09,0.20250002,-1.1798937,1.3908795,0.6255817,0.41824788,0.42294672,0.21589136,0.13314107,0.18295881,0.07250915,3,1,0,0
65804000,65690000,0,0,0.0,-0.01,0.01,0.09,0.09,0.20250002,-1.192912,1.3929807,0.60066044,0.4319074,0.43673807,0.21588871,0.13179111,0.17771706,0.06684796,3,1,0,0
66204000,66090000,0,0,0.01,0.0,-0.01,0.09,0.09,0.20250002,-1.1762547,1.3184812,0.6219944,0.42781037,0.4330998,0.21610606,0.12936342,0.16055353,0.07160873,3,1,0,0
66612000,66490000,0,0,0.01,0.0,-0.03,0.09,0.09,0.20250002,-1.1492636,1.2534847,0.6354652,0.4244816,0.4302299,0.21658719,0.12446305,0.14608227,0.07457801,3,1,0,0
67012000,66890000,0,0,0.0,0.0,0.0,0.09,0.09,0.20250002,-1.1063843,1.1862226,0.59361047,0.4206805,0.42673,0.21719489,0.116391055,0.13189828,0.06489534,3,1,0,0
67404000,67290000,0,0,0.0,0.01,0.0,0.09,0.09,0.20250002,-1.0689629,1.1100852,0.5818757,0.4164825,0.42263678,0.21795912,0.10974595,0.116628684,0.062136292,3,1,0,0
67812000,67690000,0,0,0.0,0.0,-0.01,0.09,0.09,0.20250002,-1.0326878,1.0559262,0.5675899,0.41374078,0.4199611,0.2188003,0.10310263,0.10619842,0.058895394,3,1,0,0
68212000,68090000,0,0,0.0,0.0,0.03,0.09,0.09,0.20250002,-0.99458355,0.99105865,0.50212276,0.41057107,0.41675264,0.21959947,0.09637274,0.09427149,0.045924928,3,1,0,0
68604000,68490000,0,0,-0.01,-0.01,-0.01,0.09,0.09,0.20250002,-0.9451609,0.9367252,0.51198995,0.40705594,0.41308483,0.22042479,0.08778442,0.084966,0.047568828,3,1,0,0
69004000,68890000,0,0,-0.02,0.01,0.01,0.09,0.09,0.20250002,-0.89351845,0.8571967,0.45332277,0.40441552,0.41012147,0.22113678,0.078965835,0.07166522,0.03717184,3,1,0,0
69412000,69294000,0,0,0.0,-0.01,-0.04,0.09,0.09,0.20250002,-0.87077695,0.82029253,0.46121043,0.40259114,0.40786582,0.22180258,0.07533723,0.065990314,0.03836115,3,1,0,0
69812000,69690000,0,0,0.0,0.01,0.0,0.09,0.09,0.20250002,-0.8231522,0.74391764,0.3753285,0.40040123,0.40509838,0.22228888,0.06769005,0.054644845,0.025349265,3,1,0,0
70204000,70090000,0,0,-0.01,-0.01,-0.01,0.09,0.09,0.20250002,-0.7618361,0.71028566,0.33957386,0.39783868,0.40184307,0.22260332,0.058354735,0.050219182,0.020720338,3,1,0,0
70612000,70490000,0,0,0.0,-0.01,-0.01,0.09,0.09,0.20250002,-0.72170824,0.6580819,0.29432496,0.3966478,0.39994287,0.22290699,0.052526474,0.043313365,0.015544992,3,1,0,0
71012000,70890000,0,0,0.0,-0.02,0.0,0.09,0.09,0.20250002,-0.7067545,0.6512929,0.24274403,0.41068718,0.4135946,0.22317737,0.048650358,0.04102399,0.010561046,3,1,0,0
71404000,71290000,0,0,0.03,0.01,0.0,0.09,0.09,0.20250002,-0.68547684,0.5713995,0.20117205,0.40856618,0.41068694,0.2231205,0.046002682,0.031800125,0.0072553074,3,1,0,0
71804000,71690000,0,0,0.02,-0.01,-0.01,0.09,0.09,0.20250002,-0.62349564,0.5472021,0.17637418,0.40722197,0.4085445,0.22321308,0.038185246,0.029316774,0.005574557,3,1,0,0
72204000,72090000,0,0,0.0,0.0,-0.01,0.09,0.09,0.20250002,-0.5505789,0.49621192,0.14275397,0.4060223,0.4065712,0.22307055,0.029864086,0.024224663,0.0036542157,3,1,0,0
72612000,72490000,0,0,0.01,0.0,0.0,0.09,0.09,0.20250002,-0.509922,0.4567558,0.09869846,0.40558642,0.4054111,0.2229382,0.025643902,0.020584127,0.0017478181,3,1,0,0
73004000,72890000,0,0,0.0,0.0,0.01,0.09,0.09,0.20250002,-0.44953403,0.41734204,0.057027437,0.4040932,0.40325573,0.22265862,0.02000339,0.017276816,0.0005842358,3,1,0,0
73404000,73290000,0,0,0.0,0.0,0.02,0.09,0.09,0.20250002,-0.39871505,0.38578835,0.018418003,0.4032761,0.40187344,0.22243978,0.015768224,0.014813882,6.1000388e-05,3,1,0,0
73804000,73690000,0,0,0.02,0.01,-0.01,0.09,0.09,0.20250002,-0.36944604,0.34425557,0.023596833,0.40255612,0.4006636,0.22239037,0.01356237,0.01183156,0.000100150115,3,1,0,0
74204000,74090000,0,0,-0.01,0.0,0.0,0.09,0.09,0.20250002,-0.29011282,0.32552496,-0.010143086,0.40189585,0.39961743,0.22217855,0.008376842,0.010606794,1.8522436e-05,3,1,0,0
74604000,74490000,0,0,-0.01,0.0,-0.04,0.09,0.09,0.20250002,-0.24331303,0.30075628,0.0074869394,0.4012739,0.39873403,0.22198617,0.0059013283,0.009074153,1.0100495e-05,3,1,0,0
75004000,74890000,0,0,0.0,-0.01,-0.04,0.09,0.09,0.20250002,-0.20722185,0.28909785,-0.010601521,0.40064684,0.39797515,0.22181135,0.004287157,0.00840028,2.0268077e-05,3,1,0,0
75404000,75290000,0,0,0.0,0.0,-0.01,0.09,0.09,0.20250002,-0.16157638,0.25733858,-0.05360529,0.40003395,0.39732185,0.2216719,0.002610471,0.0066669523,0.00051851897,3,1,0,0
75804000,75690000,0,0,0.0,-0.01,-0.02,0.09,0.09,0.20250002,-0.1298855,0.2597434,-0.054266933,0.41507185,0.41222873,0.22171652,0.0016257659,0.006546524,0.000531291,3,1,0,0
76212000,76090000,0,0,0.02,0.0,0.0,0.09,0.09,0.20250002,-0.101903826,0.22639729,-0.08332827,0.4151462,0.41242772,0.22167522,0.0010005526,0.004971124,0.0012529321,3,1,0,0
76604000,76490000,0,0,0.02,0.0,0.04,0.09,0.09,0.20250002,-0.0541952,0.20093471,-0.12891822,0.41402608,0.41151136,0.22153984,0.00028376182,0.0039245337,0.0030007977,3,1,0,0
77004000,76890000,0,0,0.0,0.0,0.0,0.09,0.09,0.20250002,0.014028505,0.17629047,-0.090521686,0.41351518,0.4113153,0.22149801,1.9036686e-05,0.0030223362,0.0014797741,3,1,0,0
77404000,77290000,0,0,-0.02,0.0,0.01,0.09,0.09,0.20250002,0.083133355,0.15308511,-0.104182124,0.41301516,0.4112784,0.22147231,0.00066933664,0.00227924,0.00196032,3,1,0,0
77812000,77690000,0,0,0.01,-0.01,-0.02,0.09,0.09,0.20250002,0.102894336,0.13794626,-0.07403089,0.41317618,0.41196522,0.22149947,0.0010249617,0.0018476484,0.0009897221,3,1,0,0
78212000,78090000,0,0,-0.02,-0.01,-0.01,0.09,0.09,0.20250002,0.18012737,0.11469554,-0.08386272,0.4126575,0.41207632,0.221472,0.0031450654,0.0012769544,0.0012702204,3,1,0,0
78604000,78490000,0,0,0.0,0.01,0.02,0.09,0.09,0.20250002,0.20255773,0.0701186,-0.10869396,0.4115125,0.41150665,0.22154725,0.0039881784,0.0004779138,0.0021330668,3,1,0,0
79012000,78890000,0,0,0.0,0.0,0.0,0.09,0.09,0.20250002,0.24577917,0.056903325,-0.083013274,0.41156223,0.41224733,0.22158282,0.005871034,0.0003141792,0.0012439961,3,1,0,0
79404000,79290000,0,0,0.0,0.01,-0.04,0.09,0.09,0.20250002,0.2834194,0.023659753,-0.0388242,0.4103667,0.41166794,0.22165143,0.007829734,5.439179e-05,0.000272016,3,1,0,0
79812000,79690000,0,0,-0.01,0.01,0.03,0.09,0.09,0.20250002,0.32890457,0.0022386936,-0.11068777,0.41038316,0.41233027,0.22168638,0.0105441185,4.8618784e-07,0.0022106513,3,1,0,0
80204000,80090000,0,0,0.0,0.0,0.0,0.09,0.09,0.20250002,0.39577556,-0.17568637,0.05244317,0.41353363,0.4118727,0.22160664,0.015151203,0.0029975963,0.00049642666,3,1,0,0
80612000,80490000,0,0,0.0,0.01,-0.01,0.09,0.09,0.20250002,0.5668607,-0.73765314,0.4706594,0.43482417,0.41363123,0.22168067,0.029559627,0.052620027,0.039971057,3,1,0,0
81012000,80890000,0,0,0.0,0.02,-0.02,0.09,0.09,0.20250002,0.7225968,-1.223839,0.78707767,0.46155164,0.41578823,0.22170423,0.045251377,0.14409085,0.11176895,3,1,0,0
81412000,81290000,0,0,-0.14,0.25,-0.26,0.09,0.09,0.20250002,1.2442377,-1.6624101,1.0403678,0.49484396,0.44885218,0.22131336,0.12514065,0.24628219,0.19562583,3,1,0,0
81804000,81686000,0,0,-1.12,0.35999998,-0.01,0.09,0.09,0.20250002,2.2237158,-1.053098,1.1337216,0.4393252,0.44537714,0.21925817,0.45022792,0.09960236,0.23448607,3,1,0,0
82204000,82090000,0,0,-1.92,-0.42,0.02,0.09,0.09,0.20250002,2.223767,0.25623885,1.0141367,0.41188267,0.41050637,0.21753547,0.48024744,0.0063977907,0.18911366,3,1,0,0
82604000,82490000,0,0,0.0,0.0,-0.01,0.09,0.09,0.20250002,0.49917498,-0.9859251,3.520522,0.4315112,0.39697108,0.21624678,0.023097957,0.0979465,2.2925801,3,1,1,0
83004000,82890000,0,0,0.0,0.0,-0.02,0.09,0.09,0.20250002,0.40632835,-1.0683918,3.512058,0.43709174,0.39335713,0.21719913,0.015109207,0.11607376,2.2715654,3,1,1,0
83404000,83290000,0,0,0.02,0.0,0.01,0.09,0.09,0.20250002,0.2844371,-1.2655687,3.5088112,0.4512419,0.38869178,0.22110015,0.007171715,0.16482614,2.2273626,3,1,1,0
83804000,83690000,0,0,0.0,0.0,-0.01,0.09,0.09,0.20250002,0.23644315,-1.558531,3.5984766,0.47593257,0.38367075,0.23067911,0.004698595,0.25323996,2.245376,3,1,1,0
84204000,84090000,0,0,0.0,0.01,0.0,0.09,0.09,0.20250002,0.26291966,-1.9372829,2.869907,0.5891363,0.45523378,0.32945466,0.00469343,0.32977036,1.6357869,3,1,0,0
84612000,84490000,0,0,0.0,0.0,-0.03,0.09,0.09,0.20250002,0.5179949,-2.3436656,0.06801111,0.7155274,0.5280859,10.210346,0.014999771,0.41605112,1.812088e-05,3,1,0,0
85004000,84890000,0,0,0.0,0.0,0.02,0.09,0.09,0.20250002,0.444662,-2.8624113,0.38622272,0.84683657,0.59468913,0.43293864,0.009339431,0.5511046,0.013781905,3,1,0,0
85404000,85290000,0,0,0.0,0.01,0.0,0.09,0.09,0.20250002,0.35183927,-3.3799164,0.8594474,0.9799781,0.6594465,0.5486896,0.0050528017,0.69293475,0.053848285,3,1,0,0
85804000,85690000,0,0,0.01,0.01,0.0,0.09,0.09,0.20250002,0.24013306,-3.8265417,1.2733843,1.0978864,0.7194005,0.66598225,0.0021009054,0.8141456,0.09739045,3,1,0,0
86212000,86090000,0,0,0.0,0.0,0.02,0.09,0.09,0.20250002,0.18897955,-4.1648593,1.5072973,1.1842989,0.77576435,0.75492764,0.0012062249,0.89439803,0.12037948,3,1,0,0
86604000,86490000,0,0,-0.01,0.0,0.02,0.09,0.09,0.20250002,0.256317,-4.4606376,1.4833108,1.2694252,0.8489429,0.7871845,0.002070178,0.9375089,0.11180155,3,1,0,0
87012000,86890000,0,0,0.0,0.0,-0.01,0.09,0.09,0.20250002,0.33244467,-4.5247836,1.2860874,1.2696819,0.8956717,0.80730355,0.0034817997,0.91433805,0.081952855,3,1,0,0
87404000,87290000,0,0,0.0,0.0,0.0,0.09,0.09,0.20250002,0.38553512,-4.4087324,0.96919394,1.2292144,0.93147004,0.79032266,0.0048368233,0.8346773,0.047541946,3,1,0,0
87804000,87690000,0,0,0.0,0.01,0.0,0.09,0.09,0.20250002,0.37054244,-4.12406,0.6452383,1.1751429,0.9623381,0.7818283,0.004673532,0.7069396,0.021300454,3,1,0,0
88204000,88090000,0,0,0.02,0.0,0.0,0.09,0.09,0.20250002,0.2634374,-3.6524682,0.30861273,1.11813,0.9865569,0.7764213,0.0024826904,0.54089224,0.0049067084,3,1,0,0
88612000,88490000,0,0,0.01,0.01,0.03,0.09,0.09,0.20250002,0.13443059,-3.0433543,-0.12173072,1.0695254,1.0067122,0.78913903,0.00067587296,0.36801004,0.00075111573,3,1,0,0
89012000,88894000,0,0,-0.02,0.01,-0.01,0.09,0.09,0.20250002,-0.034320187,-2.3042636,-0.40007937,1.029611,1.019445,0.77351916,4.576001e-05,0.20833418,0.008277158,3,1,0,0
89412000,89290000,0,0,0.0,0.0,0.0,0.09,0.09,0.20250002,-0.27160943,-1.4687015,-0.69530845,1.0036695,1.0275916,0.7542825,0.0029400785,0.08396659,0.025637815,3,1,0,0
89804000,89690000,0,0,0.0,-0.01,0.01,0.09,0.09,0.20250002,-0.47567737,-0.60533607,-1.001158,0.98858297,1.030074,0.7414553,0.009155285,0.014229337,0.054072972,3,1,0,0
90204000,90090000,0,0,0.0,0.0,0.0,0.09,0.09,0.20250002,-0.64492184,0.06735581,-1.0365313,0.9843645,1.0310363,0.71276987,0.016901227,0.00017600953,0.0602942,3,1,0,0
90612000,90490000,0,0,0.01,0.0,-0.02,0.09,0.09,0.20250002,-0.7573715,0.32155535,-0.76377726,0.98467493,1.0306238,0.68098503,0.02330156,0.0040130196,0.034265406,3,1,0,0
91012000,90890000,0,0,0.0,0.0,0.01,0.09,0.09,0.20250002,-0.8262958,0.53407544,-0.5313855,0.9828954,1.0272412,0.64922976,0.027785856,0.011106897,0.017397264,3,1,0,0
91404000,91290000,0,0,0.0,0.0,-0.04,0.09,0.09,0.20250002,-0.9033765,0.64138246,-0.3302177,1.0235076,1.071603,0.6321049,0.03189382,0.015355369,0.0069003566,3,1,0,0
91804000,91690000,0,0,0.0,0.0,0.0,0.09,0.09,0.20250002,-0.96532136,0.80029756,-0.2054812,1.0215187,1.0679051,0.6128305,0.036488622,0.023990005,0.0027559025,3,1,0,0
92204000,92090000,0,0,0.0,0.0,0.0,0.09,0.09,0.20250002,-1.021213,0.9200087,-0.12449283,1.0196418,1.064572,0.6063904,0.040911473,0.031803057,0.0010223424,3,1,0,0
92604000,92490000,0,0,0.02,-0.01,-0.04,0.09,0.09,0.20250002,-1.0838044,1.0202994,0.0013511404,1.0180128,1.0617998,0.59440446,0.046153918,0.039216846,1.2285106e-07,3,1,0,0
93004000,92890000,0,0,0.01,0.0,0.02,0.09,0.09,0.20250002,-1.1127399,1.0747154,-0.007250283,1.0167545,1.0597848,0.58629537,0.048711468,0.043594252,3.5863566e-06,3,1,0,0
93404000,93290000,0,0,-0.01,-0.02,0.0,0.09,0.09,0.20250002,-1.1247188,1.1343939,0.04826946,1.0159217,1.0585964,0.5789917,0.049806688,0.04862475,0.00016096541,3,1,0,0
93804000,93690000,0,0,0.0,0.0,-0.02,0.09,0.09,0.20250002,-1.1651621,1.1360604,0.060530793,1.0155504,1.0582403,0.58027804,0.05347259,0.048784122,0.00025256697,3,1,0,0
94212000,94090000,0,0,0.01,0.0,0.03,0.09,0.09,0.20250002,-1.2001528,1.1428404,0.017424004,1.0173981,1.0606463,0.57763946,0.05662942,0.049256165,2.102321e-05,3,1,0,0
94604000,94490000,0,0,-0.03,0.0,-0.03,0.09,0.09,0.20250002,-1.1749737,1.1335574,0.070271306,1.0160542,1.0597441,0.57137555,0.05434999,0.048500482,0.00034569603,3,1,0,0
95004000,94890000,0,0,0.0,0.0,0.0,0.09,0.09,0.20250002,-1.2176062,1.1140188,0.030546196,0.94238734,0.98699915,0.49545795,0.06292804,0.050295398,7.532991e-05,3,1,0,0
95404000,95290000,0,0,-0.01,0.0,-0.01,0.09,0.09,0.20250002,-1.2146792,1.0865037,0.030726383,0.8700137,0.91588247,0.42909816,0.06783551,0.051556412,8.800882e-05,3,1,0,0
95804000,95690000,0,0,-0.01,0.0,0.01,0.09,0.09,0.20250002,-1.2236797,1.0522249,-0.026965762,0.8022704,0.8497846,0.38151133,0.074657716,0.05211566,7.623913e-05,3,1,0,0
96204000,96090000,0,0,0.0,0.0,0.01,0.09,0.09,0.20250002,-1.2424333,1.01318,-0.12035319,0.74035525,0.78992057,0.35389334,0.08339999,0.051981617,0.0016372041,3,1,0,0
96612000,96490000,0,0,0.0,-0.01,0.0,0.09,0.09,0.20250002,-1.2530314,0.9853018,-0.16582885,0.685253,0.73750687,0.33546746,0.091650106,0.052654136,0.0032789123,3,1,0,0
97012000,96890000,0,0,0.02,0.0,0.01,0.09,0.09,0.20250002,-0.17946558,0.061326705,-0.043872423,0.12749758,0.12882516,0.23516959,0.010104629,0.0011677734,0.0003273875,3,1,0,0
97404000,97290000,0,0,0.02,0.0,0.0,0.09,0.09,0.20250002,-0.06300853,-0.0037453019,-0.012350097,0.098331325,0.09852011,0.21760607,0.0016149787,5.695197e-06,2.8036886e-05,3,1,0,0
97812000,97690000,0,0,0.0,0.02,0.01,0.09,0.09,0.20250002,-0.011290235,-0.012831307,-0.020520898,0.09423877,0.09432786,0.21388844,5.4104872e-05,6.98171e-05,7.8752695e-05,3,1,0,0
98204000,98090000,0,0,0.01,0.01,0.03,0.09,0.09,0.20250002,-0.014177811,-0.0028385576,-0.039334632,0.09183177,0.09187366,0.21230642,8.75559e-05,3.5080386e-06,0.00029150568,3,1,0,0
98604000,98490000,0,0,-0.01,-0.01,0.0,0.09,0.09,0.20250002,0.005644891,0.015261173,-0.009756371,0.091116734,0.091133155,0.21147539,1.3988559e-05,0.00010222554,1.8004324e-05,3,1,0,0
99004000,98890000,0,0,-0.01,0.0,0.03,0.09,0.09,0.20250002,0.0045386357,0.004837549,-0.039174944,0.090863146,0.09086882,0.21086189,9.068238e-06,1.0301389e-05,0.00029112445,3,1,0,0
99404000,99290000,0,0,0.01,-0.01,-0.03,0.09,0.09,0.20250002,-0.018115792,0.013064657,0.02072676,0.09075558,0.09075673,0.21033943,0.0001446443,7.52276e-05,8.169626e-05,3,1,0,0
