timestamp,timestamp_sample,time_last_fuse,device_id,observation[0],observation[1],observation_variance[0],observation_variance[1],innovation[0],innovation[1],innovation_variance[0],innovation_variance[1],test_ratio[0],test_ratio[1],estimator_instance,fusion_enabled,innovation_rejected,fused
3132000,3132000,3132000,0,0.0,0.0,0.25,0.25,1.620315e-08,-2.3855828e-09,0.500009,0.500009,5.834164e-17,1.2646451e-18,3,0,0,0
3420000,3340000,3340000,0,0.0,0.0,1e-04,1e-04,0.00027171127,-5.8226007e-05,100.00032,100.00032,8.202975e-11,3.7669525e-12,3,1,0,1
3628000,3548000,3548000,0,0.0,0.0,1e-04,1e-04,7.4520896e-05,-2.0562868e-05,0.00021773466,0.00021773778,2.8339102e-06,2.1576999e-07,3,1,0,1
3836000,3756000,3756000,0,0.0,0.0,1e-04,1e-04,0.00045565545,-2.6410116e-05,0.000605265,0.00060535525,3.8114045e-05,1.2802295e-07,3,1,0,1
4044000,3964000,3964000,0,0.0,0.0,1e-04,1e-04,0.00062323967,-0.00011037922,0.0009248795,0.00092492625,4.666406e-05,1.4636088e-06,3,1,0,1
4252000,4172000,4172000,0,0.0,0.0,1e-04,1e-04,0.0004238533,-0.00015539282,0.00067299575,0.00067300384,2.966035e-05,3.986592e-06,3,1,0,1
4460000,4380000,4380000,0,0.0,0.0,1e-04,1e-04,0.0005078475,-0.00018391022,0.000550115,0.00055011647,5.2091957e-05,6.831476e-06,3,1,0,1
4668000,4588000,4588000,0,0.0,0.0,1e-04,1e-04,0.0005577375,-0.0004908441,0.0004945494,0.0004945463,6.988878e-05,5.412995e-05,3,1,0,1
4876000,4796000,4796000,0,0.0,0.0,1e-04,1e-04,0.00038560282,-0.00093777955,0.00045626773,0.00045626058,3.620913e-05,0.00021416381,3,1,0,1
5084000,5004000,5004000,0,0.0,0.0,1e-04,1e-04,0.00019063437,-0.0008362772,0.00042143077,0.0004214261,9.581503e-06,0.00018438968,3,1,0,1
5292000,5212000,5212000,0,0.0,0.0,1e-04,1e-04,0.00034953275,-0.00060954585,0.0003902418,0.00039023874,3.4785597e-05,0.000105788844,3,1,0,1
5500000,5420000,5420000,0,0.0,0.0,1e-04,1e-04,0.00025935285,8.536954e-05,0.00036415478,0.0003641538,2.0523597e-05,2.2237118e-06,3,1,0,1
5708000,5628000,5628000,0,0.0,0.0,1e-04,1e-04,0.00025758904,0.00037926997,0.00034335145,0.00034334994,2.1472044e-05,4.6549758e-05,3,1,0,1
5916000,5836000,5836000,0,0.0,0.0,1e-04,1e-04,0.00022944222,0.00020730005,0.00032699123,0.0003269893,1.7888258e-05,1.4602351e-05,3,1,0,1
6124000,6044000,6044000,0,0.0,0.0,1e-04,1e-04,0.00024582085,4.565997e-06,0.00031413956,0.00031413708,2.1373335e-05,7.3741093e-09,3,1,0,1
6332000,6252000,6252000,0,0.0,0.0,1e-04,1e-04,8.397301e-05,-0.000116647985,0.00030391334,0.0003039103,2.5780255e-06,4.974696e-06,3,1,0,1
6540000,6460000,6460000,0,0.0,0.0,1e-04,1e-04,-0.00057229813,-3.761392e-05,0.00029565714,0.00029565452,0.00012308745,5.3170436e-07,3,1,0,1
6748000,6668000,6668000,0,0.0,0.0,1e-04,1e-04,-0.0007880612,8.937654e-05,0.00028889274,0.00028889006,0.00023885853,3.072359e-06,3,1,0,1
6956000,6876000,6876000,0,0.0,0.0,1e-04,1e-04,-0.00068748655,0.00050479727,0.0002832623,0.000283259,0.00018539462,9.995575e-05,3,1,0,1
7164000,7084000,7084000,0,0.0,0.0,1e-04,1e-04,-0.0004142803,0.0011498858,0.00027852482,0.0002785204,6.846714e-05,0.00052748475,3,1,0,1
7372000,7292000,7292000,0,0.0,0.0,1e-04,1e-04,-7.870644e-05,0.0016150839,0.00027448792,0.0002744827,2.50758e-06,0.0010559241,3,1,0,1
7580000,7500000,7500000,0,0.0,0.0,1e-04,1e-04,0.00024333404,0.0015741662,0.00027100698,0.0002710026,2.4276314e-05,0.0010159801,3,1,0,1
7788000,7708000,7708000,0,0.0,0.0,1e-04,1e-04,0.0002996657,0.0011389637,0.00026797946,0.00026797628,3.7233174e-05,0.0005378745,3,1,0,1
7996000,7916000,7916000,0,0.0,0.0,1e-04,1e-04,0.00013636914,0.0008220572,0.00026533997,0.00026533785,7.787303e-06,0.0002829843,3,1,0,1
8204000,8124000,8124000,0,0.0,0.0,1e-04,1e-04,-0.00011744506,0.00040394807,0.00026301036,0.00026300963,5.827122e-06,6.893455e-05,3,1,0,1
8412000,8332000,8332000,0,0.0,0.0,1e-04,1e-04,-0.0003998786,0.00036442708,0.00026094413,0.0002609457,6.8087335e-05,5.6549477e-05,3,1,0,1
8620000,8540000,8540000,0,0.0,0.0,1e-04,1e-04,-0.00032054115,0.00019357882,0.00025906577,0.00025906888,4.4067157e-05,1.6071555e-05,3,1,0,1
8828000,8748000,8748000,0,0.0,0.0,1e-04,1e-04,-5.377527e-05,0.0003452174,0.00025737463,0.00025737972,1.2484091e-06,5.1448005e-05,3,1,0,1
9036000,8956000,8956000,0,0.0,0.0,1e-04,1e-04,0.00038223586,0.0006100265,0.00025585297,0.0002558596,6.344975e-05,0.00016160437,3,1,0,1
9244000,9164000,9164000,0,0.0,0.0,1e-04,1e-04,0.00079577544,0.00077250897,0.00025447426,0.00025448113,0.0002764997,0.00026056074,3,1,0,1
9452000,9372000,9372000,0,0.0,0.0,1e-04,1e-04,0.0009302109,0.0008294469,0.0002532335,0.00025323947,0.00037966378,0.0003018584,3,1,0,1
9660000,9580000,9580000,0,0.0,0.0,1e-04,1e-04,0.00096934516,0.0007845531,0.00025209528,0.0002521,0.00041414236,0.00027128725,3,1,0,1
9868000,9788000,9788000,0,0.0,0.0,1e-04,1e-04,0.0010788307,0.00081062166,0.00025104784,0.00025105153,0.000515119,0.00029082454,3,1,0,1
10076000,9996000,9996000,0,0.0,0.0,1e-04,1e-04,0.00086047046,0.00058373477,0.00025008735,0.00025008936,0.0003289559,0.00015138867,3,1,0,1
10284000,10204000,10204000,0,0.0,0.0,1e-04,1e-04,0.00039758973,0.0003399362,0.00024920134,0.00024920193,7.048187e-05,5.1522977e-05,3,1,0,1
10492000,10412000,10412000,0,0.0,0.0,1e-04,1e-04,-1.6522277e-05,-0.00012887016,0.0002484027,0.00024840244,1.2210711e-07,7.42859e-06,3,1,0,1
10700000,10620000,10620000,0,0.0,0.0,1e-04,1e-04,-0.0003327484,-0.00040523073,0.00024765613,0.00024765573,4.9675284e-05,7.367394e-05,3,1,0,1
10908000,10828000,10828000,0,0.0,0.0,1e-04,1e-04,-0.00016929414,-0.00069538446,0.00024695977,0.00024695916,1.2894816e-05,0.00021756161,3,1,0,1
11116000,11036000,11036000,0,0.0,0.0,1e-04,1e-04,-0.00019639226,-0.00089952204,0.0002463074,0.0002463066,1.739918e-05,0.00036501026,3,1,0,1
11324000,11244000,11244000,0,0.0,0.0,1e-04,1e-04,-0.00043564464,-0.0009933716,0.00024570298,0.00024570135,8.582461e-05,0.00044624507,3,1,0,1
11532000,11452000,11452000,0,0.0,0.0,1e-04,1e-04,-0.0006384612,-0.0011362669,0.00024514413,0.00024514014,0.00018475876,0.0005851992,3,1,0,1
11740000,11660000,11660000,0,0.0,0.0,1e-04,1e-04,-0.00071576406,-0.0012355957,0.0002446206,0.0002446129,0.00023270419,0.0006934752,3,1,0,1
11948000,11868000,11868000,0,0.0,0.0,1e-04,1e-04,-0.00097408873,-0.000989822,0.0002441452,0.0002441342,0.00043182357,0.00044590572,3,1,0,1
12156000,12076000,12076000,0,0.0,0.0,1e-04,1e-04,-0.0011101633,-0.0004671269,0.00024371452,0.00024370017,0.0005618881,9.948816e-05,3,1,0,1
12364000,12284000,12284000,0,0.0,0.0,1e-04,1e-04,-0.0010371609,-0.00033882624,0.00024330919,0.0002432912,0.0004912372,5.2430638e-05,3,1,0,1
12572000,12492000,12492000,0,0.0,0.0,1e-04,1e-04,-0.00077451137,-0.00024162003,0.0002429221,0.00024290243,0.00027437595,2.6704933e-05,3,1,0,1
12780000,12700000,12700000,0,0.0,0.0,1e-04,1e-04,-0.00025143984,0.00049964146,0.00024254987,0.00024253078,2.8961736e-05,0.000114368806,3,1,0,1
12988000,12908000,12908000,0,0.0,0.0,1e-04,1e-04,2.5940284e-05,0.0011526217,0.0002421983,0.00024217999,3.0869944e-07,0.0006095268,3,1,0,1
13196000,13116000,13116000,0,0.0,0.0,1e-04,1e-04,5.2604177e-05,0.0012583593,0.00024187192,0.00024185487,1.2711959e-06,0.0007274648,3,1,0,1
13404000,13324000,13324000,0,0.0,0.0,1e-04,1e-04,0.00027100174,0.0011981406,0.00024156191,0.00024154686,3.3781056e-05,0.00066034606,3,1,0,1
13612000,13532000,13532000,0,0.0,0.0,1e-04,1e-04,0.0005671641,0.0011475084,0.0002412743,0.0002412615,0.00014813711,0.00060643075,3,1,0,1
13820000,13740000,13740000,0,0.0,0.0,1e-04,1e-04,0.00088344223,0.0008524461,0.00024100559,0.0002409947,0.00035982116,0.0003350301,3,1,0,1
14028000,13948000,13948000,0,0.0,0.0,1e-04,1e-04,0.0006564687,0.00042426668,0.00024075189,0.0002407406,0.0001988913,8.3078e-05,3,1,0,1
14236000,14156000,14156000,0,0.0,0.0,1e-04,1e-04,0.0004973784,-4.1004194e-05,0.0002405014,0.00024048804,0.00011429145,7.7682034e-07,3,1,0,1
14444000,14364000,14364000,0,0.0,0.0,1e-04,1e-04,0.0005356501,-0.00035733535,0.00024027022,0.00024025387,0.00013268442,5.9052607e-05,3,1,0,1
14652000,14572000,14572000,0,0.0,0.0,1e-04,1e-04,0.000560129,-0.00043729405,0.00024005352,0.00024003416,0.0001452197,8.851799e-05,3,1,0,1
14860000,14780000,14780000,0,0.0,0.0,1e-04,1e-04,0.0008055001,-0.00039697468,0.0002398532,0.00023983236,0.0003005683,7.300882e-05,3,1,0,1
15068000,14988000,14988000,0,0.0,0.0,100.0,100.0,0.0007304037,-0.00013733885,100.00014,100.00014,5.927654e-10,2.0957706e-11,3,1,0,1
15276000,15196000,15196000,0,0.0,0.0,100.0,100.0,0.0011351121,-3.5672525e-05,100.00041,100.00041,1.431638e-09,1.4139153e-12,3,1,0,1
15484000,15404000,15404000,0,0.0,0.0,100.0,100.0,0.0017472656,-5.6420366e-05,100.00151,100.00151,3.392101e-09,3.5368995e-12,3,1,0,1
15692000,15612000,15612000,0,0.0,0.0,100.0,100.0,0.0027359673,-2.8041688e-05,100.00473,100.00473,8.316848e-09,8.736656e-13,3,1,0,1
15900000,15820000,15820000,0,0.0,0.0,100.0,100.0,0.0033948333,-0.00021456709,100.01203,100.01204,1.2803897e-08,5.1148325e-11,3,1,0,1
16108000,16028000,16028000,0,0.0,0.0,100.0,100.0,0.004277136,-0.00071745855,100.02607,100.02608,2.0321252e-08,5.717918e-10,3,1,0,1
16316000,16236000,16236000,0,0.0,0.0,100.0,100.0,0.005304547,-0.0012994424,100.05014,100.05015,3.124902e-08,1.8752266e-09,3,1,0,1
16524000,16444000,16444000,0,0.0,0.0,100.0,100.0,0.006456491,-0.0023098434,100.088196,100.08821,4.6277272e-08,5.9229714e-09,3,1,0,1
16732000,16652000,16652000,0,0.0,0.0,100.0,100.0,0.007477062,-0.0035776582,100.14483,100.144844,6.202845e-08,1.4201251e-08,3,1,0,1
16940000,16860000,16860000,0,0.0,0.0,100.0,100.0,0.008442562,-0.0052145277,100.2252,100.22523,7.9018555e-08,3.0144662e-08,3,1,0,1
17148000,17068000,17068000,0,0.0,0.0,100.0,100.0,0.009383806,-0.007056588,100.33495,100.33501,9.751317e-08,5.5143524e-08,3,1,0,1
17356000,17276000,17276000,0,0.0,0.0,100.0,100.0,0.0103921285,-0.009424048,100.48018,100.48026,1.1942248e-07,9.8209085e-08,3,1,0,1
17564000,17484000,17484000,0,0.0,0.0,100.0,100.0,0.010819346,-0.0116235055,100.66696,100.66711,1.2920297e-07,1.4912283e-07,3,1,0,1
17772000,17692000,17692000,0,0.0,0.0,100.0,100.0,0.0114642065,-0.013659985,100.90172,100.90192,1.4472612e-07,2.0547476e-07,3,1,0,1
17980000,17900000,17900000,0,0.0,0.0,100.0,100.0,0.010524812,-0.01149663,101.19048,101.19083,1.2163163e-07,1.4513007e-07,3,1,0,1
18188000,18108000,18108000,0,0.0,0.0,100.0,100.0,-0.004400951,0.0075559374,101.53907,101.53955,2.1194216e-08,6.247395e-08,3,1,0,1
18396000,18316000,18316000,0,0.0,0.0,100.0,100.0,-0.037925683,0.043965388,101.951385,101.95219,1.5675852e-06,2.1066032e-06,3,1,0,1
18604000,18524000,18524000,0,0.0,0.0,100.0,100.0,-0.07180455,0.080665834,102.42978,102.431046,5.5928763e-06,7.058382e-06,3,1,0,1
18812000,18732000,18732000,0,0.0,0.0,100.0,100.0,-0.09988353,0.11000844,102.97244,102.97402,1.0765252e-05,1.3058156e-05,3,1,0,1
19020000,18940000,18940000,0,0.0,0.0,100.0,100.0,-0.12111274,0.1293193,103.5718,103.57407,1.5736046e-05,1.794044e-05,3,1,0,1
19228000,19148000,19148000,0,0.0,0.0,100.0,100.0,-0.13142857,0.1352455,104.22271,104.22537,1.8415125e-05,1.9499781e-05,3,1,0,1
19436000,19356000,19356000,0,0.0,0.0,100.0,100.0,-0.13288113,0.13046367,104.91081,104.91434,1.870096e-05,1.8026105e-05,3,1,0,1
19644000,19564000,19564000,0,0.0,0.0,100.0,100.0,-0.12393164,0.11349359,105.62531,105.629234,1.6156746e-05,1.3549275e-05,3,1,0,1
19852000,19772000,19772000,0,0.0,0.0,100.0,100.0,-0.10855747,0.08873424,106.34562,106.35044,1.2312813e-05,8.226226e-06,3,1,0,1
20060000,19980000,19980000,0,0.0,0.0,100.0,100.0,-0.08466634,0.055650562,107.05957,107.06469,7.4396685e-06,3.214033e-06,3,1,0,1
20268000,20188000,20188000,0,0.0,0.0,100.0,100.0,-0.043259617,0.04097834,107.74302,107.74908,1.929895e-06,1.73162e-06,3,1,0,1
20476000,20396000,20396000,0,0.0,0.0,100.0,100.0,0.034898628,0.05739142,108.3874,108.39378,1.2485197e-06,3.3763467e-06,3,1,0,1
20684000,20604000,20604000,0,0.0,0.0,100.0,100.0,0.11528321,0.09846113,108.97478,108.98348,1.3550759e-05,9.883856e-06,3,1,0,1
20892000,20812000,20812000,0,0.0,0.0,100.0,100.0,0.20906663,0.13806555,109.50528,109.51433,4.4349825e-05,1.934003e-05,3,1,0,1
21100000,21020000,21020000,0,0.0,0.0,100.0,100.0,0.2744858,0.199409,109.96254,109.975365,7.6129414e-05,4.01746e-05,3,1,0,1
21308000,21228000,21228000,0,0.0,0.0,100.0,100.0,0.3646913,0.25189018,110.35298,110.36635,0.00013391345,6.3876825e-05,3,1,0,1
21516000,21436000,21436000,0,0.0,0.0,100.0,100.0,0.4100635,0.33834374,110.66426,110.68219,0.00016883106,0.00011492011,3,1,0,1
21724000,21644000,21644000,0,0.0,0.0,100.0,100.0,0.50543827,0.42093596,110.91347,110.93172,0.00025592308,0.00017747363,3,1,0,1
21932000,21852000,21852000,0,0.0,0.0,100.0,100.0,0.5517108,0.5518125,111.0963,111.11974,0.00030442537,0.00030447342,3,1,0,1
22140000,22060000,22060000,0,0.0,0.0,100.0,100.0,0.68691623,0.69845086,111.229065,111.252785,0.00047135353,0.00048721238,3,1,0,1
22348000,22268000,22268000,0,0.0,0.0,100.0,100.0,0.76624304,0.89629316,111.3052,111.33497,0.00058610464,0.0008017262,3,1,0,1
22556000,22476000,22476000,0,0.0,0.0,100.0,100.0,0.9624071,1.1197306,111.342964,111.372925,0.0009242988,0.0012508492,3,1,0,1
22764000,22684000,22684000,0,0.0,0.0,100.0,100.0,1.0712619,1.3624734,111.33576,111.37237,0.0011452864,0.0018519792,3,1,0,1
22972000,22892000,22892000,0,0.0,0.0,100.0,100.0,1.3068699,1.6277571,111.303406,111.33971,0.0017049582,0.002644153,3,1,0,1
23180000,23100000,23100000,0,0.0,0.0,100.0,100.0,1.4128231,1.8584507,111.23731,111.279755,0.0019938045,0.0034486044,3,1,0,1
23388000,23308000,23308000,0,0.0,0.0,100.0,100.0,1.6412623,2.1075635,111.15732,111.19862,0.002692622,0.0044383286,3,1,0,1
23596000,23516000,23516000,0,0.0,0.0,100.0,100.0,1.7076796,2.272436,111.05293,111.09899,0.0029176974,0.0051645283,3,1,0,1
23804000,23724000,23724000,0,0.0,0.0,100.0,100.0,1.736815,2.38121,110.93446,110.984955,0.0030213296,0.0056766067,3,1,0,1
24012000,23932000,23932000,0,0.0,0.0,100.0,100.0,1.8839028,2.513226,110.81583,110.8627,0.0035585468,0.0063304584,3,1,0,1
24220000,24140000,24140000,0,0.0,0.0,100.0,100.0,1.8539548,2.5196905,110.68151,110.730606,0.0034504894,0.006370657,3,1,0,1
24428000,24348000,24348000,0,0.0,0.0,100.0,100.0,1.8939399,2.5255423,110.550125,110.59533,0.0036052105,0.0064081103,3,1,0,1
24636000,24556000,24556000,0,0.0,0.0,100.0,100.0,1.798909,2.4245055,110.40954,110.45507,0.0032566364,0.0059131403,3,1,0,1
24844000,24764000,24764000,0,0.0,0.0,100.0,100.0,1.7249675,2.2952511,110.27261,110.31431,0.0029981383,0.00530623,3,1,0,1
25052000,24972000,24972000,0,0.0,0.0,100.0,100.0,1.5592077,2.0834599,110.131645,110.17229,0.00245275,0.004377795,3,1,0,1
25260000,25180000,25180000,0,0.0,0.0,100.0,100.0,1.3716546,1.8228768,109.99436,110.03136,0.0019005382,0.0033554877,3,1,0,1
25468000,25388000,25388000,0,0.0,0.0,100.0,100.0,1.1271514,1.5037644,109.857086,109.891846,0.0012849728,0.0022863967,3,1,0,1
25676000,25596000,25596000,0,0.0,0.0,100.0,100.0,0.83950853,1.1342559,109.723145,109.754456,0.0007136898,0.0013024391,3,1,0,1
25884000,25804000,25804000,0,0.0,0.0,100.0,100.0,0.52018654,0.7217311,109.59195,109.62015,0.00027434502,0.0005279807,3,1,0,1
26092000,26012000,26012000,0,0.0,0.0,100.0,100.0,0.14911532,0.27795193,109.464195,109.48886,2.2569919e-05,7.8401965e-05,3,1,0,1
26300000,26220000,26220000,0,0.0,0.0,100.0,100.0,-0.25575766,-0.197447,109.34028,109.36119,6.6471366e-05,3.9609135e-05,3,1,0,1
26508000,26428000,26428000,0,0.0,0.0,100.0,100.0,-0.6907413,-0.65738696,109.22016,109.23778,0.00048538408,0.0004395687,3,1,0,1
26716000,26636000,26636000,0,0.0,0.0,100.0,100.0,-1.163706,-1.163438,109.104324,109.11835,0.0013791199,0.0013783076,3,1,0,1
26924000,26844000,26844000,0,0.0,0.0,100.0,100.0,-1.6182765,-1.5600222,108.99871,109.01068,0.0026695717,0.0024805616,3,1,0,1
27132000,27052000,27052000,0,0.0,0.0,100.0,100.0,-2.1168437,-2.0029764,108.89719,108.90729,0.004572128,0.004093099,3,1,0,1
27340000,27260000,27260000,0,0.0,0.0,100.0,100.0,-2.5426388,-2.3426452,108.79818,108.80797,0.006602451,0.0056041507,3,1,0,1
27548000,27468000,27468000,0,0.0,0.0,100.0,100.0,-3.0319564,-2.7678795,108.69993,108.70938,0.009396673,0.007830416,3,1,0,1
27756000,27676000,27676000,0,0.0,0.0,100.0,100.0,-3.3834445,-3.0451362,108.60493,108.61494,0.011711866,0.009485963,3,1,0,1
27964000,27884000,27884000,0,0.0,0.0,100.0,100.0,-3.8135417,-3.4293127,108.51042,108.52077,0.014891657,0.012040896,3,1,0,1
28172000,28092000,28092000,0,0.0,0.0,100.0,100.0,-4.069905,-3.6563313,108.4198,108.43052,0.016975297,0.013699257,3,1,0,1
28380000,28300000,28300000,0,0.0,0.0,100.0,100.0,-4.405488,-3.9984567,108.3297,108.340195,0.019906642,0.016396556,3,1,0,1
28588000,28508000,28508000,0,0.0,0.0,100.0,100.0,-4.546893,-4.1823316,108.24383,108.25342,0.021221878,0.017953651,3,1,0,1
28796000,28716000,28716000,0,0.0,0.0,100.0,100.0,-4.7605677,-4.482647,108.158714,108.1664,0.023281634,0.020641165,3,1,0,1
29004000,28924000,28924000,0,0.0,0.0,100.0,100.0,-4.8947897,-4.754603,108.07645,108.08102,0.024631707,0.023240024,3,1,0,1
29212000,29132000,29132000,0,0.0,0.0,100.0,100.0,-4.8478994,-4.8902164,107.99827,107.99868,0.024179531,0.024603404,3,1,0,1
29420000,29340000,29340000,0,0.0,0.0,100.0,100.0,-4.8297615,-5.1190324,107.92173,107.91651,0.02401596,0.026980212,3,1,0,1
29628000,29548000,29548000,0,0.0,0.0,100.0,100.0,-4.6540523,-5.228292,107.849075,107.837494,0.022315344,0.028164845,3,1,0,1
29836000,29756000,29756000,0,0.0,0.0,100.0,100.0,-4.482926,-5.415488,107.778564,107.75919,0.020718018,0.030239757,3,1,0,1
30044000,29964000,29964000,0,0.0,0.0,100.0,100.0,-4.1856713,-5.500278,107.71167,107.68447,0.01807278,0.031215744,3,1,0,1
30252000,30172000,30172000,0,0.0,0.0,100.0,100.0,-3.8955655,-5.6431346,107.6478,107.612144,0.015663663,0.032880396,3,1,0,1
30460000,30380000,30380000,0,0.0,0.0,100.0,100.0,-3.5763235,-5.7000003,107.58818,107.54589,0.013208896,0.033567067,3,1,0,1
30668000,30588000,30588000,0,0.0,0.0,100.0,100.0,-3.294652,-5.7992635,107.53247,107.48374,0.011215973,0.034766454,3,1,0,1
30876000,30796000,30796000,0,0.0,0.0,100.0,100.0,-3.0601363,-5.870925,107.48237,107.42855,0.00968059,0.035649285,3,1,0,1
31084000,31004000,31004000,0,0.0,0.0,100.0,100.0,-2.9634593,-6.145121,107.44155,107.37875,0.009082035,0.03907509,3,1,0,1
31292000,31212000,31212000,0,0.0,0.0,100.0,100.0,-2.9929142,-6.522727,107.4106,107.33597,0.009266141,0.044042364,3,1,0,1
31500000,31420000,31420000,0,0.0,0.0,100.0,100.0,-3.1087518,-6.969871,107.38838,107.29972,0.009999362,0.050304677,3,1,0,1
31708000,31628000,31628000,0,0.0,0.0,100.0,100.0,-3.168432,-7.3068557,107.36843,107.26786,0.010388902,0.05530303,3,1,0,1
31916000,31836000,31836000,0,0.0,0.0,100.0,100.0,-3.1705613,-7.580377,107.34744,107.23581,0.010404904,0.05953869,3,1,0,1
32124000,32044000,32044000,0,0.0,0.0,100.0,100.0,-3.0975475,-7.719615,107.32479,107.20664,0.009933297,0.061762813,3,1,0,1
32332000,32252000,32252000,0,0.0,0.0,100.0,100.0,-2.9509602,-7.7896442,107.30027,107.176834,0.009017442,0.06290597,3,1,0,1
32540000,32460000,32460000,0,0.0,0.0,100.0,100.0,-2.7243428,-7.7509665,107.27429,107.15008,0.007687504,0.062298376,3,1,0,1
32748000,32668000,32668000,0,0.0,0.0,100.0,100.0,-2.429588,-7.65986,107.247444,107.12346,0.0061155544,0.060857568,3,1,0,1
32956000,32876000,32876000,0,0.0,0.0,100.0,100.0,-2.0738916,-7.495453,107.220436,107.10034,0.004457096,0.058285747,3,1,0,1
33164000,33084000,33084000,0,0.0,0.0,100.0,100.0,-1.6693912,-7.301818,107.19383,107.07876,0.0028887098,0.05532433,3,1,0,1
33372000,33292000,33292000,0,0.0,0.0,100.0,100.0,-1.2294688,-7.0665803,107.168205,107.06099,0.0015672077,0.05182566,3,1,0,1
33580000,33500000,33500000,0,0.0,0.0,100.0,100.0,-0.76357615,-6.8196974,107.14394,107.045654,0.0006046368,0.0482746,3,1,0,1
33788000,33708000,33708000,0,0.0,0.0,100.0,100.0,-0.28657138,-6.55856,107.12154,107.034134,8.518171e-05,0.04465316,3,1,0,1
33996000,33916000,33916000,0,0.0,0.0,100.0,100.0,0.19627921,-6.298727,107.10091,107.0254,3.996805e-05,0.041188523,3,1,0,1
34204000,34124000,34124000,0,0.0,0.0,100.0,100.0,0.6730512,-6.0423446,107.08253,107.020035,0.00047004028,0.037905604,3,1,0,1
34412000,34332000,34332000,0,0.0,0.0,100.0,100.0,1.1393472,-5.795351,107.06583,107.017235,0.0013471588,0.034870908,3,1,0,1
34620000,34540000,34540000,0,0.0,0.0,100.0,100.0,1.5846838,-5.560083,107.0508,107.01695,0.0026064704,0.03209722,3,1,0,1
34828000,34748000,34748000,0,0.0,0.0,100.0,100.0,2.017416,-5.342822,107.03833,107.018814,0.0042248284,0.02963731,3,1,0,1
35036000,34956000,34956000,0,0.0,0.0,100.0,100.0,2.4170413,-5.139901,107.02656,107.022285,0.006065046,0.027427917,3,1,0,1
35244000,35164000,35164000,0,0.0,0.0,100.0,100.0,2.800024,-4.9545064,107.01718,107.027084,0.008140058,0.025483824,3,1,0,1
35452000,35372000,35372000,0,0.0,0.0,100.0,100.0,3.149726,-4.783422,107.00804,107.03282,0.010301171,0.023752969,3,1,0,1
35660000,35580000,35580000,0,0.0,0.0,100.0,100.0,3.4830225,-4.627235,107.001076,107.03923,0.012597428,0.02222581,3,1,0,1
35868000,35788000,35788000,0,0.0,0.0,100.0,100.0,3.7829797,-4.4831805,106.99387,107.04601,0.014861636,0.020862168,3,1,0,1
36076000,35996000,35996000,0,0.0,0.0,100.0,100.0,4.073341,-4.350376,106.98874,107.053024,0.017231414,0.019643195,3,1,0,1
36284000,36204000,36204000,0,0.0,0.0,100.0,100.0,4.327031,-4.226373,106.98278,107.06005,0.019445702,0.018538121,3,1,0,1
36492000,36412000,36412000,0,0.0,0.0,100.0,100.0,4.578902,-4.109518,106.97879,107.06702,0.021776218,0.01752603,3,1,0,1
36700000,36620000,36620000,0,0.0,0.0,100.0,100.0,4.7976236,-3.9981706,106.97373,107.07375,0.02390742,0.016588118,3,1,0,1
36908000,36828000,36828000,0,0.0,0.0,100.0,100.0,5.015094,-3.8897028,106.97029,107.08026,0.026124766,0.015699321,3,1,0,1
37116000,37036000,37036000,0,0.0,0.0,100.0,100.0,5.2094493,-3.7833536,106.96588,107.08647,0.028190048,0.01485172,3,1,0,1
37324000,37244000,37244000,0,0.0,0.0,100.0,100.0,5.4036503,-3.677815,106.962814,107.09243,0.030331867,0.014033903,3,1,0,1
37532000,37452000,37452000,0,0.0,0.0,100.0,100.0,5.579177,-3.5727494,106.95879,107.09812,0.032335624,0.013242828,3,1,0,1
37740000,37660000,37660000,0,0.0,0.0,100.0,100.0,5.756267,-3.46691,106.955925,107.103584,0.034421872,0.0124692,3,1,0,1
37948000,37868000,37868000,0,0.0,0.0,100.0,100.0,5.9183636,-3.3602605,106.95218,107.10879,0.036389086,0.011713274,3,1,0,1
38156000,38076000,38076000,0,0.0,0.0,100.0,100.0,6.081851,-3.2525752,106.94943,107.11376,0.038428243,0.01097405,3,1,0,1
38364000,38284000,38284000,0,0.0,0.0,100.0,100.0,6.23257,-3.1436274,106.94593,107.118484,0.04035781,0.01025074,3,1,0,1
38572000,38492000,38492000,0,0.0,0.0,100.0,100.0,6.384303,-3.0324376,106.94328,107.12296,0.04234781,0.009538029,3,1,0,1
38780000,38700000,38700000,0,0.0,0.0,100.0,100.0,6.525245,-2.9187007,106.94002,107.12718,0.04423957,0.008835618,3,1,0,1
38988000,38908000,38908000,0,0.0,0.0,100.0,100.0,6.6652274,-2.8024445,106.937515,107.13116,0.0461591,0.008145462,3,1,0,1
39196000,39116000,39116000,0,0.0,0.0,100.0,100.0,6.7948833,-2.68397,106.93458,107.13489,0.04797371,0.007471054,3,1,0,1
39404000,39324000,39324000,0,0.0,0.0,100.0,100.0,6.9188814,-2.563426,106.93182,107.13837,0.04974189,0.0068148146,3,1,0,1
39612000,39532000,39532000,0,0.0,0.0,100.0,100.0,7.042453,-2.4403822,106.92977,107.14165,0.051535532,0.0061761076,3,1,0,1
39820000,39740000,39740000,0,0.0,0.0,100.0,100.0,7.156239,-2.316654,106.927475,107.14472,0.053215463,0.0055655623,3,1,0,1
40028000,39948000,39948000,0,0.0,0.0,100.0,100.0,7.2664833,-2.1910121,106.925835,107.14757,0.05486854,0.004978113,3,1,0,1
40236000,40156000,40156000,0,0.0,0.0,100.0,100.0,7.367638,-2.064458,106.924194,107.1502,0.05640766,0.0044195345,3,1,0,1
40444000,40364000,40364000,0,0.0,0.0,100.0,100.0,7.464524,-1.9360324,106.92317,107.152664,0.05790151,0.0038866887,3,1,0,1
40652000,40572000,40572000,0,0.0,0.0,100.0,100.0,7.5527744,-1.8071531,106.92231,107.15496,0.05927918,0.0033863755,3,1,0,1
40860000,40780000,40780000,0,0.0,0.0,100.0,100.0,7.635934,-1.6772336,106.9221,107.15721,0.06059187,0.002916911,3,1,0,1
41068000,40988000,40988000,0,0.0,0.0,100.0,100.0,7.712164,-1.5466642,106.92219,107.15943,0.061807644,0.0024803854,3,1,0,1
41276000,41196000,41196000,0,0.0,0.0,100.0,100.0,7.782816,-1.4145218,106.92295,107.16166,0.06294483,0.0020746142,3,1,0,1
41484000,41404000,41404000,0,0.0,0.0,100.0,100.0,7.8462887,-1.2824601,106.924126,107.16388,0.06397501,0.0017052842,3,1,0,1
41692000,41612000,41612000,0,0.0,0.0,100.0,100.0,7.904485,-1.1495769,106.92602,107.16621,0.06492639,0.0013701739,3,1,0,1
41900000,41820000,41820000,0,0.0,0.0,100.0,100.0,7.9560328,-1.0170819,106.92846,107.16866,0.06577446,0.0010725104,3,1,0,1
42108000,42028000,42028000,0,0.0,0.0,100.0,100.0,8.002514,-0.8835746,106.93166,107.17133,0.06654326,0.00080940395,3,1,0,1
42316000,42236000,42236000,0,0.0,0.0,100.0,100.0,8.042786,-0.7499886,106.93552,107.17417,0.06721226,0.0005831452,3,1,0,1
42524000,42444000,42444000,0,0.0,0.0,100.0,100.0,8.077349,-0.61528003,106.94018,107.177284,0.06778822,0.00039246448,3,1,0,1
42732000,42652000,42652000,0,0.0,0.0,100.0,100.0,8.1058855,-0.47988898,106.94558,107.18063,0.06826461,0.00023873863,3,1,0,1
42940000,42860000,42860000,0,0.0,0.0,100.0,100.0,8.128851,-0.3433194,106.95186,107.18436,0.068647936,0.00012218636,3,1,0,1
43148000,43068000,43068000,0,0.0,0.0,100.0,100.0,8.145462,-0.20635621,106.958954,107.18834,0.0689242,4.4141292e-05,3,1,0,1
43356000,43276000,43276000,0,0.0,0.0,100.0,100.0,8.1558075,-0.06843576,106.96698,107.19271,0.06909422,4.854656e-06,3,1,0,1
43564000,43484000,43484000,0,0.0,0.0,100.0,100.0,8.159203,0.06935882,106.97588,107.19735,0.06914599,4.986282e-06,3,1,0,1
43772000,43692000,43692000,0,0.0,0.0,100.0,100.0,8.156152,0.20741375,106.98574,107.202415,0.06908793,4.458903e-05,3,1,0,1
43980000,43900000,43900000,0,0.0,0.0,100.0,100.0,8.146343,0.34534094,106.99651,107.20777,0.06891492,0.00012360253,3,1,0,1
44188000,44108000,44108000,0,0.0,0.0,100.0,100.0,8.130382,0.48354092,107.00828,107.21367,0.06863758,0.00024231138,3,1,0,1
44396000,44316000,44316000,0,0.0,0.0,100.0,100.0,8.107726,0.6217734,107.02103,107.219894,0.06824747,0.00040063274,3,1,0,1
44604000,44524000,44524000,0,0.0,0.0,100.0,100.0,8.078384,0.7598228,107.03476,107.22655,0.067745686,0.00059824594,3,1,0,1
44812000,44732000,44732000,0,0.0,0.0,100.0,100.0,8.042628,0.8984429,107.04949,107.233795,0.06713807,0.00083638617,3,1,0,1
45020000,44940000,44940000,0,0.0,0.0,100.0,100.0,8.000256,1.0360246,107.065186,107.241356,0.06642276,0.0011120781,3,1,0,1
45228000,45148000,45148000,0,0.0,0.0,100.0,100.0,7.951373,1.173718,107.081856,107.24953,0.06560333,0.0014272158,3,1,0,1
45436000,45356000,45356000,0,0.0,0.0,100.0,100.0,7.8956866,1.3095875,107.09945,107.257996,0.06467703,0.0017766294,3,1,0,1
45644000,45564000,45564000,0,0.0,0.0,100.0,100.0,7.834305,1.4454627,107.11798,107.267136,0.06366431,0.0021642358,3,1,0,1
45852000,45772000,45772000,0,0.0,0.0,100.0,100.0,7.7670946,1.5799199,107.13742,107.276634,0.06256529,0.0025853687,3,1,0,1
46060000,45980000,45980000,0,0.0,0.0,100.0,100.0,7.693953,1.7141514,107.15774,107.28678,0.06138087,0.0030430537,3,1,0,1
46268000,46188000,46188000,0,0.0,0.0,100.0,100.0,7.6145277,1.8455217,107.17888,107.29722,0.06010827,0.0035270152,3,1,0,1
46476000,46396000,46396000,0,0.0,0.0,100.0,100.0,7.5293045,1.9758916,107.20081,107.308304,0.05875829,0.0040425034,3,1,0,1
46684000,46604000,46604000,0,0.0,0.0,100.0,100.0,7.4382353,2.1034129,107.22348,107.319664,0.05733336,0.0045806514,3,1,0,1
46892000,46812000,46812000,0,0.0,0.0,100.0,100.0,7.3419166,2.229776,107.24686,107.331696,0.05584597,0.0051469738,3,1,0,1
47100000,47020000,47020000,0,0.0,0.0,100.0,100.0,7.240307,2.3527236,107.27084,107.34398,0.054298736,0.0057295645,3,1,0,1
47308000,47228000,47228000,0,0.0,0.0,100.0,100.0,7.133541,2.473468,107.29537,107.356865,0.052697115,0.006331991,3,1,0,1
47516000,47436000,47436000,0,0.0,0.0,100.0,100.0,7.0211763,2.5893388,107.32035,107.36992,0.051038176,0.0069382926,3,1,0,1
47724000,47644000,47644000,0,0.0,0.0,100.0,100.0,6.904368,2.7030044,107.34577,107.3836,0.049342416,0.007559847,3,1,0,1
47932000,47852000,47852000,0,0.0,0.0,100.0,100.0,6.782553,2.812011,107.371544,107.39742,0.047605235,0.008180835,3,1,0,1
48140000,48060000,48060000,0,0.0,0.0,100.0,100.0,6.655869,2.9193647,107.39765,107.41177,0.045832362,0.008816218,3,1,0,1
48348000,48268000,48268000,0,0.0,0.0,100.0,100.0,6.524789,3.022026,107.42398,107.42622,0.044034105,0.009445906,3,1,0,1
48556000,48476000,48476000,0,0.0,0.0,100.0,100.0,6.3904705,3.1227932,107.45048,107.44124,0.042229388,0.010084932,3,1,0,1
48764000,48684000,48684000,0,0.0,0.0,100.0,100.0,6.2525706,3.21911,107.47711,107.456276,0.0404165,0.010715127,3,1,0,1
48972000,48892000,48892000,0,0.0,0.0,100.0,100.0,6.1113186,3.3141594,107.503845,107.47183,0.038601425,0.011355588,3,1,0,1
49180000,49100000,49100000,0,0.0,0.0,100.0,100.0,5.966854,3.4042847,107.53056,107.48735,0.036788866,0.011979863,3,1,0,1
49388000,49308000,49308000,0,0.0,0.0,100.0,100.0,5.819445,3.4925027,107.55719,107.50328,0.034984943,0.012606927,3,1,0,1
49596000,49516000,49516000,0,0.0,0.0,100.0,100.0,5.6689606,3.5762045,107.58368,107.51912,0.03319082,0.013216501,3,1,0,1
49804000,49724000,49724000,0,0.0,0.0,100.0,100.0,5.515689,3.6555011,107.60991,107.535034,0.031412665,0.013807064,3,1,0,1
50012000,49932000,49932000,0,0.0,0.0,100.0,100.0,5.359637,3.7325053,107.6358,107.551285,0.029653192,0.014392716,3,1,0,1
50220000,50140000,50140000,0,0.0,0.0,100.0,100.0,5.2012906,3.7880714,107.66012,107.56705,0.02792061,0.014822264,3,1,0,1
50428000,50348000,50348000,0,0.0,0.0,100.0,100.0,5.0425963,3.7919257,107.68017,107.58272,0.026237966,0.014850279,3,1,0,1
50636000,50556000,50556000,0,0.0,0.0,100.0,100.0,4.883288,3.761087,107.69798,107.5983,0.024602236,0.014607599,3,1,0,1
50844000,50764000,50764000,0,0.0,0.0,100.0,100.0,4.722884,3.718975,107.71471,107.614204,0.023008965,0.014280205,3,1,0,1
51052000,50972000,50972000,0,0.0,0.0,100.0,100.0,4.561651,3.6622043,107.73047,107.62979,0.02146165,0.013845548,3,1,0,1
51260000,51180000,51180000,0,0.0,0.0,100.0,100.0,4.400271,3.6014454,107.7452,107.6453,0.019967258,0.013388012,3,1,0,1
51468000,51388000,51388000,0,0.0,0.0,100.0,100.0,4.240238,3.523763,107.75846,107.660225,0.018539013,0.012814911,3,1,0,1
51676000,51596000,51596000,0,0.0,0.0,100.0,100.0,4.082088,3.434833,107.76994,107.674805,0.017180055,0.0121746,3,1,0,1
51884000,51804000,51804000,0,0.0,0.0,100.0,100.0,3.927985,3.3189228,107.779205,107.68863,0.015906043,0.011365327,3,1,0,1
52092000,52012000,52012000,0,0.0,0.0,100.0,100.0,3.776687,3.181331,107.78608,107.70188,0.014703366,0.010441235,3,1,0,1
52300000,52220000,52220000,0,0.0,0.0,100.0,100.0,3.6307404,3.012372,107.79043,107.714264,0.01358838,0.009360554,3,1,0,1
52508000,52428000,52428000,0,0.0,0.0,100.0,100.0,3.4873269,2.8135471,107.79258,107.72598,0.012535854,0.008164798,3,1,0,1
52716000,52636000,52636000,0,0.0,0.0,100.0,100.0,3.349454,2.590857,107.7928,107.73677,0.0115642045,0.0069227787,3,1,0,1
52924000,52844000,52844000,0,0.0,0.0,100.0,100.0,3.2142074,2.335331,107.791824,107.7469,0.010649261,0.0056240554,3,1,0,1
53132000,53052000,53052000,0,0.0,0.0,100.0,100.0,3.0840418,2.0748696,107.79021,107.75614,0.0098043475,0.004439122,3,1,0,1
53340000,53260000,53260000,0,0.0,0.0,100.0,100.0,2.9556167,1.7839471,107.78877,107.76493,0.009004927,0.003281285,3,1,0,1
53548000,53468000,53468000,0,0.0,0.0,100.0,100.0,2.8303938,1.5146996,107.78801,107.77284,0.008258112,0.0023653815,3,1,0,1
53756000,53676000,53676000,0,0.0,0.0,100.0,100.0,2.7052035,1.2228146,107.78844,107.780556,0.007543714,0.0015414814,3,1,0,1
53964000,53884000,53884000,0,0.0,0.0,100.0,100.0,2.5811298,0.97782695,107.79016,107.78743,0.0068674902,0.0009856288,3,1,0,1
54172000,54092000,54092000,0,0.0,0.0,100.0,100.0,2.4554894,0.72091794,107.79335,107.79456,0.006215007,0.00053571316,3,1,0,1
54380000,54300000,54300000,0,0.0,0.0,100.0,100.0,2.3293862,0.529508,107.797844,107.801125,0.0055928146,0.00028898762,3,1,0,1
54588000,54508000,54508000,0,0.0,0.0,100.0,100.0,2.2007253,0.34140706,107.80347,107.80849,0.0049917917,0.000120129465,3,1,0,1
54796000,54716000,54716000,0,0.0,0.0,100.0,100.0,2.0703228,0.22675377,107.809845,107.815575,0.004417486,5.2988915e-05,3,1,0,1
55004000,54924000,54924000,0,0.0,0.0,100.0,100.0,1.9363362,0.15206918,107.81674,107.82333,0.0038639614,2.3830169e-05,3,1,0,1
55212000,55132000,55132000,0,0.0,0.0,100.0,100.0,1.7972038,0.123638615,107.82385,107.83222,0.0033284135,1.575133e-05,3,1,0,1
55420000,55340000,55340000,0,0.0,0.0,100.0,100.0,1.6559055,0.15246712,107.83092,107.84125,0.0028254348,2.3951072e-05,3,1,0,1
55628000,55548000,55548000,0,0.0,0.0,100.0,100.0,1.5123379,0.21568829,107.83794,107.850914,0.0023565874,4.7927722e-05,3,1,0,1
55836000,55756000,55756000,0,0.0,0.0,100.0,100.0,1.3657687,0.2949123,107.845,107.86069,0.0019218158,8.959424e-05,3,1,0,1
56044000,55964000,55964000,0,0.0,0.0,100.0,100.0,1.2217914,0.39139363,107.852356,107.87092,0.0015378784,0.00015779042,3,1,0,1
56252000,56172000,56172000,0,0.0,0.0,100.0,100.0,1.0712334,0.50782144,107.8619,107.88323,0.0011821092,0.0002655985,3,1,0,1
56460000,56380000,56380000,0,0.0,0.0,100.0,100.0,0.9105406,0.7499833,107.880424,107.90386,0.0008539127,0.0005791935,3,1,0,1
56668000,56588000,56588000,0,0.0,0.0,100.0,100.0,0.7384395,1.2728307,107.90994,107.92959,0.0005614691,0.0016678548,3,1,0,1
56876000,56796000,56796000,0,0.0,0.0,100.0,100.0,0.53531414,1.9596944,107.94967,107.95571,0.00029495353,0.003952652,3,1,0,1
57084000,57004000,57004000,0,0.0,0.0,100.0,100.0,0.28822425,2.736568,107.99887,107.98034,8.546717e-05,0.007705934,3,1,0,1
57292000,57212000,57212000,0,0.0,0.0,100.0,100.0,0.08350764,3.4299476,108.054825,108.00257,7.17077e-06,0.012103149,3,1,0,1
57500000,57420000,57420000,0,0.0,0.0,100.0,100.0,-0.14783739,4.191868,108.116684,108.0223,2.246122e-05,0.018074207,3,1,0,1
57708000,57628000,57628000,0,0.0,0.0,100.0,100.0,-0.33597144,4.787287,108.18193,108.041565,0.00011593311,0.023569241,3,1,0,1
57916000,57836000,57836000,0,0.0,0.0,100.0,100.0,-0.565274,5.5289416,108.24774,108.05576,0.000327987,0.03143356,3,1,0,1
58124000,58044000,58044000,0,0.0,0.0,100.0,100.0,-0.7380087,6.0167117,108.31186,108.07042,0.0005587331,0.037219375,3,1,0,1
58332000,58252000,58252000,0,0.0,0.0,100.0,100.0,-0.9583692,6.7027693,108.371346,108.07873,0.00094169163,0.046187643,3,1,0,1
58540000,58460000,58460000,0,0.0,0.0,100.0,100.0,-1.1124965,7.061272,108.42417,108.088425,0.0012683196,0.05125594,3,1,0,1
58748000,58668000,58668000,0,0.0,0.0,100.0,100.0,-1.3182318,7.6557307,108.46785,108.09098,0.0017800822,0.06024782,3,1,0,1
58956000,58876000,58876000,0,0.0,0.0,100.0,100.0,-1.4508388,7.871325,108.501144,108.09563,0.0021555668,0.063686155,3,1,0,1
59164000,59084000,59084000,0,0.0,0.0,100.0,100.0,-1.636938,8.341865,108.52247,108.09287,0.002743483,0.07152975,3,1,0,1
59372000,59292000,59292000,0,0.0,0.0,100.0,100.0,-1.7467359,8.409835,108.531586,108.09268,0.003123603,0.072700284,3,1,0,1
59580000,59500000,59500000,0,0.0,0.0,100.0,100.0,-1.9106137,8.7289915,108.52801,108.08554,0.0037373297,0.07832818,3,1,0,1
59788000,59708000,59708000,0,0.0,0.0,100.0,100.0,-1.9982077,8.653217,108.51254,108.08102,0.0040884507,0.07697741,3,1,0,1
59996000,59916000,59916000,0,0.0,0.0,100.0,100.0,-2.1374538,8.802539,108.485695,108.07037,0.0046792743,0.07966485,3,1,0,1
60204000,60124000,60124000,0,0.0,0.0,100.0,100.0,-2.2629933,8.852443,108.45073,108.05856,0.0052467645,0.0805795,3,1,0,1
60412000,60332000,60332000,0,0.0,0.0,100.0,100.0,-2.3262413,8.653694,108.41657,108.05079,0.005545891,0.07700743,3,1,0,1
60620000,60540000,60540000,0,0.0,0.0,100.0,100.0,-2.440653,8.661878,108.383545,108.039375,0.006106695,0.0771613,3,1,0,1
60828000,60748000,60748000,0,0.0,0.0,100.0,100.0,-2.4980404,8.469231,108.35202,108.03125,0.0063991076,0.07377276,3,1,0,1
61036000,60956000,60956000,0,0.0,0.0,100.0,100.0,-2.600696,8.444139,108.32138,108.020386,0.006937811,0.07334364,3,1,0,1
61244000,61164000,61164000,0,0.0,0.0,100.0,100.0,-2.651134,8.256607,108.29202,108.01174,0.00721148,0.07012773,3,1,0,1
61452000,61372000,61372000,0,0.0,0.0,100.0,100.0,-2.7409437,8.203872,108.263535,108.00113,0.007710375,0.069241576,3,1,0,1
61660000,61580000,61580000,0,0.0,0.0,100.0,100.0,-2.785076,8.022672,108.23619,107.99214,0.007962676,0.06622216,3,1,0,1
61868000,61788000,61788000,0,0.0,0.0,100.0,100.0,-2.8644633,7.9500675,108.20951,107.98144,0.008425169,0.06503543,3,1,0,1
62076000,61996000,61996000,0,0.0,0.0,100.0,100.0,-2.9040937,7.7763915,108.18385,107.971954,0.008661963,0.062230423,3,1,0,1
62284000,62204000,62204000,0,0.0,0.0,100.0,100.0,-2.9728305,7.680963,108.15805,107.96101,0.00907902,0.06071862,3,1,0,1
62492000,62412000,62412000,0,0.0,0.0,100.0,100.0,-2.996875,7.4931064,108.13137,107.950264,0.009228754,0.057790652,3,1,0,1
62700000,62620000,62620000,0,0.0,0.0,100.0,100.0,-3.013948,7.3524275,108.103455,107.936226,0.009336614,0.055648282,3,1,0,1
62908000,62828000,62828000,0,0.0,0.0,100.0,100.0,-2.9680023,7.144767,108.075386,107.92044,0.009056475,0.05255692,3,1,0,1
63116000,63036000,63036000,0,0.0,0.0,100.0,100.0,-2.9058297,6.974552,108.04737,107.90183,0.008683275,0.05009119,3,1,0,1
63324000,63244000,63244000,0,0.0,0.0,100.0,100.0,-2.8157318,6.7723346,108.02013,107.88242,0.008155214,0.047237143,3,1,0,1
63532000,63452000,63452000,0,0.0,0.0,100.0,100.0,-2.879329,6.6672354,108.00137,107.873375,0.008529249,0.04578622,3,1,0,1
63740000,63660000,63660000,0,0.0,0.0,100.0,100.0,-2.9270391,6.534359,107.98319,107.86501,0.008815732,0.0439828,3,1,0,1
63948000,63868000,63868000,0,0.0,0.0,100.0,100.0,-2.9819813,6.4244127,107.965225,107.85627,0.0091513125,0.0425186,3,1,0,1
64156000,64076000,64076000,0,0.0,0.0,100.0,100.0,-3.0219457,6.2951393,107.947655,107.84787,0.009399779,0.04082786,3,1,0,1
64364000,64284000,64284000,0,0.0,0.0,100.0,100.0,-3.0673697,6.182927,107.93025,107.839134,0.009686047,0.039388493,3,1,0,1
64572000,64492000,64492000,0,0.0,0.0,100.0,100.0,-3.1001103,6.0576367,107.91325,107.830696,0.009895482,0.037811294,3,1,0,1
64780000,64700000,64700000,0,0.0,0.0,100.0,100.0,-3.1364,5.9446516,107.89641,107.821976,0.010130092,0.036416903,3,1,0,1
64988000,64908000,64908000,0,0.0,0.0,100.0,100.0,-3.161425,5.823582,107.8801,107.813545,0.0102939475,0.0349514,3,1,0,1
65196000,65116000,65116000,0,0.0,0.0,100.0,100.0,-3.1875138,5.7136245,107.86423,107.80498,0.010466083,0.033646666,3,1,0,1
65404000,65324000,65324000,0,0.0,0.0,100.0,100.0,-3.206695,5.594904,107.848114,107.79639,0.010594007,0.03226551,3,1,0,1
65612000,65532000,65532000,0,0.0,0.0,100.0,100.0,-3.2267346,5.4806604,107.83186,107.78739,0.010728448,0.030963875,3,1,0,1
65820000,65740000,65740000,0,0.0,0.0,100.0,100.0,-3.2390473,5.366774,107.816376,107.778534,0.010812032,0.029692845,3,1,0,1
66028000,65948000,65948000,0,0.0,0.0,100.0,100.0,-3.2498627,5.257072,107.80138,107.76993,0.010885871,0.02849363,3,1,0,1
66236000,66156000,66156000,0,0.0,0.0,100.0,100.0,-3.2538927,5.145233,107.78645,107.76103,0.010914397,0.027296431,3,1,0,1
66444000,66364000,66364000,0,0.0,0.0,100.0,100.0,-3.2567732,5.0372066,107.771965,107.75235,0.0109352,0.026164372,3,1,0,1
66652000,66572000,66572000,0,0.0,0.0,100.0,100.0,-3.2551334,4.928719,107.757545,107.743454,0.010925652,0.025051557,3,1,0,1
66860000,66780000,66780000,0,0.0,0.0,100.0,100.0,-3.252203,4.8235917,107.743546,107.73474,0.010907407,0.023996217,3,1,0,1
67068000,66988000,66988000,0,0.0,0.0,100.0,100.0,-3.2436523,4.7165103,107.72963,107.72582,0.0108515285,0.022944534,3,1,0,1
67276000,67196000,67196000,0,0.0,0.0,100.0,100.0,-3.23682,4.6157756,107.71615,107.7171,0.010807215,0.021976685,3,1,0,1
67484000,67404000,67404000,0,0.0,0.0,100.0,100.0,-3.2200272,4.5083256,107.70273,107.70812,0.010696701,0.020967158,3,1,0,1
67692000,67612000,67612000,0,0.0,0.0,100.0,100.0,-3.2077892,4.409824,107.68977,107.69939,0.010616825,0.020062579,3,1,0,1
67900000,67820000,67820000,0,0.0,0.0,100.0,100.0,-3.1854153,4.303849,107.67692,107.69045,0.01047049,0.019111484,3,1,0,1
68108000,68028000,68028000,0,0.0,0.0,100.0,100.0,-3.1686954,4.2075276,107.66454,107.68178,0.010362053,0.018267084,3,1,0,1
68316000,68236000,68236000,0,0.0,0.0,100.0,100.0,-3.141345,4.102779,107.65227,107.67291,0.010185107,0.017370297,3,1,0,1
68524000,68444000,68444000,0,0.0,0.0,100.0,100.0,-3.1201866,4.0078073,107.64046,107.66432,0.010049469,0.016576748,3,1,0,1
68732000,68652000,68652000,0,0.0,0.0,100.0,100.0,-3.0892422,3.9051576,107.628815,107.65559,0.009852192,0.015739758,3,1,0,1
68940000,68860000,68860000,0,0.0,0.0,100.0,100.0,-3.0645301,3.8128154,107.61768,107.647125,0.009696202,0.015005367,3,1,0,1
69148000,69068000,69068000,0,0.0,0.0,100.0,100.0,-3.030139,3.7130442,107.606766,107.63854,0.009480757,0.014231475,3,1,0,1
69356000,69276000,69276000,0,0.0,0.0,100.0,100.0,-3.0015724,3.6232257,107.59636,107.63022,0.009303739,0.013552332,3,1,0,1
69564000,69484000,69484000,0,0.0,0.0,100.0,100.0,-2.9639146,3.5263371,107.58619,107.62181,0.009072612,0.012838221,3,1,0,1
69772000,69692000,69692000,0,0.0,0.0,100.0,100.0,-2.9311848,3.43839,107.576515,107.61365,0.008874143,0.01220676,3,1,0,1
69980000,69900000,69900000,0,0.0,0.0,100.0,100.0,-2.8898847,3.3444567,107.56713,107.605415,0.008626586,0.011549802,3,1,0,1
70188000,70108000,70108000,0,0.0,0.0,100.0,100.0,-2.851685,3.2582262,107.558235,107.597374,0.008400729,0.010962718,3,1,0,1
70396000,70316000,70316000,0,0.0,0.0,100.0,100.0,-2.8078933,3.1686082,107.54966,107.58934,0.008145347,0.010368724,3,1,0,1
70604000,70524000,70524000,0,0.0,0.0,100.0,100.0,-2.7660656,3.0847793,107.54156,107.58152,0.007905077,0.009828065,3,1,0,1
70812000,70732000,70732000,0,0.0,0.0,100.0,100.0,-2.718952,2.9977887,107.53378,107.57374,0.0076386323,0.00928225,3,1,0,1
71020000,70940000,70940000,0,0.0,0.0,100.0,100.0,-2.670999,2.9121315,107.52642,107.56613,0.007372075,0.008759996,3,1,0,1
71228000,71148000,71148000,0,0.0,0.0,100.0,100.0,-2.624652,2.8314278,107.51951,107.55877,0.0071189124,0.00828176,3,1,0,1
71436000,71356000,71356000,0,0.0,0.0,100.0,100.0,-2.5744622,2.7488682,107.51297,107.55152,0.0068496703,0.0078063635,3,1,0,1
71644000,71564000,71564000,0,0.0,0.0,100.0,100.0,-2.5248601,2.6706204,107.50688,107.54449,0.0065886416,0.0073687476,3,1,0,1
71852000,71772000,71772000,0,0.0,0.0,100.0,100.0,-2.4721172,2.5915315,107.50118,107.5376,0.0063165855,0.006939212,3,1,0,1
72060000,71980000,71980000,0,0.0,0.0,100.0,100.0,-2.4194543,2.5161567,107.49591,107.53093,0.006050627,0.006541833,3,1,0,1
72268000,72188000,72188000,0,0.0,0.0,100.0,100.0,-2.364111,2.4407027,107.491035,107.52443,0.0057772473,0.0061557377,3,1,0,1
72476000,72396000,72396000,0,0.0,0.0,100.0,100.0,-2.308507,2.368408,107.48658,107.51819,0.0055089095,0.0057968036,3,1,0,1
72684000,72604000,72604000,0,0.0,0.0,100.0,100.0,-2.2509482,2.2959387,107.48251,107.51217,0.005237821,0.0054477914,3,1,0,1
72892000,72812000,72812000,0,0.0,0.0,100.0,100.0,-2.1930213,2.2261174,107.47884,107.506424,0.0049718753,0.0051217596,3,1,0,1
73100000,73020000,73020000,0,0.0,0.0,100.0,100.0,-2.1336045,2.1563246,107.47556,107.50093,0.004706257,0.004805887,3,1,0,1
73308000,73228000,73228000,0,0.0,0.0,100.0,100.0,-2.0735803,2.089273,107.472664,107.49573,0.004445301,0.004511871,3,1,0,1
73516000,73436000,73436000,0,0.0,0.0,100.0,100.0,-2.0123801,2.0231926,107.470146,107.49081,0.004186872,0.0042311717,3,1,0,1
73724000,73644000,73644000,0,0.0,0.0,100.0,100.0,-1.9504155,1.9592055,107.46799,107.486176,0.0039330786,0.0039679375,3,1,0,1
73932000,73852000,73852000,0,0.0,0.0,100.0,100.0,-1.887765,1.8961052,107.46619,107.48186,0.0036845251,0.0037166115,3,1,0,1
74140000,74060000,74060000,0,0.0,0.0,100.0,100.0,-1.8242896,1.8348798,107.464714,107.47784,0.0034409564,0.0034805972,3,1,0,1
74348000,74268000,74268000,0,0.0,0.0,100.0,100.0,-1.7601646,1.7750225,107.46358,107.474144,0.0032033382,0.003257326,3,1,0,1
74556000,74476000,74476000,0,0.0,0.0,100.0,100.0,-1.6954516,1.7169867,107.46277,107.47079,0.002972147,0.0030479012,3,1,0,1
74764000,74684000,74684000,0,0.0,0.0,100.0,100.0,-1.6303263,1.6606364,107.46225,107.46775,0.0027482144,0.002851205,3,1,0,1
74972000,74892000,74892000,0,0.0,0.0,100.0,100.0,-1.5647552,1.6062264,107.46201,107.46505,0.0025316013,0.0026674962,3,1,0,1
75180000,75100000,75100000,0,0.0,0.0,100.0,100.0,-1.4990027,1.5531198,107.462036,107.46268,0.0023233104,0.0024940765,3,1,0,1
75388000,75308000,75308000,0,0.0,0.0,100.0,100.0,-1.4328369,1.5016006,107.4623,107.460625,0.0021227307,0.002331401,3,1,0,1
75596000,75516000,75516000,0,0.0,0.0,100.0,100.0,-1.3663698,1.4514112,107.46278,107.4589,0.0019303495,0.0021781914,3,1,0,1
75804000,75724000,75724000,0,0.0,0.0,100.0,100.0,-1.2992378,1.4021531,107.463486,107.4575,0.0017453153,0.0020328797,3,1,0,1
76012000,75932000,75932000,0,0.0,0.0,100.0,100.0,-1.2320486,1.3539349,107.46441,107.45641,0.0015694539,0.0018954865,3,1,0,1
76220000,76140000,76140000,0,0.0,0.0,100.0,100.0,-1.1641905,1.3067082,107.46551,107.45566,0.0014013174,0.001765572,3,1,0,1
76428000,76348000,76348000,0,0.0,0.0,100.0,100.0,-1.0963076,1.2602426,107.46681,107.45523,0.0012426478,0.0016422461,3,1,0,1
76636000,76556000,76556000,0,0.0,0.0,100.0,100.0,-1.0275885,1.2142886,107.46827,107.45512,0.0010917311,0.0015246643,3,1,0,1
76844000,76764000,76764000,0,0.0,0.0,100.0,100.0,-0.95911604,1.1691835,107.46991,107.45532,0.0009510709,0.0014134971,3,1,0,1
77052000,76972000,76972000,0,0.0,0.0,100.0,100.0,-0.88976306,1.1245421,107.47168,107.45584,0.0008184878,0.0013076122,3,1,0,1
77260000,77180000,77180000,0,0.0,0.0,100.0,100.0,-0.8204079,1.0806645,107.47361,107.45668,0.00069584954,0.001207552,3,1,0,1
77468000,77388000,77388000,0,0.0,0.0,100.0,100.0,-0.7502769,1.037264,107.475655,107.45784,0.0005819565,0.0011124947,3,1,0,1
77676000,77596000,77596000,0,0.0,0.0,100.0,100.0,-0.680309,0.99453366,107.477844,107.45931,0.00047846587,0.0010227098,3,1,0,1
77884000,77804000,77804000,0,0.0,0.0,100.0,100.0,-0.6093284,0.9519824,107.480125,107.46109,0.00038382402,0.0009370528,3,1,0,1
78092000,78012000,78012000,0,0.0,0.0,100.0,100.0,-0.5389866,0.91006994,107.482544,107.46318,0.00030031396,0.00085634214,3,1,0,1
78300000,78220000,78220000,0,0.0,0.0,100.0,100.0,-0.46764153,0.8684372,107.485016,107.46556,0.00022606626,0.00077976723,3,1,0,1
78508000,78428000,78428000,0,0.0,0.0,100.0,100.0,-0.39737558,0.8275351,107.487595,107.468216,0.00016323056,0.0007080278,3,1,0,1
78716000,78636000,78636000,0,0.0,0.0,100.0,100.0,-0.32657325,0.7864861,107.49021,107.47112,0.00011024269,0.0006395107,3,1,0,1
78924000,78844000,78844000,0,0.0,0.0,100.0,100.0,-0.25710788,0.74599534,107.492935,107.47429,6.832952e-05,0.00057534076,3,1,0,1
79132000,79052000,79052000,0,0.0,0.0,100.0,100.0,-0.1868824,0.7055872,107.49566,107.47769,3.6099682e-05,0.0005146839,3,1,0,1
79340000,79260000,79260000,0,0.0,0.0,100.0,100.0,-0.11838078,0.6658283,107.498474,107.481316,1.4484969e-05,0.0004582991,3,1,0,1
79548000,79468000,79468000,0,0.0,0.0,100.0,100.0,-0.04949166,0.62602663,107.50129,107.48515,2.5316742e-06,0.00040513018,3,1,0,1
79756000,79676000,79676000,0,0.0,0.0,100.0,100.0,0.017329294,0.5868068,107.5042,107.4892,3.1038005e-07,0.00035594503,3,1,0,1
79964000,79884000,79884000,0,0.0,0.0,100.0,100.0,0.08438057,0.5479081,107.50708,107.493416,7.3587717e-06,0.00031030667,3,1,0,1
80172000,80092000,80092000,0,0.0,0.0,100.0,100.0,0.15076438,0.5041973,107.510216,107.49775,2.3491202e-05,0.00026275995,3,1,0,1
80380000,80300000,80300000,0,0.0,0.0,100.0,100.0,0.23020272,0.4116158,107.51568,107.501945,5.476544e-05,0.00017511575,3,1,0,1
80588000,80508000,80508000,0,0.0,0.0,100.0,100.0,0.32107842,0.2668823,107.52432,107.506065,0.00010653027,7.3614625e-05,3,1,0,1
80796000,80716000,80716000,0,0.0,0.0,100.0,100.0,0.42333803,0.075472,107.536545,107.51022,0.00018517228,5.886802e-06,3,1,0,1
81004000,80924000,80924000,0,0.0,0.0,100.0,100.0,0.53448874,-0.15506464,107.55296,107.51458,0.00029512923,2.4849387e-05,3,1,0,1
81212000,81132000,81132000,0,0.0,0.0,100.0,100.0,0.65548134,-0.40924814,107.57403,107.52019,0.00044378306,0.00017307761,3,1,0,1
81420000,81340000,81340000,0,0.0,0.0,100.0,100.0,0.79900134,-0.66712123,107.59874,107.5282,0.0006592427,0.00045988013,3,1,0,1
81628000,81548000,81548000,0,0.0,0.0,100.0,100.0,1.0006157,-0.8911484,107.6217,107.54193,0.0010336947,0.0008205021,3,1,0,1
81836000,81756000,81756000,0,0.0,0.0,100.0,100.0,1.1722226,-1.0065112,107.633385,107.55451,0.0014185044,0.0010465648,3,1,0,1
82044000,81964000,81964000,0,0.0,0.0,100.0,100.0,1.2273695,-1.069577,107.63663,107.55636,0.0015550634,0.0011818041,3,1,0,1
82252000,82172000,82172000,0,0.0,0.0,100.0,100.0,1.2080623,-1.0259382,107.627235,107.55198,0.0015066555,0.0010873802,3,1,0,1
82460000,82380000,82380000,0,0.0,0.0,100.0,100.0,1.1494806,-0.9947982,107.6139,107.54026,0.0013642451,0.0010224837,3,1,0,1
82668000,82588000,82588000,0,0.0,0.0,100.0,100.0,1.1537925,-1.0782379,107.6088,107.52599,0.0013745644,0.0012013601,3,1,0,1
82876000,82796000,82796000,0,0.0,0.0,100.0,100.0,1.1675309,-1.2062665,107.60919,107.512985,0.0014074886,0.001503776,3,1,0,1
83084000,83004000,83004000,0,0.0,0.0,100.0,100.0,1.1712035,-1.2835069,107.61186,107.49976,0.0014163221,0.0017027323,3,1,0,1
83292000,83212000,83212000,0,0.0,0.0,100.0,100.0,1.1688786,-1.418118,107.61754,107.48688,0.0014106303,0.0020788673,3,1,0,1
83500000,83420000,83420000,0,0.0,0.0,100.0,100.0,1.207099,-1.4658622,107.62678,107.47278,0.00150426,0.002221495,3,1,0,1
83708000,83628000,83628000,0,0.0,0.0,100.0,100.0,1.2008245,-1.6278676,107.64074,107.45908,0.0014884694,0.0027400122,3,1,0,1
83916000,83836000,83836000,0,0.0,0.0,100.0,100.0,1.3462334,-1.6373684,107.65876,107.443054,0.0018704617,0.0027725026,3,1,0,1
84124000,84044000,84044000,0,0.0,0.0,100.0,100.0,1.3602998,-1.8414825,107.68603,107.43018,0.0019092703,0.0035072472,3,1,0,1
84332000,84252000,84252000,0,0.0,0.0,100.0,100.0,1.7351301,-1.7940104,107.71918,107.41786,0.0031054786,0.0033291313,3,1,0,1
84540000,84460000,84460000,0,0.0,0.0,100.0,100.0,1.812491,-2.0499542,107.77166,107.41594,0.0033869178,0.004346874,3,1,0,1
84748000,84668000,84668000,0,0.0,0.0,100.0,100.0,1.8340391,-2.3826146,107.843636,107.42362,0.0034656138,0.005871719,3,1,0,1
84956000,84876000,84876000,0,0.0,0.0,100.0,100.0,1.7988057,-2.7798142,107.93733,107.44191,0.0033308445,0.007991262,3,1,0,1
85164000,85084000,85084000,0,0.0,0.0,100.0,100.0,1.7686692,-3.2023067,108.05229,107.470985,0.003216746,0.010602105,3,1,0,1
85372000,85292000,85292000,0,0.0,0.0,100.0,100.0,1.6877507,-3.667002,108.18847,107.511246,0.0029254528,0.0138971545,3,1,0,1
85580000,85500000,85500000,0,0.0,0.0,100.0,100.0,1.6759365,-4.1256022,108.34047,107.56226,0.0028805928,0.017582161,3,1,0,1
85788000,85708000,85708000,0,0.0,0.0,100.0,100.0,1.5525693,-4.632464,108.51288,107.62465,0.0024681878,0.022154903,3,1,0,1
85996000,85916000,85916000,0,0.0,0.0,100.0,100.0,1.6401739,-5.085865,108.6775,107.696014,0.0027504114,0.026686246,3,1,0,1
86204000,86124000,86124000,0,0.0,0.0,100.0,100.0,1.4756298,-5.606344,108.868164,107.778725,0.0022223447,0.032402907,3,1,0,1
86412000,86332000,86332000,0,0.0,0.0,100.0,100.0,1.7391092,-6.0200863,109.008125,107.86787,0.0030828493,0.037331104,3,1,0,1
86620000,86540000,86540000,0,0.0,0.0,100.0,100.0,2.1580942,-6.4005275,109.11604,107.9648,0.0047425255,0.042160604,3,1,0,1
86828000,86748000,86748000,0,0.0,0.0,100.0,100.0,1.9219478,-6.8876486,109.292595,108.07201,0.0037553457,0.04877376,3,1,0,1
87036000,86956000,86956000,0,0.0,0.0,100.0,100.0,2.380058,-7.224499,109.35955,108.18235,0.0057554045,0.05360639,3,1,0,1
87244000,87164000,87164000,0,0.0,0.0,100.0,100.0,2.1735299,-7.627168,109.520615,108.29996,0.0047928393,0.059683718,3,1,0,1
87452000,87372000,87372000,0,0.0,0.0,100.0,100.0,2.533619,-7.9045143,109.545975,108.41847,0.0065109394,0.064033106,3,1,0,1
87660000,87580000,87580000,0,0.0,0.0,100.0,100.0,2.2936583,-8.199857,109.674805,108.540535,0.0053297644,0.06883004,3,1,0,1
87868000,87788000,87788000,0,0.0,0.0,100.0,100.0,2.562869,-8.378578,109.66833,108.66156,0.0066547096,0.071783096,3,1,0,1
88076000,87996000,87996000,0,0.0,0.0,100.0,100.0,2.247747,-8.54245,109.753555,108.782486,0.00511486,0.07453554,3,1,0,1
88284000,88204000,88204000,0,0.0,0.0,100.0,100.0,2.4597778,-8.593777,109.733246,108.900604,0.00612648,0.075352095,3,1,0,1
88492000,88412000,88412000,0,0.0,0.0,100.0,100.0,2.1696594,-8.602257,109.796295,109.01573,0.0047637937,0.07542115,3,1,0,1
88700000,88620000,88620000,0,0.0,0.0,100.0,100.0,2.2132585,-8.517973,109.75098,109.12631,0.00495922,0.07387551,3,1,0,1
88908000,88828000,88828000,0,0.0,0.0,100.0,100.0,1.8993382,-8.368458,109.788895,109.23187,0.0036509316,0.0712359,3,1,0,1
89116000,89036000,89036000,0,0.0,0.0,100.0,100.0,1.8359299,-8.137928,109.74255,109.331635,0.0034126726,0.06730376,3,1,0,1
89324000,89244000,89244000,0,0.0,0.0,100.0,100.0,1.4743984,-7.8333955,109.7579,109.425125,0.0022006521,0.06230753,3,1,0,1
89532000,89452000,89452000,0,0.0,0.0,100.0,100.0,1.3648479,-7.461582,109.724495,109.51198,0.0018863506,0.0564882,3,1,0,1
89740000,89660000,89660000,0,0.0,0.0,100.0,100.0,1.0540916,-7.017908,109.7358,109.59204,0.0011250345,0.04993371,3,1,0,1
89948000,89868000,89868000,0,0.0,0.0,100.0,100.0,0.8500634,-6.5189924,109.708176,109.66509,0.00073184835,0.04305762,3,1,0,1
90156000,90076000,90076000,0,0.0,0.0,100.0,100.0,0.5543307,-5.9633117,109.71537,109.7314,0.00031119163,0.036008213,3,1,0,1
90364000,90284000,90284000,0,0.0,0.0,100.0,100.0,0.3369815,-5.416444,109.70235,109.79018,0.000115014795,0.029690841,3,1,0,1
90572000,90492000,90492000,0,0.0,0.0,100.0,100.0,0.08603907,-4.8815,109.7136,109.84216,7.4970153e-06,0.024104325,3,1,0,1
90780000,90700000,90700000,0,0.0,0.0,100.0,100.0,-0.11115119,-4.37193,109.71292,109.88714,1.2512034e-05,0.019326672,3,1,0,1
90988000,90908000,90908000,0,0.0,0.0,100.0,100.0,-0.32372367,-3.877613,109.72554,109.92627,0.00010612036,0.015197948,3,1,0,1
91196000,91116000,91116000,0,0.0,0.0,100.0,100.0,-0.48631197,-3.412874,109.73085,109.959335,0.00023947418,0.011769713,3,1,0,1
91404000,91324000,91324000,0,0.0,0.0,100.0,100.0,-0.6317935,-2.9727714,109.73847,109.98727,0.00040415587,0.00892767,3,1,0,1
91612000,91532000,91532000,0,0.0,0.0,100.0,100.0,-0.8005777,-2.54601,109.74974,110.01081,0.00064887485,0.0065470003,3,1,0,1
91820000,91740000,91740000,0,0.0,0.0,100.0,100.0,-0.92612815,-2.151774,109.75739,110.029945,0.0008682922,0.004675627,3,1,0,1
92028000,91948000,91948000,0,0.0,0.0,100.0,100.0,-1.0701563,-1.7708898,109.76631,110.04566,0.0011592654,0.0031664134,3,1,0,1
92236000,92156000,92156000,0,0.0,0.0,100.0,100.0,-1.1803983,-1.4226676,109.77289,110.05799,0.0014103262,0.0020433504,3,1,0,1
92444000,92364000,92364000,0,0.0,0.0,100.0,100.0,-1.304747,-1.0869979,109.77962,110.067795,0.0017230123,0.0011927641,3,1,0,1
92652000,92572000,92572000,0,0.0,0.0,100.0,100.0,-1.402441,-0.78313065,109.78484,110.07515,0.0019906014,0.00061906554,3,1,0,1
92860000,92780000,92780000,0,0.0,0.0,100.0,100.0,-1.5102265,-0.49071455,109.7898,110.08078,0.0023082332,0.0002430546,3,1,0,1
93068000,92988000,92988000,0,0.0,0.0,100.0,100.0,-1.5991257,-0.22815353,109.79383,110.08476,0.0025878837,5.2539344e-05,3,1,0,1
93276000,93196000,93196000,0,0.0,0.0,100.0,100.0,-1.6936351,0.023654748,109.79758,110.087715,0.002902715,5.6474875e-07,3,1,0,1
93484000,93404000,93404000,0,0.0,0.0,100.0,100.0,-1.774914,0.2475432,109.80083,110.08969,0.0031879134,6.184617e-05,3,1,0,1
93692000,93612000,93612000,0,0.0,0.0,100.0,100.0,-1.8583299,0.46208784,109.80391,110.091225,0.003494502,0.00021550327,3,1,0,1
93900000,93820000,93820000,0,0.0,0.0,100.0,100.0,-1.9328392,0.65066016,109.80683,110.09233,0.0037802418,0.00042727636,3,1,0,1
94108000,94028000,94028000,0,0.0,0.0,100.0,100.0,-2.0062382,0.8304906,109.80977,110.093445,0.004072692,0.0006960901,3,1,0,1
94316000,94236000,94236000,0,0.0,0.0,100.0,100.0,-2.0739882,0.9873061,109.81278,110.09453,0.004352283,0.0009837741,3,1,0,1
94524000,94444000,94444000,0,0.0,0.0,100.0,100.0,-2.138345,1.1350012,109.815994,110.096,0.0046264455,0.0013001055,3,1,0,1
94732000,94652000,94652000,0,0.0,0.0,100.0,100.0,-2.1990862,1.2625219,109.81937,110.09766,0.004892863,0.001608634,3,1,0,1
94940000,94860000,94860000,0,0.0,0.0,100.0,100.0,-2.2551818,1.3820062,109.82118,110.09803,0.005145582,0.0019275156,3,1,0,1
95148000,95068000,95068000,0,0.0,0.0,100.0,100.0,-2.3089697,1.48331,109.81878,110.094315,0.0053940797,0.002220529,3,1,0,1
95356000,95276000,95276000,0,0.0,0.0,100.0,100.0,-2.3572094,1.5780606,109.81028,110.0849,0.005622259,0.0025134897,3,1,0,1
95564000,95484000,95484000,0,0.0,0.0,100.0,100.0,-2.404617,1.656389,109.79443,110.06841,0.0058515244,0.0027696153,3,1,0,1
95772000,95692000,95692000,0,0.0,0.0,100.0,100.0,-2.4476538,1.7282459,109.77063,110.04447,0.006064169,0.0030157845,3,1,0,1
95980000,95900000,95900000,0,0.0,0.0,100.0,100.0,-2.4924843,1.7837553,109.73858,110.0127,0.006290179,0.0032135511,3,1,0,1
96188000,96108000,96108000,0,0.0,0.0,100.0,100.0,-2.5322726,1.835769,109.69849,109.97352,0.0064949794,0.0034049086,3,1,0,1
96396000,96316000,96316000,0,0.0,0.0,100.0,100.0,-2.572803,1.8761444,109.65066,109.927124,0.006707479,0.0035578297,3,1,0,1
96604000,96524000,96524000,0,0.0,0.0,100.0,100.0,-2.609617,1.9130645,109.59577,109.87439,0.0069042617,0.0037010098,3,1,0,1
96812000,96732000,96732000,0,0.0,0.0,1e-04,1e-04,1.2458235,-1.072358,3.6948497,3.7242184,0.046673864,0.034308515,3,1,0,1
97020000,96940000,96940000,0,0.0,0.0,1e-04,1e-04,-0.0138682015,0.009395326,0.0009929397,0.0010278192,0.021521617,0.00954255,3,1,0,1
97228000,97148000,97148000,0,0.0,0.0,1e-04,1e-04,-0.008394664,-5.3676937e-05,0.0005545327,0.000566052,0.014120074,5.6555734e-07,3,1,0,1
97436000,97356000,97356000,0,0.0,0.0,1e-04,1e-04,-0.007118016,-0.00066495,0.0004984917,0.0005048786,0.011293212,9.7307995e-05,3,1,0,1
97644000,97564000,97564000,0,0.0,0.0,1e-04,1e-04,-0.0049553644,2.718702e-05,0.00048298127,0.00048541132,0.005649089,1.6918848e-07,3,1,0,1
97852000,97772000,97772000,0,0.0,0.0,1e-04,1e-04,-0.002889801,0.0010147643,0.00043062234,0.00043314838,0.0021547498,0.00026415035,3,1,0,1
98060000,97980000,97980000,0,0.0,0.0,1e-04,1e-04,-0.0015124967,0.0013469908,0.00037460585,0.00037733727,0.0006785343,0.0005342654,3,1,0,1
98268000,98188000,98188000,0,0.0,0.0,1e-04,1e-04,-0.0010639989,0.0016010043,0.00033124426,0.00033369503,0.0003797445,0.0008534788,3,1,0,1
98476000,98396000,98396000,0,0.0,0.0,1e-04,1e-04,-0.0013784477,0.0015248987,0.00030058844,0.0003025709,0.0007023698,0.00085391046,3,1,0,1
98684000,98604000,98604000,0,0.0,0.0,1e-04,1e-04,-0.0012958015,0.0014571012,0.00027948286,0.000280991,0.000667543,0.0008395461,3,1,0,1
98892000,98812000,98812000,0,0.0,0.0,1e-04,1e-04,-0.0013460944,0.0013192885,0.0002651139,0.00026620325,0.0007594095,0.0007264801,3,1,0,1
99100000,99020000,99020000,0,0.0,0.0,1e-04,1e-04,-0.0016514328,0.0014223683,0.00025541862,0.00025616164,0.001186388,0.0008775412,3,1,0,1
99308000,99228000,99228000,0,0.0,0.0,1e-04,1e-04,-0.0020222538,0.0014406347,0.00024892596,0.00024939392,0.0018254025,0.0009246543,3,1,0,1
99516000,99436000,99436000,0,0.0,0.0,1e-04,1e-04,-0.0023311775,0.0012796356,0.00024459758,0.00024485326,0.0024686297,0.00074306055,3,1,0,1
