timestamp,timestamp_sample,control_mode_flags,output_tracking_error[0],output_tracking_error[1],output_tracking_error[2],filter_fault_flags,pos_horiz_accuracy,pos_vert_accuracy,mag_test_ratio,vel_test_ratio,pos_test_ratio,hgt_test_ratio,tas_test_ratio,hagl_test_ratio,beta_test_ratio,time_slip,accel_device_id,gyro_device_id,baro_device_id,mag_device_id,gps_check_fail_flags,innovation_check_flags,solution_status_flags,reset_count_vel_ne,reset_count_vel_d,reset_count_pos_ne,reset_count_pod_d,reset_count_quat,pre_flt_fail_innov_heading,pre_flt_fail_innov_vel_horiz,pre_flt_fail_innov_vel_vert,pre_flt_fail_innov_height,pre_flt_fail_mag_field_disturbed,health_flags,timeout_flags
3228000,3148000,13488881664,0.00045885137,0.00853128,0.0004700243,0,14.166938,10.007018,nan,nan,nan,nan,0.0,0.0,0.0,0.0,1310988,1310988,0,0,0,0,128,1,1,1,1,0,0,0,0,0,0,0,0
3236000,3156000,13488881664,0.0004166993,0.0036386345,0.0010049934,0,14.1421385,10.0,nan,nan,nan,nan,0.0,0.0,0.0,0.0,1310988,1310988,0,0,0,0,128,1,1,1,1,0,0,0,0,0,0,0,0
3420000,3340000,13488881664,3.1943724e-05,0.0018870796,0.0016031092,0,0.014084185,7.0710673,nan,nan,nan,nan,0.0,0.0,0.0,0.0,1310988,1310988,0,0,0,0,128,1,1,1,1,0,0,0,0,0,0,0,0
3628000,3548000,13488881665,0.0008072066,0.018538004,0.0056348676,0,0.010399315,5.773502,nan,nan,nan,nan,0.0,0.0,0.0,0.0,1310988,1310988,0,0,0,0,128,1,1,1,1,0,0,0,0,0,0,0,0
3820000,3740000,13488881665,5.846902e-05,0.0073831533,0.004476397,0,0.0287717,5.773504,nan,nan,nan,nan,0.0,0.0,0.0,0.0,1310988,1310988,0,0,0,0,128,1,1,1,1,0,0,0,0,0,0,0,0
4028000,3948000,13488881665,0.00039848115,0.0030602391,0.0025681348,0,0.037525672,5.000019,nan,nan,nan,nan,0.0,0.0,0.0,0.0,1310988,1310988,0,0,0,0,128,1,1,1,1,0,0,0,0,0,0,0,0
4220000,4140000,13488881665,0.0003439478,0.0030066012,0.001671826,0,0.029579755,4.4721904,nan,nan,nan,nan,0.0,0.0,0.0,0.0,1310988,1310988,6620172,0,0,0,128,1,1,1,1,0,0,0,0,0,0,0,0
4428000,4348000,13488881665,0.000141396,0.0022025728,0.0011542281,0,0.026499353,4.082607,nan,nan,nan,nan,0.0,0.0,0.0,0.0,1310988,1310988,6620172,0,0,0,128,1,1,1,1,0,0,0,0,0,0,0,0
4620000,4540000,13488881665,0.00021471208,0.0018503404,0.00096637337,0,0.0234953,3.7798574,nan,nan,nan,nan,0.0,0.0,0.0,0.0,1310988,1310988,6620172,0,0,0,128,1,1,1,1,0,0,0,0,0,0,0,0
4828000,4748000,13488881665,0.00025368127,0.0019134113,0.0009714659,0,0.022528796,3.5358746,nan,nan,nan,nan,0.0,0.0,0.0,0.0,1310988,1310988,6620172,0,0,0,128,1,1,1,1,0,0,0,0,0,0,0,0
5028000,4948000,4898947585,0.0003074335,0.00255574,0.0039194115,0,0.021020014,1.7545089,nan,nan,nan,0.0017685171,0.0,0.0,0.0,0.0,1310988,1310988,6620172,0,0,0,164,1,1,1,1,0,0,0,0,0,0,0,0
5220000,5140000,4898947585,0.00023914887,0.0025746294,0.014932,0,0.019159399,1.3249863,nan,nan,nan,0.0017058764,0.0,0.0,0.0,0.0,1310988,1310988,6620172,0,0,0,164,1,1,1,1,0,0,0,0,0,0,0,0
5420000,5340000,4898947585,0.00017119627,0.0018836071,0.0022406064,0,0.018037928,1.0566183,nan,nan,nan,0.0015656037,0.0,0.0,0.0,0.0,1310988,1310988,6620172,0,0,0,164,1,1,1,1,0,0,0,0,0,0,0,0
5628000,5548000,4898947585,7.671785e-05,0.0007340783,0.008028594,0,0.017497472,0.93676597,nan,nan,nan,0.0075314795,0.0,0.0,0.0,0.0,1310988,1310988,6620172,0,0,0,164,1,1,1,1,0,0,0,0,0,0,0,0
5828000,5748000,4898947585,0.00011290884,0.0012859827,0.0007499515,0,0.016659683,0.8504395,nan,nan,nan,0.0039780405,0.0,0.0,0.0,0.0,1310988,1310988,6620172,0,0,0,164,1,1,1,1,0,0,0,0,0,0,0,0
6020000,5940000,4898947585,7.043092e-05,0.0014455153,0.0012177733,0,0.01559867,0.7655027,nan,nan,nan,0.0002701031,0.0,0.0,0.0,0.0,1310988,1310988,6620172,0,0,0,164,1,1,1,1,0,0,0,0,0,0,0,0
6228000,6148000,4898947585,4.9468566e-05,0.0012313083,0.0010067641,0,0.015337325,0.71667206,nan,nan,nan,0.002370557,0.0,0.0,0.0,0.0,1310988,1310988,6620172,0,0,0,164,1,1,1,1,0,0,0,0,0,0,0,0
6428000,6348000,4898947585,1.5829622e-05,0.0012448737,0.0007922265,0,0.0148026915,0.66406596,nan,nan,nan,0.0014757465,0.0,0.0,0.0,0.0,1310988,1310988,6620172,0,0,0,164,1,1,1,1,0,0,0,0,0,0,0,0
6628000,6548000,4898947585,0.0001146032,0.0021479125,0.001721955,0,0.01432833,0.63184017,nan,nan,nan,0.0010400577,0.0,0.0,0.0,0.0,1310988,1310988,6620172,0,0,0,164,1,1,1,1,0,0,0,0,0,0,0,0
6820000,6740000,4898947585,0.0001505822,0.0028396398,0.0027151722,0,0.013623158,0.6040409,nan,nan,nan,0.0013335763,0.0,0.0,0.0,0.0,1310988,1310988,6620172,0,0,0,164,1,1,1,1,0,0,0,0,0,0,0,0
7028000,6948000,4898947585,0.00015295293,0.0031355198,0.0021709697,0,0.013515084,0.5721554,nan,nan,nan,0.004120656,0.0,0.0,0.0,0.0,1310988,1310988,6620172,0,0,0,164,1,1,1,1,0,0,0,0,0,0,0,0
7220000,7140000,4898947585,0.00020927013,0.0035612937,0.0022224353,0,0.012903528,0.55162954,nan,nan,nan,0.0029083998,0.0,0.0,0.0,0.0,1310988,1310988,6620172,0,0,0,164,1,1,1,1,0,0,0,0,0,0,0,0
7420000,7340000,4898947585,0.0002597053,0.0040710852,0.0022052082,0,0.012584709,0.5334188,nan,nan,nan,6.0515253e-05,0.0,0.0,0.0,0.0,1310988,1310988,6620172,0,0,0,164,1,1,1,1,0,0,0,0,0,0,0,0
7620000,7540000,4898947585,0.00024572574,0.0042723613,0.003760929,0,0.012287206,0.5115356,nan,nan,nan,0.0010841606,0.0,0.0,0.0,0.0,1310988,1310988,6620172,0,0,0,164,1,1,1,1,0,0,0,0,0,0,0,0
7820000,7740000,4898947585,0.00017718092,0.0037242786,0.0037994403,0,0.012008446,0.49726114,nan,nan,nan,0.0019477773,0.0,0.0,0.0,0.0,1310988,1310988,6620172,0,0,0,164,1,1,1,1,0,0,0,0,0,0,0,0
8028000,7948000,4898947585,0.00012157523,0.0028529621,0.002672429,0,0.011966203,0.48439038,nan,nan,nan,0.004939173,0.0,0.0,0.0,0.0,1310988,1310988,6620172,0,0,0,164,1,1,1,1,0,0,0,0,0,0,0,0
8220000,8140000,4898947585,7.274738e-05,0.0023033149,0.003322331,0,0.011549006,0.4693631,nan,nan,nan,0.0007184285,0.0,0.0,0.0,0.0,1310988,1310988,6620172,0,0,0,164,1,1,1,1,0,0,0,0,0,0,0,0
8428000,8348000,4898947585,7.873102e-05,0.0020079426,0.0036729155,0,0.011517757,0.45899326,nan,nan,nan,0.0015917585,0.0,0.0,0.0,0.0,1310988,1310988,6620172,0,0,0,164,1,1,1,1,0,0,0,0,0,0,0,0
8620000,8540000,4898949633,6.879688e-05,0.0018776748,0.003400161,0,0.011081516,1.0000001,nan,nan,nan,0.0015347183,0.0,0.0,0.0,0.0,1310988,1310988,6620172,0,0,0,164,1,1,1,2,0,0,0,0,0,0,0,0
8828000,8748000,4898949633,5.8442558e-05,0.0016137562,0.002387579,0,0.011058618,0.86837196,nan,nan,nan,0.0013533835,0.0,0.0,0.0,0.0,1310988,1310988,6620172,0,0,0,164,1,1,1,2,0,0,0,0,0,0,0,0
9028000,8948000,4898949633,3.7014554e-05,0.001486659,0.004115784,0,0.01734487,0.62381876,nan,nan,nan,0.0007890448,0.0,0.0,0.0,0.0,1310988,1310988,6620172,0,0,0,164,1,1,1,2,0,0,0,0,0,0,0,0
9228000,9148000,4898949633,4.5199933e-05,0.0013460425,0.0035726132,0,0.01696618,0.58805716,nan,nan,nan,0.0020258802,0.0,0.0,0.0,0.0,1310988,1310988,6620172,0,0,0,164,1,1,1,2,0,0,0,0,0,0,0,0
9428000,9348000,4898949633,5.747386e-05,0.0013092849,0.0005295784,0,0.016604092,0.49214026,nan,nan,nan,0.001634731,0.0,0.0,0.0,0.0,1310988,1310988,6620172,0,0,0,164,1,1,1,2,0,0,0,0,0,0,0,0
9620000,9540000,4898949633,6.376928e-05,0.0014147002,0.0019006293,0,0.015969863,0.47895807,nan,nan,nan,0.0023348518,0.0,0.0,0.0,0.0,1310988,1310988,6620172,0,0,0,164,1,1,1,2,0,0,0,0,0,0,0,0
9828000,9748000,4898949633,5.925692e-05,0.0014595476,0.002478442,0,0.015920727,0.42021835,nan,nan,nan,0.0010037546,0.0,0.0,0.0,0.0,1310988,1310988,6620172,0,0,0,164,1,1,1,2,0,0,0,0,0,0,0,0
10020000,9940000,4898949633,7.652911e-05,0.001606558,0.0016807732,0,0.015323216,0.41254777,nan,nan,nan,0.002108617,0.0,0.0,0.0,0.0,1310988,1310988,6620172,0,0,0,164,1,1,1,2,0,0,0,0,0,0,0,0
10220000,10140000,4898949633,6.31239e-05,0.0015535261,0.0010320963,0,0.015016381,0.37587115,nan,nan,nan,0.0008309388,0.0,0.0,0.0,0.0,1310988,1310988,6620172,0,0,0,164,1,1,1,2,0,0,0,0,0,0,0,0
10420000,10340000,4898949633,5.327924e-05,0.001370488,0.0011343556,0,0.014720119,0.3689993,nan,nan,nan,0.0006158167,0.0,0.0,0.0,0.0,1310988,1310988,6620172,0,0,0,164,1,1,1,2,0,0,0,0,0,0,0,0
10628000,10548000,4898949633,4.8728696e-05,0.0015450214,0.0018250562,0,0.014690378,0.34270963,nan,nan,nan,0.00031547926,0.0,0.0,0.0,0.0,1310988,1310988,6620172,0,0,0,164,1,1,1,2,0,0,0,0,0,0,0,0
10828000,10748000,4898949633,5.9205235e-05,0.0019303724,0.0012000422,0,0.014406447,0.3381298,nan,nan,nan,0.0007370105,0.0,0.0,0.0,0.0,1310988,1310988,6620172,0,0,0,164,1,1,1,2,0,0,0,0,0,0,0,0
11028000,10948000,4898949633,5.9168455e-05,0.002356574,0.002522478,0,0.014130451,0.31806225,nan,nan,nan,0.002083043,0.0,0.0,0.0,0.0,1310988,1310988,6620172,0,0,0,164,1,1,1,2,0,0,0,0,0,0,0,0
11228000,11148000,4898949633,7.1765025e-05,0.002704857,0.0029786914,0,0.013862321,0.3162674,nan,nan,nan,0.0011550884,0.0,0.0,0.0,0.0,1310988,1310988,6620172,0,0,0,164,1,1,1,2,0,0,0,0,0,0,0,0
11428000,11348000,4898949633,8.290482e-05,0.0030147238,0.0038104916,0,0.013601748,0.2990917,nan,nan,nan,0.004378432,0.0,0.0,0.0,0.0,1310988,1310988,6620172,0,0,0,164,1,1,1,2,0,0,0,0,0,0,0,0
11628000,11548000,4898949633,9.193889e-05,0.0033135726,0.003425065,0,0.013348113,0.29814938,nan,nan,nan,0.00202281,0.0,0.0,0.0,0.0,1310988,1310988,6620172,0,0,0,164,1,1,1,2,0,0,0,0,0,0,0,0
11828000,11748000,4898949633,0.00010262549,0.0036057725,0.005042292,0,0.013101446,0.28502885,nan,nan,nan,0.0024697687,0.0,0.0,0.0,0.0,1310988,1310988,6620172,0,0,0,164,1,1,1,2,0,0,0,0,0,0,0,0
12028000,11948000,4898949633,0.00010614791,0.0034052036,0.0036609324,0,0.012861754,0.28378227,nan,nan,nan,0.0030298287,0.0,0.0,0.0,0.0,1310988,1310988,6620172,0,0,0,164,1,1,1,2,0,0,0,0,0,0,0,0
12220000,12140000,4898949633,9.610007e-05,0.003251942,0.004154941,0,0.012410729,0.27268618,nan,nan,nan,0.0027141501,0.0,0.0,0.0,0.0,1310988,1310988,6620172,0,0,0,164,1,1,1,2,0,0,0,0,0,0,0,0
12428000,12348000,4898949633,9.040707e-05,0.002872425,0.0037439466,0,0.012400688,0.27219886,nan,nan,nan,0.0020733865,0.0,0.0,0.0,0.0,1310988,1310988,6620172,0,0,0,164,1,1,1,2,0,0,0,0,0,0,0,0
12628000,12548000,4898949633,6.7785026e-05,0.0025758937,0.0040206816,0,0.012178755,0.26287928,nan,nan,nan,0.0009905392,0.0,0.0,0.0,0.0,1310988,1310988,6620172,0,0,0,164,1,1,1,2,0,0,0,0,0,0,0,0
12828000,12748000,4898949633,6.246443e-05,0.002180573,0.0030690068,0,0.011962413,0.26343626,nan,nan,nan,0.0010168969,0.0,0.0,0.0,0.0,1310988,1310988,6620172,0,0,0,164,1,1,1,2,0,0,0,0,0,0,0,0
13020000,12940000,4898949633,9.177109e-05,0.0027815863,0.0041192905,0,0.011552903,0.25446284,nan,nan,nan,0.0015174609,0.0,0.0,0.0,0.0,1310988,1310988,6620172,0,0,0,164,1,1,1,2,0,0,0,0,0,0,0,0
13220000,13140000,4898949633,0.00010185355,0.0031465318,0.0029989446,0,0.011352358,0.2553177,nan,nan,nan,0.0022396636,0.0,0.0,0.0,0.0,1310988,1310988,6620172,0,0,0,164,1,1,1,2,0,0,0,0,0,0,0,0
13420000,13340000,4898949633,0.00010141875,0.002673781,0.0020252482,0,0.011196315,0.2502198,nan,nan,nan,0.003103662,0.0,0.0,0.0,0.0,1310988,1310988,6620172,0,0,0,164,1,1,1,2,0,0,0,0,0,0,0,0
13620000,13540000,4898949633,0.000106127234,0.002816192,0.0021468292,0,0.011004134,0.25086066,nan,nan,nan,0.002083851,0.0,0.0,0.0,0.0,1310988,1310988,6620172,0,0,0,164,1,1,1,2,0,0,0,0,0,0,0,0
13820000,13740000,4898949633,0.00010483245,0.0028020076,0.002443134,0,0.010817232,0.24448927,nan,nan,nan,0.0022909266,0.0,0.0,0.0,0.0,1310988,1310988,6620172,0,0,0,164,1,1,1,2,0,0,0,0,0,0,0,0
14028000,13948000,4898949633,7.410403e-05,0.002169153,0.001798013,0,0.010813186,0.24619406,nan,nan,nan,0.005058146,0.0,0.0,0.0,0.0,1310988,1310988,6620172,0,0,0,164,1,1,1,2,0,0,0,0,0,0,0,0
14228000,14148000,4898949633,2.382365e-05,0.0009358644,0.0010430958,0,0.016485954,0.23986845,nan,nan,nan,0.007572869,0.0,0.0,0.0,0.0,1310988,1310988,6620172,0,0,0,164,1,1,1,2,0,0,0,0,0,0,0,0
14428000,14348000,4898949633,1.9843617e-05,0.00075764384,0.0015076069,0,0.016199764,0.24150112,nan,nan,nan,0.0025086182,0.0,0.0,0.0,0.0,1310988,1310988,6620172,0,0,0,164,1,1,1,2,0,0,0,0,0,0,0,0
14620000,14540000,4898949633,2.7392041e-05,0.0008487472,0.0007242261,0,0.01565351,0.23602276,nan,nan,nan,0.0022115821,0.0,0.0,0.0,0.0,1310988,1310988,6620172,0,0,0,164,1,1,1,2,0,0,0,0,0,0,0,0
14820000,14740000,4898949633,2.9911387e-05,0.0009815166,0.00080267177,0,0.015381805,0.2372391,nan,nan,nan,0.0021597794,0.0,0.0,0.0,0.0,1310988,1310988,6620172,0,0,0,164,1,1,1,2,0,0,0,0,0,0,0,0
15028000,14948000,4832889473,3.0765612e-05,0.001073726,0.00086722174,0,0.0153755415,0.23266381,nan,nan,nan,0.0016724106,0.0,0.0,0.0,0.0,1310988,1310988,6620172,0,0,0,164,1,1,1,2,0,0,0,0,0,0,0,0
15220000,15140000,4832889473,1.2542226e-05,0.0009740397,0.0009893865,0,0.024374358,0.2373275,nan,nan,nan,0.0042729913,0.0,0.0,0.0,0.0,1310988,1310988,6620172,0,0,0,164,1,1,1,2,0,0,0,0,0,0,0,0
15420000,15340000,4832889473,1.1079446e-05,0.00087980315,0.00034693576,0,0.04516331,0.23568514,nan,nan,nan,0.005037808,0.0,0.0,0.0,0.0,1310988,1310988,6620172,0,0,0,164,1,1,1,2,0,0,0,0,0,0,0,0
15628000,15548000,4832889473,1.145155e-05,0.0010609347,0.0010958218,0,0.0825395,0.24257894,nan,nan,nan,0.0026036894,0.0,0.0,0.0,0.0,1310988,1310988,6620172,0,0,0,164,1,1,1,2,0,0,0,0,0,0,0,0
15828000,15748000,4832889473,1.1306105e-05,0.0010267812,0.0012185621,0,0.13335457,0.24215041,nan,nan,nan,0.0016223157,0.0,0.0,0.0,0.0,1310988,1310988,6620172,0,0,0,164,1,1,1,2,0,0,0,0,0,0,0,0
16020000,15940000,4832889473,1.13387605e-05,0.0010246774,0.0015203932,0,0.19552156,0.25011775,nan,nan,nan,0.0009675802,0.0,0.0,0.0,0.0,1310988,1310988,6620172,0,0,0,164,1,1,1,2,0,0,0,0,0,0,0,0
16228000,16148000,4832889473,1.0622778e-05,0.00071336166,0.00044913517,0,0.27745017,0.25107664,nan,nan,nan,0.0023827306,0.0,0.0,0.0,0.0,1310988,1310988,6620172,0,0,0,164,1,1,1,2,0,0,0,0,0,0,0,0
16428000,16348000,4832889473,1.1015972e-05,0.00077351776,0.00096866494,0,0.37041065,0.26132545,nan,nan,nan,0.0027659016,0.0,0.0,0.0,0.0,1310988,1310988,6620172,0,0,0,164,1,1,1,2,0,0,0,0,0,0,0,0
16620000,16540000,4832889473,1.0515486e-05,0.00047124518,0.0001891024,0,0.47259423,0.2625509,nan,nan,nan,0.0026229792,0.0,0.0,0.0,0.0,1310988,1310988,6620172,0,0,0,164,1,1,1,2,0,0,0,0,0,0,0,0
16820000,16740000,4832889473,1.0575703e-05,0.00040384947,0.00021211761,0,0.59239376,0.2737486,nan,nan,nan,0.0022137747,0.0,0.0,0.0,0.0,1310988,1310988,6620172,0,0,0,164,1,1,1,2,0,0,0,0,0,0,0,0
17020000,16940000,4832889473,1.0946057e-05,0.0002545114,0.0007742641,0,0.72556895,0.27562052,nan,nan,nan,0.003278827,0.0,0.0,0.0,0.0,1310988,1310988,6620172,0,0,0,164,1,1,1,2,0,0,0,0,0,0,0,0
17220000,17140000,4832889473,1.055254e-05,0.000381342,0.00020652088,0,0.87183094,0.28919232,nan,nan,nan,0.0026466623,0.0,0.0,0.0,0.0,1310988,1310988,6620172,0,0,0,164,1,1,1,2,0,0,0,0,0,0,0,0
17428000,17348000,4832889473,1.8303721e-05,0.00070791,0.0026921951,0,1.0373303,0.2903827,nan,nan,nan,0.0063085835,0.0,0.0,0.0,0.0,1310988,1310988,6620172,0,0,0,164,1,1,1,2,0,0,0,0,0,0,0,0
17620000,17540000,4832889473,1.0649223e-05,0.00030202835,0.0006371014,0,1.201334,0.30448127,nan,nan,nan,0.005395551,0.0,0.0,0.0,0.0,1310988,1310988,6620172,0,0,0,164,1,1,1,2,0,0,0,0,0,0,0,0
17820000,17740000,4832889473,1.9855857e-05,0.0007248401,0.0028400682,0,1.383089,0.30494022,nan,nan,nan,0.0040041218,0.0,0.0,0.0,0.0,1310988,1310988,6620172,0,0,0,164,1,1,1,2,0,0,0,0,0,0,0,0
18020000,17940000,4832889473,1.305209e-05,0.0005921829,0.001225076,0,1.5752378,0.31943735,nan,nan,nan,0.0056825257,0.0,0.0,0.0,0.0,1310988,1310988,6620172,0,0,0,164,1,1,1,2,0,0,0,0,0,0,0,0
18220000,18140000,4832889473,1.9220799e-05,0.0011728689,0.0036668913,0,1.7761048,0.3183514,nan,nan,nan,0.004040805,0.0,0.0,0.0,0.0,1310988,1310988,6620172,0,0,0,164,1,1,1,2,0,0,0,0,0,0,0,0
18428000,18348000,4832889473,2.073913e-05,0.00059850997,0.0013013565,0,1.993906,0.33399445,nan,nan,nan,0.004920074,0.0,0.0,0.0,0.0,1310988,1310988,6620172,0,0,0,164,1,1,1,2,0,0,0,0,0,0,0,0
18628000,18548000,4832889473,3.377449e-05,0.0007374707,0.0028644814,0,2.2077043,0.331146,nan,nan,nan,0.0032284486,0.0,0.0,0.0,0.0,1310988,1310988,6620172,0,0,0,164,1,1,1,2,0,0,0,0,0,0,0,0
18820000,18740000,4832889473,5.7217818e-05,0.0020426717,0.0047689304,0,2.4132164,0.34689158,nan,nan,nan,0.0074739484,0.0,0.0,0.0,0.0,1310988,1310988,6620172,0,0,0,164,1,1,1,2,0,0,0,0,0,0,0,0
19020000,18940000,4832889473,7.399615e-05,0.003305364,0.0077359676,0,2.6266634,0.34039,nan,nan,nan,0.006886485,0.0,0.0,0.0,0.0,1310988,1310988,6620172,0,0,0,164,1,1,1,2,0,0,0,0,0,0,0,0
19228000,19148000,4832889473,0.00010131367,0.004871103,0.0104984855,0,2.8470488,0.35790008,nan,nan,nan,0.004157272,0.0,0.0,0.0,0.0,1310988,1310988,6620172,0,0,0,164,1,1,1,2,0,0,0,0,0,0,0,0
19420000,19340000,4832889473,1.2155809e-05,0.0016555242,0.0051157437,0,3.1118984,0.35031924,nan,nan,nan,0.0059962077,0.0,0.0,0.0,0.0,1310988,1310988,6620172,0,0,0,164,1,1,1,2,0,0,0,0,0,0,0,0
19620000,19540000,4832889473,1.4354708e-05,0.0018457015,0.005453948,0,3.3200965,0.36503834,nan,nan,nan,0.010971752,0.0,0.0,0.0,0.0,1310988,1310988,6620172,0,0,0,164,1,1,1,2,0,0,0,0,0,0,0,0
19820000,19740000,4832889473,1.1104582e-05,0.002140637,0.007196007,0,3.5162473,0.3567524,nan,nan,nan,0.0046505,0.0,0.0,0.0,0.0,1310988,1310988,6620172,0,0,0,164,1,1,1,2,0,0,0,0,0,0,0,0
20020000,19940000,4832889473,2.489157e-05,0.0016090748,0.0044822386,0,3.698994,0.37314188,nan,nan,nan,0.005509613,0.0,0.0,0.0,0.0,1310988,1310988,6620172,0,0,0,164,1,1,1,2,0,0,0,0,0,0,0,0
20228000,20148000,4832889473,1.8790546e-05,0.0026557988,0.00910328,0,3.8765798,0.36209542,nan,nan,nan,0.009065669,0.0,0.0,0.0,0.0,1310988,1310988,6620172,0,0,0,164,1,1,1,2,0,0,0,0,0,0,0,0
20428000,20348000,4832889473,1.1121364e-05,0.0014273598,0.003967867,0,4.0251803,0.3781481,nan,nan,nan,0.010154903,0.0,0.0,0.0,0.0,1310988,1310988,6620172,0,0,0,164,1,1,1,2,0,0,0,0,0,0,0,0
20628000,20548000,4832889473,0.00010415369,0.0099508455,0.032388065,0,4.1548433,0.36503544,nan,nan,nan,0.021946568,0.0,0.0,0.0,0.0,1310988,1310988,6620172,0,0,0,164,1,1,1,2,0,0,0,0,0,0,0,0
20820000,20740000,4832889473,7.247512e-05,0.006576634,0.021751937,0,4.2554765,0.37980664,nan,nan,nan,0.019913025,0.0,0.0,0.0,0.0,1310988,1310988,6620172,0,0,0,164,1,1,1,2,0,0,0,0,0,0,0,0
21020000,20940000,4832889473,0.00025160602,0.024836905,0.0813035,0,4.349191,0.36599755,nan,nan,nan,0.04750369,0.0,0.0,0.0,0.0,1310988,1310988,6620172,0,0,0,164,1,1,1,2,0,0,0,0,0,0,0,0
21228000,21148000,4832889473,0.00015569112,0.016197553,0.05438284,0,4.4378223,0.38217422,nan,nan,nan,0.052720204,0.0,0.0,0.0,0.0,1310988,1310988,6620172,0,0,0,164,1,1,1,2,0,0,0,0,0,0,0,0
21428000,21348000,4832889473,0.00041450636,0.043998964,0.14957553,0,4.49734,0.3676115,nan,nan,nan,0.08198821,0.0,0.0,0.0,0.0,1310988,1310988,6620172,0,0,0,164,1,1,1,2,0,0,0,0,0,0,0,0
21628000,21548000,4832889473,0.00026001455,0.027518008,0.09589433,0,4.5426226,0.38264436,nan,nan,nan,0.08350419,0.0,0.0,0.0,0.0,1310988,1310988,6620172,0,0,0,164,1,1,1,2,0,0,0,0,0,0,0,0
21820000,21740000,4832889473,0.00055257557,0.06054757,0.2111723,0,4.5636115,0.3690434,nan,nan,nan,0.11732056,0.0,0.0,0.0,0.0,1310988,1310988,6620172,0,0,0,164,1,1,1,2,0,0,0,0,0,0,0,0
22020000,21940000,4832889473,0.00040055308,0.039518036,0.142393,0,4.5848217,0.38173717,nan,nan,nan,0.118250966,0.0,0.0,0.0,0.0,1310988,1310988,6620172,0,0,0,164,1,1,1,2,0,0,0,0,0,0,0,0
22220000,22140000,4832889473,0.00075656147,0.07916611,0.28501195,0,4.595303,0.36880833,nan,nan,nan,0.14863877,0.0,0.0,0.0,0.0,1310988,1310988,6620172,0,0,0,164,1,1,1,2,0,0,0,0,0,0,0,0
22420000,22340000,4832889473,0.0005559902,0.049707357,0.18837327,0,4.5977564,0.38355112,nan,nan,nan,0.15122697,0.0,0.0,0.0,0.0,1310988,1310988,6620172,0,0,0,164,1,1,1,2,0,0,0,0,0,0,0,0
22620000,22540000,4832889473,0.0010043611,0.101782,0.3817133,0,4.5918584,0.3681819,nan,nan,nan,0.17995693,0.0,0.0,0.0,0.0,1310988,1310988,6620172,0,0,0,164,1,1,1,2,0,0,0,0,0,0,0,0
22820000,22740000,4832889473,0.00076911267,0.06731153,0.2704531,0,4.580561,0.3828009,nan,nan,nan,0.17831491,0.0,0.0,0.0,0.0,1310988,1310988,6620172,0,0,0,164,1,1,1,2,0,0,0,0,0,0,0,0
23028000,22948000,4832889473,0.0012435713,0.11553362,0.45724082,0,4.5721087,0.36839947,nan,nan,nan,0.19445431,0.0,0.0,0.0,0.0,1310988,1310988,6620172,0,0,0,164,1,1,1,2,0,0,0,0,0,0,0,0
23228000,23148000,4832889473,0.00092383975,0.08068673,0.34508976,0,4.551173,0.38290316,nan,nan,nan,0.19822064,0.0,0.0,0.0,0.0,1310988,1310988,6620172,0,0,0,164,1,1,1,2,0,0,0,0,0,0,0,0
23420000,23340000,4832889473,0.0014062894,0.12967227,0.5422341,0,4.5172877,0.36885518,nan,nan,nan,0.20180182,0.0,0.0,0.0,0.0,1310988,1310988,6620172,0,0,0,164,1,1,1,2,0,0,0,0,0,0,0,0
23620000,23540000,4832889473,0.0010513325,0.0930731,0.4208873,0,4.4905896,0.38337559,nan,nan,nan,0.19771004,0.0,0.0,0.0,0.0,1310988,1310988,6620172,0,0,0,164,1,1,1,2,0,0,0,0,0,0,0,0
23820000,23740000,4832889473,0.0014426139,0.13045436,0.5767746,0,4.4606853,0.36794457,nan,nan,nan,0.18957876,0.0,0.0,0.0,0.0,1310988,1310988,6620172,0,0,0,164,1,1,1,2,0,0,0,0,0,0,0,0
24020000,23940000,4832889473,0.0010810597,0.094382904,0.44976845,0,4.430335,0.38226366,nan,nan,nan,0.18113111,0.0,0.0,0.0,0.0,1310988,1310988,6620172,0,0,0,164,1,1,1,2,0,0,0,0,0,0,0,0
24220000,24140000,4832889473,0.0013265818,0.11674339,0.5465409,0,4.3978863,0.36679918,nan,nan,nan,0.16353947,0.0,0.0,0.0,0.0,1310988,1310988,6620172,0,0,0,164,1,1,1,2,0,0,0,0,0,0,0,0
24420000,24340000,4832889473,0.0002993629,0.019339122,0.11499785,0,4.590606,0.38107023,nan,nan,nan,0.15381238,0.0,0.0,0.0,0.0,1310988,1310988,6620172,0,0,0,164,1,1,1,2,0,0,0,0,0,0,0,0
24628000,24548000,4832889473,0.0004011893,0.027060485,0.13640116,0,4.560216,0.36865515,nan,nan,nan,0.11930573,0.0,0.0,0.0,0.0,1310988,1310988,6620172,0,0,0,164,1,1,1,2,0,0,0,0,0,0,0,0
24828000,24748000,4832889473,0.00022653045,0.013610116,0.05904255,0,4.522442,0.3807209,nan,nan,nan,0.11241579,0.0,0.0,0.0,0.0,1310988,1310988,6620172,0,0,0,164,1,1,1,2,0,0,0,0,0,0,0,0
25020000,24940000,4832889473,0.00029711137,0.008235098,0.037502952,0,4.4770823,0.3668092,nan,nan,nan,0.06567876,0.0,0.0,0.0,0.0,1310988,1310988,6620172,0,0,0,164,1,1,1,2,0,0,0,0,0,0,0,0
25220000,25140000,4832889473,0.00022300422,0.027916603,0.097814634,0,4.4397254,0.38103133,nan,nan,nan,0.06736177,0.0,0.0,0.0,0.0,1310988,1310988,6620172,0,0,0,164,1,1,1,2,0,0,0,0,0,0,0,0
25428000,25348000,4832889473,0.00017801234,0.03532335,0.13000998,0,4.4094653,0.36662546,nan,nan,nan,0.0298992,0.0,0.0,0.0,0.0,1310988,1310988,6620172,0,0,0,164,1,1,1,2,0,0,0,0,0,0,0,0
25628000,25548000,4832889473,0.00015374612,0.04335796,0.16932218,0,4.3728476,0.3808986,nan,nan,nan,0.036121063,0.0,0.0,0.0,0.0,1310988,1310988,6620172,0,0,0,164,1,1,1,2,0,0,0,0,0,0,0,0
25828000,25748000,4832889473,0.00012281537,0.060462996,0.23917775,0,4.3368964,0.36799192,nan,nan,nan,0.07042347,0.0,0.0,0.0,0.0,1310988,1310988,6620172,0,0,0,164,1,1,1,2,0,0,0,0,0,0,0,0
26028000,25948000,4832889473,8.171294e-05,0.056729984,0.24011838,0,4.3017116,0.3803383,nan,nan,nan,0.07999658,0.0,0.0,0.0,0.0,1310988,1310988,6620172,0,0,0,164,1,1,1,2,0,0,0,0,0,0,0,0
26220000,26140000,4832889473,0.000110290726,0.0854442,0.3448802,0,4.261032,0.3666792,nan,nan,nan,0.1525534,0.0,0.0,0.0,0.0,1310988,1310988,6620172,0,0,0,164,1,1,1,2,0,0,0,0,0,0,0,0
26428000,26348000,4832889473,3.3088952e-05,0.069073476,0.3115162,0,4.233915,0.38216543,nan,nan,nan,0.15489462,0.0,0.0,0.0,0.0,1310988,1310988,6620172,0,0,0,164,1,1,1,2,0,0,0,0,0,0,0,0
26628000,26548000,4832889473,0.00011669474,0.10393228,0.42603937,0,4.201364,0.36734128,nan,nan,nan,0.2204844,0.0,0.0,0.0,0.0,1310988,1310988,6620172,0,0,0,164,1,1,1,2,0,0,0,0,0,0,0,0
26820000,26740000,4832889473,0.0001512681,0.076199256,0.38203034,0,4.164388,0.38118422,nan,nan,nan,0.23038802,0.0,0.0,0.0,0.0,1310988,1310988,6620172,0,0,0,164,1,1,1,2,0,0,0,0,0,0,0,0
27028000,26948000,4832889473,0.0001457922,0.118276656,0.5009705,0,4.141491,0.36690864,nan,nan,nan,0.296479,0.0,0.0,0.0,0.0,1310988,1310988,6620172,0,0,0,1188,1,1,1,2,0,0,0,0,0,0,0,0
27228000,27148000,4831840897,0.00019971638,0.09033796,0.443411,0,4.113325,0.38078392,nan,nan,nan,0.30455607,0.0,0.0,0.0,0.0,1310988,1310988,6620172,0,0,0,1188,1,1,1,2,0,0,0,0,0,0,0,0
27428000,27348000,4831840897,0.0002602979,0.14753851,0.62414676,0,4.0853596,0.36511883,nan,nan,nan,0.34307325,0.0,0.0,0.0,0.0,1310988,1310988,6620172,0,0,0,164,1,1,1,2,0,0,0,0,0,0,0,0
27620000,27540000,4831840897,0.00027515405,0.10291249,0.51818323,0,4.0526276,0.3772789,nan,nan,nan,0.34909946,0.0,0.0,0.0,0.0,1310988,1310988,6620172,0,0,0,164,1,1,1,2,0,0,0,0,0,0,0,0
27820000,27740000,4831840897,0.00018850775,0.14970838,0.6719422,0,4.025797,0.36328855,nan,nan,nan,0.38244674,0.0,0.0,0.0,0.0,1310988,1310988,6620172,0,0,0,164,1,1,1,2,0,0,0,0,0,0,0,0
28020000,27940000,4831840897,0.00032357223,0.1025086,0.55297875,0,3.9998574,0.3733706,nan,nan,nan,0.37873375,0.0,0.0,0.0,0.0,1310988,1310988,6620172,0,0,0,164,1,1,1,2,0,0,0,0,0,0,0,0
28228000,28148000,4831840897,0.00015698865,0.13543248,0.65375525,0,3.97944,0.36010805,nan,nan,nan,0.3963877,0.0,0.0,0.0,0.0,1310988,1310988,6620172,0,0,0,164,1,1,1,2,0,0,0,0,0,0,0,0
28428000,28348000,4831840897,0.0004592621,0.0947834,0.55536,0,3.9544613,0.37155387,nan,nan,nan,0.38809744,0.0,0.0,0.0,0.0,1310988,1310988,6620172,0,0,0,164,1,1,1,2,0,0,0,0,0,0,0,0
28628000,28548000,4831840897,9.490382e-05,0.12115899,0.6362847,0,3.929546,0.3558716,nan,nan,nan,0.38660005,0.0,0.0,0.0,0.0,1310988,1310988,6620172,0,0,0,164,1,1,1,2,0,0,0,0,0,0,0,0
28820000,28740000,4831840897,0.000534531,0.09846521,0.6041025,0,3.9004014,0.36608464,nan,nan,nan,0.38768673,0.0,0.0,0.0,0.0,1310988,1310988,6620172,0,0,0,164,1,1,1,2,0,0,0,0,0,0,0,0
29028000,28948000,4831840897,0.00011290928,0.11044397,0.62390745,0,3.8816583,0.35161602,nan,nan,nan,0.37411565,0.0,0.0,0.0,0.0,1310988,1310988,6620172,0,0,0,164,1,1,1,2,0,0,0,0,0,0,0,0
29220000,29140000,4831840897,0.00061858876,0.10052265,0.6301236,0,3.8536506,0.36153147,nan,nan,nan,0.37342265,0.0,0.0,0.0,0.0,1310988,1310988,6620172,0,0,0,164,1,1,1,2,0,0,0,0,0,0,0,0
29420000,29340000,4831840897,0.00030323712,0.105712555,0.6376062,0,3.8309233,0.34883136,nan,nan,nan,0.35297894,0.0,0.0,0.0,0.0,1310988,1310988,6620172,0,0,0,164,1,1,1,2,0,0,0,0,0,0,0,0
29620000,29540000,4831840897,3.3463468e-05,0.02368906,0.14299074,0,3.9555733,0.35761815,nan,nan,nan,0.3425461,0.0,0.0,0.0,0.0,1310988,1310988,6620172,0,0,0,164,1,1,1,2,0,0,0,0,0,0,0,0
29828000,29748000,4831840897,0.0002709964,0.050279353,0.23069128,0,3.9368024,0.34619653,nan,nan,nan,0.31239873,0.0,0.0,0.0,0.0,1310988,1310988,6620172,0,0,0,164,1,1,1,2,0,0,0,0,0,0,0,0
30020000,29940000,4831840897,7.157125e-05,0.021596495,0.12515505,0,3.9089863,0.3544618,nan,nan,nan,0.29589477,0.0,0.0,0.0,0.0,1310988,1310988,6620172,0,0,0,164,1,1,1,2,0,0,0,0,0,0,0,0
30220000,30140000,4831840897,6.6212495e-05,0.03397011,0.15497074,0,3.8868139,0.3431936,nan,nan,nan,0.24945885,0.0,0.0,0.0,0.0,1310988,1310988,6620172,0,0,0,164,1,1,1,2,0,0,0,0,0,0,0,0
30428000,30348000,4831840897,0.00016904352,0.027605986,0.13661204,0,3.8707936,0.35485446,nan,nan,nan,0.23894756,0.0,0.0,0.0,0.0,1310988,1310988,6620172,0,0,0,164,1,1,1,2,0,0,0,0,0,0,0,0
30620000,30540000,4831840897,0.0001243894,0.024114335,0.10610608,0,3.846023,0.34171742,nan,nan,nan,0.19250797,0.0,0.0,0.0,0.0,1310988,1310988,6620172,0,0,0,164,1,1,1,2,0,0,0,0,0,0,0,0
30820000,30740000,4831840897,0.00026991765,0.036303684,0.1663658,0,3.8275557,0.3530294,nan,nan,nan,0.1858795,0.0,0.0,0.0,0.0,1310988,1310988,6620172,0,0,0,164,1,1,1,2,0,0,0,0,0,0,0,0
31020000,30940000,4831840897,0.00022870407,0.020391291,0.10772571,0,3.810774,0.34252852,nan,nan,nan,0.15075986,0.0,0.0,0.0,0.0,1310988,1310988,6620172,0,0,0,164,1,1,1,2,0,0,0,0,0,0,0,0
31228000,31148000,4831840897,0.0003527895,0.03603319,0.19090272,0,3.8008857,0.35278717,nan,nan,nan,0.14610235,0.0,0.0,0.0,0.0,1310988,1310988,6620172,0,0,0,164,1,1,1,2,0,0,0,0,0,0,0,0
31420000,31340000,4831840897,0.00032081443,0.019964688,0.14668499,0,3.783161,0.3416439,nan,nan,nan,0.11801222,0.0,0.0,0.0,0.0,1310988,1310988,6620172,0,0,0,1188,1,1,1,2,0,0,0,0,0,0,0,0
31620000,31540000,4831840897,0.0004971065,0.04462191,0.23979336,0,3.771673,0.3527953,nan,nan,nan,0.11718106,0.0,0.0,0.0,0.0,1310988,1310988,6620172,0,0,0,1188,1,1,1,2,0,0,0,0,0,0,0,0
31828000,31748000,4831840897,0.0004188598,0.03292349,0.19639176,0,3.76504,0.3410916,nan,nan,nan,0.095857635,0.0,0.0,0.0,0.0,1310988,1310988,6620172,0,0,0,164,1,1,1,2,0,0,0,0,0,0,0,0
32028000,31948000,4831840897,0.00059177965,0.051121283,0.26954713,0,3.7537565,0.3518911,nan,nan,nan,0.0970358,0.0,0.0,0.0,0.0,1310988,1310988,6620172,0,0,0,164,1,1,1,2,0,0,0,0,0,0,0,0
32220000,32140000,4831840897,0.00061842456,0.04599871,0.26383626,0,3.7374196,0.33887908,nan,nan,nan,0.08076876,0.0,0.0,0.0,0.0,1310988,1310988,6620172,0,0,0,164,1,1,1,2,0,0,0,0,0,0,0,0
32428000,32348000,4831840897,0.0006916837,0.0546021,0.2914317,0,3.7308698,0.34995553,nan,nan,nan,0.07977842,0.0,0.0,0.0,0.0,1310988,1310988,6620172,0,0,0,164,1,1,1,2,0,0,0,0,0,0,0,0
32628000,32548000,4831840897,0.0006853494,0.048432987,0.2698104,0,3.7194123,0.33769476,nan,nan,nan,0.06469663,0.0,0.0,0.0,0.0,1310988,1310988,6620172,0,0,0,164,1,1,1,2,0,0,0,0,0,0,0,0
32828000,32748000,4831840897,0.00075911114,0.053801723,0.2900287,0,3.7083423,0.3480083,nan,nan,nan,0.064443305,0.0,0.0,0.0,0.0,1310988,1310988,6620172,0,0,0,164,1,1,1,2,0,0,0,0,0,0,0,0
33028000,32948000,4831840897,0.0007265019,0.04911184,0.27170262,0,3.6974344,0.33595794,nan,nan,nan,0.052187346,0.0,0.0,0.0,0.0,1310988,1310988,6620172,0,0,0,164,1,1,1,2,0,0,0,0,0,0,0,0
33228000,33148000,4831840897,0.0007292386,0.05140062,0.27968234,0,3.687086,0.3462732,nan,nan,nan,0.055173688,0.0,0.0,0.0,0.0,1310988,1310988,6620172,0,0,0,164,1,1,1,2,0,0,0,0,0,0,0,0
33420000,33340000,4831840897,0.0007186278,0.051261265,0.2863421,0,3.6724706,0.33402058,nan,nan,nan,0.03960744,0.0,0.0,0.0,0.0,1310988,1310988,6620172,0,0,0,164,1,1,1,2,0,0,0,0,0,0,0,0
33620000,33540000,4831840897,0.0007087655,0.051545873,0.28927153,0,3.6631904,0.3445221,nan,nan,nan,0.03909512,0.0,0.0,0.0,0.0,1310988,1310988,6620172,0,0,0,164,1,1,1,2,0,0,0,0,0,0,0,0
33828000,33748000,4831840897,0.00068747933,0.049548447,0.28111142,0,3.659089,0.33399242,nan,nan,nan,0.02863067,0.0,0.0,0.0,0.0,1310988,1310988,6620172,0,0,0,164,1,1,1,2,0,0,0,0,0,0,0,0
34020000,33940000,4831840897,0.00069754577,0.052906282,0.30643135,0,3.6463547,0.3442047,nan,nan,nan,0.029673303,0.0,0.0,0.0,0.0,1310988,1310988,6620172,0,0,0,164,1,1,1,2,0,0,0,0,0,0,0,0
34228000,34148000,4831840897,0.0006882224,0.05351212,0.31358516,0,3.6434684,0.33551997,nan,nan,nan,0.03605756,0.0,0.0,0.0,0.0,1310988,1310988,6620172,0,0,0,164,1,1,1,2,0,0,0,0,0,0,0,0
34420000,34340000,4831840897,0.00070644845,0.057161167,0.34430042,0,3.631876,0.3462824,nan,nan,nan,0.036083966,0.0,0.0,0.0,0.0,1310988,1310988,6620172,0,0,0,164,1,1,1,2,0,0,0,0,0,0,0,0
34628000,34548000,4831840897,0.0007273914,0.061959993,0.36865178,0,3.6300447,0.33636087,nan,nan,nan,0.04600385,0.0,0.0,0.0,0.0,1310988,1310988,6620172,0,0,0,164,1,1,1,2,0,0,0,0,0,0,0,0
34820000,34740000,4831840897,0.0001588322,0.048474986,0.31361872,0,3.744435,0.3476388,nan,nan,nan,0.0460374,0.0,0.0,0.0,0.0,1310988,1310988,6620172,0,0,0,164,1,1,1,2,0,0,0,0,0,0,0,0
35028000,34948000,4831840897,0.00020579036,0.053812593,0.33234164,0,3.7433162,0.3379297,nan,nan,nan,0.05122006,0.0,0.0,0.0,0.0,1310988,1310988,6620172,0,0,0,164,1,1,1,2,0,0,0,0,0,0,0,0
35228000,35148000,4831840897,0.00019208949,0.050016824,0.32214433,0,3.7378416,0.35047892,nan,nan,nan,0.05134441,0.0,0.0,0.0,0.0,1310988,1310988,6620172,0,0,0,164,1,1,1,2,0,0,0,0,0,0,0,0
35428000,35348000,4831840897,0.00028339235,0.055803202,0.33751464,0,3.7324927,0.34016308,nan,nan,nan,0.059583493,0.0,0.0,0.0,0.0,1310988,1310988,6620172,0,0,0,164,1,1,1,2,0,0,0,0,0,0,0,0
35628000,35548000,4831840897,0.00026086764,0.05034509,0.32111594,0,3.7275388,0.35325706,nan,nan,nan,0.055237338,0.0,0.0,0.0,0.0,1310988,1310988,6620172,0,0,0,164,1,1,1,2,0,0,0,0,0,0,0,0
35828000,35748000,4831840897,0.0003494347,0.054505907,0.33015102,0,3.7225919,0.3445278,nan,nan,nan,0.060303528,0.0,0.0,0.0,0.0,1310988,1310988,6620172,0,0,0,164,1,1,1,2,0,0,0,0,0,0,0,0
36020000,35940000,4831840897,0.00037807913,0.050322037,0.3169041,0,3.7130766,0.35570607,nan,nan,nan,0.05920566,0.0,0.0,0.0,0.0,1310988,1310988,6620172,0,0,0,164,1,1,1,2,0,0,0,0,0,0,0,0
36220000,36140000,4831840897,0.00047632726,0.055166695,0.3272262,0,3.7083523,0.3468406,nan,nan,nan,0.063319,0.0,0.0,0.0,0.0,1310988,1310988,6620172,0,0,0,164,1,1,1,2,0,0,0,0,0,0,0,0
36428000,36348000,4831840897,0.00040891004,0.0468835,0.30110466,0,3.7087238,0.36186388,nan,nan,nan,0.060332313,0.0,0.0,0.0,0.0,1310988,1310988,6620172,0,0,0,164,1,1,1,2,0,0,0,0,0,0,0,0
36620000,36540000,4831840897,0.0005628162,0.053601228,0.3177224,0,3.699232,0.3501191,nan,nan,nan,0.060969595,0.0,0.0,0.0,0.0,1310988,1310988,6620172,0,0,0,164,1,1,1,2,0,0,0,0,0,0,0,0
36820000,36740000,4831840897,0.0005354797,0.046354488,0.29672474,0,3.6947954,0.3647419,nan,nan,nan,0.05982699,0.0,0.0,0.0,0.0,1310988,1310988,6620172,0,0,0,164,1,1,1,2,0,0,0,0,0,0,0,0
37020000,36940000,4831840897,0.0006334512,0.050613847,0.30569303,0,3.6901884,0.35510615,nan,nan,nan,0.060753502,0.0,0.0,0.0,0.0,1310988,1310988,6620172,0,0,0,164,1,1,1,2,0,0,0,0,0,0,0,0
37228000,37148000,4831840897,0.00058164814,0.043647826,0.28239843,0,3.6905642,0.36907473,nan,nan,nan,0.05430256,0.0,0.0,0.0,0.0,1310988,1310988,6620172,0,0,0,164,1,1,1,2,0,0,0,0,0,0,0,0
37428000,37348000,4831840897,0.00067566626,0.047089513,0.2898908,0,3.6859477,0.35901266,nan,nan,nan,0.052976683,0.0,0.0,0.0,0.0,1310988,1310988,6620172,0,0,0,164,1,1,1,2,0,0,0,0,0,0,0,0
37628000,37548000,4831840897,0.0006720182,0.042893592,0.2792551,0,3.6814623,0.37234533,nan,nan,nan,0.051290974,0.0,0.0,0.0,0.0,1310988,1310988,6620172,0,0,0,164,1,1,1,2,0,0,0,0,0,0,0,0
37820000,37740000,4831840897,0.00081129477,0.04862668,0.3013465,0,3.6720195,0.36094955,nan,nan,nan,0.050441273,0.0,0.0,0.0,0.0,1310988,1310988,6620172,0,0,0,164,1,1,1,2,0,0,0,0,0,0,0,0
38020000,37940000,4831840897,0.0007723733,0.045042984,0.2950798,0,3.6675148,0.3764413,nan,nan,nan,0.04787875,0.0,0.0,0.0,0.0,1310988,1310988,6620172,0,0,0,164,1,1,1,2,0,0,0,0,0,0,0,0
38220000,38140000,4831840897,0.0008343873,0.049525946,0.31053826,0,3.6628678,0.36329368,nan,nan,nan,0.045210354,0.0,0.0,0.0,0.0,1310988,1310988,6620172,0,0,0,164,1,1,1,2,0,0,0,0,0,0,0,0
38420000,38340000,4831840897,0.0008078136,0.04766737,0.3109278,0,3.658328,0.3788531,nan,nan,nan,0.0471891,0.0,0.0,0.0,0.0,1310988,1310988,6620172,0,0,0,164,1,1,1,2,0,0,0,0,0,0,0,0
38628000,38548000,4831840897,0.00084288965,0.048385866,0.30934498,0,3.6584535,0.36615664,nan,nan,nan,0.03590226,0.0,0.0,0.0,0.0,1310988,1310988,6620172,0,0,0,164,1,1,1,2,0,0,0,0,0,0,0,0
38820000,38740000,4831840897,0.0008449867,0.05143412,0.33428887,0,3.6490867,0.38081908,nan,nan,nan,0.040560134,0.0,0.0,0.0,0.0,1310988,1310988,6620172,0,0,0,164,1,1,1,2,0,0,0,0,0,0,0,0
39020000,38940000,4831840897,0.0008943802,0.0551804,0.35282937,0,3.644416,0.3688035,nan,nan,nan,0.033348985,0.0,0.0,0.0,0.0,1310988,1310988,6620172,0,0,0,164,1,1,1,2,0,0,0,0,0,0,0,0
39220000,39140000,4831840897,0.0008951372,0.056838866,0.36639738,0,3.6398108,0.38224927,nan,nan,nan,0.034298453,0.0,0.0,0.0,0.0,1310988,1310988,6620172,0,0,0,164,1,1,1,2,0,0,0,0,0,0,0,0
39428000,39348000,4831840897,0.0009193944,0.056941587,0.36464497,0,3.6399014,0.3707972,nan,nan,nan,0.031614296,0.0,0.0,0.0,0.0,1310988,1310988,6620172,0,0,0,164,1,1,1,2,0,0,0,0,0,0,0,0
39620000,39540000,4831840897,0.0009559097,0.06352074,0.4060633,0,3.6305246,0.38324562,nan,nan,nan,0.03278696,0.0,0.0,0.0,0.0,1310988,1310988,6620172,0,0,0,164,1,1,1,2,0,0,0,0,0,0,0,0
39828000,39748000,4831840897,0.0009773963,0.063548036,0.40468466,0,3.6306224,0.37133655,nan,nan,nan,0.02507397,0.0,0.0,0.0,0.0,1310988,1310988,6620172,0,0,0,164,1,1,1,2,0,0,0,0,0,0,0,0
40020000,39940000,4831840897,0.00020017875,0.027929017,0.17626897,0,3.7465472,0.38593277,nan,nan,nan,0.028004196,0.0,0.0,0.0,0.0,1310988,1310988,6620172,0,0,0,164,1,1,1,2,0,0,0,0,0,0,0,0
40228000,40148000,4831840897,0.00021565573,0.02754936,0.17483494,0,3.746675,0.37154454,nan,nan,nan,0.024430152,0.0,0.0,0.0,0.0,1310988,1310988,6620172,0,0,0,164,1,1,1,2,0,0,0,0,0,0,0,0
40420000,40340000,4831840897,0.0002639798,0.025889251,0.16335735,0,3.7370622,0.38603225,nan,nan,nan,0.019723628,0.0,0.0,0.0,0.0,1310988,1310988,6620172,0,0,0,164,1,1,1,2,0,0,0,0,0,0,0,0
40620000,40540000,4831840897,0.00031346572,0.024335397,0.15614553,0,3.732349,0.37072355,nan,nan,nan,0.019449957,0.0,0.0,0.0,0.0,1310988,1310988,6620172,0,0,0,164,1,1,1,2,0,0,0,0,0,0,0,0
40820000,40740000,4831840897,0.00034527012,0.0238918,0.15134683,0,3.7277172,0.38589162,nan,nan,nan,0.018022496,0.0,0.0,0.0,0.0,1310988,1310988,6620172,0,0,0,164,1,1,1,2,0,0,0,0,0,0,0,0
41020000,40940000,4831840897,0.0003991277,0.02246842,0.14503859,0,3.723119,0.3725239,nan,nan,nan,0.016507987,0.0,0.0,0.0,0.0,1310988,1310988,6620172,0,0,0,164,1,1,1,2,0,0,0,0,0,0,0,0
41220000,41140000,4831840897,0.00043872822,0.022039128,0.14112741,0,3.7186062,0.38545948,nan,nan,nan,0.014942152,0.0,0.0,0.0,0.0,1310988,1310988,6620172,0,0,0,164,1,1,1,2,0,0,0,0,0,0,0,0
41420000,41340000,4831840897,0.0004945333,0.02097401,0.13672107,0,3.714142,0.3720621,nan,nan,nan,0.014966248,0.0,0.0,0.0,0.0,1310988,1310988,6620172,0,0,0,164,1,1,1,2,0,0,0,0,0,0,0,0
41620000,41540000,4831840897,0.0005387114,0.020957414,0.13495316,0,3.709777,0.38714948,nan,nan,nan,0.015253215,0.0,0.0,0.0,0.0,1310988,1310988,6620172,0,0,0,164,1,1,1,2,0,0,0,0,0,0,0,0
41820000,41740000,4831840897,0.0005987405,0.020352835,0.13325055,0,3.705487,0.37139964,nan,nan,nan,0.017412849,0.0,0.0,0.0,0.0,1310988,1310988,6620172,0,0,0,164,1,1,1,2,0,0,0,0,0,0,0,0
42020000,41940000,4831840897,0.0006479702,0.020834442,0.13444567,0,3.7013156,0.3863123,nan,nan,nan,0.014281027,0.0,0.0,0.0,0.0,1310988,1310988,6620172,0,0,0,164,1,1,1,2,0,0,0,0,0,0,0,0
42228000,42148000,4831840897,0.0006602618,0.020325247,0.13184822,0,3.702118,0.37142044,nan,nan,nan,0.009126182,0.0,0.0,0.0,0.0,1310988,1310988,6620172,0,0,0,164,1,1,1,2,0,0,0,0,0,0,0,0
42420000,42340000,4831840897,0.0007665756,0.022275629,0.14181273,0,3.6932788,0.38533977,nan,nan,nan,0.009769669,0.0,0.0,0.0,0.0,1310988,1310988,6620172,0,0,0,164,1,1,1,2,0,0,0,0,0,0,0,0
42620000,42540000,4831840897,0.0008339032,0.023406109,0.14840823,0,3.689429,0.37163764,nan,nan,nan,0.010376576,0.0,0.0,0.0,0.0,1310988,1310988,6620172,0,0,0,164,1,1,1,2,0,0,0,0,0,0,0,0
42828000,42748000,4831840897,0.00084225694,0.023213638,0.14595139,0,3.6906116,0.38504753,nan,nan,nan,0.0074459617,0.0,0.0,0.0,0.0,1310988,1310988,6620172,0,0,0,164,1,1,1,2,0,0,0,0,0,0,0,0
43020000,42940000,4831840897,0.0009719136,0.02721087,0.16849482,0,3.6821291,0.3706304,nan,nan,nan,0.009480156,0.0,0.0,0.0,0.0,1310988,1310988,6620172,0,0,0,164,1,1,1,2,0,0,0,0,0,0,0,0
43220000,43140000,4831840897,0.0009932958,0.029684214,0.18144865,0,3.678684,0.3831342,nan,nan,nan,0.0106397215,0.0,0.0,0.0,0.0,1310988,1310988,6620172,0,0,0,164,1,1,1,2,0,0,0,0,0,0,0,0
43420000,43340000,4831840897,0.0010221826,0.032441404,0.19618091,0,3.6753616,0.369757,nan,nan,nan,0.01062021,0.0,0.0,0.0,0.0,1310988,1310988,6620172,0,0,0,164,1,1,1,2,0,0,0,0,0,0,0,0
43628000,43548000,4831840897,0.0010328646,0.032241505,0.19348668,0,3.6771,0.38306043,nan,nan,nan,0.008994192,0.0,0.0,0.0,0.0,1310988,1310988,6620172,0,0,0,164,1,1,1,2,0,0,0,0,0,0,0,0
43828000,43748000,4831840897,0.0010630825,0.035313223,0.20972483,0,3.6740575,0.3697599,nan,nan,nan,0.0045746006,0.0,0.0,0.0,0.0,1310988,1310988,6620172,0,0,0,164,1,1,1,2,0,0,0,0,0,0,0,0
44020000,43940000,4831840897,0.0011136433,0.04234408,0.2491157,0,3.6662486,0.3835781,nan,nan,nan,0.0062307455,0.0,0.0,0.0,0.0,1310988,1310988,6620172,0,0,0,164,1,1,1,2,0,0,0,0,0,0,0,0
44228000,44148000,4831840897,0.0011325552,0.042237647,0.24649742,0,3.668421,0.36899084,nan,nan,nan,0.009233311,0.0,0.0,0.0,0.0,1310988,1310988,6620172,0,0,0,164,1,1,1,2,0,0,0,0,0,0,0,0
44428000,44348000,4831840897,0.0011668606,0.045974083,0.26658487,0,3.6658375,0.38361934,nan,nan,nan,0.007499306,0.0,0.0,0.0,0.0,1310988,1310988,6620172,0,0,0,164,1,1,1,2,0,0,0,0,0,0,0,0
44620000,44540000,4831840897,0.0012402706,0.054423667,0.31349495,0,3.6584268,0.3695782,nan,nan,nan,0.008158534,0.0,0.0,0.0,0.0,1310988,1310988,6620172,0,0,0,164,1,1,1,2,0,0,0,0,0,0,0,0
44828000,44748000,4831840897,0.0012544312,0.054217033,0.3104169,0,3.6610858,0.3829679,nan,nan,nan,0.010809649,0.0,0.0,0.0,0.0,1310988,1310988,6620172,0,0,0,164,1,1,1,2,0,0,0,0,0,0,0,0
45028000,44948000,4831840897,0.0013060152,0.058718603,0.3340511,0,3.6589143,0.3697498,nan,nan,nan,0.009873044,0.0,0.0,0.0,0.0,1310988,1310988,6620172,0,0,0,164,1,1,1,2,0,0,0,0,0,0,0,0
45228000,45148000,4831840897,0.00135538,0.063242726,0.35825667,0,3.6569,0.3822828,nan,nan,nan,0.0076445364,0.0,0.0,0.0,0.0,1310988,1310988,6620172,0,0,0,164,1,1,1,2,0,0,0,0,0,0,0,0
45420000,45340000,4831840897,0.0003110769,0.033116225,0.21049404,0,3.778767,0.3684907,nan,nan,nan,0.00815322,0.0,0.0,0.0,0.0,1310988,1310988,6620172,0,0,0,164,1,1,1,2,0,0,0,0,0,0,0,0
45628000,45548000,4831840897,0.0003117681,0.03353223,0.21280526,0,3.7823756,0.38183382,nan,nan,nan,0.010211252,0.0,0.0,0.0,0.0,1310988,1310988,6620172,0,0,0,164,1,1,1,2,0,0,0,0,0,0,0,0
45828000,45748000,4831840897,0.00036621603,0.032015458,0.20363335,0,3.7809358,0.36891645,nan,nan,nan,0.0081645865,0.0,0.0,0.0,0.0,1310988,1310988,6620172,0,0,0,164,1,1,1,2,0,0,0,0,0,0,0,0
46028000,45948000,4831840897,0.00041582208,0.03055222,0.19434652,0,3.7796602,0.38363805,nan,nan,nan,0.0062375977,0.0,0.0,0.0,0.0,1310988,1310988,6620172,0,0,0,164,1,1,1,2,0,0,0,0,0,0,0,0
46220000,46140000,4831840897,0.00054075517,0.027294392,0.17423943,0,3.7732549,0.36754152,nan,nan,nan,0.009589838,0.0,0.0,0.0,0.0,1310988,1310988,6620172,0,0,0,164,1,1,1,2,0,0,0,0,0,0,0,0
46428000,46348000,4831840897,0.00054185034,0.027647933,0.17622311,0,3.777458,0.38302034,nan,nan,nan,0.010213391,0.0,0.0,0.0,0.0,1310988,1310988,6620172,0,0,0,164,1,1,1,2,0,0,0,0,0,0,0,0
46620000,46540000,4831840897,0.00067368365,0.02489842,0.15779883,0,3.771258,0.36913046,nan,nan,nan,0.009832815,0.0,0.0,0.0,0.0,1310988,1310988,6620172,0,0,0,164,1,1,1,2,0,0,0,0,0,0,0,0
46828000,46748000,4831840897,0.0006758193,0.02520294,0.15959743,0,3.7757118,0.38250604,nan,nan,nan,0.010925088,0.0,0.0,0.0,0.0,1310988,1310988,6620172,0,0,0,164,1,1,1,2,0,0,0,0,0,0,0,0
47028000,46948000,4831840897,0.0007487846,0.024342619,0.15245014,0,3.774973,0.36948815,nan,nan,nan,0.0069386293,0.0,0.0,0.0,0.0,1310988,1310988,6620172,0,0,0,164,1,1,1,2,0,0,0,0,0,0,0,0
47228000,47148000,4831840897,0.0008153692,0.02353718,0.14579387,0,3.7743456,0.38424587,nan,nan,nan,0.009872684,0.0,0.0,0.0,0.0,1310988,1310988,6620172,0,0,0,164,1,1,1,2,0,0,0,0,0,0,0,0
47428000,47348000,4831840897,0.00089745055,0.023347238,0.14135277,0,3.7737484,0.3688751,nan,nan,nan,0.009784421,0.0,0.0,0.0,0.0,1310988,1310988,6620172,0,0,0,164,1,1,1,2,0,0,0,0,0,0,0,0
47620000,47540000,4831840897,0.0010335019,0.023040235,0.13394788,0,3.7679117,0.3826922,nan,nan,nan,0.008691978,0.0,0.0,0.0,0.0,1310988,1310988,6620172,0,0,0,164,1,1,1,2,0,0,0,0,0,0,0,0
47828000,47748000,4831840897,0.001049367,0.023652013,0.13609812,0,3.7727618,0.3703008,nan,nan,nan,0.011669394,0.0,0.0,0.0,0.0,1310988,1310988,6620172,0,0,0,164,1,1,1,2,0,0,0,0,0,0,0,0
48020000,47940000,4831840897,0.001195445,0.024934767,0.13711616,0,3.7669842,0.38199586,nan,nan,nan,0.012024649,0.0,0.0,0.0,0.0,1310988,1310988,6620172,0,0,0,164,1,1,1,2,0,0,0,0,0,0,0,0
48228000,48148000,4831840897,0.0012115245,0.025529377,0.1389533,0,3.771931,0.36967188,nan,nan,nan,0.014866374,0.0,0.0,0.0,0.0,1310988,1310988,6620172,0,0,0,164,1,1,1,2,0,0,0,0,0,0,0,0
48420000,48340000,4831840897,0.0012975418,0.028182715,0.14857368,0,3.7661715,0.383574,nan,nan,nan,0.010123017,0.0,0.0,0.0,0.0,1310988,1310988,6620172,0,0,0,164,1,1,1,2,0,0,0,0,0,0,0,0
48620000,48540000,4831840897,0.0013305927,0.030752951,0.15859061,0,3.7657676,0.368205,nan,nan,nan,0.012673579,0.0,0.0,0.0,0.0,1310988,1310988,6620172,0,0,0,164,1,1,1,2,0,0,0,0,0,0,0,0
48828000,48748000,4831840897,0.0013287197,0.030325776,0.15713796,0,3.7708247,0.38372374,nan,nan,nan,0.010992945,0.0,0.0,0.0,0.0,1310988,1310988,6620172,0,0,0,164,1,1,1,2,0,0,0,0,0,0,0,0
49020000,48940000,4831840897,0.001382864,0.035802994,0.18148313,0,3.7649984,0.36971942,nan,nan,nan,0.012939345,0.0,0.0,0.0,0.0,1310988,1310988,6620172,0,0,0,164,1,1,1,2,0,0,0,0,0,0,0,0
49220000,49140000,4831840897,0.0014033066,0.038213633,0.19395167,0,3.764603,0.38225177,nan,nan,nan,0.013276978,0.0,0.0,0.0,0.0,1310988,1310988,6620172,0,0,0,164,1,1,1,2,0,0,0,0,0,0,0,0
49420000,49340000,4831840897,0.001447855,0.041793726,0.21028838,0,3.764142,0.3690856,nan,nan,nan,0.017218783,0.0,0.0,0.0,0.0,1310988,1310988,6620172,0,0,0,164,1,1,1,2,0,0,0,0,0,0,0,0
49620000,49540000,4831840897,0.0014705767,0.044430163,0.22477941,0,3.7636664,0.38164526,nan,nan,nan,0.014391391,0.0,0.0,0.0,0.0,1310988,1310988,6620172,0,0,0,164,1,1,1,2,0,0,0,0,0,0,0,0
49828000,49748000,4831840897,0.001484578,0.044642434,0.22419496,0,3.768584,0.36952624,nan,nan,nan,0.015889639,0.0,0.0,0.0,0.0,1310988,1310988,6620172,0,0,0,164,1,1,1,2,0,0,0,0,0,0,0,0
50020000,49940000,4831840897,0.0015476352,0.051240355,0.25924766,0,3.7624955,0.38344818,nan,nan,nan,0.01610736,0.0,0.0,0.0,0.0,1310988,1310988,6620172,0,0,0,164,1,1,1,2,0,0,0,0,0,0,0,0
50228000,50148000,4831840897,0.0015601417,0.051345516,0.2576122,0,3.7670982,0.3689583,nan,nan,nan,0.016430978,0.0,0.0,0.0,0.0,1310988,1310988,6620172,0,0,0,164,1,1,1,2,0,0,0,0,0,0,0,0
50428000,50348000,4831840897,0.00157082,0.053774193,0.26911336,0,3.7657127,0.3836609,nan,nan,nan,0.016423242,0.0,0.0,0.0,0.0,1310988,1310988,6620172,0,0,0,164,1,1,1,2,0,0,0,0,0,0,0,0
50628000,50548000,4831840897,0.0003399623,0.04462658,0.25814518,0,3.9053507,0.36842144,nan,nan,nan,0.031479884,0.0,0.0,0.0,0.0,1310988,1310988,6620172,0,0,0,164,1,1,1,2,0,0,0,0,0,0,0,0
50828000,50748000,4831840897,0.00035929182,0.042528458,0.24741171,0,3.9038062,0.3831206,nan,nan,nan,0.034134652,0.0,0.0,0.0,0.0,1310988,1310988,6620172,0,0,0,164,1,1,1,2,0,0,0,0,0,0,0,0
51020000,50940000,4831840897,0.00049931504,0.043058597,0.23823585,0,3.896394,0.3692453,nan,nan,nan,0.05601704,0.0,0.0,0.0,0.0,1310988,1310988,6620172,0,0,0,164,1,1,1,2,0,0,0,0,0,0,0,0
51228000,51148000,4831840897,0.00045241037,0.040222187,0.23153156,0,3.9002116,0.38269955,nan,nan,nan,0.05828364,0.0,0.0,0.0,0.0,1310988,1310988,6620172,0,0,0,164,1,1,1,2,0,0,0,0,0,0,0,0
51428000,51348000,4831840897,0.00054947985,0.048984833,0.24895355,0,3.8980882,0.3695972,nan,nan,nan,0.08817584,0.0,0.0,0.0,0.0,1310988,1310988,6620172,0,0,0,164,1,1,1,2,0,0,0,0,0,0,0,0
51620000,51540000,4831840897,0.00061028346,0.038763203,0.21273051,0,3.8900087,0.3812827,nan,nan,nan,0.09320021,0.0,0.0,0.0,0.0,1310988,1310988,6620172,0,0,0,164,1,1,1,2,0,0,0,0,0,0,0,0
51828000,51748000,4831840897,0.00063151296,0.057485495,0.26416126,0,3.8929646,0.36918852,nan,nan,nan,0.1298342,0.0,0.0,0.0,0.0,1310988,1310988,6620172,0,0,0,164,1,1,1,2,0,0,0,0,0,0,0,0
52028000,51948000,4831840897,0.0006172167,0.039173428,0.20995472,0,3.889872,0.3839328,nan,nan,nan,0.1273931,0.0,0.0,0.0,0.0,1310988,1310988,6620172,0,0,0,164,1,1,1,2,0,0,0,0,0,0,0,0
52228000,52148000,4831840897,0.00065447995,0.06808528,0.28918025,0,3.886396,0.36861604,nan,nan,nan,0.15316227,0.0,0.0,0.0,0.0,1310988,1310988,6620172,0,0,0,164,1,1,1,2,0,0,0,0,0,0,0,0
52428000,52348000,4831840897,0.00065264094,0.040854167,0.2066884,0,3.8825588,0.38328084,nan,nan,nan,0.16259652,0.0,0.0,0.0,0.0,1310988,1310988,6620172,0,0,0,164,1,1,1,2,0,0,0,0,0,0,0,0
52628000,52548000,4831840897,0.0006065333,0.074731216,0.30546853,0,3.8783925,0.37006754,nan,nan,nan,0.19012809,0.0,0.0,0.0,0.0,1310988,1310988,6620172,0,0,0,164,1,1,1,2,0,0,0,0,0,0,0,0
52828000,52748000,4831840897,0.00063258025,0.041761108,0.20385353,0,3.873965,0.38261524,nan,nan,nan,0.1888445,0.0,0.0,0.0,0.0,1310988,1310988,6620172,0,0,0,164,1,1,1,2,0,0,0,0,0,0,0,0
53020000,52940000,4831840897,0.0005437552,0.08276625,0.32592043,0,3.863741,0.3686368,nan,nan,nan,0.2084367,0.0,0.0,0.0,0.0,1310988,1310988,6620172,0,0,0,164,1,1,1,2,0,0,0,0,0,0,0,0
53228000,53148000,4831840897,0.00057271874,0.039033014,0.19409804,0,3.864633,0.38422698,nan,nan,nan,0.20480357,0.0,0.0,0.0,0.0,1310988,1310988,6620172,0,0,0,164,1,1,1,2,0,0,0,0,0,0,0,0
53420000,53340000,4831840897,0.00045468315,0.08301529,0.32742846,0,3.8542852,0.36806726,nan,nan,nan,0.21251246,0.0,0.0,0.0,0.0,1310988,1310988,6620172,0,0,0,164,1,1,1,2,0,0,0,0,0,0,0,0
53620000,53540000,4831840897,0.00048767333,0.03757785,0.18816723,0,3.849604,0.38276517,nan,nan,nan,0.20651948,0.0,0.0,0.0,0.0,1310988,1310988,6620172,0,0,0,164,1,1,1,2,0,0,0,0,0,0,0,0
53820000,53740000,4831840897,0.0004418134,0.07147087,0.29347786,0,3.8449569,0.36967385,nan,nan,nan,0.20088205,0.0,0.0,0.0,0.0,1310988,1310988,6620172,0,0,0,164,1,1,1,2,0,0,0,0,0,0,0,0
54020000,53940000,4831840897,0.00039081936,0.03497448,0.1874399,0,3.8404691,0.38225508,nan,nan,nan,0.1927903,0.0,0.0,0.0,0.0,1310988,1310988,6620172,0,0,0,164,1,1,1,2,0,0,0,0,0,0,0,0
54228000,54148000,4831840897,0.0004971804,0.06013052,0.26592222,0,3.841648,0.3699145,nan,nan,nan,0.17224085,0.0,0.0,0.0,0.0,1310988,1310988,6620172,0,0,0,164,1,1,1,2,0,0,0,0,0,0,0,0
54420000,54340000,4831840897,0.00035299594,0.032985717,0.18836686,0,3.83185,0.3838334,nan,nan,nan,0.16341305,0.0,0.0,0.0,0.0,1310988,1310988,6620172,0,0,0,164,1,1,1,2,0,0,0,0,0,0,0,0
54628000,54548000,4831840897,0.00046909178,0.043700203,0.22221525,0,3.8333035,0.36937216,nan,nan,nan,0.1181818,0.0,0.0,0.0,0.0,1310988,1310988,6620172,0,0,0,164,1,1,1,2,0,0,0,0,0,0,0,0
54828000,54748000,4831840897,0.00031894006,0.034399915,0.19450064,0,3.829347,0.38406116,nan,nan,nan,0.115617305,0.0,0.0,0.0,0.0,1310988,1310988,6620172,0,0,0,164,1,1,1,2,0,0,0,0,0,0,0,0
55020000,54940000,4831840897,0.00035996223,0.032119885,0.18732782,0,3.819822,0.36794087,nan,nan,nan,0.065077774,0.0,0.0,0.0,0.0,1310988,1310988,6620172,0,0,0,164,1,1,1,2,0,0,0,0,0,0,0,0
55228000,55148000,4831840897,0.00028599307,0.03888059,0.1975175,0,3.8216538,0.38340142,nan,nan,nan,0.07224992,0.0,0.0,0.0,0.0,1310988,1310988,6620172,0,0,0,164,1,1,1,2,0,0,0,0,0,0,0,0
55420000,55340000,4831840897,0.0002779259,0.041156884,0.19577853,0,3.8122594,0.36929047,nan,nan,nan,0.02481234,0.0,0.0,0.0,0.0,1310988,1310988,6620172,0,0,0,164,1,1,1,2,0,0,0,0,0,0,0,0
55620000,55540000,4831840897,7.8610385e-05,0.057597995,0.2747889,0,3.9550893,0.38181165,nan,nan,nan,0.038063154,0.0,0.0,0.0,0.0,1310988,1310988,6620172,0,0,0,164,1,1,1,2,0,0,0,0,0,0,0,0
55828000,55748000,4831840897,0.00018292597,0.07296623,0.3150291,0,3.9572034,0.36961567,nan,nan,nan,0.0833326,0.0,0.0,0.0,0.0,1310988,1310988,6620172,0,0,0,164,1,1,1,2,0,0,0,0,0,0,0,0
56028000,55948000,4831840897,0.0001117989,0.06527814,0.29004097,0,3.9535615,0.38208574,nan,nan,nan,0.09187172,0.0,0.0,0.0,0.0,1310988,1310988,6620172,0,0,0,164,1,1,1,2,0,0,0,0,0,0,0,0
56228000,56148000,4831840897,0.00024841586,0.0991089,0.39085656,0,3.9503434,0.36909068,nan,nan,nan,0.16969758,0.0,0.0,0.0,0.0,1310988,1310988,6620172,0,0,0,1188,1,1,1,2,0,0,0,0,0,0,0,0
56428000,56348000,4831840897,0.00013085382,0.065239646,0.29765013,0,3.9489076,0.38363552,nan,nan,nan,0.16893545,0.0,0.0,0.0,0.0,1310988,1310988,6620172,0,0,0,1188,1,1,1,2,0,0,0,0,0,0,0,0
56628000,56548000,4831840897,0.0001294922,0.12272107,0.489142,0,3.9494724,0.36786643,nan,nan,nan,0.25279832,0.0,0.0,0.0,0.0,1310988,1310988,6620172,0,0,0,1188,1,1,1,2,0,0,0,0,0,0,0,0
56820000,56740000,4831840897,0.00013543166,0.07744924,0.32806522,0,3.9450488,0.38068882,nan,nan,nan,0.25108433,0.0,0.0,0.0,0.0,1310988,1310988,6620172,0,0,0,1188,1,1,1,2,0,0,0,0,0,0,0,0
57028000,56948000,4831840897,0.00044987092,0.13003409,0.5191782,0,3.953809,0.36753637,nan,nan,nan,0.3145016,0.0,0.0,0.0,0.0,1310988,1310988,6620172,0,0,0,1188,1,1,1,2,0,0,0,0,0,0,0,0
57220000,57140000,4832889473,0.00019322187,0.07062646,0.31501538,0,3.950775,0.37757295,nan,nan,nan,0.31256467,0.0,0.0,0.0,0.0,1310988,1310988,6620172,0,0,0,1188,1,1,1,2,0,0,0,0,0,0,0,0
57420000,57340000,4832889473,0.00072156586,0.12148672,0.5018844,0,3.954047,0.36355796,nan,nan,nan,0.38396838,0.0,0.0,0.0,0.0,1310988,1310988,6620172,0,0,0,1188,1,1,1,2,0,0,0,0,0,0,0,0
57620000,57540000,4832889473,0.00048080113,0.05211469,0.2745987,0,3.9578009,0.3757337,nan,nan,nan,0.38061503,0.0,0.0,0.0,0.0,1310988,1310988,6620172,0,0,0,1188,1,1,1,2,0,0,0,0,0,0,0,0
57820000,57740000,4832889473,0.001174292,0.1180288,0.50584614,0,3.9609833,0.35966524,nan,nan,nan,0.43831044,0.0,0.0,0.0,0.0,1310988,1310988,6620172,0,0,0,1188,1,1,1,2,0,0,0,0,0,0,0,0
58028000,57948000,4832889473,0.00065642036,0.05148387,0.30350608,0,3.970528,0.3717613,nan,nan,nan,0.44991326,0.0,0.0,0.0,0.0,1310988,1310988,6620172,0,0,0,1188,1,1,1,2,0,0,0,0,0,0,0,0
58220000,58140000,4832889473,0.0014822884,0.116519414,0.52592796,0,3.9661217,0.35712346,nan,nan,nan,0.502247,0.0,0.0,0.0,0.0,1310988,1310988,6620172,0,0,0,1188,1,1,1,2,0,0,0,0,0,0,0,0
58420000,58340000,4832889473,0.0008929889,0.05972513,0.37293386,0,3.9676297,0.3659826,nan,nan,nan,0.5010788,0.0,0.0,0.0,0.0,1310988,1310988,6620172,0,0,0,1188,1,1,1,2,0,0,0,0,0,0,0,0
58620000,58540000,4832889473,0.0016141981,0.11116076,0.5375601,0,3.9673762,0.3524256,nan,nan,nan,0.5435198,0.0,0.0,0.0,0.0,1310988,1310988,6620172,0,0,0,1188,1,1,1,2,0,0,0,0,0,0,0,0
58828000,58748000,4832889473,0.0011553818,0.06572704,0.4146427,0,3.9726965,0.36334622,nan,nan,nan,0.53346324,0.0,0.0,0.0,0.0,1310988,1310988,6620172,0,0,0,1188,1,1,1,2,0,0,0,0,0,0,0,0
59028000,58948000,4832889473,0.0017359656,0.10228855,0.5283133,0,3.9695022,0.3482739,nan,nan,nan,0.5565434,0.0,0.0,0.0,0.0,1310988,1310988,6620172,0,0,0,1188,1,1,1,2,0,0,0,0,0,0,0,0
59220000,59140000,4832889473,0.0010824584,0.079387695,0.49423215,0,3.9593532,0.35754657,nan,nan,nan,0.5440272,0.0,0.0,0.0,0.0,1310988,1310988,6620172,0,0,0,1188,1,1,1,2,0,0,0,0,0,0,0,0
59428000,59348000,4832889473,0.0016408162,0.0915142,0.52157307,0,3.9593098,0.34553486,nan,nan,nan,0.5455582,0.0,0.0,0.0,0.0,1310988,1310988,6620172,0,0,0,164,1,1,1,2,0,0,0,0,0,0,0,0
59628000,59548000,4832889473,0.0013773314,0.08887534,0.52890086,0,3.9522152,0.35357884,nan,nan,nan,0.5341432,0.0,0.0,0.0,0.0,1310988,1310988,6620172,0,0,0,164,1,1,1,2,0,0,0,0,0,0,0,0
59820000,59740000,4832889473,0.0013681107,0.091872156,0.55540603,0,3.9372518,0.3410982,nan,nan,nan,0.5201409,0.0,0.0,0.0,0.0,1310988,1310988,6620172,0,0,0,164,1,1,1,2,0,0,0,0,0,0,0,0
60020000,59940000,4832889473,0.0014410001,0.1057094,0.6062767,0,3.9275382,0.3492266,nan,nan,nan,0.5082687,0.0,0.0,0.0,0.0,1310988,1310988,6620172,0,0,0,164,1,1,1,2,0,0,0,0,0,0,0,0
60220000,60140000,4832889473,0.0010830611,0.09469189,0.57076734,0,3.9165661,0.33810717,nan,nan,nan,0.47630942,0.0,0.0,0.0,0.0,1310988,1310988,6620172,0,0,0,164,1,1,1,2,0,0,0,0,0,0,0,0
60420000,60340000,4832889473,0.0015765654,0.11677113,0.64529103,0,3.9061835,0.34824777,nan,nan,nan,0.46316406,0.0,0.0,0.0,0.0,1310988,1310988,6620172,0,0,0,164,1,1,1,2,0,0,0,0,0,0,0,0
60620000,60540000,4832889473,0.0009421086,0.10293831,0.59522754,0,3.895558,0.33612952,nan,nan,nan,0.4176634,0.0,0.0,0.0,0.0,1310988,1310988,6620172,0,0,0,164,1,1,1,2,0,0,0,0,0,0,0,0
60820000,60740000,4832889473,0.0002714332,0.015151543,0.084693365,0,4.0416703,0.34676188,nan,nan,nan,0.41603625,0.0,0.0,0.0,0.0,1310988,1310988,6620172,0,0,0,164,1,1,1,2,0,0,0,0,0,0,0,0
61020000,60940000,4832889473,0.0016044815,0.06336449,0.25422272,0,4.030632,0.33688772,nan,nan,nan,0.38222626,0.0,0.0,0.0,0.0,1310988,1310988,6620172,0,0,0,164,1,1,1,2,0,0,0,0,0,0,0,0
61220000,61140000,4832889473,0.00022855644,0.016514406,0.09315189,0,4.0200634,0.34649542,nan,nan,nan,0.37033772,0.0,0.0,0.0,0.0,1310988,1310988,6620172,0,0,0,164,1,1,1,2,0,0,0,0,0,0,0,0
61420000,61340000,4832889473,0.0011952893,0.053031065,0.2018292,0,4.009396,0.33718756,nan,nan,nan,0.33393657,0.0,0.0,0.0,0.0,1310988,1310988,6620172,0,0,0,164,1,1,1,2,0,0,0,0,0,0,0,0
61620000,61540000,4832889473,0.0003449635,0.018516973,0.104519,0,3.9991312,0.34913644,nan,nan,nan,0.32703304,0.0,0.0,0.0,0.0,1310988,1310988,6620172,0,0,0,164,1,1,1,2,0,0,0,0,0,0,0,0
61820000,61740000,4832889473,0.0008467063,0.04500234,0.15986992,0,3.9887338,0.33851108,nan,nan,nan,0.27774516,0.0,0.0,0.0,0.0,1310988,1310988,6620172,0,0,0,164,1,1,1,2,0,0,0,0,0,0,0,0
62020000,61940000,4832889473,0.0005165293,0.020794306,0.11477609,0,3.978687,0.35111785,nan,nan,nan,0.28123656,0.0,0.0,0.0,0.0,1310988,1310988,6620172,0,0,0,164,1,1,1,2,0,0,0,0,0,0,0,0
62220000,62140000,4832889473,0.00057195546,0.034260005,0.11379636,0,3.9685175,0.34238404,nan,nan,nan,0.24309129,0.0,0.0,0.0,0.0,1310988,1310988,6620172,0,0,0,164,1,1,1,2,0,0,0,0,0,0,0,0
62428000,62348000,4832889473,0.0006784541,0.024178285,0.13090713,0,3.9641097,0.35475057,nan,nan,nan,0.23443313,0.0,0.0,0.0,0.0,1310988,1310988,6620172,0,0,0,164,1,1,1,2,0,0,0,0,0,0,0,0
62628000,62548000,4832889473,0.0004690542,0.026209109,0.089106716,0,3.9535065,0.34593326,nan,nan,nan,0.20077986,0.0,0.0,0.0,0.0,1310988,1310988,6620172,0,0,0,164,1,1,1,2,0,0,0,0,0,0,0,0
62828000,62748000,4832889473,0.00080049917,0.026057886,0.1372788,0,3.9427052,0.3599503,nan,nan,nan,0.19605057,0.0,0.0,0.0,0.0,1310988,1310988,6620172,0,0,0,164,1,1,1,2,0,0,0,0,0,0,0,0
63020000,62940000,4832889473,0.00062200526,0.021377942,0.075569525,0,3.9259994,0.34832102,nan,nan,nan,0.17126542,0.0,0.0,0.0,0.0,1310988,1310988,6620172,0,0,0,164,1,1,1,2,0,0,0,0,0,0,0,0
63228000,63148000,4832889473,0.00094240374,0.03004605,0.1495606,0,3.920423,0.3635808,nan,nan,nan,0.17157362,0.0,0.0,0.0,0.0,1310988,1310988,6620172,0,0,0,164,1,1,1,2,0,0,0,0,0,0,0,0
63428000,63348000,4832889473,0.0007445311,0.014175057,0.07230028,0,3.910474,0.35412437,nan,nan,nan,0.14370719,0.0,0.0,0.0,0.0,1310988,1310988,6620172,0,0,0,164,1,1,1,2,0,0,0,0,0,0,0,0
63620000,63540000,4832889473,0.0011409466,0.037391532,0.16838351,0,3.896094,0.36587986,nan,nan,nan,0.14905208,0.0,0.0,0.0,0.0,1310988,1310988,6620172,0,0,0,164,1,1,1,2,0,0,0,0,0,0,0,0
63820000,63740000,4832889473,0.0010253594,0.020799544,0.106324784,0,3.887346,0.35532117,nan,nan,nan,0.12080366,0.0,0.0,0.0,0.0,1310988,1310988,6620172,0,0,0,164,1,1,1,2,0,0,0,0,0,0,0,0
64020000,63940000,4832889473,0.0012164216,0.04164086,0.18474059,0,3.8787246,0.3690895,nan,nan,nan,0.12555511,0.0,0.0,0.0,0.0,1310988,1310988,6620172,0,0,0,164,1,1,1,2,0,0,0,0,0,0,0,0
64220000,64140000,4832889473,0.0011021775,0.031059155,0.14699884,0,3.870103,0.3556195,nan,nan,nan,0.10134901,0.0,0.0,0.0,0.0,1310988,1310988,6620172,0,0,0,164,1,1,1,2,0,0,0,0,0,0,0,0
64420000,64340000,4832889473,0.0012340512,0.0461775,0.20441547,0,3.8616018,0.36860207,nan,nan,nan,0.10372493,0.0,0.0,0.0,0.0,1310988,1310988,6620172,0,0,0,164,1,1,1,2,0,0,0,0,0,0,0,0
64620000,64540000,4832889473,0.0011684822,0.03990633,0.18390766,0,3.8531055,0.35458672,nan,nan,nan,0.08268965,0.0,0.0,0.0,0.0,1310988,1310988,6620172,0,0,0,164,1,1,1,2,0,0,0,0,0,0,0,0
64820000,64740000,4832889473,0.0012567982,0.04990674,0.22418076,0,3.844722,0.36686373,nan,nan,nan,0.08604653,0.0,0.0,0.0,0.0,1310988,1310988,6620172,0,0,0,164,1,1,1,2,0,0,0,0,0,0,0,0
65028000,64948000,4832889473,0.0012063652,0.045156933,0.20536245,0,3.841851,0.35333067,nan,nan,nan,0.07184921,0.0,0.0,0.0,0.0,1310988,1310988,6620172,0,0,0,164,1,1,1,2,0,0,0,0,0,0,0,0
65228000,65148000,4832889473,0.0012478912,0.049649842,0.22606958,0,3.8336165,0.36507776,nan,nan,nan,0.07135843,0.0,0.0,0.0,0.0,1310988,1310988,6620172,0,0,0,164,1,1,1,2,0,0,0,0,0,0,0,0
65428000,65348000,4832889473,0.0012266213,0.047106307,0.22110204,0,3.825296,0.35266262,nan,nan,nan,0.048662227,0.0,0.0,0.0,0.0,1310988,1310988,6620172,0,0,0,164,1,1,1,2,0,0,0,0,0,0,0,0
65620000,65540000,4832889473,0.0012812553,0.05251291,0.25279608,0,3.8116364,0.3634878,nan,nan,nan,0.05397348,0.0,0.0,0.0,0.0,1310988,1310988,6620172,0,0,0,164,1,1,1,2,0,0,0,0,0,0,0,0
65828000,65748000,4832889473,0.0012822712,0.052274708,0.25018623,0,3.8088775,0.35016295,nan,nan,nan,0.040838707,0.0,0.0,0.0,0.0,1310988,1310988,6620172,0,0,0,164,1,1,1,2,0,0,0,0,0,0,0,0
66020000,65940000,4832889473,0.0003059183,0.04926429,0.2748556,0,3.940472,0.36081868,nan,nan,nan,0.04347937,0.0,0.0,0.0,0.0,1310988,1310988,6620172,0,0,0,164,1,1,1,2,0,0,0,0,0,0,0,0
66228000,66148000,4832889473,0.00034537615,0.051114317,0.28044486,0,3.937465,0.3479246,nan,nan,nan,0.05580687,0.0,0.0,0.0,0.0,1310988,1310988,6620172,0,0,0,164,1,1,1,2,0,0,0,0,0,0,0,0
66428000,66348000,4832889473,0.0003395194,0.046894744,0.26196072,0,3.9289944,0.35925016,nan,nan,nan,0.053667154,0.0,0.0,0.0,0.0,1310988,1310988,6620172,0,0,0,164,1,1,1,2,0,0,0,0,0,0,0,0
66628000,66548000,4832889473,0.00043346666,0.04876131,0.26213744,0,3.9205263,0.34609962,nan,nan,nan,0.066213936,0.0,0.0,0.0,0.0,1310988,1310988,6620172,0,0,0,164,1,1,1,2,0,0,0,0,0,0,0,0
