timestamp,timestamp_sample,time_last_fuse,device_id,observation[0],observation[1],observation[2],observation_variance[0],observation_variance[1],observation_variance[2],innovation[0],innovation[1],innovation[2],innovation_variance[0],innovation_variance[1],innovation_variance[2],test_ratio[0],test_ratio[1],test_ratio[2],estimator_instance,fusion_enabled,innovation_rejected,fused
3124000,3095000,0,0,0.0069049094,-0.21995588,0.43037337,0.0,0.0,0.0,-0.0069049094,0.21995588,-0.43037337,0.0,0.0,0.0,0.0,0.0,0.0,0,0,0,0
3252000,3166190,0,0,0.007996431,-0.21444094,0.42801628,0.0,0.0,0.0,-0.007996431,0.21444094,-0.42801628,0.0,0.0,0.0,inf,inf,inf,0,0,1,0
3324000,3238939,0,0,0.008166994,-0.22039428,0.43158716,0.0,0.0,0.0,-0.00098754,0.00092193484,-0.0014868975,0.0,0.0,0.0,inf,inf,inf,0,0,1,0
3396000,3310369,0,0,0.010598248,-0.21693356,0.4284595,0.0,0.0,0.0,-0.0032471996,-0.0025785416,0.0016175508,0.0,0.0,0.0,inf,inf,inf,0,0,1,0
3468000,3383124,0,0,0.011967629,-0.21971911,0.4251026,0.0,0.0,0.0,-0.005216874,0.0013540387,0.005567789,0.0,0.0,0.0,inf,inf,inf,0,0,1,0
3540000,3453792,0,0,0.009036914,-0.21455501,0.42861542,0.0,0.0,0.0,-0.00057643745,-0.004752144,0.00096803904,0.0,0.0,0.0,inf,inf,inf,0,0,1,0
3612000,3527262,0,0,0.010543971,-0.20994367,0.42719194,0.0,0.0,0.0,-0.0018670177,-0.009420589,0.0023580492,0.0,0.0,0.0,inf,inf,inf,0,0,1,0
3684000,3598287,0,0,0.010410568,-0.21695079,0.42939433,0.0,0.0,0.0,-0.0014739614,-0.002432108,0.00014078617,0.0,0.0,0.0,inf,inf,inf,0,0,1,0
3756000,3671384,0,0,0.0057816585,-0.21710347,0.42763993,0.0,0.0,0.0,0.0034622098,-0.002277881,0.001889497,0.0,0.0,0.0,inf,inf,inf,0,0,1,0
3828000,3742026,0,0,0.010181616,-0.21698053,0.4298451,0.0,0.0,0.0,-0.0010432629,-0.002407968,-0.0003171265,0.0,0.0,0.0,inf,inf,inf,0,0,1,0
3900000,3815486,0,0,0.011510726,-0.2147896,0.43202254,0.0,0.0,0.0,-0.0023814328,-0.0046173334,-0.002503723,0.0,0.0,0.0,inf,inf,inf,0,0,1,0
3972000,3886471,0,0,0.012829329,-0.21585974,0.42937678,0.0,0.0,0.0,-0.0034248931,-0.0035694093,0.00012472272,0.0,0.0,0.0,inf,inf,inf,0,0,1,0
4044000,3959571,0,0,0.012440238,-0.21378548,0.42928588,0.0,0.0,0.0,-0.0030149482,-0.00559254,0.0002412796,0.0,0.0,0.0,inf,inf,inf,0,0,1,0
4116000,4031638,0,0,0.011072086,-0.21636266,0.42885065,0.0,0.0,0.0,-0.0014363173,-0.003026843,0.0006659627,0.0,0.0,0.0,inf,inf,inf,0,0,1,0
4188000,4103642,0,0,0.00018584289,-0.2138204,0.43316028,0.0,0.0,0.0,0.009644379,-0.0056020766,-0.003664881,0.0,0.0,0.0,inf,inf,inf,0,0,1,0
4260000,4175334,0,0,0.010638248,-0.21762599,0.42827567,0.0,0.0,0.0,-0.0017781071,-0.0017643124,0.0012572408,0.0,0.0,0.0,inf,inf,inf,0,0,1,0
4332000,4247704,0,0,0.007988659,-0.21790615,0.4313569,0.0,0.0,0.0,0.0009667007,-0.0015053451,-0.0018367767,0.0,0.0,0.0,inf,inf,inf,0,0,1,0
4404000,4319020,0,0,0.010667568,-0.21509598,0.4290491,0.0,0.0,0.0,-0.0017267745,-0.0043028146,0.00047776103,0.0,0.0,0.0,inf,inf,inf,0,0,1,0
4476000,4391753,0,0,0.0069457083,-0.21301103,0.42866403,0.0,0.0,0.0,0.0018684329,-0.006375417,0.00087180734,0.0,0.0,0.0,inf,inf,inf,0,0,1,0
4548000,4463426,0,0,0.00996012,-0.21743734,0.42682138,0.0,0.0,0.0,-0.0012969049,-0.001963675,0.002710104,0.0,0.0,0.0,inf,inf,inf,0,0,1,0
4620000,4535792,0,0,0.011253883,-0.22112648,0.43212444,0.0,0.0,0.0,-0.0025176378,0.001724869,-0.002594769,0.0,0.0,0.0,inf,inf,inf,0,0,1,0
4692000,4607825,0,0,0.011719371,-0.21575904,0.43109393,0.0,0.0,0.0,-0.0029537855,-0.0035295784,-0.001507163,0.0,0.0,0.0,inf,inf,inf,0,0,1,0
4764000,4679828,0,0,0.009117897,-0.20763583,0.4280336,0.0,0.0,0.0,-0.0001559062,-0.011643261,0.0015540123,0.0,0.0,0.0,inf,inf,inf,0,0,1,0
4836000,4751490,0,0,0.009458557,-0.21598476,0.42965898,0.0,0.0,0.0,-0.00052466244,-0.0032933056,-7.0273876e-05,0.0,0.0,0.0,inf,inf,inf,0,0,1,0
4908000,4823855,0,0,0.006182859,-0.2184627,0.42708164,0.0,0.0,0.0,0.0028324923,-0.00053063035,0.0026505888,0.0,0.0,0.0,inf,inf,inf,0,0,1,0
4980000,4894423,0,0,0.008360201,-0.21679224,0.42719722,0.0,0.0,0.0,0.00045023765,-0.0021538585,0.0025633574,0.0,0.0,0.0,inf,inf,inf,0,0,1,0
5052000,4967879,0,0,0.009596094,-0.21596369,0.43175364,0.0,0.0,0.0,-0.0008242717,-0.0029514432,-0.0019765496,0.0,0.0,0.0,inf,inf,inf,0,0,1,0
5124000,5038807,0,0,0.01092976,-0.2169028,0.42897668,0.0,0.0,0.0,-0.0020821355,-0.0018636584,0.00087457895,0.0,0.0,0.0,inf,inf,inf,0,0,1,0
5196000,5111899,0,0,0.009485276,-0.21519054,0.42982575,0.0,0.0,0.0,-0.0004960988,-0.0035512298,3.5107136e-05,0.0,0.0,0.0,inf,inf,inf,0,0,1,0
5268000,5183551,0,0,0.01167665,-0.21566407,0.42925802,0.0,0.0,0.0,-0.0026561273,-0.0030706227,0.0006057918,0.0,0.0,0.0,inf,inf,inf,0,0,1,0
5340000,5255916,0,0,0.011546331,-0.22072841,0.43010786,0.0,0.0,0.0,-0.002330522,0.00203529,-0.00022700429,0.0,0.0,0.0,inf,inf,inf,0,0,1,0
5412000,5326838,0,0,0.0116070565,-0.21539879,0.42865542,0.0,0.0,0.0,-0.0022001844,-0.0032342076,0.0012518466,0.0,0.0,0.0,inf,inf,inf,0,0,1,0
5484000,5399930,0,0,0.0074100285,-0.21907283,0.4326523,0.0,0.0,0.0,0.0021692053,0.000475958,-0.002730459,0.0,0.0,0.0,inf,inf,inf,0,0,1,0
5556000,5470486,0,0,0.009974177,-0.2154075,0.4300367,0.0,0.0,0.0,-0.00054505,-0.0032653362,-0.0001501739,0.0,0.0,0.0,inf,inf,inf,0,0,1,0
5628000,5543942,0,0,0.00914997,-0.21418707,0.4337378,0.0,0.0,0.0,0.00030001905,-0.0044704825,-0.0038439333,0.0,0.0,0.0,inf,inf,inf,0,0,1,0
5700000,5614860,0,0,0.008264567,-0.21669385,0.4296172,0.0,0.0,0.0,0.0011648508,-0.0019376874,0.00029033422,0.0,0.0,0.0,inf,inf,inf,0,0,1,0
5772000,5687952,0,0,0.010819141,-0.21261686,0.42459476,0.0,0.0,0.0,-0.0014800839,-0.006149426,0.0052461624,0.0,0.0,0.0,inf,inf,inf,0,0,1,0
5844000,5758868,0,0,0.010217972,-0.21504349,0.42873544,0.0,0.0,0.0,-0.0007591769,-0.0037212372,0.0011036694,0.0,0.0,0.0,inf,inf,inf,0,0,1,0
5916000,5831960,0,0,0.0032846346,-0.21613753,0.4259216,0.0,0.0,0.0,0.006256363,-0.0026831478,0.0038872063,0.0,0.0,0.0,inf,inf,inf,0,0,1,0
5988000,5902875,0,0,0.010578201,-0.21569327,0.4277828,0.0,0.0,0.0,-0.0014274875,-0.0030804873,0.0020583868,0.0,0.0,0.0,inf,inf,inf,0,0,1,0
6060000,5975967,0,0,0.012677219,-0.2129458,0.43061733,0.0,0.0,0.0,-0.0034312345,-0.005837843,-0.00078323483,0.0,0.0,0.0,inf,inf,inf,0,0,1,0
6132000,6046881,0,0,0.009377566,-0.21555795,0.4295962,0.0,0.0,0.0,9.700935e-05,-0.003222391,0.00023460388,0.0,0.0,0.0,inf,inf,inf,0,0,1,0
6204000,6119972,0,0,0.0103835715,-0.2114115,0.43213555,0.0,0.0,0.0,-0.00088334363,-0.007349089,-0.0022952259,0.0,0.0,0.0,inf,inf,inf,0,0,1,0
6276000,6189795,0,0,0.010455714,-0.21397635,0.42883202,0.0,0.0,0.0,-0.0008797059,-0.004761964,0.0010179579,0.0,0.0,0.0,inf,inf,inf,0,0,1,0
6348000,6263977,0,0,0.0121272905,-0.2146567,0.4233935,0.0,0.0,0.0,-0.0024384288,-0.0040320754,0.006479144,0.0,0.0,0.0,inf,inf,inf,0,0,1,0
6420000,6334525,0,0,0.009512444,-0.21700124,0.42779845,0.0,0.0,0.0,0.00039489102,-0.0016627759,0.0020818114,0.0,0.0,0.0,inf,inf,inf,0,0,1,0
6492000,6407981,0,0,0.008531912,-0.21577391,0.43162033,0.0,0.0,0.0,0.0013796324,-0.0028582662,-0.0017240047,0.0,0.0,0.0,inf,inf,inf,0,0,1,0
6564000,6478529,0,0,0.009389042,-0.21538566,0.430199,0.0,0.0,0.0,0.0004980499,-0.0032323152,-0.00029486418,0.0,0.0,0.0,inf,inf,inf,0,0,1,0
6636000,6551984,0,0,0.016640246,-0.22017927,0.42320928,0.0,0.0,0.0,-0.006753251,0.0015981644,0.006713599,0.0,0.0,0.0,inf,inf,inf,0,0,1,0
6708000,6623623,0,0,0.009775368,-0.21781595,0.42862892,0.0,0.0,0.0,0.0005553318,-0.000697732,0.0013178587,0.0,0.0,0.0,inf,inf,inf,0,0,1,0
6780000,6695987,0,0,0.008122162,-0.21288766,0.43265024,0.0,0.0,0.0,0.0022868058,-0.005610183,-0.0026973784,0.0,0.0,0.0,inf,inf,inf,0,0,1,0
6852000,6767625,0,0,0.009823802,-0.21654789,0.42986506,0.0,0.0,0.0,0.00046996493,-0.0019055754,0.000113129616,0.0,0.0,0.0,inf,inf,inf,0,0,1,0
6924000,6839989,0,0,0.006286981,-0.22103935,0.43089572,0.0,0.0,0.0,0.004011763,0.0026230514,-0.00089880824,0.0,0.0,0.0,inf,inf,inf,0,0,1,0
6996000,6910536,0,0,0.010624965,-0.2153304,0.4291663,0.0,0.0,0.0,-0.00049134064,-0.0031223,0.0008161366,0.0,0.0,0.0,inf,inf,inf,0,0,1,0
7068000,6983991,0,0,0.014115975,-0.20998009,0.42945197,0.0,0.0,0.0,-0.0039100805,-0.008448735,0.00054085255,0.0,0.0,0.0,inf,inf,inf,0,0,1,0
7140000,7054901,0,0,0.011016251,-0.21523808,0.42936513,0.0,0.0,0.0,-0.0005221227,-0.0031677186,0.0006324351,0.0,0.0,0.0,inf,inf,inf,0,0,1,0
7212000,7127992,0,0,0.01556722,-0.2117918,0.43176648,0.0,0.0,0.0,-0.004975616,-0.006707683,-0.0018188655,0.0,0.0,0.0,inf,inf,inf,0,0,1,0
7284000,7198539,0,0,0.007687406,-0.21495488,0.43075484,0.0,0.0,0.0,0.0032361434,-0.0035226345,-0.0008043945,0.0,0.0,0.0,inf,inf,inf,0,0,1,0
7356000,7271994,0,0,0.015137452,-0.21651939,0.42763406,0.0,0.0,0.0,-0.004342,-0.0019093454,0.0023444295,0.0,0.0,0.0,inf,inf,inf,0,0,1,0
7428000,7343267,0,0,0.010240224,-0.2126262,0.43266577,0.0,0.0,0.0,0.00082984846,-0.005878359,-0.0027327836,0.0,0.0,0.0,inf,inf,inf,0,0,1,0
7500000,7415995,0,0,0.015183165,-0.22002092,0.4347967,0.0,0.0,0.0,-0.004089392,0.0014920831,-0.004876673,0.0,0.0,0.0,inf,inf,inf,0,0,1,0
7572000,7487632,0,0,0.008832464,-0.2159417,0.42984948,0.0,0.0,0.0,0.0025748145,-0.0025651753,7.352233e-05,0.0,0.0,0.0,inf,inf,inf,0,0,1,0
7644000,7559996,0,0,0.012706193,-0.22196808,0.4292716,0.0,0.0,0.0,-0.0013958095,0.003342688,0.00059369206,0.0,0.0,0.0,inf,inf,inf,0,0,1,0
7716000,7631997,0,0,0.012752166,-0.21577395,0.42867917,0.0,0.0,0.0,-0.001302151,-0.0028534085,0.0011814237,0.0,0.0,0.0,inf,inf,inf,0,0,1,0
7788000,7703997,0,0,0.012540931,-0.21601605,0.42573655,0.0,0.0,0.0,-0.0010159705,-0.0026747882,0.004089713,0.0,0.0,0.0,inf,inf,inf,0,0,1,0
7860000,7775997,0,0,0.009125622,-0.21477087,0.4277676,0.0,0.0,0.0,0.0025107693,-0.0039106756,0.0020603836,0.0,0.0,0.0,inf,inf,inf,0,0,1,0
7924000,7843997,0,0,0.007913508,-0.21455874,0.42960358,0.0,0.0,0.0,0.0036112731,-0.004077092,0.00025069714,0.0,0.0,0.0,inf,inf,inf,0,0,1,0
7996000,7913198,0,0,0.010470627,-0.21744183,0.42934495,0.0,0.0,0.0,0.00093058683,-0.001226306,0.00049617887,0.0,0.0,0.0,inf,inf,inf,0,0,1,0
8060000,7979998,0,0,0.015316819,-0.21886759,0.42928925,0.0,0.0,0.0,-0.003903334,0.00020819902,0.00055605173,0.0,0.0,0.0,inf,inf,inf,0,0,1,0
8132000,8051998,0,0,0.01072466,-0.21684782,0.42785537,0.0,0.0,0.0,0.000921797,-0.0018022805,0.0019883513,0.0,0.0,0.0,inf,inf,inf,0,0,1,0
8204000,8123998,0,0,0.010338107,-0.21860467,0.4327567,0.0,0.0,0.0,0.0013024341,-4.388392e-05,-0.0029120147,0.0,0.0,0.0,inf,inf,inf,0,0,1,0
8276000,8194180,0,0,0.0065237163,-0.21617487,0.4295657,0.0,0.0,0.0,0.0051033394,-0.0024574697,0.0002876222,0.0,0.0,0.0,inf,inf,inf,0,0,1,0
8348000,8263999,0,0,0.012313618,-0.21492128,0.43015236,0.0,0.0,0.0,-0.00092232134,-0.0037115961,-0.00029301643,0.0,0.0,0.0,inf,inf,inf,0,0,1,0
8420000,8332399,0,0,0.010461429,-0.21611643,0.4279015,0.0,0.0,0.0,0.0010158848,-0.0025126785,0.0019574165,0.0,0.0,0.0,inf,inf,inf,0,0,1,0
8484000,8399999,0,0,0.008198794,-0.21276331,0.42868945,0.0,0.0,0.0,0.0032719783,-0.005807966,0.0011990964,0.0,0.0,0.0,inf,inf,inf,0,0,1,0
8556000,8470908,0,0,0.008597828,-0.21486348,0.43071613,0.0,0.0,0.0,0.0027502328,-0.0036941469,-0.0008174181,0.0,0.0,0.0,inf,inf,inf,0,0,1,0
8628000,8543999,0,0,0.013859456,-0.21663918,0.4261825,0.0,0.0,0.0,-0.0026264247,-0.0019040257,0.0037265718,0.0,0.0,0.0,inf,inf,inf,0,0,1,0
8700000,8615271,0,0,0.00885827,-0.2162616,0.42699668,0.0,0.0,0.0,0.0025230432,-0.0022328794,0.0029332936,0.0,0.0,0.0,inf,inf,inf,0,0,1,0
8772000,8687999,0,0,0.009697637,-0.21708962,0.4334617,0.0,0.0,0.0,0.001649538,-0.0013975501,-0.0035271049,0.0,0.0,0.0,inf,inf,inf,0,0,1,0
8844000,8757818,0,0,0.0101951985,-0.21650085,0.42928037,0.0,0.0,0.0,0.0010983543,-0.0019889474,0.0006542802,0.0,0.0,0.0,inf,inf,inf,0,0,1,0
8916000,8832000,0,0,0.0061369957,-0.21197225,0.4309753,0.0,0.0,0.0,0.0051489277,-0.006510243,-0.0010367334,0.0,0.0,0.0,inf,inf,inf,0,0,1,0
8988000,8902909,0,0,0.008696108,-0.21560605,0.42631072,0.0,0.0,0.0,0.0023786658,-0.0028420538,0.0036508143,0.0,0.0,0.0,inf,inf,inf,0,0,1,0
9060000,8976000,0,0,0.012817852,-0.20985359,0.4358544,0.0,0.0,0.0,-0.0018236935,-0.008602932,-0.005895078,0.0,0.0,0.0,inf,inf,inf,0,0,1,0
9132000,9047636,0,0,0.009106402,-0.21695137,0.4292605,0.0,0.0,0.0,0.00197466,-0.0015054941,0.00069642067,0.0,0.0,0.0,inf,inf,inf,0,0,1,0
9204000,9120000,0,0,0.006172988,-0.21530227,0.42388856,0.0,0.0,0.0,0.004813623,-0.0031549782,0.0060705543,0.0,0.0,0.0,inf,inf,inf,0,0,1,0
9276000,9191636,0,0,0.009472956,-0.21627867,0.42995447,0.0,0.0,0.0,0.0013938276,-0.0021812022,6.3478947e-06,0.0,0.0,0.0,inf,inf,inf,0,0,1,0
9348000,9264000,0,0,0.010214683,-0.21909148,0.43090725,0.0,0.0,0.0,0.0006036274,0.0006531179,-0.000934273,0.0,0.0,0.0,inf,inf,inf,0,0,1,0
9420000,9334909,0,0,0.008236949,-0.21692011,0.42916116,0.0,0.0,0.0,0.0025653644,-0.0014959574,0.0008235872,0.0,0.0,0.0,inf,inf,inf,0,0,1,0
9492000,9408000,0,0,0.010632495,-0.21023965,0.42876405,0.0,0.0,0.0,9.946246e-05,-0.008182794,0.0012191534,0.0,0.0,0.0,inf,inf,inf,0,0,1,0
9564000,9478545,0,0,0.008803033,-0.21604618,0.4312148,0.0,0.0,0.0,0.0019050678,-0.0023585558,-0.0012219548,0.0,0.0,0.0,inf,inf,inf,0,0,1,0
9636000,9552000,0,0,0.006391156,-0.21607572,0.42739695,0.0,0.0,0.0,0.004239295,-0.002295822,0.0026146472,0.0,0.0,0.0,inf,inf,inf,0,0,1,0
9708000,9623636,0,0,0.009332885,-0.2150517,0.4276697,0.0,0.0,0.0,0.0011610044,-0.003282413,0.0023643076,0.0,0.0,0.0,inf,inf,inf,0,0,1,0
9780000,9696000,0,0,0.011131325,-0.22021656,0.4322163,0.0,0.0,0.0,-0.0007153088,0.0018438101,-0.0022000074,0.0,0.0,0.0,inf,inf,inf,0,0,1,0
9852000,9767272,0,0,0.009156987,-0.21597007,0.42763725,0.0,0.0,0.0,0.0013090968,-0.0023820251,0.0023882687,0.0,0.0,0.0,inf,inf,inf,0,0,1,0
9924000,9840000,0,0,0.0053058416,-0.21631216,0.42225766,0.0,0.0,0.0,0.005140394,-0.0020348132,0.0077709854,0.0,0.0,0.0,inf,inf,inf,0,0,1,0
9996000,9911636,0,0,0.010014792,-0.21715191,0.4300034,0.0,0.0,0.0,0.00021726917,-0.0011667907,4.4703484e-05,0.0,0.0,0.0,inf,inf,inf,0,0,1,0
10068000,9984000,0,0,0.0070475615,-0.2195546,0.43012306,0.0,0.0,0.0,0.0032195621,0.00127244,-5.7190657e-05,0.0,0.0,0.0,inf,inf,inf,0,0,1,0
10140000,10055636,0,0,0.009483423,-0.21591738,0.42946917,0.0,0.0,0.0,0.0007018633,-0.0023547262,0.00060367584,0.0,0.0,0.0,inf,inf,inf,0,0,1,0
10212000,10128000,0,0,0.0074079363,-0.21580654,0.4287176,0.0,0.0,0.0,0.0027943524,-0.0024682283,0.0013535321,0.0,0.0,0.0,inf,inf,inf,0,0,1,0
10284000,10198909,0,0,0.009602268,-0.21522391,0.42858055,0.0,0.0,0.0,0.00052088033,-0.0031229556,0.0014558733,0.0,0.0,0.0,inf,inf,inf,0,0,1,0
10356000,10272000,0,0,0.010936976,-0.2198837,0.4348196,0.0,0.0,0.0,-0.0008231634,0.001534,-0.004784405,0.0,0.0,0.0,inf,inf,inf,0,0,1,0
10428000,10344000,0,0,0.011232482,-0.21468434,0.4295799,0.0,0.0,0.0,-0.0011258144,-0.0036536306,0.00046139956,0.0,0.0,0.0,inf,inf,inf,0,0,1,0
10500000,10416000,0,0,0.006517562,-0.21519509,0.4297488,0.0,0.0,0.0,0.0036569731,-0.0031604022,0.00028195977,0.0,0.0,0.0,inf,inf,inf,0,0,1,0
10572000,10487636,0,0,0.009199776,-0.21565542,0.42880532,0.0,0.0,0.0,0.00083883107,-0.0026605576,0.0012487769,0.0,0.0,0.0,inf,inf,inf,0,0,1,0
10644000,10560000,0,0,0.010382993,-0.2196284,0.42822245,0.0,0.0,0.0,-0.00037459098,0.0012861192,0.001818955,0.0,0.0,0.0,inf,inf,inf,0,0,1,0
10716000,10630181,0,0,0.008742214,-0.21515782,0.43052253,0.0,0.0,0.0,0.0013311943,-0.003150314,-0.00046530366,0.0,0.0,0.0,inf,inf,inf,0,0,1,0
10788000,10704000,0,0,0.006189474,-0.21731766,0.43492568,0.0,0.0,0.0,0.003848373,-0.00099428,-0.0048695505,0.0,0.0,0.0,inf,inf,inf,0,0,1,0
10860000,10775636,0,0,0.009599352,-0.21453755,0.42908263,0.0,0.0,0.0,0.0002483707,-0.0037187487,0.0010061264,0.0,0.0,0.0,inf,inf,inf,0,0,1,0
10932000,10848000,0,0,0.0050657233,-0.22007862,0.4200129,0.0,0.0,0.0,0.004765981,0.001849249,0.010089934,0.0,0.0,0.0,inf,inf,inf,0,0,1,0
11004000,10918909,0,0,0.009681415,-0.21585883,0.42899168,0.0,0.0,0.0,2.7764589e-05,-0.0023555607,0.0011214912,0.0,0.0,0.0,inf,inf,inf,0,0,1,0
11076000,10992000,0,0,0.009935035,-0.21860139,0.42880306,0.0,0.0,0.0,-0.00024462398,0.00035001338,0.0012917817,0.0,0.0,0.0,inf,inf,inf,0,0,1,0
11148000,11063272,0,0,0.007910226,-0.2163904,0.43149266,0.0,0.0,0.0,0.0017691292,-0.0018580854,-0.0013960898,0.0,0.0,0.0,inf,inf,inf,0,0,1,0
11220000,11136000,0,0,0.014596021,-0.21575272,0.43053237,0.0,0.0,0.0,-0.0049531665,-0.0025040805,-0.00043919683,0.0,0.0,0.0,inf,inf,inf,0,0,1,0
11292000,11207636,0,0,0.009204089,-0.2172879,0.42954344,0.0,0.0,0.0,0.00058414135,-0.0009728074,0.0005444288,0.0,0.0,0.0,inf,inf,inf,0,0,1,0
11364000,11280000,0,0,0.010580376,-0.21319325,0.430627,0.0,0.0,0.0,-0.0008345321,-0.005062282,-0.0005354881,0.0,0.0,0.0,inf,inf,inf,0,0,1,0
11436000,11350545,0,0,0.010606053,-0.21565746,0.4302265,0.0,0.0,0.0,-0.000850576,-0.0026175082,-0.00014513731,0.0,0.0,0.0,inf,inf,inf,0,0,1,0
11508000,11424000,0,0,0.0063622007,-0.21997908,0.43249002,0.0,0.0,0.0,0.0034451326,0.0017226487,-0.0024003983,0.0,0.0,0.0,inf,inf,inf,0,0,1,0
11580000,11493818,0,0,0.008326531,-0.2161576,0.4290384,0.0,0.0,0.0,0.0013787663,-0.0021119416,0.001046896,0.0,0.0,0.0,inf,inf,inf,0,0,1,0
11652000,11568000,0,0,0.012439759,-0.21808858,0.42734718,0.0,0.0,0.0,-0.002742583,-0.00018110871,0.0027382374,0.0,0.0,0.0,inf,inf,inf,0,0,1,0
11724000,11638909,0,0,0.00796384,-0.21557191,0.4287931,0.0,0.0,0.0,0.0018273853,-0.0026698709,0.0013043582,0.0,0.0,0.0,inf,inf,inf,0,0,1,0
11796000,11712000,0,0,0.0047394955,-0.21046895,0.43090564,0.0,0.0,0.0,0.0049795858,-0.0077835023,-0.0008120239,0.0,0.0,0.0,inf,inf,inf,0,0,1,0
11868000,11783636,0,0,0.010550304,-0.21518831,0.42915398,0.0,0.0,0.0,-0.0009985557,-0.0030447692,0.0009531975,0.0,0.0,0.0,inf,inf,inf,0,0,1,0
11940000,11856000,0,0,0.006791645,-0.20837224,0.4268379,0.0,0.0,0.0,0.0027642683,-0.009863585,0.0032678545,0.0,0.0,0.0,inf,inf,inf,0,0,1,0
12012000,11927272,0,0,0.009376818,-0.2149301,0.42762887,0.0,0.0,0.0,8.3139166e-05,-0.0032899678,0.0024870038,0.0,0.0,0.0,inf,inf,inf,0,0,1,0
12084000,12000000,0,0,0.012325154,-0.21894076,0.43350914,0.0,0.0,0.0,-0.0028779367,0.00075648725,-0.0033748448,0.0,0.0,0.0,inf,inf,inf,0,0,1,0
12156000,12070909,0,0,0.008383048,-0.21454547,0.42854342,0.0,0.0,0.0,0.0011220602,-0.0036105365,0.0016039908,0.0,0.0,0.0,inf,inf,inf,0,0,1,0
12228000,12144000,0,0,0.008046853,-0.21205544,0.4341991,0.0,0.0,0.0,0.0014390023,-0.0060777813,-0.0040397644,0.0,0.0,0.0,inf,inf,inf,0,0,1,0
12300000,12215636,0,0,0.010232125,-0.21833909,0.42822644,0.0,0.0,0.0,-0.00075149257,0.00021758676,0.0019389689,0.0,0.0,0.0,inf,inf,inf,0,0,1,0
12372000,12288000,0,0,0.009627463,-0.21166769,0.42874536,0.0,0.0,0.0,-8.3321705e-05,-0.0064352453,0.0014280379,0.0,0.0,0.0,inf,inf,inf,0,0,1,0
12444000,12359636,0,0,0.009588019,-0.21812266,0.42917538,0.0,0.0,0.0,-1.590047e-05,2.065301e-05,0.0009978414,0.0,0.0,0.0,inf,inf,inf,0,0,1,0
12516000,12432000,0,0,0.009383806,-0.22095226,0.42776215,0.0,0.0,0.0,0.00017952081,0.0028726012,0.0024226308,0.0,0.0,0.0,inf,inf,inf,0,0,1,0
12588000,12503272,0,0,0.010747833,-0.21532409,0.42817056,0.0,0.0,0.0,-0.0011490192,-0.0027668625,0.0020076632,0.0,0.0,0.0,inf,inf,inf,0,0,1,0
12660000,12576000,0,0,0.008041191,-0.21639113,0.42485458,0.0,0.0,0.0,0.0015919702,-0.0016849786,0.0053304434,0.0,0.0,0.0,inf,inf,inf,0,0,1,0
12732000,12647272,0,0,0.009958986,-0.21673335,0.42835787,0.0,0.0,0.0,-0.00034978613,-0.0013231635,0.0018376112,0.0,0.0,0.0,inf,inf,inf,0,0,1,0
12804000,12720000,0,0,0.010435935,-0.21977071,0.43272915,0.0,0.0,0.0,-0.00078238174,0.0017061383,-0.0025387704,0.0,0.0,0.0,inf,inf,inf,0,0,1,0
12876000,12790909,0,0,0.010132879,-0.21610172,0.42753989,0.0,0.0,0.0,-0.00047253817,-0.0019696504,0.0026469529,0.0,0.0,0.0,inf,inf,inf,0,0,1,0
12948000,12864000,0,0,0.0042620776,-0.21956435,0.4238075,0.0,0.0,0.0,0.005415802,0.0015293062,0.0063973367,0.0,0.0,0.0,inf,inf,inf,0,0,1,0
13020000,12935636,0,0,0.008131348,-0.21411884,0.4300043,0.0,0.0,0.0,0.0013922304,-0.0039488077,0.00018745661,0.0,0.0,0.0,inf,inf,inf,0,0,1,0
13092000,13008000,0,0,0.0040865475,-0.21612106,0.4329861,0.0,0.0,0.0,0.005403123,-0.0019360632,-0.0027883053,0.0,0.0,0.0,inf,inf,inf,0,0,1,0
13164000,13079272,0,0,0.009637272,-0.21605267,0.42726362,0.0,0.0,0.0,-0.00032805465,-0.0020309985,0.0029247105,0.0,0.0,0.0,inf,inf,inf,0,0,1,0
13236000,13152000,0,0,0.014157339,-0.21609429,0.42558324,0.0,0.0,0.0,-0.004801414,-0.001955241,0.0046213865,0.0,0.0,0.0,inf,inf,inf,0,0,1,0
13308000,13223272,0,0,0.009246034,-0.21670997,0.42919728,0.0,0.0,0.0,0.0002073599,-0.001337558,0.0010062158,0.0,0.0,0.0,inf,inf,inf,0,0,1,0
13380000,13296000,0,0,0.0094362,-0.2184421,0.4282974,0.0,0.0,0.0,1.0003336e-05,0.00038559735,0.0019016862,0.0,0.0,0.0,inf,inf,inf,0,0,1,0
13452000,13366909,0,0,0.009875308,-0.21731281,0.4321121,0.0,0.0,0.0,-0.00042289775,-0.00063957274,-0.00186041,0.0,0.0,0.0,inf,inf,inf,0,0,1,0
13524000,13440000,0,0,0.017288271,-0.21723485,0.428076,0.0,0.0,0.0,-0.007837173,-0.00072848797,0.0021701753,0.0,0.0,0.0,inf,inf,inf,0,0,1,0
13596000,13511272,0,0,0.008014869,-0.2165024,0.4306079,0.0,0.0,0.0,0.001633089,-0.0014724433,-0.00037187338,0.0,0.0,0.0,inf,inf,inf,0,0,1,0
13668000,13584000,0,0,0.010460213,-0.21647914,0.42750713,0.0,0.0,0.0,-0.0008408427,-0.0014860779,0.0027343929,0.0,0.0,0.0,inf,inf,inf,0,0,1,0
13740000,13655272,0,0,0.008570484,-0.21614704,0.4294417,0.0,0.0,0.0,0.0010745237,-0.0017786324,0.00081932545,0.0,0.0,0.0,inf,inf,inf,0,0,1,0
13812000,13728000,0,0,0.008726288,-0.21737084,0.42929998,0.0,0.0,0.0,0.0009034686,-0.0005334914,0.00097212195,0.0,0.0,0.0,inf,inf,inf,0,0,1,0
13884000,13798909,0,0,0.00979795,-0.21664712,0.4285871,0.0,0.0,0.0,-0.00019477773,-0.0012912303,0.0016683638,0.0,0.0,0.0,inf,inf,inf,0,0,1,0
13956000,13872000,0,0,0.005862309,-0.21872327,0.43040228,0.0,0.0,0.0,0.0037572994,0.00080531836,-0.00013679266,0.0,0.0,0.0,inf,inf,inf,0,0,1,0
14028000,13943636,0,0,0.011396569,-0.21703109,0.4297443,0.0,0.0,0.0,-0.0018773051,-0.0009070337,0.0005131662,0.0,0.0,0.0,inf,inf,inf,0,0,1,0
14100000,14016000,0,0,0.009404832,-0.21574947,0.427154,0.0,0.0,0.0,0.00014295336,-0.0021706372,0.0031119585,0.0,0.0,0.0,inf,inf,inf,0,0,1,0
14172000,14086909,0,0,0.010373279,-0.21619041,0.43006277,0.0,0.0,0.0,-0.00085590035,-0.001731813,0.000202775,0.0,0.0,0.0,inf,inf,inf,0,0,1,0
14244000,14160000,0,0,0.012169753,-0.21003488,0.43679142,0.0,0.0,0.0,-0.002648984,-0.007951468,-0.0065584183,0.0,0.0,0.0,inf,inf,inf,0,0,1,0
14316000,14231272,0,0,0.010548416,-0.21506886,0.4276878,0.0,0.0,0.0,-0.0009537963,-0.002891764,0.0025565922,0.0,0.0,0.0,inf,inf,inf,0,0,1,0
14388000,14304000,0,0,0.0068363547,-0.21241124,0.42393962,0.0,0.0,0.0,0.0027479976,-0.005563751,0.0062977076,0.0,0.0,0.0,inf,inf,inf,0,0,1,0
14460000,14374909,0,0,0.009346442,-0.2153499,0.42998976,0.0,0.0,0.0,0.00016750209,-0.0026323646,0.00024551153,0.0,0.0,0.0,inf,inf,inf,0,0,1,0
14524000,14444000,0,0,0.011133035,-0.2148266,0.42732337,0.0,0.0,0.0,-0.0016103731,-0.0031559616,0.002911508,0.0,0.0,0.0,inf,inf,inf,0,0,1,0
14596000,14513600,0,0,0.008694531,-0.21622701,0.4291307,0.0,0.0,0.0,0.0008726474,-0.0017438084,0.0011091232,0.0,0.0,0.0,inf,inf,inf,0,0,1,0
14668000,14584000,0,0,0.009534789,-0.20891032,0.42762178,0.0,0.0,0.0,-0.00010078959,-0.0091226995,0.0025894642,0.0,0.0,0.0,inf,inf,inf,0,0,1,0
14740000,14656400,0,0,0.0100979,-0.2174412,0.4294862,0.0,0.0,0.0,-0.0006553773,-0.0005762279,0.0007328093,0.0,0.0,0.0,inf,inf,inf,0,0,1,0
14804000,14724000,0,0,0.012053506,-0.2172936,0.42637298,0.0,0.0,0.0,-0.0026109908,-0.0007086843,0.003853649,0.0,0.0,0.0,inf,inf,inf,0,0,1,0
14876000,14794545,0,0,0.011501481,-0.21557048,0.4302054,0.0,0.0,0.0,-0.002009605,-0.0024254024,2.3424625e-05,0.0,0.0,0.0,inf,inf,inf,0,0,1,0
14948000,14868000,0,0,0.014440029,-0.21628104,0.43326077,0.0,0.0,0.0,-0.0048887497,-0.0017004907,-0.0030259788,0.0,0.0,0.0,inf,inf,inf,0,0,1,0
15020000,14939636,0,0,0.007511243,-0.21570866,0.43025625,0.0,0.0,0.0,0.0021809936,-0.0023535043,-6.54459e-05,0.0,0.0,0.0,inf,inf,inf,0,0,1,0
15092000,15008000,0,0,0.0053692786,-0.2047002,0.43358913,0.0,0.0,0.0,0.004283895,-0.01337117,-0.0034021437,0.0,0.0,0.0,inf,inf,inf,0,0,1,0
15164000,15077600,0,0,0.010052883,-0.21537474,0.43001786,0.0,0.0,0.0,-0.0005071992,-0.0026811957,0.00017932057,0.0,0.0,0.0,inf,inf,inf,0,0,1,0
15228000,15148000,0,0,0.010977667,-0.21318665,0.43158805,0.0,0.0,0.0,-0.0014573671,-0.0048691332,-0.0013902187,0.0,0.0,0.0,inf,inf,inf,0,0,1,0
15300000,15215555,0,0,0.009651868,-0.2154926,0.43162635,0.0,0.0,0.0,-0.00012362562,-0.0025153458,-0.001404494,0.0,0.0,0.0,inf,inf,inf,0,0,1,0
15372000,15286666,0,0,0.012377337,-0.21566331,0.42751223,0.0,0.0,0.0,-0.0028419644,-0.0023385882,0.0027126074,0.0,0.0,0.0,inf,inf,inf,0,0,1,0
15444000,15358666,0,0,0.01273742,-0.21369328,0.43194503,0.0,0.0,0.0,-0.0031972202,-0.0042252094,-0.0016780496,0.0,0.0,0.0,inf,inf,inf,0,0,1,0
15508000,15426000,0,0,0.011906853,-0.21878797,0.42860585,0.0,0.0,0.0,-0.002327485,0.0008774996,0.0016643405,0.0,0.0,0.0,inf,inf,inf,0,0,1,0
15580000,15496000,0,0,0.010017788,-0.21593828,0.42989007,0.0,0.0,0.0,-0.0004416015,-0.001968518,0.00038200617,0.0,0.0,0.0,inf,inf,inf,0,0,1,0
15644000,15564000,0,0,0.013781562,-0.2116298,0.42636076,0.0,0.0,0.0,-0.0042101145,-0.006268114,0.0039159358,0.0,0.0,0.0,inf,inf,inf,0,0,1,0
15716000,15635272,0,0,0.010310203,-0.21605557,0.4300992,0.0,0.0,0.0,-0.0006516203,-0.0018413961,0.00017601252,0.0,0.0,0.0,inf,inf,inf,0,0,1,0
15788000,15704000,0,0,0.009646699,-0.21811818,0.42403537,0.0,0.0,0.0,-1.9967556e-06,0.00022830069,0.0062437654,0.0,0.0,0.0,inf,inf,inf,0,0,1,0
15860000,15772800,0,0,0.009952616,-0.21510576,0.43032438,0.0,0.0,0.0,-0.00033099577,-0.0027661324,-3.5643578e-05,0.0,0.0,0.0,inf,inf,inf,0,0,1,0
15924000,15840000,0,0,0.0067076995,-0.21876271,0.4312534,0.0,0.0,0.0,0.0029158876,0.0008960068,-0.0009621084,0.0,0.0,0.0,inf,inf,inf,0,0,1,0
15996000,15911636,0,0,0.0108081745,-0.21616185,0.42891175,0.0,0.0,0.0,-0.0012755664,-0.001733318,0.0013671517,0.0,0.0,0.0,inf,inf,inf,0,0,1,0
16068000,15984000,0,0,0.012269305,-0.21770099,0.43848124,0.0,0.0,0.0,-0.0027299393,-0.00020197034,-0.008206397,0.0,0.0,0.0,inf,inf,inf,0,0,1,0
16140000,16056000,0,0,0.011020788,-0.21688455,0.42985132,0.0,0.0,0.0,-0.0014728839,-0.0010117888,0.00042667985,0.0,0.0,0.0,inf,inf,inf,0,0,1,0
16212000,16128000,0,0,0.012415813,-0.21545,0.42721823,0.0,0.0,0.0,-0.0028220061,-0.0024687499,0.0030474067,0.0,0.0,0.0,inf,inf,inf,0,0,1,0
16284000,16199636,0,0,0.010986723,-0.21499623,0.4315176,0.0,0.0,0.0,-0.0012953281,-0.0029301792,-0.0012580752,0.0,0.0,0.0,inf,inf,inf,0,0,1,0
16356000,16272000,0,0,0.0033522502,-0.21809137,0.4306395,0.0,0.0,0.0,0.0063856663,0.00014191866,-0.0003926158,0.0,0.0,0.0,inf,inf,inf,0,0,1,0
16428000,16342545,0,0,0.009700426,-0.2165765,0.42907768,0.0,0.0,0.0,-0.00013188366,-0.0013554841,0.0011818409,0.0,0.0,0.0,inf,inf,inf,0,0,1,0
16500000,16416000,0,0,0.014434003,-0.21918723,0.4288177,0.0,0.0,0.0,-0.0048606107,0.001266703,0.001447469,0.0,0.0,0.0,inf,inf,inf,0,0,1,0
16572000,16486181,0,0,0.009123242,-0.21784014,0.42761874,0.0,0.0,0.0,0.00051999185,-9.922683e-05,0.0026353598,0.0,0.0,0.0,inf,inf,inf,0,0,1,0
16644000,16560000,0,0,0.006521849,-0.20973192,0.4261529,0.0,0.0,0.0,0.0031246562,-0.008174971,0.0041175187,0.0,0.0,0.0,inf,inf,inf,0,0,1,0
16716000,16631636,0,0,0.009409093,-0.2166472,0.42888466,0.0,0.0,0.0,0.00018723216,-0.0012620538,0.0013857186,0.0,0.0,0.0,inf,inf,inf,0,0,1,0
16788000,16704000,0,0,0.007954849,-0.21589035,0.4293303,0.0,0.0,0.0,0.0016597826,-0.0020412058,0.00092837214,0.0,0.0,0.0,inf,inf,inf,0,0,1,0
16860000,16775272,0,0,0.009200491,-0.21607836,0.43074626,0.0,0.0,0.0,0.00037756562,-0.0018711835,-0.00049591064,0.0,0.0,0.0,inf,inf,inf,0,0,1,0
16932000,16848000,0,0,0.010399752,-0.21207786,0.42802304,0.0,0.0,0.0,-0.00081509445,-0.005900353,0.0022126436,0.0,0.0,0.0,inf,inf,inf,0,0,1,0
17004000,16918545,0,0,0.010383037,-0.21592258,0.43006542,0.0,0.0,0.0,-0.0008028867,-0.0020606965,0.00016778708,0.0,0.0,0.0,inf,inf,inf,0,0,1,0
17076000,16992000,0,0,0.011872633,-0.21274075,0.429107,0.0,0.0,0.0,-0.0022936529,-0.005236134,0.0011294782,0.0,0.0,0.0,inf,inf,inf,0,0,1,0
17148000,17062909,0,0,0.008477576,-0.21466467,0.4283203,0.0,0.0,0.0,0.0011510849,-0.003311485,0.0019154549,0.0,0.0,0.0,inf,inf,inf,0,0,1,0
17220000,17136000,0,0,0.007499439,-0.2162274,0.42340806,0.0,0.0,0.0,0.0020964318,-0.001741454,0.0068321526,0.0,0.0,0.0,inf,inf,inf,0,0,1,0
17292000,17206181,0,0,0.010490604,-0.214834,0.4303883,0.0,0.0,0.0,-0.00091278553,-0.0031207204,-0.00014051795,0.0,0.0,0.0,inf,inf,inf,0,0,1,0
17364000,17280000,0,0,0.004993293,-0.21905342,0.42652398,0.0,0.0,0.0,0.0045981524,0.0010807514,0.0037143826,0.0,0.0,0.0,inf,inf,inf,0,0,1,0
17436000,17350181,0,0,0.010033025,-0.21614511,0.43225488,0.0,0.0,0.0,-0.00053734984,-0.0018398613,-0.0020206273,0.0,0.0,0.0,inf,inf,inf,0,0,1,0
17508000,17424000,0,0,0.001360674,-0.21296132,0.43470216,0.0,0.0,0.0,0.008152845,-0.0050027072,-0.0044576526,0.0,0.0,0.0,inf,inf,inf,0,0,1,0
17580000,17494181,0,0,0.008775895,-0.21542244,0.42847055,0.0,0.0,0.0,0.0005892534,-0.0024944395,0.0018010736,0.0,0.0,0.0,inf,inf,inf,0,0,1,0
17652000,17568000,0,0,0.01506549,-0.21938524,0.43004864,0.0,0.0,0.0,-0.0056645265,0.0017065406,0.0003427565,0.0,0.0,0.0,inf,inf,inf,0,0,1,0
17724000,17638545,0,0,0.0099499095,-0.21454987,0.4304694,0.0,0.0,0.0,-0.00047370233,-0.0011828244,0.00089904666,0.0,0.0,0.0,inf,inf,inf,0,0,1,0
17796000,17712000,0,0,0.008660981,-0.20846118,0.42928317,0.0,0.0,0.0,-0.0002077911,-0.0031546503,0.0041409433,0.0,0.0,0.0,inf,inf,inf,0,0,1,0
17868000,17784000,0,0,0.002983917,-0.2042187,0.43543786,0.0,0.0,0.0,0.0013173702,-0.0019027889,0.0006866455,0.0,0.0,0.0,inf,inf,inf,0,0,1,0
17940000,17856000,0,0,-0.006457584,-0.19741254,0.4428632,0.0,0.0,0.0,0.0030738655,-0.0020918995,-0.003664285,0.0,0.0,0.0,inf,inf,inf,0,0,1,0
18012000,17926545,0,0,-0.012286097,-0.19233179,0.44184613,0.0,0.0,0.0,-0.0006891787,-0.0006982982,5.90086e-05,0.0,0.0,0.0,inf,inf,inf,0,0,1,0
18084000,18000000,0,0,-0.020555547,-0.18988805,0.44450688,0.0,0.0,0.0,0.0027522799,-0.0015700012,-0.0020863116,0.0,0.0,0.0,inf,inf,inf,0,0,1,0
18156000,18070545,0,0,-0.016229285,-0.1930989,0.4393793,0.0,0.0,0.0,-2.7753413e-07,-0.0020473003,0.0014876425,0.0,0.0,0.0,inf,inf,inf,0,0,1,0
18228000,18144000,0,0,-0.011719808,-0.19977422,0.43732157,0.0,0.0,0.0,0.001482524,-0.0017189085,0.00086197257,0.0,0.0,0.0,inf,inf,inf,0,0,1,0
18300000,18214909,0,0,-0.0016917944,-0.20524518,0.43608472,0.0,0.0,0.0,-0.0015166044,-0.0025222898,-0.0007324815,0.0,0.0,0.0,inf,inf,inf,0,0,1,0
18372000,18288000,0,0,0.0063286372,-0.20682697,0.4384174,0.0,0.0,0.0,-0.0035546594,-0.0059215575,-0.005474508,0.0,0.0,0.0,inf,inf,inf,0,0,1,0
18444000,18358909,0,0,0.0065614353,-0.21331911,0.43051508,0.0,0.0,0.0,7.529603e-05,-0.0028498918,0.000687927,0.0,0.0,0.0,inf,inf,inf,0,0,1,0
18516000,18432000,0,0,0.0036041813,-0.22129922,0.42467758,0.0,0.0,0.0,0.0048323423,0.002796784,0.005316198,0.0,0.0,0.0,inf,inf,inf,0,0,1,0
18588000,18503272,0,0,0.00853597,-0.21772537,0.42699385,0.0,0.0,0.0,0.00056299195,-0.0024181455,0.002148509,0.0,0.0,0.0,inf,inf,inf,0,0,1,0
18660000,18576000,0,0,0.013214359,-0.22697988,0.42477128,0.0,0.0,0.0,-0.0036546458,0.005630493,0.0037403405,0.0,0.0,0.0,inf,inf,inf,0,0,1,0
18732000,18647636,0,0,0.010275215,-0.2194171,0.42813945,0.0,0.0,0.0,2.771616e-05,-0.0031232536,-0.00026237965,0.0,0.0,0.0,inf,inf,inf,0,0,1,0
18804000,18720000,0,0,0.010891461,-0.22156121,0.42265415,0.0,0.0,0.0,0.00040179398,-0.0021793097,0.0045714974,0.0,0.0,0.0,inf,inf,inf,0,0,1,0
18876000,18791272,0,0,0.013333023,-0.22306064,0.42625126,0.0,0.0,0.0,-0.0007836297,-0.0018161833,0.00034233928,0.0,0.0,0.0,inf,inf,inf,0,0,1,0
18948000,18864000,0,0,0.019930882,-0.22058682,0.42192307,0.0,0.0,0.0,-0.0062810387,-0.005214855,0.0041478574,0.0,0.0,0.0,inf,inf,inf,0,0,1,0
19020000,18935272,0,0,0.015027287,-0.22542514,0.4248142,0.0,0.0,0.0,-0.00048227143,-0.0007752627,0.0010155141,0.0,0.0,0.0,inf,inf,inf,0,0,1,0
19092000,19008000,0,0,0.018627247,-0.2348704,0.4219072,0.0,0.0,0.0,-0.0034342837,0.008392006,0.0037521422,0.0,0.0,0.0,inf,inf,inf,0,0,1,0
19164000,19079272,0,0,0.015879355,-0.22436433,0.42499432,0.0,0.0,0.0,-0.00036948174,-0.0021862984,0.00061514974,0.0,0.0,0.0,inf,inf,inf,0,0,1,0
19236000,19152000,0,0,0.017479716,-0.23548064,0.4181325,0.0,0.0,0.0,-0.0018795114,0.00871399,0.007358581,0.0,0.0,0.0,inf,inf,inf,0,0,1,0
19308000,19222909,0,0,0.016481116,-0.22365859,0.42321342,0.0,0.0,0.0,-0.0007532388,-0.0034365356,0.0020976663,0.0,0.0,0.0,inf,inf,inf,0,0,1,0
19380000,19296000,0,0,0.013304956,-0.22553895,0.41850594,0.0,0.0,0.0,0.002551645,-0.001879409,0.0066277087,0.0,0.0,0.0,inf,inf,inf,0,0,1,0
19452000,19366909,0,0,0.015576934,-0.22547373,0.42434645,0.0,0.0,0.0,0.00015800633,-0.0019439161,0.0007920265,0.0,0.0,0.0,inf,inf,inf,0,0,1,0
19524000,19440000,0,0,0.019678978,-0.22039084,0.426847,0.0,0.0,0.0,-0.004176995,-0.006791249,-0.0015740097,0.0,0.0,0.0,inf,inf,inf,0,0,1,0
19596000,19509818,0,0,0.014777496,-0.22432172,0.4239271,0.0,0.0,0.0,0.00052542984,-0.0023871362,0.0016056001,0.0,0.0,0.0,inf,inf,inf,0,0,1,0
19668000,19584000,0,0,0.01958814,-0.22410971,0.42750534,0.0,0.0,0.0,-0.004548533,-0.002117589,-0.0017071068,0.0,0.0,0.0,inf,inf,inf,0,0,1,0
19740000,19655636,0,0,0.014377638,-0.22427434,0.42471123,0.0,0.0,0.0,0.00051210914,-0.0014053434,0.0013827682,0.0,0.0,0.0,inf,inf,inf,0,0,1,0
19812000,19728000,0,0,0.020791328,-0.22874662,0.42758122,0.0,0.0,0.0,-0.0061112996,0.003612414,-0.0011914968,0.0,0.0,0.0,inf,inf,inf,0,0,1,0
19884000,19799272,0,0,0.0129895555,-0.22129638,0.42586327,0.0,0.0,0.0,0.001398134,-0.0033070743,0.0008162856,0.0,0.0,0.0,inf,inf,inf,0,0,1,0
19956000,19872000,0,0,0.016006501,-0.21870185,0.4243997,0.0,0.0,0.0,-0.002073625,-0.0053326786,0.0025939047,0.0,0.0,0.0,inf,inf,inf,0,0,1,0
20028000,19942545,0,0,0.012141764,-0.22273235,0.42704493,0.0,0.0,0.0,0.0014428124,-0.00071270764,0.00026869774,0.0,0.0,0.0,inf,inf,inf,0,0,1,0
20100000,20016000,0,0,0.013524032,-0.21619007,0.4289219,0.0,0.0,0.0,-0.000177457,-0.006624192,-0.0012715757,0.0,0.0,0.0,inf,inf,inf,0,0,1,0
20172000,20087272,0,0,0.011622643,-0.22122529,0.42710853,0.0,0.0,0.0,0.00074989535,-0.0018000007,0.00046110153,0.0,0.0,0.0,inf,inf,inf,0,0,1,0
20244000,20160000,0,0,0.0044819457,-0.22721156,0.42183968,0.0,0.0,0.0,0.0029334757,-0.00040078163,0.003421098,0.0,0.0,0.0,inf,inf,inf,0,0,1,0
20316000,20230545,0,0,-0.00030134927,-0.23367438,0.4208406,0.0,0.0,0.0,0.00034312467,-0.0005309135,0.0008903742,0.0,0.0,0.0,inf,inf,inf,0,0,1,0
20388000,20304000,0,0,-0.009293281,-0.23164544,0.4197586,0.0,0.0,0.0,0.0018562227,-0.008911133,-0.0016839802,0.0,0.0,0.0,inf,inf,inf,0,0,1,0
20460000,20376000,0,0,-0.013220224,-0.2416116,0.4140882,0.0,0.0,0.0,0.00027574878,-0.0034305155,0.0012381077,0.0,0.0,0.0,inf,inf,inf,0,0,1,0
20532000,20448000,0,0,-0.021512195,-0.24093251,0.4027144,0.0,0.0,0.0,0.005056724,-0.0071748644,0.010663241,0.0,0.0,0.0,inf,inf,inf,0,0,1,0
20604000,20518545,0,0,-0.020696973,-0.24822292,0.4121828,0.0,0.0,0.0,0.0016663875,-0.0020564497,-0.00022745132,0.0,0.0,0.0,inf,inf,inf,0,0,1,0
20676000,20592000,0,0,-0.020971859,-0.24914563,0.40919167,0.0,0.0,0.0,-0.0010615122,-0.004364103,0.00063326955,0.0,0.0,0.0,inf,inf,inf,0,0,1,0
20748000,20663272,0,0,-0.023490867,-0.2528277,0.40864426,0.0,0.0,0.0,0.018141126,0.019015938,0.009512901,0.0,0.0,0.0,inf,inf,inf,0,0,1,0
20820000,20736000,0,0,-0.026499331,-0.2569921,0.41139537,0.0,0.0,0.0,0.018017046,0.022084624,0.00609532,0.0,0.0,0.0,inf,inf,inf,0,0,1,0
20892000,20807636,0,0,-0.02112624,-0.25064227,0.40659797,0.0,0.0,0.0,0.013554446,0.016056716,0.011091173,0.0,0.0,0.0,inf,inf,inf,0,0,1,0
20964000,20880000,0,0,-0.022788422,-0.25001374,0.41221914,0.0,0.0,0.0,0.01738395,0.01642105,0.006059766,0.0,0.0,0.0,inf,inf,inf,0,0,1,0
21036000,20951272,0,0,-0.016304007,-0.24805252,0.41075036,0.0,0.0,0.0,0.007703578,0.011592299,0.005860418,0.0,0.0,0.0,inf,inf,inf,0,0,1,0
21108000,21024000,0,0,-0.025615176,-0.2426031,0.40868506,0.0,0.0,0.0,0.015307559,0.0062641352,0.007955819,0.0,0.0,0.0,inf,inf,inf,0,0,1,0
21180000,21094545,0,0,-0.01963395,-0.24903658,0.40934226,0.0,0.0,0.0,0.0058579613,0.012538046,0.0071077645,0.0,0.0,0.0,inf,inf,inf,0,0,1,0
21252000,21168000,0,0,-0.021515701,-0.24398789,0.41982746,0.0,0.0,0.0,0.007926155,0.011082098,-0.0013514161,0.0,0.0,0.0,inf,inf,inf,0,0,1,0
21324000,21238909,0,0,-0.016858382,-0.2388713,0.41435704,0.0,0.0,0.0,0.0070825275,0.012646809,0.007873803,0.0,0.0,0.0,inf,inf,inf,0,0,1,0
21396000,21312000,0,0,-0.0077208513,-0.24187633,0.41746336,0.0,0.0,0.0,0.0028217146,0.021677703,0.008025169,0.0,0.0,0.0,inf,inf,inf,0,0,1,0
21468000,21382545,0,0,-0.0075386846,-0.23184599,0.4210484,0.0,0.0,0.0,-0.00018691178,0.008549705,0.0027806163,0.0,0.0,0.0,inf,inf,inf,0,0,1,0
21540000,21456000,0,0,-0.009876064,-0.23098212,0.41847086,0.0,0.0,0.0,0.0033535874,0.008664757,0.0058926344,0.0,0.0,0.0,inf,inf,inf,0,0,1,0
21612000,21526181,0,0,-0.0025444739,-0.22544639,0.42637253,0.0,0.0,0.0,-0.0016464703,0.006340578,-0.00031262636,0.0,0.0,0.0,inf,inf,inf,0,0,1,0
21684000,21600000,0,0,0.006145452,-0.21367213,0.42974526,0.0,0.0,0.0,-0.001953152,0.004459098,0.0012585521,0.0,0.0,0.0,inf,inf,inf,0,0,1,0
21756000,21670909,0,0,0.014424002,-0.20327492,0.43279377,0.0,0.0,0.0,0.00087990053,0.006187007,0.0036396086,0.0,0.0,0.0,inf,inf,inf,0,0,1,0
21828000,21744000,0,0,0.026560422,-0.18973865,0.4318228,0.0,0.0,0.0,-0.0074930973,-0.0032493025,0.0062913597,0.0,0.0,0.0,inf,inf,inf,0,0,1,0
21900000,21814909,0,0,0.028590934,-0.18910544,0.44220683,0.0,0.0,0.0,-0.003991047,0.0012400001,-0.0021462142,0.0,0.0,0.0,inf,inf,inf,0,0,1,0
21972000,21888000,0,0,0.03142929,-0.18412542,0.44057983,0.0,0.0,0.0,-0.005166754,-0.0018470883,0.00018820167,0.0,0.0,0.0,inf,inf,inf,0,0,1,0
22044000,21958909,0,0,0.03701212,-0.18003738,0.44311723,0.0,0.0,0.0,-0.0063082837,-0.00027506053,-0.00028920174,0.0,0.0,0.0,inf,inf,inf,0,0,1,0
22116000,22032000,0,0,0.049123716,-0.17162913,0.4450123,0.0,0.0,0.0,-0.009614211,0.0012287498,0.001031071,0.0,0.0,0.0,inf,inf,inf,0,0,1,0
22188000,22102181,0,0,0.053896207,-0.16230197,0.44903135,0.0,0.0,0.0,-0.0046635903,0.0015386641,-0.00038528442,0.0,0.0,0.0,inf,inf,inf,0,0,1,0
22260000,22176000,0,0,0.051581085,-0.15162429,0.4575036,0.0,0.0,0.0,0.0020414442,-0.004996568,-0.007896513,0.0,0.0,0.0,inf,inf,inf,0,0,1,0
22332000,22246181,0,0,0.06472505,-0.1525313,0.45088595,0.0,0.0,0.0,-0.008325763,-0.0015590787,-0.0007445812,0.0,0.0,0.0,inf,inf,inf,0,0,1,0
22404000,22320000,0,0,0.063319825,-0.14929649,0.45166308,0.0,0.0,0.0,-0.0059263036,-0.0038405657,-0.0013220906,0.0,0.0,0.0,inf,inf,inf,0,0,1,0
22476000,22390181,0,0,0.06757376,-0.14929852,0.45246065,0.0,0.0,0.0,-0.008205965,-0.0015821457,-0.0016142726,0.0,0.0,0.0,inf,inf,inf,0,0,1,0
22548000,22464000,0,0,0.06908611,-0.14813806,0.449369,0.0,0.0,0.0,-0.006653838,0.00018657744,0.0020338297,0.0,0.0,0.0,inf,inf,inf,0,0,1,0
22620000,22535636,0,0,0.07270138,-0.14421533,0.45192125,0.0,0.0,0.0,-0.007733375,-0.0015580505,-0.00016775727,0.0,0.0,0.0,inf,inf,inf,0,0,1,0
22692000,22608000,0,0,0.06995287,-0.13931663,0.45548016,0.0,0.0,0.0,-0.003394261,-0.00564301,-0.003696382,0.0,0.0,0.0,inf,inf,inf,0,0,1,0
22764000,22680000,0,0,0.07164103,-0.14524284,0.4517742,0.0,0.0,0.0,-0.005206391,-0.00016281009,-0.000115484,0.0,0.0,0.0,inf,inf,inf,0,0,1,0
22836000,22752000,0,0,0.07038711,-0.14388028,0.44582254,0.0,0.0,0.0,-0.0056415796,-0.0035007894,0.00544101,0.0,0.0,0.0,inf,inf,inf,0,0,1,0
22908000,22822545,0,0,0.06859841,-0.14964518,0.45195824,0.0,0.0,0.0,-0.006280318,-0.0004892647,-0.0012609363,0.0,0.0,0.0,inf,inf,inf,0,0,1,0
22980000,22896000,0,0,0.06478288,-0.15544148,0.44898096,0.0,0.0,0.0,-0.004564762,0.0028978884,0.0011925697,0.0,0.0,0.0,inf,inf,inf,0,0,1,0
23052000,22967272,0,0,0.063496895,-0.15314382,0.45155883,0.0,0.0,0.0,-0.003321804,0.0001245141,-0.0015410185,0.0,0.0,0.0,inf,inf,inf,0,0,1,0
23124000,23040000,0,0,0.065469556,-0.14919607,0.44342807,0.0,0.0,0.0,-0.0060052276,-0.0049370974,0.006303996,0.0,0.0,0.0,inf,inf,inf,0,0,1,0
23196000,23110545,0,0,0.060184535,-0.15666483,0.448406,0.0,0.0,0.0,-0.0018455647,0.00076176226,0.00086313486,0.0,0.0,0.0,inf,inf,inf,0,0,1,0
23268000,23184000,0,0,0.060126316,-0.16565259,0.44438753,0.0,0.0,0.0,-0.005717721,0.005054787,0.0037196279,0.0,0.0,0.0,inf,inf,inf,0,0,1,0
23340000,23253454,0,0,0.052678723,-0.16663878,0.44866073,0.0,0.0,0.0,-0.0035143755,0.00025494397,-0.002061069,0.0,0.0,0.0,inf,inf,inf,0,0,1,0
23412000,23328000,0,0,0.04791895,-0.16993421,0.45034936,0.0,0.0,0.0,-0.0010955743,0.0011795163,-0.0043881834,0.0,0.0,0.0,inf,inf,inf,0,0,1,0
23484000,23400000,0,0,0.04487812,-0.17306858,0.44688126,0.0,0.0,0.0,-0.00031551346,0.001991868,-0.001573652,0.0,0.0,0.0,inf,inf,inf,0,0,1,0
23556000,23472000,0,0,0.04731671,-0.17255244,0.45003536,0.0,0.0,0.0,-0.0032470934,0.0007739365,-0.0049488544,0.0,0.0,0.0,inf,inf,inf,0,0,1,0
23628000,23542909,0,0,0.041645464,-0.17858022,0.4441356,0.0,0.0,0.0,-0.0001877509,0.0028987974,-0.0003234148,0.0,0.0,0.0,inf,inf,inf,0,0,1,0
23700000,23616000,0,0,0.031699855,-0.18179178,0.44017944,0.0,0.0,0.0,0.003776107,-0.0015907288,0.0010282695,0.0,0.0,0.0,inf,inf,inf,0,0,1,0
23772000,23688000,0,0,0.030609017,-0.1952995,0.44026288,0.0,0.0,0.0,-0.0013648774,0.004836157,-0.0016053319,0.0,0.0,0.0,inf,inf,inf,0,0,1,0
23844000,23760000,0,0,0.023400018,-0.1988793,0.4374853,0.0,0.0,0.0,0.004600605,0.00721702,0.00073102117,0.0,0.0,0.0,inf,inf,inf,0,0,1,0
23916000,23830545,0,0,0.028825622,-0.19431324,0.43566713,0.0,0.0,0.0,-0.001164969,0.002960056,0.0027057827,0.0,0.0,0.0,inf,inf,inf,0,0,1,0
23988000,23904000,0,0,0.030950418,-0.19551454,0.43753362,0.0,0.0,0.0,-0.002408361,0.0050961226,0.0011897087,0.0,0.0,0.0,inf,inf,inf,0,0,1,0
24060000,23975636,0,0,0.022172274,-0.2026028,0.43523282,0.0,0.0,0.0,0.002809314,0.0073920637,0.0015974045,0.0,0.0,0.0,inf,inf,inf,0,0,1,0
24132000,24048000,0,0,0.01366301,-0.2103631,0.43033773,0.0,0.0,0.0,0.004922732,0.007628605,0.0033733249,0.0,0.0,0.0,inf,inf,inf,0,0,1,0
24204000,24118181,0,0,0.013118571,-0.21240112,0.4292912,0.0,0.0,0.0,0.00012557395,0.0041949153,0.0020169616,0.0,0.0,0.0,inf,inf,inf,0,0,1,0
24276000,24192000,0,0,0.011529501,-0.21262024,0.43232,0.0,0.0,0.0,0.0026686387,0.0062247664,-0.00017270446,0.0,0.0,0.0,inf,inf,inf,0,0,1,0
24348000,24262909,0,0,0.014700305,-0.21072835,0.43068552,0.0,0.0,0.0,0.0019841455,0.007706046,0.002968192,0.0,0.0,0.0,inf,inf,inf,0,0,1,0
24420000,24336000,24340000,0,0.019404605,-0.2097683,0.43766454,0.0025000002,0.0025000002,0.0025000002,-0.0015977919,0.007160604,-0.003832072,0.005119648,0.007525432,0.0075208456,5.540613e-05,0.00076770555,0.00021748661,0,0,0,1
24492000,24407636,24412000,0,0.009884592,-0.21355143,0.42743826,0.0025000002,0.0025000002,0.0025000002,0.003947754,0.0023522526,0.004821956,0.0038740635,0.0042262054,0.0041979547,0.0004469829,0.00014186688,0.0006141205,0,0,0,1
24564000,24480000,24484000,0,0.010390378,-0.22059192,0.4281984,0.0025000002,0.0025000002,0.0025000002,-0.0024349845,0.0014040321,-0.0005234182,0.0034526854,0.0035555454,0.0035293796,0.00019080639,6.228035e-05,8.419405e-06,0,0,0,1
24636000,24550545,24556000,0,0.0011900552,-0.22438604,0.422848,0.0025000002,0.0025000002,0.0025000002,0.005413002,0.0036620498,0.0042467415,0.0032385308,0.0032656926,0.0032420915,0.0010052772,0.0004538998,0.00061493483,0,0,0,1
24708000,24624000,24628000,0,0.008911907,-0.22335382,0.42681956,0.0025000002,0.0025000002,0.0025000002,-0.0012882693,0.0040414482,0.00077342987,0.0031105988,0.0031048364,0.0030820942,5.9282538e-05,0.0005849498,2.1624288e-05,0,0,0,1
24780000,24694545,24700000,0,0.0074317222,-0.2178446,0.42623588,0.0025000002,0.0025000002,0.0025000002,0.003685492,0.002278164,0.0033123791,0.0030252617,0.0030026753,0.0029801694,0.0004988678,0.00019151442,0.00040901545,0,0,0,1
24852000,24768000,24772000,0,0.0027595381,-0.22125968,0.42553714,0.0025000002,0.0025000002,0.0025000002,0.006793831,0.0030357242,0.0025288463,0.0029643418,0.0029316875,0.0029098766,0.0017300501,0.00034831226,0.00024379605,0,0,0,1
24924000,24838909,24844000,0,0.0005345751,-0.22633621,0.42309693,0.0025000002,0.0025000002,0.0025000002,0.0036066475,0.0012537688,0.0014337897,0.0029190357,0.0028797449,0.0028589081,0.0004951371,6.0542487e-05,7.949255e-05,0,0,0,1
24996000,24912000,24916000,0,-0.009784412,-0.2255728,0.41780472,0.0025000002,0.0025000002,0.0025000002,0.009260645,-0.004399672,0.004117012,0.00288403,0.0028402163,0.002820077,0.0033040012,0.00075736974,0.00066384906,0,0,0,1
25068000,24982545,24988000,0,-0.00038942113,-0.22943096,0.41974047,0.0025000002,0.0025000002,0.0025000002,0.001124705,0.0023119599,0.0034379065,0.0028522161,0.0028073501,0.0027883083,4.927791e-05,0.0002115409,0.00047067314,0,0,0,1
25140000,25056000,25060000,0,0.0011487955,-0.22455882,0.42191118,0.0025000002,0.0025000002,0.0025000002,0.0040303767,0.0029961169,0.004109502,0.002828613,0.002781845,0.0027624485,0.0006380801,0.0003583578,0.000678868,0,0,0,1
25212000,25127636,25132000,0,0.005089553,-0.2234547,0.42571828,0.0025000002,0.0025000002,0.0025000002,0.00290759,0.004641786,0.0015833974,0.0028092565,0.0027610064,0.002741458,0.00033437394,0.0008669063,0.00010162137,0,0,0,1
25284000,25200000,25204000,0,-0.0012396052,-0.22360578,0.42241013,0.0025000002,0.0025000002,0.0025000002,0.0056585832,-0.00015458465,0.00239712,0.0027931384,0.0027431694,0.0027242438,0.001273739,9.752363e-07,0.00023402729,0,0,0,1
25356000,25271272,25276000,0,-0.0038964888,-0.23283766,0.42081687,0.0025000002,0.0025000002,0.0025000002,0.0026777657,0.003058225,0.00071549416,0.0027796654,0.002728279,0.002710047,0.00028662238,0.00038096163,2.086929e-05,0,0,0,1
25428000,25344000,25348000,0,-0.0056112357,-0.23387866,0.41881058,0.0025000002,0.0025000002,0.0025000002,0.0028088451,0.0038905293,0.0026907325,0.0027642236,0.0027141725,0.002697127,0.0003171319,0.00061978924,0.00029780404,0,0,0,1
25500000,25415636,25420000,0,-0.0046893153,-0.2298211,0.42077312,0.0025000002,0.0025000002,0.0025000002,0.0039270874,0.0033501983,0.0026955307,0.0027534815,0.0027027605,0.0026854184,0.0006223239,0.00046145482,0.0003002029,0,0,0,1
25572000,25488000,25492000,0,0.0009052083,-0.22105128,0.4187227,0.0025000002,0.0025000002,0.0025000002,0.0044991495,0.0016665012,0.008447915,0.0027439415,0.0026932263,0.0026751778,0.0008196785,0.00011454687,0.002964118,0,0,0,1
25644000,25558545,25564000,0,0.0051698806,-0.22389258,0.42282063,0.0025000002,0.0025000002,0.0025000002,0.0028710528,0.0045645833,0.0041011274,0.0027357792,0.0026843844,0.0026664482,0.00033477947,0.00086219556,0.0007009456,0,0,0,1
25716000,25632000,25636000,0,0.004062211,-0.22574845,0.42583755,0.0025000002,0.0025000002,0.0025000002,0.0037143715,-0.0017262399,-0.0032568276,0.0027295875,0.0026760998,0.0026591718,0.0005616052,0.00012363023,0.00044711656,0,1,0,1
25788000,25702909,25708000,0,0.009233236,-0.23968172,0.41695192,0.0025000002,0.0025000002,0.0025000002,0.0013763327,0.004818067,0.0014925003,0.0027156833,0.0026649686,0.0026507792,7.75042e-05,0.00096806587,9.706429e-05,0,1,0,1
25860000,25776000,25780000,0,0.018221973,-0.235012,0.41876942,0.0025000002,0.0025000002,0.0025000002,0.003061919,0.001482442,0.00027796626,0.0027084642,0.0026536807,0.0026419654,0.00038461108,9.216198e-05,3.2804433e-06,0,1,0,1
25932000,25846909,25852000,0,0.03765703,-0.23085229,0.4191447,0.0025000002,0.0025000002,0.0025000002,0.0006132829,0.0063304454,0.003552407,0.0027149518,0.0026446308,0.0026334636,1.539278e-05,0.0016841233,0.0005414603,0,1,0,1
26004000,25920000,25924000,0,0.056873992,-0.22622283,0.42900327,0.0025000002,0.0025000002,0.0025000002,0.0005617873,0.011507779,-0.0034238696,0.0027314867,0.0026381665,0.0026264607,1.28381425e-05,0.005579436,0.00048121272,0,1,0,1
26076000,25991636,25996000,0,0.075601175,-0.2196772,0.42055002,0.0025000002,0.0025000002,0.0025000002,-0.002248045,0.006946549,0.003646344,0.0027544368,0.002634275,0.002620442,0.00020386126,0.0020253838,0.00057350687,0,1,0,1
26148000,26064000,26068000,0,0.08740799,-0.21790998,0.41745168,0.0025000002,0.0025000002,0.0025000002,0.0005008429,0.0039595515,0.0034564137,0.0027786416,0.0026336347,0.0026153456,1.0030626e-05,0.00066339655,0.0005104553,0,1,0,1
26220000,26135272,26140000,0,0.106850766,-0.21454102,0.41532287,0.0025000002,0.0025000002,0.0025000002,-0.0028581978,0.0046976507,0.0038928092,0.0027962755,0.0026334012,0.0026105952,0.00032461013,0.00091196655,0.00065310794,0,1,0,1
26292000,26208000,26212000,0,0.12345544,-0.20549613,0.41354012,0.0025000002,0.0025000002,0.0025000002,-0.0026347437,0.004811436,0.0058360696,0.002812458,0.0026358373,0.0026058836,0.00027425098,0.0009521553,0.0014627168,0,1,0,1
26364000,26277818,26284000,0,0.14226301,-0.19143009,0.4152073,0.0025000002,0.0025000002,0.0025000002,-0.004206898,0.005725041,0.0058494806,0.0028222434,0.0026389514,0.0026013276,0.00069676613,0.0013256007,0.0014739749,0,1,0,1
26436000,26352000,26356000,0,0.15536547,-0.17728814,0.41836673,0.0025000002,0.0025000002,0.0025000002,-0.0030814665,9.9629164e-05,0.0016839504,0.0028255172,0.002643873,0.0025975464,0.0003734001,1.0524692e-09,0.00012331796,0,1,0,1
26508000,26424000,26428000,0,0.16942923,-0.18410781,0.41217875,0.0025000002,0.0025000002,0.0025000002,-0.0062932726,0.008133858,0.004488647,0.002823075,0.002650658,0.0025944505,0.0015587918,0.0026261683,0.0008770759,0,1,0,1
26572000,26492000,26492000,0,0.17623028,-0.17578314,0.40950415,0.0025000002,0.0025000002,0.0025000002,-0.004853039,0.0008005649,0.004711747,0.0028127548,0.0026563231,0.0025914998,0.0009303646,1.6439108e-05,0.0009658105,0,1,0,1
26644000,26562000,26564000,0,0.18747398,-0.1696796,0.41124773,0.0025000002,0.0025000002,0.0025000002,-0.005608664,0.004667282,0.0020326376,0.0028024751,0.0026596556,0.002588341,0.0012471956,0.0008294388,0.00018316231,0,1,0,1
26716000,26632000,26636000,0,0.19448423,-0.15417325,0.41128498,0.0025000002,0.0025000002,0.0025000002,-0.0033255476,0.0033304393,0.0037086904,0.0027921381,0.002663333,0.00258495,0.00044009546,0.00042705616,0.0005959625,0,1,0,1
26780000,26699555,26700000,0,0.18931726,-0.11978964,0.42661002,0.0025000002,0.0025000002,0.0025000002,-0.008368221,0.020371728,0.008132994,0.0027708914,0.002663558,0.0025826541,0.0028080465,0.016760997,0.0028790105,0,1,0,1
26852000,26772000,26772000,0,0.18337183,-0.11038257,0.43108708,0.0025000002,0.0025000002,0.0025000002,-0.002839299,0.0091392845,0.0025947094,0.0027408837,0.0026499808,0.0025797812,0.0003268053,0.0034295153,0.00029506657,0,1,0,1
26924000,26842666,26844000,0,0.18683226,-0.10723023,0.43323174,0.0025000002,0.0025000002,0.0025000002,-0.006560711,0.0060418323,0.00018820167,0.0027172563,0.0026393984,0.002577239,0.0017600651,0.0014445708,1.5084308e-06,0,1,0,1
26996000,26910000,26916000,0,0.18351859,-0.10909469,0.42261592,0.0025000002,0.0025000002,0.0025000002,-0.0030692178,0.0074814335,0.010639012,0.0026980177,0.0026305139,0.0025748904,0.00038794318,0.002315949,0.0048966715,0,1,0,1
27068000,26981200,26988000,0,0.1855451,-0.10584395,0.43158898,0.0025000002,0.0025000002,0.0025000002,-0.0056525837,0.010884039,0.001835078,0.0026815378,0.002623031,0.00257254,0.0013239378,0.00490279,0.00014747794,0,1,0,1
27132000,27048000,27052000,0,0.18987446,-0.10295765,0.43057016,0.0025000002,0.0025000002,0.0025000002,-0.010035768,0.007922135,0.0025431514,0.002668063,0.0026162579,0.0025704566,0.004194331,0.0025347683,0.000278339,0,1,0,1
27204000,27118909,27124000,0,0.18766783,-0.104783736,0.43258575,0.0025000002,0.0025000002,0.0025000002,-0.0075618024,0.009290278,0.00029468536,0.0026565224,0.0026103503,0.0025685132,0.0023916336,0.0035689105,3.854994e-06,0,1,0,1
27276000,27192000,27196000,0,0.18823066,-0.104538694,0.4330095,0.0025000002,0.0025000002,0.0025000002,-0.0080081355,0.008804902,-0.00036785007,0.0026465484,0.0026050985,0.0025666708,0.0026924054,0.003211369,5.783845e-06,0,1,0,1
27348000,27262545,27268000,0,0.1850726,-0.103783324,0.42922136,0.0025000002,0.0025000002,0.0025000002,-0.004702156,0.0077077746,0.003196627,0.0026378105,0.0026003849,0.002564929,0.00093133934,0.0024936309,0.00044437058,0,1,0,1
27420000,27336000,27340000,0,0.18849649,-0.10237771,0.43094748,0.0025000002,0.0025000002,0.0025000002,-0.008982081,0.011153087,0.0019385815,0.002629696,0.002596472,0.00256324,0.003408834,0.005209076,0.00016330465,0,1,0,1
27492000,27405454,27412000,0,0.18568522,-0.102320485,0.42983454,0.0025000002,0.0025000002,0.0025000002,-0.006108288,0.010800727,0.0027464032,0.002622855,0.002592568,0.00256167,0.0015806011,0.004930266,0.00032883944,0,1,0,1
27556000,27476000,27476000,0,0.18415439,-0.10223775,0.43213165,0.0025000002,0.0025000002,0.0025000002,-0.0045874757,0.010514341,0.00012636185,0.002616731,0.0025889769,0.0025601701,0.0008936057,0.004697646,7.921499e-07,0,1,0,1
27628000,27545200,27548000,0,0.18472357,-0.10357554,0.42986754,0.0025000002,0.0025000002,0.0025000002,-0.0052321167,0.011722572,0.0021224022,0.002611213,0.0025856986,0.0025587447,0.0011648501,0.0058499076,0.00019729346,0,1,0,1
27700000,27616000,27620000,0,0.18650238,-0.09811005,0.43195176,0.0025000002,0.0025000002,0.0025000002,-0.007100765,0.0061299205,-0.0002553463,0.0026062184,0.0025826811,0.0025573855,0.0021495966,0.0015806108,2.8622676e-06,0,1,0,1
27764000,27682666,27684000,0,0.18804152,-0.10197539,0.43008888,0.0025000002,0.0025000002,0.0025000002,-0.008517338,0.00979168,0.0014594793,0.0026016587,0.0025799107,0.0025560984,0.003098239,0.004064829,9.283263e-05,0,1,0,1
27836000,27750000,27756000,0,0.18677977,-0.10004817,0.43151423,0.0025000002,0.0025000002,0.0025000002,-0.008063355,0.0093768835,0.0005133748,0.0025971455,0.0025774157,0.0025548623,0.0027815881,0.0037360627,1.1495859e-05,0,1,0,1
27908000,27820800,27828000,0,0.18529026,-0.09848453,0.432471,0.0025000002,0.0025000002,0.0025000002,-0.006516158,0.0075575635,-0.00068444014,0.0025933497,0.0025750215,0.0025536818,0.0018191966,0.0024314004,2.0337613e-05,0,1,0,1
27972000,27888000,27892000,0,0.18021016,-0.10410768,0.43357113,0.0025000002,0.0025000002,0.0025000002,-0.0013992698,0.012941435,-0.0019750893,0.0025898472,0.0025727793,0.0025525524,8.4001345e-05,0.0072212024,0.00016757364,0,1,0,1
28044000,27959636,27964000,0,0.1854075,-0.10070897,0.43050233,0.0025000002,0.0025000002,0.0025000002,-0.0067728846,0.0095611885,0.0008224249,0.0025866113,0.0025706773,0.002551464,0.0019704874,0.0039126966,2.9658106e-05,0,1,0,1
28116000,28032000,28036000,0,0.18857464,-0.09972404,0.42675412,0.0025000002,0.0025000002,0.0025000002,-0.009968821,0.008421093,0.0043651164,0.0025836066,0.0025687248,0.0025504273,0.0042738444,0.003020529,0.0008295009,0,1,0,1
28188000,28103272,28108000,0,0.18650608,-0.09985918,0.42868754,0.0025000002,0.0025000002,0.0025000002,-0.007786452,0.008302107,0.0021955967,0.0025808052,0.0025668992,0.0025494338,0.0026102462,0.0029493116,0.00021023667,0,1,0,1
28260000,28176000,28180000,0,0.18390238,-0.097906984,0.4350848,0.0025000002,0.0025000002,0.0025000002,-0.005744394,0.0044923127,-0.0035930574,0.0025779887,0.0025649194,0.0025484837,0.0014222139,0.0008615179,0.00056321605,0,1,0,1
28332000,28247272,28252000,0,0.18442291,-0.10071192,0.43039727,0.0025000002,0.0025000002,0.0025000002,-0.0061567407,0.007142931,0.0009948909,0.002575583,0.0025633336,0.0025475658,0.001635248,0.0021909769,4.3263513e-05,0,1,0,1
28404000,28320000,28324000,0,0.1777443,-0.099725194,0.430161,0.0025000002,0.0025000002,0.0025000002,0.00053304597,0.0059407353,0.0010549426,0.0025733213,0.0025618165,0.0025466809,1.2268538e-05,0.0015320678,4.909362e-05,0,1,0,1
28476000,28390545,28396000,0,0.18410994,-0.10096164,0.42877787,0.0025000002,0.0025000002,0.0025000002,-0.0059538903,0.0072301477,0.0023377836,0.0025712128,0.0025603904,0.0025458268,0.0015318673,0.0022502777,0.00023883954,0,1,0,1
28548000,28464000,28468000,0,0.18702823,-0.10240166,0.42771873,0.0025000002,0.0025000002,0.0025000002,-0.008841056,0.008572824,0.0032232702,0.002569212,0.0025590435,0.0025450068,0.0033803827,0.003160412,0.00045374047,0,1,0,1
28620000,28535636,28540000,0,0.18467502,-0.10557155,0.43016523,0.0025000002,0.0025000002,0.0025000002,-0.0066784574,0.007879384,0.0013444722,0.002567261,0.0025573545,0.0025442068,0.0019303664,0.002677321,7.917551e-05,0,1,0,1
28692000,28608000,28612000,0,0.18324603,-0.10600406,0.4300155,0.0025000002,0.0025000002,0.0025000002,-0.0052332627,0.008156456,0.0013193488,0.0025654866,0.002556159,0.0025434443,0.0011861314,0.0028762147,7.64134e-05,0,1,0,1
28764000,28678909,28684000,0,0.18204571,-0.106223725,0.4285614,0.0025000002,0.0025000002,0.0025000002,-0.0040785316,0.008260675,0.0026197433,0.0025638079,0.0025550197,0.002542708,0.0007209077,0.0029557063,0.00030082196,0,1,0,1
28836000,28752000,28756000,0,0.18316124,-0.10038949,0.43073067,0.0025000002,0.0025000002,0.0025000002,-0.0051981355,0.0023513213,0.0002771318,0.0025622204,0.0025539363,0.0025419954,0.0011717533,0.00023644233,3.3285153e-06,0,1,0,1
28908000,28823636,28828000,0,0.18366987,-0.10296351,0.42767832,0.0025000002,0.0025000002,0.0025000002,-0.0056294817,0.004822634,0.0032529533,0.0025607252,0.0025529214,0.0025413085,0.0013750908,0.0010034986,0.00046280812,0,1,0,1
28980000,28896000,28900000,0,0.182681,-0.10913818,0.43039972,0.0025000002,0.0025000002,0.0025000002,-0.004620335,0.010891505,0.00040781498,0.0025592968,0.002551945,0.0025406445,0.0009267952,0.0051492406,7.4695004e-06,0,1,0,1
29052000,28966545,28972000,0,0.18200997,-0.10968048,0.42901424,0.0025000002,0.0025000002,0.0025000002,-0.0040844083,0.0068661943,0.0023950338,0.0025579883,0.0025506585,0.0025399968,0.0007246315,0.0020452992,0.0002515813,0,1,0,1
29124000,29040000,29044000,0,0.17965785,-0.10533241,0.43346417,0.0025000002,0.0025000002,0.0025000002,-0.0017931992,0.0024158284,-0.0021648407,0.002556698,0.0025497759,0.0025393742,0.00013974463,0.00025307003,0.00020487557,0,1,0,1
29196000,29110181,29116000,0,0.1830081,-0.1077599,0.4285692,0.0025000002,0.0025000002,0.0025000002,-0.0051591303,0.0048113093,0.0027108788,0.0025554763,0.002548944,0.0025387728,0.0011572805,0.0010021544,0.00032194928,0,1,0,1
29268000,29184000,29188000,0,0.17665514,-0.100737885,0.4325187,0.0025000002,0.0025000002,0.0025000002,0.0012297969,-0.0023311824,-0.0013562143,0.002554308,0.0025481468,0.0025381881,6.5788656e-05,0.00023619398,8.064482e-05,0,1,0,1
29340000,29254545,29260000,0,0.1838458,-0.10875354,0.43105838,0.0025000002,0.0025000002,0.0025000002,-0.005949994,0.0056903064,0.00013887882,0.002553196,0.002547385,0.002537622,0.0015406586,0.0014034734,8.661169e-07,0,1,0,1
29412000,29328000,29332000,0,0.18238936,-0.117021345,0.42420873,0.0025000002,0.0025000002,0.0025000002,-0.004426633,0.009380855,0.007601708,0.0025522273,0.0025464327,0.0025370761,0.00085307093,0.0038291013,0.0025341078,0,1,0,1
29484000,29399636,29404000,0,0.1824353,-0.111103624,0.43168604,0.0025000002,0.0025000002,0.0025000002,-0.004508228,0.0033757314,-3.8087368e-05,0.002551192,0.002545727,0.0025365415,0.0008851688,0.0004935795,5.97142e-08,0,1,0,1
29556000,29472000,29476000,0,0.1777591,-0.11078162,0.42248812,0.0025000002,0.0025000002,0.0025000002,0.0002312116,0.0029336363,0.009068042,0.002550206,0.0025450627,0.002536023,2.3291716e-06,0.00037588834,0.00360417,0,1,0,1
29628000,29542909,29548000,0,0.1803134,-0.11128372,0.42830986,0.0025000002,0.0025000002,0.0025000002,-0.0023384308,0.0034134537,0.0031554997,0.0025492655,0.002544418,0.0025355183,0.00023833702,0.0005069251,0.00043680923,0,1,0,1
29700000,29616000,29620000,0,0.17695111,-0.10488668,0.4236104,0.0025000002,0.0025000002,0.0025000002,0.0010080327,-0.0030477643,0.0077936053,0.0025483654,0.0025438033,0.0025350298,4.430421e-05,0.00040502092,0.0026611702,0,1,0,1
29772000,29686545,29692000,0,0.18238032,-0.11232066,0.4294449,0.0025000002,0.0025000002,0.0025000002,-0.0044265306,0.0044333264,0.0019466281,0.00254751,0.0025432205,0.0025345553,0.00085461105,0.0008542582,0.00016646442,0,1,0,1
29844000,29760000,29764000,0,0.17740858,-0.1077348,0.43043435,0.0025000002,0.0025000002,0.0025000002,0.00070098427,-0.0043160096,0.001464814,0.0025467996,0.0025425525,0.002534096,2.1437752e-05,0.00081335916,9.3760675e-05,0,1,0,1
29916000,29830545,29836000,0,0.18121295,-0.115712166,0.43042117,0.0025000002,0.0025000002,0.0025000002,-0.0031257293,0.003497988,0.0014615357,0.0025460087,0.0025420105,0.0025336447,0.00042638343,0.00053241814,9.391319e-05,0,1,0,1
29988000,29904000,29908000,0,0.17876895,-0.11219514,0.43509528,0.0025000002,0.0025000002,0.0025000002,-0.0006992605,-0.0009511858,-0.0034861267,0.0025452366,0.0025414627,0.002533191,2.134555e-05,3.970037e-05,0.0005331876,0,1,0,1
