timestamp,timestamp_sample,control_mode_flags,output_tracking_error[0],output_tracking_error[1],output_tracking_error[2],filter_fault_flags,pos_horiz_accuracy,pos_vert_accuracy,mag_test_ratio,vel_test_ratio,pos_test_ratio,hgt_test_ratio,tas_test_ratio,hagl_test_ratio,beta_test_ratio,time_slip,accel_device_id,gyro_device_id,baro_device_id,mag_device_id,gps_check_fail_flags,innovation_check_flags,solution_status_flags,reset_count_vel_ne,reset_count_vel_d,reset_count_pos_ne,reset_count_pod_d,reset_count_quat,pre_flt_fail_innov_heading,pre_flt_fail_innov_vel_horiz,pre_flt_fail_innov_vel_vert,pre_flt_fail_innov_height,pre_flt_fail_mag_field_disturbed,health_flags,timeout_flags
3228000,3148000,13488881664,0.00052730436,0.017246772,0.0014269598,0,14.172738,10.008659,nan,nan,nan,nan,0.0,0.0,0.0,0.0,1310988,1310988,0,197388,0,0,128,1,1,1,1,0,0,0,0,0,0,0,0
3236000,3156000,13488881664,0.0004800872,0.0047187973,0.0015201953,0,14.142143,10.0,nan,nan,nan,nan,0.0,0.0,0.0,0.0,1310988,1310988,0,197388,0,0,128,1,1,1,1,0,0,0,0,0,0,0,0
3244000,3164000,13488881664,0.00043723232,0.0046257125,0.0015153778,0,14.142143,10.0,nan,nan,nan,nan,0.0,0.0,0.0,0.0,1310988,1310988,0,197388,0,0,128,1,1,1,1,0,0,0,0,0,0,0,0
3252000,3172000,13488881664,8.073361e-05,0.001234601,4.0984487e-05,0,14.142143,10.0,nan,nan,nan,nan,0.0,0.0,0.0,0.0,1310988,1310988,0,197388,0,0,128,1,1,1,1,0,0,0,0,0,0,0,0
3260000,3180000,13488881664,0.00011747387,0.0012704631,6.900788e-05,0,14.142143,10.0,nan,nan,nan,nan,0.0,0.0,0.0,0.0,1310988,1310988,0,197388,0,0,128,1,1,1,1,0,0,0,0,0,0,0,0
3268000,3188000,13488881664,0.00015428857,0.0014632782,9.7248696e-05,0,14.142143,10.0,nan,nan,nan,nan,0.0,0.0,0.0,0.0,1310988,1310988,0,197388,0,0,128,1,1,1,1,0,0,0,0,0,0,0,0
3276000,3196000,13488881664,0.00019090882,0.0017522966,0.00012641508,0,14.142143,10.0,nan,nan,nan,nan,0.0,0.0,0.0,0.0,1310988,1310988,0,197388,0,0,128,1,1,1,1,0,0,0,0,0,0,0,0
3284000,3204000,13488881664,0.00022716074,0.0019814596,0.00015605165,0,14.142143,10.0,nan,nan,nan,nan,0.0,0.0,0.0,0.0,1310988,1310988,0,197388,0,0,128,1,1,1,1,0,0,0,0,0,0,0,0
3292000,3212000,13488881664,0.00026315387,0.0024211984,0.00018678838,0,14.142143,10.0,nan,nan,nan,nan,0.0,0.0,0.0,0.0,1310988,1310988,0,197388,0,0,128,1,1,1,1,0,0,0,0,0,0,0,0
3300000,3220000,13488881664,0.0002958572,0.003023288,0.00021949636,0,14.142143,10.0,nan,nan,nan,nan,0.0,0.0,0.0,0.0,1310988,1310988,0,197388,0,0,128,1,1,1,1,0,0,0,0,0,0,0,0
3308000,3228000,13488881664,0.00032482948,0.0036786667,0.00025615815,0,14.142143,10.0,nan,nan,nan,nan,0.0,0.0,0.0,0.0,1310988,1310988,0,197388,0,0,128,1,1,1,1,0,0,0,0,0,0,0,0
3316000,3236000,13488881664,0.0003510756,0.003981955,0.00029658756,0,14.142142,10.0,nan,nan,nan,nan,0.0,0.0,0.0,0.0,1310988,1310988,0,197388,0,0,128,1,1,1,1,0,0,0,0,0,0,0,0
3324000,3244000,13488881664,0.00037498114,0.0044507887,0.00033720766,0,14.142142,10.0,nan,nan,nan,nan,0.0,0.0,0.0,0.0,1310988,1310988,0,197388,0,0,128,1,1,1,1,0,0,0,0,0,0,0,0
3332000,3252000,13488881664,0.00033831943,0.0041575283,0.00025438704,0,14.142142,10.0,nan,nan,nan,nan,0.0,0.0,0.0,0.0,1310988,1310988,0,197388,0,0,128,1,1,1,1,0,0,0,0,0,0,0,0
3340000,3260000,13488881664,0.00033451748,0.0039995145,0.00027455128,0,14.142142,10.0,nan,nan,nan,nan,0.0,0.0,0.0,0.0,1310988,1310988,0,197388,0,0,128,1,1,1,1,0,0,0,0,0,0,0,0
3348000,3268000,13488881664,0.00032879252,0.00384566,0.00029558086,0,14.142142,10.0,nan,nan,nan,nan,0.0,0.0,0.0,0.0,1310988,1310988,0,197388,0,0,128,1,1,1,1,0,0,0,0,0,0,0,0
3356000,3276000,13488881664,0.00032127395,0.003696454,0.0003171539,0,14.142142,10.0,nan,nan,nan,nan,0.0,0.0,0.0,0.0,1310988,1310988,0,197388,0,0,128,1,1,1,1,0,0,0,0,0,0,0,0
3364000,3284000,13488881664,0.0003118131,0.0035522257,0.00033878494,0,14.142142,10.0,nan,nan,nan,nan,0.0,0.0,0.0,0.0,1310988,1310988,0,197388,0,0,128,1,1,1,1,0,0,0,0,0,0,0,0
3372000,3292000,13488881664,0.0003004884,0.0034120637,0.00036026488,0,14.142142,10.0,nan,nan,nan,nan,0.0,0.0,0.0,0.0,1310988,1310988,0,197388,0,0,128,1,1,1,1,0,0,0,0,0,0,0,0
3380000,3300000,13488881664,0.00028738668,0.0032770347,0.00038079926,0,14.142143,10.0,nan,nan,nan,nan,0.0,0.0,0.0,0.0,1310988,1310988,0,197388,0,0,128,1,1,1,1,0,0,0,0,0,0,0,0
3388000,3308000,13488881664,0.00027262155,0.003147052,0.00040039505,0,14.142144,10.0,nan,nan,nan,nan,0.0,0.0,0.0,0.0,1310988,1310988,0,197388,0,0,128,1,1,1,1,0,0,0,0,0,0,0,0
3396000,3316000,13488881664,0.00025644357,0.0030214412,0.00041889117,0,14.142145,10.0,nan,nan,nan,nan,0.0,0.0,0.0,0.0,1310988,1310988,0,197388,0,0,128,1,1,1,1,0,0,0,0,0,0,0,0
3404000,3324000,13488881664,0.00023893351,0.0029017564,0.0004358142,0,14.142147,10.0,nan,nan,nan,nan,0.0,0.0,0.0,0.0,1310988,1310988,0,197388,0,0,128,1,1,1,1,0,0,0,0,0,0,0,0
3412000,3332000,13488881664,0.00022051504,0.0027864224,0.0005782517,0,0.014084185,7.071068,nan,nan,nan,nan,0.0,0.0,0.0,0.0,1310988,1310988,0,197388,0,0,128,1,1,1,1,0,0,0,0,0,0,0,0
3420000,3340000,13488881664,0.00020375039,0.0026759887,0.0005649699,0,0.014298285,7.071068,nan,nan,nan,nan,0.0,0.0,0.0,0.0,1310988,1310988,0,197388,0,0,128,1,1,1,1,0,0,0,0,0,0,0,0
3428000,3348000,13488881664,0.00018731235,0.0025701611,0.0005526677,0,0.014959713,7.071068,nan,nan,nan,nan,0.0,0.0,0.0,0.0,1310988,1310988,0,197388,0,0,128,1,1,1,1,0,0,0,0,0,0,0,0
3436000,3356000,13488881664,0.00017108477,0.0024683531,0.0005424445,0,0.016067246,7.071068,nan,nan,nan,nan,0.0,0.0,0.0,0.0,1310988,1310988,0,197388,0,0,128,1,1,1,1,0,0,0,0,0,0,0,0
3444000,3364000,13488881664,0.0033522216,0.028184641,0.0025651613,0,0.014086821,7.071067,nan,nan,nan,nan,0.0,0.0,0.0,0.0,1310988,1310988,0,197388,0,0,128,1,1,1,1,0,0,0,0,0,0,0,0
3452000,3372000,13488881665,0.0033469014,0.02811968,0.0027095918,0,0.014086904,7.071067,nan,nan,nan,nan,0.0,0.0,0.0,0.0,1310988,1310988,0,197388,0,0,128,1,1,1,1,0,0,0,0,0,0,0,0
3460000,3380000,13488881665,0.0033420452,0.028055131,0.0028559077,0,0.014086975,7.071067,nan,nan,nan,nan,0.0,0.0,0.0,0.0,1310988,1310988,0,197388,0,0,128,1,1,1,1,0,0,0,0,0,0,0,0
3468000,3388000,13488881683,0.0039240564,0.027991537,0.0030039267,0,0.014087238,7.071067,0.023831073,nan,nan,nan,0.0,0.0,0.0,0.0,1310988,1310988,0,197388,0,0,129,1,1,1,1,1,0,0,0,0,0,0,0
3476000,3396000,13488881683,0.0039178934,0.027929483,0.0031535572,0,0.014087969,7.071067,0.023831073,nan,nan,nan,0.0,0.0,0.0,0.0,1310988,1310988,0,197388,0,0,129,1,1,1,1,1,0,0,0,0,0,0,0
3484000,3404000,13488881683,0.003912532,0.027868593,0.0033049232,0,0.0140895,7.071067,0.023831073,nan,nan,nan,0.0,0.0,0.0,0.0,1310988,1310988,0,197388,0,0,129,1,1,1,1,1,0,0,0,0,0,0,0
3492000,3412000,13488881683,0.003907741,0.027808638,0.0034577602,0,0.014092357,7.071067,0.023831073,nan,nan,nan,0.0,0.0,0.0,0.0,1310988,1310988,0,197388,0,0,129,1,1,1,1,1,0,0,0,0,0,0,0
3500000,3420000,13488881683,0.0039038518,0.027749002,0.0036123737,0,0.014097436,7.071067,0.023831073,nan,nan,nan,0.0,0.0,0.0,0.0,1310988,1310988,0,197388,0,0,129,1,1,1,1,1,0,0,0,0,0,0,0
3508000,3428000,13488881683,0.003900623,0.027690746,0.0037682469,0,0.014105996,7.071067,0.023831073,nan,nan,nan,0.0,0.0,0.0,0.0,1310988,1310988,0,197388,0,0,129,1,1,1,1,1,0,0,0,0,0,0,0
3516000,3436000,13488881683,0.0038980083,0.027632475,0.0039256834,0,0.014119649,7.071067,0.023831073,nan,nan,nan,0.0,0.0,0.0,0.0,1310988,1310988,0,197388,0,0,129,1,1,1,1,1,0,0,0,0,0,0,0
3524000,3444000,13488881683,0.0038960595,0.027574763,0.004084769,0,0.014140355,7.071067,0.023831073,nan,nan,nan,0.0,0.0,0.0,0.0,1310988,1310988,0,197388,0,0,129,1,1,1,1,1,0,0,0,0,0,0,0
3532000,3452000,13488881683,0.003751428,0.02674426,0.00423451,0,0.014170412,7.071067,0.023831073,nan,nan,nan,0.0,0.0,0.0,0.0,1310988,1310988,0,197388,0,0,129,1,1,1,1,1,0,0,0,0,0,0,0
3540000,3460000,13488881683,0.0037588512,0.025937391,0.0043726405,0,0.014212434,7.071067,0.0034051938,nan,nan,nan,0.0,0.0,0.0,0.0,1310988,1310988,0,197388,0,0,129,1,1,1,1,1,0,0,0,0,0,0,0
3548000,3468000,13488881683,0.0036247398,0.025151795,0.004499188,0,0.014269335,7.071067,0.0034051938,nan,nan,nan,0.0,0.0,0.0,0.0,1310988,1310988,0,197388,0,0,129,1,1,1,1,1,0,0,0,0,0,0,0
3556000,3476000,13488881683,0.0034301325,0.024387611,0.004614892,0,0.014344303,7.071067,0.0034051938,nan,nan,nan,0.0,0.0,0.0,0.0,1310988,1310988,0,197388,0,0,129,1,1,1,1,1,0,0,0,0,0,0,0
3564000,3484000,13488881683,0.0032360104,0.02364376,0.004719417,0,0.014440732,7.071067,0.0034051938,nan,nan,nan,0.0,0.0,0.0,0.0,1310988,1310988,0,197388,0,0,129,1,1,1,1,1,0,0,0,0,0,0,0
3572000,3492000,13488881683,0.0030425151,0.022919437,0.00481354,0,0.014562197,7.071067,0.0034051938,nan,nan,nan,0.0,0.0,0.0,0.0,1310988,1310988,0,197388,0,0,129,1,1,1,1,1,0,0,0,0,0,0,0
3580000,3500000,13488881683,0.0028494047,0.022213902,0.0048972717,0,0.014712398,7.071067,0.0034051938,nan,nan,nan,0.0,0.0,0.0,0.0,1310988,1310988,0,197388,0,0,129,1,1,1,1,1,0,0,0,0,0,0,0
3588000,3508000,13488881683,0.002656939,0.021526482,0.004971466,0,0.014895101,7.071067,0.0034051938,nan,nan,nan,0.0,0.0,0.0,0.0,1310988,1310988,0,197388,0,0,129,1,1,1,1,1,0,0,0,0,0,0,0
3596000,3516000,13488881683,0.0024649962,0.020855708,0.005035843,0,0.015114038,7.071067,0.0034051938,nan,nan,nan,0.0,0.0,0.0,0.0,1310988,1310988,0,197388,0,0,129,1,1,1,1,1,0,0,0,0,0,0,0
3604000,3524000,13488881683,0.002273684,0.020201365,0.0050909207,0,0.015372833,7.071067,0.0034051938,nan,nan,nan,0.0,0.0,0.0,0.0,1310988,1310988,0,197388,0,0,129,1,1,1,1,1,0,0,0,0,0,0,0
3612000,3532000,13488881683,0.0026945013,0.019562248,0.005136967,0,0.015674911,7.071067,0.011419923,nan,nan,nan,0.0,0.0,0.0,0.0,1310988,1310988,0,197388,0,0,129,1,1,1,1,1,0,0,0,0,0,0,0
3620000,3540000,13488881683,0.0025360428,0.018951857,0.0049872245,0,0.010603067,5.7735023,0.011419923,nan,nan,nan,0.0,0.0,0.0,0.0,1310988,1310988,0,197388,0,0,129,1,1,1,1,1,0,0,0,0,0,0,0
3628000,3548000,13488881683,0.00236099,0.018343888,0.0050226795,0,0.010879839,5.7735023,0.011419923,nan,nan,nan,0.0,0.0,0.0,0.0,1310988,1310988,0,197388,0,0,129,1,1,1,1,1,0,0,0,0,0,0,0
3636000,3556000,13488881683,0.0021922863,0.017750122,0.0050502624,0,0.011219079,5.7735023,0.011419923,nan,nan,nan,0.0,0.0,0.0,0.0,1310988,1310988,0,197388,0,0,129,1,1,1,1,1,0,0,0,0,0,0,0
3644000,3564000,13488881683,0.0020339936,0.017170327,0.005070299,0,0.011623447,5.7735023,0.011419923,nan,nan,nan,0.0,0.0,0.0,0.0,1310988,1310988,0,197388,0,0,129,1,1,1,1,1,0,0,0,0,0,0,0
3652000,3572000,13488881683,0.0019119922,0.016723348,0.0050917766,0,0.011884232,5.7735023,0.011419923,nan,nan,nan,0.0,0.0,0.0,0.0,1310988,1310988,0,197388,0,0,129,1,1,1,1,1,0,0,0,0,0,0,0
3660000,3580000,13488881683,0.0017730556,0.016171236,0.0050983177,0,0.012372928,5.7735023,0.011419923,nan,nan,nan,0.0,0.0,0.0,0.0,1310988,1310988,0,197388,0,0,129,1,1,1,1,1,0,0,0,0,0,0,0
3668000,3588000,13488881683,0.001644696,0.01563237,0.0050985115,0,0.012924983,5.7735023,0.011419923,nan,nan,nan,0.0,0.0,0.0,0.0,1310988,1310988,0,197388,0,0,129,1,1,1,1,1,0,0,0,0,0,0,0
3676000,3596000,13488881683,0.0015263567,0.015106558,0.0050927866,0,0.013540339,5.7735023,0.011419923,nan,nan,nan,0.0,0.0,0.0,0.0,1310988,1310988,0,197388,0,0,129,1,1,1,1,1,0,0,0,0,0,0,0
3684000,3604000,13488881683,0.0019545036,0.014593424,0.005081265,0,0.014218548,5.7735023,0.008662547,nan,nan,nan,0.0,0.0,0.0,0.0,1310988,1310988,0,197388,0,0,129,1,1,1,1,1,0,0,0,0,0,0,0
3692000,3612000,13488881683,0.0018614403,0.014093018,0.0050642416,0,0.014958744,5.7735023,0.008662547,nan,nan,nan,0.0,0.0,0.0,0.0,1310988,1310988,0,197388,0,0,129,1,1,1,1,1,0,0,0,0,0,0,0
3700000,3620000,13488881683,0.0017376384,0.013605093,0.005042188,0,0.015759893,5.7735023,0.008662547,nan,nan,nan,0.0,0.0,0.0,0.0,1310988,1310988,0,197388,0,0,129,1,1,1,1,1,0,0,0,0,0,0,0
3708000,3628000,13488881683,0.0016216412,0.013129069,0.0050152903,0,0.016620886,5.7735023,0.008662547,nan,nan,nan,0.0,0.0,0.0,0.0,1310988,1310988,0,197388,0,0,129,1,1,1,1,1,0,0,0,0,0,0,0
3716000,3636000,13488881683,0.0015135665,0.012665332,0.004984036,0,0.017540462,5.7735023,0.008662547,nan,nan,nan,0.0,0.0,0.0,0.0,1310988,1310988,0,197388,0,0,129,1,1,1,1,1,0,0,0,0,0,0,0
3724000,3644000,13488881683,0.0014131872,0.012213589,0.004948329,0,0.018517436,5.7735023,0.008662547,nan,nan,nan,0.0,0.0,0.0,0.0,1310988,1310988,0,197388,0,0,129,1,1,1,1,1,0,0,0,0,0,0,0
3732000,3652000,13488881683,0.0013199974,0.011773703,0.0049085296,0,0.019550635,5.7735023,0.008662547,nan,nan,nan,0.0,0.0,0.0,0.0,1310988,1310988,0,197388,0,0,129,1,1,1,1,1,0,0,0,0,0,0,0
3740000,3660000,13488881683,0.0012332284,0.011343573,0.0048651565,0,0.020639088,5.7735023,0.008662547,nan,nan,nan,0.0,0.0,0.0,0.0,1310988,1310988,0,197388,0,0,129,1,1,1,1,1,0,0,0,0,0,0,0
3748000,3668000,13488881683,0.0011526685,0.010924834,0.004818214,0,0.021781906,5.7735023,0.008662547,nan,nan,nan,0.0,0.0,0.0,0.0,1310988,1310988,0,197388,0,0,129,1,1,1,1,1,0,0,0,0,0,0,0
3756000,3676000,13488881683,0.00017173322,0.010518227,0.0047680223,0,0.022978231,5.7735023,0.02024739,nan,nan,nan,0.0,0.0,0.0,0.0,1310988,1310988,0,197388,0,0,129,1,1,1,1,1,0,0,0,0,0,0,0
3764000,3684000,13488881683,0.0002440765,0.010121941,0.004714732,0,0.024227355,5.7735023,0.02024739,nan,nan,nan,0.0,0.0,0.0,0.0,1310988,1310988,0,197388,0,0,129,1,1,1,1,1,0,0,0,0,0,0,0
3772000,3692000,13488881683,0.00034036528,0.009736581,0.004658528,0,0.02552866,5.7735023,0.02024739,nan,nan,nan,0.0,0.0,0.0,0.0,1310988,1310988,0,197388,0,0,129,1,1,1,1,1,0,0,0,0,0,0,0
3780000,3700000,13488881683,0.00043328688,0.009362065,0.004599652,0,0.026881639,5.7735023,0.02024739,nan,nan,nan,0.0,0.0,0.0,0.0,1310988,1310988,0,197388,0,0,129,1,1,1,1,1,0,0,0,0,0,0,0
3788000,3708000,13488881683,0.0005205207,0.008998061,0.004538381,0,0.028285896,5.7735023,0.02024739,nan,nan,nan,0.0,0.0,0.0,0.0,1310988,1310988,0,197388,0,0,129,1,1,1,1,1,0,0,0,0,0,0,0
3796000,3716000,13488881683,0.00060224347,0.008644427,0.004474941,0,0.029741213,5.7735033,0.02024739,nan,nan,nan,0.0,0.0,0.0,0.0,1310988,1310988,0,197388,0,0,129,1,1,1,1,1,0,0,0,0,0,0,0
3804000,3724000,13488881683,0.0006786161,0.0083009675,0.0044093486,0,0.03124733,5.773504,0.02024739,nan,nan,nan,0.0,0.0,0.0,0.0,1310988,1310988,0,197388,0,0,129,1,1,1,1,1,0,0,0,0,0,0,0
3812000,3732000,13488881683,0.00075008336,0.007967295,0.0043416596,0,0.03280399,5.7735047,0.02024739,nan,nan,nan,0.0,0.0,0.0,0.0,1310988,1310988,0,197388,0,0,129,1,1,1,1,1,0,0,0,0,0,0,0
3820000,3740000,13488881683,0.0008169248,0.0076432987,0.0042723743,0,0.034411233,5.773505,0.02024739,nan,nan,nan,0.0,0.0,0.0,0.0,1310988,1310988,0,197388,0,0,129,1,1,1,1,1,0,0,0,0,0,0,0
3828000,3748000,13488881683,0.00064620544,0.007964964,0.0045184866,0,0.01316627,5.000002,0.0060743624,nan,nan,nan,0.0,0.0,0.0,0.0,1310988,1310988,0,197388,0,0,129,1,1,1,1,1,0,0,0,0,0,0,0
3836000,3756000,13488881683,0.00069407723,0.007663626,0.0044395844,0,0.013800396,5.0000024,0.0060743624,nan,nan,nan,0.0,0.0,0.0,0.0,1310988,1310988,0,197388,0,0,129,1,1,1,1,1,0,0,0,0,0,0,0
3844000,3764000,13488881683,0.00068873394,0.0073717884,0.004359751,0,0.014473798,5.000003,0.0060743624,nan,nan,nan,0.0,0.0,0.0,0.0,1310988,1310988,0,197388,0,0,129,1,1,1,1,1,0,0,0,0,0,0,0
3852000,3772000,13488881683,0.0006810043,0.007089242,0.0042792656,0,0.015186261,5.0000033,0.0060743624,nan,nan,nan,0.0,0.0,0.0,0.0,1310988,1310988,0,197388,0,0,129,1,1,1,1,1,0,0,0,0,0,0,0
3860000,3780000,13488881683,0.000730292,0.0072313095,0.0042633996,0,0.015264785,5.0000033,0.0060743624,nan,nan,nan,0.0,0.0,0.0,0.0,1310988,1310988,0,197388,0,0,129,1,1,1,1,1,0,0,0,0,0,0,0
3868000,3788000,13488881683,0.0007191555,0.0069615534,0.0041825473,0,0.015986068,5.000004,0.0060743624,nan,nan,nan,0.0,0.0,0.0,0.0,1310988,1310988,0,197388,0,0,129,1,1,1,1,1,0,0,0,0,0,0,0
3876000,3796000,13488881683,0.00070590206,0.006701034,0.004101566,0,0.016743679,5.0000043,0.0060743624,nan,nan,nan,0.0,0.0,0.0,0.0,1310988,1310988,0,197388,0,0,129,1,1,1,1,1,0,0,0,0,0,0,0
3884000,3804000,13488881683,0.0006911029,0.0064492854,0.0040199333,0,0.017537702,5.000005,0.0060743624,nan,nan,nan,0.0,0.0,0.0,0.0,1310988,1310988,0,197388,0,0,129,1,1,1,1,1,0,0,0,0,0,0,0
3892000,3812000,13488881683,0.0006752025,0.006206168,0.003938363,0,0.018368294,5.0000057,0.0060743624,nan,nan,nan,0.0,0.0,0.0,0.0,1310988,1310988,0,197388,0,0,129,1,1,1,1,1,0,0,0,0,0,0,0
3900000,3820000,13488881683,0.00065699767,0.0059703398,0.0038564652,0,0.019235669,5.000006,0.013824942,nan,nan,nan,0.0,0.0,0.0,0.0,1310988,1310988,0,197388,0,0,129,1,1,1,1,1,0,0,0,0,0,0,0
3908000,3828000,13488881683,0.00068835064,0.0057439045,0.0037747251,0,0.020140074,5.000007,0.013824942,nan,nan,nan,0.0,0.0,0.0,0.0,1310988,1310988,0,197388,0,0,129,1,1,1,1,1,0,0,0,0,0,0,0
3916000,3836000,13488881683,0.00069138536,0.0055183773,0.003692945,0,0.021081842,5.0000076,0.013824942,nan,nan,nan,0.0,0.0,0.0,0.0,1310988,1310988,0,197388,0,0,129,1,1,1,1,1,0,0,0,0,0,0,0
3924000,3844000,13488881683,0.0006978735,0.0052997274,0.0036110247,0,0.022061273,5.0000086,0.013824942,nan,nan,nan,0.0,0.0,0.0,0.0,1310988,1310988,0,197388,0,0,129,1,1,1,1,1,0,0,0,0,0,0,0
3932000,3852000,13488881683,0.0007055539,0.005087487,0.003529241,0,0.023078792,5.0000095,0.013824942,nan,nan,nan,0.0,0.0,0.0,0.0,1310988,1310988,0,197388,0,0,129,1,1,1,1,1,0,0,0,0,0,0,0
3940000,3860000,13488881683,0.0007143152,0.0048817033,0.0034476747,0,0.024134865,5.00001,0.013824942,nan,nan,nan,0.0,0.0,0.0,0.0,1310988,1310988,0,197388,0,0,129,1,1,1,1,1,0,0,0,0,0,0,0
3948000,3868000,13488881683,0.0007198399,0.0046785,0.0033660235,0,0.025229955,5.000011,0.013824942,nan,nan,nan,0.0,0.0,0.0,0.0,1310988,1310988,0,197388,0,0,129,1,1,1,1,1,0,0,0,0,0,0,0
3956000,3876000,13488881683,0.0007262245,0.0044815345,0.0032847717,0,0.026364645,5.0000114,0.013824942,nan,nan,nan,0.0,0.0,0.0,0.0,1310988,1310988,0,197388,0,0,129,1,1,1,1,1,0,0,0,0,0,0,0
3964000,3884000,13488881683,0.000733062,0.004289813,0.0032036835,0,0.027539507,5.0000124,0.013824942,nan,nan,nan,0.0,0.0,0.0,0.0,1310988,1310988,0,197388,0,0,129,1,1,1,1,1,0,0,0,0,0,0,0
3972000,3892000,13488881683,0.0017777284,0.004099651,0.003122597,0,0.028755087,5.000014,0.020408789,nan,nan,nan,0.0,0.0,0.0,0.0,1310988,1310988,0,197388,0,0,129,1,1,1,1,1,0,0,0,0,0,0,0
3980000,3900000,13488881683,0.0017964124,0.003918745,0.0030420485,0,0.030011972,5.000015,0.020408789,nan,nan,nan,0.0,0.0,0.0,0.0,1310988,1310988,0,197388,0,0,129,1,1,1,1,1,0,0,0,0,0,0,0
3988000,3908000,13488881683,0.0017744532,0.0037427654,0.002962004,0,0.031310815,5.000016,0.020408789,nan,nan,nan,0.0,0.0,0.0,0.0,1310988,1310988,0,197388,0,0,129,1,1,1,1,1,0,0,0,0,0,0,0
3996000,3916000,13488881683,0.0017509472,0.0035717094,0.002882428,0,0.03265225,5.000017,0.020408789,nan,nan,nan,0.0,0.0,0.0,0.0,1310988,1310988,0,197388,0,0,129,1,1,1,1,1,0,0,0,0,0,0,0
4004000,3924000,13488881683,0.001726488,0.0034052236,0.0028032747,0,0.03403688,5.000018,0.020408789,nan,nan,nan,0.0,0.0,0.0,0.0,1310988,1310988,0,197388,0,0,129,1,1,1,1,1,0,0,0,0,0,0,0
4012000,3932000,13488881683,0.0017010451,0.0032439628,0.002724452,0,0.035465322,5.0000196,0.020408789,nan,nan,nan,0.0,0.0,0.0,0.0,1310988,1310988,0,197388,0,0,129,1,1,1,1,1,0,0,0,0,0,0,0
4020000,3940000,13488881683,0.0016746436,0.0030872417,0.002646365,0,0.03693839,5.000021,0.020408789,nan,nan,nan,0.0,0.0,0.0,0.0,1310988,1310988,0,197388,0,0,129,1,1,1,1,1,0,0,0,0,0,0,0
4028000,3948000,13488881683,0.0016469117,0.0029349835,0.0025690466,0,0.03845676,5.0000224,0.020408789,nan,nan,nan,0.0,0.0,0.0,0.0,1310988,1310988,0,197388,0,0,129,1,1,1,1,1,0,0,0,0,0,0,0
4036000,3956000,13488881683,0.0018869833,0.0051602744,0.003232027,0,0.013334115,4.472153,0.020408789,nan,nan,nan,0.0,0.0,0.0,0.0,1310988,1310988,0,197388,0,0,129,1,1,1,1,1,0,0,0,0,0,0,0
4044000,3964000,13488881683,0.0027202386,0.0050256937,0.003144899,0,0.01388419,4.472154,0.018162925,nan,nan,nan,0.0,0.0,0.0,0.0,1310988,1310988,0,197388,0,0,129,1,1,1,1,1,0,0,0,0,0,0,0
4052000,3972000,13488881683,0.0026918312,0.00489865,0.0030590594,0,0.014477173,4.4721556,0.018162925,nan,nan,nan,0.0,0.0,0.0,0.0,1310988,1310988,0,197388,0,0,129,1,1,1,1,1,0,0,0,0,0,0,0
4060000,3980000,13488881683,0.0026091805,0.0047762166,0.0029750979,0,0.015113999,4.472157,0.018162925,nan,nan,nan,0.0,0.0,0.0,0.0,1310988,1310988,0,197388,0,0,129,1,1,1,1,1,0,0,0,0,0,0,0
4068000,3988000,13488881683,0.002597932,0.0052847937,0.0031038625,0,0.015216553,4.472157,0.018162925,nan,nan,nan,0.0,0.0,0.0,0.0,1310988,1310988,0,197388,0,0,129,1,1,1,1,1,0,0,0,0,0,0,0
4076000,3996000,13488881683,0.0025194096,0.005152584,0.0030226852,0,0.015870387,4.4721584,0.018162925,nan,nan,nan,0.0,0.0,0.0,0.0,1310988,1310988,0,197388,0,0,129,1,1,1,1,1,0,0,0,0,0,0,0
4084000,4004000,13488881683,0.0024428843,0.005025583,0.002943363,0,0.016566668,4.47216,0.018162925,nan,nan,nan,0.0,0.0,0.0,0.0,1310988,1310988,0,197388,0,0,129,1,1,1,1,1,0,0,0,0,0,0,0
4092000,4012000,13488881683,0.0023682786,0.004904285,0.002865777,0,0.017306121,4.472162,0.018162925,nan,nan,nan,0.0,0.0,0.0,0.0,1310988,1310988,0,197388,0,0,129,1,1,1,1,1,0,0,0,0,0,0,0
4100000,4020000,13488881683,0.0022958294,0.004787917,0.0027899565,0,0.018089402,4.4721637,0.018162925,nan,nan,nan,0.0,0.0,0.0,0.0,1310988,1310988,0,197388,0,0,129,1,1,1,1,1,0,0,0,0,0,0,0
4108000,4028000,13488881683,0.0022256682,0.0046765013,0.0027158041,0,0.018917015,4.472165,0.018162925,nan,nan,nan,0.0,0.0,0.0,0.0,1310988,1310988,0,197388,0,0,129,1,1,1,1,1,0,0,0,0,0,0,0
4116000,4036000,13488881683,0.0025519407,0.004568883,0.0026435165,0,0.019789575,4.472167,0.008639115,nan,nan,nan,0.0,0.0,0.0,0.0,1310988,1310988,0,197388,0,0,129,1,1,1,1,1,0,0,0,0,0,0,0
4124000,4044000,13488881683,0.0024621075,0.004461401,0.0025726454,0,0.02070759,4.4721684,0.008639115,nan,nan,nan,0.0,0.0,0.0,0.0,1310988,1310988,6620172,197388,0,0,129,1,1,1,1,1,0,0,0,0,0,0,0
4132000,4052000,13488881683,0.0023285267,0.0043556234,0.0025031865,0,0.021671524,4.472171,0.008639115,nan,nan,nan,0.0,0.0,0.0,0.0,1310988,1310988,6620172,197388,0,0,129,1,1,1,1,1,0,0,0,0,0,0,0
4140000,4060000,13488881683,0.002196515,0.0042521358,0.0024351785,0,0.02268193,4.4721727,0.008639115,nan,nan,nan,0.0,0.0,0.0,0.0,1310988,1310988,6620172,197388,0,0,129,1,1,1,1,1,0,0,0,0,0,0,0
4148000,4068000,13488881683,0.0020687466,0.00414953,0.002368839,0,0.023739293,4.472175,0.008639115,nan,nan,nan,0.0,0.0,0.0,0.0,1310988,1310988,6620172,197388,0,0,129,1,1,1,1,1,0,0,0,0,0,0,0
4156000,4076000,13488881683,0.0019398354,0.004047044,0.0023033684,0,0.024844004,4.472177,0.008639115,nan,nan,nan,0.0,0.0,0.0,0.0,1310988,1310988,6620172,197388,0,0,129,1,1,1,1,1,0,0,0,0,0,0,0
4164000,4084000,13488881683,0.0018148812,0.0039448063,0.002238898,0,0.025996486,4.4721794,0.008639115,nan,nan,nan,0.0,0.0,0.0,0.0,1310988,1310988,6620172,197388,0,0,129,1,1,1,1,1,0,0,0,0,0,0,0
4172000,4092000,13488881683,0.0016937637,0.0038436311,0.0021760669,0,0.027197216,4.472182,0.008639115,nan,nan,nan,0.0,0.0,0.0,0.0,1310988,1310988,6620172,197388,0,0,129,1,1,1,1,1,0,0,0,0,0,0,0
4180000,4100000,13488881683,0.001576292,0.0037431475,0.0021137882,0,0.028446645,4.472184,0.008639115,nan,nan,nan,0.0,0.0,0.0,0.0,1310988,1310988,6620172,197388,0,0,129,1,1,1,1,1,0,0,0,0,0,0,0
4188000,4108000,13488881683,0.0018221673,0.0036616263,0.0020549297,0,0.029745212,4.4721866,0.058809277,nan,nan,nan,0.0,0.0,0.0,0.0,1310988,1310988,6620172,197388,0,0,129,1,1,1,1,1,0,0,0,0,0,0,0
4196000,4116000,13488881683,0.0019025294,0.003563123,0.001995248,0,0.031093426,4.4721894,0.058809277,nan,nan,nan,0.0,0.0,0.0,0.0,1310988,1310988,6620172,197388,0,0,129,1,1,1,1,1,0,0,0,0,0,0,0
4204000,4124000,13488881683,0.0020054507,0.003465263,0.0019369263,0,0.03249173,4.472192,0.058809277,nan,nan,nan,0.0,0.0,0.0,0.0,1310988,1310988,6620172,197388,0,0,129,1,1,1,1,1,0,0,0,0,0,0,0
4212000,4132000,13488881683,0.0021087225,0.003367728,0.0018797973,0,0.033940643,4.4721947,0.058809277,nan,nan,nan,0.0,0.0,0.0,0.0,1310988,1310988,6620172,197388,0,0,129,1,1,1,1,1,0,0,0,0,0,0,0
4220000,4140000,13488881683,0.0022093635,0.0032711728,0.0018236763,0,0.03544057,4.4721975,0.058809277,nan,nan,nan,0.0,0.0,0.0,0.0,1310988,1310988,6620172,197388,0,0,129,1,1,1,1,1,0,0,0,0,0,0,0
4228000,4148000,13488881683,0.002306521,0.003175533,0.0017687012,0,0.036991898,4.4722004,0.058809277,nan,nan,nan,0.0,0.0,0.0,0.0,1310988,1310988,6620172,197388,0,0,129,1,1,1,1,1,0,0,0,0,0,0,0
4236000,4156000,13488881683,0.0023998246,0.0030817466,0.0017149575,0,0.03859513,4.4722037,0.058809277,nan,nan,nan,0.0,0.0,0.0,0.0,1310988,1310988,6620172,197388,0,0,129,1,1,1,1,1,0,0,0,0,0,0,0
4244000,4164000,13488881683,0.002743471,0.0055544716,0.002554438,0,0.013342546,4.0825367,0.058809277,nan,nan,nan,0.0,0.0,0.0,0.0,1310988,1310988,6620172,197388,0,0,129,1,1,1,1,1,0,0,0,0,0,0,0
4252000,4172000,13488881683,0.0028115434,0.0054452876,0.0024854948,0,0.013923821,4.0825396,0.058809277,nan,nan,nan,0.0,0.0,0.0,0.0,1310988,1310988,6620172,197388,0,0,129,1,1,1,1,1,0,0,0,0,0,0,0
4260000,4180000,13488881683,0.002390114,0.005335969,0.0024186752,0,0.014552552,4.082543,0.010680638,nan,nan,nan,0.0,0.0,0.0,0.0,1310988,1310988,6620172,197388,0,0,129,1,1,1,1,1,0,0,0,0,0,0,0
4268000,4188000,13488881683,0.002446869,0.005230924,0.0023539104,0,0.015228653,4.082546,0.010680638,nan,nan,nan,0.0,0.0,0.0,0.0,1310988,1310988,6620172,197388,0,0,129,1,1,1,1,1,0,0,0,0,0,0,0
4276000,4196000,13488881683,0.002405264,0.005432098,0.0026593297,0,0.015276638,4.0825424,0.010680638,nan,nan,nan,0.0,0.0,0.0,0.0,1310988,1310988,6620172,197388,0,0,129,1,1,1,1,1,0,0,0,0,0,0,0
4284000,4204000,13488881683,0.0023167985,0.005305022,0.0025897531,0,0.015962545,4.0825453,0.010680638,nan,nan,nan,0.0,0.0,0.0,0.0,1310988,1310988,6620172,197388,0,0,129,1,1,1,1,1,0,0,0,0,0,0,0
4292000,4212000,13488881683,0.002224782,0.005182016,0.0025223119,0,0.016691731,4.0825486,0.010680638,nan,nan,nan,0.0,0.0,0.0,0.0,1310988,1310988,6620172,197388,0,0,129,1,1,1,1,1,0,0,0,0,0,0,0
4300000,4220000,13488881683,0.002129821,0.0050628707,0.0024572578,0,0.017464198,4.082552,0.010680638,nan,nan,nan,0.0,0.0,0.0,0.0,1310988,1310988,6620172,197388,0,0,129,1,1,1,1,1,0,0,0,0,0,0,0
4308000,4228000,13488881683,0.0020325405,0.0049473946,0.0023939782,0,0.018279828,4.0825553,0.010680638,nan,nan,nan,0.0,0.0,0.0,0.0,1310988,1310988,6620172,197388,0,0,129,1,1,1,1,1,0,0,0,0,0,0,0
4316000,4236000,13488881683,0.0019335776,0.0048358752,0.002333195,0,0.019138496,4.0825586,0.010680638,nan,nan,nan,0.0,0.0,0.0,0.0,1310988,1310988,6620172,197388,0,0,129,1,1,1,1,1,0,0,0,0,0,0,0
4324000,4244000,13488881683,0.0018339187,0.0047276835,0.0022744087,0,0.020040113,4.0825624,0.010680638,nan,nan,nan,0.0,0.0,0.0,0.0,1310988,1310988,6620172,197388,0,0,129,1,1,1,1,1,0,0,0,0,0,0,0
4332000,4252000,13488881683,0.0019460501,0.0046267733,0.0022172201,0,0.020984506,4.0825663,0.0060053626,nan,nan,nan,0.0,0.0,0.0,0.0,1310988,1310988,6620172,197388,0,0,129,1,1,1,1,1,0,0,0,0,0,0,0
4340000,4260000,13488881683,0.0018080735,0.004524247,0.0021615908,0,0.0219716,4.08257,0.0060053626,nan,nan,nan,0.0,0.0,0.0,0.0,1310988,1310988,6620172,197388,0,0,129,1,1,1,1,1,0,0,0,0,0,0,0
4348000,4268000,13488881683,0.0016912245,0.0044221207,0.0021076822,0,0.023001306,4.082574,0.0060053626,nan,nan,nan,0.0,0.0,0.0,0.0,1310988,1310988,6620172,197388,0,0,129,1,1,1,1,1,0,0,0,0,0,0,0
4356000,4276000,13488881683,0.0015721985,0.004319954,0.0020549,0,0.024073493,4.0825777,0.0060053626,nan,nan,nan,0.0,0.0,0.0,0.0,1310988,1310988,6620172,197388,0,0,129,1,1,1,1,1,0,0,0,0,0,0,0
4364000,4284000,13488881683,0.0014541754,0.0042178826,0.002003514,0,0.025188189,4.082582,0.0060053626,nan,nan,nan,0.0,0.0,0.0,0.0,1310988,1310988,6620172,197388,0,0,129,1,1,1,1,1,0,0,0,0,0,0,0
4372000,4292000,13488881683,0.0013403455,0.004115691,0.0019532559,0,0.026345383,4.0825863,0.0060053626,nan,nan,nan,0.0,0.0,0.0,0.0,1310988,1310988,6620172,197388,0,0,129,1,1,1,1,1,0,0,0,0,0,0,0
4380000,4300000,13488881683,0.0012311424,0.0040134215,0.0019042048,0,0.027545093,4.0825906,0.0060053626,nan,nan,nan,0.0,0.0,0.0,0.0,1310988,1310988,6620172,197388,0,0,129,1,1,1,1,1,0,0,0,0,0,0,0
4388000,4308000,13488881683,0.0011265388,0.003911408,0.0018561042,0,0.028787328,4.0825953,0.0060053626,nan,nan,nan,0.0,0.0,0.0,0.0,1310988,1310988,6620172,197388,0,0,129,1,1,1,1,1,0,0,0,0,0,0,0
4396000,4316000,13488881683,0.0010265871,0.0038101547,0.0018092993,0,0.030072168,4.0826,0.0060053626,nan,nan,nan,0.0,0.0,0.0,0.0,1310988,1310988,6620172,197388,0,0,129,1,1,1,1,1,0,0,0,0,0,0,0
4404000,4324000,13488881683,0.00059993274,0.0037064275,0.0017633038,0,0.03139979,4.082605,0.010347355,nan,nan,nan,0.0,0.0,0.0,0.0,1310988,1310988,6620172,197388,0,0,129,1,1,1,1,1,0,0,0,0,0,0,0
4412000,4332000,13488881683,0.00052339234,0.003605304,0.0017185572,0,0.03277033,4.0826097,0.010347355,nan,nan,nan,0.0,0.0,0.0,0.0,1310988,1310988,6620172,197388,0,0,129,1,1,1,1,1,0,0,0,0,0,0,0
4420000,4340000,13488881683,0.00045387697,0.0035050802,0.00167511,0,0.03418382,4.082615,0.010347355,nan,nan,nan,0.0,0.0,0.0,0.0,1310988,1310988,6620172,197388,0,0,129,1,1,1,1,1,0,0,0,0,0,0,0
4428000,4348000,13488881683,0.00039922862,0.003406151,0.001632764,0,0.035640366,4.08262,0.010347355,nan,nan,nan,0.0,0.0,0.0,0.0,1310988,1310988,6620172,197388,0,0,129,1,1,1,1,1,0,0,0,0,0,0,0
4436000,4356000,13488881683,0.00036126116,0.003308133,0.0015915725,0,0.037140198,4.082625,0.010347355,nan,nan,nan,0.0,0.0,0.0,0.0,1310988,1310988,6620172,197388,0,0,129,1,1,1,1,1,0,0,0,0,0,0,0
4444000,4364000,13488881683,0.00034101013,0.0032119304,0.0015512744,0,0.03868352,4.0826306,0.010347355,nan,nan,nan,0.0,0.0,0.0,0.0,1310988,1310988,6620172,197388,0,0,129,1,1,1,1,1,0,0,0,0,0,0,0
4452000,4372000,13488881683,0.0009197708,0.004998792,0.002284634,0,0.013343263,3.7797666,0.010347355,nan,nan,nan,0.0,0.0,0.0,0.0,1310988,1310988,6620172,197388,0,0,129,1,1,1,1,1,0,0,0,0,0,0,0
4460000,4380000,13488881683,0.00090281665,0.0048812367,0.002220234,0,0.013894322,3.7797718,0.010347355,nan,nan,nan,0.0,0.0,0.0,0.0,1310988,1310988,6620172,197388,0,0,129,1,1,1,1,1,0,0,0,0,0,0,0
4468000,4388000,13488881683,0.00089127204,0.004765637,0.002157898,0,0.014481051,3.7797773,0.010347355,nan,nan,nan,0.0,0.0,0.0,0.0,1310988,1310988,6620172,197388,0,0,129,1,1,1,1,1,0,0,0,0,0,0,0
4476000,4396000,13488881683,0.0008281415,0.004653469,0.0020979487,0,0.015103126,3.7797828,0.011334564,nan,nan,nan,0.0,0.0,0.0,0.0,1310988,1310988,6620172,197388,0,0,129,1,1,1,1,1,0,0,0,0,0,0,0
4484000,4404000,13488881683,0.0008593666,0.00478987,0.0026182905,0,0.015183958,3.779769,0.011334564,nan,nan,nan,0.0,0.0,0.0,0.0,1310988,1310988,6620172,197388,0,0,129,1,1,1,1,1,0,0,0,0,0,0,0
4492000,4412000,13488881683,0.000836942,0.004641999,0.0025416885,0,0.015816234,3.779774,0.011334564,nan,nan,nan,0.0,0.0,0.0,0.0,1310988,1310988,6620172,197388,0,0,129,1,1,1,1,1,0,0,0,0,0,0,0
4500000,4420000,13488881683,0.00081798335,0.004498307,0.0024677,0,0.016480958,3.7797794,0.011334564,nan,nan,nan,0.0,0.0,0.0,0.0,1310988,1310988,6620172,197388,0,0,129,1,1,1,1,1,0,0,0,0,0,0,0
4508000,4428000,13488881683,0.00080242107,0.004358694,0.00239538,0,0.017177895,3.7797847,0.011334564,nan,nan,nan,0.0,0.0,0.0,0.0,1310988,1310988,6620172,197388,0,0,129,1,1,1,1,1,0,0,0,0,0,0,0
4516000,4436000,13488881683,0.00079001446,0.0042236857,0.0023251243,0,0.017906724,3.7797904,0.011334564,nan,nan,nan,0.0,0.0,0.0,0.0,1310988,1310988,6620172,197388,0,0,129,1,1,1,1,1,0,0,0,0,0,0,0
4524000,4444000,13488881683,0.00078075775,0.004092723,0.0022570712,0,0.018667322,3.779796,0.011334564,nan,nan,nan,0.0,0.0,0.0,0.0,1310988,1310988,6620172,197388,0,0,129,1,1,1,1,1,0,0,0,0,0,0,0
4532000,4452000,13488881683,0.000774453,0.0039660134,0.0021911496,0,0.019459479,3.7798018,0.011334564,nan,nan,nan,0.0,0.0,0.0,0.0,1310988,1310988,6620172,197388,0,0,129,1,1,1,1,1,0,0,0,0,0,0,0
4540000,4460000,13488881683,0.0007354588,0.0038468812,0.0021267668,0,0.020283008,3.7798078,0.011334564,nan,nan,nan,0.0,0.0,0.0,0.0,1310988,1310988,6620172,197388,0,0,129,1,1,1,1,1,0,0,0,0,0,0,0
4548000,4468000,13488881683,0.00070277805,0.003728744,0.002063862,0,0.021137659,3.7798138,0.008012115,nan,nan,nan,0.0,0.0,0.0,0.0,1310988,1310988,6620172,197388,0,0,129,1,1,1,1,1,0,0,0,0,0,0,0
4556000,4476000,13488881683,0.0006592411,0.0036126308,0.0020028108,0,0.02202337,3.77982,0.008012115,nan,nan,nan,0.0,0.0,0.0,0.0,1310988,1310988,6620172,197388,0,0,129,1,1,1,1,1,0,0,0,0,0,0,0
4564000,4484000,13488881683,0.0006258676,0.003498339,0.0019431885,0,0.022940017,3.7798264,0.008012115,nan,nan,nan,0.0,0.0,0.0,0.0,1310988,1310988,6620172,197388,0,0,129,1,1,1,1,1,0,0,0,0,0,0,0
4572000,4492000,13488881683,0.00059014856,0.003385307,0.0018845783,0,0.023887424,3.779833,0.008012115,nan,nan,nan,0.0,0.0,0.0,0.0,1310988,1310988,6620172,197388,0,0,129,1,1,1,1,1,0,0,0,0,0,0,0
4580000,4500000,13488881683,0.00055613805,0.003274764,0.0018273473,0,0.024865547,3.7798398,0.008012115,nan,nan,nan,0.0,0.0,0.0,0.0,1310988,1310988,6620172,197388,0,0,129,1,1,1,1,1,0,0,0,0,0,0,0
4588000,4508000,13488881683,0.00052393,0.0031663482,0.0017710816,0,0.025874356,3.7798467,0.008012115,nan,nan,nan,0.0,0.0,0.0,0.0,1310988,1310988,6620172,197388,0,0,129,1,1,1,1,1,0,0,0,0,0,0,0
4596000,4516000,13488881683,0.00049358833,0.0030606186,0.0017159982,0,0.026913732,3.7798538,0.008012115,nan,nan,nan,0.0,0.0,0.0,0.0,1310988,1310988,6620172,197388,0,0,129,1,1,1,1,1,0,0,0,0,0,0,0
4604000,4524000,13488881683,0.0004653547,0.002957565,0.0016622083,0,0.027983712,3.779861,0.008012115,nan,nan,nan,0.0,0.0,0.0,0.0,1310988,1310988,6620172,197388,0,0,129,1,1,1,1,1,0,0,0,0,0,0,0
4612000,4532000,13488881683,0.00043939255,0.0028575088,0.0016095187,0,0.029084304,3.7798684,0.008012115,nan,nan,nan,0.0,0.0,0.0,0.0,1310988,1310988,6620172,197388,0,0,129,1,1,1,1,1,0,0,0,0,0,0,0
4620000,4540000,13488881683,0.0010624375,0.0027597449,0.0015582121,0,0.03021555,3.779876,0.014391256,nan,nan,nan,0.0,0.0,0.0,0.0,1310988,1310988,6620172,197388,0,0,129,1,1,1,1,1,0,0,0,0,0,0,0
4628000,4548000,13488881683,0.0010653232,0.002665634,0.001508076,0,0.03137747,3.7798836,0.014391256,nan,nan,nan,0.0,0.0,0.0,0.0,1310988,1310988,6620172,197388,0,0,129,1,1,1,1,1,0,0,0,0,0,0,0
4636000,4556000,13488881683,0.0010492885,0.0025743784,0.0014594884,0,0.032570098,3.7798915,0.014391256,nan,nan,nan,0.0,0.0,0.0,0.0,1310988,1310988,6620172,197388,0,0,129,1,1,1,1,1,0,0,0,0,0,0,0
4644000,4564000,13488881683,0.0010352246,0.0024867633,0.0014121442,0,0.033793483,3.7798996,0.014391256,nan,nan,nan,0.0,0.0,0.0,0.0,1310988,1310988,6620172,197388,0,0,129,1,1,1,1,1,0,0,0,0,0,0,0
4652000,4572000,13488881683,0.0010217024,0.0024030635,0.0013662954,0,0.03504768,3.779908,0.014391256,nan,nan,nan,0.0,0.0,0.0,0.0,1310988,1310988,6620172,197388,0,0,129,1,1,1,1,1,0,0,0,0,0,0,0
4660000,4580000,13488881683,0.0011295504,0.003244859,0.0019891257,0,0.013178977,3.5357563,0.014391256,nan,nan,nan,0.0,0.0,0.0,0.0,1310988,1310988,6620172,197388,0,0,129,1,1,1,1,1,0,0,0,0,0,0,0
4668000,4588000,13488881683,0.00111321,0.0031451287,0.0019118285,0,0.013663403,3.5357645,0.014391256,nan,nan,nan,0.0,0.0,0.0,0.0,1310988,1310988,6620172,197388,0,0,129,1,1,1,1,1,0,0,0,0,0,0,0
4676000,4596000,13488881683,0.001097548,0.003049783,0.0018364188,0,0.014173035,3.5357726,0.014391256,nan,nan,nan,0.0,0.0,0.0,0.0,1310988,1310988,6620172,197388,0,0,129,1,1,1,1,1,0,0,0,0,0,0,0
4684000,4604000,13488881683,0.0010826023,0.0029575578,0.0017631686,0,0.014707613,3.5357811,0.014391256,nan,nan,nan,0.0,0.0,0.0,0.0,1310988,1310988,6620172,197388,0,0,129,1,1,1,1,1,0,0,0,0,0,0,0
4692000,4612000,13488881683,0.0019416396,0.0033206274,0.002620163,0,0.014844848,3.5357487,0.017417358,nan,nan,nan,0.0,0.0,0.0,0.0,1310988,1310988,6620172,197388,0,0,129,1,1,1,1,1,0,0,0,0,0,0,0
4700000,4620000,13488881683,0.00193252,0.0031627011,0.0025240062,0,0.015392195,3.535756,0.017417358,nan,nan,nan,0.0,0.0,0.0,0.0,1310988,1310988,6620172,197388,0,0,129,1,1,1,1,1,0,0,0,0,0,0,0
4708000,4628000,13488881683,0.0018844855,0.003009155,0.0024301591,0,0.015962843,3.5357637,0.017417358,nan,nan,nan,0.0,0.0,0.0,0.0,1310988,1310988,6620172,197388,0,0,129,1,1,1,1,1,0,0,0,0,0,0,0
4716000,4636000,13488881683,0.0018362381,0.0028603312,0.0023385598,0,0.01655665,3.5357714,0.017417358,nan,nan,nan,0.0,0.0,0.0,0.0,1310988,1310988,6620172,197388,0,0,129,1,1,1,1,1,0,0,0,0,0,0,0
4724000,4644000,13488881683,0.0017887908,0.0027168794,0.0022488842,0,0.017173467,3.5357795,0.017417358,nan,nan,nan,0.0,0.0,0.0,0.0,1310988,1310988,6620172,197388,0,0,129,1,1,1,1,1,0,0,0,0,0,0,0
4732000,4652000,13488881683,0.0017419718,0.0025778278,0.0021616628,0,0.017813155,3.5357873,0.017417358,nan,nan,nan,0.0,0.0,0.0,0.0,1310988,1310988,6620172,197388,0,0,129,1,1,1,1,1,0,0,0,0,0,0,0
4740000,4660000,13488881683,0.0016960521,0.0024434514,0.0020764498,0,0.018475525,3.5357957,0.017417358,nan,nan,nan,0.0,0.0,0.0,0.0,1310988,1310988,6620172,197388,0,0,129,1,1,1,1,1,0,0,0,0,0,0,0
4748000,4668000,13488881683,0.0016442699,0.0023152884,0.0019928794,0,0.0191604,3.5358043,0.017417358,nan,nan,nan,0.0,0.0,0.0,0.0,1310988,1310988,6620172,197388,0,0,129,1,1,1,1,1,0,0,0,0,0,0,0
4756000,4676000,13488881683,0.0015933103,0.0021907792,0.0019111038,0,0.019867647,3.5358129,0.017417358,nan,nan,nan,0.0,0.0,0.0,0.0,1310988,1310988,6620172,197388,0,0,129,1,1,1,1,1,0,0,0,0,0,0,0
4764000,4684000,13488881683,0.0015967608,0.0020700453,0.0018314682,0,0.020597212,3.5358217,0.001057977,nan,nan,nan,0.0,0.0,0.0,0.0,1310988,1310988,6620172,197388,0,0,129,1,1,1,1,1,0,0,0,0,0,0,0
4772000,4692000,13488881683,0.0015473908,0.0019528706,0.0017534605,0,0.021349033,3.5358307,0.001057977,nan,nan,nan,0.0,0.0,0.0,0.0,1310988,1310988,6620172,197388,0,0,129,1,1,1,1,1,0,0,0,0,0,0,0
4780000,4700000,13488881683,0.0014504922,0.0018351673,0.0016767494,0,0.02212302,3.5358398,0.001057977,nan,nan,nan,0.0,0.0,0.0,0.0,1310988,1310988,6620172,197388,0,0,129,1,1,1,1,1,0,0,0,0,0,0,0
4788000,4708000,13488881683,0.0013538912,0.0017224931,0.0016011558,0,0.022919038,3.5358493,0.001057977,nan,nan,nan,0.0,0.0,0.0,0.0,1310988,1310988,6620172,197388,0,0,129,1,1,1,1,1,0,0,0,0,0,0,0
4796000,4716000,13488881683,0.0012597076,0.0016151372,0.0015269552,0,0.023737093,3.5358589,0.001057977,nan,nan,nan,0.0,0.0,0.0,0.0,1310988,1310988,6620172,197388,0,0,129,1,1,1,1,1,0,0,0,0,0,0,0
4804000,4724000,13488881683,0.001167924,0.0015134467,0.001453712,0,0.02457709,3.535869,0.001057977,nan,nan,nan,0.0,0.0,0.0,0.0,1310988,1310988,6620172,197388,0,0,129,1,1,1,1,1,0,0,0,0,0,0,0
4812000,4732000,13488881683,0.0010784058,0.0014172925,0.0013816892,0,0.025439017,3.5358787,0.001057977,nan,nan,nan,0.0,0.0,0.0,0.0,1310988,1310988,6620172,197388,0,0,129,1,1,1,1,1,0,0,0,0,0,0,0
4820000,4740000,13488881683,0.0009909793,0.0013271392,0.0013112377,0,0.026322853,3.535889,0.001057977,nan,nan,nan,0.0,0.0,0.0,0.0,1310988,1310988,6620172,197388,0,0,129,1,1,1,1,1,0,0,0,0,0,0,0
4828000,4748000,13488881683,0.0009062648,0.0012436066,0.0012416808,0,0.027228598,3.5358994,0.001057977,nan,nan,nan,0.0,0.0,0.0,0.0,1310988,1310988,6620172,197388,0,0,129,1,1,1,1,1,0,0,0,0,0,0,0
4836000,4756000,4898947603,0.000984356,0.0011673295,0.0011740479,0,0.028156279,3.5359101,0.00309149,nan,nan,0.002391862,0.0,0.0,0.0,0.0,1310988,1310988,6620172,197388,0,0,165,1,1,1,1,1,0,0,0,0,0,0,0
4844000,4764000,4898947603,0.00090531085,0.0010983858,0.0011073963,0,0.029105952,3.5359209,0.00309149,nan,nan,0.002391862,0.0,0.0,0.0,0.0,1310988,1310988,6620172,197388,0,0,165,1,1,1,1,1,0,0,0,0,0,0,0
4852000,4772000,4898947603,0.00082603644,0.0010389545,0.001042521,0,0.030077571,3.5359318,0.00309149,nan,nan,0.002391862,0.0,0.0,0.0,0.0,1310988,1310988,6620172,197388,0,0,165,1,1,1,1,1,0,0,0,0,0,0,0
4860000,4780000,4898947603,0.0007492176,0.000989138,0.0009789349,0,0.031071145,3.535943,0.00309149,nan,nan,0.002391862,0.0,0.0,0.0,0.0,1310988,1310988,6620172,197388,0,0,165,1,1,1,1,1,0,0,0,0,0,0,0
4868000,4788000,4898947603,0.0008944171,0.0023700683,0.0010392569,0,0.012940944,3.5359545,0.00309149,nan,nan,0.002391862,0.0,0.0,0.0,0.0,1310988,1310988,6620172,197388,0,0,165,1,1,1,1,1,0,0,0,0,0,0,0
4876000,4796000,4898947603,0.0008389269,0.002311195,0.0009846524,0,0.013364348,3.5359662,0.00309149,nan,nan,0.002391862,0.0,0.0,0.0,0.0,1310988,1310988,6620172,197388,0,0,165,1,1,1,1,1,0,0,0,0,0,0,0
4884000,4804000,4898947603,0.0007890298,0.0022569618,0.00093241525,0,0.013806329,3.5359783,0.00309149,nan,nan,0.002391862,0.0,0.0,0.0,0.0,1310988,1310988,6620172,197388,0,0,165,1,1,1,1,1,0,0,0,0,0,0,0
4892000,4812000,4898947603,0.0007446705,0.0022096073,0.015284057,0,0.0142667815,2.4875004,0.00309149,nan,nan,0.0012461222,0.0,0.0,0.0,0.0,1310988,1310988,6620172,197388,0,0,165,1,1,1,1,1,0,0,0,0,0,0,0
4900000,4820000,4898947603,0.0007335236,0.002896113,0.014052474,0,0.01443741,2.4874794,0.00309149,nan,nan,0.0012461222,0.0,0.0,0.0,0.0,1310988,1310988,6620172,197388,0,0,165,1,1,1,1,1,0,0,0,0,0,0,0
4908000,4828000,4898947603,0.00076214265,0.0027570503,0.013624256,0,0.014911163,2.4874868,0.01634491,nan,nan,0.0012461222,0.0,0.0,0.0,0.0,1310988,1310988,6620172,197388,0,0,165,1,1,1,1,1,0,0,0,0,0,0,0
4916000,4836000,4898947603,0.00078924204,0.0026253646,0.013208692,0,0.015402456,2.4874945,0.01634491,nan,nan,0.0012461222,0.0,0.0,0.0,0.0,1310988,1310988,6620172,197388,0,0,165,1,1,1,1,1,0,0,0,0,0,0,0
4924000,4844000,4898947603,0.00082243234,0.0024996619,0.012805724,0,0.015911179,2.4875023,0.01634491,nan,nan,0.0012461222,0.0,0.0,0.0,0.0,1310988,1310988,6620172,197388,0,0,165,1,1,1,1,1,0,0,0,0,0,0,0
4932000,4852000,4898947603,0.00085527636,0.0023796435,0.012415047,0,0.01643717,2.4875107,0.01634491,nan,nan,0.0012461222,0.0,0.0,0.0,0.0,1310988,1310988,6620172,197388,0,0,165,1,1,1,1,1,0,0,0,0,0,0,0
4940000,4860000,4898947603,0.0008869835,0.0022660566,0.012035973,0,0.016980328,2.487519,0.01634491,nan,nan,0.0012461222,0.0,0.0,0.0,0.0,1310988,1310988,6620172,197388,0,0,165,1,1,1,1,1,0,0,0,0,0,0,0
4948000,4868000,4898947603,0.00091718166,0.0021589403,0.011668618,0,0.017540555,2.4875274,0.01634491,nan,nan,0.0012461222,0.0,0.0,0.0,0.0,1310988,1310988,6620172,197388,0,0,165,1,1,1,1,1,0,0,0,0,0,0,0
4956000,4876000,4898947603,0.00092993065,0.0020619836,0.0054564388,0,0.018117785,2.027601,0.01634491,nan,nan,0.0008151463,0.0,0.0,0.0,0.0,1310988,1310988,6620172,197388,0,0,165,1,1,1,1,1,0,0,0,0,0,0,0
4964000,4884000,4898947603,0.0009424678,0.0019679863,0.0052984166,0,0.018711964,2.0276084,0.01634491,nan,nan,0.0008151463,0.0,0.0,0.0,0.0,1310988,1310988,6620172,197388,0,0,165,1,1,1,1,1,0,0,0,0,0,0,0
4972000,4892000,4898947603,0.0009542914,0.0018794058,0.005145309,0,0.019322988,2.0276163,0.01634491,nan,nan,0.0008151463,0.0,0.0,0.0,0.0,1310988,1310988,6620172,197388,0,0,165,1,1,1,1,1,0,0,0,0,0,0,0
4980000,4900000,4898947603,0.0010801861,0.0017954273,0.004997115,0,0.01995079,2.0276244,0.002370244,nan,nan,0.0008151463,0.0,0.0,0.0,0.0,1310988,1310988,6620172,197388,0,0,165,1,1,1,1,1,0,0,0,0,0,0,0
4988000,4908000,4898947603,0.0010922357,0.0017118731,0.004854187,0,0.020595312,2.0276327,0.002370244,nan,nan,0.0008151463,0.0,0.0,0.0,0.0,1310988,1310988,6620172,197388,0,0,165,1,1,1,1,1,0,0,0,0,0,0,0
4996000,4916000,4898947603,0.0010595127,0.0016345484,0.004716514,0,0.021256505,2.0276415,0.002370244,nan,nan,0.0008151463,0.0,0.0,0.0,0.0,1310988,1310988,6620172,197388,0,0,165,1,1,1,1,1,0,0,0,0,0,0,0
5004000,4924000,4898947603,0.0010248637,0.0015633452,0.004584078,0,0.021934304,2.0276506,0.002370244,nan,nan,0.0008151463,0.0,0.0,0.0,0.0,1310988,1310988,6620172,197388,0,0,165,1,1,1,1,1,0,0,0,0,0,0,0
5012000,4932000,4898947603,0.0009882391,0.0014998935,0.0046028094,0,0.02262871,1.7544979,0.002370244,nan,nan,0.0017722824,0.0,0.0,0.0,0.0,1310988,1310988,6620172,197388,0,0,165,1,1,1,1,1,0,0,0,0,0,0,0
5020000,4940000,4898947603,0.00094961183,0.0014414651,0.004434995,0,0.023339689,1.7545063,0.002370244,nan,nan,0.0017722824,0.0,0.0,0.0,0.0,1310988,1310988,6620172,197388,0,0,165,1,1,1,1,1,0,0,0,0,0,0,0
5028000,4948000,4898947603,0.00090916816,0.0013904314,0.004271144,0,0.024067186,1.754515,0.002370244,nan,nan,0.0017722824,0.0,0.0,0.0,0.0,1310988,1310988,6620172,197388,0,0,165,1,1,1,1,1,0,0,0,0,0,0,0
5036000,4956000,4898947603,0.0008671823,0.0013463072,0.004111077,0,0.024811188,1.7545242,0.002370244,nan,nan,0.0017722824,0.0,0.0,0.0,0.0,1310988,1310988,6620172,197388,0,0,165,1,1,1,1,1,0,0,0,0,0,0,0
5044000,4964000,4898947603,0.0008242305,0.0013086703,0.0039546215,0,0.02557167,1.7545338,0.002370244,nan,nan,0.0017722824,0.0,0.0,0.0,0.0,1310988,1310988,6620172,197388,0,0,165,1,1,1,1,1,0,0,0,0,0,0,0
5052000,4972000,4898947603,0.000541634,0.0012783735,0.0038021407,0,0.026348667,1.7545437,0.0046177576,nan,nan,0.0017722824,0.0,0.0,0.0,0.0,1310988,1310988,6620172,197388,0,0,165,1,1,1,1,1,0,0,0,0,0,0,0
5060000,4980000,4898947603,0.0004945046,0.0012546743,0.006328452,0,0.027142191,1.5685036,0.0046177576,nan,nan,0.00068285124,0.0,0.0,0.0,0.0,1310988,1310988,6620172,197388,0,0,165,1,1,1,1,1,0,0,0,0,0,0,0
5068000,4988000,4898947603,0.0004400987,0.0012384898,0.0060969074,0,0.027952245,1.5685132,0.0046177576,nan,nan,0.00068285124,0.0,0.0,0.0,0.0,1310988,1310988,6620172,197388,0,0,165,1,1,1,1,1,0,0,0,0,0,0,0
5076000,4996000,4898947603,0.0005467472,0.0024645738,0.005902975,0,0.012692435,1.5685233,0.0046177576,nan,nan,0.00068285124,0.0,0.0,0.0,0.0,1310988,1310988,6620172,197388,0,0,165,1,1,1,1,1,0,0,0,0,0,0,0
5084000,5004000,4898947603,0.00050112954,0.0024232375,0.005684499,0,0.013067986,1.5685338,0.0046177576,nan,nan,0.00068285124,0.0,0.0,0.0,0.0,1310988,1310988,6620172,197388,0,0,165,1,1,1,1,1,0,0,0,0,0,0,0
5092000,5012000,4898947603,0.00045889575,0.0023856824,0.0054715024,0,0.013458111,1.5685446,0.0046177576,nan,nan,0.00068285124,0.0,0.0,0.0,0.0,1310988,1310988,6620172,197388,0,0,165,1,1,1,1,1,0,0,0,0,0,0,0
5100000,5020000,4898947603,0.0004206754,0.002351922,0.005264377,0,0.013862712,1.568556,0.0046177576,nan,nan,0.00068285124,0.0,0.0,0.0,0.0,1310988,1310988,6620172,197388,0,0,165,1,1,1,1,1,0,0,0,0,0,0,0
5108000,5028000,4898947603,0.00038921737,0.002957529,0.0056799157,0,0.014048114,1.5685335,0.0046177576,nan,nan,0.00068285124,0.0,0.0,0.0,0.0,1310988,1310988,6620172,197388,0,0,165,1,1,1,1,1,0,0,0,0,0,0,0
5116000,5036000,4898947603,0.00036055883,0.0028299426,0.0054841363,0,0.01446547,1.5685434,0.0046177576,nan,nan,0.00068285124,0.0,0.0,0.0,0.0,1310988,1310988,6620172,197388,0,0,165,1,1,1,1,1,0,0,0,0,0,0,0
5124000,5044000,4898947603,0.00067551906,0.0027145208,0.0172886,0,0.014896715,1.4313828,0.012423533,nan,nan,0.0037497436,0.0,0.0,0.0,0.0,1310988,1310988,6620172,197388,0,0,165,1,1,1,1,1,0,0,0,0,0,0,0
5132000,5052000,4898947603,0.0007093018,0.0025990002,0.016716046,0,0.015341778,1.4313924,0.012423533,nan,nan,0.0037497436,0.0,0.0,0.0,0.0,1310988,1310988,6620172,197388,0,0,165,1,1,1,1,1,0,0,0,0,0,0,0
5140000,5060000,4898947603,0.000730618,0.00248956,0.016159886,0,0.01580061,1.4314027,0.012423533,nan,nan,0.0037497436,0.0,0.0,0.0,0.0,1310988,1310988,6620172,197388,0,0,165,1,1,1,1,1,0,0,0,0,0,0,0
5148000,5068000,4898947603,0.00075090065,0.002386335,0.015618815,0,0.016273107,1.4314132,0.012423533,nan,nan,0.0037497436,0.0,0.0,0.0,0.0,1310988,1310988,6620172,197388,0,0,165,1,1,1,1,1,0,0,0,0,0,0,0
5156000,5076000,4898947603,0.0007696842,0.0022898344,0.01509317,0,0.016759181,1.4314241,0.012423533,nan,nan,0.0037497436,0.0,0.0,0.0,0.0,1310988,1310988,6620172,197388,0,0,165,1,1,1,1,1,0,0,0,0,0,0,0
5164000,5084000,4898947603,0.0007811802,0.0022006673,0.014582659,0,0.017258823,1.4314357,0.012423533,nan,nan,0.0037497436,0.0,0.0,0.0,0.0,1310988,1310988,6620172,197388,0,0,165,1,1,1,1,1,0,0,0,0,0,0,0
5172000,5092000,4898947603,0.0007915693,0.0021172506,0.014086309,0,0.017771933,1.4314475,0.012423533,nan,nan,0.0037497436,0.0,0.0,0.0,0.0,1310988,1310988,6620172,197388,0,0,165,1,1,1,1,1,0,0,0,0,0,0,0
5180000,5100000,4898947603,0.00080064865,0.0020410956,0.018239811,0,0.018298414,1.3249308,0.012423533,nan,nan,0.0017127334,0.0,0.0,0.0,0.0,1310988,1310988,6620172,197388,0,0,165,1,1,1,1,1,0,0,0,0,0,0,0
5188000,5108000,4898947603,0.00080819253,0.0019686946,0.017622022,0,0.018838216,1.3249426,0.012423533,nan,nan,0.0017127334,0.0,0.0,0.0,0.0,1310988,1310988,6620172,197388,0,0,165,1,1,1,1,1,0,0,0,0,0,0,0
5196000,5116000,4898947603,0.00097137596,0.0018983292,0.017020958,0,0.019391319,1.324955,0.0029432308,nan,nan,0.0017127334,0.0,0.0,0.0,0.0,1310988,1310988,6620172,197388,0,0,165,1,1,1,1,1,0,0,0,0,0,0,0
5204000,5124000,4898947603,0.0009773759,0.0018346013,0.016436169,0,0.019957658,1.3249677,0.0029432308,nan,nan,0.0017127334,0.0,0.0,0.0,0.0,1310988,1310988,6620172,197388,0,0,165,1,1,1,1,1,0,0,0,0,0,0,0
5212000,5132000,4898947603,0.0009453963,0.0017779376,0.015867494,0,0.020537242,1.324981,0.0029432308,nan,nan,0.0017127334,0.0,0.0,0.0,0.0,1310988,1310988,6620172,197388,0,0,165,1,1,1,1,1,0,0,0,0,0,0,0
5220000,5140000,4898947603,0.00091154774,0.0017279101,0.015314221,0,0.021130022,1.3249948,0.0029432308,nan,nan,0.0017127334,0.0,0.0,0.0,0.0,1310988,1310988,6620172,197388,0,0,165,1,1,1,1,1,0,0,0,0,0,0,0
5228000,5148000,4898947603,0.00087652006,0.0016849218,0.014776105,0,0.021735985,1.3250091,0.0029432308,nan,nan,0.0017127334,0.0,0.0,0.0,0.0,1310988,1310988,6620172,197388,0,0,165,1,1,1,1,1,0,0,0,0,0,0,0
5236000,5156000,4898947603,0.0008404732,0.0016485379,0.0142525975,0,0.02235512,1.3250239,0.0029432308,nan,nan,0.0017127334,0.0,0.0,0.0,0.0,1310988,1310988,6620172,197388,0,0,165,1,1,1,1,1,0,0,0,0,0,0,0
5244000,5164000,4898947603,0.0008033963,0.0016186849,0.009675783,0,0.022987407,1.2392071,0.0029432308,nan,nan,0.0017372548,0.0,0.0,0.0,0.0,1310988,1310988,6620172,197388,0,0,165,1,1,1,1,1,0,0,0,0,0,0,0
5252000,5172000,4898947603,0.0007654166,0.0015955805,0.009311615,0,0.023632837,1.2392219,0.0029432308,nan,nan,0.0017372548,0.0,0.0,0.0,0.0,1310988,1310988,6620172,197388,0,0,165,1,1,1,1,1,0,0,0,0,0,0,0
5260000,5180000,4898947603,0.00072704017,0.0015786847,0.00895761,0,0.0242914,1.2392373,0.0029432308,nan,nan,0.0017372548,0.0,0.0,0.0,0.0,1310988,1310988,6620172,197388,0,0,165,1,1,1,1,1,0,0,0,0,0,0,0
5268000,5188000,4898947603,0.0015607598,0.0015674293,0.008613001,0,0.024963075,1.2392532,0.015881294,nan,nan,0.0017372548,0.0,0.0,0.0,0.0,1310988,1310988,6620172,197388,0,0,165,1,1,1,1,1,0,0,0,0,0,0,0
5276000,5196000,4898947603,0.0015251224,0.0015615879,0.008277768,0,0.025647856,1.2392697,0.015881294,nan,nan,0.0017372548,0.0,0.0,0.0,0.0,1310988,1310988,6620172,197388,0,0,165,1,1,1,1,1,0,0,0,0,0,0,0
5284000,5204000,4898947603,0.0014858816,0.0016757282,0.007956244,0,0.012460424,1.2392868,0.015881294,nan,nan,0.0017372548,0.0,0.0,0.0,0.0,1310988,1310988,6620172,197388,0,0,165,1,1,1,1,1,0,0,0,0,0,0,0
5292000,5212000,4898947603,0.0014404018,0.0016636873,0.0076387636,0,0.012799623,1.2393044,0.015881294,nan,nan,0.0017372548,0.0,0.0,0.0,0.0,1310988,1310988,6620172,197388,0,0,165,1,1,1,1,1,0,0,0,0,0,0,0
5300000,5220000,4898947603,0.00139653,0.0016552466,0.009985701,0,0.0131508615,1.1682466,0.015881294,nan,nan,0.0012887174,0.0,0.0,0.0,0.0,1310988,1310988,6620172,197388,0,0,165,1,1,1,1,1,0,0,0,0,0,0,0
5308000,5228000,4898947603,0.0013543159,0.0016525021,0.009599621,0,0.013514067,1.1682644,0.015881294,nan,nan,0.0012887174,0.0,0.0,0.0,0.0,1310988,1310988,6620172,197388,0,0,165,1,1,1,1,1,0,0,0,0,0,0,0
5316000,5236000,4898947603,0.0013128084,0.0022677614,0.0098884525,0,0.013704253,1.1682211,0.015881294,nan,nan,0.0012887174,0.0,0.0,0.0,0.0,1310988,1310988,6620172,197388,0,0,165,1,1,1,1,1,0,0,0,0,0,0,0
5324000,5244000,4898947603,0.001274115,0.0021477048,0.009521482,0,0.014079396,1.1682364,0.015881294,nan,nan,0.0012887174,0.0,0.0,0.0,0.0,1310988,1310988,6620172,197388,0,0,165,1,1,1,1,1,0,0,0,0,0,0,0
5332000,5252000,4898947603,0.001237354,0.0020338276,0.009164528,0,0.014466079,1.1682521,0.015881294,nan,nan,0.0012887174,0.0,0.0,0.0,0.0,1310988,1310988,6620172,197388,0,0,165,1,1,1,1,1,0,0,0,0,0,0,0
5340000,5260000,4898947603,0.0019476674,0.0019281288,0.008817721,0,0.014864239,1.1682683,0.013517376,nan,nan,0.0012887174,0.0,0.0,0.0,0.0,1310988,1310988,6620172,197388,0,0,165,1,1,1,1,1,0,0,0,0,0,0,0
5348000,5268000,4898947603,0.0019174989,0.0018285979,0.008480447,0,0.015273831,1.1682851,0.013517376,nan,nan,0.0012887174,0.0,0.0,0.0,0.0,1310988,1310988,6620172,197388,0,0,165,1,1,1,1,1,0,0,0,0,0,0,0
5356000,5276000,4898947603,0.0018422304,0.0017357362,0.008152591,0,0.015694799,1.1683024,0.013517376,nan,nan,0.0012887174,0.0,0.0,0.0,0.0,1310988,1310988,6620172,197388,0,0,165,1,1,1,1,1,0,0,0,0,0,0,0
5364000,5284000,4898947603,0.0017685153,0.0016487072,0.006678897,0,0.0161271,1.1082088,0.013517376,nan,nan,0.0006277142,0.0,0.0,0.0,0.0,1310988,1310988,6620172,197388,0,0,165,1,1,1,1,1,0,0,0,0,0,0,0
5372000,5292000,4898947603,0.0016968173,0.0015706745,0.0064067207,0,0.016570678,1.1082263,0.013517376,nan,nan,0.0006277142,0.0,0.0,0.0,0.0,1310988,1310988,6620172,197388,0,0,165,1,1,1,1,1,0,0,0,0,0,0,0
5380000,5300000,4898947603,0.0016275697,0.0015008615,0.0061423206,0,0.017025465,1.1082443,0.013517376,nan,nan,0.0006277142,0.0,0.0,0.0,0.0,1310988,1310988,6620172,197388,0,0,165,1,1,1,1,1,0,0,0,0,0,0,0
5388000,5308000,4898947603,0.0015603519,0.0014391514,0.005885668,0,0.017491428,1.1082629,0.013517376,nan,nan,0.0006277142,0.0,0.0,0.0,0.0,1310988,1310988,6620172,197388,0,0,165,1,1,1,1,1,0,0,0,0,0,0,0
5396000,5316000,4898947603,0.0014954598,0.0013855355,0.0056359437,0,0.017968519,1.1082821,0.013517376,nan,nan,0.0006277142,0.0,0.0,0.0,0.0,1310988,1310988,6620172,197388,0,0,165,1,1,1,1,1,0,0,0,0,0,0,0
5404000,5324000,4898947603,0.0014324703,0.0013368413,0.005393,0,0.01845669,1.1083019,0.013517376,nan,nan,0.0006277142,0.0,0.0,0.0,0.0,1310988,1310988,6620172,197388,0,0,165,1,1,1,1,1,0,0,0,0,0,0,0
5412000,5332000,4898947603,0.0021063597,0.0012999858,0.00515618,0,0.018955903,1.1083223,0.013290709,nan,nan,0.0006277142,0.0,0.0,0.0,0.0,1310988,1310988,6620172,197388,0,0,165,1,1,1,1,1,0,0,0,0,0,0,0
5420000,5340000,4898947603,0.0020500617,0.0012697363,0.0023796447,0,0.01946612,1.0566294,0.013290709,nan,nan,0.0015558319,0.0,0.0,0.0,0.0,1310988,1310988,6620172,197388,0,0,165,1,1,1,1,1,0,0,0,0,0,0,0
5428000,5348000,4898947603,0.0019552503,0.0012507483,0.0022430902,0,0.019987319,1.05665,0.013290709,nan,nan,0.0015558319,0.0,0.0,0.0,0.0,1310988,1310988,6620172,197388,0,0,165,1,1,1,1,1,0,0,0,0,0,0,0
5436000,5356000,4898947603,0.001861988,0.0012399898,0.0021108554,0,0.02051949,1.0566711,0.013290709,nan,nan,0.0015558319,0.0,0.0,0.0,0.0,1310988,1310988,6620172,197388,0,0,165,1,1,1,1,1,0,0,0,0,0,0,0
5444000,5364000,4898947603,0.0017723017,0.0012376495,0.0019826947,0,0.021062614,1.0566931,0.013290709,nan,nan,0.0015558319,0.0,0.0,0.0,0.0,1310988,1310988,6620172,197388,0,0,165,1,1,1,1,1,0,0,0,0,0,0,0
5452000,5372000,4898947603,0.001686427,0.0012433432,0.0018587005,0,0.021616645,1.0567155,0.013290709,nan,nan,0.0015558319,0.0,0.0,0.0,0.0,1310988,1310988,6620172,197388,0,0,165,1,1,1,1,1,0,0,0,0,0,0,0
5460000,5380000,4898947603,0.0016042477,0.0012557263,0.0017391939,0,0.022181591,1.0567386,0.013290709,nan,nan,0.0015558319,0.0,0.0,0.0,0.0,1310988,1310988,6620172,197388,0,0,165,1,1,1,1,1,0,0,0,0,0,0,0
5468000,5388000,4898947603,0.0015252845,0.0012744643,0.001624178,0,0.02275745,1.0567625,0.013290709,nan,nan,0.0015558319,0.0,0.0,0.0,0.0,1310988,1310988,6620172,197388,0,0,165,1,1,1,1,1,0,0,0,0,0,0,0
5476000,5396000,4898947603,0.0014498995,0.0012978424,0.0015140141,0,0.023344208,1.0567868,0.013290709,nan,nan,0.0015558319,0.0,0.0,0.0,0.0,1310988,1310988,6620172,197388,0,0,165,1,1,1,1,1,0,0,0,0,0,0,0
5484000,5404000,4898947603,0.0006555154,0.0013275046,0.0025654794,0,0.023941861,1.0116987,0.013050684,nan,nan,0.0024067466,0.0,0.0,0.0,0.0,1310988,1310988,6620172,197388,0,0,165,1,1,1,1,1,0,0,0,0,0,0,0
5492000,5412000,4898947603,0.00061444496,0.0018071423,0.0025741183,0,0.012254372,1.0117234,0.013050684,nan,nan,0.0024067466,0.0,0.0,0.0,0.0,1310988,1310988,6620172,197388,0,0,165,1,1,1,1,1,0,0,0,0,0,0,0
5500000,5420000,4898947603,0.0005133464,0.0018374729,0.00257755,0,0.012566075,1.0117488,0.013050684,nan,nan,0.0024067466,0.0,0.0,0.0,0.0,1310988,1310988,6620172,197388,0,0,165,1,1,1,1,1,0,0,0,0,0,0,0
5508000,5428000,4898947603,0.00041853316,0.0018689409,0.0025812448,0,0.012888146,1.0117749,0.013050684,nan,nan,0.0024067466,0.0,0.0,0.0,0.0,1310988,1310988,6620172,197388,0,0,165,1,1,1,1,1,0,0,0,0,0,0,0
5516000,5436000,4898947603,0.00033414533,0.0019014345,0.0025854027,0,0.013220531,1.0118017,0.013050684,nan,nan,0.0024067466,0.0,0.0,0.0,0.0,1310988,1310988,6620172,197388,0,0,165,1,1,1,1,1,0,0,0,0,0,0,0
5524000,5444000,4898947603,0.00027976718,0.0024772123,0.0017623375,0,0.013410779,1.0117086,0.013050684,nan,nan,0.0024067466,0.0,0.0,0.0,0.0,1310988,1310988,6620172,197388,0,0,165,1,1,1,1,1,0,0,0,0,0,0,0
5532000,5452000,4898947603,0.00023630906,0.0023900198,0.0017757642,0,0.013754372,1.0117314,0.013050684,nan,nan,0.0024067466,0.0,0.0,0.0,0.0,1310988,1310988,6620172,197388,0,0,165,1,1,1,1,1,0,0,0,0,0,0,0
5540000,5460000,4898947603,0.0002238734,0.0023127943,0.0008015339,0,0.014107931,0.9719595,0.013050684,nan,nan,0.0011242282,0.0,0.0,0.0,0.0,1310988,1310988,6620172,197388,0,0,165,1,1,1,1,1,0,0,0,0,0,0,0
5548000,5468000,4898947603,0.00024269559,0.0022396592,0.0008130505,0,0.014471413,0.9719825,0.013050684,nan,nan,0.0011242282,0.0,0.0,0.0,0.0,1310988,1310988,6620172,197388,0,0,165,1,1,1,1,1,0,0,0,0,0,0,0
5556000,5476000,4898947603,0.00022687839,0.0021737777,0.0008287454,0,0.01484477,0.9720061,0.0032526767,nan,nan,0.0011242282,0.0,0.0,0.0,0.0,1310988,1310988,6620172,197388,0,0,165,1,1,1,1,1,0,0,0,0,0,0,0
5564000,5484000,4898947603,0.00023691163,0.0021148212,0.000848545,0,0.015227956,0.97203034,0.0032526767,nan,nan,0.0011242282,0.0,0.0,0.0,0.0,1310988,1310988,6620172,197388,0,0,165,1,1,1,1,1,0,0,0,0,0,0,0
5572000,5492000,4898947603,0.00024887268,0.002062893,0.0008712943,0,0.015620937,0.9720552,0.0032526767,nan,nan,0.0011242282,0.0,0.0,0.0,0.0,1310988,1310988,6620172,197388,0,0,165,1,1,1,1,1,0,0,0,0,0,0,0
5580000,5500000,4898947603,0.00025319128,0.0020184927,0.0008966905,0,0.016023658,0.97208077,0.0032526767,nan,nan,0.0011242282,0.0,0.0,0.0,0.0,1310988,1310988,6620172,197388,0,0,165,1,1,1,1,1,0,0,0,0,0,0,0
5588000,5508000,4898947603,0.000257683,0.0019802873,0.0009242114,0,0.016436076,0.97210693,0.0032526767,nan,nan,0.0011242282,0.0,0.0,0.0,0.0,1310988,1310988,6620172,197388,0,0,165,1,1,1,1,1,0,0,0,0,0,0,0
5596000,5516000,4898947603,0.00026108653,0.0019478424,0.00095366326,0,0.016858147,0.97213376,0.0032526767,nan,nan,0.0011242282,0.0,0.0,0.0,0.0,1310988,1310988,6620172,197388,0,0,165,1,1,1,1,1,0,0,0,0,0,0,0
5604000,5524000,4898947603,0.0002625462,0.0019295224,0.009368994,0,0.017289832,0.936699,0.0032526767,nan,nan,0.0075408323,0.0,0.0,0.0,0.0,1310988,1310988,6620172,197388,0,0,165,1,1,1,1,1,0,0,0,0,0,0,0
5612000,5532000,4898947603,0.00026062748,0.0019039575,0.009004389,0,0.017731097,0.93672615,0.0032526767,nan,nan,0.0075408323,0.0,0.0,0.0,0.0,1310988,1310988,6620172,197388,0,0,165,1,1,1,1,1,0,0,0,0,0,0,0
5620000,5540000,4898947603,0.00025593422,0.0018837545,0.008649683,0,0.0181819,0.93675405,0.0032526767,nan,nan,0.0075408323,0.0,0.0,0.0,0.0,1310988,1310988,6620172,197388,0,0,165,1,1,1,1,1,0,0,0,0,0,0,0
5628000,5548000,4898947603,0.0003536146,0.0018688624,0.008304459,0,0.018642211,0.9367826,0.0022497317,nan,nan,0.0075408323,0.0,0.0,0.0,0.0,1310988,1310988,6620172,197388,0,0,165,1,1,1,1,1,0,0,0,0,0,0,0
5636000,5556000,4898947603,0.00034476558,0.0018590856,0.007968738,0,0.019112015,0.93681186,0.0022497317,nan,nan,0.0075408323,0.0,0.0,0.0,0.0,1310988,1310988,6620172,197388,0,0,165,1,1,1,1,1,0,0,0,0,0,0,0
5644000,5564000,4898947603,0.0003412918,0.0018537716,0.0076419557,0,0.019591285,0.93684185,0.0022497317,nan,nan,0.0075408323,0.0,0.0,0.0,0.0,1310988,1310988,6620172,197388,0,0,165,1,1,1,1,1,0,0,0,0,0,0,0
5652000,5572000,4898947603,0.00033481966,0.0018525555,0.0073244,0,0.020080013,0.9368725,0.0022497317,nan,nan,0.0075408323,0.0,0.0,0.0,0.0,1310988,1310988,6620172,197388,0,0,165,1,1,1,1,1,0,0,0,0,0,0,0
5660000,5580000,4898947603,0.00032698648,0.0018543347,0.009265435,0,0.020578172,0.9050391,0.0022497317,nan,nan,0.0018692804,0.0,0.0,0.0,0.0,1310988,1310988,6620172,197388,0,0,165,1,1,1,1,1,0,0,0,0,0,0,0
5668000,5588000,4898947603,0.00031825906,0.001859193,0.008891426,0,0.021085747,0.9050701,0.0022497317,nan,nan,0.0018692804,0.0,0.0,0.0,0.0,1310988,1310988,6620172,197388,0,0,165,1,1,1,1,1,0,0,0,0,0,0,0
5676000,5596000,4898947603,0.00030875969,0.0018669728,0.0085277,0,0.021602716,0.90510195,0.0022497317,nan,nan,0.0018692804,0.0,0.0,0.0,0.0,1310988,1310988,6620172,197388,0,0,165,1,1,1,1,1,0,0,0,0,0,0,0
5684000,5604000,4898947603,0.00029867582,0.0018775353,0.008174035,0,0.022129087,0.90513456,0.0022497317,nan,nan,0.0018692804,0.0,0.0,0.0,0.0,1310988,1310988,6620172,197388,0,0,165,1,1,1,1,1,0,0,0,0,0,0,0
