timestamp,timestamp_sample,q[0],q[1],q[2],q[3],delta_q_reset[0],delta_q_reset[1],delta_q_reset[2],delta_q_reset[3],quat_reset_counter
3456000,3456000,0.6823805,0.0011033053,-0.016258687,0.73081553,1.0,0.0,0.0,0.0,0
3460000,3460000,0.68237907,0.001114453,-0.016223177,0.7308177,1.0,0.0,0.0,0.0,0
3468000,3468000,0.682378,0.0011439635,-0.016170511,0.7308197,1.0,0.0,0.0,0.0,0
3472000,3472000,0.68449163,0.0011093176,-0.016147796,0.72884107,0.99999595,0.0,9.895302e-10,-0.0028691888,1
3476000,3476000,0.68451154,0.001121398,-0.016119972,0.72882295,0.99999595,0.0,9.895302e-10,-0.0028691888,1
3484000,3484000,0.6845521,0.0011462324,-0.016057627,0.7287862,0.99999595,0.0,9.895302e-10,-0.0028691888,1
3488000,3488000,0.6845704,0.0011572485,-0.016029565,0.7287696,0.99999595,0.0,9.895302e-10,-0.0028691888,1
3492000,3492000,0.68458706,0.0011685716,-0.01600036,0.7287545,0.99999595,0.0,9.895302e-10,-0.0028691888,1
3496000,3496000,0.68460655,0.0011772383,-0.01596713,0.728737,0.99999595,0.0,9.895302e-10,-0.0028691888,1
3500000,3500000,0.68462795,0.0011863355,-0.015934264,0.7287176,0.99999595,0.0,9.895302e-10,-0.0028691888,1
3504000,3504000,0.68464804,0.0011992366,-0.015902057,0.7286994,0.99999595,0.0,9.895302e-10,-0.0028691888,1
3508000,3508000,0.68466514,0.0012108354,-0.015866503,0.7286841,0.99999595,0.0,9.895302e-10,-0.0028691888,1
3512000,3512000,0.68468064,0.0012178972,-0.015830355,0.72867024,0.99999595,0.0,9.895302e-10,-0.0028691888,1
3516000,3516000,0.68469614,0.0012262875,-0.015800573,0.72865635,0.99999595,0.0,9.895302e-10,-0.0028691888,1
3520000,3520000,0.68471074,0.0012384807,-0.015771436,0.72864324,0.99999595,0.0,9.895302e-10,-0.0028691888,1
3524000,3524000,0.6847285,0.0012517183,-0.015737364,0.72862726,0.99999595,0.0,9.895302e-10,-0.0028691888,1
3528000,3528000,0.68475044,0.0012651231,-0.015704792,0.7286073,0.99999595,0.0,9.895302e-10,-0.0028691888,1
3532000,3532000,0.68477285,0.0012769608,-0.015670009,0.72858703,0.99999595,0.0,9.895302e-10,-0.0028691888,1
3536000,3536000,0.68479365,0.0012882437,-0.015630517,0.7285683,0.99999595,0.0,9.895302e-10,-0.0028691888,1
3540000,3540000,0.6848133,0.0012995716,-0.015593285,0.7285506,0.99999595,0.0,9.895302e-10,-0.0028691888,1
3544000,3544000,0.6848352,0.0013088289,-0.0155638205,0.72853065,0.99999595,0.0,9.895302e-10,-0.0028691888,1
3548000,3548000,0.6848543,0.0013172987,-0.015535138,0.72851324,0.99999595,0.0,9.895302e-10,-0.0028691888,1
3552000,3552000,0.68487114,0.001324236,-0.015507425,0.72849804,0.99999595,0.0,9.895302e-10,-0.0028691888,1
3556000,3556000,0.6848902,0.0013296475,-0.015477493,0.7284807,0.99999595,0.0,9.895302e-10,-0.0028691888,1
3560000,3560000,0.68490916,0.0013366176,-0.015448426,0.7284635,0.99999595,0.0,9.895302e-10,-0.0028691888,1
3564000,3564000,0.68492687,0.0013470319,-0.015421892,0.7284474,0.99999595,0.0,9.895302e-10,-0.0028691888,1
3568000,3568000,0.68494517,0.0013587005,-0.015398113,0.7284307,0.99999595,0.0,9.895302e-10,-0.0028691888,1
3572000,3572000,0.68496466,0.0013680886,-0.015372894,0.72841287,0.99999595,0.0,9.895302e-10,-0.0028691888,1
3576000,3576000,0.68498206,0.0013745654,-0.0153516885,0.72839695,0.99999595,0.0,9.895302e-10,-0.0028691888,1
3580000,3580000,0.684999,0.0013853016,-0.015334497,0.7283814,0.99999595,0.0,9.895302e-10,-0.0028691888,1
3584000,3584000,0.68501633,0.0014018266,-0.015320666,0.72836524,0.99999595,0.0,9.895302e-10,-0.0028691888,1
3588000,3588000,0.6850352,0.001419502,-0.015306424,0.7283477,0.99999595,0.0,9.895302e-10,-0.0028691888,1
3596000,3596000,0.6850717,0.001446566,-0.0152777415,0.728314,0.99999595,0.0,9.895302e-10,-0.0028691888,1
3600000,3600000,0.6850881,0.0014548799,-0.015265971,0.72829884,0.99999595,0.0,9.895302e-10,-0.0028691888,1
3604000,3604000,0.6851042,0.0014582808,-0.015253976,0.728284,0.99999595,0.0,9.895302e-10,-0.0028691888,1
3608000,3608000,0.6851181,0.0014639631,-0.015243568,0.7282711,0.99999595,0.0,9.895302e-10,-0.0028691888,1
3612000,3612000,0.68513113,0.0014714304,-0.0152304685,0.728259,0.99999595,0.0,9.895302e-10,-0.0028691888,1
3616000,3616000,0.6851533,0.001476206,-0.015218739,0.7282384,0.99999595,0.0,9.895302e-10,-0.0028691888,1
3620000,3620000,0.6851766,0.001484428,-0.015208034,0.72821665,0.99999595,0.0,9.895302e-10,-0.0028691888,1
3628000,3628000,0.68521845,0.0015103947,-0.0151875615,0.72817767,0.99999595,0.0,9.895302e-10,-0.0028691888,1
3632000,3632000,0.6852386,0.001518829,-0.015181361,0.7281589,0.99999595,0.0,9.895302e-10,-0.0028691888,1
3636000,3636000,0.6852575,0.0015305696,-0.015173178,0.7281412,0.99999595,0.0,9.895302e-10,-0.0028691888,1
3640000,3640000,0.6852746,0.0015435285,-0.015166682,0.7281252,0.99999595,0.0,9.895302e-10,-0.0028691888,1
3644000,3644000,0.68529207,0.0015525492,-0.015166712,0.7281088,0.99999595,0.0,9.895302e-10,-0.0028691888,1
3652000,3652000,0.6853253,0.001573759,-0.015166897,0.7280774,0.99999595,0.0,9.895302e-10,-0.0028691888,1
3656000,3656000,0.6853389,0.0015819822,-0.0151643,0.72806466,0.99999595,0.0,9.895302e-10,-0.0028691888,1
3660000,3660000,0.6853533,0.0015935752,-0.015160469,0.72805125,0.99999595,0.0,9.895302e-10,-0.0028691888,1
3664000,3664000,0.68536824,0.0016071158,-0.015154218,0.7280372,0.99999595,0.0,9.895302e-10,-0.0028691888,1
3668000,3668000,0.6853836,0.0016207783,-0.015151732,0.7280228,0.99999595,0.0,9.895302e-10,-0.0028691888,1
3672000,3672000,0.685398,0.0016331996,-0.015153981,0.7280091,0.99999595,0.0,9.895302e-10,-0.0028691888,1
3676000,3676000,0.6854148,0.0016441186,-0.015154766,0.72799325,0.99999595,0.0,9.895302e-10,-0.0028691888,1
3680000,3680000,0.68543285,0.0016525533,-0.015154571,0.7279763,0.99999595,0.0,9.895302e-10,-0.0028691888,1
3684000,3684000,0.6854481,0.0016604981,-0.015152508,0.7279619,0.99999595,0.0,9.895302e-10,-0.0028691888,1
3688000,3688000,0.68546426,0.0016703918,-0.015153015,0.7279467,0.99999595,0.0,9.895302e-10,-0.0028691888,1
3692000,3692000,0.6854804,0.0016787797,-0.015153567,0.72793144,0.99999595,0.0,9.895302e-10,-0.0028691888,1
3700000,3700000,0.68551797,0.001691709,-0.01516055,0.727896,0.99999595,0.0,9.895302e-10,-0.0028691888,1
3704000,3704000,0.68553585,0.0016976696,-0.015165334,0.727879,0.99999595,0.0,9.895302e-10,-0.0028691888,1
3708000,3708000,0.6855522,0.001702525,-0.015172036,0.7278635,0.99999595,0.0,9.895302e-10,-0.0028691888,1
3712000,3712000,0.6855651,0.0017102543,-0.015180231,0.72785103,0.99999595,0.0,9.895302e-10,-0.0028691888,1
3716000,3716000,0.68557733,0.0017201814,-0.015186857,0.72783935,0.99999595,0.0,9.895302e-10,-0.0028691888,1
3724000,3724000,0.68560266,0.0017369321,-0.015203168,0.72781515,0.99999595,0.0,9.895302e-10,-0.0028691888,1
3728000,3728000,0.68561476,0.0017398457,-0.0152083635,0.72780365,0.99999595,0.0,9.895302e-10,-0.0028691888,1
3732000,3732000,0.6856265,0.0017404029,-0.015210616,0.72779256,0.99999595,0.0,9.895302e-10,-0.0028691888,1
3736000,3736000,0.68563855,0.0017405032,-0.015212312,0.7277811,0.99999595,0.0,9.895302e-10,-0.0028691888,1
3740000,3740000,0.68565136,0.0017432886,-0.01521506,0.72776896,0.99999595,0.0,9.895302e-10,-0.0028691888,1
3744000,3744000,0.68566376,0.0017494919,-0.015220121,0.7277572,0.99999595,0.0,9.895302e-10,-0.0028691888,1
3748000,3748000,0.6856761,0.0017553297,-0.015225568,0.7277454,0.99999595,0.0,9.895302e-10,-0.0028691888,1
3752000,3752000,0.68568736,0.0017574177,-0.0152330985,0.7277346,0.99999595,0.0,9.895302e-10,-0.0028691888,1
3756000,3756000,0.68569946,0.0017580837,-0.015242932,0.7277231,0.99999595,0.0,9.895302e-10,-0.0028691888,1
3760000,3760000,0.6857009,0.0017619254,-0.01525077,0.7277216,0.99999595,0.0,9.895302e-10,-0.0028691888,1
3764000,3764000,0.6857023,0.001766475,-0.015257081,0.7277201,0.99999595,0.0,9.895302e-10,-0.0028691888,1
3768000,3768000,0.68570197,0.0017702903,-0.015265258,0.72772026,0.99999595,0.0,9.895302e-10,-0.0028691888,1
3776000,3776000,0.6856973,0.00177543,-0.015275939,0.7277244,0.99999595,0.0,9.895302e-10,-0.0028691888,1
3784000,3784000,0.68569165,0.0017779208,-0.015297758,0.72772926,0.99999595,0.0,9.895302e-10,-0.0028691888,1
3788000,3788000,0.6856903,0.0017833129,-0.015307148,0.72773033,0.99999595,0.0,9.895302e-10,-0.0028691888,1
3792000,3792000,0.6856857,0.0017932677,-0.015318849,0.7277343,0.99999595,0.0,9.895302e-10,-0.0028691888,1
3796000,3796000,0.6856784,0.0018002884,-0.015335166,0.7277408,0.99999595,0.0,9.895302e-10,-0.0028691888,1
3800000,3800000,0.6856697,0.0018023992,-0.015350643,0.72774875,0.99999595,0.0,9.895302e-10,-0.0028691888,1
3804000,3804000,0.6856653,0.0018048082,-0.015360451,0.72775275,0.99999595,0.0,9.895302e-10,-0.0028691888,1
3808000,3808000,0.68566203,0.0018121331,-0.01536833,0.72775555,0.99999595,0.0,9.895302e-10,-0.0028691888,1
3812000,3812000,0.6856595,0.0018244243,-0.015377945,0.7277577,0.99999595,0.0,9.895302e-10,-0.0028691888,1
3816000,3816000,0.6856579,0.0018346664,-0.015392214,0.7277589,0.99999595,0.0,9.895302e-10,-0.0028691888,1
3820000,3820000,0.68565446,0.0018346705,-0.0154056605,0.7277618,0.99999595,0.0,9.895302e-10,-0.0028691888,1
3824000,3824000,0.6856489,0.0018300135,-0.01541402,0.7277669,0.99999595,0.0,9.895302e-10,-0.0028691888,1
3828000,3828000,0.6856426,0.0018320256,-0.015419168,0.7277727,0.99999595,0.0,9.895302e-10,-0.0028691888,1
3832000,3832000,0.68563664,0.0018365744,-0.015418274,0.7277783,0.99999595,0.0,9.895302e-10,-0.0028691888,1
3836000,3836000,0.6856306,0.0018416679,-0.015423016,0.72778386,0.99999595,0.0,9.895302e-10,-0.0028691888,1
3840000,3840000,0.6856256,0.0018427945,-0.015431972,0.7277884,0.99999595,0.0,9.895302e-10,-0.0028691888,1
3844000,3844000,0.6856211,0.0018411933,-0.015437618,0.72779256,0.99999595,0.0,9.895302e-10,-0.0028691888,1
3848000,3848000,0.68561697,0.0018429166,-0.015440463,0.7277964,0.99999595,0.0,9.895302e-10,-0.0028691888,1
3852000,3852000,0.68561095,0.0018453741,-0.015444044,0.727802,0.99999595,0.0,9.895302e-10,-0.0028691888,1
3856000,3856000,0.6856016,0.0018432705,-0.015448441,0.72781074,0.99999595,0.0,9.895302e-10,-0.0028691888,1
3860000,3860000,0.685593,0.0018400428,-0.015452492,0.7278188,0.99999595,0.0,9.895302e-10,-0.0028691888,1
3864000,3864000,0.68558764,0.0018379845,-0.015454585,0.72782373,0.99999595,0.0,9.895302e-10,-0.0028691888,1
3868000,3868000,0.68558383,0.0018378526,-0.015456994,0.7278273,0.99999595,0.0,9.895302e-10,-0.0028691888,1
3872000,3872000,0.6855797,0.001841171,-0.015461818,0.727831,0.99999595,0.0,9.895302e-10,-0.0028691888,1
3876000,3876000,0.6855748,0.0018478946,-0.015467674,0.7278355,0.99999595,0.0,9.895302e-10,-0.0028691888,1
3880000,3880000,0.68556976,0.0018549437,-0.01547226,0.7278401,0.99999595,0.0,9.895302e-10,-0.0028691888,1
3884000,3884000,0.6855621,0.0018577158,-0.015474345,0.72784734,0.99999595,0.0,9.895302e-10,-0.0028691888,1
3888000,3888000,0.68555284,0.0018535929,-0.015474243,0.72785604,0.99999595,0.0,9.895302e-10,-0.0028691888,1
3892000,3892000,0.6855462,0.0018496178,-0.015477145,0.7278622,0.99999595,0.0,9.895302e-10,-0.0028691888,1
3900000,3900000,0.68553793,0.0018470021,-0.015482501,0.72787,0.99999595,0.0,9.895302e-10,-0.0028691888,1
3904000,3904000,0.68554115,0.001846195,-0.015481655,0.72786695,0.99999595,0.0,9.895302e-10,-0.0028691888,1
3912000,3912000,0.68555343,0.0018454765,-0.015481285,0.7278554,0.99999595,0.0,9.895302e-10,-0.0028691888,1
3916000,3916000,0.68555695,0.0018503767,-0.015482757,0.72785205,0.99999595,0.0,9.895302e-10,-0.0028691888,1
3920000,3920000,0.68555915,0.0018535191,-0.01548327,0.7278499,0.99999595,0.0,9.895302e-10,-0.0028691888,1
3924000,3924000,0.68556064,0.001855915,-0.015484563,0.72784853,0.99999595,0.0,9.895302e-10,-0.0028691888,1
3932000,3932000,0.6855659,0.0018680826,-0.01549318,0.72784334,0.99999595,0.0,9.895302e-10,-0.0028691888,1
3936000,3936000,0.68556863,0.0018745704,-0.015492321,0.7278407,0.99999595,0.0,9.895302e-10,-0.0028691888,1
3940000,3940000,0.6855714,0.0018821538,-0.015490299,0.72783816,0.99999595,0.0,9.895302e-10,-0.0028691888,1
3944000,3944000,0.68557596,0.0018866276,-0.0154903745,0.72783387,0.99999595,0.0,9.895302e-10,-0.0028691888,1
3948000,3948000,0.6855791,0.001883838,-0.015488033,0.72783095,0.99999595,0.0,9.895302e-10,-0.0028691888,1
3952000,3952000,0.6855845,0.0018786889,-0.015485562,0.727826,0.99999595,0.0,9.895302e-10,-0.0028691888,1
3956000,3956000,0.68559325,0.0018775357,-0.015488241,0.72781765,0.99999595,0.0,9.895302e-10,-0.0028691888,1
3964000,3964000,0.6856076,0.0018822819,-0.01550168,0.7278038,0.99999595,0.0,9.895302e-10,-0.0028691888,1
3972000,3972000,0.6856093,0.0018923972,-0.015511605,0.7278021,0.99999595,0.0,9.895302e-10,-0.0028691888,1
3976000,3976000,0.6856245,0.0018920886,-0.01551527,0.7277877,0.99999595,0.0,9.895302e-10,-0.0028691888,1
3980000,3980000,0.68564206,0.0018910542,-0.015518199,0.72777104,0.99999595,0.0,9.895302e-10,-0.0028691888,1
3984000,3984000,0.68565863,0.0018939838,-0.015520466,0.72775537,0.99999595,0.0,9.895302e-10,-0.0028691888,1
3988000,3988000,0.6856748,0.0018976356,-0.015521958,0.72774005,0.99999595,0.0,9.895302e-10,-0.0028691888,1
3992000,3992000,0.6856928,0.0019015836,-0.015523653,0.7277231,0.99999595,0.0,9.895302e-10,-0.0028691888,1
3996000,3996000,0.6857115,0.001903789,-0.01552954,0.72770536,0.99999595,0.0,9.895302e-10,-0.0028691888,1
4000000,4000000,0.6857277,0.0019039862,-0.01553722,0.7276899,0.99999595,0.0,9.895302e-10,-0.0028691888,1
4004000,4004000,0.6857431,0.0019056277,-0.015543349,0.7276752,0.99999595,0.0,9.895302e-10,-0.0028691888,1
4008000,4008000,0.68575954,0.0019090234,-0.01554889,0.72765964,0.99999595,0.0,9.895302e-10,-0.0028691888,1
4016000,4016000,0.6857902,0.0019170374,-0.015556752,0.7276305,0.99999595,0.0,9.895302e-10,-0.0028691888,1
4020000,4020000,0.6858053,0.0019160599,-0.015560371,0.7276162,0.99999595,0.0,9.895302e-10,-0.0028691888,1
4024000,4024000,0.68581986,0.0019123119,-0.015565029,0.72760236,0.99999595,0.0,9.895302e-10,-0.0028691888,1
4028000,4028000,0.6858321,0.001911138,-0.015569241,0.7275908,0.99999595,0.0,9.895302e-10,-0.0028691888,1
4036000,4036000,0.68586177,0.0019142535,-0.01557826,0.7275626,0.99999595,0.0,9.895302e-10,-0.0028691888,1
4044000,4044000,0.6858946,0.0019157267,-0.015565313,0.7275319,0.99999595,0.0,9.895302e-10,-0.0028691888,1
4048000,4048000,0.6859204,0.0019100305,-0.01555293,0.7275078,0.99999595,0.0,9.895302e-10,-0.0028691888,1
4052000,4052000,0.68594784,0.0019003932,-0.015546311,0.7274822,0.99999595,0.0,9.895302e-10,-0.0028691888,1
4056000,4056000,0.6859744,0.0018963445,-0.01554714,0.7274571,0.99999595,0.0,9.895302e-10,-0.0028691888,1
4060000,4060000,0.6859987,0.0018929326,-0.015545693,0.7274343,0.99999595,0.0,9.895302e-10,-0.0028691888,1
4064000,4064000,0.6860226,0.001889565,-0.015542049,0.7274118,0.99999595,0.0,9.895302e-10,-0.0028691888,1
4068000,4068000,0.6860483,0.0018907781,-0.01553902,0.72738755,0.99999595,0.0,9.895302e-10,-0.0028691888,1
4072000,4072000,0.686073,0.001889933,-0.0155334985,0.7273645,0.99999595,0.0,9.895302e-10,-0.0028691888,1
4076000,4076000,0.68609965,0.0018842467,-0.015528489,0.72733945,0.99999595,0.0,9.895302e-10,-0.0028691888,1
4080000,4080000,0.6861271,0.0018722628,-0.015524057,0.72731364,0.99999595,0.0,9.895302e-10,-0.0028691888,1
4084000,4084000,0.68615186,0.0018572535,-0.0155212255,0.72729033,0.99999595,0.0,9.895302e-10,-0.0028691888,1
4092000,4092000,0.6861991,0.0018310061,-0.01551321,0.727246,0.99999595,0.0,9.895302e-10,-0.0028691888,1
4096000,4096000,0.6862204,0.0018201402,-0.015509135,0.727226,0.99999595,0.0,9.895302e-10,-0.0028691888,1
4104000,4104000,0.686262,0.0017955784,-0.015493898,0.72718716,0.99999595,0.0,9.895302e-10,-0.0028691888,1
4108000,4108000,0.686279,0.0017928528,-0.015486566,0.7271713,0.99999595,0.0,9.895302e-10,-0.0028691888,1
4112000,4112000,0.686296,0.0017913802,-0.0154825635,0.7271553,0.99999595,0.0,9.895302e-10,-0.0028691888,1
4116000,4116000,0.6863158,0.0017836206,-0.015480621,0.72713673,0.99999595,0.0,9.895302e-10,-0.0028691888,1
4120000,4120000,0.6863419,0.0017716441,-0.015476893,0.7271122,0.99999595,0.0,9.895302e-10,-0.0028691888,1
4124000,4124000,0.6863692,0.0017599931,-0.015470517,0.7270866,0.99999595,0.0,9.895302e-10,-0.0028691888,1
4132000,4132000,0.68641025,0.0017434492,-0.015453575,0.7270482,0.99999595,0.0,9.895302e-10,-0.0028691888,1
4140000,4140000,0.6864455,0.0017358729,-0.015437249,0.7270153,0.99999595,0.0,9.895302e-10,-0.0028691888,1
4144000,4144000,0.6864632,0.0017285687,-0.015430934,0.7269988,0.99999595,0.0,9.895302e-10,-0.0028691888,1
4148000,4148000,0.6864816,0.001724357,-0.0154267885,0.7269815,0.99999595,0.0,9.895302e-10,-0.0028691888,1
4152000,4152000,0.6864984,0.001726185,-0.015424028,0.7269657,0.99999595,0.0,9.895302e-10,-0.0028691888,1
4160000,4160000,0.6865302,0.0017281255,-0.015422862,0.72693574,0.99999595,0.0,9.895302e-10,-0.0028691888,1
4164000,4164000,0.686548,0.0017176695,-0.015421739,0.72691894,0.99999595,0.0,9.895302e-10,-0.0028691888,1
4168000,4168000,0.68656564,0.0017071198,-0.0154147465,0.7269024,0.99999595,0.0,9.895302e-10,-0.0028691888,1
4172000,4172000,0.6865828,0.0017037032,-0.015407175,0.7268864,0.99999595,0.0,9.895302e-10,-0.0028691888,1
4180000,4180000,0.68660855,0.0017010225,-0.015393366,0.7268624,0.99999595,0.0,9.895302e-10,-0.0028691888,1
4184000,4184000,0.6866207,0.0016946679,-0.015386949,0.726851,0.99999595,0.0,9.895302e-10,-0.0028691888,1
4188000,4188000,0.6866332,0.0016899556,-0.015385007,0.7268392,0.99999595,0.0,9.895302e-10,-0.0028691888,1
4192000,4192000,0.68661463,0.0016893583,-0.0153893875,0.72685665,0.99999595,0.0,9.895302e-10,-0.0028691888,1
4196000,4196000,0.68659645,0.0016858223,-0.015396114,0.72687376,0.99999595,0.0,9.895302e-10,-0.0028691888,1
4200000,4200000,0.6865809,0.0016803093,-0.015395137,0.7268885,0.99999595,0.0,9.895302e-10,-0.0028691888,1
4204000,4204000,0.68656695,0.0016765503,-0.015388455,0.7269018,0.99999595,0.0,9.895302e-10,-0.0028691888,1
4208000,4208000,0.6865475,0.0016758374,-0.015384113,0.7269203,0.99999595,0.0,9.895302e-10,-0.0028691888,1
4212000,4212000,0.6865261,0.0016762452,-0.015380873,0.7269406,0.99999595,0.0,9.895302e-10,-0.0028691888,1
4220000,4220000,0.68648463,0.0016706352,-0.015381623,0.7269797,0.99999595,0.0,9.895302e-10,-0.0028691888,1
4224000,4224000,0.6864635,0.0016693061,-0.015379811,0.72699976,0.99999595,0.0,9.895302e-10,-0.0028691888,1
4228000,4228000,0.68644345,0.0016724751,-0.015376359,0.7270188,0.99999595,0.0,9.895302e-10,-0.0028691888,1
4232000,4232000,0.68642277,0.001676474,-0.015375236,0.7270383,0.99999595,0.0,9.895302e-10,-0.0028691888,1
4236000,4236000,0.68640095,0.0016789426,-0.015374159,0.72705895,0.99999595,0.0,9.895302e-10,-0.0028691888,1
4244000,4244000,0.6863589,0.0016831497,-0.0153714055,0.72709864,0.99999595,0.0,9.895302e-10,-0.0028691888,1
4252000,4252000,0.6863198,0.0016701205,-0.015348775,0.727136,0.99999595,0.0,9.895302e-10,-0.0028691888,1
4256000,4256000,0.6862968,0.0016579792,-0.015338493,0.727158,0.99999595,0.0,9.895302e-10,-0.0028691888,1
4264000,4264000,0.6862571,0.0016387011,-0.015316178,0.7271959,0.99999595,0.0,9.895302e-10,-0.0028691888,1
4268000,4268000,0.6862377,0.0016316816,-0.015310175,0.7272144,0.99999595,0.0,9.895302e-10,-0.0028691888,1
4272000,4272000,0.68621755,0.0016249538,-0.015307424,0.72723347,0.99999595,0.0,9.895302e-10,-0.0028691888,1
4276000,4276000,0.6861986,0.0016196473,-0.015300864,0.7272515,0.99999595,0.0,9.895302e-10,-0.0028691888,1
4280000,4280000,0.68618006,0.0016140562,-0.01528967,0.72726923,0.99999595,0.0,9.895302e-10,-0.0028691888,1
4284000,4284000,0.68616116,0.0016103503,-0.0152788,0.72728735,0.99999595,0.0,9.895302e-10,-0.0028691888,1
4288000,4288000,0.6861411,0.0016067687,-0.015269627,0.7273065,0.99999595,0.0,9.895302e-10,-0.0028691888,1
4292000,4292000,0.68611985,0.001603097,-0.015258198,0.72732675,0.99999595,0.0,9.895302e-10,-0.0028691888,1
4296000,4296000,0.6861046,0.0016010698,-0.015244616,0.7273414,0.99999595,0.0,9.895302e-10,-0.0028691888,1
4300000,4300000,0.6860925,0.0015957749,-0.015233009,0.72735316,0.99999595,0.0,9.895302e-10,-0.0028691888,1
4308000,4308000,0.6860627,0.0015793174,-0.015215528,0.7273816,0.99999595,0.0,9.895302e-10,-0.0028691888,1
4312000,4312000,0.6860482,0.0015730597,-0.015208352,0.7273955,0.99999595,0.0,9.895302e-10,-0.0028691888,1
4316000,4316000,0.6860321,0.0015697808,-0.015201091,0.72741085,0.99999595,0.0,9.895302e-10,-0.0028691888,1
4320000,4320000,0.6860167,0.0015661215,-0.015192799,0.7274256,0.99999595,0.0,9.895302e-10,-0.0028691888,1
4324000,4324000,0.6860013,0.0015586318,-0.01518236,0.7274403,0.99999595,0.0,9.895302e-10,-0.0028691888,1
4328000,4328000,0.6859863,0.001549251,-0.015171668,0.72745466,0.99999595,0.0,9.895302e-10,-0.0028691888,1
4332000,4332000,0.68597203,0.0015424886,-0.015159769,0.72746843,0.99999595,0.0,9.895302e-10,-0.0028691888,1
4340000,4340000,0.68594396,0.0015360971,-0.015137665,0.72749525,0.99999595,0.0,9.895302e-10,-0.0028691888,1
4348000,4348000,0.6859132,0.0015340365,-0.01512299,0.7275247,0.99999595,0.0,9.895302e-10,-0.0028691888,1
4352000,4352000,0.6858995,0.0015283137,-0.015114648,0.7275377,0.99999595,0.0,9.895302e-10,-0.0028691888,1
4356000,4356000,0.685889,0.0015212167,-0.015108606,0.7275478,0.99999595,0.0,9.895302e-10,-0.0028691888,1
4364000,4364000,0.6858709,0.001510331,-0.015104288,0.727565,0.99999595,0.0,9.895302e-10,-0.0028691888,1
4368000,4368000,0.6858607,0.0015084977,-0.015095436,0.72757477,0.99999595,0.0,9.895302e-10,-0.0028691888,1
4372000,4372000,0.68584937,0.001504293,-0.015083643,0.7275857,0.99999595,0.0,9.895302e-10,-0.0028691888,1
4380000,4380000,0.68583125,0.0014907159,-0.015069233,0.72760314,0.99999595,0.0,9.895302e-10,-0.0028691888,1
4384000,4384000,0.68582326,0.0014804276,-0.015062116,0.7276108,0.99999595,0.0,9.895302e-10,-0.0028691888,1
4388000,4388000,0.6858152,0.0014684241,-0.015060701,0.7276184,0.99999595,0.0,9.895302e-10,-0.0028691888,1
4392000,4392000,0.6858083,0.0014592379,-0.01506276,0.7276249,0.99999595,0.0,9.895302e-10,-0.0028691888,1
4396000,4396000,0.68580216,0.0014518719,-0.015062126,0.7276307,0.99999595,0.0,9.895302e-10,-0.0028691888,1
4404000,4404000,0.68579227,0.0014326035,-0.015055289,0.72764015,0.99999595,0.0,9.895302e-10,-0.0028691888,1
4408000,4408000,0.6857912,0.0014256113,-0.015054599,0.7276413,0.99999595,0.0,9.895302e-10,-0.0028691888,1
4412000,4412000,0.685789,0.0014196686,-0.015051996,0.72764343,0.99999595,0.0,9.895302e-10,-0.0028691888,1
4416000,4416000,0.68578583,0.0014156327,-0.015049115,0.72764647,0.99999595,0.0,9.895302e-10,-0.0028691888,1
4420000,4420000,0.6857811,0.0014127721,-0.015048837,0.72765094,0.99999595,0.0,9.895302e-10,-0.0028691888,1
4424000,4424000,0.68577784,0.001412251,-0.015049365,0.7276539,0.99999595,0.0,9.895302e-10,-0.0028691888,1
4428000,4428000,0.6857754,0.0014124766,-0.015049118,0.72765625,0.99999595,0.0,9.895302e-10,-0.0028691888,1
4432000,4432000,0.685774,0.0014109275,-0.015051655,0.7276575,0.99999595,0.0,9.895302e-10,-0.0028691888,1
4436000,4436000,0.68577385,0.0014119818,-0.01505223,0.72765774,0.99999595,0.0,9.895302e-10,-0.0028691888,1
4440000,4440000,0.6857735,0.0014155097,-0.015047902,0.7276581,0.99999595,0.0,9.895302e-10,-0.0028691888,1
4444000,4444000,0.6857709,0.0014137197,-0.015043737,0.72766066,0.99999595,0.0,9.895302e-10,-0.0028691888,1
4452000,4452000,0.68577355,0.0014033163,-0.0150435865,0.7276582,0.99999595,0.0,9.895302e-10,-0.0028691888,1
4460000,4460000,0.68577886,0.0013867827,-0.015039328,0.72765326,0.99999595,0.0,9.895302e-10,-0.0028691888,1
4468000,4468000,0.6857847,0.0013654913,-0.015022643,0.7276482,0.99999595,0.0,9.895302e-10,-0.0028691888,1
4476000,4476000,0.6857968,0.0013495109,-0.014999947,0.72763723,0.99999595,0.0,9.895302e-10,-0.0028691888,1
4484000,4484000,0.68579453,0.0013369585,-0.0149840545,0.7276398,0.99999595,0.0,9.895302e-10,-0.0028691888,1
4488000,4488000,0.6857932,0.0013266657,-0.014978638,0.72764117,0.99999595,0.0,9.895302e-10,-0.0028691888,1
4492000,4492000,0.68578994,0.0013166761,-0.014972085,0.7276444,0.99999595,0.0,9.895302e-10,-0.0028691888,1
4500000,4500000,0.6857823,0.0013029901,-0.014956914,0.72765183,0.99999595,0.0,9.895302e-10,-0.0028691888,1
4508000,4508000,0.6857781,0.0012883205,-0.014934186,0.7276564,0.99999595,0.0,9.895302e-10,-0.0028691888,1
4512000,4512000,0.6857768,0.0012810818,-0.014927288,0.7276577,0.99999595,0.0,9.895302e-10,-0.0028691888,1
4516000,4516000,0.6857776,0.0012707824,-0.014917465,0.72765714,0.99999595,0.0,9.895302e-10,-0.0028691888,1
4520000,4520000,0.6857772,0.0012627663,-0.01490543,0.7276578,0.99999595,0.0,9.895302e-10,-0.0028691888,1
4524000,4524000,0.68577516,0.0012585721,-0.014896301,0.72765994,0.99999595,0.0,9.895302e-10,-0.0028691888,1
4528000,4528000,0.68577224,0.0012545694,-0.014891025,0.7276628,0.99999595,0.0,9.895302e-10,-0.0028691888,1
4532000,4532000,0.68576854,0.0012476065,-0.0148880975,0.7276663,0.99999595,0.0,9.895302e-10,-0.0028691888,1
4540000,4540000,0.685759,0.0012379928,-0.014884147,0.7276755,0.99999595,0.0,9.895302e-10,-0.0028691888,1
4544000,4544000,0.68575466,0.0012351982,-0.0148800565,0.7276796,0.99999595,0.0,9.895302e-10,-0.0028691888,1
4548000,4548000,0.6857477,0.0012293367,-0.01487606,0.7276863,0.99999595,0.0,9.895302e-10,-0.0028691888,1
4552000,4552000,0.68574387,0.0012228311,-0.014867192,0.7276901,0.99999595,0.0,9.895302e-10,-0.0028691888,1
4556000,4556000,0.6857424,0.0012159406,-0.01485645,0.7276917,0.99999595,0.0,9.895302e-10,-0.0028691888,1
4560000,4560000,0.6857427,0.0012088907,-0.01485286,0.7276916,0.99999595,0.0,9.895302e-10,-0.0028691888,1
4564000,4564000,0.6857417,0.0012037549,-0.014851096,0.7276925,0.99999595,0.0,9.895302e-10,-0.0028691888,1
4568000,4568000,0.68573815,0.001201866,-0.014848083,0.7276959,0.99999595,0.0,9.895302e-10,-0.0028691888,1
4572000,4572000,0.6857361,0.0012007615,-0.014845047,0.72769785,0.99999595,0.0,9.895302e-10,-0.0028691888,1
4576000,4576000,0.6857369,0.0011974091,-0.014842091,0.7276972,0.99999595,0.0,9.895302e-10,-0.0028691888,1
4580000,4580000,0.68573815,0.0011910308,-0.01483847,0.7276961,0.99999595,0.0,9.895302e-10,-0.0028691888,1
4584000,4584000,0.6857391,0.0011845684,-0.014834105,0.72769535,0.99999595,0.0,9.895302e-10,-0.0028691888,1
4588000,4588000,0.6857362,0.0011787574,-0.014828971,0.7276982,0.99999595,0.0,9.895302e-10,-0.0028691888,1
4592000,4592000,0.68573123,0.0011782043,-0.014826694,0.72770286,0.99999595,0.0,9.895302e-10,-0.0028691888,1
4596000,4596000,0.68573177,0.0011793346,-0.014826621,0.7277024,0.99999595,0.0,9.895302e-10,-0.0028691888,1
4600000,4600000,0.6857355,0.0011747121,-0.0148233175,0.7276989,0.99999595,0.0,9.895302e-10,-0.0028691888,1
4604000,4604000,0.685737,0.0011665762,-0.014817483,0.7276976,0.99999595,0.0,9.895302e-10,-0.0028691888,1
4608000,4608000,0.68573743,0.0011606673,-0.014813828,0.7276973,0.99999595,0.0,9.895302e-10,-0.0028691888,1
4612000,4612000,0.6857397,0.0011574663,-0.014811221,0.7276952,0.99999595,0.0,9.895302e-10,-0.0028691888,1
4620000,4620000,0.6857437,0.0011535801,-0.0148077775,0.72769165,0.99999595,0.0,9.895302e-10,-0.0028691888,1
4624000,4624000,0.68575037,0.0011481742,-0.0148070855,0.72768533,0.99999595,0.0,9.895302e-10,-0.0028691888,1
4628000,4628000,0.68575394,0.001142295,-0.014805281,0.72768193,0.99999595,0.0,9.895302e-10,-0.0028691888,1
4632000,4632000,0.68575734,0.0011407548,-0.014801045,0.7276789,0.99999595,0.0,9.895302e-10,-0.0028691888,1
4636000,4636000,0.68576175,0.0011407885,-0.014798267,0.7276747,0.99999595,0.0,9.895302e-10,-0.0028691888,1
4640000,4640000,0.68576604,0.0011449463,-0.014798692,0.72767067,0.99999595,0.0,9.895302e-10,-0.0028691888,1
4644000,4644000,0.68577385,0.0011514559,-0.014799799,0.72766334,0.99999595,0.0,9.895302e-10,-0.0028691888,1
4648000,4648000,0.68578625,0.0011538399,-0.014802826,0.7276516,0.99999595,0.0,9.895302e-10,-0.0028691888,1
4652000,4652000,0.685799,0.001155479,-0.014805873,0.7276395,0.99999595,0.0,9.895302e-10,-0.0028691888,1
4656000,4656000,0.685811,0.0011565181,-0.014806957,0.72762823,0.99999595,0.0,9.895302e-10,-0.0028691888,1
4660000,4660000,0.6858191,0.0011541018,-0.014808523,0.72762054,0.99999595,0.0,9.895302e-10,-0.0028691888,1
4664000,4664000,0.6858234,0.0011504309,-0.01480633,0.72761655,0.99999595,0.0,9.895302e-10,-0.0028691888,1
4668000,4668000,0.6858312,0.0011448931,-0.014802306,0.7276093,0.99999595,0.0,9.895302e-10,-0.0028691888,1
4672000,4672000,0.68584204,0.0011403509,-0.014797698,0.72759914,0.99999595,0.0,9.895302e-10,-0.0028691888,1
4676000,4676000,0.6858505,0.001137677,-0.014794166,0.7275912,0.99999595,0.0,9.895302e-10,-0.0028691888,1
4680000,4680000,0.6858574,0.0011320789,-0.014788645,0.72758484,0.99999595,0.0,9.895302e-10,-0.0028691888,1
4684000,4684000,0.6858675,0.0011253591,-0.01478127,0.72757554,0.99999595,0.0,9.895302e-10,-0.0028691888,1
4688000,4688000,0.6858832,0.0011245619,-0.014773503,0.7275609,0.99999595,0.0,9.895302e-10,-0.0028691888,1
4692000,4692000,0.6859008,0.0011256528,-0.014764548,0.7275444,0.99999595,0.0,9.895302e-10,-0.0028691888,1
4696000,4696000,0.68592227,0.001124074,-0.014755867,0.72752434,0.99999595,0.0,9.895302e-10,-0.0028691888,1
4700000,4700000,0.6859395,0.0011232061,-0.0147486795,0.7275083,0.99999595,0.0,9.895302e-10,-0.0028691888,1
4704000,4704000,0.6859562,0.0011224707,-0.014741609,0.72749263,0.99999595,0.0,9.895302e-10,-0.0028691888,1
4708000,4708000,0.685973,0.0011179049,-0.014732392,0.727477,0.99999595,0.0,9.895302e-10,-0.0028691888,1
4712000,4712000,0.68599015,0.0011134432,-0.014721767,0.72746104,0.99999595,0.0,9.895302e-10,-0.0028691888,1
4716000,4716000,0.68600804,0.0011102258,-0.014714496,0.72744435,0.99999595,0.0,9.895302e-10,-0.0028691888,1
4724000,4724000,0.68603855,0.0011034546,-0.014709188,0.7274157,0.99999595,0.0,9.895302e-10,-0.0028691888,1
4728000,4728000,0.68605274,0.0011069046,-0.014705277,0.7274023,0.99999595,0.0,9.895302e-10,-0.0028691888,1
4732000,4732000,0.6860666,0.001107956,-0.014696916,0.7273894,0.99999595,0.0,9.895302e-10,-0.0028691888,1
4736000,4736000,0.6860779,0.0011037162,-0.014686509,0.727379,0.99999595,0.0,9.895302e-10,-0.0028691888,1
4740000,4740000,0.6860899,0.0010999895,-0.014680231,0.7273679,0.99999595,0.0,9.895302e-10,-0.0028691888,1
4744000,4744000,0.68610287,0.0010994076,-0.014674657,0.7273557,0.99999595,0.0,9.895302e-10,-0.0028691888,1
4748000,4748000,0.68611634,0.0010968085,-0.014664243,0.7273432,0.99999595,0.0,9.895302e-10,-0.0028691888,1
4752000,4752000,0.68613064,0.0010923616,-0.014652309,0.72733,0.99999595,0.0,9.895302e-10,-0.0028691888,1
4756000,4756000,0.68614566,0.0010886831,-0.01464035,0.7273161,0.99999595,0.0,9.895302e-10,-0.0028691888,1
4760000,4760000,0.68615836,0.0010838591,-0.014627595,0.72730434,0.99999595,0.0,9.895302e-10,-0.0028691888,1
4764000,4764000,0.6861695,0.0010801882,-0.014616692,0.7272941,0.99999595,0.0,9.895302e-10,-0.0028691888,1
4768000,4768000,0.6861861,0.0010805785,-0.01461123,0.7272786,0.99999595,0.0,9.895302e-10,-0.0028691888,1
4772000,4772000,0.686208,0.0010815308,-0.014608383,0.72725797,0.99999595,0.0,9.895302e-10,-0.0028691888,1
4776000,4776000,0.6862264,0.0010839427,-0.014605026,0.7272406,0.99999595,0.0,9.895302e-10,-0.0028691888,1
4780000,4780000,0.6862409,0.0010892663,-0.014600831,0.727227,0.99999595,0.0,9.895302e-10,-0.0028691888,1
4784000,4784000,0.6862562,0.0010930665,-0.014594729,0.7272127,0.99999595,0.0,9.895302e-10,-0.0028691888,1
4788000,4788000,0.6862734,0.00109127,-0.014589164,0.7271966,0.99999595,0.0,9.895302e-10,-0.0028691888,1
4792000,4792000,0.6862883,0.0010856879,-0.014584013,0.7271826,0.99999595,0.0,9.895302e-10,-0.0028691888,1
4796000,4796000,0.6863024,0.0010852077,-0.014573442,0.7271695,0.99999595,0.0,9.895302e-10,-0.0028691888,1
4804000,4804000,0.68632925,0.0010947573,-0.01455108,0.7271446,0.99999595,0.0,9.895302e-10,-0.0028691888,1
4808000,4808000,0.68634003,0.0011032801,-0.014540839,0.7271346,0.99999595,0.0,9.895302e-10,-0.0028691888,1
4812000,4812000,0.6863516,0.0011123144,-0.014534729,0.72712386,0.99999595,0.0,9.895302e-10,-0.0028691888,1
4816000,4816000,0.6863643,0.0011184759,-0.014532754,0.7271119,0.99999595,0.0,9.895302e-10,-0.0028691888,1
4820000,4820000,0.6863801,0.0011265924,-0.014531096,0.72709703,0.99999595,0.0,9.895302e-10,-0.0028691888,1
4828000,4828000,0.6864098,0.0011362295,-0.0145228915,0.7270691,0.99999595,0.0,9.895302e-10,-0.0028691888,1
4836000,4836000,0.6864282,0.0011292603,-0.01450934,0.727052,0.99999595,0.0,9.895302e-10,-0.0028691888,1
4844000,4844000,0.68645024,0.001129147,-0.014501401,0.72703135,0.99999595,0.0,9.895302e-10,-0.0028691888,1
4852000,4852000,0.6864675,0.0011299261,-0.014476614,0.7270155,0.99999595,0.0,9.895302e-10,-0.0028691888,1
4860000,4860000,0.68649095,0.0011346173,-0.014466876,0.7269936,0.99999595,0.0,9.895302e-10,-0.0028691888,1
4868000,4868000,0.68650365,0.0011368963,-0.014460681,0.7269817,0.99999595,0.0,9.895302e-10,-0.0028691888,1
4876000,4876000,0.68652314,0.0011504713,-0.014442772,0.7269636,0.99999595,0.0,9.895302e-10,-0.0028691888,1
4880000,4880000,0.68653214,0.0011592112,-0.014429971,0.72695535,0.99999595,0.0,9.895302e-10,-0.0028691888,1
4884000,4884000,0.68653876,0.0011683566,-0.014419799,0.7269493,0.99999595,0.0,9.895302e-10,-0.0028691888,1
4892000,4892000,0.6865498,0.0011755666,-0.014408364,0.72693914,0.99999595,0.0,9.895302e-10,-0.0028691888,1
4896000,4896000,0.6865553,0.0011788808,-0.014405427,0.72693396,0.99999595,0.0,9.895302e-10,-0.0028691888,1
4900000,4900000,0.6865601,0.0011821798,-0.014402491,0.7269295,0.99999595,0.0,9.895302e-10,-0.0028691888,1
4908000,4908000,0.68656754,0.0011942376,-0.014388226,0.72692275,0.99999595,0.0,9.895302e-10,-0.0028691888,1
4912000,4912000,0.6865632,0.0012008282,-0.014380419,0.7269269,0.99999595,0.0,9.895302e-10,-0.0028691888,1
4916000,4916000,0.68656075,0.0012086832,-0.014375963,0.7269293,0.99999595,0.0,9.895302e-10,-0.0028691888,1
4920000,4920000,0.68655753,0.0012205578,-0.014367345,0.7269326,0.99999595,0.0,9.895302e-10,-0.0028691888,1
4924000,4924000,0.68655354,0.0012308683,-0.014357262,0.7269365,0.99999595,0.0,9.895302e-10,-0.0028691888,1
4932000,4932000,0.6865442,0.0012456236,-0.014342695,0.7269456,0.99999595,0.0,9.895302e-10,-0.0028691888,1
4940000,4940000,0.68653744,0.0012631101,-0.014328555,0.7269522,0.99999595,0.0,9.895302e-10,-0.0028691888,1
4944000,4944000,0.6865361,0.0012634982,-0.014323848,0.7269536,0.99999595,0.0,9.895302e-10,-0.0028691888,1
4948000,4948000,0.686532,0.0012604126,-0.014318113,0.7269576,0.99999595,0.0,9.895302e-10,-0.0028691888,1
4956000,4956000,0.6865247,0.0012572194,-0.014303626,0.7269648,0.99999595,0.0,9.895302e-10,-0.0028691888,1
4964000,4964000,0.68651927,0.0012694261,-0.014289235,0.72697014,0.99999595,0.0,9.895302e-10,-0.0028691888,1
4968000,4968000,0.6865118,0.0012732417,-0.014279358,0.72697735,0.99999595,0.0,9.895302e-10,-0.0028691888,1
4972000,4972000,0.68650156,0.0012815858,-0.014271613,0.7269871,0.99999595,0.0,9.895302e-10,-0.0028691888,1
4976000,4976000,0.6864911,0.0012905161,-0.014266371,0.7269972,0.99999595,0.0,9.895302e-10,-0.0028691888,1
4984000,4984000,0.6864694,0.0012961412,-0.0142564755,0.7270179,0.99999595,0.0,9.895302e-10,-0.0028691888,1
4988000,4988000,0.6864619,0.0013016457,-0.014254206,0.7270249,0.99999595,0.0,9.895302e-10,-0.0028691888,1
4992000,4992000,0.6864555,0.0013045877,-0.0142499935,0.72703105,0.99999595,0.0,9.895302e-10,-0.0028691888,1
4996000,4996000,0.6864468,0.0013040855,-0.014245506,0.7270394,0.99999595,0.0,9.895302e-10,-0.0028691888,1
5004000,5004000,0.68642664,0.001308672,-0.014229698,0.72705865,0.99999595,0.0,9.895302e-10,-0.0028691888,1
5008000,5008000,0.6864191,0.0013100933,-0.014219228,0.7270659,0.99999595,0.0,9.895302e-10,-0.0028691888,1
5012000,5012000,0.6864167,0.0013124094,-0.014210232,0.7270684,0.99999595,0.0,9.895302e-10,-0.0028691888,1
5020000,5020000,0.6864136,0.0013229838,-0.014207602,0.72707134,0.99999595,0.0,9.895302e-10,-0.0028691888,1
5028000,5028000,0.6863931,0.0013248476,-0.014195909,0.727091,0.99999595,0.0,9.895302e-10,-0.0028691888,1
5036000,5036000,0.6863813,0.0013301721,-0.014174383,0.7271025,0.99999595,0.0,9.895302e-10,-0.0028691888,1
5040000,5040000,0.6863776,0.001337418,-0.014167666,0.72710615,0.99999595,0.0,9.895302e-10,-0.0028691888,1
5044000,5044000,0.6863732,0.0013404755,-0.014159941,0.7271105,0.99999595,0.0,9.895302e-10,-0.0028691888,1
5048000,5048000,0.6863656,0.0013386859,-0.01415257,0.7271178,0.99999595,0.0,9.895302e-10,-0.0028691888,1
5052000,5052000,0.68635726,0.0013369678,-0.014148212,0.72712576,0.99999595,0.0,9.895302e-10,-0.0028691888,1
5056000,5056000,0.6863536,0.0013356936,-0.014142531,0.7271293,0.99999595,0.0,9.895302e-10,-0.0028691888,1
5060000,5060000,0.6863512,0.0013355172,-0.014134934,0.7271317,0.99999595,0.0,9.895302e-10,-0.0028691888,1
5064000,5064000,0.68635064,0.0013370682,-0.014129353,0.7271323,0.99999595,0.0,9.895302e-10,-0.0028691888,1
5068000,5068000,0.6863485,0.0013397511,-0.014124871,0.7271344,0.99999595,0.0,9.895302e-10,-0.0028691888,1
5072000,5072000,0.6863468,0.0013396459,-0.014123279,0.727136,0.99999595,0.0,9.895302e-10,-0.0028691888,1
5076000,5076000,0.6863475,0.0013362742,-0.014124416,0.72713536,0.99999595,0.0,9.895302e-10,-0.0028691888,1
5080000,5080000,0.68634826,0.0013410655,-0.01411992,0.72713476,0.99999595,0.0,9.895302e-10,-0.0028691888,1
5084000,5084000,0.68634784,0.0013513612,-0.014111124,0.7271353,0.99999595,0.0,9.895302e-10,-0.0028691888,1
5088000,5088000,0.6863471,0.0013589208,-0.014105937,0.7271361,0.99999595,0.0,9.895302e-10,-0.0028691888,1
5092000,5092000,0.68634593,0.0013639792,-0.014105722,0.7271372,0.99999595,0.0,9.895302e-10,-0.0028691888,1
5100000,5100000,0.6863444,0.0013818844,-0.014100049,0.7271387,0.99999595,0.0,9.895302e-10,-0.0028691888,1
5104000,5104000,0.6863441,0.0013880997,-0.0140992915,0.727139,0.99999595,0.0,9.895302e-10,-0.0028691888,1
5112000,5112000,0.68634677,0.0013909588,-0.014095442,0.72713655,0.99999595,0.0,9.895302e-10,-0.0028691888,1
5116000,5116000,0.68634737,0.0013934283,-0.0140869105,0.72713614,0.99999595,0.0,9.895302e-10,-0.0028691888,1
5120000,5120000,0.6863483,0.0013969521,-0.014080325,0.72713536,0.99999595,0.0,9.895302e-10,-0.0028691888,1
5124000,5124000,0.68634695,0.0013996996,-0.014074519,0.72713673,0.99999595,0.0,9.895302e-10,-0.0028691888,1
5132000,5132000,0.68636227,0.0014003434,-0.014066994,0.7271224,0.99999595,0.0,9.895302e-10,-0.0028691888,1
5140000,5140000,0.6863763,0.001402897,-0.014068976,0.72710913,0.99999595,0.0,9.895302e-10,-0.0028691888,1
5148000,5148000,0.68639207,0.0014075742,-0.014058585,0.7270945,0.99999595,0.0,9.895302e-10,-0.0028691888,1
5152000,5152000,0.68640214,0.001410486,-0.014048524,0.7270851,0.99999595,0.0,9.895302e-10,-0.0028691888,1
5156000,5156000,0.68641335,0.0014137019,-0.014048249,0.7270746,0.99999595,0.0,9.895302e-10,-0.0028691888,1
5160000,5160000,0.68642426,0.0014165015,-0.0140491575,0.7270642,0.99999595,0.0,9.895302e-10,-0.0028691888,1
5164000,5164000,0.6864353,0.001418784,-0.0140451845,0.7270539,0.99999595,0.0,9.895302e-10,-0.0028691888,1
5168000,5168000,0.6864453,0.0014223802,-0.014043543,0.72704446,0.99999595,0.0,9.895302e-10,-0.0028691888,1
5172000,5172000,0.6864526,0.0014233214,-0.01404311,0.72703755,0.99999595,0.0,9.895302e-10,-0.0028691888,1
5180000,5180000,0.68646795,0.0014258352,-0.01404054,0.7270232,0.99999595,0.0,9.895302e-10,-0.0028691888,1
5184000,5184000,0.68647474,0.0014315239,-0.014037903,0.7270168,0.99999595,0.0,9.895302e-10,-0.0028691888,1
5188000,5188000,0.68647957,0.0014391114,-0.014037099,0.7270122,0.99999595,0.0,9.895302e-10,-0.0028691888,1
5192000,5192000,0.6864845,0.0014468767,-0.014036751,0.72700757,0.99999595,0.0,9.895302e-10,-0.0028691888,1
5196000,5196000,0.68649143,0.0014531736,-0.014036443,0.7270011,0.99999595,0.0,9.895302e-10,-0.0028691888,1
5200000,5200000,0.6865027,0.0014555653,-0.014037838,0.72699034,0.99999595,0.0,9.895302e-10,-0.0028691888,1
5204000,5204000,0.68651676,0.0014560734,-0.0140374,0.72697705,0.99999595,0.0,9.895302e-10,-0.0028691888,1
5208000,5208000,0.68652976,0.0014593097,-0.014034703,0.7269649,0.99999595,0.0,9.895302e-10,-0.0028691888,1
5212000,5212000,0.68654114,0.0014632905,-0.014032739,0.7269541,0.99999595,0.0,9.895302e-10,-0.0028691888,1
5216000,5216000,0.68655425,0.0014645014,-0.014031305,0.72694176,0.99999595,0.0,9.895302e-10,-0.0028691888,1
5220000,5220000,0.6865673,0.0014660775,-0.014029482,0.7269294,0.99999595,0.0,9.895302e-10,-0.0028691888,1
5224000,5224000,0.6865773,0.0014719621,-0.014028367,0.72691995,0.99999595,0.0,9.895302e-10,-0.0028691888,1
5228000,5228000,0.68658775,0.0014785854,-0.014026475,0.7269101,0.99999595,0.0,9.895302e-10,-0.0028691888,1
5232000,5232000,0.68659914,0.0014831433,-0.014023581,0.7268995,0.99999595,0.0,9.895302e-10,-0.0028691888,1
5236000,5236000,0.68661004,0.0014869189,-0.014019952,0.7268892,0.99999595,0.0,9.895302e-10,-0.0028691888,1
5240000,5240000,0.6866211,0.0014860365,-0.014017277,0.72687876,0.99999595,0.0,9.895302e-10,-0.0028691888,1
5244000,5244000,0.68662864,0.0014832796,-0.014017298,0.72687167,0.99999595,0.0,9.895302e-10,-0.0028691888,1
5248000,5248000,0.68662995,0.0014859441,-0.0140191205,0.72687036,0.99999595,0.0,9.895302e-10,-0.0028691888,1
5252000,5252000,0.68663204,0.0014901937,-0.014023157,0.72686833,0.99999595,0.0,9.895302e-10,-0.0028691888,1
5260000,5260000,0.6866428,0.0014824062,-0.0140212495,0.72685826,0.99999595,0.0,9.895302e-10,-0.0028691888,1
5264000,5264000,0.6866475,0.0014808674,-0.014015762,0.72685397,0.99999595,0.0,9.895302e-10,-0.0028691888,1
5268000,5268000,0.6866501,0.0014842597,-0.014012773,0.72685146,0.99999595,0.0,9.895302e-10,-0.0028691888,1
5272000,5272000,0.68666327,0.0014922635,-0.014009334,0.7268391,0.99999595,0.0,9.895302e-10,-0.0028691888,1
5276000,5276000,0.6866791,0.0015010511,-0.014005116,0.7268242,0.99999595,0.0,9.895302e-10,-0.0028691888,1
5284000,5284000,0.6867134,0.00151248,-0.0139991995,0.726792,0.99999595,0.0,9.895302e-10,-0.0028691888,1
5288000,5288000,0.6867355,0.0015195527,-0.013996999,0.72677106,0.99999595,0.0,9.895302e-10,-0.0028691888,1
5296000,5296000,0.68677914,0.001520384,-0.013991878,0.7267299,0.99999595,0.0,9.895302e-10,-0.0028691888,1
5300000,5300000,0.68679553,0.0015185629,-0.0139888385,0.7267145,0.99999595,0.0,9.895302e-10,-0.0028691888,1
5308000,5308000,0.68682593,0.0015196581,-0.0139845675,0.7266859,0.99999595,0.0,9.895302e-10,-0.0028691888,1
5312000,5312000,0.6868396,0.0015220821,-0.0139792,0.72667307,0.99999595,0.0,9.895302e-10,-0.0028691888,1
5316000,5316000,0.68685555,0.0015256484,-0.013972667,0.7266581,0.99999595,0.0,9.895302e-10,-0.0028691888,1
5320000,5320000,0.6868735,0.0015293519,-0.013965902,0.7266413,0.99999595,0.0,9.895302e-10,-0.0028691888,1
5324000,5324000,0.6868922,0.0015308119,-0.013959198,0.7266237,0.99999595,0.0,9.895302e-10,-0.0028691888,1
5328000,5328000,0.6869078,0.001532605,-0.013955143,0.726609,0.99999595,0.0,9.895302e-10,-0.0028691888,1
5332000,5332000,0.6869192,0.0015354987,-0.013952948,0.7265983,0.99999595,0.0,9.895302e-10,-0.0028691888,1
5336000,5336000,0.6869287,0.0015389951,-0.013948491,0.72658944,0.99999595,0.0,9.895302e-10,-0.0028691888,1
5340000,5340000,0.68693936,0.0015409021,-0.013940307,0.7265794,0.99999595,0.0,9.895302e-10,-0.0028691888,1
5344000,5344000,0.6869579,0.0015384452,-0.0139311375,0.7265621,0.99999595,0.0,9.895302e-10,-0.0028691888,1
5348000,5348000,0.68697405,0.0015363941,-0.013924597,0.72654694,0.99999595,0.0,9.895302e-10,-0.0028691888,1
5352000,5352000,0.68698674,0.0015370559,-0.0139243975,0.7265349,0.99999595,0.0,9.895302e-10,-0.0028691888,1
5356000,5356000,0.68700016,0.001540181,-0.01393091,0.72652215,0.99999595,0.0,9.895302e-10,-0.0028691888,1
5360000,5360000,0.68701595,0.0015448657,-0.013938133,0.72650707,0.99999595,0.0,9.895302e-10,-0.0028691888,1
5364000,5364000,0.6870326,0.0015460826,-0.01394206,0.7264912,0.99999595,0.0,9.895302e-10,-0.0028691888,1
5368000,5368000,0.6870486,0.0015448944,-0.013941536,0.7264761,0.99999595,0.0,9.895302e-10,-0.0028691888,1
5376000,5376000,0.68708235,0.0015479876,-0.013933982,0.7264443,0.99999595,0.0,9.895302e-10,-0.0028691888,1
5380000,5380000,0.68709964,0.0015494181,-0.013933061,0.726428,0.99999595,0.0,9.895302e-10,-0.0028691888,1
5384000,5384000,0.6871183,0.001552552,-0.01392574,0.7264105,0.99999595,0.0,9.895302e-10,-0.0028691888,1
5388000,5388000,0.6871389,0.0015568001,-0.013916501,0.7263912,0.99999595,0.0,9.895302e-10,-0.0028691888,1
5392000,5392000,0.687158,0.0015615957,-0.013915213,0.72637314,0.99999595,0.0,9.895302e-10,-0.0028691888,1
5396000,5396000,0.6871763,0.0015660941,-0.013917325,0.72635573,0.99999595,0.0,9.895302e-10,-0.0028691888,1
5400000,5400000,0.6871933,0.001567025,-0.013914691,0.7263397,0.99999595,0.0,9.895302e-10,-0.0028691888,1
5404000,5404000,0.6872084,0.0015652523,-0.013911005,0.72632545,0.99999595,0.0,9.895302e-10,-0.0028691888,1
5408000,5408000,0.68722063,0.0015657826,-0.013911071,0.72631395,0.99999595,0.0,9.895302e-10,-0.0028691888,1
5412000,5412000,0.6872316,0.0015685281,-0.013910322,0.7263035,0.99999595,0.0,9.895302e-10,-0.0028691888,1
5416000,5416000,0.68724936,0.0015694763,-0.013905159,0.7262868,0.99999595,0.0,9.895302e-10,-0.0028691888,1
5420000,5420000,0.6872694,0.0015700613,-0.013898872,0.726268,0.99999595,0.0,9.895302e-10,-0.0028691888,1
5428000,5428000,0.68731534,0.0015722642,-0.013892374,0.7262246,0.99999595,0.0,9.895302e-10,-0.0028691888,1
5436000,5436000,0.6873561,0.001570658,-0.01388682,0.72618616,0.99999595,0.0,9.895302e-10,-0.0028691888,1
5444000,5444000,0.68739563,0.0015742291,-0.013877437,0.72614896,0.99999595,0.0,9.895302e-10,-0.0028691888,1
5452000,5452000,0.6874338,0.0015750284,-0.0138765,0.72611284,0.99999595,0.0,9.895302e-10,-0.0028691888,1
5456000,5456000,0.68744963,0.0015723521,-0.013875406,0.7260979,0.99999595,0.0,9.895302e-10,-0.0028691888,1
5460000,5460000,0.68746394,0.0015689142,-0.01387509,0.72608435,0.99999595,0.0,9.895302e-10,-0.0028691888,1
5464000,5464000,0.68747747,0.0015651161,-0.013875196,0.7260715,0.99999595,0.0,9.895302e-10,-0.0028691888,1
5468000,5468000,0.68749326,0.0015651477,-0.013875948,0.7260565,0.99999595,0.0,9.895302e-10,-0.0028691888,1
5472000,5472000,0.68750954,0.0015663705,-0.013877832,0.72604114,0.99999595,0.0,9.895302e-10,-0.0028691888,1
5476000,5476000,0.68752533,0.0015661208,-0.013881261,0.726026,0.99999595,0.0,9.895302e-10,-0.0028691888,1
5480000,5480000,0.6875417,0.0015651097,-0.013883239,0.7260105,0.99999595,0.0,9.895302e-10,-0.0028691888,1
5484000,5484000,0.6875589,0.0015625255,-0.013882242,0.7259943,0.99999595,0.0,9.895302e-10,-0.0028691888,1
5488000,5488000,0.6875691,0.0015631306,-0.013881176,0.72598463,0.99999595,0.0,9.895302e-10,-0.0028691888,1
5492000,5492000,0.6875793,0.0015640816,-0.013878969,0.725975,0.99999595,0.0,9.895302e-10,-0.0028691888,1
5496000,5496000,0.6875869,0.0015590254,-0.013879189,0.72596776,0.99999595,0.0,9.895302e-10,-0.0028691888,1
5500000,5500000,0.6875941,0.0015540025,-0.013880915,0.7259609,0.99999595,0.0,9.895302e-10,-0.0028691888,1
5504000,5504000,0.6876015,0.0015515786,-0.013879965,0.72595394,0.99999595,0.0,9.895302e-10,-0.0028691888,1
5508000,5508000,0.6876093,0.001548348,-0.013876775,0.7259466,0.99999595,0.0,9.895302e-10,-0.0028691888,1
5512000,5512000,0.6876162,0.001543218,-0.013872537,0.72594017,0.99999595,0.0,9.895302e-10,-0.0028691888,1
5516000,5516000,0.6876204,0.0015369583,-0.01387022,0.7259363,0.99999595,0.0,9.895302e-10,-0.0028691888,1
5524000,5524000,0.68762416,0.0015250248,-0.01387429,0.7259327,0.99999595,0.0,9.895302e-10,-0.0028691888,1
5528000,5528000,0.68762916,0.0015235227,-0.013869489,0.725928,0.99999595,0.0,9.895302e-10,-0.0028691888,1
5532000,5532000,0.68763345,0.0015212531,-0.013864712,0.725924,0.99999595,0.0,9.895302e-10,-0.0028691888,1
5536000,5536000,0.68763614,0.0015179847,-0.013864885,0.7259215,0.99999595,0.0,9.895302e-10,-0.0028691888,1
5540000,5540000,0.6876392,0.0015169826,-0.013864999,0.7259187,0.99999595,0.0,9.895302e-10,-0.0028691888,1
5548000,5548000,0.68764174,0.0015147816,-0.0138584925,0.7259163,0.99999595,0.0,9.895302e-10,-0.0028691888,1
5556000,5556000,0.6876389,0.0015148306,-0.013853483,0.7259191,0.99999595,0.0,9.895302e-10,-0.0028691888,1
5560000,5560000,0.68764096,0.0015171556,-0.013851686,0.7259172,0.99999595,0.0,9.895302e-10,-0.0028691888,1
5564000,5564000,0.68764424,0.001516491,-0.01384997,0.7259141,0.99999595,0.0,9.895302e-10,-0.0028691888,1
5572000,5572000,0.6876492,0.0015050223,-0.0138472235,0.72590953,0.99999595,0.0,9.895302e-10,-0.0028691888,1
5576000,5576000,0.6876512,0.0014982182,-0.013841186,0.72590774,0.99999595,0.0,9.895302e-10,-0.0028691888,1
5584000,5584000,0.6876529,0.0014895927,-0.013843969,0.72590613,0.99999595,0.0,9.895302e-10,-0.0028691888,1
5588000,5588000,0.6876525,0.0014898874,-0.01384746,0.7259064,0.99999595,0.0,9.895302e-10,-0.0028691888,1
5592000,5592000,0.68765354,0.0014906513,-0.013849725,0.72590536,0.99999595,0.0,9.895302e-10,-0.0028691888,1
5596000,5596000,0.6876557,0.0014892601,-0.01385506,0.7259032,0.99999595,0.0,9.895302e-10,-0.0028691888,1
5604000,5604000,0.68765634,0.0014822426,-0.013857775,0.7259026,0.99999595,0.0,9.895302e-10,-0.0028691888,1
5608000,5608000,0.68765557,0.0014819821,-0.013858023,0.72590333,0.99999595,0.0,9.895302e-10,-0.0028691888,1
5612000,5612000,0.6876567,0.0014828775,-0.013857858,0.72590226,0.99999595,0.0,9.895302e-10,-0.0028691888,1
5616000,5616000,0.68766046,0.001484249,-0.013855698,0.72589874,0.99999595,0.0,9.895302e-10,-0.0028691888,1
5620000,5620000,0.6876677,0.0014857482,-0.013855789,0.7258919,0.99999595,0.0,9.895302e-10,-0.0028691888,1
5624000,5624000,0.68767416,0.0014840342,-0.013859262,0.7258857,0.99999595,0.0,9.895302e-10,-0.0028691888,1
5628000,5628000,0.68767756,0.0014769705,-0.01386213,0.7258824,0.99999595,0.0,9.895302e-10,-0.0028691888,1
5632000,5632000,0.687679,0.0014704025,-0.013865263,0.725881,0.99999595,0.0,9.895302e-10,-0.0028691888,1
5636000,5636000,0.6876804,0.0014671515,-0.013865672,0.72587967,0.99999595,0.0,9.895302e-10,-0.0028691888,1
5644000,5644000,0.68767947,0.0014625598,-0.013862848,0.7258806,0.99999595,0.0,9.895302e-10,-0.0028691888,1
5648000,5648000,0.6876794,0.0014568899,-0.013865005,0.7258807,0.99999595,0.0,9.895302e-10,-0.0028691888,1
5652000,5652000,0.68768084,0.001453488,-0.013866345,0.72587925,0.99999595,0.0,9.895302e-10,-0.0028691888,1
5656000,5656000,0.6876815,0.001455419,-0.013866688,0.7258786,0.99999595,0.0,9.895302e-10,-0.0028691888,1
5660000,5660000,0.6876814,0.0014561143,-0.013863674,0.7258788,0.99999595,0.0,9.895302e-10,-0.0028691888,1
5668000,5668000,0.68768364,0.0014485465,-0.013865594,0.7258767,0.99999595,0.0,9.895302e-10,-0.0028691888,1
5672000,5672000,0.6876848,0.0014431867,-0.013867437,0.7258755,0.99999595,0.0,9.895302e-10,-0.0028691888,1
5676000,5676000,0.68768334,0.0014369615,-0.01386705,0.725877,0.99999595,0.0,9.895302e-10,-0.0028691888,1
5684000,5684000,0.68768007,0.0014276098,-0.013862987,0.72588015,0.99999595,0.0,9.895302e-10,-0.0028691888,1
5688000,5688000,0.6876818,0.0014231208,-0.013862362,0.72587854,0.99999595,0.0,9.895302e-10,-0.0028691888,1
5692000,5692000,0.6876835,0.0014182453,-0.01386137,0.7258769,0.99999595,0.0,9.895302e-10,-0.0028691888,1
5700000,5700000,0.68768454,0.001407542,-0.013847943,0.7258762,0.99999595,0.0,9.895302e-10,-0.0028691888,1
5708000,5708000,0.6876766,0.0013951211,-0.013846146,0.7258837,0.99999595,0.0,9.895302e-10,-0.0028691888,1
5712000,5712000,0.68767685,0.0013907675,-0.013846068,0.7258836,0.99999595,0.0,9.895302e-10,-0.0028691888,1
5720000,5720000,0.6876756,0.0013846275,-0.013856326,0.72588456,0.99999595,0.0,9.895302e-10,-0.0028691888,1
5724000,5724000,0.6876719,0.0013797651,-0.013865997,0.7258879,0.99999595,0.0,9.895302e-10,-0.0028691888,1
5728000,5728000,0.6876672,0.0013771063,-0.013872539,0.7258922,0.99999595,0.0,9.895302e-10,-0.0028691888,1
5732000,5732000,0.6876652,0.0013777347,-0.013873336,0.72589403,0.99999595,0.0,9.895302e-10,-0.0028691888,1
5736000,5736000,0.68766344,0.0013786362,-0.01387229,0.7258958,0.99999595,0.0,9.895302e-10,-0.0028691888,1
5740000,5740000,0.6876608,0.0013769589,-0.01387395,0.7258982,0.99999595,0.0,9.895302e-10,-0.0028691888,1
5744000,5744000,0.6876592,0.0013730557,-0.013874869,0.7258998,0.99999595,0.0,9.895302e-10,-0.0028691888,1
5748000,5748000,0.687659,0.0013703216,-0.01387613,0.7258999,0.99999595,0.0,9.895302e-10,-0.0028691888,1
5752000,5752000,0.6876594,0.0013692155,-0.013880317,0.72589946,0.99999595,0.0,9.895302e-10,-0.0028691888,1
5756000,5756000,0.68765825,0.0013661265,-0.0138819255,0.7259006,0.99999595,0.0,9.895302e-10,-0.0028691888,1
5760000,5760000,0.68765455,0.0013599212,-0.013880569,0.7259041,0.99999595,0.0,9.895302e-10,-0.0028691888,1
5764000,5764000,0.68764776,0.0013548166,-0.013880316,0.72591054,0.99999595,0.0,9.895302e-10,-0.0028691888,1
5768000,5768000,0.6876418,0.0013527628,-0.013879947,0.7259162,0.99999595,0.0,9.895302e-10,-0.0028691888,1
5772000,5772000,0.6876393,0.0013511826,-0.0138806915,0.7259186,0.99999595,0.0,9.895302e-10,-0.0028691888,1
5776000,5776000,0.687644,0.0013488551,-0.01388369,0.72591406,0.99999595,0.0,9.895302e-10,-0.0028691888,1
5780000,5780000,0.68764794,0.0013453733,-0.013886346,0.72591025,0.99999595,0.0,9.895302e-10,-0.0028691888,1
5784000,5784000,0.6876505,0.001342244,-0.013888591,0.7259078,0.99999595,0.0,9.895302e-10,-0.0028691888,1
5788000,5788000,0.68765074,0.0013421022,-0.013891513,0.72590756,0.99999595,0.0,9.895302e-10,-0.0028691888,1
5792000,5792000,0.6876489,0.0013439372,-0.013894627,0.7259093,0.99999595,0.0,9.895302e-10,-0.0028691888,1
5796000,5796000,0.68765014,0.00134284,-0.013898567,0.7259079,0.99999595,0.0,9.895302e-10,-0.0028691888,1
5800000,5800000,0.6876556,0.0013378324,-0.013903609,0.7259026,0.99999595,0.0,9.895302e-10,-0.0028691888,1
5804000,5804000,0.6876604,0.0013324234,-0.013908287,0.7258981,0.99999595,0.0,9.895302e-10,-0.0028691888,1
5808000,5808000,0.687665,0.0013285541,-0.0139097795,0.7258937,0.99999595,0.0,9.895302e-10,-0.0028691888,1
5812000,5812000,0.68767166,0.0013215883,-0.013906833,0.7258874,0.99999595,0.0,9.895302e-10,-0.0028691888,1
5816000,5816000,0.68767905,0.0013117387,-0.0139038395,0.72588056,0.99999595,0.0,9.895302e-10,-0.0028691888,1
5820000,5820000,0.6876836,0.0013061308,-0.013906383,0.72587615,0.99999595,0.0,9.895302e-10,-0.0028691888,1
5824000,5824000,0.68768686,0.0013032821,-0.013909858,0.725873,0.99999595,0.0,9.895302e-10,-0.0028691888,1
5828000,5828000,0.68769205,0.0013029937,-0.013909116,0.72586805,0.99999595,0.0,9.895302e-10,-0.0028691888,1
5832000,5832000,0.68769866,0.0013096659,-0.013909569,0.72586185,0.99999595,0.0,9.895302e-10,-0.0028691888,1
5836000,5836000,0.6877048,0.0013198303,-0.01391407,0.725856,0.99999595,0.0,9.895302e-10,-0.0028691888,1
5840000,5840000,0.687712,0.001325571,-0.013917059,0.7258491,0.99999595,0.0,9.895302e-10,-0.0028691888,1
5844000,5844000,0.68772006,0.001327847,-0.0139167495,0.72584146,0.99999595,0.0,9.895302e-10,-0.0028691888,1
5848000,5848000,0.6877301,0.0013331426,-0.013914734,0.725832,0.99999595,0.0,9.895302e-10,-0.0028691888,1
5852000,5852000,0.6877382,0.0013380349,-0.013913109,0.7258243,0.99999595,0.0,9.895302e-10,-0.0028691888,1
5856000,5856000,0.6877465,0.0013415988,-0.013913659,0.7258163,0.99999595,0.0,9.895302e-10,-0.0028691888,1
5860000,5860000,0.68775606,0.0013441064,-0.013916121,0.72580725,0.99999595,0.0,9.895302e-10,-0.0028691888,1
5868000,5868000,0.68777937,0.0013523961,-0.013918451,0.7257851,0.99999595,0.0,9.895302e-10,-0.0028691888,1
5872000,5872000,0.6877894,0.0013528737,-0.0139199775,0.72577566,0.99999595,0.0,9.895302e-10,-0.0028691888,1
5876000,5876000,0.68779474,0.0013517159,-0.013920045,0.7257706,0.99999595,0.0,9.895302e-10,-0.0028691888,1
5880000,5880000,0.68780005,0.0013532161,-0.01391654,0.7257656,0.99999595,0.0,9.895302e-10,-0.0028691888,1
5884000,5884000,0.6878077,0.0013555138,-0.01391301,0.7257584,0.99999595,0.0,9.895302e-10,-0.0028691888,1
5888000,5888000,0.68781644,0.0013569231,-0.013913542,0.7257501,0.99999595,0.0,9.895302e-10,-0.0028691888,1
5892000,5892000,0.6878241,0.001354912,-0.013913791,0.7257429,0.99999595,0.0,9.895302e-10,-0.0028691888,1
5896000,5896000,0.687831,0.0013494681,-0.013909137,0.72573644,0.99999595,0.0,9.895302e-10,-0.0028691888,1
5900000,5900000,0.687839,0.0013447993,-0.013904459,0.72572887,0.99999595,0.0,9.895302e-10,-0.0028691888,1
5908000,5908000,0.68786,0.0013383541,-0.013893708,0.72570926,0.99999595,0.0,9.895302e-10,-0.0028691888,1
5912000,5912000,0.68787086,0.001338562,-0.013890724,0.72569895,0.99999595,0.0,9.895302e-10,-0.0028691888,1
5916000,5916000,0.6878771,0.0013391484,-0.013891129,0.725693,0.99999595,0.0,9.895302e-10,-0.0028691888,1
5920000,5920000,0.68786204,0.00133375,-0.0138897225,0.72570735,0.99999595,0.0,9.895302e-10,-0.0028691888,1
5924000,5924000,0.68784964,0.0013287495,-0.013887171,0.72571915,0.99999595,0.0,9.895302e-10,-0.0028691888,1
5928000,5928000,0.6878374,0.0013284483,-0.0138881905,0.7257308,0.99999595,0.0,9.895302e-10,-0.0028691888,1
5932000,5932000,0.6878244,0.0013273592,-0.013888479,0.7257431,0.99999595,0.0,9.895302e-10,-0.0028691888,1
5936000,5936000,0.68781227,0.0013262411,-0.013884181,0.7257546,0.99999595,0.0,9.895302e-10,-0.0028691888,1
5940000,5940000,0.68780166,0.0013278384,-0.0138816945,0.72576475,0.99999595,0.0,9.895302e-10,-0.0028691888,1
5944000,5944000,0.68779063,0.0013288968,-0.013884423,0.7257751,0.99999595,0.0,9.895302e-10,-0.0028691888,1
5948000,5948000,0.6877782,0.0013242688,-0.013886932,0.72578686,0.99999595,0.0,9.895302e-10,-0.0028691888,1
5956000,5956000,0.68775225,0.001312497,-0.01389229,0.7258114,0.99999595,0.0,9.895302e-10,-0.0028691888,1
5964000,5964000,0.6877217,0.001302709,-0.013900147,0.72584015,0.99999595,0.0,9.895302e-10,-0.0028691888,1
5968000,5968000,0.6877071,0.0012976049,-0.013907807,0.72585386,0.99999595,0.0,9.895302e-10,-0.0028691888,1
5972000,5972000,0.68769217,0.0012935516,-0.013912803,0.725868,0.99999595,0.0,9.895302e-10,-0.0028691888,1
5976000,5976000,0.68767494,0.0012920463,-0.013914307,0.7258843,0.99999595,0.0,9.895302e-10,-0.0028691888,1
5980000,5980000,0.6876585,0.0012927738,-0.013914242,0.72589993,0.99999595,0.0,9.895302e-10,-0.0028691888,1
5988000,5988000,0.6876265,0.0012882248,-0.0139112035,0.7259302,0.99999595,0.0,9.895302e-10,-0.0028691888,1
5996000,5996000,0.68760586,0.0012846874,-0.013906963,0.7259498,0.99999595,0.0,9.895302e-10,-0.0028691888,1
6000000,6000000,0.6875962,0.0012847229,-0.013904521,0.725959,0.99999595,0.0,9.895302e-10,-0.0028691888,1
6004000,6004000,0.6875854,0.0012840038,-0.013902857,0.7259693,0.99999595,0.0,9.895302e-10,-0.0028691888,1
6008000,6008000,0.6875752,0.0012857174,-0.013904813,0.7259789,0.99999595,0.0,9.895302e-10,-0.0028691888,1
6012000,6012000,0.6875642,0.001290489,-0.013908947,0.7259893,0.99999595,0.0,9.895302e-10,-0.0028691888,1
6016000,6016000,0.68755233,0.0012970483,-0.013908061,0.7260005,0.99999595,0.0,9.895302e-10,-0.0028691888,1
6020000,6020000,0.6875433,0.0012987349,-0.013906174,0.72600913,0.99999595,0.0,9.895302e-10,-0.0028691888,1
6024000,6024000,0.687538,0.0012931186,-0.013908178,0.7260141,0.99999595,0.0,9.895302e-10,-0.0028691888,1
6028000,6028000,0.6875305,0.001288902,-0.013907885,0.72602123,0.99999595,0.0,9.895302e-10,-0.0028691888,1
6032000,6032000,0.6875205,0.0012922368,-0.013908076,0.7260307,0.99999595,0.0,9.895302e-10,-0.0028691888,1
6036000,6036000,0.6875108,0.0012983272,-0.013912335,0.72603977,0.99999595,0.0,9.895302e-10,-0.0028691888,1
6040000,6040000,0.68750226,0.0012991922,-0.013915917,0.72604775,0.99999595,0.0,9.895302e-10,-0.0028691888,1
6048000,6048000,0.68748397,0.0012914876,-0.013908208,0.7260653,0.99999595,0.0,9.895302e-10,-0.0028691888,1
6052000,6052000,0.6874728,0.0012905481,-0.013901232,0.72607595,0.99999595,0.0,9.895302e-10,-0.0028691888,1
6056000,6056000,0.68746394,0.0012935383,-0.013897099,0.7260844,0.99999595,0.0,9.895302e-10,-0.0028691888,1
6060000,6060000,0.68745625,0.0012950449,-0.013893004,0.72609174,0.99999595,0.0,9.895302e-10,-0.0028691888,1
6064000,6064000,0.6874614,0.0012930112,-0.0138893295,0.726087,0.99999595,0.0,9.895302e-10,-0.0028691888,1
6072000,6072000,0.687477,0.0012893075,-0.013890194,0.7260722,0.99999595,0.0,9.895302e-10,-0.0028691888,1
6080000,6080000,0.6874937,0.0012917201,-0.013890777,0.72605646,0.99999595,0.0,9.895302e-10,-0.0028691888,1
6084000,6084000,0.68750364,0.0012896518,-0.013893387,0.7260469,0.99999595,0.0,9.895302e-10,-0.0028691888,1
6088000,6088000,0.68751425,0.0012853516,-0.013895252,0.7260368,0.99999595,0.0,9.895302e-10,-0.0028691888,1
6096000,6096000,0.6875383,0.0012890288,-0.0139038665,0.72601384,0.99999595,0.0,9.895302e-10,-0.0028691888,1
