timestamp,roll,pitch,yaw,thrust_body[0],thrust_body[1],thrust_body[2],reset_integral
4340000,0.12948526,0.14952756,0.00042557716,0.0,0.0,-0.001,0
4348000,0.12937097,0.14937194,0.0004030466,0.0,0.0,-0.001,0
4364000,0.12941518,0.14897247,0.0004994273,0.0,0.0,-0.001,0
4384000,0.1292935,0.1483043,0.0005749464,0.0,0.0,-0.001,0
4404000,0.12966146,0.1477856,0.0005582571,0.0,0.0,-0.001,0
4424000,0.12979037,0.14753716,0.0006095767,0.0,0.0,-0.001,0
4444000,0.12972549,0.14749964,0.00061124563,0.0,0.0,-0.001,0
4460000,0.129923,0.1472063,0.0006750822,0.0,0.0,-0.001,0
4484000,0.12984057,0.14624536,0.0006108284,0.0,0.0,-0.001,0
4500000,0.12988871,0.14568017,0.00056910515,0.0,0.0,-0.001,0
4524000,0.12971321,0.1447178,0.0006041527,0.0,0.0,-0.001,0
4540000,0.12978436,0.14441234,0.00054740906,0.0,0.0,-0.001,0
4564000,0.12978107,0.14378999,0.000613749,0.0,0.0,-0.001,0
4584000,0.129792,0.14345637,0.00062417984,0.0,0.0,-0.001,0
4604000,0.12979591,0.14313726,0.0006558895,0.0,0.0,-0.001,0
4620000,0.12981856,0.14292905,0.0006454587,0.0,0.0,-0.001,0
4640000,0.1298052,0.14277032,0.0006467104,0.0,0.0,-0.001,0
4660000,0.1298074,0.14295292,0.0007685423,0.0,0.0,-0.001,0
4680000,0.12980722,0.1425751,0.00066673756,0.0,0.0,-0.001,0
4700000,0.12949476,0.14214711,0.0009083152,0.0,0.0,-0.001,0
4724000,0.12927744,0.14162624,0.0008419752,0.0,0.0,-0.001,0
4744000,0.12897316,0.14129265,0.0007042885,0.0,0.0,-0.001,0
4764000,0.12858438,0.14060475,0.00078231096,0.0,0.0,-0.001,0
4784000,0.12824447,0.14054652,0.00071555376,0.0,0.0,-0.001,0
4804000,0.1278035,0.14018504,0.00080025196,0.0,0.0,-0.001,0
4820000,0.12732086,0.14031647,0.0008119345,0.0,0.0,-0.001,0
4844000,0.12700333,0.1400883,0.00076019764,0.0,0.0,-0.001,0
4860000,0.12662049,0.13983889,0.00076687336,0.0,0.0,-0.001,0
4884000,0.12586461,0.13974643,0.000703454,0.0,0.0,-0.001,0
4900000,0.12557319,0.13972662,0.00066173077,0.0,0.0,-0.001,0
4920000,0.124897905,0.1397761,0.0005540848,0.0,0.0,-0.001,0
4940000,0.12415513,0.13982889,0.00052404404,0.0,0.0,-0.001,0
4964000,0.12373071,0.13953437,0.00053071976,0.0,0.0,-0.001,0
4984000,0.123191796,0.1394864,0.00048315525,0.0,0.0,-0.001,0
5004000,0.12283439,0.13935924,0.00041264296,0.0,0.0,-0.001,0
5020000,0.12250159,0.13929397,0.0005415678,0.0,0.0,-0.001,0
5044000,0.121902354,0.1390275,0.0004994273,0.0,0.0,-0.001,0
5064000,0.12164849,0.13871805,0.00055491924,0.0,0.0,-0.001,0
5084000,0.12134925,0.13869001,0.00056034327,0.0,0.0,-0.001,0
5104000,0.12091024,0.13893119,0.0005540848,0.0,0.0,-0.001,0
5124000,0.120572,0.13882023,0.0005519986,0.0,0.0,-0.001,0
5140000,0.120486565,0.13880488,0.00066298246,0.0,0.0,-0.001,0
5164000,0.120109245,0.13875198,0.0007222295,0.0,0.0,-0.001,0
5184000,0.11991803,0.13881491,0.00060373545,0.0,0.0,-0.001,0
5204000,0.11968755,0.1390482,0.00074642897,0.0,0.0,-0.001,0
5220000,0.11951386,0.13908039,0.00075143576,0.0,0.0,-0.001,0
5244000,0.119232826,0.13914475,0.0006930232,0.0,0.0,-0.001,0
5264000,0.11923517,0.13911223,0.0005862117,0.0,0.0,-0.001,0
5284000,0.1187861,0.13927196,0.0008111,0.0,0.0,-0.001,0
5300000,0.118618324,0.13925019,0.00082987547,0.0,0.0,-0.001,0
5324000,0.11821041,0.13911696,0.00082695484,0.0,0.0,-0.001,0
5344000,0.11786324,0.13895032,0.00068593025,0.0,0.0,-0.001,0
5364000,0.11788498,0.13913125,0.0007939935,0.0,0.0,-0.001,0
5384000,0.117655575,0.13906133,0.00068593025,0.0,0.0,-0.001,0
5404000,0.11738674,0.13906333,0.0007889867,0.0,0.0,-0.001,0
5420000,0.11721797,0.13900983,0.0008315444,0.0,0.0,-0.001,0
5440000,0.11699264,0.13888374,0.0006913543,0.0,0.0,-0.001,0
5464000,0.11699702,0.13878667,0.00064253807,0.0,0.0,-0.001,0
5484000,0.11707261,0.13883701,0.00079733133,0.0,0.0,-0.001,0
5500000,0.117128134,0.1387516,0.0006533861,0.0,0.0,-0.001,0
5524000,0.11731808,0.13842444,0.00056660175,0.0,0.0,-0.001,0
5540000,0.11729954,0.13826773,0.0005803704,0.0,0.0,-0.001,0
5560000,0.11717179,0.13815089,0.0005519986,0.0,0.0,-0.001,0
5584000,0.11734294,0.13782382,0.0005361438,0.0,0.0,-0.001,0
5604000,0.117538355,0.1378784,0.00054198503,0.0,0.0,-0.001,0
5620000,0.117486864,0.13789488,0.0006220937,0.0,0.0,-0.001,0
5640000,0.11773287,0.13776256,0.0005398989,0.0,0.0,-0.001,0
5660000,0.11782285,0.13768859,0.0005428195,0.0,0.0,-0.001,0
5684000,0.118071154,0.1374135,0.00051152706,0.0,0.0,-0.001,0
5700000,0.11810811,0.13709001,0.0005453229,0.0,0.0,-0.001,0
5724000,0.11852877,0.1369876,0.0005027652,0.0,0.0,-0.001,0
5744000,0.118675075,0.13700129,0.00052654743,0.0,0.0,-0.001,0
5764000,0.11889105,0.13687658,0.00045853853,0.0,0.0,-0.001,0
5780000,0.11903376,0.13684012,0.00060623884,0.0,0.0,-0.001,0
5800000,0.11926242,0.13692477,0.00058329105,0.0,0.0,-0.001,0
5820000,0.11956724,0.13665457,0.00063335896,0.0,0.0,-0.001,0
5840000,0.11948847,0.13693847,0.00059747696,0.0,0.0,-0.001,0
5860000,0.11930637,0.13711159,0.00067967176,0.0,0.0,-0.001,0
5880000,0.11921961,0.13720933,0.0005828738,0.0,0.0,-0.001,0
5900000,0.119174264,0.13702765,0.0006558895,0.0,0.0,-0.001,0
5920000,0.11912744,0.13679735,0.00042390823,0.0,0.0,-0.001,0
5940000,0.11911537,0.13666037,0.00036424398,0.0,0.0,-0.001,0
5964000,0.11952862,0.1365756,0.00030583143,0.0,0.0,-0.001,0
5980000,0.11976215,0.13659765,0.0002824664,0.0,0.0,-0.001,0
6004000,0.11974782,0.13640015,0.00038301945,0.0,0.0,-0.001,0
6020000,0.119655296,0.13656192,0.00038009882,0.0,0.0,-0.001,0
6040000,0.11975185,0.13664578,0.00047647953,0.0,0.0,-0.001,0
6060000,0.11958068,0.13639475,0.00041264296,0.0,0.0,-0.001,0
6084000,0.119626276,0.13635269,0.0006888509,0.0,0.0,-0.001,0
6104000,0.11961464,0.13644373,0.00062417984,0.0,0.0,-0.001,0
6120000,0.11949868,0.13638535,0.0006237626,0.0,0.0,-0.001,0
6140000,0.11945307,0.13624711,0.0006955266,0.0,0.0,-0.001,0
6160000,0.11962199,0.13594273,0.00065755844,0.0,0.0,-0.001,0
6180000,0.1195905,0.13599448,0.00069886446,0.0,0.0,-0.001,0
6200000,0.11932455,0.13594376,0.0006483793,0.0,0.0,-0.001,0
6224000,0.11917667,0.1362106,0.00059497356,0.0,0.0,-0.001,0
6244000,0.118898794,0.1360453,0.0006867647,0.0,0.0,-0.001,0
6260000,0.11873072,0.1359737,0.00066047907,0.0,0.0,-0.001,0
6284000,0.118466586,0.13635558,0.0006287694,0.0,0.0,-0.001,0
6300000,0.11837813,0.13623998,0.0006967783,0.0,0.0,-0.001,0
6324000,0.118327886,0.13639347,0.00065255165,0.0,0.0,-0.001,0
6340000,0.11832368,0.13652694,0.0006734133,0.0,0.0,-0.001,0
6360000,0.11821246,0.13637023,0.0006379485,0.0,0.0,-0.001,0
6380000,0.11806303,0.13635096,0.0007017851,0.0,0.0,-0.001,0
6400000,0.117945194,0.13631909,0.0006517172,0.0,0.0,-0.001,0
6420000,0.11782287,0.13652681,0.0007585287,0.0,0.0,-0.001,0
6440000,0.11762594,0.13641125,0.00063169,0.0,0.0,-0.001,0
6460000,0.11756085,0.1362438,0.00067424774,0.0,0.0,-0.001,0
6480000,0.117534876,0.13604754,0.00061041117,0.0,0.0,-0.001,0
6500000,0.1174909,0.13603704,0.00062710047,0.0,0.0,-0.001,0
6524000,0.11716342,0.13609216,0.0005657673,0.0,0.0,-0.001,0
6540000,0.11703852,0.13605164,0.0005465746,0.0,0.0,-0.001,0
6560000,0.11686861,0.13601759,0.00048148632,0.0,0.0,-0.001,0
6580000,0.11648271,0.13601398,0.0005161166,0.0,0.0,-0.001,0
6600000,0.11634903,0.13598865,0.000495255,0.0,0.0,-0.001,0
6624000,0.116145484,0.13618815,0.00048398972,0.0,0.0,-0.001,0
6644000,0.1160373,0.13642497,0.0007864833,0.0,0.0,-0.001,0
6660000,0.11586501,0.13655518,0.00080275536,0.0,0.0,-0.001,0
6684000,0.11558172,0.13647038,0.00078356266,0.0,0.0,-0.001,0
6700000,0.11556595,0.13654947,0.00084489584,0.0,0.0,-0.001,0
6720000,0.11549744,0.13670725,0.00069469213,0.0,0.0,-0.001,0
6744000,0.11508581,0.13656715,0.00063085556,0.0,0.0,-0.001,0
6764000,0.114994824,0.1366813,0.0008048415,0.0,0.0,-0.001,0
6784000,0.1148831,0.13671575,0.00056910515,0.0,0.0,-0.001,0
6804000,0.11474377,0.1368367,0.0005978942,0.0,0.0,-0.001,0
6824000,0.11466999,0.13694653,0.0005570054,0.0,0.0,-0.001,0
6844000,0.114564635,0.1371078,0.0005991459,0.0,0.0,-0.001,0
6860000,0.11439791,0.13707611,0.00051027536,0.0,0.0,-0.001,0
6884000,0.11416898,0.13700035,0.00046646595,0.0,0.0,-0.001,0
6904000,0.11421115,0.13717555,0.00049191713,0.0,0.0,-0.001,0
6924000,0.11426677,0.13754101,0.0005148649,0.0,0.0,-0.001,0
6944000,0.11414683,0.1376842,0.00041764975,0.0,0.0,-0.001,0
6960000,0.114186995,0.13778198,0.00045394897,0.0,0.0,-0.001,0
6984000,0.11423137,0.13776118,0.0004401803,0.0,0.0,-0.001,0
7004000,0.1142638,0.13786316,0.00037509203,0.0,0.0,-0.001,0
7020000,0.11412444,0.13796031,0.0004080534,0.0,0.0,-0.001,0
7044000,0.11402103,0.13803093,0.0004723072,0.0,0.0,-0.001,0
7064000,0.114311375,0.13815233,0.0005015135,0.0,0.0,-0.001,0
7084000,0.11448485,0.1381808,0.00070261955,0.0,0.0,-0.001,0
7104000,0.11458054,0.13818613,0.00063210726,0.0,0.0,-0.001,0
7120000,0.114444554,0.13810797,0.00064629316,0.0,0.0,-0.001,0
7140000,0.11426326,0.13783514,0.0007247329,0.0,0.0,-0.001,0
7164000,0.11418901,0.13808683,0.00076144934,0.0,0.0,-0.001,0
7180000,0.1144511,0.13808686,0.00071805716,0.0,0.0,-0.001,0
7204000,0.11460484,0.13780299,0.00078731775,0.0,0.0,-0.001,0
7220000,0.114733405,0.13781494,0.00091958046,0.0,0.0,-0.001,0
7240000,0.11499515,0.13789254,0.00074893236,0.0,0.0,-0.001,0
7260000,0.114679806,0.13794619,0.0008878708,0.0,0.0,-0.001,0
7280000,0.11446214,0.13811444,0.00069344044,0.0,0.0,-0.001,0
7300000,0.11436021,0.13791272,0.0007042885,0.0,0.0,-0.001,0
7320000,0.11428447,0.1376368,0.00058579445,0.0,0.0,-0.001,0
7340000,0.1142124,0.13769314,0.0006162524,0.0,0.0,-0.001,0
7364000,0.11438012,0.13782492,0.00080776215,0.0,0.0,-0.001,0
7384000,0.11474773,0.1380651,0.00062960386,0.0,0.0,-0.001,0
7404000,0.115008965,0.13812755,0.00072056055,0.0,0.0,-0.001,0
7420000,0.11528106,0.13828123,0.00072056055,0.0,0.0,-0.001,0
7440000,0.115481876,0.13846272,0.0006362796,0.0,0.0,-0.001,0
7460000,0.11565837,0.13864288,0.00069803,0.0,0.0,-0.001,0
7480000,0.11553087,0.13884239,0.00059247017,0.0,0.0,-0.001,0
7500000,0.11599309,0.13894618,0.0006558895,0.0,0.0,-0.001,0
7524000,0.11637588,0.138804,0.0008369684,0.0,0.0,-0.001,0
7540000,0.11644348,0.13855682,0.0008261204,0.0,0.0,-0.001,0
7560000,0.1162913,0.13854806,0.0006725788,0.0,0.0,-0.001,0
7580000,0.116408944,0.1385223,0.00068593025,0.0,0.0,-0.001,0
7600000,0.11648174,0.13838154,0.0006237626,0.0,0.0,-0.001,0
7624000,0.11677261,0.1384567,0.0005978942,0.0,0.0,-0.001,0
7644000,0.11709076,0.13833073,0.0006275177,0.0,0.0,-0.001,0
7664000,0.11709506,0.13796169,0.00056785345,0.0,0.0,-0.001,0
7684000,0.11730927,0.13778177,0.0006362796,0.0,0.0,-0.001,0
7704000,0.117590725,0.13772227,0.00057286024,0.0,0.0,-0.001,0
7724000,0.11767072,0.13794515,0.00070887804,0.0,0.0,-0.001,0
7740000,0.1177251,0.13770624,0.00070011616,0.0,0.0,-0.001,0
7764000,0.1176676,0.13760285,0.0006725788,0.0,0.0,-0.001,0
7780000,0.11776255,0.13772017,0.0006542206,0.0,0.0,-0.001,0
7800000,0.11771574,0.13769518,0.00062292814,0.0,0.0,-0.001,0
7820000,0.11751053,0.13742986,0.00075894594,0.0,0.0,-0.001,0
7840000,0.11761826,0.13712779,0.00062292814,0.0,0.0,-0.001,0
7860000,0.1176309,0.1371492,0.0007368326,0.0,0.0,-0.001,0
7884000,0.117661655,0.13710627,0.0005736947,0.0,0.0,-0.001,0
7904000,0.11776604,0.13699336,0.0005711913,0.0,0.0,-0.001,0
7924000,0.117697924,0.13711442,0.0006646514,0.0,0.0,-0.001,0
7940000,0.1176676,0.13719656,0.00045144558,0.0,0.0,-0.001,0
7964000,0.11758297,0.1371565,0.00042933226,0.0,0.0,-0.001,0
7984000,0.11778331,0.13708878,0.00048565865,0.0,0.0,-0.001,0
8004000,0.11789386,0.13699059,0.00039094687,0.0,0.0,-0.001,0
8024000,0.11798552,0.13696955,0.00048023462,0.0,0.0,-0.001,0
8044000,0.11799357,0.1366745,0.00049608946,0.0,0.0,-0.001,0
8064000,0.11788121,0.13664824,0.00056284666,0.0,0.0,-0.001,0
8084000,0.118013114,0.13641447,0.0006579757,0.0,0.0,-0.001,0
8100000,0.11801616,0.13639611,0.0006517172,0.0,0.0,-0.001,0
8124000,0.11792071,0.13614275,0.0006967783,0.0,0.0,-0.001,0
8144000,0.11802097,0.13593373,0.00060749054,0.0,0.0,-0.001,0
8164000,0.11793441,0.13606724,0.00069803,0.0,0.0,-0.001,0
8184000,0.1177455,0.13616127,0.0006120801,0.0,0.0,-0.001,0
8204000,0.117808826,0.13595924,0.00063836575,0.0,0.0,-0.001,0
8224000,0.11774121,0.13575277,0.00057160854,0.0,0.0,-0.001,0
8240000,0.11782047,0.13561314,0.00055617094,0.0,0.0,-0.001,0
8260000,0.117990024,0.13549754,0.0006492138,0.0,0.0,-0.001,0
8280000,0.117843695,0.1354249,0.00047940016,0.0,0.0,-0.001,0
8304000,0.118029505,0.13558762,0.00045019388,0.0,0.0,-0.001,0
8324000,0.117988296,0.13535327,0.0003784299,0.0,0.0,-0.001,0
8340000,0.117724635,0.13522096,0.0004005432,0.0,0.0,-0.001,0
8364000,0.117362,0.13495126,0.0004914999,0.0,0.0,-0.001,0
8380000,0.11717545,0.13490805,0.0004506111,0.0,0.0,-0.001,0
8404000,0.116892904,0.13496254,0.00050985813,0.0,0.0,-0.001,0
8420000,0.11686352,0.1350583,0.00052154064,0.0,0.0,-0.001,0
8444000,0.116988674,0.1350771,0.00046396255,0.0,0.0,-0.001,0
8460000,0.11681005,0.13503441,0.00047564507,0.0,0.0,-0.001,0
8480000,0.116804466,0.13488342,0.0005248785,0.0,0.0,-0.001,0
8500000,0.11685781,0.13494012,0.00045269728,0.0,0.0,-0.001,0
8524000,0.11670223,0.13469647,0.00041139126,0.0,0.0,-0.001,0
8540000,0.11679397,0.13474704,0.00046938658,0.0,0.0,-0.001,0
8560000,0.11655028,0.13457486,0.00044602156,0.0,0.0,-0.001,0
8584000,0.11636139,0.13455907,0.00046020746,0.0,0.0,-0.001,0
8600000,0.11626042,0.13450626,0.00044226646,0.0,0.0,-0.001,0
8620000,0.116037026,0.13449836,0.00040555,0.0,0.0,-0.001,0
8644000,0.11598564,0.13472241,0.00047564507,0.0,0.0,-0.001,0
8660000,0.116118915,0.13495041,0.00056284666,0.0,0.0,-0.001,0
8684000,0.11600749,0.13511683,0.0005837083,0.0,0.0,-0.001,0
8700000,0.11588502,0.13503379,0.0005941391,0.0,0.0,-0.001,0
8724000,0.115982786,0.13485259,0.0005323887,0.0,0.0,-0.001,0
8740000,0.11595069,0.13481504,0.00050109625,0.0,0.0,-0.001,0
8764000,0.11595506,0.13484295,0.0005887151,0.0,0.0,-0.001,0
8784000,0.115862705,0.13471119,0.00052028894,0.0,0.0,-0.001,0
8804000,0.11598128,0.1345769,0.0005323887,0.0,0.0,-0.001,0
8824000,0.11580935,0.1347405,0.000500679,0.0,0.0,-0.001,0
8844000,0.11589748,0.13460949,0.0005182028,0.0,0.0,-0.001,0
8860000,0.115708716,0.13462497,0.0004748106,0.0,0.0,-0.001,0
8884000,0.1157623,0.13433653,0.00049483776,0.0,0.0,-0.001,0
8900000,0.115587726,0.13441493,0.00049191713,0.0,0.0,-0.001,0
8924000,0.11535823,0.13441803,0.0003529787,0.0,0.0,-0.001,0
8944000,0.11548415,0.13443294,0.00043809414,0.0,0.0,-0.001,0
8960000,0.11549799,0.13436608,0.0004272461,0.0,0.0,-0.001,0
8984000,0.115237705,0.13437451,0.0004339218,0.0,0.0,-0.001,0
9004000,0.11512922,0.13429259,0.0003387928,0.0,0.0,-0.001,0
9024000,0.11531022,0.13395375,0.00043934584,0.0,0.0,-0.001,0
9044000,0.11541233,0.13389772,0.000351727,0.0,0.0,-0.001,0
9064000,0.11532055,0.133634,0.0004748106,0.0,0.0,-0.001,0
9084000,0.115319625,0.13368791,0.00047689676,0.0,0.0,-0.001,0
9100000,0.11537781,0.13347301,0.0004698038,0.0,0.0,-0.001,0
9124000,0.115391545,0.13326465,0.0005161166,0.0,0.0,-0.001,0
9144000,0.11539061,0.13321199,0.0004914999,0.0,0.0,-0.001,0
9164000,0.115544744,0.13339855,0.00054490566,0.0,0.0,-0.001,0
9180000,0.11554765,0.13376854,0.0005803704,0.0,0.0,-0.001,0
9204000,0.11541361,0.13378578,0.0005156994,0.0,0.0,-0.001,0
9224000,0.115444764,0.13369116,0.0004877448,0.0,0.0,-0.001,0
9244000,0.11527154,0.13373064,0.00035840273,0.0,0.0,-0.001,0
9264000,0.11513251,0.13355717,0.00043851137,0.0,0.0,-0.001,0
9284000,0.11496896,0.13387018,0.00038844347,0.0,0.0,-0.001,0
9300000,0.114687875,0.13376024,0.000351727,0.0,0.0,-0.001,0
9324000,0.114625245,0.13380755,0.000310421,0.0,0.0,-0.001,0
9344000,0.11467705,0.13365528,0.00046479702,0.0,0.0,-0.001,0
9364000,0.11468538,0.13386457,0.00040763617,0.0,0.0,-0.001,0
9384000,0.11485867,0.1340827,0.0004698038,0.0,0.0,-0.001,0
9404000,0.114780694,0.13400462,0.00043809414,0.0,0.0,-0.001,0
9420000,0.1146732,0.13385455,0.00041389465,0.0,0.0,-0.001,0
9444000,0.11456847,0.13334092,0.00039720535,0.0,0.0,-0.001,0
9464000,0.114544936,0.133225,0.0004927516,0.0,0.0,-0.001,0
9484000,0.11452549,0.1332915,0.000477314,0.0,0.0,-0.001,0
9504000,0.114346825,0.13308801,0.0004944205,0.0,0.0,-0.001,0
9524000,0.11428556,0.13312146,0.00049191713,0.0,0.0,-0.001,0
9544000,0.114276975,0.13288197,0.0004981756,0.0,0.0,-0.001,0
9564000,0.114004195,0.13279721,0.0005236268,0.0,0.0,-0.001,0
9580000,0.11384996,0.13282451,0.00044602156,0.0,0.0,-0.001,0
9600000,0.113790646,0.13293082,0.00048398972,0.0,0.0,-0.001,0
9620000,0.11355511,0.13302834,0.00044560432,0.0,0.0,-0.001,0
9644000,0.11363118,0.13258581,0.00036883354,0.0,0.0,-0.001,0
9664000,0.11372159,0.13248387,0.00041806698,0.0,0.0,-0.001,0
9684000,0.11395075,0.13218144,0.00039052963,0.0,0.0,-0.001,0
9704000,0.11405391,0.13200448,0.00045979023,0.0,0.0,-0.001,0
9724000,0.11398712,0.13181834,0.00036424398,0.0,0.0,-0.001,0
9744000,0.11398062,0.1316559,0.00042390823,0.0,0.0,-0.001,0
9760000,0.11399638,0.13160083,0.00046604872,0.0,0.0,-0.001,0
9784000,0.11383164,0.13180415,0.00047689676,0.0,0.0,-0.001,0
9804000,0.11380026,0.13193628,0.00046020746,0.0,0.0,-0.001,0
9820000,0.11388564,0.13187757,0.0004990101,0.0,0.0,-0.001,0
9844000,0.11376545,0.13184439,0.00047397614,0.0,0.0,-0.001,0
9860000,0.11381476,0.13192883,0.00045895576,0.0,0.0,-0.001,0
9880000,0.11358613,0.13185692,0.00048065186,0.0,0.0,-0.001,0
9904000,0.113382846,0.13174723,0.00052946806,0.0,0.0,-0.001,0
9924000,0.11323576,0.13153002,0.0005595088,0.0,0.0,-0.001,0
9944000,0.11279082,0.1317692,0.00039845705,0.0,0.0,-0.001,0
9960000,0.112853065,0.13177001,0.00042808056,0.0,0.0,-0.001,0
9984000,0.11267769,0.13187797,0.0004581213,0.0,0.0,-0.001,0
10000000,0.11262581,0.13187985,0.0004247427,0.0,0.0,-0.001,0
10020000,0.11252886,0.13194117,0.00036633015,0.0,0.0,-0.001,0
10044000,0.112633936,0.13211857,0.00044101477,0.0,0.0,-0.001,0
10060000,0.11252112,0.13217926,0.00044059753,0.0,0.0,-0.001,0
10080000,0.11254739,0.13228795,0.0004389286,0.0,0.0,-0.001,0
10100000,0.11255709,0.13231651,0.00036883354,0.0,0.0,-0.001,0
10124000,0.11256806,0.13239914,0.00042140484,0.0,0.0,-0.001,0
10140000,0.11260682,0.13228622,0.0004376769,0.0,0.0,-0.001,0
10164000,0.11273687,0.13249178,0.00040388107,0.0,0.0,-0.001,0
10180000,0.1128427,0.13245769,0.0004042983,0.0,0.0,-0.001,0
10200000,0.11291762,0.13233742,0.00046646595,0.0,0.0,-0.001,0
10220000,0.11291769,0.13211654,0.00038343668,0.0,0.0,-0.001,0
10244000,0.1130331,0.13213739,0.0004068017,0.0,0.0,-0.001,0
10260000,0.11320202,0.1322168,0.0004184842,0.0,0.0,-0.001,0
10280000,0.113154665,0.13223167,0.00048816204,0.0,0.0,-0.001,0
10300000,0.11312973,0.13196164,0.00041472912,0.0,0.0,-0.001,0
10320000,0.11332871,0.13156109,0.00047564507,0.0,0.0,-0.001,0
10344000,0.11333401,0.1312612,0.0004698038,0.0,0.0,-0.001,0
10364000,0.113367386,0.13134941,0.00048273802,0.0,0.0,-0.001,0
10380000,0.11355662,0.13147001,0.00048440695,0.0,0.0,-0.001,0
10404000,0.11387914,0.13161288,0.00047940016,0.0,0.0,-0.001,0
10420000,0.11378556,0.1314895,0.0005457401,0.0,0.0,-0.001,0
10440000,0.11376562,0.1314156,0.0005286336,0.0,0.0,-0.001,0
10460000,0.11370704,0.1312269,0.0004698038,0.0,0.0,-0.001,0
10484000,0.11335803,0.13132948,0.0006120801,0.0,0.0,-0.001,0
10500000,0.11319686,0.13119984,0.0005298853,0.0,0.0,-0.001,0
10524000,0.11343445,0.13120368,0.00047147274,0.0,0.0,-0.001,0
10540000,0.11331982,0.13130589,0.00053447485,0.0,0.0,-0.001,0
10564000,0.113385394,0.13117182,0.00046813488,0.0,0.0,-0.001,0
10580000,0.11343071,0.13127863,0.00042515993,0.0,0.0,-0.001,0
10600000,0.11326332,0.13143185,0.00047522783,0.0,0.0,-0.001,0
10620000,0.112988204,0.13152604,0.00043350458,0.0,0.0,-0.001,0
10640000,0.11285772,0.1317259,0.00047272444,0.0,0.0,-0.001,0
10664000,0.11278238,0.13163844,0.00044685602,0.0,0.0,-0.001,0
10684000,0.11296627,0.1316573,0.00048732758,0.0,0.0,-0.001,0
10704000,0.11306035,0.13155186,0.0004990101,0.0,0.0,-0.001,0
10724000,0.11280099,0.13117552,0.0005198717,0.0,0.0,-0.001,0
10744000,0.11262736,0.13081707,0.00045394897,0.0,0.0,-0.001,0
10764000,0.112397686,0.13077012,0.00044184923,0.0,0.0,-0.001,0
10784000,0.11222959,0.13039076,0.00047314167,0.0,0.0,-0.001,0
10800000,0.112325504,0.13040133,0.00039929152,0.0,0.0,-0.001,0
10824000,0.11212047,0.13027331,0.00042808056,0.0,0.0,-0.001,0
10844000,0.111959964,0.13031879,0.0003759265,0.0,0.0,-0.001,0
10860000,0.11175228,0.13053364,0.0004222393,0.0,0.0,-0.001,0
10884000,0.11166883,0.13062677,0.00043350458,0.0,0.0,-0.001,0
10904000,0.11159646,0.1306437,0.00045478344,0.0,0.0,-0.001,0
10920000,0.111614645,0.13067977,0.00046271086,0.0,0.0,-0.001,0
10940000,0.11178163,0.13064435,0.0003091693,0.0,0.0,-0.001,0
10964000,0.11191264,0.13063847,0.00037759542,0.0,0.0,-0.001,0
10980000,0.111835,0.13076927,0.0003784299,0.0,0.0,-0.001,0
11004000,0.11164762,0.13115077,0.0003963709,0.0,0.0,-0.001,0
11024000,0.111510396,0.13086781,0.00042933226,0.0,0.0,-0.001,0
11044000,0.11156942,0.13045618,0.00038677454,0.0,0.0,-0.001,0
11060000,0.11163204,0.1303758,0.0004272461,0.0,0.0,-0.001,0
11084000,0.11197677,0.13027135,0.00037550926,0.0,0.0,-0.001,0
11100000,0.11215525,0.1301862,0.00044059753,0.0,0.0,-0.001,0
11120000,0.11236227,0.13029549,0.0005182028,0.0,0.0,-0.001,0
11140000,0.11212859,0.1301173,0.0005094409,0.0,0.0,-0.001,0
11164000,0.112118766,0.12998757,0.00044602156,0.0,0.0,-0.001,0
11180000,0.112178326,0.12986782,0.00045979023,0.0,0.0,-0.001,0
11200000,0.11226027,0.12930453,0.0005040169,0.0,0.0,-0.001,0
11224000,0.1122449,0.12923004,0.00054365396,0.0,0.0,-0.001,0
11240000,0.11222994,0.12918442,0.00052779913,0.0,0.0,-0.001,0
11264000,0.11215685,0.12910968,0.0005219579,0.0,0.0,-0.001,0
11284000,0.1122786,0.12866464,0.00053697824,0.0,0.0,-0.001,0
11304000,0.11208999,0.12872604,0.0005173683,0.0,0.0,-0.001,0
11324000,0.11209801,0.12844078,0.00053322315,0.0,0.0,-0.001,0
11344000,0.112131804,0.12834468,0.0005182028,0.0,0.0,-0.001,0
11364000,0.111999676,0.12851228,0.00054448843,0.0,0.0,-0.001,0
11380000,0.111942485,0.12834686,0.0006045699,0.0,0.0,-0.001,0
11404000,0.111795984,0.12860042,0.00052028894,0.0,0.0,-0.001,0
11420000,0.11189524,0.12864971,0.00052779913,0.0,0.0,-0.001,0
11440000,0.11193352,0.1287785,0.0004927516,0.0,0.0,-0.001,0
11460000,0.11195644,0.1288321,0.0005019307,0.0,0.0,-0.001,0
11480000,0.112155326,0.12886137,0.0005232096,0.0,0.0,-0.001,0
11500000,0.11226648,0.12871528,0.00052529573,0.0,0.0,-0.001,0
11520000,0.11220048,0.12893464,0.00047564507,0.0,0.0,-0.001,0
11544000,0.11240078,0.12916684,0.00046771765,0.0,0.0,-0.001,0
11560000,0.11246677,0.12911746,0.00046563148,0.0,0.0,-0.001,0
11584000,0.11231458,0.12916444,0.00044310093,0.0,0.0,-0.001,0
11600000,0.112207256,0.12923506,0.00042682886,0.0,0.0,-0.001,0
11620000,0.1122134,0.12921311,0.00041890144,0.0,0.0,-0.001,0
11640000,0.11207013,0.12905078,0.0004389286,0.0,0.0,-0.001,0
11660000,0.111901134,0.12896469,0.00046020746,0.0,0.0,-0.001,0
11684000,0.111836806,0.12889609,0.0005123615,0.0,0.0,-0.001,0
11700000,0.11204722,0.1286982,0.00053071976,0.0,0.0,-0.001,0
11720000,0.11226689,0.12866451,0.0004940033,0.0,0.0,-0.001,0
11740000,0.11231574,0.12856439,0.0005194545,0.0,0.0,-0.001,0
11764000,0.11247871,0.12853673,0.00049984455,0.0,0.0,-0.001,0
11780000,0.1122578,0.12838581,0.0005182028,0.0,0.0,-0.001,0
11800000,0.11211528,0.1279422,0.00043725967,0.0,0.0,-0.001,0
11820000,0.11216524,0.12768915,0.0003579855,0.0,0.0,-0.001,0
11840000,0.112204745,0.12758413,0.00042766333,0.0,0.0,-0.001,0
11860000,0.11212499,0.12764007,0.000387609,0.0,0.0,-0.001,0
11880000,0.11193176,0.12739411,0.00044101477,0.0,0.0,-0.001,0
11900000,0.11182051,0.1272464,0.0004518628,0.0,0.0,-0.001,0
11924000,0.11179106,0.12726697,0.00043559074,0.0,0.0,-0.001,0
11940000,0.11173438,0.12729189,0.00046688318,0.0,0.0,-0.001,0
11960000,0.11141629,0.12718415,0.00042808056,0.0,0.0,-0.001,0
11980000,0.111229226,0.12711306,0.00042766333,0.0,0.0,-0.001,0
12000000,0.11118425,0.12693709,0.00044685602,0.0,0.0,-0.001,0
12020000,0.11114861,0.1265664,0.0004042983,0.0,0.0,-0.001,0
12044000,0.11096687,0.12649624,0.00037926435,0.0,0.0,-0.001,0
12060000,0.1108222,0.12650703,0.0003554821,0.0,0.0,-0.001,0
12080000,0.11069985,0.12645522,0.0004401803,0.0,0.0,-0.001,0
12100000,0.110630736,0.12638573,0.00045979023,0.0,0.0,-0.001,0
12124000,0.11059714,0.12624034,0.00056409836,0.0,0.0,-0.001,0
12140000,0.11058916,0.12628838,0.0005494952,0.0,0.0,-0.001,0
12160000,0.11046919,0.12647769,0.00048065186,0.0,0.0,-0.001,0
12180000,0.1102717,0.12661281,0.00047439337,0.0,0.0,-0.001,0
12204000,0.11030556,0.12668388,0.00052654743,0.0,0.0,-0.001,0
12224000,0.11035344,0.12687342,0.0005027652,0.0,0.0,-0.001,0
12244000,0.11010896,0.1270644,0.00046104193,0.0,0.0,-0.001,0
12260000,0.11000019,0.12704912,0.00041514635,0.0,0.0,-0.001,0
12284000,0.11002041,0.12721951,0.00048315525,0.0,0.0,-0.001,0
12304000,0.11001439,0.12749743,0.0004823208,0.0,0.0,-0.001,0
12324000,0.11002965,0.12764262,0.00046604872,0.0,0.0,-0.001,0
12344000,0.10984376,0.12738675,0.00046521425,0.0,0.0,-0.001,0
12364000,0.10994454,0.12775092,0.00040513277,0.0,0.0,-0.001,0
12384000,0.109879896,0.12761608,0.00042015314,0.0,0.0,-0.001,0
12404000,0.10966907,0.12774433,0.00047898293,0.0,0.0,-0.001,0
12420000,0.10960551,0.12779939,0.000495255,0.0,0.0,-0.001,0
12444000,0.10958668,0.1276106,0.0004956722,0.0,0.0,-0.001,0
12460000,0.10960185,0.12783583,0.00048273802,0.0,0.0,-0.001,0
12484000,0.10956315,0.12805586,0.00046646595,0.0,0.0,-0.001,0
12504000,0.10975328,0.12821142,0.000459373,0.0,0.0,-0.001,0
12524000,0.11000782,0.12790112,0.00046646595,0.0,0.0,-0.001,0
12544000,0.110064596,0.12767814,0.00046020746,0.0,0.0,-0.001,0
12564000,0.11012815,0.12764119,0.00047188997,0.0,0.0,-0.001,0
12580000,0.11023943,0.12750734,0.0004748106,0.0,0.0,-0.001,0
12604000,0.11028871,0.12757613,0.00049483776,0.0,0.0,-0.001,0
12624000,0.10999633,0.12762664,0.00051277876,0.0,0.0,-0.001,0
12644000,0.109921224,0.12753108,0.0005373955,0.0,0.0,-0.001,0
12664000,0.10964929,0.12765293,0.00044560432,0.0,0.0,-0.001,0
12684000,0.109652646,0.12765957,0.00048482418,0.0,0.0,-0.001,0
12700000,0.109742604,0.12766738,0.00048691034,0.0,0.0,-0.001,0
12724000,0.10958744,0.12821463,0.00050735474,0.0,0.0,-0.001,0
12744000,0.10950439,0.12818196,0.0004631281,0.0,0.0,-0.001,0
12764000,0.109574795,0.12794763,0.00045269728,0.0,0.0,-0.001,0
12784000,0.10946445,0.12823212,0.00046396255,0.0,0.0,-0.001,0
12804000,0.10952892,0.12809291,0.00045603514,0.0,0.0,-0.001,0
12820000,0.10926017,0.12826474,0.00043725967,0.0,0.0,-0.001,0
12844000,0.109070934,0.12803265,0.0005565882,0.0,0.0,-0.001,0
12860000,0.10889068,0.12798296,0.0004864931,0.0,0.0,-0.001,0
12880000,0.108809404,0.12826495,0.00050109625,0.0,0.0,-0.001,0
12900000,0.108817115,0.12822956,0.0005002618,0.0,0.0,-0.001,0
12920000,0.10867115,0.12831253,0.00045269728,0.0,0.0,-0.001,0
12944000,0.10838313,0.12803383,0.00048398972,0.0,0.0,-0.001,0
12964000,0.108231455,0.12786603,0.0003771782,0.0,0.0,-0.001,0
12984000,0.1082565,0.12803431,0.00044226646,0.0,0.0,-0.001,0
13004000,0.10825113,0.12786557,0.00040388107,0.0,0.0,-0.001,0
13024000,0.10830687,0.12781098,0.0003938675,0.0,0.0,-0.001,0
13044000,0.10873531,0.12786156,0.00037509203,0.0,0.0,-0.001,0
13064000,0.108873576,0.12768346,0.00040137768,0.0,0.0,-0.001,0
13084000,0.109150976,0.12732492,0.00035339594,0.0,0.0,-0.001,0
13104000,0.10919094,0.12746915,0.00040888786,0.0,0.0,-0.001,0
13124000,0.108961955,0.12739867,0.00026494265,0.0,0.0,-0.001,0
13140000,0.108955845,0.1274906,0.00029164553,0.0,0.0,-0.001,0
13164000,0.108954266,0.12771507,0.00030833483,0.0,0.0,-0.001,0
13180000,0.10893464,0.12743117,0.00037008524,0.0,0.0,-0.001,0
13204000,0.1089113,0.12725736,0.00035464764,0.0,0.0,-0.001,0
13220000,0.10898365,0.12724999,0.0003592372,0.0,0.0,-0.001,0
13240000,0.109028645,0.1271993,0.00046938658,0.0,0.0,-0.001,0
13264000,0.109164484,0.12691502,0.0004852414,0.0,0.0,-0.001,0
13284000,0.109268144,0.12703271,0.00052946806,0.0,0.0,-0.001,0
13304000,0.1092632,0.12712283,0.00054365396,0.0,0.0,-0.001,0
13324000,0.10913686,0.127082,0.00055909157,0.0,0.0,-0.001,0
13340000,0.109222785,0.12704018,0.00063961744,0.0,0.0,-0.001,0
13360000,0.10942069,0.12707385,0.00051152706,0.0,0.0,-0.001,0
13380000,0.109354906,0.127073,0.00052571297,0.0,0.0,-0.001,0
13400000,0.10953529,0.12657715,0.0005428195,0.0,0.0,-0.001,0
13420000,0.10930676,0.12655842,0.0005052686,0.0,0.0,-0.001,0
13440000,0.10921841,0.12677564,0.00047022104,0.0,0.0,-0.001,0
13460000,0.109148555,0.12662213,0.00053071976,0.0,0.0,-0.001,0
13480000,0.10900592,0.12647972,0.00046354532,0.0,0.0,-0.001,0
13504000,0.10880351,0.12659697,0.00046604872,0.0,0.0,-0.001,0
13520000,0.10853008,0.12657928,0.0004568696,0.0,0.0,-0.001,0
13544000,0.10830367,0.12683547,0.00054323673,0.0,0.0,-0.001,0
13560000,0.10832777,0.12677994,0.00052279234,0.0,0.0,-0.001,0
13580000,0.10807838,0.12687701,0.0005398989,0.0,0.0,-0.001,0
13604000,0.10766168,0.1266699,0.0006008148,0.0,0.0,-0.001,0
13620000,0.10755986,0.12665264,0.00052529573,0.0,0.0,-0.001,0
13644000,0.10731863,0.1266849,0.0005348921,0.0,0.0,-0.001,0
13664000,0.1071209,0.12665872,0.0005298853,0.0,0.0,-0.001,0
13680000,0.10701507,0.12672871,0.00048565865,0.0,0.0,-0.001,0
13700000,0.10689583,0.12670124,0.0005540848,0.0,0.0,-0.001,0
13720000,0.106927395,0.12682281,0.00047022104,0.0,0.0,-0.001,0
13740000,0.106839955,0.12677786,0.0004864931,0.0,0.0,-0.001,0
13764000,0.106946826,0.12675965,0.00047188997,0.0,0.0,-0.001,0
13784000,0.10698676,0.12675723,0.0004685521,0.0,0.0,-0.001,0
13800000,0.107176155,0.12667866,0.00045520067,0.0,0.0,-0.001,0
13820000,0.1073301,0.12647288,0.0003926158,0.0,0.0,-0.001,0
13840000,0.10732016,0.12653086,0.0004568696,0.0,0.0,-0.001,0
13864000,0.10712687,0.12651342,0.00045228004,0.0,0.0,-0.001,0
13884000,0.10712749,0.12641212,0.00045645237,0.0,0.0,-0.001,0
13900000,0.10732645,0.12633358,0.0004005432,0.0,0.0,-0.001,0
13924000,0.10762454,0.12632057,0.00044977665,0.0,0.0,-0.001,0
13940000,0.10754043,0.12631778,0.00047898293,0.0,0.0,-0.001,0
13964000,0.107333615,0.12630637,0.00033169985,0.0,0.0,-0.001,0
13980000,0.107441075,0.1262387,0.00036549568,0.0,0.0,-0.001,0
14004000,0.10746391,0.12590347,0.0003901124,0.0,0.0,-0.001,0
14020000,0.10718678,0.126056,0.0003759265,0.0,0.0,-0.001,0
14044000,0.10701103,0.12597749,0.00036633015,0.0,0.0,-0.001,0
14060000,0.10729858,0.12601006,0.00043851137,0.0,0.0,-0.001,0
14084000,0.10717338,0.12561977,0.0004426837,0.0,0.0,-0.001,0
14100000,0.107244454,0.12564848,0.00044894218,0.0,0.0,-0.001,0
14124000,0.10703232,0.12566495,0.00048148632,0.0,0.0,-0.001,0
14140000,0.094331905,0.13170008,0.00050902367,0.0,0.0,-0.012178568,0
14164000,0.092585705,0.13231519,0.000572443,0.0,0.0,-0.015347586,0
14184000,0.09149594,0.1325989,0.0005632639,0.0,0.0,-0.018502954,0
14204000,0.09192203,0.13304605,0.0006066561,0.0,0.0,-0.020721264,0
14224000,0.092843115,0.13250871,0.0005415678,0.0,0.0,-0.024120815,0
14244000,0.09329596,0.13252407,0.0005899668,0.0,0.0,-0.026472703,0
14260000,0.094175845,0.13261214,0.0006546378,0.0,0.0,-0.028836654,0
14280000,0.09567459,0.13249,0.00057035685,0.0,0.0,-0.032444194,0
14300000,0.09639688,0.13206805,0.00060915947,0.0,0.0,-0.034883305,0
14324000,0.097345084,0.13034081,0.0006233454,0.0,0.0,-0.0386498,0
14344000,0.09926541,0.13122973,0.0005515814,0.0,0.0,-0.042542282,0
14364000,0.09948608,0.13070817,0.00059205294,0.0,0.0,-0.045166317,0
14380000,0.10098252,0.1292296,0.00055783987,0.0,0.0,-0.04786955,0
14400000,0.10044424,0.12830454,0.0005027652,0.0,0.0,-0.05211173,0
14424000,0.09989563,0.12952738,0.0005015135,0.0,0.0,-0.056344185,0
14444000,0.09939519,0.12891749,0.00050777197,0.0,0.0,-0.05926914,0
14464000,0.10126119,0.13098526,0.00051862,0.0,0.0,-0.06375976,0
14484000,0.1022703,0.13048887,0.00046646595,0.0,0.0,-0.06680721,0
14500000,0.10043377,0.13037513,0.0005094409,0.0,0.0,-0.06990448,0
14524000,0.10112752,0.13199672,0.00049483776,0.0,0.0,-0.07466261,0
14544000,0.10059465,0.13238345,0.00047147274,0.0,0.0,-0.07951454,0
14560000,0.10009374,0.13056949,0.00048941374,0.0,0.0,-0.08277037,0
14580000,0.10047273,0.13147706,0.00054615736,0.0,0.0,-0.086064346,0
14604000,0.101357,0.13206436,0.0005119443,0.0,0.0,-0.0910415,0
14620000,0.10425859,0.13192809,0.00054115057,0.0,0.0,-0.094433896,0
14644000,0.10759474,0.13172401,0.0004531145,0.0,0.0,-0.099566616,0
14660000,0.10726042,0.12976417,0.00047314167,0.0,0.0,-0.103009135,0
14684000,0.10681245,0.1269325,0.00046813488,0.0,0.0,-0.10839677,0
14700000,0.10566409,0.12615919,0.00043058395,0.0,0.0,-0.11208382,0
14720000,0.10675353,0.123850435,0.00046563148,0.0,0.0,-0.11772484,0
14740000,0.10795932,0.12203003,0.00044476986,0.0,0.0,-0.12149602,0
14764000,0.107278936,0.12393984,0.00045770407,0.0,0.0,-0.12731296,0
14780000,0.10826398,0.12146393,0.00050359964,0.0,0.0,-0.13115898,0
14804000,0.11003219,0.12325863,0.00042641163,0.0,0.0,-0.1370254,0
14820000,0.11040288,0.12305535,0.00046020746,0.0,0.0,-0.14100401,0
14844000,0.110535726,0.12247103,0.0005040169,0.0,0.0,-0.1470806,0
14860000,0.10875181,0.1238951,0.0004956722,0.0,0.0,-0.15124111,0
14884000,0.10825979,0.12203162,0.0005736947,0.0,0.0,-0.15756905,0
14904000,0.108435534,0.12223621,0.00050234795,0.0,0.0,-0.16398188,0
14920000,0.108405076,0.122209564,0.0004698038,0.0,0.0,-0.16836324,0
14940000,0.10816288,0.122126,0.0005144477,0.0,0.0,-0.17275104,0
14964000,0.108106665,0.12214186,0.0005503297,0.0,0.0,-0.17944553,0
14980000,0.10820878,0.122120745,0.00065630674,0.0,0.0,-0.18399331,0
15004000,0.108256534,0.12216344,0.00059872866,0.0,0.0,-0.19087139,0
15020000,0.11034413,0.12126359,0.00052654743,0.0,0.0,-0.19552024,0
15044000,0.11393907,0.12215608,0.0004172325,0.0,0.0,-0.20252384,0
15064000,0.11721537,0.12162356,0.00041472912,0.0,0.0,-0.20969898,0
15084000,0.11749621,0.12103052,0.0004172325,0.0,0.0,-0.21450984,0
15100000,0.118727125,0.12078851,0.0003617406,0.0,0.0,-0.21931505,0
15124000,0.12115804,0.120682724,0.00033044815,0.0,0.0,-0.22667943,0
15144000,0.12221088,0.118826196,0.00035005808,0.0,0.0,-0.23409635,0
15164000,0.12211856,0.118784115,0.00028413534,0.0,0.0,-0.23914285,0
15180000,0.12269764,0.11790572,0.00032794476,0.0,0.0,-0.2442717,0
15204000,0.123143464,0.11815186,0.00036507845,0.0,0.0,-0.2518822,0
15220000,0.12542474,0.119232744,0.00035214424,0.0,0.0,-0.25713408,0
15244000,0.12545717,0.1202249,0.00036758184,0.0,0.0,-0.26505587,0
15260000,0.12661551,0.12085155,0.00038260221,0.0,0.0,-0.27037105,0
15284000,0.12572978,0.12041628,0.00032877922,0.0,0.0,-0.27849278,0
15304000,0.1257793,0.12076749,0.00039678812,0.0,0.0,-0.2866528,0
15320000,0.12505385,0.12077071,0.00036007166,0.0,0.0,-0.29222786,0
15340000,0.12581374,0.119786926,0.00037300587,0.0,0.0,-0.29773548,0
15364000,0.1258808,0.12053314,0.00032252073,0.0,0.0,-0.30621853,0
15384000,0.12592453,0.12123719,0.00038927794,0.0,0.0,-0.31479207,0
15400000,0.12732193,0.12180875,0.00036758184,0.0,0.0,-0.32061225,0
15420000,0.12480062,0.12008844,0.00041890144,0.0,0.0,-0.32637987,0
15444000,0.12419569,0.12008314,0.00044935942,0.0,0.0,-0.32813206,0
15460000,0.124517426,0.11936709,0.0004351735,0.0,0.0,-0.33048669,0
15480000,0.12316789,0.12037727,0.00044476986,0.0,0.0,-0.33210045,0
15504000,0.122654215,0.119051024,0.00043016672,0.0,0.0,-0.336208,0
15524000,0.12337929,0.11751246,0.0005069375,0.0,0.0,-0.3361598,0
15540000,0.123908155,0.11611755,0.00043141842,0.0,0.0,-0.33867326,0
15564000,0.12484394,0.11406565,0.00048398972,0.0,0.0,-0.3404486,0
15580000,0.12650879,0.11274624,0.00043183565,0.0,0.0,-0.3429694,0
15604000,0.123712,0.109369665,0.0004172325,0.0,0.0,-0.344788,0
15624000,0.12319668,0.108369574,0.0003412962,0.0,0.0,-0.34916437,0
15644000,0.12341658,0.107164524,0.00045019388,0.0,0.0,-0.34918827,0
15664000,0.12250334,0.109182015,0.0003604889,0.0,0.0,-0.35346457,0
15684000,0.121980436,0.10968535,0.00042015314,0.0,0.0,-0.35364679,0
15704000,0.12112424,0.11020562,0.00039428473,0.0,0.0,-0.3580608,0
15724000,0.121441334,0.10917508,0.00041556358,0.0,0.0,-0.35823116,0
15740000,0.12184653,0.10783341,0.00041097403,0.0,0.0,-0.3609615,0
15764000,0.122021176,0.10799892,0.00038802624,0.0,0.0,-0.3628372,0
15784000,0.12310041,0.10938099,0.0003425479,0.0,0.0,-0.3671974,0
15804000,0.12233911,0.11172082,0.0003963709,0.0,0.0,-0.36743793,0
15824000,0.12261232,0.11170138,0.00035631657,0.0,0.0,-0.37175244,0
15844000,0.123749636,0.111573584,0.00036340952,0.0,0.0,-0.3719539,0
15860000,0.124832995,0.10971992,0.00038176775,0.0,0.0,-0.37495986,0
15884000,0.12377351,0.109949954,0.00031918287,0.0,0.0,-0.3768207,0
15904000,0.12409465,0.11043496,0.00032252073,0.0,0.0,-0.38143218,0
15924000,0.122889586,0.10860348,0.00031751394,0.0,0.0,-0.3817061,0
15944000,0.12206341,0.10697773,0.00033003092,0.0,0.0,-0.38650122,0
15964000,0.12158478,0.10715447,0.00029581785,0.0,0.0,-0.3869071,0
15984000,0.123336196,0.106521785,0.00034338236,0.0,0.0,-0.3917635,0
16000000,0.12267432,0.10779807,0.0003387928,0.0,0.0,-0.39212504,0
16020000,0.121538356,0.107988596,0.00029289722,0.0,0.0,-0.39536494,0
16044000,0.122627385,0.107098974,0.00031542778,0.0,0.0,-0.39735776,0
16064000,0.12143768,0.10810527,0.00029540062,0.0,0.0,-0.40218294,0
16080000,0.12173037,0.108773135,0.00037133694,0.0,0.0,-0.40266132,0
16104000,0.12316865,0.109441705,0.00036633015,0.0,0.0,-0.40742958,0
16124000,0.12210353,0.10799047,0.00038802624,0.0,0.0,-0.40789875,0
16140000,0.12219317,0.10685007,0.0003963709,0.0,0.0,-0.41144848,0
16164000,0.12155368,0.108956665,0.00037926435,0.0,0.0,-0.413464,0
16180000,0.12248524,0.10734608,0.0003784299,0.0,0.0,-0.41695848,0
16204000,0.12380379,0.1084992,0.00047022104,0.0,0.0,-0.4190517,0
16220000,0.12361152,0.1074489,0.0004760623,0.0,0.0,-0.42251736,0
16244000,0.12258836,0.109273404,0.00048732758,0.0,0.0,-0.42450434,0
16264000,0.12496348,0.11124767,0.00037884712,0.0,0.0,-0.4296006,0
16284000,0.12495223,0.11192234,0.00040096045,0.0,0.0,-0.43016356,0
16304000,0.12486604,0.11249231,0.000369668,0.0,0.0,-0.4352754,0
16324000,0.12612577,0.11158007,0.00043851137,0.0,0.0,-0.43591157,0
16344000,0.12523948,0.109929785,0.00037133694,0.0,0.0,-0.4411486,0
16364000,0.12585166,0.10992229,0.000346303,0.0,0.0,-0.4419499,0
16384000,0.12556733,0.110313945,0.00031751394,0.0,0.0,-0.44722003,0
16404000,0.12557878,0.11047607,0.0003041625,0.0,0.0,-0.4479519,0
16424000,0.1271922,0.11103668,0.00028204918,0.0,0.0,-0.4532672,0
16444000,0.12684399,0.11124462,0.0002707839,0.0,0.0,-0.45410782,0
16464000,0.1260454,0.111242875,0.00030207634,0.0,0.0,-0.45949075,0
16484000,0.12572901,0.112589754,0.00025326014,0.0,0.0,-0.4603163,0
16504000,0.12405527,0.112299606,0.0003492236,0.0,0.0,-0.46572155,0
16520000,0.1254383,0.112066254,0.00034087896,0.0,0.0,-0.46664536,0
16540000,0.12551314,0.1129187,0.00036132336,0.0,0.0,-0.47084907,0
16564000,0.12479986,0.11218797,0.0003926158,0.0,0.0,-0.47308338,0
16580000,0.1242428,0.11350178,0.0003759265,0.0,0.0,-0.4772738,0
16604000,0.12534183,0.11317626,0.0003963709,0.0,0.0,-0.47956374,0
16624000,0.12511109,0.11224039,0.00037133694,0.0,0.0,-0.48502067,0
16644000,0.12606214,0.11363918,0.00036257505,0.0,0.0,-0.48586974,0
16660000,0.12630603,0.11227903,0.00032502413,0.0,0.0,-0.4902348,0
16684000,0.12554556,0.11287966,0.00029748678,0.0,0.0,-0.4924461,0
16700000,0.1262102,0.11215682,0.00035881996,0.0,0.0,-0.4968226,0
16720000,0.12756366,0.11257718,0.0003196001,0.0,0.0,-0.4989974,0
16740000,0.12617785,0.1134222,0.0003529787,0.0,0.0,-0.5034645,0
16760000,0.12867188,0.11317078,0.0003091693,0.0,0.0,-0.50572896,0
16780000,0.1295401,0.11184802,0.00025492907,0.0,0.0,-0.51027465,0
16804000,0.12882918,0.11102457,0.00026327372,0.0,0.0,-0.51264894,0
16824000,0.12789723,0.113194786,0.00028538704,0.0,0.0,-0.5184893,0
16840000,0.12786247,0.11339557,0.00032293797,0.0,0.0,-0.5196009,0
16860000,0.12882516,0.11456156,0.00031083822,0.0,0.0,-0.52422607,0
16884000,0.1288026,0.11519319,0.0002616048,0.0,0.0,-0.5266606,0
16900000,0.12773672,0.11548056,0.0003246069,0.0,0.0,-0.53128684,0
16920000,0.12828548,0.114392,0.00032252073,0.0,0.0,-0.5336449,0
16940000,0.12965146,0.11300059,0.0003258586,0.0,0.0,-0.53843135,0
16960000,0.12924118,0.11367165,0.00034046173,0.0,0.0,-0.54085547,0
16980000,0.13025571,0.11308431,0.00038594007,0.0,0.0,-0.5456662,0
17000000,0.13230205,0.112508334,0.0003387928,0.0,0.0,-0.548181,0
17020000,0.13182232,0.11352018,0.0003066659,0.0,0.0,-0.5529808,0
17040000,0.1311163,0.115200296,0.00036132336,0.0,0.0,-0.55542445,0
17064000,0.12972774,0.11509505,0.0003425479,0.0,0.0,-0.5614637,0
17084000,0.1282844,0.11306226,0.0003592372,0.0,0.0,-0.5627294,0
17100000,0.12867483,0.11185636,0.00036758184,0.0,0.0,-0.5677278,0
17120000,0.12946332,0.11174889,0.00034421682,0.0,0.0,-0.5701443,0
17140000,0.13009024,0.11266543,0.00039428473,0.0,0.0,-0.6007503,0
17160000,0.13258232,0.11275831,0.00034171343,0.0,0.0,-0.6032202,0
17180000,0.1315855,0.112338506,0.00035631657,0.0,0.0,-0.60829526,0
17200000,0.13252598,0.11363136,0.00031918287,0.0,0.0,-0.61085284,0
17220000,0.13228358,0.11342208,0.00034546852,0.0,0.0,-0.6161235,0
17244000,0.13275973,0.111513175,0.0003271103,0.0,0.0,-0.6186783,0
17260000,0.13268311,0.11141617,0.000351727,0.0,0.0,-0.6239214,0
17284000,0.13212481,0.112176456,0.00026911497,0.0,0.0,-0.6264552,0
17300000,0.13327867,0.111762024,0.0002770424,0.0,0.0,-0.6317737,0
17324000,0.13171446,0.11076794,0.0003079176,0.0,0.0,-0.6344155,0
17340000,0.13218391,0.109658904,0.0002862215,0.0,0.0,-0.639836,0
17364000,0.13129348,0.11040258,0.0003233552,0.0,0.0,-0.64235175,0
17384000,0.1312043,0.11186567,0.0002616048,0.0,0.0,-0.6487847,0
17404000,0.13184343,0.11264934,0.00030624866,0.0,0.0,-0.6504586,0
17424000,0.13022664,0.11259488,0.00029248,0.0,0.0,-0.6569156,0
17444000,0.13026053,0.11226503,0.00033044815,0.0,0.0,-0.6584537,0
17460000,0.12901561,0.11172846,0.00027912855,0.0,0.0,-0.6641143,0
17484000,0.12885311,0.111719064,0.00027537346,0.0,0.0,-0.6666183,0
17500000,0.12954435,0.11122896,0.00027912855,0.0,0.0,-0.6722029,0
17524000,0.12953174,0.10878912,0.00019943714,0.0,0.0,-0.67472273,0
17544000,0.12657677,0.10876533,0.00026661158,0.0,0.0,-0.68101615,0
17564000,0.12277688,0.11003829,0.00029540062,0.0,0.0,-0.6823554,0
17580000,0.11953767,0.112189576,0.00019901991,0.0,0.0,-0.68755573,0
17600000,0.11135327,0.11048484,0.00025951862,0.0,0.0,-0.6891159,0
17620000,0.10205911,0.11035101,0.00016230345,0.0,0.0,-0.6940397,0
17644000,0.08394719,0.11078626,0.00020694733,0.0,0.0,-0.6952705,0
17664000,0.06510343,0.107222795,0.00022280216,0.0,0.0,-0.7003802,0
17680000,0.050045125,0.104730666,0.00014978647,0.0,0.0,-0.7008441,0
17704000,0.023643045,0.09652234,2.7120113e-05,0.0,0.0,-0.70568204,0
17724000,0.002226525,0.087700054,-0.000115156174,0.0,0.0,-0.7059592,0
17740000,-0.017209198,0.07684612,-0.00027620792,0.0,0.0,-0.7105658,0
17760000,-0.04342821,0.05970084,-0.00025951862,0.0,0.0,-0.71089464,0
17780000,-0.07019465,0.041240897,-0.0005812049,0.0,0.0,-0.715485,0
17804000,-0.105001315,0.011810694,-0.0007748008,0.0,0.0,-0.71568596,0
17820000,-0.13116258,-0.010854511,-0.0007593632,0.0,0.0,-0.7202654,0
17844000,-0.1716023,-0.049293496,-0.00075644255,0.0,0.0,-0.7204019,0
17860000,-0.20518117,-0.085428126,-0.00057786703,0.0,0.0,-0.72544014,0
17884000,-0.26583415,-0.1488738,-0.00011014938,0.0,0.0,-0.72602254,0
17900000,-0.30832705,-0.19743086,0.00020444393,0.0,0.0,-0.7311174,0
17920000,-0.36180106,-0.2607069,0.000888288,0.0,0.0,-0.73135084,0
17940000,-0.39879394,-0.31082714,0.0010059476,0.0,0.0,-0.7361936,0
17964000,-0.43979216,-0.3669905,0.0012404323,0.0,0.0,-0.7359493,0
17980000,-0.4600116,-0.3983253,0.0012487769,0.0,0.0,-0.7406311,0
18004000,-0.48257437,-0.4342625,0.0011569858,0.0,0.0,-0.7398354,0
18020000,-0.49022743,-0.4542634,0.000936687,0.0,0.0,-0.74423826,0
18044000,-0.49372578,-0.46887934,0.00049108267,0.0,0.0,-0.74305415,0
18064000,-0.49333626,-0.47674346,-4.2557716e-05,0.0,0.0,-0.7468839,0
18084000,-0.4815114,-0.4685204,-0.00046104193,0.0,0.0,-0.7454268,0
18104000,-0.46999526,-0.46276304,-0.001078546,0.0,0.0,-0.7489331,0
18124000,-0.45225796,-0.4470622,-0.0015308261,0.0,0.0,-0.74715173,0
18144000,-0.43375018,-0.42952093,-0.002063632,0.0,0.0,-0.75025135,0
18164000,-0.4105986,-0.40663093,-0.0022993684,0.0,0.0,-0.748153,0
18180000,-0.39437494,-0.3884243,-0.0025580525,0.0,0.0,-0.75174886,0
18200000,-0.3737715,-0.36285308,-0.0028025508,0.0,0.0,-0.7489112,0
18220000,-0.35149375,-0.33681637,-0.0028688908,0.0,0.0,-0.752551,0
18244000,-0.32837138,-0.3038964,-0.002869308,0.0,0.0,-0.74936944,0
18264000,-0.30981594,-0.2791226,-0.0029185414,0.0,0.0,-0.7523589,0
18284000,-0.2937981,-0.25543422,-0.002849698,0.0,0.0,-0.749614,0
18300000,-0.28194568,-0.23783341,-0.002749145,0.0,0.0,-0.7532394,0
18320000,-0.26895687,-0.21954994,-0.0026890635,0.0,0.0,-0.74986506,0
18344000,-0.254461,-0.20218429,-0.00263232,0.0,0.0,-0.75322956,0
18364000,-0.244248,-0.1893683,-0.002487123,0.0,0.0,-0.7504015,0
18384000,-0.23406588,-0.18076411,-0.0024445653,0.0,0.0,-0.7470176,0
18404000,-0.22532639,-0.17194568,-0.0022893548,0.0,0.0,-0.7439849,0
18424000,-0.21664786,-0.1666874,-0.0023803115,0.0,0.0,-0.73837906,0
18444000,-0.20921971,-0.1628331,-0.002359867,0.0,0.0,-0.73560566,0
18460000,-0.20478867,-0.16003731,-0.0023269057,0.0,0.0,-0.7340298,0
18480000,-0.19860469,-0.15851596,-0.002395749,0.0,0.0,-0.7274761,0
18500000,-0.19314693,-0.1564345,-0.0023531914,0.0,0.0,-0.72590524,0
18520000,-0.18895018,-0.15711257,-0.002483368,0.0,0.0,-0.7199813,0
18540000,-0.18530855,-0.15568143,-0.0024107695,0.0,0.0,-0.71848685,0
18564000,-0.1802529,-0.15340298,-0.0024912953,0.0,0.0,-0.7130528,0
18580000,-0.1781208,-0.15449351,-0.0025063157,0.0,0.0,-0.7114952,0
18604000,-0.17231515,-0.15378676,-0.0025200844,0.0,0.0,-0.7063528,0
18620000,-0.17119634,-0.15378092,-0.002621889,0.0,0.0,-0.70952857,0
18644000,-0.16881086,-0.1524959,-0.0026640296,0.0,0.0,-0.70859593,0
18660000,-0.1661793,-0.15074117,-0.0025810003,0.0,0.0,-0.71477383,0
18680000,-0.1617043,-0.15038237,-0.0026227236,0.0,0.0,-0.71359086,0
18704000,-0.15498632,-0.14819495,-0.0025672317,0.0,0.0,-0.7177913,0
18724000,-0.15126918,-0.14498687,-0.0025718212,0.0,0.0,-0.7174427,0
18740000,-0.14784111,-0.14022726,-0.0024466515,0.0,0.0,-0.7226543,0
18764000,-0.14108314,-0.13366449,-0.0024307966,0.0,0.0,-0.7198231,0
18780000,-0.13680606,-0.12797335,-0.0022893548,0.0,0.0,-0.7246007,0
18804000,-0.12841512,-0.122172,-0.0021433234,0.0,0.0,-0.7211674,0
18824000,-0.12126112,-0.11726539,-0.0021091104,0.0,0.0,-0.72290206,0
18844000,-0.117023654,-0.1132288,-0.0020719767,0.0,0.0,-0.7218,0
18860000,-0.11273703,-0.11027518,-0.0019780993,0.0,0.0,-0.72612137,0
18884000,-0.10646696,-0.10633305,-0.0018704534,0.0,0.0,-0.7220904,0
18904000,-0.0996037,-0.10144448,-0.001826644,0.0,0.0,-0.72327393,0
18924000,-0.09693612,-0.096365,-0.0017361045,0.0,0.0,-0.7220833,0
18940000,-0.09444151,-0.09214004,-0.0016505718,0.0,0.0,-0.72617835,0
18964000,-0.09021568,-0.08682485,-0.0014970303,0.0,0.0,-0.7218887,0
18984000,-0.08576566,-0.08105648,-0.0014719963,0.0,0.0,-0.7228469,0
19004000,-0.08108972,-0.07690029,-0.0013042688,0.0,0.0,-0.7215711,0
19024000,-0.083038956,-0.07324195,-0.0012696385,0.0,0.0,-0.72263974,0
19044000,-0.083754055,-0.07091969,-0.001229167,0.0,0.0,-0.72118634,0
19060000,-0.08539027,-0.071276136,-0.0012170672,0.0,0.0,-0.72489697,0
19080000,-0.087259084,-0.0689623,-0.0012458563,0.0,0.0,-0.7204524,0
19100000,-0.08542192,-0.06735276,-0.0011436343,0.0,0.0,-0.72434855,0
19124000,-0.08396709,-0.06633865,-0.0010334849,0.0,0.0,-0.72007155,0
19144000,-0.0800554,-0.06408565,-0.0011023283,0.0,0.0,-0.72107446,0
19164000,-0.07839812,-0.06308248,-0.0010268092,0.0,0.0,-0.7197282,0
19184000,-0.077228375,-0.06217131,-0.0011281967,0.0,0.0,-0.7208177,0
19204000,-0.07434524,-0.06070675,-0.0010276437,0.0,0.0,-0.71951646,0
19224000,-0.07039861,-0.05982144,-0.0010301471,0.0,0.0,-0.7206332,0
19240000,-0.06718192,-0.057385433,-0.0010042787,0.0,0.0,-0.7193072,0
19260000,-0.06280183,-0.054708853,-0.0009250045,0.0,0.0,-0.7231163,0
19284000,-0.057341315,-0.04897545,-0.000793159,0.0,0.0,-0.7189804,0
19300000,-0.052683774,-0.04633791,-0.0007222295,0.0,0.0,-0.7228015,0
19324000,-0.04732293,-0.043335047,-0.00071930885,0.0,0.0,-0.7187377,0
19340000,-0.045202717,-0.040952455,-0.0007376671,0.0,0.0,-0.72259325,0
19360000,-0.039383173,-0.038202785,-0.0006379485,0.0,0.0,-0.71846664,0
19380000,-0.036265936,-0.035656016,-0.0005966425,0.0,0.0,-0.7222887,0
19400000,-0.033543393,-0.035210926,-0.0006175041,0.0,0.0,-0.7181794,0
19420000,-0.03316763,-0.035110444,-0.00060123205,0.0,0.0,-0.7219088,0
19444000,-0.033464402,-0.034813594,-0.00057578087,0.0,0.0,-0.7177562,0
19460000,-0.033623517,-0.034341983,-0.0006350279,0.0,0.0,-0.72140694,0
19484000,-0.030433804,-0.03466558,-0.0005052686,0.0,0.0,-0.7171626,0
19504000,-0.028786862,-0.033861417,-0.00058329105,0.0,0.0,-0.71808803,0
19524000,-0.026490903,-0.03327893,-0.0005207062,0.0,0.0,-0.7166466,0
19540000,-0.02487607,-0.03319427,-0.0004259944,0.0,0.0,-0.72039145,0
19564000,-0.0248921,-0.029506307,-0.00039470196,0.0,0.0,-0.7163751,0
19584000,-0.02356377,-0.02843849,-0.0004310012,0.0,0.0,-0.71743685,0
19604000,-0.023524834,-0.028840663,-0.00039929152,0.0,0.0,-0.71614,0
19624000,-0.021989085,-0.028813325,-0.00042641163,0.0,0.0,-0.71735764,0
19640000,-0.021338953,-0.027600488,-0.00041389465,0.0,0.0,-0.7160206,0
19664000,-0.02089951,-0.025311522,-0.00033795834,0.0,0.0,-0.7172161,0
19684000,-0.020051086,-0.023498446,-0.00024867058,0.0,0.0,-0.7158639,0
19704000,-0.017539207,-0.019173458,-0.00022155046,0.0,0.0,-0.7169422,0
19724000,-0.016507844,-0.019869557,-0.00024491549,0.0,0.0,-0.71563303,0
19740000,-0.016039126,-0.018779948,-0.00018817186,0.0,0.0,-0.71934026,0
19764000,-0.015427301,-0.015987795,-0.00016522408,0.0,0.0,-0.7154215,0
19780000,-0.012557654,-0.013753515,-0.00012224913,0.0,0.0,-0.7190549,0
19804000,-0.010912577,-0.011480564,-7.8856945e-05,0.0,0.0,-0.7151488,0
19824000,-0.009969354,-0.012745939,-0.0001026392,0.0,0.0,-0.7161408,0
19840000,-0.009647968,-0.015614967,-0.00019484758,0.0,0.0,-0.71462333,0
19860000,-0.010004658,-0.01730653,-8.136034e-05,0.0,0.0,-0.71800125,0
19880000,-0.008971975,-0.019027565,-0.00019359589,0.0,0.0,-0.71379423,0
19900000,-0.008847235,-0.02078688,-0.0002065301,0.0,0.0,-0.7172775,0
19924000,-0.007909448,-0.018947447,-0.00014519691,0.0,0.0,-0.7132661,0
19940000,-0.0056587085,-0.01808858,-0.00017231703,0.0,0.0,-0.71667206,0
19964000,-0.005794164,-0.0162758,-0.00010681152,0.0,0.0,-0.7127939,0
19980000,-0.004841582,-0.0155198965,-0.00013977289,0.0,0.0,-0.71631336,0
20004000,-0.0058098184,-0.015557596,-0.00019735098,0.0,0.0,-0.7126721,0
20020000,-0.066323474,0.04244397,0.00072807074,0.0,0.0,-0.71922284,0
20040000,-0.13952659,0.11389012,0.0018950701,0.0,0.0,-0.7208418,0
20060000,-0.17728765,0.1485939,0.0026698709,0.0,0.0,-0.72772896,0
20080000,-0.21669622,0.19192171,0.0036870837,0.0,0.0,-0.72909546,0
20100000,-0.23179035,0.20684138,0.004173577,0.0,0.0,-0.7356315,0
20120000,-0.2489623,0.2277052,0.004979253,0.0,0.0,-0.73637044,0
20140000,-0.24858215,0.23107,0.0054561496,0.0,0.0,-0.7422998,0
20164000,-0.24601686,0.23321666,0.0058470964,0.0,0.0,-0.74237245,0
20180000,-0.24034426,0.22768904,0.006072402,0.0,0.0,-0.74780667,0
20204000,-0.22843179,0.22012497,0.006313145,0.0,0.0,-0.74703836,0
20224000,-0.21082328,0.2027774,0.006034851,0.0,0.0,-0.74987,0
20244000,-0.18696648,0.17486835,0.0055658817,0.0,0.0,-0.7495046,0
20264000,-0.16895553,0.15277569,0.004959643,0.0,0.0,-0.7508525,0
20284000,-0.1488812,0.12929688,0.004521966,0.0,0.0,-0.7504199,0
20304000,-0.13442132,0.11401281,0.0040296316,0.0,0.0,-0.75188196,0
20324000,-0.11691812,0.09499912,0.003574431,0.0,0.0,-0.7514052,0
20344000,-0.10795237,0.082675815,0.0031021237,0.0,0.0,-0.7529644,0
20364000,-0.098736525,0.06783203,0.0027291179,0.0,0.0,-0.75234693,0
20384000,-0.093610086,0.06440887,0.0025405288,0.0,0.0,-0.7537202,0
20404000,-0.08622035,0.057576388,0.0024024248,0.0,0.0,-0.75316906,0
20424000,-0.08457051,0.057149585,0.0023114681,0.0,0.0,-0.7546538,0
20444000,-0.079986945,0.053944957,0.0023189783,0.0,0.0,-0.754031,0
20460000,-0.078465246,0.056193553,0.002401173,0.0,0.0,-0.75761616,0
20484000,-0.07935628,0.05832684,0.0025209188,0.0,0.0,-0.7548172,0
20500000,-0.08076945,0.061611958,0.0026732087,0.0,0.0,-0.75846165,0
20524000,-0.083035916,0.06660322,0.002939403,0.0,0.0,-0.7555871,0
20544000,-0.08744262,0.07461165,0.0033224225,0.0,0.0,-0.75677335,0
20560000,-0.08807883,0.0788033,0.0035105944,0.0,0.0,-0.7561774,0
20580000,-0.08598387,0.08074418,0.0036169887,0.0,0.0,-0.75966984,0
20600000,-0.09124865,0.08731563,0.004040897,0.0,0.0,-0.75684863,0
20620000,-0.07130063,0.06775844,0.0034726262,0.0,0.0,-0.7590718,0
20644000,-0.02540513,0.024524912,0.0015057921,0.0,0.0,-0.7538625,0
20664000,0.003541354,-0.0035808235,1.335144e-05,0.0,0.0,-0.7513608,0
20684000,0.022751536,-0.02207369,-0.33308506,0.0,0.0,-0.74904513,0
20700000,-0.004382562,-0.11298365,-0.0067045093,0.0,0.0,-0.750672,0
20724000,0.0129284365,-0.123223335,-0.006937325,0.0,0.0,-0.74528986,0
20744000,0.021682203,-0.124326736,-0.006357789,0.0,0.0,-0.74488336,0
20764000,0.026020527,-0.1166347,-0.008078039,0.0,0.0,-0.7434423,0
20780000,0.027139388,-0.10445723,-0.0074534416,0.0,0.0,-0.74661535,0
20804000,0.024587797,-0.08333924,-0.006278515,0.0,0.0,-0.74338835,0
20824000,0.020190839,-0.05758312,-0.004418075,0.0,0.0,-0.7448088,0
20844000,0.015448706,-0.03278192,-0.004834056,0.0,0.0,-0.7442338,0
20864000,0.008565028,-0.004722532,-0.0016902089,0.0,0.0,-0.7459525,0
20880000,0.0026897583,0.015143774,-0.0006583929,0.0,0.0,-0.74547195,0
20900000,-0.004425264,0.03655249,-0.0017002225,0.0,0.0,-0.7484767,0
20924000,-0.015557187,0.061407395,-6.80089e-05,0.0,0.0,-0.746054,0
20944000,-0.025951866,0.08381781,0.0026727915,0.0,0.0,-0.7401435,0
20964000,-0.03284339,0.09609988,0.002377808,0.0,0.0,-0.7398957,0
20980000,-0.039173927,0.107116506,0.002099514,0.0,0.0,-0.735917,0
21004000,-0.04906727,0.11779292,0.0032398105,0.0,0.0,-0.73323876,0
21020000,-0.01927229,0.089438885,0.0023502707,0.0,0.0,-0.72717303,0
21044000,0.065522544,0.0098199025,-0.0013760328,0.0,0.0,-0.71994644,0
21060000,0.11043527,-0.033021256,-0.00285846,0.0,0.0,-0.7126623,0
21080000,0.16006652,-0.08550943,-0.0040471554,0.0,0.0,-0.7070382,0
21100000,0.18764234,-0.11741537,-0.0056242943,0.0,0.0,-0.70029,0
21120000,0.21422066,-0.1482204,-0.0065417886,0.0,0.0,-0.6963393,0
21140000,0.21885253,-0.16519892,-0.007716298,0.0,0.0,-0.6901768,0
21160000,0.22124477,-0.17867273,-0.0073220134,0.0,0.0,-0.68745255,0
21180000,0.20921013,-0.17965448,-0.007719636,0.0,0.0,-0.6814978,0
21200000,0.19421892,-0.17433889,-0.006809652,0.0,0.0,-0.6824315,0
21220000,0.17097582,-0.16029876,-0.0066565275,0.0,0.0,-0.6853507,0
21244000,0.14086744,-0.1381843,-0.005609274,0.0,0.0,-0.6907785,0
21260000,0.11928433,-0.12120254,-0.0051298738,0.0,0.0,-0.69456565,0
21280000,0.09184305,-0.09710419,-0.003520608,0.0,0.0,-0.70018494,0
21300000,0.06619909,-0.07249228,-0.0031021237,0.0,0.0,-0.7042118,0
21324000,0.035972446,-0.04131069,-0.0018420815,0.0,0.0,-0.7094594,0
21344000,0.01432896,-0.017532403,-0.00092583895,0.0,0.0,-0.7154478,0
21360000,-0.0023834584,0.0011359937,-0.00033003092,0.0,0.0,-0.71808016,0
21384000,-0.023029728,0.026063252,0.0004284978,0.0,0.0,-0.7239523,0
21404000,-0.03441187,0.04300148,0.00054198503,0.0,0.0,-0.7261054,0
21424000,0.06079726,-0.043046933,-0.0012821555,0.0,0.0,-0.7279865,0
21444000,0.14673667,-0.12044248,-0.0031355023,0.0,0.0,-0.7260864,0
21464000,0.24391428,-0.20789906,-0.00441432,0.0,0.0,-0.72703797,0
21484000,0.2975336,-0.25801784,-0.0053718686,0.0,0.0,-0.7255662,0
21500000,0.33716145,-0.29641756,-0.005683124,0.0,0.0,-0.72665226,0
21520000,0.38159183,-0.33811513,-0.0056230426,0.0,0.0,-0.72681,0
21540000,0.39218462,-0.35140148,-0.005482018,0.0,0.0,-0.7287085,0
21560000,0.40087983,-0.3616114,-0.004742682,0.0,0.0,-0.7295037,0
21580000,0.38495824,-0.349209,-0.0041276813,0.0,0.0,-0.7315761,0
21604000,0.35816237,-0.32733446,-0.003073752,0.0,0.0,-0.7323673,0
21624000,0.32925993,-0.3027808,-0.001945138,0.0,0.0,-0.73528993,0
21644000,0.2885487,-0.26633123,-0.0013977289,0.0,0.0,-0.7346649,0
21660000,0.2548924,-0.23394562,-0.00080150366,0.0,0.0,-0.73590225,0
21680000,0.21227801,-0.19247057,-0.00018942356,0.0,0.0,-0.7356684,0
21704000,0.15949187,-0.14015521,0.0021085404,0.0,0.0,-0.73637724,0
21724000,0.117030784,-0.09980981,0.0024050858,0.0,0.0,-0.73550266,0
21740000,0.086655416,-0.06762124,0.0018007406,0.0,0.0,-0.73581284,0
21760000,0.049900364,-0.031104648,0.002478303,0.0,0.0,-0.7349962,0
21780000,0.020879067,0.0011034654,0.002118235,0.0,0.0,-0.7355879,0
21800000,-0.006508062,0.028900402,0.00271581,0.0,0.0,-0.7350348,0
21820000,0.02516372,-0.00022503604,0.0023233606,0.0,0.0,-0.73323166,0
21844000,0.13286942,-0.10347317,0.003713437,0.0,0.0,-0.72622293,0
21860000,0.18837123,-0.15555479,0.004193979,0.0,0.0,-0.7226819,0
21884000,0.2529663,-0.21931785,0.0056246878,0.0,0.0,-0.71679956,0
21900000,0.28559223,-0.2524431,0.005960524,0.0,0.0,-0.71430874,0
21920000,0.31982386,-0.28899476,0.00752257,0.0,0.0,-0.71056056,0
21940000,0.3274238,-0.30458707,0.008161295,0.0,0.0,-0.7096246,0
21960000,0.33506364,-0.3180587,0.009569183,0.0,0.0,-0.70771986,0
21980000,0.3219812,-0.31102768,0.010230956,0.0,0.0,-0.7078207,0
22004000,0.29965195,-0.29460278,0.011619695,0.0,0.0,-0.7073453,0
22020000,0.27958685,-0.27933994,0.012087094,0.0,0.0,-0.7082446,0
22040000,0.2519905,-0.25346962,0.012903192,0.0,0.0,-0.70835584,0
22060000,0.21575153,-0.21949264,0.013329867,0.0,0.0,-0.70944214,0
22084000,0.17376392,-0.17861709,0.014139493,0.0,0.0,-0.7101217,0
22100000,0.14663321,-0.14746828,0.01410349,0.0,0.0,-0.7113906,0
22124000,0.103505746,-0.104102686,0.014585633,0.0,0.0,-0.7121814,0
22144000,0.07023266,-0.06795208,0.015013142,0.0,0.0,-0.7139829,0
22164000,0.04197942,-0.03819579,0.015499902,0.0,0.0,-0.71439654,0
22180000,0.020937625,-0.015283524,0.0155517515,0.0,0.0,-0.7157327,0
22204000,-0.005370206,0.012886425,0.016021013,0.0,0.0,-0.71658415,0
22224000,0.032772608,-0.025204508,0.017877765,0.0,0.0,-0.71010053,0
22244000,0.049877733,-0.04381828,0.018663397,0.0,0.0,-0.70529646,0
22260000,0.06506702,-0.06055522,0.019084811,0.0,0.0,-0.701759,0
22284000,0.08406229,-0.08093313,0.019225027,0.0,0.0,-0.6957923,0
22300000,0.09315491,-0.09085014,0.018917823,0.0,0.0,-0.69348794,0
22324000,0.10484524,-0.106025144,0.01849341,0.0,0.0,-0.6900223,0
22340000,0.10803288,-0.11323,0.018198742,0.0,0.0,-0.6892603,0
22364000,0.10853782,-0.117962256,0.017996024,0.0,0.0,-0.6877087,0
22380000,0.10498546,-0.11779982,0.017570447,0.0,0.0,-0.6881346,0
22404000,0.098429754,-0.11367024,0.017012054,0.0,0.0,-0.68783194,0
22420000,0.092620105,-0.108642735,0.016964534,0.0,0.0,-0.6889632,0
22444000,0.08118189,-0.09810846,0.016947022,0.0,0.0,-0.6895265,0
22460000,0.070366435,-0.08752978,0.016622666,0.0,0.0,-0.690904,0
22480000,0.055965357,-0.07549497,0.016293012,0.0,0.0,-0.6918861,0
22500000,0.043204986,-0.06183788,0.016106475,0.0,0.0,-0.69369185,0
22524000,0.02951589,-0.044595335,0.015678396,0.0,0.0,-0.69470614,0
22544000,0.017746914,-0.030214153,0.015306905,0.0,0.0,-0.69683397,0
22564000,0.006937082,-0.01925842,0.015231795,0.0,0.0,-0.6975795,0
22580000,-0.00015350367,-0.008461817,0.015000025,0.0,0.0,-0.69922614,0
22600000,-0.008864857,0.0029456534,0.014740147,0.0,0.0,-0.7000792,0
22620000,-0.020453097,0.014678898,0.014100246,0.0,0.0,-0.6983782,0
22640000,-0.039685976,0.03231596,0.013512293,0.0,0.0,-0.69013035,0
22664000,-0.052196395,0.045623288,0.012849814,0.0,0.0,-0.6835908,0
22684000,-0.058606397,0.04933752,0.012653717,0.0,0.0,-0.6792561,0
22700000,-0.06401993,0.052172143,0.0123241395,0.0,0.0,-0.6766962,0
22724000,-0.06532515,0.05118234,0.012077067,0.0,0.0,-0.67253387,0
22740000,-0.062947266,0.04990691,0.011738424,0.0,0.0,-0.67160296,0
22764000,-0.05795568,0.045449033,0.011125077,0.0,0.0,-0.66973376,0
22780000,-0.05430565,0.03775774,0.011085883,0.0,0.0,-0.6702908,0
22804000,-0.046786074,0.030343313,0.010761032,0.0,0.0,-0.6700523,0
22820000,-0.04115729,0.023639828,0.010518326,0.0,0.0,-0.6713435,0
22844000,-0.032877397,0.014192744,0.010164152,0.0,0.0,-0.6721058,0
22864000,-0.027426073,0.006815828,0.010087052,0.0,0.0,-0.6739125,0
22884000,-0.021031657,-0.00020635521,0.009932678,0.0,0.0,-0.6748878,0
22904000,-0.017304126,-0.0068292525,0.009642229,0.0,0.0,-0.67714095,0
22924000,-0.012562997,-0.010822261,0.009593831,0.0,0.0,-0.67804253,0
22944000,-0.009951393,-0.013116958,0.009508886,0.0,0.0,-0.680207,0
22964000,-0.004316569,-0.015950482,0.009314874,0.0,0.0,-0.6812273,0
22980000,-0.0029860428,-0.015972683,0.009082471,0.0,0.0,-0.68288577,0
23004000,0.0015792709,-0.016745178,0.009032765,0.0,0.0,-0.68362427,0
23024000,-0.044721555,0.027629709,0.0076685096,0.0,0.0,-0.67906076,0
23044000,-0.08166758,0.06268318,0.0068553234,0.0,0.0,-0.67378485,0
