timestamp,timestamp_sample,gps_hvel[0],gps_hvel[1],gps_vvel,gps_hpos[0],gps_hpos[1],gps_vpos,ev_hvel[0],ev_hvel[1],ev_vvel,ev_hpos[0],ev_hpos[1],ev_vpos,rng_vpos,baro_vpos,aux_hvel[0],aux_hvel[1],aux_vvel,flow[0],flow[1],terr_flow[0],terr_flow[1],heading,mag_field[0],mag_field[1],mag_field[2],gravity[0],gravity[1],gravity[2],drag[0],drag[1],airspeed,beta,hagl,hagl_rate
3228000,3148000,0.0,0.0,0.0,0.0,0.0,0.0,0.0,0.0,0.0,0.0,0.0,0.0,0.0,0.0,0.0,0.0,nan,0.0,0.0,0.0,0.0,0.0,0.0,0.0,0.0,1.9798402,1.9799258,1.0009699,0.0,0.0,0.0,0.0,0.0,0.0
3236000,3156000,0.0,0.0,0.0,0.0,0.0,0.0,0.0,0.0,0.0,0.0,0.0,0.0,0.0,0.0,0.0,0.0,nan,0.0,0.0,0.0,0.0,0.0,0.0,0.0,0.0,1.9824426,1.9826815,1.0009737,0.0,0.0,0.0,0.0,0.0,0.0
3244000,3164000,0.0,0.0,0.0,0.0,0.0,0.0,0.0,0.0,0.0,0.0,0.0,0.0,0.0,0.0,0.0,0.0,nan,0.0,0.0,0.0,0.0,0.0,0.0,0.0,0.0,1.9845095,1.9847625,1.0009774,0.0,0.0,0.0,0.0,0.0,0.0
3252000,3172000,0.0,0.0,0.0,0.0,0.0,0.0,0.0,0.0,0.0,0.0,0.0,0.0,0.0,0.0,0.0,0.0,nan,0.0,0.0,0.0,0.0,0.0,0.0,0.0,0.0,1.9884372,1.9881634,1.0167212,0.0,0.0,0.0,0.0,0.0,0.0
3260000,3180000,0.0,0.0,0.0,0.0,0.0,0.0,0.0,0.0,0.0,0.0,0.0,0.0,0.0,0.0,0.0,0.0,nan,0.0,0.0,0.0,0.0,0.0,0.0,0.0,0.0,1.9895682,1.9894326,1.0145798,0.0,0.0,0.0,0.0,0.0,0.0
3268000,3188000,0.0,0.0,0.0,0.0,0.0,0.0,0.0,0.0,0.0,0.0,0.0,0.0,0.0,0.0,0.0,0.0,nan,0.0,0.0,0.0,0.0,0.0,0.0,0.0,0.0,1.9911712,1.9911366,1.0129061,0.0,0.0,0.0,0.0,0.0,0.0
3276000,3196000,0.0,0.0,0.0,0.0,0.0,0.0,0.0,0.0,0.0,0.0,0.0,0.0,0.0,0.0,0.0,0.0,nan,0.0,0.0,0.0,0.0,0.0,0.0,0.0,0.0,1.9931648,1.9932072,1.0115703,0.0,0.0,0.0,0.0,0.0,0.0
3284000,3204000,0.0,0.0,0.0,0.0,0.0,0.0,0.0,0.0,0.0,0.0,0.0,0.0,0.0,0.0,0.0,0.0,nan,0.0,0.0,0.0,0.0,0.0,0.0,0.0,0.0,1.9954995,1.9956017,1.0104908,0.0,0.0,0.0,0.0,0.0,0.0
3292000,3212000,0.0,0.0,0.0,0.0,0.0,0.0,0.0,0.0,0.0,0.0,0.0,0.0,0.0,0.0,0.0,0.0,nan,0.0,0.0,0.0,0.0,0.0,0.0,0.0,0.0,1.9981425,1.9982919,1.0096135,0.0,0.0,0.0,0.0,0.0,0.0
3300000,3220000,0.0,0.0,0.0,0.0,0.0,0.0,0.0,0.0,0.0,0.0,0.0,0.0,0.0,0.0,0.0,0.0,nan,0.0,0.0,0.0,0.0,0.0,0.0,0.0,0.0,2.001072,2.0012565,1.0089016,0.0,0.0,0.0,0.0,0.0,0.0
3308000,3228000,0.0,0.0,0.0,0.0,0.0,0.0,0.0,0.0,0.0,0.0,0.0,0.0,0.0,0.0,0.0,0.0,nan,0.0,0.0,0.0,0.0,0.0,0.0,0.0,0.0,2.004269,2.0044808,1.0083276,0.0,0.0,0.0,0.0,0.0,0.0
3316000,3236000,0.0,0.0,0.0,0.0,0.0,0.0,0.0,0.0,0.0,0.0,0.0,0.0,0.0,0.0,0.0,0.0,nan,0.0,0.0,0.0,0.0,0.0,0.0,0.0,0.0,2.0077193,2.0079527,1.0078695,0.0,0.0,0.0,0.0,0.0,0.0
3324000,3244000,0.0,0.0,0.0,0.0,0.0,0.0,0.0,0.0,0.0,0.0,0.0,0.0,0.0,0.0,0.0,0.0,nan,0.0,0.0,0.0,0.0,0.0,0.0,0.0,0.0,2.011411,2.0116622,1.0075086,0.0,0.0,0.0,0.0,0.0,0.0
3332000,3252000,0.0,0.0,0.0,0.0,0.0,0.0,0.0,0.0,0.0,0.0,0.0,0.0,0.0,0.0,0.0,0.0,nan,0.0,0.0,0.0,0.0,0.0,0.0,0.0,0.0,2.015335,2.0156004,1.0072297,0.0,0.0,0.0,0.0,0.0,0.0
3340000,3260000,0.0,0.0,0.0,0.0,0.0,0.0,0.0,0.0,0.0,0.0,0.0,0.0,0.0,0.0,0.0,0.0,nan,0.0,0.0,0.0,0.0,0.0,0.0,0.0,0.0,2.0194845,2.0197604,1.0070182,0.0,0.0,0.0,0.0,0.0,0.0
3348000,3268000,0.0,0.0,0.0,0.0,0.0,0.0,0.0,0.0,0.0,0.0,0.0,0.0,0.0,0.0,0.0,0.0,nan,0.0,0.0,0.0,0.0,0.0,0.0,0.0,0.0,2.0238519,2.0241346,1.0068632,0.0,0.0,0.0,0.0,0.0,0.0
3356000,3276000,0.0,0.0,0.0,0.0,0.0,0.0,0.0,0.0,0.0,0.0,0.0,0.0,0.0,0.0,0.0,0.0,nan,0.0,0.0,0.0,0.0,0.0,0.0,0.0,0.0,2.0284314,2.028718,1.006753,0.0,0.0,0.0,0.0,0.0,0.0
3364000,3284000,0.0,0.0,0.0,0.0,0.0,0.0,0.0,0.0,0.0,0.0,0.0,0.0,0.0,0.0,0.0,0.0,nan,0.0,0.0,0.0,0.0,0.0,0.0,0.0,0.0,2.0332181,2.0335064,1.006677,0.0,0.0,0.0,0.0,0.0,0.0
3372000,3292000,0.0,0.0,0.0,0.0,0.0,0.0,0.0,0.0,0.0,0.0,0.0,0.0,0.0,0.0,0.0,0.0,nan,0.0,0.0,0.0,0.0,0.0,0.0,0.0,0.0,2.0382085,2.0384943,1.0066302,0.0,0.0,0.0,0.0,0.0,0.0
3380000,3300000,0.0,0.0,0.0,0.0,0.0,0.0,0.0,0.0,0.0,0.0,0.0,0.0,0.0,0.0,0.0,0.0,nan,0.0,0.0,0.0,0.0,0.0,0.0,0.0,0.0,2.0433977,2.0436797,1.0066026,0.0,0.0,0.0,0.0,0.0,0.0
3388000,3308000,0.0,0.0,0.0,0.0,0.0,0.0,0.0,0.0,0.0,0.0,0.0,0.0,0.0,0.0,0.0,0.0,nan,0.0,0.0,0.0,0.0,0.0,0.0,0.0,0.0,2.0487835,2.0490606,1.0065888,0.0,0.0,0.0,0.0,0.0,0.0
3396000,3316000,0.0,0.0,0.0,0.0,0.0,0.0,0.0,0.0,0.0,0.0,0.0,0.0,0.0,0.0,0.0,0.0,nan,0.0,0.0,0.0,0.0,0.0,0.0,0.0,0.0,2.0543642,2.0546331,1.0065857,0.0,0.0,0.0,0.0,0.0,0.0
3404000,3324000,0.0,0.0,0.0,0.0,0.0,0.0,0.0,0.0,0.0,0.0,0.0,0.0,0.0,0.0,0.0,0.0,nan,0.0,0.0,0.0,0.0,0.0,0.0,0.0,0.0,2.060138,2.0603964,1.0065881,0.0,0.0,0.0,0.0,0.0,0.0
3412000,3332000,0.122307636,0.12225962,0.20470233,101.00019,101.000206,101.0,0.0,0.0,0.0,0.0,0.0,0.0,0.0,0.0,0.0,0.0,nan,0.0,0.0,0.0,0.0,0.0,0.0,0.0,0.0,2.066103,2.0663505,1.0065935,0.0,0.0,0.0,0.0,0.0,0.0
3420000,3340000,0.122307636,0.12225962,0.20470233,101.00019,101.000206,101.0,0.0,0.0,0.0,0.0,0.0,0.0,0.0,0.0,0.0,0.0,nan,0.0,0.0,0.0,0.0,0.0,0.0,0.0,0.0,2.072257,2.0724916,1.0066,0.0,0.0,0.0,0.0,0.0,0.0
3428000,3348000,0.122307636,0.12225962,0.20470233,101.00019,101.000206,101.0,0.0,0.0,0.0,0.0,0.0,0.0,0.0,0.0,0.0,0.0,nan,0.0,0.0,0.0,0.0,0.0,0.0,0.0,0.0,2.078603,2.078823,1.0066055,0.0,0.0,0.0,0.0,0.0,0.0
3436000,3356000,0.122307636,0.12225962,0.20470233,101.00019,101.000206,101.0,0.0,0.0,0.0,0.0,0.0,0.0,0.0,0.0,0.0,0.0,nan,0.0,0.0,0.0,0.0,0.0,0.0,0.0,0.0,2.0851383,2.0853434,1.0066092,0.0,0.0,0.0,0.0,0.0,0.0
3444000,3364000,0.122307636,0.12225962,0.20470233,101.00019,101.000206,101.0,0.0,0.0,0.0,0.0,0.0,0.0,0.0,0.0,0.0,0.0,nan,0.0,0.0,0.0,0.0,0.0,0.0,0.0,0.0,2.091864,2.092052,1.0066099,0.0,0.0,0.0,0.0,0.0,0.0
3452000,3372000,0.122307636,0.12225962,0.20470233,101.00019,101.000206,101.0,0.0,0.0,0.0,0.0,0.0,0.0,0.0,0.0,0.0,0.0,nan,0.0,0.0,0.0,0.0,0.0,0.0,0.0,0.0,1.0798067,1.0797243,1.0062245,0.0,0.0,0.0,0.0,0.0,0.0
3460000,3380000,0.122307636,0.12225962,0.20470233,101.00019,101.000206,101.0,0.0,0.0,0.0,0.0,0.0,0.0,0.0,0.0,0.0,0.0,nan,0.0,0.0,0.0,0.0,0.0,0.0,0.0,0.0,1.0827098,1.082629,1.0062279,0.0,0.0,0.0,0.0,0.0,0.0
3468000,3388000,0.122307636,0.12225962,0.20470233,101.00019,101.000206,101.0,0.0,0.0,0.0,0.0,0.0,0.0,0.0,0.0,0.0,0.0,nan,0.0,0.0,0.0,0.0,0.10012654,0.0,0.0,0.0,1.0857937,1.0857152,1.0062433,0.0,0.0,0.0,0.0,0.0,0.0
3476000,3396000,0.122307636,0.12225962,0.20470233,101.00019,101.000206,101.0,0.0,0.0,0.0,0.0,0.0,0.0,0.0,0.0,0.0,0.0,nan,0.0,0.0,0.0,0.0,0.10012654,0.0,0.0,0.0,1.0858864,1.0858079,1.0062433,0.0,0.0,0.0,0.0,0.0,0.0
3484000,3404000,0.122307636,0.12225962,0.20470233,101.00019,101.000206,101.0,0.0,0.0,0.0,0.0,0.0,0.0,0.0,0.0,0.0,0.0,nan,0.0,0.0,0.0,0.0,0.10012654,0.0,0.0,0.0,1.0861602,1.0860819,1.0062436,0.0,0.0,0.0,0.0,0.0,0.0
3492000,3412000,0.122307636,0.12225962,0.20470233,101.00019,101.000206,101.0,0.0,0.0,0.0,0.0,0.0,0.0,0.0,0.0,0.0,0.0,nan,0.0,0.0,0.0,0.0,0.10012654,0.0,0.0,0.0,1.0866153,1.0865372,1.0062442,0.0,0.0,0.0,0.0,0.0,0.0
3500000,3420000,0.122307636,0.12225962,0.20470233,101.00019,101.000206,101.0,0.0,0.0,0.0,0.0,0.0,0.0,0.0,0.0,0.0,0.0,nan,0.0,0.0,0.0,0.0,0.10012654,0.0,0.0,0.0,1.0872518,1.0871738,1.0062447,0.0,0.0,0.0,0.0,0.0,0.0
3508000,3428000,0.122307636,0.12225962,0.20470233,101.00019,101.000206,101.0,0.0,0.0,0.0,0.0,0.0,0.0,0.0,0.0,0.0,0.0,nan,0.0,0.0,0.0,0.0,0.10012654,0.0,0.0,0.0,1.0880694,1.0879917,1.0062456,0.0,0.0,0.0,0.0,0.0,0.0
3516000,3436000,0.122307636,0.12225962,0.20470233,101.00019,101.000206,101.0,0.0,0.0,0.0,0.0,0.0,0.0,0.0,0.0,0.0,0.0,nan,0.0,0.0,0.0,0.0,0.10012654,0.0,0.0,0.0,1.0890684,1.0889912,1.0062464,0.0,0.0,0.0,0.0,0.0,0.0
3524000,3444000,0.122307636,0.12225962,0.20470233,101.00019,101.000206,101.0,0.0,0.0,0.0,0.0,0.0,0.0,0.0,0.0,0.0,0.0,nan,0.0,0.0,0.0,0.0,0.10012654,0.0,0.0,0.0,1.0902488,1.0901718,1.0062476,0.0,0.0,0.0,0.0,0.0,0.0
3532000,3452000,0.122307636,0.12225962,0.20470233,101.00019,101.000206,101.0,0.0,0.0,0.0,0.0,0.0,0.0,0.0,0.0,0.0,0.0,nan,0.0,0.0,0.0,0.0,0.10012654,0.0,0.0,0.0,1.0916104,1.0915337,1.0062487,0.0,0.0,0.0,0.0,0.0,0.0
3540000,3460000,0.122307636,0.12225962,0.20470233,101.00019,101.000206,101.0,0.0,0.0,0.0,0.0,0.0,0.0,0.0,0.0,0.0,0.0,nan,0.0,0.0,0.0,0.0,0.09912663,0.0,0.0,0.0,1.0931532,1.0930772,1.00625,0.0,0.0,0.0,0.0,0.0,0.0
3548000,3468000,0.122307636,0.12225962,0.20470233,101.00019,101.000206,101.0,0.0,0.0,0.0,0.0,0.0,0.0,0.0,0.0,0.0,0.0,nan,0.0,0.0,0.0,0.0,0.09912663,0.0,0.0,0.0,1.0948772,1.0948017,1.0062518,0.0,0.0,0.0,0.0,0.0,0.0
3556000,3476000,0.122307636,0.12225962,0.20470233,101.00019,101.000206,101.0,0.0,0.0,0.0,0.0,0.0,0.0,0.0,0.0,0.0,0.0,nan,0.0,0.0,0.0,0.0,0.09912663,0.0,0.0,0.0,1.0967827,1.0967077,1.0062536,0.0,0.0,0.0,0.0,0.0,0.0
3564000,3484000,0.122307636,0.12225962,0.20470233,101.00019,101.000206,101.0,0.0,0.0,0.0,0.0,0.0,0.0,0.0,0.0,0.0,0.0,nan,0.0,0.0,0.0,0.0,0.09912663,0.0,0.0,0.0,1.0988693,1.098795,1.0062555,0.0,0.0,0.0,0.0,0.0,0.0
3572000,3492000,0.122307636,0.12225962,0.20470233,101.00019,101.000206,101.0,0.0,0.0,0.0,0.0,0.0,0.0,0.0,0.0,0.0,0.0,nan,0.0,0.0,0.0,0.0,0.09912663,0.0,0.0,0.0,1.1011373,1.1010635,1.0062579,0.0,0.0,0.0,0.0,0.0,0.0
3580000,3500000,0.122307636,0.12225962,0.20470233,101.00019,101.000206,101.0,0.0,0.0,0.0,0.0,0.0,0.0,0.0,0.0,0.0,0.0,nan,0.0,0.0,0.0,0.0,0.09912663,0.0,0.0,0.0,1.1035866,1.1035135,1.0062602,0.0,0.0,0.0,0.0,0.0,0.0
3588000,3508000,0.122307636,0.12225962,0.20470233,101.00019,101.000206,101.0,0.0,0.0,0.0,0.0,0.0,0.0,0.0,0.0,0.0,0.0,nan,0.0,0.0,0.0,0.0,0.09912663,0.0,0.0,0.0,1.106217,1.1061449,1.0062625,0.0,0.0,0.0,0.0,0.0,0.0
3596000,3516000,0.122307636,0.12225962,0.20470233,101.00019,101.000206,101.0,0.0,0.0,0.0,0.0,0.0,0.0,0.0,0.0,0.0,0.0,nan,0.0,0.0,0.0,0.0,0.09912663,0.0,0.0,0.0,1.1090288,1.1089574,1.0062653,0.0,0.0,0.0,0.0,0.0,0.0
3604000,3524000,0.122307636,0.12225962,0.20470233,101.00019,101.000206,101.0,0.0,0.0,0.0,0.0,0.0,0.0,0.0,0.0,0.0,0.0,nan,0.0,0.0,0.0,0.0,0.09912663,0.0,0.0,0.0,1.1120218,1.1119515,1.0062681,0.0,0.0,0.0,0.0,0.0,0.0
3612000,3532000,0.122307636,0.12225962,0.20470233,101.00019,101.000206,101.0,0.0,0.0,0.0,0.0,0.0,0.0,0.0,0.0,0.0,0.0,nan,0.0,0.0,0.0,0.0,0.098354414,0.0,0.0,0.0,1.1151961,1.1151268,1.0062723,0.0,0.0,0.0,0.0,0.0,0.0
3620000,3540000,0.122307636,0.12225962,0.20470233,101.00019,101.000206,101.0,0.0,0.0,0.0,0.0,0.0,0.0,0.0,0.0,0.0,0.0,nan,0.0,0.0,0.0,0.0,0.098354414,0.0,0.0,0.0,1.1185517,1.1184835,1.0062753,0.0,0.0,0.0,0.0,0.0,0.0
3628000,3548000,0.122307636,0.12225962,0.20470233,101.00019,101.000206,101.0,0.0,0.0,0.0,0.0,0.0,0.0,0.0,0.0,0.0,0.0,nan,0.0,0.0,0.0,0.0,0.098354414,0.0,0.0,0.0,1.1146095,1.1145457,1.0062742,0.0,0.0,0.0,0.0,0.0,0.0
3636000,3556000,0.122307636,0.12225962,0.20470233,101.00019,101.000206,101.0,0.0,0.0,0.0,0.0,0.0,0.0,0.0,0.0,0.0,0.0,nan,0.0,0.0,0.0,0.0,0.098354414,0.0,0.0,0.0,1.1182109,1.1181486,1.0062776,0.0,0.0,0.0,0.0,0.0,0.0
3644000,3564000,0.122307636,0.12225962,0.20470233,101.00019,101.000206,101.0,0.0,0.0,0.0,0.0,0.0,0.0,0.0,0.0,0.0,0.0,nan,0.0,0.0,0.0,0.0,0.098354414,0.0,0.0,0.0,1.121993,1.1219317,1.006281,0.0,0.0,0.0,0.0,0.0,0.0
3652000,3572000,0.122307636,0.12225962,0.20470233,101.00019,101.000206,101.0,0.0,0.0,0.0,0.0,0.0,0.0,0.0,0.0,0.0,0.0,nan,0.0,0.0,0.0,0.0,0.098354414,0.0,0.0,0.0,1.1259553,1.1258954,1.0062848,0.0,0.0,0.0,0.0,0.0,0.0
3660000,3580000,0.122307636,0.12225962,0.20470233,101.00019,101.000206,101.0,0.0,0.0,0.0,0.0,0.0,0.0,0.0,0.0,0.0,0.0,nan,0.0,0.0,0.0,0.0,0.098354414,0.0,0.0,0.0,1.1228085,1.1227535,1.0062841,0.0,0.0,0.0,0.0,0.0,0.0
3668000,3588000,0.122307636,0.12225962,0.20470233,101.00019,101.000206,101.0,0.0,0.0,0.0,0.0,0.0,0.0,0.0,0.0,0.0,0.0,nan,0.0,0.0,0.0,0.0,0.098354414,0.0,0.0,0.0,1.1269894,1.126936,1.0062883,0.0,0.0,0.0,0.0,0.0,0.0
3676000,3596000,0.122307636,0.12225962,0.20470233,101.00019,101.000206,101.0,0.0,0.0,0.0,0.0,0.0,0.0,0.0,0.0,0.0,0.0,nan,0.0,0.0,0.0,0.0,0.098354414,0.0,0.0,0.0,1.1313493,1.1312973,1.0062925,0.0,0.0,0.0,0.0,0.0,0.0
3684000,3604000,0.122307636,0.12225962,0.20470233,101.00019,101.000206,101.0,0.0,0.0,0.0,0.0,0.0,0.0,0.0,0.0,0.0,0.0,nan,0.0,0.0,0.0,0.0,0.09775321,0.0,0.0,0.0,1.135888,1.1358379,1.0062977,0.0,0.0,0.0,0.0,0.0,0.0
3692000,3612000,0.122307636,0.12225962,0.20470233,101.00019,101.000206,101.0,0.0,0.0,0.0,0.0,0.0,0.0,0.0,0.0,0.0,0.0,nan,0.0,0.0,0.0,0.0,0.09775321,0.0,0.0,0.0,1.140606,1.1405574,1.0063022,0.0,0.0,0.0,0.0,0.0,0.0
3700000,3620000,0.122307636,0.12225962,0.20470233,101.00019,101.000206,101.0,0.0,0.0,0.0,0.0,0.0,0.0,0.0,0.0,0.0,0.0,nan,0.0,0.0,0.0,0.0,0.09775321,0.0,0.0,0.0,1.145503,1.1454561,1.0063069,0.0,0.0,0.0,0.0,0.0,0.0
3708000,3628000,0.122307636,0.12225962,0.20470233,101.00019,101.000206,101.0,0.0,0.0,0.0,0.0,0.0,0.0,0.0,0.0,0.0,0.0,nan,0.0,0.0,0.0,0.0,0.09775321,0.0,0.0,0.0,1.1505786,1.150534,1.0063118,0.0,0.0,0.0,0.0,0.0,0.0
3716000,3636000,0.122307636,0.12225962,0.20470233,101.00019,101.000206,101.0,0.0,0.0,0.0,0.0,0.0,0.0,0.0,0.0,0.0,0.0,nan,0.0,0.0,0.0,0.0,0.09775321,0.0,0.0,0.0,1.1558335,1.1557908,1.0063169,0.0,0.0,0.0,0.0,0.0,0.0
3724000,3644000,0.122307636,0.12225962,0.20470233,101.00019,101.000206,101.0,0.0,0.0,0.0,0.0,0.0,0.0,0.0,0.0,0.0,0.0,nan,0.0,0.0,0.0,0.0,0.09775321,0.0,0.0,0.0,1.1612673,1.1612267,1.0063224,0.0,0.0,0.0,0.0,0.0,0.0
3732000,3652000,0.122307636,0.12225962,0.20470233,101.00019,101.000206,101.0,0.0,0.0,0.0,0.0,0.0,0.0,0.0,0.0,0.0,0.0,nan,0.0,0.0,0.0,0.0,0.09775321,0.0,0.0,0.0,1.1668799,1.1668415,1.0063279,0.0,0.0,0.0,0.0,0.0,0.0
3740000,3660000,0.122307636,0.12225962,0.20470233,101.00019,101.000206,101.0,0.0,0.0,0.0,0.0,0.0,0.0,0.0,0.0,0.0,0.0,nan,0.0,0.0,0.0,0.0,0.09775321,0.0,0.0,0.0,1.1726717,1.1726356,1.0063336,0.0,0.0,0.0,0.0,0.0,0.0
3748000,3668000,0.122307636,0.12225962,0.20470233,101.00019,101.000206,101.0,0.0,0.0,0.0,0.0,0.0,0.0,0.0,0.0,0.0,0.0,nan,0.0,0.0,0.0,0.0,0.09775321,0.0,0.0,0.0,1.1786423,1.1786088,1.0063393,0.0,0.0,0.0,0.0,0.0,0.0
3756000,3676000,0.122307636,0.12225962,0.20470233,101.00019,101.000206,101.0,0.0,0.0,0.0,0.0,0.0,0.0,0.0,0.0,0.0,0.0,nan,0.0,0.0,0.0,0.0,0.09728435,0.0,0.0,0.0,1.1847919,1.184761,1.0063423,0.0,0.0,0.0,0.0,0.0,0.0
3764000,3684000,0.122307636,0.12225962,0.20470233,101.00019,101.000206,101.0,0.0,0.0,0.0,0.0,0.0,0.0,0.0,0.0,0.0,0.0,nan,0.0,0.0,0.0,0.0,0.09728435,0.0,0.0,0.0,1.1911206,1.1910923,1.0063484,0.0,0.0,0.0,0.0,0.0,0.0
3772000,3692000,0.122307636,0.12225962,0.20470233,101.00019,101.000206,101.0,0.0,0.0,0.0,0.0,0.0,0.0,0.0,0.0,0.0,0.0,nan,0.0,0.0,0.0,0.0,0.09728435,0.0,0.0,0.0,1.1976283,1.1976025,1.0063548,0.0,0.0,0.0,0.0,0.0,0.0
3780000,3700000,0.122307636,0.12225962,0.20470233,101.00019,101.000206,101.0,0.0,0.0,0.0,0.0,0.0,0.0,0.0,0.0,0.0,0.0,nan,0.0,0.0,0.0,0.0,0.09728435,0.0,0.0,0.0,1.204315,1.2042918,1.0063615,0.0,0.0,0.0,0.0,0.0,0.0
3788000,3708000,0.122307636,0.12225962,0.20470233,101.00019,101.000206,101.0,0.0,0.0,0.0,0.0,0.0,0.0,0.0,0.0,0.0,0.0,nan,0.0,0.0,0.0,0.0,0.09728435,0.0,0.0,0.0,1.2111806,1.2111601,1.0063684,0.0,0.0,0.0,0.0,0.0,0.0
3796000,3716000,0.122307636,0.12225962,0.20470233,101.00019,101.000206,101.0,0.0,0.0,0.0,0.0,0.0,0.0,0.0,0.0,0.0,0.0,nan,0.0,0.0,0.0,0.0,0.09728435,0.0,0.0,0.0,1.218225,1.2182075,1.0063757,0.0,0.0,0.0,0.0,0.0,0.0
3804000,3724000,0.122307636,0.12225962,0.20470233,101.00019,101.000206,101.0,0.0,0.0,0.0,0.0,0.0,0.0,0.0,0.0,0.0,0.0,nan,0.0,0.0,0.0,0.0,0.09728435,0.0,0.0,0.0,1.2254484,1.2254341,1.0063828,0.0,0.0,0.0,0.0,0.0,0.0
3812000,3732000,0.107842736,0.10784347,0.20385902,1.000538,1.0005381,34.333355,0.0,0.0,0.0,0.0,0.0,0.0,0.0,0.0,0.0,0.0,nan,0.0,0.0,0.0,0.0,0.09728435,0.0,0.0,0.0,1.232851,1.2328395,1.0063901,0.0,0.0,0.0,0.0,0.0,0.0
3820000,3740000,0.107842736,0.10784347,0.20385902,1.000538,1.0005381,34.333355,0.0,0.0,0.0,0.0,0.0,0.0,0.0,0.0,0.0,0.0,nan,0.0,0.0,0.0,0.0,0.09728435,0.0,0.0,0.0,1.2404329,1.240424,1.0063975,0.0,0.0,0.0,0.0,0.0,0.0
3828000,3748000,0.107842736,0.10784347,0.20385902,1.000538,1.0005381,34.333355,0.0,0.0,0.0,0.0,0.0,0.0,0.0,0.0,0.0,0.0,nan,0.0,0.0,0.0,0.0,0.09692031,0.0,0.0,0.0,1.248193,1.2481878,1.0064055,0.0,0.0,0.0,0.0,0.0,0.0
3836000,3756000,0.107842736,0.10784347,0.20385902,1.000538,1.0005381,34.333355,0.0,0.0,0.0,0.0,0.0,0.0,0.0,0.0,0.0,0.0,nan,0.0,0.0,0.0,0.0,0.09692031,0.0,0.0,0.0,1.1687775,1.1687815,1.0063485,0.0,0.0,0.0,0.0,0.0,0.0
3844000,3764000,0.107842736,0.10784347,0.20385902,1.000538,1.0005381,34.333355,0.0,0.0,0.0,0.0,0.0,0.0,0.0,0.0,0.0,0.0,nan,0.0,0.0,0.0,0.0,0.09692031,0.0,0.0,0.0,1.1751721,1.1751788,1.006355,0.0,0.0,0.0,0.0,0.0,0.0
3852000,3772000,0.107842736,0.10784347,0.20385902,1.000538,1.0005381,34.333355,0.0,0.0,0.0,0.0,0.0,0.0,0.0,0.0,0.0,0.0,nan,0.0,0.0,0.0,0.0,0.09692031,0.0,0.0,0.0,1.1817288,1.1817383,1.0063615,0.0,0.0,0.0,0.0,0.0,0.0
3860000,3780000,0.107842736,0.10784347,0.20385902,1.000538,1.0005381,34.333355,0.0,0.0,0.0,0.0,0.0,0.0,0.0,0.0,0.0,0.0,nan,0.0,0.0,0.0,0.0,0.09692031,0.0,0.0,0.0,1.1884477,1.1884599,1.0063684,0.0,0.0,0.0,0.0,0.0,0.0
3868000,3788000,0.107842736,0.10784347,0.20385902,1.000538,1.0005381,34.333355,0.0,0.0,0.0,0.0,0.0,0.0,0.0,0.0,0.0,0.0,nan,0.0,0.0,0.0,0.0,0.09692031,0.0,0.0,0.0,1.1850733,1.1850895,1.0063663,0.0,0.0,0.0,0.0,0.0,0.0
3876000,3796000,0.107842736,0.10784347,0.20385902,1.000538,1.0005381,34.333355,0.0,0.0,0.0,0.0,0.0,0.0,0.0,0.0,0.0,0.0,nan,0.0,0.0,0.0,0.0,0.09692031,0.0,0.0,0.0,1.1917748,1.1917942,1.0063732,0.0,0.0,0.0,0.0,0.0,0.0
3884000,3804000,0.107842736,0.10784347,0.20385902,1.000538,1.0005381,34.333355,0.0,0.0,0.0,0.0,0.0,0.0,0.0,0.0,0.0,0.0,nan,0.0,0.0,0.0,0.0,0.09692031,0.0,0.0,0.0,1.198633,1.1986552,1.0063803,0.0,0.0,0.0,0.0,0.0,0.0
3892000,3812000,0.107842736,0.10784347,0.20385902,1.000538,1.0005381,34.333355,0.0,0.0,0.0,0.0,0.0,0.0,0.0,0.0,0.0,0.0,nan,0.0,0.0,0.0,0.0,0.09692031,0.0,0.0,0.0,1.2056477,1.2056732,1.0063876,0.0,0.0,0.0,0.0,0.0,0.0
3900000,3820000,0.107842736,0.10784347,0.20385902,1.000538,1.0005381,34.333355,0.0,0.0,0.0,0.0,0.0,0.0,0.0,0.0,0.0,0.0,nan,0.0,0.0,0.0,0.0,0.09664065,0.0,0.0,0.0,1.2128187,1.2128476,1.0063962,0.0,0.0,0.0,0.0,0.0,0.0
3908000,3828000,0.107842736,0.10784347,0.20385902,1.000538,1.0005381,34.333355,0.0,0.0,0.0,0.0,0.0,0.0,0.0,0.0,0.0,0.0,nan,0.0,0.0,0.0,0.0,0.09664065,0.0,0.0,0.0,1.2201469,1.2201786,1.0064034,0.0,0.0,0.0,0.0,0.0,0.0
3916000,3836000,0.107842736,0.10784347,0.20385902,1.000538,1.0005381,34.333355,0.0,0.0,0.0,0.0,0.0,0.0,0.0,0.0,0.0,0.0,nan,0.0,0.0,0.0,0.0,0.09664065,0.0,0.0,0.0,1.2276312,1.2276665,1.0064112,0.0,0.0,0.0,0.0,0.0,0.0
3924000,3844000,0.107842736,0.10784347,0.20385902,1.000538,1.0005381,34.333355,0.0,0.0,0.0,0.0,0.0,0.0,0.0,0.0,0.0,0.0,nan,0.0,0.0,0.0,0.0,0.09664065,0.0,0.0,0.0,1.2352722,1.2353106,1.0064194,0.0,0.0,0.0,0.0,0.0,0.0
3932000,3852000,0.107842736,0.10784347,0.20385902,1.000538,1.0005381,34.333355,0.0,0.0,0.0,0.0,0.0,0.0,0.0,0.0,0.0,0.0,nan,0.0,0.0,0.0,0.0,0.09664065,0.0,0.0,0.0,1.2430695,1.2431116,1.0064273,0.0,0.0,0.0,0.0,0.0,0.0
3940000,3860000,0.107842736,0.10784347,0.20385902,1.000538,1.0005381,34.333355,0.0,0.0,0.0,0.0,0.0,0.0,0.0,0.0,0.0,0.0,nan,0.0,0.0,0.0,0.0,0.09664065,0.0,0.0,0.0,1.2510237,1.251069,1.0064356,0.0,0.0,0.0,0.0,0.0,0.0
3948000,3868000,0.107842736,0.10784347,0.20385902,1.000538,1.0005381,34.333355,0.0,0.0,0.0,0.0,0.0,0.0,0.0,0.0,0.0,0.0,nan,0.0,0.0,0.0,0.0,0.09664065,0.0,0.0,0.0,1.2591343,1.259183,1.0064439,0.0,0.0,0.0,0.0,0.0,0.0
3956000,3876000,0.107842736,0.10784347,0.20385902,1.000538,1.0005381,34.333355,0.0,0.0,0.0,0.0,0.0,0.0,0.0,0.0,0.0,0.0,nan,0.0,0.0,0.0,0.0,0.09664065,0.0,0.0,0.0,1.2674011,1.2674539,1.0064528,0.0,0.0,0.0,0.0,0.0,0.0
3964000,3884000,0.107842736,0.10784347,0.20385902,1.000538,1.0005381,34.333355,0.0,0.0,0.0,0.0,0.0,0.0,0.0,0.0,0.0,0.0,nan,0.0,0.0,0.0,0.0,0.09664065,0.0,0.0,0.0,1.2758244,1.2758813,1.0064615,0.0,0.0,0.0,0.0,0.0,0.0
3972000,3892000,0.107842736,0.10784347,0.20385902,1.000538,1.0005381,34.333355,0.0,0.0,0.0,0.0,0.0,0.0,0.0,0.0,0.0,0.0,nan,0.0,0.0,0.0,0.0,0.09643003,0.0,0.0,0.0,1.2844044,1.2844651,1.0064722,0.0,0.0,0.0,0.0,0.0,0.0
3980000,3900000,0.107842736,0.10784347,0.20385902,1.000538,1.0005381,34.333355,0.0,0.0,0.0,0.0,0.0,0.0,0.0,0.0,0.0,0.0,nan,0.0,0.0,0.0,0.0,0.09643003,0.0,0.0,0.0,1.2931411,1.2932057,1.0064814,0.0,0.0,0.0,0.0,0.0,0.0
3988000,3908000,0.107842736,0.10784347,0.20385902,1.000538,1.0005381,34.333355,0.0,0.0,0.0,0.0,0.0,0.0,0.0,0.0,0.0,0.0,nan,0.0,0.0,0.0,0.0,0.09643003,0.0,0.0,0.0,1.3020345,1.3021028,1.0064903,0.0,0.0,0.0,0.0,0.0,0.0
3996000,3916000,0.107842736,0.10784347,0.20385902,1.000538,1.0005381,34.333355,0.0,0.0,0.0,0.0,0.0,0.0,0.0,0.0,0.0,0.0,nan,0.0,0.0,0.0,0.0,0.09643003,0.0,0.0,0.0,1.311084,1.3111567,1.0065,0.0,0.0,0.0,0.0,0.0,0.0
4004000,3924000,0.107842736,0.10784347,0.20385902,1.000538,1.0005381,34.333355,0.0,0.0,0.0,0.0,0.0,0.0,0.0,0.0,0.0,0.0,nan,0.0,0.0,0.0,0.0,0.09643003,0.0,0.0,0.0,1.3202902,1.3203671,1.0065094,0.0,0.0,0.0,0.0,0.0,0.0
4012000,3932000,0.107842736,0.10784347,0.20385902,1.000538,1.0005381,34.333355,0.0,0.0,0.0,0.0,0.0,0.0,0.0,0.0,0.0,0.0,nan,0.0,0.0,0.0,0.0,0.09643003,0.0,0.0,0.0,1.3296525,1.3297344,1.0065196,0.0,0.0,0.0,0.0,0.0,0.0
4020000,3940000,0.107842736,0.10784347,0.20385902,1.000538,1.0005381,34.333355,0.0,0.0,0.0,0.0,0.0,0.0,0.0,0.0,0.0,0.0,nan,0.0,0.0,0.0,0.0,0.09643003,0.0,0.0,0.0,1.3391716,1.3392583,1.0065293,0.0,0.0,0.0,0.0,0.0,0.0
4028000,3948000,0.107842736,0.10784347,0.20385902,1.000538,1.0005381,34.333355,0.0,0.0,0.0,0.0,0.0,0.0,0.0,0.0,0.0,0.0,nan,0.0,0.0,0.0,0.0,0.09643003,0.0,0.0,0.0,1.3488476,1.3489387,1.0065391,0.0,0.0,0.0,0.0,0.0,0.0
4036000,3956000,0.107842736,0.10784347,0.20385902,1.000538,1.0005381,34.333355,0.0,0.0,0.0,0.0,0.0,0.0,0.0,0.0,0.0,0.0,nan,0.0,0.0,0.0,0.0,0.09643003,0.0,0.0,0.0,1.3586804,1.3587755,1.0065494,0.0,0.0,0.0,0.0,0.0,0.0
4044000,3964000,0.107842736,0.10784347,0.20385902,1.000538,1.0005381,34.333355,0.0,0.0,0.0,0.0,0.0,0.0,0.0,0.0,0.0,0.0,nan,0.0,0.0,0.0,0.0,0.096276164,0.0,0.0,0.0,1.2454312,1.2455055,1.0064427,0.0,0.0,0.0,0.0,0.0,0.0
4052000,3972000,0.107842736,0.10784347,0.20385902,1.000538,1.0005381,34.333355,0.0,0.0,0.0,0.0,0.0,0.0,0.0,0.0,0.0,0.0,nan,0.0,0.0,0.0,0.0,0.096276164,0.0,0.0,0.0,1.2525184,1.2525961,1.0064502,0.0,0.0,0.0,0.0,0.0,0.0
4060000,3980000,0.107842736,0.10784347,0.20385902,1.000538,1.0005381,34.333355,0.0,0.0,0.0,0.0,0.0,0.0,0.0,0.0,0.0,0.0,nan,0.0,0.0,0.0,0.0,0.096276164,0.0,0.0,0.0,1.259725,1.2598059,1.0064576,0.0,0.0,0.0,0.0,0.0,0.0
4068000,3988000,0.107842736,0.10784347,0.20385902,1.000538,1.0005381,34.333355,0.0,0.0,0.0,0.0,0.0,0.0,0.0,0.0,0.0,0.0,nan,0.0,0.0,0.0,0.0,0.096276164,0.0,0.0,0.0,1.2670504,1.2671348,1.0064651,0.0,0.0,0.0,0.0,0.0,0.0
4076000,3996000,0.107842736,0.10784347,0.20385902,1.000538,1.0005381,34.333355,0.0,0.0,0.0,0.0,0.0,0.0,0.0,0.0,0.0,0.0,nan,0.0,0.0,0.0,0.0,0.096276164,0.0,0.0,0.0,1.2499914,1.250066,1.0064466,0.0,0.0,0.0,0.0,0.0,0.0
4084000,4004000,0.107842736,0.10784347,0.20385902,1.000538,1.0005381,34.333355,0.0,0.0,0.0,0.0,0.0,0.0,0.0,0.0,0.0,0.0,nan,0.0,0.0,0.0,0.0,0.096276164,0.0,0.0,0.0,1.2568201,1.2568976,1.0064538,0.0,0.0,0.0,0.0,0.0,0.0
4092000,4012000,0.107842736,0.10784347,0.20385902,1.000538,1.0005381,34.333355,0.0,0.0,0.0,0.0,0.0,0.0,0.0,0.0,0.0,0.0,nan,0.0,0.0,0.0,0.0,0.096276164,0.0,0.0,0.0,1.2637569,1.2638373,1.006461,0.0,0.0,0.0,0.0,0.0,0.0
4100000,4020000,0.107842736,0.10784347,0.20385902,1.000538,1.0005381,34.333355,0.0,0.0,0.0,0.0,0.0,0.0,0.0,0.0,0.0,0.0,nan,0.0,0.0,0.0,0.0,0.096276164,0.0,0.0,0.0,1.2708019,1.2708855,1.006468,0.0,0.0,0.0,0.0,0.0,0.0
4108000,4028000,0.107842736,0.10784347,0.20385902,1.000538,1.0005381,34.333355,0.0,0.0,0.0,0.0,0.0,0.0,0.0,0.0,0.0,0.0,nan,0.0,0.0,0.0,0.0,0.096276164,0.0,0.0,0.0,1.2779553,1.2780416,1.0064754,0.0,0.0,0.0,0.0,0.0,0.0
4116000,4036000,0.107842736,0.10784347,0.20385902,1.000538,1.0005381,34.333355,0.0,0.0,0.0,0.0,0.0,0.0,0.0,0.0,0.0,0.0,nan,0.0,0.0,0.0,0.0,0.096169315,0.0,0.0,0.0,1.2852167,1.2853061,1.0064833,0.0,0.0,0.0,0.0,0.0,0.0
4124000,4044000,0.107842736,0.10784347,0.20385902,1.000538,1.0005381,34.333355,0.0,0.0,0.0,0.0,0.0,0.0,0.0,0.0,0.0,0.0,nan,0.0,0.0,0.0,0.0,0.096169315,0.0,0.0,0.0,1.2925861,1.2926791,1.0064907,0.0,0.0,0.0,0.0,0.0,0.0
4132000,4052000,0.107842736,0.10784347,0.20385902,1.000538,1.0005381,34.333355,0.0,0.0,0.0,0.0,0.0,0.0,0.0,0.0,0.0,0.0,nan,0.0,0.0,0.0,0.0,0.096169315,0.0,0.0,0.0,1.3000642,1.3001602,1.0064981,0.0,0.0,0.0,0.0,0.0,0.0
4140000,4060000,0.107842736,0.10784347,0.20385902,1.000538,1.0005381,34.333355,0.0,0.0,0.0,0.0,0.0,0.0,0.0,0.0,0.0,0.0,nan,0.0,0.0,0.0,0.0,0.096169315,0.0,0.0,0.0,1.3076501,1.3077494,1.0065062,0.0,0.0,0.0,0.0,0.0,0.0
4148000,4068000,0.107842736,0.10784347,0.20385902,1.000538,1.0005381,34.333355,0.0,0.0,0.0,0.0,0.0,0.0,0.0,0.0,0.0,0.0,nan,0.0,0.0,0.0,0.0,0.096169315,0.0,0.0,0.0,1.3153441,1.3154469,1.0065143,0.0,0.0,0.0,0.0,0.0,0.0
4156000,4076000,0.107842736,0.10784347,0.20385902,1.000538,1.0005381,34.333355,0.0,0.0,0.0,0.0,0.0,0.0,0.0,0.0,0.0,0.0,nan,0.0,0.0,0.0,0.0,0.096169315,0.0,0.0,0.0,1.3231462,1.3232527,1.0065224,0.0,0.0,0.0,0.0,0.0,0.0
4164000,4084000,0.107842736,0.10784347,0.20385902,1.000538,1.0005381,34.333355,0.0,0.0,0.0,0.0,0.0,0.0,0.0,0.0,0.0,0.0,nan,0.0,0.0,0.0,0.0,0.096169315,0.0,0.0,0.0,1.3310571,1.3311663,1.0065308,0.0,0.0,0.0,0.0,0.0,0.0
4172000,4092000,0.107842736,0.10784347,0.20385902,1.000538,1.0005381,34.333355,0.0,0.0,0.0,0.0,0.0,0.0,0.0,32.25041,0.0,0.0,nan,0.0,0.0,0.0,0.0,0.096169315,0.0,0.0,0.0,1.339076,1.3391881,1.0065392,0.0,0.0,0.0,0.0,0.0,0.0
4180000,4100000,0.107842736,0.10784347,0.20385902,1.000538,1.0005381,34.333355,0.0,0.0,0.0,0.0,0.0,0.0,0.0,32.25041,0.0,0.0,nan,0.0,0.0,0.0,0.0,0.096169315,0.0,0.0,0.0,1.3472031,1.3473182,1.0065477,0.0,0.0,0.0,0.0,0.0,0.0
4188000,4108000,0.107842736,0.10784347,0.20385902,1.000538,1.0005381,34.333355,0.0,0.0,0.0,0.0,0.0,0.0,0.0,32.25041,0.0,0.0,nan,0.0,0.0,0.0,0.0,0.09610129,0.0,0.0,0.0,1.3554387,1.3555567,1.0065501,0.0,0.0,0.0,0.0,0.0,0.0
4196000,4116000,0.107842736,0.10784347,0.20385902,1.000538,1.0005381,34.333355,0.0,0.0,0.0,0.0,0.0,0.0,0.0,32.25041,0.0,0.0,nan,0.0,0.0,0.0,0.0,0.09610129,0.0,0.0,0.0,1.3637817,1.3639034,1.006559,0.0,0.0,0.0,0.0,0.0,0.0
4204000,4124000,0.10706151,0.10706113,0.20669356,1.0005279,1.0005279,21.0005,0.0,0.0,0.0,0.0,0.0,0.0,0.0,32.25041,0.0,0.0,nan,0.0,0.0,0.0,0.0,0.09610129,0.0,0.0,0.0,1.3722334,1.3723583,1.006568,0.0,0.0,0.0,0.0,0.0,0.0
4212000,4132000,0.10706151,0.10706113,0.20669356,1.0005279,1.0005279,21.0005,0.0,0.0,0.0,0.0,0.0,0.0,0.0,32.25041,0.0,0.0,nan,0.0,0.0,0.0,0.0,0.09610129,0.0,0.0,0.0,1.3807933,1.3809216,1.0065765,0.0,0.0,0.0,0.0,0.0,0.0
4220000,4140000,0.10706151,0.10706113,0.20669356,1.0005279,1.0005279,21.0005,0.0,0.0,0.0,0.0,0.0,0.0,0.0,32.25041,0.0,0.0,nan,0.0,0.0,0.0,0.0,0.09610129,0.0,0.0,0.0,1.3894613,1.3895932,1.0065854,0.0,0.0,0.0,0.0,0.0,0.0
4228000,4148000,0.10706151,0.10706113,0.20669356,1.0005279,1.0005279,21.0005,0.0,0.0,0.0,0.0,0.0,0.0,0.0,32.25041,0.0,0.0,nan,0.0,0.0,0.0,0.0,0.09610129,0.0,0.0,0.0,1.3982373,1.398373,1.0065943,0.0,0.0,0.0,0.0,0.0,0.0
4236000,4156000,0.10706151,0.10706113,0.20669356,1.0005279,1.0005279,21.0005,0.0,0.0,0.0,0.0,0.0,0.0,0.0,32.250603,0.0,0.0,nan,0.0,0.0,0.0,0.0,0.09610129,0.0,0.0,0.0,1.4071211,1.4072613,1.0066038,0.0,0.0,0.0,0.0,0.0,0.0
4244000,4164000,0.10706151,0.10706113,0.20669356,1.0005279,1.0005279,21.0005,0.0,0.0,0.0,0.0,0.0,0.0,0.0,32.250603,0.0,0.0,nan,0.0,0.0,0.0,0.0,0.09610129,0.0,0.0,0.0,1.4161134,1.4162571,1.0066137,0.0,0.0,0.0,0.0,0.0,0.0
4252000,4172000,0.10706151,0.10706113,0.20669356,1.0005279,1.0005279,21.0005,0.0,0.0,0.0,0.0,0.0,0.0,0.0,32.250603,0.0,0.0,nan,0.0,0.0,0.0,0.0,0.09610129,0.0,0.0,0.0,1.2102153,1.2102476,1.0064003,0.0,0.0,0.0,0.0,0.0,0.0
4260000,4180000,0.10706151,0.10706113,0.20669356,1.0005279,1.0005279,21.0005,0.0,0.0,0.0,0.0,0.0,0.0,0.0,32.250603,0.0,0.0,nan,0.0,0.0,0.0,0.0,0.096065074,0.0,0.0,0.0,1.2146143,1.2146475,1.006405,0.0,0.0,0.0,0.0,0.0,0.0
4268000,4188000,0.10706151,0.10706113,0.20669356,1.0005279,1.0005279,21.0005,0.0,0.0,0.0,0.0,0.0,0.0,0.0,32.250603,0.0,0.0,nan,0.0,0.0,0.0,0.0,0.096065074,0.0,0.0,0.0,1.2190683,1.2191025,1.0064094,0.0,0.0,0.0,0.0,0.0,0.0
4276000,4196000,0.10706151,0.10706113,0.20669356,1.0005279,1.0005279,21.0005,0.0,0.0,0.0,0.0,0.0,0.0,0.0,32.250603,0.0,0.0,nan,0.0,0.0,0.0,0.0,0.096065074,0.0,0.0,0.0,1.223577,1.2236123,1.0064144,0.0,0.0,0.0,0.0,0.0,0.0
4284000,4204000,0.10706151,0.10706113,0.20669356,1.0005279,1.0005279,21.0005,0.0,0.0,0.0,0.0,0.0,0.0,0.0,32.250603,0.0,0.0,nan,0.0,0.0,0.0,0.0,0.096065074,0.0,0.0,0.0,1.203262,1.2032855,1.0063927,0.0,0.0,0.0,0.0,0.0,0.0
4292000,4212000,0.10706151,0.10706113,0.20669356,1.0005279,1.0005279,21.0005,0.0,0.0,0.0,0.0,0.0,0.0,0.0,28.917204,0.0,0.0,nan,0.0,0.0,0.0,0.0,0.096065074,0.0,0.0,0.0,1.2072996,1.2073238,1.0063967,0.0,0.0,0.0,0.0,0.0,0.0
4300000,4220000,0.10706151,0.10706113,0.20669356,1.0005279,1.0005279,21.0005,0.0,0.0,0.0,0.0,0.0,0.0,0.0,28.917204,0.0,0.0,nan,0.0,0.0,0.0,0.0,0.096065074,0.0,0.0,0.0,1.2113854,1.21141,1.0064007,0.0,0.0,0.0,0.0,0.0,0.0
4308000,4228000,0.10706151,0.10706113,0.20669356,1.0005279,1.0005279,21.0005,0.0,0.0,0.0,0.0,0.0,0.0,0.0,28.917204,0.0,0.0,nan,0.0,0.0,0.0,0.0,0.096065074,0.0,0.0,0.0,1.2155194,1.215545,1.0064048,0.0,0.0,0.0,0.0,0.0,0.0
4316000,4236000,0.10706151,0.10706113,0.20669356,1.0005279,1.0005279,21.0005,0.0,0.0,0.0,0.0,0.0,0.0,0.0,28.917204,0.0,0.0,nan,0.0,0.0,0.0,0.0,0.096065074,0.0,0.0,0.0,1.2197016,1.2197282,1.0064089,0.0,0.0,0.0,0.0,0.0,0.0
4324000,4244000,0.10706151,0.10706113,0.20669356,1.0005279,1.0005279,21.0005,0.0,0.0,0.0,0.0,0.0,0.0,0.0,28.917204,0.0,0.0,nan,0.0,0.0,0.0,0.0,0.096065074,0.0,0.0,0.0,1.2239321,1.2239598,1.006413,0.0,0.0,0.0,0.0,0.0,0.0
4332000,4252000,0.10706151,0.10706113,0.20669356,1.0005279,1.0005279,21.0005,0.0,0.0,0.0,0.0,0.0,0.0,0.0,28.917204,0.0,0.0,nan,0.0,0.0,0.0,0.0,0.09605474,0.0,0.0,0.0,1.2282112,1.2282393,1.0064166,0.0,0.0,0.0,0.0,0.0,0.0
4340000,4260000,0.10706151,0.10706113,0.20669356,1.0005279,1.0005279,21.0005,0.0,0.0,0.0,0.0,0.0,0.0,0.0,28.917204,0.0,0.0,nan,0.0,0.0,0.0,0.0,0.09605474,0.0,0.0,0.0,1.2325383,1.2325672,1.0064207,0.0,0.0,0.0,0.0,0.0,0.0
4348000,4268000,0.10706151,0.10706113,0.20669356,1.0005279,1.0005279,21.0005,0.0,0.0,0.0,0.0,0.0,0.0,0.0,28.917204,0.0,0.0,nan,0.0,0.0,0.0,0.0,0.09605474,0.0,0.0,0.0,1.2369137,1.2369434,1.0064251,0.0,0.0,0.0,0.0,0.0,0.0
4356000,4276000,0.10706151,0.10706113,0.20669356,1.0005279,1.0005279,21.0005,0.0,0.0,0.0,0.0,0.0,0.0,0.0,28.917442,0.0,0.0,nan,0.0,0.0,0.0,0.0,0.09605474,0.0,0.0,0.0,1.2413373,1.2413677,1.0064298,0.0,0.0,0.0,0.0,0.0,0.0
4364000,4284000,0.10706151,0.10706113,0.20669356,1.0005279,1.0005279,21.0005,0.0,0.0,0.0,0.0,0.0,0.0,0.0,28.917442,0.0,0.0,nan,0.0,0.0,0.0,0.0,0.09605474,0.0,0.0,0.0,1.2458091,1.2458405,1.0064341,0.0,0.0,0.0,0.0,0.0,0.0
4372000,4292000,0.10706151,0.10706113,0.20669356,1.0005279,1.0005279,21.0005,0.0,0.0,0.0,0.0,0.0,0.0,0.0,28.917442,0.0,0.0,nan,0.0,0.0,0.0,0.0,0.09605474,0.0,0.0,0.0,1.2503291,1.2503617,1.0064385,0.0,0.0,0.0,0.0,0.0,0.0
4380000,4300000,0.10706151,0.10706113,0.20669356,1.0005279,1.0005279,21.0005,0.0,0.0,0.0,0.0,0.0,0.0,0.0,28.917442,0.0,0.0,nan,0.0,0.0,0.0,0.0,0.09605474,0.0,0.0,0.0,1.2548976,1.2549312,1.0064428,0.0,0.0,0.0,0.0,0.0,0.0
4388000,4308000,0.10706151,0.10706113,0.20669356,1.0005279,1.0005279,21.0005,0.0,0.0,0.0,0.0,0.0,0.0,0.0,28.917442,0.0,0.0,nan,0.0,0.0,0.0,0.0,0.09605474,0.0,0.0,0.0,1.2595143,1.2595488,1.0064472,0.0,0.0,0.0,0.0,0.0,0.0
4396000,4316000,0.10706151,0.10706113,0.20669356,1.0005279,1.0005279,21.0005,0.0,0.0,0.0,0.0,0.0,0.0,0.0,28.917442,0.0,0.0,nan,0.0,0.0,0.0,0.0,0.09605474,0.0,0.0,0.0,1.264179,1.2642146,1.006452,0.0,0.0,0.0,0.0,0.0,0.0
4404000,4324000,0.10706151,0.10706113,0.20669356,1.0005279,1.0005279,21.0005,0.0,0.0,0.0,0.0,0.0,0.0,0.0,28.917442,0.0,0.0,nan,0.0,0.0,0.0,0.0,0.09606506,0.0,0.0,0.0,1.2688923,1.2689286,1.0064572,0.0,0.0,0.0,0.0,0.0,0.0
4412000,4332000,0.10706151,0.10706113,0.20669356,1.0005279,1.0005279,21.0005,0.0,0.0,0.0,0.0,0.0,0.0,0.0,28.917702,0.0,0.0,nan,0.0,0.0,0.0,0.0,0.09606506,0.0,0.0,0.0,1.273654,1.2736913,1.0064616,0.0,0.0,0.0,0.0,0.0,0.0
4420000,4340000,0.10706151,0.10706113,0.20669356,1.0005279,1.0005279,21.0005,0.0,0.0,0.0,0.0,0.0,0.0,0.0,28.917702,0.0,0.0,nan,0.0,0.0,0.0,0.0,0.09606506,0.0,0.0,0.0,1.2784636,1.2785021,1.0064663,0.0,0.0,0.0,0.0,0.0,0.0
4428000,4348000,0.10706151,0.10706113,0.20669356,1.0005279,1.0005279,21.0005,0.0,0.0,0.0,0.0,0.0,0.0,0.0,28.917702,0.0,0.0,nan,0.0,0.0,0.0,0.0,0.09606506,0.0,0.0,0.0,1.2833215,1.2833613,1.0064712,0.0,0.0,0.0,0.0,0.0,0.0
4436000,4356000,0.10706151,0.10706113,0.20669356,1.0005279,1.0005279,21.0005,0.0,0.0,0.0,0.0,0.0,0.0,0.0,28.917702,0.0,0.0,nan,0.0,0.0,0.0,0.0,0.09606506,0.0,0.0,0.0,1.2882279,1.2882686,1.0064758,0.0,0.0,0.0,0.0,0.0,0.0
4444000,4364000,0.10706151,0.10706113,0.20669356,1.0005279,1.0005279,21.0005,0.0,0.0,0.0,0.0,0.0,0.0,0.0,28.917702,0.0,0.0,nan,0.0,0.0,0.0,0.0,0.09606506,0.0,0.0,0.0,1.2931823,1.2932239,1.0064809,0.0,0.0,0.0,0.0,0.0,0.0
4452000,4372000,0.10706151,0.10706113,0.20669356,1.0005279,1.0005279,21.0005,0.0,0.0,0.0,0.0,0.0,0.0,0.0,28.917702,0.0,0.0,nan,0.0,0.0,0.0,0.0,0.09606506,0.0,0.0,0.0,1.2981852,1.2982278,1.0064856,0.0,0.0,0.0,0.0,0.0,0.0
4460000,4380000,0.10706151,0.10706113,0.20669356,1.0005279,1.0005279,21.0005,0.0,0.0,0.0,0.0,0.0,0.0,0.0,28.917702,0.0,0.0,nan,0.0,0.0,0.0,0.0,0.09606506,0.0,0.0,0.0,1.1305095,1.1304854,1.0063151,0.0,0.0,0.0,0.0,0.0,0.0
4468000,4388000,0.10706151,0.10706113,0.20669356,1.0005279,1.0005279,21.0005,0.0,0.0,0.0,0.0,0.0,0.0,0.0,28.917702,0.0,0.0,nan,0.0,0.0,0.0,0.0,0.09606506,0.0,0.0,0.0,1.1324208,1.1323962,1.006317,0.0,0.0,0.0,0.0,0.0,0.0
4476000,4396000,0.10706151,0.10706113,0.20669356,1.0005279,1.0005279,21.0005,0.0,0.0,0.0,0.0,0.0,0.0,0.0,26.536758,0.0,0.0,nan,0.0,0.0,0.0,0.0,0.09609134,0.0,0.0,0.0,1.1343513,1.1343263,1.0063182,0.0,0.0,0.0,0.0,0.0,0.0
4484000,4404000,0.10706151,0.10706113,0.20669356,1.0005279,1.0005279,21.0005,0.0,0.0,0.0,0.0,0.0,0.0,0.0,26.536758,0.0,0.0,nan,0.0,0.0,0.0,0.0,0.09609134,0.0,0.0,0.0,1.1363008,1.1362755,1.0063201,0.0,0.0,0.0,0.0,0.0,0.0
4492000,4412000,0.10706151,0.10706113,0.20669356,1.0005279,1.0005279,21.0005,0.0,0.0,0.0,0.0,0.0,0.0,0.0,26.536758,0.0,0.0,nan,0.0,0.0,0.0,0.0,0.09609134,0.0,0.0,0.0,1.1274918,1.1274652,1.0063108,0.0,0.0,0.0,0.0,0.0,0.0
4500000,4420000,0.10706151,0.10706113,0.20669356,1.0005279,1.0005279,21.0005,0.0,0.0,0.0,0.0,0.0,0.0,0.0,26.536758,0.0,0.0,nan,0.0,0.0,0.0,0.0,0.09609134,0.0,0.0,0.0,1.1292766,1.1292497,1.0063126,0.0,0.0,0.0,0.0,0.0,0.0
4508000,4428000,0.10706151,0.10706113,0.20669356,1.0005279,1.0005279,21.0005,0.0,0.0,0.0,0.0,0.0,0.0,0.0,26.536758,0.0,0.0,nan,0.0,0.0,0.0,0.0,0.09609134,0.0,0.0,0.0,1.1310785,1.1310514,1.0063145,0.0,0.0,0.0,0.0,0.0,0.0
4516000,4436000,0.10706151,0.10706113,0.20669356,1.0005279,1.0005279,21.0005,0.0,0.0,0.0,0.0,0.0,0.0,0.0,26.536758,0.0,0.0,nan,0.0,0.0,0.0,0.0,0.09609134,0.0,0.0,0.0,1.1328976,1.1328704,1.0063162,0.0,0.0,0.0,0.0,0.0,0.0
4524000,4444000,0.10706151,0.10706113,0.20669356,1.0005279,1.0005279,21.0005,0.0,0.0,0.0,0.0,0.0,0.0,0.0,26.536758,0.0,0.0,nan,0.0,0.0,0.0,0.0,0.09609134,0.0,0.0,0.0,1.134734,1.1347066,1.0063179,0.0,0.0,0.0,0.0,0.0,0.0
4532000,4452000,0.10706151,0.10706113,0.20669356,1.0005279,1.0005279,21.0005,0.0,0.0,0.0,0.0,0.0,0.0,0.0,26.536901,0.0,0.0,nan,0.0,0.0,0.0,0.0,0.09609134,0.0,0.0,0.0,1.1365879,1.13656,1.0063196,0.0,0.0,0.0,0.0,0.0,0.0
4540000,4460000,0.10706151,0.10706113,0.20669356,1.0005279,1.0005279,21.0005,0.0,0.0,0.0,0.0,0.0,0.0,0.0,26.536901,0.0,0.0,nan,0.0,0.0,0.0,0.0,0.09609134,0.0,0.0,0.0,1.1384587,1.1384306,1.0063218,0.0,0.0,0.0,0.0,0.0,0.0
4548000,4468000,0.10706151,0.10706113,0.20669356,1.0005279,1.0005279,21.0005,0.0,0.0,0.0,0.0,0.0,0.0,0.0,26.536901,0.0,0.0,nan,0.0,0.0,0.0,0.0,0.0961296,0.0,0.0,0.0,1.1403468,1.1403184,1.0063238,0.0,0.0,0.0,0.0,0.0,0.0
4556000,4476000,0.10706151,0.10706113,0.20669356,1.0005279,1.0005279,21.0005,0.0,0.0,0.0,0.0,0.0,0.0,0.0,26.536901,0.0,0.0,nan,0.0,0.0,0.0,0.0,0.0961296,0.0,0.0,0.0,1.1422522,1.1422235,1.0063254,0.0,0.0,0.0,0.0,0.0,0.0
4564000,4484000,0.10706151,0.10706113,0.20669356,1.0005279,1.0005279,21.0005,0.0,0.0,0.0,0.0,0.0,0.0,0.0,26.536901,0.0,0.0,nan,0.0,0.0,0.0,0.0,0.0961296,0.0,0.0,0.0,1.1441747,1.1441457,1.0063273,0.0,0.0,0.0,0.0,0.0,0.0
4572000,4492000,0.10706151,0.10706113,0.20669356,1.0005279,1.0005279,21.0005,0.0,0.0,0.0,0.0,0.0,0.0,0.0,26.536901,0.0,0.0,nan,0.0,0.0,0.0,0.0,0.0961296,0.0,0.0,0.0,1.1461146,1.1460851,1.006329,0.0,0.0,0.0,0.0,0.0,0.0
4580000,4500000,0.10706151,0.10706113,0.20669356,1.0005279,1.0005279,21.0005,0.0,0.0,0.0,0.0,0.0,0.0,0.0,26.536901,0.0,0.0,nan,0.0,0.0,0.0,0.0,0.0961296,0.0,0.0,0.0,1.1480716,1.148042,1.006331,0.0,0.0,0.0,0.0,0.0,0.0
4588000,4508000,0.10706151,0.10706113,0.20669356,1.0005279,1.0005279,21.0005,0.0,0.0,0.0,0.0,0.0,0.0,0.0,26.536901,0.0,0.0,nan,0.0,0.0,0.0,0.0,0.0961296,0.0,0.0,0.0,1.1500459,1.1500158,1.0063328,0.0,0.0,0.0,0.0,0.0,0.0
4596000,4516000,0.10706151,0.10706113,0.20669356,1.0005279,1.0005279,21.0005,0.0,0.0,0.0,0.0,0.0,0.0,0.0,26.537294,0.0,0.0,nan,0.0,0.0,0.0,0.0,0.0961296,0.0,0.0,0.0,1.1520374,1.1520069,1.0063344,0.0,0.0,0.0,0.0,0.0,0.0
4604000,4524000,0.10026401,0.100265086,0.2095126,1.0003915,1.0003916,15.287349,0.0,0.0,0.0,0.0,0.0,0.0,0.0,26.537294,0.0,0.0,nan,0.0,0.0,0.0,0.0,0.0961296,0.0,0.0,0.0,1.1540462,1.1540153,1.0063362,0.0,0.0,0.0,0.0,0.0,0.0
4612000,4532000,0.10026401,0.100265086,0.2095126,1.0003915,1.0003916,15.287349,0.0,0.0,0.0,0.0,0.0,0.0,0.0,26.537294,0.0,0.0,nan,0.0,0.0,0.0,0.0,0.0961296,0.0,0.0,0.0,1.1560718,1.1560409,1.0063382,0.0,0.0,0.0,0.0,0.0,0.0
4620000,4540000,0.10026401,0.100265086,0.2095126,1.0003915,1.0003916,15.287349,0.0,0.0,0.0,0.0,0.0,0.0,0.0,26.537294,0.0,0.0,nan,0.0,0.0,0.0,0.0,0.09617624,0.0,0.0,0.0,1.1581149,1.1580837,1.0063409,0.0,0.0,0.0,0.0,0.0,0.0
4628000,4548000,0.10026401,0.100265086,0.2095126,1.0003915,1.0003916,15.287349,0.0,0.0,0.0,0.0,0.0,0.0,0.0,26.537294,0.0,0.0,nan,0.0,0.0,0.0,0.0,0.09617624,0.0,0.0,0.0,1.1601752,1.1601436,1.0063429,0.0,0.0,0.0,0.0,0.0,0.0
4636000,4556000,0.10026401,0.100265086,0.2095126,1.0003915,1.0003916,15.287349,0.0,0.0,0.0,0.0,0.0,0.0,0.0,26.537294,0.0,0.0,nan,0.0,0.0,0.0,0.0,0.09617624,0.0,0.0,0.0,1.1622529,1.162221,1.0063447,0.0,0.0,0.0,0.0,0.0,0.0
4644000,4564000,0.10026401,0.100265086,0.2095126,1.0003915,1.0003916,15.287349,0.0,0.0,0.0,0.0,0.0,0.0,0.0,26.537294,0.0,0.0,nan,0.0,0.0,0.0,0.0,0.09617624,0.0,0.0,0.0,1.1643476,1.1643152,1.0063468,0.0,0.0,0.0,0.0,0.0,0.0
4652000,4572000,0.10026401,0.100265086,0.2095126,1.0003915,1.0003916,15.287349,0.0,0.0,0.0,0.0,0.0,0.0,0.0,26.537704,0.0,0.0,nan,0.0,0.0,0.0,0.0,0.09617624,0.0,0.0,0.0,1.1664596,1.1664268,1.0063488,0.0,0.0,0.0,0.0,0.0,0.0
4660000,4580000,0.10026401,0.100265086,0.2095126,1.0003915,1.0003916,15.287349,0.0,0.0,0.0,0.0,0.0,0.0,0.0,26.537704,0.0,0.0,nan,0.0,0.0,0.0,0.0,0.09617624,0.0,0.0,0.0,1.1685888,1.1685556,1.0063509,0.0,0.0,0.0,0.0,0.0,0.0
4668000,4588000,0.10026401,0.100265086,0.2095126,1.0003915,1.0003916,15.287349,0.0,0.0,0.0,0.0,0.0,0.0,0.0,26.537704,0.0,0.0,nan,0.0,0.0,0.0,0.0,0.09617624,0.0,0.0,0.0,1.0854789,1.08544,1.0062679,0.0,0.0,0.0,0.0,0.0,0.0
4676000,4596000,0.10026401,0.100265086,0.2095126,1.0003915,1.0003916,15.287349,0.0,0.0,0.0,0.0,0.0,0.0,0.0,26.537704,0.0,0.0,nan,0.0,0.0,0.0,0.0,0.09617624,0.0,0.0,0.0,1.0863222,1.0862832,1.0062687,0.0,0.0,0.0,0.0,0.0,0.0
4684000,4604000,0.10026401,0.100265086,0.2095126,1.0003915,1.0003916,15.287349,0.0,0.0,0.0,0.0,0.0,0.0,0.0,26.537704,0.0,0.0,nan,0.0,0.0,0.0,0.0,0.09617624,0.0,0.0,0.0,1.0871727,1.0871334,1.0062696,0.0,0.0,0.0,0.0,0.0,0.0
4692000,4612000,0.10026401,0.100265086,0.2095126,1.0003915,1.0003916,15.287349,0.0,0.0,0.0,0.0,0.0,0.0,0.0,26.537704,0.0,0.0,nan,0.0,0.0,0.0,0.0,0.09622808,0.0,0.0,0.0,1.0880302,1.0879905,1.0062712,0.0,0.0,0.0,0.0,0.0,0.0
4700000,4620000,0.10026401,0.100265086,0.2095126,1.0003915,1.0003916,15.287349,0.0,0.0,0.0,0.0,0.0,0.0,0.0,26.537704,0.0,0.0,nan,0.0,0.0,0.0,0.0,0.09622808,0.0,0.0,0.0,1.0848864,1.0848478,1.0062679,0.0,0.0,0.0,0.0,0.0,0.0
4708000,4628000,0.10026401,0.100265086,0.2095126,1.0003915,1.0003916,15.287349,0.0,0.0,0.0,0.0,0.0,0.0,0.0,26.537704,0.0,0.0,nan,0.0,0.0,0.0,0.0,0.09622808,0.0,0.0,0.0,1.085695,1.0856559,1.0062686,0.0,0.0,0.0,0.0,0.0,0.0
4716000,4636000,0.10026401,0.100265086,0.2095126,1.0003915,1.0003916,15.287349,0.0,0.0,0.0,0.0,0.0,0.0,0.0,24.751678,0.0,0.0,nan,0.0,0.0,0.0,0.0,0.09622808,0.0,0.0,0.0,1.0865101,1.0864708,1.0062693,0.0,0.0,0.0,0.0,0.0,0.0
4724000,4644000,0.10026401,0.100265086,0.2095126,1.0003915,1.0003916,15.287349,0.0,0.0,0.0,0.0,0.0,0.0,0.0,24.751678,0.0,0.0,nan,0.0,0.0,0.0,0.0,0.09622808,0.0,0.0,0.0,1.0873318,1.0872924,1.0062702,0.0,0.0,0.0,0.0,0.0,0.0
4732000,4652000,0.10026401,0.100265086,0.2095126,1.0003915,1.0003916,15.287349,0.0,0.0,0.0,0.0,0.0,0.0,0.0,24.751678,0.0,0.0,nan,0.0,0.0,0.0,0.0,0.09622808,0.0,0.0,0.0,1.08816,1.0881203,1.0062711,0.0,0.0,0.0,0.0,0.0,0.0
4740000,4660000,0.10026401,0.100265086,0.2095126,1.0003915,1.0003916,15.287349,0.0,0.0,0.0,0.0,0.0,0.0,0.0,24.751678,0.0,0.0,nan,0.0,0.0,0.0,0.0,0.09622808,0.0,0.0,0.0,1.088995,1.0889549,1.0062718,0.0,0.0,0.0,0.0,0.0,0.0
4748000,4668000,0.10026401,0.100265086,0.2095126,1.0003915,1.0003916,15.287349,0.0,0.0,0.0,0.0,0.0,0.0,0.0,24.751678,0.0,0.0,nan,0.0,0.0,0.0,0.0,0.09622808,0.0,0.0,0.0,1.0898364,1.0897962,1.0062726,0.0,0.0,0.0,0.0,0.0,0.0
4756000,4676000,0.10026401,0.100265086,0.2095126,1.0003915,1.0003916,15.287349,0.0,0.0,0.0,0.0,0.0,0.0,0.0,24.751678,0.0,0.0,nan,0.0,0.0,0.0,0.0,0.09622808,0.0,0.0,0.0,1.0906844,1.0906439,1.0062735,0.0,0.0,0.0,0.0,0.0,0.0
4764000,4684000,0.10026401,0.100265086,0.2095126,1.0003915,1.0003916,15.287349,0.0,0.0,0.0,0.0,0.0,0.0,0.0,24.751678,0.0,0.0,nan,0.0,0.0,0.0,0.0,0.09628245,0.0,0.0,0.0,1.0915393,1.091498,1.0062742,0.0,0.0,0.0,0.0,0.0,0.0
4772000,4692000,0.10026401,0.100265086,0.2095126,1.0003915,1.0003916,15.287349,0.0,0.0,0.0,0.0,0.0,0.0,0.0,24.752098,0.0,0.0,nan,0.0,0.0,0.0,0.0,0.09628245,0.0,0.0,0.0,1.0924004,1.092359,1.0062749,0.0,0.0,0.0,0.0,0.0,0.0
4780000,4700000,0.10026401,0.100265086,0.2095126,1.0003915,1.0003916,15.287349,0.0,0.0,0.0,0.0,0.0,0.0,0.0,24.752098,0.0,0.0,nan,0.0,0.0,0.0,0.0,0.09628245,0.0,0.0,0.0,1.0932684,1.0932266,1.0062758,0.0,0.0,0.0,0.0,0.0,0.0
4788000,4708000,0.10026401,0.100265086,0.2095126,1.0003915,1.0003916,15.287349,0.0,0.0,0.0,0.0,0.0,0.0,0.0,24.752098,0.0,0.0,nan,0.0,0.0,0.0,0.0,0.09628245,0.0,0.0,0.0,1.0941428,1.0941007,1.0062766,0.0,0.0,0.0,0.0,0.0,0.0
4796000,4716000,0.10026401,0.100265086,0.2095126,1.0003915,1.0003916,15.287349,0.0,0.0,0.0,0.0,0.0,0.0,0.0,24.752098,0.0,0.0,nan,0.0,0.0,0.0,0.0,0.09628245,0.0,0.0,0.0,1.0950239,1.0949813,1.0062773,0.0,0.0,0.0,0.0,0.0,0.0
4804000,4724000,0.10026401,0.100265086,0.2095126,1.0003915,1.0003916,15.287349,0.0,0.0,0.0,0.0,0.0,0.0,0.0,24.752098,0.0,0.0,nan,0.0,0.0,0.0,0.0,0.09628245,0.0,0.0,0.0,1.0959115,1.0958685,1.0062782,0.0,0.0,0.0,0.0,0.0,0.0
4812000,4732000,0.10026401,0.100265086,0.2095126,1.0003915,1.0003916,15.287349,0.0,0.0,0.0,0.0,0.0,0.0,0.0,24.752098,0.0,0.0,nan,0.0,0.0,0.0,0.0,0.09628245,0.0,0.0,0.0,1.0968057,1.0967623,1.0062791,0.0,0.0,0.0,0.0,0.0,0.0
4820000,4740000,0.10026401,0.100265086,0.2095126,1.0003915,1.0003916,15.287349,0.0,0.0,0.0,0.0,0.0,0.0,0.0,24.752098,0.0,0.0,nan,0.0,0.0,0.0,0.0,0.09628245,0.0,0.0,0.0,1.0977066,1.0976628,1.0062798,0.0,0.0,0.0,0.0,0.0,0.0
4828000,4748000,0.10026401,0.100265086,0.2095126,1.0003915,1.0003916,15.287349,0.0,0.0,0.0,0.0,0.0,0.0,0.0,24.752098,0.0,0.0,nan,0.0,0.0,0.0,0.0,0.09628245,0.0,0.0,0.0,1.0986139,1.0985696,1.0062807,0.0,0.0,0.0,0.0,0.0,0.0
4836000,4756000,0.10026401,0.100265086,0.2095126,1.0003915,1.0003916,15.287349,0.0,0.0,0.0,0.0,0.0,0.0,0.0,24.752659,0.0,0.0,nan,0.0,0.0,0.0,0.0,0.09633704,0.0,0.0,0.0,1.0995277,1.0994833,1.0062815,0.0,0.0,0.0,0.0,0.0,0.0
4844000,4764000,0.10026401,0.100265086,0.2095126,1.0003915,1.0003916,15.287349,0.0,0.0,0.0,0.0,0.0,0.0,0.0,24.752659,0.0,0.0,nan,0.0,0.0,0.0,0.0,0.09633704,0.0,0.0,0.0,1.1004485,1.1004034,1.0062822,0.0,0.0,0.0,0.0,0.0,0.0
4852000,4772000,0.10026401,0.100265086,0.2095126,1.0003915,1.0003916,15.287349,0.0,0.0,0.0,0.0,0.0,0.0,0.0,24.752659,0.0,0.0,nan,0.0,0.0,0.0,0.0,0.09633704,0.0,0.0,0.0,1.1013755,1.1013302,1.006283,0.0,0.0,0.0,0.0,0.0,0.0
4860000,4780000,0.10026401,0.100265086,0.2095126,1.0003915,1.0003916,15.287349,0.0,0.0,0.0,0.0,0.0,0.0,0.0,24.752659,0.0,0.0,nan,0.0,0.0,0.0,0.0,0.09633704,0.0,0.0,0.0,1.1023091,1.1022635,1.0062839,0.0,0.0,0.0,0.0,0.0,0.0
4868000,4788000,0.10026401,0.100265086,0.2095126,1.0003915,1.0003916,15.287349,0.0,0.0,0.0,0.0,0.0,0.0,0.0,24.752659,0.0,0.0,nan,0.0,0.0,0.0,0.0,0.09633704,0.0,0.0,0.0,1.1032494,1.1032033,1.0062846,0.0,0.0,0.0,0.0,0.0,0.0
4876000,4796000,0.10026401,0.100265086,0.2095126,1.0003915,1.0003916,15.287349,0.0,0.0,0.0,0.0,0.0,0.0,0.0,24.752659,0.0,0.0,nan,0.0,0.0,0.0,0.0,0.09633704,0.0,0.0,0.0,1.0643473,1.0643098,1.0062466,0.0,0.0,0.0,0.0,0.0,0.0
4884000,4804000,0.10026401,0.100265086,0.2095126,1.0003915,1.0003916,15.287349,0.0,0.0,0.0,0.0,0.0,0.0,0.0,24.752659,0.0,0.0,nan,0.0,0.0,0.0,0.0,0.09633704,0.0,0.0,0.0,1.0647701,1.0647324,1.0062468,0.0,0.0,0.0,0.0,0.0,0.0
4892000,4812000,0.10026401,0.100265086,0.2095126,1.0003915,1.0003916,15.287349,0.0,0.0,0.0,0.0,0.0,0.0,0.0,24.753227,0.0,0.0,nan,0.0,0.0,0.0,0.0,0.09633704,0.0,0.0,0.0,1.065196,1.0651582,1.0062472,0.0,0.0,0.0,0.0,0.0,0.0
4900000,4820000,0.10026401,0.100265086,0.2095126,1.0003915,1.0003916,15.287349,0.0,0.0,0.0,0.0,0.0,0.0,0.0,24.753227,0.0,0.0,nan,0.0,0.0,0.0,0.0,0.09633704,0.0,0.0,0.0,1.065625,1.0655872,1.0062474,0.0,0.0,0.0,0.0,0.0,0.0
4908000,4828000,0.10026401,0.100265086,0.2095126,1.0003915,1.0003916,15.287349,0.0,0.0,0.0,0.0,0.0,0.0,0.0,24.753227,0.0,0.0,nan,0.0,0.0,0.0,0.0,0.09638979,0.0,0.0,0.0,1.0644095,1.0643723,1.0062454,0.0,0.0,0.0,0.0,0.0,0.0
4916000,4836000,0.10026401,0.100265086,0.2095126,1.0003915,1.0003916,15.287349,0.0,0.0,0.0,0.0,0.0,0.0,0.0,24.753227,0.0,0.0,nan,0.0,0.0,0.0,0.0,0.09638979,0.0,0.0,0.0,1.0648223,1.0647849,1.0062457,0.0,0.0,0.0,0.0,0.0,0.0
4924000,4844000,0.10026401,0.100265086,0.2095126,1.0003915,1.0003916,15.287349,0.0,0.0,0.0,0.0,0.0,0.0,0.0,24.753227,0.0,0.0,nan,0.0,0.0,0.0,0.0,0.09638979,0.0,0.0,0.0,1.065238,1.0652003,1.006246,0.0,0.0,0.0,0.0,0.0,0.0
4932000,4852000,0.10026401,0.100265086,0.2095126,1.0003915,1.0003916,15.287349,0.0,0.0,0.0,0.0,0.0,0.0,0.0,24.753227,0.0,0.0,nan,0.0,0.0,0.0,0.0,0.09638979,0.0,0.0,0.0,1.0656568,1.065619,1.0062462,0.0,0.0,0.0,0.0,0.0,0.0
4940000,4860000,0.10026401,0.100265086,0.2095126,1.0003915,1.0003916,15.287349,0.0,0.0,0.0,0.0,0.0,0.0,0.0,24.753227,0.0,0.0,nan,0.0,0.0,0.0,0.0,0.09638979,0.0,0.0,0.0,1.0660783,1.0660404,1.0062464,0.0,0.0,0.0,0.0,0.0,0.0
4948000,4868000,0.10026401,0.100265086,0.2095126,1.0003915,1.0003916,15.287349,0.0,0.0,0.0,0.0,0.0,0.0,0.0,24.753227,0.0,0.0,nan,0.0,0.0,0.0,0.0,0.09638979,0.0,0.0,0.0,1.0665028,1.0664647,1.0062469,0.0,0.0,0.0,0.0,0.0,0.0
4956000,4876000,0.10026401,0.100265086,0.2095126,1.0003915,1.0003916,15.287349,0.0,0.0,0.0,0.0,0.0,0.0,0.0,18.437838,0.0,0.0,nan,0.0,0.0,0.0,0.0,0.09638979,0.0,0.0,0.0,1.0669303,1.0668919,1.0062472,0.0,0.0,0.0,0.0,0.0,0.0
4964000,4884000,0.10026401,0.100265086,0.2095126,1.0003915,1.0003916,15.287349,0.0,0.0,0.0,0.0,0.0,0.0,0.0,18.437838,0.0,0.0,nan,0.0,0.0,0.0,0.0,0.09638979,0.0,0.0,0.0,1.0673608,1.0673223,1.0062475,0.0,0.0,0.0,0.0,0.0,0.0
4972000,4892000,0.10026401,0.100265086,0.2095126,1.0003915,1.0003916,15.287349,0.0,0.0,0.0,0.0,0.0,0.0,0.0,18.437838,0.0,0.0,nan,0.0,0.0,0.0,0.0,0.09638979,0.0,0.0,0.0,1.067794,1.0677553,1.0062479,0.0,0.0,0.0,0.0,0.0,0.0
4980000,4900000,0.10026401,0.100265086,0.2095126,1.0003915,1.0003916,15.287349,0.0,0.0,0.0,0.0,0.0,0.0,0.0,18.437838,0.0,0.0,nan,0.0,0.0,0.0,0.0,0.09643929,0.0,0.0,0.0,1.0682302,1.0681913,1.0062482,0.0,0.0,0.0,0.0,0.0,0.0
4988000,4908000,0.10026401,0.100265086,0.2095126,1.0003915,1.0003916,15.287349,0.0,0.0,0.0,0.0,0.0,0.0,0.0,18.437838,0.0,0.0,nan,0.0,0.0,0.0,0.0,0.09643929,0.0,0.0,0.0,1.0686694,1.0686302,1.0062485,0.0,0.0,0.0,0.0,0.0,0.0
4996000,4916000,0.10026401,0.100265086,0.2095126,1.0003915,1.0003916,15.287349,0.0,0.0,0.0,0.0,0.0,0.0,0.0,18.437838,0.0,0.0,nan,0.0,0.0,0.0,0.0,0.09643929,0.0,0.0,0.0,1.0691115,1.0690721,1.006249,0.0,0.0,0.0,0.0,0.0,0.0
5004000,4924000,0.10026401,0.100265086,0.2095126,1.0003915,1.0003916,15.287349,0.0,0.0,0.0,0.0,0.0,0.0,0.0,18.437838,0.0,0.0,nan,0.0,0.0,0.0,0.0,0.09643929,0.0,0.0,0.0,1.0695564,1.0695169,1.0062493,0.0,0.0,0.0,0.0,0.0,0.0
5012000,4932000,0.09464109,0.094642445,0.21105902,1.0002561,1.0002561,4.078263,0.0,0.0,0.0,0.0,0.0,0.0,0.0,16.361404,0.0,0.0,nan,0.0,0.0,0.0,0.0,0.09643929,0.0,0.0,0.0,1.0700043,1.0699645,1.0062497,0.0,0.0,0.0,0.0,0.0,0.0
5020000,4940000,0.09464109,0.094642445,0.21105902,1.0002561,1.0002561,4.078263,0.0,0.0,0.0,0.0,0.0,0.0,0.0,16.361404,0.0,0.0,nan,0.0,0.0,0.0,0.0,0.09643929,0.0,0.0,0.0,1.0704552,1.0704153,1.00625,0.0,0.0,0.0,0.0,0.0,0.0
5028000,4948000,0.09464109,0.094642445,0.21105902,1.0002561,1.0002561,4.078263,0.0,0.0,0.0,0.0,0.0,0.0,0.0,16.361404,0.0,0.0,nan,0.0,0.0,0.0,0.0,0.09643929,0.0,0.0,0.0,1.0709089,1.0708688,1.0062504,0.0,0.0,0.0,0.0,0.0,0.0
5036000,4956000,0.09464109,0.094642445,0.21105902,1.0002561,1.0002561,4.078263,0.0,0.0,0.0,0.0,0.0,0.0,0.0,16.361404,0.0,0.0,nan,0.0,0.0,0.0,0.0,0.09643929,0.0,0.0,0.0,1.0713657,1.0713252,1.0062509,0.0,0.0,0.0,0.0,0.0,0.0
5044000,4964000,0.09464109,0.094642445,0.21105902,1.0002561,1.0002561,4.078263,0.0,0.0,0.0,0.0,0.0,0.0,0.0,16.361404,0.0,0.0,nan,0.0,0.0,0.0,0.0,0.09643929,0.0,0.0,0.0,1.0718253,1.0717846,1.0062512,0.0,0.0,0.0,0.0,0.0,0.0
5052000,4972000,0.09464109,0.094642445,0.21105902,1.0002561,1.0002561,4.078263,0.0,0.0,0.0,0.0,0.0,0.0,0.0,16.361404,0.0,0.0,nan,0.0,0.0,0.0,0.0,0.096484125,0.0,0.0,0.0,1.0722879,1.0722469,1.0062517,0.0,0.0,0.0,0.0,0.0,0.0
5060000,4980000,0.09464109,0.094642445,0.21105902,1.0002561,1.0002561,4.078263,0.0,0.0,0.0,0.0,0.0,0.0,0.0,15.32846,0.0,0.0,nan,0.0,0.0,0.0,0.0,0.096484125,0.0,0.0,0.0,1.0727534,1.0727121,1.0062519,0.0,0.0,0.0,0.0,0.0,0.0
5068000,4988000,0.09464109,0.094642445,0.21105902,1.0002561,1.0002561,4.078263,0.0,0.0,0.0,0.0,0.0,0.0,0.0,15.32846,0.0,0.0,nan,0.0,0.0,0.0,0.0,0.096484125,0.0,0.0,0.0,1.0732218,1.0731803,1.0062525,0.0,0.0,0.0,0.0,0.0,0.0
5076000,4996000,0.09464109,0.094642445,0.21105902,1.0002561,1.0002561,4.078263,0.0,0.0,0.0,0.0,0.0,0.0,0.0,15.32846,0.0,0.0,nan,0.0,0.0,0.0,0.0,0.096484125,0.0,0.0,0.0,1.0736932,1.0736514,1.0062528,0.0,0.0,0.0,0.0,0.0,0.0
5084000,5004000,0.09464109,0.094642445,0.21105902,1.0002561,1.0002561,4.078263,0.0,0.0,0.0,0.0,0.0,0.0,0.0,15.32846,0.0,0.0,nan,0.0,0.0,0.0,0.0,0.096484125,0.0,0.0,0.0,1.0539311,1.0538971,1.0062342,0.0,0.0,0.0,0.0,0.0,0.0
5092000,5012000,0.09464109,0.094642445,0.21105902,1.0002561,1.0002561,4.078263,0.0,0.0,0.0,0.0,0.0,0.0,0.0,15.32846,0.0,0.0,nan,0.0,0.0,0.0,0.0,0.096484125,0.0,0.0,0.0,1.0541719,1.0541377,1.0062343,0.0,0.0,0.0,0.0,0.0,0.0
5100000,5020000,0.09464109,0.094642445,0.21105902,1.0002561,1.0002561,4.078263,0.0,0.0,0.0,0.0,0.0,0.0,0.0,15.32846,0.0,0.0,nan,0.0,0.0,0.0,0.0,0.096484125,0.0,0.0,0.0,1.0544142,1.0543798,1.0062345,0.0,0.0,0.0,0.0,0.0,0.0
5108000,5028000,0.09464109,0.094642445,0.21105902,1.0002561,1.0002561,4.078263,0.0,0.0,0.0,0.0,0.0,0.0,0.0,15.32846,0.0,0.0,nan,0.0,0.0,0.0,0.0,0.096484125,0.0,0.0,0.0,1.054658,1.0546235,1.0062348,0.0,0.0,0.0,0.0,0.0,0.0
5116000,5036000,0.09464109,0.094642445,0.21105902,1.0002561,1.0002561,4.078263,0.0,0.0,0.0,0.0,0.0,0.0,0.0,15.32846,0.0,0.0,nan,0.0,0.0,0.0,0.0,0.096484125,0.0,0.0,0.0,1.0541228,1.0540887,1.0062342,0.0,0.0,0.0,0.0,0.0,0.0
5124000,5044000,0.09464109,0.094642445,0.21105902,1.0002561,1.0002561,4.078263,0.0,0.0,0.0,0.0,0.0,0.0,0.0,14.710361,0.0,0.0,nan,0.0,0.0,0.0,0.0,0.0965233,0.0,0.0,0.0,1.0543605,1.0543263,1.0062346,0.0,0.0,0.0,0.0,0.0,0.0
5132000,5052000,0.09464109,0.094642445,0.21105902,1.0002561,1.0002561,4.078263,0.0,0.0,0.0,0.0,0.0,0.0,0.0,14.710361,0.0,0.0,nan,0.0,0.0,0.0,0.0,0.0965233,0.0,0.0,0.0,1.0545995,1.0545652,1.0062349,0.0,0.0,0.0,0.0,0.0,0.0
5140000,5060000,0.09464109,0.094642445,0.21105902,1.0002561,1.0002561,4.078263,0.0,0.0,0.0,0.0,0.0,0.0,0.0,14.710361,0.0,0.0,nan,0.0,0.0,0.0,0.0,0.0965233,0.0,0.0,0.0,1.0548402,1.0548058,1.006235,0.0,0.0,0.0,0.0,0.0,0.0
5148000,5068000,0.09464109,0.094642445,0.21105902,1.0002561,1.0002561,4.078263,0.0,0.0,0.0,0.0,0.0,0.0,0.0,14.710361,0.0,0.0,nan,0.0,0.0,0.0,0.0,0.0965233,0.0,0.0,0.0,1.0550823,1.0550478,1.0062352,0.0,0.0,0.0,0.0,0.0,0.0
5156000,5076000,0.09464109,0.094642445,0.21105902,1.0002561,1.0002561,4.078263,0.0,0.0,0.0,0.0,0.0,0.0,0.0,14.710361,0.0,0.0,nan,0.0,0.0,0.0,0.0,0.0965233,0.0,0.0,0.0,1.0553259,1.0552912,1.0062356,0.0,0.0,0.0,0.0,0.0,0.0
5164000,5084000,0.09464109,0.094642445,0.21105902,1.0002561,1.0002561,4.078263,0.0,0.0,0.0,0.0,0.0,0.0,0.0,14.710361,0.0,0.0,nan,0.0,0.0,0.0,0.0,0.0965233,0.0,0.0,0.0,1.055571,1.0555363,1.0062358,0.0,0.0,0.0,0.0,0.0,0.0
5172000,5092000,0.09464109,0.094642445,0.21105902,1.0002561,1.0002561,4.078263,0.0,0.0,0.0,0.0,0.0,0.0,0.0,14.710361,0.0,0.0,nan,0.0,0.0,0.0,0.0,0.0965233,0.0,0.0,0.0,1.0558175,1.0557827,1.006236,0.0,0.0,0.0,0.0,0.0,0.0
5180000,5100000,0.09464109,0.094642445,0.21105902,1.0002561,1.0002561,4.078263,0.0,0.0,0.0,0.0,0.0,0.0,0.0,14.299077,0.0,0.0,nan,0.0,0.0,0.0,0.0,0.0965233,0.0,0.0,0.0,1.0560656,1.0560306,1.0062361,0.0,0.0,0.0,0.0,0.0,0.0
5188000,5108000,0.09464109,0.094642445,0.21105902,1.0002561,1.0002561,4.078263,0.0,0.0,0.0,0.0,0.0,0.0,0.0,14.299077,0.0,0.0,nan,0.0,0.0,0.0,0.0,0.0965233,0.0,0.0,0.0,1.0563152,1.05628,1.0062363,0.0,0.0,0.0,0.0,0.0,0.0
5196000,5116000,0.09464109,0.094642445,0.21105902,1.0002561,1.0002561,4.078263,0.0,0.0,0.0,0.0,0.0,0.0,0.0,14.299077,0.0,0.0,nan,0.0,0.0,0.0,0.0,0.096556194,0.0,0.0,0.0,1.0565662,1.056531,1.0062366,0.0,0.0,0.0,0.0,0.0,0.0
5204000,5124000,0.09464109,0.094642445,0.21105902,1.0002561,1.0002561,4.078263,0.0,0.0,0.0,0.0,0.0,0.0,0.0,14.299077,0.0,0.0,nan,0.0,0.0,0.0,0.0,0.096556194,0.0,0.0,0.0,1.0568188,1.0567834,1.0062368,0.0,0.0,0.0,0.0,0.0,0.0
5212000,5132000,0.09464109,0.094642445,0.21105902,1.0002561,1.0002561,4.078263,0.0,0.0,0.0,0.0,0.0,0.0,0.0,14.299077,0.0,0.0,nan,0.0,0.0,0.0,0.0,0.096556194,0.0,0.0,0.0,1.0570729,1.0570374,1.0062371,0.0,0.0,0.0,0.0,0.0,0.0
5220000,5140000,0.09464109,0.094642445,0.21105902,1.0002561,1.0002561,4.078263,0.0,0.0,0.0,0.0,0.0,0.0,0.0,14.299077,0.0,0.0,nan,0.0,0.0,0.0,0.0,0.096556194,0.0,0.0,0.0,1.0573285,1.0572927,1.0062374,0.0,0.0,0.0,0.0,0.0,0.0
5228000,5148000,0.09464109,0.094642445,0.21105902,1.0002561,1.0002561,4.078263,0.0,0.0,0.0,0.0,0.0,0.0,0.0,14.299077,0.0,0.0,nan,0.0,0.0,0.0,0.0,0.096556194,0.0,0.0,0.0,1.0575856,1.0575496,1.0062376,0.0,0.0,0.0,0.0,0.0,0.0
5236000,5156000,0.09464109,0.094642445,0.21105902,1.0002561,1.0002561,4.078263,0.0,0.0,0.0,0.0,0.0,0.0,0.0,14.299077,0.0,0.0,nan,0.0,0.0,0.0,0.0,0.096556194,0.0,0.0,0.0,1.0578442,1.057808,1.0062377,0.0,0.0,0.0,0.0,0.0,0.0
5244000,5164000,0.09464109,0.094642445,0.21105902,1.0002561,1.0002561,4.078263,0.0,0.0,0.0,0.0,0.0,0.0,0.0,14.005729,0.0,0.0,nan,0.0,0.0,0.0,0.0,0.096556194,0.0,0.0,0.0,1.0581042,1.058068,1.006238,0.0,0.0,0.0,0.0,0.0,0.0
5252000,5172000,0.09464109,0.094642445,0.21105902,1.0002561,1.0002561,4.078263,0.0,0.0,0.0,0.0,0.0,0.0,0.0,14.005729,0.0,0.0,nan,0.0,0.0,0.0,0.0,0.096556194,0.0,0.0,0.0,1.0583658,1.0583295,1.0062382,0.0,0.0,0.0,0.0,0.0,0.0
5260000,5180000,0.09464109,0.094642445,0.21105902,1.0002561,1.0002561,4.078263,0.0,0.0,0.0,0.0,0.0,0.0,0.0,14.005729,0.0,0.0,nan,0.0,0.0,0.0,0.0,0.096556194,0.0,0.0,0.0,1.0586289,1.0585923,1.0062385,0.0,0.0,0.0,0.0,0.0,0.0
5268000,5188000,0.09464109,0.094642445,0.21105902,1.0002561,1.0002561,4.078263,0.0,0.0,0.0,0.0,0.0,0.0,0.0,14.005729,0.0,0.0,nan,0.0,0.0,0.0,0.0,0.0965823,0.0,0.0,0.0,1.0588934,1.0588567,1.0062393,0.0,0.0,0.0,0.0,0.0,0.0
5276000,5196000,0.09464109,0.094642445,0.21105902,1.0002561,1.0002561,4.078263,0.0,0.0,0.0,0.0,0.0,0.0,0.0,14.005729,0.0,0.0,nan,0.0,0.0,0.0,0.0,0.0965823,0.0,0.0,0.0,1.0591594,1.0591226,1.0062395,0.0,0.0,0.0,0.0,0.0,0.0
5284000,5204000,0.09464109,0.094642445,0.21105902,1.0002561,1.0002561,4.078263,0.0,0.0,0.0,0.0,0.0,0.0,0.0,14.005729,0.0,0.0,nan,0.0,0.0,0.0,0.0,0.0965823,0.0,0.0,0.0,1.0594269,1.05939,1.0062398,0.0,0.0,0.0,0.0,0.0,0.0
5292000,5212000,0.09464109,0.094642445,0.21105902,1.0002561,1.0002561,4.078263,0.0,0.0,0.0,0.0,0.0,0.0,0.0,14.005729,0.0,0.0,nan,0.0,0.0,0.0,0.0,0.0965823,0.0,0.0,0.0,1.0483145,1.0482829,1.0062293,0.0,0.0,0.0,0.0,0.0,0.0
5300000,5220000,0.09464109,0.094642445,0.21105902,1.0002561,1.0002561,4.078263,0.0,0.0,0.0,0.0,0.0,0.0,0.0,13.785921,0.0,0.0,nan,0.0,0.0,0.0,0.0,0.0965823,0.0,0.0,0.0,1.0484663,1.0484346,1.0062296,0.0,0.0,0.0,0.0,0.0,0.0
5308000,5228000,0.09464109,0.094642445,0.21105902,1.0002561,1.0002561,4.078263,0.0,0.0,0.0,0.0,0.0,0.0,0.0,13.785921,0.0,0.0,nan,0.0,0.0,0.0,0.0,0.0965823,0.0,0.0,0.0,1.0486192,1.0485874,1.0062296,0.0,0.0,0.0,0.0,0.0,0.0
5316000,5236000,0.09464109,0.094642445,0.21105902,1.0002561,1.0002561,4.078263,0.0,0.0,0.0,0.0,0.0,0.0,0.0,13.785921,0.0,0.0,nan,0.0,0.0,0.0,0.0,0.0965823,0.0,0.0,0.0,1.0487727,1.0487411,1.0062298,0.0,0.0,0.0,0.0,0.0,0.0
5324000,5244000,0.09464109,0.094642445,0.21105902,1.0002561,1.0002561,4.078263,0.0,0.0,0.0,0.0,0.0,0.0,0.0,13.785921,0.0,0.0,nan,0.0,0.0,0.0,0.0,0.0965823,0.0,0.0,0.0,1.0485071,1.0484756,1.0062296,0.0,0.0,0.0,0.0,0.0,0.0
5332000,5252000,0.09464109,0.094642445,0.21105902,1.0002561,1.0002561,4.078263,0.0,0.0,0.0,0.0,0.0,0.0,0.0,13.785921,0.0,0.0,nan,0.0,0.0,0.0,0.0,0.0965823,0.0,0.0,0.0,1.048658,1.0486264,1.0062296,0.0,0.0,0.0,0.0,0.0,0.0
5340000,5260000,0.09464109,0.094642445,0.21105902,1.0002561,1.0002561,4.078263,0.0,0.0,0.0,0.0,0.0,0.0,0.0,13.785921,0.0,0.0,nan,0.0,0.0,0.0,0.0,0.09660132,0.0,0.0,0.0,1.0488099,1.048778,1.0062305,0.0,0.0,0.0,0.0,0.0,0.0
5348000,5268000,0.09464109,0.094642445,0.21105902,1.0002561,1.0002561,4.078263,0.0,0.0,0.0,0.0,0.0,0.0,0.0,13.785921,0.0,0.0,nan,0.0,0.0,0.0,0.0,0.09660132,0.0,0.0,0.0,1.0489626,1.0489306,1.0062305,0.0,0.0,0.0,0.0,0.0,0.0
5356000,5276000,0.09464109,0.094642445,0.21105902,1.0002561,1.0002561,4.078263,0.0,0.0,0.0,0.0,0.0,0.0,0.0,13.785921,0.0,0.0,nan,0.0,0.0,0.0,0.0,0.09660132,0.0,0.0,0.0,1.0491161,1.0490843,1.0062306,0.0,0.0,0.0,0.0,0.0,0.0
5364000,5284000,0.09464109,0.094642445,0.21105902,1.0002561,1.0002561,4.078263,0.0,0.0,0.0,0.0,0.0,0.0,0.0,13.614972,0.0,0.0,nan,0.0,0.0,0.0,0.0,0.09660132,0.0,0.0,0.0,1.0492705,1.0492387,1.0062307,0.0,0.0,0.0,0.0,0.0,0.0
5372000,5292000,0.09464109,0.094642445,0.21105902,1.0002561,1.0002561,4.078263,0.0,0.0,0.0,0.0,0.0,0.0,0.0,13.614972,0.0,0.0,nan,0.0,0.0,0.0,0.0,0.09660132,0.0,0.0,0.0,1.0494257,1.0493938,1.006231,0.0,0.0,0.0,0.0,0.0,0.0
5380000,5300000,0.09464109,0.094642445,0.21105902,1.0002561,1.0002561,4.078263,0.0,0.0,0.0,0.0,0.0,0.0,0.0,13.614972,0.0,0.0,nan,0.0,0.0,0.0,0.0,0.09660132,0.0,0.0,0.0,1.0495819,1.0495499,1.006231,0.0,0.0,0.0,0.0,0.0,0.0
5388000,5308000,0.09464109,0.094642445,0.21105902,1.0002561,1.0002561,4.078263,0.0,0.0,0.0,0.0,0.0,0.0,0.0,13.614972,0.0,0.0,nan,0.0,0.0,0.0,0.0,0.09660132,0.0,0.0,0.0,1.0497388,1.0497068,1.0062312,0.0,0.0,0.0,0.0,0.0,0.0
5396000,5316000,0.09464109,0.094642445,0.21105902,1.0002561,1.0002561,4.078263,0.0,0.0,0.0,0.0,0.0,0.0,0.0,13.614972,0.0,0.0,nan,0.0,0.0,0.0,0.0,0.09660132,0.0,0.0,0.0,1.0498968,1.0498645,1.0062311,0.0,0.0,0.0,0.0,0.0,0.0
5404000,5324000,0.092522874,0.09252376,0.2112023,1.0001704,1.0001704,2.228333,0.0,0.0,0.0,0.0,0.0,0.0,0.0,13.614972,0.0,0.0,nan,0.0,0.0,0.0,0.0,0.09660132,0.0,0.0,0.0,1.0500555,1.0500232,1.0062312,0.0,0.0,0.0,0.0,0.0,0.0
5412000,5332000,0.092522874,0.09252376,0.2112023,1.0001704,1.0001704,2.228333,0.0,0.0,0.0,0.0,0.0,0.0,0.0,13.614972,0.0,0.0,nan,0.0,0.0,0.0,0.0,0.096613206,0.0,0.0,0.0,1.0502149,1.0501827,1.006232,0.0,0.0,0.0,0.0,0.0,0.0
5420000,5340000,0.092522874,0.09252376,0.2112023,1.0001704,1.0001704,2.228333,0.0,0.0,0.0,0.0,0.0,0.0,0.0,13.478424,0.0,0.0,nan,0.0,0.0,0.0,0.0,0.096613206,0.0,0.0,0.0,1.0503755,1.050343,1.006232,0.0,0.0,0.0,0.0,0.0,0.0
5428000,5348000,0.092522874,0.09252376,0.2112023,1.0001704,1.0001704,2.228333,0.0,0.0,0.0,0.0,0.0,0.0,0.0,13.478424,0.0,0.0,nan,0.0,0.0,0.0,0.0,0.096613206,0.0,0.0,0.0,1.0505366,1.0505043,1.0062321,0.0,0.0,0.0,0.0,0.0,0.0
5436000,5356000,0.092522874,0.09252376,0.2112023,1.0001704,1.0001704,2.228333,0.0,0.0,0.0,0.0,0.0,0.0,0.0,13.478424,0.0,0.0,nan,0.0,0.0,0.0,0.0,0.096613206,0.0,0.0,0.0,1.0506988,1.0506663,1.0062323,0.0,0.0,0.0,0.0,0.0,0.0
5444000,5364000,0.092522874,0.09252376,0.2112023,1.0001704,1.0001704,2.228333,0.0,0.0,0.0,0.0,0.0,0.0,0.0,13.478424,0.0,0.0,nan,0.0,0.0,0.0,0.0,0.096613206,0.0,0.0,0.0,1.0508618,1.0508293,1.0062326,0.0,0.0,0.0,0.0,0.0,0.0
