timestamp,timestamp_sample,ref_timestamp,ref_lat,ref_lon,x,y,z,delta_xy[0],delta_xy[1],delta_z,vx,vy,vz,z_deriv,delta_vxy[0],delta_vxy[1],delta_vz,ax,ay,az,heading,delta_heading,ref_alt,dist_bottom,eph,epv,evh,evv,vxy_max,vz_max,hagl_min,hagl_max,xy_valid,z_valid,v_xy_valid,v_z_valid,xy_reset_counter,z_reset_counter,vxy_reset_counter,vz_reset_counter,heading_reset_counter,heading_good_for_control,xy_global,z_global,dist_bottom_valid,dist_bottom_sensor_bitfield,dead_reckoning
3668000,3668000,0,nan,nan,0.0015592687,0.0009340431,-0.006579438,-4.0797516e-08,1.4148653e-08,0.0,0.0045281798,0.005118586,-0.021646434,-0.016912114,-6.799586e-06,2.3581088e-06,0.0017179325,0.031720527,0.019462865,-0.021373851,1.6313429,-0.005738385,nan,0.10669793,0.012924983,5.7735023,0.102619365,0.02503154,inf,inf,inf,inf,0,0,0,0,1,1,1,1,1,0,0,0,0,0,1
4164000,4164000,0,nan,nan,0.00039721216,0.0023448206,-0.0062912065,-4.0797516e-08,1.4148653e-08,0.0,0.00012201205,0.008109071,-0.0148669565,-0.008131337,-6.799586e-06,2.3581088e-06,0.0017179325,-0.012745018,-0.0009960203,-0.02876669,1.6281416,-0.005738385,nan,0.10279005,0.025996486,4.4721794,0.1582096,0.061689403,inf,inf,inf,inf,0,0,0,0,1,1,1,1,1,0,0,0,0,0,1
4668000,4668000,4204000,47.3977508,8.5456073,0.00024943595,0.0017306291,-0.009065876,-4.0797516e-08,1.4148653e-08,0.0,0.0033155708,0.0030503937,-0.015365514,-0.008796763,-6.799586e-06,2.3581088e-06,0.0017179325,-0.009837778,-0.0069978265,0.008860602,1.630114,-0.005738385,488.0971,0.10242906,0.013663403,3.5357645,0.08213507,0.08813942,inf,inf,inf,inf,0,0,0,0,1,1,1,1,1,0,1,1,0,0,1
5164000,5164000,4204000,47.3977508,8.5456073,0.0008954399,-0.00037301966,-0.011772613,-4.0797516e-08,1.4148653e-08,0.0,0.0020452386,-0.00072971976,-0.013878258,-0.006394206,-6.799586e-06,2.3581088e-06,0.0017179325,-0.012820979,-0.017673694,-0.01140125,1.6284505,-0.005738385,488.0971,0.11516866,0.017258823,1.4314357,0.07403105,0.09112507,inf,inf,inf,inf,0,1,0,1,1,1,1,1,1,0,1,1,0,0,1
5668000,5668000,4204000,47.3977508,8.5456073,-0.0013949478,-0.0008913434,-0.00081316114,-4.0797516e-08,1.4148653e-08,0.0,-0.004320532,-0.0015446275,-0.011790841,0.0051967707,-6.799586e-06,2.3581088e-06,0.0017179325,0.011554685,-0.0061794706,0.0026579944,1.6250134,-0.005738385,488.0971,0.10940752,0.021085747,0.9050701,0.072001584,0.095388755,inf,inf,inf,inf,0,1,0,1,1,1,1,1,1,0,1,1,0,0,1
6164000,6164000,4204000,47.3977508,8.5456073,-0.0012723125,-0.00072706933,0.0024008884,-4.0797516e-08,1.4148653e-08,0.0,-0.001640307,-0.0010695339,-0.00941462,0.0066577513,-6.799586e-06,2.3581088e-06,0.0017179325,-0.010352392,-0.035277244,0.018085351,1.6248573,-0.005738385,488.0971,0.1003451,0.013368509,0.73180676,0.048227318,0.08653961,inf,inf,inf,inf,0,1,0,1,1,1,1,1,1,0,1,1,0,0,1
6668000,6668000,4204000,47.3977508,8.5456073,-0.000653672,-0.002050276,0.004405467,-4.0797516e-08,1.4148653e-08,0.0,-0.0023567092,-0.00608339,-0.0064055384,0.007097827,-6.799586e-06,2.3581088e-06,0.0017179325,-0.006937116,-0.02298223,-0.008812173,1.6221192,-0.005738385,488.0971,0.1,0.016472386,0.62214094,0.052082893,0.086529456,inf,inf,inf,inf,0,1,0,1,1,1,1,1,1,0,1,1,0,0,1
7164000,7164000,4204000,47.3977508,8.5456073,-0.0022891192,-0.0018778264,0.0071664127,-4.0797516e-08,1.4148653e-08,0.0,-0.00852602,-0.0029616132,-0.0008645563,0.010588588,-6.799586e-06,2.3581088e-06,0.0017179325,-0.0026834311,-0.0021970044,0.00928901,1.6205431,-0.005738385,488.0971,0.10011902,0.011607069,0.5588483,0.040101923,0.08571846,inf,inf,inf,inf,0,1,0,1,1,1,1,1,1,0,1,1,0,0,1
7668000,7668000,4204000,47.3977508,8.5456073,-0.0030826663,-0.00016689867,0.010950135,-4.0797516e-08,1.4148653e-08,0.0,-0.005985052,0.0008075424,0.0014042179,0.010784131,-6.799586e-06,2.3581088e-06,0.0017179325,-0.020110847,-0.002706467,-0.008714384,1.6158139,-0.005738385,488.0971,0.1,0.014152184,0.51213086,0.044125464,0.0785509,inf,inf,inf,inf,0,1,0,1,1,1,1,1,1,0,1,1,0,0,1
8164000,8164000,4204000,47.3977508,8.5456073,-0.0012170693,-7.2978495e-05,0.008371773,-4.0797516e-08,1.4148653e-08,0.0,-0.002033567,-0.0024689678,-0.00062836177,0.0027609111,-6.799586e-06,2.3581088e-06,0.0017179325,-0.010454633,-0.020929975,0.009147449,1.6143663,-0.005738385,488.0971,0.1,0.016903302,0.47284427,0.047863595,0.078421816,inf,inf,inf,inf,0,1,0,1,1,1,1,1,1,0,1,1,0,0,1
8668000,8668000,4204000,47.3977508,8.5456073,-0.0009997115,0.0074584344,0.001053407,0.0001627675,0.007922564,-0.007012764,-0.02014789,-0.00013473058,0.05141807,0.05101408,-0.018960947,0.000738604,0.050390683,-0.026713327,0.003992521,0.01922529,1.6151187,-0.005738385,488.0971,0.100104034,1.4144132,0.96183455,0.42440578,0.45006165,inf,inf,inf,inf,1,1,1,1,2,2,2,2,1,0,1,1,0,0,0
9164000,9164000,4204000,47.3977508,8.5456073,-0.00779246,0.008349026,0.016162487,0.0001627675,0.007922564,-0.007012764,-0.018420745,0.0031417948,0.03693654,0.024848081,-0.018960947,0.000738604,0.050390683,0.021340529,-0.004092435,-0.008841976,1.6161792,-0.005738385,488.0971,0.1,1.007362,0.6047147,0.30110002,0.31699526,inf,inf,inf,inf,1,1,1,1,2,2,2,2,1,0,1,1,0,0,0
9668000,9668000,4204000,47.3977508,8.5456073,-0.0056817564,0.00504876,0.008933633,0.0001627675,0.007922564,-0.007012764,-0.0129744895,0.00082816207,0.018333135,-0.00096074195,-0.018960947,0.000738604,0.050390683,-0.007148555,0.016223492,0.04026759,1.6178946,-0.005738385,488.0971,0.1,0.83383626,0.49849623,0.24979903,0.2573027,inf,inf,inf,inf,1,1,1,1,2,2,2,2,1,0,1,1,0,0,0
10164000,10164000,4204000,47.3977508,8.5456073,-0.009713303,0.0055254134,0.0058802273,0.0001627675,0.007922564,-0.007012764,-0.013562538,0.0006327082,0.009373759,-0.0074040964,-0.018960947,0.000738604,0.050390683,0.011286174,-0.005811831,-0.0126585355,1.6195289,-0.005738385,488.0971,0.1,0.7369458,0.4491712,0.22488582,0.22130115,inf,inf,inf,inf,1,1,1,1,2,2,2,2,1,0,1,1,0,0,0
10668000,10668000,4204000,47.3977508,8.5456073,-0.0046860226,0.010858485,0.0051017115,0.0001627675,0.007922564,-0.007012764,-0.0065534087,0.004537092,0.008541047,-0.0031464153,-0.018960947,0.000738604,0.050390683,0.038276248,0.017528698,0.017059965,1.6201365,-0.005738385,488.0971,0.102236435,0.6062978,0.38197064,0.19173972,0.1771604,inf,inf,inf,inf,1,1,1,1,2,2,2,2,1,0,1,1,0,0,0
11164000,11164000,4204000,47.3977508,8.5456073,-0.0011766329,0.009768128,0.011433697,0.0001627675,0.007922564,-0.007012764,-0.0012883334,0.0022985067,0.016601859,0.009349165,-0.018960947,0.000738604,0.050390683,0.012015982,-0.0077435975,0.020920297,1.6215739,-0.005738385,488.0971,0.1,0.57759917,0.37267143,0.19483335,0.16322684,inf,inf,inf,inf,1,1,1,1,2,2,2,2,1,0,1,1,0,0,0
11668000,11668000,4204000,47.3977508,8.5456073,0.0037239762,0.00585815,0.019564029,0.0001627675,0.007922564,-0.007012764,0.0049451296,-0.0021336288,0.025085134,0.018489847,-0.018960947,0.000738604,0.050390683,-0.0074949637,-0.027990054,0.0058412547,1.6210016,-0.005738385,488.0971,0.1,0.5604387,0.36737028,0.20478849,0.152416,inf,inf,inf,inf,1,1,1,1,2,2,2,2,1,0,1,1,0,0,0
12164000,12164000,4204000,47.3977508,8.5456073,0.0040364005,0.004488116,0.023659743,0.0001627675,0.007922564,-0.007012764,0.0053747487,-0.0043280376,0.025663573,0.014607952,-0.018960947,0.000738604,0.050390683,0.0333288,0.020585692,0.009808688,1.6215618,-0.005738385,488.0971,0.1,0.5515615,0.36641216,0.21789901,0.14451568,inf,inf,inf,inf,1,1,1,1,2,2,2,2,1,0,1,1,0,0,0
12668000,12668000,4204000,47.3977508,8.5456073,0.002613913,0.0052495673,0.022899684,0.0001627675,0.007922564,-0.007012764,0.00039716394,-0.0014282847,0.02648619,0.008808874,-0.018960947,0.000738604,0.050390683,-0.017264856,-0.03760551,0.0011809169,1.6212468,-0.005738385,488.0971,0.1,0.50151795,0.33810055,0.20297825,0.1294219,inf,inf,inf,inf,1,1,1,1,2,2,2,2,1,0,1,1,0,0,0
13164000,13164000,4204000,47.3977508,8.5456073,-0.000372306,0.008486432,0.020195823,0.0001627675,0.007922564,-0.007012764,-0.00255341,0.000917473,0.026366664,0.0041686585,-0.018960947,0.000738604,0.050390683,-0.02563998,0.0035427508,0.023305414,1.6221001,-0.005738385,488.0971,0.1,0.5031381,0.34059027,0.21405603,0.12643129,inf,inf,inf,inf,1,1,1,1,2,2,2,2,1,0,1,1,0,0,0
13668000,13668000,4204000,47.3977508,8.5456073,-0.0071280324,0.009860132,0.021999316,0.0001627675,0.007922564,-0.007012764,-0.008896158,0.004573889,0.02595462,0.0036284635,-0.018960947,0.000738604,0.050390683,-0.015114099,0.015242417,-0.007805414,1.6208746,-0.005738385,488.0971,0.1,0.509592,0.34436756,0.22433256,0.12490932,inf,inf,inf,inf,1,1,1,1,2,2,2,2,1,0,1,1,0,0,0
14164000,14164000,4204000,47.3977508,8.5456073,-0.014519658,0.010883722,0.021511033,0.0001627675,0.007922564,-0.007012764,-0.010940248,0.0043776617,0.025874216,0.002615292,-0.018960947,0.000738604,0.050390683,-0.018009376,-0.0007676571,-0.015699303,1.6210378,-0.005738385,488.0971,0.1,0.51845247,0.3463087,0.23238738,0.12406139,inf,inf,inf,inf,1,1,1,1,2,2,2,2,1,0,1,1,0,0,0
14668000,14668000,4204000,47.3977508,8.5456073,-0.009417581,0.009499188,0.02510147,0.0001627675,0.007922564,-0.007012764,-0.0056418492,0.006567186,0.024430664,0.0036739833,-0.018960947,0.000738604,0.050390683,-0.007161725,-0.016133795,0.037438232,1.620288,-0.005738385,488.0971,0.1,0.47852445,0.32650676,0.20648439,0.1171752,inf,inf,inf,inf,1,1,1,1,2,2,2,2,1,0,1,1,0,0,0
15164000,15164000,4204000,47.3977508,8.5456073,-0.00039911992,0.006314057,0.024816606,0.0001627675,0.007922564,-0.007012764,-0.0004750284,0.0031821118,0.025267309,0.0027251071,-0.018960947,0.000738604,0.050390683,0.010411458,-0.0067741782,0.032581385,1.6193341,-0.005738385,488.0971,0.10231221,0.48803756,0.33104494,0.21147498,0.11830035,inf,inf,inf,inf,1,1,1,1,2,2,2,2,1,0,1,1,0,0,0
15668000,15668000,4204000,47.3977508,8.5456073,0.0031552291,0.0036029676,0.023057934,0.0001627675,0.007922564,-0.007012764,0.0020791176,0.001657568,0.026190951,0.0014258188,-0.018960947,0.000738604,0.050390683,-0.01205971,0.006837639,0.019043682,1.6181824,-0.005738385,488.0971,0.10407087,0.50005126,0.33525828,0.21626681,0.119763866,inf,inf,inf,inf,1,1,1,1,2,2,2,2,1,0,1,1,0,0,0
16164000,16164000,4204000,47.3977508,8.5456073,0.002783991,0.0020020604,0.024194986,0.0001627675,0.007922564,-0.007012764,0.0032017615,0.0025600318,0.027347215,0.0033040477,-0.018960947,0.000738604,0.050390683,0.010323128,-0.01975178,-0.0018924474,1.6173635,-0.005738385,488.0971,0.102933824,0.5124196,0.33936158,0.22005336,0.12134586,inf,inf,inf,inf,1,1,1,1,2,2,2,2,1,0,1,1,0,0,0
16668000,16668000,4204000,47.3977508,8.5456073,0.0032075045,0.0055278535,0.024990508,0.0001627675,0.007922564,-0.007012764,0.006843957,0.0036885561,0.03171029,0.006694924,-0.018960947,0.000738604,0.050390683,-0.013197131,0.006239817,0.017506069,1.6166463,-0.005738385,488.0971,0.1021383,0.47371995,0.322185,0.1947852,0.11619676,inf,inf,inf,inf,1,1,1,1,2,2,2,2,1,0,1,1,0,0,0
17164000,17164000,4204000,47.3977508,8.5456073,0.0034060085,0.006323825,0.027246373,0.0001627675,0.007922564,-0.007012764,0.009475989,0.0035585803,0.033298418,0.007516947,-0.018960947,0.000738604,0.050390683,-0.00087260554,-0.027193744,-0.019310972,1.6166297,-0.005738385,488.0971,0.1,0.48470074,0.3281934,0.19799419,0.11820954,inf,inf,inf,inf,1,1,1,1,2,2,2,2,1,0,1,1,0,0,0
17668000,17668000,4204000,47.3977508,8.5456073,0.0029365318,0.006372346,0.0302376,0.0001627675,0.007922564,-0.007012764,0.0016782898,0.0010145226,-0.0004973267,-0.02529202,-0.018960947,0.000738604,0.050390683,-0.07146336,-0.021801008,-0.36637017,1.6172885,-0.005738385,488.0971,0.100816086,0.49752986,0.33381456,0.20174499,0.12015571,inf,inf,inf,inf,1,1,1,1,2,2,2,2,1,0,1,1,0,0,0
18164000,18164000,4204000,47.3977508,8.5456073,-0.034810293,-0.021957604,-0.04320427,0.0001627675,0.007922564,-0.007012764,-0.1651741,-0.15957612,-0.28253657,-0.30901656,-0.018960947,0.000738604,0.050390683,-0.27360925,-0.35144162,-0.94285786,1.6245872,-0.005738385,488.0971,0.17525181,0.50999767,0.34049046,0.20632781,0.12211967,inf,inf,inf,inf,1,1,1,1,2,2,2,2,1,0,1,1,0,0,0
18668000,18668000,4204000,47.3977508,8.5456073,-0.1257966,-0.101026416,-0.29501298,0.0001627675,0.007922564,-0.007012764,-0.1461394,-0.1422062,-0.5685197,-0.59124756,-0.018960947,0.000738604,0.050390683,0.2037005,0.13054125,0.22267829,1.6233852,-0.005738385,488.0971,0.4270605,0.47257414,0.32226977,0.18628213,0.116439536,inf,inf,inf,inf,1,1,1,1,2,2,2,2,1,0,1,1,0,0,0
19164000,19164000,4204000,47.3977508,8.5456073,-0.19034626,-0.15895341,-0.59878963,0.0001627675,0.007922564,-0.007012764,-0.043067634,-0.052277777,-0.621073,-0.6447264,-0.018960947,0.000738604,0.050390683,0.21310899,0.20316122,-0.0963807,1.6209866,-0.005738385,488.0971,0.73083717,0.48356304,0.3288344,0.18883719,0.118295334,inf,inf,inf,inf,1,1,1,1,2,2,2,2,1,0,1,1,0,0,0
19668000,19668000,4204000,47.3977508,8.5456073,-0.20212764,-0.17287649,-0.93354857,0.0001627675,0.007922564,-0.007012764,0.055751212,0.03751682,-0.64696646,-0.6712953,-0.018960947,0.000738604,0.050390683,0.18078858,0.16639991,0.017673707,1.6193949,-0.005738385,488.0971,1.0655961,0.4959446,0.33476213,0.19213836,0.11998726,inf,inf,inf,inf,1,1,1,1,2,2,2,2,1,0,1,1,0,0,0
20164000,20164000,4204000,47.3977508,8.5456073,-0.18014838,-0.14238927,-1.2577717,0.0001627675,0.007922564,-0.007012764,-0.06626948,0.23640263,-0.49955514,-0.5284472,-0.018960947,0.000738604,0.050390683,-0.89672214,0.8686733,0.4827687,1.6176468,-0.005738385,488.0971,1.3898193,0.5077074,0.34155494,0.1943988,0.12173177,inf,inf,inf,inf,1,1,1,1,2,2,2,2,1,0,1,1,0,0,0
20668000,20668000,4204000,47.3977508,8.5456073,-0.21036023,-0.04860659,-1.547307,0.0001627675,0.007922564,-0.007012764,-0.25209248,0.41799623,-0.46075168,-0.524328,-0.018960947,0.000738604,0.050390683,-0.18011056,0.20749459,0.043124888,1.6140987,-0.005738385,488.0971,1.6793545,0.4715355,0.3243403,0.17623179,0.11694786,inf,inf,inf,inf,1,1,1,1,2,2,2,2,1,0,1,1,0,0,0
21164000,21164000,4204000,47.3977508,8.5456073,-0.053021442,-0.10916034,-1.9044122,0.0001627675,0.007922564,-0.007012764,-0.18049334,0.37861204,-0.2851332,-0.44604385,-0.018960947,0.000738604,0.050390683,-0.1949719,0.10463257,1.3794218,1.5419168,-0.11759505,488.0971,2.0364597,0.48177493,0.32954532,0.22534247,0.1198352,inf,inf,inf,inf,1,1,1,1,2,2,2,2,2,0,1,1,0,0,0
21668000,21668000,4204000,47.3977508,8.5456073,0.27319273,-0.33631617,-2.1641412,0.0001627675,0.007922564,-0.007012764,-0.02583458,0.17669372,0.055442676,-0.22712687,-0.018960947,0.000738604,0.050390683,-0.52182895,0.38712102,0.19218493,1.5571893,-0.11759505,488.0971,2.2961888,0.49345934,0.33562064,0.3052363,0.12258282,inf,inf,inf,inf,1,1,1,1,2,2,2,2,2,0,1,1,0,0,0
22164000,22164000,4204000,47.3977508,8.5456073,0.6491398,-0.6435898,-2.4234958,0.0001627675,0.007922564,-0.007012764,-0.0039072204,0.09240812,0.14778784,-0.24720673,-0.018960947,0.000738604,0.050390683,-0.9082142,0.76545304,0.46771297,1.5522901,-0.11759505,488.0971,2.5555434,0.50854385,0.34263194,0.3491073,0.123585254,inf,inf,inf,inf,1,1,1,1,2,2,2,2,2,1,1,1,0,0,0
22668000,22668000,4204000,47.3977508,8.5456073,0.8162959,-0.79204834,-2.7232282,0.0001627675,0.007922564,-0.007012764,-0.17366146,0.1970468,0.29170147,-0.250912,-0.018960947,0.000738604,0.050390683,-0.56853527,0.48570833,0.36374104,1.5520339,-0.11759505,488.0971,2.8552756,0.4703759,0.3238109,0.2761259,0.11626131,inf,inf,inf,inf,1,1,1,1,2,2,2,2,2,1,1,1,0,0,0
23164000,23164000,4204000,47.3977508,8.5456073,0.62021106,-0.60545033,-2.9475853,0.0001627675,0.007922564,-0.007012764,-0.31904033,0.30532837,0.4367927,-0.19927341,-0.018960947,0.000738604,0.050390683,0.20562764,-0.24871899,0.6460156,1.554492,-0.11759505,488.0971,3.0796328,0.4825392,0.33019224,0.276703,0.11703213,inf,inf,inf,inf,1,1,1,1,2,2,2,2,2,1,1,1,0,0,0
23668000,23668000,4204000,47.3977508,8.5456073,0.1651852,-0.17991519,-3.0308282,0.0001627675,0.007922564,-0.007012764,-0.25182945,0.21864402,0.5519556,-0.07485703,-0.018960947,0.000738604,0.050390683,1.0890659,-1.039946,0.43566895,1.5567967,-0.11759505,488.0971,3.1628757,0.49762735,0.33723482,0.27509898,0.11873704,inf,inf,inf,inf,1,1,1,1,2,2,2,2,2,1,1,1,0,0,0
24164000,24164000,4204000,47.3977508,8.5456073,-0.3449775,0.29835057,-2.9594004,0.0001627675,0.007922564,-0.007012764,0.077958345,-0.09484916,0.5612251,0.03471364,-0.018960947,0.000738604,0.050390683,1.6863328,-1.6038989,-0.007907859,1.5576907,-0.11759505,488.0971,3.0914478,0.5125585,0.3419258,0.2745844,0.12141064,inf,inf,inf,inf,1,1,1,1,2,2,2,2,2,1,1,1,0,0,0
24668000,24668000,4204000,47.3977508,8.5456073,-0.91630137,0.8187342,-2.785791,0.0001627675,0.007922564,-0.007012764,0.4501032,-0.45187795,0.43605673,0.072346576,-0.018960947,0.000738604,0.050390683,1.7669495,-1.6687084,-0.46742147,1.5580434,-0.11759505,488.0971,2.9178386,0.47243944,0.32439944,0.23158091,0.11848754,inf,inf,inf,inf,1,1,1,1,2,2,2,2,2,1,1,1,0,0,0
25164000,25164000,4204000,47.3977508,8.5456073,-1.3688092,1.2538854,-2.5238492,0.0001627675,0.007922564,-0.007012764,0.8343798,-0.7977596,0.20634817,0.07343027,-0.018960947,0.000738604,0.050390683,1.7029043,-1.5747745,-0.89104843,1.5596474,-0.11759505,488.0971,2.6558967,0.48463193,0.33083773,0.23792222,0.12358577,inf,inf,inf,inf,1,1,1,1,2,2,2,2,2,1,1,1,0,0,0
25668000,25668000,4204000,47.3977508,8.5456073,-1.6379788,1.5417145,-2.2519073,0.0001627675,0.007922564,-0.007012764,1.1831135,-1.1143376,-0.105295695,0.00056631607,-0.018960947,0.000738604,0.050390683,1.7060912,-1.5595124,-0.88137287,1.5164747,-0.11759505,488.0971,2.383955,0.49845052,0.33696666,0.2423,0.12818398,inf,inf,inf,inf,1,1,1,1,2,2,2,2,2,1,1,1,0,0,0
26164000,26164000,4204000,47.3977508,8.5456073,-1.7597109,1.6751617,-2.0174718,0.0001627675,0.007922564,-0.007012764,1.3475387,-1.4313314,-0.35853204,-0.043494064,-0.018960947,0.000738604,0.050390683,1.0159237,-1.4977236,-0.6334008,1.0500414,-0.11759505,488.0971,2.1495194,0.5118833,0.34441495,0.24126074,0.13075767,inf,inf,inf,inf,1,1,1,1,2,2,2,2,2,1,1,1,0,0,0
26668000,26668000,4204000,47.3977508,8.5456073,-1.8526073,1.8147719,-1.7217226,0.0001627675,0.007922564,-0.007012764,1.2497423,-1.4317604,-0.64673257,-0.0612638,-0.018960947,0.000738604,0.050390683,-16.69026,6.3598485,-19.521925,0.6117368,-0.11759505,488.0971,1.8537701,0.47315505,0.3268073,0.20959438,0.12377127,inf,inf,inf,inf,1,1,1,1,2,2,2,2,2,1,1,1,0,0,0
27164000,27164000,4204000,47.3977508,8.5456073,-1.9724059,1.9625582,-2.0957186,0.0001627675,0.007922564,-0.007012764,0.732464,-0.93946415,-2.0220685,-1.2096084,-0.018960947,0.000738604,0.050390683,-0.03811094,0.367793,-0.19159725,0.6039785,-0.11759505,488.0971,2.227766,0.48442078,0.3318606,0.22697164,0.11565565,inf,inf,inf,inf,1,1,1,1,2,2,2,2,2,1,1,1,0,0,0
27668000,27668000,4204000,47.3977508,8.5456073,-2.021603,2.1166506,-2.3786051,0.0001627675,0.007922564,-0.007012764,0.486408,-0.29619852,-1.8223335,-0.8104037,-0.018960947,0.000738604,0.050390683,-0.048702173,0.88974565,0.19615795,0.6064045,-0.11759505,488.0971,2.5106525,0.49692273,0.33561394,0.25009945,0.10724279,inf,inf,inf,inf,1,1,1,1,2,2,2,2,2,1,1,1,0,0,0
28164000,28164000,4204000,47.3977508,8.5456073,-2.0311844,2.3051293,-2.5057006,0.0001627675,0.007922564,-0.007012764,0.2970699,0.39073938,-1.4654735,-0.34227055,-0.018960947,0.000738604,0.050390683,-0.072089486,1.3059256,0.47487763,0.6089135,-0.11759505,488.0971,2.6377482,0.5096276,0.33846697,0.2834209,0.1021145,inf,inf,inf,inf,1,1,1,1,2,2,2,2,2,1,1,1,0,0,0
28668000,28668000,4204000,47.3977508,8.5456073,-2.0647612,2.480426,-2.3819733,0.0001627675,0.007922564,-0.007012764,0.103730336,0.98672783,-0.94810766,0.26632023,-0.018960947,0.000738604,0.050390683,-0.12830144,1.522879,0.78097636,0.61165106,-0.11759505,488.0971,2.514021,0.47218248,0.31910947,0.25108102,0.09546707,inf,inf,inf,inf,1,1,1,1,2,2,2,2,2,1,1,1,0,0,0
29164000,29164000,4204000,47.3977508,8.5456073,-2.0861864,2.5752728,-2.0843885,0.0001627675,0.007922564,-0.007012764,-0.02689231,1.3774416,-0.36546135,0.83309096,-0.018960947,0.000738604,0.050390683,-0.09811491,1.6131339,0.96837986,0.6149105,-0.11759505,488.0971,2.216436,0.48328876,0.3200761,0.26319045,0.096813336,inf,inf,inf,inf,1,1,1,1,2,2,2,2,2,1,1,1,0,0,0
29668000,29668000,4204000,47.3977508,8.5456073,-2.0967207,2.6417267,-1.6721517,0.0001627675,0.007922564,-0.007012764,-0.105122425,1.6336474,0.23564635,1.2837356,-0.018960947,0.000738604,0.050390683,-0.07626624,1.5767173,1.0472898,0.61764854,-0.11759505,488.0971,1.8041992,0.49712834,0.3217943,0.2699007,0.10022351,inf,inf,inf,inf,1,1,1,1,2,2,2,2,2,1,1,1,0,0,0
30164000,30164000,4204000,47.3977508,8.5456073,-2.0981889,2.6714942,-1.1869931,0.0001627675,0.007922564,-0.007012764,-0.17229371,1.5219178,0.5625413,1.3793812,-0.018960947,0.000738604,0.050390683,-0.267585,-0.06870765,-0.17197523,0.6196667,-0.11759505,488.0971,1.3190407,0.51100284,0.3249817,0.27039167,0.10477031,inf,inf,inf,inf,1,1,1,1,2,2,2,2,2,1,1,1,0,0,0
30668000,30668000,4204000,47.3977508,8.5456073,-2.096798,2.4003444,-0.84241647,0.0001627675,0.007922564,-0.007012764,-0.1506638,0.59610164,0.29574126,0.8629332,-0.018960947,0.000738604,0.050390683,1.1331865,-2.1672168,-1.7543854,0.65781265,-0.11759505,488.0971,0.974464,0.47224832,0.31002167,0.22449604,0.10458136,inf,inf,inf,inf,1,1,1,1,2,2,2,2,2,1,1,1,0,0,0
31164000,31164000,4204000,47.3977508,8.5456073,-1.5648508,1.6992456,-0.79865855,0.0001627675,0.007922564,-0.007012764,1.7038096,-1.4211453,-0.21932001,0.13571121,-0.018960947,0.000738604,0.050390683,1.9761178,-3.654193,-4.06739,0.13087441,-0.11759505,488.0971,0.9307061,0.48400345,0.31375772,0.2318007,0.10899501,inf,inf,inf,inf,1,1,1,1,2,2,2,2,2,1,1,1,0,0,0
31668000,31668000,4204000,47.3977508,8.5456073,-0.5393508,0.6232804,-1.2707249,0.0001627675,0.007922564,-0.007012764,1.4463665,-1.5675598,-0.8780759,-0.685946,-0.018960947,0.000738604,0.050390683,-1.8442469,1.149757,0.8700676,-0.72346604,-0.11759505,488.0971,1.4027724,0.49708706,0.3198475,0.22333308,0.10639813,inf,inf,inf,inf,1,1,1,1,2,2,2,2,2,1,1,1,0,0,0
32164000,32164000,4204000,47.3977508,8.5456073,0.19427326,-0.15943177,-1.7026011,0.0001627675,0.007922564,-0.007012764,0.64111656,-0.94693196,-0.49811125,-0.44163308,-0.018960947,0.000738604,0.050390683,-1.8440894,1.7535148,0.73552686,-0.82482016,-0.11759505,488.0971,1.8346486,0.50909334,0.32372442,0.23110461,0.10515662,inf,inf,inf,inf,1,1,1,1,2,2,2,2,2,1,1,1,0,0,0
32668000,32668000,4204000,47.3977508,8.5456073,0.56867915,-0.6280626,-2.0335453,0.0001627675,0.007922564,-0.007012764,-0.0038726982,-0.24721324,-0.22337252,-0.29338494,-0.018960947,0.000738604,0.050390683,-1.2640973,1.5322716,0.53958964,-0.8218252,-0.11759505,488.0971,2.1655927,0.47253317,0.30836955,0.21927026,0.10158909,inf,inf,inf,inf,1,1,1,1,2,2,2,2,2,1,1,1,0,0,0
33164000,33164000,4204000,47.3977508,8.5456073,0.6423579,-0.7778841,-2.2822483,0.0001627675,0.007922564,-0.007012764,-0.3719584,0.24680938,-0.027776731,-0.20321849,-0.018960947,0.000738604,0.050390683,-0.7028453,0.96251214,0.5264943,-0.82268596,-0.11759505,488.0971,2.4142957,0.48273042,0.31323802,0.23719412,0.10406265,inf,inf,inf,inf,1,1,1,1,2,2,2,2,2,1,1,1,0,0,0
33668000,33668000,4204000,47.3977508,8.5456073,0.52246577,-0.6978393,-2.4552195,0.0001627675,0.007922564,-0.007012764,-0.5207692,0.5100511,0.12667188,-0.11715571,-0.018960947,0.000738604,0.050390683,-0.24165425,0.47511208,0.43739563,-0.823111,-0.11759505,488.0971,2.587267,0.49526054,0.31769496,0.24898943,0.10665603,inf,inf,inf,inf,1,1,1,1,2,2,2,2,2,1,1,1,0,0,0
34164000,34164000,4204000,47.3977508,8.5456073,0.3354804,-0.5037791,-2.5599732,0.0001627675,0.007922564,-0.007012764,-0.5092969,0.57807106,0.21572244,-0.061293703,-0.018960947,0.000738604,0.050390683,0.01720288,0.16444577,0.25646946,-0.8236275,-0.11759505,488.0971,2.692021,0.5082507,0.32323787,0.25445727,0.10951592,inf,inf,inf,inf,1,1,1,1,2,2,2,2,2,1,1,1,0,0,0
34668000,34668000,4204000,47.3977508,8.5456073,0.14467128,-0.27121118,-2.649395,0.0001627675,0.007922564,-0.007012764,-0.40369374,0.5102035,0.2576056,-0.056202065,-0.018960947,0.000738604,0.050390683,0.21581623,-0.12923953,0.15143304,-0.8240622,-0.11759505,488.0971,2.7814426,0.4713659,0.30843973,0.21851793,0.106995866,inf,inf,inf,inf,1,1,1,1,2,2,2,2,2,1,1,1,0,0,0
35164000,35164000,4204000,47.3977508,8.5456073,0.0030869278,-0.064420655,-2.7086666,0.0001627675,0.007922564,-0.007012764,-0.2657843,0.36999086,0.2896582,-0.04304324,-0.018960947,0.000738604,0.050390683,0.23145108,-0.2830855,0.20758714,-0.8241381,-0.11759505,488.0971,2.840714,0.48253676,0.31455547,0.22102723,0.110593975,inf,inf,inf,inf,1,1,1,1,2,2,2,2,2,1,1,1,0,0,0
35668000,35668000,4204000,47.3977508,8.5456073,-0.09237502,0.08884231,-2.737684,0.0001627675,0.007922564,-0.007012764,-0.14275137,0.21257922,0.31415167,-0.01776011,-0.018960947,0.000738604,0.050390683,0.17801213,-0.26304442,0.16125011,-0.8240695,-0.11759505,488.0971,2.8697314,0.49554184,0.32065147,0.22340786,0.11430453,inf,inf,inf,inf,1,1,1,1,2,2,2,2,2,1,1,1,0,0,0
36164000,36164000,4204000,47.3977508,8.5456073,-0.13681874,0.18544434,-2.744439,0.0001627675,0.007922564,-0.007012764,-0.050704602,0.083854556,0.3221593,0.003704275,-0.018960947,0.000738604,0.050390683,0.12827563,-0.24749523,0.0889413,-0.8238492,-0.11759505,488.0971,2.8764863,0.5081796,0.32808164,0.22451563,0.11797426,inf,inf,inf,inf,1,1,1,1,2,2,2,2,2,1,1,1,0,0,0
36668000,36668000,4204000,47.3977508,8.5456073,-0.13170402,0.23139212,-2.7586105,0.0001627675,0.007922564,-0.007012764,0.011153814,-0.01359126,0.31529567,-0.0039464366,-0.018960947,0.000738604,0.050390683,0.031222064,-0.15313625,0.021092592,-0.8232683,-0.11759505,488.0971,2.890658,0.47141248,0.3145649,0.19627146,0.11475901,inf,inf,inf,inf,1,1,1,1,2,2,2,2,2,1,1,1,0,0,0
37164000,37164000,4204000,47.3977508,8.5456073,-0.11203192,0.22507839,-2.7596025,0.0001627675,0.007922564,-0.007012764,0.032343682,-0.07595806,0.30838984,-0.0030241553,-0.018960947,0.000738604,0.050390683,0.004680143,-0.09327195,0.11030584,-0.82414615,-0.11759505,488.0971,2.8916502,0.48232773,0.32088315,0.19730498,0.11751037,inf,inf,inf,inf,1,1,1,1,2,2,2,2,2,1,1,1,0,0,0
37668000,37668000,4204000,47.3977508,8.5456073,-0.086370036,0.20053566,-2.743211,0.0001627675,0.007922564,-0.007012764,0.030830186,-0.09782566,0.29590702,0.006071939,-0.018960947,0.000738604,0.050390683,-0.029132947,-0.04709119,0.09813811,-0.82367337,-0.11759505,488.0971,2.8752584,0.49462935,0.3295321,0.19864355,0.120392025,inf,inf,inf,inf,1,1,1,1,2,2,2,2,2,1,1,1,0,0,0
38164000,38164000,4204000,47.3977508,8.5456073,-0.053548727,0.17371283,-2.7175598,0.0001627675,0.007922564,-0.007012764,0.022828583,-0.09721349,0.27732342,0.015647281,-0.018960947,0.000738604,0.050390683,-0.08697541,-0.002176326,-0.024437902,-0.82334006,-0.11759505,488.0971,2.8496075,0.50630265,0.3361846,0.1997641,0.12249356,inf,inf,inf,inf,1,1,1,1,2,2,2,2,2,1,1,1,0,0,0
38668000,38668000,4204000,47.3977508,8.5456073,-0.015023528,0.15251218,-2.6996756,0.0001627675,0.007922564,-0.007012764,0.00056354393,-0.08823744,0.2450767,0.0027771639,-0.018960947,0.000738604,0.050390683,-0.07548245,0.017354118,-0.06398744,-0.82327807,-0.11759505,488.0971,2.8317232,0.47081354,0.32091734,0.17902657,0.117182985,inf,inf,inf,inf,1,1,1,1,2,2,2,2,2,1,1,1,0,0,0
39164000,39164000,4204000,47.3977508,8.5456073,0.018525204,0.13051012,-2.682417,0.0001627675,0.007922564,-0.007012764,-0.022945384,-0.08061049,0.21194941,-0.011520303,-0.018960947,0.000738604,0.050390683,-0.07082289,0.010984731,0.05237199,-0.82330126,-0.11759505,488.0971,2.8144646,0.48124415,0.32706502,0.18165234,0.11886332,inf,inf,inf,inf,1,1,1,1,2,2,2,2,2,1,1,1,0,0,0
39668000,39668000,4204000,47.3977508,8.5456073,0.04288009,0.11956145,-2.65988,0.0001627675,0.007922564,-0.007012764,-0.042735487,-0.06326201,0.1969648,-0.0005055866,-0.018960947,0.000738604,0.050390683,-0.09507765,-0.0014722608,0.020959413,-0.8231239,-0.11759505,488.0971,2.7919273,0.49281326,0.3352691,0.18494254,0.120847516,inf,inf,inf,inf,1,1,1,1,2,2,2,2,2,1,1,1,0,0,0
40164000,40164000,4204000,47.3977508,8.5456073,0.05831323,0.11414413,-2.6322489,0.0001627675,0.007922564,-0.007012764,-0.06626692,-0.058986086,0.17082185,0.0021289797,-0.018960947,0.000738604,0.050390683,-0.1137018,0.005877227,-0.0025369225,-0.8238267,-0.11759505,488.0971,2.7642965,0.50384253,0.3411353,0.18840244,0.12223189,inf,inf,inf,inf,1,1,1,1,2,2,2,2,2,1,1,1,0,0,0
40668000,40668000,4204000,47.3977508,8.5456073,0.07633046,0.100484416,-2.6082976,0.0001627675,0.007922564,-0.007012764,-0.07961943,-0.0570879,0.1390831,-0.005344565,-0.018960947,0.000738604,0.050390683,-0.02868811,0.02112107,-0.038631257,-0.8241705,-0.11759505,488.0971,2.740345,0.469704,0.3243482,0.17251286,0.11638963,inf,inf,inf,inf,1,1,1,1,2,2,2,2,2,1,1,1,0,0,0
41164000,41164000,4204000,47.3977508,8.5456073,0.09645206,0.08990872,-2.591867,0.0001627675,0.007922564,-0.007012764,-0.09312484,-0.049626887,0.113875926,-0.012034748,-0.018960947,0.000738604,0.050390683,-0.07278627,0.03655278,0.026634892,-0.82357675,-0.11759505,488.0971,2.7239146,0.4797889,0.32980308,0.17685542,0.11783054,inf,inf,inf,inf,1,1,1,1,2,2,2,2,2,1,1,1,0,0,0
41668000,41668000,4204000,47.3977508,8.5456073,0.10822479,0.071306184,-2.5729032,0.0001627675,0.007922564,-0.007012764,-0.10227281,-0.043541558,0.09730541,-0.0076635145,-0.018960947,0.000738604,0.050390683,-0.07266247,-0.028008433,-0.009521841,-0.8243403,-0.11759505,488.0971,2.7049508,0.49112433,0.33727533,0.1817443,0.119689375,inf,inf,inf,inf,1,1,1,1,2,2,2,2,2,1,1,1,0,0,0
42164000,42164000,4204000,47.3977508,8.5456073,0.11937519,0.057170026,-2.558575,0.0001627675,0.007922564,-0.007012764,-0.11258227,-0.035158828,0.08262357,-0.0061818175,-0.018960947,0.000738604,0.050390683,-0.10902261,0.01694716,-0.014020129,-0.8244302,-0.11759505,488.0971,2.6906223,0.50209767,0.3423908,0.1865272,0.12103812,inf,inf,inf,inf,1,1,1,1,2,2,2,2,2,1,1,1,0,0,0
42668000,42668000,4204000,47.3977508,8.5456073,0.13878371,0.043576777,-2.5492868,0.0001627675,0.007922564,-0.007012764,-0.12509325,-0.027027853,0.06970316,-0.008230062,-0.018960947,0.000738604,0.050390683,-0.10278847,0.027071217,-0.066546716,-0.8239528,-0.11759505,488.0971,2.6813345,0.46864417,0.32485634,0.17193626,0.11533433,inf,inf,inf,inf,1,1,1,1,2,2,2,2,2,1,1,1,0,0,0
43164000,43164000,4204000,47.3977508,8.5456073,0.1520635,0.03928227,-2.5421677,0.0001627675,0.007922564,-0.007012764,-0.13541774,-0.019454924,0.060280804,-0.009320121,-0.018960947,0.000738604,0.050390683,-0.12028381,0.017767917,0.010022893,-0.82382125,-0.11759505,488.0971,2.6742153,0.47866005,0.3297562,0.17673808,0.11684242,inf,inf,inf,inf,1,1,1,1,2,2,2,2,2,1,1,1,0,0,0
43668000,43668000,4204000,47.3977508,8.5456073,0.16031858,0.037080403,-2.5372384,0.0001627675,0.007922564,-0.007012764,-0.14108562,-0.017448852,0.055236597,-0.007837668,-0.018960947,0.000738604,0.050390683,-0.10046244,0.0010582006,0.019254161,-0.8244228,-0.11759505,488.0971,2.6692858,0.49014807,0.33692795,0.18202175,0.118861735,inf,inf,inf,inf,1,1,1,1,2,2,2,2,2,1,1,1,0,0,0
44164000,44164000,4204000,47.3977508,8.5456073,0.16098331,0.032802522,-2.5248668,0.0001627675,0.007922564,-0.007012764,-0.15346268,-0.0138130495,0.04885478,-0.0015972621,-0.018960947,0.000738604,0.050390683,-0.12571649,0.017528042,-0.01641549,-0.82455194,-0.11759505,488.0971,2.6569142,0.5013455,0.3418932,0.18696558,0.12039387,inf,inf,inf,inf,1,1,1,1,2,2,2,2,2,1,1,1,0,0,0
44668000,44668000,4204000,47.3977508,8.5456073,0.16829,0.030234307,-2.5216227,0.0001627675,0.007922564,-0.007012764,-0.15979153,-0.012924911,0.038701832,-0.0075413366,-0.018960947,0.000738604,0.050390683,-0.092270836,0.021708196,-0.015696509,-0.82403976,-0.11759505,488.0971,2.6536703,0.46801892,0.32441452,0.1721974,0.114925645,inf,inf,inf,inf,1,1,1,1,2,2,2,2,2,1,1,1,0,0,0
45164000,45164000,4204000,47.3977508,8.5456073,0.17504857,0.025018066,-2.5195408,0.0001627675,0.007922564,-0.007012764,-0.1603152,-0.014836323,0.03615825,-0.0068178093,-0.018960947,0.000738604,0.050390683,-0.06859461,-0.004611618,0.04040822,-0.8238675,-0.11759505,488.0971,2.6515884,0.47822407,0.32934564,0.17684472,0.11658244,inf,inf,inf,inf,1,1,1,1,2,2,2,2,2,1,1,1,0,0,0
45668000,45668000,4204000,47.3977508,8.5456073,0.17264627,0.016890097,-2.5162666,0.0001627675,0.007922564,-0.007012764,-0.16359372,-0.011210603,0.034122206,-0.0047114836,-0.018960947,0.000738604,0.050390683,-0.054968495,-0.0009470095,0.0152280545,-0.82416934,-0.11759505,488.0971,2.648314,0.49004486,0.3366409,0.1819749,0.11875323,inf,inf,inf,inf,1,1,1,1,2,2,2,2,2,1,1,1,0,0,0
46164000,46164000,4204000,47.3977508,8.5456073,0.16062663,0.0137180975,-2.5123324,0.0001627675,0.007922564,-0.007012764,-0.169135,-0.008848842,0.03346987,-0.0007839571,-0.018960947,0.000738604,0.050390683,-0.049186308,0.014944525,-0.0024698672,-0.82405186,-0.11759505,488.0971,2.64438,0.5013996,0.3416383,0.18657562,0.120356716,inf,inf,inf,inf,1,1,1,1,2,2,2,2,2,1,1,1,0,0,0
46668000,46668000,4204000,47.3977508,8.5456073,0.15364291,0.006214071,-2.5109534,0.0001627675,0.007922564,-0.007012764,-0.1677136,-0.0075647593,0.028096236,-0.0052046324,-0.018960947,0.000738604,0.050390683,-0.07067229,0.008612026,-0.03406312,-0.82392794,-0.11759505,488.0971,2.643001,0.46812582,0.32429007,0.17160381,0.114973046,inf,inf,inf,inf,1,1,1,1,2,2,2,2,2,1,1,1,0,0,0
47164000,47164000,4204000,47.3977508,8.5456073,0.14377019,0.0059564942,-2.513227,0.0001627675,0.007922564,-0.007012764,-0.15923853,-0.0025861475,0.03006985,-0.0038534072,-0.018960947,0.000738604,0.050390683,-0.019552229,-0.0069521624,0.0040037553,-0.8242566,-0.11759505,488.0971,2.6452746,0.47854322,0.33067253,0.17598158,0.11692644,inf,inf,inf,inf,1,1,1,1,2,2,2,2,2,1,1,1,0,0,0
47668000,47668000,4204000,47.3977508,8.5456073,0.13412398,0.00606408,-2.509132,0.0001627675,0.007922564,-0.007012764,-0.14727607,0.0022572754,0.030602796,0.00041743915,-0.018960947,0.000738604,0.050390683,-0.07252707,-0.0035443224,0.0041341404,-0.8240227,-0.11759505,488.0971,2.6411796,0.49025822,0.33623898,0.18063296,0.11871578,inf,inf,inf,inf,1,1,1,1,2,2,2,2,2,1,1,1,0,0,0
48164000,48164000,4204000,47.3977508,8.5456073,0.12169894,-0.0056378697,-2.5093024,0.0001627675,0.007922564,-0.007012764,-0.14529885,-0.0016718155,0.03010922,-0.00016098423,-0.018960947,0.000738604,0.050390683,-0.043845456,0.026725013,0.0598859,-0.8240612,-0.11759505,488.0971,2.6413498,0.50159425,0.34268948,0.18491003,0.120585814,inf,inf,inf,inf,1,1,1,1,2,2,2,2,2,1,1,1,0,0,0
48668000,48668000,4204000,47.3977508,8.5456073,0.129619,-0.009407826,-2.506478,0.0001627675,0.007922564,-0.007012764,-0.13840406,0.006999106,0.029500442,0.0015619238,-0.018960947,0.000738604,0.050390683,-0.04610879,0.009839262,-0.004069879,-0.8239001,-0.11759505,488.0971,2.6385255,0.46813473,0.3249996,0.16994284,0.11508921,inf,inf,inf,inf,1,1,1,1,2,2,2,2,2,1,1,1,0,0,0
49164000,49164000,4204000,47.3977508,8.5456073,0.13295956,-0.013561412,-2.5067422,0.0001627675,0.007922564,-0.007012764,-0.13266121,0.012458465,0.026562661,-0.0022046852,-0.018960947,0.000738604,0.050390683,-0.026550826,0.06761422,0.053340565,-0.8239442,-0.11759505,488.0971,2.6387897,0.47852412,0.32988405,0.17416777,0.11675583,inf,inf,inf,inf,1,1,1,1,2,2,2,2,2,1,1,1,0,0,0
49668000,49668000,4204000,47.3977508,8.5456073,0.12514721,-0.007036633,-2.5082805,0.0001627675,0.007922564,-0.007012764,-0.13224271,0.01819347,0.029125303,-0.0009951646,-0.018960947,0.000738604,0.050390683,-0.04542984,0.0046187923,0.00759121,-0.8243156,-0.11759505,488.0971,2.640328,0.4901753,0.3369894,0.17864534,0.11885521,inf,inf,inf,inf,1,1,1,1,2,2,2,2,2,1,1,1,0,0,0
50164000,50164000,4204000,47.3977508,8.5456073,0.13259472,-0.0036621513,-2.5008206,0.0001627675,0.007922564,-0.007012764,0.09855818,0.008600346,0.14723963,0.11384655,-0.018960947,0.000738604,0.050390683,1.1819502,-0.04827148,0.2070423,-0.8239143,-0.11759505,488.0971,2.6328683,0.50140953,0.34194145,0.18237342,0.1204516,inf,inf,inf,inf,1,1,1,1,2,2,2,2,2,1,1,1,0,0,0
50668000,50668000,4204000,47.3977508,8.5456073,0.22029065,-0.0064600618,-2.4968112,0.0001627675,0.007922564,-0.007012764,0.36629602,-0.0032718692,0.103831634,0.03084263,-0.018960947,0.000738604,0.050390683,0.20723288,-0.0050775995,-0.06289966,-0.8247286,-0.11759505,488.0971,2.6288586,0.46805948,0.3244794,0.16823009,0.11513647,inf,inf,inf,inf,1,1,1,1,2,2,2,2,2,1,1,1,0,0,0
51164000,51164000,4204000,47.3977508,8.5456073,0.07002299,-0.018674651,-2.6047554,0.0001627675,0.007922564,-0.007012764,0.31109834,-0.0062109386,0.13478173,-0.044200763,-0.018960947,0.000738604,0.050390683,0.20468163,0.01619973,0.5198959,-0.82394344,-0.11759505,488.0971,2.736803,0.47835347,0.3295487,0.17241603,0.11704724,inf,inf,inf,inf,1,1,1,1,2,2,2,2,2,1,1,1,0,0,0
51668000,51668000,4204000,47.3977508,8.5456073,-0.30507502,-0.022604706,-2.7681434,0.0001627675,0.007922564,-0.007012764,0.26449102,0.00851809,0.26792625,-0.045133863,-0.018960947,0.000738604,0.050390683,0.6218346,0.04755819,0.6504161,-0.82268775,-0.11759505,488.0971,2.9001908,0.4898596,0.33678582,0.1764288,0.11942764,inf,inf,inf,inf,1,1,1,1,2,2,2,2,2,1,1,1,0,0,0
52164000,52164000,4204000,47.3977508,8.5456073,-0.74961257,-0.01436491,-2.939359,0.0001627675,0.007922564,-0.007012764,0.34385258,0.02306049,0.42622104,-0.014842872,-0.018960947,0.000738604,0.050390683,0.8840338,0.01329086,0.48827192,-0.8237716,-0.11759505,488.0971,3.0714064,0.50088686,0.34183818,0.18021715,0.121210426,inf,inf,inf,inf,1,1,1,1,2,2,2,2,2,1,1,1,0,0,0
52668000,52668000,4204000,47.3977508,8.5456073,-1.196588,-0.0053145527,-3.144305,0.0001627675,0.007922564,-0.007012764,0.46652022,0.027828949,0.53809565,-0.05848354,-0.018960947,0.000738604,0.050390683,0.8170324,0.02651024,0.33539903,-0.8251817,-0.11759505,488.0971,3.2763524,0.4678115,0.32439682,0.16638623,0.115636624,inf,inf,inf,inf,1,1,1,1,2,2,2,2,2,1,1,1,0,0,0
53164000,53164000,4204000,47.3977508,8.5456073,-1.4179552,0.00677857,-3.2862666,0.0001627675,0.007922564,-0.007012764,0.5784421,0.033317864,0.62790984,-0.059081025,-0.018960947,0.000738604,0.050390683,0.437787,0.0191922,0.56282616,-0.82401824,-0.11759505,488.0971,3.418314,0.47780997,0.3307582,0.17076917,0.1172697,inf,inf,inf,inf,1,1,1,1,2,2,2,2,2,1,1,1,0,0,0
53668000,53668000,4204000,47.3977508,8.5456073,-1.3481984,0.021515671,-3.3096752,0.0001627675,0.007922564,-0.007012764,0.5961793,0.034340277,0.70406324,0.026579324,-0.018960947,0.000738604,0.050390683,-0.051993642,-0.034753624,0.37706175,-0.8239687,-0.11759505,488.0971,3.4417229,0.48917073,0.33639702,0.17494798,0.11869925,inf,inf,inf,inf,1,1,1,1,2,2,2,2,2,1,1,1,0,0,0
54164000,54164000,4204000,47.3977508,8.5456073,-1.052773,0.027231852,-3.2006395,0.0001627675,0.007922564,-0.007012764,0.47235084,0.028422717,0.6793082,0.10185205,-0.018960947,0.000738604,0.050390683,-0.5470396,0.011308583,-0.13831164,-0.8233869,-0.11759505,488.0971,3.332687,0.5002807,0.34293145,0.17874235,0.12040588,inf,inf,inf,inf,1,1,1,1,2,2,2,2,2,1,1,1,0,0,0
54668000,54668000,4204000,47.3977508,8.5456073,-0.4976301,0.02801632,-2.9749522,0.0001627675,0.007922564,-0.007012764,0.23396477,0.025507318,0.52763635,0.13322054,-0.018960947,0.000738604,0.050390683,-1.0239928,-0.01108236,-0.46949366,-0.8235297,-0.11759505,488.0971,3.1069999,0.46754247,0.3238637,0.16570373,0.11487447,inf,inf,inf,inf,1,1,1,1,2,2,2,2,2,1,1,1,0,0,0
55164000,55164000,4204000,47.3977508,8.5456073,-0.06884032,0.023283582,-2.725858,0.0001627675,0.007922564,-0.007012764,-0.23905851,0.026696319,0.27082032,0.06635746,-0.018960947,0.000738604,0.050390683,-1.3147824,0.035475615,-0.5484372,-0.82370305,-0.11759505,488.0971,2.8579054,0.49441075,0.33606845,0.18639505,0.12124889,inf,inf,inf,inf,1,1,1,1,2,2,2,2,2,1,1,1,0,0,0
55668000,55668000,4204000,47.3977508,8.5456073,-0.10111468,0.028136859,-2.534844,0.0001627675,0.007922564,-0.007012764,-0.63120127,0.026647499,0.058116805,0.017512515,-0.018960947,0.000738604,0.050390683,-0.54525846,-0.0046268976,-0.49206984,-0.82614523,-0.11759505,488.0971,2.6668916,0.5288638,0.3481826,0.20911615,0.1274372,inf,inf,inf,inf,1,1,1,1,2,2,2,2,2,1,1,1,0,0,0
56164000,56164000,4204000,47.3977508,8.5456073,2.8083937,-0.077304296,-1.4785461,1.7300869,-0.0922275,-0.007012764,2.40997,0.08019333,1.3543662,1.5153458,2.7912118,-0.08311719,2.1976511,-1.2692683,0.33566827,-5.5948772,2.8706722,-2.6336145,488.0971,1.6105937,1.4221251,0.3634536,0.43002215,0.44951257,inf,inf,inf,inf,1,1,1,1,3,2,3,3,3,1,1,1,0,0,0
56668000,56668000,4204000,47.3977508,8.5456073,4.8460445,0.19442128,-1.063685,1.7300869,-0.0922275,-0.007012764,5.003437,1.3728049,-0.6221555,-0.22182088,2.7912118,-0.08311719,2.1976511,3.8933518,2.9331162,-0.6320327,2.7908165,-2.6336145,488.0971,1.1957326,0.8304282,0.36411268,0.41719913,0.30707487,inf,inf,inf,inf,1,1,1,1,3,2,3,3,3,1,1,1,0,0,0
57164000,57164000,4204000,47.3977508,8.5456073,7.0811925,0.87794197,-0.97705865,1.7300869,-0.0922275,-0.007012764,5.6311345,1.7014832,-0.18280026,0.30432266,2.7912118,-0.08311719,2.1976511,-7.265814,3.7458575,-31.12593,2.8511362,-2.6336145,488.0971,1.1091062,0.7654138,0.41255558,0.5033743,0.28796768,inf,inf,inf,inf,1,1,1,1,3,2,3,3,3,1,1,1,0,0,0
57668000,57668000,4204000,47.3977508,8.5456073,8.839766,1.4880441,-0.98368347,1.7300869,-0.0922275,-0.007012764,5.4765196,1.8176482,-0.52509254,-0.0417335,2.7912118,-0.08311719,2.1976511,0.19683187,0.13105561,0.07549021,2.866169,-2.6336145,488.0971,1.115731,0.777819,0.4550867,0.52543354,0.2623727,inf,inf,inf,inf,1,1,1,1,3,2,3,3,3,1,1,1,0,0,0
58164000,58164000,4204000,47.3977508,8.5456073,9.950988,1.9558474,-0.9656392,1.7300869,-0.0922275,-0.007012764,4.9676023,1.7210531,-0.32644096,0.12722826,2.7912118,-0.08311719,2.1976511,-0.22155412,-0.09297675,0.37833953,2.8901367,-2.6336145,488.0971,1.0976868,0.82963055,0.47953373,0.52592325,0.23473202,inf,inf,inf,inf,1,1,1,1,3,2,3,3,3,1,1,1,0,0,0
58668000,58668000,4204000,47.3977508,8.5456073,10.356475,2.2263203,-0.7948049,1.7300869,-0.0922275,-0.007012764,4.054873,1.4410617,0.011777809,0.46620098,2.7912118,-0.08311719,2.1976511,-0.53725785,-0.31055993,0.60043293,2.9195058,-2.6336145,488.0971,0.9268524,0.89413095,0.43941066,0.5114237,0.19298655,inf,inf,inf,inf,1,1,1,1,3,2,3,3,3,1,1,1,0,0,0
59164000,59164000,4204000,47.3977508,8.5456073,11.9650755,2.8104484,-0.47951844,1.7300869,-0.0922275,-0.007012764,3.6087632,1.2188494,0.4358777,0.86313885,2.7912118,-0.08311719,2.1976511,-0.79804343,-0.43455246,0.76751035,2.9191506,-2.6336145,488.0971,0.61156595,1.1053588,0.44245434,0.5343474,0.17417246,inf,inf,inf,inf,1,1,1,1,3,2,3,3,3,1,1,1,0,0,0
59668000,59668000,4204000,47.3977508,8.5456073,13.723272,3.3800337,-0.024906144,1.7300869,-0.0922275,-0.007012764,3.170261,0.966647,0.91090137,1.2510331,2.7912118,-0.08311719,2.1976511,-0.9621329,-0.54166377,0.9108865,2.9188888,-2.6336145,488.0971,0.15695368,1.3413405,0.43891633,0.56253767,0.15922701,inf,inf,inf,inf,1,1,1,1,3,2,3,3,3,1,1,1,0,0,1
60164000,60164000,4204000,47.3977508,8.5456073,15.291965,3.8308282,0.523898,1.7300869,-0.0922275,-0.007012764,2.9161305,0.8262474,1.2086875,1.4058448,2.7912118,-0.08311719,2.1976511,0.25933072,0.24727061,-0.055283304,2.9187586,-2.6336145,488.0971,0.1,1.5911341,0.4359277,0.60225207,0.14961009,inf,inf,inf,inf,1,1,1,1,3,2,3,3,3,1,1,1,0,0,1
60668000,60668000,4204000,47.3977508,8.5456073,16.879532,4.299433,0.94371873,1.7300869,-0.0922275,-0.007012764,3.057113,0.94596463,1.1442394,1.1252652,2.7912118,-0.08311719,2.1976511,0.24935372,0.25959548,-0.025704501,2.9184008,-2.6336145,488.0971,0.1,1.8744488,0.39870685,0.66652757,0.13632274,inf,inf,inf,inf,1,1,1,1,3,2,3,3,3,1,1,1,0,0,1
61164000,61164000,4204000,47.3977508,8.5456073,18.495113,4.8099027,1.1847916,1.7300869,-0.0922275,-0.007012764,3.1959493,1.053795,1.0215294,0.7797603,2.7912118,-0.08311719,2.1976511,0.25109777,0.18585019,-0.32898036,2.9183652,-2.6336145,488.0971,0.1,2.1886716,0.39530957,0.7320792,0.13366827,inf,inf,inf,inf,1,1,1,1,3,2,3,3,3,1,1,1,0,0,1
61668000,61668000,4204000,47.3977508,8.5456073,20.196466,5.3782496,1.3117604,1.7300869,-0.0922275,-0.007012764,3.3435204,1.169485,0.90563256,0.49279997,2.7912118,-0.08311719,2.1976511,0.27004522,0.22173043,-0.06848387,2.9183278,-2.6336145,488.0971,0.1,2.544561,0.39610407,0.80136454,0.1336923,inf,inf,inf,inf,1,1,1,1,3,2,3,3,3,1,1,1,0,0,1
62164000,62164000,4204000,47.3977508,8.5456073,21.932219,5.991591,1.3789753,1.7300869,-0.0922275,-0.007012764,3.4508812,1.2663394,0.8250334,0.30972812,2.7912118,-0.08311719,2.1976511,8.958158e-05,-0.03353832,0.13366154,2.9314308,-2.6336145,488.0971,0.1,2.9316773,0.39730918,0.87118286,0.13498867,inf,inf,inf,inf,1,1,1,1,3,2,3,3,3,1,1,1,0,0,1
62668000,62668000,4204000,47.3977508,8.5456073,21.531694,6.0130434,1.340662,1.7300869,-0.0922275,-0.007012764,2.9312105,0.83731896,0.70273703,0.07647972,2.7912118,-0.08311719,2.1976511,0.28107387,-0.6148251,0.034934837,3.048035,-2.6336145,488.0971,0.1,1.7138642,0.3628337,0.38928065,0.12652373,inf,inf,inf,inf,1,1,1,1,3,2,3,3,3,1,1,1,0,0,0
63164000,63164000,4204000,47.3977508,8.5456073,14.630274,4.636356,1.1536409,1.7300869,-0.0922275,-0.007012764,0.8339352,0.13736337,0.769524,0.02516277,2.7912118,-0.08311719,2.1976511,0.2588883,1.149394,3.8552814,2.9735453,-2.6336145,488.0971,0.24391711,1.5744227,0.3602262,0.30279586,0.12548423,inf,inf,inf,inf,1,1,1,1,3,2,3,3,3,1,1,1,0,0,0
63668000,63668000,4204000,47.3977508,8.5456073,12.763687,4.327952,1.0177664,1.7300869,-0.0922275,-0.007012764,0.16863815,0.7541073,0.37658054,-0.3524839,2.7912118,-0.08311719,2.1976511,-0.12366019,0.15259448,-0.07626041,3.0440395,-2.6336145,488.0971,0.37979162,1.5233103,0.35970458,0.26385513,0.119295955,inf,inf,inf,inf,1,1,1,1,3,2,3,3,3,1,1,1,0,0,0
64164000,64164000,4204000,47.3977508,8.5456073,12.195933,3.7048123,0.88443255,1.7300869,-0.0922275,-0.007012764,-0.060895864,0.5446251,0.25669107,-0.38883728,2.7912118,-0.08311719,2.1976511,-0.13903436,0.13038062,-0.067834735,3.0486987,-2.6336145,488.0971,0.5131254,1.5072697,0.35682288,0.24359852,0.11167552,inf,inf,inf,inf,1,1,1,1,3,2,3,3,3,1,1,1,0,0,0
64668000,64668000,4204000,47.3977508,8.5456073,12.071881,3.2527003,0.75135976,1.7300869,-0.0922275,-0.007012764,-0.16980541,0.3864082,0.1543101,-0.4006074,2.7912118,-0.08311719,2.1976511,-0.13150813,0.09669407,-0.0574002,3.0533442,-2.6336145,488.0971,0.6461982,1.466937,0.33187476,0.20997152,0.1016217,inf,inf,inf,inf,1,1,1,1,3,2,3,3,3,1,1,1,0,0,0
65164000,65164000,4204000,47.3977508,8.5456073,12.111052,3.0147002,0.62431824,1.7300869,-0.0922275,-0.007012764,-0.22489116,0.27248907,0.07020653,-0.39033377,2.7912118,-0.08311719,2.1976511,-0.20954603,0.03335325,0.34043935,3.0566328,-2.6336145,488.0971,0.77323973,1.4813842,0.33088312,0.21524516,0.10039952,inf,inf,inf,inf,1,1,1,1,3,2,3,3,3,1,1,1,0,0,0
65668000,65668000,4204000,47.3977508,8.5456073,12.210542,2.9259746,0.5429853,1.7300869,-0.0922275,-0.007012764,-0.24711835,0.19394644,0.004315768,-0.36177945,2.7912118,-0.08311719,2.1976511,-0.12609893,0.044469435,-0.10949931,3.0602143,-2.6336145,488.0971,0.85457265,1.4966784,0.33225343,0.22373119,0.10156134,inf,inf,inf,inf,1,1,1,1,3,2,3,3,3,1,1,1,0,0,0
66164000,66164000,4204000,47.3977508,8.5456073,12.312366,2.9072042,0.4558063,1.7300869,-0.0922275,-0.007012764,-0.24654701,0.13366525,-0.05493714,-0.33481145,2.7912118,-0.08311719,2.1976511,-0.115962036,-0.00611462,-0.08420366,3.0619771,-2.6336145,488.0971,0.9417517,1.5104575,0.33231002,0.23200525,0.10397759,inf,inf,inf,inf,1,1,1,1,3,2,3,3,3,1,1,1,0,0,0
66668000,66668000,4204000,47.3977508,8.5456073,12.406346,2.9181452,0.3571743,1.7300869,-0.0922275,-0.007012764,-0.23049495,0.07989282,-0.11122146,-0.32606834,2.7912118,-0.08311719,2.1976511,-0.08363151,-0.01614465,-0.11870916,3.0638435,-2.6336145,488.0971,1.0403837,1.5162721,0.3147971,0.2098981,0.102726564,inf,inf,inf,inf,1,1,1,1,3,2,3,3,3,1,1,1,0,0,0
67164000,67164000,4204000,47.3977508,8.5456073,12.476513,2.9459178,0.25961578,1.7300869,-0.0922275,-0.007012764,-0.20779578,0.038805395,-0.15950592,-0.31771484,2.7912118,-0.08311719,2.1976511,-0.091893785,-0.019855775,-0.091262154,3.0658116,-2.6336145,488.0971,1.1379422,1.5287067,0.31706354,0.21544634,0.106721364,inf,inf,inf,inf,1,1,1,1,3,2,3,3,3,1,1,1,0,0,0
67668000,67668000,4204000,47.3977508,8.5456073,12.521127,2.9822032,0.16447176,1.7300869,-0.0922275,-0.007012764,-0.18537149,0.011984957,-0.20400107,-0.3080207,2.7912118,-0.08311719,2.1976511,-0.040312834,0.010291121,-0.086002976,3.066902,-2.6336145,488.0971,1.2330862,1.5402777,0.32229948,0.22054757,0.11127882,inf,inf,inf,inf,1,1,1,1,3,2,3,3,3,1,1,1,0,0,0
68164000,68164000,4204000,47.3977508,8.5456073,12.5468235,3.016751,0.06856364,1.7300869,-0.0922275,-0.007012764,-0.16560234,-0.0034962734,-0.23942482,-0.29825437,2.7912118,-0.08311719,2.1976511,-0.06797918,-0.008090966,-0.112662084,3.0678189,-2.6336145,488.0971,1.3289943,1.5509325,0.3281296,0.22422326,0.1155996,inf,inf,inf,inf,1,1,1,1,3,2,3,3,3,1,1,1,0,0,0
68668000,68668000,4204000,47.3977508,8.5456073,12.565803,3.0452676,-0.021850515,1.7300869,-0.0922275,-0.007012764,-0.13987754,-0.015684633,-0.26801813,-0.28127813,2.7912118,-0.08311719,2.1976511,-0.020713776,0.0009880532,-0.108345404,3.0690124,-2.6336145,488.0971,1.4194084,1.5579793,0.31286204,0.20150739,0.11321417,inf,inf,inf,inf,1,1,1,1,3,2,3,3,3,1,1,1,0,0,0
69164000,69164000,4204000,47.3977508,8.5456073,12.573686,3.0672917,-0.10860518,1.7300869,-0.0922275,-0.007012764,-0.11535499,-0.021764558,-0.2927374,-0.26576316,2.7912118,-0.08311719,2.1976511,-0.024644496,-0.022385718,-0.11585652,3.0699751,-2.6336145,488.0971,1.5061631,1.5677077,0.31974727,0.20446445,0.11668548,inf,inf,inf,inf,1,1,1,1,3,2,3,3,3,1,1,1,0,0,0
69668000,69668000,4204000,47.3977508,8.5456073,12.576503,3.0852976,-0.19802205,1.7300869,-0.0922275,-0.007012764,-0.09172627,-0.02897013,-0.31565174,-0.2566306,2.7912118,-0.08311719,2.1976511,-0.0060004964,-0.04610989,-0.08433032,3.0706737,-2.6336145,488.0971,1.59558,1.577713,0.32655594,0.20764299,0.119740866,inf,inf,inf,inf,1,1,1,1,3,2,3,3,3,1,1,1,0,0,0
70164000,70164000,4204000,47.3977508,8.5456073,12.580777,3.0989356,-0.28323495,1.7300869,-0.0922275,-0.007012764,-0.06367879,-0.033756044,-0.32995388,-0.24321774,2.7912118,-0.08311719,2.1976511,0.049701657,-0.018049736,-0.09868014,3.0709639,-2.6336145,488.0971,1.6807929,1.5877285,0.3346735,0.21029846,0.122528195,inf,inf,inf,inf,1,1,1,1,3,2,3,3,3,1,1,1,0,0,0
70668000,70668000,4204000,47.3977508,8.5456073,12.585233,3.105293,-0.34977397,1.7300869,-0.0922275,-0.007012764,-0.040682152,-0.03913334,-0.33350486,-0.20991343,2.7912118,-0.08311719,2.1976511,0.025464112,-0.03947837,-0.07528345,3.0713813,-2.6336145,488.0971,1.747332,1.5945671,0.31857497,0.19121082,0.117340624,inf,inf,inf,inf,1,1,1,1,3,2,3,3,3,1,1,1,0,0,0
71164000,71164000,4204000,47.3977508,8.5456073,12.591202,3.1062884,-0.40174338,1.7300869,-0.0922275,-0.007012764,-0.019589366,-0.039145313,-0.32781348,-0.17025167,2.7912118,-0.08311719,2.1976511,0.025710585,-0.010395175,-0.032998618,3.071517,-2.6336145,488.0971,1.7993014,1.6044905,0.32616138,0.19415098,0.11940083,inf,inf,inf,inf,1,1,1,1,3,2,3,3,3,1,1,1,0,0,0
71668000,71668000,4204000,47.3977508,8.5456073,12.60438,3.1087837,-0.44888124,1.7300869,-0.0922275,-0.007012764,0.010236785,-0.036169555,-0.31758842,-0.13835385,2.7912118,-0.08311719,2.1976511,0.04221778,-0.009787094,-0.036566515,3.0716238,-2.6336145,488.0971,1.8464392,1.6149989,0.33459458,0.1976872,0.121494964,inf,inf,inf,inf,1,1,1,1,3,2,3,3,3,1,1,1,0,0,0
72164000,72164000,4204000,47.3977508,8.5456073,12.624872,3.1093264,-0.4934731,1.7300869,-0.0922275,-0.007012764,0.041216206,-0.03287433,-0.30316553,-0.11701708,2.7912118,-0.08311719,2.1976511,0.05812164,0.013567652,-0.0076647843,3.0716972,-2.6336145,488.0971,1.891031,1.6257269,0.3406251,0.20091479,0.122888416,inf,inf,inf,inf,1,1,1,1,3,2,3,3,3,1,1,1,0,0,0
72668000,72668000,4204000,47.3977508,8.5456073,4.0892854,0.2482701,-0.49450967,-8.549324,-2.8627498,-0.007012764,0.025827331,-0.008308481,-0.016315684,0.18951419,-0.03586352,0.016958028,0.27050498,0.04197226,0.003241519,-0.043546777,3.071465,-2.6336145,488.0971,1.8920677,1.4144132,0.3202763,0.42440554,0.45006144,inf,inf,inf,inf,1,1,1,1,4,2,4,4,3,1,1,1,0,0,0
73164000,73164000,4204000,47.3977508,8.5456073,4.087202,0.25658864,-0.37686387,-8.549324,-2.8627498,-0.007012764,0.043393116,-0.0021487747,-0.0063197296,0.19464667,-0.03586352,0.016958028,0.27050498,0.03848793,0.023541607,-0.06970204,3.0712295,-2.6336145,488.0971,1.7744218,1.0073587,0.3337993,0.30100065,0.3151722,inf,inf,inf,inf,1,1,1,1,4,2,4,4,3,1,1,1,0,0,0
73668000,73668000,4204000,47.3977508,8.5456073,4.0933957,0.26044545,-0.3086528,-8.549324,-2.8627498,-0.007012764,0.062000614,0.0025214874,0.0041552903,0.17164731,-0.03586352,0.016958028,0.27050498,0.07274826,0.032203525,-0.056988556,3.0710247,-2.6336145,488.0971,1.7062107,0.8339297,0.35862145,0.24897884,0.25213212,inf,inf,inf,inf,1,1,1,1,4,2,4,4,3,1,1,1,0,0,0
74164000,74164000,4204000,47.3977508,8.5456073,4.1112075,0.26587647,-0.26463318,-8.549324,-2.8627498,-0.007012764,0.08948228,0.009458772,-0.0014854262,0.12879437,-0.03586352,0.016958028,0.27050498,0.0914439,0.015000251,-0.044615936,3.070621,-2.6336145,488.0971,1.6621912,0.7369532,0.3743633,0.22166657,0.21173474,inf,inf,inf,inf,1,1,1,1,4,2,4,4,3,1,1,1,0,0,0
74668000,74668000,4204000,47.3977508,8.5456073,4.1236696,0.27111685,-0.22625352,-8.549324,-2.8627498,-0.007012764,0.11222227,0.016060278,-0.010597985,0.09806503,-0.03586352,0.016958028,0.27050498,0.059574254,0.033810318,-0.078158446,3.0700653,-2.6336145,488.0971,1.6238115,0.6062437,0.3479106,0.18570063,0.1646654,inf,inf,inf,inf,1,1,1,1,4,2,4,4,3,1,1,1,0,0,0
75164000,75164000,4204000,47.3977508,8.5456073,4.13659,0.2733391,-0.19288737,-8.549324,-2.8627498,-0.007012764,0.13293399,0.021492697,-0.017923925,0.08105995,-0.03586352,0.016958028,0.27050498,0.094113864,0.01183508,-0.044572163,3.0695627,-2.6336145,488.0971,1.5904453,0.57715905,0.3551141,0.18278143,0.14816438,inf,inf,inf,inf,1,1,1,1,4,2,4,4,3,1,1,1,0,0,0
75668000,75668000,4204000,47.3977508,8.5456073,4.1561184,0.27483642,-0.16299388,-8.549324,-2.8627498,-0.007012764,0.1532036,0.02192001,-0.023678899,0.0688371,-0.03586352,0.016958028,0.27050498,0.08747645,0.011912059,-0.02621114,3.0689836,-2.6336145,488.0971,1.5605519,0.5590863,0.3621792,0.18509558,0.1364388,inf,inf,inf,inf,1,1,1,1,4,2,4,4,3,1,1,1,0,0,0
76164000,76164000,4204000,47.3977508,8.5456073,4.179414,0.2760459,-0.1451181,-8.549324,-2.8627498,-0.007012764,0.1716305,0.021909555,-0.032006033,0.04933301,-0.03586352,0.016958028,0.27050498,0.081371985,0.019339064,-0.018615274,3.068413,-2.6336145,488.0971,1.5426761,0.5484767,0.36419722,0.1903677,0.1277253,inf,inf,inf,inf,1,1,1,1,4,2,4,4,3,1,1,1,0,0,0
76668000,76668000,4204000,47.3977508,8.5456073,4.196969,0.2768482,-0.12618214,-8.549324,-2.8627498,-0.007012764,0.18164869,0.01803198,-0.038121637,0.04113739,-0.03586352,0.016958028,0.27050498,0.08244669,0.008505354,-0.035609115,3.0678608,-2.6336145,488.0971,1.52374,0.49945384,0.3389897,0.17780225,0.114419706,inf,inf,inf,inf,1,1,1,1,4,2,4,4,3,1,1,1,0,0,0
77164000,77164000,4204000,47.3977508,8.5456073,4.2085853,0.27636316,-0.110812664,-8.549324,-2.8627498,-0.007012764,0.18680117,0.012227179,-0.04237859,0.033757105,-0.03586352,0.016958028,0.27050498,0.085826844,0.0064467452,-0.059168782,3.0672283,-2.6336145,488.0971,1.5083706,0.49931684,0.34035975,0.1847409,0.11229051,inf,inf,inf,inf,1,1,1,1,4,2,4,4,3,1,1,1,0,0,0
77668000,77668000,4204000,47.3977508,8.5456073,4.2130437,0.27445552,-0.10815211,-8.549324,-2.8627498,-0.007012764,0.1829119,0.0044042105,-0.051548664,0.016261352,-0.03586352,0.016958028,0.27050498,0.113809995,-0.03306639,-0.0447398,3.0666776,-2.6336145,488.0971,1.5057101,0.50353336,0.34353188,0.19207437,0.11236311,inf,inf,inf,inf,1,1,1,1,4,2,4,4,3,1,1,1,0,0,0
78164000,78164000,4204000,47.3977508,8.5456073,4.2198024,0.26901877,-0.11428774,-8.549324,-2.8627498,-0.007012764,0.18136665,-0.0025641602,-0.059777077,-0.0012872114,-0.03586352,0.016958028,0.27050498,0.086381644,-0.006831178,-0.035461966,3.0660443,-2.6336145,488.0971,1.5118457,0.5100811,0.34451905,0.19858678,0.113380805,inf,inf,inf,inf,1,1,1,1,4,2,4,4,3,1,1,1,0,0,0
78668000,78668000,4204000,47.3977508,8.5456073,4.2047243,0.2635512,-0.11849868,-8.549324,-2.8627498,-0.007012764,0.16224474,-0.00682744,-0.0615443,-0.004298197,-0.03586352,0.016958028,0.27050498,0.07538053,0.017248996,0.013164244,3.0655131,-2.6336145,488.0971,1.5160567,0.47431338,0.32467392,0.18226907,0.10943847,inf,inf,inf,inf,1,1,1,1,4,2,4,4,3,1,1,1,0,0,0
79164000,79164000,4204000,47.3977508,8.5456073,4.194513,0.26435184,-0.12113807,-8.549324,-2.8627498,-0.007012764,0.1496834,-0.007044702,-0.06355455,-0.0054530846,-0.03586352,0.016958028,0.27050498,0.067988105,0.0049453154,-0.023191793,3.0651126,-2.6336145,488.0971,1.5186961,0.48254704,0.32707155,0.18704416,0.11211422,inf,inf,inf,inf,1,1,1,1,4,2,4,4,3,1,1,1,0,0,0
79668000,79668000,4204000,47.3977508,8.5456073,4.1889687,0.26683202,-0.1322341,-8.549324,-2.8627498,-0.007012764,0.1372978,-0.0033895678,-0.07475028,-0.02077386,-0.03586352,0.016958028,0.27050498,0.05769901,0.020341365,-0.063110135,3.0648844,-2.6336145,488.0971,1.5297921,0.49317113,0.3322257,0.19185928,0.11546107,inf,inf,inf,inf,1,1,1,1,4,2,4,4,3,1,1,1,0,0,0
80164000,80164000,4204000,47.3977508,8.5456073,4.169818,0.25924292,-0.12722017,-8.549324,-2.8627498,-0.007012764,-0.045618802,-0.14964479,0.088713,0.14502218,-0.03586352,0.016958028,0.27050498,-1.0078766,-0.91913295,0.98119855,3.06467,-2.6336145,488.0971,1.5247781,0.50409263,0.3360577,0.19539535,0.118423365,inf,inf,inf,inf,1,1,1,1,4,2,4,4,3,1,1,1,0,0,0
80668000,80668000,4204000,47.3977508,8.5456073,4.026013,0.14641383,0.038952153,-8.549324,-2.8627498,-0.007012764,-0.52312654,-0.54809517,0.557696,0.58765954,-0.03586352,0.016958028,0.27050498,-0.9065471,-0.8256024,0.8614202,3.0630124,-2.6336145,488.0971,1.3586059,0.4698746,0.31977397,0.1837716,0.11490232,inf,inf,inf,inf,1,1,1,1,4,2,4,4,3,1,1,1,0,0,0
81164000,81164000,4204000,47.3977508,8.5456073,3.9103985,0.05178423,0.2610686,-8.549324,-2.8627498,-0.007012764,-0.7127176,-0.7730602,0.64966077,0.580472,-0.03586352,0.016958028,0.27050498,-0.36276433,-0.6236627,0.33974087,3.0528557,-2.6336145,488.0971,1.1364894,0.47984746,0.3246356,0.19737682,0.117648266,inf,inf,inf,inf,1,1,1,1,4,2,4,4,3,1,1,1,0,0,0
81668000,81668000,4204000,47.3977508,8.5456073,3.9574034,0.041171677,0.40863305,-8.549324,-2.8627498,-0.007012764,0.0730046,-0.6001576,0.87243235,0.66895175,-0.03586352,0.016958028,0.27050498,2.4496632,3.7536926,2.0626805,-2.608293,-2.6336145,488.0971,0.9889249,0.49179727,0.33209753,0.2006738,0.12014848,inf,inf,inf,inf,1,1,1,1,4,2,4,4,3,1,1,1,0,0,0
82164000,82164000,4204000,47.3977508,8.5456073,3.7385433,0.54315335,0.58404994,-8.549324,-2.8627498,-0.007012764,0.28348136,0.89979446,0.8902959,0.5753569,-0.03586352,0.016958028,0.27050498,0.6763453,1.6290687,3.5648391,-3.1092322,-2.6336145,488.0971,0.81350803,0.503715,0.33872828,0.2176526,0.12000075,inf,inf,inf,inf,1,1,1,1,4,2,4,4,3,1,1,1,0,0,0
82668000,82668000,4204000,47.3977508,8.5456073,3.457346,0.89881814,1.635891,-8.549324,-2.8627498,-0.007012764,-0.51121396,0.34925014,3.331045,2.985955,-0.03586352,0.016958028,0.27050498,-0.20976529,0.28577173,0.15979725,1.0006287,-2.6336145,488.0971,0.1,0.5092862,0.33106577,0.22871655,0.14957292,inf,inf,inf,inf,1,1,1,1,4,2,4,4,3,1,1,1,0,0,0
83164000,83164000,4204000,47.3977508,8.5456073,2.9753852,0.98183256,2.930869,-8.549324,-2.8627498,-0.007012764,-0.7759888,0.44238463,3.36666,2.8597367,-0.03586352,0.016958028,0.27050498,-0.61673015,0.17406353,0.4591392,1.0038807,-2.6336145,488.0971,0.1,0.5513545,0.35708132,0.25277415,0.3181168,inf,inf,inf,inf,1,1,1,1,4,2,4,4,3,1,1,1,0,0,0
83668000,83668000,4204000,47.3977508,8.5456073,2.3151438,1.0586647,3.8802178,-8.549324,-2.8627498,-0.007012764,-1.2616507,0.4720858,3.279924,2.389645,-0.03586352,0.016958028,0.27050498,-0.9541624,0.102887504,0.7097674,1.0094317,-2.6336145,488.0971,0.1,0.6013507,0.4377084,0.2827426,0.4852007,inf,inf,inf,inf,1,1,1,1,4,2,4,4,3,1,1,1,0,0,0
84164000,84164000,4204000,47.3977508,8.5456073,1.944015,0.92940646,3.4760323,-8.549324,-2.8627498,-0.007012764,-1.5972896,0.3715762,2.2346036,0.36882302,-0.03586352,0.016958028,0.27050498,-1.0712863,-0.028366571,0.89158857,1.0181642,-2.6336145,488.0971,0.26921844,0.5848133,0.43773416,0.2623949,0.41306016,inf,inf,inf,inf,1,1,1,1,4,2,4,4,3,1,1,1,0,0,0
84668000,84668000,4204000,47.3977508,8.5456073,2.0297084,0.7316529,2.471507,-8.549324,-2.8627498,-0.007012764,-1.6479547,0.22535703,1.343798,-1.0317999,-0.03586352,0.016958028,0.27050498,-1.022201,-0.08736003,0.9516654,1.025897,-2.6336145,488.0971,1.2737436,0.51034236,0.36651838,0.21712783,0.27922496,inf,inf,inf,inf,1,1,1,1,4,2,4,4,3,1,1,1,0,0,0
