timestamp,timestamp_sample,gyro_device_id,gyro_bias[0],gyro_bias[1],gyro_bias[2],gyro_bias_limit,gyro_bias_variance[0],gyro_bias_variance[1],gyro_bias_variance[2],accel_device_id,accel_bias[0],accel_bias[1],accel_bias[2],accel_bias_limit,accel_bias_variance[0],accel_bias_variance[1],accel_bias_variance[2],mag_device_id,mag_bias[0],mag_bias[1],mag_bias[2],mag_bias_limit,mag_bias_variance[0],mag_bias_variance[1],mag_bias_variance[2],gyro_bias_valid,gyro_bias_stable,accel_bias_valid,accel_bias_stable,mag_bias_valid,mag_bias_stable
3124000,3124000,1310988,0.0,0.0,0.0,0.15,0.009960121,0.009960121,0.009960038,1310988,0.0,0.0,0.0,0.4,0.039840482,0.039840482,0.039840482,197388,0.0,0.0,0.0,0.5,0.0,0.0,0.0,1,0,1,0,1,0
3444000,3364000,1310988,-0.00040285496,-0.00066395174,-1.37957795e-05,0.15,0.010157162,0.010161338,0.003238317,1310988,-0.0012866306,0.000709447,-0.09871864,0.4,0.040917415,0.04092213,0.0045048823,197388,0.0,0.0,0.0,0.5,0.0,0.0,0.0,1,0,1,0,1,0
3500000,3420000,1310988,-0.0004075629,-0.0006716919,-1.4566159e-05,0.15,0.010395359,0.010399644,0.0032861487,1310988,-0.001301614,0.0007177226,-0.09986952,0.4,0.041877005,0.041881848,0.004610538,197388,0.0,0.0,0.0,0.5,0.0025000002,0.0025000002,0.0025000002,1,0,1,0,1,0
3556000,3476000,1310988,-0.00041192648,-0.0006789998,-6.729147e-06,0.15,0.010625011,0.01062939,0.00335793,1310988,-0.0013162119,0.00072531536,-0.10096663,0.4,0.042802144,0.042807095,0.004712398,197388,0.0,0.0,0.0,0.5,0.0025000002,0.0025000002,0.0025000002,1,0,1,0,1,0
3612000,3532000,1310988,-0.00041542007,-0.00068555016,4.509562e-05,0.15,0.010845981,0.010850452,0.0034247113,1310988,-0.00133177,0.0007309221,-0.10201115,0.4,0.043692306,0.043697357,0.004810408,197388,0.0,0.0,0.0,0.5,0.0025000002,0.0025000002,0.0025000002,1,0,1,0,1,0
3652000,3572000,1310988,-0.00044569015,-0.0007884882,4.402803e-05,0.15,0.010860469,0.010864926,0.003472581,1310988,-0.0008751939,0.0006436017,-0.102902256,0.4,0.04091032,0.04091462,0.004841376,197388,0.0,0.0,0.0,0.5,0.0025000002,0.0025000002,0.0025000002,1,0,1,0,1,0
3716000,3636000,1310988,-0.0004495473,-0.0007963576,0.00010230476,0.15,0.011092203,0.011096754,0.0035400894,1310988,-0.0008864908,0.0006483296,-0.1039943,0.4,0.04178324,0.041787628,0.004944685,197388,0.0,0.0,0.0,0.5,0.0025000002,0.0025000002,0.0025000002,1,0,1,0,1,0
3780000,3700000,1310988,-0.0004567795,-0.00080570026,-7.2306386e-05,0.15,0.011312673,0.011317317,0.0035993247,1310988,-0.0008892493,0.0006609939,-0.10502269,0.4,0.042613726,0.042618208,0.005042973,197388,0.0,0.0,0.0,0.5,0.0025000002,0.0025000002,0.0025000002,1,0,1,0,1,0
3828000,3748000,1310988,-0.0005327599,-0.0012994126,-1.5380789e-05,0.15,0.010391105,0.010395511,0.003631586,1310988,0.0005471431,0.0005173703,-0.10578768,0.4,0.033883527,0.033885065,0.0051055844,197388,0.0,0.0,0.0,0.5,0.0025000002,0.0025000002,0.0025000002,1,0,1,0,1,0
3868000,3788000,1310988,-0.0005324678,-0.0014841182,-1.7372102e-05,0.15,0.010144055,0.010148352,0.0036714945,1310988,0.000617959,0.0005418249,-0.10689033,0.4,0.034183368,0.034185115,0.0050249584,197388,0.0,0.0,0.0,0.5,0.0025000002,0.0025000002,0.0025000002,1,0,1,0,1,0
3948000,3868000,1310988,-0.00053502526,-0.0014991349,0.00015495135,0.15,0.010355004,0.010359397,0.003724816,1310988,0.00062130875,0.0005421973,-0.107996136,0.4,0.034894247,0.034896012,0.0051294644,197388,0.0,0.0,0.0,0.5,0.0025000002,0.0025000002,0.0025000002,1,0,1,0,1,0
4028000,3948000,1310988,-0.00053483073,-0.0015127277,0.00044729316,0.15,0.010551504,0.010555991,0.0037654534,1310988,0.00062214705,0.00053875556,-0.109016195,0.4,0.03555644,0.035558224,0.0052268147,197388,0.0,0.0,0.0,0.5,0.0025000002,0.0025000002,0.0025000002,1,0,1,0,1,0
4036000,3956000,1310988,-0.0006764165,-0.0026412895,0.0004396782,0.15,0.008039713,0.008043349,0.0037702702,1310988,0.0010540744,0.00054013514,-0.109123506,0.4,0.035254996,0.035257503,0.0052358448,197388,0.0,0.0,0.0,0.5,0.0025000002,0.0025000002,0.0025000002,1,0,1,0,1,0
4068000,3988000,1310988,-0.00071421615,-0.0029522914,0.000728493,0.15,0.0073575145,0.0073609804,0.003759005,1310988,0.00085212034,0.0005902725,-0.11051093,0.4,0.03524007,0.035242222,0.0049816505,197388,0.0,0.0,0.0,0.5,0.0025000002,0.0025000002,0.0025000002,1,0,1,0,1,0
4164000,4084000,1310988,-0.00071856176,-0.0029821969,0.0008867745,0.15,0.007502245,0.0075057903,0.0037876735,1310988,0.00085814786,0.00059204805,-0.11159273,0.4,0.03593334,0.035935517,0.0050796624,197388,0.0,0.0,0.0,0.5,0.0025000002,0.0025000002,0.0025000002,1,0,1,0,1,0
4188000,4108000,1310988,-0.0007405252,-0.0029816763,-0.00022254292,0.15,0.0075363754,0.0075399517,0.0037520877,1310988,0.00087676145,0.0006224533,-0.11184592,0.4,0.036096886,0.036099046,0.0051027853,197388,0.0,0.0,0.0,0.5,0.0025000002,0.0025000002,0.0025000002,1,0,1,0,1,0
4244000,4164000,1310988,-0.00088038674,-0.0041791564,-0.00022895772,0.15,0.0038689158,0.0038714327,0.0037880382,1310988,0.00023275363,0.00074367167,-0.11239762,0.4,0.03531501,0.035315607,0.0051537133,197388,0.0,0.0,0.0,0.5,0.0025000002,0.0025000002,0.0025000002,1,0,1,0,1,0
4276000,4196000,1310988,-0.0008336983,-0.0043295743,-1.4265415e-05,0.15,0.0034152733,0.003417588,0.0037476588,1310988,6.020858e-05,0.0007326033,-0.11414856,0.4,0.035064552,0.03506495,0.0047318367,197388,0.0,0.0,0.0,0.5,0.0025000002,0.0025000002,0.0025000002,1,0,1,0,1,0
4388000,4308000,1310988,-0.0008435058,-0.0043660775,-0.00014434816,0.15,0.003476133,0.0034784982,0.0037451943,1310988,6.3300904e-05,0.0007422086,-0.115161456,0.4,0.03568962,0.03569001,0.004816199,197388,0.0,0.0,0.0,0.5,0.0025000002,0.0025000002,0.0025000002,1,0,1,0,1,0
4484000,4404000,1310988,-0.0009216835,-0.0051548975,-0.00018069986,0.15,0.001257709,0.0012588053,0.0036339425,1310988,-0.0007005096,0.00088667,-0.1176469,0.4,0.034138855,0.034138665,0.004315204,197388,0.0,0.0,0.0,0.5,0.0025000002,0.0025000002,0.0025000002,1,0,1,0,1,0
4628000,4548000,1310988,-0.00091857405,-0.00521034,0.00038275906,0.15,0.0012797418,0.0012808675,0.0035110468,1310988,-0.0007195121,0.0008815488,-0.11867631,0.4,0.034738764,0.034738567,0.0043910556,197388,0.0,0.0,0.0,0.5,0.0025000002,0.0025000002,0.0025000002,1,0,1,0,1,0
4692000,4612000,1310988,-0.0012333518,-0.00549278,0.0008453541,0.15,0.0004936048,0.00049396063,0.003433716,1310988,-0.0010749378,0.001313939,-0.12082893,0.4,0.03382271,0.033823136,0.0038121545,197388,0.0,0.0,0.0,0.5,0.0025000002,0.0025000002,0.0025000002,1,0,1,0,1,0
4868000,4788000,1310988,-0.001636881,-0.0055301124,0.00097285246,0.15,0.00023516579,0.00023517018,0.0032744072,1310988,-0.0010643143,0.0018863416,-0.12180549,0.4,0.03383493,0.03383596,0.0038742505,197388,0.0,0.0,0.0,0.5,0.0025000002,0.0025000002,0.0025000002,1,0,1,0,1,0
4900000,4820000,1310988,-0.0016680347,-0.0055160904,0.0009750151,0.15,0.00022434548,0.0002243252,0.0032829372,1310988,-0.0010686103,0.0019674932,-0.12353017,0.4,0.03388858,0.033889867,0.0032962547,197388,0.0,0.0,0.0,0.5,0.0025000002,0.0025000002,0.0025000002,1,0,1,0,1,0
5108000,5028000,1310988,-0.0018755543,-0.005470391,0.00059684424,0.15,0.00011714606,0.000116982206,0.0029890859,1310988,-0.0009686706,0.0023249532,-0.12582079,0.4,0.034081087,0.034082975,0.0028167763,197388,0.0,0.0,0.0,0.5,0.0025000002,0.0025000002,0.0025000002,1,0,1,0,1,0
5316000,5236000,1310988,-0.0019123354,-0.005537396,0.0014706705,0.15,6.8431065e-05,6.8234855e-05,0.0026789152,1310988,-0.0010603421,0.0024202552,-0.12772323,0.4,0.034290493,0.034292754,0.002396883,197388,0.0,0.0,0.0,0.5,0.0025000002,0.0025000002,0.0025000002,1,0,1,0,1,0
5524000,5444000,1310988,-0.001787649,-0.0055678403,0.0018600157,0.15,4.3590702e-05,4.3406395e-05,0.00237288,1310988,-0.0010974095,0.0021738561,-0.12939188,0.4,0.034479074,0.03448151,0.0020419434,197388,0.0,0.0,0.0,0.5,0.0025000002,0.0025000002,0.0025000002,1,0,1,0,1,0
5732000,5652000,1310988,-0.0016593128,-0.0055890116,0.0017176471,0.15,2.9653469e-05,2.949028e-05,0.002084859,1310988,-0.0011330931,0.0018749891,-0.13078374,0.4,0.034635764,0.034638297,0.0017473821,197388,0.0,0.0,0.0,0.5,0.0025000002,0.0025000002,0.0025000002,1,0,1,0,1,0
5940000,5860000,1310988,-0.0016067352,-0.0055984952,0.001193457,0.15,2.1215661e-05,2.1068041e-05,0.0018226549,1310988,-0.0011561095,0.001725928,-0.13195567,0.4,0.034761224,0.03476385,0.0015052893,197388,0.0,0.0,0.0,0.5,0.0025000002,0.0025000002,0.0025000002,1,0,1,0,1,0
6148000,6068000,1310988,-0.0015712456,-0.005631229,0.0018750939,0.15,1.5787507e-05,1.5653019e-05,0.0015894086,1310988,-0.0012134495,0.0016577133,-0.13296011,0.4,0.034859195,0.034861896,0.001306544,197388,0.0,0.0,0.0,0.5,0.0025000002,0.0025000002,0.0025000002,1,0,1,0,1,0
6564000,6484000,1310988,-0.0015523025,-0.005574043,0.0021710668,0.15,9.560612e-06,9.444406e-06,0.0012081312,1310988,-0.0009945114,0.0016081091,-0.13432808,0.4,0.034992926,0.034995753,0.0010085044,197388,0.0,0.0,0.0,0.5,0.0025000002,0.0025000002,0.0025000002,1,0,1,0,1,0
7156000,7076000,1310988,-0.0014100793,-0.005440032,0.0026804637,0.15,5.3121744e-06,5.226359e-06,0.0008481568,1310988,-0.000503364,0.0010980029,-0.13521162,0.4,0.035090696,0.03509344,0.0008032102,197388,0.0,0.0,0.0,0.5,0.0025000002,0.0025000002,0.0025000002,1,0,1,0,1,0
7988000,7908000,1310988,-0.0011476709,-0.0054712887,0.0031714072,0.15,2.8866693e-06,2.8389675e-06,0.0005409768,1310988,-0.00071388704,6.357338e-05,-0.13561082,0.4,0.035138335,0.035140872,0.00078019634,197388,0.0,0.0,0.0,0.5,0.0025000002,0.0025000002,0.0025000002,1,0,1,0,1,0
8916000,8836000,1310988,-0.001144376,-0.005432117,0.0021500124,0.15,2.195298e-06,2.1642309e-06,0.00032750895,1310988,-0.0006104435,-8.457296e-05,-0.13580176,0.4,0.03515402,0.035156585,0.00078094914,197388,0.0,0.0,0.0,0.5,0.0025000002,0.0025000002,0.0025000002,1,0,1,0,1,0
9916000,9836000,1310988,-0.0011606282,-0.005417499,0.0012692531,0.15,2.122113e-06,2.1015444e-06,0.00021740128,1310988,-0.00061487284,-8.55834e-05,-0.13564412,0.4,0.035163574,0.035166185,0.0007811674,197388,0.0,0.0,0.0,0.5,0.0025000002,0.0025000002,0.0025000002,1,0,1,0,1,0
10916000,10836000,1310988,-0.00115006,-0.0054034772,0.00055788684,0.15,1.9997865e-06,1.9860108e-06,0.00014699207,1310988,-0.0005636749,-0.00023290228,-0.13566375,0.4,0.03516296,0.0351656,0.00078123057,197388,0.0,0.0,0.0,0.5,0.0025000002,0.0025000002,0.0025000002,1,0,1,0,1,0
11916000,11836000,1310988,-0.0011377019,-0.005418574,0.00034779738,0.15,1.6432144e-06,1.6332206e-06,0.000103738756,1310988,-0.000654665,-0.00035072223,-0.13543618,0.4,0.035149965,0.035152603,0.0007812469,197388,0.0,0.0,0.0,0.5,0.0025000002,0.0025000002,0.0025000002,1,0,1,0,1,0
12916000,12836000,1310988,-0.0011542563,-0.005398734,0.0003320193,0.15,1.3261229e-06,1.318583e-06,7.5837335e-05,1310988,-0.00061654096,-0.00015188237,-0.13478827,0.4,0.035136163,0.03513877,0.00078124634,197388,0.0,0.0,0.0,0.5,0.0025000002,0.0025000002,0.0025000002,1,0,1,0,1,0
13916000,13836000,1310988,-0.0011644078,-0.0054041687,0.000297449,0.15,9.0664423e-07,9.009835e-07,5.7081874e-05,1310988,-0.000755684,-4.3557324e-05,-0.1338066,0.4,0.035115257,0.035117883,0.00078124576,197388,0.0,0.0,0.0,0.5,0.0025000002,0.0025000002,0.0025000002,1,0,1,0,1,0
14916000,14836000,1310988,-0.001128199,-0.0054254658,0.00038703773,0.15,7.1018087e-07,7.0585827e-07,4.404436e-05,1310988,-0.0008170675,-0.00028975113,-0.13311493,0.4,0.035103776,0.03510645,0.0007812487,197388,0.0,0.0,0.0,0.5,0.0025000002,0.0025000002,0.0025000002,1,0,1,0,1,0
15804000,15724000,1310988,-0.001115686,-0.0054431264,0.00057014485,0.15,5.181737e-07,5.147591e-07,3.5313158e-05,1310988,-0.0010126294,-0.00029911325,-0.1317072,0.4,0.035090517,0.03509345,0.00078124576,197388,0.0,0.0,0.0,0.5,0.0025000002,0.0025000002,0.0025000002,1,0,1,0,1,0
16612000,16532000,1310988,-0.0011190245,-0.0054423637,0.00062809786,0.15,4.3819423e-07,4.3531614e-07,2.9665533e-05,1310988,-0.0011348742,-0.00016521427,-0.13060242,0.4,0.03508401,0.035087254,0.00078124576,197388,0.0,0.0,0.0,0.5,0.0025000002,0.0025000002,0.0025000002,1,0,1,0,1,0
17612000,17532000,1310988,-0.0011307566,-0.005442752,0.00047254172,0.15,3.831035e-07,3.8073279e-07,2.4084493e-05,1310988,-0.0013036772,-3.273684e-05,-0.12963544,0.4,0.035078708,0.03508238,0.00078124634,197388,0.0,0.0,0.0,0.5,0.0025000002,0.0025000002,0.0025000002,1,0,1,0,1,0
18252000,18172000,1310988,-0.0011395921,-0.005439002,0.00046606825,0.15,3.4104536e-07,3.3897192e-07,2.1207818e-05,1310988,-0.0012707574,0.00022665143,-0.12866402,0.4,0.035055365,0.035059687,0.00078124576,197388,0.0,0.0,0.0,0.5,0.0025000002,0.0025000002,0.0025000002,1,0,1,0,1,0
19012000,18932000,1310988,-0.0011705048,-0.0054553286,0.0005521948,0.15,3.0954646e-07,3.0768797e-07,1.853021e-05,1310988,-0.0025055413,0.0017920692,-0.12754384,0.4,0.034969356,0.034974214,0.00078124576,197388,0.0,0.0,0.0,0.5,0.0025000002,0.0025000002,0.0025000002,1,0,1,0,1,0
19812000,19732000,1310988,-0.0011748857,-0.005477593,0.000695323,0.15,2.8533893e-07,2.8368626e-07,1.587114e-05,1310988,-0.0037090655,0.0022040925,-0.12595342,0.4,0.034919318,0.034924906,0.00078124576,197388,0.0,0.0,0.0,0.5,0.0025000002,0.0025000002,0.0025000002,1,0,1,0,1,0
20212000,20132000,1310988,-0.0011462293,-0.0055276924,0.0007288773,0.15,2.7537868e-07,2.7422078e-07,1.4905704e-05,1310988,-0.0049415096,0.0011404775,-0.12386815,0.4,0.034909643,0.03491977,0.00078124576,197388,0.0,0.0,0.0,0.5,0.0025000002,0.0025000002,0.0025000002,1,0,1,0,1,0
20612000,20532000,1310988,-0.0009934426,-0.005694007,0.0008051568,0.15,2.663194e-07,2.660851e-07,1.3828852e-05,1310988,-0.009336667,-0.004863277,-0.117653966,0.4,0.034882598,0.034904867,0.00078124576,197388,0.0,0.0,0.0,0.5,0.0025000002,0.0025000002,0.0025000002,1,0,1,0,1,0
21012000,20932000,1310988,-0.0007939862,-0.005895885,0.0009948645,0.15,2.6135442e-07,2.6168692e-07,1.3806034e-05,1310988,0.05438552,0.06602265,-0.107541606,0.4,0.03363944,0.033683073,0.00078124576,197388,0.0,0.0,0.0,0.5,0.0025000002,0.0025000002,0.0025000002,1,0,1,0,1,0
21412000,21332000,1310988,-0.0006416379,-0.00603503,0.0011214754,0.15,2.6056264e-07,2.6114847e-07,1.3794753e-05,1310988,0.17892167,0.20199652,-0.09380699,0.4,0.029842775,0.02990624,0.00078124576,197388,0.0,0.0,0.0,0.5,0.0025000002,0.0025000002,0.0025000002,1,0,1,0,1,0
21780000,21700000,1310988,-0.0006416982,-0.006035231,0.00112004,0.15,2.6350656e-07,2.6408628e-07,1.3793642e-05,1310988,0.1783263,0.2016577,-0.09289149,0.4,0.029839357,0.02990414,0.00078124576,197388,0.0,0.0,0.0,0.5,0.0025000002,0.0025000002,0.0025000002,1,0,1,0,1,0
21812000,21732000,1310988,-0.0005813173,-0.0060834177,0.0011652603,0.15,2.624368e-07,2.6308004e-07,1.3790442e-05,1310988,0.27268627,0.30222133,-0.07812093,0.4,0.025561139,0.025623562,0.00078124576,197388,0.0,0.0,0.0,0.5,0.0025000002,0.0025000002,0.0025000002,1,0,1,0,1,0
22076000,21996000,1310988,-0.0005813134,-0.006084211,0.0011798628,0.15,2.6454876e-07,2.6518484e-07,1.3787181e-05,1310988,0.2724872,0.30157807,-0.077350505,0.4,0.025556812,0.025620839,0.00078124576,197388,0.0,0.0,0.0,0.5,0.0025000002,0.0025000002,0.0025000002,1,0,1,0,1,0
22204000,22124000,1310988,-0.00057219126,-0.006092823,0.0011884713,0.15,2.649545e-07,2.6559485e-07,1.3784102e-05,1310988,0.2986178,0.3261062,-0.062082324,0.4,0.022485027,0.022531252,0.00078124576,197388,0.0,0.0,0.0,0.5,0.0025000002,0.0025000002,0.0025000002,1,0,1,0,1,0
22436000,22356000,1310988,-0.0005721198,-0.006093373,0.0011982976,0.15,2.6681002e-07,2.674453e-07,1.3779467e-05,1310988,0.29828727,0.32551223,-0.061343417,0.4,0.0224811,0.022527643,0.00078124576,197388,0.0,0.0,0.0,0.5,0.0025000002,0.0025000002,0.0025000002,1,0,1,0,1,0
22604000,22524000,1310988,-0.0005720134,-0.00609401,0.0012113802,0.15,2.681535e-07,2.6878533e-07,1.37756015e-05,1310988,0.29792666,0.32482466,-0.06056526,0.4,0.022478268,0.022525026,0.00078124576,197388,0.0,0.0,0.0,0.5,0.0025000002,0.0025000002,0.0025000002,1,0,1,0,1,0
22612000,22532000,1310988,-0.0005700174,-0.0061027426,0.0012115774,0.15,2.6755762e-07,2.6819706e-07,1.377544e-05,1310988,0.2812651,0.30552328,-0.047373578,0.4,0.020548401,0.020571714,0.00078124576,197388,0.0,0.0,0.0,0.5,0.0025000002,0.0025000002,0.0025000002,1,0,1,0,1,0
22844000,22764000,1310988,-0.000569737,-0.006103562,0.0012338286,0.15,2.694111e-07,2.7004566e-07,1.3764548e-05,1310988,0.28112778,0.30457652,-0.046531092,0.4,0.020542067,0.0205651,0.00078124576,197388,0.0,0.0,0.0,0.5,0.0025000002,0.0025000002,0.0025000002,1,0,1,0,1,0
23012000,22932000,1310988,-0.0005586645,-0.006128189,0.0012629048,0.15,2.6999598e-07,2.7065704e-07,1.3757161e-05,1310988,0.2430098,0.2648169,-0.034365047,0.4,0.019370764,0.019376205,0.00078124576,197388,0.0,0.0,0.0,0.5,0.0025000002,0.0025000002,0.0025000002,1,0,1,0,1,0
23204000,23124000,1310988,-0.00055847963,-0.0061287144,0.0012766994,0.15,2.7152802e-07,2.721871e-07,1.3745521e-05,1310988,0.24277997,0.26412606,-0.03357588,0.4,0.019364536,0.019370582,0.00078124576,197388,0.0,0.0,0.0,0.5,0.0025000002,0.0025000002,0.0025000002,1,0,1,0,1,0
23404000,23324000,1310988,-0.0005321613,-0.006171381,0.0013315746,0.15,2.723527e-07,2.73075e-07,1.3732862e-05,1310988,0.19576056,0.21318875,-0.024733488,0.4,0.018631624,0.018630955,0.00078124576,197388,0.0,0.0,0.0,0.5,0.0025000002,0.0025000002,0.0025000002,1,0,1,0,1,0
23684000,23604000,1310988,-0.000532175,-0.006171661,0.0013360076,0.15,2.7458546e-07,2.7530578e-07,1.3712243e-05,1310988,0.195395,0.2127329,-0.023882171,0.4,0.01862279,0.018624814,0.00078124576,197388,0.0,0.0,0.0,0.5,0.0025000002,0.0025000002,0.0025000002,1,0,1,0,1,0
23804000,23724000,1310988,-0.0004950009,-0.006229319,0.0013920832,0.15,2.7481917e-07,2.7564442e-07,1.3687996e-05,1310988,0.14362286,0.15983038,-0.01913993,0.4,0.01813759,0.018144222,0.00078124576,197388,0.0,0.0,0.0,0.5,0.0025000002,0.0025000002,0.0025000002,1,0,1,0,1,0
24212000,24132000,1310988,-0.00044838764,-0.0062969103,0.0014671433,0.15,2.7745915e-07,2.7840758e-07,1.3620643e-05,1310988,0.090417325,0.10380935,-0.018175805,0.4,0.017803399,0.017825233,0.00078124576,197388,0.0,0.0,0.0,0.5,0.0025000002,0.0025000002,0.0025000002,1,0,1,0,1,0
24420000,24340000,1310988,-0.00044853546,-0.006296747,0.0014586498,0.15,2.7912046e-07,2.8006363e-07,1.3606111e-05,1310988,0.09025973,0.10381479,-0.017919682,0.4,0.01780128,0.017824434,0.0007812475,197388,0.0006958727,-0.0023791871,0.001273817,0.5,0.0012782863,0.0016694828,0.0016689764,1,0,1,0,1,0
24492000,24412000,1310988,-0.00044854652,-0.006296751,0.0014586394,0.15,2.7969642e-07,2.8063963e-07,1.36066865e-05,1310988,0.09024957,0.10380779,-0.017853757,0.4,0.017801262,0.017824428,0.0007812487,197388,-0.0006149987,-0.0028651257,0.00030045147,0.5,0.00086323963,0.0015003035,0.0015016152,1,0,1,0,1,0
24604000,24524000,1310988,-0.00040343046,-0.0063665956,0.0015388619,0.15,2.801322e-07,2.8119618e-07,1.3563854e-05,1310988,0.036359075,0.050510634,-0.023421153,0.4,0.017585805,0.017620178,0.00078124576,197388,-2.5588337e-05,-0.0030534603,0.0003773982,0.5,0.00065408583,0.0014272248,0.001429423,1,0,1,0,1,0
24636000,24556000,1310988,-0.00040343718,-0.0063665975,0.0015388569,0.15,2.803882e-07,2.8145217e-07,1.356411e-05,1310988,0.036354013,0.05050735,-0.02338137,0.4,0.017585795,0.017620174,0.00078124576,197388,-0.0011186373,-0.0034661603,-0.00014684963,0.5,0.0005280192,0.0013864804,0.0013891706,1,0,1,0,1,0
24852000,24772000,1310988,-0.0004034454,-0.006366598,0.0015388518,0.15,2.8211613e-07,2.8318019e-07,1.3565838e-05,1310988,0.036352944,0.050508227,-0.023336254,0.4,0.017585805,0.017620184,0.0007812487,197388,-0.0023119843,-0.004242008,-0.0006678633,0.5,0.00033819446,0.0013294964,0.0013330596,1,0,1,0,1,0
24996000,24916000,1310988,-0.0004034454,-0.006366598,0.0015388518,0.15,2.83268e-07,2.843322e-07,1.3566991e-05,1310988,0.036352944,0.050508227,-0.023336254,0.4,0.017585754,0.017620092,0.00078124576,197388,-0.0036203295,-0.00406417,-0.0010472491,0.5,0.0002747978,0.0013109255,0.0013141748,1,0,1,0,1,0
25004000,24924000,1310988,-0.000365505,-0.0064323945,0.0015990649,0.15,2.8302932e-07,2.8417307e-07,1.350174e-05,1310988,-0.018602416,-0.0012093292,-0.034502853,0.4,0.017432848,0.017477114,0.00078124576,197388,-0.0036203295,-0.00406417,-0.0010472491,0.5,0.0002747978,0.0013109255,0.0013141748,1,0,1,0,1,0
25284000,25204000,1310988,-0.000365505,-0.0064323945,0.0015990649,0.15,2.8526918e-07,2.8641307e-07,1.3503979e-05,1310988,-0.018602416,-0.0012093292,-0.034502853,0.4,0.017432714,0.01747692,0.00078124925,197388,-0.00471058,-0.004471773,-0.00160073,0.5,0.00020204246,0.0012907515,0.0012939456,1,0,1,0,1,0
25412000,25332000,1310988,-0.00034069028,-0.00648708,0.0016494654,0.15,2.8612405e-07,2.872797e-07,1.3422939e-05,1310988,-0.073159546,-0.05053857,-0.050622385,0.4,0.017310247,0.017360417,0.00078124576,197388,-0.004893794,-0.0045749834,-0.0016791594,0.5,0.00018993857,0.001287248,0.001290182,1,0,1,0,1,0
25644000,25564000,1310988,-0.00034069028,-0.00648708,0.0016494654,0.15,2.879799e-07,2.8913564e-07,1.3424796e-05,1310988,-0.073159546,-0.05053857,-0.050622385,0.4,0.017309792,0.017359883,0.00078124925,197388,-0.0057273395,-0.0049967114,-0.002287805,0.5,0.00015413083,0.0012773772,0.0012799469,1,0,1,0,1,0
25716000,25636000,1310988,-0.00034129515,-0.006487232,0.0016407118,0.15,2.884946e-07,2.8970035e-07,1.3404871e-05,1310988,-0.07424648,-0.049529973,-0.050587162,0.4,0.017081073,0.017096799,0.00078124576,197388,-0.0059033716,-0.0050166105,-0.0022096834,0.5,0.00014762804,0.0012749396,0.001278027,1,0,1,0,1,0
25788000,25708000,1310988,-0.00034070003,-0.0064874245,0.0016351348,0.15,2.8901454e-07,2.9026626e-07,1.3387091e-05,1310988,-0.07466914,-0.050936025,-0.050606646,0.4,0.016888427,0.0168675,0.00078124576,197388,-0.005967844,-0.0051692165,-0.0023325584,0.5,0.00014246236,0.0012700958,0.0012755207,1,0,1,0,1,0
25804000,25724000,1310988,-0.00033313246,-0.0065235365,0.0016755959,0.15,2.8905512e-07,2.9024744e-07,1.3306017e-05,1310988,-0.12506618,-0.09774006,-0.07094153,0.4,0.016783686,0.016762132,0.00078124576,197388,-0.0060606073,-0.0053574624,-0.0023667393,0.5,0.00014243861,0.0012700821,0.0012755176,1,0,1,0,1,0
25932000,25852000,1310988,-0.0003322873,-0.006523984,0.0016623059,0.15,2.899799e-07,2.912517e-07,1.3279293e-05,1310988,-0.12624067,-0.09982428,-0.07095025,0.4,0.016486902,0.016383398,0.00078124576,197388,-0.0061944774,-0.0058064605,-0.0025576612,0.5,0.00013532554,0.0012410681,0.0012716048,1,0,1,0,1,0
26004000,25924000,1310988,-0.0003313318,-0.0065243184,0.0016538111,0.15,2.905114e-07,2.918194e-07,1.3268103e-05,1310988,-0.1270059,-0.101821125,-0.07096643,0.4,0.016374886,0.016224189,0.00078124576,197388,-0.0061796047,-0.006331918,-0.0025021432,0.5,0.00013309976,0.0012086851,0.0012704408,1,0,1,0,1,0
26076000,25996000,1310988,-0.00033035487,-0.006524474,0.0016510154,0.15,2.91046e-07,2.923881e-07,1.3258412e-05,1310988,-0.12710784,-0.10371279,-0.07099245,0.4,0.016284415,0.016080914,0.00078124576,197388,-0.006097868,-0.006398952,-0.0026048084,0.5,0.00013154496,0.0011615354,0.0012693127,1,0,1,0,1,0
26148000,26068000,1310988,-0.0003298772,-0.0065246457,0.001645583,0.15,2.915839e-07,2.9295796e-07,1.3250157e-05,1310988,-0.12749974,-0.104727425,-0.070999615,0.4,0.016214345,0.015952675,0.00078124576,197388,-0.006083411,-0.006674729,-0.0027274028,0.5,0.00013046211,0.0011007241,0.001267818,1,0,1,0,1,0
26212000,26132000,1310988,-0.00033523986,-0.0065331366,0.0016378672,0.15,2.9204082e-07,2.9329823e-07,1.3178337e-05,1310988,-0.1512875,-0.1683405,-0.096071295,0.4,0.016098253,0.015840806,0.00078124576,197388,-0.006369053,-0.007544778,-0.0026759417,0.5,0.000130369,0.0011000417,0.0012677903,1,0,1,0,1,0
26220000,26140000,1310988,-0.0003344934,-0.0065332493,0.0016358495,0.15,2.9207038e-07,2.933565e-07,1.3171776e-05,1310988,-0.15138029,-0.16972007,-0.09608416,0.4,0.016046548,0.015727961,0.00078124576,197388,-0.0062915483,-0.007404457,-0.0028304427,0.5,0.00012955452,0.0010298574,0.0012660978,1,0,1,0,1,0
26292000,26212000,1310988,-0.00033368942,-0.006533397,0.0016321362,0.15,2.926147e-07,2.9392768e-07,1.3166696e-05,1310988,-0.15160201,-0.17121106,-0.096094936,0.4,0.016007243,0.015626092,0.00078124576,197388,-0.0062181973,-0.0073149987,-0.003018666,0.5,0.00012886895,0.0009534147,0.001264606,1,0,1,0,1,0
26364000,26284000,1310988,-0.00033275556,-0.006533546,0.0016279748,0.15,2.931615e-07,2.9449978e-07,1.3162381e-05,1310988,-0.1518717,-0.17288597,-0.096106656,0.4,0.01597684,0.015534165,0.00078124576,197388,-0.0061172354,-0.0071079284,-0.0032007399,0.5,0.00012819612,0.0008749158,0.001263485,1,0,1,0,1,0
26508000,26428000,1310988,-0.00033144193,-0.006533751,0.0016204213,0.15,2.942627e-07,2.956458e-07,1.3155001e-05,1310988,-0.15246785,-0.17515242,-0.09611718,0.4,0.0159294,0.015377034,0.00078124576,197388,-0.0059452048,-0.0064265192,-0.003545411,0.5,0.00012651144,0.00072404795,0.0012604572,1,0,1,0,1,0
26604000,26524000,1310988,-0.0003413185,-0.006511161,0.0015770507,0.15,2.9493793e-07,2.961895e-07,1.30972885e-05,1310988,-0.122174606,-0.26468095,-0.12540522,0.4,0.015602664,0.015038024,0.00078124576,197388,-0.006644831,-0.008535633,-0.0034465035,0.5,0.00012537028,0.0006547349,0.0012576426,1,0,1,0,1,0
26644000,26564000,1310988,-0.00034072908,-0.006511316,0.0015708818,0.15,2.952396e-07,2.9650732e-07,1.3093933e-05,1310988,-0.12269467,-0.26569468,-0.1253987,0.4,0.015583799,0.014983657,0.00078124576,197388,-0.0065439898,-0.008217819,-0.0036753211,0.5,0.00012413683,0.00059327146,0.0012546604,1,0,1,0,1,0
26852000,26772000,1310988,-0.00033778057,-0.006512106,0.0015277395,0.15,2.9685185e-07,2.9816528e-07,1.308318e-05,1310988,-0.12310851,-0.26649582,-0.12539294,0.4,0.015562446,0.014934241,0.00078124687,197388,-0.0058161896,-0.009355208,-0.0031822775,0.5,0.00012028206,0.00045142687,0.0012477643,1,0,1,0,1,0
27004000,26924000,1310988,-0.0003729283,-0.006460618,0.0015824153,0.15,2.9772872e-07,2.9885845e-07,1.3053902e-05,1310988,-0.12310851,-0.26649582,-0.12539294,0.4,0.015562446,0.014934241,0.00078124687,197388,-0.006245337,-0.014321954,-0.00340751,0.5,0.00011821359,0.00039330893,0.0012439296,1,0,1,0,1,0
27276000,27196000,1310988,-0.00036952508,-0.0064615267,0.0015340861,0.15,2.998511e-07,3.0102947e-07,1.3040164e-05,1310988,-0.12310851,-0.26649582,-0.12539294,0.4,0.015562446,0.014934241,0.00078124687,197388,-0.0055354075,-0.014327548,-0.0024904017,0.5,0.00011513868,0.00032421897,0.0012360929,1,0,1,0,1,0
27404000,27324000,1310988,-0.0004137947,-0.0064191744,0.0015471254,0.15,3.0032822e-07,3.0134416e-07,1.303095e-05,1310988,-0.12234278,-0.27331728,-0.12572464,0.4,0.015557881,0.014929978,0.00078124576,197388,-0.0055636056,-0.017836435,-0.002782469,0.5,0.00011436277,0.00030989142,0.0012343174,1,0,1,0,1,0
27556000,27476000,1310988,-0.00041134315,-0.00641946,0.0015064022,0.15,3.0151148e-07,3.0255472e-07,1.3019303e-05,1310988,-0.12231991,-0.27335122,-0.12572539,0.4,0.015557892,0.014929988,0.0007812567,197388,-0.0050412375,-0.018237945,-0.0019948522,0.5,0.000112699825,0.0002811229,0.0012285912,1,0,1,0,1,0
27812000,27732000,1310988,-0.0004531788,-0.006404995,0.0014413433,0.15,3.028113e-07,3.0379957e-07,1.3005157e-05,1310988,-0.10914342,-0.30790535,-0.12874287,0.4,0.015189847,0.014585719,0.00078124576,197388,-0.004308069,-0.019379083,-0.0017072712,0.5,0.000111095076,0.00025740374,0.0012237752,1,0,1,0,1,0
28044000,27964000,1310988,-0.00045071455,-0.006404689,0.0013883165,0.15,3.0462695e-07,3.0563822e-07,1.2986236e-05,1310988,-0.10900288,-0.30832765,-0.12878329,0.4,0.015189678,0.014585439,0.0007812607,197388,-0.003786403,-0.019784348,-0.000741985,0.5,0.0001095674,0.00023685637,0.001217638,1,0,1,0,1,0
28212000,28132000,1310988,-0.0004820527,-0.0064260014,0.0013015696,0.15,3.0520133e-07,3.0624253e-07,1.2965553e-05,1310988,-0.0746673,-0.31827188,-0.13360621,0.4,0.014357261,0.013792943,0.00078124576,197388,-0.0029915685,-0.018032392,-0.00073959737,0.5,0.00010868484,0.00022612509,0.001214923,1,0,1,0,1,0
28556000,28476000,1310988,-0.00047984053,-0.0064248918,0.0012571278,0.15,3.0789866e-07,3.089529e-07,1.29347345e-05,1310988,-0.07449195,-0.31936303,-0.13383043,0.4,0.01435648,0.0137914745,0.00078124576,197388,-0.002592565,-0.018144261,-7.995368e-06,0.5,0.00010727892,0.00021040191,0.0012092212,1,0,1,0,1,0
28612000,28532000,1310988,-0.00049325154,-0.006471077,0.0011891769,0.15,3.0767046e-07,3.0881222e-07,1.2909932e-05,1310988,-0.025123412,-0.28792775,-0.13926813,0.4,0.013302153,0.0127625335,0.00078124576,197388,-0.0020873947,-0.014925483,-0.00034091857,0.5,0.000107099484,0.00020799425,0.0012091228,1,0,1,0,1,0
28796000,28716000,1310988,-0.0004916813,-0.0064698276,0.0011541831,0.15,3.0910692e-07,3.1025039e-07,1.2887211e-05,1310988,-0.024961187,-0.28890067,-0.13945746,0.4,0.013301207,0.012760779,0.00078124576,197388,-0.0018230969,-0.015090031,0.00010411214,0.5,0.00010638509,0.00020079779,0.0012064185,1,0,1,0,1,0
29004000,28924000,1310988,-0.00048652233,-0.0065284176,0.0010627771,0.15,3.1016108e-07,3.114232e-07,1.2823207e-05,1310988,0.037271127,-0.2249382,-0.14426377,0.4,0.012276413,0.01172925,0.00078124576,197388,-0.0012316108,-0.011326019,7.591308e-05,0.5,0.000105629886,0.00019268776,0.0012039397,1,0,1,0,1,0
29268000,29188000,1310988,-0.00048602576,-0.0065275943,0.0010467041,0.15,3.1221276e-07,3.1346875e-07,1.2783956e-05,1310988,0.037304215,-0.2259084,-0.14462438,0.4,0.012274615,0.011726313,0.00078124576,197388,-0.0011143391,-0.011344979,0.00028773633,0.5,0.000104882674,0.00018613695,0.001201247,1,0,1,0,1,0
29404000,29324000,1310988,-0.0004654695,-0.0065941582,0.0009772285,0.15,3.1278694e-07,3.1418142e-07,1.2723965e-05,1310988,0.10809597,-0.14041144,-0.14817435,0.4,0.011378687,0.010795492,0.00078124576,197388,-0.00077625096,-0.007534141,4.0443163e-05,0.5,0.00010464094,0.00018292166,0.0012005611,1,0,1,0,1,0
29628000,29548000,1310988,-0.00046361345,-0.0065919,0.00094719086,0.15,3.145058e-07,3.158887e-07,1.2676036e-05,1310988,0.10838166,-0.14134885,-0.14851333,0.4,0.011376297,0.0107924035,0.0007812475,197388,-0.00059313775,-0.0077060107,0.00015050905,0.5,0.00010401202,0.00017794123,0.001198223,1,0,1,0,1,0
29812000,29732000,1310988,-0.00042282403,-0.0066630295,0.0009232408,0.15,3.154698e-07,3.1700705e-07,1.2594918e-05,1310988,0.18032248,-0.044256285,-0.14863,0.4,0.010630403,0.009992599,0.00078124576,197388,-0.0004229358,-0.004297727,-0.00017611959,0.5,0.00010368885,0.00017424759,0.0011971128,1,0,1,0,1,0
30204000,30124000,1310988,-0.00037091665,-0.0067253057,0.0009148741,0.15,3.1799487e-07,3.1966593e-07,1.2468132e-05,1310988,0.23815437,0.038410768,-0.14622037,0.4,0.010035956,0.009338156,0.00078124576,197388,-0.0003397358,-0.0016313122,-0.0003499115,0.5,0.00010288515,0.00016782472,0.0011936907,1,0,1,0,1,0
30612000,30532000,1310988,-0.00031985567,-0.0067639328,0.00089318526,0.15,3.2057417e-07,3.223139e-07,1.2370029e-05,1310988,0.2675309,0.0907135,-0.14267915,0.4,0.009554703,0.008802206,0.00078124576,197388,-0.00040162815,8.519564e-05,-0.00018780812,0.5,0.00010196267,0.00016320465,0.001151691,1,0,1,0,1,0
30852000,30772000,1310988,-0.00031865222,-0.0067615993,0.000909614,0.15,3.2236954e-07,3.2407712e-07,1.2254923e-05,1310988,0.2677353,0.090526834,-0.14277261,0.4,0.009546339,0.008793413,0.0007812492,197388,-0.0001776121,1.6039947e-05,-0.0020357724,0.5,0.00010003133,0.00015674175,0.0009270357,1,0,1,0,1,0
31004000,30924000,1310988,-0.00028293257,-0.006787745,0.0011488314,0.15,3.227841e-07,3.2413524e-07,1.2093143e-05,1310988,0.2824645,0.109569155,-0.13891463,0.4,0.00906686,0.008407904,0.00078124576,197388,-0.00041009742,0.00039717075,-0.0017799956,0.5,9.818636e-05,0.00015134331,0.0007905684,1,0,1,0,1,0
31212000,31132000,1310988,-0.0002826787,-0.006786992,0.0011614382,0.15,3.2437745e-07,3.257022e-07,1.202347e-05,1310988,0.2824698,0.10925326,-0.13890006,0.4,0.009057236,0.008397522,0.0007812492,197388,-0.00070330244,0.00085336046,-0.0007991213,0.5,9.471753e-05,0.00014147238,0.0006774038,1,0,1,0,1,0
31412000,31332000,1310988,-0.00023060733,-0.0067934706,0.0011685252,0.15,3.2465988e-07,3.2517394e-07,1.1687505e-05,1310988,0.27904472,0.111746855,-0.13860212,0.4,0.009047597,0.008389322,0.00078124576,197388,-0.00088785525,0.0012964548,-0.00044839107,0.5,9.000123e-05,0.00012902419,0.0006631091,1,0,1,0,1,0
31804000,31724000,1310988,-0.00016113224,-0.0067935623,0.0010873941,0.15,3.2608676e-07,3.2621858e-07,1.1276931e-05,1310988,0.25851208,0.11662228,-0.1374828,0.4,0.008891906,0.008255953,0.00078124576,197388,-0.0015051672,0.0027436581,0.000110318855,0.5,6.972702e-05,8.882408e-05,0.0006529874,1,0,1,0,1,0
32204000,32124000,1310988,-8.6045875e-05,-0.006799604,0.0010236433,0.15,3.274527e-07,3.2754375e-07,1.0961613e-05,1310988,0.22526884,0.122691646,-0.13572979,0.4,0.00851123,0.007924293,0.00078124576,197388,-0.001166638,0.0029945485,0.0003536175,0.5,5.809029e-05,6.912401e-05,0.00063417683,1,0,1,0,1,0
32612000,32532000,1310988,-1.5718979e-05,-0.006804494,0.0010519072,0.15,3.2885447e-07,3.2915278e-07,1.0622079e-05,1310988,0.18658206,0.12843636,-0.13321683,0.4,0.007933199,0.007423549,0.00078124576,197388,-0.0015015611,0.0035972297,-0.00013842725,0.5,4.985236e-05,5.565708e-05,0.00061203423,1,0,1,0,1,0
33012000,32932000,1310988,3.5718036e-05,-0.0068104304,0.0010689524,0.15,3.3040118e-07,3.3095108e-07,1.0320348e-05,1310988,0.15494603,0.13548556,-0.12978671,0.4,0.007273626,0.0068685664,0.00078124576,197388,-0.001602823,0.003912511,-0.00061028556,0.5,4.4802066e-05,4.720372e-05,0.0005995962,1,0,1,0,1,0
33412000,33332000,1310988,7.495942e-05,-0.006812765,0.001086672,0.15,3.3227388e-07,3.3297897e-07,1.00977395e-05,1310988,0.12929142,0.14137606,-0.12609015,0.4,0.006633563,0.006344213,0.00078124576,197388,-0.0016632553,0.004159413,-0.0008910952,0.5,4.1861e-05,4.2154476e-05,0.0005952924,1,0,1,0,1,0
33812000,33732000,1310988,0.000102984304,-0.006812136,0.0011393502,0.15,3.344155e-07,3.3498895e-07,9.903627e-06,1310988,0.11054628,0.14612752,-0.12185095,0.4,0.0060708346,0.0058802506,0.00078124576,197388,-0.0017535674,0.004279811,-0.001138656,0.5,3.9218117e-05,3.78179e-05,0.0005937379,1,0,1,0,1,0
34212000,34132000,1310988,0.00011821425,-0.0068108235,0.0011809284,0.15,3.3672848e-07,3.3704416e-07,9.771352e-06,1310988,0.100835234,0.14879176,-0.11685066,0.4,0.005605499,0.005485727,0.00078124576,197388,-0.0019095734,0.004509441,-0.0013271341,0.5,3.749945e-05,3.5048368e-05,0.0005927938,1,0,1,0,1,0
34604000,34524000,1310988,0.00013042602,-0.006808311,0.0012468051,0.15,3.389854e-07,3.3884186e-07,9.6282765e-06,1310988,0.093596764,0.1502121,-0.11146031,0.4,0.0052343216,0.0051533184,0.00078124576,197388,-0.0019664674,0.004428004,-0.001286532,0.5,3.585388e-05,3.2487886e-05,0.00059063453,1,0,1,0,1,0
35012000,34932000,1310988,0.00013787813,-0.0068061166,0.0012923166,0.15,3.4124847e-07,3.4059613e-07,9.478e-06,1310988,0.089954756,0.15117547,-0.1059564,0.4,0.0049384525,0.0048752385,0.00078124576,197388,-0.0020033296,0.004368539,-0.001235917,0.5,3.4548466e-05,3.046209e-05,0.0005869163,1,0,1,0,1,0
35412000,35332000,1310988,0.00014320693,-0.0068040607,0.0013172711,0.15,3.4328374e-07,3.4223316e-07,9.33572e-06,1310988,0.08795493,0.1518038,-0.1005409,0.4,0.004706643,0.0046523754,0.00078124576,197388,-0.0020142677,0.004359686,-0.0012474698,0.5,3.3667257e-05,2.907807e-05,0.0005833015,1,0,1,0,1,0
35780000,35700000,1310988,0.0001421883,-0.0068041435,0.0013439567,0.15,3.4602547e-07,3.4447012e-07,9.215205e-06,1310988,0.08809489,0.15204827,-0.099529944,0.4,0.0047047217,0.0046425564,0.00078124576,197388,-0.0021006889,0.0043725255,-0.0011871463,0.5,3.2956013e-05,2.7907341e-05,0.00057977636,1,0,1,0,1,0
35812000,35732000,1310988,0.00014163357,-0.006801666,0.0013330757,0.15,3.4501937e-07,3.435174e-07,9.152428e-06,1310988,0.08767208,0.15106353,-0.09505677,0.4,0.0045243874,0.0044739754,0.00078124576,197388,-0.0021083506,0.004384716,-0.0012197532,0.5,3.2815526e-05,2.7691916e-05,0.0005791306,1,0,1,0,1,0
36204000,36124000,1310988,0.00014099925,-0.0068008266,0.0013427373,0.15,3.4791597e-07,3.4589596e-07,9.0302365e-06,1310988,0.087873854,0.1512272,-0.093971565,0.4,0.004522568,0.004466164,0.00078124576,197388,-0.0021349187,0.004365386,-0.0012173647,0.5,3.2265503e-05,2.671911e-05,0.00057621923,1,0,1,0,1,0
36212000,36132000,1310988,0.00013805693,-0.006797033,0.0013204375,0.15,3.4649273e-07,3.4468744e-07,8.983016e-06,1310988,0.08713911,0.14967024,-0.089238875,0.4,0.004381429,0.004336837,0.00078124576,197388,-0.0021602006,0.004374251,-0.0012107703,0.5,3.2243417e-05,2.671543e-05,0.0005762157,1,0,1,0,1,0
36612000,36532000,1310988,0.00013902262,-0.006790742,0.0012704395,0.15,3.4757582e-07,3.453962e-07,8.784651e-06,1310988,0.086921446,0.14917345,-0.08408784,0.4,0.0042683547,0.0042305137,0.00078124576,197388,-0.002089324,0.0043956893,-0.0014093857,0.5,3.1697276e-05,2.5720277e-05,0.0005734844,1,0,1,0,1,0
36972000,36892000,1310988,0.00013984207,-0.0067917006,0.0012969524,0.15,3.503138e-07,3.4815665e-07,8.424555e-06,1310988,0.0871883,0.14916916,-0.083035804,0.4,0.0042630374,0.0042295563,0.00078124576,197388,-0.0020893135,0.0043958793,-0.0014094275,0.5,3.1697276e-05,2.5720276e-05,0.0005734844,1,0,1,0,1,0
37012000,36932000,1310988,0.00013748466,-0.0067872787,0.0012823476,0.15,3.4853178e-07,3.4660113e-07,8.384268e-06,1310988,0.08655962,0.14850846,-0.0792926,0.4,0.0041760122,0.00415475,0.00078124576,197388,-0.0020893135,0.0043958793,-0.0014094275,0.5,3.1697276e-05,2.5720276e-05,0.0005734844,1,0,1,0,1,0
37412000,37332000,1310988,0.00013370621,-0.0067855506,0.0012654663,0.15,3.4913495e-07,3.473855e-07,7.955413e-06,1310988,0.086704634,0.14775178,-0.07448511,0.4,0.0041028433,0.0040981076,0.00078124576,197388,-0.0020893135,0.0043958793,-0.0014094275,0.5,3.1697276e-05,2.5720276e-05,0.0005734844,1,0,1,0,1,0
37812000,37732000,1310988,0.0001249127,-0.006779352,0.001230826,0.15,3.49351e-07,3.4770642e-07,7.566637e-06,1310988,0.08623441,0.14662127,-0.07024052,0.4,0.0040460033,0.004056049,0.00078124576,197388,-0.0020893135,0.0043958793,-0.0014094275,0.5,3.1697276e-05,2.5720276e-05,0.0005734844,1,0,1,0,1,0
38212000,38132000,1310988,0.00011300089,-0.0067733084,0.0011752077,0.15,3.4911713e-07,3.4751218e-07,7.2667995e-06,1310988,0.085827716,0.1455063,-0.06631472,0.4,0.004002916,0.0040250253,0.00078124576,197388,-0.0020893135,0.0043958793,-0.0014094275,0.5,3.1697276e-05,2.5720276e-05,0.0005734844,1,0,1,0,1,0
38612000,38532000,1310988,9.8027645e-05,-0.0067637176,0.0010969039,0.15,3.4834508e-07,3.4670657e-07,6.935052e-06,1310988,0.08504184,0.1445192,-0.063317165,0.4,0.0039694887,0.0040023024,0.00078124576,197388,-0.0020893135,0.0043958793,-0.0014094275,0.5,3.1697276e-05,2.5720276e-05,0.0005734844,1,0,1,0,1,0
39004000,38924000,1310988,8.469621e-05,-0.0067520267,0.0010546718,0.15,3.4696993e-07,3.4524606e-07,6.6763387e-06,1310988,0.084399894,0.14392298,-0.059437003,0.4,0.003944792,0.003985886,0.00078124576,197388,-0.0020893135,0.0043958793,-0.0014094275,0.5,3.1697276e-05,2.5720276e-05,0.0005734844,1,0,1,0,1,0
39412000,39332000,1310988,5.7866724e-05,-0.006745008,0.0010145714,0.15,3.450316e-07,3.4316682e-07,6.3847783e-06,1310988,0.08380988,0.1428854,-0.056810737,0.4,0.0039257915,0.0039739907,0.00078124576,197388,-0.0020893135,0.0043958793,-0.0014094275,0.5,3.1697276e-05,2.5720276e-05,0.0005734844,1,0,1,0,1,0
39812000,39732000,1310988,3.403035e-05,-0.0067337602,0.0009292332,0.15,3.423779e-07,3.403462e-07,6.15548e-06,1310988,0.08301933,0.14232479,-0.054279853,0.4,0.0039119944,0.0039654057,0.00078124576,197388,-0.0020893135,0.0043958793,-0.0014094275,0.5,3.1697276e-05,2.5720276e-05,0.0005734844,1,0,1,0,1,0
40212000,40132000,1310988,1.1238936e-05,-0.006717827,0.0008832482,0.15,3.3904672e-07,3.3681798e-07,5.89426e-06,1310988,0.08223857,0.14208888,-0.052355055,0.4,0.0039013403,0.003959146,0.00078124576,197388,-0.0020893135,0.0043958793,-0.0014094275,0.5,3.1697276e-05,2.5720276e-05,0.0005734844,1,0,1,0,1,0
40604000,40524000,1310988,-2.2762202e-05,-0.0067000124,0.00089545536,0.15,3.3504992e-07,3.3261279e-07,5.647527e-06,1310988,0.08143786,0.14190193,-0.050690055,0.4,0.003893244,0.0039544003,0.00078124576,197388,-0.0020893135,0.0043958793,-0.0014094275,0.5,3.1697276e-05,2.5720276e-05,0.0005734844,1,0,1,0,1,0
41004000,40924000,1310988,-4.9379745e-05,-0.0066791456,0.00086075044,0.15,3.3047326e-07,3.2782947e-07,5.452644e-06,1310988,0.08073698,0.14203988,-0.048806988,0.4,0.0038870638,0.0039505106,0.00078124576,197388,-0.0020893135,0.0043958793,-0.0014094275,0.5,3.1697276e-05,2.5720276e-05,0.0005734844,1,0,1,0,1,0
41412000,41332000,1310988,-7.991328e-05,-0.0066512334,0.000833386,0.15,3.2531005e-07,3.224599e-07,5.2294818e-06,1310988,0.08001531,0.14241482,-0.047643576,0.4,0.0038815548,0.0039469497,0.00078124576,197388,-0.0020893135,0.0043958793,-0.0014094275,0.5,3.1697276e-05,2.5720276e-05,0.0005734844,1,0,1,0,1,0
41812000,41732000,1310988,-0.00011537912,-0.006625586,0.0008571991,0.15,3.1958763e-07,3.1654838e-07,5.052731e-06,1310988,0.0794385,0.14290391,-0.046294037,0.4,0.0038766942,0.0039433846,0.00078124576,197388,-0.0020893135,0.0043958793,-0.0014094275,0.5,3.1697276e-05,2.5720276e-05,0.0005734844,1,0,1,0,1,0
42204000,42124000,1310988,-0.00014951275,-0.0065941433,0.0008427753,0.15,3.1345633e-07,3.102452e-07,4.8500797e-06,1310988,0.07890485,0.14360929,-0.04508616,0.4,0.0038717312,0.0039395937,0.00078124576,197388,-0.0020893135,0.0043958793,-0.0014094275,0.5,3.1697276e-05,2.5720276e-05,0.0005734844,1,0,1,0,1,0
42612000,42532000,1310988,-0.00018787767,-0.0065650395,0.00083106814,0.15,3.0704007e-07,3.036762e-07,4.6576133e-06,1310988,0.07838434,0.1444105,-0.044101514,0.4,0.0038665486,0.0039353664,0.00078124576,197388,-0.0020893135,0.0043958793,-0.0014094275,0.5,3.1697276e-05,2.5720276e-05,0.0005734844,1,0,1,0,1,0
43012000,42932000,1310988,-0.0002254285,-0.0065378537,0.000795883,0.15,3.0033715e-07,2.96843e-07,4.5048037e-06,1310988,0.07788619,0.14526382,-0.043061517,0.4,0.003861155,0.0039306614,0.00078124576,197388,-0.0020893135,0.0043958793,-0.0014094275,0.5,3.1697276e-05,2.5720276e-05,0.0005734844,1,0,1,0,1,0
43412000,43332000,1310988,-0.00026874035,-0.0065038214,0.00082740275,0.15,2.9349454e-07,2.8989533e-07,4.3293976e-06,1310988,0.07756247,0.14640692,-0.041887384,0.4,0.003855201,0.0039254683,0.00078124576,197388,-0.0020893135,0.0043958793,-0.0014094275,0.5,3.1697276e-05,2.5720276e-05,0.0005734844,1,0,1,0,1,0
43812000,43732000,1310988,-0.00030639983,-0.006471013,0.0008152585,0.15,2.8660853e-07,2.82929e-07,4.190274e-06,1310988,0.077315055,0.14751478,-0.041347254,0.4,0.0038489376,0.0039198413,0.00078124576,197388,-0.0020893135,0.0043958793,-0.0014094275,0.5,3.1697276e-05,2.5720276e-05,0.0005734844,1,0,1,0,1,0
44212000,44132000,1310988,-0.000347362,-0.006438227,0.00081450277,0.15,2.7974693e-07,2.7601376e-07,4.0308105e-06,1310988,0.077084415,0.14874119,-0.040467393,0.4,0.0038421687,0.0039138226,0.00078124576,197388,-0.0020893135,0.0043958793,-0.0014094275,0.5,3.1697276e-05,2.5720276e-05,0.0005734844,1,0,1,0,1,0
44612000,44532000,1310988,-0.00038966667,-0.0064041666,0.0007981847,0.15,2.7297864e-07,2.692156e-07,3.879402e-06,1310988,0.07688359,0.1500687,-0.03974427,0.4,0.003835058,0.0039074733,0.00078124576,197388,-0.0020893135,0.0043958793,-0.0014094275,0.5,3.1697276e-05,2.5720276e-05,0.0005734844,1,0,1,0,1,0
45012000,44932000,1310988,-0.00042604157,-0.0063668117,0.000776519,0.15,2.6637656e-07,2.6260085e-07,3.7593838e-06,1310988,0.0768925,0.15139157,-0.038974945,0.4,0.003827783,0.003900917,0.00078124576,197388,-0.0020893135,0.0043958793,-0.0014094275,0.5,3.1697276e-05,2.5720276e-05,0.0005734844,1,1,1,0,1,0
45404000,45324000,1310988,-0.00046481274,-0.006333259,0.0007704713,0.15,2.5997696e-07,2.562152e-07,3.6213137e-06,1310988,0.076856576,0.15272602,-0.038448885,0.4,0.0038203397,0.0038942934,0.00078124576,197388,-0.0020893135,0.0043958793,-0.0014094275,0.5,3.1697276e-05,2.5720276e-05,0.0005734844,1,1,1,0,1,0
45812000,45732000,1310988,-0.0005037893,-0.0063015125,0.00073523464,0.15,2.5386706e-07,2.501355e-07,3.489993e-06,1310988,0.07676294,0.1540594,-0.037651055,0.4,0.0038127836,0.003887582,0.00078124576,197388,-0.0020893135,0.0043958793,-0.0014094275,0.5,3.1697276e-05,2.5720276e-05,0.0005734844,1,1,1,0,1,0
46212000,46132000,1310988,-0.0005354361,-0.006267813,0.0007214775,0.15,2.4797893e-07,2.4428715e-07,3.3857398e-06,1310988,0.07691207,0.15529928,-0.037273355,0.4,0.0038053172,0.0038809322,0.00078124576,197388,-0.0020893135,0.0043958793,-0.0014094275,0.5,3.1697276e-05,2.5720276e-05,0.0005734844,1,1,1,0,1,0
46604000,46524000,1310988,-0.00057276443,-0.0062413695,0.0006955765,0.15,2.423713e-07,2.3874085e-07,3.2654268e-06,1310988,0.07679764,0.1565441,-0.03649217,0.4,0.003797956,0.0038744472,0.00078124576,197388,-0.0020893135,0.0043958793,-0.0014094275,0.5,3.1697276e-05,2.5720276e-05,0.0005734844,1,1,1,0,1,0
47004000,46924000,1310988,-0.0006012904,-0.0062121754,0.00069822435,0.15,2.3712123e-07,2.3355555e-07,3.1699637e-06,1310988,0.07695558,0.15765598,-0.035923526,0.4,0.0037908107,0.0038681442,0.00078124576,197388,-0.0020893135,0.0043958793,-0.0014094275,0.5,3.1697276e-05,2.5720276e-05,0.0005734844,1,1,1,0,1,0
47412000,47332000,1310988,-0.00063862215,-0.006183076,0.0006652002,0.15,2.3216833e-07,2.2868858e-07,3.0597603e-06,1310988,0.07693322,0.15895341,-0.035492785,0.4,0.0037838363,0.003862051,0.00078124576,197388,-0.0020893135,0.0043958793,-0.0014094275,0.5,3.1697276e-05,2.5720276e-05,0.0005734844,1,1,1,0,1,0
47812000,47732000,1310988,-0.00065850775,-0.006149098,0.00065105676,0.15,2.2747254e-07,2.2407768e-07,2.9722182e-06,1310988,0.077350706,0.15996245,-0.03467907,0.4,0.0037771657,0.0038562228,0.00078124576,197388,-0.0020893135,0.0043958793,-0.0014094275,0.5,3.1697276e-05,2.5720276e-05,0.0005734844,1,1,1,0,1,0
48212000,48132000,1310988,-0.00069389184,-0.0061182184,0.0006404733,0.15,2.2307452e-07,2.1977914e-07,2.8709142e-06,1310988,0.07744913,0.16123737,-0.034284785,0.4,0.0037707922,0.0038506908,0.00078124576,197388,-0.0020893135,0.0043958793,-0.0014094275,0.5,3.1697276e-05,2.5720276e-05,0.0005734844,1,1,1,0,1,0
48612000,48532000,1310988,-0.0007163175,-0.0060853595,0.00061258534,0.15,2.1897596e-07,2.1578042e-07,2.7741098e-06,1310988,0.077810675,0.16226314,-0.034087606,0.4,0.0037647728,0.0038454772,0.00078124576,197388,-0.0020893135,0.0043958793,-0.0014094275,0.5,3.1697276e-05,2.5720276e-05,0.0005734844,1,1,1,0,1,0
49004000,48924000,1310988,-0.00074467156,-0.0060606934,0.00058659236,0.15,2.1514893e-07,2.1204323e-07,2.6971709e-06,1310988,0.07787786,0.16327138,-0.033343565,0.4,0.0037591334,0.0038405922,0.00078124576,197388,-0.0020893135,0.0043958793,-0.0014094275,0.5,3.1697276e-05,2.5720276e-05,0.0005734844,1,1,1,0,1,0
49412000,49332000,1310988,-0.0007698817,-0.0060365503,0.0005530415,0.15,2.1165356e-07,2.0864654e-07,2.6080909e-06,1310988,0.077983566,0.16419354,-0.03272156,0.4,0.0037538097,0.0038359982,0.00078124576,197388,-0.0020893135,0.0043958793,-0.0014094275,0.5,3.1697276e-05,2.5720276e-05,0.0005734844,1,1,1,0,1,0
49812000,49732000,1310988,-0.00079106685,-0.0060109375,0.0005429641,0.15,2.0836205e-07,2.0544415e-07,2.5373092e-06,1310988,0.078200854,0.16504186,-0.032003265,0.4,0.0037488728,0.0038317386,0.00078124576,197388,-0.0020893135,0.0043958793,-0.0014094275,0.5,3.1697276e-05,2.5720276e-05,0.0005734844,1,1,1,0,1,0
50212000,50132000,1310988,-0.0007791863,-0.0060230154,0.000500405,0.15,2.0530433e-07,2.0254296e-07,2.4549217e-06,1310988,0.07803771,0.16461913,-0.029513419,0.4,0.003744654,0.003828183,0.00078124576,197388,-0.0020893135,0.0043958793,-0.0014094275,0.5,3.1697276e-05,2.5720276e-05,0.0005734844,1,1,1,0,1,0
50612000,50532000,1310988,-0.0006787158,-0.006110828,0.0004855647,0.15,2.023792e-07,1.9984303e-07,2.3875245e-06,1310988,0.07722369,0.16099839,-0.0230858,0.4,0.0037404867,0.003824591,0.00078124576,197388,-0.0020893135,0.0043958793,-0.0014094275,0.5,3.1697276e-05,2.5720276e-05,0.0005734844,1,1,1,0,1,0
51004000,50924000,1310988,-0.0005057615,-0.00626606,0.00048051612,0.15,1.9963619e-07,1.9732644e-07,2.3093853e-06,1310988,0.07528271,0.15434301,-0.012622511,0.4,0.0037363651,0.0038207972,0.00078124576,197388,-0.0020893135,0.0043958793,-0.0014094275,0.5,3.1697276e-05,2.5720276e-05,0.0005734844,1,1,1,0,1,0
51412000,51332000,1310988,-0.0002950959,-0.006466029,0.0004553771,0.15,1.9723278e-07,1.9513438e-07,2.234596e-06,1310988,0.07225182,0.14579572,0.0016434042,0.4,0.003732367,0.0038169832,0.00078124576,197388,-0.0020893135,0.0043958793,-0.0014094275,0.5,3.1697276e-05,2.5720276e-05,0.0005734844,1,1,1,0,1,0
51804000,51724000,1310988,-0.00029552254,-0.006466063,0.00043679567,0.15,2.0033892e-07,1.9826784e-07,2.1776984e-06,1310988,0.07216312,0.14575227,0.0026476034,0.4,0.0037323444,0.0038169166,0.00078124576,197388,-0.0020893135,0.0043958793,-0.0014094275,0.5,3.1697276e-05,2.5720276e-05,0.0005734844,1,1,1,0,1,0
51812000,51732000,1310988,-7.7065415e-05,-0.0066717444,0.00044056753,0.15,1.950139e-07,1.9313374e-07,2.1618223e-06,1310988,0.06895343,0.13690804,0.018188186,0.4,0.0037285478,0.0038133117,0.00078124576,197388,-0.0020893135,0.0043958793,-0.0014094275,0.5,3.1697276e-05,2.5720276e-05,0.0005734844,1,1,1,0,1,0
52164000,52084000,1310988,-7.7364944e-05,-0.0066718035,0.00042583974,0.15,1.9780889e-07,1.959455e-07,2.1073708e-06,1310988,0.06884318,0.13682869,0.019202203,0.4,0.0037285057,0.0038132677,0.00078124576,197388,-0.0020893135,0.0043958793,-0.0014094275,0.5,3.1697276e-05,2.5720276e-05,0.0005734844,1,1,1,0,1,0
52212000,52132000,1310988,0.00012826573,-0.0068625053,0.0004335577,0.15,1.9301335e-07,1.913861e-07,2.1007013e-06,1310988,0.06582589,0.1286044,0.03590707,0.4,0.0037249892,0.0038098858,0.00078124576,197388,-0.0020893135,0.0043958793,-0.0014094275,0.5,3.1697276e-05,2.5720276e-05,0.0005734844,1,1,1,0,1,0
52524000,52444000,1310988,0.00012812637,-0.006862646,0.0004262021,0.15,1.9549411e-07,1.9387359e-07,2.0482698e-06,1310988,0.06568654,0.12848704,0.037018742,0.4,0.0037249122,0.0038098113,0.00078124576,197388,-0.0020893135,0.0043958793,-0.0014094275,0.5,3.1697276e-05,2.5720276e-05,0.0005734844,1,1,1,0,1,0
52612000,52532000,1310988,0.0002937055,-0.0070146187,0.00043255696,0.15,1.9119027e-07,1.8986628e-07,2.0277334e-06,1310988,0.06338547,0.12204014,0.052585885,0.4,0.0037217706,0.0038067973,0.00078124576,197388,-0.0020893135,0.0043958793,-0.0014094275,0.5,3.1697276e-05,2.5720276e-05,0.0005734844,1,1,1,0,1,0
52940000,52860000,1310988,0.00029339828,-0.007014533,0.00040964966,0.15,1.9380663e-07,1.9247783e-07,1.9885065e-06,1310988,0.063225396,0.12189309,0.05382348,0.4,0.0037216307,0.0038066916,0.00078124576,197388,-0.0020893135,0.0043958793,-0.0014094275,0.5,3.1697276e-05,2.5720276e-05,0.0005734844,1,1,1,0,1,0
53012000,52932000,1310988,0.0003959131,-0.007111613,0.00040856365,0.15,1.8952392e-07,1.8854028e-07,1.965843e-06,1310988,0.061539996,0.11760418,0.067029044,0.4,0.0037190113,0.0038042248,0.00078124576,197388,-0.0020893135,0.0043958793,-0.0014094275,0.5,3.1697276e-05,2.5720276e-05,0.0005734844,1,1,1,0,1,0
53292000,53212000,1310988,0.00039590485,-0.0071118223,0.00040523705,0.15,1.9175987e-07,1.907612e-07,1.9282274e-06,1310988,0.061383344,0.117457874,0.06805221,0.4,0.0037188395,0.0038041142,0.00078124576,197388,-0.0020893135,0.0043958793,-0.0014094275,0.5,3.1697276e-05,2.5720276e-05,0.0005734844,1,1,1,0,1,0
53412000,53332000,1310988,0.0004394433,-0.007149706,0.00040643,0.15,1.8798345e-07,1.8734005e-07,1.8972828e-06,1310988,0.060233347,0.11523487,0.07820205,0.4,0.003716748,0.0038022364,0.00078124576,197388,-0.0020893135,0.0043958793,-0.0014094275,0.5,3.1697276e-05,2.5720276e-05,0.0005734844,1,1,1,0,1,0
53772000,53692000,1310988,0.0004394118,-0.0071496973,0.00039253788,0.15,1.9086123e-07,1.9018833e-07,1.8531105e-06,1310988,0.06007493,0.11507719,0.079364605,0.4,0.0037165065,0.0038020925,0.00078124576,197388,-0.0020893135,0.0043958793,-0.0014094275,0.5,3.1697276e-05,2.5720276e-05,0.0005734844,1,1,1,0,1,0
53804000,53724000,1310988,0.00041251458,-0.0071174675,0.0004046599,0.15,1.8651515e-07,1.8617355e-07,1.8445965e-06,1310988,0.059133824,0.114980005,0.08472706,0.4,0.003714968,0.00380077,0.00078124576,197388,-0.0020893135,0.0043958793,-0.0014094275,0.5,3.1697276e-05,2.5720276e-05,0.0005734844,1,1,1,0,1,0
54188000,54108000,1310988,0.00041259124,-0.007117747,0.00040404827,0.15,1.8958616e-07,1.8920004e-07,1.7937272e-06,1310988,0.05899456,0.11484651,0.08571776,0.4,0.0037147007,0.0038006178,0.00078124576,197388,-0.0020893135,0.0043958793,-0.0014094275,0.5,3.1697276e-05,2.5720276e-05,0.0005734844,1,1,1,0,1,0
54212000,54132000,1310988,0.0003022302,-0.0070131407,0.00041004427,0.15,1.8519052e-07,1.8505574e-07,1.789984e-06,1310988,0.057526413,0.11646105,0.086228445,0.4,0.0037131843,0.0037993619,0.00078124576,197388,-0.0020893135,0.0043958793,-0.0014094275,0.5,3.1697276e-05,2.5720276e-05,0.0005734844,1,1,1,0,1,0
54604000,54524000,1310988,0.0001260815,-0.0068396498,0.00042045992,0.15,1.837868e-07,1.8373501e-07,1.7492814e-06,1310988,0.05535597,0.1192149,0.08176167,0.4,0.0037108257,0.0037974163,0.00078124576,197388,-0.0020893135,0.0043958793,-0.0014094275,0.5,3.1697276e-05,2.5720276e-05,0.0005734844,1,1,1,0,1,0
55412000,55332000,1310988,0.00010248688,-0.00681352,0.00038518585,0.15,1.8898704e-07,1.8886837e-07,1.6570524e-06,1310988,0.055341277,0.11984006,0.07992924,0.4,0.003710045,0.0037968133,0.00078124576,197388,-0.0020893135,0.0043958793,-0.0014094275,0.5,3.1697276e-05,2.5720276e-05,0.0005734844,1,1,1,0,1,0
55604000,55524000,1310988,0.000102481055,-0.006813268,0.0003789562,0.15,1.9052283e-07,1.9038134e-07,1.6349272e-06,1310988,0.055287935,0.119772814,0.078620344,0.4,0.0037099516,0.0037967782,0.00078124576,197388,-0.0020893135,0.0043958793,-0.0014094275,0.5,3.1697276e-05,2.5720276e-05,0.0005734844,1,1,1,0,1,0
55788000,55708000,1310988,0.00010252388,-0.0068130777,0.0003718106,0.15,1.9199469e-07,1.9183756e-07,1.6208236e-06,1310988,0.05517951,0.11964667,0.07720931,0.4,0.0037098504,0.0037967276,0.00078124576,197388,-0.0020893135,0.0043958793,-0.0014094275,0.5,3.1697276e-05,2.5720276e-05,0.0005734844,1,1,1,0,1,0
55812000,55732000,1310988,5.8627014e-05,-0.0067680604,0.0003720179,0.15,1.9102622e-07,1.9086184e-07,1.6209037e-06,1310988,0.054851744,0.120507754,0.07343409,0.4,0.003709031,0.00379601,0.00078124576,197388,-0.0020893135,0.0043958793,-0.0014094275,0.5,3.1697276e-05,2.5720276e-05,0.0005734844,1,1,1,0,1,0
55964000,55884000,1310988,5.8695656e-05,-0.006768128,0.0003723507,0.15,1.9224223e-07,1.9207785e-07,1.6221194e-06,1310988,0.054725908,0.12037322,0.07222279,0.4,0.0037090024,0.0037959758,0.00078124576,197388,-0.0020893135,0.0043958793,-0.0014094275,0.5,3.1697276e-05,2.5720276e-05,0.0005734844,1,1,1,0,1,0
56148000,56068000,1310988,5.876207e-05,-0.0067681978,0.00037268142,0.15,1.9371424e-07,1.9354987e-07,1.6235911e-06,1310988,0.054600254,0.12023919,0.07105415,0.4,0.0037089752,0.0037959435,0.00078124576,197388,-0.0020893135,0.0043958793,-0.0014094275,0.5,3.1697276e-05,2.5720276e-05,0.0005734844,1,1,1,0,1,0
56204000,56124000,1310988,5.976119e-05,-0.0067689577,0.00037451903,0.15,1.9415755e-07,1.9399229e-07,1.6240049e-06,1310988,0.054532383,0.11842848,0.0674816,0.4,0.0036973972,0.0037837967,0.00078124576,197388,-0.0020893135,0.0043958793,-0.0014094275,0.5,3.1697276e-05,2.5720276e-05,0.0005734844,1,1,1,0,1,0
57204000,57124000,1310988,5.968433e-05,-0.006769937,0.00037859444,0.15,2.0215735e-07,2.0199195e-07,1.6319982e-06,1310988,0.054495115,0.11839294,0.06720568,0.4,0.0036974133,0.0037838118,0.00078126707,197388,-0.0020893135,0.0043958793,-0.0014094275,0.5,3.1697276e-05,2.5720276e-05,0.0005734844,1,1,1,0,1,0
58204000,58124000,1310988,4.3433778e-05,-0.0067572836,0.00039324226,0.15,2.1014867e-07,2.0998247e-07,1.6399163e-06,1310988,0.052832667,0.11728148,0.06712947,0.4,0.003697316,0.003783707,0.0007812981,197388,-0.0020893135,0.0043958793,-0.0014094275,0.5,3.1697276e-05,2.5720276e-05,0.0005734844,1,1,1,0,1,0
59204000,59124000,1310988,4.383456e-05,-0.006757805,0.00039332354,0.15,2.1814843e-07,2.1798203e-07,1.6479163e-06,1310988,0.05281732,0.11734551,0.066669,0.4,0.0036973879,0.0037837708,0.00078124634,197388,-0.0020893135,0.0043958793,-0.0014094275,0.5,3.1697276e-05,2.5720276e-05,0.0005734844,1,1,1,0,1,0
60204000,60124000,1310988,4.397158e-05,-0.0067579458,0.00039334365,0.15,2.2614842e-07,2.25982e-07,1.6559164e-06,1310988,0.05283443,0.11728431,0.06711956,0.4,0.003697454,0.003783762,0.00078124576,197388,-0.0020893135,0.0043958793,-0.0014094275,0.5,3.1697276e-05,2.5720276e-05,0.0005734844,1,1,1,0,1,0
60612000,60532000,1310988,4.425199e-05,-0.0067582172,0.0003934031,0.15,2.2941235e-07,2.2924596e-07,1.6591804e-06,1310988,0.052891463,0.117075264,0.06865315,0.4,0.0036974784,0.0037837243,0.00078124576,197388,-0.0020893135,0.0043958793,-0.0014094275,0.5,3.1697276e-05,2.5720276e-05,0.0005734844,1,1,1,0,1,0
61012000,60932000,1310988,4.4732657e-05,-0.006758725,0.00039349298,0.15,2.3261222e-07,2.3244583e-07,1.6623803e-06,1310988,0.052986056,0.11672229,0.07123865,0.4,0.0036974999,0.0037836502,0.00078124576,197388,-0.0020893135,0.0043958793,-0.0014094275,0.5,3.1697276e-05,2.5720276e-05,0.0005734844,1,1,1,0,1,0
61340000,61260000,1310988,4.4912704e-05,-0.0067589255,0.0003935288,0.15,2.3523626e-07,2.350698e-07,1.6650044e-06,1310988,0.05302391,0.116579466,0.0722882,0.4,0.0036975206,0.003783635,0.00078124576,197388,-0.0020893135,0.0043958793,-0.0014094275,0.5,3.1697276e-05,2.5720276e-05,0.0005734844,1,1,1,0,1,0
61412000,61332000,1310988,4.531344e-05,-0.006759394,0.00039361708,0.15,2.3581212e-07,2.3564562e-07,1.6655805e-06,1310988,0.05311581,0.116231985,0.07486952,0.4,0.0036975187,0.0037835382,0.00078124576,197388,-0.0020893135,0.0043958793,-0.0014094275,0.5,3.1697276e-05,2.5720276e-05,0.0005734844,1,1,1,0,1,0
61700000,61620000,1310988,4.545321e-05,-0.0067595667,0.0003936529,0.15,2.3811612e-07,2.3794956e-07,1.6678844e-06,1310988,0.053151965,0.116097845,0.07589914,0.4,0.0036975367,0.0037835191,0.00078124576,197388,-0.0020893135,0.0043958793,-0.0014094275,0.5,3.1697276e-05,2.5720276e-05,0.0005734844,1,1,1,0,1,0
61812000,61732000,1310988,4.5821107e-05,-0.006760062,0.00039376944,0.15,2.3901205e-07,2.388454e-07,1.6687804e-06,1310988,0.05326515,0.11569654,0.07917724,0.4,0.0036975357,0.0037834148,0.00078124576,197388,-0.0020893135,0.0043958793,-0.0014094275,0.5,3.1697276e-05,2.5720276e-05,0.0005734844,1,1,1,0,1,0
62060000,61980000,1310988,4.5932175e-05,-0.0067602242,0.00039381188,0.15,2.4099606e-07,2.408294e-07,1.6707645e-06,1310988,0.053305157,0.11556275,0.08035076,0.4,0.0036975504,0.0037833953,0.00078124576,197388,-0.0020893135,0.0043958793,-0.0014094275,0.5,3.1697276e-05,2.5720276e-05,0.0005734844,1,1,1,0,1,0
62204000,62124000,1310988,4.619399e-05,-0.006760699,0.00039396484,0.15,2.4214802e-07,2.4198127e-07,1.6719164e-06,1310988,0.053442717,0.11516722,0.08448305,0.4,0.0036975492,0.0037833126,0.00078124576,197388,-0.0020893135,0.0043958793,-0.0014094275,0.5,3.1697276e-05,2.5720276e-05,0.0005734844,1,1,1,0,1,0
62484000,62404000,1310988,4.6249595e-05,-0.006760825,0.0003940115,0.15,2.4438805e-07,2.442213e-07,1.6741565e-06,1310988,0.053483788,0.115068175,0.085741155,0.4,0.0036975655,0.0037833091,0.00078124576,197388,-0.0020893135,0.0043958793,-0.0014094275,0.5,3.1697276e-05,2.5720276e-05,0.0005734844,1,1,1,0,1,0
62612000,62532000,1310988,-0.00010525128,-0.0064975074,0.00042073015,0.15,2.4153817e-07,2.4131268e-07,1.6747874e-06,1310988,-0.052994598,0.056710843,0.09832809,0.4,0.0030740984,0.0031381294,0.00078124576,197388,-0.0020893135,0.0043958793,-0.0014094275,0.5,3.1697276e-05,2.5720276e-05,0.0005734844,1,1,1,0,1,0
62900000,62820000,1310988,-0.00010515776,-0.006497574,0.0004207478,0.15,2.4384218e-07,2.436167e-07,1.6770915e-06,1310988,-0.05296552,0.05667864,0.09940691,0.4,0.0030741165,0.0031381466,0.00078124576,197388,-0.0020893135,0.0043958793,-0.0014094275,0.5,3.1697276e-05,2.5720276e-05,0.0005734844,1,1,1,0,1,0
63012000,62932000,1310988,-8.157312e-05,-0.006460816,0.00041728257,0.15,2.4398233e-07,2.4370271e-07,1.6778872e-06,1310988,-0.063786395,0.065345645,0.10943955,0.4,0.0029910363,0.0030580994,0.00078124576,197388,-0.0020893135,0.0043958793,-0.0014094275,0.5,3.1697276e-05,2.5720276e-05,0.0005734844,1,1,1,0,1,0
63812000,63732000,1310988,-0.00022658188,-0.0064331703,0.00039286472,0.15,2.487535e-07,2.484629e-07,1.6831916e-06,1310988,-0.063971065,0.064627,0.110363945,0.4,0.002990946,0.0030580051,0.00078124815,197388,-0.0020893135,0.0043958793,-0.0014094275,0.5,3.1697276e-05,2.5720276e-05,0.0005734844,1,1,1,0,1,0
64212000,64132000,1310988,-0.00029014546,-0.0064307987,0.00039135365,0.15,2.5056352e-07,2.5028834e-07,1.6858944e-06,1310988,-0.064949766,0.05834907,0.110781334,0.4,0.002977384,0.0030437934,0.00078124576,197388,-0.0020893135,0.0043958793,-0.0014094275,0.5,3.1697276e-05,2.5720276e-05,0.0005734844,1,1,1,0,1,0
