timestamp,timestamp_sample,baro_device_id,baro_alt_meter,baro_temp_celcius,baro_pressure_pa,rho,calibration_count
4116000,4096000,6620172,487.41266,11.832727,95605.92,1.1359565,0
4192000,4156000,6620172,487.29996,11.832727,95607.18,1.1359714,0
4216000,4216000,6620172,487.3751,11.832727,95606.336,1.1359614,0
4312000,4276000,6620172,487.44553,11.832727,95605.54,1.1359519,0
4336000,4336000,6620172,487.39386,11.832727,95606.12,1.1359588,0
4432000,4396000,6620172,487.3751,11.832727,95606.34,1.1359615,0
4456000,4456000,6620172,487.35162,11.832727,95606.62,1.1359648,0
4552000,4516000,6620172,487.31406,11.832727,95607.04,1.1359698,0
4576000,4576000,6620172,487.43143,11.832727,95605.7,1.1359539,0
4672000,4636000,6620172,487.3704,11.832727,95606.4,1.1359621,0
4696000,4696000,6620172,487.41266,11.832727,95605.93,1.1359566,0
4788000,4755000,6620172,487.33282,11.832727,95606.81,1.1359671,0
4816000,4816000,6620172,487.41733,11.832727,95605.84,1.1359556,0
4908000,4875000,6620172,487.3845,11.832727,95606.266,1.1359606,0
4932000,4932000,6620172,487.361,11.832727,95606.48,1.1359631,0
5008000,4982666,6620172,487.3751,11.832728,95606.336,1.1359614,0
5056000,5044000,6620172,487.31406,11.832727,95607.05,1.1359699,0
5128000,5104000,6620172,487.34222,11.832728,95606.72,1.135966,0
5176000,5164000,6620172,487.40326,11.832727,95606.016,1.1359577,0
5248000,5224000,6620172,487.35162,11.832728,95606.63,1.135965,0
5292000,5282000,6620172,487.3845,11.832727,95606.266,1.1359606,0
5368000,5342666,6620172,487.40326,11.832728,95606.0,1.1359575,0
5416000,5404000,6620172,487.42203,11.832727,95605.83,1.1359553,0
5488000,5464000,6620172,487.361,11.832728,95606.51,1.1359634,0
5536000,5524000,6620172,487.24362,11.832727,95607.84,1.1359793,0
5608000,5584000,6620172,487.33752,11.832728,95606.77,1.1359667,0
5656000,5644000,6620172,487.3657,11.832727,95606.45,1.1359627,0
5728000,5704000,6620172,487.44083,11.832728,95605.586,1.1359526,0
5776000,5764000,6620172,487.3751,11.832727,95606.33,1.1359613,0
5848000,5824000,6620172,487.3563,11.832728,95606.56,1.1359642,0
5896000,5882000,6620172,487.40326,11.832727,95606.055,1.1359581,0
5944000,5932000,6620172,487.3704,11.832727,95606.4,1.1359621,0
6016000,5992000,6620172,487.361,11.832728,95606.52,1.1359637,0
6064000,6052000,6620172,487.3798,11.832727,95606.3,1.1359609,0
6136000,6112000,6620172,487.33282,11.832728,95606.81,1.1359671,0
6180000,6170000,6620172,487.3845,11.832727,95606.25,1.1359603,0
6232000,6220000,6620172,487.2906,11.832727,95607.3,1.1359729,0
6304000,6278666,6620172,487.38916,11.832728,95606.19,1.1359596,0
6352000,6340000,6620172,487.39856,11.832727,95606.09,1.1359586,0
6424000,6400000,6620172,487.3657,11.832728,95606.445,1.1359627,0
6472000,6460000,6620172,487.41733,11.832727,95605.84,1.1359556,0
6544000,6520000,6620172,487.3563,11.832728,95606.586,1.1359644,0
6592000,6580000,6620172,487.3563,11.832727,95606.59,1.1359645,0
6664000,6640000,6620172,487.40326,11.832728,95606.0,1.1359575,0
6712000,6700000,6620172,487.39856,11.832727,95606.09,1.1359586,0
6784000,6760000,6620172,487.33752,11.832728,95606.75,1.1359663,0
6832000,6820000,6620172,487.2812,11.832727,95607.42,1.1359743,0
6904000,6880000,6620172,487.39856,11.832728,95606.1,1.1359586,0
6952000,6940000,6620172,487.29996,11.832727,95607.17,1.1359714,0
7024000,6998666,6620172,487.35162,11.832728,95606.6,1.1359645,0
7072000,7060000,6620172,487.35162,11.832727,95606.625,1.1359649,0
7144000,7118666,6620172,487.31876,11.832728,95607.01,1.1359694,0
7192000,7180000,6620172,487.3798,11.832727,95606.32,1.1359612,0
7264000,7240000,6620172,487.34692,11.832728,95606.69,1.1359656,0
7312000,7300000,6620172,487.3704,11.832727,95606.39,1.135962,0
7384000,7360000,6620172,487.32812,11.832728,95606.88,1.135968,0
7432000,7420000,6620172,487.42203,11.832727,95605.83,1.1359553,0
7504000,7480000,6620172,487.39386,11.832728,95606.125,1.1359589,0
7552000,7540000,6620172,487.38916,11.832727,95606.195,1.1359597,0
7624000,7600000,6620172,487.361,11.832728,95606.51,1.1359634,0
7672000,7660000,6620172,487.44553,11.832727,95605.54,1.1359519,0
7744000,7720000,6620172,487.33752,11.832728,95606.77,1.1359667,0
7792000,7780000,6620172,487.4596,11.832727,95605.42,1.1359506,0
7864000,7840000,6620172,487.3751,11.832728,95606.35,1.1359617,0
7912000,7900000,6620172,487.2859,11.832727,95607.375,1.1359738,0
7984000,7958666,6620172,487.40796,11.832728,95605.96,1.1359569,0
8032000,8020000,6620172,487.4502,11.832727,95605.484,1.1359513,0
8104000,8080000,6620172,487.3657,11.832728,95606.43,1.1359626,0
8152000,8140000,6620172,487.361,11.832727,95606.51,1.1359634,0
8224000,8200000,6620172,487.469,11.832728,95605.24,1.1359484,0
8272000,8260000,6620172,487.3751,11.832727,95606.375,1.1359619,0
8344000,8320000,6620172,487.40326,11.832728,95606.04,1.1359578,0
8392000,8380000,6620172,487.40796,11.832727,95605.984,1.1359572,0
8464000,8440000,6620172,487.39856,11.832728,95606.07,1.1359583,0
8512000,8500000,6620172,487.40796,11.832727,95605.984,1.1359572,0
8584000,8560000,6620172,487.31876,11.832728,95606.99,1.1359692,0
8632000,8620000,6620172,487.4596,11.832727,95605.42,1.1359506,0
8704000,8680000,6620172,487.2812,11.832728,95607.41,1.1359742,0
8752000,8740000,6620172,487.34692,11.832727,95606.664,1.1359653,0
8824000,8800000,6620172,487.41733,11.832728,95605.85,1.1359557,0
8872000,8860000,6620172,487.3845,11.832727,95606.266,1.1359606,0
8944000,8920000,6620172,487.38916,11.832728,95606.195,1.1359597,0
8992000,8980000,6620172,487.48776,11.832727,95605.05,1.1359462,0
9060000,9037333,6620172,487.3845,11.832728,95606.21,1.13596,0
9088000,9088000,6620172,487.42203,11.832727,95605.78,1.1359549,0
9184000,9148000,6620172,487.32346,11.832727,95606.94,1.1359686,0
9208000,9208000,6620172,487.39386,11.832727,95606.16,1.1359593,0
9304000,9268000,6620172,487.35162,11.832727,95606.65,1.1359651,0
9328000,9328000,6620172,487.33282,11.832727,95606.85,1.1359675,0
9420000,9387000,6620172,487.40326,11.832727,95606.04,1.1359578,0
9444000,9444000,6620172,487.2812,11.832727,95607.41,1.1359742,0
9520000,9496000,6620172,487.30466,11.832728,95607.164,1.1359713,0
9568000,9556000,6620172,487.3751,11.832727,95606.36,1.1359618,0
9640000,9616000,6620172,487.30466,11.832728,95607.164,1.1359713,0
9688000,9676000,6620172,487.33752,11.832727,95606.77,1.1359667,0
9760000,9734666,6620172,487.3845,11.832728,95606.21,1.13596,0
9808000,9796000,6620172,487.40326,11.832727,95606.03,1.1359577,0
9880000,9856000,6620172,487.30936,11.832728,95607.1,1.1359705,0
9928000,9916000,6620172,487.31876,11.832727,95606.96,1.1359688,0
10000000,9976000,6620172,487.39856,11.832728,95606.086,1.1359586,0
10048000,10036000,6620172,487.33752,11.832727,95606.79,1.1359668,0
10120000,10096000,6620172,487.3563,11.832728,95606.59,1.1359645,0
10168000,10154000,6620172,487.52533,11.832727,95604.65,1.1359414,0
10216000,10204000,6620172,487.2765,11.832727,95607.47,1.1359749,0
10288000,10264000,6620172,487.3798,11.832728,95606.31,1.135961,0
10336000,10324000,6620172,487.3751,11.832727,95606.34,1.1359615,0
10408000,10384000,6620172,487.3704,11.832728,95606.4,1.1359621,0
10456000,10444000,6620172,487.40326,11.832727,95606.055,1.1359581,0
10524000,10502666,6620172,487.3798,11.832728,95606.31,1.135961,0
10576000,10564000,6620172,487.30466,11.832727,95607.14,1.135971,0
10648000,10624000,6620172,487.32812,11.832728,95606.875,1.1359679,0
10696000,10684000,6620172,487.33752,11.832727,95606.78,1.1359667,0
10768000,10744000,6620172,487.34222,11.832728,95606.695,1.1359657,0
10816000,10804000,6620172,487.4643,11.832727,95605.33,1.1359495,0
10888000,10864000,6620172,487.43613,11.832728,95605.65,1.1359533,0
10936000,10924000,6620172,487.30466,11.832727,95607.14,1.135971,0
11008000,10984000,6620172,487.3657,11.832728,95606.46,1.1359628,0
11056000,11044000,6620172,487.469,11.832727,95605.25,1.1359485,0
11128000,11104000,6620172,487.33752,11.832728,95606.79,1.1359668,0
11176000,11164000,6620172,487.2671,11.832727,95607.6,1.1359766,0
11248000,11224000,6620172,487.361,11.832728,95606.51,1.1359634,0
11296000,11284000,6620172,487.40326,11.832727,95606.01,1.1359576,0
11368000,11344000,6620172,487.2812,11.832728,95607.43,1.1359744,0
11416000,11404000,6620172,487.31876,11.832727,95606.96,1.1359688,0
11488000,11464000,6620172,487.3563,11.832728,95606.56,1.1359642,0
11536000,11524000,6620172,487.3704,11.832727,95606.39,1.135962,0
11608000,11584000,6620172,487.3845,11.832728,95606.21,1.13596,0
11656000,11644000,6620172,487.3704,11.832727,95606.4,1.1359621,0
11728000,11704000,6620172,487.39386,11.832728,95606.15,1.1359593,0
11776000,11764000,6620172,487.41733,11.832727,95605.84,1.1359556,0
11848000,11824000,6620172,487.361,11.832728,95606.52,1.1359637,0
11892000,11880000,6620172,487.31876,11.832727,95607.016,1.1359695,0
11944000,11932000,6620172,487.31876,11.832727,95607.0,1.1359693,0
12016000,11992000,6620172,487.3845,11.832728,95606.21,1.13596,0
12064000,12052000,6620172,487.49246,11.832727,95605.0,1.1359456,0
12136000,12112000,6620172,487.29996,11.832728,95607.19,1.1359715,0
12184000,12172000,6620172,487.4643,11.832727,95605.34,1.1359496,0
12256000,12232000,6620172,487.35162,11.832728,95606.63,1.135965,0
12304000,12292000,6620172,487.48776,11.832727,95605.04,1.135946,0
12376000,12352000,6620172,487.32346,11.832728,95606.9,1.1359681,0
12424000,12412000,6620172,487.40796,11.832727,95605.95,1.1359569,0
12496000,12472000,6620172,487.42673,11.832728,95605.77,1.1359547,0
12544000,12532000,6620172,487.3657,11.832727,95606.47,1.135963,0
12616000,12592000,6620172,487.44553,11.832728,95605.54,1.1359519,0
12664000,12652000,6620172,487.31876,11.832727,95606.984,1.1359692,0
12736000,12712000,6620172,487.3704,11.832728,95606.414,1.1359624,0
12784000,12772000,6620172,487.4643,11.832727,95605.36,1.1359499,0
12856000,12832000,6620172,487.33282,11.832728,95606.84,1.1359675,0
12900000,12890000,6620172,487.4549,11.832727,95605.43,1.1359507,0
12952000,12940000,6620172,487.3798,11.832727,95606.32,1.1359612,0
13024000,13000000,6620172,487.42673,11.832728,95605.74,1.1359544,0
13072000,13060000,6620172,487.25302,11.832727,95607.75,1.1359782,0
13140000,13118666,6620172,487.33282,11.832728,95606.836,1.1359674,0
13192000,13180000,6620172,487.2765,11.832727,95607.48,1.1359749,0
13264000,13240000,6620172,487.38916,11.832728,95606.19,1.1359596,0
13312000,13300000,6620172,487.31876,11.832727,95607.016,1.1359695,0
13384000,13358666,6620172,487.41266,11.832728,95605.91,1.1359563,0
13432000,13420000,6620172,487.40326,11.832727,95606.0,1.1359575,0
13504000,13480000,6620172,487.469,11.832728,95605.25,1.1359485,0
13552000,13540000,6620172,487.3563,11.832727,95606.58,1.1359643,0
13624000,13600000,6620172,487.41733,11.832728,95605.87,1.1359559,0
13672000,13660000,6620172,487.38916,11.832727,95606.195,1.1359597,0
13744000,13720000,6620172,487.38916,11.832728,95606.195,1.1359597,0
13792000,13780000,6620172,487.3563,11.832727,95606.59,1.1359645,0
13864000,13838666,6620172,487.39386,11.832728,95606.125,1.1359589,0
13912000,13900000,6620172,487.48776,11.832727,95605.02,1.1359458,0
13984000,13960000,6620172,487.32346,11.832728,95606.945,1.1359687,0
14032000,14020000,6620172,487.29526,11.832727,95607.28,1.1359726,0
14104000,14080000,6620172,487.3657,11.832728,95606.44,1.1359626,0
14152000,14140000,6620172,487.16852,11.832727,95608.69,1.1359894,0
14224000,14200000,6620172,487.2812,11.832728,95607.414,1.1359742,0
14272000,14260000,6620172,487.25302,11.832727,95607.734,1.1359781,0
14344000,14320000,6620172,487.34222,11.832728,95606.71,1.135966,0
14392000,14380000,6620172,487.2671,11.832727,95607.586,1.1359763,0
14464000,14440000,6620172,487.41733,11.832728,95605.87,1.1359559,0
14512000,14500000,6620172,487.38916,11.832727,95606.19,1.1359596,0
14584000,14560000,6620172,487.40796,11.832728,95605.99,1.1359574,0
14632000,14620000,6620172,487.39386,11.832727,95606.16,1.1359593,0
14704000,14680000,6620172,487.40796,11.832728,95605.98,1.1359571,0
14752000,14740000,6620172,487.38916,11.832727,95606.2,1.1359599,0
14824000,14800000,6620172,487.361,11.832728,95606.52,1.1359637,0
14872000,14860000,6620172,487.3845,11.832727,95606.26,1.1359605,0
14944000,14920000,6620172,487.361,11.832728,95606.5,1.1359634,0
14988000,14978000,6620172,487.43143,11.832727,95605.7,1.1359539,0
15064000,15038666,6620172,487.3563,11.832728,95606.56,1.1359642,0
15112000,15100000,6620172,487.4643,11.832727,95605.36,1.1359499,0
15184000,15160000,6620172,487.31876,11.832728,95606.99,1.1359692,0
15232000,15218000,6620172,487.42673,11.832727,95605.75,1.1359544,0
15280000,15268000,6620172,487.3657,11.832727,95606.47,1.135963,0
15352000,15328000,6620172,487.4596,11.832728,95605.375,1.13595,0
15400000,15388000,6620172,487.4502,11.832727,95605.47,1.1359512,0
15472000,15448000,6620172,487.42203,11.832728,95605.836,1.1359555,0
15520000,15506000,6620172,487.361,11.832727,95606.516,1.1359636,0
15592000,15566666,6620172,487.33752,11.832728,95606.76,1.1359664,0
15640000,15628000,6620172,487.24832,11.832727,95607.83,1.135979,0
15712000,15685333,6620172,487.3798,11.832728,95606.28,1.1359608,0
15736000,15736000,6620172,487.38916,11.832727,95606.18,1.1359595,0
15828000,15795000,6620172,487.41733,11.832727,95605.9,1.1359562,0
15852000,15852000,6620172,487.42203,11.832727,95605.78,1.1359549,0
15928000,15904000,6620172,487.3657,11.832728,95606.46,1.1359628,0
15976000,15964000,6620172,487.49246,11.832727,95605.016,1.1359457,0
16048000,16024000,6620172,487.35162,11.832728,95606.66,1.1359652,0
16096000,16084000,6620172,487.41733,11.832727,95605.84,1.1359556,0
16168000,16144000,6620172,487.34222,11.832728,95606.73,1.1359661,0
16216000,16204000,6620172,487.2765,11.832727,95607.5,1.1359752,0
16288000,16264000,6620172,487.42673,11.832728,95605.75,1.1359544,0
16336000,16324000,6620172,487.39856,11.832727,95606.11,1.1359587,0
16408000,16382666,6620172,487.39856,11.832728,95606.06,1.1359582,0
16456000,16444000,6620172,487.40796,11.832727,95605.94,1.1359568,0
16528000,16504000,6620172,487.39386,11.832728,95606.164,1.1359593,0
16576000,16564000,6620172,487.43143,11.832727,95605.72,1.1359541,0
16648000,16624000,6620172,487.43613,11.832728,95605.68,1.1359535,0
16696000,16684000,6620172,487.49246,11.832727,95604.97,1.1359452,0
16768000,16744000,6620172,487.3798,11.832728,95606.305,1.135961,0
16816000,16804000,6620172,487.30936,11.832727,95607.125,1.1359708,0
16888000,16864000,6620172,487.33282,11.832728,95606.84,1.1359675,0
16936000,16924000,6620172,487.32346,11.832727,95606.91,1.1359682,0
17008000,16984000,6620172,487.31876,11.832728,95607.01,1.1359694,0
17056000,17044000,6620172,487.47836,11.832727,95605.14,1.1359472,0
17128000,17104000,6620172,487.3657,11.832728,95606.46,1.1359628,0
17176000,17164000,6620172,487.43613,11.832727,95605.69,1.1359537,0
17248000,17224000,6620172,487.3563,11.832728,95606.555,1.135964,0
17296000,17284000,6620172,487.3563,11.832727,95606.57,1.1359643,0
17364000,17342666,6620172,487.4502,11.832728,95605.46,1.135951,0
17416000,17404000,6620172,487.42673,11.832727,95605.75,1.1359544,0
17488000,17464000,6620172,487.33282,11.832728,95606.85,1.1359675,0
17536000,17524000,6620172,487.2859,11.832727,95607.375,1.1359738,0
17608000,17584000,6620172,487.3798,11.832728,95606.27,1.1359607,0
17656000,17644000,6620172,487.32812,11.832697,95606.875,1.1359679,0
17728000,17704000,6620172,487.34222,11.832698,95606.73,1.1359661,0
17776000,17764000,6620172,487.30936,11.832666,95607.11,1.1359706,0
17848000,17824000,6620172,487.3563,11.832626,95606.586,1.1359644,0
17896000,17884000,6620172,487.42673,11.83259,95605.75,1.1359544,0
17968000,17944000,6620172,487.43613,11.832535,95605.68,1.1359535,0
18016000,18004000,6620172,487.469,11.832468,95605.25,1.1359485,0
18088000,18064000,6620172,487.35162,11.832393,95606.63,1.135965,0
18132000,18122000,6620172,487.41733,11.832285,95605.86,1.1359558,0
18184000,18172000,6620172,487.52063,11.832178,95604.69,1.1359419,0
18256000,18232000,6620172,487.42673,11.832057,95605.77,1.1359547,0
18300000,18290000,6620172,487.49716,11.831888,95604.945,1.1359448,0
18352000,18340000,6620172,487.53003,11.831736,95604.58,1.1359404,0
18424000,18400000,6620172,487.44553,11.831538,95605.52,1.1359518,0
18472000,18460000,6620172,487.5582,11.831308,95604.25,1.1359366,0
18544000,18520000,6620172,487.59106,11.83108,95603.87,1.1359321,0
18592000,18580000,6620172,487.6568,11.830851,95603.15,1.1359235,0
18664000,18640000,6620172,487.78824,11.830602,95601.6,1.1359051,0
18712000,18700000,6620172,487.85397,11.830362,95600.85,1.1358962,0
18784000,18760000,6620172,487.79294,11.830134,95601.586,1.135905,0
18832000,18820000,6620172,487.79294,11.829905,95601.59,1.1359051,0
18900000,18877333,6620172,487.8258,11.829656,95601.195,1.1359003,0
18928000,18928000,6620172,487.69434,11.829462,95602.71,1.1359183,0
19024000,18988000,6620172,487.9056,11.82921,95600.266,1.1358893,0
19048000,19048000,6620172,487.915,11.828974,95600.17,1.1358882,0
19144000,19107000,6620172,487.97604,11.828707,95599.445,1.1358796,0
19168000,19168000,6620172,488.0089,11.828455,95599.09,1.1358755,0
19264000,19228000,6620172,488.03708,11.82818,95598.77,1.1358715,0
19288000,19288000,6620172,487.99014,11.827936,95599.31,1.135878,0
19384000,19348000,6620172,488.15445,11.8276615,95597.43,1.1358557,0
19408000,19408000,6620172,488.25305,11.827387,95596.3,1.1358421,0
19504000,19468000,6620172,488.24835,11.827127,95596.31,1.1358423,0
19528000,19528000,6620172,488.45493,11.826868,95594.0,1.1358148,0
19624000,19588000,6620172,488.34695,11.826586,95595.23,1.1358294,0
19648000,19648000,6620172,488.34225,11.826319,95595.26,1.1358298,0
19744000,19708000,6620172,488.34225,11.826044,95595.266,1.1358299,0
19768000,19768000,6620172,488.45026,11.825769,95594.055,1.1358155,0
19864000,19828000,6620172,488.5113,11.82551,95593.36,1.1358073,0
19888000,19888000,6620172,488.4972,11.825251,95593.5,1.135809,0
19984000,19948000,6620172,488.51596,11.824976,95593.3,1.1358066,0
20008000,20008000,6620172,488.577,11.824701,95592.58,1.135798,0
20104000,20068000,6620172,488.61456,11.824442,95592.125,1.1357926,0
20128000,20128000,6620172,488.55353,11.8241825,95592.86,1.1358013,0
20224000,20188000,6620172,488.61926,11.8239,95592.1,1.1357923,0
20244000,20244000,6620172,488.82584,11.823603,95589.734,1.1357641,0
20320000,20296000,6620172,488.80707,11.8233595,95589.945,1.1357666,0
20368000,20356000,6620172,488.93384,11.823053,95588.5,1.1357495,0
20440000,20416000,6620172,488.92444,11.822708,95588.586,1.1357505,0
20488000,20476000,6620172,488.98547,11.822351,95587.88,1.1357422,0
20560000,20536000,6620172,489.01834,11.821986,95587.53,1.135738,0
20608000,20596000,6620172,489.0371,11.821573,95587.3,1.1357352,0
20680000,20656000,6620172,489.20145,11.821172,95585.43,1.135713,0
20728000,20714000,6620172,489.06528,11.820749,95587.0,1.1357317,0
20776000,20764000,6620172,489.29065,11.820398,95584.375,1.1357006,0
20844000,20822666,6620172,489.26718,11.8199415,95584.664,1.1357039,0
20896000,20884000,6620172,489.30942,11.819483,95584.19,1.1356982,0
20968000,20944000,6620172,489.46436,11.8190155,95582.4,1.135677,0
21016000,21004000,6620172,489.55356,11.818537,95581.35,1.1356646,0
21088000,21062666,6620172,489.5348,11.818059,95581.59,1.1356674,0
21136000,21122000,6620172,489.73666,11.817575,95579.3,1.1356401,0
21184000,21172000,6620172,489.8212,11.817194,95578.305,1.1356283,0
21256000,21232000,6620172,489.7273,11.816757,95579.4,1.1356415,0
21304000,21292000,6620172,489.85406,11.816324,95577.93,1.1356239,0
21372000,21350666,6620172,489.9949,11.815913,95576.336,1.135605,0
21420000,21410000,6620172,490.02307,11.8155155,95575.99,1.1356009,0
21472000,21460000,6620172,490.13574,11.815195,95574.69,1.1355854,0
21544000,21520000,6620172,490.0794,11.814794,95575.38,1.1355937,0
21592000,21580000,6620172,490.0935,11.814386,95575.19,1.1355913,0
21664000,21640000,6620172,490.22964,11.81398,95573.625,1.1355728,0
21712000,21700000,6620172,490.3564,11.813562,95572.21,1.135556,0
21784000,21760000,6620172,490.37988,11.813146,95571.914,1.1355524,0
21832000,21820000,6620172,490.37988,11.812723,95571.91,1.1355523,0
21904000,21880000,6620172,490.53012,11.812291,95570.21,1.1355321,0
21952000,21940000,6620172,490.55832,11.811853,95569.87,1.1355281,0
22024000,22000000,6620172,490.6522,11.811437,95568.81,1.1355156,0
22072000,22060000,6620172,490.79306,11.811014,95567.2,1.1354965,0
22144000,22120000,6620172,490.68976,11.810623,95568.37,1.1355103,0
22192000,22180000,6620172,490.79306,11.810221,95567.16,1.1354959,0
22264000,22240000,6620172,490.89633,11.80984,95566.0,1.1354821,0
22312000,22300000,6620172,490.96207,11.809458,95565.234,1.135473,0
22384000,22360000,6620172,491.00433,11.809108,95564.79,1.1354678,0
22432000,22418000,6620172,491.16867,11.808771,95562.9,1.1354452,0
22480000,22468000,6620172,491.07007,11.808496,95564.03,1.1354588,0
22552000,22528000,6620172,491.14517,11.808212,95563.15,1.1354483,0
22600000,22588000,6620172,491.2297,11.807932,95562.19,1.1354369,0
22672000,22648000,6620172,491.25317,11.807663,95561.94,1.1354339,0
22720000,22708000,6620172,491.27194,11.807413,95561.69,1.1354309,0
22792000,22768000,6620172,491.3846,11.807195,95560.414,1.1354158,0
22840000,22828000,6620172,491.35178,11.807001,95560.79,1.1354203,0
22912000,22886666,6620172,491.37524,11.806819,95560.52,1.1354171,0
22960000,22948000,6620172,491.3987,11.806696,95560.22,1.1354135,0
23032000,23008000,6620172,491.4128,11.806564,95560.13,1.1354125,0
23080000,23068000,6620172,491.47852,11.806467,95559.36,1.1354032,0
23152000,23128000,6620172,491.47852,11.806392,95559.34,1.1354032,0
23200000,23188000,6620172,491.36115,11.806345,95560.67,1.1354188,0
23272000,23246666,6620172,491.42688,11.806331,95559.945,1.1354102,0
23320000,23308000,6620172,491.37524,11.806345,95560.52,1.1354171,0
23392000,23368000,6620172,491.45035,11.806381,95559.65,1.1354066,0
23440000,23428000,6620172,491.44098,11.806437,95559.77,1.1354082,0
23512000,23488000,6620172,491.394,11.806523,95560.31,1.1354146,0
23560000,23548000,6620172,491.32358,11.806635,95561.12,1.1354241,0
23632000,23608000,6620172,491.33298,11.806767,95561.02,1.135423,0
23680000,23668000,6620172,491.36115,11.80694,95560.7,1.1354192,0
23752000,23728000,6620172,491.25317,11.807134,95561.9,1.1354334,0
23800000,23788000,6620172,491.3048,11.807352,95561.32,1.1354265,0
23872000,23848000,6620172,491.19214,11.807591,95562.62,1.1354419,0
23920000,23908000,6620172,491.07944,11.807856,95563.92,1.1354574,0
23988000,23966666,6620172,491.10764,11.808131,95563.586,1.1354535,0
24040000,24026000,6620172,491.05597,11.808435,95564.21,1.1354609,0
24088000,24076000,6620172,491.0184,11.80871,95564.59,1.1354655,0
24160000,24136000,6620172,491.0372,11.809056,95564.414,1.1354632,0
24208000,24196000,6620172,491.0466,11.809427,95564.3,1.1354619,0
24280000,24256000,6620172,490.9292,11.80981,95565.664,1.1354781,0
24328000,24316000,6620172,490.78836,11.810205,95567.266,1.1354972,0
24400000,24376000,6620172,490.77896,11.810623,95567.35,1.1354983,0
24448000,24436000,6620172,490.68506,11.81106,95568.42,1.1355109,0
24520000,24496000,6620172,490.61465,11.811519,95569.25,1.1355207,0
24568000,24556000,6620172,490.5818,11.8119755,95569.61,1.135525,0
24640000,24616000,6620172,490.45032,11.812474,95571.13,1.1355431,0
24688000,24676000,6620172,490.43625,11.812967,95571.28,1.1355449,0
24760000,24736000,6620172,490.38928,11.813481,95571.79,1.135551,0
24808000,24796000,6620172,490.30478,11.814005,95572.766,1.1355625,0
24880000,24856000,6620172,490.10757,11.81454,95575.04,1.1355896,0
24928000,24916000,6620172,490.10287,11.815073,95575.09,1.1355902,0
25000000,24976000,6620172,489.86343,11.815628,95577.81,1.1356225,0
25048000,25034000,6620172,489.8165,11.816187,95578.41,1.1356295,0
25120000,25094666,6620172,489.87753,11.816768,95577.71,1.1356213,0
25168000,25156000,6620172,489.79303,11.817347,95578.66,1.1356325,0
25240000,25216000,6620172,489.624,11.817927,95580.586,1.1356554,0
25288000,25276000,6620172,489.5254,11.818506,95581.71,1.1356689,0
25360000,25336000,6620172,489.40802,11.819118,95583.06,1.135685,0
25408000,25396000,6620172,489.40332,11.819696,95583.125,1.1356857,0
25480000,25456000,6620172,489.31412,11.820308,95584.1,1.1356972,0
25528000,25516000,6620172,489.16388,11.820948,95585.88,1.1357185,0
25600000,25576000,6620172,489.08878,11.821559,95586.69,1.135728,0
25648000,25636000,6620172,489.0418,11.822168,95587.24,1.1357346,0
25720000,25694666,6620172,488.89157,11.82278,95588.945,1.1357548,0
25768000,25756000,6620172,488.8775,11.823359,95589.11,1.1357567,0
25840000,25816000,6620172,488.69907,11.824,95591.21,1.1357818,0
25888000,25876000,6620172,488.70377,11.82461,95591.11,1.1357805,0
25960000,25936000,6620172,488.4878,11.825231,95593.586,1.1358099,0
26008000,25996000,6620172,488.45963,11.825861,95593.91,1.1358137,0
26080000,26056000,6620172,488.23428,11.826472,95596.5,1.1358445,0
26128000,26116000,6620172,488.17325,11.827082,95597.19,1.1358527,0
26200000,26176000,6620172,488.12628,11.827693,95597.75,1.1358594,0
26248000,26236000,6620172,488.07935,11.828302,95598.27,1.1358657,0
26320000,26294666,6620172,487.96664,11.828923,95599.555,1.1358808,0
26368000,26356000,6620172,487.9197,11.829554,95600.14,1.1358879,0
26440000,26416000,6620172,487.76947,11.830144,95601.836,1.135908,0
26488000,26476000,6620172,487.79294,11.830729,95601.555,1.1359046,0
26560000,26536000,6620172,487.6474,11.831314,95603.26,1.1359248,0
26608000,26596000,6620172,487.5488,11.831888,95604.33,1.1359376,0
26680000,26656000,6620172,487.469,11.832454,95605.28,1.1359489,0
26728000,26716000,6620172,487.40796,11.832727,95605.95,1.1359569,0
26800000,26776000,6620172,487.3657,11.832728,95606.44,1.1359626,0
26848000,26834000,6620172,487.42203,11.832727,95605.8,1.1359551,0
26896000,26884000,6620172,487.32346,11.832727,95606.95,1.1359688,0
26968000,26944000,6620172,487.42203,11.832728,95605.78,1.1359549,0
27012000,27002000,6620172,487.3845,11.832727,95606.234,1.1359602,0
27064000,27052000,6620172,487.3563,11.832727,95606.55,1.1359639,0
27136000,27112000,6620172,487.42203,11.832728,95605.79,1.135955,0
27184000,27172000,6620172,487.3563,11.832727,95606.56,1.1359642,0
27256000,27230666,6620172,487.33752,11.832728,95606.79,1.1359668,0
27304000,27292000,6620172,487.30936,11.832727,95607.11,1.1359706,0
27376000,27352000,6620172,487.40326,11.832728,95606.03,1.1359577,0
27420000,27408000,6620172,487.24832,11.832727,95607.81,1.135979,0
27472000,27458000,6620172,487.34692,11.832727,95606.67,1.1359653,0
27544000,27518666,6620172,487.39856,11.832728,95606.06,1.1359582,0
27592000,27580000,6620172,487.40796,11.832727,95605.96,1.1359569,0
27664000,27640000,6620172,487.41733,11.832728,95605.9,1.1359562,0
27712000,27700000,6620172,487.40326,11.832727,95606.03,1.1359577,0
27784000,27760000,6620172,487.4502,11.832728,95605.5,1.1359515,0
27832000,27820000,6620172,487.2671,11.832727,95607.59,1.1359764,0
27904000,27878666,6620172,487.3798,11.832728,95606.305,1.135961,0
27952000,27940000,6620172,487.3798,11.832727,95606.3,1.1359609,0
28020000,27998666,6620172,487.2812,11.832728,95607.4,1.135974,0
28072000,28060000,6620172,487.31406,11.832727,95607.06,1.13597,0
28144000,28118666,6620172,487.361,11.832728,95606.48,1.1359631,0
28192000,28180000,6620172,487.41266,11.832727,95605.93,1.1359566,0
28264000,28240000,6620172,487.40326,11.832728,95606.02,1.1359577,0
28312000,28300000,6620172,487.3845,11.832727,95606.22,1.1359601,0
28384000,28360000,6620172,487.4502,11.832728,95605.48,1.1359512,0
28432000,28420000,6620172,487.41733,11.832727,95605.89,1.135956,0
28504000,28480000,6620172,487.3751,11.832728,95606.38,1.1359619,0
28552000,28540000,6620172,487.41733,11.832727,95605.89,1.135956,0
28624000,28600000,6620172,487.31876,11.832728,95606.97,1.1359689,0
28672000,28658000,6620172,487.3563,11.832727,95606.56,1.1359642,0
28744000,28718666,6620172,487.4737,11.832728,95605.22,1.1359482,0
28792000,28780000,6620172,487.39386,11.832727,95606.16,1.1359593,0
28864000,28840000,6620172,487.3798,11.832728,95606.27,1.1359607,0
28908000,28898000,6620172,487.40326,11.832727,95606.0,1.1359575,0
28960000,28948000,6620172,487.29526,11.832727,95607.28,1.1359726,0
29032000,29006666,6620172,487.4643,11.832728,95605.336,1.1359495,0
29080000,29068000,6620172,487.43613,11.832727,95605.67,1.1359535,0
29152000,29128000,6620172,487.3563,11.832728,95606.57,1.1359643,0
29200000,29188000,6620172,487.47836,11.832727,95605.16,1.1359473,0
29272000,29246666,6620172,487.31406,11.832728,95607.04,1.1359698,0
29316000,29306000,6620172,487.35162,11.832727,95606.63,1.135965,0
29368000,29356000,6620172,487.30466,11.832727,95607.16,1.1359712,0
29436000,29413333,6620172,487.39386,11.832728,95606.13,1.135959,0
29464000,29464000,6620172,487.26242,11.832727,95607.66,1.1359771,0
29560000,29524000,6620172,487.30466,11.832727,95607.14,1.135971,0
29584000,29584000,6620172,487.4737,11.832727,95605.22,1.1359482,0
29680000,29644000,6620172,487.39856,11.832727,95606.06,1.1359582,0
29704000,29704000,6620172,487.22015,11.832727,95608.13,1.1359828,0
29800000,29764000,6620172,487.44083,11.832727,95605.61,1.1359527,0
29824000,29824000,6620172,487.39386,11.832727,95606.125,1.1359589,0
29920000,29884000,6620172,487.3563,11.83272,95606.555,1.135964,0
29944000,29944000,6620172,487.3657,11.832697,95606.445,1.1359627,0
30036000,30002000,6620172,487.3798,11.832697,95606.27,1.1359607,0
30064000,30064000,6620172,487.4549,11.832697,95605.44,1.1359508,0
30160000,30123000,6620172,487.41733,11.832666,95605.86,1.1359558,0
30184000,30184000,6620172,487.24832,11.832636,95607.81,1.135979,0
30280000,30244000,6620172,487.41733,11.832613,95605.875,1.135956,0
30304000,30304000,6620172,487.43143,11.832575,95605.7,1.1359539,0
30400000,30364000,6620172,487.3751,11.832529,95606.35,1.1359617,0
30424000,30424000,6620172,487.4596,11.832483,95605.38,1.1359501,0
30520000,30484000,6620172,487.4596,11.832415,95605.414,1.1359504,0
30544000,30544000,6620172,487.39386,11.832331,95606.125,1.1359589,0
30640000,30604000,6620172,487.42673,11.832247,95605.76,1.1359545,0
30664000,30664000,6620172,487.44553,11.832148,95605.51,1.1359516,0
30760000,30724000,6620172,487.59576,11.831987,95603.805,1.1359314,0
30784000,30784000,6620172,487.5629,11.831812,95604.23,1.1359364,0
30880000,30844000,6620172,487.5488,11.831606,95604.35,1.1359379,0
30904000,30904000,6620172,487.62393,11.831415,95603.53,1.1359282,0
31000000,30963000,6620172,487.6474,11.831186,95603.21,1.1359242,0
31024000,31024000,6620172,487.52533,11.830957,95604.63,1.1359413,0
31120000,31083000,6620172,487.6521,11.830698,95603.16,1.1359236,0
31144000,31144000,6620172,487.66617,11.830439,95603.016,1.135922,0
31240000,31204000,6620172,487.81174,11.8300495,95601.34,1.135902,0
31264000,31264000,6620172,487.71313,11.829584,95602.51,1.1359159,0
31360000,31324000,6620172,487.87744,11.829004,95600.62,1.1358935,0
31380000,31380000,6620172,488.04648,11.828394,95598.695,1.1358706,0
31456000,31432000,6620172,488.12158,11.827886,95597.805,1.13586,0
31504000,31492000,6620172,488.22018,11.82725,95596.66,1.1358464,0
31576000,31552000,6620172,488.3141,11.826625,95595.586,1.1358336,0
31624000,31612000,6620172,488.34225,11.826014,95595.28,1.13583,0
31696000,31672000,6620172,488.42676,11.825424,95594.31,1.1358186,0
31744000,31730000,6620172,488.54416,11.824854,95592.95,1.1358024,0
31812000,31789333,6620172,488.685,11.824306,95591.32,1.135783,0
31840000,31840000,6620172,488.8728,11.823877,95589.21,1.135758,0
31936000,31898000,6620172,488.7789,11.823343,95590.25,1.1357703,0
31960000,31960000,6620172,488.82584,11.82284,95589.74,1.1357642,0
32056000,32020000,6620172,489.0418,11.822351,95587.24,1.1357346,0
32080000,32080000,6620172,489.0512,11.821894,95587.15,1.1357334,0
32176000,32140000,6620172,489.16858,11.821436,95585.8,1.1357174,0
32196000,32196000,6620172,489.12164,11.820978,95586.34,1.1357238,0
32272000,32248000,6620172,489.18268,11.820653,95585.625,1.1357154,0
32316000,32306000,6620172,489.28125,11.8202305,95584.516,1.1357023,0
32368000,32356000,6620172,489.33292,11.819925,95583.91,1.1356949,0
32440000,32416000,6620172,489.41272,11.819524,95582.99,1.1356841,0
32488000,32476000,6620172,489.46436,11.819162,95582.39,1.1356769,0
32560000,32533333,6620172,489.51602,11.818791,95581.81,1.1356701,0
32584000,32584000,6620172,489.4597,11.818506,95582.484,1.135678,0
32680000,32643000,6620172,489.60992,11.818178,95580.72,1.1356571,0
32704000,32704000,6620172,489.6193,11.817865,95580.625,1.135656,0
32800000,32763000,6620172,489.76486,11.81753,95578.945,1.135636,0
32820000,32820000,6620172,489.9057,11.8172245,95577.34,1.1356169,0
32896000,32872000,6620172,489.8259,11.817012,95578.25,1.1356277,0
32944000,32932000,6620172,489.85873,11.816721,95577.914,1.1356237,0
33016000,32992000,6620172,489.93387,11.816452,95577.02,1.1356132,0
33064000,33052000,6620172,489.9996,11.816202,95576.266,1.1356041,0
33136000,33110666,6620172,490.01367,11.815944,95576.125,1.1356025,0
33184000,33170000,6620172,490.009,11.815714,95576.164,1.1356028,0
33232000,33220000,6620172,489.97144,11.815531,95576.58,1.1356078,0
33304000,33280000,6620172,490.03717,11.815303,95575.82,1.1355988,0
33348000,33336000,6620172,490.07004,11.815104,95575.46,1.1355946,0
33400000,33388000,6620172,490.12637,11.814936,95574.82,1.135587,0
33472000,33448000,6620172,490.15454,11.814743,95574.52,1.1355834,0
33520000,33508000,6620172,490.0888,11.814554,95575.266,1.1355922,0
33592000,33568000,6620172,490.14984,11.814377,95574.555,1.1355839,0
33640000,33628000,6620172,490.21088,11.814203,95573.86,1.1355755,0
33712000,33688000,6620172,490.29068,11.814052,95572.945,1.1355647,0
33760000,33748000,6620172,490.2672,11.813898,95573.23,1.135568,0
33832000,33808000,6620172,490.33295,11.813746,95572.44,1.1355586,0
33880000,33868000,6620172,490.33765,11.813608,95572.4,1.1355582,0
33952000,33928000,6620172,490.34235,11.813472,95572.35,1.1355577,0
34000000,33988000,6620172,490.2766,11.813349,95573.125,1.1355668,0
34072000,34048000,6620172,490.30948,11.813217,95572.72,1.135562,0
34120000,34108000,6620172,490.40338,11.813105,95571.66,1.1355494,0
34192000,34166666,6620172,490.38928,11.812993,95571.836,1.1355515,0
34240000,34228000,6620172,490.44562,11.812876,95571.195,1.1355438,0
34312000,34288000,6620172,490.44092,11.812779,95571.23,1.1355443,0
34360000,34348000,6620172,490.42685,11.812693,95571.4,1.1355463,0
34432000,34408000,6620172,490.49728,11.812587,95570.56,1.1355363,0
34480000,34468000,6620172,490.44562,11.81251,95571.19,1.1355437,0
34552000,34528000,6620172,490.51605,11.812434,95570.35,1.1355338,0
34596000,34586000,6620172,490.43155,11.812357,95571.3,1.1355451,0
34648000,34636000,6620172,490.44562,11.812296,95571.164,1.1355436,0
34720000,34696000,6620172,490.55362,11.812221,95569.96,1.1355292,0
34768000,34754000,6620172,490.4691,11.812143,95570.914,1.1355405,0
34816000,34804000,6620172,490.64282,11.812082,95568.93,1.135517,0
34888000,34864000,6620172,490.53952,11.812037,95570.086,1.1355307,0
34936000,34924000,6620172,490.51605,11.8119755,95570.36,1.1355339,0
35008000,34984000,6620172,490.563,11.811925,95569.805,1.1355274,0
35056000,35044000,6620172,490.62402,11.811884,95569.12,1.1355191,0
35128000,35104000,6620172,490.55832,11.811833,95569.85,1.135528,0
35176000,35164000,6620172,490.60056,11.811792,95569.41,1.1355226,0
35248000,35224000,6620172,490.60526,11.811752,95569.32,1.1355215,0
35296000,35284000,6620172,490.64752,11.811716,95568.875,1.1355164,0
35364000,35342666,6620172,490.6757,11.811691,95568.54,1.1355124,0
35416000,35404000,6620172,490.68506,11.81167,95568.44,1.1355112,0
35488000,35464000,6620172,490.60526,11.81163,95569.34,1.1355219,0
35532000,35522000,6620172,490.52545,11.811609,95570.266,1.1355329,0
35608000,35582666,6620172,490.6569,11.81158,95568.76,1.1355149,0
35656000,35644000,6620172,490.64752,11.8115635,95568.86,1.1355162,0
35724000,35702666,6620172,490.5818,11.811549,95569.586,1.1355247,0
35776000,35764000,6620172,490.64282,11.811548,95568.91,1.1355166,0
35848000,35824000,6620172,490.71793,11.811528,95568.03,1.1355063,0
35896000,35884000,6620172,490.64752,11.811518,95568.82,1.1355157,0
35968000,35944000,6620172,490.5865,11.811519,95569.555,1.1355244,0
36016000,36004000,6620172,490.64282,11.811518,95568.92,1.1355169,0
36088000,36064000,6620172,490.64752,11.811519,95568.85,1.135516,0
36136000,36124000,6620172,490.63342,11.811518,95569.05,1.1355183,0
36208000,36184000,6620172,490.5818,11.811519,95569.6,1.1355249,0
36256000,36244000,6620172,490.5865,11.811518,95569.55,1.1355243,0
36328000,36304000,6620172,490.5724,11.811519,95569.71,1.1355263,0
36376000,36364000,6620172,490.69916,11.811533,95568.3,1.1355095,0
36448000,36424000,6620172,490.6569,11.811549,95568.73,1.1355146,0
36496000,36484000,6620172,490.6569,11.8115635,95568.75,1.1355149,0
36568000,36544000,6620172,490.64752,11.81158,95568.84,1.1355159,0
36612000,36602000,6620172,490.64282,11.811609,95568.89,1.1355165,0
36664000,36652000,6620172,490.62402,11.811625,95569.125,1.1355193,0
36736000,36712000,6620172,490.60526,11.811641,95569.336,1.1355218,0
36784000,36772000,6620172,490.61465,11.81167,95569.234,1.1355207,0
36856000,36832000,6620172,490.62402,11.811691,95569.125,1.1355193,0
36904000,36892000,6620172,490.6757,11.811731,95568.55,1.1355125,0
36976000,36952000,6620172,490.5771,11.811763,95569.66,1.1355256,0
37024000,37012000,6620172,490.61935,11.811792,95569.19,1.13552,0
37096000,37072000,6620172,490.51605,11.811833,95570.38,1.1355343,0
37140000,37130000,6620172,490.4832,11.811869,95570.75,1.1355387,0
37192000,37180000,6620172,490.61465,11.811899,95569.266,1.1355209,0
37264000,37240000,6620172,490.5818,11.811935,95569.586,1.1355247,0
37312000,37300000,6620172,490.50195,11.8119755,95570.53,1.1355361,0
37384000,37360000,6620172,490.59116,11.8120165,95569.49,1.1355237,0
37432000,37420000,6620172,490.5818,11.812067,95569.59,1.1355249,0
37504000,37480000,6620172,490.51135,11.812108,95570.41,1.1355345,0
37552000,37540000,6620172,490.4738,11.812143,95570.86,1.1355399,0
37624000,37598666,6620172,490.51605,11.81219,95570.37,1.135534,0
37672000,37660000,6620172,490.59116,11.812235,95569.5,1.1355238,0
37740000,37718666,6620172,490.53952,11.812282,95570.086,1.1355307,0
37792000,37780000,6620172,490.44092,11.812326,95571.234,1.1355444,0
37860000,37838666,6620172,490.49258,11.812383,95570.625,1.1355371,0
37912000,37900000,6620172,490.4785,11.812433,95570.805,1.1355393,0
37984000,37960000,6620172,490.53482,11.812474,95570.125,1.1355312,0
38028000,38016000,6620172,490.55362,11.812525,95569.94,1.1355289,0
38080000,38068000,6620172,490.42685,11.812571,95571.375,1.1355461,0
38152000,38128000,6620172,490.45502,11.812617,95571.02,1.1355419,0
38200000,38188000,6620172,490.49258,11.812662,95570.64,1.1355373,0
38272000,38248000,6620172,490.4738,11.812718,95570.836,1.1355395,0
38320000,38308000,6620172,490.55362,11.812769,95569.93,1.1355289,0
38392000,38368000,6620172,490.4785,11.81282,95570.81,1.1355394,0
38440000,38428000,6620172,490.3705,11.812876,95572.03,1.1355538,0
38512000,38488000,6620172,490.3658,11.8129225,95572.07,1.1355543,0
38560000,38548000,6620172,490.30478,11.812967,95572.805,1.135563,0
38632000,38608000,6620172,490.3658,11.813034,95572.07,1.1355543,0
38680000,38668000,6620172,490.38458,11.813089,95571.84,1.1355516,0
38752000,38726666,6620172,490.45502,11.813136,95571.03,1.135542,0
38800000,38788000,6620172,490.39398,11.813181,95571.75,1.1355505,0
38872000,38848000,6620172,490.41275,11.813237,95571.52,1.1355478,0
38916000,38906000,6620172,490.2625,11.813288,95573.24,1.1355683,0
38968000,38956000,6620172,490.2813,11.8133335,95573.055,1.135566,0
39036000,39012000,6620172,490.3517,11.81337,95572.26,1.1355566,0
39088000,39074000,6620172,490.42685,11.813425,95571.41,1.1355463,0
39136000,39124000,6620172,490.31885,11.813456,95572.64,1.135561,0
39208000,39184000,6620172,490.30478,11.813512,95572.79,1.1355628,0
39256000,39244000,6620172,490.23904,11.813547,95573.53,1.1355716,0
39328000,39304000,6620172,490.31885,11.813603,95572.6,1.1355606,0
39376000,39364000,6620172,490.32825,11.813654,95572.516,1.1355596,0
39448000,39422666,6620172,490.32355,11.813705,95572.56,1.13556,0
39496000,39484000,6620172,490.30008,11.8137455,95572.84,1.1355634,0
39568000,39542666,6620172,490.3752,11.813797,95571.97,1.1355531,0
39616000,39604000,6620172,490.2578,11.813852,95573.3,1.1355689,0
39688000,39664000,6620172,490.22964,11.813889,95573.63,1.1355729,0
39736000,39724000,6620172,490.1921,11.813944,95574.07,1.135578,0
39808000,39784000,6620172,490.32825,11.813991,95572.54,1.1355599,0
39856000,39842000,6620172,490.178,11.814035,95574.2,1.1355797,0
39904000,39892000,6620172,490.30948,11.814066,95572.7,1.1355617,0
39976000,39952000,6620172,490.20148,11.814122,95573.945,1.1355765,0
40020000,40010000,6620172,490.178,11.8141575,95574.25,1.1355802,0
40072000,40060000,6620172,490.34702,11.814203,95572.28,1.1355568,0
40144000,40120000,6620172,490.2672,11.814244,95573.19,1.1355675,0
40192000,40180000,6620172,490.10757,11.81428,95575.08,1.1355901,0
40264000,40240000,6620172,490.14044,11.814336,95574.65,1.1355848,0
40312000,40300000,6620172,490.10757,11.814371,95575.06,1.1355898,0
40384000,40360000,6620172,490.1639,11.814407,95574.41,1.1355821,0
40432000,40420000,6620172,490.0935,11.814447,95575.195,1.1355914,0
40504000,40480000,6620172,490.0888,11.814488,95575.26,1.1355921,0
40552000,40540000,6620172,490.1733,11.814524,95574.31,1.1355809,0
40624000,40598666,6620172,490.1733,11.81456,95574.26,1.1355803,0
40672000,40660000,6620172,490.06534,11.8146,95575.56,1.1355958,0
40744000,40720000,6620172,490.11227,11.814641,95575.0,1.1355891,0
40792000,40780000,6620172,490.30478,11.814676,95572.8,1.1355629,0
40864000,40838666,6620172,490.13574,11.814702,95574.69,1.1355854,0
40912000,40900000,6620172,490.13574,11.814737,95574.71,1.1355857,0
40980000,40957333,6620172,490.0982,11.814774,95575.15,1.1355909,0
41008000,41008000,6620172,490.009,11.814783,95576.17,1.135603,0
41104000,41068000,6620172,490.1733,11.814829,95574.26,1.1355803,0
41128000,41128000,6620172,490.0841,11.814844,95575.31,1.1355928,0
41224000,41188000,6620172,490.0747,11.814882,95575.43,1.1355942,0
41248000,41248000,6620172,490.2625,11.814905,95573.26,1.1355684,0
41344000,41308000,6620172,490.12167,11.814943,95574.84,1.1355872,0
41368000,41368000,6620172,489.96204,11.814966,95576.7,1.1356094,0
41464000,41428000,6620172,490.14044,11.814989,95574.64,1.1355848,0
41488000,41488000,6620172,490.13574,11.815027,95574.695,1.1355855,0
41584000,41548000,6620172,490.02307,11.8150425,95576.01,1.1356012,0
41608000,41608000,6620172,489.93857,11.815058,95576.97,1.1356125,0
41704000,41668000,6620172,490.10757,11.815096,95575.06,1.1355898,0
41728000,41728000,6620172,490.19678,11.815119,95574.02,1.1355774,0
41824000,41788000,6620172,490.14044,11.815142,95574.64,1.1355848,0
41848000,41848000,6620172,489.93387,11.815149,95577.02,1.1356132,0
41944000,41908000,6620172,490.0935,11.81518,95575.21,1.1355916,0
41968000,41968000,6620172,490.13574,11.81521,95574.72,1.1355857,0
42064000,42028000,6620172,490.0747,11.815226,95575.4,1.1355938,0
42088000,42088000,6620172,490.01367,11.815241,95576.1,1.1356021,0
42184000,42147000,6620172,489.97144,11.815264,95576.59,1.1356081,0
42208000,42208000,6620172,489.93857,11.815271,95577.01,1.135613,0
42304000,42268000,6620172,490.07004,11.815302,95575.484,1.1355948,0
42328000,42328000,6620172,489.9855,11.815332,95576.42,1.135606,0
42420000,42387000,6620172,490.05124,11.81534,95575.7,1.1355975,0
42448000,42448000,6620172,490.03717,11.815363,95575.85,1.1355993,0
42544000,42508000,6620172,490.04654,11.815378,95575.766,1.1355982,0
42568000,42568000,6620172,490.13107,11.815393,95574.75,1.1355861,0
42664000,42627000,6620172,490.03247,11.815416,95575.914,1.1356,0
42684000,42684000,6620172,490.05594,11.815424,95575.625,1.1355965,0
42760000,42734666,6620172,489.94797,11.815445,95576.875,1.1356114,0
42808000,42796000,6620172,490.0935,11.8154545,95575.17,1.1355911,0
42880000,42854666,6620172,489.9902,11.815486,95576.38,1.1356055,0
42928000,42914000,6620172,489.9902,11.815485,95576.36,1.1356052,0
42976000,42964000,6620172,489.92917,11.8155155,95577.086,1.1356139,0
43048000,43024000,6620172,490.009,11.815516,95576.15,1.1356028,0
43096000,43084000,6620172,490.03717,11.815546,95575.84,1.1355991,0
43168000,43142666,6620172,490.03247,11.815547,95575.9,1.1355997,0
43216000,43202000,6620172,489.9855,11.815577,95576.42,1.135606,0
43264000,43252000,6620172,490.03247,11.815577,95575.92,1.1356001,0
43336000,43312000,6620172,490.0794,11.815598,95575.34,1.1355932,0
43384000,43372000,6620172,490.01367,11.815607,95576.1,1.1356021,0
43456000,43432000,6620172,489.9855,11.815618,95576.414,1.1356059,0
43504000,43492000,6620172,489.9808,11.815638,95576.484,1.1356068,0
43576000,43552000,6620172,490.02307,11.815639,95576.02,1.1356012,0
43624000,43612000,6620172,489.93857,11.815668,95576.99,1.1356127,0
43696000,43670666,6620172,489.9104,11.815669,95577.27,1.1356161,0
43744000,43732000,6620172,489.86343,11.815683,95577.83,1.1356226,0
43812000,43790666,6620172,490.06534,11.8157,95575.51,1.1355952,0
43864000,43850000,6620172,489.95264,11.815699,95576.81,1.1356106,0
43912000,43900000,6620172,489.92447,11.815729,95577.125,1.1356143,0
43984000,43960000,6620172,489.96204,11.81573,95576.71,1.1356094,0
44032000,44020000,6620172,490.0043,11.815744,95576.22,1.1356037,0
44104000,44078666,6620172,490.05594,11.815761,95575.625,1.1355965,0
44152000,44140000,6620172,490.02777,11.81576,95575.94,1.1356003,0
44224000,44200000,6620172,489.97614,11.81577,95576.555,1.1356076,0
44272000,44260000,6620172,489.95264,11.81579,95576.8,1.1356105,0
44344000,44320000,6620172,489.96204,11.815791,95576.73,1.1356096,0
44392000,44380000,6620172,490.01367,11.81579,95576.11,1.1356022,0
44464000,44440000,6620172,489.901,11.815791,95577.4,1.1356176,0
44512000,44498000,6620172,489.96674,11.815821,95576.66,1.1356088,0
44560000,44548000,6620172,489.87753,11.815821,95577.67,1.1356208,0
44632000,44608000,6620172,489.93387,11.815822,95577.02,1.1356132,0
44680000,44668000,6620172,489.9855,11.815821,95576.44,1.1356062,0
44752000,44728000,6620172,490.06064,11.815822,95575.59,1.1355962,0
44800000,44788000,6620172,489.8963,11.815851,95577.5,1.1356188,0
44872000,44848000,6620172,489.96674,11.815852,95576.625,1.1356084,0
44916000,44906000,6620172,490.02307,11.815851,95576.0,1.135601,0
44968000,44956000,6620172,489.8916,11.815851,95577.53,1.1356193,0
45040000,45016000,6620172,490.02777,11.815852,95575.98,1.1356007,0
45088000,45076000,6620172,489.9808,11.815866,95576.52,1.1356071,0
45160000,45134666,6620172,489.94797,11.815883,95576.87,1.1356113,0
45208000,45194000,6620172,489.9808,11.815882,95576.49,1.1356069,0
45256000,45244000,6620172,490.0043,11.815882,95576.25,1.1356039,0
45328000,45304000,6620172,489.94797,11.815883,95576.836,1.1356109,0
45376000,45364000,6620172,489.9949,11.815882,95576.33,1.1356049,0
45448000,45424000,6620172,489.96674,11.815892,95576.625,1.1356084,0
45496000,45484000,6620172,489.97144,11.815912,95576.586,1.135608,0
45568000,45544000,6620172,490.02307,11.815913,95576.02,1.1356012,0
45616000,45604000,6620172,489.84937,11.815912,95578.016,1.135625,0
45688000,45664000,6620172,490.01367,11.815913,95576.12,1.1356024,0
45736000,45724000,6620172,489.94797,11.815912,95576.87,1.1356113,0
45808000,45784000,6620172,489.9057,11.815913,95577.34,1.1356169,0
45856000,45844000,6620172,489.96204,11.815912,95576.734,1.1356097,0
45928000,45904000,6620172,489.88223,11.815933,95577.6,1.13562,0
45976000,45964000,6620172,489.8259,11.815943,95578.266,1.1356279,0
46048000,46024000,6620172,489.92917,11.815944,95577.07,1.1356137,0
46096000,46084000,6620172,490.02777,11.815943,95575.94,1.1356003,0
46168000,46144000,6620172,489.96204,11.815944,95576.71,1.1356094,0
46216000,46204000,6620172,489.9902,11.815943,95576.41,1.1356058,0
46288000,46264000,6620172,489.9949,11.815944,95576.31,1.1356046,0
46336000,46324000,6620172,489.9808,11.815943,95576.516,1.1356071,0
46408000,46384000,6620172,490.03247,11.815944,95575.9,1.1355997,0
46456000,46444000,6620172,489.9104,11.815943,95577.31,1.1356167,0
46528000,46504000,6620172,489.94327,11.815953,95576.9,1.1356117,0
46576000,46564000,6620172,490.04654,11.815973,95575.734,1.1355978,0
46648000,46624000,6620172,489.9996,11.815974,95576.29,1.1356045,0
46696000,46684000,6620172,490.01367,11.815973,95576.09,1.135602,0
46768000,46744000,6620172,489.9902,11.815974,95576.38,1.1356055,0
46816000,46804000,6620172,489.88693,11.815973,95577.57,1.1356196,0
46888000,46864000,6620172,489.91977,11.815974,95577.21,1.1356153,0
46936000,46924000,6620172,489.85873,11.815973,95577.89,1.1356235,0
47008000,46984000,6620172,489.96674,11.815974,95576.68,1.135609,0
47056000,47044000,6620172,489.9855,11.815973,95576.414,1.1356059,0
47124000,47102666,6620172,489.96674,11.815974,95576.66,1.1356088,0
47176000,47164000,6620172,489.91977,11.815973,95577.19,1.1356151,0
47248000,47224000,6620172,489.92447,11.815974,95577.15,1.1356146,0
47296000,47284000,6620172,489.97614,11.815973,95576.55,1.1356075,0
47368000,47344000,6620172,489.9151,11.815974,95577.26,1.135616,0
47416000,47404000,6620172,489.9949,11.815973,95576.31,1.1356046,0
47488000,47464000,6620172,489.95734,11.815974,95576.77,1.1356102,0
47536000,47524000,6620172,489.83527,11.815973,95578.195,1.135627,0
47608000,47584000,6620172,490.0794,11.815974,95575.35,1.1355933,0
47656000,47644000,6620172,489.84467,11.815973,95578.03,1.1356251,0
47728000,47704000,6620172,489.94797,11.815974,95576.85,1.135611,0
47776000,47764000,6620172,489.96204,11.815973,95576.734,1.1356097,0
47848000,47824000,6620172,489.93857,11.815974,95576.96,1.1356124,0
47896000,47884000,6620172,489.94327,11.815973,95576.91,1.1356118,0
47968000,47944000,6620172,489.96674,11.815974,95576.66,1.1356088,0
48016000,48004000,6620172,489.9057,11.815973,95577.37,1.1356173,0
48088000,48064000,6620172,489.95734,11.815974,95576.76,1.13561,0
48136000,48124000,6620172,490.05124,11.815973,95575.7,1.1355975,0
48208000,48184000,6620172,489.92447,11.815974,95577.13,1.1356144,0
48256000,48244000,6620172,489.85873,11.815973,95577.92,1.1356238,0
48328000,48304000,6620172,489.8916,11.815974,95577.52,1.1356192,0
48376000,48364000,6620172,489.9104,11.815973,95577.32,1.1356167,0
48448000,48424000,6620172,489.96204,11.815974,95576.695,1.1356093,0
48496000,48484000,6620172,489.94797,11.815973,95576.86,1.1356112,0
48568000,48544000,6620172,490.01367,11.815974,95576.09,1.135602,0
48616000,48604000,6620172,489.94327,11.815973,95576.91,1.1356118,0
48688000,48664000,6620172,490.0888,11.815974,95575.28,1.1355925,0
48736000,48724000,6620172,489.95264,11.815958,95576.83,1.1356108,0
48808000,48784000,6620172,489.93857,11.815944,95577.01,1.135613,0
48856000,48844000,6620172,489.97614,11.815943,95576.55,1.1356075,0
48928000,48904000,6620172,489.9808,11.815944,95576.5,1.1356069,0
48976000,48964000,6620172,489.92917,11.815943,95577.09,1.135614,0
49048000,49022666,6620172,489.9151,11.815923,95577.25,1.1356158,0
49096000,49084000,6620172,489.95734,11.815912,95576.77,1.1356102,0
49168000,49144000,6620172,489.9996,11.815913,95576.28,1.1356044,0
49212000,49200000,6620172,489.83527,11.815912,95578.19,1.1356269,0
49264000,49250000,6620172,489.94327,11.815882,95576.92,1.1356119,0
49336000,49309333,6620172,490.0747,11.815883,95575.43,1.1355942,0
49360000,49360000,6620172,489.78363,11.815882,95578.73,1.1356333,0
49452000,49419000,6620172,490.02777,11.815866,95575.945,1.1356003,0
49480000,49480000,6620172,489.95264,11.815851,95576.79,1.1356103,0
49576000,49539000,6620172,489.9855,11.815851,95576.45,1.1356063,0
49600000,49600000,6620172,489.78363,11.815821,95578.72,1.1356332,0
49696000,49660000,6620172,489.97614,11.815821,95576.53,1.1356072,0
49720000,49720000,6620172,489.9855,11.815821,95576.45,1.1356063,0
49816000,49780000,6620172,490.01367,11.815798,95576.11,1.1356022,0
49840000,49840000,6620172,490.03717,11.81579,95575.82,1.1355988,0
49936000,49899000,6620172,490.009,11.815775,95576.16,1.1356028,0
49960000,49960000,6620172,490.11697,11.81576,95574.92,1.1355882,0
50056000,50020000,6620172,490.04654,11.815752,95575.766,1.1355982,0
50080000,50080000,6620172,489.8963,11.815729,95577.484,1.1356186,0
50176000,50140000,6620172,489.96674,11.815714,95576.66,1.1356088,0
50200000,50200000,6620172,490.14514,11.815668,95574.61,1.1355845,0
50296000,50260000,6620172,490.05124,11.815622,95575.7,1.1355975,0
50316000,50316000,6620172,489.94797,11.815546,95576.88,1.1356114,0
50392000,50368000,6620172,490.0935,11.815455,95575.195,1.1355914,0
50436000,50426000,6620172,490.0043,11.815332,95576.22,1.1356037,0
50488000,50476000,6620172,489.95734,11.81521,95576.75,1.1356099,0
50560000,50536000,6620172,490.0935,11.815059,95575.23,1.1355917,0
50608000,50596000,6620172,490.10287,11.814875,95575.1,1.1355903,0
50680000,50656000,6620172,490.1639,11.814662,95574.38,1.1355817,0
50728000,50716000,6620172,490.21558,11.814432,95573.83,1.1355752,0
50800000,50774666,6620172,490.28598,11.814204,95572.98,1.135565,0
50848000,50836000,6620172,490.1733,11.813944,95574.26,1.1355803,0
50920000,50896000,6620172,490.2766,11.813695,95573.1,1.1355666,0
50968000,50954000,6620172,490.3611,11.81341,95572.125,1.1355549,0
51016000,51004000,6620172,490.38928,11.813166,95571.81,1.1355512,0
51088000,51062666,6620172,490.3752,11.812861,95571.97,1.1355531,0
51136000,51124000,6620172,490.42215,11.812555,95571.44,1.1355468,0
51208000,51184000,6620172,490.55362,11.812241,95569.914,1.1355287,0
51256000,51244000,6620172,490.64282,11.811914,95568.89,1.1355165,0
51328000,51302666,6620172,490.54892,11.81158,95570.01,1.1355298,0
51376000,51364000,6620172,490.62872,11.811243,95569.06,1.1355186,0
51448000,51424000,6620172,490.77426,11.810918,95567.4,1.1354988,0
51496000,51484000,6620172,490.86816,11.810556,95566.34,1.1354862,0
51568000,51544000,6620172,490.82593,11.810206,95566.79,1.1354915,0
51616000,51604000,6620172,490.79306,11.8098545,95567.195,1.1354964,0
51688000,51664000,6620172,490.99023,11.809514,95564.93,1.1354694,0
51736000,51724000,6620172,491.09824,11.809168,95563.695,1.1354548,0
51808000,51784000,6620172,491.07477,11.808833,95563.99,1.1354582,0
51856000,51844000,6620172,491.0278,11.808496,95564.49,1.1354642,0
51928000,51904000,6620172,491.14517,11.808151,95563.16,1.1354483,0
51976000,51964000,6620172,491.3142,11.80781,95561.234,1.1354254,0
52048000,52022666,6620172,491.16867,11.80749,95562.87,1.135445,0
52096000,52084000,6620172,491.27194,11.807184,95561.71,1.1354312,0
52168000,52144000,6620172,491.225,11.80688,95562.25,1.1354376,0
52216000,52204000,6620172,491.44098,11.806574,95559.77,1.1354082,0
52288000,52264000,6620172,491.52548,11.806279,95558.77,1.1353964,0
52336000,52324000,6620172,491.52078,11.805994,95558.87,1.1353974,0
52408000,52384000,6620172,491.52548,11.80573,95558.77,1.1353964,0
52456000,52444000,6620172,491.4879,11.80546,95559.19,1.1354012,0
52528000,52502666,6620172,491.61,11.805232,95557.84,1.1353852,0
52576000,52564000,6620172,491.62875,11.805017,95557.62,1.1353827,0
52648000,52624000,6620172,491.6147,11.804814,95557.74,1.1353841,0
52696000,52684000,6620172,491.57242,11.804621,95558.25,1.13539,0
52768000,52744000,6620172,491.7086,11.804448,95556.73,1.1353719,0
52816000,52804000,6620172,491.77432,11.804285,95555.98,1.135363,0
52888000,52864000,6620172,491.84006,11.804173,95555.195,1.1353538,0
52936000,52924000,6620172,491.7837,11.804056,95555.805,1.1353611,0
53008000,52984000,6620172,491.718,11.803981,95556.56,1.13537,0
53056000,53044000,6620172,491.81186,11.803904,95555.53,1.1353579,0
53128000,53104000,6620172,491.82596,11.803848,95555.336,1.1353555,0
53176000,53162000,6620172,491.84473,11.803827,95555.11,1.1353527,0
53224000,53212000,6620172,491.84473,11.803827,95555.125,1.135353,0
53296000,53272000,6620172,491.77902,11.803838,95555.91,1.1353621,0
53344000,53332000,6620172,491.81186,11.803888,95555.516,1.1353576,0
53416000,53392000,6620172,491.82596,11.80395,95555.336,1.1353555,0
53464000,53452000,6620172,491.81186,11.804056,95555.53,1.1353579,0
53536000,53512000,6620172,491.76022,11.804173,95556.09,1.1353645,0
53584000,53572000,6620172,491.81186,11.804316,95555.51,1.1353575,0
53656000,53632000,6620172,491.7086,11.8045,95556.69,1.1353716,0
53704000,53692000,6620172,491.74146,11.804697,95556.305,1.135367,0
53776000,53752000,6620172,491.74146,11.804936,95556.336,1.1353673,0
53824000,53812000,6620172,491.56772,11.805201,95558.28,1.1353904,0
53896000,53872000,6620172,491.54425,11.805486,95558.586,1.1353941,0
53944000,53932000,6620172,491.53955,11.805811,95558.625,1.1353946,0
54016000,53992000,6620172,491.43628,11.806148,95559.85,1.1354091,0
54064000,54052000,6620172,491.43628,11.806498,95559.83,1.1354089,0
54136000,54112000,6620172,491.42688,11.8069,95559.9,1.1354097,0
54184000,54172000,6620172,491.3189,11.807322,95561.13,1.1354244,0
54256000,54232000,6620172,491.26724,11.807765,95561.76,1.1354318,0
54304000,54292000,6620172,491.19684,11.808222,95562.57,1.1354414,0
54376000,54352000,6620172,491.0372,11.808721,95564.41,1.1354631,0
54424000,54412000,6620172,491.01373,11.809229,95564.67,1.1354665,0
54496000,54472000,6620172,490.9386,11.809758,95565.52,1.1354765,0
54544000,54532000,6620172,490.81653,11.810312,95566.875,1.1354926,0
54616000,54592000,6620172,490.69916,11.810887,95568.29,1.1355094,0
54664000,54652000,6620172,490.6569,11.811487,95568.75,1.1355149,0
54736000,54712000,6620172,490.60056,11.8120985,95569.4,1.1355225,0
54784000,54772000,6620172,490.41275,11.812723,95571.52,1.1355478,0
54852000,54830666,6620172,490.31418,11.81337,95572.664,1.1355613,0
54904000,54890000,6620172,490.22028,11.81402,95573.77,1.1355746,0
54952000,54940000,6620172,490.1686,11.814554,95574.32,1.135581,0
55024000,55000000,6620172,490.07004,11.815242,95575.49,1.135595,0
55072000,55060000,6620172,489.9808,11.815943,95576.47,1.1356065,0
55144000,55118666,6620172,489.8024,11.816655,95578.53,1.1356311,0
55192000,55180000,6620172,489.68973,11.817377,95579.83,1.1356465,0
55264000,55240000,6620172,489.66626,11.818141,95580.086,1.1356496,0
55312000,55300000,6620172,489.50192,11.818903,95581.96,1.1356719,0
55380000,55357333,6620172,489.29065,11.819676,95584.375,1.1357006,0
55408000,55408000,6620172,489.2249,11.820307,95585.14,1.1357096,0
55504000,55468000,6620172,489.16388,11.821131,95585.85,1.135718,0
55528000,55528000,6620172,488.89627,11.821955,95588.94,1.1357547,0
55624000,55588000,6620172,488.91504,11.822817,95588.73,1.1357522,0
55648000,55648000,6620172,488.577,11.823694,95592.56,1.1357977,0
55744000,55708000,6620172,488.65683,11.824579,95591.664,1.1357871,0
55768000,55768000,6620172,488.5019,11.825464,95593.4,1.1358076,0
55864000,55828000,6620172,488.3235,11.826403,95595.46,1.1358322,0
55888000,55888000,6620172,488.30002,11.827326,95595.766,1.1358359,0
55984000,55948000,6620172,488.1169,11.828272,95597.836,1.1358604,0
56008000,56008000,6620172,487.8399,11.829187,95601.04,1.1358986,0
56104000,56068000,6620172,487.85397,11.8300495,95600.86,1.1358963,0
56128000,56128000,6620172,487.52533,11.830866,95604.63,1.1359413,0
56224000,56188000,6620172,487.57697,11.831583,95604.05,1.1359342,0
56244000,56244000,6620172,487.4596,11.832148,95605.37,1.13595,0
56320000,56296000,6620172,487.42203,11.832413,95605.805,1.1359551,0
56368000,56356000,6620172,487.33752,11.83259,95606.76,1.1359664,0
56440000,56416000,6620172,487.33752,11.832657,95606.76,1.1359664,0
56488000,56476000,6620172,487.33752,11.832666,95606.8,1.1359669,0
56560000,56536000,6620172,487.2765,11.832667,95607.48,1.1359749,0
56608000,56596000,6620172,487.3751,11.832651,95606.34,1.1359615,0
56680000,56656000,6620172,487.35162,11.832626,95606.63,1.135965,0
56728000,56716000,6620172,487.40796,11.832605,95605.94,1.1359568,0
56800000,56776000,6620172,487.3751,11.832576,95606.336,1.1359614,0
56848000,56836000,6620172,487.42203,11.83256,95605.8,1.1359551,0
56920000,56896000,6620172,487.3563,11.832545,95606.586,1.1359644,0
56968000,56956000,6620172,487.33752,11.832544,95606.8,1.1359669,0
57040000,57016000,6620172,487.41266,11.832545,95605.914,1.1359564,0
57088000,57076000,6620172,487.41266,11.832544,95605.92,1.1359565,0
57160000,57136000,6620172,487.48306,11.832657,95605.1,1.1359468,0
57208000,57196000,6620172,487.30936,11.832727,95607.125,1.1359708,0
57280000,57256000,6620172,487.30466,11.832728,95607.15,1.1359711,0
57328000,57316000,6620172,487.39386,11.832727,95606.14,1.1359591,0
57400000,57376000,6620172,487.3845,11.832728,95606.23,1.1359601,0
57448000,57436000,6620172,487.31876,11.832727,95606.97,1.1359689,0
