timestamp,timestamp_sample,xyz[0],xyz[1],xyz[2],xyz_derivative[0],xyz_derivative[1],xyz_derivative[2]
3228000,3228000,-0.0027603512,-0.005044873,-0.0019425624,-0.14796133,-0.088382065,0.00086426205
3232000,3232000,-0.0039685196,-0.005253195,-0.0018083802,-0.21419588,-0.07277715,0.014912925
3240000,3240000,-0.0028012274,-0.004375671,0.0004353556,0.027698755,0.03928269,0.19584914
3248000,3248000,-0.0037111838,-0.0054732403,0.00057122146,-0.06324698,-0.06766629,0.06214334
3260000,3260000,-0.001751031,-0.003787248,-0.0004329465,0.08036071,0.035712514,-0.019730322
3268000,3268000,-0.0033339416,-0.005206329,0.00096232275,-0.08217513,-0.11545027,0.10743255
3280000,3280000,0.00041993335,-0.003424792,-0.0019449133,0.28182268,0.1646877,-0.19170102
3288000,3288000,-0.0013156568,-0.0040618316,-0.0016317645,-0.12012474,-0.036512256,-0.0043572416
3300000,3300000,-0.00075329887,-0.0065773423,0.0005662502,0.18408065,-0.031894997,0.060947463
3308000,3308000,0.0020945095,-0.0061673545,7.5552365e-05,0.27457535,-0.029729873,-0.011144132
3320000,3320000,-0.0019073273,-0.005726916,0.00082152896,-0.24945107,0.23470321,0.04717026
3328000,3328000,0.00020715437,-0.0038496468,0.0001845357,0.11954312,0.14351091,-0.010173251
3340000,3340000,-0.0021426314,-0.0043575233,0.0012885091,-0.2542121,0.14686856,0.064941674
3344000,3344000,-0.0027311204,-0.0030397256,0.0011060303,-0.20817752,0.22535437,0.017414777
3360000,3360000,-0.0012703488,-0.005927468,0.00029737782,-0.060303085,-0.05673073,0.022301419
3368000,3368000,-0.00021354754,-0.0031078332,-0.0011464044,0.082710795,0.22109577,-0.08172969
3380000,3380000,-0.0024624807,-0.007651939,-0.0012271476,-0.24012017,-0.24006724,-0.09240382
3388000,3388000,-0.001220186,-0.0061789444,0.0004958499,0.07913364,0.0399529,0.11759325
3400000,3400000,0.00084502145,-0.0035765423,-0.00090797496,0.10745139,0.13608265,-0.074919656
3404000,3404000,4.7864305e-05,-0.0056855096,-0.0009337237,-0.024406873,-0.14905986,-0.045481175
3420000,3420000,-0.0015199633,-0.0031942695,-0.0020333729,-0.11465004,0.15014416,-0.1290459
3424000,3424000,-0.0019023155,-0.0052228346,-0.00119286,-0.10645589,-0.13240238,0.016754499
3440000,3440000,-0.0008234506,-0.0027357186,0.0015636011,0.0769045,0.3438872,0.15324429
3448000,3448000,-0.0005305089,-0.0020609405,-6.794518e-05,0.021733206,0.07247125,-0.108282395
3460000,3460000,-0.000276843,-0.003658856,0.0015313426,0.014960382,-0.085377924,0.1379424
3468000,3468000,-0.0025715695,-0.008384883,0.001220507,-0.19511488,-0.4316244,0.0040751733
3480000,3480000,-0.0020393587,-0.006530565,-0.0006620089,0.079584286,0.07702798,-0.0989475
3488000,3488000,-0.0022945062,-0.0056942347,-0.00014825196,-0.024800926,0.06815615,0.036040317
3500000,3500000,-0.0020671887,-0.0038552454,-0.0007813504,0.030472096,0.16647938,-0.12871881
3508000,3508000,-0.0004462124,-0.0043489314,0.0002182359,0.14986278,0.034420475,0.08184651
3520000,3520000,-0.0026913234,-0.005291527,0.0029781538,-0.11544703,-0.16873854,0.16020432
3528000,3528000,-0.0005640468,-0.005533229,-0.000759571,0.1260185,-0.07066874,-0.296148
3540000,3540000,0.0015232192,-0.002137337,-0.0011522442,0.16251107,0.20286879,0.009306487
3548000,3548000,-0.0016124278,-0.0036988698,0.0007169599,-0.20884961,-0.063134566,0.17520183
3560000,3560000,-0.0012147687,-0.0018914007,0.0013292785,0.04087293,0.11781397,-0.010064704
3568000,3568000,-0.000110396766,-0.004426589,0.00083772,0.09972278,-0.1805673,-0.05386853
3580000,3580000,-0.0019427708,-0.005021957,0.00055430405,-0.12475991,-0.13552824,0.010558126
3588000,3588000,-0.00024109421,-0.009178381,-0.00078895385,0.10874504,-0.37077397,-0.12365024
3600000,3600000,-0.0015078357,-0.0058622877,-0.0011406161,-0.12302671,0.18522857,-0.0055542258
3608000,3608000,-0.003372653,-0.0038738544,-5.108566e-06,-0.16307935,0.1962863,0.09862423
3620000,3620000,-0.0010559786,-0.004007647,-0.0014179567,0.103834614,0.0027201534,-0.13638666
3628000,3628000,0.0013431562,-0.0062726173,-0.001214748,0.21726927,-0.17587823,-0.024174262
3640000,3640000,0.0010484916,-0.006235799,-7.3194788e-06,0.0830734,-0.052564435,0.09512775
3648000,3648000,-0.001882987,-0.007947332,-0.00024977897,-0.20747267,-0.16856655,-0.0012704126
3660000,3660000,0.0006765201,-0.006016139,0.0009693939,0.15142275,0.07157563,0.07914688
3668000,3668000,0.0027219283,-0.006625032,-0.00039381025,0.18292747,-0.04766825,-0.08879542
3680000,3680000,0.00025801512,-0.006191531,-0.0029521582,-0.09652206,0.10242553,-0.22777176
3688000,3688000,0.0010644853,-0.005143686,-0.0005127646,0.039257247,0.0866546,0.1685324
3700000,3700000,-0.0006398909,-0.005467049,-0.0013100919,-0.13271438,-0.017978922,-0.10984564
3708000,3708000,-0.0016370084,-0.0055640107,-0.0012309805,-0.13412555,-0.01503355,-0.003298499
3720000,3720000,-0.00015493802,-0.0074622906,0.0013951841,0.0784293,-0.11697312,0.12939619
3728000,3728000,-0.00095797447,-0.004945767,0.00036865604,-0.04527732,0.2084947,-0.036199614
3736000,3736000,-0.0008084505,-0.0013069678,0.0001665144,0.0047544446,0.35284352,-0.038421325
3748000,3748000,0.00035332819,-0.004526853,-0.0009783262,0.06454645,-0.168259,-0.070297986
3760000,3760000,-0.0020611165,-0.0041278773,-0.0017498228,-0.09090869,-0.013945295,-0.099997796
3764000,3764000,-0.0009861017,-0.0040627127,-0.0022244998,0.06369896,-0.0009475844,-0.10802408
3776000,3776000,-0.0004874175,-0.0028295065,-0.00020172089,0.038153734,0.10774574,0.14949669
3784000,3784000,-0.0028274672,-0.0039495025,-0.0005026999,-0.17931013,-0.05533056,-0.040400267
3796000,3796000,-0.0015298265,-0.007809352,0.0006677427,-0.017751597,-0.28764173,0.171722
3804000,3804000,-0.0029097174,-0.005047565,0.0007460639,-0.07548238,0.16609687,0.0030410616
3816000,3816000,0.00040527465,-0.007748656,-0.0034994686,0.106402546,-0.22309461,-0.25458384
3824000,3824000,-0.0038940546,-0.0026184549,-0.0019084254,-0.29992735,0.40401587,0.068348326
3836000,3836000,0.0014671779,-0.004719913,0.0009286842,0.24938908,-0.22737965,0.19285432
3844000,3844000,-0.0020385424,-0.005030844,-0.00026686088,-0.19830784,-0.047527425,-0.04135281
3856000,3856000,-0.0009771436,-0.0036343513,0.0018252052,-0.025157358,0.08092327,0.22214644
3864000,3864000,-0.001593651,-0.0029362743,0.0014841998,-0.035509847,0.069528885,-0.0027317393
3880000,3880000,0.0009093548,-0.0076254345,4.280039e-05,0.13573223,-0.2532427,0.018244691
3888000,3888000,-0.00028128474,-0.0032446191,0.002948096,-0.0808949,0.3235451,0.25567317
3900000,3900000,-0.0013141034,-0.0034169278,0.00018030239,-0.0055272505,0.00600849,-0.14940588
3908000,3908000,4.667166e-05,-0.0025459814,-0.00078479585,0.09268485,0.0825184,-0.14564785
3916000,3916000,0.0010236865,-0.004892923,-0.000717056,0.11927627,-0.19030008,-0.0019666883
3928000,3928000,0.00042815824,-0.0059371386,0.0020894753,-0.039256472,-0.13967466,0.14969058
3936000,3936000,0.0019023139,-0.006095522,0.0011159114,0.13361157,-0.020969585,-0.01857968
3944000,3944000,0.002539051,-0.004765453,0.00069524196,0.05583366,0.10275702,-0.055591475
3956000,3956000,-0.0013315333,-0.0016466278,-0.0014792999,-0.22327968,0.099355415,-0.22161329
3964000,3964000,-0.001781892,-0.0059678955,-0.0014794447,-0.111192524,-0.31778648,-0.029699376
3980000,3980000,-0.0010998914,-0.003223997,0.00013712284,-0.055755347,0.21724883,-0.16797289
3988000,3988000,0.00043466015,-0.0038457839,-0.0003514156,0.11723064,0.0118047865,-0.07449891
3996000,3996000,-0.0002961423,-0.004626757,-0.0014681777,-0.060707286,-0.068212755,-0.123432085
4004000,4004000,-0.0021718666,-0.0047148475,4.2010797e-06,-0.14417735,-0.025549956,0.09061505
4016000,4016000,8.809281e-05,-0.0044411933,0.00030888733,0.11490646,0.0347303,0.05530054
4024000,4024000,-0.002237604,-0.0020126086,0.00060072454,-0.17313868,0.21492095,0.042657692
4036000,4036000,-0.0010363231,-0.0022667907,-6.2972744e-05,0.05188792,-0.076879136,-0.11226888
4048000,4048000,0.0026535292,-0.0017547179,-0.0014984177,0.2268582,0.16457398,-0.080400385
4060000,4060000,-0.0019448479,-0.0041282554,-0.0014795364,-0.18958445,-0.22639038,0.045707934
4068000,4068000,0.00030413136,-0.0048531783,-0.0016051893,0.1407953,-0.15040733,-0.022985643
4076000,4076000,0.00011543941,-0.0039542364,-0.0031985315,-0.012030132,0.028611967,-0.12844796
4084000,4084000,-0.0042730877,-0.0006641976,-0.003746356,-0.37325627,0.27421248,-0.049323447
4100000,4100000,-0.0029144867,-0.00064327265,-0.0016426905,0.06440262,0.047664236,0.08883111
4108000,4108000,-5.557202e-06,-0.0018137146,0.00010466069,0.28915942,-0.14160657,0.1968934
4116000,4116000,-0.0011968282,-0.004328979,-0.0005301159,-0.061764643,-0.2082293,-0.025831852
4124000,4124000,-0.003163657,-0.0009604816,-0.003960828,-0.14745496,0.21525447,-0.2873888
4140000,4140000,0.0011398911,-0.0022276195,0.0015180457,0.16002281,-0.11074385,0.19221798
4148000,4148000,-0.000673876,-0.0025501542,7.18137e-05,-0.088360704,-0.08628684,-0.061965756
4160000,4160000,-0.00019748905,-0.0060206642,0.00023935415,-0.0627408,-0.1762051,0.0035226236
4168000,4168000,-0.002666299,-1.3922807e-05,-0.0016876471,-0.17534733,0.45805064,-0.14853069
4180000,4180000,0.001814136,-0.001695435,0.00059596065,0.21602994,-0.02348357,0.18779728
4188000,4188000,-0.0007962414,-0.0012477492,0.00054902665,-0.1597047,-0.005644885,0.0425239
4200000,4200000,-0.003248589,-0.0032235882,0.00045490506,-0.12235549,0.02978033,-0.13518232
4208000,4208000,0.0006068427,-0.0006532185,-0.00011703871,0.2687757,0.17610186,-0.03269882
4220000,4220000,-0.0016507088,-0.0021715644,0.001716383,-0.18058856,-0.031537898,0.040394735
4228000,4228000,0.00058391434,-0.0021672952,0.0005134646,0.16593255,-0.027670829,-0.09311161
4240000,4240000,0.0009101927,-0.0028642425,0.00049414136,0.011166181,-0.0140073225,0.0029400566
4248000,4248000,0.0009799293,-0.00085844286,-0.0019047002,0.004788953,0.058117773,-0.20938788
4260000,4260000,-0.0012021952,0.0009318879,-0.00040688954,-0.14721957,0.17524701,0.07388046
4268000,4268000,-0.0007108858,-0.0015812176,2.354235e-05,-0.030796861,-0.17658906,0.07674296
4280000,4280000,0.00037960056,-0.002253979,-0.0002714092,0.16709246,0.00040424633,-0.009592799
4288000,4288000,0.001826884,-0.002481631,0.0007512318,0.1496991,-0.03295196,0.10109995
4300000,4300000,0.0024115702,-0.0014781272,-0.0022912486,0.032351263,0.07532371,-0.3121455
4308000,4308000,-0.00040256034,-0.0011297101,-0.0013101615,-0.2146067,0.035889577,0.007378452
4320000,4320000,0.00091579894,-0.0031678183,0.0007923229,0.079515755,-0.10852074,0.13579455
4328000,4328000,0.0003906981,-0.0003727451,0.0012129069,-0.029692953,0.20219336,0.082535475
4340000,4340000,0.0022034866,-0.0016409159,-0.00065593596,0.09500288,-0.09259826,-0.12968454
4348000,4348000,0.0018584363,-0.0034546219,0.001004217,0.01602491,-0.15963173,0.11273266
4360000,4360000,-0.0014500907,-0.0018369411,-0.0019690827,-0.24109772,0.009255644,-0.23055494
4368000,4368000,0.0004905941,-0.002254181,-0.0012269535,0.14126931,-0.0007979984,0.011777483
4380000,4380000,0.00022526132,0.0003743698,-0.00052632345,-0.08633356,0.13400696,-0.011867047
4388000,4388000,-0.0029920882,0.00091353874,-0.00087977113,-0.31981495,0.0628007,-0.027847728
4400000,4400000,-0.002563734,-0.00022178143,-0.0017652357,0.04671605,0.029898698,-0.08895917
4408000,4408000,-0.0022869166,0.00012859888,-0.00093315705,0.034338325,0.0043562045,0.058325224
4416000,4416000,-0.00084319717,-0.0006648288,0.001124309,0.1389098,-0.062145036,0.19483258
4424000,4424000,-0.00056200085,-0.0025057513,0.0023735675,0.07022476,-0.17772771,0.14696673
4440000,4440000,0.00144677,-0.002475787,0.0006601813,0.22350697,0.028746711,-0.056889992
4448000,4448000,-0.0003546627,0.00033494644,0.0020190529,-0.12764448,0.24249874,0.0772942
4460000,4460000,-0.0026627362,-0.002476865,-0.00036715556,-0.15536714,-0.15718715,-0.053070847
4468000,4468000,-0.00075233594,0.000566246,-1.1432057e-05,0.15294142,0.22305241,-0.015015015
4480000,4480000,0.001062902,-0.000120583456,-0.0013000887,0.080844134,-0.08543836,-0.02344847
4488000,4488000,-0.0011218499,6.5730885e-05,-0.00013071831,-0.18713683,-0.063329056,0.08328545
4496000,4496000,-0.00096502295,-2.8205104e-06,0.001904524,-0.015622228,-0.043381255,0.20340264
4504000,4504000,0.0008412873,0.001366284,0.0007309425,0.1508483,0.12794942,-0.04819666
4520000,4520000,0.0003944399,0.0020529446,-0.0009820387,0.024446394,0.10481517,-0.1006377
4528000,4528000,0.00076500245,-0.00076753506,0.0006939443,0.011384957,-0.21716985,0.11052341
4540000,4540000,-0.0014126693,-0.00249865,0.0022481114,-0.060731262,-0.15918353,0.10410006
4544000,4544000,-0.00035935012,-0.0024006628,0.002012082,0.0785725,-0.08022508,0.033985246
4560000,4560000,-0.000284962,0.000974291,0.0020038374,-0.05601395,0.08264415,-0.121750414
4568000,4568000,-0.0007164889,-0.0018632123,0.0028976891,-0.018558275,-0.20318279,0.07119584
4580000,4580000,-0.00072767935,-0.0005918313,0.0009341277,-0.057893224,0.114374146,-0.16206232
4588000,4588000,-0.0007480355,0.00081005273,0.0023515446,-0.006887002,0.14011905,0.11046498
4600000,4600000,-0.00022153335,-0.001544103,0.00042346612,-0.010104638,-0.025342891,-0.26835874
4608000,4608000,-0.0010017165,0.0015333316,0.0007312407,-0.062270764,0.20818484,-0.03176946
4616000,4616000,-0.00031302858,-0.0005887747,0.0001758123,0.040699594,-0.11448675,-0.06446859
4624000,4624000,-0.001112464,-0.00053129205,0.0016569617,-0.0748121,-0.007634046,0.12170771
4640000,4640000,0.001264674,-0.0022533452,0.0035628583,0.14321615,-0.23504351,0.036476646
4648000,4648000,0.0005487679,-0.0040234365,-0.0009028504,-0.04823704,-0.18712358,-0.39312443
4660000,4660000,-0.0010971947,-0.0013093934,-0.0007290548,-0.1102695,0.17023797,0.069582984
4668000,4668000,-0.0025996435,4.3063425e-05,0.0021590886,-0.1517527,0.17664579,0.20131238
4680000,4680000,-0.0018819278,0.00053940807,0.0007027867,0.013893975,0.08015975,0.038411714
4688000,4688000,-0.00049676944,0.0012509176,-0.0027879563,0.14877266,0.048623487,-0.3363019
4700000,4700000,0.0005503079,0.0006265552,-0.0017935035,0.006191358,-0.03707271,0.23537293
4708000,4708000,-0.0002327679,0.0016386779,0.0006761534,-0.06484346,0.104547195,0.25246727
4720000,4720000,-0.0018322108,0.0012643454,-0.0004245022,-0.18066299,-0.08274199,-0.0053964644
4728000,4728000,-0.0008118284,-0.0015318678,0.0010948142,0.071393214,-0.26409042,0.11468771
4736000,4736000,0.0008033045,0.0016831711,0.0022941644,0.124802165,0.22353096,0.1551656
4744000,4744000,-0.0006330813,0.0011412092,0.0018923322,-0.06164623,-0.008970857,-0.0054621473
4756000,4756000,0.00095545244,0.0037724993,-0.00017614104,0.08346605,0.17493421,-0.13948555
4768000,4768000,0.00041696278,0.0016243067,-4.2429718e-05,-0.040938724,-0.21870887,-0.102733545
4780000,4780000,0.0008060387,-0.0019536768,-0.0022926508,0.08239237,-0.233118,0.024970468
4784000,4784000,0.0016212264,-0.0013337866,-0.0014239042,0.13458042,-0.06628997,0.10759819
4800000,4800000,0.0029118746,0.0020659808,-0.0017200083,0.29213622,0.05488397,0.023107445
4808000,4808000,0.005175197,-0.00015634252,-0.00066428614,0.275067,-0.17598215,0.104604065
4820000,4820000,0.0018122052,-0.0031951084,-0.0033578773,-0.18209033,-0.20914716,-0.23358124
4828000,4828000,0.0015694898,-0.0010291007,-0.004237095,-0.10238561,0.16085815,-0.09459598
4836000,4836000,5.347526e-05,0.0030205094,-0.0007605232,-0.1585733,0.35245776,0.22860229
4848000,4848000,0.0024281251,0.002176041,-0.00046073823,0.21993178,0.09970176,0.100680254
4860000,4860000,0.0019276644,0.0004515564,-0.0028025066,-0.1022904,-0.19966067,-0.193784
4868000,4868000,0.00057193363,-0.00017857412,0.00021179259,-0.13471243,-0.11130399,0.2170158
4880000,4880000,0.003348431,0.0009399606,-0.0028046607,0.18342718,0.07354067,-0.15608525
4888000,4888000,0.0019333208,0.00036350032,-0.0005517341,-0.106157854,-0.017163122,0.1415588
4896000,4896000,-0.001386156,-1.8437393e-05,-0.00039936544,-0.29181144,-0.048037194,0.045703422
4908000,4908000,0.001116378,0.0003328165,0.00024648872,0.19416232,0.047850788,0.060410373
4920000,4920000,0.00245105,-0.0010563359,-0.0016250999,0.15535721,-0.11334714,-0.117200285
4928000,4928000,0.002309539,-6.4689666e-05,-0.0010750429,-0.0076177865,0.05132441,0.0091645
4940000,4940000,0.0016447501,-0.0003595804,-0.0021595322,-0.06339567,-0.008594851,-0.13399115
4944000,4944000,-0.0005405281,0.00090893963,-0.0033559718,-0.27098963,0.13142411,-0.20497058
4960000,4960000,0.00021834916,0.0016128214,-0.0031589458,0.19049327,-0.13831526,-0.09293032
4968000,4968000,0.0018460987,0.0013554916,-0.0014429882,0.18280266,-0.026585491,0.15543985
4980000,4980000,0.0010972866,0.00034991698,0.0020458263,-0.07628332,-0.008892436,0.19008133
4988000,4988000,-0.0005565017,-0.00017207395,-0.00034129072,-0.14043263,-0.07209106,-0.17261748
5000000,5000000,-0.0002864123,0.002052917,-0.0004003953,0.014402587,0.147818,0.06463322
5008000,5008000,0.0019709475,0.0030535278,-0.00038331118,0.18073943,0.14002556,-0.011984696
5020000,5020000,7.9604564e-05,-0.0011440883,-0.005376387,-0.12759566,-0.32084072,-0.21808755
5028000,5028000,0.0003720501,0.0017237952,0.0010361432,0.0014144331,0.1770906,0.45949513
5040000,5040000,0.0035550012,0.001172814,-0.0029351797,0.1798164,-0.14149131,-0.22246519
5044000,5044000,0.0028780634,0.00102907,-0.0031136512,0.029770315,-0.09611638,-0.14601415
5056000,5056000,-0.00019803329,0.00270211,-0.00018774217,-0.14972563,0.05084748,0.09886266
5068000,5068000,0.00153339,0.0011094715,-0.002336925,0.06395567,-0.13545136,-0.08557938
5080000,5080000,-0.00083683466,0.0007443866,-0.003120341,-0.06842679,-0.034162406,-0.09168647
5088000,5088000,0.0028169402,5.427841e-05,-0.0020895635,0.22977623,-0.07061127,0.063889414
5100000,5100000,0.0014761447,-0.0014918605,-0.0013734075,0.0601628,-0.10359003,0.051369794
5108000,5108000,-0.00094665925,-0.00057836156,-0.0022450322,-0.21554789,0.058249258,-0.075627446
5120000,5120000,0.001638528,0.0024315058,-0.0014278039,0.1474862,0.14802907,0.025883337
5128000,5128000,0.0007777179,0.0018999989,-0.00011558461,-0.039767154,0.010651569,0.103006564
5140000,5140000,-0.0018713007,-0.00024059927,-0.0005196574,-0.14941142,-0.18841799,0.058869027
5148000,5148000,0.0010959955,0.0016073836,-0.0008128828,0.23729962,0.14275771,-0.027251909
5156000,5156000,0.001256864,0.0013517546,-0.0027237595,0.018624887,-0.04334579,-0.16993502
5164000,5164000,-0.00030946487,0.00021470804,-0.002888523,-0.082970776,-0.06370472,-0.061745502
5180000,5180000,-0.00046194263,0.00043247314,4.0152227e-06,0.010938607,-0.01294749,0.11018283
5188000,5188000,0.0016600471,-0.001468834,0.0012350468,0.16839898,-0.17444539,0.15523417
5200000,5200000,4.146644e-05,-0.001396839,-0.00048070733,-0.13628264,0.025117252,-0.16763984
5208000,5208000,8.4907864e-05,0.00032587163,-0.0029956521,-0.0011954159,0.1363655,-0.2308766
5220000,5220000,0.00032609806,0.0003502434,-0.002575064,-0.018044643,0.042339854,-0.051132865
5228000,5228000,0.001839593,-0.0013732254,-0.0011140147,0.12525518,-0.1249995,0.09765981
5240000,5240000,0.00083651,0.0009521055,-0.0018681628,-0.09877263,0.16355377,-0.028839549
5248000,5248000,-0.00094269717,-0.00014618738,0.0026883068,-0.14450368,-0.08553912,0.41998202
5260000,5260000,-0.0012666214,0.001767359,0.0018211444,-0.04298275,0.29232597,-0.079941474
5268000,5268000,0.0015091422,0.0014847266,0.0023400132,0.21898252,0.008484065,0.04649761
5276000,5276000,0.004215973,-0.0018820604,0.0006222562,0.28630787,-0.25553212,-0.15810278
5288000,5288000,0.002470388,-0.0016907258,-0.004103968,-0.066071615,-0.062908225,-0.4013719
5300000,5300000,-0.00039456424,0.0015175445,-0.0028370349,-0.183907,0.20969567,0.15466231
5308000,5308000,0.00026832917,0.0004427624,-0.00047221553,0.01404091,-0.028314568,0.23125863
5316000,5316000,0.002674338,0.00055776164,-0.0008724642,0.20444077,0.0045999335,0.012093425
5328000,5328000,0.0021061944,0.00091812667,-0.0038155974,-0.05416242,0.0016495967,-0.050072066
5340000,5340000,0.0027736211,0.00086744316,0.0010733492,0.089107685,0.07569765,0.24008144
5348000,5348000,0.0018832867,0.0031692088,0.00087885896,-0.061205894,0.18315774,0.08595237
5360000,5360000,-0.0015463347,-0.00446236,0.0020892043,-0.2154019,-0.47975135,-0.009033547
5368000,5368000,-0.0009260543,-0.0012282617,0.00024136505,-0.003566198,0.15599266,-0.14216346
5380000,5380000,0.0012066159,-4.8514456e-05,-0.0008722823,0.06310022,0.022833297,-0.10068035
5388000,5388000,0.003992538,0.0010179672,-0.0030610664,0.26292965,0.10163158,-0.2264713
5400000,5400000,0.0008262588,-0.0011846642,-0.0023067016,-0.15305373,-0.037551522,0.043924734
5408000,5408000,0.00017073937,0.0003793831,0.00032385148,-0.106208175,0.07208425,0.24525312
5420000,5420000,0.0023668103,0.0011165082,0.0009928575,0.13608694,0.12924573,0.011152701
5428000,5428000,0.0015320599,0.0005098437,-0.002336694,-0.048823792,-0.017654348,-0.25553185
5440000,5440000,0.002324886,0.0012263302,-0.0010622365,0.14455682,0.06127026,0.031579375
5448000,5448000,0.0010521659,-0.00042098993,-0.0013175239,-0.08262384,-0.12696837,-0.015940147
5460000,5460000,-0.0008908352,0.0009920872,0.00096537534,-0.1420966,0.08322559,0.19597004
5468000,5468000,-0.00074995495,0.00016584247,0.000733032,-0.013828766,-0.068087935,0.010526582
5480000,5480000,-0.0010265261,-0.0011047316,-0.0013303088,-0.043113053,-0.041776013,-0.11417616
5488000,5488000,7.503759e-05,0.000398085,-0.0023702155,0.092853256,0.08646287,-0.1255248
5500000,5500000,-0.00061604683,0.0011873501,-0.0011287059,-0.088974416,0.07384625,0.09210893
5508000,5508000,0.0009598349,0.0016627265,-0.0017526433,0.11181156,0.077898346,-0.02915865
5516000,5516000,0.00065167306,0.0030341984,-0.0009889558,-0.012043618,0.12677398,0.08459051
5524000,5524000,-0.0013382111,0.0013396079,0.00073701434,-0.13689584,-0.1052473,0.12816826
5540000,5540000,0.00095850485,0.00069367234,-0.0016291332,-0.02066684,-0.11650498,-0.012534594
5548000,5548000,0.0020470668,0.0013401695,-0.000790388,0.079164594,0.03295103,0.08302679
5560000,5560000,0.0027474924,-6.732531e-06,-0.00057062006,0.069216676,-0.11779941,-0.04662977
5568000,5568000,0.00078460854,0.0013887454,-0.00225018,-0.16632889,0.10014512,-0.14228402
5580000,5580000,0.00044908607,0.0037162239,-0.0016976714,-0.029339619,0.11796389,0.017111687
5588000,5588000,-0.00042979233,-0.0010487069,-0.0006213912,-0.05385963,-0.3486905,0.09392259
5600000,5600000,-0.0009785548,-0.0005262848,-0.0021199528,-0.09121992,0.030942636,-0.070688166
5608000,5608000,0.00051587797,0.0006607203,-0.0006031075,0.10679558,0.07597206,0.099298336
5620000,5620000,0.0019684068,-0.0003277976,-0.0051410333,0.07986738,-0.04703801,-0.35275656
5624000,5624000,0.0002766297,-0.0005492382,-0.0059917714,-0.13627571,-0.050615437,-0.29254398
5636000,5636000,-0.0015571369,0.0013319785,-0.0027640199,-0.032339767,0.07541348,0.13816981
5648000,5648000,-0.0008228866,0.0011587306,-0.0014708693,-0.07683525,-0.006748824,0.08889831
5660000,5660000,0.0015832693,0.00011517946,-0.0022263532,0.2107497,-0.04663459,0.0091976905
5668000,5668000,-0.00091672386,0.00095734606,-0.0026882107,-0.17973885,0.03308171,-0.053476594
5676000,5676000,-0.0019502668,0.0019036953,-0.0016793826,-0.11800825,0.10391866,0.097355515
5684000,5684000,-0.00032427255,0.0024875817,-0.0005731486,0.09942539,0.07507289,0.09911534
5696000,5696000,0.0002017594,0.0032865163,-0.00266449,0.09618234,0.12990107,-0.064724624
5704000,5704000,0.0005029782,0.0034924496,-0.001230878,0.031759597,0.024239404,0.10915627
5716000,5716000,0.00012297812,0.00053720083,-0.004072637,-0.026503911,-0.21463093,-0.18732679
5724000,5724000,-0.0027011964,-0.0016754363,-0.002542335,-0.25357014,-0.24166045,0.097418495
5740000,5740000,0.0017266119,7.822318e-05,-0.0022669835,0.15622048,0.07960445,-0.025643954
5744000,5744000,0.00067294936,0.00073552784,-0.0024182922,-0.024168007,0.116023675,-0.03088115
5756000,5756000,-0.00011730543,-7.929979e-05,-0.0033294437,-0.039081354,-0.020235995,-0.024272777
5768000,5768000,0.00069774984,0.0015111133,0.0010695213,0.069114126,0.020845931,0.26016432
5776000,5776000,0.00034413382,-0.00011953665,-0.0022846877,-0.027315285,-0.12748016,-0.20981038
5788000,5788000,0.00015102723,-0.0005154512,-0.000669113,0.02490956,-0.07842031,0.1479193
5800000,5800000,-0.0011387684,-0.0006214613,-0.0015872386,-0.16487072,0.043290157,-0.18168744
5804000,5804000,-0.002072217,0.00010742387,-0.0027043086,-0.19431305,0.10301233,-0.22363406
5820000,5820000,-0.0011239036,0.0027490724,-0.002832085,-0.047502533,0.04006481,0.02335646
5824000,5824000,-0.0012162561,0.0006539379,-0.0014970386,-0.03700754,-0.20231606,0.15678994
5836000,5836000,0.0032699243,-0.004269444,-0.002869959,0.26949805,-0.43406862,-0.07101445
5848000,5848000,0.002782425,-0.0012125075,-0.003581942,0.06567454,0.15527755,-0.04272621
5856000,5856000,0.0025827903,-0.0013095397,-0.00201302,-0.020651136,0.031157177,0.11065726
5864000,5864000,0.0011102089,-0.0019008559,-0.0031211372,-0.11120192,-0.03505317,-0.06961277
5880000,5880000,0.0014784692,0.00048864866,0.00010677974,0.051872402,0.1661028,0.30159
5888000,5888000,0.0017778128,-0.00022478448,-0.0016091409,0.0036864802,-0.025236597,-0.06256891
5896000,5896000,4.5989524e-05,0.0020801402,-0.0013495216,-0.12372002,0.22821996,0.017320048
5904000,5904000,0.0006642246,0.003199621,-0.0022466178,0.016253218,0.14060679,-0.08638125
5916000,5916000,0.0019222536,8.6933374e-05,-0.0021996016,0.051043916,-0.2429623,0.10591094
5928000,5928000,0.00027138856,0.0010632281,-0.0009455897,-0.050748408,-0.06140341,0.0045414483
5936000,5936000,0.0015384766,0.0010231044,-0.0015143749,0.109301366,0.010400766,-0.051388774
5944000,5944000,0.0013173956,-0.00051461766,-0.0022884214,-0.01943259,-0.15075378,-0.11761078
5956000,5956000,-0.002405911,0.0010644775,-0.0010180344,-0.20052986,0.045179337,0.04836859
5964000,5964000,-0.0024078425,0.00040580006,0.00033280626,-0.07519795,-0.031803843,0.13547894
5976000,5976000,-0.0013117522,-0.00023115752,0.0006153536,0.15014559,-0.014574666,0.08050839
5984000,5984000,0.001282187,0.00055513484,0.0004778459,0.24446902,0.07774714,0.0017599887
5996000,5996000,0.00097122707,0.001421866,-0.00089032564,0.06986721,0.03369871,-0.10695241
6008000,6008000,0.00086646003,-0.0005008625,-0.0007663888,-0.031463817,-0.15923168,0.016008409
6016000,6016000,0.0021146594,-0.002709798,0.0005279768,0.13155288,-0.20205623,0.12336617
6024000,6024000,-0.00020281353,0.0006473125,-0.001981523,-0.21628046,0.22594851,-0.20031749
6036000,6036000,0.0010511595,-0.0024595219,0.00040633068,0.10231763,-0.297817,0.15801832
6048000,6048000,0.00062151114,0.0026934142,0.0010408256,0.05513091,0.39886135,0.09256981
6056000,6056000,0.002929709,0.00176762,0.001970749,0.19978514,-0.0030027493,0.08316909
6064000,6064000,0.0017948688,0.001173324,0.0002292752,-0.053150013,-0.019829275,-0.12422381
6080000,6080000,0.00046763825,-0.000799214,-0.0017917953,0.016544282,-0.12216256,-0.06921269
6088000,6088000,-0.0015066448,0.00027016038,-0.0025308148,-0.16383897,0.06578446,-0.08038406
6100000,6100000,0.00025238236,-0.002147607,-0.0029417472,0.1235105,-0.11404944,-0.0073742326
6108000,6108000,0.0035115648,0.0018686443,-0.0015373984,0.28417125,0.30014533,0.111149766
6120000,6120000,0.00034305488,-0.0010602749,-0.0015375722,-0.14788386,-0.22167847,0.039351027
6128000,6128000,-0.0006888199,0.0019720239,-0.00036950596,-0.11195594,0.24759021,0.10364907
6140000,6140000,0.0014359908,-0.0011507957,-0.00024173001,0.00011245906,-0.29121518,0.07821232
6148000,6148000,-0.0028175416,0.0011791084,-0.0015449993,-0.31727856,0.13753521,-0.10563088
6160000,6160000,0.0010664854,0.0022777973,-0.004566953,0.23842861,-0.034596335,-0.15858206
6168000,6168000,0.0018878649,-0.0016655186,-0.0026054028,0.11876717,-0.3277616,0.14259654
6180000,6180000,1.3732002e-05,0.0008498682,-0.0011652827,-0.013252929,0.18373752,0.062543444
6188000,6188000,0.0015043851,0.0020175113,-0.0020418502,0.12625296,0.11498541,-0.09522024
6200000,6200000,0.0028177844,-0.00076973205,-0.0067448206,0.050342835,-0.088193156,-0.161114
6208000,6208000,0.0016436859,-0.0024882741,-0.002769187,-0.07886809,-0.1799283,0.27474558
6220000,6220000,0.00087753043,-0.002231544,0.0022627448,-0.030061826,-0.024088625,0.39926612
6228000,6228000,0.0011921412,0.00089164823,-0.00012236659,0.008825869,0.2675907,-0.1066149
6240000,6240000,0.0034017148,0.00161622,-0.0033671393,0.21278661,0.10611315,-0.12596467
6248000,6248000,0.0017925699,0.0008267509,-0.001073949,-0.10886773,-0.027161386,0.1286498
6256000,6256000,0.0018527028,0.0011001909,-0.0008655838,0.011366583,0.0021638628,0.049777254
6268000,6268000,0.0014064503,-0.005095045,-0.00085910957,-0.07790553,-0.4497562,-0.020536177
6280000,6280000,0.0025192131,-0.00086787716,0.002897449,0.18246397,0.27058366,0.33998662
6288000,6288000,0.0027876857,0.0011437046,-0.0012209833,0.031742096,0.25521016,-0.27151787
6300000,6300000,0.00051986484,0.00039264932,-0.002267673,-0.0938781,-0.07315525,-0.049038537
6308000,6308000,0.00070653146,-0.00045295246,-0.0002973352,-0.023861121,-0.09192295,0.15047425
6320000,6320000,0.0002342622,-0.00133233,-0.00015281898,0.0723132,-0.048715647,0.029620249
6328000,6328000,0.0006523406,-0.003437846,-0.0017377104,0.007895604,-0.22347379,-0.120508365
6340000,6340000,0.0010082826,0.00066079106,-0.0022956138,0.12356911,0.25513387,-0.024469048
6348000,6348000,0.0020998097,-0.0001925258,-0.0013073159,0.10485288,-0.0068991943,0.068361185
6360000,6360000,0.00025160937,0.0027378057,-0.0005217446,-0.05052402,0.17955911,0.06393973
6368000,6368000,0.0015186633,0.0007249047,-0.0019074314,0.0959824,-0.14871337,-0.08689496
6380000,6380000,0.00069287355,0.000375011,0.00071947346,-0.08846159,0.06278089,0.080778345
6388000,6388000,0.001028693,0.0029254209,-0.002087159,0.030025207,0.20136647,-0.20729
6400000,6400000,0.00042729033,-0.002147832,-0.0037429552,-0.085678734,-0.3132768,-0.09048787
6408000,6408000,0.0007474102,-0.0028037382,-0.0015122425,-0.0016791299,-0.12492646,0.16346605
6420000,6420000,0.0012682711,0.00073563214,-0.0028092363,0.046686094,0.32134882,-0.053067684
6428000,6428000,0.0011922392,0.0015693055,-0.0018179093,0.024363533,0.10875783,0.058421463
6440000,6440000,0.0017841466,0.0013668397,-0.0035915617,0.016074749,0.09604127,-0.08829888
6444000,6444000,0.0011481311,0.0013098326,-0.0032430068,-0.0591861,0.04862972,-0.012883744
6456000,6456000,0.00018030335,0.0010505328,-0.002732062,-0.04394961,0.02469854,0.07019713
6468000,6468000,-0.0005323448,0.0019295849,0.00249748,-0.1103436,-0.027313016,0.38368723
6480000,6480000,0.00093279674,0.0008520009,-0.00267978,0.06863223,-0.12840739,-0.3446154
6488000,6488000,0.0003788533,0.00077046966,-0.004019326,-0.0055088494,-0.013493237,-0.18483958
6500000,6500000,-0.00010758999,-0.00017620623,-0.003975735,-0.08234352,-0.040268622,-0.061646022
6504000,6504000,4.9940427e-05,1.8235296e-06,-0.003285768,-0.030017251,-0.003826036,0.039002568
6520000,6520000,0.003257451,-0.0015723207,-0.0025163312,0.1660038,-0.1616796,0.036710832
6528000,6528000,0.0018686074,0.0004187026,-0.0025361404,-0.07781936,0.12078491,0.0048562945
6540000,6540000,0.0014234153,0.0009396216,-0.0021546397,0.0129086,0.012173126,0.05375909
6548000,6548000,-0.00014272181,0.0017483272,-0.0016460008,-0.1462958,0.08439455,0.058964185
6560000,6560000,0.0038536587,0.0008311961,0.0017343105,0.3337931,-0.05010553,0.26170415
6568000,6568000,0.0049702087,0.0012745736,2.5447225e-05,0.1782498,0.0033000235,-0.07131679
6580000,6580000,0.0013900211,0.0019023861,-0.0031234478,-0.20648132,0.18488535,-0.04960553
6588000,6588000,0.0017322937,-0.0003882819,0.0006507586,-0.015429668,-0.21182781,0.22104718
6600000,6600000,-4.3026754e-05,0.00328701,-0.0017264519,-0.19760908,0.26739913,-0.019904757
6608000,6608000,-0.000105992774,0.00042991573,-0.0041640354,-0.024136446,-0.15571757,-0.25695932
6620000,6620000,0.0014092061,-0.0006167209,-0.001434836,0.07167472,-0.15358885,0.2533234
6628000,6628000,0.0037936312,-0.0021946123,0.00057740416,0.1850633,-0.17219153,0.22651674
6640000,6640000,0.0001449493,-0.00017860858,0.00074615097,-0.1654456,0.15253703,-0.030309198
6644000,6644000,0.00023195054,0.00025315024,-0.001412828,-0.08497591,0.13336603,-0.24929968
6660000,6660000,0.0032844916,-0.0013276502,-0.0018904778,0.2506107,-0.16098957,0.0668517
6668000,6668000,0.0037441826,1.8812716e-06,-0.003031307,0.093841046,0.072723,-0.086849175
6680000,6680000,8.342753e-05,0.0032229738,-0.00046223705,-0.27811527,0.23477066,0.18630314
6688000,6688000,0.00043152098,-0.0012685237,-0.000443093,-0.050147135,-0.32280517,0.046199962
6700000,6700000,0.00026353018,0.00095122727,-0.002770992,0.011468697,0.12603034,-0.14162692
6708000,6708000,0.0010291704,-0.0019685975,-0.0038073636,0.052901156,-0.20653597,-0.115343235
6720000,6720000,0.00020421913,0.00035677012,-0.0027159988,-0.02375257,0.10317245,-0.04883355
6728000,6728000,0.0034953968,9.761937e-05,-0.0024537812,0.27991924,0.019163046,0.048035093
6740000,6740000,0.0025841822,0.0029415933,-0.0016428668,-0.0931371,0.13569795,0.11040999
6748000,6748000,0.001425621,-1.0299031e-05,-0.0014333704,-0.07368468,-0.19902283,0.0015264044
6760000,6760000,0.0004143071,0.00090508536,-0.004735061,-0.20073284,0.108119786,-0.15110971
6768000,6768000,-0.0012467004,0.002015517,-0.0020040683,-0.158463,0.10501347,0.21225713
6780000,6780000,0.0022496465,0.0012844466,-2.7386239e-05,0.13775823,0.039562788,0.045452848
6788000,6788000,0.0007471511,0.0007286677,-0.0020379683,-0.062474445,-0.05009458,-0.13800976
6800000,6800000,0.0013141049,0.0008777343,-0.0008697525,0.043135203,0.021553226,0.022804357
6804000,6804000,0.0020592194,0.00012497045,-0.0019855485,0.10466811,-0.06860926,-0.10691002
6820000,6820000,0.00035866385,0.0022574624,-0.0053340765,-0.04468132,0.23967484,-0.082172036
6828000,6828000,0.00064730796,-0.0004683733,-0.0028063,-0.019553538,-0.17174691,0.18684217
6836000,6836000,0.00045930117,0.00095908344,-0.0010942613,-0.009373277,0.07059407,0.18425086
6844000,6844000,0.002326203,-0.00046906527,-0.0046038963,0.16608728,-0.09265347,-0.25730368
6860000,6860000,0.0013441604,0.0010420457,-0.0021073022,-0.06988438,-0.034219332,0.10421349
6864000,6864000,0.000583391,0.00064645195,-0.0016349131,-0.12160103,-0.06202286,0.11018169
6876000,6876000,0.0010718893,0.0014551594,-0.0008302956,0.06624523,-0.031964324,0.009525507
6884000,6884000,0.0041664536,0.00085126795,-0.000996873,0.28817138,-0.039403494,0.006952561
6900000,6900000,-0.0011885039,-0.0010530343,-0.0024865672,-0.2660452,0.05317754,-0.20492542
6908000,6908000,-0.0028262208,0.0017536716,-0.00048299658,-0.23188522,0.19905788,0.11931768
6920000,6920000,0.0007258262,-0.0033963658,-0.0029733684,0.26368114,-0.28820413,-0.20093927
6928000,6928000,0.0018187175,-0.004628109,-0.0023371503,0.12902127,-0.18725978,0.01267999
6940000,6940000,0.0012263157,0.000995466,-0.0038011912,0.019192526,0.2744663,-0.11826234
6948000,6948000,0.0003310186,0.00096294004,-0.0007659836,-0.079240814,0.10066574,0.22928423
6960000,6960000,0.00035519397,-0.00020314101,-0.0034664725,-0.0012850547,-0.019741308,-0.22771817
6968000,6968000,0.00059152057,-0.00013543665,-0.004039366,0.03530158,-0.0070744026,-0.09759396
6980000,6980000,6.516592e-05,0.0026013758,-0.0011374553,-0.03780862,0.29417843,0.13308749
6988000,6988000,0.0010721448,0.0036283499,-0.002526697,0.0648008,0.12635753,-0.07307567
7000000,7000000,0.00041007448,-0.00010000402,-0.0048657414,0.026487328,-0.11390968,-0.066198535
7008000,7008000,0.00061905285,0.00051098317,-0.0012838147,-0.0015544966,0.02180265,0.2353214
7020000,7020000,0.0033986745,-0.0007862174,-0.0027350872,0.18336688,-0.16345178,-0.03145243
7028000,7028000,0.0019170598,-0.0018970165,-0.0012655235,-0.071510546,-0.118600905,0.11173718
7040000,7040000,0.0017155719,0.002503382,-0.0029172113,-0.023500962,0.28527144,-0.15494932
7048000,7048000,-0.0010469948,0.0015578317,-0.0037859366,-0.24876297,-0.023404023,-0.096689455
7060000,7060000,-0.002092281,-0.00062135234,-0.0014338542,-0.1409628,-0.07734229,0.18875961
7068000,7068000,1.0953867e-05,0.001675949,-0.0027430481,0.17060758,0.17297113,-0.061341673
7080000,7080000,-0.0015608979,8.038152e-05,-0.004514466,-0.10411093,-0.042814765,-0.1301382
7088000,7088000,-0.0022579636,0.00022599613,-0.0029999823,-0.10669989,-0.012253914,0.09931485
7100000,7100000,0.000900598,0.00037380634,-0.0040938393,0.25981972,0.08584334,-0.1125401
7108000,7108000,0.002096471,0.0024993166,-0.004937049,0.16738027,0.15823872,-0.10943546
7120000,7120000,0.0014444974,0.0018516588,-0.004163677,-0.032499578,0.0914983,0.0026170404
7128000,7128000,0.0001059199,0.0044929828,-0.004519744,-0.10057987,0.24874936,-0.007763199
7140000,7140000,0.003157929,-9.185635e-06,-0.0023859877,0.15526879,-0.3475933,0.11788781
7148000,7148000,0.0018798483,-0.0012611412,-0.0048817624,-0.06314838,-0.20434627,-0.16670784
7160000,7160000,0.000899448,-0.0007722229,-0.004487291,-0.05498003,-0.014488507,0.06367254
7168000,7168000,-0.00028289517,-0.0021241093,-0.0017205256,-0.10704769,-0.08541492,0.25315246
7180000,7180000,-0.002203891,0.0020247083,-0.001403523,-0.20875822,0.24832669,0.038905207
7188000,7188000,-0.00094866066,0.003981134,0.00056665484,0.0719626,0.25032786,0.19750334
7200000,7200000,0.0015168003,0.001537883,-0.0043722494,0.14153592,-0.26234448,-0.31857914
7208000,7208000,0.0013611106,-0.0014080135,-0.0060635535,0.035722192,-0.2880202,-0.2184078
7220000,7220000,-0.0010165524,0.000409103,-0.0023373212,-0.20155308,-0.038879473,0.18650904
7224000,7224000,-0.0018014853,-0.00035776012,-0.0018723157,-0.19926623,-0.10457903,0.15630747
7236000,7236000,-0.00028381066,-0.00014209049,-0.0043707155,0.14002845,-0.07216855,-0.19391663
7244000,7244000,0.0020346984,-0.00046854746,-0.0054738885,0.22416627,-0.02583001,-0.12325932
7256000,7256000,0.0050567337,-0.00039512757,-0.0032684165,0.21415864,-0.07124136,0.08295472
7264000,7264000,0.00291873,0.00023550354,-0.0023114944,-0.11626786,0.04287829,0.09811021
7276000,7276000,0.003194312,-0.0012431014,-0.0029881578,0.06254323,0.016951293,-0.020222496
7284000,7284000,0.002401879,0.00012831576,-0.0027071284,-0.071021795,0.10211824,0.016594397
7296000,7296000,0.0014734538,0.0030511788,-0.0035417564,-0.0077870116,0.2710377,-0.020548737
7308000,7308000,0.0018846123,0.0014512804,-0.0018339274,-0.045568272,-0.1118374,0.04084493
7320000,7320000,0.0010555633,0.0030994348,-0.0009229311,-0.024050426,0.0632825,0.012990185
7328000,7328000,0.003055802,0.0014261669,-0.0024436947,0.13691275,-0.09959552,-0.10353266
7340000,7340000,-0.0007657573,-0.0024608104,-0.0019099766,-0.2165272,-0.3210809,0.026654126
7348000,7348000,0.0011938681,-0.0027194563,-0.0016344638,0.09237863,-0.09658862,0.041759368
7356000,7356000,-0.0027314466,-0.0010704007,-0.0030025512,-0.3154223,0.09238668,-0.12375606
7368000,7368000,0.00097518857,0.0005953233,-0.0033934708,0.2514704,0.041053683,0.037471116
7380000,7380000,-0.0009122138,-0.0014517601,-0.0012389693,-0.1297324,-0.036068276,0.08994056
7388000,7388000,-0.002651418,-0.0021236478,-0.0027630224,-0.13364087,-0.06028716,-0.108630426
7400000,7400000,-0.00021883845,0.0009298278,-0.0029805603,0.046430465,0.2699531,0.038441945
7404000,7404000,0.00063206686,0.0014365991,-0.0019335598,0.117915876,0.20836999,0.13443518
7420000,7420000,-0.002099488,-0.002026203,-0.0023129322,-0.21606693,-0.14411464,-0.028013827
7424000,7424000,-0.0009345246,-0.0034271376,-0.0036073297,0.0020088926,-0.2327188,-0.15507683
7440000,7440000,0.00028634758,0.00093930913,-0.0030560645,0.023638066,0.27308697,-0.10606559
7448000,7448000,0.0018758833,0.0011496525,-0.0044834474,0.14601937,0.04253553,-0.106547676
7456000,7456000,2.5401358e-05,-0.0028150035,-0.0026227557,-0.14922516,-0.29799145,0.09872736
7464000,7464000,7.7205244e-05,-0.0031212326,-0.004520552,0.019566566,-0.098062195,-0.13943541
7476000,7476000,0.002887759,-0.0015111845,-0.003602385,0.05914948,0.081161454,0.07185647
7484000,7484000,0.0016966991,0.0009828634,-0.0017224869,-0.06459518,0.23036566,0.18614645
7496000,7496000,-0.0048115156,-0.0019122818,-0.003964672,-0.41431308,-0.21415287,-0.095904745
7504000,7504000,-0.0023303693,-0.0014190264,-0.0027502088,0.07158797,-0.0014543098,0.06712468
7520000,7520000,-0.0014590545,0.0012383638,-0.004405386,0.057761688,0.03639517,-0.073016256
7528000,7528000,0.000249202,0.0025233938,-0.0061680228,0.14628407,0.14434648,-0.17198983
7540000,7540000,0.0002941786,0.0021520713,-0.0048821187,0.042214397,-0.0006184149,0.07818787
7548000,7548000,0.0014258485,0.00034165708,-0.0038592983,0.102087066,-0.1836704,0.08908068
7556000,7556000,0.0023072641,-0.00019860081,-0.004729156,0.10922572,-0.07903262,-0.0320687
7568000,7568000,0.0014908871,0.0010740804,-0.0014675127,-0.03642533,0.12392054,0.3018606
7580000,7580000,-0.00019477564,-0.001448648,-0.0037054424,0.004532978,-0.23526171,-0.18186295
7588000,7588000,0.0022823801,0.00049409084,-0.0074651535,0.17203002,0.10371684,-0.35514447
7600000,7600000,0.0006417949,0.0012227213,-0.0066903224,-0.049727224,0.038877763,0.03683676
7608000,7608000,0.0011148214,0.00067792926,-0.0018901357,0.022193985,-0.020812526,0.400471
7620000,7620000,-0.00053859747,-0.0024611792,-0.004610327,-0.11586593,-0.18762869,-0.17150384
7628000,7628000,-0.0018567041,0.0005631293,-0.003127983,-0.13847926,0.19083576,0.12136697
7640000,7640000,-0.0010598929,0.00021641888,-0.0038845218,0.092307925,-0.016881878,-0.087611616
7648000,7648000,0.0023493462,0.0016247844,-0.003933785,0.27118185,0.10874325,-0.035484128
7660000,7660000,0.0023041633,0.0033404375,-0.0023790488,0.17713001,0.13531789,0.096927054
7668000,7668000,0.000726929,0.0013971124,-0.0012059517,-0.14569855,-0.14954413,0.11804037
7680000,7680000,0.00081888854,0.0014115358,-0.0037436627,0.12803833,0.0048572123,-0.0954301
7688000,7688000,8.710078e-06,0.001958441,-0.002241337,-0.061933026,0.056025717,0.101525575
7696000,7696000,-0.0011558511,0.0015387516,-0.0023116996,-0.10494765,-0.039849643,0.012709788
7708000,7708000,-4.904461e-06,-0.0027336245,-0.00025065476,0.08397683,-0.24758053,0.22959343
7716000,7716000,0.0009751754,-0.0027492475,0.0009422279,0.1004607,-0.09502439,0.10872443
7728000,7728000,-0.00018222292,0.00068989396,-0.004319269,-0.06650729,0.263824,-0.23835872
7740000,7740000,0.00038137962,0.0027722893,-0.003408691,-0.0027749743,0.1339103,0.0026452956
7748000,7748000,0.00030432595,0.00031789113,-0.0042122784,-0.00534129,-0.16831926,-0.086295605
7760000,7760000,0.0012166224,0.00077300146,-0.001034903,0.046443064,0.058130465,0.18079092
7764000,7764000,0.0018176925,0.0012569265,-0.0023460905,0.091073975,0.08514807,-0.037835136
7780000,7780000,-0.0010879025,-0.00096032675,-0.0018924762,-0.11837876,0.008513547,0.053440835
7788000,7788000,0.0018680791,-0.0011067139,-0.0032573757,0.19697095,-0.023850994,-0.10951044
7800000,7800000,0.0025451288,0.0014282153,-0.003213888,0.15531659,0.22498317,0.071697615
7808000,7808000,0.0023943242,0.0032488636,-0.0031654595,0.020552926,0.17610522,0.014549664
7820000,7820000,0.0029372303,0.0012979424,-0.0049066306,-0.04843811,0.03752823,-0.07801393
7828000,7828000,-0.00072698353,0.002689596,-0.00049536023,-0.30364305,0.06118668,0.35134026
7840000,7840000,0.0017642153,0.0023957032,-0.0028187213,0.1453429,0.12986358,-0.15740427
7848000,7848000,0.002868969,-0.0007654787,-0.003648293,0.11837074,-0.27778143,-0.12030234
7860000,7860000,-7.9424004e-05,0.0006552511,-0.004786396,-0.108323574,0.1605816,-0.10982536
7868000,7868000,0.0031192214,-0.0013202024,-0.0011861356,0.22254193,-0.15234938,0.3155228
7880000,7880000,-0.00029420434,0.0014626649,-0.0032013126,-0.22234109,0.23533937,-0.13716927
7888000,7888000,-0.0012168846,0.0011144178,-0.0018185377,-0.11430831,0.01972051,0.050978787
7900000,7900000,-0.00010550709,0.00040239654,-0.006848014,0.03720642,-0.008690554,-0.35410082
7908000,7908000,0.00167013,0.0011985684,-0.0033150408,0.15198365,0.037687756,0.20944914
7920000,7920000,0.0013599336,-0.0020470107,-0.007171916,0.018495012,-0.13140075,-0.27115175
7928000,7928000,0.0013108914,-0.00063443184,-0.00573293,0.0061244504,0.055684783,0.0725793
7940000,7940000,0.0004911467,-0.00063625583,-0.0034446,-0.07245159,0.041527044,0.1242038
7944000,7944000,0.0013728936,0.0005505127,-0.0037121433,0.05345197,0.15121457,0.04206034
7960000,7960000,0.0010476715,-0.0002716151,-0.0016439201,0.051387906,-0.045591462,0.13830324
7968000,7968000,0.00038316648,0.00056154095,-0.002874963,-0.06906216,0.07541042,-0.033414375
7980000,7980000,-0.0018260699,-0.0007012915,-0.0019229951,-0.13935873,-0.09620258,0.028368616
7988000,7988000,-0.0003560579,0.0024256166,-0.0029354289,0.08769622,0.23934913,-0.070852496
8000000,8000000,-0.00036854576,-0.0003340016,-0.00354181,-0.030267406,-0.10542391,0.003976742
8008000,8008000,3.65749e-05,0.0002777893,-0.002497226,0.045170546,-0.00212896,0.07777575
8020000,8020000,-0.0002129185,0.00060407724,-0.005337069,-0.025226522,0.06381605,-0.13821201
8028000,8028000,0.00024600478,0.0009352383,-0.003519754,0.04265902,0.068449095,0.10127361
8040000,8040000,0.00037024263,0.0030510183,-0.004352446,-0.011524012,0.060073026,-0.07769432
8048000,8048000,0.0006753841,-0.0012213313,-0.0053334357,0.017835967,-0.3470417,-0.058509555
8060000,8060000,0.0024420244,0.00091545144,-0.004083782,0.18331078,0.11936072,-0.0042210277
8064000,8064000,0.0025209622,0.0013623093,-0.0035342127,0.112994395,0.11607384,0.056654137
8080000,8080000,-0.0008482379,0.0031372774,-0.004917255,-0.051140927,0.110603414,-0.18768029
8088000,8088000,0.0006500541,-0.0009614602,-0.0046114996,0.08914574,-0.29539025,-0.021959996
8100000,8100000,0.0007206329,0.00057773245,-0.0038301058,0.03959107,0.03714543,0.061585836
8108000,8108000,0.000971898,0.001336813,-0.005347577,0.039663233,0.06670372,-0.108149186
8116000,8116000,0.0013921779,0.00072421366,-0.0041387784,0.036159053,-0.0070438003,0.066648155
8124000,8124000,0.00078299805,0.00293554,-0.004443846,-0.032217257,0.1771715,0.0059638754
8140000,8140000,-0.0015616899,0.0012021824,-0.002515988,-0.16230358,-0.05569409,0.061071396
8148000,8148000,0.00023732788,-0.00012512505,-0.0054268464,0.103836626,-0.16496484,-0.24669555
8160000,8160000,0.00062166946,-0.0010375786,-0.0038116134,0.17469774,-0.065675914,0.033796787
8168000,8168000,0.003755579,-0.0007357993,-0.003967917,0.25216365,0.016316472,0.030569293
8180000,8180000,0.0007384191,-0.0012805527,-0.00511824,-0.09128162,0.051174637,-0.12324021
8188000,8188000,0.0016166264,0.0015195804,-0.0032454114,0.00996767,0.21380365,0.1634734
8196000,8196000,-0.0010642272,0.0010012896,-0.0014487699,-0.20433038,0.03709923,0.15746255
8208000,8208000,0.00020791707,0.0040082796,-0.0028294253,0.04512735,0.23381186,-0.04404756
8220000,8220000,0.0017081988,-8.8799745e-05,-0.004246412,0.15356676,-0.23934424,-0.12902604
8228000,8228000,0.00025984197,0.002179978,-0.0025803428,-0.10305837,0.11510185,0.1400328
8240000,8240000,5.012937e-05,0.0013800547,-0.0019902778,0.04069251,0.008907107,-0.049509913
8244000,8244000,0.00028898934,0.0017075052,-0.0033155195,0.048869684,0.04026841,-0.17064719
8256000,8256000,-0.0019202402,0.0013280511,-0.006719467,-0.09461133,0.016778627,-0.18917441
8268000,8268000,0.0011395346,-0.0007351525,-0.005428662,0.18184254,-0.12647445,0.06657044
8276000,8276000,0.0027037463,0.0027045214,-0.004980712,0.1731359,0.24419504,0.044011094
8288000,8288000,-0.0009841633,-0.0013726964,-0.0026583837,-0.16754213,-0.2032792,0.20196128
8300000,8300000,-0.0017550329,-0.00060537877,-0.002565925,-0.071708046,0.027352396,0.024539132
8308000,8308000,0.0014262579,0.00014543813,-0.002331425,0.24769765,0.078575194,0.014118024
8316000,8316000,-0.0009955398,0.0017309578,-0.002713077,-0.1414058,0.16136286,-0.011793445
8328000,8328000,0.004025309,0.0029227657,-0.002304803,0.3928572,0.06501513,0.010121648
8340000,8340000,0.0015499729,0.0005933889,-0.0033527948,-0.11891283,-0.13497631,-0.05068731
8348000,8348000,0.0036022717,0.0024996758,-0.0044752304,0.15240541,0.12904121,-0.12717235
8360000,8360000,0.0011904459,0.0013962793,-0.004579336,-0.22276947,-0.10219641,-0.032533996
8364000,8364000,0.0003831039,0.0007288498,-0.005999898,-0.21377063,-0.12999216,-0.17121252
8380000,8380000,0.0019654722,0.0009623305,-0.0031476065,0.02251704,0.048011627,0.24107753
8388000,8388000,0.00044197118,-0.0011636289,-0.00326982,-0.0949077,-0.15250263,0.040716242
8400000,8400000,0.003008306,0.0006939606,-0.0042593284,0.12407467,0.058105938,-0.013407622
8408000,8408000,0.0015651437,-0.0005816887,-0.005381518,-0.08986912,-0.07366723,-0.10008192
8416000,8416000,0.00023044285,-0.0006007906,-0.0049386267,-0.1294415,-0.027576411,0.01973198
8428000,8428000,0.00059768435,-0.0020258967,-0.005132661,0.006986685,-0.14171219,-0.03155318
8440000,8440000,-0.0014129414,0.0022298333,-0.0030546123,-0.05966033,0.227417,0.15747984
8448000,8448000,0.0009122299,0.0013767495,-0.0017330848,0.18354258,0.010827691,0.14018638
8460000,8460000,0.002390741,0.00032649282,-0.0018300107,0.09568592,-0.07426987,-0.0054309606
8468000,8468000,0.00040811446,0.0017813738,-0.0033000733,-0.1485066,0.12070486,-0.13353983
8480000,8480000,0.00046777067,0.0015613572,-0.0035357191,0.036175348,0.0067765065,0.0050535128
8488000,8488000,0.0009958101,0.00044874335,-0.0034568126,0.04870426,-0.08679418,0.008611918
8500000,8500000,-0.0006662322,-0.0005983035,-0.004311245,-0.0144599825,-0.084072776,-0.15072992
8508000,8508000,0.0022940827,0.0025266001,-0.0053593568,0.2248563,0.2403439,-0.08649103
8520000,8520000,0.00049969647,0.0012707864,-0.0014132148,-0.05977616,-0.061688893,0.20561653
8528000,8528000,0.0002284578,0.0015822281,-0.0015649073,-0.057263456,0.0002110747,0.054561935
8540000,8540000,-0.0004813393,-0.00065061403,-0.0039669694,0.033586077,-0.07364769,-0.16446306
8548000,8548000,0.0020744838,0.00092189154,-0.0029130564,0.2067942,0.1112643,0.040399298
8560000,8560000,0.0021551554,0.002124885,-0.0028930223,0.036959544,0.05626797,-0.016038636
8568000,8568000,0.0013577371,5.6762714e-05,-0.0035858965,-0.037787773,-0.16213629,-0.053772353
8580000,8580000,0.001075541,0.0005307649,-0.0035353997,-0.010088317,-0.0460102,-0.0043920595
8588000,8588000,0.0016518338,-0.00023324508,-0.004459071,0.032522976,-0.049245186,-0.09713964
8596000,8596000,0.0005426547,0.0010599773,-0.0028383306,-0.07375932,0.08104928,0.14649944
8608000,8608000,0.0020725748,-0.0011044187,-0.0032407725,0.06595079,-0.13948655,-0.07398128
8620000,8620000,0.001958618,0.0013861903,-0.0028117714,0.06767015,0.13242216,0.060307283
8628000,8628000,0.00032167102,-0.0008148863,-0.0022072727,-0.12696892,-0.16624421,0.049873255
8640000,8640000,0.0011581056,-0.0012669885,-0.0011114131,0.035338435,0.0017915595,0.19405532
8648000,8648000,-0.0021942367,-0.002122542,-0.003106178,-0.27827275,-0.071875736,-0.13903534
8660000,8660000,3.430096e-05,-0.002048342,-0.004286239,0.18754515,0.0069886832,-0.07555376
8668000,8668000,0.0018899799,-0.0009486382,-0.0037288084,0.20916173,0.07923055,0.02026974
8676000,8676000,0.0015560989,-0.002851633,-0.0048551913,0.014728315,-0.13187231,-0.0892125
8688000,8688000,-0.000103186816,0.0013351007,-0.0024033755,-0.0053598583,0.22569057,0.18951432
8700000,8700000,0.00093734026,0.0015786954,-0.0034395256,-0.006735511,0.1439931,-0.14886667
8708000,8708000,-0.00140377,-5.4826494e-05,-0.005893049,-0.1801113,-0.1269511,-0.21768226
8720000,8720000,-0.00017660309,0.002502721,-0.004258901,-0.012199748,0.17137899,0.0824603
8728000,8728000,-0.00075502926,0.00057949824,-0.001789904,-0.01594045,-0.13424379,0.24028724
8740000,8740000,7.469568e-05,0.00067300536,-0.0016829205,-0.008765079,0.0070250393,-0.008533709
8748000,8748000,1.0672491e-05,-0.0018399176,-0.0031196778,-0.026328716,-0.1905077,-0.08585975
8760000,8760000,-0.000541853,0.0009872993,-0.004402245,-0.021517793,0.1789808,-0.20001195
8768000,8768000,0.000748692,0.0010038903,-0.005198046,0.099805266,0.02510895,-0.09978127
8780000,8780000,0.0007170647,0.0018446988,-0.005089165,-0.008722268,0.107319236,-0.12944143
8788000,8788000,-0.00022869976,0.0009362027,-0.003304752,-0.07541917,-0.046910625,0.16753702
8800000,8800000,-0.0009802687,0.0009366106,-0.0051631182,-0.06795324,0.015097693,-0.22732039
8808000,8808000,-0.0014115281,0.0025017047,-0.0038538282,-0.028190386,0.1402518,0.06704196
8820000,8820000,0.0018043381,-0.0031911158,-0.0039267302,0.17283702,-0.4595131,-0.02688795
8828000,8828000,0.0017197258,-0.0034269053,-0.0034561832,0.015975684,-0.09956841,0.018345663
8840000,8840000,-0.0013665317,0.0025910842,-0.005630553,-0.1444896,0.2916003,-0.07228278
8848000,8848000,0.0002481803,0.0010341438,-0.0034240051,0.12667188,-0.04192439,0.14948201
8860000,8860000,0.0021212376,-0.000701698,-0.0035528673,0.11345599,-0.09925588,0.0028470831
8868000,8868000,0.0008079464,0.002998022,-0.004260097,-0.09543602,0.29372045,-0.053754784
8880000,8880000,-0.0017007175,0.0018262274,-0.0030262626,-0.17387065,-0.18190771,0.021459289
8888000,8888000,7.710385e-05,-0.0029034964,-0.0041241157,0.11547961,-0.40500504,-0.073208265
8900000,8900000,0.0022476066,0.00047355844,-0.0033315169,0.14557174,0.17521992,0.082430966
8904000,8904000,0.0043754275,-2.260739e-05,-0.0022248782,0.31166598,0.046576787,0.16592383
8920000,8920000,-0.0020147301,0.0007901401,-0.0021496343,-0.40358004,0.076649554,-0.0519791
8928000,8928000,-0.0019759084,-0.00097426167,-0.0032096643,-0.16312554,-0.13456406,-0.08982514
8940000,8940000,-1.5618163e-05,0.0010557761,-0.0033505806,0.17944828,0.15121041,-0.016374517
8948000,8948000,0.0002865952,-0.0003757123,-0.003123136,0.06313507,-0.07612743,-0.0017810775
8956000,8956000,-0.00017296185,0.0007283464,-0.0015967435,-0.0055305315,0.09045452,0.13994865
8968000,8968000,0.00038012012,0.0012181485,-0.0013319601,0.072914615,0.017262919,0.039187472
8980000,8980000,0.0019550787,-0.00092914794,-0.0012526143,0.056641743,-0.20257749,-0.012055097
8984000,8984000,0.002659858,-0.0021138992,-0.0015255674,0.10803389,-0.24281766,-0.036206488
9000000,9000000,0.00041185023,0.0018262875,-0.0025086985,-0.12590407,0.16478519,-0.13262081
9008000,9008000,-0.0013966156,0.0011619832,-0.003474237,-0.19869262,0.033657797,-0.09801878
9020000,9020000,-0.00041128125,0.0033136318,-0.0024428782,0.11233139,0.070129976,0.06317793
9028000,9028000,-0.0026992955,0.001350061,-0.0029190679,-0.18143883,-0.11747073,-0.0074509336
9040000,9040000,-0.00017674011,-0.00046861172,-0.0016484752,0.14613895,-0.23027258,0.097385176
9048000,9048000,0.0013429888,-0.00057687983,-0.003062882,0.15906805,-0.045386624,-0.10699044
9060000,9060000,0.0010146592,0.0032842087,-0.0031095645,-0.0050581284,0.22936389,0.016635496
9068000,9068000,-0.001048992,0.00092059607,-0.002290008,-0.172076,-0.1545891,0.05414563
9080000,9080000,0.0003036993,-0.0005206731,-0.0023758896,0.14122841,-0.042254664,-0.005433607
9088000,9088000,0.0013016475,0.00055728294,-0.0022547075,0.07546166,0.08494235,0.022611309
9100000,9100000,-0.0005562239,0.0020769087,-0.0011304674,-0.02749239,0.0108205965,0.074191526
9108000,9108000,4.730583e-05,0.00049153203,-0.0025873662,0.039798997,-0.11528078,-0.1155854
9120000,9120000,0.00010493514,0.0014774492,-3.3913413e-05,-0.016931659,-0.003034043,0.14604492
9128000,9128000,-0.0007094481,0.0029928656,-0.0044492385,-0.05930606,0.16251661,-0.3462941
9140000,9140000,0.00038189685,-0.0012986204,-0.0040780883,-0.028959043,-0.39311498,0.08946697
9148000,9148000,-0.0024704263,-0.0022292621,-0.0005052198,-0.23827156,-0.15015306,0.31883842
9160000,9160000,-0.00041969994,-0.0018064477,-0.005185321,0.13934623,-0.008997861,-0.29727504
9168000,9168000,-0.00086475315,-0.0017750012,-0.0019657884,-0.015879072,-0.031761356,0.20247634
9180000,9180000,0.00071464764,-0.003579651,-0.005076493,0.10802498,-0.0148823885,-0.25494292
9188000,9188000,0.0011003664,-0.0012024399,-0.0023961083,0.067208245,0.15986045,0.16974248
9200000,9200000,0.000847712,0.0011313548,-0.002903209,-0.019995624,0.18660325,0.0040085516
9208000,9208000,-0.00010895345,0.0005346583,-0.0016762784,-0.08486483,0.0178828,0.08949012
9220000,9220000,3.3004326e-05,5.2533112e-05,-0.0032506282,0.028175956,-0.12751117,-0.08723821
9228000,9228000,-0.00061393704,0.0017359117,-0.0064100707,-0.045955945,0.14293544,-0.29817593
9240000,9240000,0.0025424194,-0.001953016,-0.0031450419,0.20283055,-0.34511667,0.29440436
9248000,9248000,0.0008613613,-0.0011599688,0.00047309557,-0.086918384,0.02215674,0.36051965
9260000,9260000,0.0015482763,0.0017852252,0.0016712465,0.13100463,0.12856907,0.15277125
9268000,9268000,0.0018054016,0.00026048813,-0.0014651342,0.025692344,-0.10562269,-0.22440007
9280000,9280000,0.00090750016,-0.0033663139,-0.0031756735,-0.066631205,-0.23343815,-0.15139624
9288000,9288000,0.0017762634,-0.002244227,-0.002179509,0.06400589,0.05312085,0.07294008
9300000,9300000,0.0025413004,0.0020388516,-0.0011110815,-0.015150532,0.19048484,0.0078056413
9308000,9308000,0.00020272413,-0.00064237136,-0.0021238106,-0.19378097,-0.19360194,-0.07815403
9320000,9320000,0.00070170505,-0.00048543746,0.0016736537,0.000215929,0.12283538,0.27970892
9328000,9328000,-0.0013300042,0.0030218228,9.925221e-05,-0.18857707,0.30562466,-0.08027689
9340000,9340000,0.00065049087,0.00033096503,-0.004297339,0.14325751,-0.14939062,-0.26077792
9348000,9348000,-0.00039779663,-0.00089581404,-0.002889264,-0.048761014,-0.16889817,0.023578534
9356000,9356000,4.4297194e-06,-0.0019013081,-0.0033857631,0.008112942,-0.10694017,-0.013900848
9368000,9368000,2.3538829e-05,-0.002108214,-0.002355191,0.017028682,-0.08027876,0.011553286
9380000,9380000,-0.0023991573,-0.000705705,-0.0002064457,-0.2608406,0.09077829,0.115436
9388000,9388000,-0.0014553837,-0.003012538,-0.002325874,0.06150067,-0.16566333,-0.15408826
9400000,9400000,0.0006688189,0.002882841,-0.00082453515,-0.004898384,0.47617215,0.08260628
9404000,9404000,-0.000672559,0.0037850768,-0.0010374195,-0.14694685,0.36844134,0.024218326
9420000,9420000,0.0016094679,0.0016597265,0.0006431071,0.09479159,0.03896763,0.114742115
9428000,9428000,0.00085167494,0.0040013203,0.00048595713,-0.017068468,0.21144141,-0.0059466846
9436000,9436000,0.0009249427,0.0037341132,-0.0019390367,-0.012320151,0.009090576,-0.19042374
9444000,9444000,0.0004755585,0.0017051166,-0.0013084435,-0.03389495,-0.13535026,0.0073035485
9456000,9456000,-0.00034055475,0.0014178092,-0.0013539293,-0.071113795,-0.06381871,-0.04604692
9464000,9464000,0.0007782411,-0.0010312926,-0.003767338,0.090178564,-0.2531023,-0.22529988
9476000,9476000,-0.00033765403,-0.0014967537,-0.0023141394,-0.1372811,-0.034542665,0.03836733
9484000,9484000,-0.00021062198,0.0005899654,-0.0036437034,-0.012380522,0.165472,-0.10691575
9496000,9496000,0.001620306,0.0006325552,-0.0023496654,0.033997312,-0.009600533,0.1016431
9508000,9508000,0.0022338955,0.0012665498,-0.0031705494,0.13314688,-0.02300322,-0.030008687
9516000,9516000,-0.00071879756,-0.0003657611,-0.0018264638,-0.25291324,-0.12763125,0.09365635
9528000,9528000,0.0010192087,-0.0010242267,-0.0030029304,0.11170907,-0.055825856,-0.03208545
9540000,9540000,-0.00031642045,0.002999202,-0.0033124643,-0.022134636,0.24392629,-0.0046314406
9548000,9548000,0.0012175288,0.0016529697,-0.0020825833,0.12116764,-0.056525163,0.10317369
9560000,9560000,0.002385957,0.0011880156,-0.0040897685,-0.0025927275,-0.06824885,-0.15165013
9568000,9568000,0.0010251884,-0.002996211,-0.003041227,-0.09242829,-0.35499197,0.036857605
9580000,9580000,0.0017141062,0.0011099195,-0.0019864235,0.045153707,0.20188025,0.086318664
9588000,9588000,0.0013425255,-0.00047666812,-0.00305594,-0.043789763,-0.089129806,-0.07308491
9600000,9600000,1.4467281e-05,-0.00087637734,-0.0019227372,-0.020963013,0.023109246,0.034537368
9608000,9608000,0.002763777,-0.00011618575,9.84713e-05,0.22985107,0.07617779,0.20808797
9616000,9616000,0.00170148,-0.0013697147,0.0010296213,-0.041780315,-0.100031346,0.10953957
9628000,9628000,0.0010099978,0.0016598962,-0.0033315294,-0.023550201,0.2544747,-0.19876134
9636000,9636000,-0.00043647387,0.0045034518,-0.004549857,-0.15406328,0.30087212,-0.181614
9644000,9644000,-0.002528591,0.0026720446,-0.0026876605,-0.19550964,-0.084979154,0.1302443
9656000,9656000,-0.0024641845,0.0010486254,-0.0020420947,-0.10588556,-0.100957245,-0.04425302
9664000,9664000,0.00087660237,-0.00023105042,-0.0020245586,0.2603384,-0.1412871,0.035262782
9680000,9680000,-0.0016134378,0.0043126997,-0.0012799823,-0.04352888,0.36288667,-0.10364004
9684000,9684000,-0.0021548732,0.004113946,-0.0030218358,-0.083003744,0.18553348,-0.24628057
9700000,9700000,-0.0005481767,0.000671702,-0.0035204329,0.1472423,-0.11934926,0.11648336
9708000,9708000,0.00013455353,0.0015655574,-0.0028812569,0.06736008,0.037027825,0.09607698
9720000,9720000,0.00067143305,0.0014391416,-0.0021700913,0.05905582,-0.04653535,0.051407937
