timestamp,timestamp_sample,accel_device_id,gyro_device_id,delta_angle[0],delta_angle[1],delta_angle[2],delta_velocity[0],delta_velocity[1],delta_velocity[2],delta_angle_dt,delta_velocity_dt,delta_angle_clipping,delta_velocity_clipping,accel_calibration_count,gyro_calibration_count
3392000,3392000,1310988,1310988,1.0652716e-06,-1.81095e-05,-1.0652644e-06,-0.0008954315,0.0007565685,-0.03962404,4000,4000,0,0,0,1
3892000,3892000,1310988,1310988,-1.0652633e-05,-1.7044244e-05,6.3915845e-06,-0.0008571242,0.0007374149,-0.039767694,4000,4000,0,0,0,1
4392000,4392000,1310988,1310988,-2.0240024e-05,-2.3435823e-05,-4.261048e-06,-0.00065601134,0.00086191343,-0.039719813,4000,4000,0,0,0,1
4892000,4892000,1310988,1310988,-1.0652643e-05,-2.0240026e-05,2.1305182e-06,-0.0008283939,0.00076614524,-0.03973896,4000,4000,0,0,0,1
5392000,5392000,1310988,1310988,-1.1347886e-11,-2.8762139e-05,-6.3916136e-06,-0.0011061212,0.0007996642,-0.039748542,4000,4000,0,0,0,1
5892000,5892000,1310988,1310988,-7.4568575e-06,-2.0240022e-05,1.0652537e-06,-0.0008714895,0.0007565685,-0.03980121,4000,4000,0,0,0,1
6392000,6392000,1310988,1310988,2.130533e-06,-2.2370557e-05,-7.456852e-06,-0.0008331823,0.0006655889,-0.03970545,4000,4000,0,0,0,1
6892000,6892000,1310988,1310988,-5.3263034e-06,-3.5153742e-05,8.522092e-06,-0.0008858547,0.0007996642,-0.039863463,4000,4000,0,0,0,1
7392000,7392000,1310988,1310988,-1.0652566e-06,-2.9827414e-05,-5.326297e-06,-0.0007805097,0.00058897445,-0.03991613,4000,4000,0,0,0,1
7892000,7892000,1310988,1310988,-5.326312e-06,-2.1305294e-05,-4.261055e-06,-0.00077572133,0.00069910765,-0.039719813,4000,4000,0,0,0,1
8392000,8392000,1310988,1310988,5.326332e-06,-1.9174762e-05,-6.3915745e-06,-0.0007805098,0.00060333963,-0.039671928,4000,4000,0,0,0,1
8892000,8892000,1310988,1310988,2.1305327e-06,-2.7696879e-05,-4.261051e-06,-0.0008762779,0.0006129164,-0.039762903,4000,4000,0,0,0,1
9392000,9392000,1310988,1310988,6.3915763e-06,-3.0892672e-05,1.0652909e-06,-0.00064164604,0.00081402936,-0.039715026,4000,4000,0,0,0,1
9892000,9892000,1310988,1310988,4.261061e-06,-1.0652647e-05,-2.1305148e-06,-0.00092416187,0.0006799541,-0.03977248,4000,4000,0,0,0,1
10392000,10392000,1310988,1310988,-1.3848437e-05,-1.9174762e-05,1.0652483e-06,-0.00084275904,0.00062728155,-0.03964798,4000,4000,0,0,0,1
10892000,10892000,1310988,1310988,-3.1957995e-06,-2.3435821e-05,-1.0652493e-06,-0.0007805097,0.0005458787,-0.03975812,4000,4000,0,0,0,1
11392000,11392000,1310988,1310988,-6.391586e-06,-3.8349524e-05,1.065263e-05,-0.00063685764,0.000809241,-0.039547425,4000,4000,0,0,0,1
11892000,11892000,1310988,1310988,1.0652607e-06,-1.2783176e-05,-3.1957907e-06,-0.0008188171,0.00068474247,-0.039748542,4000,4000,0,0,0,1
12392000,12392000,1310988,1310988,5.3263525e-06,-3.3023196e-05,5.3263516e-06,-0.0006847418,0.0006703773,-0.03964798,4000,4000,0,0,0,1
12892000,12892000,1310988,1310988,-6.391586e-06,-1.3848437e-05,6.3915923e-06,-0.0008283939,0.0006416468,-0.03980121,4000,4000,0,0,0,1
13392000,13392000,1310988,1310988,-8.522119e-06,-2.1305318e-06,1.9174759e-05,-0.0005410897,0.00065601204,-0.03985868,4000,4000,0,0,0,1
13892000,13892000,1310988,1310988,-1.0652651e-05,-1.8109495e-05,-5.3263307e-06,-0.00070389535,0.0007422033,-0.03973417,4000,4000,0,0,0,1
14392000,14392000,1310988,1310988,-2.1305268e-06,-1.0652644e-05,-5.326326e-06,-0.0008140287,0.0007374149,-0.039710235,4000,4000,0,0,0,1
14892000,14892000,1310988,1310988,-8.5221245e-06,-3.3023203e-05,2.1305234e-06,-0.0008331823,0.0005506671,-0.039681505,4000,4000,0,0,0,1
15392000,15392000,1310988,1310988,-5.3263193e-06,-2.2370557e-05,1.0652712e-06,-0.00066558813,0.00060812803,-0.039662346,4000,4000,0,0,0,1
15892000,15892000,1310988,1310988,-8.522105e-06,-2.024003e-05,1.0652549e-06,-0.00064643443,0.0005123599,-0.039705448,4000,4000,0,0,0,1
16392000,16392000,1310988,1310988,6.391591e-06,-1.9174764e-05,-9.58737e-06,-0.00071347214,0.00062728155,-0.039715026,4000,4000,0,0,0,1
16892000,16892000,1310988,1310988,-1.1717907e-05,-3.0892665e-05,4.261091e-06,-0.00068474177,0.0006847425,-0.039796427,4000,4000,0,0,0,1
17392000,17392000,1310988,1310988,1.4184851e-12,-2.6631611e-05,2.1305239e-06,-0.00060812733,0.00059855124,-0.0396432,4000,4000,0,0,0,1
17892000,17892000,1310988,1310988,0.0008735161,0.0011909663,0.000101201396,-0.00063206925,0.0005506671,-0.041314352,4000,4000,0,0,0,1
18392000,18392000,1310988,1310988,-0.0003195794,-0.00027803404,-1.9174611e-05,-0.00026815062,0.00037828466,-0.043330267,4000,4000,0,0,0,1
18892000,18892000,1310988,1310988,-8.9482164e-05,-0.0001278318,-2.343581e-05,-0.00051235914,0.00030167017,-0.04037103,4000,4000,0,0,0,1
19392000,19392000,1310988,1310988,9.58738e-06,-2.1305302e-06,1.0652655e-06,-0.00057939684,0.0006751657,-0.040055,4000,4000,0,0,0,1
19892000,19892000,1310988,1310988,7.243799e-05,5.6459034e-05,-6.391501e-06,-0.0008044519,0.0007422033,-0.039466023,4000,4000,0,0,0,1
20392000,20392000,1310988,1310988,-0.00048789123,0.00051132694,1.4914092e-05,0.003162243,0.004708898,-0.03886558,4000,4000,0,0,0,1
20892000,20892000,1310988,1310988,0.00015552875,-0.00033342777,-3.7284113e-05,0.0030938287,0.004635695,-0.038119968,4000,4000,0,0,0,1
21392000,21392000,1310988,1310988,0.00026951177,-0.00033981947,-1.3849039e-05,0.0027318143,0.004201855,-0.036241002,4000,4000,0,0,0,1
21892000,21892000,1310988,1310988,0.00032490562,-0.00023329294,2.4501136e-05,0.0016107582,0.0030712222,-0.038549583,4000,4000,0,0,0,1
22392000,22392000,1310988,1310988,0.00035260254,-0.00034088476,7.98947e-05,-0.00030794507,0.0010232318,-0.036460392,4000,4000,0,0,0,1
22892000,22892000,1310988,1310988,-0.00024927175,0.00019174785,6.391589e-05,-0.0026559148,-0.0011954509,-0.036481198,4000,4000,0,0,0,1
23392000,23392000,1310988,1310988,-0.00019920444,0.00015659392,2.4501205e-05,-0.0042720367,-0.0029695902,-0.03781002,4000,4000,0,0,0,1
23892000,23892000,1310988,1310988,-4.2611405e-06,-4.9002265e-05,2.2370326e-05,-0.0053260974,-0.0042678597,-0.039007735,4000,4000,0,0,0,1
24392000,24392000,1310988,1310988,-0.00094489014,0.0006082653,2.6631458e-05,-0.0059028673,-0.004624362,-0.040465567,4000,4000,0,0,0,1
24892000,24892000,1310988,1310988,-0.00056672056,0.0005400893,2.1305128e-05,-0.006025519,-0.004521959,-0.041857146,4000,4000,0,0,0,1
25392000,25392000,1310988,1310988,0.0005560679,-0.00035153763,-9.587926e-06,-0.0055899643,-0.0037703703,-0.041905213,4000,4000,0,0,0,1
25892000,25892000,1310988,1310988,0.0008298506,-0.0004260803,-0.0040884865,-0.0046117543,-0.0029932724,-0.042928565,4000,4000,0,0,0,1
26392000,26392000,1310988,1310988,-0.0011781781,8.203485e-05,-0.00353881,-0.00356021,-0.0018794794,-0.04465429,4000,4000,0,0,0,1
26892000,26892000,1310988,1310988,-9.587374e-06,-2.4501087e-05,-1.0652633e-06,-0.0021614255,-0.00075842225,-0.0412779,4000,4000,0,0,0,1
27392000,27392000,1310988,1310988,-1.0652485e-06,-2.343582e-05,-5.326336e-06,-0.0009945014,0.0004420204,-0.039842825,4000,4000,0,0,0,1
27892000,27892000,1310988,1310988,3.1957995e-06,-1.81095e-05,-5.326319e-06,0.0003143845,0.0016455615,-0.038620126,4000,4000,0,0,0,1
28392000,28392000,1310988,1310988,1.0652626e-06,-2.2370557e-05,3.675886e-12,0.0012553422,0.0028498815,-0.037535522,4000,4000,0,0,0,1
28892000,28892000,1310988,1310988,9.58737e-06,-1.5978969e-05,1.0652654e-05,0.0023477098,0.0040428047,-0.036256403,4000,4000,0,0,0,1
29392000,29392000,1310988,1310988,1.0652602e-06,-2.3435821e-05,-3.195792e-06,0.0030250368,0.0044902884,-0.035804138,4000,4000,0,0,0,1
29892000,29892000,1310988,1310988,-0.0001438107,-2.237062e-05,-2.1305468e-06,0.003071074,0.004837996,-0.035944846,4000,4000,0,0,0,1
30392000,30392000,1310988,1310988,-0.0022945795,-2.6632015e-05,-2.131408e-06,-0.0007613562,0.0053773783,-0.04076368,4000,4000,0,0,0,1
30892000,30892000,1310988,1310988,-0.00030888926,0.00043674983,-0.003724169,-0.0007852981,0.0022984345,-0.0474435,4000,4000,0,0,0,1
31392000,31392000,1310988,1310988,0.0017086825,0.0034642743,-0.006835786,-0.00528161,0.002738968,-0.042176265,4000,4000,0,0,0,1
31892000,31892000,1310988,1310988,0.00043463035,0.0007329013,-0.00067537697,-0.0041802768,0.0006320699,-0.03735913,4000,4000,0,0,0,1
32392000,32392000,1310988,1310988,0.00026418563,0.00010226536,5.645917e-05,-0.0026862947,0.0008044525,-0.037933737,4000,4000,0,0,0,1
32892000,32892000,1310988,1310988,9.267798e-05,-0.00011504859,1.5978972e-05,-0.0011779475,0.00088106695,-0.03795768,4000,4000,0,0,0,1
33392000,33392000,1310988,1310988,7.4563213e-06,-0.00050173956,2.0240372e-05,-0.0002202666,0.00090022053,-0.03823062,4000,4000,0,0,0,1
33892000,33892000,1310988,1310988,-3.94148e-05,-0.00053902384,2.5566316e-05,0.0002777274,0.00064643513,-0.038704667,4000,4000,0,0,0,1
34392000,34392000,1310988,1310988,-2.7696768e-05,-0.00025885928,6.3914945e-06,0.00012928691,0.00056503236,-0.038407784,4000,4000,0,0,0,1
34892000,34892000,1310988,1310988,-3.9414816e-05,-0.000101200116,2.1305315e-05,4.788404e-06,0.0005171483,-0.038723823,4000,4000,0,0,0,1
35392000,35392000,1310988,1310988,-2.130527e-05,-7.669905e-05,9.587392e-06,-0.0001628057,0.0006416468,-0.039485183,4000,4000,0,0,0,1
35892000,35892000,1310988,1310988,-2.2370567e-05,-3.6218993e-05,8.522118e-06,-0.00063206925,0.000584186,-0.0392697,4000,4000,0,0,0,1
36392000,36392000,1310988,1310988,-7.563378e-05,3.728428e-05,1.17179015e-05,-0.0006560114,0.00057460915,-0.0386089,4000,4000,0,0,0,1
36892000,36892000,1310988,1310988,2.6631591e-05,5.219796e-05,-1.7044256e-05,-0.0009528924,0.00070868444,-0.03904943,4000,4000,0,0,0,1
37392000,37392000,1310988,1310988,2.343584e-05,2.1305288e-05,1.2783146e-05,-0.0009433156,0.00063206995,-0.03938941,4000,4000,0,0,0,1
37892000,37892000,1310988,1310988,2.1305286e-05,4.261074e-06,5.3263243e-06,-0.0008810663,0.0006560121,-0.03943729,4000,4000,0,0,0,1
38392000,38392000,1310988,1310988,-5.3263226e-05,4.2610486e-06,-1.0652409e-06,-0.0010151415,0.0006320699,-0.039149992,4000,4000,0,0,0,1
38892000,38892000,1310988,1310988,-2.9827403e-05,9.587351e-06,-1.704426e-05,-0.0008858547,0.00062728155,-0.039494753,4000,4000,0,0,0,1
39392000,39392000,1310988,1310988,2.3435818e-05,-2.6631615e-05,-5.3263293e-06,-0.0009002199,0.00066080043,-0.03940857,4000,4000,0,0,0,1
39892000,39892000,1310988,1310988,4.580636e-05,-1.9174828e-05,-7.4567984e-06,-0.000746991,0.0006464352,-0.039446875,4000,4000,0,0,0,1
40392000,40392000,1310988,1310988,-7.456852e-06,8.522116e-06,-6.3915895e-06,-0.00084754743,0.0005506671,-0.03947081,4000,4000,0,0,0,1
40892000,40892000,1310988,1310988,-7.456851e-05,-3.1958002e-06,-4.005706e-11,-0.0009050083,0.00047405268,-0.039398983,4000,4000,0,0,0,1
41392000,41392000,1310988,1310988,3.408847e-05,-3.4088473e-05,-1.1717895e-05,-0.0009576808,0.00069431926,-0.039571367,4000,4000,0,0,0,1
41892000,41892000,1310988,1310988,4.1545278e-05,-5.5393783e-05,-2.1305486e-06,-0.0008331823,0.0007422033,-0.039547425,4000,4000,0,0,0,1
42392000,42392000,1310988,1310988,-4.367585e-05,1.2783175e-05,1.6393843e-11,-0.00083797064,0.0005746092,-0.039341528,4000,4000,0,0,0,1
42892000,42892000,1310988,1310988,-6.28506e-05,3.195782e-06,-4.2610473e-06,-0.0009241618,0.00058418605,-0.039418142,4000,4000,0,0,0,1
43392000,43392000,1310988,1310988,1.9174777e-05,-4.367584e-05,-3.1957836e-06,-0.00080924033,0.0005698208,-0.03942293,4000,4000,0,0,0,1
43892000,43892000,1310988,1310988,3.1957927e-05,-6.1785344e-05,-3.1958086e-06,-0.0008858547,0.00078051054,-0.039427713,4000,4000,0,0,0,1
44392000,44392000,1310988,1310988,-4.4741108e-05,1.1717925e-05,2.130574e-06,-0.0008523358,0.000454899,-0.039154775,4000,4000,0,0,0,1
44892000,44892000,1310988,1310988,-6.1785344e-05,6.3915977e-06,9.58737e-06,-0.0008283939,0.0006608005,-0.039451662,4000,4000,0,0,0,1
45392000,45392000,1310988,1310988,3.302318e-05,-3.3023225e-05,1.1149792e-11,-0.0008906431,0.00058897445,-0.039375048,4000,4000,0,0,0,1
45892000,45892000,1310988,1310988,5.326323e-05,-6.072008e-05,1.0652732e-06,-0.00077093294,0.0005506671,-0.03936547,4000,4000,0,0,0,1
46392000,46392000,1310988,1310988,-1.7044234e-05,2.4501085e-05,-6.391583e-06,-0.0007948751,0.00062249316,-0.039432503,4000,4000,0,0,0,1
46892000,46892000,1310988,1310988,-3.515373e-05,-8.522139e-06,-9.587363e-06,-0.0007852981,0.00061770476,-0.039274484,4000,4000,0,0,0,1
47392000,47392000,1310988,1310988,3.8349506e-05,-4.0480063e-05,-1.0652616e-06,-0.00080924033,0.0005698208,-0.039394196,4000,4000,0,0,0,1
47892000,47892000,1310988,1310988,4.4741115e-05,-5.539375e-05,-2.130593e-06,-0.0009097967,0.0005985512,-0.03925534,4000,4000,0,0,0,1
48392000,48392000,1310988,1310988,-6.3915875e-05,3.1957939e-06,1.2538449e-11,-0.00083797064,0.0005458786,-0.03914042,4000,4000,0,0,0,1
48892000,48892000,1310988,1310988,-2.7696873e-05,3.302321e-05,-7.4568557e-06,-0.0008523358,0.00076614524,-0.03936068,4000,4000,0,0,0,1
49392000,49392000,1310988,1310988,5.3263734e-06,-5.752428e-05,-7.4568547e-06,-0.0008331823,0.00058897445,-0.039389405,4000,4000,0,0,0,1
49892000,49892000,1310988,1310988,1.171794e-05,-7.030746e-05,8.522144e-06,-0.00077093294,0.0006464352,-0.039351102,4000,4000,0,0,0,1
50392000,50392000,1310988,1310988,-0.0005123925,0.0005134573,2.3435781e-05,0.0033058953,0.0047280514,-0.039229494,4000,4000,0,0,0,1
50892000,50892000,1310988,1310988,0.00011504857,-0.00012144016,8.522124e-06,0.0031512894,0.004578233,-0.038139116,4000,4000,0,0,0,1
51392000,51392000,1310988,1310988,0.000128897,-0.00018748658,-4.2611696e-06,0.0028132168,0.004177913,-0.038070172,4000,4000,0,0,0,1
51892000,51892000,1310988,1310988,0.0001629854,-0.00015659405,-1.2782794e-05,0.0018022925,0.003200507,-0.037218407,4000,4000,0,0,0,1
52392000,52392000,1310988,1310988,0.00071798783,-0.0006317025,5.3265485e-06,0.00010385564,0.0015691079,-0.035885785,4000,4000,0,0,0,1
52892000,52892000,1310988,1310988,0.0004527371,-0.0004846957,2.9827122e-05,-0.0016311981,-0.00033354014,-0.036672737,4000,4000,0,0,0,1
53392000,53392000,1310988,1310988,5.0067323e-05,-0.00012250546,8.522106e-06,-0.0034101258,-0.002179506,-0.037675943,4000,4000,0,0,0,1
53892000,53892000,1310988,1310988,-0.00010439593,1.8109467e-05,4.261018e-06,-0.0050723124,-0.0037842318,-0.03802611,4000,4000,0,0,0,1
54392000,54392000,1310988,1310988,-0.0003973437,0.00031638352,-5.326965e-06,-0.0063242475,-0.0048254775,-0.0391727,4000,4000,0,0,0,1
54892000,54892000,1310988,1310988,-0.00046445563,0.00043143186,-2.1307396e-06,-0.0068922197,-0.0053647193,-0.040636107,4000,4000,0,0,0,1
55392000,55392000,1310988,1310988,0.00047404278,-0.000519849,7.456544e-06,-0.0072323857,-0.0056139044,-0.03969297,4000,4000,0,0,0,1
55892000,55892000,1310988,1310988,-0.002103891,0.0025917934,-0.00018855688,-0.0071017197,-0.0057753315,-0.041999605,4000,4000,0,0,0,1
56392000,56392000,1310988,1310988,-0.000100180936,0.003209642,-0.0016958995,-0.018049914,-0.0163213,-0.056414608,4000,4000,0,0,0,1
56892000,56892000,1310988,1310988,7.456719e-05,-0.00039095126,0.00069242256,-0.0060112947,-0.0017208841,-0.039434355,4000,4000,0,0,0,1
57392000,57392000,1310988,1310988,7.943521e-12,-2.2370557e-05,7.4568534e-06,-0.0011620953,0.00020260038,-0.039450176,4000,4000,0,0,0,1
57892000,57892000,1310988,1310988,1.040223e-11,-1.8109498e-05,7.4568547e-06,0.00022340503,0.0014971213,-0.038184386,4000,4000,0,0,0,1
58392000,58392000,1310988,1310988,-1.1717921e-05,-8.522119e-06,9.587365e-06,0.0014085713,0.0025482122,-0.03694176,4000,4000,0,0,0,1
58892000,58892000,1310988,1310988,-2.130529e-06,-3.515373e-05,-2.1305268e-06,0.002323768,0.003616637,-0.03614148,4000,4000,0,0,0,1
59392000,59392000,1310988,1310988,-2.450108e-05,-1.9174766e-05,-3.1958e-06,0.0030489762,0.0042125583,-0.035454575,4000,4000,0,0,0,1
59892000,59892000,1310988,1310988,1.0652647e-06,-1.2783175e-05,-6.9372745e-12,0.0031381107,0.004349578,-0.03517391,4000,4000,0,0,0,1
60392000,60392000,1310988,1310988,-1.1717906e-05,-3.834952e-05,1.0652844e-06,-0.0008523358,0.00043095704,-0.03904464,4000,4000,0,0,0,1
60892000,60892000,1310988,1310988,0.00028655614,-2.343609e-05,6.3915695e-06,-0.0009145851,0.00038307297,-0.039571367,4000,4000,0,0,0,1
61392000,61392000,1310988,1310988,0.0007616642,-7.456512e-06,-2.1299263e-06,-0.00080924033,-0.0026001022,-0.03801992,4000,4000,0,0,0,1
61892000,61892000,1310988,1310988,0.00014274544,-1.5978989e-05,5.3263684e-06,-0.0008714895,-0.0049320557,-0.038671147,4000,4000,0,0,0,1
62392000,62392000,1310988,1310988,-0.00015766102,0.00031638282,0.0015243937,-0.0010678141,-0.0017956507,-0.039782062,4000,4000,0,0,0,1
62892000,62892000,1310988,1310988,-8.841674e-05,0.0001235707,-0.001276187,-0.00069910695,-0.00044053246,-0.039729387,4000,4000,0,0,0,1
63392000,63392000,1310988,1310988,-2.237055e-05,-2.6631616e-05,1.065278e-06,-0.0008523358,0.00030645856,-0.039106894,4000,4000,0,0,0,1
63892000,63892000,1310988,1310988,-1.0652643e-05,-8.5221145e-06,-4.2610704e-06,-0.00072304904,0.00041180346,-0.03908774,4000,4000,0,0,0,1
64392000,64392000,1310988,1310988,-5.3263234e-06,-1.3848437e-05,6.3915904e-06,-0.0007565678,0.00048841786,-0.039145205,4000,4000,0,0,0,1
64892000,64892000,1310988,1310988,4.2617103e-06,0.0009331717,5.326016e-06,-0.0008667011,0.0005554555,-0.04059609,4000,4000,0,0,0,1
65392000,65392000,1310988,1310988,-1.5979362e-05,-0.0008809738,-3.1958718e-06,0.00056503166,0.00043574543,-0.038848322,4000,4000,0,0,0,1
65892000,65892000,1310988,1310988,-3.1958034e-06,-1.0652643e-05,1.0652643e-05,-0.00080924033,0.00030645856,-0.039092522,4000,4000,0,0,0,1
66392000,66392000,1310988,1310988,-1.2783167e-05,-1.2783182e-05,1.0652747e-06,-0.0008523358,0.00044053383,-0.039207447,4000,4000,0,0,0,1
66892000,66892000,1310988,1310988,-1.17179225e-05,-6.3915763e-06,1.4913699e-05,-0.00071826053,0.00054587866,-0.03921224,4000,4000,0,0,0,1
67392000,67392000,1310988,1310988,-7.4568793e-06,-2.876213e-05,-1.1717926e-05,-0.0008188171,0.0004836295,-0.0391883,4000,4000,0,0,0,1
67892000,67892000,1310988,1310988,1.0652553e-06,-2.6631613e-05,-1.49137e-05,-0.0006991069,0.00037349618,-0.039164353,4000,4000,0,0,0,1
68392000,68392000,1310988,1310988,-5.326317e-06,-1.0652649e-05,-2.1305236e-06,-0.0006703765,0.00042138022,-0.039154775,4000,4000,0,0,0,1
68892000,68892000,1310988,1310988,-9.587371e-06,-2.2370561e-05,2.130539e-06,-0.00073262583,0.00033997736,-0.039126046,4000,4000,0,0,0,1
69392000,69392000,1310988,1310988,7.4568616e-06,-2.7696875e-05,6.513885e-13,-0.00065601134,0.0004788411,-0.03921224,4000,4000,0,0,0,1
69892000,69892000,1310988,1310988,-1.4913702e-05,-1.8109502e-05,6.3915872e-06,-0.0008331823,0.00043095704,-0.039126046,4000,4000,0,0,0,1
70392000,70392000,1310988,1310988,-1.0652614e-06,-3.089267e-05,-3.1957964e-06,-0.0009385272,0.00044053383,-0.0391883,4000,4000,0,0,0,1
70892000,70892000,1310988,1310988,-7.456854e-06,-1.9174764e-05,6.3915754e-06,-0.00062728085,0.00043574543,-0.039111685,4000,4000,0,0,0,1
71392000,71392000,1310988,1310988,-4.2610463e-06,-2.1305294e-05,5.3263193e-06,-0.00070868374,0.00041180346,-0.03904464,4000,4000,0,0,0,1
71892000,71892000,1310988,1310988,6.391588e-06,-2.343582e-05,2.130548e-06,-0.00071826053,0.0004022266,-0.039164353,4000,4000,0,0,0,1
72392000,72392000,1310988,1310988,-1.1717913e-05,-2.6631615e-05,9.587372e-06,-0.00055545487,0.00033518896,-0.03918351,4000,4000,0,0,0,1
72892000,72892000,1310988,1310988,-1.0652646e-05,-1.8109498e-05,2.1305402e-06,-0.00072304904,0.0004022266,-0.039135627,4000,4000,0,0,0,1
73392000,73392000,1310988,1310988,-1.9174755e-05,-2.2370557e-05,-8.522128e-06,-0.00073741423,0.00044532225,-0.03918351,4000,4000,0,0,0,1
73892000,73892000,1310988,1310988,3.1958175e-06,-2.876214e-05,-6.3915877e-06,-0.00090500835,0.00046926425,-0.039121255,4000,4000,0,0,0,1
74392000,74392000,1310988,1310988,-7.4568484e-06,-2.3435823e-05,1.0652409e-06,-0.00063685764,0.00034476578,-0.039308004,4000,4000,0,0,0,1
74892000,74892000,1310988,1310988,-6.3915913e-06,-2.2370556e-05,-1.0652701e-06,-0.0008906431,0.0002729397,-0.039092522,4000,4000,0,0,0,1
75392000,75392000,1310988,1310988,-7.456854e-06,-1.7044236e-05,5.326315e-06,-0.0007422026,0.00041180346,-0.039154775,4000,4000,0,0,0,1
75892000,75892000,1310988,1310988,-1.0652607e-06,-1.0652647e-05,-6.3915845e-06,-0.00077572133,0.00018196004,-0.03921224,4000,4000,0,0,0,1
76392000,76392000,1310988,1310988,7.4568443e-06,-1.3848443e-05,3.1957902e-06,-0.00058897375,0.00023942089,-0.03909732,4000,4000,0,0,0,1
76892000,76892000,1310988,1310988,-1.0652638e-05,-2.1305294e-05,-3.1958e-06,-0.0008188171,0.0005171483,-0.03904464,4000,4000,0,0,0,1
77392000,77392000,1310988,1310988,-1.065265e-05,-2.0240024e-05,4.261047e-06,-0.0007948751,0.000584186,-0.039164353,4000,4000,0,0,0,1
77892000,77892000,1310988,1310988,-1.1717937e-05,-3.5153727e-05,6.3915836e-06,-0.000746991,0.00033518896,-0.039063804,4000,4000,0,0,0,1
78392000,78392000,1310988,1310988,-7.4568543e-06,-1.3848437e-05,-1.19678495e-11,-0.00069910695,0.00045489904,-0.039020706,4000,4000,0,0,0,1
78892000,78892000,1310988,1310988,-1.0652637e-05,-1.1717923e-05,6.3915777e-06,-0.0007852982,0.0005363019,-0.03898719,4000,4000,0,0,0,1
79392000,79392000,1310988,1310988,1.0652645e-06,-1.0652645e-05,-1.0652659e-06,-0.0006560114,0.0003926498,-0.03921703,4000,4000,0,0,0,1
79892000,79892000,1310988,1310988,-7.4568534e-06,-2.3435821e-05,2.1305289e-06,-0.0007805097,0.00041180346,-0.039154775,4000,4000,0,0,0,1
80392000,80392000,1310988,1310988,-7.4568784e-06,-2.5566349e-05,1.3848427e-05,0.0031478778,0.004153443,-0.035154566,4000,4000,0,0,0,1
80892000,80892000,1310988,1310988,-1.0652523e-06,0.00026951192,3.1956988e-06,0.0019781298,0.003725898,-0.03837375,4000,4000,0,0,0,1
81392000,81392000,1310988,1310988,-0.004960913,0.002619497,0.004786251,0.009296715,0.006533807,-0.037045456,4000,4000,0,0,0,1
81892000,81892000,1310988,1310988,0.00047400966,0.0132412175,-0.00025483928,0.12238867,-0.012562919,0.0032436,4000,4000,0,0,0,1
82392000,82392000,1310988,1310988,-0.0018512824,0.034133263,-0.0035947678,-0.025178917,0.0017750086,-0.007145788,4000,4000,0,0,0,1
82892000,82892000,1310988,1310988,-5.3263157e-06,-1.1717914e-05,-2.130529e-06,-0.0017269665,-0.0007070371,0.038380705,4000,4000,0,0,0,1
83392000,83392000,1310988,1310988,-7.4568557e-06,-2.6631611e-05,-9.587381e-06,-0.0028642481,-0.0019544521,0.037128504,4000,4000,0,0,0,1
83892000,83892000,1310988,1310988,1.0652566e-06,-1.4913699e-05,7.456864e-06,-0.003956615,-0.0027355726,0.036237244,4000,4000,0,0,0,1
84392000,84392000,1310988,1310988,-2.1305304e-06,-2.8762142e-05,1.0652695e-06,-0.0045429617,-0.00335065,0.035535987,4000,4000,0,0,0,1
84892000,84892000,1310988,1310988,-1.7044238e-05,-3.515373e-05,-2.898326e-11,-0.0047996882,-0.003583434,0.03537502,4000,4000,0,0,0,1
85392000,85392000,1310988,1310988,-7.4568597e-06,-1.3848435e-05,2.1305298e-06,-0.004689743,-0.0036027757,0.03548017,4000,4000,0,0,0,1
85892000,85892000,1310988,1310988,-6.391591e-06,-1.2783174e-05,3.1957952e-06,-0.004233466,-0.0030124234,0.036051378,4000,4000,0,0,0,1
86392000,86392000,1310988,1310988,-5.3263257e-06,-1.9174759e-05,-2.6056534e-11,-0.003406975,-0.0023008543,0.0368252,4000,4000,0,0,0,1
86892000,86892000,1310988,1310988,-9.58737e-06,-1.704424e-05,-5.326322e-06,-0.0023050772,-0.0012085332,0.03796061,4000,4000,0,0,0,1
87392000,87392000,1310988,1310988,-3.1958039e-06,-2.2370554e-05,7.4568566e-06,-0.001042385,0.00021696441,0.039117955,4000,4000,0,0,0,1
87892000,87892000,1310988,1310988,-3.1957898e-06,-2.5566353e-05,-2.1305245e-06,4.1445852e-05,0.0011092592,0.0403646,4000,4000,0,0,0,1
88392000,88392000,1310988,1310988,1.4184857e-12,-7.4568493e-06,-3.1957998e-06,0.0012936499,0.0022800604,0.04157849,4000,4000,0,0,0,1
88892000,88892000,1310988,1310988,-4.2610586e-06,-2.7696877e-05,-1.0652769e-06,0.002194481,0.0033772157,0.042493694,4000,4000,0,0,0,1
89392000,89392000,1310988,1310988,-7.1869945e-12,-1.7044234e-05,-3.195791e-06,0.0028478631,0.0038917346,0.043295506,4000,4000,0,0,0,1
89892000,89892000,1310988,1310988,-4.261068e-06,-2.876215e-05,1.1717889e-05,0.0032003599,0.004349577,0.043379858,4000,4000,0,0,0,1
90392000,90392000,1310988,1310988,-2.1305339e-06,1.0652664e-06,6.3915854e-06,-0.0008140287,0.00017238186,0.039264914,4000,4000,0,0,0,1
90892000,90892000,1310988,1310988,-1.3848432e-05,-2.4501087e-05,-6.3915936e-06,-0.0008714895,0.00016280502,0.03925055,4000,4000,0,0,0,1
91392000,91392000,1310988,1310988,1.0652758e-06,-2.6631613e-05,-3.1957875e-06,-0.0008236055,9.5767384e-05,0.039346315,4000,4000,0,0,0,1
91892000,91892000,1310988,1310988,-6.3915877e-06,-2.3435821e-05,-9.487341e-12,-0.00070389535,0.0001244978,0.039446875,4000,4000,0,0,0,1
92392000,92392000,1310988,1310988,2.130531e-06,-9.58738e-06,-1.065265e-06,-0.00092416187,0.000114921,0.03937026,4000,4000,0,0,0,1
92892000,92892000,1310988,1310988,-7.456877e-06,-2.3435818e-05,1.17179015e-05,-0.0007805097,0.00014365143,0.039451662,4000,4000,0,0,0,1
93392000,93392000,1310988,1310988,2.6478403e-12,-1.81095e-05,-1.065252e-06,-0.000675165,0.00013886302,0.039418142,4000,4000,0,0,0,1
93892000,93892000,1310988,1310988,-6.391575e-06,-2.0240028e-05,1.0652564e-06,-0.0008954315,3.830655e-05,0.039346315,4000,4000,0,0,0,1
94392000,94392000,1310988,1310988,-4.917417e-12,-2.556635e-05,1.0652573e-06,-0.00059376215,0.00013407464,0.039360676,4000,4000,0,0,0,1
94892000,94892000,1310988,1310988,-3.2152345e-12,-1.4913702e-05,3.1958014e-06,-0.0008714895,0.00011492101,0.039413355,4000,4000,0,0,0,1
95392000,95392000,1310988,1310988,1.0652714e-06,-3.4088465e-05,-6.3916095e-06,-0.00070868374,0.00017717025,0.03936068,4000,4000,0,0,0,1
95892000,95892000,1310988,1310988,-9.587366e-06,-2.024003e-05,-1.0652801e-06,-0.00080924033,0.00013407462,0.039389405,4000,4000,0,0,0,1
96392000,96392000,1310988,1310988,-3.1957945e-06,-1.1717911e-05,-3.1957934e-06,-0.00073741423,0.00018195868,0.03931279,4000,4000,0,0,0,1
96892000,96892000,1310988,1310988,1.0652842e-06,-2.4501081e-05,-5.3263343e-06,-0.00073741423,6.224856e-05,0.039288856,4000,4000,0,0,0,1
97392000,97392000,1310988,1310988,-1.0652577e-06,-1.4913702e-05,-2.1305427e-06,-0.0008140287,0.00026814995,0.039418142,4000,4000,0,0,0,1
97892000,97892000,1310988,1310988,-5.326332e-06,-2.663161e-05,-5.3263257e-06,-0.0008236055,0.00019153545,0.03936547,4000,4000,0,0,0,1
98392000,98392000,1310988,1310988,4.2610695e-06,-2.0240028e-05,-8.522102e-06,-0.0009959879,0.00025857313,0.039279275,4000,4000,0,0,0,1
98892000,98892000,1310988,1310988,2.130526e-06,-1.917476e-05,-1.0652577e-06,-0.0008331823,0.00022984268,0.03943729,4000,4000,0,0,0,1
99392000,99392000,1310988,1310988,-7.4568447e-06,-1.9174764e-05,-3.1957898e-06,-0.0008236055,0.00021547748,0.03933674,4000,4000,0,0,0,1
