timestamp,timestamp_sample,q[0],q[1],q[2],q[3],delta_q_reset[0],delta_q_reset[1],delta_q_reset[2],delta_q_reset[3],quat_reset_counter
3228000,0,0.70711,6.9576876e-05,7.000189e-05,0.70711,0.0,0.0,0.0,0.0,0
3232000,0,0.70711,6.968445e-05,7.010947e-05,0.70711,0.0,0.0,0.0,0.0,0
3240000,0,0.70711,6.989961e-05,7.0324626e-05,0.70711,0.0,0.0,0.0,0.0,0
3248000,0,0.70711,7.0114766e-05,7.053979e-05,0.70711,0.0,0.0,0.0,0.0,0
3260000,0,0.70711,7.0437505e-05,7.086252e-05,0.70711,0.0,0.0,0.0,0.0,0
3268000,0,0.70711,7.065266e-05,7.107768e-05,0.70711,0.0,0.0,0.0,0.0,0
3280000,0,0.70711,7.09754e-05,7.140042e-05,0.70711,0.0,0.0,0.0,0.0,0
3288000,0,0.70711,7.119056e-05,7.161558e-05,0.70711,0.0,0.0,0.0,0.0,0
3300000,0,0.70711,7.15133e-05,7.193832e-05,0.70711,0.0,0.0,0.0,0.0,0
3308000,0,0.70711,7.172846e-05,7.2153474e-05,0.70711,0.0,0.0,0.0,0.0,0
3320000,0,0.70711,7.2051196e-05,7.2476214e-05,0.70711,0.0,0.0,0.0,0.0,0
3328000,0,0.70711,7.226635e-05,7.269137e-05,0.70711,0.0,0.0,0.0,0.0,0
3340000,0,0.70711,7.258909e-05,7.301411e-05,0.70711,0.0,0.0,0.0,0.0,0
3348000,0,0.70711,7.280425e-05,7.322927e-05,0.70711,0.0,0.0,0.0,0.0,0
3360000,0,0.70711,7.312699e-05,7.355201e-05,0.70711,0.0,0.0,0.0,0.0,0
3368000,0,0.70711,7.334215e-05,7.3767165e-05,0.70711,0.0,0.0,0.0,0.0,0
3380000,0,0.70711,7.366489e-05,7.4089905e-05,0.70711,0.0,0.0,0.0,0.0,0
3388000,0,0.70711,7.3880045e-05,7.430506e-05,0.70711,0.0,0.0,0.0,0.0,0
3400000,0,0.70711,7.4202784e-05,7.46278e-05,0.70711,0.0,0.0,0.0,0.0,0
3408000,0,0.70711,7.441794e-05,7.484296e-05,0.70711,0.0,0.0,0.0,0.0,0
3420000,0,0.70711,7.474068e-05,7.51657e-05,0.70711,0.0,0.0,0.0,0.0,0
3428000,0,0.70711,7.495584e-05,7.5380856e-05,0.70711,0.0,0.0,0.0,0.0,0
3440000,0,0.70711,7.527858e-05,7.5703596e-05,0.70711,0.0,0.0,0.0,0.0,0
3448000,0,0.70711,7.5493735e-05,7.591875e-05,0.70711,0.0,0.0,0.0,0.0,0
3460000,0,0.70711,7.5816475e-05,7.624149e-05,0.70711,0.0,0.0,0.0,0.0,0
3468000,0,0.70711,7.603163e-05,7.645665e-05,0.70711,0.0,0.0,0.0,0.0,0
3480000,0,0.70711,7.635437e-05,7.677939e-05,0.70711,0.0,0.0,0.0,0.0,0
3488000,0,0.70711,7.656954e-05,7.699455e-05,0.70711,0.0,0.0,0.0,0.0,0
3500000,0,0.70711,7.689228e-05,7.731729e-05,0.70711,0.0,0.0,0.0,0.0,0
3508000,0,0.70711,7.7107434e-05,7.753245e-05,0.70711,0.0,0.0,0.0,0.0,0
3520000,0,0.70711,7.743017e-05,7.785519e-05,0.70711,0.0,0.0,0.0,0.0,0
3528000,0,0.70711,7.764533e-05,7.807035e-05,0.70711,0.0,0.0,0.0,0.0,0
3540000,0,0.70711,7.796807e-05,7.839309e-05,0.70711,0.0,0.0,0.0,0.0,0
3548000,0,0.70711,7.818323e-05,7.8608246e-05,0.70711,0.0,0.0,0.0,0.0,0
3560000,0,0.70711,7.850597e-05,7.8930985e-05,0.70711,0.0,0.0,0.0,0.0,0
3568000,0,0.70711,7.872113e-05,7.914614e-05,0.70711,0.0,0.0,0.0,0.0,0
3580000,0,0.70711,7.904387e-05,7.946888e-05,0.70711,0.0,0.0,0.0,0.0,0
3588000,0,0.70711,7.925903e-05,7.968405e-05,0.70711,0.0,0.0,0.0,0.0,0
3600000,0,0.70711,7.958177e-05,8.000679e-05,0.70711,0.0,0.0,0.0,0.0,0
3608000,0,0.70711,7.979693e-05,8.0221944e-05,0.70711,0.0,0.0,0.0,0.0,0
3620000,0,0.70711,8.011967e-05,8.054468e-05,0.70711,0.0,0.0,0.0,0.0,0
3628000,0,0.70711,8.033483e-05,8.075985e-05,0.70711,0.0,0.0,0.0,0.0,0
3640000,0,0.70711,8.065757e-05,8.108259e-05,0.70711,0.0,0.0,0.0,0.0,0
3648000,0,0.70711,8.0872735e-05,8.1297745e-05,0.70711,0.0,0.0,0.0,0.0,0
3660000,0,0.70711,8.1195474e-05,8.1620485e-05,0.70711,0.0,0.0,0.0,0.0,0
3668000,0,0.70711,8.141063e-05,8.183565e-05,0.70711,0.0,0.0,0.0,0.0,0
3680000,0,0.70711,8.173337e-05,8.215839e-05,0.70711,0.0,0.0,0.0,0.0,0
3688000,0,0.70711,8.1948536e-05,8.2373546e-05,0.70711,0.0,0.0,0.0,0.0,0
3700000,0,0.70711,8.2271275e-05,8.2696286e-05,0.70711,0.0,0.0,0.0,0.0,0
3708000,0,0.70711,8.248643e-05,8.291145e-05,0.70711,0.0,0.0,0.0,0.0,0
3720000,0,0.70711,8.280917e-05,8.323419e-05,0.70711,0.0,0.0,0.0,0.0,0
3728000,0,0.70711,8.302434e-05,8.344935e-05,0.70711,0.0,0.0,0.0,0.0,0
3740000,0,0.70711,8.334708e-05,8.377209e-05,0.70711,0.0,0.0,0.0,0.0,0
3748000,0,0.70711,8.356224e-05,8.398725e-05,0.70711,0.0,0.0,0.0,0.0,0
3760000,0,0.70711,8.388498e-05,8.430999e-05,0.70711,0.0,0.0,0.0,0.0,0
3768000,0,0.70711,8.410014e-05,8.4525156e-05,0.70711,0.0,0.0,0.0,0.0,0
3780000,0,0.70711,8.442288e-05,8.4847896e-05,0.70711,0.0,0.0,0.0,0.0,0
3788000,0,0.70711,8.463804e-05,8.506305e-05,0.70711,0.0,0.0,0.0,0.0,0
3800000,0,0.70711,8.496078e-05,8.53858e-05,0.70711,0.0,0.0,0.0,0.0,0
3808000,0,0.70711,8.517595e-05,8.560096e-05,0.70711,0.0,0.0,0.0,0.0,0
3820000,0,0.70711,8.549869e-05,8.59237e-05,0.70711,0.0,0.0,0.0,0.0,0
3828000,0,0.70711,8.571385e-05,8.613886e-05,0.70711,0.0,0.0,0.0,0.0,0
3840000,0,0.70711,8.603659e-05,8.64616e-05,0.70711,0.0,0.0,0.0,0.0,0
3848000,0,0.70711,8.625175e-05,8.6676766e-05,0.70711,0.0,0.0,0.0,0.0,0
3860000,0,0.70711,8.6574495e-05,8.6999506e-05,0.70711,0.0,0.0,0.0,0.0,0
3868000,0,0.70711,8.678965e-05,8.721466e-05,0.70711,0.0,0.0,0.0,0.0,0
3880000,0,0.70711,8.71124e-05,8.753741e-05,0.70711,0.0,0.0,0.0,0.0,0
3888000,0,0.70711,8.732756e-05,8.775257e-05,0.70711,0.0,0.0,0.0,0.0,0
3900000,0,0.70711,8.76503e-05,8.8075314e-05,0.70711,0.0,0.0,0.0,0.0,0
3908000,0,0.70711,8.786546e-05,8.829047e-05,0.70711,0.0,0.0,0.0,0.0,0
3920000,0,0.70711,8.818821e-05,8.861322e-05,0.70711,0.0,0.0,0.0,0.0,0
3928000,0,0.70711,8.8403365e-05,8.8828376e-05,0.70711,0.0,0.0,0.0,0.0,0
3940000,0,0.70711,8.872611e-05,8.915112e-05,0.70711,0.0,0.0,0.0,0.0,0
3948000,0,0.70711,8.894127e-05,8.936628e-05,0.70711,0.0,0.0,0.0,0.0,0
3960000,0,0.70711,8.926402e-05,8.968903e-05,0.70711,0.0,0.0,0.0,0.0,0
3968000,0,0.70711,8.9479174e-05,8.9904184e-05,0.70711,0.0,0.0,0.0,0.0,0
3980000,0,0.70711,8.980192e-05,9.022693e-05,0.70711,0.0,0.0,0.0,0.0,0
3988000,0,0.70711,9.001708e-05,9.044209e-05,0.70711,0.0,0.0,0.0,0.0,0
4000000,0,0.70711,9.0339825e-05,9.0764835e-05,0.70711,0.0,0.0,0.0,0.0,0
4008000,0,0.70711,9.055498e-05,9.097999e-05,0.70711,0.0,0.0,0.0,0.0,0
4020000,0,0.70711,9.087773e-05,9.130274e-05,0.70711,0.0,0.0,0.0,0.0,0
4028000,0,0.70711,9.1092894e-05,9.15179e-05,0.70711,0.0,0.0,0.0,0.0,0
4040000,0,0.70711,9.141563e-05,9.1840644e-05,0.70711,0.0,0.0,0.0,0.0,0
4048000,0,0.70711,9.16308e-05,9.205581e-05,0.70711,0.0,0.0,0.0,0.0,0
4060000,0,0.70711,9.195354e-05,9.237855e-05,0.70711,0.0,0.0,0.0,0.0,0
4068000,0,0.70711,9.21687e-05,9.259371e-05,0.70711,0.0,0.0,0.0,0.0,0
4080000,0,0.70711,9.249145e-05,9.291645e-05,0.70711,0.0,0.0,0.0,0.0,0
4088000,0,0.70711,9.270661e-05,9.313162e-05,0.70711,0.0,0.0,0.0,0.0,0
4100000,0,0.70711,9.302935e-05,9.3454364e-05,0.70711,0.0,0.0,0.0,0.0,0
4108000,0,0.70711,9.324452e-05,9.366952e-05,0.70711,0.0,0.0,0.0,0.0,0
4120000,0,0.70711,9.356726e-05,9.399227e-05,0.70711,0.0,0.0,0.0,0.0,0
4128000,0,0.70711,9.378242e-05,9.420743e-05,0.70711,0.0,0.0,0.0,0.0,0
4140000,0,0.70711,9.410516e-05,9.453017e-05,0.70711,0.0,0.0,0.0,0.0,0
4148000,0,0.70711,9.432033e-05,9.474534e-05,0.70711,0.0,0.0,0.0,0.0,0
4160000,0,0.70711,9.4643074e-05,9.5068084e-05,0.70711,0.0,0.0,0.0,0.0,0
4168000,0,0.70711,9.485824e-05,9.528324e-05,0.70711,0.0,0.0,0.0,0.0,0
4180000,0,0.70711,9.518098e-05,9.560599e-05,0.70711,0.0,0.0,0.0,0.0,0
4188000,0,0.70711,9.539614e-05,9.582115e-05,0.70711,0.0,0.0,0.0,0.0,0
4200000,0,0.70711,9.571889e-05,9.614389e-05,0.70711,0.0,0.0,0.0,0.0,0
4208000,0,0.70711,9.5934054e-05,9.635906e-05,0.70711,0.0,0.0,0.0,0.0,0
4220000,0,0.70711,9.6256794e-05,9.6681804e-05,0.70711,0.0,0.0,0.0,0.0,0
4228000,0,0.70711,9.647196e-05,9.689697e-05,0.70711,0.0,0.0,0.0,0.0,0
4240000,0,0.70711,9.6794705e-05,9.721971e-05,0.70711,0.0,0.0,0.0,0.0,0
4248000,0,0.70711,9.700987e-05,9.743487e-05,0.70711,0.0,0.0,0.0,0.0,0
4260000,0,0.70711,9.733261e-05,9.775762e-05,0.70711,0.0,0.0,0.0,0.0,0
4268000,0,0.70711,9.7547774e-05,9.7972785e-05,0.70711,0.0,0.0,0.0,0.0,0
4280000,0,0.70711,9.787052e-05,9.8295524e-05,0.70711,0.0,0.0,0.0,0.0,0
4288000,0,0.70711,9.8085686e-05,9.851069e-05,0.70711,0.0,0.0,0.0,0.0,0
4300000,0,0.70711,9.840843e-05,9.8833436e-05,0.70711,0.0,0.0,0.0,0.0,0
4308000,0,0.70711,9.862359e-05,9.90486e-05,0.70711,0.0,0.0,0.0,0.0,0
4320000,0,0.70711,9.894634e-05,9.937135e-05,0.70711,0.0,0.0,0.0,0.0,0
4328000,0,0.70711,9.91615e-05,9.958651e-05,0.70711,0.0,0.0,0.0,0.0,0
4340000,0,0.70711,9.948425e-05,9.990925e-05,0.70711,0.0,0.0,0.0,0.0,0
4348000,0,0.70711,9.969941e-05,0.000100124416,0.70711,0.0,0.0,0.0,0.0,0
4360000,0,0.70711,0.00010002216,0.00010044716,0.70711,0.0,0.0,0.0,0.0,0
4368000,0,0.70711,0.000100237325,0.00010066233,0.70711,0.0,0.0,0.0,0.0,0
4380000,0,0.70711,0.000100560064,0.000100985075,0.70711,0.0,0.0,0.0,0.0,0
4388000,0,0.70711,0.00010077523,0.00010120024,0.70711,0.0,0.0,0.0,0.0,0
4400000,0,0.70711,0.000101097976,0.00010152299,0.70711,0.0,0.0,0.0,0.0,0
4408000,0,0.70711,0.00010131314,0.000101738144,0.70711,0.0,0.0,0.0,0.0,0
4420000,0,0.70711,0.00010163589,0.00010206089,0.70711,0.0,0.0,0.0,0.0,0
4428000,0,0.70711,0.00010185105,0.000102276055,0.70711,0.0,0.0,0.0,0.0,0
4440000,0,0.70711,0.0001021738,0.0001025988,0.70711,0.0,0.0,0.0,0.0,0
4448000,0,0.70711,0.00010238896,0.00010281397,0.70711,0.0,0.0,0.0,0.0,0
4460000,0,0.70711,0.00010271171,0.000103136714,0.70711,0.0,0.0,0.0,0.0,0
4468000,0,0.70711,0.000102926875,0.00010335188,0.70711,0.0,0.0,0.0,0.0,0
4480000,0,0.70711,0.00010324962,0.000103674625,0.70711,0.0,0.0,0.0,0.0,0
4488000,0,0.70711,0.00010346479,0.00010388979,0.70711,0.0,0.0,0.0,0.0,0
4500000,0,0.70711,0.00010378753,0.00010421254,0.70711,0.0,0.0,0.0,0.0,0
4508000,0,0.70711,0.0001040027,0.0001044277,0.70711,0.0,0.0,0.0,0.0,0
4520000,0,0.70711,0.000104325445,0.00010475045,0.70711,0.0,0.0,0.0,0.0,0
4528000,0,0.70711,0.00010454061,0.00010496561,0.70711,0.0,0.0,0.0,0.0,0
4540000,0,0.70711,0.00010486336,0.00010528836,0.70711,0.0,0.0,0.0,0.0,0
4548000,0,0.70711,0.00010507852,0.000105503525,0.70711,0.0,0.0,0.0,0.0,0
4560000,0,0.70711,0.00010540127,0.00010582627,0.70711,0.0,0.0,0.0,0.0,0
4568000,0,0.70711,0.00010561643,0.000106041436,0.70711,0.0,0.0,0.0,0.0,0
4580000,0,0.70711,0.00010593918,0.00010636418,0.70711,0.0,0.0,0.0,0.0,0
4588000,0,0.70711,0.000106154344,0.00010657935,0.70711,0.0,0.0,0.0,0.0,0
4600000,0,0.70711,0.00010647709,0.000106902095,0.70711,0.0,0.0,0.0,0.0,0
4608000,0,0.70711,0.000106692256,0.00010711726,0.70711,0.0,0.0,0.0,0.0,0
4620000,0,0.70711,0.000107015,0.000107440006,0.70711,0.0,0.0,0.0,0.0,0
4628000,0,0.70711,0.00010723017,0.00010765517,0.70711,0.0,0.0,0.0,0.0,0
4640000,0,0.70711,0.00010755292,0.000107977925,0.70711,0.0,0.0,0.0,0.0,0
4648000,0,0.70711,0.000107768086,0.00010819309,0.70711,0.0,0.0,0.0,0.0,0
4660000,0,0.70711,0.00010809083,0.00010851584,0.70711,0.0,0.0,0.0,0.0,0
4668000,0,0.70711,0.000108306,0.000108731,0.70711,0.0,0.0,0.0,0.0,0
4680000,0,0.70711,0.000108628745,0.00010905375,0.70711,0.0,0.0,0.0,0.0,0
4688000,0,0.70711,0.00010884391,0.00010926891,0.70711,0.0,0.0,0.0,0.0,0
4700000,0,0.70711,0.000109166656,0.00010959166,0.70711,0.0,0.0,0.0,0.0,0
4708000,0,0.70711,0.00010938183,0.00010980683,0.70711,0.0,0.0,0.0,0.0,0
4720000,0,0.70711,0.000109704575,0.00011012958,0.70711,0.0,0.0,0.0,0.0,0
4728000,0,0.70711,0.00010991974,0.00011034474,0.70711,0.0,0.0,0.0,0.0,0
4740000,0,0.70711,0.00011024249,0.00011066749,0.70711,0.0,0.0,0.0,0.0,0
4748000,0,0.70711,0.00011045765,0.000110882655,0.70711,0.0,0.0,0.0,0.0,0
4760000,0,0.70711,0.000110780406,0.0001112054,0.70711,0.0,0.0,0.0,0.0,0
4768000,0,0.70711,0.00011099557,0.00011142057,0.70711,0.0,0.0,0.0,0.0,0
4780000,0,0.70711,0.00011131832,0.00011174332,0.70711,0.0,0.0,0.0,0.0,0
4788000,0,0.70711,0.00011153348,0.000111958485,0.70711,0.0,0.0,0.0,0.0,0
4800000,0,0.70711,0.000111856236,0.00011228123,0.70711,0.0,0.0,0.0,0.0,0
4808000,0,0.70711,0.0001120714,0.000112496404,0.70711,0.0,0.0,0.0,0.0,0
4820000,0,0.70711,0.00011239415,0.00011281915,0.70711,0.0,0.0,0.0,0.0,0
4828000,0,0.70711,0.00011260931,0.000113034315,0.70711,0.0,0.0,0.0,0.0,0
4840000,0,0.70711,0.000112932066,0.00011335706,0.70711,0.0,0.0,0.0,0.0,0
4848000,0,0.70711,0.00011314723,0.000113572234,0.70711,0.0,0.0,0.0,0.0,0
4860000,0,0.70711,0.00011346998,0.00011389498,0.70711,0.0,0.0,0.0,0.0,0
4868000,0,0.70711,0.00011368515,0.000114110146,0.70711,0.0,0.0,0.0,0.0,0
4880000,0,0.70711,0.0001140079,0.0001144329,0.70711,0.0,0.0,0.0,0.0,0
4888000,0,0.70711,0.00011422306,0.000114648064,0.70711,0.0,0.0,0.0,0.0,0
4900000,0,0.70711,0.000114545815,0.00011497081,0.70711,0.0,0.0,0.0,0.0,0
4908000,0,0.70711,0.00011476098,0.00011518598,0.70711,0.0,0.0,0.0,0.0,0
4920000,0,0.70711,0.00011508373,0.00011550873,0.70711,0.0,0.0,0.0,0.0,0
4928000,0,0.70711,0.0001152989,0.000115723895,0.70711,0.0,0.0,0.0,0.0,0
4940000,0,0.70711,0.000115621646,0.00011604665,0.70711,0.0,0.0,0.0,0.0,0
4948000,0,0.70711,0.00011583681,0.000116261814,0.70711,0.0,0.0,0.0,0.0,0
4960000,0,0.70711,0.000116159565,0.00011658456,0.70711,0.0,0.0,0.0,0.0,0
4968000,0,0.70711,0.00011637473,0.00011679973,0.70711,0.0,0.0,0.0,0.0,0
4980000,0,0.70711,0.00011669748,0.00011712248,0.70711,0.0,0.0,0.0,0.0,0
4988000,0,0.70711,0.00011691265,0.00011733765,0.70711,0.0,0.0,0.0,0.0,0
5000000,0,0.70711,0.0001172354,0.0001176604,0.70711,0.0,0.0,0.0,0.0,0
5008000,0,0.70711,0.00011745057,0.00011787556,0.70711,0.0,0.0,0.0,0.0,0
5020000,0,0.70711,0.000117773314,0.00011819832,0.70711,0.0,0.0,0.0,0.0,0
5028000,0,0.70711,0.000117988486,0.00011841348,0.70711,0.0,0.0,0.0,0.0,0
5040000,0,0.70711,0.00011831123,0.000118736236,0.70711,0.0,0.0,0.0,0.0,0
5048000,0,0.70711,0.000118526405,0.0001189514,0.70711,0.0,0.0,0.0,0.0,0
5060000,0,0.70711,0.00011884915,0.000119274155,0.70711,0.0,0.0,0.0,0.0,0
5068000,0,0.70711,0.00011906432,0.00011948932,0.70711,0.0,0.0,0.0,0.0,0
5080000,0,0.70711,0.00011938707,0.00011981207,0.70711,0.0,0.0,0.0,0.0,0
5088000,0,0.70711,0.00011960224,0.00012002724,0.70711,0.0,0.0,0.0,0.0,0
5100000,0,0.70711,0.00011992499,0.00012034999,0.70711,0.0,0.0,0.0,0.0,0
5108000,0,0.70711,0.00012014016,0.00012056516,0.70711,0.0,0.0,0.0,0.0,0
5120000,0,0.70711,0.00012046291,0.00012088791,0.70711,0.0,0.0,0.0,0.0,0
5128000,0,0.70711,0.00012067808,0.000121103076,0.70711,0.0,0.0,0.0,0.0,0
5140000,0,0.70711,0.000121000834,0.00012142583,0.70711,0.0,0.0,0.0,0.0,0
5148000,0,0.70711,0.000121216,0.000121640995,0.70711,0.0,0.0,0.0,0.0,0
5160000,0,0.70711,0.00012153875,0.00012196375,0.70711,0.0,0.0,0.0,0.0,0
5168000,0,0.70711,0.00012175392,0.00012217891,0.70711,0.0,0.0,0.0,0.0,0
5180000,0,0.70711,0.00012207667,0.00012250167,0.70711,0.0,0.0,0.0,0.0,0
5188000,0,0.70711,0.00012229184,0.00012271684,0.70711,0.0,0.0,0.0,0.0,0
5200000,0,0.70711,0.0001226146,0.00012303959,0.70711,0.0,0.0,0.0,0.0,0
5208000,0,0.70711,0.00012282976,0.00012325475,0.70711,0.0,0.0,0.0,0.0,0
5220000,0,0.70711,0.00012315251,0.00012357751,0.70711,0.0,0.0,0.0,0.0,0
5228000,0,0.70711,0.00012336767,0.00012379268,0.70711,0.0,0.0,0.0,0.0,0
5240000,0,0.70711,0.00012369044,0.00012411542,0.70711,0.0,0.0,0.0,0.0,0
5248000,0,0.70711,0.0001239056,0.0001243306,0.70711,0.0,0.0,0.0,0.0,0
5260000,0,0.70711,0.00012422835,0.00012465335,0.70711,0.0,0.0,0.0,0.0,0
5268000,0,0.70711,0.00012444353,0.00012486851,0.70711,0.0,0.0,0.0,0.0,0
5280000,0,0.70711,0.00012476627,0.00012519128,0.70711,0.0,0.0,0.0,0.0,0
5288000,0,0.70711,0.00012498144,0.00012540644,0.70711,0.0,0.0,0.0,0.0,0
5300000,0,0.70711,0.0001253042,0.00012572919,0.70711,0.0,0.0,0.0,0.0,0
5308000,0,0.70711,0.00012551936,0.00012594437,0.70711,0.0,0.0,0.0,0.0,0
5320000,0,0.70711,0.00012584211,0.00012626711,0.70711,0.0,0.0,0.0,0.0,0
5328000,0,0.70711,0.00012605729,0.00012648228,0.70711,0.0,0.0,0.0,0.0,0
5340000,0,0.70711,0.00012638004,0.00012680504,0.70711,0.0,0.0,0.0,0.0,0
5348000,0,0.70711,0.0001265952,0.0001270202,0.70711,0.0,0.0,0.0,0.0,0
5360000,0,0.70711,0.00012691796,0.00012734295,0.70711,0.0,0.0,0.0,0.0,0
5368000,0,0.70711,0.00012713313,0.00012755813,0.70711,0.0,0.0,0.0,0.0,0
5380000,0,0.70711,0.00012745589,0.00012788088,0.70711,0.0,0.0,0.0,0.0,0
5388000,0,0.70711,0.00012767105,0.00012809604,0.70711,0.0,0.0,0.0,0.0,0
5400000,0,0.70711,0.0001279938,0.0001284188,0.70711,0.0,0.0,0.0,0.0,0
5408000,0,0.70711,0.00012820898,0.00012863397,0.70711,0.0,0.0,0.0,0.0,0
5420000,0,0.70711,0.00012853173,0.00012895673,0.70711,0.0,0.0,0.0,0.0,0
5428000,0,0.70711,0.0001287469,0.0001291719,0.70711,0.0,0.0,0.0,0.0,0
5440000,0,0.70711,0.00012906965,0.00012949464,0.70711,0.0,0.0,0.0,0.0,0
5448000,0,0.70711,0.00012928482,0.00012970982,0.70711,0.0,0.0,0.0,0.0,0
5460000,0,0.70711,0.00012960758,0.00013003257,0.70711,0.0,0.0,0.0,0.0,0
5468000,0,0.70711,0.00012982274,0.00013024775,0.70711,0.0,0.0,0.0,0.0,0
5480000,0,0.70711,0.0001301455,0.0001305705,0.70711,0.0,0.0,0.0,0.0,0
5488000,0,0.70711,0.00013036067,0.00013078566,0.70711,0.0,0.0,0.0,0.0,0
5500000,0,0.70711,0.00013068343,0.00013110842,0.70711,0.0,0.0,0.0,0.0,0
5508000,0,0.70711,0.0001308986,0.00013132358,0.70711,0.0,0.0,0.0,0.0,0
5520000,0,0.70711,0.00013122134,0.00013164635,0.70711,0.0,0.0,0.0,0.0,0
5528000,0,0.70711,0.00013143652,0.00013186151,0.70711,0.0,0.0,0.0,0.0,0
5540000,0,0.70711,0.00013175927,0.00013218427,0.70711,0.0,0.0,0.0,0.0,0
5548000,0,0.70711,0.00013197445,0.00013239944,0.70711,0.0,0.0,0.0,0.0,0
5560000,0,0.70711,0.0001322972,0.0001327222,0.70711,0.0,0.0,0.0,0.0,0
5568000,0,0.70711,0.00013251237,0.00013293736,0.70711,0.0,0.0,0.0,0.0,0
5580000,0,0.70711,0.00013283512,0.00013326012,0.70711,0.0,0.0,0.0,0.0,0
5588000,0,0.70711,0.0001330503,0.00013347529,0.70711,0.0,0.0,0.0,0.0,0
5600000,0,0.70711,0.00013337305,0.00013379804,0.70711,0.0,0.0,0.0,0.0,0
5608000,0,0.70711,0.00013358823,0.00013401321,0.70711,0.0,0.0,0.0,0.0,0
5620000,0,0.70711,0.00013391097,0.00013433596,0.70711,0.0,0.0,0.0,0.0,0
5628000,0,0.70711,0.00013412615,0.00013455114,0.70711,0.0,0.0,0.0,0.0,0
5640000,0,0.70711,0.0001344489,0.00013487389,0.70711,0.0,0.0,0.0,0.0,0
5648000,0,0.70711,0.00013466408,0.00013508907,0.70711,0.0,0.0,0.0,0.0,0
5660000,0,0.70711,0.00013498683,0.00013541181,0.70711,0.0,0.0,0.0,0.0,0
5668000,0,0.70711,0.000135202,0.000135627,0.70711,0.0,0.0,0.0,0.0,0
5680000,0,0.70711,0.00013552475,0.00013594974,0.70711,0.0,0.0,0.0,0.0,0
5688000,0,0.70711,0.00013573993,0.00013616492,0.70711,0.0,0.0,0.0,0.0,0
5700000,0,0.70711,0.00013606268,0.00013648767,0.70711,0.0,0.0,0.0,0.0,0
5708000,0,0.70711,0.00013627786,0.00013670285,0.70711,0.0,0.0,0.0,0.0,0
5720000,0,0.70711,0.0001366006,0.00013702559,0.70711,0.0,0.0,0.0,0.0,0
5728000,0,0.70711,0.00013681578,0.00013724077,0.70711,0.0,0.0,0.0,0.0,0
5740000,0,0.70711,0.00013713853,0.00013756352,0.70711,0.0,0.0,0.0,0.0,0
5748000,0,0.70711,0.00013735371,0.0001377787,0.70711,0.0,0.0,0.0,0.0,0
5760000,0,0.70711,0.00013767646,0.00013810146,0.70711,0.0,0.0,0.0,0.0,0
5768000,0,0.70711,0.00013789163,0.00013831662,0.70711,0.0,0.0,0.0,0.0,0
5780000,0,0.70711,0.00013821438,0.00013863939,0.70711,0.0,0.0,0.0,0.0,0
5788000,0,0.70711,0.00013842956,0.00013885455,0.70711,0.0,0.0,0.0,0.0,0
5800000,0,0.70711,0.00013875232,0.00013917731,0.70711,0.0,0.0,0.0,0.0,0
5808000,0,0.70711,0.00013896749,0.00013939248,0.70711,0.0,0.0,0.0,0.0,0
5820000,0,0.70711,0.00013929025,0.00013971524,0.70711,0.0,0.0,0.0,0.0,0
5828000,0,0.70711,0.00013950541,0.0001399304,0.70711,0.0,0.0,0.0,0.0,0
5840000,0,0.70711,0.00013982817,0.00014025316,0.70711,0.0,0.0,0.0,0.0,0
5848000,0,0.70711,0.00014004334,0.00014046833,0.70711,0.0,0.0,0.0,0.0,0
5860000,0,0.70711,0.0001403661,0.00014079109,0.70711,0.0,0.0,0.0,0.0,0
5868000,0,0.7071099,0.00014058128,0.00014100627,0.70711,0.0,0.0,0.0,0.0,0
5880000,0,0.7071099,0.00014090403,0.00014132902,0.70711,0.0,0.0,0.0,0.0,0
5888000,0,0.7071099,0.0001411192,0.0001415442,0.70711,0.0,0.0,0.0,0.0,0
5900000,0,0.7071099,0.00014144195,0.00014186696,0.70711,0.0,0.0,0.0,0.0,0
5908000,0,0.7071099,0.00014165713,0.00014208212,0.70711,0.0,0.0,0.0,0.0,0
5920000,0,0.7071099,0.0001419799,0.00014240488,0.70711,0.0,0.0,0.0,0.0,0
5928000,0,0.7071099,0.00014219506,0.00014262005,0.70711,0.0,0.0,0.0,0.0,0
5940000,0,0.7071099,0.00014251782,0.00014294281,0.70711,0.0,0.0,0.0,0.0,0
5948000,0,0.7071099,0.00014273298,0.00014315797,0.70711,0.0,0.0,0.0,0.0,0
5960000,0,0.7071099,0.00014305575,0.00014348073,0.70711,0.0,0.0,0.0,0.0,0
5968000,0,0.7071099,0.00014327093,0.00014369591,0.70711,0.0,0.0,0.0,0.0,0
5980000,0,0.7071099,0.00014359367,0.00014401866,0.70711,0.0,0.0,0.0,0.0,0
5988000,0,0.7071099,0.00014380885,0.00014423384,0.70711,0.0,0.0,0.0,0.0,0
6000000,0,0.7071099,0.00014413161,0.0001445566,0.70711,0.0,0.0,0.0,0.0,0
6008000,0,0.7071099,0.00014434678,0.00014477177,0.70711,0.0,0.0,0.0,0.0,0
6020000,0,0.7071099,0.00014466954,0.00014509453,0.70711,0.0,0.0,0.0,0.0,0
6028000,0,0.7071099,0.00014488472,0.0001453097,0.70711,0.0,0.0,0.0,0.0,0
6040000,0,0.7071099,0.00014520746,0.00014563245,0.70711,0.0,0.0,0.0,0.0,0
6048000,0,0.7071099,0.00014542264,0.00014584763,0.70711,0.0,0.0,0.0,0.0,0
6060000,0,0.7071099,0.0001457454,0.0001461704,0.70711,0.0,0.0,0.0,0.0,0
6068000,0,0.7071099,0.00014596057,0.00014638556,0.70711,0.0,0.0,0.0,0.0,0
6080000,0,0.7071099,0.00014628333,0.00014670832,0.70711,0.0,0.0,0.0,0.0,0
6088000,0,0.7071099,0.00014649851,0.0001469235,0.70711,0.0,0.0,0.0,0.0,0
6100000,0,0.7071099,0.00014682126,0.00014724625,0.70711,0.0,0.0,0.0,0.0,0
6108000,0,0.7071099,0.00014703644,0.00014746143,0.70711,0.0,0.0,0.0,0.0,0
6120000,0,0.7071099,0.0001473592,0.00014778419,0.70711,0.0,0.0,0.0,0.0,0
6128000,0,0.7071099,0.00014757436,0.00014799935,0.70711,0.0,0.0,0.0,0.0,0
6140000,0,0.7071099,0.00014789712,0.00014832211,0.70711,0.0,0.0,0.0,0.0,0
6148000,0,0.7071099,0.0001481123,0.00014853729,0.70711,0.0,0.0,0.0,0.0,0
6160000,0,0.7071099,0.00014843507,0.00014886005,0.70711,0.0,0.0,0.0,0.0,0
6168000,0,0.7071099,0.00014865023,0.00014907522,0.70711,0.0,0.0,0.0,0.0,0
6180000,0,0.7071099,0.00014897299,0.00014939798,0.70711,0.0,0.0,0.0,0.0,0
6188000,0,0.7071099,0.00014918817,0.00014961316,0.70711,0.0,0.0,0.0,0.0,0
6200000,0,0.7071099,0.00014951093,0.00014993592,0.70711,0.0,0.0,0.0,0.0,0
6208000,0,0.7071099,0.0001497261,0.00015015109,0.70711,0.0,0.0,0.0,0.0,0
6220000,0,0.7071099,0.00015004886,0.00015047385,0.70711,0.0,0.0,0.0,0.0,0
6228000,0,0.7071099,0.00015026404,0.00015068903,0.70711,0.0,0.0,0.0,0.0,0
6240000,0,0.7071099,0.0001505868,0.00015101177,0.70711,0.0,0.0,0.0,0.0,0
6248000,0,0.7071099,0.00015080196,0.00015122695,0.70711,0.0,0.0,0.0,0.0,0
6260000,0,0.7071099,0.00015112472,0.00015154971,0.70711,0.0,0.0,0.0,0.0,0
6268000,0,0.7071099,0.0001513399,0.00015176489,0.70711,0.0,0.0,0.0,0.0,0
6280000,0,0.7071099,0.00015166267,0.00015208765,0.70711,0.0,0.0,0.0,0.0,0
6288000,0,0.7071099,0.00015187783,0.00015230282,0.70711,0.0,0.0,0.0,0.0,0
6300000,0,0.7071099,0.00015220059,0.00015262558,0.70711,0.0,0.0,0.0,0.0,0
6308000,0,0.7071099,0.00015241577,0.00015284076,0.70711,0.0,0.0,0.0,0.0,0
6320000,0,0.7071099,0.00015273853,0.00015316352,0.70711,0.0,0.0,0.0,0.0,0
6328000,0,0.7071099,0.0001529537,0.00015337869,0.70711,0.0,0.0,0.0,0.0,0
6340000,0,0.7071099,0.00015327646,0.00015370145,0.70711,0.0,0.0,0.0,0.0,0
6348000,0,0.7071099,0.00015349164,0.00015391663,0.70711,0.0,0.0,0.0,0.0,0
6360000,0,0.7071099,0.0001538144,0.00015423939,0.70711,0.0,0.0,0.0,0.0,0
6368000,0,0.7071099,0.00015402958,0.00015445455,0.70711,0.0,0.0,0.0,0.0,0
6380000,0,0.7071099,0.00015435234,0.00015477731,0.70711,0.0,0.0,0.0,0.0,0
6388000,0,0.7071099,0.0001545675,0.0001549925,0.70711,0.0,0.0,0.0,0.0,0
6400000,0,0.7071099,0.00015489027,0.00015531525,0.70711,0.0,0.0,0.0,0.0,0
6408000,0,0.7071099,0.00015510544,0.00015553043,0.70711,0.0,0.0,0.0,0.0,0
6420000,0,0.7071099,0.0001554282,0.0001558532,0.70711,0.0,0.0,0.0,0.0,0
6428000,0,0.7071099,0.00015564339,0.00015606836,0.70711,0.0,0.0,0.0,0.0,0
6440000,0,0.7071099,0.00015596615,0.00015639112,0.70711,0.0,0.0,0.0,0.0,0
6448000,0,0.7071099,0.00015618131,0.0001566063,0.70711,0.0,0.0,0.0,0.0,0
6460000,0,0.7071099,0.00015650407,0.00015692906,0.70711,0.0,0.0,0.0,0.0,0
6468000,0,0.7071099,0.00015671925,0.00015714424,0.70711,0.0,0.0,0.0,0.0,0
6480000,0,0.7071099,0.00015704201,0.000157467,0.70711,0.0,0.0,0.0,0.0,0
6488000,0,0.7071099,0.0001572572,0.00015768217,0.70711,0.0,0.0,0.0,0.0,0
6500000,0,0.7071099,0.00015757995,0.00015800493,0.70711,0.0,0.0,0.0,0.0,0
6508000,0,0.7071099,0.00015779512,0.00015822011,0.70711,0.0,0.0,0.0,0.0,0
6520000,0,0.7071099,0.0001581179,0.00015854287,0.70711,0.0,0.0,0.0,0.0,0
6528000,0,0.7071099,0.00015833306,0.00015875805,0.70711,0.0,0.0,0.0,0.0,0
6540000,0,0.7071099,0.00015865582,0.00015908081,0.70711,0.0,0.0,0.0,0.0,0
6548000,0,0.7071099,0.000158871,0.00015929599,0.70711,0.0,0.0,0.0,0.0,0
6560000,0,0.7071099,0.00015919376,0.00015961875,0.70711,0.0,0.0,0.0,0.0,0
6568000,0,0.7071099,0.00015940894,0.00015983391,0.70711,0.0,0.0,0.0,0.0,0
6580000,0,0.7071099,0.0001597317,0.00016015668,0.70711,0.0,0.0,0.0,0.0,0
6588000,0,0.7071099,0.00015994688,0.00016037186,0.70711,0.0,0.0,0.0,0.0,0
6600000,0,0.7071099,0.00016026964,0.00016069462,0.70711,0.0,0.0,0.0,0.0,0
6608000,0,0.7071099,0.00016048481,0.0001609098,0.70711,0.0,0.0,0.0,0.0,0
6620000,0,0.7071099,0.00016080757,0.00016123256,0.70711,0.0,0.0,0.0,0.0,0
6628000,0,0.7071099,0.00016102275,0.00016144774,0.70711,0.0,0.0,0.0,0.0,0
6640000,0,0.7071099,0.00016134551,0.0001617705,0.70711,0.0,0.0,0.0,0.0,0
6648000,0,0.7071099,0.00016156069,0.00016198568,0.70711,0.0,0.0,0.0,0.0,0
6660000,0,0.7071099,0.00016188345,0.00016230844,0.70711,0.0,0.0,0.0,0.0,0
6668000,0,0.7071099,0.00016209863,0.0001625236,0.70711,0.0,0.0,0.0,0.0,0
6680000,0,0.7071099,0.00016242139,0.00016284638,0.70711,0.0,0.0,0.0,0.0,0
6688000,0,0.7071099,0.00016263657,0.00016306154,0.70711,0.0,0.0,0.0,0.0,0
6700000,0,0.7071099,0.00016295933,0.00016338432,0.70711,0.0,0.0,0.0,0.0,0
6708000,0,0.7071099,0.00016317451,0.00016359948,0.70711,0.0,0.0,0.0,0.0,0
6720000,0,0.7071099,0.00016349727,0.00016392225,0.70711,0.0,0.0,0.0,0.0,0
6728000,0,0.7071099,0.00016371245,0.00016413743,0.70711,0.0,0.0,0.0,0.0,0
6740000,0,0.7071099,0.00016403521,0.00016446019,0.70711,0.0,0.0,0.0,0.0,0
6748000,0,0.7071099,0.00016425039,0.00016467537,0.70711,0.0,0.0,0.0,0.0,0
6760000,0,0.7071099,0.00016457315,0.00016499813,0.70711,0.0,0.0,0.0,0.0,0
6768000,0,0.7071099,0.00016478833,0.0001652133,0.70711,0.0,0.0,0.0,0.0,0
6780000,0,0.7071099,0.0001651111,0.00016553607,0.70711,0.0,0.0,0.0,0.0,0
6788000,0,0.7071099,0.00016532627,0.00016575125,0.70711,0.0,0.0,0.0,0.0,0
6800000,0,0.7071099,0.00016564903,0.00016607401,0.70711,0.0,0.0,0.0,0.0,0
6808000,0,0.7071099,0.00016586421,0.00016628919,0.70711,0.0,0.0,0.0,0.0,0
6820000,0,0.7071099,0.00016618698,0.00016661195,0.70711,0.0,0.0,0.0,0.0,0
6828000,0,0.7071099,0.00016640215,0.00016682713,0.70711,0.0,0.0,0.0,0.0,0
6840000,0,0.7071099,0.00016672492,0.00016714989,0.70711,0.0,0.0,0.0,0.0,0
6848000,0,0.7071099,0.0001669401,0.00016736507,0.70711,0.0,0.0,0.0,0.0,0
6860000,0,0.7071099,0.00016726286,0.00016768783,0.70711,0.0,0.0,0.0,0.0,0
6868000,0,0.7071099,0.00016747804,0.00016790301,0.70711,0.0,0.0,0.0,0.0,0
6880000,0,0.7071099,0.0001678008,0.00016822577,0.70711,0.0,0.0,0.0,0.0,0
6888000,0,0.7071099,0.00016801598,0.00016844095,0.70711,0.0,0.0,0.0,0.0,0
6900000,0,0.7071099,0.00016833874,0.00016876371,0.70711,0.0,0.0,0.0,0.0,0
6908000,0,0.7071099,0.00016855392,0.00016897889,0.70711,0.0,0.0,0.0,0.0,0
6920000,0,0.7071099,0.00016887668,0.00016930165,0.70711,0.0,0.0,0.0,0.0,0
6928000,0,0.7071099,0.00016909186,0.00016951683,0.70711,0.0,0.0,0.0,0.0,0
6940000,0,0.7071099,0.00016941462,0.00016983961,0.70711,0.0,0.0,0.0,0.0,0
6948000,0,0.7071099,0.0001696298,0.00017005477,0.70711,0.0,0.0,0.0,0.0,0
6960000,0,0.7071099,0.00016995256,0.00017037755,0.70711,0.0,0.0,0.0,0.0,0
6968000,0,0.7071099,0.00017016774,0.00017059271,0.70711,0.0,0.0,0.0,0.0,0
6980000,0,0.7071099,0.0001704905,0.00017091549,0.70711,0.0,0.0,0.0,0.0,0
6988000,0,0.7071099,0.00017070568,0.00017113067,0.70711,0.0,0.0,0.0,0.0,0
7000000,0,0.7071099,0.00017102846,0.00017145343,0.70711,0.0,0.0,0.0,0.0,0
7008000,0,0.7071099,0.00017124362,0.00017166861,0.70711,0.0,0.0,0.0,0.0,0
7020000,0,0.7071099,0.0001715664,0.00017199137,0.70711,0.0,0.0,0.0,0.0,0
7028000,0,0.7071099,0.00017178158,0.00017220655,0.70711,0.0,0.0,0.0,0.0,0
7040000,0,0.7071099,0.00017210434,0.00017252931,0.70711,0.0,0.0,0.0,0.0,0
7048000,0,0.7071099,0.00017231952,0.00017274449,0.70711,0.0,0.0,0.0,0.0,0
7060000,0,0.7071099,0.00017264228,0.00017306725,0.70711,0.0,0.0,0.0,0.0,0
7068000,0,0.7071099,0.00017285746,0.00017328243,0.70711,0.0,0.0,0.0,0.0,0
7080000,0,0.7071099,0.00017318022,0.0001736052,0.70711,0.0,0.0,0.0,0.0,0
7088000,0,0.7071099,0.0001733954,0.00017382039,0.70711,0.0,0.0,0.0,0.0,0
7100000,0,0.7071099,0.00017371817,0.00017414315,0.70711,0.0,0.0,0.0,0.0,0
7108000,0,0.7071099,0.00017393335,0.00017435833,0.70711,0.0,0.0,0.0,0.0,0
7120000,0,0.7071099,0.00017425611,0.00017468109,0.70711,0.0,0.0,0.0,0.0,0
7128000,0,0.7071099,0.0001744713,0.00017489627,0.70711,0.0,0.0,0.0,0.0,0
7140000,0,0.7071099,0.00017479406,0.00017521903,0.70711,0.0,0.0,0.0,0.0,0
7148000,0,0.7071099,0.00017500923,0.00017543421,0.70711,0.0,0.0,0.0,0.0,0
7160000,0,0.7071099,0.000175332,0.00017575698,0.70711,0.0,0.0,0.0,0.0,0
7168000,0,0.7071099,0.00017554717,0.00017597216,0.70711,0.0,0.0,0.0,0.0,0
7180000,0,0.7071099,0.00017586995,0.00017629493,0.70711,0.0,0.0,0.0,0.0,0
7188000,0,0.7071099,0.00017608513,0.0001765101,0.70711,0.0,0.0,0.0,0.0,0
7200000,0,0.7071099,0.00017640789,0.00017683287,0.70711,0.0,0.0,0.0,0.0,0
7208000,0,0.7071099,0.00017662307,0.00017704804,0.70711,0.0,0.0,0.0,0.0,0
7220000,0,0.7071099,0.00017694583,0.00017737082,0.70711,0.0,0.0,0.0,0.0,0
7228000,0,0.7071099,0.00017716101,0.000177586,0.70711,0.0,0.0,0.0,0.0,0
7240000,0,0.7071099,0.00017748379,0.00017790876,0.70711,0.0,0.0,0.0,0.0,0
7248000,0,0.7071099,0.00017769897,0.00017812394,0.70711,0.0,0.0,0.0,0.0,0
7260000,0,0.7071099,0.00017802173,0.0001784467,0.70711,0.0,0.0,0.0,0.0,0
7268000,0,0.7071099,0.0001782369,0.00017866188,0.70711,0.0,0.0,0.0,0.0,0
7280000,0,0.7071099,0.00017855968,0.00017898466,0.70711,0.0,0.0,0.0,0.0,0
7288000,0,0.7071099,0.00017877486,0.00017919984,0.70711,0.0,0.0,0.0,0.0,0
7300000,0,0.7071099,0.00017909762,0.0001795226,0.70711,0.0,0.0,0.0,0.0,0
7308000,0,0.7071099,0.0001793128,0.00017973778,0.70711,0.0,0.0,0.0,0.0,0
7320000,0,0.7071099,0.00017963556,0.00018006055,0.70711,0.0,0.0,0.0,0.0,0
7328000,0,0.7071099,0.00017985074,0.00018027573,0.70711,0.0,0.0,0.0,0.0,0
7340000,0,0.7071099,0.00018017352,0.0001805985,0.70711,0.0,0.0,0.0,0.0,0
7348000,0,0.7071099,0.0001803887,0.00018081367,0.70711,0.0,0.0,0.0,0.0,0
7360000,0,0.7071099,0.00018071146,0.00018113643,0.70711,0.0,0.0,0.0,0.0,0
7368000,0,0.7071099,0.00018092664,0.00018135161,0.70711,0.0,0.0,0.0,0.0,0
7380000,0,0.7071099,0.00018124942,0.00018167439,0.70711,0.0,0.0,0.0,0.0,0
7388000,0,0.7071099,0.0001814646,0.00018188957,0.70711,0.0,0.0,0.0,0.0,0
7400000,0,0.7071099,0.00018178736,0.00018221233,0.70711,0.0,0.0,0.0,0.0,0
7408000,0,0.7071099,0.00018200254,0.00018242751,0.70711,0.0,0.0,0.0,0.0,0
7420000,0,0.7071099,0.00018232531,0.00018275029,0.70711,0.0,0.0,0.0,0.0,0
7428000,0,0.7071099,0.00018254049,0.00018296546,0.70711,0.0,0.0,0.0,0.0,0
7440000,0,0.7071099,0.00018286325,0.00018328823,0.70711,0.0,0.0,0.0,0.0,0
7448000,0,0.7071099,0.00018307843,0.0001835034,0.70711,0.0,0.0,0.0,0.0,0
7460000,0,0.7071099,0.00018340121,0.00018382618,0.70711,0.0,0.0,0.0,0.0,0
7468000,0,0.7071099,0.00018361639,0.00018404136,0.70711,0.0,0.0,0.0,0.0,0
7480000,0,0.7071099,0.00018393916,0.00018436414,0.70711,0.0,0.0,0.0,0.0,0
7488000,0,0.7071099,0.00018415434,0.00018457932,0.70711,0.0,0.0,0.0,0.0,0
7500000,0,0.7071099,0.0001844771,0.00018490208,0.70711,0.0,0.0,0.0,0.0,0
7508000,0,0.7071099,0.00018469228,0.00018511726,0.70711,0.0,0.0,0.0,0.0,0
7520000,0,0.7071099,0.00018501506,0.00018544003,0.70711,0.0,0.0,0.0,0.0,0
7528000,0,0.7071099,0.00018523024,0.00018565521,0.70711,0.0,0.0,0.0,0.0,0
7540000,0,0.7071099,0.000185553,0.00018597797,0.70711,0.0,0.0,0.0,0.0,0
7548000,0,0.7071099,0.00018576818,0.00018619315,0.70711,0.0,0.0,0.0,0.0,0
7560000,0,0.7071099,0.00018609095,0.00018651593,0.70711,0.0,0.0,0.0,0.0,0
7568000,0,0.7071099,0.00018630613,0.00018673111,0.70711,0.0,0.0,0.0,0.0,0
7580000,0,0.7071099,0.00018662891,0.00018705388,0.70711,0.0,0.0,0.0,0.0,0
7588000,0,0.7071099,0.00018684409,0.00018726906,0.70711,0.0,0.0,0.0,0.0,0
7600000,0,0.7071099,0.00018716685,0.00018759182,0.70711,0.0,0.0,0.0,0.0,0
7608000,0,0.7071099,0.00018738203,0.000187807,0.70711,0.0,0.0,0.0,0.0,0
7620000,0,0.7071099,0.0001877048,0.00018812978,0.70711,0.0,0.0,0.0,0.0,0
7628000,0,0.7071099,0.00018791998,0.00018834496,0.70711,0.0,0.0,0.0,0.0,0
7640000,0,0.7071099,0.00018824276,0.00018866773,0.70711,0.0,0.0,0.0,0.0,0
7648000,0,0.7071099,0.00018845794,0.00018888291,0.70711,0.0,0.0,0.0,0.0,0
7660000,0,0.7071099,0.00018878072,0.00018920568,0.70711,0.0,0.0,0.0,0.0,0
7668000,0,0.7071099,0.0001889959,0.00018942087,0.70711,0.0,0.0,0.0,0.0,0
7680000,0,0.7071099,0.00018931866,0.00018974363,0.70711,0.0,0.0,0.0,0.0,0
7688000,0,0.7071099,0.00018953384,0.00018995881,0.70711,0.0,0.0,0.0,0.0,0
7700000,0,0.7071099,0.00018985661,0.00019028159,0.70711,0.0,0.0,0.0,0.0,0
7708000,0,0.7071099,0.00019007179,0.00019049676,0.70711,0.0,0.0,0.0,0.0,0
7720000,0,0.7071099,0.00019039457,0.00019081954,0.70711,0.0,0.0,0.0,0.0,0
7728000,0,0.7071099,0.00019060975,0.00019103472,0.70711,0.0,0.0,0.0,0.0,0
7740000,0,0.7071099,0.00019093252,0.00019135748,0.70711,0.0,0.0,0.0,0.0,0
7748000,0,0.7071099,0.0001911477,0.00019157268,0.70711,0.0,0.0,0.0,0.0,0
7760000,0,0.7071099,0.00019147046,0.00019189544,0.70711,0.0,0.0,0.0,0.0,0
7768000,0,0.7071099,0.00019168566,0.00019211062,0.70711,0.0,0.0,0.0,0.0,0
7780000,0,0.7071099,0.00019200842,0.00019243339,0.70711,0.0,0.0,0.0,0.0,0
7788000,0,0.7071099,0.0001922236,0.00019264857,0.70711,0.0,0.0,0.0,0.0,0
7800000,0,0.7071099,0.00019254637,0.00019297135,0.70711,0.0,0.0,0.0,0.0,0
7808000,0,0.7071099,0.00019276155,0.00019318653,0.70711,0.0,0.0,0.0,0.0,0
7820000,0,0.7071099,0.00019308433,0.0001935093,0.70711,0.0,0.0,0.0,0.0,0
7828000,0,0.7071099,0.00019329951,0.00019372448,0.70711,0.0,0.0,0.0,0.0,0
7840000,0,0.7071099,0.00019362228,0.00019404726,0.70711,0.0,0.0,0.0,0.0,0
7848000,0,0.7071099,0.00019383746,0.00019426244,0.70711,0.0,0.0,0.0,0.0,0
7860000,0,0.7071099,0.00019416024,0.00019458521,0.70711,0.0,0.0,0.0,0.0,0
7868000,0,0.7071099,0.00019437542,0.00019480039,0.70711,0.0,0.0,0.0,0.0,0
7880000,0,0.7071099,0.0001946982,0.00019512315,0.70711,0.0,0.0,0.0,0.0,0
7888000,0,0.7071099,0.00019491337,0.00019533835,0.70711,0.0,0.0,0.0,0.0,0
7900000,0,0.7071099,0.00019523615,0.00019566111,0.70711,0.0,0.0,0.0,0.0,0
7908000,0,0.7071099,0.00019545133,0.0001958763,0.70711,0.0,0.0,0.0,0.0,0
7920000,0,0.7071099,0.0001957741,0.00019619906,0.70711,0.0,0.0,0.0,0.0,0
7928000,0,0.7071099,0.00019598928,0.00019641424,0.70711,0.0,0.0,0.0,0.0,0
7940000,0,0.7071099,0.00019631206,0.00019673702,0.70711,0.0,0.0,0.0,0.0,0
7948000,0,0.7071099,0.00019652724,0.0001969522,0.70711,0.0,0.0,0.0,0.0,0
7960000,0,0.7071099,0.00019685001,0.00019727497,0.70711,0.0,0.0,0.0,0.0,0
7968000,0,0.7071099,0.0001970652,0.00019749015,0.70711,0.0,0.0,0.0,0.0,0
7980000,0,0.7071099,0.00019738797,0.00019781293,0.70711,0.0,0.0,0.0,0.0,0
7988000,0,0.7071099,0.00019760315,0.00019802811,0.70711,0.0,0.0,0.0,0.0,0
8000000,0,0.7071099,0.00019792593,0.00019835088,0.70711,0.0,0.0,0.0,0.0,0
8008000,0,0.7071099,0.0001981411,0.00019856606,0.70711,0.0,0.0,0.0,0.0,0
8020000,0,0.7071099,0.00019846388,0.00019888884,0.70711,0.0,0.0,0.0,0.0,0
8028000,0,0.7071099,0.00019867906,0.00019910402,0.70711,0.0,0.0,0.0,0.0,0
8040000,0,0.7071099,0.00019900184,0.0001994268,0.70711,0.0,0.0,0.0,0.0,0
8048000,0,0.7071099,0.00019921701,0.00019964199,0.70711,0.0,0.0,0.0,0.0,0
8060000,0,0.7071099,0.00019953979,0.00019996475,0.70711,0.0,0.0,0.0,0.0,0
8068000,0,0.7071099,0.00019975497,0.00020017994,0.70711,0.0,0.0,0.0,0.0,0
8080000,0,0.7071099,0.00020007775,0.0002005027,0.70711,0.0,0.0,0.0,0.0,0
8088000,0,0.7071099,0.00020029293,0.0002007179,0.70711,0.0,0.0,0.0,0.0,0
8100000,0,0.7071099,0.0002006157,0.00020104068,0.70711,0.0,0.0,0.0,0.0,0
8108000,0,0.7071099,0.00020083088,0.00020125585,0.70711,0.0,0.0,0.0,0.0,0
8120000,0,0.7071099,0.00020115366,0.00020157863,0.70711,0.0,0.0,0.0,0.0,0
8128000,0,0.7071099,0.00020136884,0.00020179381,0.70711,0.0,0.0,0.0,0.0,0
8140000,0,0.7071099,0.00020169161,0.00020211659,0.70711,0.0,0.0,0.0,0.0,0
8148000,0,0.7071099,0.00020190679,0.00020233176,0.70711,0.0,0.0,0.0,0.0,0
8160000,0,0.7071099,0.00020222957,0.00020265454,0.70711,0.0,0.0,0.0,0.0,0
8168000,0,0.7071099,0.00020244476,0.00020286972,0.70711,0.0,0.0,0.0,0.0,0
8180000,0,0.7071099,0.00020276754,0.0002031925,0.70711,0.0,0.0,0.0,0.0,0
8188000,0,0.7071099,0.00020298272,0.00020340768,0.70711,0.0,0.0,0.0,0.0,0
8200000,0,0.7071099,0.00020330549,0.00020373045,0.70711,0.0,0.0,0.0,0.0,0
8208000,0,0.7071099,0.00020352067,0.00020394564,0.70711,0.0,0.0,0.0,0.0,0
8220000,0,0.7071099,0.00020384345,0.0002042684,0.70711,0.0,0.0,0.0,0.0,0
8228000,0,0.7071099,0.00020405863,0.0002044836,0.70711,0.0,0.0,0.0,0.0,0
8240000,0,0.7071099,0.0002043814,0.00020480638,0.70711,0.0,0.0,0.0,0.0,0
8248000,0,0.7071099,0.00020459658,0.00020502156,0.70711,0.0,0.0,0.0,0.0,0
8260000,0,0.7071099,0.00020491936,0.00020534433,0.70711,0.0,0.0,0.0,0.0,0
8268000,0,0.7071099,0.00020513455,0.00020555951,0.70711,0.0,0.0,0.0,0.0,0
8280000,0,0.7071099,0.00020545733,0.00020588229,0.70711,0.0,0.0,0.0,0.0,0
8288000,0,0.7071099,0.0002056725,0.00020609747,0.70711,0.0,0.0,0.0,0.0,0
8300000,0,0.7071099,0.00020599528,0.00020642024,0.70711,0.0,0.0,0.0,0.0,0
8308000,0,0.7071099,0.00020621046,0.00020663544,0.70711,0.0,0.0,0.0,0.0,0
8320000,0,0.7071099,0.00020653324,0.00020695821,0.70711,0.0,0.0,0.0,0.0,0
8328000,0,0.7071099,0.00020674843,0.00020717339,0.70711,0.0,0.0,0.0,0.0,0
8340000,0,0.7071099,0.0002070712,0.00020749617,0.70711,0.0,0.0,0.0,0.0,0
8348000,0,0.7071099,0.00020728639,0.00020771135,0.70711,0.0,0.0,0.0,0.0,0
8360000,0,0.7071099,0.00020760916,0.00020803412,0.70711,0.0,0.0,0.0,0.0,0
8368000,0,0.7071099,0.00020782434,0.00020824932,0.70711,0.0,0.0,0.0,0.0,0
8380000,0,0.7071099,0.00020814712,0.00020857209,0.70711,0.0,0.0,0.0,0.0,0
8388000,0,0.7071099,0.00020836231,0.00020878727,0.70711,0.0,0.0,0.0,0.0,0
8400000,0,0.7071099,0.00020868509,0.00020911005,0.70711,0.0,0.0,0.0,0.0,0
8408000,0,0.7071099,0.00020890027,0.00020932523,0.70711,0.0,0.0,0.0,0.0,0
8420000,0,0.7071099,0.00020922304,0.000209648,0.70711,0.0,0.0,0.0,0.0,0
8428000,0,0.7071099,0.00020943822,0.0002098632,0.70711,0.0,0.0,0.0,0.0,0
8440000,0,0.7071099,0.000209761,0.00021018597,0.70711,0.0,0.0,0.0,0.0,0
8448000,0,0.7071099,0.00020997619,0.00021040115,0.70711,0.0,0.0,0.0,0.0,0
8460000,0,0.7071099,0.00021029897,0.00021072393,0.70711,0.0,0.0,0.0,0.0,0
8468000,0,0.7071099,0.00021051415,0.00021093912,0.70711,0.0,0.0,0.0,0.0,0
8480000,0,0.7071099,0.00021083692,0.0002112619,0.70711,0.0,0.0,0.0,0.0,0
8488000,0,0.7071099,0.00021105212,0.00021147708,0.70711,0.0,0.0,0.0,0.0,0
8500000,0,0.7071099,0.00021137489,0.00021179985,0.70711,0.0,0.0,0.0,0.0,0
8508000,0,0.7071099,0.00021159007,0.00021201503,0.70711,0.0,0.0,0.0,0.0,0
8520000,0,0.7071099,0.00021191285,0.0002123378,0.70711,0.0,0.0,0.0,0.0,0
8528000,0,0.7071099,0.00021212804,0.000212553,0.70711,0.0,0.0,0.0,0.0,0
8540000,0,0.7071099,0.00021245082,0.00021287578,0.70711,0.0,0.0,0.0,0.0,0
8548000,0,0.7071099,0.000212666,0.00021309096,0.70711,0.0,0.0,0.0,0.0,0
8560000,0,0.7071099,0.00021298877,0.00021341373,0.70711,0.0,0.0,0.0,0.0,0
8568000,0,0.7071099,0.00021320397,0.00021362893,0.70711,0.0,0.0,0.0,0.0,0
8580000,0,0.7071099,0.00021352674,0.0002139517,0.70711,0.0,0.0,0.0,0.0,0
8588000,0,0.7071099,0.00021374192,0.00021416688,0.70711,0.0,0.0,0.0,0.0,0
8600000,0,0.7071099,0.0002140647,0.00021448966,0.70711,0.0,0.0,0.0,0.0,0
8608000,0,0.7071099,0.00021427989,0.00021470485,0.70711,0.0,0.0,0.0,0.0,0
8620000,0,0.7071099,0.00021460267,0.00021502763,0.70711,0.0,0.0,0.0,0.0,0
8628000,0,0.7071099,0.00021481785,0.0002152428,0.70711,0.0,0.0,0.0,0.0,0
8640000,0,0.7071099,0.00021514062,0.0002155656,0.70711,0.0,0.0,0.0,0.0,0
8648000,0,0.7071099,0.00021535582,0.00021578078,0.70711,0.0,0.0,0.0,0.0,0
8660000,0,0.7071099,0.00021567859,0.00021610355,0.70711,0.0,0.0,0.0,0.0,0
8668000,0,0.7071099,0.00021589377,0.00021631875,0.70711,0.0,0.0,0.0,0.0,0
8680000,0,0.7071099,0.00021621656,0.00021664152,0.70711,0.0,0.0,0.0,0.0,0
8688000,0,0.7071099,0.00021643174,0.0002168567,0.70711,0.0,0.0,0.0,0.0,0
8700000,0,0.7071099,0.00021675452,0.00021717948,0.70711,0.0,0.0,0.0,0.0,0
8708000,0,0.7071099,0.00021696971,0.00021739467,0.70711,0.0,0.0,0.0,0.0,0
8720000,0,0.7071099,0.00021729249,0.00021771745,0.70711,0.0,0.0,0.0,0.0,0
8728000,0,0.7071099,0.00021750767,0.00021793263,0.70711,0.0,0.0,0.0,0.0,0
8740000,0,0.7071099,0.00021783044,0.00021825542,0.70711,0.0,0.0,0.0,0.0,0
8748000,0,0.7071099,0.00021804564,0.0002184706,0.70711,0.0,0.0,0.0,0.0,0
8760000,0,0.7071099,0.00021836841,0.00021879337,0.70711,0.0,0.0,0.0,0.0,0
8768000,0,0.7071099,0.0002185836,0.00021900857,0.70711,0.0,0.0,0.0,0.0,0
8780000,0,0.7071099,0.00021890638,0.00021933134,0.70711,0.0,0.0,0.0,0.0,0
8788000,0,0.7071099,0.00021912156,0.00021954652,0.70711,0.0,0.0,0.0,0.0,0
8800000,0,0.7071099,0.00021944434,0.00021986931,0.70711,0.0,0.0,0.0,0.0,0
8808000,0,0.7071099,0.00021965953,0.00022008449,0.70711,0.0,0.0,0.0,0.0,0
8820000,0,0.7071099,0.0002199823,0.00022040727,0.70711,0.0,0.0,0.0,0.0,0
8828000,0,0.7071099,0.0002201975,0.00022062246,0.70711,0.0,0.0,0.0,0.0,0
8840000,0,0.7071099,0.00022052028,0.00022094524,0.70711,0.0,0.0,0.0,0.0,0
8848000,0,0.7071099,0.00022073546,0.00022116043,0.70711,0.0,0.0,0.0,0.0,0
8860000,0,0.7071099,0.00022105825,0.0002214832,0.70711,0.0,0.0,0.0,0.0,0
8868000,0,0.7071099,0.00022127343,0.00022169838,0.70711,0.0,0.0,0.0,0.0,0
8880000,0,0.7071099,0.00022159622,0.00022202118,0.70711,0.0,0.0,0.0,0.0,0
8888000,0,0.7071099,0.0002218114,0.00022223635,0.70711,0.0,0.0,0.0,0.0,0
8900000,0,0.7071099,0.00022213417,0.00022255913,0.70711,0.0,0.0,0.0,0.0,0
8908000,0,0.7071099,0.00022234936,0.00022277432,0.70711,0.0,0.0,0.0,0.0,0
8920000,0,0.7071099,0.00022267214,0.0002230971,0.70711,0.0,0.0,0.0,0.0,0
8928000,0,0.7071099,0.00022288733,0.0002233123,0.70711,0.0,0.0,0.0,0.0,0
8940000,0,0.7071099,0.00022321011,0.00022363507,0.70711,0.0,0.0,0.0,0.0,0
8948000,0,0.7071099,0.00022342529,0.00022385026,0.70711,0.0,0.0,0.0,0.0,0
8960000,0,0.7071099,0.00022374808,0.00022417304,0.70711,0.0,0.0,0.0,0.0,0
8968000,0,0.7071099,0.00022396326,0.00022438822,0.70711,0.0,0.0,0.0,0.0,0
8980000,0,0.7071099,0.00022428605,0.00022471101,0.70711,0.0,0.0,0.0,0.0,0
8988000,0,0.7071099,0.00022450123,0.00022492619,0.70711,0.0,0.0,0.0,0.0,0
9000000,0,0.7071099,0.00022482402,0.00022524898,0.70711,0.0,0.0,0.0,0.0,0
9008000,0,0.7071099,0.0002250392,0.00022546416,0.70711,0.0,0.0,0.0,0.0,0
9020000,0,0.7071099,0.00022536198,0.00022578693,0.70711,0.0,0.0,0.0,0.0,0
9028000,0,0.7071099,0.00022557717,0.00022600213,0.70711,0.0,0.0,0.0,0.0,0
9040000,0,0.7071099,0.00022589994,0.0002263249,0.70711,0.0,0.0,0.0,0.0,0
9048000,0,0.7071099,0.00022611514,0.0002265401,0.70711,0.0,0.0,0.0,0.0,0
9060000,0,0.7071099,0.00022643791,0.00022686287,0.70711,0.0,0.0,0.0,0.0,0
9068000,0,0.7071099,0.00022665311,0.00022707807,0.70711,0.0,0.0,0.0,0.0,0
9080000,0,0.7071099,0.00022697588,0.00022740084,0.70711,0.0,0.0,0.0,0.0,0
9088000,0,0.7071099,0.00022719108,0.00022761604,0.70711,0.0,0.0,0.0,0.0,0
9100000,0,0.7071099,0.00022751385,0.00022793881,0.70711,0.0,0.0,0.0,0.0,0
9108000,0,0.7071099,0.00022772905,0.00022815401,0.70711,0.0,0.0,0.0,0.0,0
9120000,0,0.7071099,0.00022805182,0.00022847678,0.70711,0.0,0.0,0.0,0.0,0
9128000,0,0.7071099,0.00022826702,0.00022869198,0.70711,0.0,0.0,0.0,0.0,0
9140000,0,0.7071099,0.0002285898,0.00022901475,0.70711,0.0,0.0,0.0,0.0,0
9148000,0,0.7071099,0.00022880499,0.00022922995,0.70711,0.0,0.0,0.0,0.0,0
9160000,0,0.7071099,0.00022912776,0.00022955272,0.70711,0.0,0.0,0.0,0.0,0
9168000,0,0.7071099,0.00022934296,0.00022976792,0.70711,0.0,0.0,0.0,0.0,0
9180000,0,0.7071099,0.00022966573,0.00023009069,0.70711,0.0,0.0,0.0,0.0,0
9188000,0,0.7071099,0.00022988093,0.00023030589,0.70711,0.0,0.0,0.0,0.0,0
9200000,0,0.7071099,0.0002302037,0.00023062866,0.70711,0.0,0.0,0.0,0.0,0
9208000,0,0.7071099,0.0002304189,0.00023084386,0.70711,0.0,0.0,0.0,0.0,0
9220000,0,0.7071099,0.00023074167,0.00023116663,0.70711,0.0,0.0,0.0,0.0,0
9228000,0,0.7071099,0.00023095687,0.00023138183,0.70711,0.0,0.0,0.0,0.0,0
9240000,0,0.7071099,0.00023127964,0.0002317046,0.70711,0.0,0.0,0.0,0.0,0
9248000,0,0.7071099,0.00023149484,0.0002319198,0.70711,0.0,0.0,0.0,0.0,0
9260000,0,0.7071099,0.00023181763,0.00023224257,0.70711,0.0,0.0,0.0,0.0,0
9268000,0,0.7071099,0.0002320328,0.00023245777,0.70711,0.0,0.0,0.0,0.0,0
9280000,0,0.7071099,0.0002323556,0.00023278056,0.70711,0.0,0.0,0.0,0.0,0
9288000,0,0.7071099,0.00023257078,0.00023299574,0.70711,0.0,0.0,0.0,0.0,0
9300000,0,0.7071099,0.00023289357,0.00023331853,0.70711,0.0,0.0,0.0,0.0,0
9308000,0,0.7071099,0.00023310875,0.0002335337,0.70711,0.0,0.0,0.0,0.0,0
9320000,0,0.7071099,0.00023343154,0.0002338565,0.70711,0.0,0.0,0.0,0.0,0
9328000,0,0.7071099,0.00023364673,0.00023407167,0.70711,0.0,0.0,0.0,0.0,0
9340000,0,0.7071099,0.0002339695,0.00023439447,0.70711,0.0,0.0,0.0,0.0,0
9348000,0,0.7071099,0.0002341847,0.00023460966,0.70711,0.0,0.0,0.0,0.0,0
9360000,0,0.7071099,0.00023450748,0.00023493243,0.70711,0.0,0.0,0.0,0.0,0
9368000,0,0.7071099,0.00023472267,0.00023514763,0.70711,0.0,0.0,0.0,0.0,0
9380000,0,0.7071099,0.00023504545,0.0002354704,0.70711,0.0,0.0,0.0,0.0,0
9388000,0,0.7071099,0.00023526064,0.0002356856,0.70711,0.0,0.0,0.0,0.0,0
9400000,0,0.7071099,0.00023558343,0.00023600839,0.70711,0.0,0.0,0.0,0.0,0
9408000,0,0.7071099,0.00023579861,0.00023622357,0.70711,0.0,0.0,0.0,0.0,0
9420000,0,0.7071099,0.0002361214,0.00023654636,0.70711,0.0,0.0,0.0,0.0,0
9428000,0,0.7071099,0.0002363366,0.00023676154,0.70711,0.0,0.0,0.0,0.0,0
9440000,0,0.7071099,0.00023665937,0.00023708433,0.70711,0.0,0.0,0.0,0.0,0
9448000,0,0.7071099,0.00023687456,0.00023729952,0.70711,0.0,0.0,0.0,0.0,0
9460000,0,0.7071099,0.00023719734,0.0002376223,0.70711,0.0,0.0,0.0,0.0,0
9468000,0,0.7071099,0.00023741253,0.00023783749,0.70711,0.0,0.0,0.0,0.0,0
9480000,0,0.7071099,0.00023773532,0.00023816028,0.70711,0.0,0.0,0.0,0.0,0
9488000,0,0.7071099,0.0002379505,0.00023837546,0.70711,0.0,0.0,0.0,0.0,0
9500000,0,0.7071099,0.0002382733,0.00023869825,0.70711,0.0,0.0,0.0,0.0,0
9508000,0,0.7071099,0.00023848849,0.00023891345,0.70711,0.0,0.0,0.0,0.0,0
9520000,0,0.7071099,0.00023881126,0.00023923622,0.70711,0.0,0.0,0.0,0.0,0
9528000,0,0.7071099,0.00023902646,0.00023945142,0.70711,0.0,0.0,0.0,0.0,0
9540000,0,0.7071099,0.00023934925,0.00023977419,0.70711,0.0,0.0,0.0,0.0,0
9548000,0,0.7071099,0.00023956443,0.00023998939,0.70711,0.0,0.0,0.0,0.0,0
9560000,0,0.7071099,0.00023988722,0.00024031218,0.70711,0.0,0.0,0.0,0.0,0
9568000,0,0.7071099,0.00024010241,0.00024052737,0.70711,0.0,0.0,0.0,0.0,0
9580000,0,0.7071099,0.00024042519,0.00024085015,0.70711,0.0,0.0,0.0,0.0,0
9588000,0,0.7071099,0.00024064038,0.00024106534,0.70711,0.0,0.0,0.0,0.0,0
9600000,0,0.7071099,0.00024096317,0.00024138813,0.70711,0.0,0.0,0.0,0.0,0
9608000,0,0.7071099,0.00024117836,0.00024160331,0.70711,0.0,0.0,0.0,0.0,0
9620000,0,0.7071099,0.00024150114,0.0002419261,0.70711,0.0,0.0,0.0,0.0,0
9628000,0,0.7071099,0.00024171633,0.0002421413,0.70711,0.0,0.0,0.0,0.0,0
9640000,0,0.7071099,0.00024203912,0.00024246407,0.70711,0.0,0.0,0.0,0.0,0
9648000,0,0.7071099,0.0002422543,0.00024267926,0.70711,0.0,0.0,0.0,0.0,0
9660000,0,0.7071099,0.0002425771,0.00024300205,0.70711,0.0,0.0,0.0,0.0,0
9668000,0,0.7071099,0.00024279229,0.00024321725,0.70711,0.0,0.0,0.0,0.0,0
9680000,0,0.7071099,0.00024311508,0.00024354002,0.70711,0.0,0.0,0.0,0.0,0
9688000,0,0.7071099,0.00024333026,0.00024375522,0.70711,0.0,0.0,0.0,0.0,0
9700000,0,0.7071099,0.00024365305,0.00024407801,0.70711,0.0,0.0,0.0,0.0,0
9708000,0,0.7071099,0.00024386824,0.0002442932,0.70711,0.0,0.0,0.0,0.0,0
9720000,0,0.7071099,0.00024419103,0.00024461598,0.70711,0.0,0.0,0.0,0.0,0
9728000,0,0.7071099,0.00024440623,0.00024483117,0.70711,0.0,0.0,0.0,0.0,0
9740000,0,0.7071099,0.00024472902,0.00024515396,0.70711,0.0,0.0,0.0,0.0,0
9748000,0,0.7071099,0.00024494418,0.00024536916,0.70711,0.0,0.0,0.0,0.0,0
9760000,0,0.7071099,0.00024526697,0.00024569195,0.70711,0.0,0.0,0.0,0.0,0
9768000,0,0.7071099,0.00024548217,0.00024590714,0.70711,0.0,0.0,0.0,0.0,0
9780000,0,0.7071099,0.00024580496,0.0002462299,0.70711,0.0,0.0,0.0,0.0,0
9788000,0,0.7071099,0.00024602015,0.0002464451,0.70711,0.0,0.0,0.0,0.0,0
9800000,0,0.7071099,0.00024634294,0.0002467679,0.70711,0.0,0.0,0.0,0.0,0
9808000,0,0.7071099,0.00024655813,0.00024698308,0.70711,0.0,0.0,0.0,0.0,0
9820000,0,0.7071099,0.00024688093,0.00024730587,0.70711,0.0,0.0,0.0,0.0,0
9828000,0,0.7071099,0.00024709612,0.00024752106,0.70711,0.0,0.0,0.0,0.0,0
9840000,0,0.7071099,0.00024741888,0.00024784385,0.70711,0.0,0.0,0.0,0.0,0
9848000,0,0.7071099,0.00024763407,0.00024805905,0.70711,0.0,0.0,0.0,0.0,0
9860000,0,0.7071099,0.00024795686,0.00024838184,0.70711,0.0,0.0,0.0,0.0,0
9868000,0,0.7071099,0.00024817206,0.000248597,0.70711,0.0,0.0,0.0,0.0,0
9880000,0,0.7071099,0.00024849485,0.0002489198,0.70711,0.0,0.0,0.0,0.0,0
9888000,0,0.7071099,0.00024871004,0.000249135,0.70711,0.0,0.0,0.0,0.0,0
9900000,0,0.7071099,0.00024903283,0.00024945778,0.70711,0.0,0.0,0.0,0.0,0
9908000,0,0.7071099,0.00024924803,0.00024967297,0.70711,0.0,0.0,0.0,0.0,0
9920000,0,0.7071099,0.00024957082,0.00024999576,0.70711,0.0,0.0,0.0,0.0,0
9928000,0,0.7071099,0.000249786,0.00025021096,0.70711,0.0,0.0,0.0,0.0,0
9940000,0,0.7071099,0.0002501088,0.00025053375,0.70711,0.0,0.0,0.0,0.0,0
9948000,0,0.7071099,0.000250324,0.00025074894,0.70711,0.0,0.0,0.0,0.0,0
9960000,0,0.7071099,0.00025064676,0.00025107173,0.70711,0.0,0.0,0.0,0.0,0
9968000,0,0.7071099,0.00025086195,0.00025128693,0.70711,0.0,0.0,0.0,0.0,0
9980000,0,0.7071099,0.00025118474,0.00025160972,0.70711,0.0,0.0,0.0,0.0,0
9988000,0,0.7071099,0.00025139994,0.00025182488,0.70711,0.0,0.0,0.0,0.0,0
10000000,0,0.7071099,0.00025172273,0.00025214767,0.70711,0.0,0.0,0.0,0.0,0
10008000,0,0.7071099,0.00025193792,0.00025236286,0.70711,0.0,0.0,0.0,0.0,0
10020000,0,0.7071099,0.0002522607,0.00025268566,0.70711,0.0,0.0,0.0,0.0,0
10028000,0,0.7071099,0.0002524759,0.00025290085,0.70711,0.0,0.0,0.0,0.0,0
10040000,0,0.7071099,0.0002527987,0.00025322364,0.70711,0.0,0.0,0.0,0.0,0
10048000,0,0.7071099,0.0002530139,0.00025343883,0.70711,0.0,0.0,0.0,0.0,0
10060000,0,0.7071099,0.00025333668,0.00025376162,0.70711,0.0,0.0,0.0,0.0,0
10068000,0,0.7071099,0.00025355187,0.00025397682,0.70711,0.0,0.0,0.0,0.0,0
10080000,0,0.7071099,0.00025387466,0.0002542996,0.70711,0.0,0.0,0.0,0.0,0
10088000,0,0.7071099,0.00025408986,0.0002545148,0.70711,0.0,0.0,0.0,0.0,0
10100000,0,0.7071099,0.00025441265,0.0002548376,0.70711,0.0,0.0,0.0,0.0,0
10108000,0,0.7071099,0.00025462784,0.0002550528,0.70711,0.0,0.0,0.0,0.0,0
10120000,0,0.7071099,0.00025495063,0.00025537558,0.70711,0.0,0.0,0.0,0.0,0
10128000,0,0.7071099,0.00025516583,0.00025559077,0.70711,0.0,0.0,0.0,0.0,0
10140000,0,0.7071099,0.0002554886,0.00025591356,0.70711,0.0,0.0,0.0,0.0,0
10148000,0,0.7071099,0.00025570378,0.00025612875,0.70711,0.0,0.0,0.0,0.0,0
10160000,0,0.7071099,0.00025602657,0.00025645155,0.70711,0.0,0.0,0.0,0.0,0
10168000,0,0.7071099,0.00025624176,0.00025666674,0.70711,0.0,0.0,0.0,0.0,0
10180000,0,0.7071099,0.00025656456,0.00025698953,0.70711,0.0,0.0,0.0,0.0,0
10188000,0,0.7071099,0.00025677975,0.0002572047,0.70711,0.0,0.0,0.0,0.0,0
10200000,0,0.7071099,0.00025710254,0.00025752748,0.70711,0.0,0.0,0.0,0.0,0
10208000,0,0.7071099,0.00025731773,0.00025774268,0.70711,0.0,0.0,0.0,0.0,0
10220000,0,0.7071099,0.00025764052,0.00025806547,0.70711,0.0,0.0,0.0,0.0,0
10228000,0,0.7071099,0.00025785572,0.00025828066,0.70711,0.0,0.0,0.0,0.0,0
10240000,0,0.7071099,0.0002581785,0.00025860345,0.70711,0.0,0.0,0.0,0.0,0
10248000,0,0.7071099,0.0002583937,0.00025881865,0.70711,0.0,0.0,0.0,0.0,0
10260000,0,0.7071099,0.0002587165,0.00025914144,0.70711,0.0,0.0,0.0,0.0,0
10268000,0,0.7071099,0.0002589317,0.00025935663,0.70711,0.0,0.0,0.0,0.0,0
10280000,0,0.7071099,0.00025925448,0.00025967942,0.70711,0.0,0.0,0.0,0.0,0
10288000,0,0.7071099,0.00025946967,0.00025989462,0.70711,0.0,0.0,0.0,0.0,0
10300000,0,0.7071099,0.00025979246,0.0002602174,0.70711,0.0,0.0,0.0,0.0,0
10308000,0,0.7071099,0.00026000766,0.0002604326,0.70711,0.0,0.0,0.0,0.0,0
10320000,0,0.7071099,0.00026033045,0.0002607554,0.70711,0.0,0.0,0.0,0.0,0
10328000,0,0.7071099,0.00026054564,0.00026097058,0.70711,0.0,0.0,0.0,0.0,0
10340000,0,0.7071099,0.00026086843,0.00026129337,0.70711,0.0,0.0,0.0,0.0,0
10348000,0,0.7071099,0.00026108362,0.00026150857,0.70711,0.0,0.0,0.0,0.0,0
10360000,0,0.7071099,0.0002614064,0.00026183136,0.70711,0.0,0.0,0.0,0.0,0
10368000,0,0.7071099,0.0002616216,0.00026204655,0.70711,0.0,0.0,0.0,0.0,0
10380000,0,0.7071099,0.0002619444,0.00026236934,0.70711,0.0,0.0,0.0,0.0,0
10388000,0,0.7071099,0.0002621596,0.00026258454,0.70711,0.0,0.0,0.0,0.0,0
10400000,0,0.7071099,0.00026248238,0.00026290733,0.70711,0.0,0.0,0.0,0.0,0
10408000,0,0.7071099,0.00026269758,0.00026312252,0.70711,0.0,0.0,0.0,0.0,0
10420000,0,0.7071099,0.00026302037,0.0002634453,0.70711,0.0,0.0,0.0,0.0,0
10428000,0,0.7071099,0.00026323556,0.0002636605,0.70711,0.0,0.0,0.0,0.0,0
10440000,0,0.7071099,0.00026355835,0.0002639833,0.70711,0.0,0.0,0.0,0.0,0
10448000,0,0.7071099,0.00026377355,0.00026419852,0.70711,0.0,0.0,0.0,0.0,0
10460000,0,0.7071099,0.00026409634,0.0002645213,0.70711,0.0,0.0,0.0,0.0,0
10468000,0,0.7071099,0.00026431153,0.0002647365,0.70711,0.0,0.0,0.0,0.0,0
10480000,0,0.7071099,0.00026463435,0.0002650593,0.70711,0.0,0.0,0.0,0.0,0
10488000,0,0.7071099,0.00026484954,0.0002652745,0.70711,0.0,0.0,0.0,0.0,0
10500000,0,0.7071099,0.00026517233,0.00026559728,0.70711,0.0,0.0,0.0,0.0,0
10508000,0,0.7071099,0.00026538753,0.00026581247,0.70711,0.0,0.0,0.0,0.0,0
10520000,0,0.7071099,0.00026571032,0.00026613526,0.70711,0.0,0.0,0.0,0.0,0
10528000,0,0.7071099,0.0002659255,0.00026635046,0.70711,0.0,0.0,0.0,0.0,0
10540000,0,0.7071099,0.0002662483,0.00026667325,0.70711,0.0,0.0,0.0,0.0,0
10548000,0,0.7071099,0.0002664635,0.00026688844,0.70711,0.0,0.0,0.0,0.0,0
10560000,0,0.7071099,0.0002667863,0.00026721123,0.70711,0.0,0.0,0.0,0.0,0
10568000,0,0.7071099,0.00026700148,0.00026742643,0.70711,0.0,0.0,0.0,0.0,0
10580000,0,0.7071099,0.00026732427,0.00026774922,0.70711,0.0,0.0,0.0,0.0,0
10588000,0,0.7071099,0.00026753946,0.0002679644,0.70711,0.0,0.0,0.0,0.0,0
10600000,0,0.7071099,0.00026786225,0.0002682872,0.70711,0.0,0.0,0.0,0.0,0
10608000,0,0.7071099,0.00026807745,0.0002685024,0.70711,0.0,0.0,0.0,0.0,0
10620000,0,0.7071099,0.00026840024,0.00026882518,0.70711,0.0,0.0,0.0,0.0,0
10628000,0,0.7071099,0.00026861543,0.00026904038,0.70711,0.0,0.0,0.0,0.0,0
10640000,0,0.7071099,0.00026893822,0.00026936317,0.70711,0.0,0.0,0.0,0.0,0
10648000,0,0.7071099,0.00026915342,0.00026957836,0.70711,0.0,0.0,0.0,0.0,0
10660000,0,0.7071099,0.00026947624,0.00026990118,0.70711,0.0,0.0,0.0,0.0,0
10668000,0,0.7071099,0.00026969143,0.00027011638,0.70711,0.0,0.0,0.0,0.0,0
10680000,0,0.7071099,0.00027001422,0.00027043917,0.70711,0.0,0.0,0.0,0.0,0
10688000,0,0.7071099,0.00027022942,0.00027065436,0.70711,0.0,0.0,0.0,0.0,0
10700000,0,0.7071099,0.0002705522,0.00027097715,0.70711,0.0,0.0,0.0,0.0,0
10708000,0,0.7071099,0.0002707674,0.00027119234,0.70711,0.0,0.0,0.0,0.0,0
10720000,0,0.7071099,0.0002710902,0.00027151513,0.70711,0.0,0.0,0.0,0.0,0
10728000,0,0.7071099,0.00027130538,0.00027173033,0.70711,0.0,0.0,0.0,0.0,0
10740000,0,0.7071099,0.00027162817,0.00027205312,0.70711,0.0,0.0,0.0,0.0,0
10748000,0,0.7071099,0.00027184337,0.0002722683,0.70711,0.0,0.0,0.0,0.0,0
10760000,0,0.7071099,0.00027216616,0.0002725911,0.70711,0.0,0.0,0.0,0.0,0
10768000,0,0.7071099,0.00027238138,0.0002728063,0.70711,0.0,0.0,0.0,0.0,0
10780000,0,0.7071099,0.00027270417,0.00027312912,0.70711,0.0,0.0,0.0,0.0,0
10788000,0,0.7071099,0.00027291937,0.0002733443,0.70711,0.0,0.0,0.0,0.0,0
10800000,0,0.7071099,0.00027324216,0.0002736671,0.70711,0.0,0.0,0.0,0.0,0
10808000,0,0.7071099,0.00027345735,0.0002738823,0.70711,0.0,0.0,0.0,0.0,0
10820000,0,0.7071099,0.00027378014,0.0002742051,0.70711,0.0,0.0,0.0,0.0,0
10828000,0,0.7071099,0.00027399533,0.00027442028,0.70711,0.0,0.0,0.0,0.0,0
10840000,0,0.7071099,0.00027431812,0.00027474307,0.70711,0.0,0.0,0.0,0.0,0
10848000,0,0.7071099,0.00027453332,0.00027495826,0.70711,0.0,0.0,0.0,0.0,0
10860000,0,0.7071099,0.00027485614,0.00027528105,0.70711,0.0,0.0,0.0,0.0,0
10868000,0,0.7071099,0.00027507133,0.00027549628,0.70711,0.0,0.0,0.0,0.0,0
10880000,0,0.7071099,0.00027539412,0.00027581907,0.70711,0.0,0.0,0.0,0.0,0
10888000,0,0.7071099,0.00027560932,0.00027603426,0.70711,0.0,0.0,0.0,0.0,0
10900000,0,0.7071099,0.0002759321,0.00027635705,0.70711,0.0,0.0,0.0,0.0,0
10908000,0,0.7071099,0.0002761473,0.00027657225,0.70711,0.0,0.0,0.0,0.0,0
10920000,0,0.7071099,0.0002764701,0.00027689504,0.70711,0.0,0.0,0.0,0.0,0
10928000,0,0.7071099,0.00027668528,0.00027711023,0.70711,0.0,0.0,0.0,0.0,0
10940000,0,0.7071099,0.0002770081,0.00027743302,0.70711,0.0,0.0,0.0,0.0,0
10948000,0,0.7071099,0.0002772233,0.00027764824,0.70711,0.0,0.0,0.0,0.0,0
10960000,0,0.7071099,0.0002775461,0.00027797103,0.70711,0.0,0.0,0.0,0.0,0
10968000,0,0.7071099,0.00027776128,0.00027818623,0.70711,0.0,0.0,0.0,0.0,0
10980000,0,0.7071099,0.00027808407,0.00027850902,0.70711,0.0,0.0,0.0,0.0,0
10988000,0,0.7071099,0.00027829927,0.0002787242,0.70711,0.0,0.0,0.0,0.0,0
11000000,0,0.7071099,0.00027862206,0.000279047,0.70711,0.0,0.0,0.0,0.0,0
11008000,0,0.7071099,0.00027883725,0.0002792622,0.70711,0.0,0.0,0.0,0.0,0
11020000,0,0.7071099,0.00027916007,0.00027958502,0.70711,0.0,0.0,0.0,0.0,0
11028000,0,0.7071099,0.00027937526,0.0002798002,0.70711,0.0,0.0,0.0,0.0,0
11040000,0,0.7071099,0.00027969806,0.000280123,0.70711,0.0,0.0,0.0,0.0,0
11048000,0,0.7071099,0.00027991325,0.0002803382,0.70711,0.0,0.0,0.0,0.0,0
11060000,0,0.7071099,0.00028023604,0.00028066098,0.70711,0.0,0.0,0.0,0.0,0
11068000,0,0.7071099,0.00028045123,0.00028087618,0.70711,0.0,0.0,0.0,0.0,0
11080000,0,0.7071099,0.00028077405,0.000281199,0.70711,0.0,0.0,0.0,0.0,0
11088000,0,0.7071099,0.00028098925,0.0002814142,0.70711,0.0,0.0,0.0,0.0,0
11100000,0,0.70710987,0.00028131204,0.00028173698,0.70711,0.0,0.0,0.0,0.0,0
11108000,0,0.70710987,0.00028152723,0.00028195218,0.70711,0.0,0.0,0.0,0.0,0
11120000,0,0.70710987,0.00028185002,0.00028227497,0.70711,0.0,0.0,0.0,0.0,0
11128000,0,0.70710987,0.00028206522,0.00028249016,0.70711,0.0,0.0,0.0,0.0,0
11140000,0,0.70710987,0.00028238803,0.00028281298,0.70711,0.0,0.0,0.0,0.0,0
11148000,0,0.70710987,0.00028260323,0.00028302817,0.70711,0.0,0.0,0.0,0.0,0
11160000,0,0.70710987,0.00028292602,0.00028335096,0.70711,0.0,0.0,0.0,0.0,0
11168000,0,0.70710987,0.0002831412,0.00028356616,0.70711,0.0,0.0,0.0,0.0,0
11180000,0,0.70710987,0.000283464,0.00028388895,0.70711,0.0,0.0,0.0,0.0,0
11188000,0,0.70710987,0.00028367923,0.00028410414,0.70711,0.0,0.0,0.0,0.0,0
11200000,0,0.70710987,0.00028400202,0.00028442696,0.70711,0.0,0.0,0.0,0.0,0
11208000,0,0.70710987,0.0002842172,0.00028464216,0.70711,0.0,0.0,0.0,0.0,0
11220000,0,0.70710987,0.00028454,0.00028496495,0.70711,0.0,0.0,0.0,0.0,0
11228000,0,0.70710987,0.0002847552,0.00028518014,0.70711,0.0,0.0,0.0,0.0,0
11240000,0,0.70710987,0.00028507801,0.00028550293,0.70711,0.0,0.0,0.0,0.0,0
11248000,0,0.70710987,0.0002852932,0.00028571815,0.70711,0.0,0.0,0.0,0.0,0
11260000,0,0.70710987,0.000285616,0.00028604094,0.70711,0.0,0.0,0.0,0.0,0
11268000,0,0.70710987,0.0002858312,0.00028625614,0.70711,0.0,0.0,0.0,0.0,0
11280000,0,0.70710987,0.00028615398,0.00028657893,0.70711,0.0,0.0,0.0,0.0,0
11288000,0,0.70710987,0.0002863692,0.00028679412,0.70711,0.0,0.0,0.0,0.0,0
11300000,0,0.70710987,0.000286692,0.00028711694,0.70711,0.0,0.0,0.0,0.0,0
11308000,0,0.70710987,0.0002869072,0.00028733214,0.70711,0.0,0.0,0.0,0.0,0
11320000,0,0.70710987,0.00028722998,0.00028765493,0.70711,0.0,0.0,0.0,0.0,0
11328000,0,0.70710987,0.00028744517,0.00028787012,0.70711,0.0,0.0,0.0,0.0,0
11340000,0,0.70710987,0.000287768,0.0002881929,0.70711,0.0,0.0,0.0,0.0,0
11348000,0,0.70710987,0.0002879832,0.00028840813,0.70711,0.0,0.0,0.0,0.0,0
11360000,0,0.70710987,0.00028830598,0.00028873092,0.70711,0.0,0.0,0.0,0.0,0
11368000,0,0.70710987,0.00028852117,0.00028894612,0.70711,0.0,0.0,0.0,0.0,0
11380000,0,0.70710987,0.000288844,0.0002892689,0.70711,0.0,0.0,0.0,0.0,0
11388000,0,0.70710987,0.0002890592,0.00028948413,0.70711,0.0,0.0,0.0,0.0,0
11400000,0,0.70710987,0.00028938198,0.00028980692,0.70711,0.0,0.0,0.0,0.0,0
