timestamp,timestamp_sample,states[0],states[1],states[2],states[3],states[4],states[5],states[6],states[7],states[8],states[9],states[10],states[11],states[12],states[13],states[14],states[15],states[16],states[17],states[18],states[19],states[20],states[21],states[22],states[23],covariances[0],covariances[1],covariances[2],covariances[3],covariances[4],covariances[5],covariances[6],covariances[7],covariances[8],covariances[9],covariances[10],covariances[11],covariances[12],covariances[13],covariances[14],covariances[15],covariances[16],covariances[17],covariances[18],covariances[19],covariances[20],covariances[21],covariances[22],covariances[23],n_states
3972000,3892000,0.99988437,-0.00999731,-0.011462996,-0.00013102178,0.0033692303,-0.0007638617,-0.008786902,0.0003449663,-4.280835e-05,-0.0017808988,-4.9287655e-07,-2.274494e-05,-1.7953512e-07,-1.2947917e-05,2.0585512e-05,-0.0009627703,0.0,0.0,0.0,0.0,0.0,0.0,0.0,0.0,1.3391453e-07,0.00053677533,0.0005369216,0.0004495836,0.011694353,0.011695075,0.0022530905,0.0003902692,0.00039028926,25.000114,2.5883864e-07,2.5897202e-07,2.8103776e-07,3.7705781e-06,3.7708576e-06,3.8023373e-07,0.0,0.0,0.0,0.0,0.0,0.0,0.0,0.0,24
4972000,4892000,0.9998946,-0.009596268,-0.010894699,-6.4889966e-05,0.0003019396,-0.0033827424,-0.011412658,9.769592e-05,-0.0004677991,-0.017539917,-1.0122439e-05,-4.217203e-05,2.9472042e-07,-1.9699764e-05,2.6033156e-05,-0.0010152209,0.0,0.0,0.0,0.0,0.0,0.0,0.0,0.0,5.154304e-08,0.00019153144,0.00019159494,0.00070557074,0.0025547657,0.0025547028,0.007896954,0.00014952206,0.0001495206,4.1112013,6.6969807e-09,6.6957457e-09,6.85537e-08,3.7580946e-06,3.7584343e-06,2.1813534e-07,0.0,0.0,0.0,0.0,0.0,0.0,0.0,0.0,24
5972000,5892000,0.9999021,-0.00921809,-0.010525001,-0.0001302013,0.0008450063,-0.0006437894,-0.0095815435,0.000101400845,3.0939573e-05,0.0039149933,-1.2548394e-05,-4.43333e-05,4.98639e-07,-2.2828417e-05,2.8321383e-05,-0.0010561359,0.0,0.0,0.0,0.0,0.0,0.0,0.0,0.0,4.3595005e-08,0.0001639186,0.00016396758,0.0005090563,0.0011848357,0.001184807,0.007731181,9.313141e-05,9.313099e-05,0.61504316,9.355793e-10,9.344695e-10,1.9338563e-08,3.7531245e-06,3.7535208e-06,9.722379e-08,0.0,0.0,0.0,0.0,0.0,0.0,0.0,0.0,24
6972000,6892000,0.99990594,-0.008764425,-0.0105505055,-7.5945085e-05,-0.0012101678,0.0035777432,-0.0052646026,-0.00025956883,0.00023342333,0.0052335234,-1.2350954e-05,-4.346177e-05,6.575299e-07,-2.1861888e-05,2.8113189e-05,-0.0010734606,0.0,0.0,0.0,0.0,0.0,0.0,0.0,0.0,4.0361158e-08,0.00015866717,0.00015870598,0.00044983666,0.0008215891,0.0008215491,0.0076593286,6.99635e-05,6.996298e-05,0.33654413,3.0929356e-10,3.0854524e-10,9.0716545e-09,3.7517632e-06,3.752175e-06,5.794437e-08,0.0,0.0,0.0,0.0,0.0,0.0,0.0,0.0,24
7972000,7892000,0.99990547,-0.008931245,-0.010453981,-0.00028001732,0.00039285063,0.0022547226,-0.0020666718,0.00012587021,0.0007697843,0.0056038243,-1.0345408e-05,-4.343444e-05,4.852751e-07,-2.1984777e-05,2.5179876e-05,-0.0010781297,0.0,0.0,0.0,0.0,0.0,0.0,0.0,0.0,3.910289e-08,0.00015783428,0.00015788378,0.0003439348,0.0011643616,0.0011643507,0.006339064,0.00014801086,0.00014800898,0.23955637,1.660763e-10,1.6589992e-10,4.326191e-09,3.7514585e-06,3.7518691e-06,5.000026e-08,0.0,0.0,0.0,0.0,0.0,0.0,0.0,0.0,24
8972000,8892000,0.99990875,-0.008772401,-0.01027355,-0.000392214,0.002002311,0.0028824739,-0.000911586,0.00023074372,0.00042883627,-0.0026991125,-9.831958e-06,-4.325989e-05,1.6179595e-08,-2.1688245e-05,2.3815683e-05,-0.0010804491,0.0,0.0,0.0,0.0,0.0,0.0,0.0,0.0,3.7170803e-08,0.00015649546,0.00015654635,0.0002776444,0.00095444015,0.0009545226,0.0056342063,0.00011688395,0.00011688783,0.67174506,9.389007e-11,9.378258e-11,2.396738e-09,3.750988e-06,3.7513914e-06,5.000015e-08,0.0,0.0,0.0,0.0,0.0,0.0,0.0,0.0,24
9972000,9892000,0.99991244,-0.008809335,-0.009872889,-0.0003215508,0.0018110515,0.0012519398,0.0022698417,0.00068121386,0.00045612687,0.0003673099,-9.217386e-06,-4.392312e-05,-2.6717146e-07,-2.4081797e-05,2.2553768e-05,-0.0010800045,0.0,0.0,0.0,0.0,0.0,0.0,0.0,0.0,3.581701e-08,0.00015576005,0.00015581421,0.00023262156,0.00081365,0.00081366,0.005268863,9.4746414e-05,9.4747644e-05,0.17226647,6.1228e-11,6.11867e-11,1.4697507e-09,3.7506782e-06,3.7510977e-06,5.000018e-08,0.0,0.0,0.0,0.0,0.0,0.0,0.0,0.0,24
10972000,10892000,0.99991566,-0.008617319,-0.009710217,-0.0003713859,-0.00010729296,-0.0026011681,0.0076457337,-6.3007064e-05,-0.0004255873,0.0026153508,-9.245547e-06,-4.4019638e-05,-5.014258e-07,-2.4771569e-05,2.3033224e-05,-0.0010740313,0.0,0.0,0.0,0.0,0.0,0.0,0.0,0.0,3.475131e-08,0.00015537575,0.00015542608,0.00020016292,0.0007071179,0.0007071151,0.0050380044,7.798784e-05,7.798765e-05,0.113016196,4.402488e-11,4.3978633e-11,9.696017e-10,3.7505147e-06,3.7509562e-06,5.000015e-08,0.0,0.0,0.0,0.0,0.0,0.0,0.0,0.0,24
11972000,11892000,0.99991894,-0.008371158,-0.0095943995,-0.0004054915,-0.0032400847,-0.00028149775,0.012100564,-0.00046212977,-0.00041614493,0.004183694,-9.741396e-06,-4.3743723e-05,-6.545981e-07,-2.5426765e-05,2.492631e-05,-0.0010596027,0.0,0.0,0.0,0.0,0.0,0.0,0.0,0.0,3.3743245e-08,0.00015522349,0.00015527036,0.00018902945,0.00062016584,0.0006200629,0.004845227,6.491581e-05,6.491342e-05,0.080453634,3.395389e-11,3.3890328e-11,7.2380224e-10,3.7504376e-06,3.7508366e-06,5e-08,0.0,0.0,0.0,0.0,0.0,0.0,0.0,0.0,24
12972000,12892000,0.9999194,-0.008188873,-0.0096971495,-0.00036181894,0.0007913052,0.005019753,0.013580583,1.6389104e-05,0.0010707921,0.005145247,-9.7874445e-06,-4.3496188e-05,-8.0750164e-07,-2.5308853e-05,2.6297324e-05,-0.0010472735,0.0,0.0,0.0,0.0,0.0,0.0,0.0,0.0,3.3274492e-08,0.00015528614,0.00015533077,0.0001672239,0.00091525604,0.0009150441,0.0053565796,0.00013295065,0.00013293426,0.070045315,2.8687927e-11,2.8638692e-11,5.226347e-10,3.7502587e-06,3.7506118e-06,5e-08,0.0,0.0,0.0,0.0,0.0,0.0,0.0,0.0,24
13972000,13892000,0.99992037,-0.008299352,-0.009505115,-0.00037116747,0.0012723168,-0.0001832826,0.010029934,0.00058139674,0.00043739087,0.004009481,-9.420374e-06,-4.361361e-05,-9.129607e-07,-2.7264668e-05,2.5031139e-05,-0.0010330284,0.0,0.0,0.0,0.0,0.0,0.0,0.0,0.0,3.2533354e-08,0.00015502665,0.00015507311,0.00014998166,0.0008246087,0.0008244739,0.0051865214,0.00011116484,0.000111157526,0.060119614,2.4003834e-11,2.3980352e-11,3.9125003e-10,3.7499424e-06,3.750296e-06,5.000026e-08,0.0,0.0,0.0,0.0,0.0,0.0,0.0,0.0,24
14972000,14892000,0.99992424,-0.008189581,-0.009184135,-0.00031005446,0.0020137415,-3.1166477e-05,0.0066270754,0.00054445653,-0.0001939501,0.004832848,-9.46919e-06,-4.378689e-05,-9.881298e-07,-2.9954144e-05,2.6230997e-05,-0.0010223668,0.0,0.0,0.0,0.0,0.0,0.0,0.0,0.0,3.1449506e-08,0.00015477503,0.00015481905,0.00013601729,0.0007437565,0.0007435708,0.0050693722,9.3119554e-05,9.310935e-05,0.056661,2.0722795e-11,2.0710713e-11,3.0170041e-10,3.749543e-06,3.7499333e-06,5.000015e-08,0.0,0.0,0.0,0.0,0.0,0.0,0.0,0.0,24
15972000,15892000,0.99992925,-0.008027713,-0.008787235,-0.00022757119,0.004505623,-0.0026033684,0.012391254,0.003707835,-0.0003749031,0.009245777,-9.4693505e-06,-4.3787073e-05,-9.881375e-07,-2.9954144e-05,2.6230997e-05,-0.0010212623,0.0,0.0,0.0,0.0,0.0,0.0,0.0,0.0,2.9717796e-08,0.00015582853,0.00015587168,0.00016177818,0.06078605,0.06079368,0.008682232,0.015976576,0.015978122,0.061598036,2.1234674e-11,2.1222591e-11,3.0221242e-10,3.749543e-06,3.7499333e-06,5.0000185e-08,0.0,0.0,0.0,0.0,0.0,0.0,0.0,0.0,24
16972000,16892000,0.99992967,-0.0081649525,-0.008612179,-0.00017107386,0.00571712,-0.008789086,0.024196804,0.008599802,-0.005488746,0.021030992,-9.469708e-06,-4.3787477e-05,-9.881876e-07,-2.9954144e-05,2.6230997e-05,-0.0010192381,0.0,0.0,0.0,0.0,0.0,0.0,0.0,0.0,2.9430177e-08,0.00015625873,0.00015629847,0.0001898995,0.23936391,0.23939723,0.013053197,0.23955518,0.23958954,0.0805114,2.1744752e-11,2.1732671e-11,3.0272443e-10,3.749543e-06,3.7499333e-06,5.000015e-08,0.0,0.0,0.0,0.0,0.0,0.0,0.0,0.0,24
17972000,17892000,0.99981,0.016537799,0.009982483,0.0025953471,-0.01278249,0.028626146,-0.09931462,0.010639137,-0.01174159,0.015293198,-9.470661e-06,-4.378841e-05,-9.883682e-07,-2.9954144e-05,2.6230997e-05,-0.0010146964,0.0,0.0,0.0,0.0,0.0,0.0,0.0,0.0,5.2984493e-08,0.00015393931,0.0001539022,0.00022051802,0.53062177,0.53080195,0.016219342,1.177831,1.1781718,0.09985061,2.2249333e-11,2.2237287e-11,3.0323635e-10,3.749543e-06,3.7499333e-06,5.0000036e-08,0.0,0.0,0.0,0.0,0.0,0.0,0.0,0.0,24
18972000,18892000,0.99972486,-0.017755436,-0.015094824,0.0026687456,-0.1004638,0.08861353,-0.5843835,-0.115442865,0.124456614,-0.42124623,-9.469347e-06,-4.3787517e-05,-9.882457e-07,-2.9954144e-05,2.6230997e-05,-0.0010095496,0.0,0.0,0.0,0.0,0.0,0.0,0.0,0.0,8.799962e-08,0.0001410213,0.0001410605,0.0002531115,0.8753269,0.87578934,0.018616766,3.404739,3.4065747,0.1284496,2.2732486e-11,2.272059e-11,3.0374786e-10,3.749543e-06,3.7499333e-06,5.0000075e-08,0.0,0.0,0.0,0.0,0.0,0.0,0.0,0.0,24
19972000,19892000,0.9997731,-0.01565478,-0.014306615,0.0020092162,0.08757028,-0.13789581,-0.64667165,-0.0928205,0.06824745,-1.0798923,-9.463341e-06,-4.378185e-05,-9.874609e-07,-2.9954144e-05,2.6230997e-05,-0.0010018239,0.0,0.0,0.0,0.0,0.0,0.0,0.0,0.0,5.8201007e-08,0.0001127786,0.00011276822,0.00028835947,1.074913,1.0755584,0.018326735,6.580509,6.585257,0.13522199,2.3181746e-11,2.317016e-11,3.042589e-10,3.749543e-06,3.7499333e-06,5.0000036e-08,0.0,0.0,0.0,0.0,0.0,0.0,0.0,0.0,24
20972000,20892000,0.9984054,-0.05103276,0.024102192,0.0011491549,0.5542695,0.25110003,-0.39926538,0.2312955,0.14722545,-1.6318079,-9.459103e-06,-4.3786422e-05,-9.875523e-07,-2.9954144e-05,2.6230997e-05,-0.0009832536,0.0,0.0,0.0,0.0,0.0,0.0,0.0,0.0,2.3559927e-07,7.774207e-05,7.8441124e-05,0.0003252544,1.0295203,1.0306152,0.018763619,9.1594715,9.167891,0.15207283,2.3607918e-11,2.3596895e-11,3.0476846e-10,3.749543e-06,3.7499333e-06,5.0000036e-08,0.0,0.0,0.0,0.0,0.0,0.0,0.0,0.0,24
21972000,21892000,0.9991805,0.023078794,-0.03324655,0.0006140649,0.97863525,0.86573994,0.14866602,0.529362,0.531463,-2.0960267,-9.423535e-06,-4.3825567e-05,-9.854201e-07,-2.9954144e-05,2.6230997e-05,-0.0008693065,0.0,0.0,0.0,0.0,0.0,0.0,0.0,0.0,9.454332e-08,5.0153714e-05,4.9763763e-05,0.00036524868,0.8366958,0.838886,0.01754407,10.218253,10.238122,0.14349166,2.403561e-11,2.4026274e-11,3.0526684e-10,3.749543e-06,3.7499333e-06,5.0000075e-08,0.0,0.0,0.0,0.0,0.0,0.0,0.0,0.0,24
22972000,22892000,0.9953067,0.06288408,-0.07315962,0.007608527,1.895279,2.0410652,0.73865473,1.1739637,1.4618063,-2.2984095,-9.291003e-06,-4.3920467e-05,-9.605252e-07,-2.9954144e-05,2.6230997e-05,-0.0007026599,0.0,0.0,0.0,0.0,0.0,0.0,0.0,0.0,3.496587e-07,3.384063e-05,3.306715e-05,0.0004044247,0.64181906,0.6440938,0.018651735,10.155488,10.184782,0.1537957,2.4473552e-11,2.4468656e-11,3.057083e-10,3.749543e-06,3.7499333e-06,5e-08,0.0,0.0,0.0,0.0,0.0,0.0,0.0,0.0,24
23972000,23892000,0.99938613,0.012186586,-0.031099597,0.010574397,1.5744383,1.7602242,0.9065205,1.8276502,2.4465852,-2.3777568,-8.995856e-06,-4.4112e-05,-8.956573e-07,-2.9954144e-05,2.6230997e-05,-0.00046174208,0.0,0.0,0.0,0.0,0.0,0.0,0.0,0.0,8.855622e-08,2.4403329e-05,2.4057314e-05,0.00045144674,0.54013985,0.5426475,0.017451566,10.626303,10.671799,0.1440405,2.4927213e-11,2.4930629e-11,3.060428e-10,3.749543e-06,3.7499333e-06,5.000022e-08,0.0,0.0,0.0,0.0,0.0,0.0,0.0,0.0,24
24972000,24892000,0.9992801,-0.03543113,0.0067176796,0.011787165,0.11120286,0.050811294,0.5325851,1.5900095,2.101618,-2.0871084,-8.749385e-06,-4.4277556e-05,-8.196028e-07,-2.9954144e-05,2.6230997e-05,-0.00034353475,0.0,0.0,0.0,0.0,0.0,0.0,0.0,0.0,8.794207e-08,1.8527311e-05,1.9368741e-05,0.00049725024,0.42133483,0.42277128,0.018050669,9.813202,9.849895,0.15310983,2.5366624e-11,2.5380609e-11,3.0626507e-10,3.749543e-06,3.7499333e-06,5.0000185e-08,0.0,0.0,0.0,0.0,0.0,0.0,0.0,0.0,24
25972000,25892000,0.99376446,-0.037612125,0.011220782,-0.1043637,-1.5420707,-1.8136812,-0.17184347,0.34533858,0.5042169,-1.9660816,-8.647346e-06,-4.4354812e-05,-7.92282e-07,-2.9954144e-05,2.6230997e-05,-0.0003321163,0.0,0.0,0.0,0.0,0.0,0.0,0.0,0.0,5.972557e-06,1.5815844e-05,1.6743701e-05,0.0005405735,0.35574472,0.3536333,0.018061584,9.0478735,9.071906,0.14185937,2.5798638e-11,2.581735e-11,3.0667655e-10,3.749543e-06,3.7499333e-06,5.000007e-08,0.0,0.0,0.0,0.0,0.0,0.0,0.0,0.0,24
26972000,26892000,0.88994545,-0.010007487,-0.0097688865,-0.4558525,-2.720427,-2.3102093,-2.3105228,-1.6149749,-1.542244,-2.4111032,-8.618213e-06,-4.44144e-05,-8.232331e-07,-2.9954144e-05,2.6230997e-05,-0.00043769114,0.0,0.0,0.0,0.0,0.0,0.0,0.0,0.0,0.00012475654,1.4291103e-05,1.4384257e-05,0.00047561264,0.32273853,0.32798737,0.018171882,8.400339,8.410519,0.15244943,2.6205697e-11,2.6216659e-11,3.0711078e-10,3.749543e-06,3.7499333e-06,5.0000075e-08,0.0,0.0,0.0,0.0,0.0,0.0,0.0,0.0,24
27972000,27892000,0.89003706,-0.009852431,-0.009661885,-0.4556793,-2.5704165,-2.2232711,-1.9918805,-3.5361738,-3.179222,-3.0035663,-8.222204e-06,-4.50079e-05,-9.158902e-07,-2.9954144e-05,2.6230997e-05,-0.0004403115,0.0,0.0,0.0,0.0,0.0,0.0,0.0,0.0,0.00013575169,1.3587129e-05,1.3663169e-05,0.0005175852,0.28459185,0.28896952,0.013226298,7.8644958,7.8733597,0.13770895,2.656088e-11,2.654461e-11,3.0706296e-10,3.749543e-06,3.7499333e-06,5.0002377e-08,0.0,0.0,0.0,0.0,0.0,0.0,0.0,0.0,24
28972000,28892000,0.8901143,-0.009493691,-0.009624548,-0.45553672,-1.5907707,-2.218665,-1.171552,-4.7177544,-4.551422,-3.2863524,-7.935424e-06,-4.5479224e-05,-9.703807e-07,-2.9954144e-05,2.6230997e-05,-0.00046986103,0.0,0.0,0.0,0.0,0.0,0.0,0.0,0.0,0.00014704478,1.38517635e-05,1.3901394e-05,0.00056076754,0.27471572,0.26881003,0.012285854,7.993618,7.9987206,0.14051853,2.6902206e-11,2.685535e-11,3.0672884e-10,3.749543e-06,3.7499333e-06,5.000026e-08,0.0,0.0,0.0,0.0,0.0,0.0,0.0,0.0,24
29972000,29892000,0.89013016,-0.009782775,-0.009364,-0.45550516,-0.014483426,-2.2028887,0.06480341,-4.1858993,-5.3371415,-2.3634505,-7.8663925e-06,-4.5694138e-05,-1.025272e-06,-2.9954144e-05,2.6230997e-05,-0.0005743466,0.0,0.0,0.0,0.0,0.0,0.0,0.0,0.0,0.00015863782,1.4178741e-05,1.4210207e-05,0.0006046955,0.25630972,0.24549502,0.012538681,7.537031,7.5137286,0.124188244,2.7131422e-11,2.7050544e-11,3.0600517e-10,3.749543e-06,3.7499333e-06,5.0000036e-08,0.0,0.0,0.0,0.0,0.0,0.0,0.0,0.0,24
30972000,30892000,0.86071664,-0.2708398,0.01617151,-0.43075657,-0.47092322,-3.0117736,-0.23059237,-2.8821301,-5.7338405,-1.6911306,-8.427426e-06,-4.538917e-05,-1.0902199e-06,-2.9954144e-05,2.6230997e-05,-0.0006560503,0.0,0.0,0.0,0.0,0.0,0.0,0.0,0.0,0.00015435276,1.3900616e-05,7.035625e-05,0.00061106234,0.26856565,0.24655585,0.0135885775,7.1782727,7.1254334,0.13118874,2.7266755e-11,2.7161202e-11,3.0541766e-10,3.749543e-06,3.7499333e-06,5.000007e-08,0.0,0.0,0.0,0.0,0.0,0.0,0.0,0.0,24
31972000,31892000,0.37768975,0.05225747,0.035656136,-0.9237686,-0.7557289,-3.212181,-0.95982265,-3.0018375,-7.2529063,-2.168573,-9.348476e-06,-4.5035777e-05,-1.1751553e-06,-2.9954144e-05,2.6230997e-05,-0.0006565875,0.0,0.0,0.0,0.0,0.0,0.0,0.0,0.0,0.0007517328,1.5836597e-05,1.7786288e-05,0.0001253613,0.2808525,0.2568747,0.01140848,6.9709506,6.868379,0.12190091,2.7264345e-11,2.7143196e-11,3.0441374e-10,3.749543e-06,3.7499333e-06,5.000244e-08,0.0,0.0,0.0,0.0,0.0,0.0,0.0,0.0,24
32972000,32892000,0.36952642,0.07522074,0.015765747,-0.9260364,1.1484133,-1.5041802,-0.3128393,-1.918167,-7.0233345,-2.7502708,-1.071455e-05,-4.4798962e-05,-1.2834223e-06,-2.9954144e-05,2.6230997e-05,-0.00065693853,0.0,0.0,0.0,0.0,0.0,0.0,0.0,0.0,0.00080613856,1.3467187e-05,1.9085886e-05,0.00012757599,0.25927716,0.26290834,0.011502364,6.768521,6.6631784,0.12527856,2.7109766e-11,2.6979181e-11,3.031064e-10,3.749543e-06,3.7499333e-06,5.000011e-08,0.0,0.0,0.0,0.0,0.0,0.0,0.0,0.0,24
33972000,33892000,0.37146518,0.030143935,-0.0058370545,-0.9279391,2.3002183,-0.8357789,0.07962111,0.14088468,-6.2786603,-2.9155903,-1.1793974e-05,-4.4895463e-05,-1.4490852e-06,-2.9954144e-05,2.6230997e-05,-0.00064973044,0.0,0.0,0.0,0.0,0.0,0.0,0.0,0.0,0.0008644891,1.24695825e-05,1.3400849e-05,0.00013751737,0.26880315,0.2914837,0.0126850335,7.0470676,6.971335,0.11699031,2.6984606e-11,2.6852614e-11,3.0260705e-10,3.749543e-06,3.7499333e-06,5.000011e-08,0.0,0.0,0.0,0.0,0.0,0.0,0.0,0.0,24
34972000,34892000,0.3739008,0.0005858351,-0.012809005,-0.92738014,2.6378515,-0.734825,0.26244727,2.2574854,-5.094005,-2.9254253,-1.2862074e-05,-4.5493856e-05,-1.8228425e-06,-2.9954144e-05,2.6230997e-05,-0.0006207693,0.0,0.0,0.0,0.0,0.0,0.0,0.0,0.0,0.00092028896,1.1952425e-05,1.1876001e-05,0.00014808474,0.2682908,0.297142,0.015266944,6.885089,6.8760433,0.12651567,2.6579752e-11,2.6465887e-11,3.0216404e-10,3.749543e-06,3.7499333e-06,5.0000146e-08,0.0,0.0,0.0,0.0,0.0,0.0,0.0,0.0,24
35972000,35892000,0.3764833,-0.0063039786,-0.01161567,-0.92632914,2.6133542,-0.7736795,0.2987266,3.803244,-4.2686234,-2.9173443,-1.3543234e-05,-4.656866e-05,-2.371457e-06,-2.9954144e-05,2.6230997e-05,-0.0005620791,0.0,0.0,0.0,0.0,0.0,0.0,0.0,0.0,0.000976164,1.1643109e-05,1.165296e-05,0.00015877651,0.2665651,0.294118,0.016941272,6.758848,6.8134823,0.124543674,2.6067667e-11,2.5994294e-11,3.0150418e-10,3.749543e-06,3.7499333e-06,5.0000036e-08,0.0,0.0,0.0,0.0,0.0,0.0,0.0,0.0,24
36972000,36892000,0.37840113,-0.0018206446,-0.006503038,-0.92561704,2.5788195,-0.7094513,0.3228315,4.851894,-3.6800373,-2.8660676,-1.39110125e-05,-4.792986e-05,-2.9852174e-06,-2.9954144e-05,2.6230997e-05,-0.0004987202,0.0,0.0,0.0,0.0,0.0,0.0,0.0,0.0,0.001032762,1.16043075e-05,1.1561888e-05,0.0001688571,0.26336592,0.28953916,0.019240484,6.651651,6.7545524,0.14029625,2.5509098e-11,2.5485931e-11,3.0041708e-10,3.749543e-06,3.7499333e-06,5e-08,0.0,0.0,0.0,0.0,0.0,0.0,0.0,0.0,24
37972000,37892000,0.38018006,0.0040574186,-0.0054352614,-0.92488766,2.6280537,-0.5406775,0.27816844,5.597966,-3.1527596,-2.8329506,-1.3978166e-05,-4.9449958e-05,-3.6143272e-06,-2.9954144e-05,2.6230997e-05,-0.00043028124,0.0,0.0,0.0,0.0,0.0,0.0,0.0,0.0,0.0010892319,1.1804438e-05,1.1716848e-05,0.00017884838,0.25982404,0.28659934,0.019460406,6.5505977,6.6902943,0.1393372,2.4956362e-11,2.4978516e-11,2.989428e-10,3.749543e-06,3.7499333e-06,5.000011e-08,0.0,0.0,0.0,0.0,0.0,0.0,0.0,0.0,24
38972000,38892000,0.38094878,0.0059931474,-0.0023508344,-0.9245738,2.7573917,-0.35734627,0.23922119,6.621873,-2.796692,-2.765394,-1.3817806e-05,-5.0693765e-05,-4.100232e-06,-2.9954144e-05,2.6230997e-05,-0.00038222378,0.0,0.0,0.0,0.0,0.0,0.0,0.0,0.0,0.0011481266,1.2445028e-05,1.22939e-05,0.00018847243,0.26876092,0.29752904,0.020472867,6.9020357,7.0931864,0.15477034,2.4650499e-11,2.4701713e-11,2.976381e-10,3.749543e-06,3.7499333e-06,5.000022e-08,0.0,0.0,0.0,0.0,0.0,0.0,0.0,0.0,24
39972000,39892000,0.38168672,0.0053266375,-0.0009971737,-0.9242759,2.7822292,-0.12424611,0.1834539,7.1105433,-2.1840744,-2.731884,-1.3347839e-05,-5.2195035e-05,-4.679191e-06,-2.9954144e-05,2.6230997e-05,-0.00034233142,0.0,0.0,0.0,0.0,0.0,0.0,0.0,0.0,0.0012054718,1.30128e-05,1.2804027e-05,0.000197616,0.26763472,0.2954762,0.019114334,6.802479,7.0152464,0.14484145,2.4202583e-11,2.4280968e-11,2.956467e-10,3.749543e-06,3.7499333e-06,5e-08,0.0,0.0,0.0,0.0,0.0,0.0,0.0,0.0,24
40972000,40892000,0.3824853,0.0049726954,0.0008489331,-0.9239479,2.7550418,0.09779054,0.1364539,7.447822,-1.5560006,-2.6655357,-1.2585082e-05,-5.3559626e-05,-5.2433893e-06,-2.9954144e-05,2.6230997e-05,-0.00032656264,0.0,0.0,0.0,0.0,0.0,0.0,0.0,0.0,0.001262697,1.3722544e-05,1.3435033e-05,0.00020680872,0.26885942,0.29405683,0.019738467,6.711622,6.933621,0.1585423,2.3832568e-11,2.3930469e-11,2.9346267e-10,3.749543e-06,3.7499333e-06,5.0000256e-08,0.0,0.0,0.0,0.0,0.0,0.0,0.0,0.0,24
41972000,41892000,0.38384974,0.005520811,0.0015145881,-0.92337793,2.69343,0.31172186,0.09542652,7.6334896,-0.92654765,-2.6337078,-1.1545336e-05,-5.4710916e-05,-5.820012e-06,-2.9954144e-05,2.6230997e-05,-0.00031446636,0.0,0.0,0.0,0.0,0.0,0.0,0.0,0.0,0.0013195042,1.4475546e-05,1.4140464e-05,0.00021662006,0.27256632,0.2940837,0.018457113,6.6325026,6.8522277,0.14696378,2.3529971e-11,2.3650559e-11,2.9116232e-10,3.749543e-06,3.7499333e-06,5.000022e-08,0.0,0.0,0.0,0.0,0.0,0.0,0.0,0.0,24
42972000,42892000,0.38562638,0.005540454,0.004872388,-0.92262554,2.6008537,0.5299028,0.08240838,7.6834736,-0.30151245,-2.5986183,-1.0285299e-05,-5.558101e-05,-6.420859e-06,-2.9954144e-05,2.6230997e-05,-0.00031067937,0.0,0.0,0.0,0.0,0.0,0.0,0.0,0.0,0.0013760938,1.540017e-05,1.4890617e-05,0.00022690234,0.2788335,0.2956773,0.019037995,6.568496,6.775276,0.15687512,2.3277815e-11,2.3431581e-11,2.8881078e-10,3.749543e-06,3.7499333e-06,5.0000146e-08,0.0,0.0,0.0,0.0,0.0,0.0,0.0,0.0,24
43972000,43892000,0.38723996,0.004521899,0.0061547677,-0.9219474,2.5417101,0.73504555,0.07420765,8.126021,0.33950445,-2.5704544,-9.15741e-06,-5.6036784e-05,-6.930272e-06,-2.9954144e-05,2.6230997e-05,-0.00030608656,0.0,0.0,0.0,0.0,0.0,0.0,0.0,0.0,0.0014361065,1.652161e-05,1.5935904e-05,0.000237891,0.30017143,0.3123325,0.018058961,6.9779277,7.188303,0.14490436,2.3196294e-11,2.3389101e-11,2.8703007e-10,3.749543e-06,3.7499333e-06,5.000018e-08,0.0,0.0,0.0,0.0,0.0,0.0,0.0,0.0,24
44972000,44892000,0.38947266,0.0034786093,0.008576389,-0.9209916,2.3553941,0.94704247,0.06514075,7.8871317,0.9911286,-2.5408952,-7.668085e-06,-5.6284203e-05,-7.608684e-06,-2.9954144e-05,2.6230997e-05,-0.00030579767,0.0,0.0,0.0,0.0,0.0,0.0,0.0,0.0,0.0014935301,1.7433362e-05,1.670781e-05,0.00024888496,0.31138676,0.31649184,0.018890422,6.9512587,7.12389,0.15519194,2.2968929e-11,2.3227274e-11,2.8471936e-10,3.749543e-06,3.7499333e-06,5.0000224e-08,0.0,0.0,0.0,0.0,0.0,0.0,0.0,0.0,24
45972000,45892000,0.39156672,0.002732517,0.008951142,-0.9201021,2.1345673,1.1379232,0.061829455,7.505297,1.6131884,-2.5247726,-6.164335e-06,-5.6159523e-05,-8.340233e-06,-2.9954144e-05,2.6230997e-05,-0.0003024813,0.0,0.0,0.0,0.0,0.0,0.0,0.0,0.0,0.0015522846,1.8127948e-05,1.741875e-05,0.0002597724,0.32375082,0.32162106,0.018114736,6.943353,7.0691004,0.14428474,2.2720598e-11,2.305702e-11,2.8249592e-10,3.749543e-06,3.7499333e-06,5.0000224e-08,0.0,0.0,0.0,0.0,0.0,0.0,0.0,0.0,24
46972000,46892000,0.39370513,0.0014592926,0.010093453,-0.9191802,1.8855567,1.2944838,0.061824985,6.9977093,2.1862302,-2.506465,-4.7322437e-06,-5.568383e-05,-9.123e-06,-2.9954144e-05,2.6230997e-05,-0.00029960662,0.0,0.0,0.0,0.0,0.0,0.0,0.0,0.0,0.0016121462,1.8770123e-05,1.8060478e-05,0.0002707522,0.3361598,0.3273782,0.018976988,6.950022,7.023731,0.15482569,2.2434193e-11,2.2851741e-11,2.8038546e-10,3.749543e-06,3.7499333e-06,5.000015e-08,0.0,0.0,0.0,0.0,0.0,0.0,0.0,0.0,24
47972000,47892000,0.39634562,-0.0011700742,0.011033992,-0.9180344,1.6104307,1.4065527,0.061307035,6.3834085,2.6800396,-2.4972923,-3.4471625e-06,-5.4898104e-05,-9.950079e-06,-2.9954144e-05,2.6230997e-05,-0.0002933604,0.0,0.0,0.0,0.0,0.0,0.0,0.0,0.0,0.001672532,1.9255825e-05,1.8662704e-05,0.0002825577,0.34740257,0.333219,0.018129842,6.9645343,6.9855227,0.14372158,2.209976e-11,2.2583078e-11,2.784024e-10,3.749543e-06,3.7499333e-06,5.000004e-08,0.0,0.0,0.0,0.0,0.0,0.0,0.0,0.0,24
48972000,48892000,0.39890596,-0.0013480458,0.012739406,-0.9169024,1.3337092,1.4994648,0.063148916,5.6872187,3.0886521,-2.4804368,-2.3704542e-06,-5.3873948e-05,-1.0804231e-05,-2.9954144e-05,2.6230997e-05,-0.0002886102,0.0,0.0,0.0,0.0,0.0,0.0,0.0,0.0,0.001734494,1.9644229e-05,1.9015295e-05,0.00029437972,0.35720193,0.3389147,0.019075442,6.9800115,6.9523025,0.15584205,2.1715667e-11,2.2237663e-11,2.7655558e-10,3.749543e-06,3.7499333e-06,5e-08,0.0,0.0,0.0,0.0,0.0,0.0,0.0,0.0,24
49972000,49892000,0.4009935,-0.004412609,0.013486973,-0.91597104,1.1170768,1.6005937,0.061274115,5.314909,3.6684632,-2.4861279,-1.6872855e-06,-5.2923446e-05,-1.1502748e-05,-2.9954144e-05,2.6230997e-05,-0.0002765442,0.0,0.0,0.0,0.0,0.0,0.0,0.0,0.0,0.0018006176,2.0264182e-05,1.9873718e-05,0.0003069068,0.38289264,0.36096856,0.018219357,7.523837,7.4433565,0.14479084,2.147803e-11,2.1999846e-11,2.75267e-10,3.749543e-06,3.7499333e-06,5.000026e-08,0.0,0.0,0.0,0.0,0.0,0.0,0.0,0.0,24
50972000,50892000,0.40357828,0.014908637,0.06689626,-0.9123745,0.84348947,1.0098108,0.15281232,4.493959,3.5870366,-2.4558775,-1.06212e-06,-5.1667033e-05,-1.2357493e-05,-2.9954144e-05,2.6230997e-05,-0.00025535922,0.0,0.0,0.0,0.0,0.0,0.0,0.0,0.0,0.0018570205,3.078946e-05,1.9103798e-05,0.00031810976,0.37310624,0.3645684,0.018828887,7.5067387,7.41159,0.1534417,2.1019414e-11,2.1506961e-11,2.737116e-10,3.749543e-06,3.7499333e-06,5e-08,0.0,0.0,0.0,0.0,0.0,0.0,0.0,0.0,24
51972000,51892000,0.40602395,-0.0044016275,0.016737008,-0.9136985,0.6292911,0.4863499,0.4188083,3.7003102,3.1279361,-2.639998,-6.3970737e-07,-5.0445615e-05,-1.3125608e-05,-2.9954144e-05,2.6230997e-05,-0.00014143901,0.0,0.0,0.0,0.0,0.0,0.0,0.0,0.0,0.0019343408,2.0007757e-05,1.9951927e-05,0.00033272582,0.3650847,0.36440712,0.018137336,7.453134,7.3723073,0.14450537,2.0530464e-11,2.0955437e-11,2.7265418e-10,3.749543e-06,3.7499333e-06,5.000022e-08,0.0,0.0,0.0,0.0,0.0,0.0,0.0,0.0,24
52972000,52892000,0.40837955,-0.03161164,-0.053325772,-0.9107048,0.47921953,-0.4902178,0.8868203,3.0049903,2.1458607,-2.637678,-2.977313e-07,-4.9459326e-05,-1.3660694e-05,-2.9954144e-05,2.6230997e-05,2.9176203e-05,0.0,0.0,0.0,0.0,0.0,0.0,0.0,0.0,0.001997075,2.4198562e-05,2.4233412e-05,0.00035028483,0.36035442,0.36010233,0.019024327,7.3545146,7.3168077,0.15491542,2.00186e-11,2.0376315e-11,2.7226119e-10,3.749543e-06,3.7499333e-06,5.000015e-08,0.0,0.0,0.0,0.0,0.0,0.0,0.0,0.0,24
53972000,53892000,0.4099533,-0.040795133,-0.06618677,-0.9087868,0.29903984,-0.93890285,1.0101842,2.3969479,0.899569,-2.6603868,1.5492581e-07,-4.8900853e-05,-1.3727761e-05,-2.9954144e-05,2.6230997e-05,0.00029148185,0.0,0.0,0.0,0.0,0.0,0.0,0.0,0.0,0.002069582,2.6849859e-05,2.6107624e-05,0.000368601,0.36344254,0.35696462,0.018159652,7.248125,7.245926,0.14391176,1.9487292e-11,1.9803235e-11,2.725347e-10,3.749543e-06,3.7499333e-06,5.0000036e-08,0.0,0.0,0.0,0.0,0.0,0.0,0.0,0.0,24
54972000,54892000,0.41030842,-0.030919852,-0.032825824,-0.9108313,0.05792108,-0.26532698,0.6770977,1.9332753,0.14560035,-2.2409747,5.183696e-07,-4.8680115e-05,-1.3599885e-05,-2.9954144e-05,2.6230997e-05,0.00041872406,0.0,0.0,0.0,0.0,0.0,0.0,0.0,0.0,0.0021633478,2.0011084e-05,2.3477505e-05,0.00038490657,0.37310994,0.37809873,0.0188105,7.725741,7.732453,0.15415625,1.9157374e-11,1.9461995e-11,2.7301705e-10,3.749543e-06,3.7499333e-06,5e-08,0.0,0.0,0.0,0.0,0.0,0.0,0.0,0.0,24
55972000,55892000,0.41100925,-0.047112223,-0.0785345,-0.90701944,-0.20864324,0.59208435,0.22889489,1.2377428,0.3483534,-1.6898588,7.7942e-07,-4.841938e-05,-1.36111485e-05,-2.9954144e-05,2.6230997e-05,0.00038586455,0.0,0.0,0.0,0.0,0.0,0.0,0.0,0.0,0.0022310573,2.9931629e-05,2.7230653e-05,0.00040426763,0.37505665,0.38199255,0.017984813,7.647113,7.6638117,0.1431597,1.8626354e-11,1.8920388e-11,2.734309e-10,3.749543e-06,3.7499333e-06,5.0000036e-08,0.0,0.0,0.0,0.0,0.0,0.0,0.0,0.0,24
56972000,56892000,0.3996179,-0.067973,-0.0043410095,-0.91414785,-0.8434655,4.0812244,-2.646517,0.4125385,2.212106,-2.490915,8.708423e-07,-4.8145426e-05,-1.3775868e-05,-2.9954144e-05,2.6230997e-05,0.0003190619,0.0,0.0,0.0,0.0,0.0,0.0,0.0,0.0,0.0023556156,1.7891169e-05,3.343267e-05,0.0003945683,0.56585264,0.4160354,0.016426524,7.6493673,7.645502,0.15139766,1.8115546e-11,1.8371537e-11,2.7360522e-10,3.749543e-06,3.7499333e-06,5.000015e-08,0.0,0.0,0.0,0.0,0.0,0.0,0.0,0.0,24
57972000,57892000,0.42217883,-0.01348105,0.020149833,-0.90618837,-1.0033542,4.3280025,-2.4034035,-0.58402514,5.3598156,-3.6945,8.3682926e-07,-4.7866746e-05,-1.3836692e-05,-2.9954144e-05,2.6230997e-05,0.00031892813,0.0,0.0,0.0,0.0,0.0,0.0,0.0,0.0,0.0023889495,1.9586472e-05,1.8253138e-05,0.0004558119,0.57216275,0.40796185,0.012274265,7.799638,7.6161237,0.13609532,1.7627554e-11,1.7768335e-11,2.7174807e-10,3.749543e-06,3.7499333e-06,5.000258e-08,0.0,0.0,0.0,0.0,0.0,0.0,0.0,0.0,24
58972000,58892000,0.4234066,-0.0137213,0.019722389,-0.9056211,-1.061626,3.5815046,-1.6901249,-1.3682936,7.3420715,-4.687657,3.891751e-07,-4.7397505e-05,-1.3944941e-05,-2.9954144e-05,2.6230997e-05,0.00030738322,0.0,0.0,0.0,0.0,0.0,0.0,0.0,0.0,0.0024230897,1.8414275e-05,1.7646555e-05,0.00046584778,0.4861119,0.3902689,0.010986058,7.8859324,7.5343237,0.13608554,1.7191706e-11,1.7175665e-11,2.665815e-10,3.749543e-06,3.7499333e-06,5.0000075e-08,0.0,0.0,0.0,0.0,0.0,0.0,0.0,0.0,24
59972000,59892000,0.42242098,-0.013636656,0.019939927,-0.9060778,-1.0564418,2.406548,-0.4775897,-2.1120837,8.745101,-4.130619,3.5263918e-07,-4.728563e-05,-1.33895e-05,-2.9954144e-05,2.6230997e-05,0.0002183399,0.0,0.0,0.0,0.0,0.0,0.0,0.0,0.0,0.0024549637,1.7879125e-05,1.7540473e-05,0.00047514433,0.407032,0.38761494,0.011091345,8.409682,7.9990053,0.12068774,1.6982277e-11,1.6860778e-11,2.6138208e-10,3.749543e-06,3.7499333e-06,5.0000036e-08,0.0,0.0,0.0,0.0,0.0,0.0,0.0,0.0,24
60972000,60892000,0.4239485,-0.013118903,0.016551109,-0.9054401,-1.1126657,2.102367,-0.1913231,-2.4806423,8.14493,-3.5093715,-6.576921e-07,-4.6598318e-05,-1.360623e-05,-2.9954144e-05,2.6230997e-05,0.00010698508,0.0,0.0,0.0,0.0,0.0,0.0,0.0,0.0,0.002477992,1.6741247e-05,1.6955652e-05,0.00048274823,0.38237205,0.37444746,0.013598549,8.127857,7.836902,0.12641643,1.6668084e-11,1.6449968e-11,2.555377e-10,3.749543e-06,3.7499333e-06,5.000022e-08,0.0,0.0,0.0,0.0,0.0,0.0,0.0,0.0,24
61972000,61892000,0.42533076,0.0147431055,-0.04443761,-0.9038262,-1.1667885,1.9641693,0.118252754,-2.7818239,7.5706964,-2.4903018,-1.6745128e-06,-4.597986e-05,-1.3715211e-05,-2.9954144e-05,2.6230997e-05,-0.00010085284,0.0,0.0,0.0,0.0,0.0,0.0,0.0,0.0,0.0025017501,2.3088061e-05,1.588613e-05,0.00049329124,0.36670828,0.3624301,0.01571427,7.879578,7.676177,0.12146806,1.6401047e-11,1.613661e-11,2.507903e-10,3.749543e-06,3.7499333e-06,5.0000146e-08,0.0,0.0,0.0,0.0,0.0,0.0,0.0,0.0,24
62972000,62892000,0.46027872,0.027564261,-0.026769249,-0.88694257,-0.65317917,1.4846545,0.2935672,-2.8007064,6.720068,-1.7574699,-2.8945947e-06,-4.5377346e-05,-1.41545825e-05,-2.9954144e-05,2.6230997e-05,-0.00023423253,0.0,0.0,0.0,0.0,0.0,0.0,0.0,0.0,0.0024577507,1.8527637e-05,1.6756203e-05,0.00058948796,0.34517524,0.33951133,0.018441208,7.6445513,7.508214,0.13586976,1.6177037e-11,1.5901882e-11,2.469238e-10,3.749543e-06,3.7499333e-06,5.0000036e-08,0.0,0.0,0.0,0.0,0.0,0.0,0.0,0.0,24
63972000,63892000,0.46858442,-0.0140927285,0.014114298,-0.8831936,-1.2094216,1.6163906,0.5242298,-2.7990956,5.9983063,-0.8883623,-4.0450395e-06,-4.4872435e-05,-1.456462e-05,-2.9954144e-05,2.6230997e-05,-0.00028623542,0.0,0.0,0.0,0.0,0.0,0.0,0.0,0.0,0.0024917042,1.5309011e-05,1.607446e-05,0.0006204477,0.34091407,0.34196565,0.01564403,7.4410734,7.3467836,0.13277002,1.5988908e-11,1.5728207e-11,2.4400063e-10,3.749543e-06,3.7499333e-06,5.0001177e-08,0.0,0.0,0.0,0.0,0.0,0.0,0.0,0.0,24
64972000,64892000,0.47091538,-0.008558711,0.015541831,-0.882,-1.2178334,1.5273132,0.52559644,-3.1419253,5.799108,-0.37520114,-4.985293e-06,-4.4542256e-05,-1.4982041e-05,-2.9954144e-05,2.6230997e-05,-0.0002849209,0.0,0.0,0.0,0.0,0.0,0.0,0.0,0.0,0.0025461535,1.5443517e-05,1.5648007e-05,0.00063843356,0.34870753,0.3516147,0.013660683,7.8353963,7.7690496,0.1402667,1.5960537e-11,1.572929e-11,2.4198427e-10,3.749543e-06,3.7499333e-06,5.0000036e-08,0.0,0.0,0.0,0.0,0.0,0.0,0.0,0.0,24
65972000,65892000,0.4736673,-0.013781319,0.010841123,-0.8805293,-1.1744702,1.3451419,0.6084674,-3.183875,5.181451,0.04483843,-6.116598e-06,-4.42169e-05,-1.5474474e-05,-2.9954144e-05,2.6230997e-05,-0.00027423896,0.0,0.0,0.0,0.0,0.0,0.0,0.0,0.0,0.0025944842,1.5018579e-05,1.5911999e-05,0.0006554818,0.33731097,0.34229705,0.012836689,7.648879,7.617074,0.12727685,1.5817401e-11,1.5642232e-11,2.3956895e-10,3.749543e-06,3.7499333e-06,5e-08,0.0,0.0,0.0,0.0,0.0,0.0,0.0,0.0,24
66972000,66892000,0.4762863,-0.013397371,0.009187865,-0.87914026,-1.1024574,1.1812947,0.595224,-3.145117,4.6110926,0.34724447,-7.1922705e-06,-4.396793e-05,-1.5924239e-05,-2.9954144e-05,2.6230997e-05,-0.00024185586,0.0,0.0,0.0,0.0,0.0,0.0,0.0,0.0,0.0026455894,1.482606e-05,1.5627864e-05,0.0006735769,0.32762665,0.3336118,0.014563679,7.474413,7.468797,0.13419965,1.569459e-11,1.559129e-11,2.3743874e-10,3.749543e-06,3.7499333e-06,5.0000224e-08,0.0,0.0,0.0,0.0,0.0,0.0,0.0,0.0,24
67972000,67892000,0.4786994,-0.012686087,0.007602525,-0.8778543,-1.0097065,1.0186021,0.5379071,-3.033532,4.0713563,0.49469057,-8.210468e-06,-4.3775126e-05,-1.6331396e-05,-2.9954144e-05,2.6230997e-05,-0.00017012272,0.0,0.0,0.0,0.0,0.0,0.0,0.0,0.0,0.002700235,1.4726065e-05,1.5343889e-05,0.00069257163,0.31914073,0.3253005,0.015963903,7.3103952,7.323908,0.12670352,1.5587462e-11,1.5568057e-11,2.3563737e-10,3.749543e-06,3.7499333e-06,5.000015e-08,0.0,0.0,0.0,0.0,0.0,0.0,0.0,0.0,24
68972000,68892000,0.48105332,-0.011945131,0.006189056,-0.8765881,-0.9106459,0.86436003,0.46237326,-2.8785803,3.5708916,0.5962462,-9.134272e-06,-4.362703e-05,-1.6673908e-05,-2.9954144e-05,2.6230997e-05,-8.0386264e-05,0.0,0.0,0.0,0.0,0.0,0.0,0.0,0.0,0.0027585966,1.4701035e-05,1.5091277e-05,0.00071343116,0.31206378,0.31773353,0.018416421,7.157268,7.1836195,0.13921927,1.5494798e-11,1.5564381e-11,2.3421165e-10,3.749543e-06,3.7499333e-06,5.000004e-08,0.0,0.0,0.0,0.0,0.0,0.0,0.0,0.0,24
69972000,69892000,0.4830652,-0.011258885,0.005095167,-0.87549716,-0.8297097,0.7634864,0.34285763,-2.883245,3.3383458,0.54195905,-9.827773e-06,-4.353199e-05,-1.6921536e-05,-2.9954144e-05,2.6230997e-05,3.8548777e-05,0.0,0.0,0.0,0.0,0.0,0.0,0.0,0.0,0.0028253833,1.508104e-05,1.5244171e-05,0.00073681766,0.32231283,0.32703814,0.01901301,7.546265,7.5843015,0.13572025,1.5530407e-11,1.5672684e-11,2.334605e-10,3.749543e-06,3.7499333e-06,5.000011e-08,0.0,0.0,0.0,0.0,0.0,0.0,0.0,0.0,24
70972000,70892000,0.48501578,-0.010565394,0.003814738,-0.8744332,-0.7045845,0.628934,0.24244672,-2.640465,2.8861563,0.49581432,-1.0569223e-05,-4.344264e-05,-1.7165517e-05,-2.9954144e-05,2.6230997e-05,0.0001307981,0.0,0.0,0.0,0.0,0.0,0.0,0.0,0.0,0.002893183,1.5159597e-05,1.5043152e-05,0.00076054415,0.31767416,0.3205881,0.02039072,7.4030285,7.441539,0.15098336,1.5456456e-11,1.5684912e-11,2.3275801e-10,3.749543e-06,3.7499333e-06,5.000004e-08,0.0,0.0,0.0,0.0,0.0,0.0,0.0,0.0,24
71972000,71892000,0.4867737,-0.009858656,0.0025198348,-0.8734688,-0.5767422,0.5134609,0.14246385,-2.3689928,2.4712522,0.35379866,-1.1218268e-05,-4.3374126e-05,-1.7371272e-05,-2.9954144e-05,2.6230997e-05,0.00022156858,0.0,0.0,0.0,0.0,0.0,0.0,0.0,0.0,0.0029666254,1.5281541e-05,1.4863224e-05,0.0007858548,0.3142016,0.31516084,0.01959091,7.2721562,7.305681,0.14572015,1.5389686e-11,1.5696118e-11,2.3244047e-10,3.749543e-06,3.7499333e-06,5.000022e-08,0.0,0.0,0.0,0.0,0.0,0.0,0.0,0.0,24
72972000,72892000,0.48851877,-0.009214724,0.0014614704,-0.8725036,-0.44922453,0.41604936,0.06873565,-2.0765576,2.1039972,0.2532899,-1.177036e-05,-4.332079e-05,-1.7544156e-05,-2.9954144e-05,2.6230997e-05,0.00027661043,0.0,0.0,0.0,0.0,0.0,0.0,0.0,0.0,0.0030448239,1.540591e-05,1.4706334e-05,0.0008132648,0.31169468,0.3108925,0.020107727,7.1529346,7.177406,0.15833777,1.5328851e-11,1.5700444e-11,2.3245436e-10,3.749543e-06,3.7499333e-06,5.000022e-08,0.0,0.0,0.0,0.0,0.0,0.0,0.0,0.0,24
73972000,73892000,0.490057,-0.008786787,0.00050635095,-0.87164605,-0.32511324,0.33800304,0.0008400753,-1.7697123,1.7776699,0.12846044,-1.2239268e-05,-4.327472e-05,-1.7690172e-05,-2.9954144e-05,2.6230997e-05,0.000317603,0.0,0.0,0.0,0.0,0.0,0.0,0.0,0.0,0.0031277358,1.5525515e-05,1.4576281e-05,0.00084181764,0.30981606,0.30774888,0.018748995,7.0440583,7.057566,0.14730112,1.5272473e-11,1.5693153e-11,2.3271893e-10,3.749543e-06,3.7499333e-06,5.0000185e-08,0.0,0.0,0.0,0.0,0.0,0.0,0.0,0.0,24
74972000,74892000,0.49139926,-0.008169712,-0.00024653948,-0.8708961,-0.20795119,0.2786243,-0.049076587,-1.4560841,1.4946326,0.03622417,-1.2629217e-05,-4.323053e-05,-1.78109e-05,-2.9954144e-05,2.6230997e-05,0.00033417053,0.0,0.0,0.0,0.0,0.0,0.0,0.0,0.0,0.0032141819,1.5612479e-05,1.4446877e-05,0.0008712287,0.3082419,0.30560648,0.019259311,6.943862,6.9464917,0.1577055,1.5219746e-11,1.5670892e-11,2.331342e-10,3.749543e-06,3.7499333e-06,5e-08,0.0,0.0,0.0,0.0,0.0,0.0,0.0,0.0,24
75972000,75892000,0.49266374,-0.0076383445,-0.0008696928,-0.8701858,-0.107983515,0.23785324,-0.077532806,-1.2277169,1.3444048,-0.05128271,-1.2889139e-05,-4.3192736e-05,-1.7886337e-05,-2.9954144e-05,2.6230997e-05,0.00033950747,0.0,0.0,0.0,0.0,0.0,0.0,0.0,0.0,0.003302136,1.604117e-05,1.4687532e-05,0.0009019146,0.32229695,0.3195272,0.018179344,7.3616037,7.3541813,0.14580159,1.5282196e-11,1.5743426e-11,2.336049e-10,3.749543e-06,3.7499333e-06,5.000022e-08,0.0,0.0,0.0,0.0,0.0,0.0,0.0,0.0,24
76972000,76892000,0.4939288,-0.0071263188,-0.0016126742,-0.8694717,0.011722526,0.17593479,-0.09020055,-0.8914858,1.1105534,-0.11865409,-1.3151758e-05,-4.313971e-05,-1.7950906e-05,-2.9954144e-05,2.6230997e-05,0.00033420458,0.0,0.0,0.0,0.0,0.0,0.0,0.0,0.0,0.0033900645,1.6088563e-05,1.4580216e-05,0.0009331904,0.32102942,0.3188241,0.018784804,7.2668185,7.2522435,0.15407792,1.5234723e-11,1.5690454e-11,2.3402033e-10,3.749543e-06,3.7499333e-06,5.0000036e-08,0.0,0.0,0.0,0.0,0.0,0.0,0.0,0.0,24
77972000,77892000,0.49498004,-0.0067116697,-0.002135908,-0.8688758,0.13321346,0.116441384,-0.09121988,-0.55560905,0.89618665,-0.14807715,-1.3346905e-05,-4.3078544e-05,-1.7977423e-05,-2.9954144e-05,2.6230997e-05,0.0003174577,0.0,0.0,0.0,0.0,0.0,0.0,0.0,0.0,0.00347691,1.606819e-05,1.4483611e-05,0.00096422224,0.31980446,0.31886756,0.017974028,7.1761627,7.158483,0.14314425,1.5189688e-11,1.5620375e-11,2.3428745e-10,3.749543e-06,3.7499333e-06,5.0000036e-08,0.0,0.0,0.0,0.0,0.0,0.0,0.0,0.0,24
78972000,78892000,0.49591583,-0.006525542,-0.0027059382,-0.8683418,0.24186769,0.057299335,-0.083162196,-0.22790006,0.69696224,-0.1814492,-1.3474765e-05,-4.300754e-05,-1.7957125e-05,-2.9954144e-05,2.6230997e-05,0.0003028518,0.0,0.0,0.0,0.0,0.0,0.0,0.0,0.0,0.003560282,1.6019923e-05,1.4400909e-05,0.0009950387,0.31845933,0.3190836,0.018968347,7.0884075,7.071832,0.15537205,1.514684e-11,1.5534631e-11,2.343078e-10,3.749543e-06,3.7499333e-06,5.000022e-08,0.0,0.0,0.0,0.0,0.0,0.0,0.0,0.0,24
79972000,79892000,0.4966537,-0.00637433,-0.003064326,-0.86792004,0.33282444,0.0034467652,-0.07423427,0.08091692,0.50970256,-0.17374144,-1.3538052e-05,-4.2928234e-05,-1.7891123e-05,-2.9954144e-05,2.6230997e-05,0.00028009308,0.0,0.0,0.0,0.0,0.0,0.0,0.0,0.0,0.0036388722,1.5899888e-05,1.4323815e-05,0.0010248169,0.31691366,0.31916636,0.018139834,7.0024176,6.990575,0.14424933,1.5105887e-11,1.5436081e-11,2.3399965e-10,3.749543e-06,3.7499333e-06,5.0000047e-08,0.0,0.0,0.0,0.0,0.0,0.0,0.0,0.0,24
80972000,80892000,0.4972568,-0.005728135,-0.0029660086,-0.8675794,0.71004677,-1.1661712,0.7699419,0.5117566,-0.117452644,0.16718628,-1.3528768e-05,-4.287179e-05,-1.7811162e-05,-2.9954144e-05,2.6230997e-05,0.00027526714,0.0,0.0,0.0,0.0,0.0,0.0,0.0,0.0,0.0037148308,1.6075795e-05,1.4585155e-05,0.0010537709,0.38268703,0.33815143,0.019087005,7.466146,7.430602,0.15492123,1.51755e-11,1.5451111e-11,2.3349028e-10,3.749543e-06,3.7499333e-06,5.000022e-08,0.0,0.0,0.0,0.0,0.0,0.0,0.0,0.0,24
81972000,81892000,0.73003185,0.2627258,0.44150177,-0.45067158,0.6068454,-0.71185887,0.872386,1.185934,-1.0287713,0.68361133,-1.33181675e-05,-4.2896e-05,-1.7720162e-05,-2.9954144e-05,2.6230997e-05,0.00029153327,0.0,0.0,0.0,0.0,0.0,0.0,0.0,0.0,0.0011075968,0.0008635154,0.00036155735,0.0025511102,0.34724888,0.3297917,0.015141468,7.444006,7.36809,0.14254925,1.512721e-11,1.5322816e-11,2.314258e-10,3.749543e-06,3.7499333e-06,5e-08,0.0,0.0,0.0,0.0,0.0,0.0,0.0,0.0,24
82972000,82892000,-0.014327663,0.4646014,0.8853792,-0.0066405185,0.41232535,-1.0539141,3.4836833,1.1265053,-1.2169559,2.4861386,-1.2998976e-05,-4.2977674e-05,-1.7912333e-05,-2.9954144e-05,2.6230997e-05,0.00029153327,0.0,0.0,0.0,0.0,0.0,0.0,0.0,0.0,1.4676534e-05,0.0036611082,0.0011725038,1.4286999e-05,0.34363633,0.30124643,0.0144009,7.3152857,7.2198243,0.14522754,1.5084095e-11,1.5201156e-11,2.2853709e-10,3.749543e-06,3.7499333e-06,5e-08,0.0,0.0,0.0,0.0,0.0,0.0,0.0,0.0,24
83972000,83892000,-0.014608972,0.427536,0.90385914,-0.006172564,0.2910804,-1.6751658,3.5332947,1.282229,-1.6058798,4.1173005,-1.2729843e-05,-4.356615e-05,-2.6801079e-05,-2.9954144e-05,2.6230997e-05,0.00028193303,0.0,0.0,0.0,0.0,0.0,0.0,0.0,0.0,1.30382805e-05,0.0034558899,0.0011159643,1.3631727e-05,0.42869785,0.32139856,0.06729307,7.262295,7.0589185,0.1344175,1.5051557e-11,1.510177e-11,2.2299793e-10,3.749543e-06,3.7499333e-06,5.0000178e-08,0.0,0.0,0.0,0.0,0.0,0.0,0.0,0.0,24
84972000,84892000,-0.014666781,0.37482578,0.92696214,-0.00562719,0.4481762,-2.813701,0.36159083,1.6792499,-2.6359723,-2.5410483,-1.2515138e-05,-4.425914e-05,-3.945089e-05,-2.9954144e-05,2.6230997e-05,0.00028193303,0.0,0.0,0.0,0.0,0.0,0.0,0.0,0.0,1.17524605e-05,0.0031695103,0.0010413766,1.312731e-05,0.74146706,0.4966144,0.2222113,7.4038596,6.9660707,0.6887871,1.5026095e-11,1.502843e-11,2.1247523e-10,3.749543e-06,3.7499333e-06,5.0000178e-08,0.0,0.0,0.0,0.0,0.0,0.0,0.0,0.0,24
85972000,85892000,-0.01562288,0.37269858,0.92780745,-0.005016875,0.3452361,-4.027132,1.1543461,1.6635832,-4.980444,-2.187847,-1.2109078e-05,-4.4581007e-05,-4.044967e-05,-2.9954144e-05,2.6230997e-05,0.00028193303,0.0,0.0,0.0,0.0,0.0,0.0,0.0,0.0,1.1018242e-05,0.0028690095,0.00096062635,1.3117592e-05,1.0802193,0.67170644,0.47943845,8.575569,7.622016,0.3162415,1.5124959e-11,1.5104201e-11,2.001534e-10,3.749543e-06,3.7499333e-06,5.0000178e-08,0.0,0.0,0.0,0.0,0.0,0.0,0.0,0.0,24
86972000,86892000,-0.016809555,0.35784173,0.9336225,-0.003989169,0.33657166,-4.5029826,1.2623053,1.7391084,-7.0321527,-1.6167362,-1.1477544e-05,-4.5295947e-05,-4.455312e-05,-2.9954144e-05,2.6230997e-05,0.00028193303,0.0,0.0,0.0,0.0,0.0,0.0,0.0,0.0,1.0315904e-05,0.0022006386,0.00075255794,1.3029941e-05,1.1664331,0.7955648,0.58420575,9.154496,7.9563217,0.496448,1.518096e-11,1.5128876e-11,1.6294692e-10,3.749543e-06,3.7499333e-06,5.0000178e-08,0.0,0.0,0.0,0.0,0.0,0.0,0.0,0.0,24
87972000,87892000,-0.018067207,0.32308757,0.9461924,-0.002845383,0.4646545,-3.9186873,0.14966363,2.298249,-8.129319,-2.4706473,-1.068018e-05,-4.620778e-05,-5.3578668e-05,-2.9954144e-05,2.6230997e-05,0.00028193303,0.0,0.0,0.0,0.0,0.0,0.0,0.0,0.0,1.0080802e-05,0.0014332663,0.0005027439,1.313847e-05,1.0433005,0.87720215,0.50720626,9.276289,8.366244,0.4184649,1.5341003e-11,1.5248854e-11,1.1656498e-10,3.749543e-06,3.7499333e-06,5.0000178e-08,0.0,0.0,0.0,0.0,0.0,0.0,0.0,0.0,24
88972000,88892000,-0.019578014,0.32575852,0.9452492,-0.0014317159,-0.027699959,-2.3416078,-0.44612154,1.6826874,-7.813539,-2.7877946,-9.938149e-06,-4.7062556e-05,-5.3668133e-05,-2.9954144e-05,2.6230997e-05,0.00028193303,0.0,0.0,0.0,0.0,0.0,0.0,0.0,0.0,1.0293314e-05,0.0009892484,0.00035652597,1.3472197e-05,0.93304306,0.91948485,0.5659139,9.182723,8.712987,0.5274523,1.5601366e-11,1.545708e-11,8.941816e-11,3.749543e-06,3.7499333e-06,5.0000178e-08,0.0,0.0,0.0,0.0,0.0,0.0,0.0,0.0,24
89972000,89892000,-0.020868083,0.3327739,0.9427758,1.3771635e-05,-0.55570894,-0.23535481,-1.211722,0.7579168,-5.9500113,-3.5584261,-9.427528e-06,-4.7780217e-05,-5.2701776e-05,-2.9954144e-05,2.6230997e-05,0.00028193303,0.0,0.0,0.0,0.0,0.0,0.0,0.0,0.0,1.083081e-05,0.00063562894,0.00023526509,1.4026237e-05,0.88860285,0.9331947,0.46285442,8.945832,8.914638,0.41793856,1.5938787e-11,1.5732325e-11,6.6820764e-11,3.749543e-06,3.7499333e-06,5.0000178e-08,0.0,0.0,0.0,0.0,0.0,0.0,0.0,0.0,24
90972000,90892000,-0.021754593,0.351372,0.93598247,0.0011222502,-0.8230334,0.4469629,-0.58121854,-0.3105283,-3.8847713,-3.5736864,-9.260493e-06,-4.8223148e-05,-4.876458e-05,-2.9954144e-05,2.6230997e-05,0.00028193303,0.0,0.0,0.0,0.0,0.0,0.0,0.0,0.0,1.1681569e-05,0.00046758718,0.00017729867,1.4949767e-05,0.9284748,0.9774883,0.44488338,9.65531,9.85163,0.48186117,1.6352447e-11,1.6091385e-11,5.636103e-11,3.749543e-06,3.7499333e-06,5.0000178e-08,0.0,0.0,0.0,0.0,0.0,0.0,0.0,0.0,24
91972000,91892000,-0.022568475,0.35975292,0.932773,0.0017444057,-0.98833257,0.8583971,-0.24827293,-1.00911,-1.8211745,-3.5583723,-9.16074e-06,-4.8499252e-05,-4.7319012e-05,-2.9954144e-05,2.6230997e-05,0.00028193303,0.0,0.0,0.0,0.0,0.0,0.0,0.0,0.0,1.2642163e-05,0.00035212014,0.00013642195,1.5967405e-05,0.9235808,0.96837133,0.36121324,9.522288,9.78651,0.37484652,1.677579e-11,1.6446225e-11,4.9110514e-11,3.749543e-06,3.7499333e-06,5.0000178e-08,0.0,0.0,0.0,0.0,0.0,0.0,0.0,0.0,24
92972000,92892000,-0.023129294,0.36579064,0.9304073,0.002140637,-1.094564,1.0717419,0.012430847,-1.5007308,-0.3246818,-3.3430517,-9.157377e-06,-4.858223e-05,-4.6422552e-05,-2.9954144e-05,2.6230997e-05,0.00028193303,0.0,0.0,0.0,0.0,0.0,0.0,0.0,0.0,1.3764537e-05,0.00029700386,0.00011742432,1.717858e-05,0.91972125,0.9619546,0.37523398,9.378949,9.64589,0.43259755,1.7221283e-11,1.6821705e-11,4.6078783e-11,3.749543e-06,3.7499333e-06,5.0000178e-08,0.0,0.0,0.0,0.0,0.0,0.0,0.0,0.0,24
93972000,93892000,-0.02354946,0.3678651,0.9295786,0.0021041827,-1.1712848,1.1360803,-0.028266538,-1.8441405,0.6730166,-3.4545827,-9.179846e-06,-4.8525686e-05,-4.660025e-05,-2.9954144e-05,2.6230997e-05,0.00028193303,0.0,0.0,0.0,0.0,0.0,0.0,0.0,0.0,1.5022126e-05,0.00025239203,0.00010175796,1.8521961e-05,0.91836405,0.96037316,0.33334637,9.225813,9.477687,0.35414946,1.767335e-11,1.7201332e-11,4.3622137e-11,3.749543e-06,3.7499333e-06,5.0000178e-08,0.0,0.0,0.0,0.0,0.0,0.0,0.0,0.0,24
94972000,94892000,-0.023854638,0.37101355,0.9283185,0.0021453109,-1.2093269,1.1109182,0.03079471,-2.090957,1.2899432,-3.4014187,-9.237827e-06,-4.8378122e-05,-4.647354e-05,-2.9954144e-05,2.6230997e-05,0.00028200448,0.0,0.0,0.0,0.0,0.0,0.0,0.0,0.0,1.6388729e-05,0.00022510864,9.246283e-05,1.9966792e-05,0.8512358,0.894999,0.29104075,9.072612,9.308322,0.41425115,1.8122132e-11,1.7573405e-11,4.2408164e-11,3.749543e-06,3.7499333e-06,5.000182e-08,0.0,0.0,0.0,0.0,0.0,0.0,0.0,0.0,24
95972000,95892000,-0.024031669,0.3719154,0.9279538,0.0018291079,-1.2804066,1.0662959,-0.11198508,-2.482233,1.7752217,-3.7060795,-9.2709815e-06,-4.820758e-05,-4.6958678e-05,-2.9954144e-05,2.6230997e-05,0.00028095458,0.0,0.0,0.0,0.0,0.0,0.0,0.0,0.0,1.7908747e-05,0.00019817718,8.274537e-05,2.1574331e-05,0.7191135,0.7714101,0.14593825,9.7051525,9.977318,0.3135398,1.857407e-11,1.7962076e-11,4.1057824e-11,3.749543e-06,3.7499333e-06,5e-08,0.0,0.0,0.0,0.0,0.0,0.0,0.0,0.0,24
96972000,96892000,-0.020049335,0.37758568,0.9257571,-0.0008889071,-0.15153329,0.060636647,-0.03804934,-0.021738533,0.01254459,-3.7803345,-9.62555e-06,-4.5060435e-05,-4.6260582e-05,-1.6223225e-05,2.4710562e-05,0.0002925586,0.0,0.0,0.0,0.0,0.0,0.0,0.0,0.0,1.5625992e-05,0.000108357555,4.470592e-05,1.8087489e-05,0.036316954,0.037516657,0.032041304,0.0009834786,0.001033062,0.1603077,1.7674447e-11,1.6397893e-11,3.4036263e-11,3.7494904e-06,3.749879e-06,5.0000185e-08,0.0,0.0,0.0,0.0,0.0,0.0,0.0,0.0,24
97972000,97892000,-0.019198842,0.38015026,0.9247249,-0.0011006435,-0.0046524834,0.006198237,-0.010366827,-0.0011641594,0.00087589625,-3.7280304,-9.326021e-06,-4.4310444e-05,-4.6059173e-05,0.00097316346,-0.00083947583,0.0003029205,0.0,0.0,0.0,0.0,0.0,0.0,0.0,0.0,1.5250508e-05,5.7560657e-05,2.2694212e-05,1.7246377e-05,0.002404213,0.0024594031,0.010091276,0.00016941245,0.0001706562,0.09152453,1.7458153e-11,1.598605e-11,3.0466556e-11,7.2749316e-07,6.687027e-07,5.0000146e-08,0.0,0.0,0.0,0.0,0.0,0.0,0.0,0.0,24
98972000,98892000,-0.019583574,0.38192606,0.92398465,-0.001246251,-0.0052156877,0.0043609305,-0.009693593,-0.0008827256,0.00080798403,-3.7074645,-9.330729e-06,-4.421995e-05,-4.5905683e-05,0.001090523,-0.00083261944,0.0003133632,0.0,0.0,0.0,0.0,0.0,0.0,0.0,0.0,1.676368e-05,3.8602804e-05,1.3996259e-05,1.8820861e-05,0.0007970023,0.00080217863,0.008127657,8.933556e-05,8.965442e-05,0.07523865,1.7862064e-11,1.6392157e-11,2.8808386e-11,4.698507e-07,4.0264473e-07,5.0000146e-08,0.0,0.0,0.0,0.0,0.0,0.0,0.0,0.0,24
