timestamp,x,y,z,vx,vy,vz,acceleration[0],acceleration[1],acceleration[2],thrust[0],thrust[1],thrust[2],yaw,yawspeed
3228000,nan,nan,nan,nan,nan,nan,0.0,0.0,100.0,-0.0,-0.0,-0.001,0.00019607165,0.0
3236000,nan,nan,nan,nan,nan,nan,0.0,0.0,100.0,-0.0,-0.0,-0.001,0.00020018153,0.0
3324000,nan,nan,nan,nan,nan,nan,0.0,0.0,100.0,-0.0,-0.0,-0.001,1.6396697,0.0
3420000,nan,nan,nan,nan,nan,nan,0.0,0.0,100.0,-0.0,-0.0,-0.001,1.6395866,0.0
3524000,nan,nan,nan,nan,nan,nan,0.0,0.0,100.0,-0.0,-0.0,-0.001,1.6331444,0.0
3628000,nan,nan,nan,nan,nan,nan,0.0,0.0,100.0,-0.0,-0.0,-0.001,1.6317971,0.0
3724000,nan,nan,nan,nan,nan,nan,0.0,0.0,100.0,-0.0,-0.0,-0.001,1.6307405,0.0
3828000,nan,nan,nan,nan,nan,nan,0.0,0.0,100.0,-0.0,-0.0,-0.001,1.6306307,0.0
3924000,nan,nan,nan,nan,nan,nan,0.0,0.0,100.0,-0.0,-0.0,-0.001,1.6308559,0.0
4028000,nan,nan,nan,nan,nan,nan,0.0,0.0,100.0,-0.0,-0.0,-0.001,1.6301098,0.0
4124000,nan,nan,nan,nan,nan,nan,0.0,0.0,100.0,-0.0,-0.0,-0.001,1.6286334,0.0
4220000,nan,nan,nan,nan,nan,nan,0.0,0.0,100.0,-0.0,-0.0,-0.001,1.628316,0.0
4324000,nan,nan,nan,nan,nan,nan,0.0,0.0,100.0,-0.0,-0.0,-0.001,1.6296456,0.0
4420000,nan,nan,nan,nan,nan,nan,0.0,0.0,100.0,-0.0,-0.0,-0.001,1.6302512,0.0
4524000,nan,nan,nan,nan,nan,nan,0.0,0.0,100.0,-0.0,-0.0,-0.001,1.6302679,0.0
4620000,nan,nan,nan,nan,nan,nan,0.0,0.0,100.0,-0.0,-0.0,-0.001,1.6303545,0.0
4724000,nan,nan,nan,nan,nan,nan,0.0,0.0,100.0,-0.0,-0.0,-0.001,1.6295438,0.0
4820000,nan,nan,nan,nan,nan,nan,0.0,0.0,100.0,-0.0,-0.0,-0.001,1.6286043,0.0
4924000,nan,nan,nan,nan,nan,nan,0.0,0.0,100.0,-0.0,-0.0,-0.001,1.6281265,0.0
5028000,nan,nan,nan,nan,nan,nan,0.0,0.0,100.0,-0.0,-0.0,-0.001,1.6285673,0.0
5124000,nan,nan,nan,nan,nan,nan,0.0,0.0,100.0,-0.0,-0.0,-0.001,1.6286937,0.0
5220000,nan,nan,nan,nan,nan,nan,0.0,0.0,100.0,-0.0,-0.0,-0.001,1.6280872,0.0
5324000,nan,nan,nan,nan,nan,nan,0.0,0.0,100.0,-0.0,-0.0,-0.001,1.6271926,0.0
5420000,nan,nan,nan,nan,nan,nan,0.0,0.0,100.0,-0.0,-0.0,-0.001,1.626154,0.0
5524000,nan,nan,nan,nan,nan,nan,0.0,0.0,100.0,-0.0,-0.0,-0.001,1.6251769,0.0
5620000,nan,nan,nan,nan,nan,nan,0.0,0.0,100.0,-0.0,-0.0,-0.001,1.625057,0.0
5724000,nan,nan,nan,nan,nan,nan,0.0,0.0,100.0,-0.0,-0.0,-0.001,1.6250459,0.0
5820000,nan,nan,nan,nan,nan,nan,0.0,0.0,100.0,-0.0,-0.0,-0.001,1.625014,0.0
5924000,nan,nan,nan,nan,nan,nan,0.0,0.0,100.0,-0.0,-0.0,-0.001,1.6245563,0.0
6020000,nan,nan,nan,nan,nan,nan,0.0,0.0,100.0,-0.0,-0.0,-0.001,1.6254007,0.0
6124000,nan,nan,nan,nan,nan,nan,0.0,0.0,100.0,-0.0,-0.0,-0.001,1.6252052,0.0
6228000,nan,nan,nan,nan,nan,nan,0.0,0.0,100.0,-0.0,-0.0,-0.001,1.6243647,0.0
6324000,nan,nan,nan,nan,nan,nan,0.0,0.0,100.0,-0.0,-0.0,-0.001,1.6237943,0.0
6420000,nan,nan,nan,nan,nan,nan,0.0,0.0,100.0,-0.0,-0.0,-0.001,1.6229625,0.0
6524000,nan,nan,nan,nan,nan,nan,0.0,0.0,100.0,-0.0,-0.0,-0.001,1.6223757,0.0
6628000,nan,nan,nan,nan,nan,nan,0.0,0.0,100.0,-0.0,-0.0,-0.001,1.6224945,0.0
6724000,nan,nan,nan,nan,nan,nan,0.0,0.0,100.0,-0.0,-0.0,-0.001,1.621361,0.0
6820000,nan,nan,nan,nan,nan,nan,0.0,0.0,100.0,-0.0,-0.0,-0.001,1.6205578,0.0
6924000,nan,nan,nan,nan,nan,nan,0.0,0.0,100.0,-0.0,-0.0,-0.001,1.6206266,0.0
7028000,nan,nan,nan,nan,nan,nan,0.0,0.0,100.0,-0.0,-0.0,-0.001,1.6213562,0.0
7124000,nan,nan,nan,nan,nan,nan,0.0,0.0,100.0,-0.0,-0.0,-0.001,1.6209855,0.0
7220000,nan,nan,nan,nan,nan,nan,0.0,0.0,100.0,-0.0,-0.0,-0.001,1.6199552,0.0
7324000,nan,nan,nan,nan,nan,nan,0.0,0.0,100.0,-0.0,-0.0,-0.001,1.6185818,0.0
7420000,nan,nan,nan,nan,nan,nan,0.0,0.0,100.0,-0.0,-0.0,-0.001,1.6178192,0.0
7524000,nan,nan,nan,nan,nan,nan,0.0,0.0,100.0,-0.0,-0.0,-0.001,1.6169316,0.0
7620000,nan,nan,nan,nan,nan,nan,0.0,0.0,100.0,-0.0,-0.0,-0.001,1.6160158,0.0
7724000,nan,nan,nan,nan,nan,nan,0.0,0.0,100.0,-0.0,-0.0,-0.001,1.6155939,0.0
7820000,nan,nan,nan,nan,nan,nan,0.0,0.0,100.0,-0.0,-0.0,-0.001,1.6148919,0.0
7924000,nan,nan,nan,nan,nan,nan,0.0,0.0,100.0,-0.0,-0.0,-0.001,1.6143813,0.0
8028000,nan,nan,nan,nan,nan,nan,0.0,0.0,100.0,-0.0,-0.0,-0.001,1.614868,0.0
8124000,nan,nan,nan,nan,nan,nan,0.0,0.0,100.0,-0.0,-0.0,-0.001,1.6146199,0.0
8220000,nan,nan,nan,nan,nan,nan,0.0,0.0,100.0,-0.0,-0.0,-0.001,1.6140885,0.0
8324000,nan,nan,nan,nan,nan,nan,0.0,0.0,100.0,-0.0,-0.0,-0.001,1.6141901,0.0
8428000,nan,nan,nan,nan,nan,nan,0.0,0.0,100.0,-0.0,-0.0,-0.001,1.6144276,0.0
8524000,nan,nan,nan,nan,nan,nan,0.0,0.0,100.0,-0.0,-0.0,-0.001,1.6146418,0.0
8620000,nan,nan,nan,nan,nan,nan,0.0,0.0,100.0,-0.0,-0.0,-0.001,1.6151034,0.0
8724000,nan,nan,nan,nan,nan,nan,0.0,0.0,100.0,-0.0,-0.0,-0.001,1.6149901,0.0
8828000,nan,nan,nan,nan,nan,nan,0.0,0.0,100.0,-0.0,-0.0,-0.001,1.6150032,0.0
8924000,nan,nan,nan,nan,nan,nan,0.0,0.0,100.0,-0.0,-0.0,-0.001,1.6151503,0.0
9028000,nan,nan,nan,nan,nan,nan,0.0,0.0,100.0,-0.0,-0.0,-0.001,1.615935,0.0
9124000,nan,nan,nan,nan,nan,nan,0.0,0.0,100.0,-0.0,-0.0,-0.001,1.616224,0.0
9228000,nan,nan,nan,nan,nan,nan,0.0,0.0,100.0,-0.0,-0.0,-0.001,1.6162391,0.0
9324000,nan,nan,nan,nan,nan,nan,0.0,0.0,100.0,-0.0,-0.0,-0.001,1.6168656,0.0
9420000,nan,nan,nan,nan,nan,nan,0.0,0.0,100.0,-0.0,-0.0,-0.001,1.6172384,0.0
9524000,nan,nan,nan,nan,nan,nan,0.0,0.0,100.0,-0.0,-0.0,-0.001,1.6175461,0.0
9620000,nan,nan,nan,nan,nan,nan,0.0,0.0,100.0,-0.0,-0.0,-0.001,1.6176872,0.0
9724000,nan,nan,nan,nan,nan,nan,0.0,0.0,100.0,-0.0,-0.0,-0.001,1.6181712,0.0
9828000,nan,nan,nan,nan,nan,nan,0.0,0.0,100.0,-0.0,-0.0,-0.001,1.6184436,0.0
9924000,nan,nan,nan,nan,nan,nan,0.0,0.0,100.0,-0.0,-0.0,-0.001,1.6184613,0.0
10028000,nan,nan,nan,nan,nan,nan,0.0,0.0,100.0,-0.0,-0.0,-0.001,1.6190461,0.0
10124000,nan,nan,nan,nan,nan,nan,0.0,0.0,100.0,-0.0,-0.0,-0.001,1.6193976,0.0
10220000,nan,nan,nan,nan,nan,nan,0.0,0.0,100.0,-0.0,-0.0,-0.001,1.6197208,0.0
10324000,nan,nan,nan,nan,nan,nan,0.0,0.0,100.0,-0.0,-0.0,-0.001,1.6200111,0.0
10428000,nan,nan,nan,nan,nan,nan,0.0,0.0,100.0,-0.0,-0.0,-0.001,1.6200491,0.0
10524000,nan,nan,nan,nan,nan,nan,0.0,0.0,100.0,-0.0,-0.0,-0.001,1.6199248,0.0
10620000,nan,nan,nan,nan,nan,nan,0.0,0.0,100.0,-0.0,-0.0,-0.001,1.620091,0.0
10724000,nan,nan,nan,nan,nan,nan,0.0,0.0,100.0,-0.0,-0.0,-0.001,1.6201142,0.0
10828000,nan,nan,nan,nan,nan,nan,0.0,0.0,100.0,-0.0,-0.0,-0.001,1.6204474,0.0
10924000,nan,nan,nan,nan,nan,nan,0.0,0.0,100.0,-0.0,-0.0,-0.001,1.6207973,0.0
11020000,nan,nan,nan,nan,nan,nan,0.0,0.0,100.0,-0.0,-0.0,-0.001,1.6213006,0.0
11124000,nan,nan,nan,nan,nan,nan,0.0,0.0,100.0,-0.0,-0.0,-0.001,1.6215531,0.0
11220000,nan,nan,nan,nan,nan,nan,0.0,0.0,100.0,-0.0,-0.0,-0.001,1.6215714,0.0
11324000,nan,nan,nan,nan,nan,nan,0.0,0.0,100.0,-0.0,-0.0,-0.001,1.6211594,0.0
11420000,nan,nan,nan,nan,nan,nan,0.0,0.0,100.0,-0.0,-0.0,-0.001,1.6208215,0.0
11524000,nan,nan,nan,nan,nan,nan,0.0,0.0,100.0,-0.0,-0.0,-0.001,1.6206485,0.0
11628000,nan,nan,nan,nan,nan,nan,0.0,0.0,100.0,-0.0,-0.0,-0.001,1.6209245,0.0
11724000,nan,nan,nan,nan,nan,nan,0.0,0.0,100.0,-0.0,-0.0,-0.001,1.6209219,0.0
11820000,nan,nan,nan,nan,nan,nan,0.0,0.0,100.0,-0.0,-0.0,-0.001,1.6209595,0.0
11924000,nan,nan,nan,nan,nan,nan,0.0,0.0,100.0,-0.0,-0.0,-0.001,1.6213073,0.0
12020000,nan,nan,nan,nan,nan,nan,0.0,0.0,100.0,-0.0,-0.0,-0.001,1.6215506,0.0
12124000,nan,nan,nan,nan,nan,nan,0.0,0.0,100.0,-0.0,-0.0,-0.001,1.6216583,0.0
12220000,nan,nan,nan,nan,nan,nan,0.0,0.0,100.0,-0.0,-0.0,-0.001,1.6214285,0.0
12324000,nan,nan,nan,nan,nan,nan,0.0,0.0,100.0,-0.0,-0.0,-0.001,1.6214283,0.0
12428000,nan,nan,nan,nan,nan,nan,0.0,0.0,100.0,-0.0,-0.0,-0.001,1.621459,0.0
12524000,nan,nan,nan,nan,nan,nan,0.0,0.0,100.0,-0.0,-0.0,-0.001,1.6214366,0.0
12620000,nan,nan,nan,nan,nan,nan,0.0,0.0,100.0,-0.0,-0.0,-0.001,1.6213503,0.0
12724000,nan,nan,nan,nan,nan,nan,0.0,0.0,100.0,-0.0,-0.0,-0.001,1.621223,0.0
12828000,nan,nan,nan,nan,nan,nan,0.0,0.0,100.0,-0.0,-0.0,-0.001,1.6212293,0.0
12924000,nan,nan,nan,nan,nan,nan,0.0,0.0,100.0,-0.0,-0.0,-0.001,1.6210952,0.0
13020000,nan,nan,nan,nan,nan,nan,0.0,0.0,100.0,-0.0,-0.0,-0.001,1.6212401,0.0
13124000,nan,nan,nan,nan,nan,nan,0.0,0.0,100.0,-0.0,-0.0,-0.001,1.621804,0.0
13220000,nan,nan,nan,nan,nan,nan,0.0,0.0,100.0,-0.0,-0.0,-0.001,1.6223686,0.0
13324000,nan,nan,nan,nan,nan,nan,0.0,0.0,100.0,-0.0,-0.0,-0.001,1.622135,0.0
13420000,nan,nan,nan,nan,nan,nan,0.0,0.0,100.0,-0.0,-0.0,-0.001,1.6218193,0.0
13524000,nan,nan,nan,nan,nan,nan,0.0,0.0,100.0,-0.0,-0.0,-0.001,1.6216719,0.0
13620000,nan,nan,nan,nan,nan,nan,0.0,0.0,100.0,-0.0,-0.0,-0.001,1.6211125,0.0
13724000,nan,nan,nan,nan,nan,nan,0.0,0.0,100.0,-0.0,-0.0,-0.001,1.620732,0.0
13820000,nan,nan,nan,nan,nan,nan,0.0,0.0,100.0,-0.0,-0.0,-0.001,1.6206495,0.0
13924000,nan,nan,nan,nan,nan,nan,0.0,0.0,100.0,-0.0,-0.0,-0.001,1.6207061,0.0
14028000,nan,nan,nan,nan,nan,nan,0.0,0.0,100.0,-0.0,-0.0,-0.001,1.6210021,0.0
14124000,-0.013754288,0.0106952945,0.03782055,0.00030406567,-7.163407e-05,2.422587,0.021414967,-0.009166358,9.586441,2.4431954e-05,-1.0457735e-05,-0.011227548,1.6210784,0.0
14228000,-0.013743553,0.0106933545,0.032621197,0.00093959656,-0.00020789141,2.233596,0.020730514,-0.008817169,9.3106365,5.3298943e-05,-2.2669277e-05,-0.025289655,1.6209406,0.0
14324000,-0.013714072,0.010687921,0.036512863,-0.00024594317,0.00010487523,2.0591428,0.014255006,-0.008086225,9.023755,5.74901e-05,-3.2611555e-05,-0.039916545,1.6205614,0.0
14420000,-0.013670378,0.01067983,0.03163108,-0.0010050234,0.00022506888,1.8846896,0.012472335,-0.0075491173,8.701556,7.25437e-05,-4.390845e-05,-0.05634412,1.6203073,0.0
14524000,-0.01360519,0.01066773,0.036845088,-0.0013806263,0.00015907935,1.6956986,0.011859034,-0.012341129,8.311092,9.120904e-05,-9.4916875e-05,-0.07625222,1.6203121,0.0
14628000,-0.013528537,0.010653486,0.0330276,-0.0021297974,0.00042947102,1.5067077,0.0018517999,-0.013006162,7.887342,1.844514e-05,-0.0001295499,-0.097857475,1.6202588,0.0
14724000,-0.013427644,0.010634721,0.035176877,-0.0038011572,0.0015016091,1.3322544,0.0024182615,-0.0026244533,7.460518,2.7986463e-05,-3.037271e-05,-0.11961946,1.6202844,0.0
14820000,-0.013318033,0.010614325,0.031210538,-0.004921507,0.0022833573,1.1578012,-0.002768319,-0.0021073208,7.001241,-3.9295715e-05,-2.9912984e-05,-0.14303604,1.6201992,0.0
14924000,-0.013181434,0.0105888955,0.03382431,-0.0056398213,0.0028091026,0.9688109,-0.002118615,-0.00041863124,6.461375,-0.0,-0.0,-0.17056155,1.6198246,0.0
15020000,-0.013038863,0.010562346,0.031071443,-0.006348919,0.0031419322,0.7943586,-0.006150265,0.0004526439,5.9271975,-0.00013621718,1.0025237e-05,-0.19779703,1.6192862,0.0
15124000,-0.012866559,0.010530252,0.0304927,-0.009095748,0.0035515102,0.60536873,-0.018746512,-8.99696e-05,5.3128166,-0.0004404512,-2.1138449e-06,-0.22912174,1.6192272,0.0
15228000,-0.012691029,0.010497551,0.027357597,-0.011186769,0.0037704492,0.41637874,-0.025185082,-0.0005643042,4.6602473,-0.0006717097,-1.5050521e-05,-0.26239353,1.6194288,0.0
15324000,-0.012483018,0.010458792,0.027760204,-0.012578852,0.003731968,0.24192643,-0.025511935,-0.0015007791,4.0214705,-0.00076755515,-4.5152618e-05,-0.29496205,1.6193762,0.0
15420000,-0.012274531,0.010419938,0.02617477,-0.013289612,0.0037872186,0.072482444,-0.02548213,-0.001954978,3.3678727,-0.0008532415,-6.546031e-05,-0.3282863,1.6192081,0.0
15524000,-0.012030816,0.010374513,0.023978919,-0.0124126235,0.0048428127,0.019884665,-0.025763473,0.000934344,3.1645718,-0.00088218873,3.1993655e-05,-0.33865175,1.6187855,0.0
15628000,-0.011789368,0.010329508,0.022508604,-0.011699529,0.005602426,-0.029129937,-0.026186572,0.013571683,2.9580977,-0.00092698453,0.00048042712,-0.349179,1.6183563,0.0
15724000,-0.0115099475,0.010277418,0.021705605,-0.0110207135,0.006175088,-0.082515344,-0.022856021,0.010961723,2.7291355,-0.00083312934,0.00039956789,-0.36085284,1.617989,0.0
15828000,-0.011235541,0.01022626,0.02198115,-0.010401915,0.006632447,-0.13060689,-0.025575344,0.0067073302,2.5138104,-0.00096989167,0.00025436154,-0.37183136,1.6176481,0.0
15924000,-0.010920414,0.010167506,0.018889528,-0.009863877,0.0068936264,-0.18491533,-0.024308253,0.011105854,2.2616658,-0.0009435461,0.0004310834,-0.38468713,1.6175747,0.0
16020000,-0.0106130475,0.010110196,0.0195382,-0.009391429,0.007041332,-0.23231757,-0.023335371,0.010693385,2.022698,-0.0009404851,0.00043097537,-0.39687112,1.6176033,0.0
16124000,-0.0102622155,0.010044776,0.017165093,-0.008908943,0.007011579,-0.2873153,-0.023221707,0.009734761,1.7433426,-0.000970834,0.0004069829,-0.41111428,1.6174889,0.0
16220000,-0.009921892,0.009981313,0.019200074,-0.0084496215,0.006720758,-0.3339175,-0.023166295,0.0078052673,1.4905379,-0.001000412,0.00033706223,-0.42400372,1.61715,0.0
16324000,-0.009535355,0.0099092275,0.014445446,-0.007820543,0.00566189,-0.38971522,-0.027410256,0.0035756654,1.1894939,-0.0012220175,0.00015941205,-0.4393527,1.6167139,0.0
16428000,-0.009162071,0.009839613,0.016731847,-0.007446287,0.0047138603,-0.4355623,-0.030434895,0.0022335122,0.9077852,-0.0014061019,0.00010318897,-0.45371583,1.6167688,0.0
16524000,-0.008739827,0.009760863,0.013099348,-0.0071274256,0.0038815981,-0.49211514,-0.027270863,0.0013789575,0.58216906,-0.0013075242,6.611527e-05,-0.47031763,1.6169037,0.0
16620000,-0.008333584,0.009685095,0.017089438,-0.0067719305,0.0032009773,-0.5371174,-0.026823945,0.0012853565,0.2938304,-0.0013381564,6.4122105e-05,-0.48501882,1.6166879,0.0
16724000,-0.007877034,0.009599943,0.010905106,-0.0060419324,0.0029662629,-0.5945153,-0.029084349,0.00012619064,-0.05736804,-0.0014937277,6.4809587e-06,-0.502925,1.6166549,0.0
16828000,-0.007453133,0.009520882,0.014740915,-0.005729796,0.002696371,-0.6387581,-0.030549819,-0.0009942641,-0.37373638,-0.0016120662,-5.2465763e-05,-0.51905525,1.6167914,0.0
16924000,-0.0069963005,0.009435676,0.009565136,-0.005550986,0.002340387,-0.6969155,-0.032469552,-0.0013213411,-0.74078083,-0.0017697593,-7.201996e-05,-0.5377693,1.6169341,0.0
17020000,-0.006578272,0.009357706,0.015464392,-0.005431758,0.002048884,-0.7403178,-0.03508585,-0.002208157,-1.0618532,-0.001984402,-0.00012489,-0.55413944,1.6169058,0.0
17124000,-0.0061310837,0.009274294,0.008470605,-0.0048025325,0.0020223153,-0.7993157,-0.03294739,-0.00041927688,-1.9618556,-0.0020190831,-2.569414e-05,-0.6000268,1.616736,0.0
17220000,-0.0057251463,0.009198573,0.014575148,-0.004570902,0.0019012815,-0.84191805,-0.037910063,-0.001082446,-2.29815,-0.0023814554,-6.7997695e-05,-0.617173,1.6165391,0.0
17324000,-0.0052947016,0.009118279,0.008290521,-0.0046306476,0.001735718,-0.90171593,-0.036573026,0.0022180122,-2.7264915,-0.002392271,0.00014508195,-0.63901234,1.6165632,0.0
17428000,-0.004907771,0.0090461,0.015856579,-0.004470935,0.0016614271,-0.9434755,-0.032604855,-0.0016876874,-3.0922637,-0.002186854,-0.00011319559,-0.65766156,1.6167029,0.0
17524000,-0.0045019817,0.008970399,0.0072137928,-0.0037676075,0.0016948774,-1.0041162,-0.034690145,0.002988981,-3.5217495,-0.0024067513,0.00020737112,-0.67955923,1.6168531,0.0
17620000,-0.0041417764,0.008903201,0.014356687,-0.0032807987,0.0017077043,-1.0451183,-0.019458523,0.0026740544,-3.8143878,-0.0013851349,0.00019034982,-0.69447964,1.6172441,0.0
17724000,-0.0037695062,0.008833746,0.002933127,-0.0024765427,0.0017498515,-1.106516,0.0050947694,0.009258621,-4.1277013,0.00037396472,0.0006795985,-0.7104542,1.6174024,0.0
17820000,-0.0034447408,0.008773152,0.00420077,-0.00066531217,0.0022257185,-1.1467183,0.033856783,0.01625216,-4.3233237,0.0024869842,0.0011938189,-0.72042817,1.6195942,0.0
17924000,-0.0031163783,0.008711879,-0.01985878,0.0043071746,0.004514483,-1.2088048,0.17360866,0.1427168,-4.632039,0.01303412,0.010714834,-0.73616827,1.6234602,0.0
18020000,-0.0028388996,0.008660096,-0.027344327,0.01278764,0.010565957,-1.2478642,0.31190458,0.3001494,-4.7726874,0.023642834,0.022751775,-0.7433393,1.6248193,0.0
18124000,-0.0025701576,0.008609938,-0.061825465,0.026695892,0.022662615,-1.309761,0.40743494,0.41263127,-4.914468,0.031183824,0.03158154,-0.75056815,1.6247075,0.0
18220000,-0.0023554985,0.0085698655,-0.08214744,0.04247546,0.03726654,-1.3471022,0.43967843,0.45019102,-4.910913,0.03364366,0.03444807,-0.75038683,1.6244482,0.0
18324000,-0.0021644277,0.008534181,-0.13533741,0.060758475,0.052923504,-1.4081693,0.46228546,0.44851342,-4.9718876,0.035519198,0.034461036,-0.7534957,1.6242024,0.0
18428000,-0.002033708,0.008509744,-0.17221652,0.078837015,0.06888571,-1.429931,0.47198072,0.45154995,-4.6159096,0.03539121,0.033859223,-0.7353459,1.6238544,0.0
18524000,-0.00194339,0.008492805,-0.24089059,0.09463203,0.08304095,-1.4474998,0.4849971,0.45904854,-4.2654114,0.0354831,0.033584666,-0.7174755,1.6235119,0.0
18620000,-0.0018755513,0.008480074,-0.28651273,0.11024906,0.09676025,-1.407959,0.49378937,0.47249562,-4.057847,0.035593826,0.03405891,-0.7068926,1.6233968,0.0
18724000,-0.001804892,0.008466854,-0.35796392,0.12742834,0.11178919,-1.3883368,0.4998304,0.48555636,-4.338466,0.036758475,0.035708737,-0.7212002,1.623191,0.0
18828000,-0.00174335,0.008455357,-0.40427342,0.14196286,0.1250838,-1.352289,0.4890753,0.48128647,-4.3270063,0.03593807,0.03536573,-0.7206159,1.6227568,0.0
18924000,-0.0016806993,0.008443664,-0.4754829,0.1528463,0.13564679,-1.344491,0.47509104,0.47428507,-4.4155455,0.035129644,0.03507005,-0.72513014,1.6223956,0.0
19020000,-0.0016263877,0.0084335385,-0.52449906,0.16252431,0.14500411,-1.3146932,0.46560198,0.4588552,-4.3353148,0.034233633,0.033737574,-0.72103953,1.6219287,0.0
19124000,-0.0015713527,0.008423289,-0.59984815,0.17589143,0.15564166,-1.3003395,0.4667122,0.4500206,-4.3757343,0.034413386,0.033182617,-0.72310036,1.6212912,0.0
19228000,-0.0015234475,0.008414249,-0.65241677,0.18524832,0.16323097,-1.2639834,0.4560895,0.4388448,-4.2851872,0.033415686,0.03215224,-0.71848375,1.6206307,0.0
19324000,-0.0014732404,0.008404829,-0.72788537,0.19066475,0.16775015,-1.2528832,0.43141705,0.415439,-4.3528104,0.031759538,0.030583287,-0.7219316,1.6201957,0.0
19420000,-0.0014291977,0.008396598,-0.7818452,0.19334888,0.1703892,-1.2211035,0.4076407,0.39732283,-4.276394,0.02984696,0.029091498,-0.7180354,1.6200397,0.0
19524000,-0.0013842166,0.008388206,-0.86051625,0.19439203,0.17284274,-1.2028757,0.3823119,0.38195345,-4.314509,0.028068509,0.028042195,-0.71997875,1.6199119,0.0
19620000,-0.001345149,0.00838093,-0.91707146,0.19278467,0.17281413,-1.1695576,0.36248812,0.36602405,-4.2437286,0.02647976,0.026738064,-0.7163699,1.6195973,0.0
19724000,-0.0013054071,0.00837354,-0.9946809,0.18877207,0.17072505,-1.1493785,0.3359299,0.3419012,-4.297676,0.024633052,0.025070917,-0.7191205,1.6191436,0.0
19828000,-0.0012710685,0.008367168,-1.0512964,0.18303736,0.16777451,-1.1096998,0.31069663,0.32144326,-4.210578,0.02264278,0.023425968,-0.7146797,1.6187559,0.0
19924000,-0.0012364414,0.008360757,-1.1316149,0.17697942,0.16638643,-1.093264,0.2869638,0.3115549,-4.2513103,0.020973267,0.022770554,-0.71675646,1.6183238,0.0
20020000,-0.001206851,0.008355222,-1.1892092,0.16978157,0.1628113,-1.0575635,0.40633658,0.17597364,-4.270761,0.029738938,0.012879149,-0.7177482,1.6179827,0.0
20124000,-0.0011765397,0.008349368,-1.2579222,0.16834466,0.15068789,-1.0345407,0.7050569,-0.121685356,-4.701338,0.0531821,-0.009178668,-0.7397015,1.6178071,0.0
20228000,-0.001149158,0.008344196,-1.3020706,0.17367259,0.13227466,-0.9971943,0.845526,-0.2810052,-4.8376865,0.064376,-0.021394957,-0.7466534,1.6171939,0.0
20324000,-0.0011208821,0.008338911,-1.3691,0.1784946,0.11859731,-0.9816695,0.9142389,-0.3552401,-4.938348,0.07008585,-0.027232822,-0.75178564,1.616227,0.0
20428000,-0.0010962316,0.008334342,-1.4142264,0.19062804,0.09500686,-0.9451335,0.99904495,-0.4473347,-4.897729,0.076376185,-0.034198377,-0.7497147,1.6154828,0.0
20524000,-0.0010711846,0.008329743,-1.4746081,0.2066006,0.06715455,-0.92863894,1.0792648,-0.5449282,-4.976614,0.08295242,-0.041883245,-0.75373673,1.61518,0.0
20620000,-0.0010496649,0.008325829,-1.5215567,0.21612561,0.044540614,-0.89762455,1.1067778,-0.5940068,-4.913435,0.08470329,-0.045460187,-0.75051546,1.6148609,0.0
20724000,-0.0010277355,0.008321887,-1.6079113,0.18372008,0.06049498,-0.8709967,1.0006385,-0.52336425,-4.780823,0.0758902,-0.039692875,-0.74375415,1.4993855,0.0
20820000,-0.0010088165,0.008318385,-1.6678387,0.16666898,0.06178398,-0.8295129,0.9916311,-0.554308,-4.704465,0.07481339,-0.041819643,-0.73986095,1.5090281,0.0
20924000,-0.0009898882,0.00831467,-1.7392006,0.15936847,0.05099673,-0.7977105,1.0192018,-0.64632714,-4.6520967,0.07661591,-0.04858601,-0.7371909,1.5233159,0.0
21020000,-0.0009739366,0.008311397,-1.8050689,0.14664237,0.045483448,-0.7425288,0.9750991,-0.65078086,-4.2609653,0.07131791,-0.04759755,-0.7172488,1.5331758,0.0
21124000,-0.0009581096,0.008307997,-1.8699718,0.07229325,0.09737872,-0.61038744,0.7040872,-0.4171601,-3.6707091,0.049335726,-0.029230608,-0.68715405,1.5394282,0.0
21220000,-0.0009449871,0.008305038,-1.9202787,0.022771176,0.12684286,-0.4732284,0.63543254,-0.3483433,-3.6330836,0.04440086,-0.024340497,-0.68523574,1.5452427,0.0
21324000,-0.0009319819,0.0083019445,-1.9650606,-0.012974343,0.14242592,-0.35524398,0.64253604,-0.36151338,-4.116243,0.046510763,-0.026168592,-0.70987,1.5499088,0.0
21428000,-0.0009212642,0.008299399,-1.9970796,-0.056039527,0.16641256,-0.2670806,0.46744853,-0.21255708,-4.432728,0.03460658,-0.015736222,-0.7260062,1.5530815,0.0
21524000,-0.0009098719,0.008297006,-2.0249608,-0.15066023,0.24282055,-0.17342953,0.058962375,0.1671845,-4.490903,0.0043832455,0.012428446,-0.7289723,1.5545157,0.0
21620000,-0.0008998498,0.008295145,-2.047114,-0.22793715,0.30304816,-0.12228434,-0.11253511,0.3239426,-4.6060038,-0.008432294,0.024273131,-0.7348408,1.5565474,0.0
21724000,-0.0008897635,0.008293428,-2.0693288,-0.29257378,0.35069576,-0.094437346,-0.13739434,0.33772674,-0.50018376,-0.010307624,0.025337,-0.7357032,1.5572886,0.001130562
21820000,-0.0008810656,0.008291906,-2.0887938,-0.34705314,0.39082068,-0.06638987,-0.2350072,0.4280287,-0.4209929,-0.017494373,0.031863254,-0.7300505,1.5572886,0.0010731943
21924000,-0.00087198545,0.008290336,-2.1088467,-0.4537138,0.48285496,0.014265984,-0.634553,0.81784636,-0.09219348,-0.045720544,0.058927123,-0.70658076,1.5572886,0.00043660178
22020000,-0.00086401583,0.008288961,-2.1264489,-0.53282046,0.5499658,0.064438805,-0.78034073,0.96934956,-0.03758786,-0.05591439,0.06945758,-0.70268303,1.5572886,0.00041444742
22124000,-0.0008558329,0.008287553,-2.1445816,-0.5980565,0.6038682,0.09756808,-0.80055064,0.98802525,-0.105117075,-0.057755593,0.07128092,-0.70750326,1.5572886,0.0001686074
22220000,-0.0008486956,0.008286327,-2.160498,-0.6479295,0.64544404,0.13580802,-0.8365717,1.0315226,-0.051508427,-0.06002836,0.0740171,-0.70367664,1.5572886,0.00016005177
22324000,-0.0008413267,0.008285049,-2.1768925,-0.7086044,0.7009934,0.22168559,-0.95637065,1.171624,0.2524727,-0.06650845,0.081477724,-0.68197846,1.5572886,6.511299e-05
22420000,-0.00083481823,0.008283926,-2.191282,-0.7467093,0.7353275,0.2720226,-0.99145794,1.2217329,0.2745245,-0.06878925,0.084766164,-0.68040437,1.5572886,6.180897e-05
22524000,-0.00082812936,0.008282772,-2.2061036,-0.7711311,0.7565788,0.30170497,-0.97431034,1.2105696,0.174802,-0.0683068,0.08487043,-0.6875226,1.5572886,2.5145404e-05
22620000,-0.0008222895,0.008281766,-2.2191124,-0.77902013,0.7626363,0.32728326,-0.91686076,1.1629529,0.1729516,-0.064291246,0.081547484,-0.6876547,1.5572886,2.3869456e-05
22724000,-0.0008162992,0.008280727,-2.2325106,-0.7696055,0.75429153,0.40730834,-0.8265415,1.0907396,0.47625723,-0.056133367,0.074076004,-0.66600466,1.5572886,9.71068e-06
22820000,-0.0008109854,0.00827981,-2.2442694,-0.75171196,0.7374652,0.4506271,-0.787321,1.0668133,0.4855009,-0.053416915,0.072379485,-0.6653449,1.5572886,9.217933e-06
22924000,-0.00080551795,0.008278869,-2.2563798,-0.72584075,0.7129548,0.4709618,-0.7573092,1.0559759,0.36927584,-0.05202125,0.072537325,-0.673641,1.5572886,3.7500818e-06
23028000,-0.0008007388,0.008278048,-2.2670088,-0.6856437,0.6747007,0.49234217,-0.6408077,0.9432904,0.39405563,-0.043900676,0.06462327,-0.67183596,1.5572886,3.5597918e-06
23124000,-0.00079583324,0.008277197,-2.2779553,-0.61740696,0.6093732,0.54972416,-0.44802046,0.76236224,0.61196584,-0.029962406,0.05098474,-0.65584207,1.5572886,1.4482107e-06
23220000,-0.000791496,0.008276448,-2.2875626,-0.55275697,0.54748136,0.5791117,-0.3756213,0.7059727,0.6069622,-0.025138376,0.047247075,-0.6563124,1.5572886,1.3747244e-06
23324000,-0.0007870454,0.008275679,-2.2974563,-0.4893145,0.486974,0.5851974,-0.373954,0.71202433,0.48302704,-0.02536344,0.04829307,-0.66513544,1.5572886,5.592716e-07
23420000,-0.0007831631,0.008275006,-2.306139,-0.41899794,0.4208774,0.5901967,-0.244385,0.5977286,0.47908506,-0.016569812,0.04052724,-0.664901,1.5572886,5.3089263e-07
23524000,-0.0007791285,0.008274309,-2.3150792,-0.2951534,0.30590728,0.6238206,0.03453231,0.34856957,0.61837274,0.0023027146,0.02324363,-0.65390134,1.5572886,2.1598014e-07
23620000,-0.0007756025,0.008273703,-2.3229256,-0.19895355,0.2168805,0.6302717,0.09524511,0.29894403,0.5579769,0.006389698,0.020055223,-0.65785617,1.5572886,2.0502071e-07
23724000,-0.00077196665,0.008273074,-2.3310049,-0.11536404,0.13993357,0.61650425,0.03346075,0.3618267,0.37771198,0.0022877448,0.02473845,-0.67047244,1.5572886,8.3407464e-08
23820000,-0.000768773,0.008272522,-2.3380957,-0.03091356,0.061471254,0.6005739,0.12848668,0.27596536,0.2976546,0.008854933,0.01901874,-0.67584914,1.5572886,7.9175145e-08
23924000,-0.0007656302,0.008271978,-2.3451118,0.117215134,-0.07838937,0.60044986,0.4269427,-0.0021395385,0.3276812,0.029295025,-0.0001468062,-0.67288053,1.5572886,3.221039e-08
24020000,-0.0007630847,0.008271538,-2.3507574,0.22267388,-0.17774916,0.5843659,0.45261964,-0.027438283,0.27904668,0.031191466,-0.0018908598,-0.67579967,1.5572886,3.0575947e-08
24124000,-0.0007606475,0.008271118,-2.3561702,0.3044116,-0.2544698,0.5539722,0.32746586,0.09503474,0.13374594,0.022900205,0.0066459305,-0.6857691,1.5572886,1.2439046e-08
24228000,-0.0007586126,0.008270764,-2.3606966,0.38960436,-0.33308843,0.5193881,0.38810468,0.05826262,0.041841663,0.027383123,0.004110779,-0.6919309,1.5572886,1.1807853e-08
24324000,-0.00075675675,0.008270443,-2.364806,0.5388163,-0.46915188,0.49420163,0.70169526,-0.22083943,0.041837994,0.04945655,-0.015565098,-0.69119525,1.5572886,4.8037245e-09
24420000,-0.00075533084,0.008270198,-2.3679712,0.6465391,-0.5663132,0.46354166,0.72021747,-0.22897127,0.021529995,0.0508207,-0.016156899,-0.6919854,1.5572886,4.55997e-09
24524000,-0.00075399305,0.008269966,-2.3709462,0.7202721,-0.6315753,0.42552346,0.5528658,-0.06753555,-0.057465017,0.03930171,-0.0048009157,-0.69713116,1.5572886,1.8551076e-09
24628000,-0.00075287843,0.008269773,-2.3734133,0.80552053,-0.7093942,0.3796721,0.6405247,-0.14736484,-0.165415,0.046012226,-0.010585985,-0.7044755,1.5572886,1.7609744e-09
24724000,-0.0007519435,0.008269611,-2.3754816,0.94434273,-0.840023,0.32953542,0.8929757,-0.385006,-0.23338312,0.06453265,-0.027823223,-0.7086975,1.5572886,7.164076e-10
24820000,-0.0007512813,0.008269496,-2.3769472,1.0341213,-0.92413706,0.2839494,0.85842615,-0.3588269,-0.23993547,0.06201584,-0.025922962,-0.70847225,1.5572886,6.800551e-10
24924000,-0.000750687,0.008269394,-2.378263,1.0819621,-0.96859014,0.23986363,0.63415843,-0.1454862,-0.25487986,0.0458482,-0.010518318,-0.7090035,1.5572886,2.7666314e-10
25020000,-0.0007501948,0.008269307,-2.379354,1.1295297,-1.0146606,0.19216844,0.64298475,-0.15736954,-0.33642232,0.04684607,-0.011465504,-0.7144857,1.5572886,2.6262445e-10
25124000,-0.0007498738,0.008269251,-2.380066,1.2649856,-1.1486576,0.11752819,0.9402977,-0.45974675,-0.46698934,0.06934273,-0.033904254,-0.72319347,1.5572886,1.0684208e-10
25228000,-0.0007497293,0.008269226,-2.380386,1.3371835,-1.2214382,0.06112598,0.8734089,-0.409677,-0.42816624,0.06409439,-0.030063806,-0.71965,1.5572886,1.0142061e-10
25324000,-0.00074964453,0.008269212,-2.3805737,1.3551779,-1.2417703,0.022962213,0.639462,-0.19125119,-0.38300204,0.046686802,-0.0139631545,-0.71598744,1.5572886,4.1260394e-11
25420000,-0.00074956747,0.008269198,-2.380744,1.3651551,-1.2552956,-0.017336011,0.5555498,-0.11217384,-0.41440824,0.040672194,-0.008212326,-0.717949,1.5572886,3.916673e-11
25524000,-0.00074956747,0.008269198,-2.380744,1.4909391,-1.3850619,-0.10533154,0.9285518,-0.49775356,-0.6224816,0.0693337,-0.037166584,-0.7322433,1.4756072,-0.27449006
25620000,-0.00074956747,0.008269198,-2.380744,1.5464932,-1.4452022,-0.1598481,0.9008675,-0.48829058,-0.5242938,0.066544615,-0.036068685,-0.72438943,1.400209,-0.6200956
25724000,-0.00074956747,0.008269198,-2.380744,1.5512476,-1.4560621,-0.19400704,0.6524529,-0.25442114,-0.37321904,0.047435615,-0.01849731,-0.7129791,1.3185275,-0.52676016
25820000,-0.00074956747,0.008269198,-2.380744,1.5602477,-1.4711744,-0.23384416,0.6690211,-0.22323218,-0.4277797,0.04888366,-0.016311005,-0.71655345,1.2431293,-0.7853982
25924000,-0.00074956747,0.008269198,-2.380744,1.6633636,-1.5794737,-0.3273033,1.0290782,-0.485251,-0.7321869,0.07742943,-0.03651103,-0.7378672,1.1614478,-0.6241821
26028000,-0.00074956747,0.008269198,-2.380744,1.7007015,-1.6180985,-0.38384354,1.0482175,-0.40918204,-0.67958283,0.07841906,-0.030611651,-0.7336553,1.0860496,-0.7853982
26124000,-0.00074956747,0.008269198,-2.380744,1.687842,-1.6025935,-0.40862572,0.9102532,-0.1820926,-0.5430896,0.067175835,-0.013438264,-0.7237232,1.0043681,-0.66180456
26228000,-0.00074956747,0.008269198,-2.380744,1.6769046,-1.5904872,-0.44510674,0.95069695,-0.15796189,-0.5712824,0.07034169,-0.011687536,-0.72558486,0.9289698,-0.7853982
26324000,-0.00074956747,0.008269198,-2.380744,1.7516847,-1.6769501,-0.5415442,1.2502804,-0.4912199,-0.91599035,0.095602654,-0.037561122,-0.7498631,0.84728837,-0.67633384
26420000,-0.00074956747,0.008269198,-2.380744,1.7739329,-1.7057014,-0.59768045,1.2518932,-0.49994066,-0.85377526,0.09511354,-0.037983373,-0.7450666,0.7718901,-0.7853982
26524000,-0.00074956747,0.008269198,-2.380744,1.7497166,-1.6835518,-0.6201656,1.105791,-0.29895994,-0.64222527,0.08229663,-0.022249587,-0.7298443,0.6902087,-0.68194467
26620000,-0.00074956747,0.008269198,-2.380744,1.7291324,-1.6701462,-0.6517253,1.1353308,-0.3425087,-0.6616881,0.08464812,-0.0255368,-0.73116374,0.6148104,-0.7853982
26724000,-0.00074956747,0.008269198,-2.380744,1.7916358,-1.7557285,-0.7110214,2.1807284,-0.64892554,5.1573296,0.07222664,-0.021492682,-0.32480055,0.533129,-0.68411136
26820000,-0.00074956747,0.008269198,-2.380744,1.8159792,-1.7812439,-0.6249465,2.1224532,-1.0547222,5.672758,0.062497642,-0.031057293,-0.2887663,0.45773077,-0.7853982
26924000,-0.00074956747,0.008269198,-2.380744,1.8074458,-1.768209,-0.49675262,2.1169715,-1.1180856,6.5336814,0.049349137,-0.026063913,-0.228605,0.3760494,-0.68494815
27020000,-0.00074956747,0.008269198,-2.380744,1.8047922,-1.7646915,-0.3930651,2.229367,-1.3336099,7.255952,0.04049753,-0.024225665,-0.1781426,0.30065122,-0.7853982
27124000,-0.00074956747,0.008269198,-2.380744,1.8617138,-1.8394656,-0.35965312,2.4685128,-1.776956,7.611134,0.038594365,-0.027782105,-0.15332365,0.21896984,-0.68527144
27220000,-0.00074956747,0.008269198,-2.380744,1.8808409,-1.8717347,-0.2904111,2.52036,-1.9888749,8.1322975,0.030049035,-0.023712398,-0.116919935,0.14357162,-0.7853982
27324000,-0.00074956747,0.008269198,-2.380744,1.8740091,-1.877592,-0.18701136,2.49719,-2.122612,8.467143,0.028981464,-0.024634251,-0.113812245,0.061890192,-0.68539613
27420000,-0.00074956747,0.008269198,-2.380744,1.8701919,-1.8881361,-0.11294329,2.5514343,-2.3603883,8.6430235,0.029427165,-0.027223721,-0.113105744,-0.013508038,-0.7853982
27524000,-0.00074956747,0.008269198,-2.380744,1.9095869,-1.9528031,-0.117839456,2.7210805,-2.7581594,8.369742,0.030967433,-0.03138941,-0.111605205,-0.09518946,-0.6854444
27620000,-0.00074956747,0.008269198,-2.380744,1.921204,-1.9901025,-0.08138478,2.7432168,-2.997923,8.310386,0.03101072,-0.033890046,-0.110859364,-0.17058769,-0.7853982
27724000,-0.00074956747,0.008269198,-2.380744,1.9131914,-2.0143514,-0.0102523565,2.709786,-3.210266,8.390426,0.03047955,-0.036108922,-0.11030477,-0.2522691,-0.685463
27820000,-0.00074956747,0.008269198,-2.380744,1.9021447,-2.0345752,0.048035264,2.7154896,-3.4314992,8.408982,0.030344363,-0.038345445,-0.10958488,-0.32766727,-0.7853982
27924000,-0.00074956747,0.008269198,-2.380744,1.9305558,-2.08506,0.009736896,2.8742313,-3.772582,8.021549,0.036515806,-0.047928948,-0.12458908,-0.40934864,-0.68547034
28020000,-0.00074956747,0.008269198,-2.380744,1.9393824,-2.1248686,0.01702559,2.8989527,-4.0333953,8.055175,0.036132984,-0.050272852,-0.12223161,-0.4847468,-0.7853982
28124000,-0.00074956747,0.008269198,-2.380744,1.9342577,-2.1658893,0.055162072,2.8708756,-4.3131337,8.097522,0.03491454,-0.05245475,-0.1192649,-0.56642824,-0.685473
28228000,-0.00074956747,0.008269198,-2.380744,1.9290068,-2.203735,0.07558572,2.9033623,-4.534815,7.9532285,0.03828686,-0.059800945,-0.12932104,-0.6418265,-0.7853982
28324000,-0.00074956747,0.008269198,-2.380744,1.9485166,-2.2281175,0.016736865,3.0238764,-4.7039223,7.560847,0.04831286,-0.07515517,-0.15668207,-0.72350794,-0.68547404
28428000,-0.00074956747,0.008269198,-2.380744,1.9573759,-2.263796,-0.004496455,3.0587454,-4.9667873,7.3221307,0.05405717,-0.08777797,-0.17331284,-0.7989062,-0.7853982
28524000,-0.00074956747,0.008269198,-2.380744,1.9566144,-2.3075998,0.00096309185,3.056211,-5.2525673,7.1986847,0.056688283,-0.097427495,-0.18189913,-0.86751825,-0.62712896
28628000,-0.00074956747,0.008269198,-2.380744,1.954908,-2.3504224,-0.009677291,3.0864303,-5.43774,6.948938,0.06272113,-0.11050346,-0.19928661,-0.87751776,-0.6441379
28724000,-0.00074956747,0.008269198,-2.380744,1.9669147,-2.3519704,-0.09129298,3.171705,-5.477756,6.3189864,0.07864904,-0.13583238,-0.24317634,-0.874315,-0.2523037
28820000,-0.00074956747,0.008269198,-2.380744,1.9722615,-2.374195,-0.14017475,3.2035053,-5.703276,5.814859,0.090903066,-0.16183686,-0.27827474,-0.87760556,-0.25610942
28924000,-0.00074956747,0.008269198,-2.380744,1.9720414,-2.422026,-0.16854346,3.221797,-6.047681,5.3572345,0.10188103,-0.1912423,-0.31011,-0.88744545,-0.13812312
29028000,-0.00074956747,0.008269198,-2.380744,1.972369,-2.4559221,-0.21901357,3.275969,-6.156086,4.762687,0.11741045,-0.22063363,-0.35146958,-0.8949645,-0.16506703
29124000,-0.00074956747,0.008269198,-2.380744,1.9794126,-2.4371836,-0.3145994,3.346418,-6.1585155,3.938207,0.13951153,-0.25674736,-0.40883753,-0.88867295,-0.047230013
29220000,-0.00074956747,0.008269198,-2.380744,1.9826976,-2.4495988,-0.38378227,3.4024878,-6.399113,3.2042177,0.1595616,-0.3000901,-0.45988855,-0.89034754,-0.053915296
29324000,-0.00074956747,0.008269198,-2.380744,1.9829646,-2.4964442,-0.44041133,3.4538708,-6.7991967,2.4587488,0.18023042,-0.35479674,-0.5117321,-0.89952683,-0.053781018
29420000,-0.00074956747,0.008269198,-2.380744,1.9830664,-2.5305543,-0.5059414,3.5345714,-6.9610105,1.6764603,0.20405789,-0.4018731,-0.5661576,-0.9061011,-0.08016897
29524000,-0.00074956747,0.008269198,-2.380744,1.9878297,-2.4863474,-0.625733,3.6399765,-6.912179,0.563995,0.23889443,-0.45365158,-0.643618,-0.89635736,-0.0012677992
29628000,-0.00074956747,0.008269198,-2.380744,1.990548,-2.4891357,-0.724115,3.7493944,-7.233191,-0.49041954,0.27418092,-0.52893955,-0.71712816,-0.8959244,-0.00038980565
29724000,-0.00074956747,0.008269198,-2.380744,1.9918226,-2.529658,-0.8033935,3.8473186,-7.6570473,-1.4463593,0.27876288,-0.5548022,-0.78389144,-0.9037888,-0.027699571
29828000,-0.00074956747,0.008269198,-2.380744,1.9920828,-2.56532,-0.89731836,3.9385319,-7.8412423,-2.5352187,0.22897413,-0.45586574,-0.86009145,-0.9118982,-0.06663914
29924000,-0.00074956747,0.008269198,-2.380744,1.9912164,-2.5049782,-1.012206,3.9830523,-7.6344295,-3.6637404,0.15878193,-0.30434182,-0.93923604,-0.89916635,0.014150851
30028000,-0.00074956747,0.008269198,-2.380744,1.9905784,-2.4920452,-1.1227362,4.016731,-7.4718375,-4.609932,0.14204991,-0.26423824,-0.9539392,-0.8966855,0.023897337
30124000,-0.00074956747,0.008269198,-2.380744,1.9915718,-2.5137138,-1.2104143,4.071886,-7.3046346,-4.895197,0.14606981,-0.26203746,-0.9539392,-0.90077466,-0.0047654817
30220000,-0.00074956747,0.008269198,-2.380744,1.992791,-2.5170298,-1.2924039,4.102099,-6.9946637,-5.146656,0.15176485,-0.25878072,-0.9539392,-0.9011184,-0.0037310745
30324000,-0.00074956747,0.008269198,-2.380744,1.9912431,-2.4229085,-1.3847766,4.122907,-6.410433,-5.400695,0.1622806,-0.25231928,-0.9539392,-0.88287514,0.058766164
30420000,-0.00074956747,0.008269198,-2.380744,1.9928296,-2.3725963,-1.454725,4.1503086,-6.14609,-5.5559344,0.16788906,-0.24862278,-0.9539392,-0.8721696,0.10595631
30524000,-0.00074956747,0.008269198,-2.380744,1.9970406,-2.3490508,-1.5169287,4.1575785,-5.921447,-5.6034307,0.17238823,-0.24552457,-0.9539392,-0.8662122,0.062405523
30620000,-0.00074956747,0.008269198,-2.380744,1.9988239,-2.3263748,-1.564632,4.081768,-5.3426023,-5.488393,0.18212941,-0.23838815,-0.9539392,-0.86098045,0.083367266
30724000,-0.00074956747,0.008269198,-2.380744,1.9795629,-2.2141507,-1.6075896,3.278434,-4.145063,-5.0004454,0.18610363,-0.2352987,-0.9539392,-0.84127367,0.09939296
30828000,-0.00074956747,0.008269198,-2.380744,1.932207,-2.1063888,-1.6297762,2.1151516,-3.2821596,-4.801306,0.16250947,-0.25217196,-0.9539392,-0.82916313,0.1509916
30924000,-0.00074956747,0.008269198,-2.380744,1.851326,-2.0040896,-1.6402789,1.1325343,-2.566469,-4.6274033,0.11679565,-0.264674,-0.957239,-0.824996,0.074076876
31028000,-0.00074956747,0.008269198,-2.380744,1.718205,-1.8638153,-1.643166,0.25888816,-1.5376314,-4.441273,0.026370248,-0.15662254,-0.9873064,-0.82634115,0.0638949
31124000,-0.00074956747,0.008269198,-2.380744,1.558045,-1.6845537,-1.639054,-0.29566017,-0.47762647,-4.29673,-0.029827023,-0.04818429,-0.9893236,-0.82438767,0.03204178
31228000,-0.00074956747,0.008269198,-2.380744,1.3658054,-1.4766208,-1.6038305,-0.7589559,0.45801535,-2.595001,-0.067317486,0.040624816,-0.8698299,-0.8243563,0.03051024
31324000,-0.00074949255,0.008269186,-2.3809102,1.1820182,-1.2793051,-1.5246161,-0.8489646,0.5720659,-1.0460926,-0.065879546,0.044392243,-0.7609907,-0.82439804,0.012307032
31420000,-0.00074913626,0.008269124,-2.3817017,0.9967511,-1.084826,-1.4237823,-0.9271407,0.6229473,-0.33018875,-0.067196384,0.045149352,-0.7107562,-0.82439804,0.011682539
31524000,-0.000748386,0.008268995,-2.383363,0.77661574,-0.8561557,-1.3113216,-1.0901872,0.87583643,-0.05593805,-0.0768812,0.06176495,-0.6915753,-0.82439804,0.004752743
31620000,-0.00074739556,0.008268823,-2.385557,0.5947322,-0.6696161,-1.2110646,-1.140467,1.0721048,0.01586969,-0.07985027,0.07506386,-0.68661624,-0.82439804,0.0045115757
31724000,-0.00074605586,0.008268589,-2.3885245,0.42152038,-0.49090448,-1.1094822,-1.1388748,1.2182995,-0.0012878627,-0.07988975,0.08546124,-0.6879163,-0.82439804,0.0018354197
31828000,-0.0007446261,0.008268341,-2.3916924,0.25685313,-0.31871682,-1.0128235,-1.1844327,1.3847655,0.0066899806,-0.08303038,0.097073995,-0.68745893,-0.82439804,0.0017422853
31924000,-0.00074287085,0.008268037,-2.395579,0.098587066,-0.15173729,-0.9249445,-1.2594043,1.5217017,0.014478564,-0.08822742,0.10660263,-0.68700486,-0.82439804,0.00070880447
32028000,-0.00074111426,0.008267732,-2.3994699,-0.04303061,0.0011494512,-0.8388378,-1.2356012,1.5400766,0.007855788,-0.086631574,0.10797923,-0.6875737,-0.82439804,0.00067283766
32124000,-0.0007392429,0.008267408,-2.4036152,-0.14824657,0.11755518,-0.7679733,-1.1489683,1.4800458,-0.04921359,-0.081039175,0.10439077,-0.69168293,-0.82439804,0.0002737269
32220000,-0.00073760096,0.008267124,-2.4072533,-0.24129128,0.22439206,-0.69988865,-1.1013815,1.473883,-0.0711299,-0.07786764,0.104203485,-0.6933299,-0.82439804,0.00025983722
32324000,-0.0007359106,0.008266832,-2.4109979,-0.34803903,0.35242766,-0.6215217,-1.1179757,1.5313,-0.030014992,-0.0787243,0.10782928,-0.6905534,-0.82439804,0.00010570817
32428000,-0.0007344274,0.008266576,-2.4142838,-0.42635673,0.44976115,-0.5540931,-1.0472536,1.4717141,-0.046373524,-0.0738793,0.103823185,-0.6918187,-0.82439804,0.00010034424
32524000,-0.00073290087,0.008266311,-2.4176676,-0.4764651,0.5149778,-0.5005537,-0.93896645,1.3507538,-0.0968889,-0.06659063,0.095794216,-0.6954803,-0.82439804,4.08225e-05
32628000,-0.00073156145,0.008266079,-2.4206364,-0.5187848,0.5735402,-0.4446442,-0.8625233,1.261052,-0.12661219,-0.06136466,0.089718185,-0.69769925,-0.82439804,3.8751048e-05
32724000,-0.0007301828,0.00826584,-2.4236927,-0.56589264,0.64042634,-0.38392353,-0.86153316,1.2731427,-0.058606923,-0.060884073,0.08997229,-0.69303244,-0.82439804,1.5764877e-05
32828000,-0.0007289732,0.00826563,-2.426374,-0.59567857,0.68649244,-0.32984066,-0.78487766,1.1856691,-0.07523817,-0.055571146,0.0839481,-0.6943323,-0.82439804,1.4964925e-05
32924000,-0.0007277282,0.008265416,-2.4291344,-0.6061008,0.70750517,-0.28958535,-0.6653668,1.0376452,-0.13427877,-0.047399737,0.0739203,-0.69861305,-0.82439804,6.088099e-06
33028000,-0.0007266356,0.008265227,-2.4315557,-0.6073688,0.71989936,-0.24622631,-0.57240605,0.9266089,-0.1545158,-0.040869072,0.06615872,-0.70017976,-0.82439804,5.7791726e-06
33124000,-0.00072551094,0.0082650315,-2.4340484,-0.6127137,0.74296165,-0.19410515,-0.53433233,0.9056462,-0.073051095,-0.0378452,0.06414428,-0.6945732,-0.82439804,2.3511093e-06
33220000,-0.0007245242,0.00826486,-2.4362357,-0.60490984,0.7472148,-0.15308714,-0.45959657,0.81503063,-0.08644879,-0.032602537,0.05781607,-0.6956511,-0.82439804,2.2318072e-06
33324000,-0.0007235085,0.008264683,-2.4384873,-0.58406126,0.73370624,-0.12035036,-0.34125832,0.6687648,-0.15441787,-0.024379684,0.047776934,-0.7005911,-0.82439804,9.07954e-07
33420000,-0.0007226173,0.0082645295,-2.4404635,-0.5585556,0.7128562,-0.09341931,-0.2596315,0.55839723,-0.18979964,-0.018617868,0.040042,-0.70322526,-0.82439804,8.6188186e-07
33524000,-0.00072169997,0.008264371,-2.4424968,-0.53925043,0.7062401,-0.048156977,-0.23237029,0.54231286,-0.09807202,-0.016513275,0.03853918,-0.696908,-0.82439804,3.506347e-07
33620000,-0.00072089484,0.008264231,-2.444281,-0.51283187,0.6855793,-0.018532753,-0.16277416,0.4578852,-0.1182774,-0.011593825,0.03261354,-0.69847673,-0.82439804,3.3284252e-07
33724000,-0.00072006625,0.008264087,-2.4461176,-0.47665617,0.65018433,0.0021004677,-0.07209431,0.32864895,-0.19044799,-0.0051735165,0.02358398,-0.7037294,-0.82439804,1.3540851e-07
33828000,-0.0007193392,0.008263961,-2.447729,-0.43818107,0.61067146,0.022238016,-0.012367157,0.23741373,-0.20899704,-0.000889351,0.017072972,-0.7051987,-0.82439804,1.2853751e-07
33924000,-0.00071859075,0.008263833,-2.4493873,-0.40936345,0.5857951,0.055505276,0.013042768,0.21765581,-0.115861535,0.0009293981,0.0155096585,-0.6987637,-0.82439804,5.229221e-08
34020000,-0.000717934,0.008263719,-2.450843,-0.37590212,0.5515001,0.077608585,0.0607751,0.15318893,-0.13256484,0.0043381695,0.010934734,-0.7000959,-0.82439804,4.963876e-08
34124000,-0.0007172581,0.008263602,-2.4523416,-0.33570197,0.5059164,0.09058714,0.12619914,0.051713973,-0.19106191,0.009063989,0.0037142474,-0.70439124,-0.82439804,2.0194266e-08
34220000,-0.0007166648,0.0082634995,-2.4536564,-0.29734313,0.4606211,0.10112691,0.17568886,-0.028107569,-0.21172926,0.012649067,-0.0020236596,-0.7059998,-0.82439804,1.9169551e-08
34324000,-0.00071605423,0.008263396,-2.4550092,-0.2610119,0.42088032,0.13243127,0.19785127,-0.05567518,-0.10547593,0.014096001,-0.003966603,-0.6986467,-0.82439804,7.7986435e-09
34420000,-0.0007155185,0.008263304,-2.456196,-0.225692,0.37884453,0.14924574,0.23761827,-0.11344852,-0.12226327,0.016961869,-0.008098279,-0.6999924,-0.82439804,7.4029183e-09
34524000,-0.0007149671,0.008263208,-2.457418,-0.1864456,0.32906923,0.15721703,0.27625564,-0.1865261,-0.1803344,0.019839214,-0.013395313,-0.7042716,-0.82439804,3.011689e-09
34620000,-0.0007144832,0.008263125,-2.4584904,-0.15215698,0.28393003,0.16603613,0.29968676,-0.23226869,-0.18482852,0.021536967,-0.016691973,-0.70474637,-0.82439804,2.8588676e-09
34724000,-0.00071398506,0.00826304,-2.4595938,-0.12157132,0.24311586,0.19204473,0.29969114,-0.2516123,-0.086950004,0.021330591,-0.017908568,-0.6979778,-0.82439804,1.1630575e-09
34820000,-0.000713548,0.008262964,-2.4605622,-0.09318391,0.20319861,0.20438457,0.31397712,-0.29052034,-0.10468459,0.022392174,-0.020719288,-0.69939566,-0.82439804,1.1040407e-09
34924000,-0.0007130981,0.008262887,-2.4615595,-0.062796086,0.15861474,0.20777822,0.33114538,-0.3401553,-0.16795681,0.023774799,-0.024421673,-0.7040593,-0.82439804,4.4915083e-10
35028000,-0.0007127033,0.008262818,-2.4624348,-0.034446366,0.11585377,0.21226358,0.34279978,-0.36564705,-0.17480688,0.02463435,-0.026276205,-0.7047161,-0.82439804,4.2635973e-10
35124000,-0.00071229687,0.008262749,-2.463335,-0.01257627,0.08285771,0.2317915,0.34364346,-0.37049833,-0.089205965,0.024486778,-0.026400357,-0.69880015,-0.82439804,1.7345361e-10
35220000,-0.00071194174,0.008262687,-2.4641216,0.008737069,0.049756747,0.24073863,0.34802377,-0.3932291,-0.100663625,0.024834616,-0.028060423,-0.6997791,-0.82439804,1.646521e-10
35324000,-0.0007115818,0.008262626,-2.4649186,0.030864213,0.014345864,0.24047542,0.35643423,-0.41720787,-0.1627354,0.02560079,-0.029965837,-0.70437425,-0.82439804,6.698452e-11
35428000,-0.00071126665,0.00826257,-2.4656174,0.0509626,-0.018204752,0.24137592,0.3522506,-0.4234808,-0.1657846,0.025314014,-0.030432878,-0.70476186,-0.82439804,6.358553e-11
35524000,-0.00071094604,0.008262515,-2.466328,0.06616541,-0.042180892,0.25804114,0.34718734,-0.4150476,-0.079476565,0.02473883,-0.029574212,-0.6987873,-0.82439804,2.5868155e-11
35620000,-0.00071066804,0.008262468,-2.4669435,0.08037566,-0.06534268,0.26429963,0.348537,-0.4209443,-0.095013894,0.02488179,-0.030050894,-0.7000705,-0.82439804,2.4555531e-11
35724000,-0.0007103852,0.008262419,-2.46757,0.09456792,-0.089263745,0.2613597,0.34888735,-0.42679402,-0.14789921,0.02504632,-0.030639172,-0.7040156,-0.82439804,9.989793e-12
35820000,-0.00071013963,0.008262378,-2.4681141,0.105872,-0.10981299,0.25824785,0.33816084,-0.42699963,-0.16445202,0.02432275,-0.03071262,-0.70535547,-0.82439804,9.482882e-12
35924000,-0.0007098889,0.008262334,-2.4686694,0.11394153,-0.12977692,0.27387118,0.3257562,-0.42905214,-0.07599106,0.023227315,-0.030592602,-0.6992445,-0.82439804,3.8578693e-12
36020000,-0.00070967013,0.008262296,-2.4691544,0.12062946,-0.14653428,0.27777886,0.31943023,-0.4279667,-0.08752613,0.02280942,-0.030559639,-0.7002458,-0.82439804,3.6621105e-12
36124000,-0.0007094462,0.008262257,-2.4696515,0.1270498,-0.16267031,0.27298856,0.31688875,-0.4250793,-0.14088835,0.022756375,-0.030525742,-0.7042441,-0.82439804,1.4898364e-12
36220000,-0.0007092503,0.008262224,-2.470086,0.13118964,-0.1757384,0.26858783,0.30300587,-0.42515782,-0.16019976,0.02180783,-0.030599305,-0.70580167,-0.82439804,1.4142381e-12
36324000,-0.0007090486,0.008262189,-2.4705336,0.12980129,-0.18796346,0.28377748,0.27319318,-0.42052186,-0.06250721,0.01947335,-0.029975014,-0.69902635,-0.82439804,5.753469e-13
36420000,-0.00070887146,0.00826216,-2.4709268,0.1286555,-0.19738074,0.2870028,0.25773698,-0.41455802,-0.07835244,0.018407116,-0.029606996,-0.700363,-0.82439804,5.4615215e-13
36524000,-0.0007086887,0.008262129,-2.471332,0.12752846,-0.20566772,0.28147364,0.25246692,-0.40679225,-0.13403326,0.018138437,-0.029225912,-0.7045631,-0.82439804,2.221881e-13
36620000,-0.0007085277,0.008262102,-2.4716892,0.12617575,-0.21103399,0.27560806,0.24410795,-0.3938315,-0.1586889,0.0175876,-0.028374951,-0.70652616,-0.82439804,2.1091364e-13
36724000,-0.00070836104,0.008262073,-2.4720588,0.12259493,-0.2127684,0.2875533,0.22767971,-0.37783054,-0.073075846,0.016265647,-0.026992563,-0.7006177,-0.82439804,8.5804844e-14
36820000,-0.0007082137,0.008262046,-2.4723856,0.11977384,-0.21336374,0.28895092,0.22487964,-0.36370587,-0.0912581,0.01610079,-0.026040385,-0.70215034,-0.82439804,8.1450864e-14
36924000,-0.0007080609,0.008262018,-2.4727247,0.11716565,-0.21298136,0.2815125,0.21890742,-0.34697527,-0.15029736,0.015772896,-0.025000546,-0.7066222,-0.82439804,3.313621e-14
37020000,-0.00070792576,0.008261994,-2.4730244,0.11434274,-0.21143883,0.27387333,0.21402162,-0.33734578,-0.17197226,0.015459145,-0.024367062,-0.7083688,-0.82439804,3.145479e-14
37124000,-0.00070778525,0.00826197,-2.473336,0.107925534,-0.20760413,0.2824483,0.19441131,-0.31829554,-0.09462127,0.013936759,-0.022817649,-0.70303065,-0.82439804,1.279658e-14
37228000,-0.00070766074,0.00826195,-2.4736118,0.10260515,-0.20322174,0.28044486,0.19004783,-0.30522004,-0.11342408,0.013653916,-0.02192842,-0.70458853,-0.82439804,1.2147246e-14
37324000,-0.00070753135,0.008261928,-2.4738986,0.09855831,-0.19878699,0.27177453,0.18442728,-0.29242468,-0.15883091,0.013315311,-0.021112524,-0.7080254,-0.82439804,4.941798e-15
37428000,-0.0007074167,0.008261911,-2.4741528,0.09400932,-0.19382176,0.2641387,0.18113764,-0.2841905,-0.1695989,0.013094993,-0.020544998,-0.70898825,-0.82439804,4.6910374e-15
37524000,-0.00070729747,0.008261891,-2.4744174,0.088068835,-0.18970457,0.27103662,0.17621079,-0.27609357,-0.10096531,0.012654385,-0.019827357,-0.704241,-0.82439804,1.9084292e-15
37620000,-0.0007071919,0.008261873,-2.4746513,0.083345644,-0.18511641,0.2693696,0.17294085,-0.27147773,-0.11257894,0.012437787,-0.019524492,-0.7052535,-0.82439804,1.8115902e-15
37724000,-0.00070708216,0.008261855,-2.4748945,0.079385206,-0.17967837,0.2600577,0.17786765,-0.26246014,-0.16176358,0.012858661,-0.018974142,-0.70896995,-0.82439804,7.369994e-16
37820000,-0.0007069849,0.008261839,-2.4751096,0.07529086,-0.17452508,0.25135756,0.17131013,-0.25316054,-0.17748149,0.012407802,-0.018336136,-0.7102536,-0.82439804,6.99602e-16
37924000,-0.000706884,0.008261822,-2.4753337,0.06516403,-0.1697498,0.2569239,0.14702663,-0.252565,-0.104832634,0.010572971,-0.01816244,-0.7052011,-0.82439804,2.8461527e-16
38020000,-0.00070679456,0.008261806,-2.4755323,0.057916038,-0.16496381,0.25400782,0.13955128,-0.2475525,-0.12145004,0.010054733,-0.017836269,-0.70655864,-0.82439804,2.701731e-16
38124000,-0.0007067015,0.00826179,-2.4757378,0.051992822,-0.15939964,0.24457169,0.14145292,-0.24444063,-0.1668403,0.01024041,-0.017696152,-0.709992,-0.82439804,1.09913033e-16
38220000,-0.00070661923,0.008261774,-2.4759202,0.046705984,-0.15448287,0.23580933,0.14170735,-0.24024832,-0.1770255,0.010271136,-0.017413516,-0.71085817,-0.82439804,1.0433575e-16
38324000,-0.00070653384,0.008261757,-2.476109,0.035947815,-0.151172,0.24069023,0.118608646,-0.23876104,-0.10886377,0.008539421,-0.017189985,-0.7061126,-0.82439804,4.2446343e-17
38420000,-0.00070645835,0.008261741,-2.476276,0.028764838,-0.14742841,0.23807359,0.121554896,-0.24128185,-0.11846113,0.008762547,-0.017393323,-0.7069481,-0.82439804,4.02925e-17
38524000,-0.00070638006,0.008261724,-2.4764495,0.023524143,-0.14280078,0.22913575,0.12930556,-0.23675124,-0.15636985,0.009359356,-0.017136456,-0.7098202,-0.82439804,1.6391977e-17
38628000,-0.0007063109,0.008261711,-2.4766028,0.018099021,-0.13825057,0.22025275,0.12947258,-0.2342944,-0.16854602,0.009384863,-0.016982907,-0.7108327,-0.82439804,1.5560202e-17
38724000,-0.0007062392,0.0082617,-2.4767609,0.008314644,-0.13514334,0.22100759,0.11388284,-0.2350367,-0.12384575,0.008219035,-0.016962826,-0.7077372,-0.82439804,6.330272e-18
38820000,-0.000706176,0.008261692,-2.476901,0.0016031129,-0.1314359,0.21589303,0.10937881,-0.23325121,-0.14093533,0.007909482,-0.016867036,-0.7090977,-0.82439804,6.009056e-18
38924000,-0.00070611056,0.008261682,-2.4770463,-0.0027394658,-0.12691358,0.20554018,0.11732809,-0.22939797,-0.17267162,0.008513365,-0.016645191,-0.71150684,-0.82439804,2.4446314e-18
39020000,-0.0007060528,0.008261675,-2.4771743,-0.006928707,-0.122559376,0.19879699,0.12009299,-0.22302711,-0.1683663,0.008711648,-0.016178576,-0.71131617,-0.82439804,2.3205839e-18
39124000,-0.00070599286,0.008261668,-2.4773066,-0.015893277,-0.11801325,0.20384169,0.107421614,-0.21901526,-0.096916005,0.0077366536,-0.015773783,-0.7063013,-0.82439804,9.440705e-19
39220000,-0.00070593867,0.008261661,-2.4774263,-0.020732654,-0.11342893,0.20212555,0.10681223,-0.21428235,-0.104098335,0.0076998095,-0.015447044,-0.7069419,-0.82439804,8.961657e-19
39324000,-0.0007058824,0.008261654,-2.4775548,-0.023044936,-0.108200334,0.19457006,0.12238252,-0.21343486,-0.13604724,0.008853762,-0.015440942,-0.70936096,-0.82439804,3.6458223e-19
39428000,-0.0007058374,0.008261647,-2.4776673,-0.025870044,-0.10465878,0.18708491,0.122375466,-0.21952501,-0.1480942,0.00886414,-0.015901068,-0.7103425,-0.82439804,3.4608229e-19
39524000,-0.00070578867,0.00826164,-2.477783,-0.034714784,-0.10597229,0.18840599,0.10320371,-0.23861817,-0.10561454,0.0074447207,-0.017213002,-0.70738435,-0.82439804,1.4079479e-19
39620000,-0.0007057437,0.008261633,-2.4778845,-0.03992352,-0.106090784,0.18441606,0.097463794,-0.23716007,-0.12174421,0.0070425975,-0.017136855,-0.7086575,-0.82439804,1.3365047e-19
39724000,-0.0007056958,0.008261626,-2.4779892,-0.042270787,-0.10500954,0.17579198,0.11200382,-0.23848253,-0.14775182,0.008115381,-0.017279562,-0.71054655,-0.82439804,5.437229e-20
39820000,-0.00070565374,0.008261619,-2.478081,-0.043798756,-0.103663996,0.16757965,0.117133886,-0.23464395,-0.15996745,0.008497375,-0.017022042,-0.7114185,-0.82439804,5.1613282e-20
39924000,-0.00070561044,0.008261612,-2.4781756,-0.05225968,-0.104199514,0.16867185,0.097004935,-0.24395227,-0.115132265,0.007005135,-0.017616821,-0.70821816,-0.82439804,2.0997552e-20
40020000,-0.0007055725,0.008261605,-2.4782588,-0.056094173,-0.10345422,0.16489077,0.10325537,-0.24805164,-0.121396266,0.007461945,-0.017925922,-0.70866525,-0.82439804,1.9932077e-20
40124000,-0.0007055333,0.008261598,-2.4783437,-0.056676634,-0.10157452,0.15680957,0.11737403,-0.24235877,-0.1443131,0.008501729,-0.017554725,-0.7103011,-0.82439804,8.108858e-21
40220000,-0.0007054991,0.008261592,-2.4784186,-0.05673049,-0.09925941,0.14956021,0.12372029,-0.24097249,-0.15386993,0.008970059,-0.017471164,-0.7109832,-0.82439804,7.697392e-21
40324000,-0.00070546375,0.0082615875,-2.4784963,-0.06441511,-0.097094454,0.1491971,0.104308985,-0.23613623,-0.118966185,0.0075353836,-0.017058711,-0.7084918,-0.82439804,3.1314879e-21
40420000,-0.0007054328,0.008261583,-2.4785638,-0.06733048,-0.094268285,0.14446568,0.10983257,-0.22957347,-0.12761918,0.007941492,-0.01659941,-0.7091095,-0.82439804,2.9725876e-21
40524000,-0.00070540083,0.008261578,-2.478633,-0.06685106,-0.09058458,0.13587236,0.12715593,-0.22823614,-0.1527992,0.009218644,-0.01654683,-0.7109068,-0.82439804,1.2093217e-21
40620000,-0.00070537283,0.0082615735,-2.4786944,-0.06784769,-0.08777416,0.12884259,0.124537654,-0.23008786,-0.1595248,0.009033761,-0.016690206,-0.7113869,-0.82439804,1.1479574e-21
40724000,-0.000705344,0.008261569,-2.4787579,-0.07779002,-0.08712628,0.12807155,0.09724239,-0.23820038,-0.121504925,0.0070265513,-0.01721191,-0.708673,-0.82439804,4.6701727e-22
40820000,-0.00070531864,0.008261564,-2.4788134,-0.08210325,-0.08569395,0.12385893,0.09889732,-0.24166217,-0.123106025,0.007148489,-0.01746781,-0.7087873,-0.82439804,4.433195e-22
40924000,-0.0007052926,0.0082615595,-2.4788704,-0.08246859,-0.08349842,0.11694169,0.11733973,-0.2395077,-0.14056551,0.0084949555,-0.017339457,-0.7100336,-0.82439804,1.8035324e-22
41020000,-0.0007052733,0.008261556,-2.4789202,-0.08317034,-0.08112345,0.112076044,0.12170074,-0.23028608,-0.13890581,0.008809647,-0.0166699,-0.7099151,-0.82439804,1.7120161e-22
41124000,-0.0007052733,0.008261556,-2.4789703,-0.09082173,-0.078670226,0.11314082,0.09816845,-0.23136437,-0.106902815,0.0070836116,-0.016694725,-0.70763075,-0.82439804,6.9649e-23
41220000,-0.0007052733,0.008261556,-2.4790142,-0.09319906,-0.07592638,0.110480785,0.101340175,-0.23337218,-0.11791899,0.0073209587,-0.016859137,-0.70841706,-0.82439804,6.611481e-23
41324000,-0.0007052733,0.008261556,-2.4790606,-0.09172895,-0.07261783,0.10462761,0.11954872,-0.2279739,-0.13434498,0.008650312,-0.016495747,-0.70958954,-0.82439804,2.6897128e-23
41428000,-0.0007052733,0.008261556,-2.479102,-0.091302566,-0.06893257,0.09961796,0.11777467,-0.22105438,-0.13643637,0.008523297,-0.0159976,-0.70973885,-0.82439804,2.5532294e-23
41524000,-0.0007052733,0.008261556,-2.479143,-0.09980092,-0.06529847,0.09887791,0.09690243,-0.21825269,-0.115606636,0.0069978703,-0.015761256,-0.708252,-0.82439804,1.03871635e-23
41620000,-0.0007052733,0.008261556,-2.4791782,-0.10328773,-0.061677475,0.09574199,0.09337145,-0.21902508,-0.1186839,0.0067457296,-0.015823722,-0.70847166,-0.82439804,9.86009e-24
41724000,-0.0007052733,0.008261556,-2.4792156,-0.10258586,-0.05779816,0.089811325,0.10663063,-0.21151538,-0.13360089,0.007714181,-0.015302057,-0.70953643,-0.82439804,4.011327e-24
41820000,-0.0007052733,0.008261556,-2.4792469,-0.101699725,-0.054498475,0.084787846,0.11632397,-0.21072207,-0.13779718,0.008420566,-0.015253942,-0.70983595,-0.82439804,3.807781e-24
41924000,-0.0007052733,0.008261556,-2.4792795,-0.11201813,-0.052339423,0.086404085,0.08179207,-0.21273656,-0.10233947,0.0058997106,-0.015344814,-0.707305,-0.82439804,1.5490986e-24
42020000,-0.0007052733,0.008261556,-2.4793088,-0.11595185,-0.050100952,0.08479619,0.07930892,-0.20977907,-0.10472858,0.005721847,-0.015134789,-0.70747554,-0.82439804,1.470493e-24
42124000,-0.0007052733,0.008261556,-2.479339,-0.115416534,-0.047489118,0.08092713,0.096426174,-0.21228571,-0.119838454,0.0069670924,-0.015338304,-0.7085541,-0.82439804,5.9823267e-25
42228000,-0.0007052733,0.008261556,-2.4793665,-0.1172079,-0.044664733,0.07814598,0.093783185,-0.20440495,-0.11937526,0.0067765987,-0.014769923,-0.708521,-0.82439804,5.678767e-25
42324000,-0.0007052733,0.008261556,-2.4793952,-0.12644067,-0.04180516,0.078804255,0.07194391,-0.20587721,-0.095874384,0.0051848995,-0.014837292,-0.7068435,-0.82439804,2.3102617e-25
42428000,-0.0007052733,0.008261556,-2.4794207,-0.130086,-0.038804427,0.07662988,0.07476156,-0.20452693,-0.1024784,0.0053923856,-0.014752074,-0.7073149,-0.82439804,2.1930328e-25
42524000,-0.0007052733,0.008261556,-2.479447,-0.12871942,-0.036181033,0.07265973,0.092093125,-0.20574793,-0.11880893,0.0066528716,-0.014863376,-0.7084806,-0.82439804,8.921795e-26
42620000,-0.0007052733,0.008261556,-2.47947,-0.12700625,-0.03398012,0.068813086,0.09863095,-0.20147628,-0.12661536,0.0071307155,-0.014566116,-0.7090378,-0.82439804,8.4690776e-26
42724000,-0.0007052733,0.008261556,-2.4794939,-0.13682744,-0.03295644,0.069766045,0.070281304,-0.20610218,-0.103024006,0.0050696735,-0.014866981,-0.70735383,-0.82439804,3.4454286e-26
42828000,-0.0007052733,0.008261556,-2.4795148,-0.13985968,-0.031729963,0.068171024,0.07122159,-0.21038386,-0.10307574,0.005137499,-0.0151758315,-0.7073575,-0.82439804,3.270598e-26
42924000,-0.0007052733,0.008261556,-2.4795358,-0.13787629,-0.03051433,0.06484604,0.091490805,-0.20670937,-0.118485175,0.0066099437,-0.01493415,-0.70845747,-0.82439804,1.3305595e-26
43020000,-0.0007052733,0.008261556,-2.4795551,-0.13537395,-0.029424965,0.061603308,0.10150813,-0.20840907,-0.12721969,0.0073401025,-0.015070162,-0.70908093,-0.82439804,1.2630433e-26
43124000,-0.0007052733,0.008261556,-2.479574,-0.14380187,-0.029559534,0.06269622,0.07677094,-0.20934162,-0.10405227,0.00553869,-0.015103089,-0.70742726,-0.82439804,5.13837e-27
43220000,-0.0007052733,0.008261556,-2.4795902,-0.14548098,-0.029232433,0.061501265,0.079264805,-0.2108766,-0.10726442,0.005719718,-0.015216774,-0.70765656,-0.82439804,4.877635e-27
43324000,-0.0007052733,0.008261556,-2.479606,-0.14218748,-0.028577277,0.058423042,0.09993867,-0.20808676,-0.11571331,0.0072184447,-0.015029846,-0.70825964,-0.82439804,1.9843417e-27
43420000,-0.0007052733,0.008261556,-2.4796202,-0.13910733,-0.02786004,0.055976868,0.105269,-0.20405634,-0.119562596,0.0076059415,-0.014743567,-0.70853436,-0.82439804,1.8836504e-27
43524000,-0.0007052733,0.008261556,-2.4796345,-0.14988187,-0.027962176,0.058483362,0.06571389,-0.21100557,-0.094561994,0.0047360826,-0.015207436,-0.70674986,-0.82439804,7.6631525e-28
43620000,-0.0007052733,0.008261556,-2.4796472,-0.153249,-0.027660722,0.058250666,0.06737476,-0.21124771,-0.09456281,0.0048556817,-0.01522457,-0.7067499,-0.82439804,7.274303e-28
43724000,-0.0007052733,0.008261556,-2.4796603,-0.1512101,-0.026966143,0.055935144,0.08679048,-0.21142685,-0.10632902,0.0062620626,-0.015254762,-0.70758975,-0.82439804,2.9593647e-28
43820000,-0.0007052733,0.008261556,-2.479672,-0.14853577,-0.026182815,0.05293393,0.09529029,-0.21062836,-0.11632459,0.0068826345,-0.015213282,-0.7083033,-0.82439804,2.8091983e-28
43924000,-0.0007052733,0.008261556,-2.4796844,-0.15764403,-0.025494413,0.05249238,0.062455848,-0.2147358,-0.11000641,0.004507759,-0.015498586,-0.70785224,-0.82439804,1.1428508e-28
