timestamp,timestamp_sample,time_last_fuse,device_id,observation,observation_variance,innovation,innovation_variance,test_ratio,estimator_instance,fusion_enabled,innovation_rejected,fused
3124000,3095000,0,0,1.6384672,0.0,-1.6384404,0.0,0.0,0,0,0,0
3252000,3166190,3172000,0,1.634397,0.0,-1.6346008,0.0,inf,0,0,1,0
3324000,3238939,3172000,0,1.6344911,0.0,0.0045764446,0.0,inf,0,0,1,0
3396000,3310369,3172000,0,1.6233684,0.0,0.015685558,0.0,inf,0,0,1,0
3468000,3383124,3388000,0,1.6137146,0.0,0.019606113,0.10012654,0.00056792004,0,1,0,1
3540000,3453792,3460000,0,1.6285461,0.0,0.0027874708,0.09912663,1.1595345e-05,0,1,0,1
3612000,3527262,3532000,0,1.6217848,0.0,0.009311795,0.098354414,0.00013041464,0,1,0,1
3684000,3598287,3604000,0,1.623269,0.0,0.007041812,0.09775321,7.5039716e-05,0,1,0,1
3756000,3671384,3676000,0,1.6461428,0.0,-0.01641965,0.09728435,0.00040995682,0,1,0,1
3828000,3742026,3748000,0,1.6260232,0.0,0.004916787,0.09692031,3.6897876e-05,0,1,0,1
3900000,3815486,3820000,0,1.6193454,0.0,0.011174202,0.09664065,0.000191129,0,1,0,1
3972000,3886471,3892000,0,1.6133064,0.0,0.016477704,0.09643003,0.00041651863,0,1,0,1
4044000,3959571,3964000,0,1.6140217,0.0,0.014652729,0.096276164,0.00032989186,0,1,0,1
4116000,4031638,4036000,0,1.6207446,0.0,0.006965637,0.096169315,7.463431e-05,0,1,0,1
4188000,4103642,4108000,0,1.674506,0.0,-0.047400594,0.09610129,0.0034585309,0,1,0,1
4260000,4175334,4180000,0,1.6215496,0.0,0.00860703,0.096065074,0.00011407604,0,1,0,1
4332000,4247704,4252000,0,1.6344757,0.0,-0.004839182,0.09605474,3.606438e-05,0,1,0,1
4404000,4319020,4324000,0,1.6216025,0.0,0.008338451,0.09606506,0.00010706775,0,1,0,1
4476000,4391753,4396000,0,1.6385181,0.0,-0.009135246,0.09609134,0.00012847234,0,1,0,1
4548000,4463426,4468000,0,1.6235453,0.0,0.0064587593,0.0961296,6.419399e-05,0,1,0,1
4620000,4535792,4540000,0,1.6180025,0.0,0.011603951,0.09617624,0.00020710824,0,1,0,1
4692000,4607825,4612000,0,1.6149217,0.0,0.014047742,0.09622808,0.00030336436,0,1,0,1
4764000,4679828,4684000,0,1.6272379,0.0,0.0008535385,0.09628245,1.1193154e-06,0,1,0,1
4836000,4751490,4756000,0,1.6255254,0.0,0.002494812,0.09633704,9.5573105e-06,0,1,0,1
4908000,4823855,4828000,0,1.6409069,0.0,-0.013193846,0.09638979,0.0002671561,0,1,0,1
4980000,4894423,4900000,0,1.630459,0.0,-0.0019137859,0.09643929,5.618056e-06,0,1,0,1
5052000,4967879,4972000,0,1.6248858,0.0,0.0037293434,0.096484125,2.1323685e-05,0,1,0,1
5124000,5038807,5044000,0,1.6182693,0.0,0.010035396,0.0965233,0.00015434416,0,1,0,1
5196000,5111899,5116000,0,1.6251271,0.0,0.0023778677,0.096556194,8.662607e-06,0,1,0,1
5268000,5183551,5188000,0,1.6144172,0.0,0.012832403,0.0965823,0.0002522155,0,1,0,1
5340000,5255916,5260000,0,1.6153642,0.0,0.010923386,0.09660132,0.00018271946,0,1,0,1
5412000,5326838,5332000,0,1.6146189,0.0,0.010740876,0.096613206,0.00017664293,0,1,0,1
5484000,5399930,5404000,0,1.6351056,0.0,-0.010547161,0.09661799,0.00017032035,0,1,0,1
5556000,5470486,5476000,0,1.6226057,0.0,0.002628684,0.096615836,1.0579906e-05,0,1,0,1
5628000,5543942,5548000,0,1.6267557,0.0,-0.0018180609,0.09660704,5.0612925e-06,0,1,0,1
5700000,5614860,5620000,0,1.6304773,0.0,-0.0055326223,0.096591905,4.6878606e-05,0,1,0,1
5772000,5687952,5692000,0,1.6173567,0.0,0.007804632,0.096570835,9.330657e-05,0,1,0,1
5844000,5758868,5764000,0,1.6206479,0.0,0.003811717,0.09654426,2.2262207e-05,0,1,0,1
5916000,5831960,5836000,0,1.6536621,0.0,-0.029615521,0.096512616,0.0013443365,0,1,0,1
5988000,5902875,5908000,0,1.6188313,0.0,0.0070848465,0.096476346,7.696502e-05,0,1,0,1
6060000,5975967,5980000,0,1.6086979,0.0,0.016685486,0.096435905,0.00042706335,0,1,0,1
6132000,6046881,6052000,0,1.6246209,0.0,-0.0004094839,0.09639171,2.573282e-07,0,1,0,1
6204000,6119972,6124000,0,1.6198939,0.0,0.0041897297,0.096344195,2.6952548e-05,0,1,0,1
6276000,6189795,6196000,0,1.6191692,0.0,0.004435897,0.09629378,3.02286e-05,0,1,0,1
6348000,6263977,6268000,0,1.6107073,0.0,0.01249969,0.09624081,0.00024015552,0,1,0,1
6420000,6334525,6340000,0,1.6239384,0.0,-0.0016462803,0.096185654,4.1682197e-06,0,1,0,1
6492000,6407981,6412000,0,1.6290092,0.0,-0.0067509413,0.09612866,7.013409e-05,0,1,0,1
6564000,6478529,6484000,0,1.624895,0.0,-0.0023685694,0.096070096,8.63848e-06,0,1,0,1
6636000,6551984,6556000,0,1.5900997,0.0,0.032388926,0.09601029,0.0016163248,0,1,0,1
6708000,6623623,6628000,0,1.6227903,0.0,-0.002490878,0.09594947,9.565677e-06,0,1,0,1
6780000,6695987,6700000,0,1.6315619,0.0,-0.011255741,0.09588783,0.00019545107,0,1,0,1
6852000,6767625,6772000,0,1.622977,0.0,-0.002186656,0.09582568,7.3812917e-06,0,1,0,1
6924000,6839989,6844000,0,1.6396637,0.0,-0.018952608,0.095763125,0.00055487227,0,1,0,1
6996000,6910536,6916000,0,1.619244,0.0,0.0025182962,0.09570036,9.802874e-06,0,1,0,1
7068000,6983991,6988000,0,1.6018592,0.0,0.019577622,0.09563754,0.00059285003,0,1,0,1
7140000,7054901,7060000,0,1.6173851,0.0,0.0026751757,0.09557478,1.1076809e-05,0,1,0,1
7212000,7127992,7132000,0,1.5951849,0.0,0.02440381,0.09551219,0.00092237996,0,1,0,1
7284000,7198539,7204000,0,1.6334819,0.0,-0.015548348,0.09544992,0.00037466775,0,1,0,1
7356000,7271994,7276000,0,1.5974913,0.0,0.021078825,0.09538803,0.0006890524,0,1,0,1
7428000,7343267,7348000,0,1.6212436,0.0,-0.004065752,0.09532654,2.5652003e-05,0,1,0,1
7500000,7415995,7420000,0,1.5984722,0.0,0.018710732,0.095265664,0.0005436239,0,1,0,1
7572000,7487632,7492000,0,1.6280773,0.0,-0.012225032,0.095205374,0.00023221587,0,1,0,1
7644000,7559996,7564000,0,1.6097368,0.0,0.0064138174,0.09514567,6.395839e-05,0,1,0,1
7716000,7631997,7636000,0,1.608935,0.0,0.0065288544,0.09508672,6.631434e-05,0,1,0,1
7788000,7703997,7708000,0,1.6094244,0.0,0.005437374,0.09502848,4.6023324e-05,0,1,0,1
7860000,7775997,7780000,0,1.6260246,0.0,-0.01169467,0.094971016,0.00021302873,0,1,0,1
7924000,7843997,7844000,0,1.6319131,0.0,-0.01720953,0.094891444,0.0004617047,0,1,0,1
7996000,7913198,7916000,0,1.6196165,0.0,-0.004324794,0.09483728,2.9174613e-05,0,1,0,1
8060000,7979998,7980000,0,1.5967343,0.0,0.018530726,0.09476208,0.000536048,0,1,0,1
8132000,8051998,8052000,0,1.6181457,0.0,-0.0041042566,0.09471094,2.6310085e-05,0,1,0,1
8204000,8123998,8124000,0,1.620401,0.0,-0.0064640045,0.094660394,6.529626e-05,0,1,0,1
8276000,8194180,8196000,0,1.6383132,0.0,-0.024314761,0.0946105,0.0009243874,0,1,0,1
8348000,8263999,8268000,0,1.6103002,0.0,0.0046288967,0.094561264,3.351931e-05,0,1,0,1
8420000,8332399,8340000,0,1.6190501,0.0,-0.0045381784,0.09451268,3.2234908e-05,0,1,0,1
8484000,8399999,8404000,0,1.6299586,0.0,-0.015498042,0.094445944,0.0003762043,0,1,0,1
8556000,8470908,8476000,0,1.6281278,0.0,-0.013155103,0.09440003,0.00027118754,0,1,0,1
8628000,8543999,8548000,0,1.6023808,0.0,0.013029337,0.09435473,0.0002661548,0,1,0,1
8700000,8615271,8620000,0,1.626292,0.0,-0.011677742,0.09431003,0.0002139012,0,1,0,1
8772000,8687999,8692000,0,1.6231157,0.0,-0.008148432,0.09426595,0.00010419492,0,1,0,1
8844000,8757818,8764000,0,1.6202257,0.0,-0.005086899,0.09422249,4.0626084e-05,0,1,0,1
8916000,8832000,8836000,0,1.6400765,0.0,-0.024945974,0.09417965,0.000977456,0,1,0,1
8988000,8902909,8908000,0,1.6269957,0.0,-0.010931492,0.09413744,0.00018778023,0,1,0,1
9060000,8976000,8980000,0,1.6075487,0.0,0.008849382,0.09409584,0.0001231144,0,1,0,1
9132000,9047636,9052000,0,1.6251245,0.0,-0.009288549,0.09405488,0.00013569623,0,1,0,1
9204000,9120000,9124000,0,1.6385198,0.0,-0.02241528,0.094014525,0.0007905817,0,1,0,1
9276000,9191636,9196000,0,1.6234276,0.0,-0.006579399,0.093974784,6.814194e-05,0,1,0,1
9348000,9264000,9268000,0,1.6199754,0.0,-0.0029734373,0.09393566,1.3923244e-05,0,1,0,1
9420000,9334909,9340000,0,1.6291558,0.0,-0.012106657,0.09389714,0.00023091357,0,1,0,1
9492000,9408000,9412000,0,1.6174829,0.0,-7.390976e-06,0.09385924,8.609539e-11,0,1,0,1
9564000,9478545,9484000,0,1.626561,0.0,-0.009156108,0.09382191,0.00013218157,0,1,0,1
9636000,9552000,9556000,0,1.6375977,0.0,-0.019972801,0.093785174,0.0006292122,0,1,0,1
9708000,9623636,9628000,0,1.6235857,0.0,-0.005233884,0.09374902,4.322498e-05,0,1,0,1
9780000,9696000,9700000,0,1.6153522,0.0,0.0030858517,0.093713425,1.5031476e-05,0,1,0,1
9852000,9767272,9772000,0,1.6241304,0.0,-0.0059536695,0.0936784,5.597361e-05,0,1,0,1
9924000,9840000,9844000,0,1.6420413,0.0,-0.02377224,0.09364393,0.0008927172,0,1,0,1
9996000,9911636,9916000,0,1.6201283,0.0,-0.0009914637,0.09361,1.5534049e-06,0,1,0,1
10068000,9984000,9988000,0,1.6343201,0.0,-0.015227914,0.093576625,0.00036657837,0,1,0,1
10140000,10055636,10060000,0,1.6228058,0.0,-0.0032305717,0.09354377,1.6504306e-05,0,1,0,1
10212000,10128000,10132000,0,1.6327462,0.0,-0.01319623,0.09351143,0.00027547893,0,1,0,1
10284000,10198909,10204000,0,1.6222249,0.0,-0.0022683144,0.09347961,8.142221e-06,0,1,0,1
10356000,10272000,10276000,0,1.6165742,0.0,0.0033745766,0.093448296,1.8026878e-05,0,1,0,1
10428000,10344000,10348000,0,1.6140751,0.0,0.005596757,0.09341748,4.9601877e-05,0,1,0,1
10500000,10416000,10420000,0,1.6368798,0.0,-0.017474174,0.09338716,0.00048368156,0,1,0,1
10572000,10487636,10492000,0,1.6238374,0.0,-0.0038267374,0.093357295,2.3203977e-05,0,1,0,1
10644000,10560000,10564000,0,1.6181583,0.0,0.0018988848,0.093327895,5.715301e-06,0,1,0,1
10716000,10630181,10636000,0,1.6262709,0.0,-0.0063564777,0.093298964,6.406334e-05,0,1,0,1
10788000,10704000,10708000,0,1.638812,0.0,-0.018782377,0.09327049,0.00055951305,0,1,0,1
10860000,10775636,10780000,0,1.6216524,0.0,-0.0009987354,0.093242444,1.5824885e-06,0,1,0,1
10932000,10848000,10852000,0,1.6421871,0.0,-0.021492124,0.09321484,0.00073303876,0,1,0,1
11004000,10918909,10924000,0,1.6213257,0.0,3.1352043e-05,0.093187645,1.5603667e-09,0,1,0,1
11076000,10992000,10996000,0,1.6199949,0.0,0.0012713671,0.093160875,2.5666207e-06,0,1,0,1
11148000,11063272,11068000,0,1.6297339,0.0,-0.0085526705,0.09313454,0.00011618393,0,1,0,1
11220000,11136000,11140000,0,1.5976443,0.0,0.023786187,0.09310859,0.000898904,0,1,0,1
11292000,11207636,11212000,0,1.6232467,0.0,-0.0027047396,0.09308305,1.1626089e-05,0,1,0,1
11364000,11280000,11284000,0,1.6164261,0.0,0.004147768,0.09305786,2.7348227e-05,0,1,0,1
11436000,11350545,11356000,0,1.6162963,0.0,0.00414598,0.093033075,2.7331935e-05,0,1,0,1
11508000,11424000,11428000,0,1.6367589,0.0,-0.01648271,0.09300866,0.00043210294,0,1,0,1
11580000,11493818,11500000,0,1.6272248,0.0,-0.006449342,0.092984594,6.617182e-05,0,1,0,1
11652000,11568000,11572000,0,1.6076415,0.0,0.0132757425,0.0929609,0.00028045982,0,1,0,1
11724000,11638909,11644000,0,1.6290456,0.0,-0.008577585,0.09293756,0.00011710952,0,1,0,1
11796000,11712000,11716000,0,1.6450515,0.0,-0.024381757,0.09291455,0.0009464542,0,1,0,1
11868000,11783636,11788000,0,1.6163841,0.0,0.00496912,0.09289186,3.9321916e-05,0,1,0,1
11940000,11856000,11860000,0,1.6343453,0.0,-0.0131754875,0.092869535,0.00027651168,0,1,0,1
12012000,11927272,11932000,0,1.6215788,0.0,-8.904934e-05,0.09284752,1.26341035e-08,0,1,0,1
12084000,12000000,12004000,0,1.6081288,0.0,0.013275385,0.09282582,0.0002808528,0,1,0,1
12156000,12070909,12076000,0,1.6261766,0.0,-0.005170107,0.09280445,4.260726e-05,0,1,0,1
12228000,12144000,12148000,0,1.6284142,0.0,-0.0072568655,0.092783354,8.396174e-05,0,1,0,1
12300000,12215636,12220000,0,1.6175735,0.0,0.0037333965,0.092762575,2.2227407e-05,0,1,0,1
12372000,12288000,12292000,0,1.6204436,0.0,0.0007092953,0.092742085,8.024734e-07,0,1,0,1
12444000,12359636,12364000,0,1.6209422,0.0,0.00016748905,0.092721894,4.475524e-08,0,1,0,1
12516000,12432000,12436000,0,1.6217794,0.0,-0.00068986416,0.09270198,7.5943655e-07,0,1,0,1
12588000,12503272,12508000,0,1.615335,0.0,0.0057805777,0.09268233,5.3333355e-05,0,1,0,1
12660000,12576000,12580000,0,1.6280314,0.0,-0.0070643425,0.09266297,7.966923e-05,0,1,0,1
12732000,12647272,12652000,0,1.6191676,0.0,0.0018750429,0.092643864,5.6138283e-06,0,1,0,1
12804000,12720000,12724000,0,1.6175349,0.0,0.00340271,0.09262503,1.8491615e-05,0,1,0,1
12876000,12790909,12796000,0,1.6182467,0.0,0.0025629997,0.09260644,1.04932315e-05,0,1,0,1
12948000,12864000,12868000,0,1.6456343,0.0,-0.024937749,0.09258812,0.0009936023,0,1,0,1
13020000,12935636,12940000,0,1.6280005,0.0,-0.0066156387,0.09257002,6.994015e-05,0,1,0,1
13092000,13008000,13012000,0,1.6475601,0.0,-0.026082516,0.092552185,0.0010873406,0,1,0,1
13164000,13079272,13084000,0,1.6203231,0.0,0.0018846989,0.09253457,5.678495e-06,0,1,0,1
13236000,13152000,13156000,0,1.5987133,0.0,0.023444057,0.092517205,0.00087881286,0,1,0,1
13308000,13223272,13228000,0,1.6223676,0.0,-0.0008648634,0.09250007,1.1962069e-06,0,1,0,1
13380000,13296000,13300000,0,1.6214,0.0,0.00011909008,0.09248315,2.2685164e-08,0,1,0,1
13452000,13366909,13372000,0,1.6195753,0.0,0.001855135,0.09246644,5.505798e-06,0,1,0,1
13524000,13440000,13444000,0,1.5838561,0.0,0.03748727,0.09244996,0.0022486104,0,1,0,1
13596000,13511272,13516000,0,1.6281435,0.0,-0.0077923536,0.0924337,9.717629e-05,0,1,0,1
13668000,13584000,13588000,0,1.6162803,0.0,0.004310012,0.09241765,2.973414e-05,0,1,0,1
13740000,13655272,13660000,0,1.6254447,0.0,-0.0050127506,0.092401795,4.0227696e-05,0,1,0,1
13812000,13728000,13732000,0,1.6247252,0.0,-0.00419116,0.09238614,2.8126458e-05,0,1,0,1
13884000,13798909,13804000,0,1.6194292,0.0,0.0011194944,0.09237068,2.0070725e-06,0,1,0,1
13956000,13872000,13876000,0,1.6382389,0.0,-0.017787933,0.092355415,0.00050680625,0,1,0,1
14028000,13943636,13948000,0,1.611858,0.0,0.0090123415,0.09234034,0.00013011793,0,1,0,1
14100000,14016000,14020000,0,1.6210314,0.0,-0.00033783913,0.092325464,1.828739e-07,0,1,0,1
14172000,14086909,14092000,0,1.6165687,0.0,0.004158616,0.092310764,2.7713964e-05,0,1,0,1
14244000,14160000,14164000,0,1.6078973,0.0,0.012670636,0.09229625,0.0002573156,0,1,0,1
14316000,14231272,14236000,0,1.6152977,0.0,0.0049072504,0.092281915,3.8602302e-05,0,1,0,1
14388000,14304000,14308000,0,1.6326119,0.0,-0.012623072,0.092267744,0.00025546626,0,1,0,1
14460000,14374909,14380000,0,1.6209404,0.0,-0.00070405006,0.09225375,7.948339e-07,0,1,0,1
14524000,14444000,14444000,0,1.6120725,0.0,0.008112073,0.09223532,0.00010554065,0,1,0,1
14596000,14513600,14516000,0,1.6239315,0.0,-0.004018545,0.09222183,2.5903435e-05,0,1,0,1
14668000,14584000,14588000,0,1.6189668,0.0,0.0010291338,0.09220849,1.699128e-06,0,1,0,1
14740000,14656400,14660000,0,1.6167554,0.0,0.003199339,0.0921953,1.6423475e-05,0,1,0,1
14804000,14724000,14724000,0,1.6071104,0.0,0.012783647,0.0921779,0.00026226242,0,1,0,1
14876000,14794545,14796000,0,1.6098355,0.0,0.0097231865,0.09216517,0.00015174129,0,1,0,1
14948000,14868000,14868000,0,1.5961634,0.0,0.02316153,0.09215259,0.00086115295,0,1,0,1
15020000,14939636,14940000,0,1.6290873,0.0,-0.0103805065,0.09214014,0.0001729982,0,1,0,1
15092000,15008000,15012000,0,1.6403943,0.0,-0.021511555,0.09212783,0.0007430296,0,1,0,1
15164000,15077600,15084000,0,1.6168461,0.0,0.0025429726,0.092115656,1.0384922e-05,0,1,0,1
15228000,15148000,15148000,0,1.612206,0.0,0.007118225,0.09209953,8.138407e-05,0,1,0,1
15300000,15215555,15220000,0,1.6185243,0.0,0.00055766106,0.09208776,4.995651e-07,0,1,0,1
15372000,15286666,15292000,0,1.6050797,0.0,0.013947487,0.09207612,0.0003125347,0,1,0,1
15444000,15358666,15364000,0,1.603182,0.0,0.015483379,0.09206459,0.0003852053,0,1,0,1
15508000,15426000,15428000,0,1.607221,0.0,0.011099696,0.09204929,0.00019799538,0,1,0,1
15580000,15496000,15500000,0,1.6158274,0.0,0.0022257566,0.09203815,7.962342e-06,0,1,0,1
15644000,15564000,15564000,0,1.596791,0.0,0.021169424,0.092023306,0.00072039984,0,1,0,1
15716000,15635272,15636000,0,1.6142912,0.0,0.0032111406,0.0920125,1.6577735e-05,0,1,0,1
15788000,15704000,15708000,0,1.616874,0.0,0.0005276203,0.0920018,4.4761023e-07,0,1,0,1
15860000,15772800,15780000,0,1.6156766,0.0,0.0017075539,0.0919912,4.688737e-06,0,1,0,1
15924000,15840000,15844000,0,1.6311991,0.0,-0.013892412,0.09197707,0.00031040527,0,1,0,1
15996000,15911636,15916000,0,1.6113083,0.0,0.006287694,0.09196679,6.359238e-05,0,1,0,1
16068000,15984000,15988000,0,1.6050953,0.0,0.012289286,0.09195663,0.00024295374,0,1,0,1
16140000,16056000,16060000,0,1.6099805,0.0,0.0070991516,0.09194656,8.108318e-05,0,1,0,1
16212000,16128000,16132000,0,1.6029333,0.0,0.013905644,0.09193657,0.00031113383,0,1,0,1
16284000,16199636,16204000,0,1.6102304,0.0,0.0062642097,0.09192668,6.314579e-05,0,1,0,1
16356000,16272000,16276000,0,1.646548,0.0,-0.03030634,0.09191688,0.0014781723,0,1,0,1
16428000,16342545,16348000,0,1.6160964,0.0,0.0007894039,0.09190718,1.0030035e-06,0,1,0,1
16500000,16416000,16420000,0,1.5938514,0.0,0.02296567,0.09189756,0.0008489998,0,1,0,1
16572000,16486181,16492000,0,1.6185697,0.0,-0.002245903,0.09188805,8.12038e-06,0,1,0,1
16644000,16560000,16564000,0,1.6309806,0.0,-0.014655471,0.0918786,0.00034581075,0,1,0,1
16716000,16631636,16636000,0,1.6173031,0.0,-0.0007196665,0.09186925,8.33961e-07,0,1,0,1
16788000,16704000,16708000,0,1.6243159,0.0,-0.007775545,0.09186,9.73618e-05,0,1,0,1
16860000,16775272,16780000,0,1.6184399,0.0,-0.0017609596,0.09185082,4.9942364e-06,0,1,0,1
16932000,16848000,16852000,0,1.6122365,0.0,0.0044436455,0.09184173,3.1804757e-05,0,1,0,1
17004000,16918545,16924000,0,1.612651,0.0,0.0039560795,0.09183272,2.5210758e-05,0,1,0,1
17076000,16992000,16996000,0,1.6049968,0.0,0.011500001,0.09182378,0.00021305608,0,1,0,1
17148000,17062909,17068000,0,1.6214786,0.0,-0.005224943,0.09181494,4.398485e-05,0,1,0,1
17220000,17136000,17140000,0,1.6257219,0.0,-0.009375572,0.09180618,0.0001416371,0,1,0,1
17292000,17206181,17212000,0,1.6119413,0.0,0.004531741,0.09179749,3.3094264e-05,0,1,0,1
17364000,17280000,17284000,0,1.6377628,0.0,-0.021442771,0.09178889,0.00074101164,0,1,0,1
17436000,17350181,17356000,0,1.6142144,0.0,0.002490878,0.09178035,1.0000197e-05,0,1,0,1
17508000,17424000,17428000,0,1.6563678,0.0,-0.039750338,0.0917719,0.0025469784,0,1,0,1
17580000,17494181,17500000,0,1.6199095,0.0,-0.0025709867,0.09176352,1.0655724e-05,0,1,0,1
17652000,17568000,17572000,0,1.5906521,0.0,0.026591659,0.09175522,0.0011400227,0,1,0,1
17724000,17638545,17644000,0,1.614369,0.0,0.0023870468,0.091747016,9.1872025e-06,0,1,0,1
17796000,17712000,17716000,0,1.6155328,0.0,0.0014407635,0.09173896,3.3472247e-06,0,1,0,1
17868000,17784000,17788000,0,1.6245168,0.0,-0.0062133074,0.09173089,6.225631e-05,0,1,0,1
17940000,17856000,17860000,0,1.6358209,0.0,-0.014489293,0.09172295,0.00033858654,0,1,0,1
18012000,17926545,17932000,0,1.6206945,0.0,0.0032821894,0.091715425,1.7375538e-05,0,1,0,1
18084000,18000000,18004000,0,1.6375747,0.0,-0.012696028,0.091707855,0.0002600055,0,1,0,1
18156000,18070545,18076000,0,1.6240437,0.0,-0.00024366379,0.09170025,9.577779e-08,0,1,0,1
18228000,18144000,18148000,0,1.6314114,0.0,-0.0071718693,0.09169109,8.2983344e-05,0,1,0,1
18300000,18214909,18220000,0,1.6171913,0.0,0.007332921,0.091682956,8.675984e-05,0,1,0,1
18372000,18288000,18292000,0,1.6069022,0.0,0.017272234,0.09167512,0.00048139202,0,1,0,1
18444000,18358909,18364000,0,1.6238717,0.0,-0.0002772808,0.09166749,1.240731e-07,0,1,0,1
18516000,18432000,18436000,0,1.6454847,0.0,-0.022199988,0.09165999,0.00079538795,0,1,0,1
18588000,18503272,18508000,0,1.6263624,0.0,-0.0024635792,0.09165282,9.795815e-06,0,1,0,1
18660000,18576000,18580000,0,1.6065581,0.0,0.017145991,0.09164496,0.00047453688,0,1,0,1
18732000,18647636,18652000,0,1.6233505,0.0,-0.000104665756,0.091637716,1.7684318e-08,0,1,0,1
18804000,18720000,18724000,0,1.6243843,0.0,-0.0013496876,0.09163055,2.9408952e-06,0,1,0,1
18876000,18791272,18796000,0,1.6190332,0.0,0.0038307905,0.091623425,2.3693196e-05,0,1,0,1
18948000,18864000,18868000,0,1.5913689,0.0,0.031219602,0.09161639,0.0015737468,0,1,0,1
19020000,18935272,18940000,0,1.6192755,0.0,0.0024662018,0.09160937,9.821338e-06,0,1,0,1
19092000,19008000,19012000,0,1.6056125,0.0,0.015972972,0.09160244,0.0004120195,0,1,0,1
19164000,19079272,19084000,0,1.6191937,0.0,0.0019352436,0.091595545,6.0485363e-06,0,1,0,1
19236000,19152000,19156000,0,1.6114575,0.0,0.009382129,0.09158872,0.00014217202,0,1,0,1
19308000,19222909,19228000,0,1.6163491,0.0,0.004083276,0.09158194,2.6931524e-05,0,1,0,1
19380000,19296000,19300000,0,1.6312177,0.0,-0.0110708475,0.09157523,0.00019798719,0,1,0,1
19452000,19366909,19372000,0,1.6207631,0.0,-0.00056123734,0.091568075,5.0886473e-07,0,1,0,1
19524000,19440000,19444000,0,1.5996637,0.0,0.020463705,0.09156147,0.0006765644,0,1,0,1
19596000,19509818,19516000,0,1.6218187,0.0,-0.0021839142,0.09155491,7.706245e-06,0,1,0,1
19668000,19584000,19588000,0,1.5978907,0.0,0.021612525,0.091548406,0.00075476815,0,1,0,1
19740000,19655636,19660000,0,1.6212018,0.0,-0.0021861792,0.09154195,7.723332e-06,0,1,0,1
19812000,19728000,19732000,0,1.5907708,0.0,0.028171897,0.09153556,0.0012826131,0,1,0,1
19884000,19799272,19804000,0,1.6247693,0.0,-0.00647676,0.09152808,6.779764e-05,0,1,0,1
19956000,19872000,19876000,0,1.6076329,0.0,0.0106675625,0.09152181,0.00018393279,0,1,0,1
20028000,19942545,19948000,0,1.6248449,0.0,-0.0067994595,0.09151558,7.473209e-05,0,1,0,1
20100000,20016000,20020000,0,1.6170346,0.0,0.0009999275,0.0915094,1.6163101e-06,0,1,0,1
20172000,20087272,20092000,0,1.6213776,0.0,-0.0034544468,0.09150327,1.9291845e-05,0,1,0,1
20244000,20160000,20164000,0,1.6309835,0.0,-0.01371491,0.09149531,0.0003041168,0,1,0,1
20316000,20230545,20236000,0,1.6186094,0.0,-0.0016294718,0.09148942,4.293151e-06,0,1,0,1
20388000,20304000,20308000,0,1.6249743,0.0,-0.008631825,0.0914838,0.00012047986,0,1,0,1
20460000,20376000,20380000,0,1.6173459,0.0,-0.0014147758,0.09147826,3.2367618e-06,0,1,0,1
20532000,20448000,20452000,0,1.6422476,0.0,-0.026739359,0.09147269,0.0011562823,0,1,0,1
20604000,20518545,20524000,0,1.6235363,0.0,-0.007859468,0.09146708,9.990216e-05,0,1,0,1
20676000,20592000,20596000,0,1.6082482,0.0,-0.1124903,0.10145185,0.018451152,0,1,0,1
20748000,20663272,20668000,0,1.6080952,0.0,-0.100111604,0.100160174,0.014802229,0,1,0,1
20820000,20736000,20740000,0,1.6152315,0.0,-0.0976522,0.099129826,0.014230266,0,1,0,1
20892000,20807636,20812000,0,1.602395,0.0,-0.07660699,0.09828872,0.008832557,0,1,0,1
20964000,20880000,20884000,0,1.6250259,0.0,-0.09308946,0.09758955,0.013135634,0,1,0,1
21036000,20951272,20956000,0,1.5823438,0.0,-0.044779062,0.09699739,0.003058041,0,1,0,1
21108000,21024000,21028000,0,1.62341,0.0,-0.08315778,0.09649318,0.010601382,0,1,0,1
21180000,21094545,21100000,0,1.581105,0.0,-0.03597486,0.096056834,0.0019930734,0,1,0,1
21252000,21168000,21172000,0,1.5903728,0.0,-0.04295802,0.09567551,0.0028532583,0,1,0,1
21324000,21238909,21244000,0,1.5922986,0.0,-0.0416584,0.095339045,0.0026926987,0,1,0,1
21396000,21312000,21316000,0,1.575703,0.0,-0.022244573,0.09504039,0.0007701818,0,1,0,1
21468000,21382545,21388000,0,1.5569992,0.0,-0.002752781,0.09476936,1.1828473e-05,0,1,0,1
21540000,21456000,21460000,0,1.5755543,0.0,-0.021359563,0.09453034,0.00071394845,0,1,0,1
21612000,21526181,21532000,0,1.5493314,0.0,0.006254196,0.09431402,6.135078e-05,0,1,0,1
21684000,21600000,21604000,0,1.5480202,0.0,0.00829649,0.09411702,0.000108186716,0,1,0,1
21756000,21670909,21676000,0,1.5633389,0.0,-0.0066262484,0.09393747,6.914327e-05,0,1,0,1
21828000,21744000,21748000,0,1.5165186,0.0,0.0416317,0.0937668,0.00273434,0,1,0,1
21900000,21814909,21820000,0,1.5364141,0.0,0.020092964,0.09361642,0.000637954,0,1,0,1
21972000,21888000,21892000,0,1.5277883,0.0,0.02812028,0.0934782,0.0012513599,0,1,0,1
22044000,21958909,21964000,0,1.5222955,0.0,0.033183694,0.093349926,0.0017449734,0,1,0,1
22116000,22032000,22036000,0,1.5059203,0.0,0.049862623,0.09323069,0.003944979,0,1,0,1
22188000,22102181,22108000,0,1.5326837,0.0,0.023488164,0.09312015,0.000876411,0,1,0,1
22260000,22176000,22180000,0,1.5708976,0.0,-0.013159037,0.09300497,0.00027541994,0,1,0,1
22332000,22246181,22252000,0,1.5155222,0.0,0.043946147,0.09290994,0.0030749126,0,1,0,1
22404000,22320000,22324000,0,1.5271436,0.0,0.032218456,0.09282105,0.001654308,0,1,0,1
22476000,22390181,22396000,0,1.51741,0.0,0.042751312,0.09273763,0.0029153873,0,1,0,1
22548000,22464000,22468000,0,1.524873,0.0,0.03587389,0.092659235,0.002054573,0,1,0,1
22620000,22535636,22540000,0,1.5206995,0.0,0.0410347,0.09256981,0.0026908312,0,1,0,1
22692000,22608000,22612000,0,1.5443577,0.0,0.017665982,0.09250108,0.00049909373,0,1,0,1
22764000,22680000,22684000,0,1.5354302,0.0,0.02714622,0.09243601,0.001179318,0,1,0,1
22836000,22752000,22756000,0,1.5275639,0.0,0.03479123,0.092374355,0.0019383917,0,1,0,1
22908000,22822545,22828000,0,1.5294439,0.0,0.032230616,0.09231591,0.0016646157,0,1,0,1
22980000,22896000,22900000,0,1.537988,0.0,0.023210764,0.092260495,0.0008638064,0,1,0,1
23052000,22967272,22972000,0,1.5445749,0.0,0.01640439,0.092200905,0.000431756,0,1,0,1
23124000,23040000,23044000,0,1.5232922,0.0,0.03772199,0.09215125,0.0022842379,0,1,0,1
23196000,23110545,23116000,0,1.5506268,0.0,0.009840369,0.09210392,0.00015552422,0,1,0,1
23268000,23184000,23188000,0,1.530617,0.0,0.029284954,0.09205861,0.0013780914,0,1,0,1
23340000,23253454,23260000,0,1.5413005,0.0,0.017377138,0.092015386,0.00048545547,0,1,0,1
23412000,23328000,23332000,0,1.5542684,0.0,0.0034804344,0.09197451,1.9482863e-05,0,1,0,1
23484000,23400000,23404000,0,1.5573575,0.0,0.00032389164,0.09193527,1.687993e-07,0,1,0,1
23556000,23472000,23476000,0,1.5430802,0.0,0.014798522,0.091897875,0.00035252064,0,1,0,1
23628000,23542909,23548000,0,1.5577248,0.0,-0.00017511845,0.091861896,4.9383488e-08,0,1,0,1
23700000,23616000,23620000,0,1.5762218,0.0,-0.019182682,0.0918273,0.0005927891,0,1,0,1
23772000,23688000,23692000,0,1.5521678,0.0,0.0049780607,0.09179428,3.9935407e-05,0,1,0,1
23844000,23760000,23764000,0,1.5822667,0.0,-0.025801301,0.09175589,0.0010732543,0,1,0,1
23916000,23830545,23836000,0,1.5517489,0.0,0.005429983,0.091726005,4.7550802e-05,0,1,0,1
23988000,23904000,23908000,0,1.546683,0.0,0.010740995,0.091697335,0.00018611684,0,1,0,1
24060000,23975636,23980000,0,1.5738335,0.0,-0.016631007,0.09166966,0.00044633905,0,1,0,1
24132000,24048000,24052000,0,1.58532,0.0,-0.02742815,0.09164365,0.0012143503,0,1,0,1
24204000,24118181,24124000,0,1.5603652,0.0,-0.0021446943,0.09161791,7.426835e-06,0,1,0,1
24276000,24192000,24196000,0,1.5732636,0.0,-0.015814185,0.091561936,0.00040404717,0,1,0,1
24348000,24262909,24268000,0,1.570521,0.0,-0.012634397,0.09153939,0.0002579612,0,1,0,1
24420000,24336000,24268000,0,1.5528827,0.0,0.0054223537,0.0,inf,0,0,1,0
24492000,24407636,24268000,0,1.5793893,0.0,-0.021137595,0.0,inf,0,0,1,0
24564000,24480000,24268000,0,1.5457983,0.0,0.012081742,0.0,inf,0,0,1,0
24636000,24550545,24268000,0,1.5868765,0.0,-0.029212475,0.0,inf,0,0,1,0
24708000,24624000,24268000,0,1.5527442,0.0,0.005067706,0.0,inf,0,0,1,0
24780000,24694545,24268000,0,1.5779852,0.0,-0.01973176,0.0,inf,0,0,1,0
24852000,24768000,24268000,0,1.5940502,0.0,-0.035731196,0.0,inf,0,0,1,0
24924000,24838909,24268000,0,1.576989,0.0,-0.019085169,0.0,inf,0,0,1,0
24996000,24912000,24268000,0,1.6054237,0.0,-0.04807532,0.0,inf,0,0,1,0
25068000,24982545,24268000,0,1.5658655,0.0,-0.0070705414,0.0,inf,0,0,1,0
25140000,25056000,24268000,0,1.5812833,0.0,-0.021898866,0.0,inf,0,0,1,0
25212000,25127636,24268000,0,1.5761057,0.0,-0.016279817,0.0,inf,0,0,1,0
25284000,25200000,24268000,0,1.5889391,0.0,-0.02938795,0.0,inf,0,0,1,0
25356000,25271272,24268000,0,1.5735426,0.0,-0.0146968365,0.0,inf,0,0,1,0
25428000,25344000,24268000,0,1.5764225,0.0,-0.015925527,0.0,inf,0,0,1,0
25500000,25415636,24268000,0,1.5820103,0.0,-0.02137947,0.0,inf,0,0,1,0
25572000,25488000,24268000,0,1.585304,0.0,-0.024290204,0.0,inf,0,0,1,0
25644000,25558545,24268000,0,1.5714849,0.0,-0.016354322,0.0,inf,0,0,1,0
25716000,25632000,24268000,0,1.5505979,0.0,-0.017890453,0.0,inf,0,0,1,0
25788000,25702909,24268000,0,1.501563,0.0,-0.010371923,0.0,inf,0,0,1,0
25860000,25776000,24268000,0,1.4535276,0.0,-0.016849995,0.0,inf,0,0,1,0
25932000,25846909,24268000,0,1.3813913,0.0,-0.011683941,0.0,inf,0,0,1,0
26004000,25920000,24268000,0,1.316997,0.0,-0.02009666,0.0,inf,0,0,1,0
26076000,25991636,24268000,0,1.2253169,0.0,-0.0039060116,0.0,inf,0,0,1,0
26148000,26064000,24268000,0,1.1586983,0.0,-0.012270927,0.0,inf,0,0,1,0
26220000,26135272,24268000,0,1.0789764,0.0,-0.0007971525,0.0,inf,0,0,1,0
26292000,26208000,24268000,0,1.0124867,0.0,-0.0042179823,0.0,inf,0,0,1,0
26364000,26277818,24268000,0,0.94332457,0.0,-0.0021904707,0.0,inf,0,0,1,0
26436000,26352000,24268000,0,0.86474925,0.0,0.011221588,0.0,inf,0,0,1,0
26508000,26424000,24268000,0,0.8201256,0.0,-0.007822692,0.0,inf,0,0,1,0
26572000,26492000,24268000,0,0.74488896,0.0,0.011922181,0.0,inf,0,0,1,0
26644000,26562000,24268000,0,0.7019313,0.0,-0.0014982224,0.0,inf,0,0,1,0
26716000,26632000,24268000,0,0.6457643,0.0,-0.005086422,0.0,inf,0,0,1,0
26780000,26699555,24268000,0,0.66146034,0.0,-0.05937636,0.0,inf,0,0,1,0
26852000,26772000,24268000,0,0.6334383,0.0,-0.030807137,0.0,inf,0,0,1,0
26924000,26842666,24268000,0,0.61057556,0.0,-0.0077904463,0.0,inf,0,0,1,0
26996000,26910000,24268000,0,0.62551093,0.0,-0.022593021,0.0,inf,0,0,1,0
27068000,26981200,24268000,0,0.6351885,0.0,-0.030659437,0.0,inf,0,0,1,0
27132000,27048000,24268000,0,0.6109059,0.0,-0.006166756,0.0,inf,0,0,1,0
27204000,27118909,24268000,0,0.6238737,0.0,-0.018968403,0.0,inf,0,0,1,0
27276000,27192000,24268000,0,0.6208457,0.0,-0.015845656,0.0,inf,0,0,1,0
27348000,27262545,24268000,0,0.6249376,0.0,-0.019807756,0.0,inf,0,0,1,0
27420000,27336000,24268000,0,0.629424,0.0,-0.022570133,0.0,inf,0,0,1,0
27492000,27405454,24268000,0,0.63589984,0.0,-0.028906643,0.0,inf,0,0,1,0
27556000,27476000,24268000,0,0.6396316,0.0,-0.03251189,0.0,inf,0,0,1,0
27628000,27545200,24268000,0,0.64260083,0.0,-0.03533578,0.0,inf,0,0,1,0
27700000,27616000,24268000,0,0.6144893,0.0,-0.0071225762,0.0,inf,0,0,1,0
27764000,27682666,24268000,0,0.62583315,0.0,-0.01833123,0.0,inf,0,0,1,0
27836000,27750000,24268000,0,0.62716144,0.0,-0.017846763,0.0,inf,0,0,1,0
27908000,27820800,24268000,0,0.6241242,0.0,-0.0147204995,0.0,inf,0,0,1,0
27972000,27888000,24268000,0,0.66137385,0.0,-0.05186546,0.0,inf,0,0,1,0
28044000,27959636,24268000,0,0.6317441,0.0,-0.022084236,0.0,inf,0,0,1,0
28116000,28032000,24268000,0,0.61776596,0.0,-0.007969022,0.0,inf,0,0,1,0
28188000,28103272,24268000,0,0.6237241,0.0,-0.013767719,0.0,inf,0,0,1,0
28260000,28176000,24268000,0,0.6158686,0.0,-0.004237175,0.0,inf,0,0,1,0
28332000,28247272,24268000,0,0.6249837,0.0,-0.013377428,0.0,inf,0,0,1,0
28404000,28320000,24268000,0,0.638598,0.0,-0.026920795,0.0,inf,0,0,1,0
28476000,28390545,24268000,0,0.6256762,0.0,-0.0140577555,0.0,inf,0,0,1,0
28548000,28464000,24268000,0,0.6233502,0.0,-0.011670649,0.0,inf,0,0,1,0
28620000,28535636,24268000,0,0.62800604,0.0,-0.0147128105,0.0,inf,0,0,1,0
28692000,28608000,24268000,0,0.633102,0.0,-0.019712329,0.0,inf,0,0,1,0
28764000,28678909,24268000,0,0.6366003,0.0,-0.023078024,0.0,inf,0,0,1,0
28836000,28752000,24268000,0,0.609526,0.0,0.004033923,0.0,inf,0,0,1,0
28908000,28823636,24268000,0,0.6181875,0.0,-0.0047037005,0.0,inf,0,0,1,0
28980000,28896000,24268000,0,0.64604443,0.0,-0.032515943,0.0,inf,0,0,1,0
29052000,28966545,24268000,0,0.63264334,0.0,-0.017164111,0.0,inf,0,0,1,0
29124000,29040000,24268000,0,0.62107986,0.0,-0.0055115223,0.0,inf,0,0,1,0
29196000,29110181,24268000,0,0.6214702,0.0,-0.0059561133,0.0,inf,0,0,1,0
29268000,29184000,24268000,0,0.6089633,0.0,0.006481409,0.0,inf,0,0,1,0
29340000,29254545,24268000,0,0.6229982,0.0,-0.00769639,0.0,inf,0,0,1,0
29412000,29328000,24268000,0,0.64335954,0.0,-0.025692344,0.0,inf,0,0,1,0
29484000,29399636,24268000,0,0.6197727,0.0,-0.0019835234,0.0,inf,0,0,1,0
29556000,29472000,24268000,0,0.63003176,0.0,-0.012234569,0.0,inf,0,0,1,0
29628000,29542909,24268000,0,0.6253526,0.0,-0.007659912,0.0,inf,0,0,1,0
29700000,29616000,24268000,0,0.6071341,0.0,0.010529399,0.0,inf,0,0,1,0
29772000,29686545,24268000,0,0.6238321,0.0,-0.0063716173,0.0,inf,0,0,1,0
29844000,29760000,24268000,0,0.60359883,0.0,0.016126752,0.0,inf,0,0,1,0
29916000,29830545,24268000,0,0.62558854,0.0,-0.0059725046,0.0,inf,0,0,1,0
29988000,29904000,24268000,0,0.61392945,0.0,0.0057237744,0.0,inf,0,0,1,0
30060000,29974181,24268000,0,0.6323223,0.0,-0.012762487,0.0,inf,0,0,1,0
30132000,30048000,24268000,0,0.60355157,0.0,0.016140342,0.0,inf,0,0,1,0
30204000,30117818,24268000,0,0.6221091,0.0,-0.0025565028,0.0,inf,0,0,1,0
30276000,30192000,24268000,0,0.61413014,0.0,0.0076323748,0.0,inf,0,0,1,0
30348000,30262545,24268000,0,0.6346315,0.0,-0.012896419,0.0,inf,0,0,1,0
30420000,30336000,24268000,0,0.6104428,0.0,0.011311114,0.0,inf,0,0,1,0
30492000,30406909,24268000,0,0.6297002,0.0,-0.007995486,0.0,inf,0,0,1,0
30564000,30480000,24268000,0,0.59661585,0.0,0.025268137,0.0,inf,0,0,1,0
30636000,30551272,24268000,0,0.6381041,0.0,-0.013890624,0.0,inf,0,0,1,0
30708000,30624000,24268000,0,0.63198066,0.0,0.0065065622,0.0,inf,0,0,1,0
30780000,30694545,24268000,0,0.66951466,0.0,0.014405787,0.0,inf,0,0,1,0
30852000,30768000,24268000,0,0.72096074,0.0,0.007823765,0.0,inf,0,0,1,0
30924000,30838909,24268000,0,0.7049594,0.0,0.021764994,0.0,inf,0,0,1,0
30996000,30912000,24268000,0,0.66356087,0.0,0.00722301,0.0,inf,0,0,1,0
31068000,30982545,24268000,0,0.54743576,0.0,0.014062643,0.0,inf,0,0,1,0
31140000,31056000,24268000,0,0.4003033,0.0,0.009341538,0.0,inf,0,0,1,0
31212000,31126909,24268000,0,0.18910015,0.0,0.032386318,0.0,inf,0,0,1,0
31284000,31200000,24268000,0,0.027309686,0.0,-0.010519519,0.0,inf,0,0,1,0
31356000,31271272,24268000,0,-0.19078028,0.0,0.016797826,0.0,inf,0,0,1,0
31428000,31344000,24268000,0,-0.35924944,0.0,0.02111864,0.0,inf,0,0,1,0
31500000,31414909,24268000,0,-0.45238435,0.0,-0.0090608895,0.0,inf,0,0,1,0
31572000,31488000,24268000,0,-0.58417046,0.0,0.02249217,0.0,inf,0,0,1,0
31644000,31559636,24268000,0,-0.63830775,0.0,-0.0020115376,0.0,inf,0,0,1,0
31716000,31632000,24268000,0,-0.7164054,0.0,0.017305374,0.0,inf,0,0,1,0
31788000,31702909,24268000,0,-0.73623025,0.0,-0.005371511,0.0,inf,0,0,1,0
31860000,31776000,24268000,0,-0.7404613,0.0,-0.03128171,0.0,inf,0,0,1,0
31932000,31846909,24268000,0,-0.79270554,0.0,0.0006955266,0.0,inf,0,0,1,0
32004000,31920000,24268000,0,-0.79019415,0.0,-0.015233636,0.0,inf,0,0,1,0
32076000,31990909,24268000,0,-0.81469655,0.0,0.0011850595,0.0,inf,0,0,1,0
32148000,32064000,24268000,0,-0.79677427,0.0,-0.02126342,0.0,inf,0,0,1,0
32220000,32134909,24268000,0,-0.820996,0.0,0.00061780214,0.0,inf,0,0,1,0
32292000,32208000,24268000,0,-0.84550565,0.0,0.024093688,0.0,inf,0,0,1,0
32364000,32279272,24268000,0,-0.8143612,0.0,-0.0076247454,0.0,inf,0,0,1,0
32436000,32352000,24268000,0,-0.8380006,0.0,0.015963256,0.0,inf,0,0,1,0
32508000,32422545,24268000,0,-0.8292136,0.0,0.00737834,0.0,inf,0,0,1,0
32580000,32496000,24268000,0,-0.84455585,0.0,0.022549927,0.0,inf,0,0,1,0
32652000,32566909,24268000,0,-0.8211041,0.0,-0.0017465949,0.0,inf,0,0,1,0
32724000,32640000,24268000,0,-0.82737947,0.0,0.0046601295,0.0,inf,0,0,1,0
32796000,32711272,24268000,0,-0.83325875,0.0,0.010416508,0.0,inf,0,0,1,0
32868000,32784000,24268000,0,-0.83085674,0.0,0.0077934265,0.0,inf,0,0,1,0
32940000,32855272,24268000,0,-0.8271787,0.0,0.0037699342,0.0,inf,0,0,1,0
33012000,32928000,24268000,0,-0.8251669,0.0,0.0016483068,0.0,inf,0,0,1,0
33084000,32999636,24268000,0,-0.8287871,0.0,0.0049995184,0.0,inf,0,0,1,0
33156000,33072000,24268000,0,-0.82359487,0.0,-0.00024425983,0.0,inf,0,0,1,0
33228000,33143636,24268000,0,-0.8267987,0.0,0.0031039715,0.0,inf,0,0,1,0
33300000,33216000,24268000,0,-0.81580096,0.0,-0.00802505,0.0,inf,0,0,1,0
33372000,33286545,24268000,0,-0.8310856,0.0,0.007336557,0.0,inf,0,0,1,0
33444000,33360000,24268000,0,-0.8284748,0.0,0.004123926,0.0,inf,0,0,1,0
33516000,33430545,24268000,0,-0.8298245,0.0,0.005684018,0.0,inf,0,0,1,0
33588000,33504000,24268000,0,-0.8223057,0.0,-0.0016781092,0.0,inf,0,0,1,0
33660000,33574909,24268000,0,-0.82866275,0.0,0.004821658,0.0,inf,0,0,1,0
33732000,33648000,24268000,0,-0.8341107,0.0,0.01030767,0.0,inf,0,0,1,0
33804000,33720000,24268000,0,-0.8306862,0.0,0.006745696,0.0,inf,0,0,1,0
33868000,33788000,24268000,0,-0.8480326,0.0,0.023269653,0.0,inf,0,0,1,0
33940000,33856400,24268000,0,-0.8329413,0.0,0.008295,0.0,inf,0,0,1,0
34012000,33928000,24268000,0,-0.83628076,0.0,0.011769712,0.0,inf,0,0,1,0
34076000,33995111,24268000,0,-0.83127105,0.0,0.0071112514,0.0,inf,0,0,1,0
34148000,34062000,24268000,0,-0.8187493,0.0,-0.0052292943,0.0,inf,0,0,1,0
34220000,34133200,24268000,0,-0.8240196,0.0,-0.00031632185,0.0,inf,0,0,1,0
34284000,34200000,24268000,0,-0.8344074,0.0,0.010229349,0.0,inf,0,0,1,0
34356000,34272000,24268000,0,-0.82352144,0.0,-0.00045228004,0.0,inf,0,0,1,0
34428000,34344000,24268000,0,-0.86045146,0.0,0.036668718,0.0,inf,0,0,1,0
34500000,34416000,24268000,0,-0.8132667,0.0,-0.010795355,0.0,inf,0,0,1,0
34572000,34488000,24268000,0,-0.81708723,0.0,-0.006727934,0.0,inf,0,0,1,0
34644000,34558909,24268000,0,-0.8245131,0.0,-4.1484833e-05,0.0,inf,0,0,1,0
34716000,34632000,24268000,0,-0.8128605,0.0,-0.011523187,0.0,inf,0,0,1,0
34788000,34702545,24268000,0,-0.8353125,0.0,0.011243343,0.0,inf,0,0,1,0
34860000,34776000,24268000,0,-0.8299341,0.0,0.005820334,0.0,inf,0,0,1,0
34932000,34846545,24268000,0,-0.8260153,0.0,0.0019338131,0.0,inf,0,0,1,0
35004000,34920000,24268000,0,-0.8353973,0.0,0.011438429,0.0,inf,0,0,1,0
35076000,34991272,24268000,0,-0.82538325,0.0,0.0008622408,0.0,inf,0,0,1,0
35148000,35064000,24268000,0,-0.81704366,0.0,-0.0073516965,0.0,inf,0,0,1,0
35220000,35135272,24268000,0,-0.83098066,0.0,0.00663805,0.0,inf,0,0,1,0
35292000,35208000,24268000,0,-0.8314003,0.0,0.007109523,0.0,inf,0,0,1,0
35364000,35278545,24268000,0,-0.8187873,0.0,-0.0054941177,0.0,inf,0,0,1,0
35436000,35352000,24268000,0,-0.83849865,0.0,0.013940871,0.0,inf,0,0,1,0
35508000,35422545,24268000,0,-0.83069307,0.0,0.00603652,0.0,inf,0,0,1,0
35580000,35496000,24268000,0,-0.8412199,0.0,0.016734123,0.0,inf,0,0,1,0
35652000,35566545,24268000,0,-0.8164766,0.0,-0.007993996,0.0,inf,0,0,1,0
35724000,35640000,24268000,0,-0.8434744,0.0,0.019189835,0.0,inf,0,0,1,0
35796000,35711272,24268000,0,-0.8180741,0.0,-0.0061421394,0.0,inf,0,0,1,0
35868000,35784000,24268000,0,-0.8255513,0.0,0.0014509559,0.0,inf,0,0,1,0
35940000,35856000,24268000,0,-0.82180107,0.0,-0.0022681355,0.0,inf,0,0,1,0
36012000,35928000,24268000,0,-0.83344656,0.0,0.0094015,0.0,inf,0,0,1,0
36084000,35998181,24268000,0,-0.8279523,0.0,0.0038239956,0.0,inf,0,0,1,0
36156000,36072000,24268000,0,-0.82548714,0.0,0.0012767315,0.0,inf,0,0,1,0
36228000,36143272,24268000,0,-0.82107383,0.0,-0.0028672814,0.0,inf,0,0,1,0
36300000,36216000,24268000,0,-0.8060363,0.0,-0.017855883,0.0,inf,0,0,1,0
36372000,36287636,24268000,0,-0.8231977,0.0,-0.0004608631,0.0,inf,0,0,1,0
36444000,36360000,24268000,0,-0.8217675,0.0,-0.0018801093,0.0,inf,0,0,1,0
36516000,36431272,24268000,0,-0.82107043,0.0,-0.002558887,0.0,inf,0,0,1,0
36588000,36504000,24268000,0,-0.77286637,0.0,-0.050816536,0.0,inf,0,0,1,0
36660000,36574909,36580000,0,-0.82613677,0.0,0.0026556253,0.09123643,1.143454e-05,0,1,0,1
36732000,36648000,36652000,0,-0.8413103,0.0,0.017706275,0.09123153,0.00050835,0,1,0,1
36804000,36718181,36724000,0,-0.81919557,0.0,-0.004802823,0.09122669,3.7404567e-05,0,1,0,1
36876000,36792000,36796000,0,-0.8268092,0.0,0.002819121,0.091221906,1.2887885e-05,0,1,0,1
36948000,36863636,36868000,0,-0.8332932,0.0,0.009254813,0.091217175,0.00013890314,0,1,0,1
37020000,36936000,36940000,0,-0.83614445,0.0,0.012031078,0.091202,0.00023477839,0,1,0,1
37092000,37006909,37012000,0,-0.8226332,0.0,-0.0016924143,0.09119756,4.646046e-06,0,1,0,1
37164000,37080000,37084000,0,-0.80585057,0.0,-0.018507063,0.091193184,0.0005556048,0,1,0,1
37236000,37151636,37156000,0,-0.8215626,0.0,-0.0026223063,0.09118886,1.1155227e-05,0,1,0,1
37308000,37224000,37228000,0,-0.8314739,0.0,0.0073701143,0.09118461,8.8121174e-05,0,1,0,1
37380000,37295272,37300000,0,-0.8246365,0.0,0.00042241812,0.091180414,2.894922e-07,0,1,0,1
37452000,37368000,37372000,0,-0.8247203,0.0,0.0007454753,0.091167845,9.017335e-07,0,1,0,1
37524000,37439272,37444000,0,-0.8128771,0.0,-0.011108816,0.091163866,0.00020024706,0,1,0,1
37596000,37512000,37516000,0,-0.82181555,0.0,-0.0019718409,0.09115993,6.3094726e-06,0,1,0,1
37668000,37582545,37588000,0,-0.8213266,0.0,-0.0024234056,0.09115605,9.530597e-06,0,1,0,1
37740000,37656000,37660000,0,-0.83889884,0.0,0.015095115,0.09115221,0.00036979324,0,1,0,1
37812000,37725818,37732000,0,-0.8127213,0.0,-0.01127553,0.09114841,0.00020633751,0,1,0,1
37884000,37800000,37804000,0,-0.79537827,0.0,-0.02813822,0.0911384,0.0012851245,0,1,0,1
37956000,37870545,37876000,0,-0.8263,0.0,0.0030314326,0.09113476,1.4916439e-05,0,1,0,1
38028000,37944000,37948000,0,-0.8114282,0.0,-0.011928856,0.09113118,0.00023098511,0,1,0,1
38100000,38014545,38020000,0,-0.8176768,0.0,-0.005654037,0.091127686,5.189438e-05,0,1,0,1
38172000,38088000,38092000,0,-0.8270389,0.0,0.003689289,0.09112424,2.209555e-05,0,1,0,1
38244000,38160000,38164000,0,-0.8212994,0.0,-0.0018133521,0.091116235,5.338532e-06,0,1,0,1
38316000,38232000,38236000,0,-0.8061706,0.0,-0.017098367,0.09111288,0.00047466022,0,1,0,1
38388000,38302545,38308000,0,-0.8107228,0.0,-0.012381971,0.09110954,0.00024892532,0,1,0,1
38460000,38376000,38380000,0,-0.83296126,0.0,0.009907782,0.09110624,0.0001593889,0,1,0,1
38532000,38447272,38452000,0,-0.8162539,0.0,-0.0071053505,0.09110302,8.197692e-05,0,1,0,1
38604000,38520000,38524000,0,-0.7792965,0.0,-0.044179022,0.091099806,0.0031693347,0,1,0,1
38676000,38590181,38596000,0,-0.8234041,0.0,0.0006350875,0.09109352,6.549875e-07,0,1,0,1
38748000,38664000,38668000,0,-0.8116033,0.0,-0.011269867,0.091090366,0.00020626167,0,1,0,1
38820000,38734909,38740000,0,-0.81622815,0.0,-0.0066547394,0.091087244,7.192136e-05,0,1,0,1
38892000,38808000,38812000,0,-0.8056689,0.0,-0.01732564,0.09108419,0.00048751605,0,1,0,1
38964000,38878545,38884000,0,-0.82322174,0.0,0.00017398596,0.09108118,4.9164665e-08,0,1,0,1
39036000,38952000,38956000,0,-0.82662356,0.0,0.0036886334,0.09107611,2.209937e-05,0,1,0,1
39108000,39022181,39028000,0,-0.8146572,0.0,-0.008540988,0.09107315,0.000118489326,0,1,0,1
39180000,39096000,39100000,0,-0.8274789,0.0,0.0042173862,0.09107018,2.8891089e-05,0,1,0,1
39252000,39167272,39172000,0,-0.82453024,0.0,0.0010587573,0.091067255,1.8208909e-06,0,1,0,1
39324000,39240000,39244000,0,-0.80508214,0.0,-0.018604577,0.09106438,0.00056226936,0,1,0,1
39396000,39311272,39316000,0,-0.81049025,0.0,-0.013178766,0.09106151,0.00028214217,0,1,0,1
39468000,39384000,39388000,0,-0.8004433,0.0,-0.022776306,0.091057345,0.000842762,0,1,0,1
39540000,39454545,39460000,0,-0.83030903,0.0,0.0072185397,0.09105453,8.4654595e-05,0,1,0,1
39612000,39528000,39532000,0,-0.76706505,0.0,-0.056250572,0.091051735,0.0051406613,0,1,0,1
39684000,39599636,39604000,0,-0.81702536,0.0,-0.005767882,0.09104902,5.4051878e-05,0,1,0,1
39756000,39672000,39676000,0,-0.79603857,0.0,-0.026865184,0.091046356,0.0011726556,0,1,0,1
39828000,39744000,39748000,0,-0.8201069,0.0,-0.00244236,0.09104285,9.6923e-06,0,1,0,1
39900000,39816000,39820000,0,-0.8550545,0.0,0.032391787,0.091040164,0.0017048655,0,1,0,1
39972000,39886545,39892000,0,-0.81915784,0.0,-0.0040931106,0.09103747,2.7223263e-05,0,1,0,1
40044000,39960000,39964000,0,-0.8289325,0.0,0.005506873,0.09103482,4.9278326e-05,0,1,0,1
40116000,40030545,40036000,0,-0.8143541,0.0,-0.009462357,0.091032214,0.00014549794,0,1,0,1
40188000,40104000,40108000,0,-0.74736476,0.0,-0.07651889,0.09102962,0.009514982,0,1,0,1
40260000,40174545,40180000,0,-0.8144026,0.0,-0.008521676,0.09102651,0.00011801454,0,1,0,1
40324000,40244000,40244000,0,-0.8431056,0.0,0.020172536,0.09102292,0.00066133816,0,1,0,1
40396000,40312800,40316000,0,-0.8255903,0.0,0.002391994,0.09102037,9.298972e-06,0,1,0,1
40468000,40384000,40388000,0,-0.83827066,0.0,0.0148383975,0.09101786,0.00035784979,0,1,0,1
40540000,40456400,40460000,0,-0.8309561,0.0,0.007135868,0.091015376,8.2762235e-05,0,1,0,1
40604000,40524000,40524000,0,-0.8167773,0.0,-0.007333219,0.09101191,8.740664e-05,0,1,0,1
40676000,40596000,40596000,0,-0.82042634,0.0,-0.0035332441,0.09100908,2.0291583e-05,0,1,0,1
40748000,40668000,40668000,0,-0.81166536,0.0,-0.012435079,0.09100663,0.00025134915,0,1,0,1
40820000,40739636,40740000,0,-0.8200963,0.0,-0.003948748,0.09100422,2.5346073e-05,0,1,0,1
40892000,40812000,40812000,0,-0.8055573,0.0,-0.018571734,0.09100187,0.00056067086,0,1,0,1
40964000,40883272,40884000,0,-0.8167576,0.0,-0.00719887,0.09099953,8.4244755e-05,0,1,0,1
41036000,40956000,40956000,0,-0.8098665,0.0,-0.013923764,0.09099694,0.00031516637,0,1,0,1
41108000,41027636,41028000,0,-0.8165257,0.0,-0.0071296096,0.09099459,8.2636e-05,0,1,0,1
41180000,41096000,41100000,0,-0.8278992,0.0,0.0042510033,0.09099222,2.9378658e-05,0,1,0,1
41252000,41165600,41172000,0,-0.8155305,0.0,-0.008180618,0.0909899,0.00010880087,0,1,0,1
41324000,41238000,41244000,0,-0.82237756,0.0,-0.0013196468,0.09098761,2.831304e-06,0,1,0,1
41396000,41309600,41316000,0,-0.8138829,0.0,-0.009904385,0.090985335,0.00015949128,0,1,0,1
41468000,41382000,41388000,0,-0.85422647,0.0,0.030535877,0.09098287,0.0015160535,0,1,0,1
41540000,41453200,41460000,0,-0.8237973,0.0,-0.00037682056,0.09098059,2.3087334e-07,0,1,0,1
41604000,41520000,41524000,0,-0.8415449,0.0,0.017259598,0.09097739,0.00048437444,0,1,0,1
41676000,41591636,41596000,0,-0.8202165,0.0,-0.004315436,0.09097519,3.0281662e-05,0,1,0,1
41748000,41664000,41668000,0,-0.8197054,0.0,-0.004882872,0.090973005,3.876962e-05,0,1,0,1
41820000,41735272,41740000,0,-0.8116272,0.0,-0.012894273,0.09097066,0.00027036204,0,1,0,1
41892000,41808000,41812000,0,-0.8251084,0.0,0.00070887804,0.090968475,8.17157e-07,0,1,0,1
41964000,41879272,41884000,0,-0.8240245,0.0,-0.00038188696,0.09096628,2.3716063e-07,0,1,0,1
42036000,41952000,41956000,0,-0.85106987,0.0,0.026657224,0.09096412,0.0011556146,0,1,0,1
42108000,42023272,42028000,0,-0.8116881,0.0,-0.012968481,0.09096201,0.00027350892,0,1,0,1
42180000,42096000,42100000,0,-0.79975456,0.0,-0.024818718,0.09095991,0.0010017562,0,1,0,1
42252000,42167272,42172000,0,-0.81239384,0.0,-0.01183939,0.090957634,0.00022796745,0,1,0,1
42324000,42240000,42244000,0,-0.81328744,0.0,-0.010684252,0.09095552,0.00018565751,0,1,0,1
42396000,42310909,42316000,0,-0.82772774,0.0,0.0038292408,0.0909534,2.384843e-05,0,1,0,1
42468000,42384000,42388000,0,-0.8278077,0.0,0.0038753152,0.09095132,2.4426341e-05,0,1,0,1
42540000,42454909,42460000,0,-0.80598855,0.0,-0.018048584,0.09094928,0.00052983465,0,1,0,1
42612000,42528000,42532000,0,-0.8320181,0.0,0.00807035,0.090947226,0.00010593723,0,1,0,1
42684000,42598909,42604000,0,-0.8146064,0.0,-0.009466171,0.09094499,0.00014575494,0,1,0,1
42756000,42672000,42676000,0,-0.818429,0.0,-0.005609274,0.09094293,5.11797e-05,0,1,0,1
42828000,42743272,42748000,0,-0.81254625,0.0,-0.011542141,0.09094088,0.00021670402,0,1,0,1
42900000,42816000,42820000,0,-0.7952009,0.0,-0.02887106,0.09093888,0.0013559049,0,1,0,1
42972000,42887272,42892000,0,-0.8113483,0.0,-0.012575686,0.09093691,0.00025726252,0,1,0,1
43044000,42960000,42964000,0,-0.81955653,0.0,-0.0043153167,0.0909347,3.0293473e-05,0,1,0,1
43116000,43030909,43036000,0,-0.8236882,0.0,-0.00018656254,0.09093269,5.662161e-08,0,1,0,1
43188000,43104000,43108000,0,-0.8334289,0.0,0.00952208,0.090930685,0.00014750494,0,1,0,1
43260000,43175272,43180000,0,-0.82255554,0.0,-0.0014929175,0.09092872,3.6259673e-06,0,1,0,1
43332000,43248000,43252000,0,-0.8712873,0.0,0.04715532,0.09092678,0.0036176199,0,1,0,1
43404000,43319272,43324000,0,-0.8204966,0.0,-0.0042521358,0.090924844,2.9416096e-05,0,1,0,1
43476000,43392000,43396000,0,-0.79697526,0.0,-0.027777731,0.09092267,0.0012553786,0,1,0,1
43548000,43462909,43468000,0,-0.82775635,0.0,0.003121972,0.09092071,1.5858006e-05,0,1,0,1
43620000,43536000,43540000,0,-0.81183296,0.0,-0.012803376,0.09091878,0.00026671577,0,1,0,1
43692000,43607272,43612000,0,-0.8194677,0.0,-0.005039513,0.0909169,4.132243e-05,0,1,0,1
43756000,43676000,43676000,0,-0.8385824,0.0,0.014157414,0.090914205,0.00032612905,0,1,0,1
43828000,43745200,43748000,0,-0.8264826,0.0,0.0019283891,0.09091208,6.050915e-06,0,1,0,1
43900000,43816000,43820000,0,-0.8253377,0.0,0.0008312464,0.09091021,1.1243466e-06,0,1,0,1
43964000,43883111,43884000,0,-0.82284725,0.0,-0.0017515421,0.09090753,4.992231e-06,0,1,0,1
44036000,43950000,43956000,0,-0.829613,0.0,0.004976809,0.09090569,4.030549e-05,0,1,0,1
44108000,44021600,44028000,0,-0.8184356,0.0,-0.006212294,0.09090387,6.280222e-05,0,1,0,1
44172000,44092000,44092000,0,-0.81423,0.0,-0.010430217,0.09090126,0.00017703946,0,1,0,1
44244000,44160000,44164000,0,-0.8160375,0.0,-0.008609176,0.09089919,0.0001206192,0,1,0,1
44316000,44232000,44236000,0,-0.8195413,0.0,-0.0048957467,0.090897374,3.900676e-05,0,1,0,1
44388000,44303111,44308000,0,-0.8154354,0.0,-0.008896053,0.09089557,0.00012879688,0,1,0,1
44460000,44373333,44380000,0,-0.8247311,0.0,0.00043451786,0.0908938,3.0728006e-07,0,1,0,1
44524000,44441500,44444000,0,-0.8110189,0.0,-0.01328963,0.090891264,0.00028744648,0,1,0,1
44596000,44514000,44516000,0,-0.81963384,0.0,-0.0045503974,0.09088953,3.3700642e-05,0,1,0,1
44668000,44585000,44588000,0,-0.81652665,0.0,-0.0076523423,0.0908875,9.530989e-05,0,1,0,1
44740000,44657000,44660000,0,-0.8142717,0.0,-0.009858549,0.09088575,0.00015819163,0,1,0,1
44812000,44728500,44732000,0,-0.82818973,0.0,0.00418067,0.09088401,2.8448385e-05,0,1,0,1
44876000,44796000,44796000,0,-0.81409115,0.0,-0.010059118,0.09088153,0.0001647015,0,1,0,1
44948000,44866222,44868000,0,-0.80058,0.0,-0.023602247,0.09087984,0.0009067602,0,1,0,1
45020000,44938666,44940000,0,-0.8184817,0.0,-0.005463481,0.09087788,4.8588558e-05,0,1,0,1
45092000,45011111,45012000,0,-0.81968915,0.0,-0.004241228,0.0908762,2.9281038e-05,0,1,0,1
45164000,45082666,45084000,0,-0.82191247,0.0,-0.0020381212,0.09087449,6.761941e-06,0,1,0,1
45236000,45154222,45156000,0,-0.82157475,0.0,-0.0023896694,0.09087282,9.295976e-06,0,1,0,1
45308000,45226666,45228000,0,-0.8240562,0.0,-4.6372414e-05,0.090871155,3.500634e-09,0,1,0,1
45380000,45297777,45300000,0,-0.8197601,0.0,-0.0044819713,0.09086951,3.2701922e-05,0,1,0,1
45452000,45366000,45372000,0,-0.81437033,0.0,-0.009941161,0.0908676,0.00016088609,0,1,0,1
45524000,45436800,45444000,0,-0.81429917,0.0,-0.009976983,0.09086593,0.00016205064,0,1,0,1
45588000,45504000,45508000,0,-0.82127124,0.0,-0.0029448867,0.09086355,1.4118898e-05,0,1,0,1
45660000,45574545,45580000,0,-0.8126514,0.0,-0.011577427,0.09086193,0.00021822048,0,1,0,1
45732000,45648000,45652000,0,-0.789859,0.0,-0.034315467,0.09086034,0.0019171621,0,1,0,1
45804000,45718545,45724000,0,-0.81382555,0.0,-0.010094702,0.09085873,0.00016591045,0,1,0,1
45876000,45792000,45796000,0,-0.81234276,0.0,-0.011567593,0.09085687,0.00021786203,0,1,0,1
45948000,45863272,45868000,0,-0.8094252,0.0,-0.014409065,0.090855256,0.00033804533,0,1,0,1
46020000,45936000,45940000,0,-0.84675586,0.0,0.02307278,0.09085365,0.0008667838,0,1,0,1
46092000,46006545,46012000,0,-0.81211007,0.0,-0.011924624,0.09085208,0.00023153034,0,1,0,1
46164000,46080000,46084000,0,-0.80682164,0.0,-0.01715684,0.09085052,0.00047929236,0,1,0,1
46236000,46150909,46156000,0,-0.80959165,0.0,-0.014430821,0.09084873,0.00033909123,0,1,0,1
46308000,46224000,46228000,0,-0.80673176,0.0,-0.017308295,0.09084716,0.00048780986,0,1,0,1
46380000,46294909,46300000,0,-0.81558764,0.0,-0.00830555,0.09084558,0.00011232756,0,1,0,1
46452000,46368000,46372000,0,-0.80182034,0.0,-0.02203399,0.09084402,0.00079057534,0,1,0,1
46524000,46438181,46444000,0,-0.8229928,0.0,-0.00071436167,0.09084247,8.309994e-07,0,1,0,1
46596000,46512000,46516000,0,-0.8251748,0.0,0.0013912916,0.09084094,3.1521586e-06,0,1,0,1
46668000,46582181,46588000,0,-0.8158016,0.0,-0.00809592,0.09083921,0.00010673637,0,1,0,1
46740000,46656000,46660000,0,-0.8338953,0.0,0.009956121,0.09083766,0.0001614239,0,1,0,1
46812000,46727272,46732000,0,-0.82320774,0.0,-0.00089883804,0.09083612,1.3157023e-06,0,1,0,1
46884000,46800000,46804000,0,-0.8348277,0.0,0.010609925,0.09083462,0.00018332707,0,1,0,1
46956000,46870545,46876000,0,-0.8151335,0.0,-0.009269595,0.090833135,0.00013993637,0,1,0,1
47028000,46944000,46948000,0,-0.7955952,0.0,-0.028839767,0.09083147,0.001354567,0,1,0,1
47100000,47015272,47020000,0,-0.82365865,0.0,-0.00054728985,0.09082996,4.878193e-07,0,1,0,1
47172000,47088000,47092000,0,-0.8055014,0.0,-0.018726945,0.09082844,0.00057116995,0,1,0,1
47244000,47158909,47164000,0,-0.81345534,0.0,-0.01060456,0.09082695,0.00018315717,0,1,0,1
47316000,47232000,47236000,0,-0.81777394,0.0,-0.0062383413,0.090825476,6.338463e-05,0,1,0,1
47388000,47303272,47308000,0,-0.8115735,0.0,-0.012434959,0.09082401,0.0002518497,0,1,0,1
47460000,47376000,47380000,0,-0.81434804,0.0,-0.009697437,0.0908224,0.00015317021,0,1,0,1
47532000,47446909,47452000,0,-0.813833,0.0,-0.010180116,0.090820916,0.00016880018,0,1,0,1
47604000,47520000,47524000,0,-0.82803136,0.0,0.004084766,0.09081944,2.7177462e-05,0,1,0,1
47676000,47590909,47596000,0,-0.8081727,0.0,-0.015812516,0.09081801,0.00040727085,0,1,0,1
47748000,47664000,47668000,0,-0.8239704,0.0,2.425909e-05,0.090816565,9.585998e-10,0,1,0,1
47820000,47735272,47740000,0,-0.8139857,0.0,-0.00999862,0.09081503,0.00016284548,0,1,0,1
47892000,47808000,47812000,0,-0.82072943,0.0,-0.0031803846,0.090813585,1.647638e-05,0,1,0,1
47964000,47879272,47884000,0,-0.81907904,0.0,-0.0047948956,0.09081215,3.745137e-05,0,1,0,1
48036000,47952000,47956000,0,-0.8214631,0.0,-0.0024482608,0.0908107,9.764088e-06,0,1,0,1
48108000,48023636,48028000,0,-0.8109166,0.0,-0.013109028,0.09080926,0.0002799395,0,1,0,1
48180000,48096000,48100000,0,-0.83023614,0.0,0.0063079596,0.09080784,6.481982e-05,0,1,0,1
48252000,48168000,48172000,0,-0.81257147,0.0,-0.011551201,0.090806335,0.00021736594,0,1,0,1
48324000,48240000,48244000,0,-0.80168015,0.0,-0.022451043,0.09080491,0.0008211398,0,1,0,1
48396000,48310181,48316000,0,-0.81174153,0.0,-0.012257874,0.090803504,0.0002447829,0,1,0,1
48468000,48384000,48388000,0,-0.8158058,0.0,-0.008111477,0.0908021,0.000107190746,0,1,0,1
48540000,48456000,48460000,0,-0.8187221,0.0,-0.005176246,0.090800725,4.3650965e-05,0,1,0,1
48612000,48528000,48532000,0,-0.81776476,0.0,-0.006155491,0.09079934,6.1729974e-05,0,1,0,1
48684000,48599636,48604000,0,-0.80666786,0.0,-0.01723969,0.09079787,0.00048421317,0,1,0,1
48756000,48672000,48676000,0,-0.80388147,0.0,-0.019898355,0.09079648,0.0006450876,0,1,0,1
48828000,48743272,48748000,0,-0.81750613,0.0,-0.006196201,0.09079509,6.2552106e-05,0,1,0,1
48900000,48816000,48820000,0,-0.8091665,0.0,-0.014539957,0.090793714,0.00034444814,0,1,0,1
48972000,48887272,48892000,0,-0.8168283,0.0,-0.0068638325,0.09079235,7.6760436e-05,0,1,0,1
49044000,48960000,48964000,0,-0.8184607,0.0,-0.005295396,0.09079092,4.5688597e-05,0,1,0,1
49116000,49030909,49036000,0,-0.80543745,0.0,-0.018305719,0.09078956,0.000545998,0,1,0,1
49188000,49104000,49108000,0,-0.7967082,0.0,-0.027029335,0.09078819,0.0011904049,0,1,0,1
49260000,49174545,49180000,0,-0.8124189,0.0,-0.011231422,0.090786844,0.00020554171,0,1,0,1
49332000,49248000,49252000,0,-0.8192168,0.0,-0.0044219494,0.0907855,3.1861364e-05,0,1,0,1
49404000,49319272,49324000,0,-0.80647725,0.0,-0.017274678,0.09078416,0.000486254,0,1,0,1
49476000,49392000,49396000,0,-0.8455488,0.0,0.021764874,0.09078276,0.0007719022,0,1,0,1
49548000,49462545,49468000,0,-0.8191798,0.0,-0.004886687,0.09078141,3.8912167e-05,0,1,0,1
49620000,49536000,49540000,0,-0.824102,0.0,-6.514788e-05,0.09078008,6.916133e-09,0,1,0,1
49692000,49607272,49612000,0,-0.8125079,0.0,-0.011803687,0.09077875,0.00022704109,0,1,0,1
49764000,49680000,49684000,0,-0.7929601,0.0,-0.031349003,0.09077744,0.001601485,0,1,0,1
49836000,49751272,49756000,0,-0.8092404,0.0,-0.014872372,0.09077607,0.00036044788,0,1,0,1
49908000,49824000,49828000,0,-0.81039065,0.0,-0.0136419535,0.09077477,0.0003032783,0,1,0,1
49980000,49895272,49900000,0,-0.8153949,0.0,-0.008534908,0.09077345,0.00011871135,0,1,0,1
50052000,49968000,49972000,0,-0.8287428,0.0,0.0048621893,0.090772144,3.8526938e-05,0,1,0,1
50124000,50038181,50044000,0,-0.801331,0.0,-0.022685707,0.09077084,0.00083870965,0,1,0,1
50196000,50112000,50116000,0,-0.77024335,0.0,-0.05367428,0.09076959,0.0046951063,0,1,0,1
50268000,50183272,50188000,0,-0.81161696,0.0,-0.011749625,0.090768114,0.00022499253,0,1,0,1
50340000,50256000,50260000,0,-0.8209856,0.0,-0.0026777387,0.09076696,1.1685894e-05,0,1,0,1
50412000,50327272,50332000,0,-0.80870986,0.0,-0.015296876,0.090765834,0.0003813612,0,1,0,1
50484000,50400000,50404000,0,-0.8094,0.0,-0.014812589,0.09076467,0.00035760074,0,1,0,1
50556000,50471272,50476000,0,-0.8119084,0.0,-0.012460113,0.09076348,0.00025303822,0,1,0,1
50628000,50544000,50548000,0,-0.7876386,0.0,-0.036980152,0.090761386,0.002228895,0,1,0,1
50700000,50615272,50620000,0,-0.80890113,0.0,-0.015517116,0.09076018,0.0003924461,0,1,0,1
50764000,50684000,50684000,0,-0.8292796,0.0,0.004797578,0.090758406,3.7515485e-05,0,1,0,1
50836000,50753600,50756000,0,-0.8170297,0.0,-0.0074572563,0.09075718,9.064222e-05,0,1,0,1
50908000,50824000,50828000,0,-0.82927316,0.0,0.005136907,0.09075588,4.3011245e-05,0,1,0,1
50972000,50890666,50892000,0,-0.82450837,0.0,0.0005553365,0.09075403,5.026895e-07,0,1,0,1
51044000,50958000,50964000,0,-0.8080836,0.0,-0.016098857,0.090751804,0.0004224625,0,1,0,1
51116000,51029200,51036000,0,-0.81322014,0.0,-0.01099354,0.090750605,0.00019700578,0,1,0,1
51180000,51096000,51100000,0,-0.8125338,0.0,-0.011618674,0.09074884,0.00022005202,0,1,0,1
51252000,51166909,51172000,0,-0.8186322,0.0,-0.0050899386,0.090747535,4.223219e-05,0,1,0,1
51316000,51236000,51236000,0,-0.78223926,0.0,-0.040938556,0.09074563,0.0027320753,0,1,0,1
51388000,51304800,51308000,0,-0.81032455,0.0,-0.012312174,0.09074428,0.00024711754,0,1,0,1
51452000,51372000,51372000,0,-0.82239234,0.0,-0.00030893087,0.09074133,1.5558611e-07,0,1,0,1
51524000,51443636,51444000,0,-0.81867003,0.0,-0.004200399,0.09074013,2.8763057e-05,0,1,0,1
51596000,51516000,51516000,0,-0.80111593,0.0,-0.021951914,0.09073894,0.00078560534,0,1,0,1
51668000,51586181,51588000,0,-0.80930156,0.0,-0.013409436,0.090737626,0.000293148,0,1,0,1
51740000,51656000,51660000,0,-0.8105456,0.0,-0.011954486,0.09073624,0.00023298846,0,1,0,1
51812000,51725600,51732000,0,-0.8121429,0.0,-0.010344863,0.09073491,0.00017447308,0,1,0,1
51884000,51798000,51804000,0,-0.7938242,0.0,-0.028713167,0.09073186,0.0013441747,0,1,0,1
51956000,51868800,51876000,0,-0.8173714,0.0,-0.005388558,0.0907307,4.7341742e-05,0,1,0,1
52020000,51936000,51940000,0,-0.82617027,0.0,0.0033270717,0.09072898,1.8048104e-05,0,1,0,1
52092000,52006181,52012000,0,-0.8168759,0.0,-0.006242156,0.090728015,6.353034e-05,0,1,0,1
52164000,52080000,52084000,0,-0.8178695,0.0,-0.0050661564,0.09072675,4.1848045e-05,0,1,0,1
52236000,52151272,52156000,0,-0.80748457,0.0,-0.015130341,0.09072239,0.00037328136,0,1,0,1
52308000,52224000,52228000,0,-0.81713337,0.0,-0.005501151,0.09072128,4.934593e-05,0,1,0,1
52380000,52295272,52300000,0,-0.82142454,0.0,-0.0013195276,0.09072021,2.8391364e-06,0,1,0,1
52452000,52368000,52372000,0,-0.83044904,0.0,0.007969916,0.09071908,0.00010357673,0,1,0,1
52524000,52438909,52444000,0,-0.8136357,0.0,-0.008097827,0.090717964,0.000106929394,0,1,0,1
52596000,52512000,52516000,0,-0.81381947,0.0,-0.006887138,0.090716854,7.734691e-05,0,1,0,1
52668000,52582181,52588000,0,-0.81312203,0.0,-0.0070471168,0.09071095,8.0987236e-05,0,1,0,1
52740000,52656000,52660000,0,-0.807373,0.0,-0.012564361,0.09070995,0.00025744192,0,1,0,1
52812000,52727272,52732000,0,-0.8097873,0.0,-0.009756327,0.09070894,0.0001552301,0,1,0,1
52884000,52800000,52804000,0,-0.7789512,0.0,-0.039556682,0.09070794,0.0025518066,0,1,0,1
52956000,52871272,52876000,0,-0.80430734,0.0,-0.012698829,0.090706974,0.00026299048,0,1,0,1
53028000,52944000,52948000,0,-0.7999643,0.0,-0.01594901,0.090699926,0.00041487179,0,1,0,1
53100000,53014909,53020000,0,-0.81489193,0.0,-0.00037837029,0.09069899,2.3349897e-07,0,1,0,1
53172000,53088000,53092000,0,-0.82406896,0.0,0.008894086,0.090698026,0.00012902034,0,1,0,1
53244000,53158545,53164000,0,-0.81136024,0.0,-0.0037115812,0.09069709,2.24687e-05,0,1,0,1
53316000,53232000,53236000,0,-0.8005158,0.0,-0.013984144,0.09069617,0.00031895994,0,1,0,1
53388000,53303636,53308000,0,-0.80760384,0.0,-0.006095946,0.090695284,6.0610917e-05,0,1,0,1
53460000,53376000,53380000,0,-0.8007987,0.0,-0.012599051,0.09068846,0.0002589268,0,1,0,1
53532000,53447272,53452000,0,-0.79905933,0.0,-0.014175594,0.09068756,0.0003277843,0,1,0,1
53604000,53520000,53524000,0,-0.8242562,0.0,0.011079907,0.090686634,0.00020025452,0,1,0,1
53676000,53589818,53596000,0,-0.808698,0.0,-0.0045440197,0.090685725,3.3681765e-05,0,1,0,1
53748000,53664000,53668000,0,-0.7887933,0.0,-0.024260819,0.09068485,0.0009601288,0,1,0,1
