timestamp,timestamp_sample,device_id,x,y,z,temperature,error_count
3880000,3880000,197388,0.011529534,-0.2138112,0.42579922,11.832727,0
4876000,4876000,197388,0.0014289235,-0.21591388,0.43614614,11.832727,0
5868000,5868000,197388,0.011483157,-0.21533132,0.42169154,11.832727,0
6880000,6880000,197388,0.012047743,-0.2178207,0.43293226,11.832727,0
7876000,7876000,197388,0.01074228,-0.22177768,0.43071702,11.832727,0
8884000,8884000,197388,0.010638615,-0.21985558,0.42537773,11.832727,0
9880000,9880000,197388,0.013046115,-0.21467298,0.4231052,11.832727,0
10876000,10876000,197388,0.00792688,-0.21776775,0.4320095,11.832727,0
11872000,11872000,197388,0.010483971,-0.2142455,0.43610236,11.832727,0
12880000,12880000,197388,0.0032231233,-0.20933674,0.4281992,11.832727,0
13876000,13876000,197388,0.005862309,-0.21872325,0.43040228,11.832727,0
14872000,14872000,197388,0.014440029,-0.21628103,0.43326077,11.832727,0
15880000,15880000,197388,0.010688425,-0.22417444,0.4256503,11.832727,0
16876000,16876000,197388,0.007738111,-0.21892239,0.4326877,11.832727,0
17868000,17868000,197388,-0.002103262,-0.19891667,0.4378009,11.832605,0
18880000,18880000,197388,0.013688199,-0.22923407,0.427568,11.829645,0
19876000,19876000,197388,0.016006501,-0.21870185,0.4243997,11.825342,0
20872000,20872000,197388,-0.020055823,-0.25433314,0.40583193,11.819574,0
21876000,21876000,197388,0.025367182,-0.19728659,0.4421608,11.812464,0
22876000,22876000,197388,0.065598115,-0.151619,0.45260856,11.806879,0
23872000,23872000,197388,0.032010537,-0.18933608,0.43455023,11.807703,0
24880000,24880000,197388,-0.0012196469,-0.2368591,0.42060316,11.814753,0
25876000,25876000,197388,0.03552508,-0.22767489,0.42169744,11.824488,0
26868000,26868000,197388,0.18107273,-0.11642419,0.43278056,11.832727,0
27876000,27876000,197388,0.19009924,-0.113928534,0.43744758,11.832727,0
28876000,28876000,197388,0.19213168,-0.11784213,0.4314806,11.832727,0
29868000,29868000,197388,0.17447312,-0.11708757,0.43422312,11.832727,0
30880000,30880000,197388,0.24694882,-0.3122064,0.2852709,11.831476,0
31876000,31876000,197388,0.096128374,0.14061855,0.45380816,11.823664,0
32872000,32872000,197388,0.07476876,0.16977882,0.4445879,11.817011,0
33876000,33876000,197388,0.115487374,0.17164063,0.42934394,11.813623,0
34876000,34876000,197388,0.1476619,0.16535288,0.42620188,11.8120365,0
35872000,35872000,197388,0.15418325,0.15595254,0.42876947,11.811518,0
36880000,36880000,197388,0.15263322,0.16004765,0.4288703,11.811731,0
37876000,37876000,197388,0.14489542,0.16504948,0.42821598,11.812403,0
38884000,38884000,197388,0.14172944,0.16394314,0.42878553,11.813257,0
39876000,39876000,197388,0.14899646,0.16332826,0.43283552,11.814051,0
40876000,40876000,197388,0.14510606,0.16140863,0.42950013,11.814722,0
41884000,41884000,197388,0.14795546,0.16178091,0.4277994,11.81518,0
42880000,42880000,197388,0.14866088,0.16560249,0.4328487,11.815485,0
43876000,43876000,197388,0.13658786,0.16319503,0.42561725,11.815699,0
44884000,44884000,197388,0.14434472,0.16523427,0.42802513,11.815851,0
45880000,45880000,197388,0.13955612,0.15445611,0.42553127,11.815912,0
46876000,46876000,197388,0.14484844,0.16468348,0.42660213,11.815973,0
47872000,47872000,197388,0.13608646,0.16248123,0.42113516,11.815973,0
48876000,48876000,197388,0.14199223,0.15902731,0.4295145,11.815943,0
49876000,49876000,197388,0.14292426,0.16543706,0.4297363,11.81579,0
50884000,50884000,197388,0.10631617,0.12689817,0.4542336,11.813807,0
51880000,51880000,197388,0.14603685,0.17057987,0.42925394,11.808283,0
52876000,52876000,197388,0.18335624,0.2057156,0.39426798,11.804163,0
53868000,53868000,197388,0.19039159,0.21734549,0.3902903,11.805384,0
54876000,54876000,197388,0.17483084,0.18729076,0.39772353,11.813898,0
55876000,55876000,197388,0.21234249,0.22332548,0.37901238,11.82696,0
56872000,56872000,197388,0.17301181,0.17045832,0.41674381,11.832544,0
57876000,57876000,197388,0.14271271,0.15768199,0.43044975,11.832727,0
58876000,58876000,197388,0.14713854,0.160034,0.42596605,11.832727,0
59880000,59880000,197388,0.13920526,0.15796252,0.43092677,11.832727,0
60876000,60876000,197388,0.15165977,0.16078359,0.4328723,11.832727,0
61876000,61876000,197388,0.14464474,0.21721978,0.40620074,11.832514,0
62868000,62868000,197388,0.14714295,0.196746,0.42260185,11.832483,0
63880000,63880000,197388,0.16241652,0.14906462,0.42874113,11.832727,0
64876000,64876000,197388,0.15236858,0.15425524,0.42783698,11.832697,0
65872000,65872000,197388,0.15939562,0.14641483,0.42911813,11.832727,0
66876000,66876000,197388,0.1566254,0.14942527,0.43152922,11.832727,0
67876000,67876000,197388,0.15630628,0.144098,0.429097,11.832727,0
68880000,68880000,197388,0.1586132,0.14997852,0.42509824,11.832727,0
69876000,69876000,197388,0.15322092,0.14187075,0.42982805,11.832727,0
70876000,70876000,197388,0.1531769,0.15028597,0.42934874,11.832727,0
71868000,71868000,197388,0.16071087,0.15155555,0.42642468,11.832727,0
72876000,72876000,197388,0.16177323,0.14862773,0.43368736,11.832727,0
73876000,73876000,197388,0.15532446,0.14373963,0.43032217,11.832727,0
74884000,74884000,197388,0.15743017,0.14894468,0.42682844,11.832727,0
75876000,75876000,197388,0.15982649,0.14491026,0.43832058,11.832727,0
76876000,76876000,197388,0.16053472,0.15029953,0.4351082,11.832727,0
77884000,77884000,197388,0.15399109,0.14911489,0.43452543,11.832727,0
78876000,78876000,197388,0.15744929,0.14539126,0.43046576,11.832727,0
79876000,79876000,197388,0.15417634,0.14754076,0.43042615,11.832727,0
80872000,80872000,197388,0.15745135,0.14769962,0.43103322,11.832727,0
81880000,81880000,197388,-0.27243516,-0.055343147,0.39379227,11.831568,0
82876000,82876000,197388,-0.20018949,-0.07407339,-0.43036205,11.832727,0
83868000,83868000,197388,-0.19490273,-0.075430356,-0.4364507,11.832727,0
84876000,84876000,197388,-0.2045083,-0.07862285,-0.4274546,11.832727,0
85876000,85876000,197388,-0.20362279,-0.08163539,-0.4273013,11.832727,0
86884000,86884000,197388,-0.1984838,-0.07720806,-0.42997748,11.832727,0
87880000,87880000,197388,-0.19804859,-0.07346733,-0.4340365,11.832727,0
88876000,88876000,197388,-0.20326613,-0.07427569,-0.43237343,11.832727,0
89868000,89868000,197388,-0.20231996,-0.07620658,-0.42974147,11.832727,0
90876000,90876000,197388,-0.19608776,-0.07953913,-0.43006855,11.832727,0
91876000,91876000,197388,-0.1961022,-0.08194346,-0.436392,11.832727,0
92880000,92880000,197388,-0.20126107,-0.07772388,-0.4263996,11.832727,0
93880000,93880000,197388,-0.20665605,-0.07454352,-0.42881054,11.832727,0
94876000,94876000,197388,-0.19414087,-0.083143994,-0.4297572,11.832727,0
95884000,95884000,197388,-0.19415498,-0.0811947,-0.42528617,11.832727,0
96880000,96880000,197388,-0.19778019,-0.08198809,-0.4243291,11.832727,0
97872000,97872000,197388,-0.20619147,-0.07771365,-0.436025,11.832727,0
98868000,98868000,197388,-0.19904478,-0.0732263,-0.428595,11.832727,0
