timestamp,timestamp_sample,gps_hvel[0],gps_hvel[1],gps_vvel,gps_hpos[0],gps_hpos[1],gps_vpos,ev_hvel[0],ev_hvel[1],ev_vvel,ev_hpos[0],ev_hpos[1],ev_vpos,rng_vpos,baro_vpos,aux_hvel[0],aux_hvel[1],aux_vvel,flow[0],flow[1],terr_flow[0],terr_flow[1],heading,mag_field[0],mag_field[1],mag_field[2],gravity[0],gravity[1],gravity[2],drag[0],drag[1],airspeed,beta,hagl,hagl_rate
3532000,3452000,3.764882e-06,0.0,0.0003722169,2.3400752e-11,0.0,94.35422,0.0,0.0,0.0,0.0,0.0,0.0,0.0,0.0,0.0,0.0,nan,0.0,0.0,0.0,0.0,0.0,0.0,0.0,0.0,6.4818894e-05,0.0,0.0,0.0,0.0,0.0,0.0,0.0,0.0
4028000,3948000,3.6587105e-06,0.0,3.300326e-05,5.603737e-09,0.0,277.57455,0.0,0.0,0.0,0.0,0.0,0.0,0.0,0.0,0.0,0.0,nan,0.0,0.0,0.0,0.0,0.0,0.0,0.0,0.0,0.00036383956,0.0,0.0,0.0,0.0,0.0,0.0,0.0,0.0
4532000,4452000,4.8790356e-05,0.0,9.120402e-05,3.777789e-09,0.0,1.838766e-11,0.0,0.0,0.0,0.0,0.0,0.0,0.0,2.8131642e-06,0.0,0.0,nan,0.0,0.0,0.0,0.0,0.0,0.0,0.0,0.0,0.00022047824,0.0,0.0,0.0,0.0,0.0,0.0,0.0,0.0
5028000,4948000,4.890332e-06,0.0,6.2317014e-07,2.6256942e-06,0.0,1.436212e-06,0.0,0.0,0.0,0.0,0.0,0.0,0.0,3.1276525e-06,0.0,0.0,nan,0.0,0.0,0.0,0.0,0.0,0.0,0.0,0.0,9.644538e-05,0.0,0.0,0.0,0.0,0.0,0.0,0.0,0.0
5532000,5452000,5.401596e-05,0.0,0.00031399666,2.317711e-06,0.0,2.5407297e-07,0.0,0.0,0.0,0.0,0.0,0.0,0.0,5.8457235e-06,0.0,0.0,nan,0.0,0.0,0.0,0.0,0.0,0.0,0.0,0.0,0.00074408576,0.0,0.0,0.0,0.0,0.0,0.0,0.0,0.0
6028000,5948000,3.9489783e-05,0.0,1.7517883e-05,2.161846e-06,0.0,2.561822e-06,0.0,0.0,0.0,0.0,0.0,0.0,0.0,7.295569e-08,0.0,0.0,nan,0.0,0.0,0.0,0.0,0.0,0.0,0.0,0.0,0.00058043574,0.0,0.0,0.0,0.0,0.0,0.0,0.0,0.0
6532000,6452000,1.4271892e-07,0.0,1.621873e-05,2.289618e-06,0.0,7.9005304e-07,0.0,0.0,0.0,0.0,0.0,0.0,0.0,2.0043532e-07,0.0,0.0,nan,0.0,0.0,0.0,0.0,0.0,0.0,0.0,0.0,7.166284e-05,0.0,0.0,0.0,0.0,0.0,0.0,0.0,0.0
7028000,6948000,8.4302366e-05,0.0,5.6199437e-06,2.0675711e-06,0.0,9.84681e-06,0.0,0.0,0.0,0.0,0.0,0.0,0.0,1.6979806e-05,0.0,0.0,nan,0.0,0.0,0.0,0.0,0.0,0.0,0.0,0.0,0.0004717697,0.0,0.0,0.0,0.0,0.0,0.0,0.0,0.0
7532000,7452000,3.4472752e-05,0.0,0.0005286414,1.8324603e-06,0.0,8.126794e-06,0.0,0.0,0.0,0.0,0.0,0.0,0.0,9.247245e-06,0.0,0.0,nan,0.0,0.0,0.0,0.0,0.0,0.0,0.0,0.0,0.00016648717,0.0,0.0,0.0,0.0,0.0,0.0,0.0,0.0
8028000,7948000,4.2568758e-05,0.0,8.616613e-05,1.9999695e-06,0.0,4.489057e-06,0.0,0.0,0.0,0.0,0.0,0.0,0.0,2.4395431e-05,0.0,0.0,nan,0.0,0.0,0.0,0.0,0.0,0.0,0.0,0.0,0.00027592626,0.0,0.0,0.0,0.0,0.0,0.0,0.0,0.0
8532000,8452000,0.00020605115,0.0,1.6840222e-06,2.1712667e-06,0.0,3.5818214e-06,0.0,0.0,0.0,0.0,0.0,0.0,0.0,1.6284984e-06,0.0,0.0,nan,0.0,0.0,0.0,0.0,0.0,0.0,0.0,0.0,1.5001375e-05,0.0,0.0,0.0,0.0,0.0,0.0,0.0,0.0
9028000,8948000,3.034417e-06,0.0,1.6545426e-05,1.9516538e-06,0.0,5.7569883e-07,0.0,0.0,0.0,0.0,0.0,0.0,0.0,6.713201e-07,0.0,0.0,nan,0.0,0.0,0.0,0.0,0.0,0.0,0.0,0.0,0.00078140176,0.0,0.0,0.0,0.0,0.0,0.0,0.0,0.0
9524000,9444000,0.00022613571,0.0,3.9541607e-08,1.874296e-06,0.0,3.8361358e-07,0.0,0.0,0.0,0.0,0.0,0.0,0.0,3.0133815e-05,0.0,0.0,nan,0.0,0.0,0.0,0.0,0.0,0.0,0.0,0.0,0.00033038345,0.0,0.0,0.0,0.0,0.0,0.0,0.0,0.0
10028000,9948000,0.000246784,0.0,0.00019300573,1.8937696e-06,0.0,1.5974321e-06,0.0,0.0,0.0,0.0,0.0,0.0,0.0,8.722208e-06,0.0,0.0,nan,0.0,0.0,0.0,0.0,0.0,0.0,0.0,0.0,0.0005249611,0.0,0.0,0.0,0.0,0.0,0.0,0.0,0.0
10524000,10444000,0.00017136274,0.0,3.768906e-06,8.660305e-06,0.0,8.0914367e-07,0.0,0.0,0.0,0.0,0.0,0.0,0.0,3.7045575e-06,0.0,0.0,nan,0.0,0.0,0.0,0.0,0.0,0.0,0.0,0.0,0.0006170833,0.0,0.0,0.0,0.0,0.0,0.0,0.0,0.0
11028000,10948000,0.00012715302,0.0,6.489921e-07,2.588244e-06,0.0,2.8462009e-07,0.0,0.0,0.0,0.0,0.0,0.0,0.0,1.3195697e-05,0.0,0.0,nan,0.0,0.0,0.0,0.0,0.0,0.0,0.0,0.0,0.0003068953,0.0,0.0,0.0,0.0,0.0,0.0,0.0,0.0
11524000,11444000,6.634838e-05,0.0,1.5884294e-05,2.6579742e-06,0.0,1.4471393e-05,0.0,0.0,0.0,0.0,0.0,0.0,0.0,7.4014856e-06,0.0,0.0,nan,0.0,0.0,0.0,0.0,0.0,0.0,0.0,0.0,9.5251526e-05,0.0,0.0,0.0,0.0,0.0,0.0,0.0,0.0
12028000,11948000,4.7256335e-06,0.0,3.7607155e-05,4.5222105e-06,0.0,1.1259906e-05,0.0,0.0,0.0,0.0,0.0,0.0,0.0,7.3120436e-06,0.0,0.0,nan,0.0,0.0,0.0,0.0,0.0,0.0,0.0,0.0,0.0010528832,0.0,0.0,0.0,0.0,0.0,0.0,0.0,0.0
12524000,12444000,3.1031802e-06,0.0,2.871483e-05,2.3867156e-06,0.0,2.6171351e-06,0.0,0.0,0.0,0.0,0.0,0.0,0.0,5.5001847e-06,0.0,0.0,nan,0.0,0.0,0.0,0.0,0.0,0.0,0.0,0.0,0.0013362615,0.0,0.0,0.0,0.0,0.0,0.0,0.0,0.0
13028000,12948000,4.0872386e-05,0.0,2.8428735e-06,1.9536167e-06,0.0,6.2504455e-06,0.0,0.0,0.0,0.0,0.0,0.0,0.0,2.8604595e-07,0.0,0.0,nan,0.0,0.0,0.0,0.0,0.0,0.0,0.0,0.0,0.00023694111,0.0,0.0,0.0,0.0,0.0,0.0,0.0,0.0
13524000,13444000,0.00044195578,0.0,0.00021499548,1.6018728e-06,0.0,1.2292725e-05,0.0,0.0,0.0,0.0,0.0,0.0,0.0,4.046238e-06,0.0,0.0,nan,0.0,0.0,0.0,0.0,0.0,0.0,0.0,0.0,2.3795792e-05,0.0,0.0,0.0,0.0,0.0,0.0,0.0,0.0
14028000,13948000,7.6243974e-05,0.0,8.4595486e-05,8.0822e-06,0.0,1.1590705e-05,0.0,0.0,0.0,0.0,0.0,0.0,0.0,4.5047982e-05,0.0,0.0,nan,0.0,0.0,0.0,0.0,0.0,0.0,0.0,0.0,3.958176e-05,0.0,0.0,0.0,0.0,0.0,0.0,0.0,0.0
14532000,14452000,3.0825417e-05,0.0,8.336627e-05,7.91438e-09,0.0,1.3681963e-05,0.0,0.0,0.0,0.0,0.0,0.0,0.0,8.96516e-06,0.0,0.0,nan,0.0,0.0,0.0,0.0,0.0,0.0,0.0,0.0,0.00040681614,0.0,0.0,0.0,0.0,0.0,0.0,0.0,0.0
15028000,14948000,0.00014133446,0.0,0.00013903221,2.3824643e-06,0.0,9.067604e-06,0.0,0.0,0.0,0.0,0.0,0.0,0.0,1.1127238e-07,0.0,0.0,nan,0.0,0.0,0.0,0.0,0.0,0.0,0.0,0.0,0.0008844017,0.0,0.0,0.0,0.0,0.0,0.0,0.0,0.0
15524000,15444000,6.7185305e-05,0.0,1.6726075e-05,2.3063624e-06,0.0,2.283352e-05,0.0,0.0,0.0,0.0,0.0,0.0,0.0,9.216807e-06,0.0,0.0,nan,0.0,0.0,0.0,0.0,0.0,0.0,0.0,0.0,0.00018269355,0.0,0.0,0.0,0.0,0.0,0.0,0.0,0.0
16028000,15948000,2.8153372e-06,0.0,9.5870164e-05,3.7665302e-07,0.0,3.617124e-06,0.0,0.0,0.0,0.0,0.0,0.0,0.0,1.1079886e-09,0.0,0.0,nan,0.0,0.0,0.0,0.0,0.0,0.0,0.0,0.0,0.000119929784,0.0,0.0,0.0,0.0,0.0,0.0,0.0,0.0
16532000,16452000,3.5974346e-05,0.0,0.00011513444,8.650948e-07,0.0,1.20359455e-05,0.0,0.0,0.0,0.0,0.0,0.0,0.0,7.0755787e-06,0.0,0.0,nan,0.0,0.0,0.0,0.0,0.0,0.0,0.0,0.0,4.4880388e-05,0.0,0.0,0.0,0.0,0.0,0.0,0.0,0.0
17028000,16948000,1.0075612e-05,0.0,0.00011186009,5.678748e-06,0.0,2.198526e-05,0.0,0.0,0.0,0.0,0.0,0.0,0.0,3.4924506e-06,0.0,0.0,nan,0.0,0.0,0.0,0.0,0.0,0.0,0.0,0.0,3.7583977e-05,0.0,0.0,0.0,0.0,0.0,0.0,0.0,0.0
17524000,17444000,1.5501695e-05,0.0,5.7976413e-05,8.09848e-06,0.0,5.0671122e-05,0.0,0.0,0.0,0.0,0.0,0.0,0.0,1.7502478e-05,0.0,0.0,nan,0.0,0.0,0.0,0.0,0.0,0.0,0.0,0.0,3.5153353e-05,0.0,0.0,0.0,0.0,0.0,0.0,0.0,0.0
18028000,17948000,3.477487e-05,0.0,0.00067388883,9.266413e-06,0.0,5.8203204e-05,0.0,0.0,0.0,0.0,0.0,0.0,0.0,1.3957313e-05,0.0,0.0,nan,0.0,0.0,0.0,0.0,0.0,0.0,0.0,0.0,0.2915222,0.0,0.0,0.0,0.0,0.0,0.0,0.0,0.0
18524000,18444000,0.0045475303,0.0,8.847638e-08,4.720176e-06,0.0,5.4828422e-05,0.0,0.0,0.0,0.0,0.0,0.0,0.0,1.5188882e-05,0.0,0.0,nan,0.0,0.0,0.0,0.0,0.0,0.0,0.0,0.0,0.009429381,0.0,0.0,0.0,0.0,0.0,0.0,0.0,0.0
19028000,18948000,0.0017735206,0.0,0.00015686879,0.0006452584,0.0,4.0000665e-05,0.0,0.0,0.0,0.0,0.0,0.0,0.0,5.54781e-05,0.0,0.0,nan,0.0,0.0,0.0,0.0,0.0,0.0,0.0,0.0,0.05670502,0.0,0.0,0.0,0.0,0.0,0.0,0.0,0.0
19524000,19444000,7.659968e-06,0.0,0.00019065477,0.00063054013,0.0,7.140457e-05,0.0,0.0,0.0,0.0,0.0,0.0,0.0,4.438595e-05,0.0,0.0,nan,0.0,0.0,0.0,0.0,0.0,0.0,0.0,0.0,0.042199846,0.0,0.0,0.0,0.0,0.0,0.0,0.0,0.0
20028000,19948000,0.0005164619,0.0,0.00092313,0.00041894428,0.0,8.5777225e-05,0.0,0.0,0.0,0.0,0.0,0.0,0.0,2.0051723e-07,0.0,0.0,nan,0.0,0.0,0.0,0.0,0.0,0.0,0.0,0.0,0.013782971,0.0,0.0,0.0,0.0,0.0,0.0,0.0,0.0
20524000,20444000,0.0011286481,0.0,0.0054471805,0.00018166161,0.0,0.00021645246,0.0,0.0,0.0,0.0,0.0,0.0,0.0,7.719849e-05,0.0,0.0,nan,0.0,0.0,0.0,0.0,0.0,0.0,0.0,0.0,0.15865758,0.0,0.0,0.0,0.0,0.0,0.0,0.0,0.0
21028000,20948000,0.013092149,0.0,0.124591194,0.0006058697,0.0,0.00567947,0.0,0.0,0.0,0.0,0.0,0.0,0.0,0.0003859309,0.0,0.0,nan,0.0,0.0,0.0,0.0,0.0,0.0,0.0,0.0,0.13817498,0.0,0.0,0.0,0.0,0.0,0.0,0.0,0.0
21524000,21444000,0.034081135,0.0,0.20962368,0.0017644148,0.0,0.016585939,0.0,0.0,0.0,0.0,0.0,0.0,0.0,0.0013088182,0.0,0.0,nan,0.0,0.0,0.0,0.0,0.0,0.0,0.0,0.0,0.35655555,0.0,0.0,0.0,0.0,0.0,0.0,0.0,0.0
22028000,21948000,0.06296199,0.0,0.27109644,0.004223765,0.0,0.033117995,0.0,0.0,0.0,0.0,0.0,0.0,0.0,0.0029722594,0.0,0.0,nan,0.0,0.0,0.0,0.0,0.0,0.0,0.0,0.0,1.622513,0.0,0.0,0.0,0.0,0.0,0.0,0.0,0.0
22524000,22444000,0.09091403,0.0,0.31386325,0.008372324,0.0,0.056073934,0.0,0.0,0.0,0.0,0.0,0.0,0.0,0.0059763906,0.0,0.0,nan,0.0,0.0,0.0,0.0,0.0,0.0,0.0,0.0,2.2922592,0.0,0.0,0.0,0.0,0.0,0.0,0.0,0.0
23028000,22948000,0.3689334,0.0,0.24441947,0.017137436,0.0,0.102196455,0.0,0.0,0.0,0.0,0.0,0.0,0.0,0.0047923517,0.0,0.0,nan,0.0,0.0,0.0,0.0,0.0,0.0,0.0,0.0,0.59055686,0.0,0.0,0.0,0.0,0.0,0.0,0.0,0.0
23524000,23444000,0.5423203,0.0,0.13536225,0.018585525,0.0,0.10794716,0.0,0.0,0.0,0.0,0.0,0.0,0.0,0.0046437257,0.0,0.0,nan,0.0,0.0,0.0,0.0,0.0,0.0,0.0,0.0,0.01346616,0.0,0.0,0.0,0.0,0.0,0.0,0.0,0.0
24028000,23948000,0.530062,0.0,0.04412451,0.018775834,0.0,0.09829185,0.0,0.0,0.0,0.0,0.0,0.0,0.0,0.0023762614,0.0,0.0,nan,0.0,0.0,0.0,0.0,0.0,0.0,0.0,0.0,0.7495406,0.0,0.0,0.0,0.0,0.0,0.0,0.0,0.0
24532000,24452000,0.41839924,0.0,0.0014347446,0.023570353,0.0,0.074857764,0.0,0.0,0.0,0.0,0.0,0.0,0.0,0.0010226745,0.0,0.0,nan,0.0,0.0,0.0,0.0,0.0,0.0,0.0,0.0,2.0969422,0.0,0.0,0.0,0.0,0.0,0.0,0.0,0.0
25028000,24948000,0.06012364,0.0,0.14765374,0.034485828,0.0,0.015981052,0.0,0.0,0.0,0.0,0.0,0.0,0.0,2.441679e-05,0.0,0.0,nan,0.0,0.0,0.0,0.0,0.0,0.0,0.0,0.0,3.062211,0.0,0.0,0.0,0.0,0.0,0.0,0.0,0.0
25524000,25444000,0.19289185,0.0,0.30389324,0.032440208,0.0,0.00088163035,0.0,0.0,0.0,0.0,0.0,0.0,0.0,0.00093808566,0.0,0.0,nan,0.0,0.0,0.0,0.0,0.0,0.0,0.0,0.0,2.48548,0.0,0.0,0.0,0.0,0.0,0.0,0.0,0.0
26028000,25948000,0.3656623,0.0,0.4762843,0.025730316,0.0,0.007093671,0.0,0.0,0.0,0.0,0.0,0.0,0.0,0.0057409755,0.0,0.0,nan,0.0,0.0,0.0,0.0,0.0,0.0,0.0,0.0,1.9158074,0.0,0.0,0.0,0.0,0.0,0.0,0.0,0.0
26532000,26452000,0.525447,0.0,0.6694828,0.017236477,0.0,0.044366416,0.0,0.0,0.0,0.0,0.0,0.0,0.0,0.012528682,0.0,0.0,nan,0.0,0.0,0.0,0.0,0.0,0.0,0.0,0.0,2.0610118,0.0,0.0,0.0,0.0,0.0,0.0,0.0,0.0
27028000,26948000,0.7195731,0.0,1.0125048,0.061436962,0.0,0.21261077,0.0,0.0,0.0,0.0,0.0,0.0,0.0,0.017387224,0.0,0.0,nan,0.0,0.0,0.0,0.0,0.0,0.0,0.0,0.0,0.05904169,0.0,0.0,0.0,0.0,0.0,0.0,0.0,0.0
27524000,27444000,0.7677381,0.0,0.9672721,0.08750621,0.0,0.2926518,0.0,0.0,0.0,0.0,0.0,0.0,0.0,0.0249729,0.0,0.0,nan,0.0,0.0,0.0,0.0,0.0,0.0,0.0,0.0,0.0012782925,0.0,0.0,0.0,0.0,0.0,0.0,0.0,0.0
28028000,27948000,0.7314356,0.0,0.85552007,0.11616887,0.0,0.35420522,0.0,0.0,0.0,0.0,0.0,0.0,0.0,0.026346512,0.0,0.0,nan,0.0,0.0,0.0,0.0,0.0,0.0,0.0,0.0,0.16422448,0.0,0.0,0.0,0.0,0.0,0.0,0.0,0.0
28524000,28444000,0.61034805,0.0,0.6472823,0.14478824,0.0,0.38473254,0.0,0.0,0.0,0.0,0.0,0.0,0.0,0.025387257,0.0,0.0,nan,0.0,0.0,0.0,0.0,0.0,0.0,0.0,0.0,0.50333035,0.0,0.0,0.0,0.0,0.0,0.0,0.0,0.0
29028000,28948000,0.54998446,0.0,0.22508526,0.20585907,0.0,0.37808585,0.0,0.0,0.0,0.0,0.0,0.0,0.0,0.017780729,0.0,0.0,nan,0.0,0.0,0.0,0.0,0.0,0.0,0.0,0.0,0.8945191,0.0,0.0,0.0,0.0,0.0,0.0,0.0,0.0
29524000,29444000,0.5661225,0.0,0.10280974,0.2317959,0.0,0.32849246,0.0,0.0,0.0,0.0,0.0,0.0,0.0,0.011734298,0.0,0.0,nan,0.0,0.0,0.0,0.0,0.0,0.0,0.0,0.0,1.2611688,0.0,0.0,0.0,0.0,0.0,0.0,0.0,0.0
30028000,29948000,0.57421166,0.0,0.0059851115,0.25638548,0.0,0.26124313,0.0,0.0,0.0,0.0,0.0,0.0,0.0,0.006507662,0.0,0.0,nan,0.0,0.0,0.0,0.0,0.0,0.0,0.0,0.0,1.3377645,0.0,0.0,0.0,0.0,0.0,0.0,0.0,0.0
30524000,30444000,0.56589186,0.0,0.005429594,0.2756829,0.0,0.1822915,0.0,0.0,0.0,0.0,0.0,0.0,0.0,0.0021691134,0.0,0.0,nan,0.0,0.0,0.0,0.0,0.0,0.0,0.0,0.0,0.027336495,0.0,0.0,0.0,0.0,0.0,0.0,0.0,0.0
31028000,30948000,0.602637,0.0,0.0073364065,0.30134922,0.0,0.0785124,0.0,0.0,0.0,0.0,0.0,0.0,0.0,0.00045450393,0.0,0.0,nan,0.0,0.0,0.0,0.0,0.0,0.0,0.0,0.0,16.643372,0.0,0.0,0.0,0.0,0.0,0.0,0.0,0.0
31532000,31452000,1.4506736,0.0,0.007629319,0.31058586,0.0,0.05180561,0.0,0.0,0.0,0.0,0.0,0.0,0.0,3.5161636e-05,0.0,0.0,nan,0.0,0.0,0.0,0.0,0.0,0.0,0.0,0.0,1.7728822,0.0,0.0,0.0,0.0,0.0,0.0,0.0,0.0
32028000,31948000,0.8567143,0.0,0.021341274,0.29895496,0.0,0.031444184,0.0,0.0,0.0,0.0,0.0,0.0,0.0,0.00028044597,0.0,0.0,nan,0.0,0.0,0.0,0.0,0.0,0.0,0.0,0.0,5.50853,0.0,0.0,0.0,0.0,0.0,0.0,0.0,0.0
32532000,32452000,0.23139922,0.0,0.024219956,0.27162436,0.0,0.017321961,0.0,0.0,0.0,0.0,0.0,0.0,0.0,0.00093960785,0.0,0.0,nan,0.0,0.0,0.0,0.0,0.0,0.0,0.0,0.0,5.2991657,0.0,0.0,0.0,0.0,0.0,0.0,0.0,0.0
33028000,32948000,0.16448076,0.0,0.040980265,0.20638089,0.0,0.0041587674,0.0,0.0,0.0,0.0,0.0,0.0,0.0,0.0015909079,0.0,0.0,nan,0.0,0.0,0.0,0.0,0.0,0.0,0.0,0.0,3.030426,0.0,0.0,0.0,0.0,0.0,0.0,0.0,0.0
33524000,33444000,0.48050448,0.0,0.03283214,0.17894202,0.0,0.0012584268,0.0,0.0,0.0,0.0,0.0,0.0,0.0,0.0022624575,0.0,0.0,nan,0.0,0.0,0.0,0.0,0.0,0.0,0.0,0.0,1.0227463,0.0,0.0,0.0,0.0,0.0,0.0,0.0,0.0
34028000,33948000,0.75938237,0.0,0.03341975,0.15699503,0.0,5.8289737e-05,0.0,0.0,0.0,0.0,0.0,0.0,0.0,0.0026741137,0.0,0.0,nan,0.0,0.0,0.0,0.0,0.0,0.0,0.0,0.0,0.2274894,0.0,0.0,0.0,0.0,0.0,0.0,0.0,0.0
34524000,34444000,0.95282567,0.0,0.03514578,0.14030273,0.0,0.00034265438,0.0,0.0,0.0,0.0,0.0,0.0,0.0,0.0031376812,0.0,0.0,nan,0.0,0.0,0.0,0.0,0.0,0.0,0.0,0.0,0.17374074,0.0,0.0,0.0,0.0,0.0,0.0,0.0,0.0
35028000,34948000,0.96224004,0.0,0.027438594,0.12641373,0.0,0.0024135755,0.0,0.0,0.0,0.0,0.0,0.0,0.0,0.0028421658,0.0,0.0,nan,0.0,0.0,0.0,0.0,0.0,0.0,0.0,0.0,0.13885966,0.0,0.0,0.0,0.0,0.0,0.0,0.0,0.0
35524000,35444000,0.90915257,0.0,0.022274723,0.11600847,0.0,0.003787409,0.0,0.0,0.0,0.0,0.0,0.0,0.0,0.0033742904,0.0,0.0,nan,0.0,0.0,0.0,0.0,0.0,0.0,0.0,0.0,0.10085066,0.0,0.0,0.0,0.0,0.0,0.0,0.0,0.0
36028000,35948000,0.83678967,0.0,0.017842676,0.106804796,0.0,0.0047122412,0.0,0.0,0.0,0.0,0.0,0.0,0.0,0.0024766095,0.0,0.0,nan,0.0,0.0,0.0,0.0,0.0,0.0,0.0,0.0,0.08376819,0.0,0.0,0.0,0.0,0.0,0.0,0.0,0.0
36524000,36444000,0.76597804,0.0,0.018371556,0.09790889,0.0,0.005490452,0.0,0.0,0.0,0.0,0.0,0.0,0.0,0.0026413905,0.0,0.0,nan,0.0,0.0,0.0,0.0,0.0,0.0,0.0,0.0,0.07141311,0.0,0.0,0.0,0.0,0.0,0.0,0.0,0.0
37028000,36948000,0.71970206,0.0,0.008417315,0.13503253,0.0,0.0050586397,0.0,0.0,0.0,0.0,0.0,0.0,0.0,0.0017746808,0.0,0.0,nan,0.0,0.0,0.0,0.0,0.0,0.0,0.0,0.0,0.07942955,0.0,0.0,0.0,0.0,0.0,0.0,0.0,0.0
37524000,37444000,0.7306129,0.0,0.009011133,0.15164508,0.0,0.004501751,0.0,0.0,0.0,0.0,0.0,0.0,0.0,0.0017020479,0.0,0.0,nan,0.0,0.0,0.0,0.0,0.0,0.0,0.0,0.0,0.0910232,0.0,0.0,0.0,0.0,0.0,0.0,0.0,0.0
38028000,37948000,0.73165864,0.0,0.0057967515,0.16665378,0.0,0.0037457384,0.0,0.0,0.0,0.0,0.0,0.0,0.0,0.001194052,0.0,0.0,nan,0.0,0.0,0.0,0.0,0.0,0.0,0.0,0.0,0.08471652,0.0,0.0,0.0,0.0,0.0,0.0,0.0,0.0
38532000,38452000,0.7516943,0.0,0.0046791867,0.1815501,0.0,0.003215389,0.0,0.0,0.0,0.0,0.0,0.0,0.0,0.000762294,0.0,0.0,nan,0.0,0.0,0.0,0.0,0.0,0.0,0.0,0.0,0.0858939,0.0,0.0,0.0,0.0,0.0,0.0,0.0,0.0
39028000,38948000,0.7945972,0.0,0.0062888763,0.20807071,0.0,0.0020477017,0.0,0.0,0.0,0.0,0.0,0.0,0.0,0.00045994963,0.0,0.0,nan,0.0,0.0,0.0,0.0,0.0,0.0,0.0,0.0,0.10647306,0.0,0.0,0.0,0.0,0.0,0.0,0.0,0.0
39524000,39444000,0.8197454,0.0,0.0017591373,0.2378335,0.0,0.00152919,0.0,0.0,0.0,0.0,0.0,0.0,0.0,0.00053682836,0.0,0.0,nan,0.0,0.0,0.0,0.0,0.0,0.0,0.0,0.0,0.120554335,0.0,0.0,0.0,0.0,0.0,0.0,0.0,0.0
40028000,39948000,0.840283,0.0,0.0018579066,0.25199816,0.0,0.0011088365,0.0,0.0,0.0,0.0,0.0,0.0,0.0,0.0002792685,0.0,0.0,nan,0.0,0.0,0.0,0.0,0.0,0.0,0.0,0.0,0.09810675,0.0,0.0,0.0,0.0,0.0,0.0,0.0,0.0
40524000,40444000,0.84247535,0.0,0.00061469426,0.26364374,0.0,0.00078422227,0.0,0.0,0.0,0.0,0.0,0.0,0.0,0.00012396944,0.0,0.0,nan,0.0,0.0,0.0,0.0,0.0,0.0,0.0,0.0,0.103501536,0.0,0.0,0.0,0.0,0.0,0.0,0.0,0.0
41028000,40948000,0.8298617,0.0,0.0012971783,0.280842,0.0,0.00035885512,0.0,0.0,0.0,0.0,0.0,0.0,0.0,0.00019803531,0.0,0.0,nan,0.0,0.0,0.0,0.0,0.0,0.0,0.0,0.0,0.099968866,0.0,0.0,0.0,0.0,0.0,0.0,0.0,0.0
41524000,41444000,0.80750716,0.0,0.0001810845,0.28731546,0.0,0.00027374207,0.0,0.0,0.0,0.0,0.0,0.0,0.0,0.00020048922,0.0,0.0,nan,0.0,0.0,0.0,0.0,0.0,0.0,0.0,0.0,0.09888129,0.0,0.0,0.0,0.0,0.0,0.0,0.0,0.0
42028000,41948000,0.78941506,0.0,0.0005896619,0.29202372,0.0,0.00028145645,0.0,0.0,0.0,0.0,0.0,0.0,0.0,0.00013889544,0.0,0.0,nan,0.0,0.0,0.0,0.0,0.0,0.0,0.0,0.0,0.10580224,0.0,0.0,0.0,0.0,0.0,0.0,0.0,0.0
42524000,42444000,0.7677025,0.0,0.0005445182,0.29493997,0.0,0.00018583532,0.0,0.0,0.0,0.0,0.0,0.0,0.0,8.269752e-05,0.0,0.0,nan,0.0,0.0,0.0,0.0,0.0,0.0,0.0,0.0,0.1184496,0.0,0.0,0.0,0.0,0.0,0.0,0.0,0.0
43028000,42948000,0.7294449,0.0,0.0004921492,0.29730353,0.0,0.00015298388,0.0,0.0,0.0,0.0,0.0,0.0,0.0,4.3449796e-05,0.0,0.0,nan,0.0,0.0,0.0,0.0,0.0,0.0,0.0,0.0,0.095617644,0.0,0.0,0.0,0.0,0.0,0.0,0.0,0.0
43532000,43452000,0.6825461,0.0,0.0010517741,0.29562765,0.0,8.9943744e-05,0.0,0.0,0.0,0.0,0.0,0.0,0.0,3.7928246e-05,0.0,0.0,nan,0.0,0.0,0.0,0.0,0.0,0.0,0.0,0.0,0.09733506,0.0,0.0,0.0,0.0,0.0,0.0,0.0,0.0
44028000,43948000,0.6534429,0.0,0.00023908439,0.2928498,0.0,8.233733e-05,0.0,0.0,0.0,0.0,0.0,0.0,0.0,1.1475156e-05,0.0,0.0,nan,0.0,0.0,0.0,0.0,0.0,0.0,0.0,0.0,0.11151676,0.0,0.0,0.0,0.0,0.0,0.0,0.0,0.0
44532000,44452000,0.6128005,0.0,0.00071899325,0.2873186,0.0,8.570384e-05,0.0,0.0,0.0,0.0,0.0,0.0,0.0,5.8273795e-06,0.0,0.0,nan,0.0,0.0,0.0,0.0,0.0,0.0,0.0,0.0,0.10533149,0.0,0.0,0.0,0.0,0.0,0.0,0.0,0.0
45028000,44948000,0.5531815,0.0,0.00077948737,0.29587355,0.0,0.00010057043,0.0,0.0,0.0,0.0,0.0,0.0,0.0,9.4431845e-05,0.0,0.0,nan,0.0,0.0,0.0,0.0,0.0,0.0,0.0,0.0,0.09100014,0.0,0.0,0.0,0.0,0.0,0.0,0.0,0.0
45524000,45444000,0.5066938,0.0,0.0003877287,0.28551412,0.0,0.00011870163,0.0,0.0,0.0,0.0,0.0,0.0,0.0,3.815115e-05,0.0,0.0,nan,0.0,0.0,0.0,0.0,0.0,0.0,0.0,0.0,0.10086426,0.0,0.0,0.0,0.0,0.0,0.0,0.0,0.0
46028000,45948000,0.4674348,0.0,0.0010045803,0.273559,0.0,0.00011664736,0.0,0.0,0.0,0.0,0.0,0.0,0.0,2.8051372e-06,0.0,0.0,nan,0.0,0.0,0.0,0.0,0.0,0.0,0.0,0.0,0.07780532,0.0,0.0,0.0,0.0,0.0,0.0,0.0,0.0
46524000,46444000,0.4262758,0.0,0.00036906006,0.2624641,0.0,0.00016950142,0.0,0.0,0.0,0.0,0.0,0.0,0.0,1.198291e-05,0.0,0.0,nan,0.0,0.0,0.0,0.0,0.0,0.0,0.0,0.0,0.10065062,0.0,0.0,0.0,0.0,0.0,0.0,0.0,0.0
47028000,46948000,0.344125,0.0,0.00073234964,0.2335566,0.0,0.00017834641,0.0,0.0,0.0,0.0,0.0,0.0,0.0,2.7312944e-07,0.0,0.0,nan,0.0,0.0,0.0,0.0,0.0,0.0,0.0,0.0,0.09878201,0.0,0.0,0.0,0.0,0.0,0.0,0.0,0.0
47532000,47452000,0.29297248,0.0,0.0004246524,0.21861161,0.0,0.00026789957,0.0,0.0,0.0,0.0,0.0,0.0,0.0,6.219797e-05,0.0,0.0,nan,0.0,0.0,0.0,0.0,0.0,0.0,0.0,0.0,0.08575628,0.0,0.0,0.0,0.0,0.0,0.0,0.0,0.0
48028000,47948000,0.26195285,0.0,0.0013362416,0.20201175,0.0,0.0003102417,0.0,0.0,0.0,0.0,0.0,0.0,0.0,4.1417206e-05,0.0,0.0,nan,0.0,0.0,0.0,0.0,0.0,0.0,0.0,0.0,0.07006525,0.0,0.0,0.0,0.0,0.0,0.0,0.0,0.0
48524000,48444000,0.21382765,0.0,0.0003862435,0.18515582,0.0,0.00033176946,0.0,0.0,0.0,0.0,0.0,0.0,0.0,4.0270155e-05,0.0,0.0,nan,0.0,0.0,0.0,0.0,0.0,0.0,0.0,0.0,0.088890456,0.0,0.0,0.0,0.0,0.0,0.0,0.0,0.0
49028000,48948000,0.2077643,0.0,0.000951137,0.15232988,0.0,0.00034807075,0.0,0.0,0.0,0.0,0.0,0.0,0.0,5.2157797e-05,0.0,0.0,nan,0.0,0.0,0.0,0.0,0.0,0.0,0.0,0.0,0.07770545,0.0,0.0,0.0,0.0,0.0,0.0,0.0,0.0
49524000,49444000,0.2158764,0.0,0.00076822314,0.13706163,0.0,0.00048122962,0.0,0.0,0.0,0.0,0.0,0.0,0.0,8.350705e-05,0.0,0.0,nan,0.0,0.0,0.0,0.0,0.0,0.0,0.0,0.0,0.062762536,0.0,0.0,0.0,0.0,0.0,0.0,0.0,0.0
50028000,49948000,0.22639263,0.0,0.0010618698,0.13292463,0.0,0.00059953425,0.0,0.0,0.0,0.0,0.0,0.0,0.0,5.974256e-05,0.0,0.0,nan,0.0,0.0,0.0,0.0,0.0,0.0,0.0,0.0,0.041281376,0.0,0.0,0.0,0.0,0.0,0.0,0.0,0.0
50524000,50444000,0.17661849,0.0,0.00847083,0.11698118,0.0,0.0007867221,0.0,0.0,0.0,0.0,0.0,0.0,0.0,7.380059e-05,0.0,0.0,nan,0.0,0.0,0.0,0.0,0.0,0.0,0.0,0.0,0.0511008,0.0,0.0,0.0,0.0,0.0,0.0,0.0,0.0
51028000,50948000,0.19961847,0.0,0.1269012,0.09794446,0.0,0.007920493,0.0,0.0,0.0,0.0,0.0,0.0,0.0,0.0005307001,0.0,0.0,nan,0.0,0.0,0.0,0.0,0.0,0.0,0.0,0.0,0.0112818545,0.0,0.0,0.0,0.0,0.0,0.0,0.0,0.0
51524000,51444000,0.26898357,0.0,0.22134757,0.098334715,0.0,0.020089172,0.0,0.0,0.0,0.0,0.0,0.0,0.0,0.0017454147,0.0,0.0,nan,0.0,0.0,0.0,0.0,0.0,0.0,0.0,0.0,0.075394705,0.0,0.0,0.0,0.0,0.0,0.0,0.0,0.0
52028000,51948000,0.2749857,0.0,0.29186067,0.104098536,0.0,0.03961128,0.0,0.0,0.0,0.0,0.0,0.0,0.0,0.0031092176,0.0,0.0,nan,0.0,0.0,0.0,0.0,0.0,0.0,0.0,0.0,0.29986283,0.0,0.0,0.0,0.0,0.0,0.0,0.0,0.0
52524000,52444000,0.21966578,0.0,0.3594115,0.11032656,0.0,0.06496536,0.0,0.0,0.0,0.0,0.0,0.0,0.0,0.0048872414,0.0,0.0,nan,0.0,0.0,0.0,0.0,0.0,0.0,0.0,0.0,0.49498764,0.0,0.0,0.0,0.0,0.0,0.0,0.0,0.0
53028000,52948000,0.029944075,0.0,0.25379515,0.10807084,0.0,0.11146087,0.0,0.0,0.0,0.0,0.0,0.0,0.0,0.00689163,0.0,0.0,nan,0.0,0.0,0.0,0.0,0.0,0.0,0.0,0.0,0.3784919,0.0,0.0,0.0,0.0,0.0,0.0,0.0,0.0
53524000,53444000,0.061146814,0.0,0.15247473,0.09464616,0.0,0.11843585,0.0,0.0,0.0,0.0,0.0,0.0,0.0,0.0047437996,0.0,0.0,nan,0.0,0.0,0.0,0.0,0.0,0.0,0.0,0.0,0.10808981,0.0,0.0,0.0,0.0,0.0,0.0,0.0,0.0
54028000,53948000,0.07775338,0.0,0.04757995,0.074704126,0.0,0.107461005,0.0,0.0,0.0,0.0,0.0,0.0,0.0,0.0033371588,0.0,0.0,nan,0.0,0.0,0.0,0.0,0.0,0.0,0.0,0.0,0.031517707,0.0,0.0,0.0,0.0,0.0,0.0,0.0,0.0
54524000,54444000,0.1008381,0.0,7.334684e-05,0.050854053,0.0,0.08203388,0.0,0.0,0.0,0.0,0.0,0.0,0.0,0.0012144785,0.0,0.0,nan,0.0,0.0,0.0,0.0,0.0,0.0,0.0,0.0,0.32598087,0.0,0.0,0.0,0.0,0.0,0.0,0.0,0.0
55028000,54948000,0.26830915,0.0,0.19540143,0.011635366,0.0,0.015325538,0.0,0.0,0.0,0.0,0.0,0.0,0.0,4.0439318e-05,0.0,0.0,nan,0.0,0.0,0.0,0.0,0.0,0.0,0.0,0.0,0.98745143,0.0,0.0,0.0,0.0,0.0,0.0,0.0,0.0
55532000,55452000,0.3388729,0.0,0.43095687,0.0015147774,0.0,0.00034411985,0.0,0.0,0.0,0.0,0.0,0.0,0.0,0.0018890025,0.0,0.0,nan,0.0,0.0,0.0,0.0,0.0,0.0,0.0,0.0,0.37096003,0.0,0.0,0.0,0.0,0.0,0.0,0.0,0.0
56028000,55948000,0.48799402,0.0,0.7026983,0.0013819918,0.0,0.010589109,0.0,0.0,0.0,0.0,0.0,0.0,0.0,0.0065351143,0.0,0.0,nan,0.0,0.0,0.0,0.0,0.0,0.0,0.0,0.0,0.24407876,0.0,0.0,0.0,0.0,0.0,0.0,0.0,0.0
56524000,56444000,0.6368532,0.0,1.0903211,0.014643149,0.0,0.052971516,0.0,0.0,0.0,0.0,0.0,0.0,0.0,0.01499173,0.0,0.0,nan,0.0,0.0,0.0,0.0,0.0,0.0,0.0,0.0,10.739119,0.0,0.0,0.0,0.0,0.0,0.0,0.0,0.0
57028000,56948000,1.3557503,0.0,1.2851323,0.052716557,0.0,0.22475302,0.0,0.0,0.0,0.0,0.0,0.0,0.0,0.024000825,0.0,0.0,nan,0.0,0.0,0.0,0.0,0.0,0.0,0.0,0.0,0.6889673,0.0,0.0,0.0,0.0,0.0,0.0,0.0,0.0
57524000,57444000,1.4580927,0.0,1.2868164,0.06578018,0.0,0.34790406,0.0,0.0,0.0,0.0,0.0,0.0,0.0,0.030059032,0.0,0.0,nan,0.0,0.0,0.0,0.0,0.0,0.0,0.0,0.0,0.12379855,0.0,0.0,0.0,0.0,0.0,0.0,0.0,0.0
58028000,57948000,1.4907981,0.0,1.1910744,0.11281047,0.0,0.49603567,0.0,0.0,0.0,0.0,0.0,0.0,0.0,0.038231403,0.0,0.0,nan,0.0,0.0,0.0,0.0,0.0,0.0,0.0,0.0,0.026779205,0.0,0.0,0.0,0.0,0.0,0.0,0.0,0.0
58532000,58452000,1.4163712,0.0,1.0306103,0.16658227,0.0,0.6301443,0.0,0.0,0.0,0.0,0.0,0.0,0.0,0.048473362,0.0,0.0,nan,0.0,0.0,0.0,0.0,0.0,0.0,0.0,0.0,0.20431574,0.0,0.0,0.0,0.0,0.0,0.0,0.0,0.0
59028000,58948000,1.041646,0.0,0.5172742,0.2669634,0.0,0.79257065,0.0,0.0,0.0,0.0,0.0,0.0,0.0,0.049649857,0.0,0.0,nan,0.0,0.0,0.0,0.0,0.0,0.0,0.0,0.0,0.50585926,0.0,0.0,0.0,0.0,0.0,0.0,0.0,0.0
59532000,59452000,0.7991716,0.0,0.2779941,0.29759002,0.0,0.7915434,0.0,0.0,0.0,0.0,0.0,0.0,0.0,0.03305815,0.0,0.0,nan,0.0,0.0,0.0,0.0,0.0,0.0,0.0,0.0,0.74366766,0.0,0.0,0.0,0.0,0.0,0.0,0.0,0.0
60028000,59948000,0.5410238,0.0,0.11108422,0.31286755,0.0,0.7336256,0.0,0.0,0.0,0.0,0.0,0.0,0.0,0.025605755,0.0,0.0,nan,0.0,0.0,0.0,0.0,0.0,0.0,0.0,0.0,0.92439914,0.0,0.0,0.0,0.0,0.0,0.0,0.0,0.0
60524000,60444000,0.41604322,0.0,0.028359976,0.33562034,0.0,0.62821317,0.0,0.0,0.0,0.0,0.0,0.0,0.0,0.016569983,0.0,0.0,nan,0.0,0.0,0.0,0.0,0.0,0.0,0.0,0.0,0.1115089,0.0,0.0,0.0,0.0,0.0,0.0,0.0,0.0
61028000,60948000,0.38157347,0.0,0.006254471,0.3103737,0.0,0.4360188,0.0,0.0,0.0,0.0,0.0,0.0,0.0,0.010844172,0.0,0.0,nan,0.0,0.0,0.0,0.0,0.0,0.0,0.0,0.0,0.11313261,0.0,0.0,0.0,0.0,0.0,0.0,0.0,0.0
61524000,61444000,0.35921684,0.0,0.001276375,0.29498744,0.0,0.35228652,0.0,0.0,0.0,0.0,0.0,0.0,0.0,0.003441122,0.0,0.0,nan,0.0,0.0,0.0,0.0,0.0,0.0,0.0,0.0,0.18126895,0.0,0.0,0.0,0.0,0.0,0.0,0.0,0.0
62028000,61948000,0.3412019,0.0,8.813199e-06,0.27861643,0.0,0.2768109,0.0,0.0,0.0,0.0,0.0,0.0,0.0,0.0013209508,0.0,0.0,nan,0.0,0.0,0.0,0.0,0.0,0.0,0.0,0.0,0.06563462,0.0,0.0,0.0,0.0,0.0,0.0,0.0,0.0
62532000,62452000,0.31436014,0.0,0.0036861051,0.2608848,0.0,0.20820564,0.0,0.0,0.0,0.0,0.0,0.0,0.0,0.0001963901,0.0,0.0,nan,0.0,0.0,0.0,0.0,0.0,0.0,0.0,0.0,0.44075045,0.0,0.0,0.0,0.0,0.0,0.0,0.0,0.0
63028000,62948000,0.09011957,0.0,0.01756122,0.21007381,0.0,0.10238609,0.0,0.0,0.0,0.0,0.0,0.0,0.0,0.0005086187,0.0,0.0,nan,0.0,0.0,0.0,0.0,0.0,0.0,0.0,0.0,0.3071382,0.0,0.0,0.0,0.0,0.0,0.0,0.0,0.0
63532000,63452000,0.2709515,0.0,0.033687815,0.21358731,0.0,0.0665414,0.0,0.0,0.0,0.0,0.0,0.0,0.0,0.0011494359,0.0,0.0,nan,0.0,0.0,0.0,0.0,0.0,0.0,0.0,0.0,0.08766131,0.0,0.0,0.0,0.0,0.0,0.0,0.0,0.0
64028000,63948000,0.2516665,0.0,0.04640447,0.22096267,0.0,0.039154157,0.0,0.0,0.0,0.0,0.0,0.0,0.0,0.0028710887,0.0,0.0,nan,0.0,0.0,0.0,0.0,0.0,0.0,0.0,0.0,0.0862122,0.0,0.0,0.0,0.0,0.0,0.0,0.0,0.0
64524000,64444000,0.23551275,0.0,0.050055347,0.22743818,0.0,0.022057476,0.0,0.0,0.0,0.0,0.0,0.0,0.0,0.0041099014,0.0,0.0,nan,0.0,0.0,0.0,0.0,0.0,0.0,0.0,0.0,0.06527993,0.0,0.0,0.0,0.0,0.0,0.0,0.0,0.0
65028000,64948000,0.20080549,0.0,0.055808652,0.23744181,0.0,0.0041485257,0.0,0.0,0.0,0.0,0.0,0.0,0.0,0.006286804,0.0,0.0,nan,0.0,0.0,0.0,0.0,0.0,0.0,0.0,0.0,0.06680722,0.0,0.0,0.0,0.0,0.0,0.0,0.0,0.0
65524000,65444000,0.18295881,0.0,0.07250915,0.24102241,0.0,0.0009328305,0.0,0.0,0.0,0.0,0.0,0.0,0.0,0.006713037,0.0,0.0,nan,0.0,0.0,0.0,0.0,0.0,0.0,0.0,0.0,0.05799835,0.0,0.0,0.0,0.0,0.0,0.0,0.0,0.0
66028000,65948000,0.17771706,0.0,0.06684796,0.2431319,0.0,5.500006e-06,0.0,0.0,0.0,0.0,0.0,0.0,0.0,0.00715945,0.0,0.0,nan,0.0,0.0,0.0,0.0,0.0,0.0,0.0,0.0,0.060496606,0.0,0.0,0.0,0.0,0.0,0.0,0.0,0.0
66524000,66444000,0.16055353,0.0,0.07160873,0.24506478,0.0,0.00067812525,0.0,0.0,0.0,0.0,0.0,0.0,0.0,0.007007469,0.0,0.0,nan,0.0,0.0,0.0,0.0,0.0,0.0,0.0,0.0,0.050201673,0.0,0.0,0.0,0.0,0.0,0.0,0.0,0.0
67028000,66948000,0.13189828,0.0,0.06489534,0.24629639,0.0,0.0044699186,0.0,0.0,0.0,0.0,0.0,0.0,0.0,0.008107504,0.0,0.0,nan,0.0,0.0,0.0,0.0,0.0,0.0,0.0,0.0,0.027993739,0.0,0.0,0.0,0.0,0.0,0.0,0.0,0.0
67532000,67452000,0.116628684,0.0,0.062136292,0.24581884,0.0,0.0065060765,0.0,0.0,0.0,0.0,0.0,0.0,0.0,0.0069443034,0.0,0.0,nan,0.0,0.0,0.0,0.0,0.0,0.0,0.0,0.0,0.02514641,0.0,0.0,0.0,0.0,0.0,0.0,0.0,0.0
68028000,67948000,0.10619842,0.0,0.058895394,0.24444677,0.0,0.00923339,0.0,0.0,0.0,0.0,0.0,0.0,0.0,0.0068512973,0.0,0.0,nan,0.0,0.0,0.0,0.0,0.0,0.0,0.0,0.0,0.028023513,0.0,0.0,0.0,0.0,0.0,0.0,0.0,0.0
68524000,68444000,0.09637274,0.0,0.045924928,0.24248672,0.0,0.011556889,0.0,0.0,0.0,0.0,0.0,0.0,0.0,0.007413502,0.0,0.0,nan,0.0,0.0,0.0,0.0,0.0,0.0,0.0,0.0,0.02424969,0.0,0.0,0.0,0.0,0.0,0.0,0.0,0.0
69028000,68948000,0.078965835,0.0,0.03717184,0.23717724,0.0,0.0131841395,0.0,0.0,0.0,0.0,0.0,0.0,0.0,0.0053309426,0.0,0.0,nan,0.0,0.0,0.0,0.0,0.0,0.0,0.0,0.0,0.017040212,0.0,0.0,0.0,0.0,0.0,0.0,0.0,0.0
69524000,69444000,0.07533723,0.0,0.03836115,0.23369417,0.0,0.013667216,0.0,0.0,0.0,0.0,0.0,0.0,0.0,0.0048607117,0.0,0.0,nan,0.0,0.0,0.0,0.0,0.0,0.0,0.0,0.0,0.016556256,0.0,0.0,0.0,0.0,0.0,0.0,0.0,0.0
70028000,69948000,0.06769005,0.0,0.025349265,0.22986944,0.0,0.01289153,0.0,0.0,0.0,0.0,0.0,0.0,0.0,0.0040631406,0.0,0.0,nan,0.0,0.0,0.0,0.0,0.0,0.0,0.0,0.0,0.0039658085,0.0,0.0,0.0,0.0,0.0,0.0,0.0,0.0
70524000,70444000,0.058354735,0.0,0.020720338,0.22570597,0.0,0.011591899,0.0,0.0,0.0,0.0,0.0,0.0,0.0,0.00255513,0.0,0.0,nan,0.0,0.0,0.0,0.0,0.0,0.0,0.0,0.0,0.004549682,0.0,0.0,0.0,0.0,0.0,0.0,0.0,0.0
71028000,70948000,0.048650358,0.0,0.010561046,0.21423791,0.0,0.009400387,0.0,0.0,0.0,0.0,0.0,0.0,0.0,0.0024229065,0.0,0.0,nan,0.0,0.0,0.0,0.0,0.0,0.0,0.0,0.0,0.0022419863,0.0,0.0,0.0,0.0,0.0,0.0,0.0,0.0
71524000,71444000,0.046002682,0.0,0.0072553074,0.20898494,0.0,0.0073381984,0.0,0.0,0.0,0.0,0.0,0.0,0.0,0.0015393263,0.0,0.0,nan,0.0,0.0,0.0,0.0,0.0,0.0,0.0,0.0,0.0041244663,0.0,0.0,0.0,0.0,0.0,0.0,0.0,0.0
72028000,71948000,0.038185246,0.0,0.005574557,0.20333153,0.0,0.0060469136,0.0,0.0,0.0,0.0,0.0,0.0,0.0,0.00091420417,0.0,0.0,nan,0.0,0.0,0.0,0.0,0.0,0.0,0.0,0.0,0.003563336,0.0,0.0,0.0,0.0,0.0,0.0,0.0,0.0
72524000,72444000,0.029864086,0.0,0.0036542157,0.19741951,0.0,0.0044867997,0.0,0.0,0.0,0.0,0.0,0.0,0.0,0.0014412223,0.0,0.0,nan,0.0,0.0,0.0,0.0,0.0,0.0,0.0,0.0,0.0020931957,0.0,0.0,0.0,0.0,0.0,0.0,0.0,0.0
73028000,72948000,0.02000339,0.0,0.0005842358,0.18507856,0.0,0.002362492,0.0,0.0,0.0,0.0,0.0,0.0,0.0,0.00052287866,0.0,0.0,nan,0.0,0.0,0.0,0.0,0.0,0.0,0.0,0.0,0.002833855,0.0,0.0,0.0,0.0,0.0,0.0,0.0,0.0
73532000,73452000,0.015768224,0.0,6.1000388e-05,0.17875475,0.0,0.0014967369,0.0,0.0,0.0,0.0,0.0,0.0,0.0,0.00024647062,0.0,0.0,nan,0.0,0.0,0.0,0.0,0.0,0.0,0.0,0.0,0.001725348,0.0,0.0,0.0,0.0,0.0,0.0,0.0,0.0
74028000,73948000,0.01356237,0.0,0.000100150115,0.17236532,0.0,0.00102854,0.0,0.0,0.0,0.0,0.0,0.0,0.0,0.00030501626,0.0,0.0,nan,0.0,0.0,0.0,0.0,0.0,0.0,0.0,0.0,0.001074157,0.0,0.0,0.0,0.0,0.0,0.0,0.0,0.0
74532000,74452000,0.010606794,0.0,1.8522436e-05,0.16596422,0.0,0.0004835416,0.0,0.0,0.0,0.0,0.0,0.0,0.0,0.00013287597,0.0,0.0,nan,0.0,0.0,0.0,0.0,0.0,0.0,0.0,0.0,0.0030525052,0.0,0.0,0.0,0.0,0.0,0.0,0.0,0.0
75028000,74948000,0.00840028,0.0,2.0268077e-05,0.15325253,0.0,6.139143e-05,0.0,0.0,0.0,0.0,0.0,0.0,0.0,6.634446e-05,0.0,0.0,nan,0.0,0.0,0.0,0.0,0.0,0.0,0.0,0.0,0.0017560729,0.0,0.0,0.0,0.0,0.0,0.0,0.0,0.0
75532000,75452000,0.0066669523,0.0,0.00051851897,0.14702696,0.0,1.3691123e-07,0.0,0.0,0.0,0.0,0.0,0.0,0.0,2.0191153e-05,0.0,0.0,nan,0.0,0.0,0.0,0.0,0.0,0.0,0.0,0.0,0.0044130282,0.0,0.0,0.0,0.0,0.0,0.0,0.0,0.0
76028000,75948000,0.006546524,0.0,0.000531291,0.13680731,0.0,5.3024036e-05,0.0,0.0,0.0,0.0,0.0,0.0,0.0,6.1637635e-05,0.0,0.0,nan,0.0,0.0,0.0,0.0,0.0,0.0,0.0,0.0,0.0026036904,0.0,0.0,0.0,0.0,0.0,0.0,0.0,0.0
76524000,76444000,0.004971124,0.0,0.0012529321,0.13028716,0.0,0.00016608549,0.0,0.0,0.0,0.0,0.0,0.0,0.0,2.5994117e-07,0.0,0.0,nan,0.0,0.0,0.0,0.0,0.0,0.0,0.0,0.0,0.002002377,0.0,0.0,0.0,0.0,0.0,0.0,0.0,0.0
77028000,76948000,0.0030223362,0.0,0.0014797741,0.11844659,0.0,0.00046668525,0.0,0.0,0.0,0.0,0.0,0.0,0.0,9.974676e-06,0.0,0.0,nan,0.0,0.0,0.0,0.0,0.0,0.0,0.0,0.0,0.00671198,0.0,0.0,0.0,0.0,0.0,0.0,0.0,0.0
77524000,77444000,0.00227924,0.0,0.00196032,0.112556465,0.0,0.0006200333,0.0,0.0,0.0,0.0,0.0,0.0,0.0,9.4367715e-06,0.0,0.0,nan,0.0,0.0,0.0,0.0,0.0,0.0,0.0,0.0,0.0042892057,0.0,0.0,0.0,0.0,0.0,0.0,0.0,0.0
78028000,77948000,0.0018476484,0.0,0.0009897221,0.106487855,0.0,0.0007280335,0.0,0.0,0.0,0.0,0.0,0.0,0.0,6.3196944e-06,0.0,0.0,nan,0.0,0.0,0.0,0.0,0.0,0.0,0.0,0.0,0.004155289,0.0,0.0,0.0,0.0,0.0,0.0,0.0,0.0
78524000,78444000,0.0031450654,0.0,0.0012702204,0.10087816,0.0,0.00090308656,0.0,0.0,0.0,0.0,0.0,0.0,0.0,6.3079974e-06,0.0,0.0,nan,0.0,0.0,0.0,0.0,0.0,0.0,0.0,0.0,0.004323989,0.0,0.0,0.0,0.0,0.0,0.0,0.0,0.0
79028000,78948000,0.005871034,0.0,0.0012439961,0.09075019,0.0,0.0011002092,0.0,0.0,0.0,0.0,0.0,0.0,0.0,2.1002099e-05,0.0,0.0,nan,0.0,0.0,0.0,0.0,0.0,0.0,0.0,0.0,0.0037515662,0.0,0.0,0.0,0.0,0.0,0.0,0.0,0.0
79524000,79444000,0.007829734,0.0,0.000272016,0.08565379,0.0,0.0012304777,0.0,0.0,0.0,0.0,0.0,0.0,0.0,1.72958e-05,0.0,0.0,nan,0.0,0.0,0.0,0.0,0.0,0.0,0.0,0.0,0.011240149,0.0,0.0,0.0,0.0,0.0,0.0,0.0,0.0
80028000,79948000,0.0105441185,0.0,0.0022106513,0.08070624,0.0,0.0011372913,0.0,0.0,0.0,0.0,0.0,0.0,0.0,1.817228e-06,0.0,0.0,nan,0.0,0.0,0.0,0.0,0.0,0.0,0.0,0.0,0.0073149744,0.0,0.0,0.0,0.0,0.0,0.0,0.0,0.0
80524000,80444000,0.015151203,0.0,0.00049642666,0.07654599,0.0,0.0009103205,0.0,0.0,0.0,0.0,0.0,0.0,0.0,7.6042714e-05,0.0,0.0,nan,0.0,0.0,0.0,0.0,0.0,0.0,0.0,0.0,1.2969731,0.0,0.0,0.0,0.0,0.0,0.0,0.0,0.0
81028000,80948000,0.14409085,0.0,0.11176895,0.06366999,0.0,0.0012246955,0.0,0.0,0.0,0.0,0.0,0.0,0.0,0.000343423,0.0,0.0,nan,0.0,0.0,0.0,0.0,0.0,0.0,0.0,0.0,0.79216015,0.0,0.0,0.0,0.0,0.0,0.0,0.0,0.0
81524000,81444000,0.24628219,0.0,0.19562583,0.049686346,0.0,0.008934856,0.0,0.0,0.0,0.0,0.0,0.0,0.0,0.0011403621,0.0,0.0,nan,0.0,0.0,0.0,0.0,0.0,0.0,0.0,0.0,1.6915708,0.0,0.0,0.0,0.0,0.0,0.0,0.0,0.0
82028000,81948000,0.45022792,0.0,0.23448607,0.034101248,0.0,0.023720672,0.0,0.0,0.0,0.0,0.0,0.0,0.0,0.0028220557,0.0,0.0,nan,0.0,0.0,0.0,0.0,0.0,0.0,0.0,0.0,10.208054,0.0,0.0,0.0,0.0,0.0,0.0,0.0,0.0
82532000,82452000,0.48024744,0.0,0.18911366,0.019339386,0.0,0.039454557,0.0,0.0,0.0,0.0,0.0,0.0,0.0,0.005515576,0.0,0.0,nan,0.0,0.0,0.0,0.0,0.0,0.0,0.0,0.0,0.019040875,0.0,0.0,0.0,0.0,0.0,0.0,0.0,0.0
83028000,82948000,0.11607376,0.0,2.2715654,0.010403884,0.0,0.23694153,0.0,0.0,0.0,0.0,0.0,0.0,0.0,0.014358417,0.0,0.0,nan,0.0,0.0,0.0,0.0,0.0,0.0,0.0,0.0,0.21807897,0.0,0.0,0.0,0.0,0.0,0.0,0.0,0.0
83524000,83444000,0.16482614,0.0,2.2273626,0.013447749,0.0,0.4161207,0.0,0.0,0.0,0.0,0.0,0.0,0.0,0.026381325,0.0,0.0,nan,0.0,0.0,0.0,0.0,0.0,0.0,0.0,0.0,0.5476621,0.0,0.0,0.0,0.0,0.0,0.0,0.0,0.0
84028000,83948000,0.25323996,0.0,2.245376,0.016756246,0.0,0.6053705,0.0,0.0,0.0,0.0,0.0,0.0,0.0,0.03897771,0.0,0.0,nan,0.0,0.0,0.0,0.0,0.0,0.0,0.0,0.0,0.9904491,0.0,0.0,0.0,0.0,0.0,0.0,0.0,0.0
84532000,84452000,0.32977036,0.0,1.6357869,0.02110135,0.0,0.80723095,0.0,0.0,0.0,0.0,0.0,0.0,0.0,0.05295023,0.0,0.0,nan,0.0,0.0,0.0,0.0,0.0,0.0,0.0,0.0,1.2956053,0.0,0.0,0.0,0.0,0.0,0.0,0.0,0.0
85028000,84948000,0.5511046,0.0,0.013781905,0.04315666,0.0,0.07306253,0.0,0.0,0.0,0.0,0.0,0.0,0.0,0.025137344,0.0,0.0,nan,0.0,0.0,0.0,0.0,0.0,0.0,0.0,0.0,1.4635406,0.0,0.0,0.0,0.0,0.0,0.0,0.0,0.0
85524000,85444000,0.69293475,0.0,0.053848285,0.06932293,0.0,0.10909782,0.0,0.0,0.0,0.0,0.0,0.0,0.0,0.025320044,0.0,0.0,nan,0.0,0.0,0.0,0.0,0.0,0.0,0.0,0.0,1.3816528,0.0,0.0,0.0,0.0,0.0,0.0,0.0,0.0
86028000,85948000,0.8141456,0.0,0.09739045,0.103534065,0.0,0.13714375,0.0,0.0,0.0,0.0,0.0,0.0,0.0,0.015474212,0.0,0.0,nan,0.0,0.0,0.0,0.0,0.0,0.0,0.0,0.0,1.0856799,0.0,0.0,0.0,0.0,0.0,0.0,0.0,0.0
86524000,86444000,0.89439803,0.0,0.12037948,0.14451632,0.0,0.1742144,0.0,0.0,0.0,0.0,0.0,0.0,0.0,0.00895096,0.0,0.0,nan,0.0,0.0,0.0,0.0,0.0,0.0,0.0,0.0,0.66575253,0.0,0.0,0.0,0.0,0.0,0.0,0.0,0.0
87028000,86948000,0.91433805,0.0,0.081952855,0.24227493,0.0,0.17881358,0.0,0.0,0.0,0.0,0.0,0.0,0.0,0.0052829077,0.0,0.0,nan,0.0,0.0,0.0,0.0,0.0,0.0,0.0,0.0,0.22517882,0.0,0.0,0.0,0.0,0.0,0.0,0.0,0.0
87524000,87444000,0.8346773,0.0,0.047541946,0.27594852,0.0,0.15077579,0.0,0.0,0.0,0.0,0.0,0.0,0.0,0.013633531,0.0,0.0,nan,0.0,0.0,0.0,0.0,0.0,0.0,0.0,0.0,0.021948675,0.0,0.0,0.0,0.0,0.0,0.0,0.0,0.0
88028000,87948000,0.7069396,0.0,0.021300454,0.29870576,0.0,0.12630883,0.0,0.0,0.0,0.0,0.0,0.0,0.0,0.01099941,0.0,0.0,nan,0.0,0.0,0.0,0.0,0.0,0.0,0.0,0.0,0.12307531,0.0,0.0,0.0,0.0,0.0,0.0,0.0,0.0
88524000,88444000,0.54089224,0.0,0.0049067084,0.30546418,0.0,0.101607345,0.0,0.0,0.0,0.0,0.0,0.0,0.0,0.0105235,0.0,0.0,nan,0.0,0.0,0.0,0.0,0.0,0.0,0.0,0.0,0.47279817,0.0,0.0,0.0,0.0,0.0,0.0,0.0,0.0
89028000,88948000,0.20833418,0.0,0.008277158,0.26726145,0.0,0.051044356,0.0,0.0,0.0,0.0,0.0,0.0,0.0,0.011797462,0.0,0.0,nan,0.0,0.0,0.0,0.0,0.0,0.0,0.0,0.0,0.77053475,0.0,0.0,0.0,0.0,0.0,0.0,0.0,0.0
89524000,89444000,0.08396659,0.0,0.025637815,0.22598842,0.0,0.034252413,0.0,0.0,0.0,0.0,0.0,0.0,0.0,0.020437943,0.0,0.0,nan,0.0,0.0,0.0,0.0,0.0,0.0,0.0,0.0,1.0606393,0.0,0.0,0.0,0.0,0.0,0.0,0.0,0.0
90028000,89948000,0.014229337,0.0,0.054072972,0.17709462,0.0,0.022159778,0.0,0.0,0.0,0.0,0.0,0.0,0.0,0.018261833,0.0,0.0,nan,0.0,0.0,0.0,0.0,0.0,0.0,0.0,0.0,1.2690779,0.0,0.0,0.0,0.0,0.0,0.0,0.0,0.0
90524000,90444000,0.016901227,0.0,0.0602942,0.12658839,0.0,0.010781291,0.0,0.0,0.0,0.0,0.0,0.0,0.0,0.015311329,0.0,0.0,nan,0.0,0.0,0.0,0.0,0.0,0.0,0.0,0.0,0.039328907,0.0,0.0,0.0,0.0,0.0,0.0,0.0,0.0
91028000,90948000,0.027785856,0.0,0.017397264,0.054923262,0.0,0.009961119,0.0,0.0,0.0,0.0,0.0,0.0,0.0,0.012625989,0.0,0.0,nan,0.0,0.0,0.0,0.0,0.0,0.0,0.0,0.0,0.04050262,0.0,0.0,0.0,0.0,0.0,0.0,0.0,0.0
91524000,91444000,0.03189382,0.0,0.0069003566,0.03997507,0.0,0.00977644,0.0,0.0,0.0,0.0,0.0,0.0,0.0,0.013774669,0.0,0.0,nan,0.0,0.0,0.0,0.0,0.0,0.0,0.0,0.0,0.051845733,0.0,0.0,0.0,0.0,0.0,0.0,0.0,0.0
92028000,91948000,0.036488622,0.0,0.0027559025,0.047134664,0.0,0.012204188,0.0,0.0,0.0,0.0,0.0,0.0,0.0,0.008566371,0.0,0.0,nan,0.0,0.0,0.0,0.0,0.0,0.0,0.0,0.0,0.055920675,0.0,0.0,0.0,0.0,0.0,0.0,0.0,0.0
92532000,92452000,0.040911473,0.0,0.0010223424,0.05362738,0.0,0.015474345,0.0,0.0,0.0,0.0,0.0,0.0,0.0,0.0069898535,0.0,0.0,nan,0.0,0.0,0.0,0.0,0.0,0.0,0.0,0.0,0.06504848,0.0,0.0,0.0,0.0,0.0,0.0,0.0,0.0
93028000,92948000,0.048711468,0.0,3.5863566e-06,0.06548118,0.0,0.0167803,0.0,0.0,0.0,0.0,0.0,0.0,0.0,0.0077929203,0.0,0.0,nan,0.0,0.0,0.0,0.0,0.0,0.0,0.0,0.0,0.063756555,0.0,0.0,0.0,0.0,0.0,0.0,0.0,0.0
93532000,93452000,0.049806688,0.0,0.00016096541,0.070791334,0.0,0.01815011,0.0,0.0,0.0,0.0,0.0,0.0,0.0,0.0067217187,0.0,0.0,nan,0.0,0.0,0.0,0.0,0.0,0.0,0.0,0.0,0.077680975,0.0,0.0,0.0,0.0,0.0,0.0,0.0,0.0
94028000,93948000,0.05347259,0.0,0.00025256697,0.07570493,0.0,0.01845928,0.0,0.0,0.0,0.0,0.0,0.0,0.0,0.004354083,0.0,0.0,nan,0.0,0.0,0.0,0.0,0.0,0.0,0.0,0.0,0.06001951,0.0,0.0,0.0,0.0,0.0,0.0,0.0,0.0
94524000,94444000,0.05662942,0.0,2.102321e-05,0.080340035,0.0,0.018825714,0.0,0.0,0.0,0.0,0.0,0.0,0.0,0.0033280514,0.0,0.0,nan,0.0,0.0,0.0,0.0,0.0,0.0,0.0,0.0,0.065135494,0.0,0.0,0.0,0.0,0.0,0.0,0.0,0.0
95028000,94948000,0.06292804,0.0,7.532991e-05,0.088178664,0.0,0.014429427,0.0,0.0,0.0,0.0,0.0,0.0,0.0,0.0042219553,0.0,0.0,nan,0.0,0.0,0.0,0.0,0.0,0.0,0.0,0.0,0.05729814,0.0,0.0,0.0,0.0,0.0,0.0,0.0,0.0
95524000,95444000,0.06783551,0.0,8.800882e-05,0.09165169,0.0,0.013628564,0.0,0.0,0.0,0.0,0.0,0.0,0.0,0.004078911,0.0,0.0,nan,0.0,0.0,0.0,0.0,0.0,0.0,0.0,0.0,0.054323662,0.0,0.0,0.0,0.0,0.0,0.0,0.0,0.0
96028000,95948000,0.074657716,0.0,7.623913e-05,0.095056854,0.0,0.0107059,0.0,0.0,0.0,0.0,0.0,0.0,0.0,0.0039048772,0.0,0.0,nan,0.0,0.0,0.0,0.0,0.0,0.0,0.0,0.0,0.05417664,0.0,0.0,0.0,0.0,0.0,0.0,0.0,0.0
96524000,96444000,0.08339999,0.0,0.0016372041,0.09814932,0.0,0.004628846,0.0,0.0,0.0,0.0,0.0,0.0,0.0,0.0053406153,0.0,0.0,nan,0.0,0.0,0.0,0.0,0.0,0.0,0.0,0.0,0.06176445,0.0,0.0,0.0,0.0,0.0,0.0,0.0,0.0
97028000,96948000,0.010104629,0.0,0.0003273875,0.27858853,0.0,0.004374552,0.0,0.0,0.0,0.0,0.0,0.0,0.0,0.0036959755,0.0,0.0,nan,0.0,0.0,0.0,0.0,0.0,0.0,0.0,0.0,0.015265538,0.0,0.0,0.0,0.0,0.0,0.0,0.0,0.0
97532000,97452000,0.0016149787,0.0,2.8036886e-05,0.27457973,0.0,0.005873036,0.0,0.0,0.0,0.0,0.0,0.0,0.0,0.0026485336,0.0,0.0,nan,0.0,0.0,0.0,0.0,0.0,0.0,0.0,0.0,0.0031041915,0.0,0.0,0.0,0.0,0.0,0.0,0.0,0.0
98028000,97948000,6.98171e-05,0.0,7.8752695e-05,0.27362168,0.0,0.0060803043,0.0,0.0,0.0,0.0,0.0,0.0,0.0,0.0016741046,0.0,0.0,nan,0.0,0.0,0.0,0.0,0.0,0.0,0.0,0.0,0.00036314648,0.0,0.0,0.0,0.0,0.0,0.0,0.0,0.0
98532000,98452000,8.75559e-05,0.0,0.00029150568,0.27325386,0.0,0.00652935,0.0,0.0,0.0,0.0,0.0,0.0,0.0,0.0016171769,0.0,0.0,nan,0.0,0.0,0.0,0.0,0.0,0.0,0.0,0.0,3.9698374e-05,0.0,0.0,0.0,0.0,0.0,0.0,0.0,0.0
99028000,98948000,1.0301389e-05,0.0,0.00029112445,0.27331957,0.0,0.0065888534,0.0,0.0,0.0,0.0,0.0,0.0,0.0,0.0016407019,0.0,0.0,nan,0.0,0.0,0.0,0.0,0.0,0.0,0.0,0.0,0.00049211323,0.0,0.0,0.0,0.0,0.0,0.0,0.0,0.0
99524000,99444000,0.0001446443,0.0,8.169626e-05,0.27340123,0.0,0.0062479847,0.0,0.0,0.0,0.0,0.0,0.0,0.0,0.00085895776,0.0,0.0,nan,0.0,0.0,0.0,0.0,0.0,0.0,0.0,0.0,7.877042e-05,0.0,0.0,0.0,0.0,0.0,0.0,0.0,0.0
