timestamp,timestamp_sample,gps_hvel[0],gps_hvel[1],gps_vvel,gps_hpos[0],gps_hpos[1],gps_vpos,ev_hvel[0],ev_hvel[1],ev_vvel,ev_hpos[0],ev_hpos[1],ev_vpos,rng_vpos,baro_vpos,aux_hvel[0],aux_hvel[1],aux_vvel,flow[0],flow[1],terr_flow[0],terr_flow[1],heading,mag_field[0],mag_field[1],mag_field[2],gravity[0],gravity[1],gravity[2],drag[0],drag[1],airspeed,beta,hagl,hagl_rate
3228000,3148000,0.0,0.0,0.0,0.0,0.0,0.0,0.0,0.0,0.0,0.0,0.0,0.0,0.0,0.0,0.0,0.0,nan,0.0,0.0,0.0,0.0,0.0,0.0,0.0,0.0,7.9396865e-05,0.0,0.0,0.0,0.0,0.0,0.0,0.0,0.0
3236000,3156000,0.0,0.0,0.0,0.0,0.0,0.0,0.0,0.0,0.0,0.0,0.0,0.0,0.0,0.0,0.0,0.0,nan,0.0,0.0,0.0,0.0,0.0,0.0,0.0,0.0,1.10546835e-05,0.0,0.0,0.0,0.0,0.0,0.0,0.0,0.0
3244000,3164000,0.0,0.0,0.0,0.0,0.0,0.0,0.0,0.0,0.0,0.0,0.0,0.0,0.0,0.0,0.0,0.0,nan,0.0,0.0,0.0,0.0,0.0,0.0,0.0,0.0,0.0001167213,0.0,0.0,0.0,0.0,0.0,0.0,0.0,0.0
3252000,3172000,0.0,0.0,0.0,0.0,0.0,0.0,0.0,0.0,0.0,0.0,0.0,0.0,0.0,0.0,0.0,0.0,nan,0.0,0.0,0.0,0.0,0.0,inf,0.0,0.0,0.0005599953,0.0,0.0,0.0,0.0,0.0,0.0,0.0,0.0
3260000,3180000,0.0,0.0,0.0,0.0,0.0,0.0,0.0,0.0,0.0,0.0,0.0,0.0,0.0,0.0,0.0,0.0,nan,0.0,0.0,0.0,0.0,0.0,inf,0.0,0.0,0.00033355338,0.0,0.0,0.0,0.0,0.0,0.0,0.0,0.0
3268000,3188000,0.0,0.0,0.0,0.0,0.0,0.0,0.0,0.0,0.0,0.0,0.0,0.0,0.0,0.0,0.0,0.0,nan,0.0,0.0,0.0,0.0,0.0,inf,0.0,0.0,0.0006650593,0.0,0.0,0.0,0.0,0.0,0.0,0.0,0.0
3276000,3196000,0.0,0.0,0.0,0.0,0.0,0.0,0.0,0.0,0.0,0.0,0.0,0.0,0.0,0.0,0.0,0.0,nan,0.0,0.0,0.0,0.0,0.0,inf,0.0,0.0,0.0006871775,0.0,0.0,0.0,0.0,0.0,0.0,0.0,0.0
3284000,3204000,0.0,0.0,0.0,0.0,0.0,0.0,0.0,0.0,0.0,0.0,0.0,0.0,0.0,0.0,0.0,0.0,nan,0.0,0.0,0.0,0.0,0.0,inf,0.0,0.0,0.00035247023,0.0,0.0,0.0,0.0,0.0,0.0,0.0,0.0
3292000,3212000,0.0,0.0,0.0,0.0,0.0,0.0,0.0,0.0,0.0,0.0,0.0,0.0,0.0,0.0,0.0,0.0,nan,0.0,0.0,0.0,0.0,0.0,inf,0.0,0.0,0.0009574841,0.0,0.0,0.0,0.0,0.0,0.0,0.0,0.0
3300000,3220000,0.0,0.0,0.0,0.0,0.0,0.0,0.0,0.0,0.0,0.0,0.0,0.0,0.0,0.0,0.0,0.0,nan,0.0,0.0,0.0,0.0,0.0,inf,0.0,0.0,0.0013702204,0.0,0.0,0.0,0.0,0.0,0.0,0.0,0.0
3308000,3228000,0.0,0.0,0.0,0.0,0.0,0.0,0.0,0.0,0.0,0.0,0.0,0.0,0.0,0.0,0.0,0.0,nan,0.0,0.0,0.0,0.0,0.0,inf,0.0,0.0,0.0014429516,0.0,0.0,0.0,0.0,0.0,0.0,0.0,0.0
3316000,3236000,0.0,0.0,0.0,0.0,0.0,0.0,0.0,0.0,0.0,0.0,0.0,0.0,0.0,0.0,0.0,0.0,nan,0.0,0.0,0.0,0.0,0.0,inf,0.0,0.0,0.0004991266,0.0,0.0,0.0,0.0,0.0,0.0,0.0,0.0
3324000,3244000,0.0,0.0,0.0,0.0,0.0,0.0,0.0,0.0,0.0,0.0,0.0,0.0,0.0,0.0,0.0,0.0,nan,0.0,0.0,0.0,0.0,0.0,inf,0.0,0.0,0.0008530673,0.0,0.0,0.0,0.0,0.0,0.0,0.0,0.0
3332000,3252000,0.0,0.0,0.0,0.0,0.0,0.0,0.0,0.0,0.0,0.0,0.0,0.0,0.0,0.0,0.0,0.0,nan,0.0,0.0,0.0,0.0,0.0,inf,0.0,0.0,6.167554e-05,0.0,0.0,0.0,0.0,0.0,0.0,0.0,0.0
3340000,3260000,0.0,0.0,0.0,0.0,0.0,0.0,0.0,0.0,0.0,0.0,0.0,0.0,0.0,0.0,0.0,0.0,nan,0.0,0.0,0.0,0.0,0.0,inf,0.0,0.0,0.00065421313,0.0,0.0,0.0,0.0,0.0,0.0,0.0,0.0
3348000,3268000,0.0,0.0,0.0,0.0,0.0,0.0,0.0,0.0,0.0,0.0,0.0,0.0,0.0,0.0,0.0,0.0,nan,0.0,0.0,0.0,0.0,0.0,inf,0.0,0.0,0.0012219313,0.0,0.0,0.0,0.0,0.0,0.0,0.0,0.0
3356000,3276000,0.0,0.0,0.0,0.0,0.0,0.0,0.0,0.0,0.0,0.0,0.0,0.0,0.0,0.0,0.0,0.0,nan,0.0,0.0,0.0,0.0,0.0,inf,0.0,0.0,0.00045523333,0.0,0.0,0.0,0.0,0.0,0.0,0.0,0.0
3364000,3284000,0.0,0.0,0.0,0.0,0.0,0.0,0.0,0.0,0.0,0.0,0.0,0.0,0.0,0.0,0.0,0.0,nan,0.0,0.0,0.0,0.0,0.0,inf,0.0,0.0,0.0011875618,0.0,0.0,0.0,0.0,0.0,0.0,0.0,0.0
3372000,3292000,0.0,0.0,0.0,0.0,0.0,0.0,0.0,0.0,0.0,0.0,0.0,0.0,0.0,0.0,0.0,0.0,nan,0.0,0.0,0.0,0.0,0.0,inf,0.0,0.0,0.0013278944,0.0,0.0,0.0,0.0,0.0,0.0,0.0,0.0
3380000,3300000,0.0,0.0,0.0,0.0,0.0,0.0,0.0,0.0,0.0,0.0,0.0,0.0,0.0,0.0,0.0,0.0,nan,0.0,0.0,0.0,0.0,0.0,inf,0.0,0.0,0.00042358178,0.0,0.0,0.0,0.0,0.0,0.0,0.0,0.0
3388000,3308000,0.0,0.0,0.0,0.0,0.0,0.0,0.0,0.0,0.0,0.0,0.0,0.0,0.0,0.0,0.0,0.0,nan,0.0,0.0,0.0,0.0,0.0,inf,0.0,0.0,0.00010492848,0.0,0.0,0.0,0.0,0.0,0.0,0.0,0.0
3396000,3316000,0.0,0.0,0.0,0.0,0.0,0.0,0.0,0.0,0.0,0.0,0.0,0.0,0.0,0.0,0.0,0.0,nan,0.0,0.0,0.0,0.0,0.0,inf,0.0,0.0,0.00019155623,0.0,0.0,0.0,0.0,0.0,0.0,0.0,0.0
3404000,3324000,0.0,0.0,0.0,0.0,0.0,0.0,0.0,0.0,0.0,0.0,0.0,0.0,0.0,0.0,0.0,0.0,nan,0.0,0.0,0.0,0.0,0.0,inf,0.0,0.0,0.00082565215,0.0,0.0,0.0,0.0,0.0,0.0,0.0,0.0
3412000,3332000,9.1814945e-06,0.0,0.00037203796,6.666123e-11,0.0,94.3544,0.0,0.0,0.0,0.0,0.0,0.0,0.0,0.0,0.0,0.0,nan,0.0,0.0,0.0,0.0,0.0,inf,0.0,0.0,0.00013720067,0.0,0.0,0.0,0.0,0.0,0.0,0.0,0.0
3420000,3340000,9.1814945e-06,0.0,0.00037203796,6.666123e-11,0.0,94.3544,0.0,0.0,0.0,0.0,0.0,0.0,0.0,0.0,0.0,0.0,nan,0.0,0.0,0.0,0.0,0.0,inf,0.0,0.0,0.0006316084,0.0,0.0,0.0,0.0,0.0,0.0,0.0,0.0
3428000,3348000,9.1814945e-06,0.0,0.00037203796,6.666123e-11,0.0,94.3544,0.0,0.0,0.0,0.0,0.0,0.0,0.0,0.0,0.0,0.0,nan,0.0,0.0,0.0,0.0,0.0,inf,0.0,0.0,0.00033933873,0.0,0.0,0.0,0.0,0.0,0.0,0.0,0.0
3436000,3356000,9.1814945e-06,0.0,0.00037203796,6.666123e-11,0.0,94.3544,0.0,0.0,0.0,0.0,0.0,0.0,0.0,0.0,0.0,0.0,nan,0.0,0.0,0.0,0.0,0.0,inf,0.0,0.0,0.00070844335,0.0,0.0,0.0,0.0,0.0,0.0,0.0,0.0
3444000,3364000,9.1814945e-06,0.0,0.00037203796,6.666123e-11,0.0,94.3544,0.0,0.0,0.0,0.0,0.0,0.0,0.0,0.0,0.0,0.0,nan,0.0,0.0,0.0,0.0,0.0,inf,0.0,0.0,0.00019660137,0.0,0.0,0.0,0.0,0.0,0.0,0.0,0.0
3452000,3372000,9.1814945e-06,0.0,0.00037203796,6.666123e-11,0.0,94.3544,0.0,0.0,0.0,0.0,0.0,0.0,0.0,0.0,0.0,0.0,nan,0.0,0.0,0.0,0.0,0.0,inf,0.0,0.0,0.001547977,0.0,0.0,0.0,0.0,0.0,0.0,0.0,0.0
3460000,3380000,9.1814945e-06,0.0,0.00037203796,6.666123e-11,0.0,94.3544,0.0,0.0,0.0,0.0,0.0,0.0,0.0,0.0,0.0,0.0,nan,0.0,0.0,0.0,0.0,0.0,inf,0.0,0.0,0.00022350998,0.0,0.0,0.0,0.0,0.0,0.0,0.0,0.0
3468000,3388000,9.1814945e-06,0.0,0.00037203796,6.666123e-11,0.0,94.3544,0.0,0.0,0.0,0.0,0.0,0.0,0.0,0.0,0.0,0.0,nan,0.0,0.0,0.0,0.0,0.00056792004,inf,0.0,0.0,0.0006132209,0.0,0.0,0.0,0.0,0.0,0.0,0.0,0.0
3476000,3396000,9.1814945e-06,0.0,0.00037203796,6.666123e-11,0.0,94.3544,0.0,0.0,0.0,0.0,0.0,0.0,0.0,0.0,0.0,0.0,nan,0.0,0.0,0.0,0.0,0.00056792004,inf,0.0,0.0,4.4952085e-05,0.0,0.0,0.0,0.0,0.0,0.0,0.0,0.0
3484000,3404000,9.1814945e-06,0.0,0.00037203796,6.666123e-11,0.0,94.3544,0.0,0.0,0.0,0.0,0.0,0.0,0.0,0.0,0.0,0.0,nan,0.0,0.0,0.0,0.0,0.00056792004,inf,0.0,0.0,2.5257455e-05,0.0,0.0,0.0,0.0,0.0,0.0,0.0,0.0
3492000,3412000,9.1814945e-06,0.0,0.00037203796,6.666123e-11,0.0,94.3544,0.0,0.0,0.0,0.0,0.0,0.0,0.0,0.0,0.0,0.0,nan,0.0,0.0,0.0,0.0,0.00056792004,inf,0.0,0.0,0.00040172474,0.0,0.0,0.0,0.0,0.0,0.0,0.0,0.0
3500000,3420000,9.1814945e-06,0.0,0.00037203796,6.666123e-11,0.0,94.3544,0.0,0.0,0.0,0.0,0.0,0.0,0.0,0.0,0.0,0.0,nan,0.0,0.0,0.0,0.0,0.00056792004,inf,0.0,0.0,0.00014871784,0.0,0.0,0.0,0.0,0.0,0.0,0.0,0.0
3508000,3428000,9.1814945e-06,0.0,0.00037203796,6.666123e-11,0.0,94.3544,0.0,0.0,0.0,0.0,0.0,0.0,0.0,0.0,0.0,0.0,nan,0.0,0.0,0.0,0.0,0.00056792004,inf,0.0,0.0,0.00011438596,0.0,0.0,0.0,0.0,0.0,0.0,0.0,0.0
3516000,3436000,9.1814945e-06,0.0,0.00037203796,6.666123e-11,0.0,94.3544,0.0,0.0,0.0,0.0,0.0,0.0,0.0,0.0,0.0,0.0,nan,0.0,0.0,0.0,0.0,0.00056792004,inf,0.0,0.0,0.00029165554,0.0,0.0,0.0,0.0,0.0,0.0,0.0,0.0
3524000,3444000,9.1814945e-06,0.0,0.00037203796,6.666123e-11,0.0,94.3544,0.0,0.0,0.0,0.0,0.0,0.0,0.0,0.0,0.0,0.0,nan,0.0,0.0,0.0,0.0,0.00056792004,inf,0.0,0.0,0.0004034925,0.0,0.0,0.0,0.0,0.0,0.0,0.0,0.0
3532000,3452000,9.1814945e-06,0.0,0.00037203796,6.666123e-11,0.0,94.3544,0.0,0.0,0.0,0.0,0.0,0.0,0.0,0.0,0.0,0.0,nan,0.0,0.0,0.0,0.0,0.00056792004,inf,0.0,0.0,7.1607115e-05,0.0,0.0,0.0,0.0,0.0,0.0,0.0,0.0
3540000,3460000,9.1814945e-06,0.0,0.00037203796,6.666123e-11,0.0,94.3544,0.0,0.0,0.0,0.0,0.0,0.0,0.0,0.0,0.0,0.0,nan,0.0,0.0,0.0,0.0,1.1595345e-05,inf,0.0,0.0,8.1440616e-05,0.0,0.0,0.0,0.0,0.0,0.0,0.0,0.0
3548000,3468000,9.1814945e-06,0.0,0.00037203796,6.666123e-11,0.0,94.3544,0.0,0.0,0.0,0.0,0.0,0.0,0.0,0.0,0.0,0.0,nan,0.0,0.0,0.0,0.0,1.1595345e-05,inf,0.0,0.0,0.0009651959,0.0,0.0,0.0,0.0,0.0,0.0,0.0,0.0
3556000,3476000,9.1814945e-06,0.0,0.00037203796,6.666123e-11,0.0,94.3544,0.0,0.0,0.0,0.0,0.0,0.0,0.0,0.0,0.0,0.0,nan,0.0,0.0,0.0,0.0,1.1595345e-05,inf,0.0,0.0,0.000561597,0.0,0.0,0.0,0.0,0.0,0.0,0.0,0.0
3564000,3484000,9.1814945e-06,0.0,0.00037203796,6.666123e-11,0.0,94.3544,0.0,0.0,0.0,0.0,0.0,0.0,0.0,0.0,0.0,0.0,nan,0.0,0.0,0.0,0.0,1.1595345e-05,inf,0.0,0.0,8.85255e-06,0.0,0.0,0.0,0.0,0.0,0.0,0.0,0.0
3572000,3492000,9.1814945e-06,0.0,0.00037203796,6.666123e-11,0.0,94.3544,0.0,0.0,0.0,0.0,0.0,0.0,0.0,0.0,0.0,0.0,nan,0.0,0.0,0.0,0.0,1.1595345e-05,inf,0.0,0.0,9.626556e-05,0.0,0.0,0.0,0.0,0.0,0.0,0.0,0.0
3580000,3500000,9.1814945e-06,0.0,0.00037203796,6.666123e-11,0.0,94.3544,0.0,0.0,0.0,0.0,0.0,0.0,0.0,0.0,0.0,0.0,nan,0.0,0.0,0.0,0.0,1.1595345e-05,inf,0.0,0.0,8.277217e-06,0.0,0.0,0.0,0.0,0.0,0.0,0.0,0.0
3588000,3508000,9.1814945e-06,0.0,0.00037203796,6.666123e-11,0.0,94.3544,0.0,0.0,0.0,0.0,0.0,0.0,0.0,0.0,0.0,0.0,nan,0.0,0.0,0.0,0.0,1.1595345e-05,inf,0.0,0.0,0.00017353577,0.0,0.0,0.0,0.0,0.0,0.0,0.0,0.0
3596000,3516000,9.1814945e-06,0.0,0.00037203796,6.666123e-11,0.0,94.3544,0.0,0.0,0.0,0.0,0.0,0.0,0.0,0.0,0.0,0.0,nan,0.0,0.0,0.0,0.0,1.1595345e-05,inf,0.0,0.0,0.00033713694,0.0,0.0,0.0,0.0,0.0,0.0,0.0,0.0
3604000,3524000,9.1814945e-06,0.0,0.00037203796,6.666123e-11,0.0,94.3544,0.0,0.0,0.0,0.0,0.0,0.0,0.0,0.0,0.0,0.0,nan,0.0,0.0,0.0,0.0,1.1595345e-05,inf,0.0,0.0,0.00022837192,0.0,0.0,0.0,0.0,0.0,0.0,0.0,0.0
3612000,3532000,9.1814945e-06,0.0,0.00037203796,6.666123e-11,0.0,94.3544,0.0,0.0,0.0,0.0,0.0,0.0,0.0,0.0,0.0,0.0,nan,0.0,0.0,0.0,0.0,0.00013041464,inf,0.0,0.0,0.00062962127,0.0,0.0,0.0,0.0,0.0,0.0,0.0,0.0
3620000,3540000,9.1814945e-06,0.0,0.00037203796,6.666123e-11,0.0,94.3544,0.0,0.0,0.0,0.0,0.0,0.0,0.0,0.0,0.0,0.0,nan,0.0,0.0,0.0,0.0,0.00013041464,inf,0.0,0.0,6.880009e-05,0.0,0.0,0.0,0.0,0.0,0.0,0.0,0.0
3628000,3548000,9.1814945e-06,0.0,0.00037203796,6.666123e-11,0.0,94.3544,0.0,0.0,0.0,0.0,0.0,0.0,0.0,0.0,0.0,0.0,nan,0.0,0.0,0.0,0.0,0.00013041464,inf,0.0,0.0,0.00028274066,0.0,0.0,0.0,0.0,0.0,0.0,0.0,0.0
3636000,3556000,9.1814945e-06,0.0,0.00037203796,6.666123e-11,0.0,94.3544,0.0,0.0,0.0,0.0,0.0,0.0,0.0,0.0,0.0,0.0,nan,0.0,0.0,0.0,0.0,0.00013041464,inf,0.0,0.0,0.00022743938,0.0,0.0,0.0,0.0,0.0,0.0,0.0,0.0
3644000,3564000,9.1814945e-06,0.0,0.00037203796,6.666123e-11,0.0,94.3544,0.0,0.0,0.0,0.0,0.0,0.0,0.0,0.0,0.0,0.0,nan,0.0,0.0,0.0,0.0,0.00013041464,inf,0.0,0.0,0.00048219177,0.0,0.0,0.0,0.0,0.0,0.0,0.0,0.0
3652000,3572000,9.1814945e-06,0.0,0.00037203796,6.666123e-11,0.0,94.3544,0.0,0.0,0.0,0.0,0.0,0.0,0.0,0.0,0.0,0.0,nan,0.0,0.0,0.0,0.0,0.00013041464,inf,0.0,0.0,0.00038456797,0.0,0.0,0.0,0.0,0.0,0.0,0.0,0.0
3660000,3580000,9.1814945e-06,0.0,0.00037203796,6.666123e-11,0.0,94.3544,0.0,0.0,0.0,0.0,0.0,0.0,0.0,0.0,0.0,0.0,nan,0.0,0.0,0.0,0.0,0.00013041464,inf,0.0,0.0,0.00030738834,0.0,0.0,0.0,0.0,0.0,0.0,0.0,0.0
3668000,3588000,9.1814945e-06,0.0,0.00037203796,6.666123e-11,0.0,94.3544,0.0,0.0,0.0,0.0,0.0,0.0,0.0,0.0,0.0,0.0,nan,0.0,0.0,0.0,0.0,0.00013041464,inf,0.0,0.0,0.00015462362,0.0,0.0,0.0,0.0,0.0,0.0,0.0,0.0
3676000,3596000,9.1814945e-06,0.0,0.00037203796,6.666123e-11,0.0,94.3544,0.0,0.0,0.0,0.0,0.0,0.0,0.0,0.0,0.0,0.0,nan,0.0,0.0,0.0,0.0,0.00013041464,inf,0.0,0.0,0.00046308848,0.0,0.0,0.0,0.0,0.0,0.0,0.0,0.0
3684000,3604000,9.1814945e-06,0.0,0.00037203796,6.666123e-11,0.0,94.3544,0.0,0.0,0.0,0.0,0.0,0.0,0.0,0.0,0.0,0.0,nan,0.0,0.0,0.0,0.0,7.5039716e-05,inf,0.0,0.0,0.00034538272,0.0,0.0,0.0,0.0,0.0,0.0,0.0,0.0
3692000,3612000,9.1814945e-06,0.0,0.00037203796,6.666123e-11,0.0,94.3544,0.0,0.0,0.0,0.0,0.0,0.0,0.0,0.0,0.0,0.0,nan,0.0,0.0,0.0,0.0,7.5039716e-05,inf,0.0,0.0,2.324017e-05,0.0,0.0,0.0,0.0,0.0,0.0,0.0,0.0
3700000,3620000,9.1814945e-06,0.0,0.00037203796,6.666123e-11,0.0,94.3544,0.0,0.0,0.0,0.0,0.0,0.0,0.0,0.0,0.0,0.0,nan,0.0,0.0,0.0,0.0,7.5039716e-05,inf,0.0,0.0,0.0003305955,0.0,0.0,0.0,0.0,0.0,0.0,0.0,0.0
3708000,3628000,9.1814945e-06,0.0,0.00037203796,6.666123e-11,0.0,94.3544,0.0,0.0,0.0,0.0,0.0,0.0,0.0,0.0,0.0,0.0,nan,0.0,0.0,0.0,0.0,7.5039716e-05,inf,0.0,0.0,0.00043910698,0.0,0.0,0.0,0.0,0.0,0.0,0.0,0.0
3716000,3636000,9.1814945e-06,0.0,0.00037203796,6.666123e-11,0.0,94.3544,0.0,0.0,0.0,0.0,0.0,0.0,0.0,0.0,0.0,0.0,nan,0.0,0.0,0.0,0.0,7.5039716e-05,inf,0.0,0.0,7.866872e-05,0.0,0.0,0.0,0.0,0.0,0.0,0.0,0.0
3724000,3644000,9.1814945e-06,0.0,0.00037203796,6.666123e-11,0.0,94.3544,0.0,0.0,0.0,0.0,0.0,0.0,0.0,0.0,0.0,0.0,nan,0.0,0.0,0.0,0.0,7.5039716e-05,inf,0.0,0.0,0.00040081565,0.0,0.0,0.0,0.0,0.0,0.0,0.0,0.0
3732000,3652000,9.1814945e-06,0.0,0.00037203796,6.666123e-11,0.0,94.3544,0.0,0.0,0.0,0.0,0.0,0.0,0.0,0.0,0.0,0.0,nan,0.0,0.0,0.0,0.0,7.5039716e-05,inf,0.0,0.0,0.001070644,0.0,0.0,0.0,0.0,0.0,0.0,0.0,0.0
3740000,3660000,9.1814945e-06,0.0,0.00037203796,6.666123e-11,0.0,94.3544,0.0,0.0,0.0,0.0,0.0,0.0,0.0,0.0,0.0,0.0,nan,0.0,0.0,0.0,0.0,7.5039716e-05,inf,0.0,0.0,0.00012917139,0.0,0.0,0.0,0.0,0.0,0.0,0.0,0.0
3748000,3668000,9.1814945e-06,0.0,0.00037203796,6.666123e-11,0.0,94.3544,0.0,0.0,0.0,0.0,0.0,0.0,0.0,0.0,0.0,0.0,nan,0.0,0.0,0.0,0.0,7.5039716e-05,inf,0.0,0.0,0.0008397481,0.0,0.0,0.0,0.0,0.0,0.0,0.0,0.0
3756000,3676000,9.1814945e-06,0.0,0.00037203796,6.666123e-11,0.0,94.3544,0.0,0.0,0.0,0.0,0.0,0.0,0.0,0.0,0.0,0.0,nan,0.0,0.0,0.0,0.0,0.00040995682,inf,0.0,0.0,0.00025085607,0.0,0.0,0.0,0.0,0.0,0.0,0.0,0.0
3764000,3684000,9.1814945e-06,0.0,0.00037203796,6.666123e-11,0.0,94.3544,0.0,0.0,0.0,0.0,0.0,0.0,0.0,0.0,0.0,0.0,nan,0.0,0.0,0.0,0.0,0.00040995682,inf,0.0,0.0,0.00033167598,0.0,0.0,0.0,0.0,0.0,0.0,0.0,0.0
3772000,3692000,9.1814945e-06,0.0,0.00037203796,6.666123e-11,0.0,94.3544,0.0,0.0,0.0,0.0,0.0,0.0,0.0,0.0,0.0,0.0,nan,0.0,0.0,0.0,0.0,0.00040995682,inf,0.0,0.0,0.0005242762,0.0,0.0,0.0,0.0,0.0,0.0,0.0,0.0
3780000,3700000,9.1814945e-06,0.0,0.00037203796,6.666123e-11,0.0,94.3544,0.0,0.0,0.0,0.0,0.0,0.0,0.0,0.0,0.0,0.0,nan,0.0,0.0,0.0,0.0,0.00040995682,inf,0.0,0.0,0.0006168061,0.0,0.0,0.0,0.0,0.0,0.0,0.0,0.0
3788000,3708000,9.1814945e-06,0.0,0.00037203796,6.666123e-11,0.0,94.3544,0.0,0.0,0.0,0.0,0.0,0.0,0.0,0.0,0.0,0.0,nan,0.0,0.0,0.0,0.0,0.00040995682,inf,0.0,0.0,0.00012480679,0.0,0.0,0.0,0.0,0.0,0.0,0.0,0.0
3796000,3716000,9.1814945e-06,0.0,0.00037203796,6.666123e-11,0.0,94.3544,0.0,0.0,0.0,0.0,0.0,0.0,0.0,0.0,0.0,0.0,nan,0.0,0.0,0.0,0.0,0.00040995682,inf,0.0,0.0,0.00024010791,0.0,0.0,0.0,0.0,0.0,0.0,0.0,0.0
3804000,3724000,9.1814945e-06,0.0,0.00037203796,6.666123e-11,0.0,94.3544,0.0,0.0,0.0,0.0,0.0,0.0,0.0,0.0,0.0,0.0,nan,0.0,0.0,0.0,0.0,0.00040995682,inf,0.0,0.0,0.00049087213,0.0,0.0,0.0,0.0,0.0,0.0,0.0,0.0
3812000,3732000,3.3492454e-06,0.0,2.686063e-05,5.161561e-09,0.0,277.57437,0.0,0.0,0.0,0.0,0.0,0.0,0.0,0.0,0.0,0.0,nan,0.0,0.0,0.0,0.0,0.00040995682,inf,0.0,0.0,0.00082686107,0.0,0.0,0.0,0.0,0.0,0.0,0.0,0.0
3820000,3740000,3.3492454e-06,0.0,2.686063e-05,5.161561e-09,0.0,277.57437,0.0,0.0,0.0,0.0,0.0,0.0,0.0,0.0,0.0,0.0,nan,0.0,0.0,0.0,0.0,0.00040995682,inf,0.0,0.0,0.0010016275,0.0,0.0,0.0,0.0,0.0,0.0,0.0,0.0
3828000,3748000,3.3492454e-06,0.0,2.686063e-05,5.161561e-09,0.0,277.57437,0.0,0.0,0.0,0.0,0.0,0.0,0.0,0.0,0.0,0.0,nan,0.0,0.0,0.0,0.0,3.6897876e-05,inf,0.0,0.0,0.00032771524,0.0,0.0,0.0,0.0,0.0,0.0,0.0,0.0
3836000,3756000,3.3492454e-06,0.0,2.686063e-05,5.161561e-09,0.0,277.57437,0.0,0.0,0.0,0.0,0.0,0.0,0.0,0.0,0.0,0.0,nan,0.0,0.0,0.0,0.0,3.6897876e-05,inf,0.0,0.0,0.0002050906,0.0,0.0,0.0,0.0,0.0,0.0,0.0,0.0
3844000,3764000,3.3492454e-06,0.0,2.686063e-05,5.161561e-09,0.0,277.57437,0.0,0.0,0.0,0.0,0.0,0.0,0.0,0.0,0.0,0.0,nan,0.0,0.0,0.0,0.0,3.6897876e-05,inf,0.0,0.0,0.00014690083,0.0,0.0,0.0,0.0,0.0,0.0,0.0,0.0
3852000,3772000,3.3492454e-06,0.0,2.686063e-05,5.161561e-09,0.0,277.57437,0.0,0.0,0.0,0.0,0.0,0.0,0.0,0.0,0.0,0.0,nan,0.0,0.0,0.0,0.0,3.6897876e-05,inf,0.0,0.0,0.00040463306,0.0,0.0,0.0,0.0,0.0,0.0,0.0,0.0
3860000,3780000,3.3492454e-06,0.0,2.686063e-05,5.161561e-09,0.0,277.57437,0.0,0.0,0.0,0.0,0.0,0.0,0.0,0.0,0.0,0.0,nan,0.0,0.0,0.0,0.0,3.6897876e-05,inf,0.0,0.0,0.00032727924,0.0,0.0,0.0,0.0,0.0,0.0,0.0,0.0
3868000,3788000,3.3492454e-06,0.0,2.686063e-05,5.161561e-09,0.0,277.57437,0.0,0.0,0.0,0.0,0.0,0.0,0.0,0.0,0.0,0.0,nan,0.0,0.0,0.0,0.0,3.6897876e-05,inf,0.0,0.0,0.00043380726,0.0,0.0,0.0,0.0,0.0,0.0,0.0,0.0
3876000,3796000,3.3492454e-06,0.0,2.686063e-05,5.161561e-09,0.0,277.57437,0.0,0.0,0.0,0.0,0.0,0.0,0.0,0.0,0.0,0.0,nan,0.0,0.0,0.0,0.0,3.6897876e-05,inf,0.0,0.0,0.00026049043,0.0,0.0,0.0,0.0,0.0,0.0,0.0,0.0
3884000,3804000,3.3492454e-06,0.0,2.686063e-05,5.161561e-09,0.0,277.57437,0.0,0.0,0.0,0.0,0.0,0.0,0.0,0.0,0.0,0.0,nan,0.0,0.0,0.0,0.0,3.6897876e-05,inf,0.0,0.0,0.00024086321,0.0,0.0,0.0,0.0,0.0,0.0,0.0,0.0
3892000,3812000,3.3492454e-06,0.0,2.686063e-05,5.161561e-09,0.0,277.57437,0.0,0.0,0.0,0.0,0.0,0.0,0.0,0.0,0.0,0.0,nan,0.0,0.0,0.0,0.0,3.6897876e-05,inf,0.0,0.0,9.309008e-05,0.0,0.0,0.0,0.0,0.0,0.0,0.0,0.0
3900000,3820000,3.3492454e-06,0.0,2.686063e-05,5.161561e-09,0.0,277.57437,0.0,0.0,0.0,0.0,0.0,0.0,0.0,0.0,0.0,0.0,nan,0.0,0.0,0.0,0.0,0.000191129,inf,0.0,0.0,0.0005853062,0.0,0.0,0.0,0.0,0.0,0.0,0.0,0.0
3908000,3828000,3.3492454e-06,0.0,2.686063e-05,5.161561e-09,0.0,277.57437,0.0,0.0,0.0,0.0,0.0,0.0,0.0,0.0,0.0,0.0,nan,0.0,0.0,0.0,0.0,0.000191129,inf,0.0,0.0,0.00010815065,0.0,0.0,0.0,0.0,0.0,0.0,0.0,0.0
3916000,3836000,3.3492454e-06,0.0,2.686063e-05,5.161561e-09,0.0,277.57437,0.0,0.0,0.0,0.0,0.0,0.0,0.0,0.0,0.0,0.0,nan,0.0,0.0,0.0,0.0,0.000191129,inf,0.0,0.0,0.00046964423,0.0,0.0,0.0,0.0,0.0,0.0,0.0,0.0
3924000,3844000,3.3492454e-06,0.0,2.686063e-05,5.161561e-09,0.0,277.57437,0.0,0.0,0.0,0.0,0.0,0.0,0.0,0.0,0.0,0.0,nan,0.0,0.0,0.0,0.0,0.000191129,inf,0.0,0.0,0.0012735104,0.0,0.0,0.0,0.0,0.0,0.0,0.0,0.0
3932000,3852000,3.3492454e-06,0.0,2.686063e-05,5.161561e-09,0.0,277.57437,0.0,0.0,0.0,0.0,0.0,0.0,0.0,0.0,0.0,0.0,nan,0.0,0.0,0.0,0.0,0.000191129,inf,0.0,0.0,0.0023417773,0.0,0.0,0.0,0.0,0.0,0.0,0.0,0.0
3940000,3860000,3.3492454e-06,0.0,2.686063e-05,5.161561e-09,0.0,277.57437,0.0,0.0,0.0,0.0,0.0,0.0,0.0,0.0,0.0,0.0,nan,0.0,0.0,0.0,0.0,0.000191129,inf,0.0,0.0,0.0003192367,0.0,0.0,0.0,0.0,0.0,0.0,0.0,0.0
3948000,3868000,3.3492454e-06,0.0,2.686063e-05,5.161561e-09,0.0,277.57437,0.0,0.0,0.0,0.0,0.0,0.0,0.0,0.0,0.0,0.0,nan,0.0,0.0,0.0,0.0,0.000191129,inf,0.0,0.0,0.00015708285,0.0,0.0,0.0,0.0,0.0,0.0,0.0,0.0
3956000,3876000,3.3492454e-06,0.0,2.686063e-05,5.161561e-09,0.0,277.57437,0.0,0.0,0.0,0.0,0.0,0.0,0.0,0.0,0.0,0.0,nan,0.0,0.0,0.0,0.0,0.000191129,inf,0.0,0.0,0.00015955008,0.0,0.0,0.0,0.0,0.0,0.0,0.0,0.0
3964000,3884000,3.3492454e-06,0.0,2.686063e-05,5.161561e-09,0.0,277.57437,0.0,0.0,0.0,0.0,0.0,0.0,0.0,0.0,0.0,0.0,nan,0.0,0.0,0.0,0.0,0.000191129,inf,0.0,0.0,0.0025899867,0.0,0.0,0.0,0.0,0.0,0.0,0.0,0.0
3972000,3892000,3.3492454e-06,0.0,2.686063e-05,5.161561e-09,0.0,277.57437,0.0,0.0,0.0,0.0,0.0,0.0,0.0,0.0,0.0,0.0,nan,0.0,0.0,0.0,0.0,0.00041651863,inf,0.0,0.0,0.0006275555,0.0,0.0,0.0,0.0,0.0,0.0,0.0,0.0
3980000,3900000,3.3492454e-06,0.0,2.686063e-05,5.161561e-09,0.0,277.57437,0.0,0.0,0.0,0.0,0.0,0.0,0.0,0.0,0.0,0.0,nan,0.0,0.0,0.0,0.0,0.00041651863,inf,0.0,0.0,0.00049438485,0.0,0.0,0.0,0.0,0.0,0.0,0.0,0.0
3988000,3908000,3.3492454e-06,0.0,2.686063e-05,5.161561e-09,0.0,277.57437,0.0,0.0,0.0,0.0,0.0,0.0,0.0,0.0,0.0,0.0,nan,0.0,0.0,0.0,0.0,0.00041651863,inf,0.0,0.0,0.0005942677,0.0,0.0,0.0,0.0,0.0,0.0,0.0,0.0
3996000,3916000,3.3492454e-06,0.0,2.686063e-05,5.161561e-09,0.0,277.57437,0.0,0.0,0.0,0.0,0.0,0.0,0.0,0.0,0.0,0.0,nan,0.0,0.0,0.0,0.0,0.00041651863,inf,0.0,0.0,0.0003777008,0.0,0.0,0.0,0.0,0.0,0.0,0.0,0.0
4004000,3924000,3.3492454e-06,0.0,2.686063e-05,5.161561e-09,0.0,277.57437,0.0,0.0,0.0,0.0,0.0,0.0,0.0,0.0,0.0,0.0,nan,0.0,0.0,0.0,0.0,0.00041651863,inf,0.0,0.0,0.00084300176,0.0,0.0,0.0,0.0,0.0,0.0,0.0,0.0
4012000,3932000,3.3492454e-06,0.0,2.686063e-05,5.161561e-09,0.0,277.57437,0.0,0.0,0.0,0.0,0.0,0.0,0.0,0.0,0.0,0.0,nan,0.0,0.0,0.0,0.0,0.00041651863,inf,0.0,0.0,0.00021991233,0.0,0.0,0.0,0.0,0.0,0.0,0.0,0.0
4020000,3940000,3.3492454e-06,0.0,2.686063e-05,5.161561e-09,0.0,277.57437,0.0,0.0,0.0,0.0,0.0,0.0,0.0,0.0,0.0,0.0,nan,0.0,0.0,0.0,0.0,0.00041651863,inf,0.0,0.0,0.0002514575,0.0,0.0,0.0,0.0,0.0,0.0,0.0,0.0
4028000,3948000,3.3492454e-06,0.0,2.686063e-05,5.161561e-09,0.0,277.57437,0.0,0.0,0.0,0.0,0.0,0.0,0.0,0.0,0.0,0.0,nan,0.0,0.0,0.0,0.0,0.00041651863,inf,0.0,0.0,0.00027070846,0.0,0.0,0.0,0.0,0.0,0.0,0.0,0.0
4036000,3956000,3.3492454e-06,0.0,2.686063e-05,5.161561e-09,0.0,277.57437,0.0,0.0,0.0,0.0,0.0,0.0,0.0,0.0,0.0,0.0,nan,0.0,0.0,0.0,0.0,0.00041651863,inf,0.0,0.0,0.00017215677,0.0,0.0,0.0,0.0,0.0,0.0,0.0,0.0
4044000,3964000,3.3492454e-06,0.0,2.686063e-05,5.161561e-09,0.0,277.57437,0.0,0.0,0.0,0.0,0.0,0.0,0.0,0.0,0.0,0.0,nan,0.0,0.0,0.0,0.0,0.00032989186,inf,0.0,0.0,1.6431533e-05,0.0,0.0,0.0,0.0,0.0,0.0,0.0,0.0
4052000,3972000,3.3492454e-06,0.0,2.686063e-05,5.161561e-09,0.0,277.57437,0.0,0.0,0.0,0.0,0.0,0.0,0.0,0.0,0.0,0.0,nan,0.0,0.0,0.0,0.0,0.00032989186,inf,0.0,0.0,6.621275e-05,0.0,0.0,0.0,0.0,0.0,0.0,0.0,0.0
4060000,3980000,3.3492454e-06,0.0,2.686063e-05,5.161561e-09,0.0,277.57437,0.0,0.0,0.0,0.0,0.0,0.0,0.0,0.0,0.0,0.0,nan,0.0,0.0,0.0,0.0,0.00032989186,inf,0.0,0.0,2.9033854e-05,0.0,0.0,0.0,0.0,0.0,0.0,0.0,0.0
4068000,3988000,3.3492454e-06,0.0,2.686063e-05,5.161561e-09,0.0,277.57437,0.0,0.0,0.0,0.0,0.0,0.0,0.0,0.0,0.0,0.0,nan,0.0,0.0,0.0,0.0,0.00032989186,inf,0.0,0.0,5.1216495e-05,0.0,0.0,0.0,0.0,0.0,0.0,0.0,0.0
4076000,3996000,3.3492454e-06,0.0,2.686063e-05,5.161561e-09,0.0,277.57437,0.0,0.0,0.0,0.0,0.0,0.0,0.0,0.0,0.0,0.0,nan,0.0,0.0,0.0,0.0,0.00032989186,inf,0.0,0.0,0.00012791411,0.0,0.0,0.0,0.0,0.0,0.0,0.0,0.0
4084000,4004000,3.3492454e-06,0.0,2.686063e-05,5.161561e-09,0.0,277.57437,0.0,0.0,0.0,0.0,0.0,0.0,0.0,0.0,0.0,0.0,nan,0.0,0.0,0.0,0.0,0.00032989186,inf,0.0,0.0,0.0004050216,0.0,0.0,0.0,0.0,0.0,0.0,0.0,0.0
4092000,4012000,3.3492454e-06,0.0,2.686063e-05,5.161561e-09,0.0,277.57437,0.0,0.0,0.0,0.0,0.0,0.0,0.0,0.0,0.0,0.0,nan,0.0,0.0,0.0,0.0,0.00032989186,inf,0.0,0.0,5.4475822e-05,0.0,0.0,0.0,0.0,0.0,0.0,0.0,0.0
4100000,4020000,3.3492454e-06,0.0,2.686063e-05,5.161561e-09,0.0,277.57437,0.0,0.0,0.0,0.0,0.0,0.0,0.0,0.0,0.0,0.0,nan,0.0,0.0,0.0,0.0,0.00032989186,inf,0.0,0.0,0.00044629065,0.0,0.0,0.0,0.0,0.0,0.0,0.0,0.0
4108000,4028000,3.3492454e-06,0.0,2.686063e-05,5.161561e-09,0.0,277.57437,0.0,0.0,0.0,0.0,0.0,0.0,0.0,0.0,0.0,0.0,nan,0.0,0.0,0.0,0.0,0.00032989186,inf,0.0,0.0,2.6650736e-05,0.0,0.0,0.0,0.0,0.0,0.0,0.0,0.0
4116000,4036000,3.3492454e-06,0.0,2.686063e-05,5.161561e-09,0.0,277.57437,0.0,0.0,0.0,0.0,0.0,0.0,0.0,0.0,0.0,0.0,nan,0.0,0.0,0.0,0.0,7.463431e-05,inf,0.0,0.0,0.00034066982,0.0,0.0,0.0,0.0,0.0,0.0,0.0,0.0
4124000,4044000,3.3492454e-06,0.0,2.686063e-05,5.161561e-09,0.0,277.57437,0.0,0.0,0.0,0.0,0.0,0.0,0.0,0.0,0.0,0.0,nan,0.0,0.0,0.0,0.0,7.463431e-05,inf,0.0,0.0,0.0004971376,0.0,0.0,0.0,0.0,0.0,0.0,0.0,0.0
4132000,4052000,3.3492454e-06,0.0,2.686063e-05,5.161561e-09,0.0,277.57437,0.0,0.0,0.0,0.0,0.0,0.0,0.0,0.0,0.0,0.0,nan,0.0,0.0,0.0,0.0,7.463431e-05,inf,0.0,0.0,3.566963e-05,0.0,0.0,0.0,0.0,0.0,0.0,0.0,0.0
4140000,4060000,3.3492454e-06,0.0,2.686063e-05,5.161561e-09,0.0,277.57437,0.0,0.0,0.0,0.0,0.0,0.0,0.0,0.0,0.0,0.0,nan,0.0,0.0,0.0,0.0,7.463431e-05,inf,0.0,0.0,0.00027527337,0.0,0.0,0.0,0.0,0.0,0.0,0.0,0.0
4148000,4068000,3.3492454e-06,0.0,2.686063e-05,5.161561e-09,0.0,277.57437,0.0,0.0,0.0,0.0,0.0,0.0,0.0,0.0,0.0,0.0,nan,0.0,0.0,0.0,0.0,7.463431e-05,inf,0.0,0.0,1.3193377e-05,0.0,0.0,0.0,0.0,0.0,0.0,0.0,0.0
4156000,4076000,3.3492454e-06,0.0,2.686063e-05,5.161561e-09,0.0,277.57437,0.0,0.0,0.0,0.0,0.0,0.0,0.0,0.0,0.0,0.0,nan,0.0,0.0,0.0,0.0,7.463431e-05,inf,0.0,0.0,1.16668225e-05,0.0,0.0,0.0,0.0,0.0,0.0,0.0,0.0
4164000,4084000,3.3492454e-06,0.0,2.686063e-05,5.161561e-09,0.0,277.57437,0.0,0.0,0.0,0.0,0.0,0.0,0.0,0.0,0.0,0.0,nan,0.0,0.0,0.0,0.0,7.463431e-05,inf,0.0,0.0,0.00016896358,0.0,0.0,0.0,0.0,0.0,0.0,0.0,0.0
4172000,4092000,3.3492454e-06,0.0,2.686063e-05,5.161561e-09,0.0,277.57437,0.0,0.0,0.0,0.0,0.0,0.0,0.0,1.7936831e-15,0.0,0.0,nan,0.0,0.0,0.0,0.0,7.463431e-05,inf,0.0,0.0,0.0002772407,0.0,0.0,0.0,0.0,0.0,0.0,0.0,0.0
4180000,4100000,3.3492454e-06,0.0,2.686063e-05,5.161561e-09,0.0,277.57437,0.0,0.0,0.0,0.0,0.0,0.0,0.0,1.7936831e-15,0.0,0.0,nan,0.0,0.0,0.0,0.0,7.463431e-05,inf,0.0,0.0,0.00031717547,0.0,0.0,0.0,0.0,0.0,0.0,0.0,0.0
4188000,4108000,3.3492454e-06,0.0,2.686063e-05,5.161561e-09,0.0,277.57437,0.0,0.0,0.0,0.0,0.0,0.0,0.0,1.7936831e-15,0.0,0.0,nan,0.0,0.0,0.0,0.0,0.0034585309,inf,0.0,0.0,0.0004788459,0.0,0.0,0.0,0.0,0.0,0.0,0.0,0.0
4196000,4116000,3.3492454e-06,0.0,2.686063e-05,5.161561e-09,0.0,277.57437,0.0,0.0,0.0,0.0,0.0,0.0,0.0,1.7936831e-15,0.0,0.0,nan,0.0,0.0,0.0,0.0,0.0034585309,inf,0.0,0.0,0.0001028238,0.0,0.0,0.0,0.0,0.0,0.0,0.0,0.0
4204000,4124000,1.7554941e-05,0.0,0.000108509805,7.938359e-09,0.0,2.5908598e-11,0.0,0.0,0.0,0.0,0.0,0.0,0.0,1.7936831e-15,0.0,0.0,nan,0.0,0.0,0.0,0.0,0.0034585309,inf,0.0,0.0,0.0011283053,0.0,0.0,0.0,0.0,0.0,0.0,0.0,0.0
4212000,4132000,1.7554941e-05,0.0,0.000108509805,7.938359e-09,0.0,2.5908598e-11,0.0,0.0,0.0,0.0,0.0,0.0,0.0,1.7936831e-15,0.0,0.0,nan,0.0,0.0,0.0,0.0,0.0034585309,inf,0.0,0.0,0.00030649715,0.0,0.0,0.0,0.0,0.0,0.0,0.0,0.0
4220000,4140000,1.7554941e-05,0.0,0.000108509805,7.938359e-09,0.0,2.5908598e-11,0.0,0.0,0.0,0.0,0.0,0.0,0.0,1.7936831e-15,0.0,0.0,nan,0.0,0.0,0.0,0.0,0.0034585309,inf,0.0,0.0,0.0001959321,0.0,0.0,0.0,0.0,0.0,0.0,0.0,0.0
4228000,4148000,1.7554941e-05,0.0,0.000108509805,7.938359e-09,0.0,2.5908598e-11,0.0,0.0,0.0,0.0,0.0,0.0,0.0,1.7936831e-15,0.0,0.0,nan,0.0,0.0,0.0,0.0,0.0034585309,inf,0.0,0.0,0.00047103627,0.0,0.0,0.0,0.0,0.0,0.0,0.0,0.0
4236000,4156000,1.7554941e-05,0.0,0.000108509805,7.938359e-09,0.0,2.5908598e-11,0.0,0.0,0.0,0.0,0.0,0.0,0.0,1.2757761e-05,0.0,0.0,nan,0.0,0.0,0.0,0.0,0.0034585309,inf,0.0,0.0,0.0008172257,0.0,0.0,0.0,0.0,0.0,0.0,0.0,0.0
4244000,4164000,1.7554941e-05,0.0,0.000108509805,7.938359e-09,0.0,2.5908598e-11,0.0,0.0,0.0,0.0,0.0,0.0,0.0,1.2757761e-05,0.0,0.0,nan,0.0,0.0,0.0,0.0,0.0034585309,inf,0.0,0.0,8.87633e-05,0.0,0.0,0.0,0.0,0.0,0.0,0.0,0.0
4252000,4172000,1.7554941e-05,0.0,0.000108509805,7.938359e-09,0.0,2.5908598e-11,0.0,0.0,0.0,0.0,0.0,0.0,0.0,1.2757761e-05,0.0,0.0,nan,0.0,0.0,0.0,0.0,0.0034585309,inf,0.0,0.0,0.00046793182,0.0,0.0,0.0,0.0,0.0,0.0,0.0,0.0
4260000,4180000,1.7554941e-05,0.0,0.000108509805,7.938359e-09,0.0,2.5908598e-11,0.0,0.0,0.0,0.0,0.0,0.0,0.0,1.2757761e-05,0.0,0.0,nan,0.0,0.0,0.0,0.0,0.00011407604,inf,0.0,0.0,5.3393695e-05,0.0,0.0,0.0,0.0,0.0,0.0,0.0,0.0
4268000,4188000,1.7554941e-05,0.0,0.000108509805,7.938359e-09,0.0,2.5908598e-11,0.0,0.0,0.0,0.0,0.0,0.0,0.0,1.2757761e-05,0.0,0.0,nan,0.0,0.0,0.0,0.0,0.00011407604,inf,0.0,0.0,0.0002870366,0.0,0.0,0.0,0.0,0.0,0.0,0.0,0.0
4276000,4196000,1.7554941e-05,0.0,0.000108509805,7.938359e-09,0.0,2.5908598e-11,0.0,0.0,0.0,0.0,0.0,0.0,0.0,1.2757761e-05,0.0,0.0,nan,0.0,0.0,0.0,0.0,0.00011407604,inf,0.0,0.0,0.0010218432,0.0,0.0,0.0,0.0,0.0,0.0,0.0,0.0
4284000,4204000,1.7554941e-05,0.0,0.000108509805,7.938359e-09,0.0,2.5908598e-11,0.0,0.0,0.0,0.0,0.0,0.0,0.0,1.2757761e-05,0.0,0.0,nan,0.0,0.0,0.0,0.0,0.00011407604,inf,0.0,0.0,0.0001836178,0.0,0.0,0.0,0.0,0.0,0.0,0.0,0.0
4292000,4212000,1.7554941e-05,0.0,0.000108509805,7.938359e-09,0.0,2.5908598e-11,0.0,0.0,0.0,0.0,0.0,0.0,0.0,7.734256e-07,0.0,0.0,nan,0.0,0.0,0.0,0.0,0.00011407604,inf,0.0,0.0,0.0002307228,0.0,0.0,0.0,0.0,0.0,0.0,0.0,0.0
4300000,4220000,1.7554941e-05,0.0,0.000108509805,7.938359e-09,0.0,2.5908598e-11,0.0,0.0,0.0,0.0,0.0,0.0,0.0,7.734256e-07,0.0,0.0,nan,0.0,0.0,0.0,0.0,0.00011407604,inf,0.0,0.0,0.00079256285,0.0,0.0,0.0,0.0,0.0,0.0,0.0,0.0
4308000,4228000,1.7554941e-05,0.0,0.000108509805,7.938359e-09,0.0,2.5908598e-11,0.0,0.0,0.0,0.0,0.0,0.0,0.0,7.734256e-07,0.0,0.0,nan,0.0,0.0,0.0,0.0,0.00011407604,inf,0.0,0.0,0.00022808397,0.0,0.0,0.0,0.0,0.0,0.0,0.0,0.0
4316000,4236000,1.7554941e-05,0.0,0.000108509805,7.938359e-09,0.0,2.5908598e-11,0.0,0.0,0.0,0.0,0.0,0.0,0.0,7.734256e-07,0.0,0.0,nan,0.0,0.0,0.0,0.0,0.00011407604,inf,0.0,0.0,0.00039095432,0.0,0.0,0.0,0.0,0.0,0.0,0.0,0.0
4324000,4244000,1.7554941e-05,0.0,0.000108509805,7.938359e-09,0.0,2.5908598e-11,0.0,0.0,0.0,0.0,0.0,0.0,0.0,7.734256e-07,0.0,0.0,nan,0.0,0.0,0.0,0.0,0.00011407604,inf,0.0,0.0,0.00089600997,0.0,0.0,0.0,0.0,0.0,0.0,0.0,0.0
4332000,4252000,1.7554941e-05,0.0,0.000108509805,7.938359e-09,0.0,2.5908598e-11,0.0,0.0,0.0,0.0,0.0,0.0,0.0,7.734256e-07,0.0,0.0,nan,0.0,0.0,0.0,0.0,3.606438e-05,inf,0.0,0.0,9.014647e-05,0.0,0.0,0.0,0.0,0.0,0.0,0.0,0.0
4340000,4260000,1.7554941e-05,0.0,0.000108509805,7.938359e-09,0.0,2.5908598e-11,0.0,0.0,0.0,0.0,0.0,0.0,0.0,7.734256e-07,0.0,0.0,nan,0.0,0.0,0.0,0.0,3.606438e-05,inf,0.0,0.0,0.00025323936,0.0,0.0,0.0,0.0,0.0,0.0,0.0,0.0
4348000,4268000,1.7554941e-05,0.0,0.000108509805,7.938359e-09,0.0,2.5908598e-11,0.0,0.0,0.0,0.0,0.0,0.0,0.0,7.734256e-07,0.0,0.0,nan,0.0,0.0,0.0,0.0,3.606438e-05,inf,0.0,0.0,0.00081086636,0.0,0.0,0.0,0.0,0.0,0.0,0.0,0.0
4356000,4276000,1.7554941e-05,0.0,0.000108509805,7.938359e-09,0.0,2.5908598e-11,0.0,0.0,0.0,0.0,0.0,0.0,0.0,2.458283e-06,0.0,0.0,nan,0.0,0.0,0.0,0.0,3.606438e-05,inf,0.0,0.0,0.00024346671,0.0,0.0,0.0,0.0,0.0,0.0,0.0,0.0
4364000,4284000,1.7554941e-05,0.0,0.000108509805,7.938359e-09,0.0,2.5908598e-11,0.0,0.0,0.0,0.0,0.0,0.0,0.0,2.458283e-06,0.0,0.0,nan,0.0,0.0,0.0,0.0,3.606438e-05,inf,0.0,0.0,0.00029786772,0.0,0.0,0.0,0.0,0.0,0.0,0.0,0.0
4372000,4292000,1.7554941e-05,0.0,0.000108509805,7.938359e-09,0.0,2.5908598e-11,0.0,0.0,0.0,0.0,0.0,0.0,0.0,2.458283e-06,0.0,0.0,nan,0.0,0.0,0.0,0.0,3.606438e-05,inf,0.0,0.0,0.00017451517,0.0,0.0,0.0,0.0,0.0,0.0,0.0,0.0
4380000,4300000,1.7554941e-05,0.0,0.000108509805,7.938359e-09,0.0,2.5908598e-11,0.0,0.0,0.0,0.0,0.0,0.0,0.0,2.458283e-06,0.0,0.0,nan,0.0,0.0,0.0,0.0,3.606438e-05,inf,0.0,0.0,0.00018053844,0.0,0.0,0.0,0.0,0.0,0.0,0.0,0.0
4388000,4308000,1.7554941e-05,0.0,0.000108509805,7.938359e-09,0.0,2.5908598e-11,0.0,0.0,0.0,0.0,0.0,0.0,0.0,2.458283e-06,0.0,0.0,nan,0.0,0.0,0.0,0.0,3.606438e-05,inf,0.0,0.0,1.6892809e-05,0.0,0.0,0.0,0.0,0.0,0.0,0.0,0.0
4396000,4316000,1.7554941e-05,0.0,0.000108509805,7.938359e-09,0.0,2.5908598e-11,0.0,0.0,0.0,0.0,0.0,0.0,0.0,2.458283e-06,0.0,0.0,nan,0.0,0.0,0.0,0.0,3.606438e-05,inf,0.0,0.0,0.00014964245,0.0,0.0,0.0,0.0,0.0,0.0,0.0,0.0
4404000,4324000,1.7554941e-05,0.0,0.000108509805,7.938359e-09,0.0,2.5908598e-11,0.0,0.0,0.0,0.0,0.0,0.0,0.0,2.458283e-06,0.0,0.0,nan,0.0,0.0,0.0,0.0,0.00010706775,inf,0.0,0.0,0.0005595544,0.0,0.0,0.0,0.0,0.0,0.0,0.0,0.0
4412000,4332000,1.7554941e-05,0.0,0.000108509805,7.938359e-09,0.0,2.5908598e-11,0.0,0.0,0.0,0.0,0.0,0.0,0.0,1.0071661e-07,0.0,0.0,nan,0.0,0.0,0.0,0.0,0.00010706775,inf,0.0,0.0,0.00011991878,0.0,0.0,0.0,0.0,0.0,0.0,0.0,0.0
4420000,4340000,1.7554941e-05,0.0,0.000108509805,7.938359e-09,0.0,2.5908598e-11,0.0,0.0,0.0,0.0,0.0,0.0,0.0,1.0071661e-07,0.0,0.0,nan,0.0,0.0,0.0,0.0,0.00010706775,inf,0.0,0.0,0.0002350065,0.0,0.0,0.0,0.0,0.0,0.0,0.0,0.0
4428000,4348000,1.7554941e-05,0.0,0.000108509805,7.938359e-09,0.0,2.5908598e-11,0.0,0.0,0.0,0.0,0.0,0.0,0.0,1.0071661e-07,0.0,0.0,nan,0.0,0.0,0.0,0.0,0.00010706775,inf,0.0,0.0,0.00027423532,0.0,0.0,0.0,0.0,0.0,0.0,0.0,0.0
4436000,4356000,1.7554941e-05,0.0,0.000108509805,7.938359e-09,0.0,2.5908598e-11,0.0,0.0,0.0,0.0,0.0,0.0,0.0,1.0071661e-07,0.0,0.0,nan,0.0,0.0,0.0,0.0,0.00010706775,inf,0.0,0.0,0.00015023057,0.0,0.0,0.0,0.0,0.0,0.0,0.0,0.0
4444000,4364000,1.7554941e-05,0.0,0.000108509805,7.938359e-09,0.0,2.5908598e-11,0.0,0.0,0.0,0.0,0.0,0.0,0.0,1.0071661e-07,0.0,0.0,nan,0.0,0.0,0.0,0.0,0.00010706775,inf,0.0,0.0,0.000111558365,0.0,0.0,0.0,0.0,0.0,0.0,0.0,0.0
4452000,4372000,1.7554941e-05,0.0,0.000108509805,7.938359e-09,0.0,2.5908598e-11,0.0,0.0,0.0,0.0,0.0,0.0,0.0,1.0071661e-07,0.0,0.0,nan,0.0,0.0,0.0,0.0,0.00010706775,inf,0.0,0.0,0.0010604522,0.0,0.0,0.0,0.0,0.0,0.0,0.0,0.0
4460000,4380000,1.7554941e-05,0.0,0.000108509805,7.938359e-09,0.0,2.5908598e-11,0.0,0.0,0.0,0.0,0.0,0.0,0.0,1.0071661e-07,0.0,0.0,nan,0.0,0.0,0.0,0.0,0.00010706775,inf,0.0,0.0,0.00040708025,0.0,0.0,0.0,0.0,0.0,0.0,0.0,0.0
4468000,4388000,1.7554941e-05,0.0,0.000108509805,7.938359e-09,0.0,2.5908598e-11,0.0,0.0,0.0,0.0,0.0,0.0,0.0,1.0071661e-07,0.0,0.0,nan,0.0,0.0,0.0,0.0,0.00010706775,inf,0.0,0.0,0.00021046739,0.0,0.0,0.0,0.0,0.0,0.0,0.0,0.0
4476000,4396000,1.7554941e-05,0.0,0.000108509805,7.938359e-09,0.0,2.5908598e-11,0.0,0.0,0.0,0.0,0.0,0.0,0.0,9.104253e-07,0.0,0.0,nan,0.0,0.0,0.0,0.0,0.00012847234,inf,0.0,0.0,0.0020232794,0.0,0.0,0.0,0.0,0.0,0.0,0.0,0.0
4484000,4404000,1.7554941e-05,0.0,0.000108509805,7.938359e-09,0.0,2.5908598e-11,0.0,0.0,0.0,0.0,0.0,0.0,0.0,9.104253e-07,0.0,0.0,nan,0.0,0.0,0.0,0.0,0.00012847234,inf,0.0,0.0,0.0002835413,0.0,0.0,0.0,0.0,0.0,0.0,0.0,0.0
4492000,4412000,1.7554941e-05,0.0,0.000108509805,7.938359e-09,0.0,2.5908598e-11,0.0,0.0,0.0,0.0,0.0,0.0,0.0,9.104253e-07,0.0,0.0,nan,0.0,0.0,0.0,0.0,0.00012847234,inf,0.0,0.0,9.149412e-05,0.0,0.0,0.0,0.0,0.0,0.0,0.0,0.0
4500000,4420000,1.7554941e-05,0.0,0.000108509805,7.938359e-09,0.0,2.5908598e-11,0.0,0.0,0.0,0.0,0.0,0.0,0.0,9.104253e-07,0.0,0.0,nan,0.0,0.0,0.0,0.0,0.00012847234,inf,0.0,0.0,7.068867e-06,0.0,0.0,0.0,0.0,0.0,0.0,0.0,0.0
4508000,4428000,1.7554941e-05,0.0,0.000108509805,7.938359e-09,0.0,2.5908598e-11,0.0,0.0,0.0,0.0,0.0,0.0,0.0,9.104253e-07,0.0,0.0,nan,0.0,0.0,0.0,0.0,0.00012847234,inf,0.0,0.0,0.00035513865,0.0,0.0,0.0,0.0,0.0,0.0,0.0,0.0
4516000,4436000,1.7554941e-05,0.0,0.000108509805,7.938359e-09,0.0,2.5908598e-11,0.0,0.0,0.0,0.0,0.0,0.0,0.0,9.104253e-07,0.0,0.0,nan,0.0,0.0,0.0,0.0,0.00012847234,inf,0.0,0.0,0.00014978816,0.0,0.0,0.0,0.0,0.0,0.0,0.0,0.0
4524000,4444000,1.7554941e-05,0.0,0.000108509805,7.938359e-09,0.0,2.5908598e-11,0.0,0.0,0.0,0.0,0.0,0.0,0.0,9.104253e-07,0.0,0.0,nan,0.0,0.0,0.0,0.0,0.00012847234,inf,0.0,0.0,0.0005570893,0.0,0.0,0.0,0.0,0.0,0.0,0.0,0.0
4532000,4452000,1.7554941e-05,0.0,0.000108509805,7.938359e-09,0.0,2.5908598e-11,0.0,0.0,0.0,0.0,0.0,0.0,0.0,2.8139675e-06,0.0,0.0,nan,0.0,0.0,0.0,0.0,0.00012847234,inf,0.0,0.0,0.00014033972,0.0,0.0,0.0,0.0,0.0,0.0,0.0,0.0
4540000,4460000,1.7554941e-05,0.0,0.000108509805,7.938359e-09,0.0,2.5908598e-11,0.0,0.0,0.0,0.0,0.0,0.0,0.0,2.8139675e-06,0.0,0.0,nan,0.0,0.0,0.0,0.0,0.00012847234,inf,0.0,0.0,0.00014983892,0.0,0.0,0.0,0.0,0.0,0.0,0.0,0.0
4548000,4468000,1.7554941e-05,0.0,0.000108509805,7.938359e-09,0.0,2.5908598e-11,0.0,0.0,0.0,0.0,0.0,0.0,0.0,2.8139675e-06,0.0,0.0,nan,0.0,0.0,0.0,0.0,6.419399e-05,inf,0.0,0.0,0.00017755521,0.0,0.0,0.0,0.0,0.0,0.0,0.0,0.0
4556000,4476000,1.7554941e-05,0.0,0.000108509805,7.938359e-09,0.0,2.5908598e-11,0.0,0.0,0.0,0.0,0.0,0.0,0.0,2.8139675e-06,0.0,0.0,nan,0.0,0.0,0.0,0.0,6.419399e-05,inf,0.0,0.0,0.0002472342,0.0,0.0,0.0,0.0,0.0,0.0,0.0,0.0
4564000,4484000,1.7554941e-05,0.0,0.000108509805,7.938359e-09,0.0,2.5908598e-11,0.0,0.0,0.0,0.0,0.0,0.0,0.0,2.8139675e-06,0.0,0.0,nan,0.0,0.0,0.0,0.0,6.419399e-05,inf,0.0,0.0,0.00039110973,0.0,0.0,0.0,0.0,0.0,0.0,0.0,0.0
4572000,4492000,1.7554941e-05,0.0,0.000108509805,7.938359e-09,0.0,2.5908598e-11,0.0,0.0,0.0,0.0,0.0,0.0,0.0,2.8139675e-06,0.0,0.0,nan,0.0,0.0,0.0,0.0,6.419399e-05,inf,0.0,0.0,3.0195217e-05,0.0,0.0,0.0,0.0,0.0,0.0,0.0,0.0
4580000,4500000,1.7554941e-05,0.0,0.000108509805,7.938359e-09,0.0,2.5908598e-11,0.0,0.0,0.0,0.0,0.0,0.0,0.0,2.8139675e-06,0.0,0.0,nan,0.0,0.0,0.0,0.0,6.419399e-05,inf,0.0,0.0,0.000105743624,0.0,0.0,0.0,0.0,0.0,0.0,0.0,0.0
4588000,4508000,1.7554941e-05,0.0,0.000108509805,7.938359e-09,0.0,2.5908598e-11,0.0,0.0,0.0,0.0,0.0,0.0,0.0,2.8139675e-06,0.0,0.0,nan,0.0,0.0,0.0,0.0,6.419399e-05,inf,0.0,0.0,0.0004150482,0.0,0.0,0.0,0.0,0.0,0.0,0.0,0.0
4596000,4516000,1.7554941e-05,0.0,0.000108509805,7.938359e-09,0.0,2.5908598e-11,0.0,0.0,0.0,0.0,0.0,0.0,0.0,7.963499e-06,0.0,0.0,nan,0.0,0.0,0.0,0.0,6.419399e-05,inf,0.0,0.0,0.0011590172,0.0,0.0,0.0,0.0,0.0,0.0,0.0,0.0
4604000,4524000,0.0001316842,0.0,0.00012256001,2.1432604e-06,0.0,7.533763e-09,0.0,0.0,0.0,0.0,0.0,0.0,0.0,7.963499e-06,0.0,0.0,nan,0.0,0.0,0.0,0.0,6.419399e-05,inf,0.0,0.0,0.0011198979,0.0,0.0,0.0,0.0,0.0,0.0,0.0,0.0
4612000,4532000,0.0001316842,0.0,0.00012256001,2.1432604e-06,0.0,7.533763e-09,0.0,0.0,0.0,0.0,0.0,0.0,0.0,7.963499e-06,0.0,0.0,nan,0.0,0.0,0.0,0.0,6.419399e-05,inf,0.0,0.0,1.236167e-05,0.0,0.0,0.0,0.0,0.0,0.0,0.0,0.0
4620000,4540000,0.0001316842,0.0,0.00012256001,2.1432604e-06,0.0,7.533763e-09,0.0,0.0,0.0,0.0,0.0,0.0,0.0,7.963499e-06,0.0,0.0,nan,0.0,0.0,0.0,0.0,0.00020710824,inf,0.0,0.0,0.00010814594,0.0,0.0,0.0,0.0,0.0,0.0,0.0,0.0
4628000,4548000,0.0001316842,0.0,0.00012256001,2.1432604e-06,0.0,7.533763e-09,0.0,0.0,0.0,0.0,0.0,0.0,0.0,7.963499e-06,0.0,0.0,nan,0.0,0.0,0.0,0.0,0.00020710824,inf,0.0,0.0,0.0008069283,0.0,0.0,0.0,0.0,0.0,0.0,0.0,0.0
4636000,4556000,0.0001316842,0.0,0.00012256001,2.1432604e-06,0.0,7.533763e-09,0.0,0.0,0.0,0.0,0.0,0.0,0.0,7.963499e-06,0.0,0.0,nan,0.0,0.0,0.0,0.0,0.00020710824,inf,0.0,0.0,0.0013789078,0.0,0.0,0.0,0.0,0.0,0.0,0.0,0.0
4644000,4564000,0.0001316842,0.0,0.00012256001,2.1432604e-06,0.0,7.533763e-09,0.0,0.0,0.0,0.0,0.0,0.0,0.0,7.963499e-06,0.0,0.0,nan,0.0,0.0,0.0,0.0,0.00020710824,inf,0.0,0.0,0.00033073174,0.0,0.0,0.0,0.0,0.0,0.0,0.0,0.0
4652000,4572000,0.0001316842,0.0,0.00012256001,2.1432604e-06,0.0,7.533763e-09,0.0,0.0,0.0,0.0,0.0,0.0,0.0,2.438308e-06,0.0,0.0,nan,0.0,0.0,0.0,0.0,0.00020710824,inf,0.0,0.0,0.00034819095,0.0,0.0,0.0,0.0,0.0,0.0,0.0,0.0
4660000,4580000,0.0001316842,0.0,0.00012256001,2.1432604e-06,0.0,7.533763e-09,0.0,0.0,0.0,0.0,0.0,0.0,0.0,2.438308e-06,0.0,0.0,nan,0.0,0.0,0.0,0.0,0.00020710824,inf,0.0,0.0,0.00083857484,0.0,0.0,0.0,0.0,0.0,0.0,0.0,0.0
4668000,4588000,0.0001316842,0.0,0.00012256001,2.1432604e-06,0.0,7.533763e-09,0.0,0.0,0.0,0.0,0.0,0.0,0.0,2.438308e-06,0.0,0.0,nan,0.0,0.0,0.0,0.0,0.00020710824,inf,0.0,0.0,0.0007454753,0.0,0.0,0.0,0.0,0.0,0.0,0.0,0.0
4676000,4596000,0.0001316842,0.0,0.00012256001,2.1432604e-06,0.0,7.533763e-09,0.0,0.0,0.0,0.0,0.0,0.0,0.0,2.438308e-06,0.0,0.0,nan,0.0,0.0,0.0,0.0,0.00020710824,inf,0.0,0.0,0.00062161055,0.0,0.0,0.0,0.0,0.0,0.0,0.0,0.0
4684000,4604000,0.0001316842,0.0,0.00012256001,2.1432604e-06,0.0,7.533763e-09,0.0,0.0,0.0,0.0,0.0,0.0,0.0,2.438308e-06,0.0,0.0,nan,0.0,0.0,0.0,0.0,0.00020710824,inf,0.0,0.0,0.00031253617,0.0,0.0,0.0,0.0,0.0,0.0,0.0,0.0
4692000,4612000,0.0001316842,0.0,0.00012256001,2.1432604e-06,0.0,7.533763e-09,0.0,0.0,0.0,0.0,0.0,0.0,0.0,2.438308e-06,0.0,0.0,nan,0.0,0.0,0.0,0.0,0.00030336436,inf,0.0,0.0,0.00047946096,0.0,0.0,0.0,0.0,0.0,0.0,0.0,0.0
4700000,4620000,0.0001316842,0.0,0.00012256001,2.1432604e-06,0.0,7.533763e-09,0.0,0.0,0.0,0.0,0.0,0.0,0.0,2.438308e-06,0.0,0.0,nan,0.0,0.0,0.0,0.0,0.00030336436,inf,0.0,0.0,0.001910361,0.0,0.0,0.0,0.0,0.0,0.0,0.0,0.0
4708000,4628000,0.0001316842,0.0,0.00012256001,2.1432604e-06,0.0,7.533763e-09,0.0,0.0,0.0,0.0,0.0,0.0,0.0,2.438308e-06,0.0,0.0,nan,0.0,0.0,0.0,0.0,0.00030336436,inf,0.0,0.0,0.00015892228,0.0,0.0,0.0,0.0,0.0,0.0,0.0,0.0
4716000,4636000,0.0001316842,0.0,0.00012256001,2.1432604e-06,0.0,7.533763e-09,0.0,0.0,0.0,0.0,0.0,0.0,0.0,5.6559645e-07,0.0,0.0,nan,0.0,0.0,0.0,0.0,0.00030336436,inf,0.0,0.0,0.0008566831,0.0,0.0,0.0,0.0,0.0,0.0,0.0,0.0
4724000,4644000,0.0001316842,0.0,0.00012256001,2.1432604e-06,0.0,7.533763e-09,0.0,0.0,0.0,0.0,0.0,0.0,0.0,5.6559645e-07,0.0,0.0,nan,0.0,0.0,0.0,0.0,0.00030336436,inf,0.0,0.0,0.0006751212,0.0,0.0,0.0,0.0,0.0,0.0,0.0,0.0
4732000,4652000,0.0001316842,0.0,0.00012256001,2.1432604e-06,0.0,7.533763e-09,0.0,0.0,0.0,0.0,0.0,0.0,0.0,5.6559645e-07,0.0,0.0,nan,0.0,0.0,0.0,0.0,0.00030336436,inf,0.0,0.0,1.7968772e-05,0.0,0.0,0.0,0.0,0.0,0.0,0.0,0.0
4740000,4660000,0.0001316842,0.0,0.00012256001,2.1432604e-06,0.0,7.533763e-09,0.0,0.0,0.0,0.0,0.0,0.0,0.0,5.6559645e-07,0.0,0.0,nan,0.0,0.0,0.0,0.0,0.00030336436,inf,0.0,0.0,0.00017295571,0.0,0.0,0.0,0.0,0.0,0.0,0.0,0.0
4748000,4668000,0.0001316842,0.0,0.00012256001,2.1432604e-06,0.0,7.533763e-09,0.0,0.0,0.0,0.0,0.0,0.0,0.0,5.6559645e-07,0.0,0.0,nan,0.0,0.0,0.0,0.0,0.00030336436,inf,0.0,0.0,4.6192286e-05,0.0,0.0,0.0,0.0,0.0,0.0,0.0,0.0
4756000,4676000,0.0001316842,0.0,0.00012256001,2.1432604e-06,0.0,7.533763e-09,0.0,0.0,0.0,0.0,0.0,0.0,0.0,5.6559645e-07,0.0,0.0,nan,0.0,0.0,0.0,0.0,0.00030336436,inf,0.0,0.0,0.00020090677,0.0,0.0,0.0,0.0,0.0,0.0,0.0,0.0
4764000,4684000,0.0001316842,0.0,0.00012256001,2.1432604e-06,0.0,7.533763e-09,0.0,0.0,0.0,0.0,0.0,0.0,0.0,5.6559645e-07,0.0,0.0,nan,0.0,0.0,0.0,0.0,1.1193154e-06,inf,0.0,0.0,0.0008084826,0.0,0.0,0.0,0.0,0.0,0.0,0.0,0.0
4772000,4692000,0.0001316842,0.0,0.00012256001,2.1432604e-06,0.0,7.533763e-09,0.0,0.0,0.0,0.0,0.0,0.0,0.0,7.272381e-07,0.0,0.0,nan,0.0,0.0,0.0,0.0,1.1193154e-06,inf,0.0,0.0,0.00038977657,0.0,0.0,0.0,0.0,0.0,0.0,0.0,0.0
4780000,4700000,0.0001316842,0.0,0.00012256001,2.1432604e-06,0.0,7.533763e-09,0.0,0.0,0.0,0.0,0.0,0.0,0.0,7.272381e-07,0.0,0.0,nan,0.0,0.0,0.0,0.0,1.1193154e-06,inf,0.0,0.0,0.00031338594,0.0,0.0,0.0,0.0,0.0,0.0,0.0,0.0
4788000,4708000,0.0001316842,0.0,0.00012256001,2.1432604e-06,0.0,7.533763e-09,0.0,0.0,0.0,0.0,0.0,0.0,0.0,7.272381e-07,0.0,0.0,nan,0.0,0.0,0.0,0.0,1.1193154e-06,inf,0.0,0.0,0.00020761917,0.0,0.0,0.0,0.0,0.0,0.0,0.0,0.0
4796000,4716000,0.0001316842,0.0,0.00012256001,2.1432604e-06,0.0,7.533763e-09,0.0,0.0,0.0,0.0,0.0,0.0,0.0,7.272381e-07,0.0,0.0,nan,0.0,0.0,0.0,0.0,1.1193154e-06,inf,0.0,0.0,0.0017137737,0.0,0.0,0.0,0.0,0.0,0.0,0.0,0.0
4804000,4724000,0.0001316842,0.0,0.00012256001,2.1432604e-06,0.0,7.533763e-09,0.0,0.0,0.0,0.0,0.0,0.0,0.0,7.272381e-07,0.0,0.0,nan,0.0,0.0,0.0,0.0,1.1193154e-06,inf,0.0,0.0,0.0005845184,0.0,0.0,0.0,0.0,0.0,0.0,0.0,0.0
4812000,4732000,0.0001316842,0.0,0.00012256001,2.1432604e-06,0.0,7.533763e-09,0.0,0.0,0.0,0.0,0.0,0.0,0.0,7.272381e-07,0.0,0.0,nan,0.0,0.0,0.0,0.0,1.1193154e-06,inf,0.0,0.0,0.00020149897,0.0,0.0,0.0,0.0,0.0,0.0,0.0,0.0
4820000,4740000,0.0001316842,0.0,0.00012256001,2.1432604e-06,0.0,7.533763e-09,0.0,0.0,0.0,0.0,0.0,0.0,0.0,7.272381e-07,0.0,0.0,nan,0.0,0.0,0.0,0.0,1.1193154e-06,inf,0.0,0.0,0.00094835757,0.0,0.0,0.0,0.0,0.0,0.0,0.0,0.0
4828000,4748000,0.0001316842,0.0,0.00012256001,2.1432604e-06,0.0,7.533763e-09,0.0,0.0,0.0,0.0,0.0,0.0,0.0,7.272381e-07,0.0,0.0,nan,0.0,0.0,0.0,0.0,1.1193154e-06,inf,0.0,0.0,0.00014802285,0.0,0.0,0.0,0.0,0.0,0.0,0.0,0.0
4836000,4756000,0.0001316842,0.0,0.00012256001,2.1432604e-06,0.0,7.533763e-09,0.0,0.0,0.0,0.0,0.0,0.0,0.0,5.721004e-06,0.0,0.0,nan,0.0,0.0,0.0,0.0,9.5573105e-06,inf,0.0,0.0,0.00013809821,0.0,0.0,0.0,0.0,0.0,0.0,0.0,0.0
4844000,4764000,0.0001316842,0.0,0.00012256001,2.1432604e-06,0.0,7.533763e-09,0.0,0.0,0.0,0.0,0.0,0.0,0.0,5.721004e-06,0.0,0.0,nan,0.0,0.0,0.0,0.0,9.5573105e-06,inf,0.0,0.0,0.00073210086,0.0,0.0,0.0,0.0,0.0,0.0,0.0,0.0
4852000,4772000,0.0001316842,0.0,0.00012256001,2.1432604e-06,0.0,7.533763e-09,0.0,0.0,0.0,0.0,0.0,0.0,0.0,5.721004e-06,0.0,0.0,nan,0.0,0.0,0.0,0.0,9.5573105e-06,inf,0.0,0.0,1.9895395e-05,0.0,0.0,0.0,0.0,0.0,0.0,0.0,0.0
4860000,4780000,0.0001316842,0.0,0.00012256001,2.1432604e-06,0.0,7.533763e-09,0.0,0.0,0.0,0.0,0.0,0.0,0.0,5.721004e-06,0.0,0.0,nan,0.0,0.0,0.0,0.0,9.5573105e-06,inf,0.0,0.0,0.0004975821,0.0,0.0,0.0,0.0,0.0,0.0,0.0,0.0
4868000,4788000,0.0001316842,0.0,0.00012256001,2.1432604e-06,0.0,7.533763e-09,0.0,0.0,0.0,0.0,0.0,0.0,0.0,5.721004e-06,0.0,0.0,nan,0.0,0.0,0.0,0.0,9.5573105e-06,inf,0.0,0.0,0.00043684102,0.0,0.0,0.0,0.0,0.0,0.0,0.0,0.0
4876000,4796000,0.0001316842,0.0,0.00012256001,2.1432604e-06,0.0,7.533763e-09,0.0,0.0,0.0,0.0,0.0,0.0,0.0,5.721004e-06,0.0,0.0,nan,0.0,0.0,0.0,0.0,9.5573105e-06,inf,0.0,0.0,0.000689734,0.0,0.0,0.0,0.0,0.0,0.0,0.0,0.0
4884000,4804000,0.0001316842,0.0,0.00012256001,2.1432604e-06,0.0,7.533763e-09,0.0,0.0,0.0,0.0,0.0,0.0,0.0,5.721004e-06,0.0,0.0,nan,0.0,0.0,0.0,0.0,9.5573105e-06,inf,0.0,0.0,0.00016158423,0.0,0.0,0.0,0.0,0.0,0.0,0.0,0.0
4892000,4812000,0.0001316842,0.0,0.00012256001,2.1432604e-06,0.0,7.533763e-09,0.0,0.0,0.0,0.0,0.0,0.0,0.0,1.5528205e-06,0.0,0.0,nan,0.0,0.0,0.0,0.0,9.5573105e-06,inf,0.0,0.0,0.0023686064,0.0,0.0,0.0,0.0,0.0,0.0,0.0,0.0
4900000,4820000,0.0001316842,0.0,0.00012256001,2.1432604e-06,0.0,7.533763e-09,0.0,0.0,0.0,0.0,0.0,0.0,0.0,1.5528205e-06,0.0,0.0,nan,0.0,0.0,0.0,0.0,9.5573105e-06,inf,0.0,0.0,0.0015597917,0.0,0.0,0.0,0.0,0.0,0.0,0.0,0.0
4908000,4828000,0.0001316842,0.0,0.00012256001,2.1432604e-06,0.0,7.533763e-09,0.0,0.0,0.0,0.0,0.0,0.0,0.0,1.5528205e-06,0.0,0.0,nan,0.0,0.0,0.0,0.0,0.0002671561,inf,0.0,0.0,0.00085756934,0.0,0.0,0.0,0.0,0.0,0.0,0.0,0.0
4916000,4836000,0.0001316842,0.0,0.00012256001,2.1432604e-06,0.0,7.533763e-09,0.0,0.0,0.0,0.0,0.0,0.0,0.0,1.5528205e-06,0.0,0.0,nan,0.0,0.0,0.0,0.0,0.0002671561,inf,0.0,0.0,0.00014913168,0.0,0.0,0.0,0.0,0.0,0.0,0.0,0.0
4924000,4844000,0.0001316842,0.0,0.00012256001,2.1432604e-06,0.0,7.533763e-09,0.0,0.0,0.0,0.0,0.0,0.0,0.0,1.5528205e-06,0.0,0.0,nan,0.0,0.0,0.0,0.0,0.0002671561,inf,0.0,0.0,0.000357957,0.0,0.0,0.0,0.0,0.0,0.0,0.0,0.0
4932000,4852000,0.0001316842,0.0,0.00012256001,2.1432604e-06,0.0,7.533763e-09,0.0,0.0,0.0,0.0,0.0,0.0,0.0,1.5528205e-06,0.0,0.0,nan,0.0,0.0,0.0,0.0,0.0002671561,inf,0.0,0.0,0.00023937854,0.0,0.0,0.0,0.0,0.0,0.0,0.0,0.0
4940000,4860000,0.0001316842,0.0,0.00012256001,2.1432604e-06,0.0,7.533763e-09,0.0,0.0,0.0,0.0,0.0,0.0,0.0,1.5528205e-06,0.0,0.0,nan,0.0,0.0,0.0,0.0,0.0002671561,inf,0.0,0.0,7.782954e-05,0.0,0.0,0.0,0.0,0.0,0.0,0.0,0.0
4948000,4868000,0.0001316842,0.0,0.00012256001,2.1432604e-06,0.0,7.533763e-09,0.0,0.0,0.0,0.0,0.0,0.0,0.0,1.5528205e-06,0.0,0.0,nan,0.0,0.0,0.0,0.0,0.0002671561,inf,0.0,0.0,5.0673527e-05,0.0,0.0,0.0,0.0,0.0,0.0,0.0,0.0
4956000,4876000,0.0001316842,0.0,0.00012256001,2.1432604e-06,0.0,7.533763e-09,0.0,0.0,0.0,0.0,0.0,0.0,0.0,6.6446347e-07,0.0,0.0,nan,0.0,0.0,0.0,0.0,0.0002671561,inf,0.0,0.0,0.00070598855,0.0,0.0,0.0,0.0,0.0,0.0,0.0,0.0
4964000,4884000,0.0001316842,0.0,0.00012256001,2.1432604e-06,0.0,7.533763e-09,0.0,0.0,0.0,0.0,0.0,0.0,0.0,6.6446347e-07,0.0,0.0,nan,0.0,0.0,0.0,0.0,0.0002671561,inf,0.0,0.0,0.00011757741,0.0,0.0,0.0,0.0,0.0,0.0,0.0,0.0
4972000,4892000,0.0001316842,0.0,0.00012256001,2.1432604e-06,0.0,7.533763e-09,0.0,0.0,0.0,0.0,0.0,0.0,0.0,6.6446347e-07,0.0,0.0,nan,0.0,0.0,0.0,0.0,0.0002671561,inf,0.0,0.0,8.356767e-05,0.0,0.0,0.0,0.0,0.0,0.0,0.0,0.0
4980000,4900000,0.0001316842,0.0,0.00012256001,2.1432604e-06,0.0,7.533763e-09,0.0,0.0,0.0,0.0,0.0,0.0,0.0,6.6446347e-07,0.0,0.0,nan,0.0,0.0,0.0,0.0,5.618056e-06,inf,0.0,0.0,0.00043822656,0.0,0.0,0.0,0.0,0.0,0.0,0.0,0.0
4988000,4908000,0.0001316842,0.0,0.00012256001,2.1432604e-06,0.0,7.533763e-09,0.0,0.0,0.0,0.0,0.0,0.0,0.0,6.6446347e-07,0.0,0.0,nan,0.0,0.0,0.0,0.0,5.618056e-06,inf,0.0,0.0,2.5346642e-05,0.0,0.0,0.0,0.0,0.0,0.0,0.0,0.0
4996000,4916000,0.0001316842,0.0,0.00012256001,2.1432604e-06,0.0,7.533763e-09,0.0,0.0,0.0,0.0,0.0,0.0,0.0,6.6446347e-07,0.0,0.0,nan,0.0,0.0,0.0,0.0,5.618056e-06,inf,0.0,0.0,7.796465e-05,0.0,0.0,0.0,0.0,0.0,0.0,0.0,0.0
5004000,4924000,0.0001316842,0.0,0.00012256001,2.1432604e-06,0.0,7.533763e-09,0.0,0.0,0.0,0.0,0.0,0.0,0.0,6.6446347e-07,0.0,0.0,nan,0.0,0.0,0.0,0.0,5.618056e-06,inf,0.0,0.0,0.0008735322,0.0,0.0,0.0,0.0,0.0,0.0,0.0,0.0
5012000,4932000,1.1373622e-06,0.0,1.9952356e-06,2.339435e-06,0.0,2.559257e-07,0.0,0.0,0.0,0.0,0.0,0.0,0.0,3.1409847e-06,0.0,0.0,nan,0.0,0.0,0.0,0.0,5.618056e-06,inf,0.0,0.0,0.00010611225,0.0,0.0,0.0,0.0,0.0,0.0,0.0,0.0
5020000,4940000,1.1373622e-06,0.0,1.9952356e-06,2.339435e-06,0.0,2.559257e-07,0.0,0.0,0.0,0.0,0.0,0.0,0.0,3.1409847e-06,0.0,0.0,nan,0.0,0.0,0.0,0.0,5.618056e-06,inf,0.0,0.0,0.001247692,0.0,0.0,0.0,0.0,0.0,0.0,0.0,0.0
5028000,4948000,1.1373622e-06,0.0,1.9952356e-06,2.339435e-06,0.0,2.559257e-07,0.0,0.0,0.0,0.0,0.0,0.0,0.0,3.1409847e-06,0.0,0.0,nan,0.0,0.0,0.0,0.0,5.618056e-06,inf,0.0,0.0,0.00020817561,0.0,0.0,0.0,0.0,0.0,0.0,0.0,0.0
5036000,4956000,1.1373622e-06,0.0,1.9952356e-06,2.339435e-06,0.0,2.559257e-07,0.0,0.0,0.0,0.0,0.0,0.0,0.0,3.1409847e-06,0.0,0.0,nan,0.0,0.0,0.0,0.0,5.618056e-06,inf,0.0,0.0,0.0001325546,0.0,0.0,0.0,0.0,0.0,0.0,0.0,0.0
5044000,4964000,1.1373622e-06,0.0,1.9952356e-06,2.339435e-06,0.0,2.559257e-07,0.0,0.0,0.0,0.0,0.0,0.0,0.0,3.1409847e-06,0.0,0.0,nan,0.0,0.0,0.0,0.0,5.618056e-06,inf,0.0,0.0,0.00013205248,0.0,0.0,0.0,0.0,0.0,0.0,0.0,0.0
5052000,4972000,1.1373622e-06,0.0,1.9952356e-06,2.339435e-06,0.0,2.559257e-07,0.0,0.0,0.0,0.0,0.0,0.0,0.0,3.1409847e-06,0.0,0.0,nan,0.0,0.0,0.0,0.0,2.1323685e-05,inf,0.0,0.0,1.9391355e-05,0.0,0.0,0.0,0.0,0.0,0.0,0.0,0.0
5060000,4980000,1.1373622e-06,0.0,1.9952356e-06,2.339435e-06,0.0,2.559257e-07,0.0,0.0,0.0,0.0,0.0,0.0,0.0,4.6628585e-07,0.0,0.0,nan,0.0,0.0,0.0,0.0,2.1323685e-05,inf,0.0,0.0,0.00048597515,0.0,0.0,0.0,0.0,0.0,0.0,0.0,0.0
5068000,4988000,1.1373622e-06,0.0,1.9952356e-06,2.339435e-06,0.0,2.559257e-07,0.0,0.0,0.0,0.0,0.0,0.0,0.0,4.6628585e-07,0.0,0.0,nan,0.0,0.0,0.0,0.0,2.1323685e-05,inf,0.0,0.0,0.00037829878,0.0,0.0,0.0,0.0,0.0,0.0,0.0,0.0
5076000,4996000,1.1373622e-06,0.0,1.9952356e-06,2.339435e-06,0.0,2.559257e-07,0.0,0.0,0.0,0.0,0.0,0.0,0.0,4.6628585e-07,0.0,0.0,nan,0.0,0.0,0.0,0.0,2.1323685e-05,inf,0.0,0.0,0.00024148046,0.0,0.0,0.0,0.0,0.0,0.0,0.0,0.0
5084000,5004000,1.1373622e-06,0.0,1.9952356e-06,2.339435e-06,0.0,2.559257e-07,0.0,0.0,0.0,0.0,0.0,0.0,0.0,4.6628585e-07,0.0,0.0,nan,0.0,0.0,0.0,0.0,2.1323685e-05,inf,0.0,0.0,0.00046370178,0.0,0.0,0.0,0.0,0.0,0.0,0.0,0.0
5092000,5012000,1.1373622e-06,0.0,1.9952356e-06,2.339435e-06,0.0,2.559257e-07,0.0,0.0,0.0,0.0,0.0,0.0,0.0,4.6628585e-07,0.0,0.0,nan,0.0,0.0,0.0,0.0,2.1323685e-05,inf,0.0,0.0,0.0001251711,0.0,0.0,0.0,0.0,0.0,0.0,0.0,0.0
5100000,5020000,1.1373622e-06,0.0,1.9952356e-06,2.339435e-06,0.0,2.559257e-07,0.0,0.0,0.0,0.0,0.0,0.0,0.0,4.6628585e-07,0.0,0.0,nan,0.0,0.0,0.0,0.0,2.1323685e-05,inf,0.0,0.0,0.0004423405,0.0,0.0,0.0,0.0,0.0,0.0,0.0,0.0
5108000,5028000,1.1373622e-06,0.0,1.9952356e-06,2.339435e-06,0.0,2.559257e-07,0.0,0.0,0.0,0.0,0.0,0.0,0.0,4.6628585e-07,0.0,0.0,nan,0.0,0.0,0.0,0.0,2.1323685e-05,inf,0.0,0.0,0.00013817404,0.0,0.0,0.0,0.0,0.0,0.0,0.0,0.0
5116000,5036000,1.1373622e-06,0.0,1.9952356e-06,2.339435e-06,0.0,2.559257e-07,0.0,0.0,0.0,0.0,0.0,0.0,0.0,4.6628585e-07,0.0,0.0,nan,0.0,0.0,0.0,0.0,2.1323685e-05,inf,0.0,0.0,1.940361e-05,0.0,0.0,0.0,0.0,0.0,0.0,0.0,0.0
5124000,5044000,1.1373622e-06,0.0,1.9952356e-06,2.339435e-06,0.0,2.559257e-07,0.0,0.0,0.0,0.0,0.0,0.0,0.0,1.4060576e-05,0.0,0.0,nan,0.0,0.0,0.0,0.0,0.00015434416,inf,0.0,0.0,0.00014936089,0.0,0.0,0.0,0.0,0.0,0.0,0.0,0.0
5132000,5052000,1.1373622e-06,0.0,1.9952356e-06,2.339435e-06,0.0,2.559257e-07,0.0,0.0,0.0,0.0,0.0,0.0,0.0,1.4060576e-05,0.0,0.0,nan,0.0,0.0,0.0,0.0,0.00015434416,inf,0.0,0.0,0.0014396479,0.0,0.0,0.0,0.0,0.0,0.0,0.0,0.0
5140000,5060000,1.1373622e-06,0.0,1.9952356e-06,2.339435e-06,0.0,2.559257e-07,0.0,0.0,0.0,0.0,0.0,0.0,0.0,1.4060576e-05,0.0,0.0,nan,0.0,0.0,0.0,0.0,0.00015434416,inf,0.0,0.0,0.00020804118,0.0,0.0,0.0,0.0,0.0,0.0,0.0,0.0
5148000,5068000,1.1373622e-06,0.0,1.9952356e-06,2.339435e-06,0.0,2.559257e-07,0.0,0.0,0.0,0.0,0.0,0.0,0.0,1.4060576e-05,0.0,0.0,nan,0.0,0.0,0.0,0.0,0.00015434416,inf,0.0,0.0,0.000113176524,0.0,0.0,0.0,0.0,0.0,0.0,0.0,0.0
5156000,5076000,1.1373622e-06,0.0,1.9952356e-06,2.339435e-06,0.0,2.559257e-07,0.0,0.0,0.0,0.0,0.0,0.0,0.0,1.4060576e-05,0.0,0.0,nan,0.0,0.0,0.0,0.0,0.00015434416,inf,0.0,0.0,0.00015621242,0.0,0.0,0.0,0.0,0.0,0.0,0.0,0.0
5164000,5084000,1.1373622e-06,0.0,1.9952356e-06,2.339435e-06,0.0,2.559257e-07,0.0,0.0,0.0,0.0,0.0,0.0,0.0,1.4060576e-05,0.0,0.0,nan,0.0,0.0,0.0,0.0,0.00015434416,inf,0.0,0.0,0.00028957342,0.0,0.0,0.0,0.0,0.0,0.0,0.0,0.0
5172000,5092000,1.1373622e-06,0.0,1.9952356e-06,2.339435e-06,0.0,2.559257e-07,0.0,0.0,0.0,0.0,0.0,0.0,0.0,1.4060576e-05,0.0,0.0,nan,0.0,0.0,0.0,0.0,0.00015434416,inf,0.0,0.0,0.00047800769,0.0,0.0,0.0,0.0,0.0,0.0,0.0,0.0
5180000,5100000,1.1373622e-06,0.0,1.9952356e-06,2.339435e-06,0.0,2.559257e-07,0.0,0.0,0.0,0.0,0.0,0.0,0.0,2.9334556e-06,0.0,0.0,nan,0.0,0.0,0.0,0.0,0.00015434416,inf,0.0,0.0,6.2228864e-05,0.0,0.0,0.0,0.0,0.0,0.0,0.0,0.0
5188000,5108000,1.1373622e-06,0.0,1.9952356e-06,2.339435e-06,0.0,2.559257e-07,0.0,0.0,0.0,0.0,0.0,0.0,0.0,2.9334556e-06,0.0,0.0,nan,0.0,0.0,0.0,0.0,0.00015434416,inf,0.0,0.0,0.00021026951,0.0,0.0,0.0,0.0,0.0,0.0,0.0,0.0
5196000,5116000,1.1373622e-06,0.0,1.9952356e-06,2.339435e-06,0.0,2.559257e-07,0.0,0.0,0.0,0.0,0.0,0.0,0.0,2.9334556e-06,0.0,0.0,nan,0.0,0.0,0.0,0.0,8.662607e-06,inf,0.0,0.0,0.00042969373,0.0,0.0,0.0,0.0,0.0,0.0,0.0,0.0
5204000,5124000,1.1373622e-06,0.0,1.9952356e-06,2.339435e-06,0.0,2.559257e-07,0.0,0.0,0.0,0.0,0.0,0.0,0.0,2.9334556e-06,0.0,0.0,nan,0.0,0.0,0.0,0.0,8.662607e-06,inf,0.0,0.0,0.001228969,0.0,0.0,0.0,0.0,0.0,0.0,0.0,0.0
5212000,5132000,1.1373622e-06,0.0,1.9952356e-06,2.339435e-06,0.0,2.559257e-07,0.0,0.0,0.0,0.0,0.0,0.0,0.0,2.9334556e-06,0.0,0.0,nan,0.0,0.0,0.0,0.0,8.662607e-06,inf,0.0,0.0,1.8900733e-05,0.0,0.0,0.0,0.0,0.0,0.0,0.0,0.0
5220000,5140000,1.1373622e-06,0.0,1.9952356e-06,2.339435e-06,0.0,2.559257e-07,0.0,0.0,0.0,0.0,0.0,0.0,0.0,2.9334556e-06,0.0,0.0,nan,0.0,0.0,0.0,0.0,8.662607e-06,inf,0.0,0.0,0.0008627411,0.0,0.0,0.0,0.0,0.0,0.0,0.0,0.0
5228000,5148000,1.1373622e-06,0.0,1.9952356e-06,2.339435e-06,0.0,2.559257e-07,0.0,0.0,0.0,0.0,0.0,0.0,0.0,2.9334556e-06,0.0,0.0,nan,0.0,0.0,0.0,0.0,8.662607e-06,inf,0.0,0.0,0.0009456457,0.0,0.0,0.0,0.0,0.0,0.0,0.0,0.0
5236000,5156000,1.1373622e-06,0.0,1.9952356e-06,2.339435e-06,0.0,2.559257e-07,0.0,0.0,0.0,0.0,0.0,0.0,0.0,2.9334556e-06,0.0,0.0,nan,0.0,0.0,0.0,0.0,8.662607e-06,inf,0.0,0.0,0.00018503603,0.0,0.0,0.0,0.0,0.0,0.0,0.0,0.0
5244000,5164000,1.1373622e-06,0.0,1.9952356e-06,2.339435e-06,0.0,2.559257e-07,0.0,0.0,0.0,0.0,0.0,0.0,0.0,3.0180543e-06,0.0,0.0,nan,0.0,0.0,0.0,0.0,8.662607e-06,inf,0.0,0.0,0.00027317775,0.0,0.0,0.0,0.0,0.0,0.0,0.0,0.0
5252000,5172000,1.1373622e-06,0.0,1.9952356e-06,2.339435e-06,0.0,2.559257e-07,0.0,0.0,0.0,0.0,0.0,0.0,0.0,3.0180543e-06,0.0,0.0,nan,0.0,0.0,0.0,0.0,8.662607e-06,inf,0.0,0.0,0.00025566478,0.0,0.0,0.0,0.0,0.0,0.0,0.0,0.0
5260000,5180000,1.1373622e-06,0.0,1.9952356e-06,2.339435e-06,0.0,2.559257e-07,0.0,0.0,0.0,0.0,0.0,0.0,0.0,3.0180543e-06,0.0,0.0,nan,0.0,0.0,0.0,0.0,8.662607e-06,inf,0.0,0.0,0.00022693734,0.0,0.0,0.0,0.0,0.0,0.0,0.0,0.0
5268000,5188000,1.1373622e-06,0.0,1.9952356e-06,2.339435e-06,0.0,2.559257e-07,0.0,0.0,0.0,0.0,0.0,0.0,0.0,3.0180543e-06,0.0,0.0,nan,0.0,0.0,0.0,0.0,0.0002522155,inf,0.0,0.0,0.0003575594,0.0,0.0,0.0,0.0,0.0,0.0,0.0,0.0
5276000,5196000,1.1373622e-06,0.0,1.9952356e-06,2.339435e-06,0.0,2.559257e-07,0.0,0.0,0.0,0.0,0.0,0.0,0.0,3.0180543e-06,0.0,0.0,nan,0.0,0.0,0.0,0.0,0.0002522155,inf,0.0,0.0,0.00028447036,0.0,0.0,0.0,0.0,0.0,0.0,0.0,0.0
5284000,5204000,1.1373622e-06,0.0,1.9952356e-06,2.339435e-06,0.0,2.559257e-07,0.0,0.0,0.0,0.0,0.0,0.0,0.0,3.0180543e-06,0.0,0.0,nan,0.0,0.0,0.0,0.0,0.0002522155,inf,0.0,0.0,0.0002171947,0.0,0.0,0.0,0.0,0.0,0.0,0.0,0.0
5292000,5212000,1.1373622e-06,0.0,1.9952356e-06,2.339435e-06,0.0,2.559257e-07,0.0,0.0,0.0,0.0,0.0,0.0,0.0,3.0180543e-06,0.0,0.0,nan,0.0,0.0,0.0,0.0,0.0002522155,inf,0.0,0.0,0.0010554519,0.0,0.0,0.0,0.0,0.0,0.0,0.0,0.0
5300000,5220000,1.1373622e-06,0.0,1.9952356e-06,2.339435e-06,0.0,2.559257e-07,0.0,0.0,0.0,0.0,0.0,0.0,0.0,1.6607923e-06,0.0,0.0,nan,0.0,0.0,0.0,0.0,0.0002522155,inf,0.0,0.0,0.003659521,0.0,0.0,0.0,0.0,0.0,0.0,0.0,0.0
5308000,5228000,1.1373622e-06,0.0,1.9952356e-06,2.339435e-06,0.0,2.559257e-07,0.0,0.0,0.0,0.0,0.0,0.0,0.0,1.6607923e-06,0.0,0.0,nan,0.0,0.0,0.0,0.0,0.0002522155,inf,0.0,0.0,0.003162251,0.0,0.0,0.0,0.0,0.0,0.0,0.0,0.0
5316000,5236000,1.1373622e-06,0.0,1.9952356e-06,2.339435e-06,0.0,2.559257e-07,0.0,0.0,0.0,0.0,0.0,0.0,0.0,1.6607923e-06,0.0,0.0,nan,0.0,0.0,0.0,0.0,0.0002522155,inf,0.0,0.0,7.081446e-05,0.0,0.0,0.0,0.0,0.0,0.0,0.0,0.0
5324000,5244000,1.1373622e-06,0.0,1.9952356e-06,2.339435e-06,0.0,2.559257e-07,0.0,0.0,0.0,0.0,0.0,0.0,0.0,1.6607923e-06,0.0,0.0,nan,0.0,0.0,0.0,0.0,0.0002522155,inf,0.0,0.0,0.00022676161,0.0,0.0,0.0,0.0,0.0,0.0,0.0,0.0
5332000,5252000,1.1373622e-06,0.0,1.9952356e-06,2.339435e-06,0.0,2.559257e-07,0.0,0.0,0.0,0.0,0.0,0.0,0.0,1.6607923e-06,0.0,0.0,nan,0.0,0.0,0.0,0.0,0.0002522155,inf,0.0,0.0,4.468908e-07,0.0,0.0,0.0,0.0,0.0,0.0,0.0,0.0
5340000,5260000,1.1373622e-06,0.0,1.9952356e-06,2.339435e-06,0.0,2.559257e-07,0.0,0.0,0.0,0.0,0.0,0.0,0.0,1.6607923e-06,0.0,0.0,nan,0.0,0.0,0.0,0.0,0.00018271946,inf,0.0,0.0,0.0002021413,0.0,0.0,0.0,0.0,0.0,0.0,0.0,0.0
5348000,5268000,1.1373622e-06,0.0,1.9952356e-06,2.339435e-06,0.0,2.559257e-07,0.0,0.0,0.0,0.0,0.0,0.0,0.0,1.6607923e-06,0.0,0.0,nan,0.0,0.0,0.0,0.0,0.00018271946,inf,0.0,0.0,0.00059954455,0.0,0.0,0.0,0.0,0.0,0.0,0.0,0.0
5356000,5276000,1.1373622e-06,0.0,1.9952356e-06,2.339435e-06,0.0,2.559257e-07,0.0,0.0,0.0,0.0,0.0,0.0,0.0,1.6607923e-06,0.0,0.0,nan,0.0,0.0,0.0,0.0,0.00018271946,inf,0.0,0.0,0.0010905298,0.0,0.0,0.0,0.0,0.0,0.0,0.0,0.0
5364000,5284000,1.1373622e-06,0.0,1.9952356e-06,2.339435e-06,0.0,2.559257e-07,0.0,0.0,0.0,0.0,0.0,0.0,0.0,3.940251e-07,0.0,0.0,nan,0.0,0.0,0.0,0.0,0.00018271946,inf,0.0,0.0,2.5540276e-05,0.0,0.0,0.0,0.0,0.0,0.0,0.0,0.0
5372000,5292000,1.1373622e-06,0.0,1.9952356e-06,2.339435e-06,0.0,2.559257e-07,0.0,0.0,0.0,0.0,0.0,0.0,0.0,3.940251e-07,0.0,0.0,nan,0.0,0.0,0.0,0.0,0.00018271946,inf,0.0,0.0,2.1252856e-05,0.0,0.0,0.0,0.0,0.0,0.0,0.0,0.0
5380000,5300000,1.1373622e-06,0.0,1.9952356e-06,2.339435e-06,0.0,2.559257e-07,0.0,0.0,0.0,0.0,0.0,0.0,0.0,3.940251e-07,0.0,0.0,nan,0.0,0.0,0.0,0.0,0.00018271946,inf,0.0,0.0,1.4429406e-05,0.0,0.0,0.0,0.0,0.0,0.0,0.0,0.0
5388000,5308000,1.1373622e-06,0.0,1.9952356e-06,2.339435e-06,0.0,2.559257e-07,0.0,0.0,0.0,0.0,0.0,0.0,0.0,3.940251e-07,0.0,0.0,nan,0.0,0.0,0.0,0.0,0.00018271946,inf,0.0,0.0,0.0010112156,0.0,0.0,0.0,0.0,0.0,0.0,0.0,0.0
5396000,5316000,1.1373622e-06,0.0,1.9952356e-06,2.339435e-06,0.0,2.559257e-07,0.0,0.0,0.0,0.0,0.0,0.0,0.0,3.940251e-07,0.0,0.0,nan,0.0,0.0,0.0,0.0,0.00018271946,inf,0.0,0.0,0.00072897604,0.0,0.0,0.0,0.0,0.0,0.0,0.0,0.0
5404000,5324000,4.2493597e-05,0.0,0.00032354592,2.2538961e-06,0.0,1.8336542e-07,0.0,0.0,0.0,0.0,0.0,0.0,0.0,3.940251e-07,0.0,0.0,nan,0.0,0.0,0.0,0.0,0.00018271946,inf,0.0,0.0,2.4931494e-05,0.0,0.0,0.0,0.0,0.0,0.0,0.0,0.0
5412000,5332000,4.2493597e-05,0.0,0.00032354592,2.2538961e-06,0.0,1.8336542e-07,0.0,0.0,0.0,0.0,0.0,0.0,0.0,3.940251e-07,0.0,0.0,nan,0.0,0.0,0.0,0.0,0.00017664293,inf,0.0,0.0,0.00023480134,0.0,0.0,0.0,0.0,0.0,0.0,0.0,0.0
5420000,5340000,4.2493597e-05,0.0,0.00032354592,2.2538961e-06,0.0,1.8336542e-07,0.0,0.0,0.0,0.0,0.0,0.0,0.0,2.4206129e-06,0.0,0.0,nan,0.0,0.0,0.0,0.0,0.00017664293,inf,0.0,0.0,0.0005969648,0.0,0.0,0.0,0.0,0.0,0.0,0.0,0.0
5428000,5348000,4.2493597e-05,0.0,0.00032354592,2.2538961e-06,0.0,1.8336542e-07,0.0,0.0,0.0,0.0,0.0,0.0,0.0,2.4206129e-06,0.0,0.0,nan,0.0,0.0,0.0,0.0,0.00017664293,inf,0.0,0.0,0.00018757231,0.0,0.0,0.0,0.0,0.0,0.0,0.0,0.0
5436000,5356000,4.2493597e-05,0.0,0.00032354592,2.2538961e-06,0.0,1.8336542e-07,0.0,0.0,0.0,0.0,0.0,0.0,0.0,2.4206129e-06,0.0,0.0,nan,0.0,0.0,0.0,0.0,0.00017664293,inf,0.0,0.0,0.00032950373,0.0,0.0,0.0,0.0,0.0,0.0,0.0,0.0
5444000,5364000,4.2493597e-05,0.0,0.00032354592,2.2538961e-06,0.0,1.8336542e-07,0.0,0.0,0.0,0.0,0.0,0.0,0.0,2.4206129e-06,0.0,0.0,nan,0.0,0.0,0.0,0.0,0.00017664293,inf,0.0,0.0,0.0009970121,0.0,0.0,0.0,0.0,0.0,0.0,0.0,0.0
5452000,5372000,4.2493597e-05,0.0,0.00032354592,2.2538961e-06,0.0,1.8336542e-07,0.0,0.0,0.0,0.0,0.0,0.0,0.0,2.4206129e-06,0.0,0.0,nan,0.0,0.0,0.0,0.0,0.00017664293,inf,0.0,0.0,0.0001983251,0.0,0.0,0.0,0.0,0.0,0.0,0.0,0.0
5460000,5380000,4.2493597e-05,0.0,0.00032354592,2.2538961e-06,0.0,1.8336542e-07,0.0,0.0,0.0,0.0,0.0,0.0,0.0,2.4206129e-06,0.0,0.0,nan,0.0,0.0,0.0,0.0,0.00017664293,inf,0.0,0.0,7.642644e-05,0.0,0.0,0.0,0.0,0.0,0.0,0.0,0.0
5468000,5388000,4.2493597e-05,0.0,0.00032354592,2.2538961e-06,0.0,1.8336542e-07,0.0,0.0,0.0,0.0,0.0,0.0,0.0,2.4206129e-06,0.0,0.0,nan,0.0,0.0,0.0,0.0,0.00017664293,inf,0.0,0.0,0.0012784605,0.0,0.0,0.0,0.0,0.0,0.0,0.0,0.0
5476000,5396000,4.2493597e-05,0.0,0.00032354592,2.2538961e-06,0.0,1.8336542e-07,0.0,0.0,0.0,0.0,0.0,0.0,0.0,2.4206129e-06,0.0,0.0,nan,0.0,0.0,0.0,0.0,0.00017664293,inf,0.0,0.0,0.0024020197,0.0,0.0,0.0,0.0,0.0,0.0,0.0,0.0
5484000,5404000,4.2493597e-05,0.0,0.00032354592,2.2538961e-06,0.0,1.8336542e-07,0.0,0.0,0.0,0.0,0.0,0.0,0.0,5.7924294e-06,0.0,0.0,nan,0.0,0.0,0.0,0.0,0.00017032035,inf,0.0,0.0,0.0002218009,0.0,0.0,0.0,0.0,0.0,0.0,0.0,0.0
5492000,5412000,4.2493597e-05,0.0,0.00032354592,2.2538961e-06,0.0,1.8336542e-07,0.0,0.0,0.0,0.0,0.0,0.0,0.0,5.7924294e-06,0.0,0.0,nan,0.0,0.0,0.0,0.0,0.00017032035,inf,0.0,0.0,4.732548e-06,0.0,0.0,0.0,0.0,0.0,0.0,0.0,0.0
