timestamp,timestamp_sample,ref_timestamp,ref_lat,ref_lon,x,y,z,delta_xy[0],delta_xy[1],delta_z,vx,vy,vz,z_deriv,delta_vxy[0],delta_vxy[1],delta_vz,ax,ay,az,heading,delta_heading,ref_alt,dist_bottom,eph,epv,evh,evv,vxy_max,vz_max,hagl_min,hagl_max,xy_valid,z_valid,v_xy_valid,v_z_valid,xy_reset_counter,z_reset_counter,vxy_reset_counter,vz_reset_counter,heading_reset_counter,heading_good_for_control,xy_global,z_global,dist_bottom_valid,dist_bottom_sensor_bitfield,dead_reckoning
3652000,3652000,0,nan,nan,0.0015016833,0.00027162128,-0.007259687,-1.620315e-08,2.3855828e-09,0.0,0.0060913167,0.0011020717,-0.021694101,-0.016980631,-4.0507875e-06,5.963957e-07,0.00083714724,0.032086637,-0.008930568,-0.024573876,-3.2424207e-06,0.0,nan,0.10734704,0.010989957,5.773502,0.07446003,0.02298591,inf,inf,inf,inf,0,0,0,0,1,1,1,1,0,0,0,0,0,0,1
4148000,4148000,0,nan,nan,0.002188173,-0.00029242414,-0.00538342,-1.620315e-08,2.3855828e-09,0.0,0.006526694,-0.0014010704,-0.012210368,-0.0062442,-4.0507875e-06,5.963957e-07,0.00083714724,0.026635343,-0.013631462,-0.0052899118,-6.4083855e-05,0.0,nan,0.10254084,0.021409731,4.47217,0.10528591,0.058879033,inf,inf,inf,inf,0,0,0,0,1,1,1,1,0,0,0,0,0,0,1
4652000,4652000,4204000,47.3977508,8.5456073,0.0015943518,-0.0012017847,-0.0073365737,-1.620315e-08,2.3855828e-09,0.0,0.0041280817,-0.0059528113,-0.013115585,-0.007669598,-4.0507875e-06,5.963957e-07,0.00083714724,0.012553296,-0.0038780852,0.0041201706,0.00020678168,0.0,488.09766,0.10097122,0.026490355,3.7798872,0.104588225,0.08524728,inf,inf,inf,inf,0,0,0,0,1,1,1,1,0,0,1,1,0,0,1
5156000,5156000,4204000,47.3977508,8.5456073,0.00035100465,-0.0022470593,-0.010516886,-1.620315e-08,2.3855828e-09,0.0,0.0017760398,-0.005665015,-0.01213056,-0.006419156,-4.0507875e-06,5.963957e-07,0.00083714724,-0.003216075,-0.0002059969,-0.029264947,-6.7422996e-05,0.0,488.09766,0.115064844,0.015499555,1.4314176,0.06279008,0.08961822,inf,inf,inf,inf,0,1,0,1,1,1,1,1,0,0,1,1,0,0,1
5652000,5652000,4204000,47.3977508,8.5456073,-0.00017941349,8.948374e-05,1.5945901e-05,-1.620315e-08,2.3855828e-09,0.0,0.00027913228,0.0016654583,-0.010952898,0.004364561,-4.0507875e-06,5.963957e-07,0.00083714724,-0.011066279,0.009145281,-0.033342276,3.011509e-05,0.0,488.09766,0.10761251,0.018780047,0.9368539,0.063502856,0.093897335,inf,inf,inf,inf,0,1,0,1,1,1,1,1,0,0,1,1,0,0,1
6148000,6148000,4204000,47.3977508,8.5456073,-0.00036637625,0.00067392003,0.0034214791,-1.620315e-08,2.3855828e-09,0.0,-0.00015250963,0.0003455574,-0.0100631155,0.005196458,-4.0507875e-06,5.963957e-07,0.00083714724,-0.012287054,0.0020702134,0.005076639,5.580542e-06,0.0,488.09766,0.10050506,0.0123625975,0.73169386,0.044438925,0.085556336,inf,inf,inf,inf,0,1,0,1,1,1,1,1,0,0,1,1,0,0,1
6652000,6652000,4204000,47.3977508,8.5456073,-0.0018908888,0.00053581735,0.0051279142,-1.620315e-08,2.3855828e-09,0.0,-0.005234584,0.0017306699,-0.007218041,0.0058673224,-4.0507875e-06,5.963957e-07,0.00083714724,-0.0043610195,-0.0121239275,0.016110947,4.2131483e-05,0.0,488.09766,0.1,0.015244353,0.6320382,0.048643496,0.085725084,inf,inf,inf,inf,0,1,0,1,1,1,1,1,0,0,1,1,0,0,1
7156000,7156000,4204000,47.3977508,8.5456073,-0.0018571413,0.002358528,0.007623121,-1.620315e-08,2.3855828e-09,0.0,-0.0026414702,0.008299786,-0.0018742603,0.009423795,-4.0507875e-06,5.963957e-07,0.00083714724,0.023247702,0.018884398,0.02178829,-0.00020806793,0.0,488.09766,0.100479655,0.018536499,0.558722,0.052618872,0.08524039,inf,inf,inf,inf,0,1,0,1,1,1,1,1,0,0,1,1,0,0,1
7652000,7652000,4204000,47.3977508,8.5456073,-0.00019943833,0.0032737474,0.01141611,-1.620315e-08,2.3855828e-09,0.0,0.0005737937,0.0060961987,0.00026120877,0.0100148255,-4.0507875e-06,5.963957e-07,0.00083714724,0.00025139886,0.020063773,-0.009519047,-0.00044848438,0.0,488.09766,0.1,0.013265949,0.5119083,0.04197211,0.07797594,inf,inf,inf,inf,0,1,0,1,1,1,1,1,0,0,1,1,0,0,1
8148000,8148000,4204000,47.3977508,8.5456073,-9.458738e-05,0.001510099,0.008905961,-1.620315e-08,2.3855828e-09,0.0,-0.0020119844,0.002354615,-0.0016332107,0.0023716358,-4.0507875e-06,5.963957e-07,0.00083714724,-0.014685734,-0.011989977,-0.024630686,-0.00059543847,0.0,488.09766,0.1,0.015869118,0.47695476,0.045782257,0.07788296,inf,inf,inf,inf,0,1,0,1,1,1,1,1,0,0,1,1,0,0,1
8652000,8652000,4204000,47.3977508,8.5456073,-0.00055376126,0.00022930508,-0.0019250535,-1.620315e-08,2.3855828e-09,-0.007054102,-0.00070898456,0.0015005466,1.4681049e-05,9.23078e-05,-4.0507875e-06,5.963957e-07,0.00083714724,-0.014791774,-0.0023943284,0.0090524545,-0.000603366,0.0,488.09766,0.10090733,0.011861937,0.9615291,0.037823673,0.07296475,inf,inf,inf,inf,0,1,0,1,1,2,1,1,0,0,1,1,0,0,1
9156000,9156000,4204000,47.3977508,8.5456073,0.0009032487,0.00062031776,-0.0036083967,-1.620315e-08,2.3855828e-09,-0.007054102,0.0038441138,0.0039663515,0.0008591469,-0.00080695294,-4.0507875e-06,5.963957e-07,0.00083714724,0.013970987,0.0027386849,-0.033477318,-0.0006317547,0.0,488.09766,0.1,0.014425035,0.6051539,0.042090144,0.074099265,inf,inf,inf,inf,0,1,0,1,1,2,1,1,0,0,1,1,0,0,1
9652000,9652000,4204000,47.3977508,8.5456073,0.0019994446,0.0010146782,-0.0045039784,-1.620315e-08,2.3855828e-09,-0.007054102,0.005131234,0.0037496835,0.0019657507,0.0006205041,-4.0507875e-06,5.963957e-07,0.00083714724,0.007967072,0.021395389,0.012896023,-0.00046781218,0.0,488.09766,0.10118629,0.017138865,0.4747293,0.045762703,0.07526155,inf,inf,inf,inf,0,1,0,1,1,2,1,1,0,0,1,1,0,0,1
10148000,10148000,4204000,47.3977508,8.5456073,0.0015532924,0.00053967367,0.0016872741,-1.620315e-08,2.3855828e-09,-0.007054102,0.0013588419,0.0005447061,0.005878141,0.008703552,-4.0507875e-06,5.963957e-07,0.00083714724,0.020746998,-0.017617144,0.0052927057,-0.00061865215,0.0,488.09766,0.1,0.012788812,0.4076488,0.03853634,0.07170468,inf,inf,inf,inf,0,1,0,1,1,2,1,1,0,0,1,1,0,0,1
10652000,10652000,4204000,47.3977508,8.5456073,-0.0003843998,-0.0010821683,0.00430611,-1.620315e-08,2.3855828e-09,-0.007054102,-0.0011740526,-0.002605666,0.00723585,0.008892972,-4.0507875e-06,5.963957e-07,0.00083714724,0.028381573,0.008788396,0.0071721147,-0.00069887575,0.0,488.09766,0.1,0.015486586,0.34136736,0.042619854,0.0732524,inf,inf,inf,inf,0,1,0,1,1,2,1,1,0,0,1,1,0,0,1
11148000,11148000,4204000,47.3977508,8.5456073,-0.0009219659,-0.0023769662,0.0069024046,-1.620315e-08,2.3855828e-09,-0.007054102,-0.001985305,-0.0053224484,0.012649848,0.011978435,-4.0507875e-06,5.963957e-07,0.00083714724,-0.037382647,0.008014379,0.008889473,-0.0006566598,0.0,488.09766,0.1,0.011632478,0.3163537,0.035926145,0.07009882,inf,inf,inf,inf,0,1,0,1,1,2,1,1,0,0,1,1,0,0,1
11652000,11652000,4204000,47.3977508,8.5456073,-0.0015877963,-0.0028538436,0.009214451,-1.620315e-08,2.3855828e-09,-0.007054102,-0.004115959,-0.005991954,0.017056206,0.012895733,-4.0507875e-06,5.963957e-07,0.00083714724,0.0086864885,0.0047092033,-0.0003762543,-0.0005858368,0.0,488.09766,0.1,0.014068082,0.29858083,0.0399866,0.071907915,inf,inf,inf,inf,0,1,0,1,1,2,1,1,0,0,1,1,0,0,1
12148000,12148000,4204000,47.3977508,8.5456073,-0.0023059817,-0.0016177732,0.009668123,-1.620315e-08,2.3855828e-09,-0.007054102,-0.0053649447,-0.002327144,0.015007356,0.0070788674,-4.0507875e-06,5.963957e-07,0.00083714724,0.0008643546,-0.0036989949,0.0037001444,-0.00064636447,0.0,488.09766,0.1,0.016669378,0.28440237,0.043554377,0.073567934,inf,inf,inf,inf,0,1,0,1,1,2,1,1,0,0,1,1,0,0,1
12652000,12652000,4204000,47.3977508,8.5456073,-0.0013418661,3.572047e-05,0.0084734615,-1.620315e-08,2.3855828e-09,-0.007054102,-0.00035923868,0.0031268036,0.015235312,0.0042575267,-4.0507875e-06,5.963957e-07,0.00083714724,-0.005454625,0.0069200173,-0.016928649,-0.0006144971,0.0,488.09766,0.1,0.012827998,0.26340264,0.03767533,0.07058014,inf,inf,inf,inf,0,1,0,1,1,2,1,1,0,0,1,1,0,0,1
13156000,13156000,4204000,47.3977508,8.5456073,0.00019680397,0.0024321596,0.00724403,-1.620315e-08,2.3855828e-09,-0.007054102,0.0012283111,0.0051229736,0.0146385385,0.0018950142,-4.0507875e-06,5.963957e-07,0.00083714724,0.0016394769,-0.009064359,-0.012503936,-0.0005876988,0.0,488.09766,0.1,0.015480715,0.25638086,0.04160226,0.072474755,inf,inf,inf,inf,0,1,0,1,1,2,1,1,0,0,1,1,0,0,1
13652000,13652000,4204000,47.3977508,8.5456073,0.001483212,0.0025384396,0.00693309,-1.620315e-08,2.3855828e-09,-0.007054102,0.0043170117,0.003745321,0.01288294,0.00023333493,-4.0507875e-06,5.963957e-07,0.00083714724,-0.0052110115,0.014735574,0.009855255,-0.00048829266,0.0,488.09766,0.1,0.01173238,0.2494843,0.035530996,0.06965951,inf,inf,inf,inf,0,1,0,1,1,2,1,1,0,0,1,1,0,0,1
14148000,14148000,4204000,47.3977508,8.5456073,0.0015757942,0.0007085259,0.0052165086,-1.620315e-08,2.3855828e-09,-0.007054102,0.0029141488,-0.0011815923,0.011185081,-0.0017662066,-4.0507875e-06,5.963957e-07,0.00083714724,0.01861184,-0.014870281,0.011394731,-0.00046007705,0.0,488.09766,0.1,0.013914014,0.24592559,0.03910361,0.071426384,inf,inf,inf,inf,0,1,0,1,1,2,1,1,0,0,1,1,0,0,1
14652000,14652000,4204000,47.3977508,8.5456073,0.0014372981,-0.0009307487,0.0060236454,-1.620315e-08,2.3855828e-09,-0.007054102,0.004492034,-0.002716985,0.0079436945,-0.002680017,-4.0507875e-06,5.963957e-07,0.00083714724,-0.010512361,-0.0034099647,-0.008970498,-0.00058134925,0.0,488.09766,0.1,0.010801939,0.23644736,0.03374534,0.0730367,inf,inf,inf,inf,0,1,0,1,1,2,1,1,0,0,1,1,0,0,1
15148000,15148000,4204000,47.3977508,8.5456073,0.0014369233,-0.00060621975,0.0048599057,-1.620315e-08,2.3855828e-09,-0.007054102,0.0022358438,-0.00035866583,0.00802534,-0.0019067477,-4.0507875e-06,5.963957e-07,0.00083714724,0.007840397,0.0019787839,0.0076331194,-0.00045087334,0.0,488.09766,0.100188285,0.020134212,0.2354257,0.072993435,0.07487551,inf,inf,inf,inf,0,1,0,1,1,2,1,1,0,0,1,1,0,0,1
15652000,15652000,4204000,47.3977508,8.5456073,0.0027073426,-0.00030712166,0.0062905247,-1.620315e-08,2.3855828e-09,-0.007054102,0.0026816917,-0.00095941115,0.011051253,0.0026484919,-4.0507875e-06,5.963957e-07,0.00083714724,0.024284963,-0.0057255817,-0.026637686,-0.0004387889,0.0,488.09766,0.100368634,0.087877095,0.24306001,0.23906411,0.08622785,inf,inf,inf,inf,0,1,0,1,1,2,1,1,0,0,1,1,0,0,1
16148000,16148000,4204000,47.3977508,8.5456073,0.004629722,-0.0011796671,0.010704698,-1.620315e-08,2.3855828e-09,-0.007054102,0.0049225367,-0.0030046445,0.0143978335,0.007897735,-4.0507875e-06,5.963957e-07,0.00083714724,0.009217096,0.007477909,-0.025913117,-0.00037558386,0.0,488.09766,0.100298144,0.24413875,0.2559576,0.4091448,0.09742588,inf,inf,inf,inf,0,1,0,1,1,2,1,1,0,0,1,1,0,0,1
16652000,16652000,4204000,47.3977508,8.5456073,0.007364709,-0.003732247,0.017037507,-1.620315e-08,2.3855828e-09,-0.007054102,0.004780719,-0.0072396593,0.021090612,0.015159384,-4.0507875e-06,5.963957e-07,0.00083714724,-0.032804932,-0.043807957,0.04587229,-0.0003007681,0.0,488.09766,0.1,0.4908971,0.26401597,0.5825919,0.10669997,inf,inf,inf,inf,0,1,0,1,1,2,1,1,0,0,1,1,0,0,1
17148000,17148000,4204000,47.3977508,8.5456073,0.009814232,-0.008093755,0.025124436,-1.620315e-08,2.3855828e-09,-0.007054102,0.005609468,-0.011664262,0.025848908,0.019219635,-4.0507875e-06,5.963957e-07,0.00083714724,-0.0022160965,-0.026905632,0.0028396023,-9.648615e-05,0.0,488.09766,0.1,0.81714565,0.28412277,0.7514617,0.116096824,inf,inf,inf,inf,0,1,0,1,1,2,1,1,0,0,1,1,0,0,1
17652000,17652000,4204000,47.3977508,8.5456073,0.011547106,-0.013730731,0.03207861,-1.620315e-08,2.3855828e-09,-0.007054102,0.0035961368,-0.0077537876,-0.0010298486,-0.009348358,-4.0507875e-06,5.963957e-07,0.00083714724,-0.037387475,0.07641356,-0.33486354,-0.00023374475,0.0,488.09766,0.1,1.2304835,0.30748355,0.9205718,0.12451806,inf,inf,inf,inf,0,1,0,1,1,2,1,1,0,0,1,1,0,0,1
18148000,18148000,4204000,47.3977508,8.5456073,-0.009607015,0.013365621,-0.030170988,-1.620315e-08,2.3855828e-09,-0.007054102,-0.14286138,0.15911917,-0.27106535,-0.28065518,-4.0507875e-06,5.963957e-07,0.00083714724,-0.37140414,0.30020994,-0.87607646,0.007449473,0.0,488.09766,0.1618821,1.71095,0.32964104,1.0878785,0.13045967,inf,inf,inf,inf,0,1,0,1,1,2,1,1,0,0,1,1,0,0,1
18652000,18652000,4204000,47.3977508,8.5456073,-0.08942318,0.09961571,-0.2776325,-1.620315e-08,2.3855828e-09,-0.007054102,-0.13676181,0.14380455,-0.5752853,-0.5869231,-4.0507875e-06,5.963957e-07,0.00083714724,0.09429463,-0.17063336,0.19183289,0.0064297677,0.0,488.09766,0.4093436,2.237188,0.33365685,1.236397,0.13082781,inf,inf,inf,inf,0,1,0,1,1,2,1,1,0,0,1,1,0,0,1
19156000,19156000,4204000,47.3977508,8.5456073,-0.13430735,0.13829577,-0.5839737,-1.620315e-08,2.3855828e-09,-0.007054102,-0.04565516,0.022079643,-0.6226744,-0.6369825,-4.0507875e-06,5.963957e-07,0.00083714724,0.19970694,-0.23570399,-0.09124632,0.005332376,0.0,488.09766,0.71568483,2.8080714,0.3517523,1.3604317,0.1342696,inf,inf,inf,inf,0,1,0,1,1,2,1,1,0,0,1,1,0,0,1
19652000,19652000,4204000,47.3977508,8.5456073,-0.12153233,0.10732649,-0.91151786,-1.620315e-08,2.3855828e-09,-0.007054102,0.05037348,-0.09672829,-0.64826536,-0.6648387,-4.0507875e-06,5.963957e-07,0.00083714724,0.1466575,-0.15819755,0.007531605,0.0046453043,0.0,488.09766,1.043229,3.2754803,0.3686131,1.4161239,0.1368677,inf,inf,inf,inf,0,1,0,1,1,2,1,1,0,0,1,1,0,0,1
20148000,20148000,4204000,47.3977508,8.5456073,-0.055279482,0.04031495,-1.2332637,-1.620315e-08,2.3855828e-09,-0.007054102,0.2570553,-0.012115958,-0.5066924,-0.52695453,-4.0507875e-06,5.963957e-07,0.00083714724,0.9884006,0.87382543,0.5947556,0.004215119,0.0,488.09766,1.3649749,3.7596164,0.38120303,1.4648994,0.13797493,inf,inf,inf,inf,0,1,0,1,1,2,1,1,0,0,1,1,0,0,1
20652000,20652000,4204000,47.3977508,8.5456073,0.15406524,0.09978622,-1.4873264,-1.620315e-08,2.3855828e-09,-0.007054102,0.5118932,0.20643461,-0.44187278,-0.47275338,-4.0507875e-06,5.963957e-07,0.00083714724,0.22675136,0.18846172,0.045793127,0.0013911894,0.0,488.09766,1.6190375,4.190285,0.36764485,1.4844718,0.1327848,inf,inf,inf,inf,0,1,0,1,1,2,1,1,0,0,1,1,0,0,1
21148000,21148000,4204000,47.3977508,8.5456073,0.37742746,0.22549184,-1.7465531,-1.620315e-08,2.3855828e-09,-0.007054102,0.6321987,0.31796375,-0.24355802,-0.3199563,-4.0507875e-06,5.963957e-07,0.00083714724,0.27277356,0.32278854,1.3056508,-0.0014279855,0.0,488.09766,1.8782642,4.32501,0.37557882,1.4077082,0.13298085,inf,inf,inf,inf,0,1,0,1,1,2,1,1,0,0,1,1,0,0,1
21652000,21652000,4204000,47.3977508,8.5456073,0.58456415,0.43292496,-1.8831295,-1.620315e-08,2.3855828e-09,-0.007054102,0.8189174,0.6090665,0.15982062,-0.0075189467,-4.0507875e-06,5.963957e-07,0.00083714724,0.79110116,0.94849837,0.29748583,0.00076147745,0.0,488.09766,2.0148406,4.575294,0.3852863,1.3696674,0.13412447,inf,inf,inf,inf,0,1,0,1,1,2,1,1,0,0,1,1,0,0,1
22148000,22148000,4204000,47.3977508,8.5456073,0.8511169,0.81269395,-2.0136812,-1.620315e-08,2.3855828e-09,-0.007054102,1.2790611,1.2179092,0.33457634,0.049178876,-4.0507875e-06,5.963957e-07,0.00083714724,1.3523861,1.576581,0.7049674,-0.0032787605,0.0,488.09766,2.1453922,4.5055547,0.39095765,1.2581075,0.13529873,inf,inf,inf,inf,0,1,0,1,1,2,1,1,0,0,1,1,0,0,1
22652000,22652000,4204000,47.3977508,8.5456073,1.2387261,1.4149712,-2.1361778,-1.620315e-08,2.3855828e-09,-0.007054102,1.8032124,1.8954377,0.6241898,0.17522618,-4.0507875e-06,5.963957e-07,0.00083714724,1.1464157,1.2721674,0.56731606,0.00055927393,0.0,488.09766,2.2678888,4.63015,0.37151727,1.2096244,0.1318237,inf,inf,inf,inf,0,1,0,1,1,2,1,1,0,0,1,1,0,0,1
23156000,23156000,4204000,47.3977508,8.5456073,1.6788265,2.1019268,-2.2245915,-1.620315e-08,2.3855828e-09,-0.007054102,2.040078,2.2342057,0.8525196,0.22289586,-4.0507875e-06,5.963957e-07,0.00083714724,0.351119,0.43735272,0.7688142,0.01044715,0.0,488.09766,2.3563025,4.717637,0.3775667,1.160502,0.13356906,inf,inf,inf,inf,0,1,0,1,1,2,1,1,0,0,1,1,0,0,1
23652000,23652000,4204000,47.3977508,8.5456073,1.992215,2.5890656,-2.2323625,-1.620315e-08,2.3855828e-09,-0.007054102,1.8560497,2.0734289,0.96294487,0.22801763,-4.0507875e-06,5.963957e-07,0.00083714724,-0.50089884,-0.5451236,0.48320645,0.018866627,0.0,488.09766,2.3640735,4.5237207,0.38452885,1.0549462,0.13396446,inf,inf,inf,inf,0,1,0,1,1,2,1,1,0,0,1,1,0,0,1
24148000,24148000,4204000,47.3977508,8.5456073,2.0844336,2.7591088,-2.1856105,-1.620315e-08,2.3855828e-09,-0.007054102,1.3061873,1.4600728,0.9091996,0.15285607,-4.0507875e-06,5.963957e-07,0.00083714724,-1.1846163,-1.3527048,-0.038610768,0.021913156,0.0,488.09766,2.3173215,4.556535,0.39133677,1.0101794,0.13431402,inf,inf,inf,inf,0,1,0,1,1,2,1,1,0,0,1,1,0,0,1
24652000,24652000,4204000,47.3977508,8.5456073,1.8724297,2.5256975,-2.1575904,-1.620315e-08,2.3855828e-09,-0.007054102,0.5221167,0.5549553,0.68370825,-0.04148443,-4.0507875e-06,5.963957e-07,0.00083714724,-1.4013807,-1.6194303,-0.43500584,0.02299401,0.0,488.09766,2.2893014,4.36118,0.3689995,0.92593247,0.12906104,inf,inf,inf,inf,0,1,0,1,1,2,1,1,0,0,1,1,0,0,1
25148000,25148000,4204000,47.3977508,8.5456073,1.3794335,1.9002227,-2.1299078,-1.620315e-08,2.3855828e-09,-0.007054102,-0.32481498,-0.44397578,0.3443223,-0.2559229,-4.0507875e-06,5.963957e-07,0.00083714724,-1.4227113,-1.676986,-0.84499174,0.024405118,0.0,488.09766,2.2616189,4.376627,0.37570646,0.89683336,0.13143203,inf,inf,inf,inf,0,1,0,1,1,2,1,1,0,0,1,1,0,0,1
25652000,25652000,4204000,47.3977508,8.5456073,0.6582571,0.9741098,-2.1186504,-1.620315e-08,2.3855828e-09,-0.007054102,-1.1529578,-1.407372,-0.07436249,-0.4739101,-4.0507875e-06,5.963957e-07,0.00083714724,-1.4726173,-1.7320178,-1.0430728,-0.011548521,0.0,488.09766,2.2503614,4.3930616,0.3811764,0.8770085,0.1342412,inf,inf,inf,inf,0,1,0,1,1,2,1,1,0,0,1,1,0,0,1
26156000,26156000,4204000,47.3977508,8.5456073,-0.2926079,-0.18337461,-2.173338,-1.620315e-08,2.3855828e-09,-0.007054102,-1.9985226,-2.1590002,-0.44499737,-0.6278968,-4.0507875e-06,5.963957e-07,0.00083714724,-1.6204584,-1.1119165,-0.6252592,-0.48164022,0.0,488.09766,2.305049,4.2107387,0.38943514,0.8299707,0.13770168,inf,inf,inf,inf,0,1,0,1,1,2,1,1,0,0,1,1,0,0,1
26652000,26652000,4204000,47.3977508,8.5456073,-1.4013481,-1.3791376,-2.237511,-1.620315e-08,2.3855828e-09,-0.007054102,-2.6599574,-2.6139765,-0.7902481,-0.71310663,-4.0507875e-06,5.963957e-07,0.00083714724,-1.1748985,-0.69520307,-0.5348259,-0.92096645,0.0,488.09766,2.369222,4.2196827,0.36983395,0.8228508,0.13465035,inf,inf,inf,inf,0,1,0,1,1,2,1,1,0,0,1,1,0,0,1
27156000,27156000,4204000,47.3977508,8.5456073,-2.5577152,-2.3862495,-2.9320328,-1.620315e-08,2.3855828e-09,-0.007054102,-2.8362827,-2.3451097,-2.3693166,-1.9921892,-4.0507875e-06,5.963957e-07,0.00083714724,-0.15371773,0.012742791,-0.27666706,-0.9466032,0.0,488.09766,3.0637438,4.0608015,0.37563878,0.7949147,0.12815821,inf,inf,inf,inf,0,1,0,1,1,2,1,1,0,0,1,1,0,0,1
27652000,27652000,4204000,47.3977508,8.5456073,-3.5697238,-3.2235365,-3.3858173,-1.620315e-08,2.3855828e-09,-0.007054102,-2.7570071,-2.3018894,-2.2394853,-1.4645814,-4.0507875e-06,5.963957e-07,0.00083714724,0.28121826,-0.038389042,0.08850358,-0.9464806,0.0,488.09766,3.5175283,4.075332,0.38037843,0.7832419,0.1208726,inf,inf,inf,inf,0,1,0,1,1,2,1,1,0,0,1,1,0,0,1
28148000,28148000,4204000,47.3977508,8.5456073,-4.3919063,-3.9600503,-3.5965729,-1.620315e-08,2.3855828e-09,-0.007054102,-2.4587,-2.2795177,-1.9327099,-0.8408484,-4.0507875e-06,5.963957e-07,0.00083714724,0.69963515,-0.072022736,0.3774082,-0.9460865,0.0,488.09766,3.728284,4.088185,0.38073435,0.77121615,0.11522266,inf,inf,inf,inf,0,1,0,1,1,2,1,1,0,0,1,1,0,0,1
28652000,28652000,4204000,47.3977508,8.5456073,-4.8796206,-4.562776,-3.5315938,-1.620315e-08,2.3855828e-09,-0.007054102,-1.9415135,-2.2642927,-1.4632403,-0.120927095,-4.0507875e-06,5.963957e-07,0.00083714724,1.0526497,-0.11646645,0.67269427,-0.94597995,0.0,488.09766,3.6633048,3.9452636,0.35785827,0.73648864,0.10815728,inf,inf,inf,inf,0,1,0,1,1,2,1,1,0,0,1,1,0,0,1
29148000,29148000,4204000,47.3977508,8.5456073,-5.0118356,-5.0768347,-3.240528,-1.620315e-08,2.3855828e-09,-0.007054102,-1.2650983,-2.2614677,-0.8925848,0.57627445,-4.0507875e-06,5.963957e-07,0.00083714724,1.3374009,-0.14434898,0.8619669,-0.9459482,0.0,488.09766,3.372239,3.9582934,0.3576102,0.7278682,0.10817005,inf,inf,inf,inf,0,1,0,1,1,2,1,1,0,0,1,1,0,0,1
29652000,29652000,4204000,47.3977508,8.5456073,-4.711778,-5.483369,-2.784871,-1.620315e-08,2.3855828e-09,-0.007054102,-0.4578962,-2.2558477,-0.26334816,1.1741815,-4.0507875e-06,5.963957e-07,0.00083714724,1.45209,-0.1960002,1.0019019,-0.9459908,0.0,488.09766,2.916582,3.828503,0.36017808,0.70287573,0.11087614,inf,inf,inf,inf,0,1,0,1,1,2,1,1,0,0,1,1,0,0,1
30156000,30156000,4204000,47.3977508,8.5456073,-3.9931602,-5.758706,-2.1959984,-1.620315e-08,2.3855828e-09,-0.007054102,0.17510515,-2.210641,0.14385532,1.4290572,-4.0507875e-06,5.963957e-07,0.00083714724,0.08906342,-0.044061974,-0.24869105,-0.94572705,0.0,488.09766,2.3277094,3.8481207,0.3618195,0.70489687,0.1150209,inf,inf,inf,inf,0,1,0,1,1,2,1,1,0,0,1,1,0,0,1
30652000,30652000,4204000,47.3977508,8.5456073,-3.263532,-5.980645,-1.6864084,-1.620315e-08,2.3855828e-09,-0.007054102,0.10223678,-2.2027588,-0.016855834,1.0893238,-4.0507875e-06,5.963957e-07,0.00083714724,-1.6645788,-1.1882136,-1.7034103,-0.91942084,0.0,488.09766,1.8181195,3.8653667,0.34431645,0.7130816,0.116190985,inf,inf,inf,inf,0,1,0,1,1,2,1,1,0,0,1,1,0,0,1
31148000,31148000,4204000,47.3977508,8.5456073,-2.9585638,-6.53205,-1.4741734,-1.620315e-08,2.3855828e-09,-0.007054102,-1.2639564,-3.9966245,-0.4333694,0.47107548,-4.0507875e-06,5.963957e-07,0.00083714724,-3.3516772,-2.481368,-3.220366,-1.391206,0.0,488.09766,1.6058846,3.7526066,0.34965938,0.72835314,0.11362705,inf,inf,inf,inf,0,1,0,1,1,2,1,1,0,0,1,1,0,0,1
31652000,31652000,4204000,47.3977508,8.5456073,-3.156491,-7.50913,-1.83877,-1.620315e-08,2.3855828e-09,-0.007054102,-1.144228,-3.7535274,-1.1315602,-0.449244,-4.0507875e-06,5.963957e-07,0.00083714724,1.2284825,1.4421465,0.8075404,-2.2748737,0.0,488.09766,1.9704812,3.79125,0.3536477,0.7509669,0.110189475,inf,inf,inf,inf,0,1,0,1,1,2,1,1,0,0,1,1,0,0,1
32156000,32156000,4204000,47.3977508,8.5456073,-3.0123491,-7.93704,-2.2225933,-1.620315e-08,2.3855828e-09,-0.007054102,-0.2816059,-2.778523,-0.72602236,-0.25169715,-4.0507875e-06,5.963957e-07,0.00083714724,1.8309938,1.5823185,0.7068049,-2.3851693,0.0,488.09766,2.3543043,3.6995378,0.35674018,0.7268992,0.1071073,inf,inf,inf,inf,0,1,0,1,1,2,1,1,0,0,1,1,0,0,1
32652000,32652000,4204000,47.3977508,8.5456073,-2.4104803,-7.7940187,-2.4805226,-1.620315e-08,2.3855828e-09,-0.007054102,0.70712227,-1.9195367,-0.41154885,-0.101276666,-4.0507875e-06,5.963957e-07,0.00083714724,1.756694,1.0556842,0.5069328,-2.380931,0.0,488.09766,2.6122336,3.7336144,0.33949843,0.7284179,0.10381261,inf,inf,inf,inf,0,1,0,1,1,2,1,1,0,0,1,1,0,0,1
33148000,33148000,4204000,47.3977508,8.5456073,-1.4581585,-7.347917,-2.6507804,-1.620315e-08,2.3855828e-09,-0.007054102,1.5350113,-1.3169951,-0.15762165,0.016202956,-4.0507875e-06,5.963957e-07,0.00083714724,1.2886118,0.5801947,0.49504727,-2.3800507,0.0,488.09766,2.7824914,3.7683485,0.34181294,0.7384601,0.106304824,inf,inf,inf,inf,0,1,0,1,1,2,1,1,0,0,1,1,0,0,1
33652000,33652000,4204000,47.3977508,8.5456073,-0.2695352,-6.6360674,-2.7503216,-1.620315e-08,2.3855828e-09,-0.007054102,2.1239767,-0.94705063,0.049041495,0.108453915,-4.0507875e-06,5.963957e-07,0.00083714724,0.8659102,0.13341245,0.41405296,-2.379473,0.0,488.09766,2.8820326,3.6818655,0.34535423,0.7358328,0.1104652,inf,inf,inf,inf,0,1,0,1,1,2,1,1,0,0,1,1,0,0,1
34148000,34148000,4204000,47.3977508,8.5456073,0.92969996,-5.9698334,-2.7919059,-1.620315e-08,2.3855828e-09,-0.007054102,2.475513,-0.78003496,0.17717499,0.14999941,-4.0507875e-06,5.963957e-07,0.00083714724,0.53009623,-0.12940653,0.20166299,-2.3782763,0.0,488.09766,2.923617,3.7217972,0.35115576,0.7478015,0.11561223,inf,inf,inf,inf,0,1,0,1,1,2,1,1,0,0,1,1,0,0,1
34652000,34652000,4204000,47.3977508,8.5456073,2.0687034,-5.3469377,-2.8093798,-1.620315e-08,2.3855828e-09,-0.007054102,2.6495578,-0.7340881,0.25097984,0.14997882,-4.0507875e-06,5.963957e-07,0.00083714724,0.28938037,-0.30954546,0.09401142,-2.3765917,0.0,488.09766,2.9410908,3.6441343,0.3383327,0.7421562,0.11781749,inf,inf,inf,inf,0,1,0,1,1,2,1,1,0,0,1,1,0,0,1
35148000,35148000,4204000,47.3977508,8.5456073,3.041527,-4.8282585,-2.8163795,-1.620315e-08,2.3855828e-09,-0.007054102,2.6962793,-0.747241,0.2986289,0.13605227,-4.0507875e-06,5.963957e-07,0.00083714724,0.14635964,-0.33626574,0.13472325,-2.3740327,0.0,488.09766,2.9480906,3.6895585,0.34506524,0.74980426,0.12309786,inf,inf,inf,inf,0,1,0,1,1,2,1,1,0,0,1,1,0,0,1
35652000,35652000,4204000,47.3977508,8.5456073,3.8902836,-4.447036,-2.814182,-1.620315e-08,2.3855828e-09,-0.007054102,2.6893463,-0.7754327,0.3293606,0.12173052,-4.0507875e-06,5.963957e-07,0.00083714724,0.16122255,-0.2787951,0.15454179,-2.3713305,0.0,488.09766,2.945893,3.7421646,0.35551018,0.7567436,0.12871595,inf,inf,inf,inf,0,1,0,1,1,2,1,1,0,0,1,1,0,0,1
36156000,36156000,4204000,47.3977508,8.5456073,4.540919,-4.0863543,-2.8080857,-1.620315e-08,2.3855828e-09,-0.007054102,2.6641867,-0.7741131,0.33728886,0.10020011,-4.0507875e-06,5.963957e-07,0.00083714724,0.19973946,-0.24265052,0.07057096,-2.3687546,0.0,488.09766,2.9397967,3.6699073,0.3652472,0.74653476,0.1335973,inf,inf,inf,inf,0,1,0,1,1,2,1,1,0,0,1,1,0,0,1
36652000,36652000,4204000,47.3977508,8.5456073,5.095766,-3.8249166,-2.8089397,-1.620315e-08,2.3855828e-09,-0.007054102,2.6512992,-0.7474676,0.33338937,0.07100362,-4.0507875e-06,5.963957e-07,0.00083714724,0.23680376,-0.12324423,-0.013445503,-2.366675,0.0,488.09766,2.9406507,3.7186673,0.3532892,0.75186765,0.13320386,inf,inf,inf,inf,0,1,0,1,1,2,1,1,0,0,1,1,0,0,1
37156000,37156000,4204000,47.3977508,8.5456073,5.549508,-3.5653138,-2.8086715,-1.620315e-08,2.3855828e-09,-0.007054102,2.6580744,-0.68269724,0.3232625,0.0456191,-4.0507875e-06,5.963957e-07,0.00083714724,0.32493672,-0.07900239,0.08697062,-2.365079,0.0,488.09766,2.9403825,3.6473038,0.3634848,0.7413538,0.1367218,inf,inf,inf,inf,0,1,0,1,1,2,1,1,0,0,1,1,0,0,1
37652000,37652000,4204000,47.3977508,8.5456073,5.9394956,-3.3148475,-2.7993617,-1.620315e-08,2.3855828e-09,-0.007054102,2.6896994,-0.59899634,0.30781868,0.032905914,-4.0507875e-06,5.963957e-07,0.00083714724,0.3676776,-0.019389348,0.047578473,-2.3629014,0.0,488.09766,2.9310727,3.6959648,0.37495932,0.7471634,0.1398561,inf,inf,inf,inf,0,1,0,1,1,2,1,1,0,0,1,1,0,0,1
38148000,38148000,4204000,47.3977508,8.5456073,6.335814,-3.0846465,-2.7833457,-1.620315e-08,2.3855828e-09,-0.007054102,2.7366943,-0.5104132,0.2869099,0.026450688,-4.0507875e-06,5.963957e-07,0.00083714724,0.40460503,-0.0017050878,0.015362165,-2.3614051,0.0,488.09766,2.9150567,3.7451828,0.38401005,0.7532246,0.14186074,inf,inf,inf,inf,0,1,0,1,1,2,1,1,0,0,1,1,0,0,1
38652000,38652000,4204000,47.3977508,8.5456073,6.6264586,-2.7971523,-2.773751,-1.620315e-08,2.3855828e-09,-0.007054102,2.7664552,-0.39346576,0.2526634,0.0051244507,-4.0507875e-06,5.963957e-07,0.00083714724,0.38828984,0.056075007,-0.082474194,-2.3603857,0.0,488.09766,2.905462,3.6728578,0.3687472,0.74339944,0.13780978,inf,inf,inf,inf,0,1,0,1,1,2,1,1,0,0,1,1,0,0,1
39148000,39148000,4204000,47.3977508,8.5456073,6.9430714,-2.5284805,-2.760658,-1.620315e-08,2.3855828e-09,-0.007054102,2.7955902,-0.28035998,0.21679644,-0.009896388,-4.0507875e-06,5.963957e-07,0.00083714724,0.3896931,0.07670267,0.05668122,-2.3596976,0.0,488.09766,2.892369,3.7215772,0.3786654,0.7500587,0.13938072,inf,inf,inf,inf,0,1,0,1,1,2,1,1,0,0,1,1,0,0,1
39652000,39652000,4204000,47.3977508,8.5456073,7.2080746,-2.2310822,-2.74192,-1.620315e-08,2.3855828e-09,-0.007054102,2.8165307,-0.167849,0.20182608,0.00034248177,-4.0507875e-06,5.963957e-07,0.00083714724,0.3740181,0.040756945,0.021833925,-2.3588662,0.0,488.09766,2.873631,3.6495924,0.3868458,0.74092853,0.14036205,inf,inf,inf,inf,0,1,0,1,1,2,1,1,0,0,1,1,0,0,1
40148000,40148000,4204000,47.3977508,8.5456073,7.4363365,-1.930142,-2.7181091,-1.620315e-08,2.3855828e-09,-0.007054102,2.813345,-0.05614078,0.17481375,0.0008926238,-4.0507875e-06,5.963957e-07,0.00083714724,0.33297107,0.10953357,-0.0010319053,-2.358342,0.0,488.09766,2.8498201,3.6979582,0.3932307,0.74817395,0.14082834,inf,inf,inf,inf,0,1,0,1,1,2,1,1,0,0,1,1,0,0,1
40652000,40652000,4204000,47.3977508,8.5456073,7.6768045,-1.6296173,-2.6958308,-1.620315e-08,2.3855828e-09,-0.007054102,2.8087268,0.05116828,0.14342019,-0.0047383797,-4.0507875e-06,5.963957e-07,0.00083714724,0.3676531,0.036443204,-0.12205447,-2.3577354,0.0,488.09766,2.8275418,3.62648,0.37415802,0.739926,0.1354673,inf,inf,inf,inf,0,1,0,1,1,2,1,1,0,0,1,1,0,0,1
41156000,41156000,4204000,47.3977508,8.5456073,7.80037,-1.3040926,-2.6758769,-1.620315e-08,2.3855828e-09,-0.007054102,2.7858317,0.16420528,0.11841789,-0.0062695723,-4.0507875e-06,5.963957e-07,0.00083714724,0.36804795,0.08814592,0.03377534,-2.3561037,0.0,488.09766,2.8075879,3.6797497,0.38072664,0.7491827,0.13623664,inf,inf,inf,inf,0,1,0,1,1,2,1,1,0,0,1,1,0,0,1
41652000,41652000,4204000,47.3977508,8.5456073,7.957299,-0.9945792,-2.655826,-1.620315e-08,2.3855828e-09,-0.007054102,2.7686334,0.26571316,0.10300857,-0.0015570293,-4.0507875e-06,5.963957e-07,0.00083714724,0.3639293,0.1111934,-0.040762123,-2.354918,0.0,488.09766,2.787537,3.7293487,0.38834065,0.75835735,0.13733697,inf,inf,inf,inf,0,1,0,1,1,2,1,1,0,0,1,1,0,0,1
42156000,42156000,4204000,47.3977508,8.5456073,8.03668,-0.67126006,-2.6387844,-1.620315e-08,2.3855828e-09,-0.007054102,2.735042,0.37282303,0.089325935,0.0012616338,-4.0507875e-06,5.963957e-07,0.00083714724,0.34356883,0.15043242,-0.0085299825,-2.3530252,0.0,488.09766,2.7704954,3.658417,0.39660007,0.7521477,0.1386578,inf,inf,inf,inf,0,1,0,1,1,2,1,1,0,0,1,1,0,0,1
42652000,42652000,4204000,47.3977508,8.5456073,8.098078,-0.3514084,-2.6213682,-1.620315e-08,2.3855828e-09,-0.007054102,2.6956217,0.48587388,0.08063797,0.0066960705,-4.0507875e-06,5.963957e-07,0.00083714724,0.32984313,0.15286922,-0.039284114,-2.3510556,0.0,488.09766,2.7530792,3.7090228,0.37290472,0.7627714,0.13290869,inf,inf,inf,inf,0,1,0,1,1,2,1,1,0,0,1,1,0,0,1
43148000,43148000,4204000,47.3977508,8.5456073,8.168131,-0.028691165,-2.6062982,-1.620315e-08,2.3855828e-09,-0.007054102,2.650964,0.595117,0.07311263,0.008253418,-4.0507875e-06,5.963957e-07,0.00083714724,0.30380934,0.1495477,-0.014979391,-2.3496132,0.0,488.09766,2.7380092,3.634893,0.37991095,0.7571061,0.13431452,inf,inf,inf,inf,0,1,0,1,1,2,1,1,0,0,1,1,0,0,1
43652000,43652000,4204000,47.3977508,8.5456073,8.115566,0.30407432,-2.5911365,-1.620315e-08,2.3855828e-09,-0.007054102,2.5752957,0.7020421,0.07142237,0.014088967,-4.0507875e-06,5.963957e-07,0.00083714724,0.29834336,0.18693392,0.05453266,-2.3476481,0.0,488.09766,2.7228475,3.691878,0.38565406,0.76962316,0.13551497,inf,inf,inf,inf,0,1,0,1,1,2,1,1,0,0,1,1,0,0,1
44148000,44148000,4204000,47.3977508,8.5456073,8.101388,0.63234735,-2.5706763,-1.620315e-08,2.3855828e-09,-0.007054102,2.5065367,0.8096357,0.06866201,0.02075433,-4.0507875e-06,5.963957e-07,0.00083714724,0.24715102,0.20600472,-0.089395784,-2.3454652,0.0,488.09766,2.7023873,3.7459242,0.3928435,0.78212863,0.13708504,inf,inf,inf,inf,0,1,0,1,1,2,1,1,0,0,1,1,0,0,1
44652000,44652000,4204000,47.3977508,8.5456073,8.000385,0.9639494,-2.5566368,-1.620315e-08,2.3855828e-09,-0.007054102,2.4147959,0.91797316,0.061672866,0.017120756,-4.0507875e-06,5.963957e-07,0.00083714724,0.26886976,0.20856997,-0.00836607,-2.3429122,0.0,488.09766,2.6883478,3.6782815,0.37085947,0.77859336,0.13222647,inf,inf,inf,inf,0,1,0,1,1,2,1,1,0,0,1,1,0,0,1
45148000,45148000,4204000,47.3977508,8.5456073,7.88024,1.2897829,-2.5437975,-1.620315e-08,2.3855828e-09,-0.007054102,2.3172314,1.0176834,0.061743073,0.0190878,-4.0507875e-06,5.963957e-07,0.00083714724,0.24405082,0.16195807,-0.006139278,-2.3406723,0.0,488.09766,2.6755085,3.734414,0.37817627,0.79210454,0.1339975,inf,inf,inf,inf,0,1,0,1,1,2,1,1,0,0,1,1,0,0,1
45652000,45652000,4204000,47.3977508,8.5456073,7.7542195,1.6210119,-2.532643,-1.620315e-08,2.3855828e-09,-0.007054102,2.2211251,1.1159934,0.062170785,0.01906122,-4.0507875e-06,5.963957e-07,0.00083714724,0.21010171,0.23794656,0.00114087,-2.3387213,0.0,488.09766,2.664354,3.668324,0.38441688,0.7889616,0.13552906,inf,inf,inf,inf,0,1,0,1,1,2,1,1,0,0,1,1,0,0,1
46148000,46148000,4204000,47.3977508,8.5456073,7.52933,1.9290127,-2.5193586,-1.620315e-08,2.3855828e-09,-0.007054102,2.1032503,1.2062824,0.06407689,0.023573311,-4.0507875e-06,5.963957e-07,0.00083714724,0.19922672,0.24348848,0.026043503,-2.3363895,0.0,488.09766,2.6510696,3.7265735,0.3920511,0.803115,0.13731906,inf,inf,inf,inf,0,1,0,1,1,2,1,1,0,0,1,1,0,0,1
46652000,46652000,4204000,47.3977508,8.5456073,7.3374977,2.2469065,-2.5104144,-1.620315e-08,2.3855828e-09,-0.007054102,1.9898721,1.2917345,0.060831867,0.017622927,-4.0507875e-06,5.963957e-07,0.00083714724,0.19125311,0.22373708,0.02007,-2.3341622,0.0,488.09766,2.6421254,3.7923381,0.3704055,0.8184315,0.1325563,inf,inf,inf,inf,0,1,0,1,1,2,1,1,0,0,1,1,0,0,1
47148000,47148000,4204000,47.3977508,8.5456073,7.061917,2.5302973,-2.5049634,-1.620315e-08,2.3855828e-09,-0.007054102,1.8617489,1.3600607,0.06412894,0.017793415,-4.0507875e-06,5.963957e-07,0.00083714724,0.14201023,0.18941614,0.004474073,-2.331654,0.0,488.09766,2.6366744,3.7216692,0.37788376,0.81421894,0.13433634,inf,inf,inf,inf,0,1,0,1,1,2,1,1,0,0,1,1,0,0,1
47652000,47652000,4204000,47.3977508,8.5456073,6.776587,2.8057568,-2.4955227,-1.620315e-08,2.3855828e-09,-0.007054102,1.7303513,1.4179695,0.06546866,0.018628746,-4.0507875e-06,5.963957e-07,0.00083714724,0.181722,0.2274737,-0.0138422465,-2.3288593,0.0,488.09766,2.6272337,3.7892966,0.38615927,0.8294196,0.1362215,inf,inf,inf,inf,0,1,0,1,1,2,1,1,0,0,1,1,0,0,1
48148000,48148000,4204000,47.3977508,8.5456073,6.492065,3.06674,-2.48824,-1.620315e-08,2.3855828e-09,-0.007054102,1.5970256,1.4764222,0.06619238,0.018449515,-4.0507875e-06,5.963957e-07,0.00083714724,0.17423868,0.21552567,0.015773809,-2.3263555,0.0,488.09766,2.619951,3.7185557,0.39119032,0.8243663,0.13732266,inf,inf,inf,inf,0,1,0,1,1,2,1,1,0,0,1,1,0,0,1
48652000,48652000,4204000,47.3977508,8.5456073,6.123329,3.2876813,-2.482047,-1.620315e-08,2.3855828e-09,-0.007054102,1.4568402,1.5292155,0.06586172,0.015990783,-4.0507875e-06,5.963957e-07,0.00083714724,0.12494026,0.29016867,0.022341495,-2.3233583,0.0,488.09766,2.613758,3.7874455,0.37153876,0.8394272,0.13290642,inf,inf,inf,inf,0,1,0,1,1,2,1,1,0,0,1,1,0,0,1
49156000,49156000,4204000,47.3977508,8.5456073,5.800572,3.5222135,-2.4806895,-1.620315e-08,2.3855828e-09,-0.007054102,1.323907,1.578282,0.061962187,0.008075341,-4.0507875e-06,5.963957e-07,0.00083714724,0.10775511,0.28628874,0.046961006,-2.3208482,0.0,488.09766,2.6124005,3.8585355,0.37986478,0.8545367,0.13482583,inf,inf,inf,inf,0,1,0,1,1,2,1,1,0,0,1,1,0,0,1
49652000,49652000,4204000,47.3977508,8.5456073,5.4072227,3.7007256,-2.478135,-1.620315e-08,2.3855828e-09,-0.007054102,1.177281,1.613137,0.06519208,0.00947495,-4.0507875e-06,5.963957e-07,0.00083714724,0.0776831,0.23380767,0.06764102,-2.3183012,0.0,488.09766,2.609846,3.7856061,0.38510463,0.84781903,0.13599886,inf,inf,inf,inf,0,1,0,1,1,2,1,1,0,0,1,1,0,0,1
50148000,50148000,4204000,47.3977508,8.5456073,5.0290227,3.8569643,-2.4685981,-1.620315e-08,2.3855828e-09,-0.007054102,1.0394825,1.4247344,0.17172228,0.1125766,-4.0507875e-06,5.963957e-07,0.00083714724,0.106848344,-1.0140067,0.31274277,-2.3154395,0.0,488.09766,2.6003091,3.8513787,0.392769,0.8587748,0.13765225,inf,inf,inf,inf,0,1,0,1,1,2,1,1,0,0,1,1,0,0,1
50652000,50652000,4204000,47.3977508,8.5456073,4.6502476,3.8077326,-2.4347572,-1.620315e-08,2.3855828e-09,-0.007054102,0.90811217,1.1055255,0.1312193,0.05898024,-4.0507875e-06,5.963957e-07,0.00083714724,0.033705812,-0.016974516,-0.07628742,-2.3158555,0.0,488.09766,2.5664682,3.780542,0.37091675,0.84580904,0.13261054,inf,inf,inf,inf,0,1,0,1,1,2,1,1,0,0,1,1,0,0,1
51156000,51156000,4204000,47.3977508,8.5456073,4.234979,3.635901,-2.452296,-1.620315e-08,2.3855828e-09,-0.007054102,0.7711563,0.96467936,0.19198579,0.07094329,-4.0507875e-06,5.963957e-07,0.00083714724,0.06456018,-0.09967607,0.4552854,-2.3118658,0.0,488.09766,2.584007,3.8492568,0.37722874,0.85723066,0.13401225,inf,inf,inf,inf,0,1,0,1,1,2,1,1,0,0,1,1,0,0,1
51652000,51652000,4204000,47.3977508,8.5456073,3.8747184,3.427499,-2.480684,-1.620315e-08,2.3855828e-09,-0.007054102,0.6737071,0.7141631,0.37670368,0.16909224,-4.0507875e-06,5.963957e-07,0.00083714724,0.119820945,-0.49677175,0.6916141,-2.307164,0.0,488.09766,2.612395,3.9128022,0.38473344,0.86529875,0.13566326,inf,inf,inf,inf,0,1,0,1,1,2,1,1,0,0,1,1,0,0,1
52148000,52148000,4204000,47.3977508,8.5456073,3.4933896,3.050823,-2.500042,-1.620315e-08,2.3855828e-09,-0.007054102,0.5897334,0.27574125,0.60602856,0.28103113,-4.0507875e-06,5.963957e-07,0.00083714724,0.096304245,-0.8861046,0.549769,-2.3048458,0.0,488.09766,2.631753,3.8302464,0.39235693,0.8497977,0.13740812,inf,inf,inf,inf,0,1,0,1,1,2,1,1,0,0,1,1,0,0,1
52652000,52652000,4204000,47.3977508,8.5456073,3.154873,2.5093265,-2.5234475,-1.620315e-08,2.3855828e-09,-0.007054102,0.51492107,-0.25239384,0.80887437,0.32317728,-4.0507875e-06,5.963957e-07,0.00083714724,0.094987065,-0.88395166,0.359863,-2.3037744,0.0,488.09766,2.6551585,3.895306,0.37051028,0.85797846,0.13265876,inf,inf,inf,inf,0,1,0,1,1,2,1,1,0,0,1,1,0,0,1
53148000,53148000,4204000,47.3977508,8.5456073,2.850382,1.8387418,-2.5474422,-1.620315e-08,2.3855828e-09,-0.007054102,0.44392663,-0.7006483,0.9576624,0.30182204,-4.0507875e-06,5.963957e-07,0.00083714724,0.025111744,-0.55754435,0.5862238,-2.3015952,0.0,488.09766,2.6791532,3.8090515,0.3778648,0.8466001,0.13450068,inf,inf,inf,inf,0,1,0,1,1,2,1,1,0,0,1,1,0,0,1
53652000,53652000,4204000,47.3977508,8.5456073,2.538137,1.1060718,-2.522194,-1.620315e-08,2.3855828e-09,-0.007054102,0.3504674,-0.9381999,1.0621926,0.2962734,-4.0507875e-06,5.963957e-07,0.00083714724,-0.011456606,-0.10118633,0.47499964,-2.3001466,0.0,488.09766,2.653905,3.872009,0.38392374,0.8580268,0.13587886,inf,inf,inf,inf,0,1,0,1,1,2,1,1,0,0,1,1,0,0,1
54148000,54148000,4204000,47.3977508,8.5456073,2.2593157,0.48834312,-2.4389849,-1.620315e-08,2.3855828e-09,-0.007054102,0.2404754,-0.89841217,1.0315772,0.24257506,-4.0507875e-06,5.963957e-07,0.00083714724,-0.06295298,0.41091394,-0.019001773,-2.2985923,0.0,488.09766,2.5706959,3.930943,0.39148057,0.8671667,0.13735726,inf,inf,inf,inf,0,1,0,1,1,2,1,1,0,0,1,1,0,0,1
54652000,54652000,4204000,47.3977508,8.5456073,1.9410998,0.06865802,-2.3536901,-1.620315e-08,2.3855828e-09,-0.007054102,0.10327254,-0.55522764,0.8194963,0.066695705,-4.0507875e-06,5.963957e-07,0.00083714724,-0.15797031,0.98116505,-0.40931067,-2.2974205,0.0,488.09766,2.4854012,3.8501568,0.37187314,0.85426265,0.13264875,inf,inf,inf,inf,0,1,0,1,1,2,1,1,0,0,1,1,0,0,1
55156000,55156000,4204000,47.3977508,8.5456073,1.6195289,-0.03818894,-2.2523658,-1.620315e-08,2.3855828e-09,-0.007054102,-0.04839442,0.06883732,0.49533197,-0.11558495,-4.0507875e-06,5.963957e-07,0.00083714724,-0.17337246,1.2415028,-0.46535486,-2.2973106,0.0,488.09766,2.3840768,3.9163153,0.37794334,0.8649599,0.1339078,inf,inf,inf,inf,0,1,0,1,1,2,1,1,0,0,1,1,0,0,1
55652000,55652000,4204000,47.3977508,8.5456073,1.28447,0.13647783,-2.075706,-1.620315e-08,2.3855828e-09,-0.007054102,-0.17747794,0.48974112,0.27714825,-0.0895285,-4.0507875e-06,5.963957e-07,0.00083714724,-0.11310858,0.5199482,-0.44669023,-2.298301,0.0,488.09766,2.207417,3.8310246,0.38525468,0.8551898,0.13561627,inf,inf,inf,inf,0,1,0,1,1,2,1,1,0,0,1,1,0,0,1
56156000,56156000,4204000,47.3977508,8.5456073,0.9345534,0.4250934,-1.8480718,-1.620315e-08,2.3855828e-09,-0.007054102,-0.31386176,0.77563435,-0.5466342,-0.60667974,-4.0507875e-06,5.963957e-07,0.00083714724,-0.9142357,-0.8120106,-5.359777,-2.2525287,0.0,488.09766,1.9797829,3.8979335,0.3912414,0.87314135,0.13702068,inf,inf,inf,inf,0,1,0,1,1,2,1,1,0,0,1,1,0,0,1
56652000,56652000,4204000,47.3977508,8.5456073,0.54707617,1.425698,-2.4516582,-1.620315e-08,2.3855828e-09,-0.007054102,-0.652603,3.5507414,-2.7284546,-2.4146929,-4.0507875e-06,5.963957e-07,0.00083714724,-1.2563292,4.694804,-0.5912818,-2.3255267,0.0,488.09766,2.5833693,3.9676886,0.37025398,0.96191585,0.12789978,inf,inf,inf,inf,0,1,0,1,1,2,1,1,0,0,1,1,0,0,1
57156000,57156000,4204000,47.3977508,8.5456073,-0.004741695,3.2620964,-3.0884454,-1.620315e-08,2.3855828e-09,-0.007054102,-0.77576286,4.3532705,-2.1795666,-1.4439517,-4.0507875e-06,5.963957e-07,0.00083714724,0.35052672,0.8137765,5.989893,-2.270473,0.0,488.09766,3.2201564,3.9014258,0.3735897,0.99295926,0.12246309,inf,inf,inf,inf,0,1,0,1,1,2,1,1,0,0,1,1,0,0,1
57652000,57652000,4204000,47.3977508,8.5456073,-0.51587,4.996243,-3.7329082,-1.620315e-08,2.3855828e-09,-0.007054102,-0.9912018,4.40524,-2.5813665,-1.6421194,-4.0507875e-06,5.963957e-07,0.00083714724,-0.13833845,0.18444073,0.09387824,-2.2701068,0.0,488.09766,3.8646193,3.9831097,0.37653002,1.0062562,0.11626692,inf,inf,inf,inf,0,1,0,1,1,2,1,1,0,0,1,1,0,0,1
58148000,58148000,4204000,47.3977508,8.5456073,-0.989712,6.4783177,-4.341284,-1.620315e-08,2.3855828e-09,-0.007054102,-1.0607699,4.290423,-2.3375282,-1.3199958,-4.0507875e-06,5.963957e-07,0.00083714724,-0.09564004,-0.26631016,0.32064596,-2.2688787,0.0,488.09766,4.472995,3.9099376,0.37798944,0.9808639,0.11063942,inf,inf,inf,inf,0,1,0,1,1,2,1,1,0,0,1,1,0,0,1
58652000,58652000,4204000,47.3977508,8.5456073,-1.4301475,7.6823683,-4.6635833,-1.620315e-08,2.3855828e-09,-0.007054102,-1.0977731,3.9516566,-1.9287877,-0.75726944,-4.0507875e-06,5.963957e-07,0.00083714724,-0.06558,-0.6334945,0.61782354,-2.2681022,0.0,488.09766,4.7952943,3.9926176,0.35315794,0.9677188,0.10294167,inf,inf,inf,inf,0,1,0,1,1,2,1,1,0,0,1,1,0,0,1
59148000,59148000,4204000,47.3977508,8.5456073,-1.8181593,8.569695,-4.70791,-1.620315e-08,2.3855828e-09,-0.007054102,-1.1039908,3.4480367,-1.4104536,-0.10233383,-4.0507875e-06,5.963957e-07,0.00083714724,-0.044100683,-0.90511775,0.8343346,-2.268732,0.0,488.09766,4.839621,4.063515,0.35390466,0.9463088,0.10244968,inf,inf,inf,inf,0,1,0,1,1,2,1,1,0,0,1,1,0,0,1
59652000,59652000,4204000,47.3977508,8.5456073,-2.121742,8.900853,-4.5235825,-1.620315e-08,2.3855828e-09,-0.007054102,-1.0911679,2.7708828,-0.81611407,0.53859544,-4.0507875e-06,5.963957e-07,0.00083714724,-0.027971718,-1.0833262,0.9382264,-2.268509,0.0,488.09766,4.6552935,3.9702682,0.35540518,0.8975141,0.104377486,inf,inf,inf,inf,0,1,0,1,1,2,1,1,0,0,1,1,0,0,1
60148000,60148000,4204000,47.3977508,8.5456073,-2.363599,8.840284,-4.143607,-1.620315e-08,2.3855828e-09,-0.007054102,-1.086444,2.251727,-0.35914212,0.9404095,-4.0507875e-06,5.963957e-07,0.00083714724,-0.18420662,0.31459212,0.007761642,-2.2672834,0.0,488.09766,4.275318,4.0217886,0.3554209,0.8808899,0.108042784,inf,inf,inf,inf,0,1,0,1,1,2,1,1,0,0,1,1,0,0,1
60652000,60652000,4204000,47.3977508,8.5456073,-2.5730538,8.619798,-3.654241,-1.620315e-08,2.3855828e-09,-0.007054102,-1.1313057,2.2045531,-0.2209133,1.0276976,-4.0507875e-06,5.963957e-07,0.00083714724,-0.20300403,0.2698907,0.014125369,-2.2665355,0.0,488.09766,3.785952,3.918605,0.33856168,0.8605116,0.11049654,inf,inf,inf,inf,0,1,0,1,1,2,1,1,0,0,1,1,0,0,1
61156000,61156000,4204000,47.3977508,8.5456073,-2.7538722,8.341135,-3.1505678,-1.620315e-08,2.3855828e-09,-0.007054102,-1.1593882,2.1335442,-0.10685954,1.0865892,-4.0507875e-06,5.963957e-07,0.00083714724,-0.123191126,0.24351507,-0.2681585,-2.2656186,0.0,488.09766,3.2822788,3.973194,0.34458068,0.8648932,0.116804086,inf,inf,inf,inf,0,1,0,1,1,2,1,1,0,0,1,1,0,0,1
61652000,61652000,4204000,47.3977508,8.5456073,-2.921386,8.085433,-2.7193954,-1.620315e-08,2.3855828e-09,-0.007054102,-1.1837306,2.0646458,0.010552894,1.0872838,-4.0507875e-06,5.963957e-07,0.00083714724,-0.13849537,0.2797145,0.01250673,-2.2639258,0.0,488.09766,2.8511064,4.022559,0.35018688,0.8685615,0.12276463,inf,inf,inf,inf,0,1,0,1,1,2,1,1,0,0,1,1,0,0,1
62148000,62148000,4204000,47.3977508,8.5456073,-3.0254583,7.6856465,-2.3001735,-1.620315e-08,2.3855828e-09,-0.007054102,-1.198787,1.9271822,0.15923133,1.095607,-4.0507875e-06,5.963957e-07,0.00083714724,-0.081081815,-0.1016035,0.21150614,-2.2509184,0.0,488.09766,2.4318845,3.9171326,0.35928446,0.8480643,0.12877469,inf,inf,inf,inf,0,1,0,1,1,2,1,1,0,0,1,1,0,0,1
62652000,62652000,4204000,47.3977508,8.5456073,-3.0796504,7.2946224,-1.8309166,-1.620315e-08,2.3855828e-09,-0.007054102,-0.89856786,1.6585519,0.2970613,1.1253396,-4.0507875e-06,5.963957e-07,0.00083714724,0.62398916,0.047502194,0.1993887,-2.1385787,0.0,488.09766,1.9626278,3.970598,0.34820044,0.84533113,0.12997515,inf,inf,inf,inf,0,1,0,1,1,2,1,1,0,0,1,1,0,0,1
63148000,63148000,4204000,47.3977508,8.5456073,-2.9097638,6.8137684,-1.373141,-1.620315e-08,2.3855828e-09,-0.007054102,-0.552194,1.4974753,0.59501684,1.319392,-4.0507875e-06,5.963957e-07,0.00083714724,-3.717511,3.2396147,1.6673253,-2.2441027,0.0,488.09766,1.5048522,3.8651764,0.3573593,0.8205404,0.13424356,inf,inf,inf,inf,0,1,0,1,1,2,1,1,0,0,1,1,0,0,1
63652000,63652000,4204000,47.3977508,8.5456073,-2.9631276,6.45825,-0.9305324,-1.620315e-08,2.3855828e-09,-0.007054102,-1.2486175,1.7213004,0.5198284,1.0937715,-4.0507875e-06,5.963957e-07,0.00083714724,-0.1773292,0.23527716,0.04235934,-2.1678996,0.0,488.09766,1.0622435,3.9185627,0.36914054,0.8392912,0.13152196,inf,inf,inf,inf,0,1,0,1,1,2,1,1,0,0,1,1,0,0,1
64148000,64148000,4204000,47.3977508,8.5456073,-3.0886772,6.1961083,-0.59157765,-1.620315e-08,2.3855828e-09,-0.007054102,-1.2515118,1.6407806,0.5780518,0.98042154,-4.0507875e-06,5.963957e-07,0.00083714724,-0.15712363,0.20332797,0.075925134,-2.1650953,0.0,488.09766,0.7232888,3.9686697,0.3754546,0.8438501,0.12478288,inf,inf,inf,inf,0,1,0,1,1,2,1,1,0,0,1,1,0,0,1
64652000,64652000,4204000,47.3977508,8.5456073,-3.1510382,5.8458176,-0.29687437,-1.620315e-08,2.3855828e-09,-0.007054102,-1.240353,1.5456866,0.61664027,0.8598274,-4.0507875e-06,5.963957e-07,0.00083714724,-0.18429539,0.23340142,0.09295064,-2.1619632,0.0,488.09766,0.42858547,3.87517,0.35745257,0.82691336,0.11564021,inf,inf,inf,inf,0,1,0,1,1,2,1,1,0,0,1,1,0,0,1
65156000,65156000,4204000,47.3977508,8.5456073,-3.2209022,5.576269,-0.070754334,-1.620315e-08,2.3855828e-09,-0.007054102,-1.2252371,1.4656649,0.6329423,0.7312033,-4.0507875e-06,5.963957e-07,0.00083714724,-0.22682357,0.07363024,0.48240924,-2.1613572,0.0,488.09766,0.20246544,3.9303772,0.36071298,0.8326104,0.11358452,inf,inf,inf,inf,0,1,0,1,1,2,1,1,0,0,1,1,0,0,1
65652000,65652000,4204000,47.3977508,8.5456073,-3.251657,5.279143,0.13589008,-1.620315e-08,2.3855828e-09,-0.007054102,-1.2043746,1.3794103,0.6482079,0.6221307,-4.0507875e-06,5.963957e-07,0.00083714724,-0.1944402,0.19106969,0.082474194,-2.1561751,0.0,488.09766,0.1,3.8333113,0.36430648,0.81512445,0.11385484,inf,inf,inf,inf,0,1,0,1,1,2,1,1,0,0,1,1,0,0,1
66148000,66148000,4204000,47.3977508,8.5456073,-3.2616308,5.002043,0.2939408,-1.620315e-08,2.3855828e-09,-0.007054102,-1.1746086,1.302601,0.64594007,0.51817036,-4.0507875e-06,5.963957e-07,0.00083714724,-0.15327346,0.17682199,0.041474584,-2.1531153,0.0,488.09766,0.1,3.8822787,0.36792895,0.81979275,0.115921155,inf,inf,inf,inf,0,1,0,1,1,2,1,1,0,0,1,1,0,0,1
66652000,66652000,4204000,47.3977508,8.5456073,-3.2726228,4.7648215,0.4179968,-1.620315e-08,2.3855828e-09,-0.007054102,-1.142316,1.2276314,0.63332516,0.41772023,-4.0507875e-06,5.963957e-07,0.00083714724,-0.12322251,0.13554536,0.035480592,-2.1503563,0.0,488.09766,0.1,3.7928522,0.34807882,0.8039589,0.115281366,inf,inf,inf,inf,0,1,0,1,1,2,1,1,0,0,1,1,0,0,1
67156000,67156000,4204000,47.3977508,8.5456073,-3.2261798,4.476754,0.5127459,-1.620315e-08,2.3855828e-09,-0.007054102,-1.0981895,1.1422637,0.61263317,0.3272678,-4.0507875e-06,5.963957e-07,0.00083714724,-0.12451433,0.121525824,0.053130087,-2.1473632,0.0,488.09766,0.1,3.8466594,0.35407382,0.80945426,0.1199269,inf,inf,inf,inf,0,1,0,1,1,2,1,1,0,0,1,1,0,0,1
67652000,67652000,4204000,47.3977508,8.5456073,-3.1953762,4.247401,0.58595645,-1.620315e-08,2.3855828e-09,-0.007054102,-1.0556493,1.0671227,0.58297414,0.24897498,-4.0507875e-06,5.963957e-07,0.00083714724,-0.11045437,0.12834616,0.05958881,-2.1448357,0.0,488.09766,0.1,3.8955357,0.35886735,0.8143189,0.12454858,inf,inf,inf,inf,0,1,0,1,1,2,1,1,0,0,1,1,0,0,1
68148000,68148000,4204000,47.3977508,8.5456073,-3.1324422,3.9988298,0.6415964,-1.620315e-08,2.3855828e-09,-0.007054102,-1.0097775,0.9893295,0.5517445,0.18695411,-4.0507875e-06,5.963957e-07,0.00083714724,-0.11157607,0.08947318,0.0419775,-2.1422224,0.0,488.09766,0.1,3.8016987,0.36671677,0.79857296,0.12957624,inf,inf,inf,inf,0,1,0,1,1,2,1,1,0,0,1,1,0,0,1
68652000,68652000,4204000,47.3977508,8.5456073,-3.0588543,3.755443,0.6599233,-1.620315e-08,2.3855828e-09,-0.007054102,-0.9609575,0.91176385,0.50588816,0.10561844,-4.0507875e-06,5.963957e-07,0.00083714724,-0.082415104,0.10304098,0.029072164,-2.1394825,0.0,488.09766,0.1,3.8554616,0.35308495,0.8045703,0.13002717,inf,inf,inf,inf,0,1,0,1,1,2,1,1,0,0,1,1,0,0,1
69148000,69148000,4204000,47.3977508,8.5456073,-2.9944856,3.546522,0.652132,-1.620315e-08,2.3855828e-09,-0.007054102,-0.91316867,0.84540004,0.4523076,0.028735295,-4.0507875e-06,5.963957e-07,0.00083714724,-0.11601068,0.10264563,-0.0024773178,-2.1369784,0.0,488.09766,0.1,3.7636933,0.36096966,0.78967875,0.13402176,inf,inf,inf,inf,0,1,0,1,1,2,1,1,0,0,1,1,0,0,1
69652000,69652000,4204000,47.3977508,8.5456073,-2.8856888,3.301022,0.6325946,-1.620315e-08,2.3855828e-09,-0.007054102,-0.85304976,0.771352,0.3935837,-0.033437967,-4.0507875e-06,5.963957e-07,0.00083714724,-0.08356898,0.08726677,0.012385658,-2.1344056,0.0,488.09766,0.1,3.817223,0.3721507,0.79614925,0.13804257,inf,inf,inf,inf,0,1,0,1,1,2,1,1,0,0,1,1,0,0,1
70148000,70148000,4204000,47.3977508,8.5456073,-2.7966304,3.1026843,0.5922491,-1.620315e-08,2.3855828e-09,-0.007054102,-0.792948,0.7090378,0.3361196,-0.08550182,-4.0507875e-06,5.963957e-07,0.00083714724,-0.060912814,0.064094685,-0.0052889804,-2.1322243,0.0,488.09766,0.11937636,3.8661673,0.38098824,0.80206835,0.14089122,inf,inf,inf,inf,0,1,0,1,1,2,1,1,0,0,1,1,0,0,1
70652000,70652000,4204000,47.3977508,8.5456073,-2.6778328,2.8883135,0.53474677,-1.620315e-08,2.3855828e-09,-0.007054102,-0.72866136,0.64308006,0.27525356,-0.13264227,-4.0507875e-06,5.963957e-07,0.00083714724,-0.058964647,0.05000136,-0.010830349,-2.129879,0.0,488.09766,0.17687869,3.7808645,0.3663833,0.78893834,0.13784146,inf,inf,inf,inf,0,1,0,1,1,2,1,1,0,0,1,1,0,0,1
71148000,71148000,4204000,47.3977508,8.5456073,-2.5594983,2.6914651,0.46380064,-1.620315e-08,2.3855828e-09,-0.007054102,-0.6707448,0.5824087,0.21751313,-0.17459023,-4.0507875e-06,5.963957e-07,0.00083714724,-0.036756463,0.047538724,-0.008061527,-2.1277971,0.0,488.09766,0.24782482,3.8298297,0.37442696,0.7954486,0.13943797,inf,inf,inf,inf,0,1,0,1,1,2,1,1,0,0,1,1,0,0,1
71652000,71652000,4204000,47.3977508,8.5456073,-2.444001,2.5125785,0.39231098,-1.620315e-08,2.3855828e-09,-0.007054102,-0.60925287,0.5296003,0.16606142,-0.196266,-4.0507875e-06,5.963957e-07,0.00083714724,-0.014457923,0.06456889,-0.012164935,-2.1259847,0.0,488.09766,0.31931448,3.746542,0.3851961,0.7831525,0.1413033,inf,inf,inf,inf,0,1,0,1,1,2,1,1,0,0,1,1,0,0,1
72148000,72148000,4204000,47.3977508,8.5456073,-2.3005095,2.3224669,0.32793644,-1.620315e-08,2.3855828e-09,-0.007054102,-0.54340917,0.479704,0.12479191,-0.1975012,-4.0507875e-06,5.963957e-07,0.00083714724,-0.019277852,0.06566348,0.0068275253,-2.1238222,0.0,488.09766,0.38368902,3.795675,0.39468935,0.79010123,0.14263673,inf,inf,inf,inf,0,1,0,1,1,2,1,1,0,0,1,1,0,0,1
72652000,72652000,4204000,47.3977508,8.5456073,-2.1710331,2.1630518,0.25704166,-1.620315e-08,2.3855828e-09,-0.007054102,-0.48338863,0.43475735,0.08105048,-0.20561005,-4.0507875e-06,5.963957e-07,0.00083714724,-0.010163261,0.0737708,0.009804032,-2.1218352,0.0,488.09766,0.4545838,3.8510082,0.37365803,0.79813117,0.13675952,inf,inf,inf,inf,0,1,0,1,1,2,1,1,0,0,1,1,0,0,1
73156000,73156000,4204000,47.3977508,8.5456073,-2.0173278,1.9922506,0.18357159,-1.620315e-08,2.3855828e-09,-0.007054102,-0.41950905,0.3908278,0.03991518,-0.21281883,-4.0507875e-06,5.963957e-07,0.00083714724,0.0029425425,0.03981662,-0.04186574,-2.119974,0.0,488.09766,0.5280539,3.7688975,0.3828904,0.7868179,0.1380268,inf,inf,inf,inf,0,1,0,1,1,2,1,1,0,0,1,1,0,0,1
73652000,73652000,4204000,47.3977508,8.5456073,-1.870588,1.843364,0.12505129,-1.620315e-08,2.3855828e-09,-0.007054102,-0.35916686,0.3538238,0.007719878,-0.20082106,-4.0507875e-06,5.963957e-07,0.00083714724,-0.018656239,0.034095883,-0.031501982,-2.1181614,0.0,488.09766,0.5865742,3.819378,0.3886191,0.7945646,0.13851775,inf,inf,inf,inf,0,1,0,1,1,2,1,1,0,0,1,1,0,0,1
74156000,74156000,4204000,47.3977508,8.5456073,-1.7214959,1.7047825,0.07009617,-1.620315e-08,2.3855828e-09,-0.007054102,-0.29958293,0.3205192,-0.022940503,-0.18988603,-4.0507875e-06,5.963957e-07,0.00083714724,-0.0035273987,0.032353774,-0.04531536,-2.1166399,0.0,488.09766,0.64152926,3.7390745,0.39467803,0.7838176,0.13912272,inf,inf,inf,inf,0,1,0,1,1,2,1,1,0,0,1,1,0,0,1
74652000,74652000,4204000,47.3977508,8.5456073,-1.5595589,1.5656048,0.01775667,-1.620315e-08,2.3855828e-09,-0.007054102,-0.23950973,0.2914612,-0.05007758,-0.1798407,-4.0507875e-06,5.963957e-07,0.00083714724,0.009673603,0.028924927,-0.03731064,-2.1151347,0.0,488.09766,0.69386876,3.7899818,0.3737494,0.7919601,0.13376951,inf,inf,inf,inf,0,1,0,1,1,2,1,1,0,0,1,1,0,0,1
75148000,75148000,4204000,47.3977508,8.5456073,-1.4099402,1.4506619,-0.027928708,-1.620315e-08,2.3855828e-09,-0.007054102,-0.18453835,0.2671403,-0.068681054,-0.16303387,-4.0507875e-06,5.963957e-07,0.00083714724,0.017387034,0.03943833,-0.014003365,-2.1134858,0.0,488.09766,0.73955417,3.8419638,0.38095713,0.8002531,0.13502377,inf,inf,inf,inf,0,1,0,1,1,2,1,1,0,0,1,1,0,0,1
75652000,75652000,4204000,47.3977508,8.5456073,-1.2436341,1.3289341,-0.07055213,-1.620315e-08,2.3855828e-09,-0.007054102,-0.124334596,0.23873906,-0.08237116,-0.14643213,-4.0507875e-06,5.963957e-07,0.00083714724,0.041758597,0.015532655,-0.031202098,-2.112011,0.0,488.09766,0.78217757,3.7625911,0.38679504,0.7899469,0.13605893,inf,inf,inf,inf,0,1,0,1,1,2,1,1,0,0,1,1,0,0,1
76148000,76148000,4204000,47.3977508,8.5456073,-1.0840193,1.2210537,-0.10815972,-1.620315e-08,2.3855828e-09,-0.007054102,-0.067358,0.21177931,-0.09253369,-0.13083504,-4.0507875e-06,5.963957e-07,0.00083714724,0.0096307555,0.036868673,-0.023758968,-2.110514,0.0,488.09766,0.8197852,3.8149664,0.39405465,0.79854,0.13749154,inf,inf,inf,inf,0,1,0,1,1,2,1,1,0,0,1,1,0,0,1
76652000,76652000,4204000,47.3977508,8.5456073,-0.92207295,1.1181539,-0.13715683,-1.620315e-08,2.3855828e-09,-0.007054102,-0.008262077,0.1823949,-0.09824882,-0.1100185,-4.0507875e-06,5.963957e-07,0.00083714724,0.04724637,0.026801404,-0.01968257,-2.1090512,0.0,488.09766,0.8487823,3.7368927,0.37176046,0.7885595,0.13241082,inf,inf,inf,inf,0,1,0,1,1,2,1,1,0,0,1,1,0,0,1
77148000,77148000,4204000,47.3977508,8.5456073,-0.75395286,1.012149,-0.15708059,-1.620315e-08,2.3855828e-09,-0.007054102,0.052678313,0.1538434,-0.09907157,-0.08747328,-4.0507875e-06,5.963957e-07,0.00083714724,0.038371142,0.028347805,-0.017792916,-2.107695,0.0,488.09766,0.86870605,3.7896101,0.3770407,0.79741365,0.133666,inf,inf,inf,inf,0,1,0,1,1,2,1,1,0,0,1,1,0,0,1
77652000,77652000,4204000,47.3977508,8.5456073,-0.58904123,0.91780776,-0.17410971,-1.620315e-08,2.3855828e-09,-0.007054102,0.11326705,0.124919884,-0.1005135,-0.071037985,-4.0507875e-06,5.963957e-07,0.00083714724,0.08101687,-0.035067968,-0.02631638,-2.1064463,0.0,488.09766,0.88573515,3.8487806,0.38535643,0.8072256,0.13559344,inf,inf,inf,inf,0,1,0,1,1,2,1,1,0,0,1,1,0,0,1
78148000,78148000,4204000,47.3977508,8.5456073,-0.4184005,0.8171283,-0.18750706,-1.620315e-08,2.3855828e-09,-0.007054102,0.17232575,0.09659275,-0.09879783,-0.056813885,-4.0507875e-06,5.963957e-07,0.00083714724,0.084860206,-0.0010039802,-0.012613832,-2.1053567,0.0,488.09766,0.8991325,3.7656527,0.3903804,0.79670596,0.13674858,inf,inf,inf,inf,0,1,0,1,1,2,1,1,0,0,1,1,0,0,1
78652000,78652000,4204000,47.3977508,8.5456073,-0.24879709,0.7222265,-0.19322237,-1.620315e-08,2.3855828e-09,-0.007054102,0.22645594,0.06641131,-0.09042716,-0.036167227,-4.0507875e-06,5.963957e-07,0.00083714724,0.11503611,-0.006313057,-0.035089437,-2.1042404,0.0,488.09766,0.90484786,3.8250844,0.3710166,0.80658,0.13250266,inf,inf,inf,inf,0,1,0,1,1,2,1,1,0,0,1,1,0,0,1
79148000,79148000,4204000,47.3977508,8.5456073,-0.08434056,0.63084656,-0.19374506,-1.620315e-08,2.3855828e-09,-0.007054102,0.27803248,0.039723396,-0.082618386,-0.01957364,-4.0507875e-06,5.963957e-07,0.00083714724,0.119462974,-0.027956104,-0.02306979,-2.1032739,0.0,488.09766,0.90537053,3.7427824,0.378378,0.79596615,0.13425602,inf,inf,inf,inf,0,1,0,1,1,2,1,1,0,0,1,1,0,0,1
79652000,79652000,4204000,47.3977508,8.5456073,0.07960531,0.5353148,-0.19340211,-1.620315e-08,2.3855828e-09,-0.007054102,0.32462305,0.011091924,-0.08154319,-0.013846242,-4.0507875e-06,5.963957e-07,0.00083714724,0.09953784,-0.014132455,-0.0016875564,-2.1023436,0.0,488.09766,0.90502757,3.8023577,0.3845125,0.805822,0.13570575,inf,inf,inf,inf,0,1,0,1,1,2,1,1,0,0,1,1,0,0,1
80148000,80148000,4204000,47.3977508,8.5456073,0.23911272,0.43452096,-0.18331878,-1.620315e-08,2.3855828e-09,-0.007054102,0.42014238,-0.2127604,0.075556695,0.14373203,-4.0507875e-06,5.963957e-07,0.00083714724,0.4714826,-1.3812437,1.0059215,-2.1014981,0.0,488.09766,0.89494425,3.857757,0.39199328,0.81635123,0.1374053,inf,inf,inf,inf,0,1,0,1,1,2,1,1,0,0,1,1,0,0,1
80652000,80652000,4204000,47.3977508,8.5456073,0.4578262,0.083078414,0.016145319,-1.620315e-08,2.3855828e-09,-0.007054102,0.6301199,-0.88946587,0.5751201,0.6385785,-4.0507875e-06,5.963957e-07,0.00083714724,0.42145255,-1.2924924,0.9309714,-2.100832,0.0,488.09766,0.6954801,3.781422,0.3704363,0.82317084,0.13278133,inf,inf,inf,inf,0,1,0,1,1,2,1,1,0,0,1,1,0,0,1
81148000,81148000,4204000,47.3977508,8.5456073,0.73831236,-0.506943,0.35406587,-1.620315e-08,2.3855828e-09,-0.007054102,0.8507952,-1.3865994,0.7418177,0.76085275,-4.0507875e-06,5.963957e-07,0.00083714724,0.54254586,-0.7851547,0.38920248,-2.1003985,0.0,488.09766,0.3575596,3.8407896,0.37795413,0.85520023,0.13478003,inf,inf,inf,inf,0,1,0,1,1,2,1,1,0,0,1,1,0,0,1
81652000,81652000,4204000,47.3977508,8.5456073,1.185318,-1.0809283,0.66266835,-1.620315e-08,2.3855828e-09,-0.007054102,1.2664728,-0.96511906,1.01119,0.9298535,-4.0507875e-06,5.963957e-07,0.00083714724,-2.0582473,3.9099536,2.2380598,-1.4860725,0.0,488.09766,0.1,3.770614,0.38366926,0.8519599,0.13005093,inf,inf,inf,inf,0,1,0,1,1,2,1,1,0,0,1,1,0,0,1
82148000,82148000,4204000,47.3977508,8.5456073,1.3134918,-1.1589402,0.9838504,-1.620315e-08,2.3855828e-09,-0.007054102,0.2380477,-0.104941025,1.0806158,0.8686846,-4.0507875e-06,5.963957e-07,0.00083714724,-4.5600233,2.0815654,-0.5006734,-1.3285857,0.0,488.09766,0.1,3.8265243,0.38819182,0.7976662,0.12265182,inf,inf,inf,inf,0,1,0,1,1,2,1,1,0,0,1,1,0,0,1
82652000,82652000,4204000,47.3977508,8.5456073,1.2437594,-1.2340665,1.9886975,-1.620315e-08,2.3855828e-09,-0.007054102,0.4917834,-1.0232676,3.5162878,3.1411662,-4.0507875e-06,5.963957e-07,0.00083714724,-0.12718399,-0.22965376,0.10316446,2.1736097,0.0,488.09766,0.1,3.8795738,0.36299014,0.81006294,0.11271232,inf,inf,inf,inf,0,1,0,1,1,2,1,1,0,0,1,1,0,0,1
83148000,83148000,4204000,47.3977508,8.5456073,1.2158239,-1.4961911,3.2151594,-1.620315e-08,2.3855828e-09,-0.007054102,0.36090553,-1.1923835,3.525546,2.8847847,-4.0507875e-06,5.963957e-07,0.00083714724,-0.21348254,-0.65689784,0.41553375,2.1792905,0.0,488.09766,0.1,3.790208,0.36519447,0.8024088,0.122569285,inf,inf,inf,inf,0,1,0,1,1,2,1,1,0,0,1,1,0,0,1
83652000,83652000,4204000,47.3977508,8.5456073,1.1919822,-1.7917212,4.237961,-1.620315e-08,2.3855828e-09,-0.007054102,0.2365738,-1.5373986,3.6195781,2.6247768,-4.0507875e-06,5.963957e-07,0.00083714724,-0.2543319,-1.061208,0.6644344,2.2048204,0.0,488.09766,0.1,3.8478763,0.370192,0.8238063,0.15330939,inf,inf,inf,inf,0,1,0,1,1,2,1,1,0,0,1,1,0,0,1
84156000,84156000,4204000,47.3977508,8.5456073,1.2903748,-2.126592,5.120092,-1.620315e-08,2.3855828e-09,-0.007054102,0.21351616,-2.0108104,3.757251,2.4197218,-4.0507875e-06,5.963957e-07,0.00083714724,-0.18293259,-1.2868645,0.85861045,2.2631795,0.0,488.09766,0.1,3.7701974,0.38528347,0.912788,0.33760425,inf,inf,inf,inf,0,1,0,1,1,2,1,1,0,0,1,1,0,0,1
84652000,84652000,4204000,47.3977508,8.5456073,1.7417418,-2.4873574,0.13967724,-1.620315e-08,2.3855828e-09,-0.38437366,0.4501972,-2.5458956,0.28924492,-2.187118,-4.0507875e-06,5.963957e-07,0.08578702,-0.059368085,-1.4478993,0.9488519,2.372728,0.0,488.09766,5.102847,3.8365424,0.9619617,1.0448967,0.38531783,inf,inf,inf,inf,0,1,0,1,1,4,1,3,0,0,1,1,0,0,1
