timestamp,timestamp_sample,xyz[0],xyz[1],xyz[2]
3228000,3228000,-0.18490428,0.1635949,-9.956975
3232000,3232000,-0.18639508,0.1701651,-9.955596
3280000,3280000,-0.19913325,0.20033406,-9.924202
3328000,3328000,-0.21757151,0.18930142,-9.928867
3380000,3380000,-0.19030344,0.20930834,-9.910369
3424000,3424000,-0.22095329,0.18157133,-9.925731
3476000,3476000,-0.19065589,0.21082358,-9.838703
3528000,3528000,-0.20529628,0.19896635,-9.835159
3580000,3580000,-0.21901162,0.1829537,-9.824566
3628000,3628000,-0.2159742,0.21631111,-9.82437
3680000,3680000,-0.21672063,0.18035415,-9.824995
3728000,3728000,-0.20540035,0.21039572,-9.7959585
3776000,3776000,-0.2057909,0.18474044,-9.846508
3828000,3828000,-0.22604045,0.17687517,-9.818447
3880000,3880000,-0.23111477,0.18307965,-9.85023
3924000,3924000,-0.21578932,0.2158646,-9.807602
3980000,3980000,-0.21769363,0.19629319,-9.831197
4028000,4028000,-0.22811195,0.18479994,-9.798146
4076000,4076000,-0.23197521,0.19358759,-9.813513
4124000,4124000,-0.20927462,0.22755973,-9.840807
4180000,4180000,-0.23615289,0.20321354,-9.802148
4228000,4228000,-0.19781128,0.19941361,-9.812923
4276000,4276000,-0.223149,0.2172527,-9.809977
4328000,4328000,-0.24635382,0.18701132,-9.840015
4380000,4380000,-0.2025862,0.19063282,-9.82461
4428000,4428000,-0.22016887,0.18219909,-9.791035
4480000,4480000,-0.23408227,0.18404798,-9.826459
4528000,4528000,-0.21672559,0.16167271,-9.81806
4580000,4580000,-0.19782458,0.19879618,-9.798381
4624000,4624000,-0.20936191,0.15465271,-9.79909
4676000,4676000,-0.22464997,0.19748679,-9.79597
4728000,4728000,-0.23221259,0.17022654,-9.795182
4780000,4780000,-0.22443101,0.19911176,-9.794603
4828000,4828000,-0.24040501,0.21294013,-9.835575
4880000,4880000,-0.2197291,0.16366246,-9.839333
4928000,4928000,-0.18614148,0.19438614,-9.823957
4980000,4980000,-0.20968813,0.17121963,-9.812528
5028000,5028000,-0.21047205,0.16202015,-9.808611
5080000,5080000,-0.21848464,0.17539856,-9.852386
5128000,5128000,-0.18611939,0.17689855,-9.819561
5180000,5180000,-0.22379269,0.19820566,-9.816044
5228000,5228000,-0.19499555,0.24207082,-9.790736
5276000,5276000,-0.2223925,0.21233898,-9.839207
5328000,5328000,-0.20671928,0.1870738,-9.798904
5380000,5380000,-0.21246669,0.19268343,-9.811536
5428000,5428000,-0.21075547,0.17007954,-9.837923
5480000,5480000,-0.20930953,0.20058025,-9.824605
5528000,5528000,-0.18659233,0.17571564,-9.804657
5580000,5580000,-0.22922517,0.1806348,-9.807152
5624000,5624000,-0.20768562,0.16394132,-9.786347
5676000,5676000,-0.20974165,0.17527269,-9.80482
5728000,5728000,-0.19820562,0.18158051,-9.823651
5776000,5776000,-0.2017254,0.19366758,-9.827354
5824000,5824000,-0.20211273,0.15867445,-9.828275
5876000,5876000,-0.19409522,0.20146823,-9.798259
5924000,5924000,-0.20243324,0.2129024,-9.819765
5976000,5976000,-0.2225102,0.19684337,-9.828313
6024000,6024000,-0.20450445,0.17702946,-9.812721
6080000,6080000,-0.21481091,0.17794451,-9.794535
6124000,6124000,-0.20057592,0.18994845,-9.781542
6176000,6176000,-0.2404351,0.17516604,-9.794729
6228000,6228000,-0.23723808,0.20874593,-9.82279
6280000,6280000,-0.2269309,0.19982213,-9.7891
6328000,6328000,-0.2185844,0.16316852,-9.797475
6380000,6380000,-0.22329327,0.18059021,-9.787267
6428000,6428000,-0.19198093,0.20206113,-9.795641
6480000,6480000,-0.19281727,0.18983528,-9.822738
6528000,6528000,-0.21521157,0.17496948,-9.80247
6580000,6580000,-0.19245186,0.1782159,-9.818712
6628000,6628000,-0.21418905,0.19652782,-9.828932
6676000,6676000,-0.21882296,0.18713036,-9.796127
6728000,6728000,-0.19728161,0.1792814,-9.773295
6780000,6780000,-0.18326539,0.19310412,-9.806568
6828000,6828000,-0.2068708,0.17473882,-9.813513
6880000,6880000,-0.22075887,0.21229853,-9.821821
6928000,6928000,-0.1996822,0.17925909,-9.801816
6980000,6980000,-0.2044942,0.18482274,-9.801395
7028000,7028000,-0.2064044,0.19074605,-9.797069
7080000,7080000,-0.21046086,0.19824511,-9.791761
7128000,7128000,-0.21275559,0.2031726,-9.807829
7180000,7180000,-0.19767462,0.20535828,-9.809746
7224000,7224000,-0.21471086,0.1679801,-9.786313
7276000,7276000,-0.19859394,0.1714628,-9.840886
7324000,7324000,-0.18875273,0.18675497,-9.799804
7376000,7376000,-0.19442846,0.16471472,-9.782991
7428000,7428000,-0.22032595,0.18842652,-9.797202
7476000,7476000,-0.22123371,0.18673415,-9.821934
7528000,7528000,-0.20369107,0.18835422,-9.794477
7576000,7576000,-0.21708193,0.17890033,-9.794493
7628000,7628000,-0.19797961,0.16085005,-9.811361
7680000,7680000,-0.22230111,0.18331516,-9.800202
7728000,7728000,-0.23088652,0.16926533,-9.804851
7780000,7780000,-0.20315756,0.19584623,-9.8044815
7824000,7824000,-0.20212506,0.16907507,-9.809383
7880000,7880000,-0.1855444,0.18090743,-9.786441
7928000,7928000,-0.2293964,0.15970665,-9.801699
7980000,7980000,-0.20845665,0.15511313,-9.810375
8028000,8028000,-0.2117437,0.17072856,-9.806428
8076000,8076000,-0.20388955,0.17129087,-9.826176
8124000,8124000,-0.23750387,0.20093575,-9.81592
8180000,8180000,-0.21260223,0.18861297,-9.811197
8228000,8228000,-0.20322347,0.16912444,-9.78754
8276000,8276000,-0.18193617,0.169843,-9.798737
8328000,8328000,-0.21766382,0.15086856,-9.798321
8380000,8380000,-0.20159772,0.17588504,-9.822847
8428000,8428000,-0.20545332,0.17890897,-9.800144
8480000,8480000,-0.21331151,0.19493222,-9.786296
8528000,8528000,-0.20212826,0.22037725,-9.79757
8580000,8580000,-0.2144217,0.16787437,-9.822582
8628000,8628000,-0.20327896,0.18627983,-9.794391
8676000,8676000,-0.1924974,0.20230077,-9.790844
8728000,8728000,-0.1890666,0.20223613,-9.806535
8780000,8780000,-0.1898385,0.1889275,-9.802248
8828000,8828000,-0.19759881,0.19223471,-9.80194
8880000,8880000,-0.19836366,0.19903749,-9.809318
8928000,8928000,-0.17293444,0.16448767,-9.776113
8980000,8980000,-0.1839051,0.19701676,-9.78897
9028000,9028000,-0.20143569,0.18100472,-9.800259
9080000,9080000,-0.1985914,0.18405515,-9.800256
9128000,9128000,-0.18347874,0.19370244,-9.807524
9180000,9180000,-0.17447796,0.17351833,-9.805996
9228000,9228000,-0.19344673,0.1636054,-9.786892
9280000,9280000,-0.18484016,0.16231953,-9.786528
9328000,9328000,-0.22117192,0.16965048,-9.787093
9380000,9380000,-0.21618356,0.17565668,-9.796752
9428000,9428000,-0.2128699,0.1555509,-9.798092
9480000,9480000,-0.18988302,0.1673812,-9.803296
9528000,9528000,-0.19463989,0.1576215,-9.826255
9576000,9576000,-0.20013057,0.18055014,-9.799309
9628000,9628000,-0.19845575,0.20033987,-9.812014
9680000,9680000,-0.19821994,0.16535737,-9.783531
9728000,9728000,-0.18764728,0.1817194,-9.79754
9780000,9780000,-0.18761088,0.17965879,-9.793571
9828000,9828000,-0.23054023,0.16938405,-9.794281
9876000,9876000,-0.1813017,0.17506252,-9.80067
9928000,9928000,-0.18042086,0.16816612,-9.787477
9980000,9980000,-0.20076501,0.19748531,-9.783455
10028000,10028000,-0.20013931,0.19305637,-9.787081
10076000,10076000,-0.19515796,0.16268621,-9.819267
10128000,10128000,-0.22562316,0.1715737,-9.813276
10180000,10180000,-0.17938426,0.17153382,-9.783292
10224000,10224000,-0.21136017,0.17402263,-9.824883
10280000,10280000,-0.17553493,0.16388133,-9.810525
10328000,10328000,-0.19854787,0.17246622,-9.788409
10380000,10380000,-0.18115905,0.16804253,-9.80979
10428000,10428000,-0.2090734,0.17023791,-9.77939
10480000,10480000,-0.19754875,0.18100192,-9.783709
10528000,10528000,-0.19649999,0.18641901,-9.799788
10580000,10580000,-0.18435016,0.19435912,-9.788327
10628000,10628000,-0.17867683,0.14976816,-9.808223
10676000,10676000,-0.19273137,0.13145842,-9.782833
10728000,10728000,-0.20236677,0.15408121,-9.793538
10780000,10780000,-0.20008607,0.17715338,-9.775478
10828000,10828000,-0.18046689,0.17020719,-9.779402
10880000,10880000,-0.19275203,0.19072232,-9.795296
10928000,10928000,-0.19380042,0.16930628,-9.794252
10980000,10980000,-0.20453548,0.17749456,-9.796231
11028000,11028000,-0.23188812,0.1502169,-9.767219
11080000,11080000,-0.21104228,0.17415671,-9.799677
11124000,11124000,-0.15597968,0.17314632,-9.784752
11180000,11180000,-0.2058624,0.16056195,-9.773389
11228000,11228000,-0.1809795,0.16146024,-9.8049135
11280000,11280000,-0.19111842,0.15458491,-9.795646
11328000,11328000,-0.20858645,0.1459024,-9.800904
11380000,11380000,-0.16234514,0.18515903,-9.787047
11428000,11428000,-0.19783877,0.13396537,-9.78673
11476000,11476000,-0.18085238,0.17926751,-9.777883
11524000,11524000,-0.21288471,0.15224934,-9.799955
11580000,11580000,-0.21651804,0.14339465,-9.797582
11628000,11628000,-0.19701421,0.18023027,-9.783737
11680000,11680000,-0.22102493,0.19037701,-9.795404
11724000,11724000,-0.20634285,0.15359554,-9.805187
11776000,11776000,-0.1706293,0.17570978,-9.790144
11824000,11824000,-0.1986189,0.16155511,-9.795378
11876000,11876000,-0.19613907,0.20449743,-9.815293
11928000,11928000,-0.18298507,0.17218123,-9.790538
11976000,11976000,-0.20531526,0.16643757,-9.7858515
12024000,12024000,-0.17270502,0.1752704,-9.782874
12076000,12076000,-0.20403309,0.16019617,-9.806809
12128000,12128000,-0.18469843,0.13188368,-9.7950115
12176000,12176000,-0.18403736,0.15039752,-9.785435
12228000,12228000,-0.20072365,0.1724891,-9.802062
12280000,12280000,-0.20892867,0.15998425,-9.800806
12328000,12328000,-0.20420505,0.16288061,-9.785356
12380000,12380000,-0.19785744,0.17347725,-9.809005
12428000,12428000,-0.20451055,0.16760167,-9.770765
12480000,12480000,-0.20546833,0.17141365,-9.775292
12528000,12528000,-0.16537037,0.16570994,-9.78879
12580000,12580000,-0.17679241,0.18186505,-9.81095
12628000,12628000,-0.16628626,0.17842004,-9.774314
12680000,12680000,-0.20426628,0.20447294,-9.802808
12728000,12728000,-0.21019271,0.2061685,-9.812735
12776000,12776000,-0.1745866,0.15969852,-9.783701
12828000,12828000,-0.19194588,0.18731678,-9.791149
12880000,12880000,-0.17208919,0.18018267,-9.786069
12928000,12928000,-0.1922228,0.15762873,-9.769106
12980000,12980000,-0.1917075,0.2014581,-9.761522
13028000,13028000,-0.18628,0.16638733,-9.783304
13080000,13080000,-0.18522096,0.15778837,-9.801586
13124000,13124000,-0.17861493,0.16475998,-9.7742195
13180000,13180000,-0.18968442,0.17184827,-9.7869215
13228000,13228000,-0.1995194,0.19773309,-9.796661
13280000,13280000,-0.1996188,0.17217141,-9.792114
13328000,13328000,-0.19180407,0.1621031,-9.787106
13380000,13380000,-0.19026247,0.16477495,-9.789811
13428000,13428000,-0.20009372,0.17124496,-9.771907
13476000,13476000,-0.16666576,0.18639405,-9.799131
13528000,13528000,-0.19707781,0.1563839,-9.797448
13580000,13580000,-0.18383248,0.16654295,-9.783667
13628000,13628000,-0.1780075,0.17607346,-9.8089285
13676000,13676000,-0.17025363,0.17253849,-9.813705
13724000,13724000,-0.1999003,0.17037165,-9.786249
13780000,13780000,-0.22303768,0.17440598,-9.780476
13828000,13828000,-0.18363899,0.1570588,-9.773214
13880000,13880000,-0.2103627,0.13082483,-9.82403
13928000,13928000,-0.191488,0.17505956,-9.781406
13980000,13980000,-0.16435337,0.15351205,-9.798485
14028000,14028000,-0.18153127,0.17071652,-9.79636
14080000,14080000,-0.1758764,0.15641646,-9.782553
14128000,14128000,-0.19954586,0.16084239,-9.798671
14180000,14180000,-0.18254237,0.15640296,-9.80637
14228000,14228000,-0.19650233,0.18108828,-9.783331
14280000,14280000,-0.16353081,0.17998676,-9.803503
14328000,14328000,-0.18023154,0.1481503,-9.806129
14380000,14380000,-0.19195765,0.13416812,-9.786754
14428000,14428000,-0.17853242,0.18250355,-9.827042
14480000,14480000,-0.17663099,0.16381225,-9.796278
14524000,14524000,-0.17303778,0.1685501,-9.792034
14580000,14580000,-0.17681941,0.16454905,-9.79931
14628000,14628000,-0.15596719,0.13252786,-9.806165
14680000,14680000,-0.21112052,0.18601954,-9.784417
14728000,14728000,-0.19270597,0.15957898,-9.797656
14780000,14780000,-0.18939623,0.15453745,-9.809856
14828000,14828000,-0.18341699,0.16497251,-9.795682
14880000,14880000,-0.19240507,0.16892268,-9.794086
14924000,14924000,-0.18753278,0.1825857,-9.788206
14980000,14980000,-0.19243093,0.15249567,-9.779299
15028000,15028000,-0.16921136,0.15280402,-9.789292
15080000,15080000,-0.18582842,0.1645368,-9.778247
15128000,15128000,-0.17925717,0.15380901,-9.809087
15180000,15180000,-0.1888204,0.16816087,-9.793504
15228000,15228000,-0.16047144,0.16817772,-9.792946
15280000,15280000,-0.17060421,0.17347774,-9.794669
15324000,15324000,-0.17896473,0.17172916,-9.80192
15380000,15380000,-0.16904499,0.16583958,-9.793533
15428000,15428000,-0.16130349,0.15274984,-9.791115
15476000,15476000,-0.13104267,0.17400616,-9.816439
15528000,15528000,-0.18244553,0.13723585,-9.777842
15580000,15580000,-0.20345908,0.14198339,-9.798614
15628000,15628000,-0.2092552,0.15830888,-9.794653
15676000,15676000,-0.1704377,0.1690563,-9.782255
15728000,15728000,-0.1841234,0.15760586,-9.814253
15780000,15780000,-0.16512892,0.14943202,-9.812572
15828000,15828000,-0.16918297,0.14325836,-9.798558
15880000,15880000,-0.17835316,0.16214089,-9.781219
15928000,15928000,-0.19014904,0.16294971,-9.771342
15980000,15980000,-0.17799194,0.14009328,-9.765134
16028000,16028000,-0.18568417,0.15023813,-9.794106
16080000,16080000,-0.15601589,0.15840897,-9.800726
16124000,16124000,-0.19771263,0.16612427,-9.780924
16180000,16180000,-0.1774925,0.13947782,-9.773194
16228000,16228000,-0.1639514,0.16834559,-9.774513
16280000,16280000,-0.16532582,0.15964302,-9.792543
16328000,16328000,-0.19228825,0.15206748,-9.784927
16380000,16380000,-0.18062007,0.14996292,-9.783348
16428000,16428000,-0.16531765,0.14092347,-9.776261
16480000,16480000,-0.15335353,0.1704218,-9.79239
16528000,16528000,-0.17252135,0.15294321,-9.764128
16580000,16580000,-0.16061051,0.157681,-9.787191
16628000,16628000,-0.16981263,0.1297817,-9.8045845
16680000,16680000,-0.1718941,0.17788944,-9.804947
16724000,16724000,-0.15234637,0.15586968,-9.792364
16776000,16776000,-0.18667734,0.14140803,-9.771318
16828000,16828000,-0.16113728,0.16407406,-9.785974
16880000,16880000,-0.14719887,0.16446723,-9.767624
16924000,16924000,-0.18056265,0.12351186,-9.801936
16980000,16980000,-0.18008414,0.13809593,-9.775408
17028000,17028000,-0.15043694,0.15806735,-9.782458
17080000,17080000,-0.19670366,0.17505941,-9.789539
17124000,17124000,-0.1656184,0.14571944,-9.802156
17176000,17176000,-0.1652334,0.16159782,-9.800943
17228000,17228000,-0.18964371,0.12527597,-9.786434
17280000,17280000,-0.1615814,0.15512066,-9.7857485
17328000,17328000,-0.19017738,0.15043223,-9.7957535
17380000,17380000,-0.16938183,0.16207278,-9.775757
17428000,17428000,-0.15792038,0.17422448,-9.8015375
17480000,17480000,-0.17776594,0.15179971,-9.820918
17528000,17528000,-0.16602929,0.15412708,-9.828924
17580000,17580000,-0.17015952,0.18361035,-10.019832
17628000,17628000,-0.18494688,0.19793677,-10.059271
17680000,17680000,-0.19471794,0.136801,-10.178815
17728000,17728000,-0.17023963,0.092751496,-10.232204
17780000,17780000,-0.07505663,0.018563958,-10.270741
17824000,17824000,-0.015666636,-0.038930662,-10.240332
17880000,17880000,-0.1395096,0.124150455,-10.128697
17924000,17924000,-0.17917794,0.1300394,-10.247596
17980000,17980000,-0.15158848,0.1199473,-10.448552
18028000,18028000,-0.12212233,0.1190902,-10.504844
18080000,18080000,-0.09055129,0.12777859,-10.615618
18128000,18128000,-0.11082546,0.10160284,-10.7131
18180000,18180000,-0.083855286,0.07606809,-10.727255
18228000,18228000,-0.07193872,0.06703644,-10.745018
18280000,18280000,-0.06805191,0.09658014,-10.728382
18328000,18328000,-0.08367786,0.078724936,-10.694799
18380000,18380000,-0.102605894,0.07788296,-10.729335
18428000,18428000,-0.09566438,0.07493051,-10.608467
18480000,18480000,-0.077374786,0.08988301,-10.354906
18528000,18528000,-0.09470753,0.059917808,-10.085759
18580000,18580000,-0.09278613,0.102448836,-9.857262
18628000,18628000,-0.10425228,0.08469781,-9.63812
18676000,18676000,-0.102763005,0.067888916,-9.60392
18728000,18728000,-0.100394964,0.10378446,-9.792808
18780000,18780000,-0.0850424,0.09360446,-9.889617
18828000,18828000,-0.14098844,0.096095376,-9.916685
18880000,18880000,-0.14263026,0.10658098,-9.948875
18928000,18928000,-0.11328575,0.11406981,-9.973485
18980000,18980000,-0.11324484,0.11448411,-9.993082
19028000,19028000,-0.096517906,0.12380648,-9.936308
19080000,19080000,-0.1140129,0.12343804,-9.915634
19128000,19128000,-0.11810083,0.10892598,-9.93382
19180000,19180000,-0.13673037,0.1475818,-9.921066
19228000,19228000,-0.13210292,0.13846524,-9.876804
19280000,19280000,-0.110411234,0.12156767,-9.868994
19328000,19328000,-0.13807216,0.14427705,-9.873024
19380000,19380000,-0.13209796,0.12031257,-9.876826
19424000,19424000,-0.13867861,0.1518492,-9.86256
19480000,19480000,-0.15077168,0.13349214,-9.830519
19528000,19528000,-0.16198096,0.14182186,-9.831209
19580000,19580000,-0.15583868,0.16768242,-9.830389
19628000,19628000,-0.18163832,0.1622947,-9.790466
19680000,19680000,-0.1602372,0.1735798,-9.773917
19728000,19728000,-0.16312683,0.17405258,-9.786019
19780000,19780000,-0.13866466,0.150623,-9.801096
19828000,19828000,-0.1710377,0.17609492,-9.756285
19876000,19876000,-0.16971353,0.18030617,-9.750192
19928000,19928000,-0.15383142,0.15921254,-9.795864
19980000,19980000,-0.1719861,0.17664638,-9.723505
20024000,20024000,0.8623644,1.2082653,-8.665342
20076000,20076000,0.860934,1.1790521,-8.858286
20124000,20124000,0.83469665,1.2049873,-9.099938
20176000,20176000,0.77940375,1.1977074,-9.323149
20228000,20228000,0.8174968,1.1883864,-9.484144
20280000,20280000,0.8004327,1.1836312,-9.548082
20328000,20328000,0.7895037,1.1896105,-9.582457
20380000,20380000,0.8007423,1.1831167,-9.635727
20428000,20428000,0.7975533,1.1939083,-9.619972
20480000,20480000,0.7718658,1.1821265,-9.63002
20528000,20528000,0.79812896,1.2036237,-9.664755
20576000,20576000,0.7903969,1.1789957,-9.673464
20624000,20624000,0.8147049,1.1760257,-9.693005
20680000,20680000,0.7922828,1.2084095,-9.641554
20728000,20728000,0.78402543,1.1979617,-9.639338
20780000,20780000,0.7953534,1.2027104,-9.443592
20828000,20828000,0.83311164,1.2132144,-9.35907
20876000,20876000,0.8007313,1.1929489,-9.379935
20928000,20928000,0.80260265,1.2010807,-9.423359
20976000,20976000,0.8045366,1.1940446,-9.361206
21028000,21028000,0.7104877,1.1223063,-9.178337
21076000,21076000,0.67437994,1.0984246,-8.936896
21124000,21124000,0.6860481,1.0798292,-8.586365
21176000,21176000,0.6467877,1.0877731,-8.282237
21224000,21224000,0.66139156,1.0608745,-8.078911
21276000,21276000,0.63060987,1.0480042,-8.219871
21324000,21324000,0.6386632,1.0449116,-8.522083
21376000,21376000,0.6369323,1.0230043,-8.855785
21428000,21428000,0.49663615,0.87936556,-9.15315
21480000,21480000,0.44633842,0.85048586,-9.335573
21528000,21528000,0.4242274,0.8133413,-9.313695
21576000,21576000,0.4206615,0.77529967,-9.404547
21628000,21628000,0.37199092,0.75305843,-9.492552
21676000,21676000,0.3758813,0.74770737,-9.6009
21728000,21728000,0.3574345,0.7012574,-9.661659
21776000,21776000,0.3161046,0.66802025,-9.638857
21828000,21828000,0.18112603,0.56007946,-9.711713
21876000,21876000,0.14044252,0.50561905,-9.644499
21928000,21928000,0.07264049,0.45427367,-9.374304
21976000,21976000,0.036728967,0.37941974,-9.225035
22024000,22024000,0.01657492,0.3350063,-9.204729
22080000,22080000,-0.030831082,0.27805513,-9.256603
22128000,22128000,-0.07080882,0.25028878,-9.314696
22180000,22180000,-0.12659164,0.20289347,-9.421777
22228000,22228000,-0.19744176,0.13548894,-9.540972
22280000,22280000,-0.25738218,0.078763224,-9.411046
22328000,22328000,-0.32384333,0.025647428,-9.173514
22380000,22380000,-0.3723159,-0.04421821,-9.024603
22428000,22428000,-0.43483758,-0.111037806,-9.028018
22476000,22476000,-0.47343963,-0.15828502,-9.084318
22528000,22528000,-0.4902072,-0.23255074,-9.178722
22580000,22580000,-0.56550026,-0.31098142,-9.32285
22628000,22628000,-0.6168098,-0.324771,-9.423184
22680000,22680000,-0.67810804,-0.36093023,-9.367816
22728000,22728000,-0.69284934,-0.43520796,-9.142019
22780000,22780000,-0.79046005,-0.4851795,-8.972702
22828000,22828000,-0.82955116,-0.54141814,-8.95231
22880000,22880000,-0.8778279,-0.57438135,-9.036826
22928000,22928000,-0.93204284,-0.6196343,-9.158387
22980000,22980000,-0.9489391,-0.69211125,-9.338205
23028000,23028000,-0.98851275,-0.6913203,-9.446054
23080000,23080000,-1.0250496,-0.7731337,-9.375126
23128000,23128000,-1.0688906,-0.7812195,-9.1431875
23180000,23180000,-1.0966686,-0.82013625,-9.021119
23228000,23228000,-1.1587224,-0.8505899,-9.061461
23280000,23280000,-1.2196562,-0.9046161,-9.144566
23324000,23324000,-1.2343462,-0.9650098,-9.253452
23380000,23380000,-1.2782553,-1.0002848,-9.443364
23428000,23428000,-1.2605797,-0.98296165,-9.554977
23476000,23476000,-1.3119812,-1.0088937,-9.5330925
23528000,23528000,-1.3364962,-1.0543612,-9.305333
23580000,23580000,-1.3465483,-1.0366702,-9.205259
23628000,23628000,-1.3895373,-1.0896304,-9.236171
23680000,23680000,-1.4258529,-1.1169589,-9.328552
23724000,23724000,-1.4507457,-1.1605662,-9.451556
23780000,23780000,-1.4919509,-1.2011032,-9.579349
23828000,23828000,-1.462439,-1.1432557,-9.727474
23880000,23880000,-1.4907275,-1.1701838,-9.782064
23928000,23928000,-1.5169436,-1.1927869,-9.681464
23976000,23976000,-1.4981846,-1.1996536,-9.690477
24028000,24028000,-1.517375,-1.2482414,-9.68947
24076000,24076000,-1.5553961,-1.2306137,-9.729445
24124000,24124000,-1.578831,-1.2505444,-9.857888
24176000,24176000,-1.5902704,-1.2733643,-9.91906
24228000,24228000,-1.5636632,-1.2297477,-10.010782
24276000,24276000,-1.574628,-1.2747551,-10.149865
24324000,24324000,-1.558795,-1.2544217,-10.141551
24376000,24376000,-1.580059,-1.2471333,-10.071644
24428000,24428000,-1.5846146,-1.2279396,-10.100844
24480000,24480000,-1.5870392,-1.2567008,-10.119745
24524000,24524000,-1.5888357,-1.2542235,-10.087044
24580000,24580000,-1.5756335,-1.2456903,-10.154718
24628000,24628000,-1.5371313,-1.1961862,-10.206114
24680000,24680000,-1.5380692,-1.1936073,-10.389467
24728000,24728000,-1.5520487,-1.2029457,-10.445883
24780000,24780000,-1.5225472,-1.1755818,-10.482316
24828000,24828000,-1.5336041,-1.1654317,-10.487591
24880000,24880000,-1.5311135,-1.1534501,-10.465633
24928000,24928000,-1.528705,-1.1544861,-10.418008
24980000,24980000,-1.49434,-1.1447035,-10.410372
25028000,25028000,-1.4340584,-1.0969085,-10.373414
25076000,25076000,-1.4449844,-1.069299,-10.595774
25128000,25128000,-1.4398056,-1.0614321,-10.715616
25180000,25180000,-1.439902,-1.0388942,-10.770399
25228000,25228000,-1.4008049,-1.0186818,-10.73768
25280000,25280000,-1.3664893,-0.99914664,-10.648151
25328000,25328000,-1.379499,-0.9843579,-10.559085
25376000,25376000,-1.3715446,-0.95642793,-10.493173
25424000,25424000,-1.2777761,-0.9035667,-10.425449
25480000,25480000,-1.2695308,-0.9050591,-10.624839
25528000,25528000,-1.2581409,-0.88025,-10.900929
25580000,25580000,-1.2459549,-0.8486486,-11.026321
25628000,25628000,-1.2035954,-0.79795533,-11.014405
25680000,25680000,-1.1734354,-0.8233096,-10.845299
25728000,25728000,-1.1529169,-0.7768292,-10.683183
25776000,25776000,-1.1192496,-0.76004434,-10.479404
25824000,25824000,-1.0439582,-0.70158297,-10.354696
25880000,25880000,-1.0125078,-0.67605036,-10.518019
25928000,25928000,-0.9835013,-0.66174203,-10.812792
25980000,25980000,-0.9547031,-0.5922704,-10.93637
26028000,26028000,-0.9478073,-0.6014675,-10.938597
26080000,26080000,-0.8949925,-0.5713257,-10.772322
26128000,26128000,-0.8573962,-0.51265603,-10.6193905
26176000,26176000,-0.8413993,-0.5039364,-10.516492
26228000,26228000,-0.79432064,-0.42647135,-10.297792
26280000,26280000,-0.7854044,-0.3732546,-10.464109
26328000,26328000,-0.7364986,-0.33531138,-10.841798
26380000,26380000,-0.75203896,-0.27480096,-11.074772
26428000,26428000,-0.7561153,-0.23302847,-11.039365
26480000,26480000,-0.7198638,-0.19147058,-10.886902
26528000,26528000,-0.6993751,-0.16887304,-10.737756
26580000,26580000,-0.64925504,-0.10647982,-10.503923
26628000,26628000,-0.66958004,-0.00010244851,-10.228121
26680000,26680000,-12.395824,20.481937,-31.19089
26728000,26728000,-0.21693085,0.6056166,-7.465807
26780000,26780000,-0.48407835,0.025273487,-10.202979
26828000,26828000,-0.46445835,0.053261757,-10.152861
26880000,26880000,-0.44417647,0.071232274,-10.139874
26928000,26928000,-0.40244874,0.094998844,-10.127703
26980000,26980000,-0.3862721,0.15463023,-10.1038475
27028000,27028000,-0.3695724,0.16504294,-10.0702095
27080000,27080000,-0.3341588,0.20643547,-10.039555
27128000,27128000,-0.27578023,0.21174085,-10.009233
27176000,27176000,-0.23628105,0.24732184,-9.97754
27224000,27224000,-0.24374366,0.30968207,-9.957668
27280000,27280000,-0.20814933,0.31677002,-9.911501
27328000,27328000,-0.16087571,0.36783522,-9.891842
27380000,27380000,-0.14174746,0.39979655,-9.83932
27428000,27428000,-0.067552015,0.4148025,-9.81482
27476000,27476000,-0.080202825,0.48416102,-9.778361
27528000,27528000,-0.024534062,0.4715925,-9.719255
27580000,27580000,0.009697203,0.5406469,-9.689832
27628000,27628000,0.021520987,0.5443972,-9.658932
27680000,27680000,0.040883746,0.57886994,-9.639492
27728000,27728000,0.078418076,0.6015308,-9.58826
27780000,27780000,0.10748605,0.64068836,-9.576719
27824000,27824000,0.15691952,0.69425136,-9.546252
27876000,27876000,0.15882172,0.7312255,-9.540229
27924000,27924000,0.18235517,0.76436406,-9.502832
27980000,27980000,0.22890705,0.7947341,-9.457476
28028000,28028000,0.25844806,0.8094575,-9.437756
28080000,28080000,0.29522067,0.8593892,-9.406322
28128000,28128000,0.3253509,0.8946739,-9.344432
28180000,28180000,0.3492995,0.896181,-9.356896
28228000,28228000,0.34616852,0.94690794,-9.3024025
28276000,28276000,0.3660102,0.9818692,-9.268958
28328000,28328000,0.3910802,1.017393,-9.266193
28380000,28380000,0.4336175,1.0326073,-9.233964
28428000,28428000,0.43369263,1.0627493,-9.186215
28480000,28480000,0.4798125,1.074615,-9.185633
28528000,28528000,0.49156147,1.1095865,-9.143528
28580000,28580000,0.5388083,1.1215191,-9.127845
28628000,28628000,0.5059872,1.1426334,-9.068768
28676000,28676000,0.49650586,1.1472191,-9.066762
28724000,28724000,0.53381985,1.1684592,-9.038549
28776000,28776000,0.5355127,1.2008555,-9.043363
28828000,28828000,0.60385156,1.2115301,-9.008123
28880000,28880000,0.6083913,1.2357471,-8.989888
28928000,28928000,0.63799644,1.2477307,-8.950708
28980000,28980000,0.6642208,1.2952783,-8.942127
29028000,29028000,0.6089806,1.2673508,-8.93888
29080000,29080000,0.6014249,1.2805183,-8.89879
29124000,29124000,0.62710816,1.2588983,-8.896866
29180000,29180000,0.6624981,1.2765871,-8.877862
29228000,29228000,0.6631336,1.2935126,-8.8624525
29280000,29280000,0.6871136,1.2832391,-8.845625
29324000,29324000,0.6969016,1.3018284,-8.809608
29380000,29380000,0.70383674,1.3467828,-8.823559
29428000,29428000,0.64297163,1.2781653,-8.790365
29476000,29476000,0.6790422,1.2839264,-8.798111
29528000,29528000,0.65658367,1.276198,-8.770383
29580000,29580000,0.6783759,1.2980922,-8.765347
29628000,29628000,0.6882758,1.2983902,-8.771552
29680000,29680000,0.6992992,1.3006175,-8.767492
29728000,29728000,0.67976475,1.3161385,-8.734326
29780000,29780000,0.6701374,1.2950137,-8.764383
29828000,29828000,0.6373092,1.2453355,-8.806682
29880000,29880000,0.6106354,1.2344801,-8.8125515
29928000,29928000,0.6286333,1.2520661,-8.846317
29980000,29980000,0.6395553,1.2342172,-8.955073
30028000,30028000,-0.37647367,0.23326859,-10.052538
30080000,30080000,-0.34872666,0.3424346,-9.9904175
30128000,30128000,-0.36373192,0.44189626,-9.960046
30180000,30180000,-0.38499683,0.5781116,-9.978504
30224000,30224000,-0.42494285,0.61845964,-9.983984
30276000,30276000,-0.4085583,0.8004825,-9.987715
30324000,30324000,-0.43418425,0.9645258,-9.992666
30380000,30380000,-0.43661797,1.2090547,-10.037979
30428000,30428000,-0.425941,1.4289124,-10.024306
30480000,30480000,-0.43395466,1.7433943,-10.113255
30528000,30528000,-0.5009506,1.956296,-10.169762
30580000,30580000,-0.8341143,1.8985085,-10.389021
30628000,30628000,-0.8560232,2.0587385,-10.926292
30680000,30680000,-0.7493025,2.1958313,-11.682208
30728000,30728000,-0.3678621,0.37362763,-12.305069
30780000,30780000,-0.33803695,0.43201518,-11.527519
30828000,30828000,-0.34135586,0.46322262,-11.566062
30880000,30880000,-0.40053123,0.48155296,-11.706787
30928000,30928000,-0.50589746,0.48189905,-11.924362
30980000,30980000,-0.6268374,0.5387988,-11.868589
31028000,31028000,-0.738073,0.5103138,-11.446431
31080000,31080000,-0.8742323,0.50433916,-11.767376
31128000,31128000,-1.0375845,0.57334936,-12.388656
31180000,31180000,-1.2599778,0.726501,-15.042964
31228000,31228000,-1.3966123,0.90344524,-15.239614
31280000,31280000,-1.4995556,0.8811399,-13.465524
31328000,31328000,-1.5456448,0.77343214,-11.893225
31380000,31380000,-1.624793,0.61724955,-10.724334
31428000,31428000,-1.5804114,0.48270705,-9.981753
31480000,31480000,-1.5866028,0.36825958,-9.520105
31528000,31528000,-1.5331168,0.2897337,-9.251402
31580000,31580000,-1.5173116,0.18634352,-9.138629
31628000,31628000,-1.4920216,0.13145955,-9.055178
31680000,31680000,-1.4846883,0.08155888,-9.0620575
31728000,31728000,-1.4322754,0.09866509,-9.071585
31780000,31780000,-1.4042823,0.06371472,-9.124572
31828000,31828000,-1.3575665,0.037013568,-9.161577
31876000,31876000,-1.3405528,0.042497657,-9.200651
31928000,31928000,-1.3031056,0.083339445,-9.207839
31980000,31980000,-1.2934799,0.09663175,-9.242061
32028000,32028000,-1.2188525,0.09918965,-9.244286
32080000,32080000,-1.2021718,0.09520472,-9.269127
32128000,32128000,-1.1468763,0.078124866,-9.295499
32180000,32180000,-1.1010092,0.08385192,-9.340866
32228000,32228000,-1.0156078,0.06463454,-9.384456
32280000,32280000,-0.98247325,0.07799845,-9.398147
32328000,32328000,-0.9290173,0.07958229,-9.399113
32380000,32380000,-0.9211047,0.091410056,-9.345535
32428000,32428000,-0.8544464,0.079900265,-9.337952
32480000,32480000,-0.7934322,0.10438596,-9.372866
32528000,32528000,-0.7660886,0.11112294,-9.380736
32580000,32580000,-0.7628987,0.1035153,-9.39804
32628000,32628000,-0.6934918,0.1124913,-9.440922
32680000,32680000,-0.64852476,0.10531478,-9.456065
32728000,32728000,-0.59906,0.10505742,-9.387973
32780000,32780000,-0.56863993,0.09144786,-9.338608
32828000,32828000,-0.5006141,0.078233704,-9.326889
32880000,32880000,-0.53127253,0.07267104,-9.356911
32928000,32928000,-0.50528866,0.053796954,-9.386941
32980000,32980000,-0.455237,0.074685626,-9.438261
33028000,33028000,-0.40595984,0.08101468,-9.463435
33080000,33080000,-0.36765072,0.093702555,-9.450279
33124000,33124000,-0.38248867,0.07091841,-9.378361
33180000,33180000,-0.32450077,0.06425334,-9.339009
33228000,33228000,-0.2703088,0.054012947,-9.304802
33280000,33280000,-0.28420284,0.052237794,-9.344416
33328000,33328000,-0.28057963,0.03513394,-9.376921
33380000,33380000,-0.23375206,0.06718909,-9.440344
33428000,33428000,-0.18276155,0.046303537,-9.511494
33480000,33480000,-0.18385933,0.05936406,-9.514038
33528000,33528000,-0.17275217,0.042501085,-9.414422
33580000,33580000,-0.15443443,0.05754011,-9.380693
33624000,33624000,-0.13924183,0.033374067,-9.350962
33680000,33680000,-0.13039906,0.021573959,-9.406824
33728000,33728000,-0.12469191,0.03689304,-9.44136
33780000,33780000,-0.11858539,0.035128817,-9.538244
33828000,33828000,-0.09499224,0.051265027,-9.556754
33880000,33880000,-0.11372333,0.00713593,-9.589737
33928000,33928000,-0.08913123,0.01850098,-9.507589
33976000,33976000,-0.07616193,-0.009371572,-9.445277
34028000,34028000,-0.07337476,0.020736504,-9.443887
34076000,34076000,-0.07023975,0.009089476,-9.483713
34124000,34124000,-0.07861429,0.013759105,-9.509462
34176000,34176000,-0.07268633,-0.0038701904,-9.564791
34228000,34228000,-0.069884785,0.0076277154,-9.629035
34280000,34280000,-0.059161425,-0.009475924,-9.63491
34328000,34328000,-0.065358534,0.016883597,-9.550718
34380000,34380000,-0.07443161,-0.013680048,-9.463508
34428000,34428000,-0.08636141,-0.0040975185,-9.49931
34476000,34476000,-0.06634813,0.02714574,-9.508816
34528000,34528000,-0.07474097,-0.017050978,-9.584883
34580000,34580000,-0.065688774,0.012680372,-9.626191
34628000,34628000,-0.056114387,-0.010192376,-9.705722
34680000,34680000,-0.08024093,-0.0066149924,-9.665558
34724000,34724000,-0.09360894,-0.0067765834,-9.56896
34776000,34776000,-0.061718337,-0.006802544,-9.5196705
34828000,34828000,-0.09761197,0.0019685184,-9.546256
34876000,34876000,-0.07932734,-0.006001533,-9.535384
34928000,34928000,-0.107921064,0.006793745,-9.626189
34980000,34980000,-0.11707338,-0.012959728,-9.675905
35028000,35028000,-0.10337162,-0.03157564,-9.728545
35080000,35080000,-0.12985232,-0.031977054,-9.687282
35128000,35128000,-0.12990877,-0.03188818,-9.630529
35180000,35180000,-0.15078998,-0.023447331,-9.590591
35224000,35224000,-0.14975674,-0.019906344,-9.564483
35280000,35280000,-0.14624335,-0.018138357,-9.588727
35328000,35328000,-0.15588585,-0.01265457,-9.675837
35380000,35380000,-0.14075519,-0.00845291,-9.70059
35428000,35428000,-0.16171756,-0.019594241,-9.792716
35480000,35480000,-0.15084235,0.009458488,-9.736067
35528000,35528000,-0.16597489,-0.023114443,-9.668502
35580000,35580000,-0.18240768,-0.021487206,-9.583526
35628000,35628000,-0.20464607,-0.0051826434,-9.598049
35680000,35680000,-0.20011589,-0.01316474,-9.6381035
35728000,35728000,-0.19587398,-0.028612852,-9.696371
35780000,35780000,-0.219546,-0.02476501,-9.736276
35828000,35828000,-0.19925752,0.008603123,-9.759621
35880000,35880000,-0.21376073,0.015450118,-9.759043
35928000,35928000,-0.21722184,-0.023240905,-9.653101
35980000,35980000,-0.26084745,-0.023416048,-9.607422
36028000,36028000,-0.22239725,-0.022894977,-9.625198
36080000,36080000,-0.24661358,-0.019063361,-9.667126
36128000,36128000,-0.2732041,-0.0062435316,-9.709296
36180000,36180000,-0.28647992,0.0051521556,-9.737389
36224000,36224000,-0.27333573,0.0049450984,-9.755393
36280000,36280000,-0.27648973,-0.004989481,-9.751698
36328000,36328000,-0.2674752,0.002292817,-9.679074
36376000,36376000,-0.27405792,-0.0010358873,-9.611704
36428000,36428000,-0.26463777,0.011374445,-9.615399
36476000,36476000,-0.2731283,0.021549081,-9.644795
36528000,36528000,-0.29832006,-0.0119856475,-9.67853
36580000,36580000,-0.26995665,-0.008315585,-9.730953
36624000,36624000,-0.29995736,0.014854047,-9.771364
36680000,36680000,-0.30803132,0.008035338,-9.785104
36728000,36728000,-0.30092454,0.03308662,-9.673316
36780000,36780000,-0.2990952,0.018135637,-9.630995
36828000,36828000,-0.28676417,0.0077059385,-9.622859
36880000,36880000,-0.2980265,0.02020298,-9.662958
36928000,36928000,-0.29605985,-0.006820574,-9.720638
36980000,36980000,-0.3307642,0.015502327,-9.765059
37028000,37028000,-0.2745899,0.008374159,-9.805956
37080000,37080000,-0.30671266,-0.010159958,-9.779142
37128000,37128000,-0.31531566,0.044598546,-9.714205
37180000,37180000,-0.29688436,0.019514747,-9.693969
37228000,37228000,-0.31865615,0.0012879721,-9.662891
37280000,37280000,-0.30316088,0.01267438,-9.721489
37324000,37324000,-0.28891858,0.039870407,-9.735455
37380000,37380000,-0.33141318,0.02072584,-9.788009
37428000,37428000,-0.31454575,0.015719745,-9.838914
37476000,37476000,-0.3236291,-7.6641445e-05,-9.806255
37528000,37528000,-0.3269384,-0.0018545093,-9.747073
37580000,37580000,-0.3319403,0.012836098,-9.68755
37628000,37628000,-0.31342822,0.009081755,-9.687693
37680000,37680000,-0.3149036,0.029070377,-9.684914
37728000,37728000,-0.3306017,-0.013698327,-9.736767
37776000,37776000,-0.3175509,-0.016919354,-9.793988
37824000,37824000,-0.30250913,0.01010401,-9.849562
37876000,37876000,-0.3224273,0.042769566,-9.848732
37928000,37928000,-0.30428928,0.03456561,-9.743821
37980000,37980000,-0.29571727,0.033099167,-9.703764
38028000,38028000,-0.31183138,0.0018956197,-9.69742
38080000,38080000,-0.30784038,0.017990772,-9.733599
38124000,38124000,-0.3250854,0.041555747,-9.765421
38180000,38180000,-0.31489965,0.003203525,-9.811747
38228000,38228000,-0.31255677,0.033515185,-9.8386545
38280000,38280000,-0.32943398,0.01280265,-9.798763
38328000,38328000,-0.303747,-0.0043781893,-9.787743
38380000,38380000,-0.32960474,0.026501216,-9.7330065
38428000,38428000,-0.31267828,-0.0070540635,-9.726299
38480000,38480000,-0.30820605,-0.022744134,-9.751507
38528000,38528000,-0.35950968,0.008606063,-9.791616
38576000,38576000,-0.3200261,0.008245473,-9.798883
38628000,38628000,-0.3291145,-0.0015069757,-9.846914
38680000,38680000,-0.32143325,0.02748239,-9.853765
38728000,38728000,-0.337574,-0.021617752,-9.775942
38776000,38776000,-0.32072386,0.0065969536,-9.767769
38828000,38828000,-0.33177382,-0.00021996337,-9.783485
38880000,38880000,-0.30269143,0.01652813,-9.779724
38924000,38924000,-0.3054626,0.013706253,-9.820968
38980000,38980000,-0.30250353,0.0041351756,-9.838247
39024000,39024000,-0.3142169,0.0031038688,-9.890026
39080000,39080000,-0.29619247,-0.021952167,-9.831301
39124000,39124000,-0.3277408,0.0004493045,-9.789148
39180000,39180000,-0.30522487,0.018406577,-9.732674
39228000,39228000,-0.27707642,0.036319494,-9.730257
39280000,39280000,-0.3151954,-0.010327287,-9.75496
39324000,39324000,-0.3147043,0.0045408164,-9.770882
39380000,39380000,-0.32231116,0.01570653,-9.794073
39428000,39428000,-0.31431857,0.005160872,-9.833884
39480000,39480000,-0.34766096,0.019223537,-9.837343
39528000,39528000,-0.29465997,0.0033018265,-9.7841835
39580000,39580000,-0.3067811,0.0062950263,-9.730968
39624000,39624000,-0.272337,-0.008503048,-9.755345
39680000,39680000,-0.29846627,0.022816747,-9.791262
39728000,39728000,-0.3130251,-0.0009000137,-9.782816
39776000,39776000,-0.2963318,-0.012908007,-9.842705
39824000,39824000,-0.2678059,0.020156682,-9.860195
39876000,39876000,-0.29996234,0.014739057,-9.861893
39924000,39924000,-0.30730653,0.021318782,-9.819338
39980000,39980000,-0.3147958,0.0008440291,-9.802581
40024000,40024000,-0.32480198,0.0034436835,-9.766616
40076000,40076000,-0.29671034,-0.0034319512,-9.799035
40128000,40128000,-0.28717154,0.011919916,-9.82345
40180000,40180000,-0.3081277,0.0022481775,-9.828747
40224000,40224000,-0.30918714,0.011697967,-9.839438
40280000,40280000,-0.3185305,-0.012424935,-9.846682
40328000,40328000,-0.2939991,0.015418578,-9.810064
40380000,40380000,-0.28446078,0.0030037337,-9.786653
40428000,40428000,-0.28430957,0.009839926,-9.784663
40480000,40480000,-0.31551632,-0.011972172,-9.781845
40528000,40528000,-0.2948894,-0.002347993,-9.831579
40580000,40580000,-0.29832774,-0.005484785,-9.845085
40628000,40628000,-0.29138452,0.027213005,-9.883024
40680000,40680000,-0.31282717,0.0285527,-9.851475
40728000,40728000,-0.31260908,-0.004407193,-9.820228
40780000,40780000,-0.3109833,-0.029734204,-9.818804
40828000,40828000,-0.3329485,0.029902223,-9.807236
40876000,40876000,-0.34060854,0.00081367954,-9.81797
40928000,40928000,-0.32620275,0.027852543,-9.813798
40980000,40980000,-0.30696929,-0.008440287,-9.837607
41028000,41028000,-0.31977358,-0.0069244886,-9.86385
41076000,41076000,-0.31004503,0.016359169,-9.828077
41124000,41124000,-0.29067203,0.015035987,-9.782455
41176000,41176000,-0.30340415,0.02714977,-9.765798
41224000,41224000,-0.31988028,0.023450293,-9.78321
41276000,41276000,-0.29414824,0.0006239903,-9.784718
41328000,41328000,-0.28545076,0.02303617,-9.808182
41380000,41380000,-0.29766464,0.02015365,-9.829268
41428000,41428000,-0.2870107,0.018473996,-9.83771
41480000,41480000,-0.29494503,0.016674265,-9.846084
41528000,41528000,-0.31215486,0.02874943,-9.826662
41580000,41580000,-0.31483024,0.031812694,-9.803384
41628000,41628000,-0.31947526,0.015280197,-9.802851
41680000,41680000,-0.27581203,0.0037254465,-9.79688
41728000,41728000,-0.28571972,0.012838876,-9.807678
41780000,41780000,-0.30274588,-0.011733437,-9.853393
41828000,41828000,-0.30380008,-0.0026819136,-9.854508
41880000,41880000,-0.28907275,-0.024612583,-9.832407
41928000,41928000,-0.2853043,0.021909848,-9.813722
41980000,41980000,-0.29186478,-0.007284194,-9.777853
42028000,42028000,-0.27200305,0.022802463,-9.780834
42080000,42080000,-0.2899401,0.042051785,-9.78074
42128000,42128000,-0.29741818,0.023503685,-9.794809
42180000,42180000,-0.27648768,-0.00010199472,-9.803726
42228000,42228000,-0.3109092,0.0010532107,-9.828351
42280000,42280000,-0.2669939,0.02597399,-9.842087
42328000,42328000,-0.30407223,0.009599771,-9.811437
42380000,42380000,-0.2721542,0.019805048,-9.762396
42428000,42428000,-0.30862162,0.015974017,-9.807291
42480000,42480000,-0.27254143,0.01762027,-9.778788
42528000,42528000,-0.28935236,0.027651057,-9.795667
42580000,42580000,-0.30391997,0.0070734704,-9.811433
42628000,42628000,-0.2716951,0.00027641997,-9.816595
42676000,42676000,-0.29067087,0.011002213,-9.86453
42724000,42724000,-0.3029262,0.017345237,-9.797024
42780000,42780000,-0.3120376,0.042745993,-9.804248
42828000,42828000,-0.2940008,0.0025227705,-9.796825
42880000,42880000,-0.26867077,0.024034005,-9.797012
42928000,42928000,-0.27083197,0.0058155735,-9.805023
42980000,42980000,-0.28205475,0.034073263,-9.796257
43028000,43028000,-0.2968875,-0.009853025,-9.8368435
43076000,43076000,-0.26960623,-0.0037655928,-9.828867
43128000,43128000,-0.27487138,0.0007033359,-9.809403
43180000,43180000,-0.27666724,0.0026522344,-9.776424
43228000,43228000,-0.29707062,0.025961993,-9.807093
43280000,43280000,-0.2773862,0.0068230303,-9.790828
43324000,43324000,-0.250278,0.00076809817,-9.819448
43380000,43380000,-0.26612878,0.0033485438,-9.809806
43428000,43428000,-0.26615182,0.02885683,-9.813685
43476000,43476000,-0.25783327,0.037033457,-9.823797
43524000,43524000,-0.27147615,0.023389637,-9.777779
43576000,43576000,-0.29085281,-0.00290466,-9.774115
43628000,43628000,-0.25651586,0.0022876086,-9.796854
43680000,43680000,-0.2804576,0.021291064,-9.820454
43728000,43728000,-0.2720737,0.009143289,-9.80081
43776000,43776000,-0.27569032,0.024959737,-9.792194
43824000,43824000,-0.28795534,-0.00576873,-9.803141
43876000,43876000,-0.272223,0.030853886,-9.796463
43924000,43924000,-0.28247717,0.030204376,-9.811533
43980000,43980000,-0.27655637,0.009745507,-9.768357
44028000,44028000,-0.285208,0.009128532,-9.7945175
44080000,44080000,-0.2779029,0.010682447,-9.819267
44128000,44128000,-0.28148955,0.009841523,-9.810003
44180000,44180000,-0.28524902,0.009683777,-9.84166
44228000,44228000,-0.29082093,0.008600182,-9.825951
44280000,44280000,-0.2802413,-0.018569734,-9.824888
44328000,44328000,-0.29268968,0.0029326745,-9.802517
44380000,44380000,-0.25772864,0.0037971167,-9.786486
44428000,44428000,-0.25594348,0.0040536225,-9.77368
44480000,44480000,-0.25993285,-0.023405373,-9.801143
44528000,44528000,-0.31123945,0.029274307,-9.804728
44580000,44580000,-0.27884123,0.015013529,-9.810646
44628000,44628000,-0.28631428,0.0076782405,-9.81105
44680000,44680000,-0.26650304,0.030345827,-9.805664
44724000,44724000,-0.2955454,0.005839194,-9.814611
44780000,44780000,-0.3086367,0.024359629,-9.770768
44828000,44828000,-0.2570293,-0.016040392,-9.811702
44876000,44876000,-0.2796944,0.0020428693,-9.785224
44928000,44928000,-0.27520153,0.014012675,-9.771767
44976000,44976000,-0.27856582,0.022250492,-9.787049
45028000,45028000,-0.24940318,0.0060550766,-9.838581
45080000,45080000,-0.29099068,-0.01580855,-9.806325
45128000,45128000,-0.26422265,0.0007522949,-9.774385
45180000,45180000,-0.24826413,0.03240518,-9.790306
45228000,45228000,-0.2631031,0.02283132,-9.767123
45280000,45280000,-0.27133304,-0.0057593044,-9.770888
45328000,45328000,-0.26005942,0.03924584,-9.790539
45380000,45380000,-0.2900948,0.02285775,-9.818317
45428000,45428000,-0.2654402,0.015207186,-9.809237
45480000,45480000,-0.2918873,-0.007937749,-9.814062
45528000,45528000,-0.2748095,0.001910795,-9.818246
45580000,45580000,-0.27333716,0.010519614,-9.780367
45628000,45628000,-0.27980337,-0.004815439,-9.811464
45680000,45680000,-0.27729794,0.005775486,-9.785494
45728000,45728000,-0.31463107,0.006264464,-9.771614
45780000,45780000,-0.27891803,0.0028682612,-9.815496
45828000,45828000,-0.2562557,0.00780369,-9.801485
45876000,45876000,-0.25688788,0.007738544,-9.823484
45924000,45924000,-0.26046568,0.0061077015,-9.786235
45980000,45980000,-0.2676756,-0.008605855,-9.781992
46028000,46028000,-0.2580369,-0.0015921439,-9.788999
46076000,46076000,-0.27221093,0.009747471,-9.784017
46128000,46128000,-0.2576464,0.018807212,-9.792158
46176000,46176000,-0.26280475,0.02099507,-9.811384
46228000,46228000,-0.26580244,0.0039415085,-9.818939
46280000,46280000,-0.27027187,0.006080285,-9.783035
46328000,46328000,-0.25534406,-0.0011022917,-9.777142
46380000,46380000,-0.2598637,-0.010642593,-9.78675
46424000,46424000,-0.2623325,-0.017846199,-9.793785
46480000,46480000,-0.26574036,-0.021359412,-9.793034
46524000,46524000,-0.25649488,0.001969533,-9.79814
46580000,46580000,-0.2925951,-0.007669976,-9.812248
46628000,46628000,-0.26279593,-0.02855755,-9.7981205
46676000,46676000,-0.26793912,-0.017338883,-9.824636
46724000,46724000,-0.244567,-0.030705353,-9.809786
46780000,46780000,-0.2596001,-0.0116803,-9.7837715
46828000,46828000,-0.26112378,0.009373377,-9.79508
46880000,46880000,-0.2763368,-0.00070016284,-9.773834
46928000,46928000,-0.27526158,-0.0047149286,-9.760917
46980000,46980000,-0.26425403,-0.0012733008,-9.783818
47028000,47028000,-0.28039044,-0.0032658228,-9.8003645
47076000,47076000,-0.2856105,0.0009333537,-9.79984
47128000,47128000,-0.26614374,-0.011497496,-9.776283
47180000,47180000,-0.24987033,-0.030030377,-9.786163
47228000,47228000,-0.2754496,-0.010157439,-9.760748
47280000,47280000,-0.26167887,-0.022164382,-9.805775
47328000,47328000,-0.27810812,0.0024215558,-9.792203
47380000,47380000,-0.2647816,-0.012526305,-9.805597
47428000,47428000,-0.2780079,-0.00043119543,-9.832162
47480000,47480000,-0.27563173,-0.004120287,-9.813149
47528000,47528000,-0.26693177,0.0010584535,-9.7783985
47580000,47580000,-0.28845763,-0.009386854,-9.773094
47628000,47628000,-0.29585359,-0.01518567,-9.767059
47680000,47680000,-0.27697468,-0.0020639088,-9.813909
47728000,47728000,-0.29630852,-0.014132235,-9.794503
47780000,47780000,-0.26663733,0.0011936305,-9.81023
47828000,47828000,-0.27722836,-0.023288298,-9.80802
47876000,47876000,-0.2960495,-0.026947614,-9.775444
47928000,47928000,-0.29798934,-0.023530785,-9.791049
47980000,47980000,-0.2758204,-0.03301411,-9.786854
48028000,48028000,-0.28808385,-0.025371257,-9.792205
48080000,48080000,-0.256903,-0.01166326,-9.789299
48128000,48128000,-0.2856333,-0.017451053,-9.785303
48180000,48180000,-0.27552584,-0.007023017,-9.780909
48228000,48228000,-0.28345138,-0.035709873,-9.778579
48280000,48280000,-0.2806871,-0.024705352,-9.800145
48328000,48328000,-0.28439805,-0.020183902,-9.827592
48380000,48380000,-0.2694512,-0.018077023,-9.769679
48428000,48428000,-0.29925078,-0.004341229,-9.783964
48476000,48476000,-0.29206717,-0.0044758446,-9.795159
48528000,48528000,-0.2870307,-0.035472717,-9.799652
48576000,48576000,-0.26809338,-0.018496122,-9.821882
48628000,48628000,-0.2886817,-0.03704942,-9.815747
48676000,48676000,-0.2831271,-0.00650996,-9.812106
48728000,48728000,-0.2777661,-0.014119845,-9.797508
48780000,48780000,-0.25903076,-0.015069458,-9.806136
48828000,48828000,-0.2928722,-0.002949302,-9.830779
48880000,48880000,-0.2735512,0.004952456,-9.818196
48928000,48928000,-0.26726496,-0.0015705102,-9.82003
48980000,48980000,-0.26334643,-0.022220183,-9.806822
49028000,49028000,-0.2564302,0.00018636801,-9.791867
49080000,49080000,-0.25768465,-0.0029235815,-9.797461
49128000,49128000,-0.25213587,-0.037132464,-9.764044
49176000,49176000,-0.2752018,0.014532881,-9.763132
49228000,49228000,-0.28135255,-0.031002428,-9.758458
49280000,49280000,-0.29061157,-0.04549387,-9.7736435
49324000,49324000,-0.26862976,-0.009889202,-9.777562
49380000,49380000,-0.2649495,0.0062044323,-9.773436
49428000,49428000,-0.26289815,-0.01347799,-9.806101
49476000,49476000,-0.27179074,-0.038535453,-9.803713
49524000,49524000,-0.27302742,-0.00046537654,-9.790745
49576000,49576000,-0.24550724,-0.029930867,-9.756763
49624000,49624000,-0.2750273,-0.026463443,-9.789667
49676000,49676000,-0.27642322,-0.02010869,-9.806366
49724000,49724000,-0.26913548,0.0017928829,-9.769975
49780000,49780000,-0.2620342,-0.012887593,-9.811301
49828000,49828000,-0.25567764,-0.010467034,-9.799546
49880000,49880000,-0.27260104,-0.0056142607,-9.805861
49928000,49928000,-0.26566425,-0.011046985,-9.783393
49980000,49980000,-0.26556343,0.0035155597,-9.738451
50028000,50028000,0.76376456,1.0206373,-8.762127
50080000,50080000,0.7021753,0.9826783,-9.03843
50128000,50128000,0.75612164,1.0077299,-9.348693
50176000,50176000,0.7365352,0.99381924,-9.593259
50224000,50224000,0.75743777,0.99298656,-9.726494
50276000,50276000,0.7220891,0.9880096,-9.834848
50324000,50324000,0.7468692,1.0206132,-9.80459
50380000,50380000,0.71621734,1.0186975,-9.783789
50428000,50428000,0.7215872,0.99632424,-9.808983
50480000,50480000,0.7386103,0.98837876,-9.7958765
50528000,50528000,0.7251323,1.023268,-9.820525
50580000,50580000,0.72896856,1.0076429,-9.786071
50628000,50628000,0.71667486,0.9894838,-9.838999
50676000,50676000,0.71374726,0.999791,-9.793716
50728000,50728000,0.6994628,0.98748225,-9.579284
50780000,50780000,0.7188765,1.0131767,-9.496414
50828000,50828000,0.7489318,0.98692477,-9.477665
50880000,50880000,0.7220785,0.9844245,-9.481669
50928000,50928000,0.7251645,0.9742952,-9.548954
50980000,50980000,0.72239625,0.9956808,-9.60237
51028000,51028000,0.7098277,0.9873377,-9.681151
51076000,51076000,0.70295584,0.959357,-9.524602
51128000,51128000,0.691525,0.9647305,-9.326681
51180000,51180000,0.68337053,0.9165007,-9.22597
51228000,51228000,0.6452593,0.9213038,-9.188649
51280000,51280000,0.64662236,0.91211355,-9.266521
51324000,51324000,0.62958676,0.93199533,-9.3454275
51380000,51380000,0.62437326,0.89566123,-9.466158
51424000,51424000,0.6189989,0.88563806,-9.573429
51476000,51476000,0.59337205,0.8636657,-9.474467
51528000,51528000,0.56790125,0.83884025,-9.209364
51580000,51580000,0.53583574,0.80446213,-9.059185
51628000,51628000,0.4819847,0.79960823,-9.052756
51680000,51680000,0.50600207,0.78606015,-9.135774
51728000,51728000,0.48229772,0.7473253,-9.248458
51780000,51780000,0.4616501,0.7209511,-9.369404
51828000,51828000,0.4387349,0.7275467,-9.505829
51880000,51880000,0.37635317,0.69351465,-9.425402
51928000,51928000,0.33139342,0.61360097,-9.16622
51980000,51980000,0.30507383,0.5893726,-9.017216
52028000,52028000,0.28811684,0.5469996,-8.997041
52080000,52080000,0.23274279,0.5287735,-9.109451
52128000,52128000,0.22161992,0.47655424,-9.223408
52180000,52180000,0.1820341,0.43734652,-9.350129
52228000,52228000,0.12104143,0.39756003,-9.527878
52280000,52280000,0.09757361,0.36692056,-9.480806
52328000,52328000,0.08941918,0.34064266,-9.168968
52380000,52380000,-0.024820255,0.29837313,-9.001614
52428000,52428000,-0.026631549,0.23116992,-9.0282545
52480000,52480000,-0.05484396,0.16957499,-9.080088
52528000,52528000,-0.11576427,0.15383935,-9.248027
52580000,52580000,-0.17030102,0.10839208,-9.35246
52628000,52628000,-0.24496885,0.059426934,-9.506205
52680000,52680000,-0.2742199,0.040499307,-9.477938
52728000,52728000,-0.3096149,-0.017545154,-9.255056
52780000,52780000,-0.32489803,-0.06926533,-9.0961485
52824000,52824000,-0.37321982,-0.14053796,-9.086528
52880000,52880000,-0.42673376,-0.1682967,-9.178783
52928000,52928000,-0.49764678,-0.20315105,-9.300756
52976000,52976000,-0.54760057,-0.29188943,-9.419341
53024000,53024000,-0.597545,-0.27936038,-9.54617
53080000,53080000,-0.6422127,-0.37143254,-9.509921
53128000,53128000,-0.68125665,-0.39813578,-9.353625
53180000,53180000,-0.71322876,-0.45520288,-9.186808
53228000,53228000,-0.74453604,-0.4851519,-9.173599
53276000,53276000,-0.787616,-0.5475184,-9.256714
53328000,53328000,-0.84956473,-0.6168343,-9.353075
53380000,53380000,-0.92559475,-0.6209198,-9.452171
53428000,53428000,-0.94124126,-0.68506074,-9.565308
53480000,53480000,-0.9939296,-0.70982325,-9.552919
53528000,53528000,-1.0414515,-0.7558028,-9.376503
53580000,53580000,-1.07687,-0.81884086,-9.269282
53628000,53628000,-1.1125509,-0.8556818,-9.251515
53680000,53680000,-1.1696603,-0.88329506,-9.297813
53728000,53728000,-1.2043055,-0.9259717,-9.416001
53780000,53780000,-1.2340755,-0.955237,-9.570781
53824000,53824000,-1.2664238,-0.9675535,-9.6460085
53876000,53876000,-1.2909048,-1.0147653,-9.640842
53928000,53928000,-1.3392174,-1.0590143,-9.5419655
53976000,53976000,-1.3687367,-1.1015917,-9.485232
54028000,54028000,-1.4167106,-1.1482904,-9.564027
54080000,54080000,-1.4485929,-1.1541576,-9.605352
54128000,54128000,-1.4806852,-1.186202,-9.679499
54180000,54180000,-1.5156136,-1.2211291,-9.775127
54228000,54228000,-1.5502015,-1.2926072,-9.848768
54280000,54280000,-1.5836334,-1.2837973,-9.870212
54328000,54328000,-1.586005,-1.3044255,-9.844713
54380000,54380000,-1.5921723,-1.330144,-9.842663
54428000,54428000,-1.6387398,-1.3308506,-9.874786
54476000,54476000,-1.6795769,-1.3347842,-9.879373
54528000,54528000,-1.6612194,-1.3776132,-9.940566
54580000,54580000,-1.6821482,-1.4073796,-9.997152
54628000,54628000,-1.6962966,-1.4288652,-9.992004
54680000,54680000,-1.7297937,-1.438733,-10.099577
54728000,54728000,-1.7470723,-1.4638176,-10.152126
54780000,54780000,-1.7335943,-1.4740412,-10.204454
54828000,54828000,-1.7375574,-1.4686552,-10.226936
54880000,54880000,-1.7698575,-1.4781065,-10.224974
54928000,54928000,-1.7571907,-1.4653778,-10.21977
54980000,54980000,-1.7691938,-1.5057397,-10.206702
55028000,55028000,-1.7907305,-1.495478,-10.209036
55080000,55080000,-1.7850574,-1.5103811,-10.237413
55128000,55128000,-1.8208716,-1.4794313,-10.174707
55180000,55180000,-1.7989693,-1.4786718,-10.131773
55228000,55228000,-1.8162056,-1.5417507,-10.067729
55276000,55276000,-1.7865083,-1.5307007,-10.070945
55328000,55328000,-1.8165888,-1.5188861,-10.054237
55380000,55380000,-1.8060576,-1.5556403,-10.021742
55428000,55428000,-1.8256152,-1.5721674,-10.01172
55476000,55476000,-1.833452,-1.5274163,-9.997931
55528000,55528000,-1.8322483,-1.5209548,-10.023951
55580000,55580000,-1.8554499,-1.560777,-10.044794
55628000,55628000,-1.8401974,-1.5400317,-10.037261
55680000,55680000,-1.8483937,-1.5491314,-10.013765
55728000,55728000,-1.8711678,-1.5718915,-9.992121
55780000,55780000,-1.8600626,-1.5517993,-9.990505
55828000,55828000,-1.8609557,-1.569674,-9.988481
55880000,55880000,-1.8761694,-1.5672187,-10.598953
55928000,55928000,-1.8389478,-1.5209043,-10.853626
55980000,55980000,-1.8483334,-1.5598806,-11.983684
56028000,56028000,-1.9101734,-1.545295,-12.511957
56080000,56080000,-1.895724,-1.5756512,-12.680168
56128000,56128000,-1.958771,-1.7056717,-14.077349
56180000,56180000,-2.0171351,-1.7322099,-14.969867
56228000,56228000,-2.019579,-1.6431465,-14.124664
56280000,56280000,-1.7985148,-0.9647454,-10.790754
56324000,56324000,-11.694973,-2.0294778,-14.200375
56380000,56380000,-4.651094,-4.223675,-14.120281
56428000,56428000,-4.1991253,-4.05334,-13.249243
56480000,56480000,-3.6734357,-3.9242992,-11.236975
56528000,56528000,-3.5081177,-3.8881264,-10.759244
56576000,56576000,-3.4148014,-3.8168588,-10.584416
56624000,56624000,-3.3682456,-3.7745187,-10.442863
56680000,56680000,-3.3822348,-3.7429216,-10.338791
56728000,56728000,-3.4049966,-3.7575793,-10.276096
56780000,56780000,-1.3936,-0.67252576,-9.85041
56828000,56828000,-1.4557884,-0.6593653,-9.880486
56880000,56880000,-1.5463946,-0.59046096,-9.92486
56928000,56928000,-1.61515,-0.50137734,-9.960082
56976000,56976000,-1.6272755,-0.38992995,-9.990877
57028000,57028000,-1.6468639,-0.29962796,-10.018188
57080000,57080000,-3.2964694,0.5246834,-5.613254
57128000,57128000,-3.2120862,0.96492773,-4.048777
57180000,57180000,5.3158765,-0.079557166,-33.789738
57224000,57224000,-0.35280624,-0.031477626,-10.100537
57280000,57280000,-0.33172417,-0.008630186,-9.96764
57328000,57328000,-0.32272166,0.031792708,-9.964047
57380000,57380000,-0.29221922,0.065211445,-9.915184
57428000,57428000,-0.26735044,0.08013523,-9.871782
57476000,57476000,-0.21645746,0.15521424,-9.825011
57524000,57524000,-0.18463475,0.15439427,-9.812365
57580000,57580000,-0.16020913,0.1977679,-9.794818
57628000,57628000,-0.13158493,0.24200875,-9.728919
57680000,57680000,-0.101658575,0.2672537,-9.704152
57728000,57728000,-0.042560056,0.2676804,-9.670133
57780000,57780000,-0.032623373,0.3028422,-9.660248
57828000,57828000,-0.023472566,0.3227095,-9.626441
57880000,57880000,0.020568024,0.3954932,-9.599104
57928000,57928000,0.057408012,0.3994928,-9.586336
57980000,57980000,0.087999105,0.46141443,-9.535415
58028000,58028000,0.12671612,0.47094342,-9.530914
58076000,58076000,0.13588548,0.4975766,-9.459475
58124000,58124000,0.17941928,0.4984575,-9.431061
58180000,58180000,0.18818878,0.52952003,-9.405023
58228000,58228000,0.2099038,0.5601311,-9.407755
58280000,58280000,0.25611842,0.6092661,-9.352526
58328000,58328000,0.29300338,0.6222953,-9.337023
58380000,58380000,0.30300343,0.6733751,-9.295887
58424000,58424000,0.34425777,0.668765,-9.270119
58480000,58480000,0.3781342,0.71745574,-9.255468
58528000,58528000,0.37501758,0.7224859,-9.238593
58580000,58580000,0.44142812,0.7702502,-9.221114
58628000,58628000,0.44446003,0.8033517,-9.196405
58680000,58680000,0.461609,0.80770034,-9.154514
58728000,58728000,0.4768446,0.8316499,-9.144803
58780000,58780000,0.49808294,0.87228334,-9.091254
58824000,58824000,0.54151875,0.8861184,-9.1118355
58876000,58876000,0.53740156,0.9037763,-9.091799
58928000,58928000,0.5769359,0.8844135,-9.068546
58980000,58980000,0.5898231,0.915316,-9.022036
59028000,59028000,0.63123703,0.91966367,-9.012194
59076000,59076000,0.6305732,0.9754672,-8.978265
59124000,59124000,0.6681959,0.9938913,-8.993517
59180000,59180000,0.65227294,0.9552394,-8.97507
59228000,59228000,0.6751152,1.0141606,-8.9386
59280000,59280000,0.6834803,0.98566693,-8.920564
59328000,59328000,0.71217364,1.0507021,-8.886446
59380000,59380000,0.7250873,1.0688269,-8.910529
59428000,59428000,0.7375625,1.0569441,-8.894287
59480000,59480000,0.7651688,1.0680754,-8.879997
59528000,59528000,0.74965304,1.0874043,-8.859402
59580000,59580000,0.7765456,1.060038,-8.839923
59628000,59628000,0.78455615,1.09027,-8.850831
59680000,59680000,0.7668133,1.1147555,-8.827589
59724000,59724000,0.77538407,1.1048605,-8.830393
59776000,59776000,0.79488873,1.1246556,-8.829363
59824000,59824000,0.789466,1.0980805,-8.844063
59880000,59880000,0.7947268,1.1313194,-8.822532
59924000,59924000,0.79050994,1.1311908,-8.815483
59980000,59980000,0.81618214,1.1289017,-8.844039
60028000,60028000,-0.22162786,0.09236035,-9.849324
60076000,60076000,-0.20314711,0.10316874,-9.803925
60128000,60128000,-0.20599987,0.14479375,-9.806925
60180000,60180000,-0.24033315,0.12847222,-9.807729
60228000,60228000,-0.22230911,0.103053086,-9.828853
60280000,60280000,-0.21258923,0.07961375,-9.810913
60328000,60328000,-0.19674765,0.11478821,-9.823207
60376000,60376000,-0.21109378,0.10982816,-9.788808
60428000,60428000,-0.18535343,0.10594927,-9.785749
60476000,60476000,-0.19085702,0.10169261,-9.811529
60524000,60524000,-0.19474322,0.119007535,-9.832586
60580000,60580000,-0.2228854,0.10214142,-9.812911
60624000,60624000,-0.19403476,0.12937951,-9.789717
60676000,60676000,-0.19092217,0.0984478,-9.787643
60728000,60728000,-0.2085014,0.128904,-9.771094
60780000,60780000,-0.20114003,0.14121778,-9.887986
60828000,60828000,-0.17366153,0.1739229,-9.955902
60880000,60880000,-0.21578258,0.119861916,-9.919008
60924000,60924000,-0.17411259,0.064591564,-9.87739
60976000,60976000,-0.22357486,-0.008202489,-9.736084
61028000,61028000,-0.23000306,-0.081108496,-9.627338
61080000,61080000,-0.18946199,-0.053652573,-9.830987
61124000,61124000,-0.22218528,-0.043936078,-9.990367
61180000,61180000,-0.18944055,-0.091284625,-10.062631
61224000,61224000,-0.19388486,-0.15818042,-10.000435
61280000,61280000,-0.2056741,-0.29227328,-9.83676
61328000,61328000,-0.18714091,-0.45344827,-9.712051
61380000,61380000,-0.20744759,-0.5706536,-9.582388
61428000,61428000,-0.2148633,-0.6865853,-9.469513
61480000,61480000,-0.20522447,-0.7217711,-9.623242
61524000,61524000,-0.19727206,-0.71110237,-9.803891
61580000,61580000,-0.19072618,-0.7500379,-9.847845
61624000,61624000,-0.18729441,-0.8468585,-9.816216
61676000,61676000,-0.19766626,-0.9444765,-9.742662
61724000,61724000,-0.19719343,-1.0668552,-9.627892
61776000,61776000,-0.2188637,-1.2074547,-9.489468
61824000,61824000,-0.20864171,-1.2514,-9.418534
61880000,61880000,-0.21159264,-1.240035,-9.5388
61924000,61924000,-0.19237423,-1.2079697,-9.729647
61980000,61980000,-0.19714628,-1.2403822,-9.792956
62028000,62028000,-0.06259587,-1.1504349,-9.74418
62076000,62076000,0.002957529,-1.1312912,-9.683223
62124000,62124000,0.05715317,-1.1366895,-9.582548
62180000,62180000,0.015781596,-1.0332263,-9.509878
62228000,62228000,-0.059917863,-1.0584443,-9.4297695
62280000,62280000,-0.14211717,-0.9464623,-9.599796
62328000,62328000,-0.22735727,-0.7707034,-9.830952
