timestamp,timestamp_sample,gps_hvel[0],gps_hvel[1],gps_vvel,gps_hpos[0],gps_hpos[1],gps_vpos,ev_hvel[0],ev_hvel[1],ev_vvel,ev_hpos[0],ev_hpos[1],ev_vpos,rng_vpos,baro_vpos,aux_hvel[0],aux_hvel[1],aux_vvel,flow[0],flow[1],terr_flow[0],terr_flow[1],heading,mag_field[0],mag_field[1],mag_field[2],gravity[0],gravity[1],gravity[2],drag[0],drag[1],airspeed,beta,hagl,hagl_rate
3228000,3148000,0.0,0.0,0.0,0.0,0.0,0.0,0.0,0.0,0.0,0.0,0.0,0.0,0.0,0.0,0.0,0.0,nan,0.0,0.0,0.0,0.0,0.0,-0.0069049094,0.21995588,-0.43037337,-0.0067097526,0.012537939,0.00041480397,0.0,0.0,0.0,0.0,0.0,0.0
3236000,3156000,0.0,0.0,0.0,0.0,0.0,0.0,0.0,0.0,0.0,0.0,0.0,0.0,0.0,0.0,0.0,0.0,nan,0.0,0.0,0.0,0.0,0.0,-0.0069049094,0.21995588,-0.43037337,0.0046813753,-0.0013939894,-0.00013803327,0.0,0.0,0.0,0.0,0.0,0.0
3244000,3164000,0.0,0.0,0.0,0.0,0.0,0.0,0.0,0.0,0.0,0.0,0.0,0.0,0.0,0.0,0.0,0.0,nan,0.0,0.0,0.0,0.0,0.0,-0.0069049094,0.21995588,-0.43037337,-0.014526289,0.0152205145,0.0006386768,0.0,0.0,0.0,0.0,0.0,0.0
3252000,3172000,0.0,0.0,0.0,0.0,0.0,0.0,0.0,0.0,0.0,0.0,0.0,0.0,0.0,0.0,0.0,0.0,nan,0.0,0.0,0.0,0.0,0.0,-0.007996431,0.21444094,-0.42801628,-0.011701054,0.033367082,0.00093889236,0.0,0.0,0.0,0.0,0.0,0.0
3260000,3180000,0.0,0.0,0.0,0.0,0.0,0.0,0.0,0.0,0.0,0.0,0.0,0.0,0.0,0.0,0.0,0.0,nan,0.0,0.0,0.0,0.0,0.0,-0.007996431,0.21444094,-0.42801628,0.011984343,0.025760084,0.00025749207,0.0,0.0,0.0,0.0,0.0,0.0
3268000,3188000,0.0,0.0,0.0,0.0,0.0,0.0,0.0,0.0,0.0,0.0,0.0,0.0,0.0,0.0,0.0,0.0,nan,0.0,0.0,0.0,0.0,0.0,-0.007996431,0.21444094,-0.42801628,-0.0012162607,0.036389887,0.0007648468,0.0,0.0,0.0,0.0,0.0,0.0
3276000,3196000,0.0,0.0,0.0,0.0,0.0,0.0,0.0,0.0,0.0,0.0,0.0,0.0,0.0,0.0,0.0,0.0,nan,0.0,0.0,0.0,0.0,0.0,-0.007996431,0.21444094,-0.42801628,-0.016730797,0.037009284,0.0011134148,0.0,0.0,0.0,0.0,0.0,0.0
3284000,3204000,0.0,0.0,0.0,0.0,0.0,0.0,0.0,0.0,0.0,0.0,0.0,0.0,0.0,0.0,0.0,0.0,nan,0.0,0.0,0.0,0.0,0.0,-0.007996431,0.21444094,-0.42801628,-0.013032376,0.026521504,0.0008392334,0.0,0.0,0.0,0.0,0.0,0.0
3292000,3212000,0.0,0.0,0.0,0.0,0.0,0.0,0.0,0.0,0.0,0.0,0.0,0.0,0.0,0.0,0.0,0.0,nan,0.0,0.0,0.0,0.0,0.0,-0.007996431,0.21444094,-0.42801628,-0.022307573,0.04374166,0.001352787,0.0,0.0,0.0,0.0,0.0,0.0
3300000,3220000,0.0,0.0,0.0,0.0,0.0,0.0,0.0,0.0,0.0,0.0,0.0,0.0,0.0,0.0,0.0,0.0,nan,0.0,0.0,0.0,0.0,0.0,-0.007996431,0.21444094,-0.42801628,-0.03710167,0.05236566,0.0017943382,0.0,0.0,0.0,0.0,0.0,0.0
3308000,3228000,0.0,0.0,0.0,0.0,0.0,0.0,0.0,0.0,0.0,0.0,0.0,0.0,0.0,0.0,0.0,0.0,nan,0.0,0.0,0.0,0.0,0.0,-0.007996431,0.21444094,-0.42801628,-0.042282548,0.05378075,0.0019197464,0.0,0.0,0.0,0.0,0.0,0.0
3316000,3236000,0.0,0.0,0.0,0.0,0.0,0.0,0.0,0.0,0.0,0.0,0.0,0.0,0.0,0.0,0.0,0.0,nan,0.0,0.0,0.0,0.0,0.0,-0.007996431,0.21444094,-0.42801628,-0.03165606,0.024757117,0.0011911392,0.0,0.0,0.0,0.0,0.0,0.0
3324000,3244000,0.0,0.0,0.0,0.0,0.0,0.0,0.0,0.0,0.0,0.0,0.0,0.0,0.0,0.0,0.0,0.0,nan,0.0,0.0,0.0,0.0,0.0,-0.00098754,0.00092193484,-0.0014868975,-0.04142305,0.035578147,0.0015878677,0.0,0.0,0.0,0.0,0.0,0.0
3332000,3252000,0.0,0.0,0.0,0.0,0.0,0.0,0.0,0.0,0.0,0.0,0.0,0.0,0.0,0.0,0.0,0.0,nan,0.0,0.0,0.0,0.0,0.0,-0.00098754,0.00092193484,-0.0014868975,0.008264425,0.011149585,4.863739e-05,0.0,0.0,0.0,0.0,0.0,0.0
3340000,3260000,0.0,0.0,0.0,0.0,0.0,0.0,0.0,0.0,0.0,0.0,0.0,0.0,0.0,0.0,0.0,0.0,nan,0.0,0.0,0.0,0.0,0.0,-0.00098754,0.00092193484,-0.0014868975,-0.024119418,0.03635043,0.0012660027,0.0,0.0,0.0,0.0,0.0,0.0
3348000,3268000,0.0,0.0,0.0,0.0,0.0,0.0,0.0,0.0,0.0,0.0,0.0,0.0,0.0,0.0,0.0,0.0,nan,0.0,0.0,0.0,0.0,0.0,-0.00098754,0.00092193484,-0.0014868975,-0.01859695,0.04973282,0.0013918877,0.0,0.0,0.0,0.0,0.0,0.0
3356000,3276000,0.0,0.0,0.0,0.0,0.0,0.0,0.0,0.0,0.0,0.0,0.0,0.0,0.0,0.0,0.0,0.0,nan,0.0,0.0,0.0,0.0,0.0,-0.00098754,0.00092193484,-0.0014868975,-0.030387655,0.0056091547,0.0007748604,0.0,0.0,0.0,0.0,0.0,0.0
3364000,3284000,0.0,0.0,0.0,0.0,0.0,0.0,0.0,0.0,0.0,0.0,0.0,0.0,0.0,0.0,0.0,0.0,nan,0.0,0.0,0.0,0.0,0.0,-0.00098754,0.00092193484,-0.0014868975,-0.022864137,0.04914178,0.0014719963,0.0,0.0,0.0,0.0,0.0,0.0
3372000,3292000,0.0,0.0,0.0,0.0,0.0,0.0,0.0,0.0,0.0,0.0,0.0,0.0,0.0,0.0,0.0,0.0,nan,0.0,0.0,0.0,0.0,0.0,-0.00098754,0.00092193484,-0.0014868975,-0.010027124,0.052027926,0.0012507439,0.0,0.0,0.0,0.0,0.0,0.0
3380000,3300000,0.0,0.0,0.0,0.0,0.0,0.0,0.0,0.0,0.0,0.0,0.0,0.0,0.0,0.0,0.0,0.0,nan,0.0,0.0,0.0,0.0,0.0,-0.00098754,0.00092193484,-0.0014868975,-0.011927224,0.029422194,0.0008826256,0.0,0.0,0.0,0.0,0.0,0.0
3388000,3308000,0.0,0.0,0.0,0.0,0.0,0.0,0.0,0.0,0.0,0.0,0.0,0.0,0.0,0.0,0.0,0.0,nan,0.0,0.0,0.0,0.0,0.0,-0.00098754,0.00092193484,-0.0014868975,-0.014662051,0.00562799,0.00045347214,0.0,0.0,0.0,0.0,0.0,0.0
3396000,3316000,0.0,0.0,0.0,0.0,0.0,0.0,0.0,0.0,0.0,0.0,0.0,0.0,0.0,0.0,0.0,0.0,nan,0.0,0.0,0.0,0.0,0.0,-0.0032471996,-0.0025785416,0.0016175508,-0.008360327,0.019838795,0.0006136894,0.0,0.0,0.0,0.0,0.0,0.0
3404000,3324000,0.0,0.0,0.0,0.0,0.0,0.0,0.0,0.0,0.0,0.0,0.0,0.0,0.0,0.0,0.0,0.0,nan,0.0,0.0,0.0,0.0,0.0,-0.0032471996,-0.0025785416,0.0016175508,-0.01823036,0.041245252,0.0012426376,0.0,0.0,0.0,0.0,0.0,0.0
3412000,3332000,0.0052985065,0.0028497993,-0.043634,0.00041026814,0.0002569228,488.10333,0.0,0.0,0.0,0.0,0.0,0.0,0.0,0.0,0.0,0.0,nan,0.0,0.0,0.0,0.0,0.0,-0.0032471996,-0.0025785416,0.0016175508,-0.011350894,0.016837597,0.000620842,0.0,0.0,0.0,0.0,0.0,0.0
3420000,3340000,0.0052985065,0.0028497993,-0.043634,0.00041026814,0.0002569228,488.10333,0.0,0.0,0.0,0.0,0.0,0.0,0.0,0.0,0.0,0.0,nan,0.0,0.0,0.0,0.0,0.0,-0.0032471996,-0.0025785416,0.0016175508,-0.0361781,0.006432995,0.0009202957,0.0,0.0,0.0,0.0,0.0,0.0
3428000,3348000,0.0052985065,0.0028497993,-0.043634,0.00041026814,0.0002569228,488.10333,0.0,0.0,0.0,0.0,0.0,0.0,0.0,0.0,0.0,0.0,nan,0.0,0.0,0.0,0.0,0.0,-0.0032471996,-0.0025785416,0.0016175508,-0.026558436,0.0025775284,0.00064229965,0.0,0.0,0.0,0.0,0.0,0.0
3436000,3356000,0.0052985065,0.0028497993,-0.043634,0.00041026814,0.0002569228,488.10333,0.0,0.0,0.0,0.0,0.0,0.0,0.0,0.0,0.0,0.0,nan,0.0,0.0,0.0,0.0,0.0,-0.0032471996,-0.0025785416,0.0016175508,-0.017285757,0.03843628,0.0011754036,0.0,0.0,0.0,0.0,0.0,0.0
3444000,3364000,0.0052985065,0.0028497993,-0.043634,0.00041026814,0.0002569228,488.10333,0.0,0.0,0.0,0.0,0.0,0.0,0.0,0.0,0.0,0.0,nan,0.0,0.0,0.0,0.0,0.0,-0.0032471996,-0.0025785416,0.0016175508,-0.02027963,0.013888508,0.00075626373,0.0,0.0,0.0,0.0,0.0,0.0
3452000,3372000,0.0052985065,0.0028497993,-0.043634,0.00041026814,0.0002569228,488.10333,0.0,0.0,0.0,0.0,0.0,0.0,0.0,0.0,0.0,0.0,nan,0.0,0.0,0.0,0.0,0.0,-0.0032471996,-0.0025785416,0.0016175508,-0.031219581,-0.040882617,-0.00026082993,0.0,0.0,0.0,0.0,0.0,0.0
3460000,3380000,0.0052985065,0.0028497993,-0.043634,0.00041026814,0.0002569228,488.10333,0.0,0.0,0.0,0.0,0.0,0.0,0.0,0.0,0.0,0.0,nan,0.0,0.0,0.0,0.0,0.0,-0.0032471996,-0.0025785416,0.0016175508,-0.015556235,0.008801371,0.0004963875,0.0,0.0,0.0,0.0,0.0,0.0
3468000,3388000,0.0052985065,0.0028497993,-0.043634,0.00041026814,0.0002569228,488.10333,0.0,0.0,0.0,0.0,0.0,0.0,0.0,0.0,0.0,0.0,nan,0.0,0.0,0.0,0.0,0.019606113,-0.005216874,0.0013540387,0.005567789,0.0017865039,0.025802776,0.0004348755,0.0,0.0,0.0,0.0,0.0,0.0
3476000,3396000,0.0052985065,0.0028497993,-0.043634,0.00041026814,0.0002569228,488.10333,0.0,0.0,0.0,0.0,0.0,0.0,0.0,0.0,0.0,0.0,nan,0.0,0.0,0.0,0.0,0.019606113,-0.005216874,0.0013540387,0.005567789,0.00698662,0.005311221,-5.340576e-05,0.0,0.0,0.0,0.0,0.0,0.0
3484000,3404000,0.0052985065,0.0028497993,-0.043634,0.00041026814,0.0002569228,488.10333,0.0,0.0,0.0,0.0,0.0,0.0,0.0,0.0,0.0,0.0,nan,0.0,0.0,0.0,0.0,0.019606113,-0.005216874,0.0013540387,0.005567789,0.0052377135,-0.0028808564,-0.00017356873,0.0,0.0,0.0,0.0,0.0,0.0
3492000,3412000,0.0052985065,0.0028497993,-0.043634,0.00041026814,0.0002569228,488.10333,0.0,0.0,0.0,0.0,0.0,0.0,0.0,0.0,0.0,0.0,nan,0.0,0.0,0.0,0.0,0.019606113,-0.005216874,0.0013540387,0.005567789,0.020893067,0.020420298,-0.00010061264,0.0,0.0,0.0,0.0,0.0,0.0
3500000,3420000,0.0052985065,0.0028497993,-0.043634,0.00041026814,0.0002569228,488.10333,0.0,0.0,0.0,0.0,0.0,0.0,0.0,0.0,0.0,0.0,nan,0.0,0.0,0.0,0.0,0.019606113,-0.005216874,0.0013540387,0.005567789,-0.0044622943,0.012715429,0.0003376007,0.0,0.0,0.0,0.0,0.0,0.0
3508000,3428000,0.0052985065,0.0028497993,-0.043634,0.00041026814,0.0002569228,488.10333,0.0,0.0,0.0,0.0,0.0,0.0,0.0,0.0,0.0,0.0,nan,0.0,0.0,0.0,0.0,0.019606113,-0.005216874,0.0013540387,0.005567789,0.0111561585,0.011144474,-4.005432e-05,0.0,0.0,0.0,0.0,0.0,0.0
3516000,3436000,0.0052985065,0.0028497993,-0.043634,0.00041026814,0.0002569228,488.10333,0.0,0.0,0.0,0.0,0.0,0.0,0.0,0.0,0.0,0.0,nan,0.0,0.0,0.0,0.0,0.019606113,-0.005216874,0.0013540387,0.005567789,-0.011994973,0.017821625,0.00059223175,0.0,0.0,0.0,0.0,0.0,0.0
3524000,3444000,0.0052985065,0.0028497993,-0.043634,0.00041026814,0.0002569228,488.10333,0.0,0.0,0.0,0.0,0.0,0.0,0.0,0.0,0.0,0.0,nan,0.0,0.0,0.0,0.0,0.019606113,-0.005216874,0.0013540387,0.005567789,-0.020973966,0.008759335,0.00060892105,0.0,0.0,0.0,0.0,0.0,0.0
3532000,3452000,0.0052985065,0.0028497993,-0.043634,0.00041026814,0.0002569228,488.10333,0.0,0.0,0.0,0.0,0.0,0.0,0.0,0.0,0.0,0.0,nan,0.0,0.0,0.0,0.0,0.019606113,-0.005216874,0.0013540387,0.005567789,-0.008841215,0.0012576729,0.0002155304,0.0,0.0,0.0,0.0,0.0,0.0
3540000,3460000,0.0052985065,0.0028497993,-0.043634,0.00041026814,0.0002569228,488.10333,0.0,0.0,0.0,0.0,0.0,0.0,0.0,0.0,0.0,0.0,nan,0.0,0.0,0.0,0.0,0.0027874708,-0.00057643745,-0.004752144,0.00096803904,0.008787479,-0.009435087,-0.00038909912,0.0,0.0,0.0,0.0,0.0,0.0
3548000,3468000,0.0052985065,0.0028497993,-0.043634,0.00041026814,0.0002569228,488.10333,0.0,0.0,0.0,0.0,0.0,0.0,0.0,0.0,0.0,0.0,nan,0.0,0.0,0.0,0.0,0.0027874708,-0.00057643745,-0.004752144,0.00096803904,-0.032508016,-0.023307726,0.00017786026,0.0,0.0,0.0,0.0,0.0,0.0
3556000,3476000,0.0052985065,0.0028497993,-0.043634,0.00041026814,0.0002569228,488.10333,0.0,0.0,0.0,0.0,0.0,0.0,0.0,0.0,0.0,0.0,nan,0.0,0.0,0.0,0.0,0.0027874708,-0.00057643745,-0.004752144,0.00096803904,-0.024818337,-0.009368598,0.00032949448,0.0,0.0,0.0,0.0,0.0,0.0
3564000,3484000,0.0052985065,0.0028497993,-0.043634,0.00041026814,0.0002569228,488.10333,0.0,0.0,0.0,0.0,0.0,0.0,0.0,0.0,0.0,0.0,nan,0.0,0.0,0.0,0.0,0.0027874708,-0.00057643745,-0.004752144,0.00096803904,-0.0031189416,0.0014610142,9.727478e-05,0.0,0.0,0.0,0.0,0.0,0.0
3572000,3492000,0.0052985065,0.0028497993,-0.043634,0.00041026814,0.0002569228,488.10333,0.0,0.0,0.0,0.0,0.0,0.0,0.0,0.0,0.0,0.0,nan,0.0,0.0,0.0,0.0,0.0027874708,-0.00057643745,-0.004752144,0.00096803904,-0.010295708,-0.0053910017,0.00011587143,0.0,0.0,0.0,0.0,0.0,0.0
3580000,3500000,0.0052985065,0.0028497993,-0.043634,0.00041026814,0.0002569228,488.10333,0.0,0.0,0.0,0.0,0.0,0.0,0.0,0.0,0.0,0.0,nan,0.0,0.0,0.0,0.0,0.0027874708,-0.00057643745,-0.004752144,0.00096803904,0.003022354,0.00072176754,-5.4836273e-05,0.0,0.0,0.0,0.0,0.0,0.0
3588000,3508000,0.0052985065,0.0028497993,-0.043634,0.00041026814,0.0002569228,488.10333,0.0,0.0,0.0,0.0,0.0,0.0,0.0,0.0,0.0,0.0,nan,0.0,0.0,0.0,0.0,0.0027874708,-0.00057643745,-0.004752144,0.00096803904,0.01385526,-0.012747362,-0.00058174133,0.0,0.0,0.0,0.0,0.0,0.0
3596000,3516000,0.0052985065,0.0028497993,-0.043634,0.00041026814,0.0002569228,488.10333,0.0,0.0,0.0,0.0,0.0,0.0,0.0,0.0,0.0,0.0,nan,0.0,0.0,0.0,0.0,0.0027874708,-0.00057643745,-0.004752144,0.00096803904,0.0042528547,0.019335732,0.00026750565,0.0,0.0,0.0,0.0,0.0,0.0
3604000,3524000,0.0052985065,0.0028497993,-0.043634,0.00041026814,0.0002569228,488.10333,0.0,0.0,0.0,0.0,0.0,0.0,0.0,0.0,0.0,0.0,nan,0.0,0.0,0.0,0.0,0.0027874708,-0.00057643745,-0.004752144,0.00096803904,-0.015935952,-0.014290348,5.1498413e-05,0.0,0.0,0.0,0.0,0.0,0.0
3612000,3532000,0.0052985065,0.0028497993,-0.043634,0.00041026814,0.0002569228,488.10333,0.0,0.0,0.0,0.0,0.0,0.0,0.0,0.0,0.0,0.0,nan,0.0,0.0,0.0,0.0,0.009311795,-0.0018670177,-0.009420589,0.0023580492,-0.026498135,0.01620379,0.0008687973,0.0,0.0,0.0,0.0,0.0,0.0
3620000,3540000,0.0052985065,0.0028497993,-0.043634,0.00041026814,0.0002569228,488.10333,0.0,0.0,0.0,0.0,0.0,0.0,0.0,0.0,0.0,0.0,nan,0.0,0.0,0.0,0.0,0.009311795,-0.0018670177,-0.009420589,0.0023580492,-0.008772483,0.0065372884,0.00031995773,0.0,0.0,0.0,0.0,0.0,0.0
3628000,3548000,0.0052985065,0.0028497993,-0.043634,0.00041026814,0.0002569228,488.10333,0.0,0.0,0.0,0.0,0.0,0.0,0.0,0.0,0.0,0.0,nan,0.0,0.0,0.0,0.0,0.009311795,-0.0018670177,-0.009420589,0.0023580492,-0.017633457,-0.017751828,1.2397766e-05,0.0,0.0,0.0,0.0,0.0,0.0
3636000,3556000,0.0052985065,0.0028497993,-0.043634,0.00041026814,0.0002569228,488.10333,0.0,0.0,0.0,0.0,0.0,0.0,0.0,0.0,0.0,0.0,nan,0.0,0.0,0.0,0.0,0.009311795,-0.0018670177,-0.009420589,0.0023580492,-0.015947577,0.008488089,0.00051116943,0.0,0.0,0.0,0.0,0.0,0.0
3644000,3564000,0.0052985065,0.0028497993,-0.043634,0.00041026814,0.0002569228,488.10333,0.0,0.0,0.0,0.0,0.0,0.0,0.0,0.0,0.0,0.0,nan,0.0,0.0,0.0,0.0,0.009311795,-0.0018670177,-0.009420589,0.0023580492,-0.023259746,0.022295281,0.0009150505,0.0,0.0,0.0,0.0,0.0,0.0
3652000,3572000,0.0052985065,0.0028497993,-0.043634,0.00041026814,0.0002569228,488.10333,0.0,0.0,0.0,0.0,0.0,0.0,0.0,0.0,0.0,0.0,nan,0.0,0.0,0.0,0.0,0.009311795,-0.0018670177,-0.009420589,0.0023580492,-0.020808805,0.0112302005,0.0006632805,0.0,0.0,0.0,0.0,0.0,0.0
3660000,3580000,0.0052985065,0.0028497993,-0.043634,0.00041026814,0.0002569228,488.10333,0.0,0.0,0.0,0.0,0.0,0.0,0.0,0.0,0.0,0.0,nan,0.0,0.0,0.0,0.0,0.009311795,-0.0018670177,-0.009420589,0.0023580492,0.018577896,0.015169919,-0.0001487732,0.0,0.0,0.0,0.0,0.0,0.0
3668000,3588000,0.0052985065,0.0028497993,-0.043634,0.00041026814,0.0002569228,488.10333,0.0,0.0,0.0,0.0,0.0,0.0,0.0,0.0,0.0,0.0,nan,0.0,0.0,0.0,0.0,0.009311795,-0.0018670177,-0.009420589,0.0023580492,0.013200726,0.008262947,-0.00014781952,0.0,0.0,0.0,0.0,0.0,0.0
3676000,3596000,0.0052985065,0.0028497993,-0.043634,0.00041026814,0.0002569228,488.10333,0.0,0.0,0.0,0.0,0.0,0.0,0.0,0.0,0.0,0.0,nan,0.0,0.0,0.0,0.0,0.009311795,-0.0018670177,-0.009420589,0.0023580492,0.006633254,-0.02288866,-0.00063562393,0.0,0.0,0.0,0.0,0.0,0.0
3684000,3604000,0.0052985065,0.0028497993,-0.043634,0.00041026814,0.0002569228,488.10333,0.0,0.0,0.0,0.0,0.0,0.0,0.0,0.0,0.0,0.0,nan,0.0,0.0,0.0,0.0,0.007041812,-0.0014739614,-0.002432108,0.00014078617,-0.0075241607,-0.019806534,-0.00024461746,0.0,0.0,0.0,0.0,0.0,0.0
3692000,3612000,0.0052985065,0.0028497993,-0.043634,0.00041026814,0.0002569228,488.10333,0.0,0.0,0.0,0.0,0.0,0.0,0.0,0.0,0.0,0.0,nan,0.0,0.0,0.0,0.0,0.007041812,-0.0014739614,-0.002432108,0.00014078617,-0.0043377746,-0.0051484704,-7.6293945e-06,0.0,0.0,0.0,0.0,0.0,0.0
3700000,3620000,0.0052985065,0.0028497993,-0.043634,0.00041026814,0.0002569228,488.10333,0.0,0.0,0.0,0.0,0.0,0.0,0.0,0.0,0.0,0.0,nan,0.0,0.0,0.0,0.0,0.007041812,-0.0014739614,-0.002432108,0.00014078617,-0.003359545,-0.01945977,-0.00033187866,0.0,0.0,0.0,0.0,0.0,0.0
3708000,3628000,0.0052985065,0.0028497993,-0.043634,0.00041026814,0.0002569228,488.10333,0.0,0.0,0.0,0.0,0.0,0.0,0.0,0.0,0.0,0.0,nan,0.0,0.0,0.0,0.0,0.007041812,-0.0014739614,-0.002432108,0.00014078617,-0.015695738,-0.022476822,-0.00012779236,0.0,0.0,0.0,0.0,0.0,0.0
3716000,3636000,0.0052985065,0.0028497993,-0.043634,0.00041026814,0.0002569228,488.10333,0.0,0.0,0.0,0.0,0.0,0.0,0.0,0.0,0.0,0.0,nan,0.0,0.0,0.0,0.0,0.007041812,-0.0014739614,-0.002432108,0.00014078617,-0.009535614,-0.003407672,0.0001449585,0.0,0.0,0.0,0.0,0.0,0.0
3724000,3644000,0.0052985065,0.0028497993,-0.043634,0.00041026814,0.0002569228,488.10333,0.0,0.0,0.0,0.0,0.0,0.0,0.0,0.0,0.0,0.0,nan,0.0,0.0,0.0,0.0,0.007041812,-0.0014739614,-0.002432108,0.00014078617,-0.021574385,-0.00085163116,0.0004529953,0.0,0.0,0.0,0.0,0.0,0.0
3732000,3652000,0.0052985065,0.0028497993,-0.043634,0.00041026814,0.0002569228,488.10333,0.0,0.0,0.0,0.0,0.0,0.0,0.0,0.0,0.0,0.0,nan,0.0,0.0,0.0,0.0,0.007041812,-0.0014739614,-0.002432108,0.00014078617,-0.03534562,-0.0013125241,0.0007209778,0.0,0.0,0.0,0.0,0.0,0.0
3740000,3660000,0.0052985065,0.0028497993,-0.043634,0.00041026814,0.0002569228,488.10333,0.0,0.0,0.0,0.0,0.0,0.0,0.0,0.0,0.0,0.0,nan,0.0,0.0,0.0,0.0,0.007041812,-0.0014739614,-0.002432108,0.00014078617,-0.012307543,0.008589834,0.00044345856,0.0,0.0,0.0,0.0,0.0,0.0
3748000,3668000,0.0052985065,0.0028497993,-0.043634,0.00041026814,0.0002569228,488.10333,0.0,0.0,0.0,0.0,0.0,0.0,0.0,0.0,0.0,0.0,nan,0.0,0.0,0.0,0.0,0.007041812,-0.0014739614,-0.002432108,0.00014078617,-0.015464436,0.031460047,0.00092077255,0.0,0.0,0.0,0.0,0.0,0.0
3756000,3676000,0.0052985065,0.0028497993,-0.043634,0.00041026814,0.0002569228,488.10333,0.0,0.0,0.0,0.0,0.0,0.0,0.0,0.0,0.0,0.0,nan,0.0,0.0,0.0,0.0,-0.01641965,0.0034622098,-0.002277881,0.001889497,-0.017239844,0.005701676,0.00049448013,0.0,0.0,0.0,0.0,0.0,0.0
3764000,3684000,0.0052985065,0.0028497993,-0.043634,0.00041026814,0.0002569228,488.10333,0.0,0.0,0.0,0.0,0.0,0.0,0.0,0.0,0.0,0.0,nan,0.0,0.0,0.0,0.0,-0.01641965,0.0034622098,-0.002277881,0.001889497,0.0069137756,0.019876033,0.0002117157,0.0,0.0,0.0,0.0,0.0,0.0
3772000,3692000,0.0052985065,0.0028497993,-0.043634,0.00041026814,0.0002569228,488.10333,0.0,0.0,0.0,0.0,0.0,0.0,0.0,0.0,0.0,0.0,nan,0.0,0.0,0.0,0.0,-0.01641965,0.0034622098,-0.002277881,0.001889497,-0.025057694,-2.6538968e-05,0.00054836273,0.0,0.0,0.0,0.0,0.0,0.0
3780000,3700000,0.0052985065,0.0028497993,-0.043634,0.00041026814,0.0002569228,488.10333,0.0,0.0,0.0,0.0,0.0,0.0,0.0,0.0,0.0,0.0,nan,0.0,0.0,0.0,0.0,-0.01641965,0.0034622098,-0.002277881,0.001889497,-0.027254885,0.0065293163,0.0007247925,0.0,0.0,0.0,0.0,0.0,0.0
3788000,3708000,0.0052985065,0.0028497993,-0.043634,0.00041026814,0.0002569228,488.10333,0.0,0.0,0.0,0.0,0.0,0.0,0.0,0.0,0.0,0.0,nan,0.0,0.0,0.0,0.0,-0.01641965,0.0034622098,-0.002277881,0.001889497,0.012294859,0.0059390217,-0.0001783371,0.0,0.0,0.0,0.0,0.0,0.0
3796000,3716000,0.0052985065,0.0028497993,-0.043634,0.00041026814,0.0002569228,488.10333,0.0,0.0,0.0,0.0,0.0,0.0,0.0,0.0,0.0,0.0,nan,0.0,0.0,0.0,0.0,-0.01641965,0.0034622098,-0.002277881,0.001889497,-0.017102791,-0.013938665,9.679794e-05,0.0,0.0,0.0,0.0,0.0,0.0
3804000,3724000,0.0052985065,0.0028497993,-0.043634,0.00041026814,0.0002569228,488.10333,0.0,0.0,0.0,0.0,0.0,0.0,0.0,0.0,0.0,0.0,nan,0.0,0.0,0.0,0.0,-0.01641965,0.0034622098,-0.002277881,0.001889497,-0.024526281,-0.005832985,0.00042629242,0.0,0.0,0.0,0.0,0.0,0.0
3812000,3732000,-0.000108997076,0.003004972,0.011700194,2.355111e-05,0.00035931665,488.1101,0.0,0.0,0.0,0.0,0.0,0.0,0.0,0.0,0.0,0.0,nan,0.0,0.0,0.0,0.0,-0.01641965,0.0034622098,-0.002277881,0.001889497,-0.016686466,-0.03192784,-0.00030946732,0.0,0.0,0.0,0.0,0.0,0.0
3820000,3740000,-0.000108997076,0.003004972,0.011700194,2.355111e-05,0.00035931665,488.1101,0.0,0.0,0.0,0.0,0.0,0.0,0.0,0.0,0.0,0.0,nan,0.0,0.0,0.0,0.0,-0.01641965,0.0034622098,-0.002277881,0.001889497,-0.03524843,0.021807685,0.0011725426,0.0,0.0,0.0,0.0,0.0,0.0
3828000,3748000,-0.000108997076,0.003004972,0.011700194,2.355111e-05,0.00035931665,488.1101,0.0,0.0,0.0,0.0,0.0,0.0,0.0,0.0,0.0,0.0,nan,0.0,0.0,0.0,0.0,0.004916787,-0.0010432629,-0.002407968,-0.0003171265,-0.0054519624,-0.020224988,-0.00029945374,0.0,0.0,0.0,0.0,0.0,0.0
3836000,3756000,-0.000108997076,0.003004972,0.011700194,2.355111e-05,0.00035931665,488.1101,0.0,0.0,0.0,0.0,0.0,0.0,0.0,0.0,0.0,0.0,nan,0.0,0.0,0.0,0.0,0.004916787,-0.0010432629,-0.002407968,-0.0003171265,-0.015482418,-0.00353688,0.00027275085,0.0,0.0,0.0,0.0,0.0,0.0
3844000,3764000,-0.000108997076,0.003004972,0.011700194,2.355111e-05,0.00035931665,488.1101,0.0,0.0,0.0,0.0,0.0,0.0,0.0,0.0,0.0,0.0,nan,0.0,0.0,0.0,0.0,0.004916787,-0.0010432629,-0.002407968,-0.0003171265,-0.009034842,-0.013139054,-6.580353e-05,0.0,0.0,0.0,0.0,0.0,0.0
3852000,3772000,-0.000108997076,0.003004972,0.011700194,2.355111e-05,0.00035931665,488.1101,0.0,0.0,0.0,0.0,0.0,0.0,0.0,0.0,0.0,0.0,nan,0.0,0.0,0.0,0.0,0.004916787,-0.0010432629,-0.002407968,-0.0003171265,-0.02186702,0.013134986,0.0007328987,0.0,0.0,0.0,0.0,0.0,0.0
3860000,3780000,-0.000108997076,0.003004972,0.011700194,2.355111e-05,0.00035931665,488.1101,0.0,0.0,0.0,0.0,0.0,0.0,0.0,0.0,0.0,0.0,nan,0.0,0.0,0.0,0.0,0.004916787,-0.0010432629,-0.002407968,-0.0003171265,-0.019721923,0.0127711,0.0006814003,0.0,0.0,0.0,0.0,0.0,0.0
3868000,3788000,-0.000108997076,0.003004972,0.011700194,2.355111e-05,0.00035931665,488.1101,0.0,0.0,0.0,0.0,0.0,0.0,0.0,0.0,0.0,0.0,nan,0.0,0.0,0.0,0.0,0.004916787,-0.0010432629,-0.002407968,-0.0003171265,-0.022673627,-0.014456019,0.00019741058,0.0,0.0,0.0,0.0,0.0,0.0
3876000,3796000,-0.000108997076,0.003004972,0.011700194,2.355111e-05,0.00035931665,488.1101,0.0,0.0,0.0,0.0,0.0,0.0,0.0,0.0,0.0,0.0,nan,0.0,0.0,0.0,0.0,0.004916787,-0.0010432629,-0.002407968,-0.0003171265,-0.017619476,-0.000106185675,0.00038862228,0.0,0.0,0.0,0.0,0.0,0.0
3884000,3804000,-0.000108997076,0.003004972,0.011700194,2.355111e-05,0.00035931665,488.1101,0.0,0.0,0.0,0.0,0.0,0.0,0.0,0.0,0.0,0.0,nan,0.0,0.0,0.0,0.0,0.004916787,-0.0010432629,-0.002407968,-0.0003171265,-0.003260918,0.016991526,0.0003991127,0.0,0.0,0.0,0.0,0.0,0.0
3892000,3812000,-0.000108997076,0.003004972,0.011700194,2.355111e-05,0.00035931665,488.1101,0.0,0.0,0.0,0.0,0.0,0.0,0.0,0.0,0.0,0.0,nan,0.0,0.0,0.0,0.0,0.004916787,-0.0010432629,-0.002407968,-0.0003171265,-0.009725923,0.010594159,0.00042629242,0.0,0.0,0.0,0.0,0.0,0.0
3900000,3820000,-0.000108997076,0.003004972,0.011700194,2.355111e-05,0.00035931665,488.1101,0.0,0.0,0.0,0.0,0.0,0.0,0.0,0.0,0.0,0.0,nan,0.0,0.0,0.0,0.0,0.011174202,-0.0023814328,-0.0046173334,-0.002503723,-0.014311969,0.026643708,0.0008172989,0.0,0.0,0.0,0.0,0.0,0.0
3908000,3828000,-0.000108997076,0.003004972,0.011700194,2.355111e-05,0.00035931665,488.1101,0.0,0.0,0.0,0.0,0.0,0.0,0.0,0.0,0.0,0.0,nan,0.0,0.0,0.0,0.0,0.011174202,-0.0023814328,-0.0046173334,-0.002503723,0.01148737,0.010978267,-6.246567e-05,0.0,0.0,0.0,0.0,0.0,0.0
3916000,3836000,-0.000108997076,0.003004972,0.011700194,2.355111e-05,0.00035931665,488.1101,0.0,0.0,0.0,0.0,0.0,0.0,0.0,0.0,0.0,0.0,nan,0.0,0.0,0.0,0.0,0.011174202,-0.0023814328,-0.0046173334,-0.002503723,-0.024011454,0.015846044,0.00083208084,0.0,0.0,0.0,0.0,0.0,0.0
3924000,3844000,-0.000108997076,0.003004972,0.011700194,2.355111e-05,0.00035931665,488.1101,0.0,0.0,0.0,0.0,0.0,0.0,0.0,0.0,0.0,0.0,nan,0.0,0.0,0.0,0.0,0.011174202,-0.0023814328,-0.0046173334,-0.002503723,-0.039662726,8.836389e-06,0.00084638596,0.0,0.0,0.0,0.0,0.0,0.0
3932000,3852000,-0.000108997076,0.003004972,0.011700194,2.355111e-05,0.00035931665,488.1101,0.0,0.0,0.0,0.0,0.0,0.0,0.0,0.0,0.0,0.0,nan,0.0,0.0,0.0,0.0,0.011174202,-0.0023814328,-0.0046173334,-0.002503723,-0.05395361,-0.009813234,0.0009126663,0.0,0.0,0.0,0.0,0.0,0.0
3940000,3860000,-0.000108997076,0.003004972,0.011700194,2.355111e-05,0.00035931665,488.1101,0.0,0.0,0.0,0.0,0.0,0.0,0.0,0.0,0.0,0.0,nan,0.0,0.0,0.0,0.0,0.011174202,-0.0023814328,-0.0046173334,-0.002503723,-0.01998431,-0.008728832,0.0002670288,0.0,0.0,0.0,0.0,0.0,0.0
3948000,3868000,-0.000108997076,0.003004972,0.011700194,2.355111e-05,0.00035931665,488.1101,0.0,0.0,0.0,0.0,0.0,0.0,0.0,0.0,0.0,0.0,nan,0.0,0.0,0.0,0.0,0.011174202,-0.0023814328,-0.0046173334,-0.002503723,-0.007723108,0.014063999,0.00044727325,0.0,0.0,0.0,0.0,0.0,0.0
3956000,3876000,-0.000108997076,0.003004972,0.011700194,2.355111e-05,0.00035931665,488.1101,0.0,0.0,0.0,0.0,0.0,0.0,0.0,0.0,0.0,0.0,nan,0.0,0.0,0.0,0.0,0.011174202,-0.0023814328,-0.0046173334,-0.002503723,0.0119881425,0.014220491,-1.5258789e-05,0.0,0.0,0.0,0.0,0.0,0.0
3964000,3884000,-0.000108997076,0.003004972,0.011700194,2.355111e-05,0.00035931665,488.1101,0.0,0.0,0.0,0.0,0.0,0.0,0.0,0.0,0.0,0.0,nan,0.0,0.0,0.0,0.0,0.011174202,-0.0023814328,-0.0046173334,-0.002503723,-0.057483636,-0.0027020425,0.0011291504,0.0,0.0,0.0,0.0,0.0,0.0
3972000,3892000,-0.000108997076,0.003004972,0.011700194,2.355111e-05,0.00035931665,488.1101,0.0,0.0,0.0,0.0,0.0,0.0,0.0,0.0,0.0,0.0,nan,0.0,0.0,0.0,0.0,0.016477704,-0.0034248931,-0.0035694093,0.00012472272,-0.028390756,0.0042921007,0.0007119179,0.0,0.0,0.0,0.0,0.0,0.0
3980000,3900000,-0.000108997076,0.003004972,0.011700194,2.355111e-05,0.00035931665,488.1101,0.0,0.0,0.0,0.0,0.0,0.0,0.0,0.0,0.0,0.0,nan,0.0,0.0,0.0,0.0,0.016477704,-0.0034248931,-0.0035694093,0.00012472272,-0.025284568,0.021334633,0.00096702576,0.0,0.0,0.0,0.0,0.0,0.0
3988000,3908000,-0.000108997076,0.003004972,0.011700194,2.355111e-05,0.00035931665,488.1101,0.0,0.0,0.0,0.0,0.0,0.0,0.0,0.0,0.0,0.0,nan,0.0,0.0,0.0,0.0,0.016477704,-0.0034248931,-0.0035694093,0.00012472272,-0.027816487,0.02009353,0.0009965897,0.0,0.0,0.0,0.0,0.0,0.0
3996000,3916000,-0.000108997076,0.003004972,0.011700194,2.355111e-05,0.00035931665,488.1101,0.0,0.0,0.0,0.0,0.0,0.0,0.0,0.0,0.0,0.0,nan,0.0,0.0,0.0,0.0,0.016477704,-0.0034248931,-0.0035694093,0.00012472272,-0.022253033,-0.004828185,0.00040340424,0.0,0.0,0.0,0.0,0.0,0.0
4004000,3924000,-0.000108997076,0.003004972,0.011700194,2.355111e-05,0.00035931665,488.1101,0.0,0.0,0.0,0.0,0.0,0.0,0.0,0.0,0.0,0.0,nan,0.0,0.0,0.0,0.0,0.016477704,-0.0034248931,-0.0035694093,0.00012472272,-0.010933466,-0.03336273,-0.0004720688,0.0,0.0,0.0,0.0,0.0,0.0
4012000,3932000,-0.000108997076,0.003004972,0.011700194,2.355111e-05,0.00035931665,488.1101,0.0,0.0,0.0,0.0,0.0,0.0,0.0,0.0,0.0,0.0,nan,0.0,0.0,0.0,0.0,0.016477704,-0.0034248931,-0.0035694093,0.00012472272,0.0015852805,-0.017100438,-0.00039434433,0.0,0.0,0.0,0.0,0.0,0.0
4020000,3940000,-0.000108997076,0.003004972,0.011700194,2.355111e-05,0.00035931665,488.1101,0.0,0.0,0.0,0.0,0.0,0.0,0.0,0.0,0.0,0.0,nan,0.0,0.0,0.0,0.0,0.016477704,-0.0034248931,-0.0035694093,0.00012472272,-0.018350607,0.015383765,0.0007138252,0.0,0.0,0.0,0.0,0.0,0.0
4028000,3948000,-0.000108997076,0.003004972,0.011700194,2.355111e-05,0.00035931665,488.1101,0.0,0.0,0.0,0.0,0.0,0.0,0.0,0.0,0.0,0.0,nan,0.0,0.0,0.0,0.0,0.016477704,-0.0034248931,-0.0035694093,0.00012472272,-0.011774801,0.019109398,0.00063467026,0.0,0.0,0.0,0.0,0.0,0.0
4036000,3956000,-0.000108997076,0.003004972,0.011700194,2.355111e-05,0.00035931665,488.1101,0.0,0.0,0.0,0.0,0.0,0.0,0.0,0.0,0.0,0.0,nan,0.0,0.0,0.0,0.0,0.016477704,-0.0034248931,-0.0035694093,0.00012472272,-0.008584449,-0.015294522,-0.00011920929,0.0,0.0,0.0,0.0,0.0,0.0
4044000,3964000,-0.000108997076,0.003004972,0.011700194,2.355111e-05,0.00035931665,488.1101,0.0,0.0,0.0,0.0,0.0,0.0,0.0,0.0,0.0,0.0,nan,0.0,0.0,0.0,0.0,0.014652729,-0.0030149482,-0.00559254,0.0002412796,0.002083974,-0.004523888,-0.00013923645,0.0,0.0,0.0,0.0,0.0,0.0
4052000,3972000,-0.000108997076,0.003004972,0.011700194,2.355111e-05,0.00035931665,488.1101,0.0,0.0,0.0,0.0,0.0,0.0,0.0,0.0,0.0,0.0,nan,0.0,0.0,0.0,0.0,0.014652729,-0.0030149482,-0.00559254,0.0002412796,-0.0091067385,0.003946647,0.00028324127,0.0,0.0,0.0,0.0,0.0,0.0
4060000,3980000,-0.000108997076,0.003004972,0.011700194,2.355111e-05,0.00035931665,488.1101,0.0,0.0,0.0,0.0,0.0,0.0,0.0,0.0,0.0,0.0,nan,0.0,0.0,0.0,0.0,0.014652729,-0.0030149482,-0.00559254,0.0002412796,-0.0060476996,-0.004809186,3.9577484e-05,0.0,0.0,0.0,0.0,0.0,0.0
4068000,3988000,-0.000108997076,0.003004972,0.011700194,2.355111e-05,0.00035931665,488.1101,0.0,0.0,0.0,0.0,0.0,0.0,0.0,0.0,0.0,0.0,nan,0.0,0.0,0.0,0.0,0.014652729,-0.0030149482,-0.00559254,0.0002412796,-0.008055674,0.0066456795,0.00031137466,0.0,0.0,0.0,0.0,0.0,0.0
4076000,3996000,-0.000108997076,0.003004972,0.011700194,2.355111e-05,0.00035931665,488.1101,0.0,0.0,0.0,0.0,0.0,0.0,0.0,0.0,0.0,0.0,nan,0.0,0.0,0.0,0.0,0.014652729,-0.0030149482,-0.00559254,0.0002412796,-0.0068284906,-0.0126452,-0.000104904175,0.0,0.0,0.0,0.0,0.0,0.0
4084000,4004000,-0.000108997076,0.003004972,0.011700194,2.355111e-05,0.00035931665,488.1101,0.0,0.0,0.0,0.0,0.0,0.0,0.0,0.0,0.0,0.0,nan,0.0,0.0,0.0,0.0,0.014652729,-0.0030149482,-0.00559254,0.0002412796,-0.022561898,-0.017360538,0.00013160706,0.0,0.0,0.0,0.0,0.0,0.0
4092000,4012000,-0.000108997076,0.003004972,0.011700194,2.355111e-05,0.00035931665,488.1101,0.0,0.0,0.0,0.0,0.0,0.0,0.0,0.0,0.0,0.0,nan,0.0,0.0,0.0,0.0,0.014652729,-0.0030149482,-0.00559254,0.0002412796,0.00829724,-0.00059469044,-0.00020837784,0.0,0.0,0.0,0.0,0.0,0.0
4100000,4020000,-0.000108997076,0.003004972,0.011700194,2.355111e-05,0.00035931665,488.1101,0.0,0.0,0.0,0.0,0.0,0.0,0.0,0.0,0.0,0.0,nan,0.0,0.0,0.0,0.0,0.014652729,-0.0030149482,-0.00559254,0.0002412796,-0.0065683927,0.023815632,0.00059366226,0.0,0.0,0.0,0.0,0.0,0.0
4108000,4028000,-0.000108997076,0.003004972,0.011700194,2.355111e-05,0.00035931665,488.1101,0.0,0.0,0.0,0.0,0.0,0.0,0.0,0.0,0.0,0.0,nan,0.0,0.0,0.0,0.0,0.014652729,-0.0030149482,-0.00559254,0.0002412796,0.0058359616,-0.0024262518,-0.00018548965,0.0,0.0,0.0,0.0,0.0,0.0
4116000,4036000,-0.000108997076,0.003004972,0.011700194,2.355111e-05,0.00035931665,488.1101,0.0,0.0,0.0,0.0,0.0,0.0,0.0,0.0,0.0,0.0,nan,0.0,0.0,0.0,0.0,0.006965637,-0.0014363173,-0.003026843,0.0006659627,-0.0007552337,0.020925224,0.0004105568,0.0,0.0,0.0,0.0,0.0,0.0
4124000,4044000,-0.000108997076,0.003004972,0.011700194,2.355111e-05,0.00035931665,488.1101,0.0,0.0,0.0,0.0,0.0,0.0,0.0,0.0,0.0,0.0,nan,0.0,0.0,0.0,0.0,0.006965637,-0.0014363173,-0.003026843,0.0006659627,-0.015161892,-0.025350332,-0.0002002716,0.0,0.0,0.0,0.0,0.0,0.0
4132000,4052000,-0.000108997076,0.003004972,0.011700194,2.355111e-05,0.00035931665,488.1101,0.0,0.0,0.0,0.0,0.0,0.0,0.0,0.0,0.0,0.0,nan,0.0,0.0,0.0,0.0,0.006965637,-0.0014363173,-0.003026843,0.0006659627,0.0031638406,0.0068100095,5.9127808e-05,0.0,0.0,0.0,0.0,0.0,0.0
4140000,4060000,-0.000108997076,0.003004972,0.011700194,2.355111e-05,0.00035931665,488.1101,0.0,0.0,0.0,0.0,0.0,0.0,0.0,0.0,0.0,0.0,nan,0.0,0.0,0.0,0.0,0.006965637,-0.0014363173,-0.003026843,0.0006659627,-0.0049226396,0.018973365,0.0004720688,0.0,0.0,0.0,0.0,0.0,0.0
4148000,4068000,-0.000108997076,0.003004972,0.011700194,2.355111e-05,0.00035931665,488.1101,0.0,0.0,0.0,0.0,0.0,0.0,0.0,0.0,0.0,0.0,nan,0.0,0.0,0.0,0.0,0.006965637,-0.0014363173,-0.003026843,0.0006659627,0.004165793,0.0025544614,-4.7683716e-05,0.0,0.0,0.0,0.0,0.0,0.0
4156000,4076000,-0.000108997076,0.003004972,0.011700194,2.355111e-05,0.00035931665,488.1101,0.0,0.0,0.0,0.0,0.0,0.0,0.0,0.0,0.0,0.0,nan,0.0,0.0,0.0,0.0,0.006965637,-0.0014363173,-0.003026843,0.0006659627,0.0039289836,-0.0029715449,-0.00015115738,0.0,0.0,0.0,0.0,0.0,0.0
4164000,4084000,-0.000108997076,0.003004972,0.011700194,2.355111e-05,0.00035931665,488.1101,0.0,0.0,0.0,0.0,0.0,0.0,0.0,0.0,0.0,0.0,nan,0.0,0.0,0.0,0.0,0.006965637,-0.0014363173,-0.003026843,0.0006659627,-0.014996672,-0.009193867,0.00014781952,0.0,0.0,0.0,0.0,0.0,0.0
4172000,4092000,-0.000108997076,0.003004972,0.011700194,2.355111e-05,0.00035931665,488.1101,0.0,0.0,0.0,0.0,0.0,0.0,0.0,-1.2025703e-06,0.0,0.0,nan,0.0,0.0,0.0,0.0,0.006965637,-0.0014363173,-0.003026843,0.0006659627,-0.019267755,0.018646032,0.0007801056,0.0,0.0,0.0,0.0,0.0,0.0
4180000,4100000,-0.000108997076,0.003004972,0.011700194,2.355111e-05,0.00035931665,488.1101,0.0,0.0,0.0,0.0,0.0,0.0,0.0,-1.2025703e-06,0.0,0.0,nan,0.0,0.0,0.0,0.0,0.006965637,-0.0014363173,-0.003026843,0.0006659627,-0.009163057,0.020672113,0.00059890747,0.0,0.0,0.0,0.0,0.0,0.0
4188000,4108000,-0.000108997076,0.003004972,0.011700194,2.355111e-05,0.00035931665,488.1101,0.0,0.0,0.0,0.0,0.0,0.0,0.0,-1.2025703e-06,0.0,0.0,nan,0.0,0.0,0.0,0.0,-0.047400594,0.009644379,-0.0056020766,-0.003664881,-0.025476387,0.018077657,0.0009031296,0.0,0.0,0.0,0.0,0.0,0.0
4196000,4116000,-0.000108997076,0.003004972,0.011700194,2.355111e-05,0.00035931665,488.1101,0.0,0.0,0.0,0.0,0.0,0.0,0.0,-1.2025703e-06,0.0,0.0,nan,0.0,0.0,0.0,0.0,-0.047400594,0.009644379,-0.0056020766,-0.003664881,-0.004764784,-0.01184237,-0.00013399124,0.0,0.0,0.0,0.0,0.0,0.0
4204000,4124000,0.00015692296,-0.0068546548,-0.02367925,3.145068e-05,0.00044560494,-0.00011662906,0.0,0.0,0.0,0.0,0.0,0.0,0.0,-1.2025703e-06,0.0,0.0,nan,0.0,0.0,0.0,0.0,-0.047400594,0.009644379,-0.0056020766,-0.003664881,-0.02912212,-0.03935021,-0.00023126602,0.0,0.0,0.0,0.0,0.0,0.0
4212000,4132000,0.00015692296,-0.0068546548,-0.02367925,3.145068e-05,0.00044560494,-0.00011662906,0.0,0.0,0.0,0.0,0.0,0.0,0.0,-1.2025703e-06,0.0,0.0,nan,0.0,0.0,0.0,0.0,-0.047400594,0.009644379,-0.0056020766,-0.003664881,-0.012050556,-0.020573005,-0.00015974045,0.0,0.0,0.0,0.0,0.0,0.0
4220000,4140000,0.00015692296,-0.0068546548,-0.02367925,3.145068e-05,0.00044560494,-0.00011662906,0.0,0.0,0.0,0.0,0.0,0.0,0.0,-1.2025703e-06,0.0,0.0,nan,0.0,0.0,0.0,0.0,-0.047400594,0.009644379,-0.0056020766,-0.003664881,-0.016499698,-0.011488751,0.0001335144,0.0,0.0,0.0,0.0,0.0,0.0
4228000,4148000,0.00015692296,-0.0068546548,-0.02367925,3.145068e-05,0.00044560494,-0.00011662906,0.0,0.0,0.0,0.0,0.0,0.0,0.0,-1.2025703e-06,0.0,0.0,nan,0.0,0.0,0.0,0.0,-0.047400594,0.009644379,-0.0056020766,-0.003664881,-0.025663603,0.0053074807,0.00066804886,0.0,0.0,0.0,0.0,0.0,0.0
4236000,4156000,0.00015692296,-0.0068546548,-0.02367925,3.145068e-05,0.00044560494,-0.00011662906,0.0,0.0,0.0,0.0,0.0,0.0,0.0,-0.101420596,0.0,0.0,nan,0.0,0.0,0.0,0.0,-0.047400594,0.009644379,-0.0056020766,-0.003664881,-0.0339107,0.012612864,0.0009775162,0.0,0.0,0.0,0.0,0.0,0.0
4244000,4164000,0.00015692296,-0.0068546548,-0.02367925,3.145068e-05,0.00044560494,-0.00011662906,0.0,0.0,0.0,0.0,0.0,0.0,0.0,-0.101420596,0.0,0.0,nan,0.0,0.0,0.0,0.0,-0.047400594,0.009644379,-0.0056020766,-0.003664881,-0.011211552,-0.006288618,0.0001282692,0.0,0.0,0.0,0.0,0.0,0.0
4252000,4172000,0.00015692296,-0.0068546548,-0.02367925,3.145068e-05,0.00044560494,-0.00011662906,0.0,0.0,0.0,0.0,0.0,0.0,0.0,-0.101420596,0.0,0.0,nan,0.0,0.0,0.0,0.0,-0.047400594,0.009644379,-0.0056020766,-0.003664881,0.023797022,-0.013549849,-0.0008420944,0.0,0.0,0.0,0.0,0.0,0.0
4260000,4180000,0.00015692296,-0.0068546548,-0.02367925,3.145068e-05,0.00044560494,-0.00011662906,0.0,0.0,0.0,0.0,0.0,0.0,0.0,-0.101420596,0.0,0.0,nan,0.0,0.0,0.0,0.0,0.00860703,-0.0017781071,-0.0017643124,0.0012572408,0.00805312,-0.00016848743,-0.00018835068,0.0,0.0,0.0,0.0,0.0,0.0
4268000,4188000,0.00015692296,-0.0068546548,-0.02367925,3.145068e-05,0.00044560494,-0.00011662906,0.0,0.0,0.0,0.0,0.0,0.0,0.0,-0.101420596,0.0,0.0,nan,0.0,0.0,0.0,0.0,0.00860703,-0.0017781071,-0.0017643124,0.0012572408,0.0049434304,-0.018706337,-0.0005030632,0.0,0.0,0.0,0.0,0.0,0.0
4276000,4196000,0.00015692296,-0.0068546548,-0.02367925,3.145068e-05,0.00044560494,-0.00011662906,0.0,0.0,0.0,0.0,0.0,0.0,0.0,-0.101420596,0.0,0.0,nan,0.0,0.0,0.0,0.0,0.00860703,-0.0017781071,-0.0017643124,0.0012572408,-0.035359636,-0.010683194,0.0005121231,0.0,0.0,0.0,0.0,0.0,0.0
4284000,4204000,0.00015692296,-0.0068546548,-0.02367925,3.145068e-05,0.00044560494,-0.00011662906,0.0,0.0,0.0,0.0,0.0,0.0,0.0,-0.101420596,0.0,0.0,nan,0.0,0.0,0.0,0.0,0.00860703,-0.0017781071,-0.0017643124,0.0012572408,-0.013019478,0.014864206,0.0005660057,0.0,0.0,0.0,0.0,0.0,0.0
4292000,4212000,0.00015692296,-0.0068546548,-0.02367925,3.145068e-05,0.00044560494,-0.00011662906,0.0,0.0,0.0,0.0,0.0,0.0,0.0,-0.023645986,0.0,0.0,nan,0.0,0.0,0.0,0.0,0.00860703,-0.0017781071,-0.0017643124,0.0012572408,-0.016689863,0.014267042,0.0006337166,0.0,0.0,0.0,0.0,0.0,0.0
4300000,4220000,0.00015692296,-0.0068546548,-0.02367925,3.145068e-05,0.00044560494,-0.00011662906,0.0,0.0,0.0,0.0,0.0,0.0,0.0,-0.023645986,0.0,0.0,nan,0.0,0.0,0.0,0.0,0.00860703,-0.0017781071,-0.0017643124,0.0012572408,-0.030985465,-0.0031568855,0.00058174133,0.0,0.0,0.0,0.0,0.0,0.0
4308000,4228000,0.00015692296,-0.0068546548,-0.02367925,3.145068e-05,0.00044560494,-0.00011662906,0.0,0.0,0.0,0.0,0.0,0.0,0.0,-0.023645986,0.0,0.0,nan,0.0,0.0,0.0,0.0,0.00860703,-0.0017781071,-0.0017643124,0.0012572408,-0.01665054,-0.00011998415,0.00035572052,0.0,0.0,0.0,0.0,0.0,0.0
4316000,4236000,0.00015692296,-0.0068546548,-0.02367925,3.145068e-05,0.00044560494,-0.00011662906,0.0,0.0,0.0,0.0,0.0,0.0,0.0,-0.023645986,0.0,0.0,nan,0.0,0.0,0.0,0.0,0.00860703,-0.0017781071,-0.0017643124,0.0012572408,-0.021836841,0.010815799,0.0006747246,0.0,0.0,0.0,0.0,0.0,0.0
4324000,4244000,0.00015692296,-0.0068546548,-0.02367925,3.145068e-05,0.00044560494,-0.00011662906,0.0,0.0,0.0,0.0,0.0,0.0,0.0,-0.023645986,0.0,0.0,nan,0.0,0.0,0.0,0.0,0.00860703,-0.0017781071,-0.0017643124,0.0012572408,-0.0012154393,0.03311616,0.0006313324,0.0,0.0,0.0,0.0,0.0,0.0
4332000,4252000,0.00015692296,-0.0068546548,-0.02367925,3.145068e-05,0.00044560494,-0.00011662906,0.0,0.0,0.0,0.0,0.0,0.0,0.0,-0.023645986,0.0,0.0,nan,0.0,0.0,0.0,0.0,-0.004839182,0.0009667007,-0.0015053451,-0.0018367767,-0.0068983436,0.010522425,0.0003566742,0.0,0.0,0.0,0.0,0.0,0.0
4340000,4260000,0.00015692296,-0.0068546548,-0.02367925,3.145068e-05,0.00044560494,-0.00011662906,0.0,0.0,0.0,0.0,0.0,0.0,0.0,-0.023645986,0.0,0.0,nan,0.0,0.0,0.0,0.0,-0.004839182,0.0009667007,-0.0015053451,-0.0018367767,-0.017667122,-0.00018981099,0.00037622452,0.0,0.0,0.0,0.0,0.0,0.0
4348000,4268000,0.00015692296,-0.0068546548,-0.02367925,3.145068e-05,0.00044560494,-0.00011662906,0.0,0.0,0.0,0.0,0.0,0.0,0.0,-0.023645986,0.0,0.0,nan,0.0,0.0,0.0,0.0,-0.004839182,0.0009667007,-0.0015053451,-0.0018367767,-0.017847218,-0.03167011,-0.00029945374,0.0,0.0,0.0,0.0,0.0,0.0
4356000,4276000,0.00015692296,-0.0068546548,-0.02367925,3.145068e-05,0.00044560494,-0.00011662906,0.0,0.0,0.0,0.0,0.0,0.0,0.0,0.04215663,0.0,0.0,nan,0.0,0.0,0.0,0.0,-0.004839182,0.0009667007,-0.0015053451,-0.0018367767,0.0173846,-0.0071858466,-0.00055360794,0.0,0.0,0.0,0.0,0.0,0.0
4364000,4284000,0.00015692296,-0.0068546548,-0.02367925,3.145068e-05,0.00044560494,-0.00011662906,0.0,0.0,0.0,0.0,0.0,0.0,0.0,0.04215663,0.0,0.0,nan,0.0,0.0,0.0,0.0,-0.004839182,0.0009667007,-0.0015053451,-0.0018367767,-0.0192636,-0.005980909,0.00029182434,0.0,0.0,0.0,0.0,0.0,0.0
4372000,4292000,0.00015692296,-0.0068546548,-0.02367925,3.145068e-05,0.00044560494,-0.00011662906,0.0,0.0,0.0,0.0,0.0,0.0,0.0,0.04215663,0.0,0.0,nan,0.0,0.0,0.0,0.0,-0.004839182,0.0009667007,-0.0015053451,-0.0018367767,-0.008062201,0.014771834,0.00046157837,0.0,0.0,0.0,0.0,0.0,0.0
4380000,4300000,0.00015692296,-0.0068546548,-0.02367925,3.145068e-05,0.00044560494,-0.00011662906,0.0,0.0,0.0,0.0,0.0,0.0,0.0,0.04215663,0.0,0.0,nan,0.0,0.0,0.0,0.0,-0.004839182,0.0009667007,-0.0015053451,-0.0018367767,-0.0050783064,0.015052021,0.00040102005,0.0,0.0,0.0,0.0,0.0,0.0
4388000,4308000,0.00015692296,-0.0068546548,-0.02367925,3.145068e-05,0.00044560494,-0.00011662906,0.0,0.0,0.0,0.0,0.0,0.0,0.0,0.04215663,0.0,0.0,nan,0.0,0.0,0.0,0.0,-0.004839182,0.0009667007,-0.0015053451,-0.0018367767,-0.004612671,-0.0005275756,9.1552734e-05,0.0,0.0,0.0,0.0,0.0,0.0
4396000,4316000,0.00015692296,-0.0068546548,-0.02367925,3.145068e-05,0.00044560494,-0.00011662906,0.0,0.0,0.0,0.0,0.0,0.0,0.0,0.04215663,0.0,0.0,nan,0.0,0.0,0.0,0.0,-0.004839182,0.0009667007,-0.0015053451,-0.0018367767,0.005452208,-0.013754278,-0.00040912628,0.0,0.0,0.0,0.0,0.0,0.0
4404000,4324000,0.00015692296,-0.0068546548,-0.02367925,3.145068e-05,0.00044560494,-0.00011662906,0.0,0.0,0.0,0.0,0.0,0.0,0.0,0.04215663,0.0,0.0,nan,0.0,0.0,0.0,0.0,0.008338451,-0.0017267745,-0.0043028146,0.00047776103,0.026646093,0.0130572915,-0.00038528442,0.0,0.0,0.0,0.0,0.0,0.0
4412000,4332000,0.00015692296,-0.0068546548,-0.02367925,3.145068e-05,0.00044560494,-0.00011662906,0.0,0.0,0.0,0.0,0.0,0.0,0.0,-0.008533014,0.0,0.0,nan,0.0,0.0,0.0,0.0,0.008338451,-0.0017267745,-0.0043028146,0.00047776103,0.012358602,0.008314282,-0.00012397766,0.0,0.0,0.0,0.0,0.0,0.0
4420000,4340000,0.00015692296,-0.0068546548,-0.02367925,3.145068e-05,0.00044560494,-0.00011662906,0.0,0.0,0.0,0.0,0.0,0.0,0.0,-0.008533014,0.0,0.0,nan,0.0,0.0,0.0,0.0,0.008338451,-0.0017267745,-0.0043028146,0.00047776103,-0.017333414,0.007330328,0.00051784515,0.0,0.0,0.0,0.0,0.0,0.0
4428000,4348000,0.00015692296,-0.0068546548,-0.02367925,3.145068e-05,0.00044560494,-0.00011662906,0.0,0.0,0.0,0.0,0.0,0.0,0.0,-0.008533014,0.0,0.0,nan,0.0,0.0,0.0,0.0,0.008338451,-0.0017267745,-0.0043028146,0.00047776103,-0.0022134334,0.018760145,0.00040531158,0.0,0.0,0.0,0.0,0.0,0.0
4436000,4356000,0.00015692296,-0.0068546548,-0.02367925,3.145068e-05,0.00044560494,-0.00011662906,0.0,0.0,0.0,0.0,0.0,0.0,0.0,-0.008533014,0.0,0.0,nan,0.0,0.0,0.0,0.0,0.008338451,-0.0017267745,-0.0043028146,0.00047776103,-0.002999965,0.013911769,0.00033330917,0.0,0.0,0.0,0.0,0.0,0.0
4444000,4364000,0.00015692296,-0.0068546548,-0.02367925,3.145068e-05,0.00044560494,-0.00011662906,0.0,0.0,0.0,0.0,0.0,0.0,0.0,-0.008533014,0.0,0.0,nan,0.0,0.0,0.0,0.0,0.008338451,-0.0017267745,-0.0043028146,0.00047776103,-0.012011049,0.0073202103,0.0004067421,0.0,0.0,0.0,0.0,0.0,0.0
4452000,4372000,0.00015692296,-0.0068546548,-0.02367925,3.145068e-05,0.00044560494,-0.00011662906,0.0,0.0,0.0,0.0,0.0,0.0,0.0,-0.008533014,0.0,0.0,nan,0.0,0.0,0.0,0.0,0.008338451,-0.0017267745,-0.0043028146,0.00047776103,-0.037103415,-0.0101992935,0.000562191,0.0,0.0,0.0,0.0,0.0,0.0
4460000,4380000,0.00015692296,-0.0068546548,-0.02367925,3.145068e-05,0.00044560494,-0.00011662906,0.0,0.0,0.0,0.0,0.0,0.0,0.0,-0.008533014,0.0,0.0,nan,0.0,0.0,0.0,0.0,0.008338451,-0.0017267745,-0.0043028146,0.00047776103,0.0009634532,0.021452233,0.0003809929,0.0,0.0,0.0,0.0,0.0,0.0
4468000,4388000,0.00015692296,-0.0068546548,-0.02367925,3.145068e-05,0.00044560494,-0.00011662906,0.0,0.0,0.0,0.0,0.0,0.0,0.0,-0.008533014,0.0,0.0,nan,0.0,0.0,0.0,0.0,0.008338451,-0.0017267745,-0.0043028146,0.00047776103,-0.015438188,0.006989792,0.00046253204,0.0,0.0,0.0,0.0,0.0,0.0
4476000,4396000,0.00015692296,-0.0068546548,-0.02367925,3.145068e-05,0.00044560494,-0.00011662906,0.0,0.0,0.0,0.0,0.0,0.0,0.0,-0.024576277,0.0,0.0,nan,0.0,0.0,0.0,0.0,-0.009135246,0.0018684329,-0.006375417,0.00087180734,-0.0479073,-0.011031657,0.0007100105,0.0,0.0,0.0,0.0,0.0,0.0
4484000,4404000,0.00015692296,-0.0068546548,-0.02367925,3.145068e-05,0.00044560494,-0.00011662906,0.0,0.0,0.0,0.0,0.0,0.0,0.0,-0.024576277,0.0,0.0,nan,0.0,0.0,0.0,0.0,-0.009135246,0.0018684329,-0.006375417,0.00087180734,-0.0061590355,0.017949402,0.0004749298,0.0,0.0,0.0,0.0,0.0,0.0
4492000,4412000,0.00015692296,-0.0068546548,-0.02367925,3.145068e-05,0.00044560494,-0.00011662906,0.0,0.0,0.0,0.0,0.0,0.0,0.0,-0.024576277,0.0,0.0,nan,0.0,0.0,0.0,0.0,-0.009135246,0.0018684329,-0.006375417,0.00087180734,-0.010156715,-0.0026262105,0.00016403198,0.0,0.0,0.0,0.0,0.0,0.0
4500000,4420000,0.00015692296,-0.0068546548,-0.02367925,3.145068e-05,0.00044560494,-0.00011662906,0.0,0.0,0.0,0.0,0.0,0.0,0.0,-0.024576277,0.0,0.0,nan,0.0,0.0,0.0,0.0,-0.009135246,0.0018684329,-0.006375417,0.00087180734,0.0024158917,0.0028253347,1.9073486e-06,0.0,0.0,0.0,0.0,0.0,0.0
4508000,4428000,0.00015692296,-0.0068546548,-0.02367925,3.145068e-05,0.00044560494,-0.00011662906,0.0,0.0,0.0,0.0,0.0,0.0,0.0,-0.024576277,0.0,0.0,nan,0.0,0.0,0.0,0.0,-0.009135246,0.0018684329,-0.006375417,0.00087180734,0.0032595918,0.020041957,0.0003066063,0.0,0.0,0.0,0.0,0.0,0.0
4516000,4436000,0.00015692296,-0.0068546548,-0.02367925,3.145068e-05,0.00044560494,-0.00011662906,0.0,0.0,0.0,0.0,0.0,0.0,0.0,-0.024576277,0.0,0.0,nan,0.0,0.0,0.0,0.0,-0.009135246,0.0018684329,-0.006375417,0.00087180734,-0.01302669,0.010902032,0.0004878044,0.0,0.0,0.0,0.0,0.0,0.0
4524000,4444000,0.00015692296,-0.0068546548,-0.02367925,3.145068e-05,0.00044560494,-0.00011662906,0.0,0.0,0.0,0.0,0.0,0.0,0.0,-0.024576277,0.0,0.0,nan,0.0,0.0,0.0,0.0,-0.009135246,0.0018684329,-0.006375417,0.00087180734,-0.005361004,0.025142252,0.00058221817,0.0,0.0,0.0,0.0,0.0,0.0
4532000,4452000,0.00015692296,-0.0068546548,-0.02367925,3.145068e-05,0.00044560494,-0.00011662906,0.0,0.0,0.0,0.0,0.0,0.0,0.0,-0.043207053,0.0,0.0,nan,0.0,0.0,0.0,0.0,-0.009135246,0.0018684329,-0.006375417,0.00087180734,-0.009499148,0.012629509,0.0004453659,0.0,0.0,0.0,0.0,0.0,0.0
4540000,4460000,0.00015692296,-0.0068546548,-0.02367925,3.145068e-05,0.00044560494,-0.00011662906,0.0,0.0,0.0,0.0,0.0,0.0,0.0,-0.043207053,0.0,0.0,nan,0.0,0.0,0.0,0.0,-0.009135246,0.0018684329,-0.006375417,0.00087180734,0.0061791744,-0.013060674,-0.00040721893,0.0,0.0,0.0,0.0,0.0,0.0
4548000,4468000,0.00015692296,-0.0068546548,-0.02367925,3.145068e-05,0.00044560494,-0.00011662906,0.0,0.0,0.0,0.0,0.0,0.0,0.0,-0.043207053,0.0,0.0,nan,0.0,0.0,0.0,0.0,0.0064587593,-0.0012969049,-0.001963675,0.002710104,0.0142293535,0.010013491,-0.00012779236,0.0,0.0,0.0,0.0,0.0,0.0
4556000,4476000,0.00015692296,-0.0068546548,-0.02367925,3.145068e-05,0.00044560494,-0.00011662906,0.0,0.0,0.0,0.0,0.0,0.0,0.0,-0.043207053,0.0,0.0,nan,0.0,0.0,0.0,0.0,0.0064587593,-0.0012969049,-0.001963675,0.002710104,0.016804874,0.015306443,-9.012222e-05,0.0,0.0,0.0,0.0,0.0,0.0
4564000,4484000,0.00015692296,-0.0068546548,-0.02367925,3.145068e-05,0.00044560494,-0.00011662906,0.0,0.0,0.0,0.0,0.0,0.0,0.0,-0.043207053,0.0,0.0,nan,0.0,0.0,0.0,0.0,0.0064587593,-0.0012969049,-0.001963675,0.002710104,0.021154145,-0.0026679933,-0.00053977966,0.0,0.0,0.0,0.0,0.0,0.0
4572000,4492000,0.00015692296,-0.0068546548,-0.02367925,3.145068e-05,0.00044560494,-0.00011662906,0.0,0.0,0.0,0.0,0.0,0.0,0.0,-0.043207053,0.0,0.0,nan,0.0,0.0,0.0,0.0,0.0064587593,-0.0012969049,-0.001963675,0.002710104,0.0058827866,-0.0023150742,-0.00017786026,0.0,0.0,0.0,0.0,0.0,0.0
4580000,4500000,0.00015692296,-0.0068546548,-0.02367925,3.145068e-05,0.00044560494,-0.00011662906,0.0,0.0,0.0,0.0,0.0,0.0,0.0,-0.043207053,0.0,0.0,nan,0.0,0.0,0.0,0.0,0.0064587593,-0.0012969049,-0.001963675,0.002710104,0.011018224,-0.009776443,-0.00044822693,0.0,0.0,0.0,0.0,0.0,0.0
4588000,4508000,0.00015692296,-0.0068546548,-0.02367925,3.145068e-05,0.00044560494,-0.00011662906,0.0,0.0,0.0,0.0,0.0,0.0,0.0,-0.043207053,0.0,0.0,nan,0.0,0.0,0.0,0.0,0.0064587593,-0.0012969049,-0.001963675,0.002710104,-0.0031204615,0.021847472,0.00047779083,0.0,0.0,0.0,0.0,0.0,0.0
4596000,4516000,0.00015692296,-0.0068546548,-0.02367925,3.145068e-05,0.00044560494,-0.00011662906,0.0,0.0,0.0,0.0,0.0,0.0,0.0,-0.07268592,0.0,0.0,nan,0.0,0.0,0.0,0.0,0.0064587593,-0.0012969049,-0.001963675,0.002710104,-0.005292043,0.03654033,0.0007739067,0.0,0.0,0.0,0.0,0.0,0.0
4604000,4524000,-0.018168094,-0.009033622,0.025336668,0.00012806935,-0.0073213726,-0.0016968446,0.0,0.0,0.0,0.0,0.0,0.0,0.0,-0.07268592,0.0,0.0,nan,0.0,0.0,0.0,0.0,0.0064587593,-0.0012969049,-0.001963675,0.002710104,0.0031585656,0.035949677,0.000579834,0.0,0.0,0.0,0.0,0.0,0.0
4612000,4532000,-0.018168094,-0.009033622,0.025336668,0.00012806935,-0.0073213726,-0.0016968446,0.0,0.0,0.0,0.0,0.0,0.0,0.0,-0.07268592,0.0,0.0,nan,0.0,0.0,0.0,0.0,0.0064587593,-0.0012969049,-0.001963675,0.002710104,0.002956843,0.0037802905,9.536743e-06,0.0,0.0,0.0,0.0,0.0,0.0
4620000,4540000,-0.018168094,-0.009033622,0.025336668,0.00012806935,-0.0073213726,-0.0016968446,0.0,0.0,0.0,0.0,0.0,0.0,0.0,-0.07268592,0.0,0.0,nan,0.0,0.0,0.0,0.0,0.011603951,-0.0025176378,0.001724869,-0.002594769,0.004790118,-0.0111911595,-0.0003376007,0.0,0.0,0.0,0.0,0.0,0.0
4628000,4548000,-0.018168094,-0.009033622,0.025336668,0.00012806935,-0.0073213726,-0.0016968446,0.0,0.0,0.0,0.0,0.0,0.0,0.0,-0.07268592,0.0,0.0,nan,0.0,0.0,0.0,0.0,0.011603951,-0.0025176378,0.001724869,-0.002594769,-0.000624422,0.030596614,0.00057554245,0.0,0.0,0.0,0.0,0.0,0.0
4636000,4556000,-0.018168094,-0.009033622,0.025336668,0.00012806935,-0.0073213726,-0.0016968446,0.0,0.0,0.0,0.0,0.0,0.0,0.0,-0.07268592,0.0,0.0,nan,0.0,0.0,0.0,0.0,0.011603951,-0.0025176378,0.001724869,-0.002594769,0.001374105,0.04003243,0.000685215,0.0,0.0,0.0,0.0,0.0,0.0
4644000,4564000,-0.018168094,-0.009033622,0.025336668,0.00012806935,-0.0073213726,-0.0016968446,0.0,0.0,0.0,0.0,0.0,0.0,0.0,-0.07268592,0.0,0.0,nan,0.0,0.0,0.0,0.0,0.011603951,-0.0025176378,0.001724869,-0.002594769,-0.012845134,0.019623354,0.000644207,0.0,0.0,0.0,0.0,0.0,0.0
4652000,4572000,-0.018168094,-0.009033622,0.025336668,0.00012806935,-0.0073213726,-0.0016968446,0.0,0.0,0.0,0.0,0.0,0.0,0.0,0.04022036,0.0,0.0,nan,0.0,0.0,0.0,0.0,0.011603951,-0.0025176378,0.001724869,-0.002594769,0.00036671385,0.020152897,0.00037288666,0.0,0.0,0.0,0.0,0.0,0.0
4660000,4580000,-0.018168094,-0.009033622,0.025336668,0.00012806935,-0.0073213726,-0.0016968446,0.0,0.0,0.0,0.0,0.0,0.0,0.0,0.04022036,0.0,0.0,nan,0.0,0.0,0.0,0.0,0.011603951,-0.0025176378,0.001724869,-0.002594769,-0.03130414,-0.018925503,0.00023937225,0.0,0.0,0.0,0.0,0.0,0.0
4668000,4588000,-0.018168094,-0.009033622,0.025336668,0.00012806935,-0.0073213726,-0.0016968446,0.0,0.0,0.0,0.0,0.0,0.0,0.0,0.04022036,0.0,0.0,nan,0.0,0.0,0.0,0.0,0.011603951,-0.0025176378,0.001724869,-0.002594769,-0.0284464,-0.020569026,0.00014638901,0.0,0.0,0.0,0.0,0.0,0.0
4676000,4596000,-0.018168094,-0.009033622,0.025336668,0.00012806935,-0.0073213726,-0.0016968446,0.0,0.0,0.0,0.0,0.0,0.0,0.0,0.04022036,0.0,0.0,nan,0.0,0.0,0.0,0.0,0.011603951,-0.0025176378,0.001724869,-0.002594769,0.0127213895,0.02598548,0.00019168854,0.0,0.0,0.0,0.0,0.0,0.0
4684000,4604000,-0.018168094,-0.009033622,0.025336668,0.00012806935,-0.0073213726,-0.0016968446,0.0,0.0,0.0,0.0,0.0,0.0,0.0,0.04022036,0.0,0.0,nan,0.0,0.0,0.0,0.0,0.011603951,-0.0025176378,0.001724869,-0.002594769,-0.011500634,0.01843281,0.00058555603,0.0,0.0,0.0,0.0,0.0,0.0
4692000,4612000,-0.018168094,-0.009033622,0.025336668,0.00012806935,-0.0073213726,-0.0016968446,0.0,0.0,0.0,0.0,0.0,0.0,0.0,0.04022036,0.0,0.0,nan,0.0,0.0,0.0,0.0,0.014047742,-0.0029537855,-0.0035295784,-0.001507163,0.0070495363,0.022839636,0.00026750565,0.0,0.0,0.0,0.0,0.0,0.0
4700000,4620000,-0.018168094,-0.009033622,0.025336668,0.00012806935,-0.0073213726,-0.0016968446,0.0,0.0,0.0,0.0,0.0,0.0,0.0,0.04022036,0.0,0.0,nan,0.0,0.0,0.0,0.0,0.014047742,-0.0029537855,-0.0035295784,-0.001507163,-0.005193902,0.04552418,0.00089740753,0.0,0.0,0.0,0.0,0.0,0.0
4708000,4628000,-0.018168094,-0.009033622,0.025336668,0.00012806935,-0.0073213726,-0.0016968446,0.0,0.0,0.0,0.0,0.0,0.0,0.0,0.04022036,0.0,0.0,nan,0.0,0.0,0.0,0.0,0.014047742,-0.0029537855,-0.0035295784,-0.001507163,0.012742827,0.013135254,-3.71933e-05,0.0,0.0,0.0,0.0,0.0,0.0
4716000,4636000,-0.018168094,-0.009033622,0.025336668,0.00012806935,-0.0073213726,-0.0016968446,0.0,0.0,0.0,0.0,0.0,0.0,0.0,-0.018707927,0.0,0.0,nan,0.0,0.0,0.0,0.0,0.014047742,-0.0029537855,-0.0035295784,-0.001507163,0.03050893,0.0031454116,-0.0006465912,0.0,0.0,0.0,0.0,0.0,0.0
4724000,4644000,-0.018168094,-0.009033622,0.025336668,0.00012806935,-0.0073213726,-0.0016968446,0.0,0.0,0.0,0.0,0.0,0.0,0.0,-0.018707927,0.0,0.0,nan,0.0,0.0,0.0,0.0,0.014047742,-0.0029537855,-0.0035295784,-0.001507163,0.027093925,0.01758124,-0.0002975464,0.0,0.0,0.0,0.0,0.0,0.0
4732000,4652000,-0.018168094,-0.009033622,0.025336668,0.00012806935,-0.0073213726,-0.0016968446,0.0,0.0,0.0,0.0,0.0,0.0,0.0,-0.018707927,0.0,0.0,nan,0.0,0.0,0.0,0.0,0.014047742,-0.0029537855,-0.0035295784,-0.001507163,-0.0035395622,0.0044217855,0.00016212463,0.0,0.0,0.0,0.0,0.0,0.0
4740000,4660000,-0.018168094,-0.009033622,0.025336668,0.00012806935,-0.0073213726,-0.0016968446,0.0,0.0,0.0,0.0,0.0,0.0,0.0,-0.018707927,0.0,0.0,nan,0.0,0.0,0.0,0.0,0.014047742,-0.0029537855,-0.0035295784,-0.001507163,0.01372399,0.013462335,-5.340576e-05,0.0,0.0,0.0,0.0,0.0,0.0
4748000,4668000,-0.018168094,-0.009033622,0.025336668,0.00012806935,-0.0073213726,-0.0016968446,0.0,0.0,0.0,0.0,0.0,0.0,0.0,-0.018707927,0.0,0.0,nan,0.0,0.0,0.0,0.0,0.014047742,-0.0029537855,-0.0035295784,-0.001507163,0.007095212,-0.0014228374,-0.00018548965,0.0,0.0,0.0,0.0,0.0,0.0
4756000,4676000,-0.018168094,-0.009033622,0.025336668,0.00012806935,-0.0073213726,-0.0016968446,0.0,0.0,0.0,0.0,0.0,0.0,0.0,-0.018707927,0.0,0.0,nan,0.0,0.0,0.0,0.0,0.014047742,-0.0029537855,-0.0035295784,-0.001507163,0.014802901,-0.001252383,-0.00036001205,0.0,0.0,0.0,0.0,0.0,0.0
4764000,4684000,-0.018168094,-0.009033622,0.025336668,0.00012806935,-0.0073213726,-0.0016968446,0.0,0.0,0.0,0.0,0.0,0.0,0.0,-0.018707927,0.0,0.0,nan,0.0,0.0,0.0,0.0,0.0008535385,-0.0001559062,-0.011643261,0.0015540123,-0.0041005407,0.02970618,0.0006260872,0.0,0.0,0.0,0.0,0.0,0.0
4772000,4692000,-0.018168094,-0.009033622,0.025336668,0.00012806935,-0.0073213726,-0.0016968446,0.0,0.0,0.0,0.0,0.0,0.0,0.0,0.021213597,0.0,0.0,nan,0.0,0.0,0.0,0.0,0.0008535385,-0.0001559062,-0.011643261,0.0015540123,-0.014567198,0.020634338,0.00068855286,0.0,0.0,0.0,0.0,0.0,0.0
4780000,4700000,-0.018168094,-0.009033622,0.025336668,0.00012806935,-0.0073213726,-0.0016968446,0.0,0.0,0.0,0.0,0.0,0.0,0.0,0.021213597,0.0,0.0,nan,0.0,0.0,0.0,0.0,0.0008535385,-0.0001559062,-0.011643261,0.0015540123,-0.018509861,0.004273325,0.00046634674,0.0,0.0,0.0,0.0,0.0,0.0
4788000,4708000,-0.018168094,-0.009033622,0.025336668,0.00012806935,-0.0073213726,-0.0016968446,0.0,0.0,0.0,0.0,0.0,0.0,0.0,0.021213597,0.0,0.0,nan,0.0,0.0,0.0,0.0,0.0008535385,-0.0001559062,-0.011643261,0.0015540123,-0.010749264,0.015071705,0.0005097389,0.0,0.0,0.0,0.0,0.0,0.0
4796000,4716000,-0.018168094,-0.009033622,0.025336668,0.00012806935,-0.0073213726,-0.0016968446,0.0,0.0,0.0,0.0,0.0,0.0,0.0,0.021213597,0.0,0.0,nan,0.0,0.0,0.0,0.0,0.0008535385,-0.0001559062,-0.011643261,0.0015540123,0.019407604,0.043319166,0.00031614304,0.0,0.0,0.0,0.0,0.0,0.0
4804000,4724000,-0.018168094,-0.009033622,0.025336668,0.00012806935,-0.0073213726,-0.0016968446,0.0,0.0,0.0,0.0,0.0,0.0,0.0,0.021213597,0.0,0.0,nan,0.0,0.0,0.0,0.0,0.0008535385,-0.0001559062,-0.011643261,0.0015540123,0.025309691,0.01899983,-0.00022649765,0.0,0.0,0.0,0.0,0.0,0.0
4812000,4732000,-0.018168094,-0.009033622,0.025336668,0.00012806935,-0.0073213726,-0.0016968446,0.0,0.0,0.0,0.0,0.0,0.0,0.0,0.021213597,0.0,0.0,nan,0.0,0.0,0.0,0.0,0.0008535385,-0.0001559062,-0.011643261,0.0015540123,-0.014866244,0.010676086,0.0005130768,0.0,0.0,0.0,0.0,0.0,0.0
4820000,4740000,-0.018168094,-0.009033622,0.025336668,0.00012806935,-0.0073213726,-0.0016968446,0.0,0.0,0.0,0.0,0.0,0.0,0.0,0.021213597,0.0,0.0,nan,0.0,0.0,0.0,0.0,0.0008535385,-0.0001559062,-0.011643261,0.0015540123,0.013898337,0.032264173,0.00026988983,0.0,0.0,0.0,0.0,0.0,0.0
4828000,4748000,-0.018168094,-0.009033622,0.025336668,0.00012806935,-0.0073213726,-0.0016968446,0.0,0.0,0.0,0.0,0.0,0.0,0.0,0.021213597,0.0,0.0,nan,0.0,0.0,0.0,0.0,0.0008535385,-0.0001559062,-0.011643261,0.0015540123,0.011366161,0.0127519965,-1.04904175e-05,0.0,0.0,0.0,0.0,0.0,0.0
4836000,4756000,-0.018168094,-0.009033622,0.025336668,0.00012806935,-0.0073213726,-0.0016968446,0.0,0.0,0.0,0.0,0.0,0.0,0.0,-0.059500013,0.0,0.0,nan,0.0,0.0,0.0,0.0,0.002494812,-0.00052466244,-0.0032933056,-7.0273876e-05,0.012322452,-0.0072033107,-0.00041675568,0.0,0.0,0.0,0.0,0.0,0.0
4844000,4764000,-0.018168094,-0.009033622,0.025336668,0.00012806935,-0.0073213726,-0.0016968446,0.0,0.0,0.0,0.0,0.0,0.0,0.0,-0.059500013,0.0,0.0,nan,0.0,0.0,0.0,0.0,0.002494812,-0.00052466244,-0.0032933056,-7.0273876e-05,0.028383786,-0.023535222,-0.0011453629,0.0,0.0,0.0,0.0,0.0,0.0
4852000,4772000,-0.018168094,-0.009033622,0.025336668,0.00012806935,-0.0073213726,-0.0016968446,0.0,0.0,0.0,0.0,0.0,0.0,0.0,-0.059500013,0.0,0.0,nan,0.0,0.0,0.0,0.0,0.002494812,-0.00052466244,-0.0032933056,-7.0273876e-05,-0.0011133561,-0.0046809614,-7.009506e-05,0.0,0.0,0.0,0.0,0.0,0.0
4860000,4780000,-0.018168094,-0.009033622,0.025336668,0.00012806935,-0.0073213726,-0.0016968446,0.0,0.0,0.0,0.0,0.0,0.0,0.0,-0.059500013,0.0,0.0,nan,0.0,0.0,0.0,0.0,0.002494812,-0.00052466244,-0.0032933056,-7.0273876e-05,0.023419848,-0.006003484,-0.0006546974,0.0,0.0,0.0,0.0,0.0,0.0
4868000,4788000,-0.018168094,-0.009033622,0.025336668,0.00012806935,-0.0073213726,-0.0016968446,0.0,0.0,0.0,0.0,0.0,0.0,0.0,-0.059500013,0.0,0.0,nan,0.0,0.0,0.0,0.0,0.002494812,-0.00052466244,-0.0032933056,-7.0273876e-05,-0.021953236,-0.009857878,0.00025129318,0.0,0.0,0.0,0.0,0.0,0.0
4876000,4796000,-0.018168094,-0.009033622,0.025336668,0.00012806935,-0.0073213726,-0.0016968446,0.0,0.0,0.0,0.0,0.0,0.0,0.0,-0.059500013,0.0,0.0,nan,0.0,0.0,0.0,0.0,0.002494812,-0.00052466244,-0.0032933056,-7.0273876e-05,-0.027094584,0.010824427,0.0007472038,0.0,0.0,0.0,0.0,0.0,0.0
4884000,4804000,-0.018168094,-0.009033622,0.025336668,0.00012806935,-0.0073213726,-0.0016968446,0.0,0.0,0.0,0.0,0.0,0.0,0.0,-0.059500013,0.0,0.0,nan,0.0,0.0,0.0,0.0,0.002494812,-0.00052466244,-0.0032933056,-7.0273876e-05,0.0027189404,0.013116553,0.00018262863,0.0,0.0,0.0,0.0,0.0,0.0
4892000,4812000,-0.018168094,-0.009033622,0.025336668,0.00012806935,-0.0073213726,-0.0016968446,0.0,0.0,0.0,0.0,0.0,0.0,0.0,0.03099892,0.0,0.0,nan,0.0,0.0,0.0,0.0,0.002494812,-0.00052466244,-0.0032933056,-7.0273876e-05,0.050229773,0.004715994,-0.001124382,0.0,0.0,0.0,0.0,0.0,0.0
4900000,4820000,-0.018168094,-0.009033622,0.025336668,0.00012806935,-0.0073213726,-0.0016968446,0.0,0.0,0.0,0.0,0.0,0.0,0.0,0.03099892,0.0,0.0,nan,0.0,0.0,0.0,0.0,0.002494812,-0.00052466244,-0.0032933056,-7.0273876e-05,0.04076951,-0.010237843,-0.0011668205,0.0,0.0,0.0,0.0,0.0,0.0
4908000,4828000,-0.018168094,-0.009033622,0.025336668,0.00012806935,-0.0073213726,-0.0016968446,0.0,0.0,0.0,0.0,0.0,0.0,0.0,0.03099892,0.0,0.0,nan,0.0,0.0,0.0,0.0,-0.013193846,0.0028324923,-0.00053063035,0.0026505888,0.00908415,-0.030212134,-0.0008225441,0.0,0.0,0.0,0.0,0.0,0.0
4916000,4836000,-0.018168094,-0.009033622,0.025336668,0.00012806935,-0.0073213726,-0.0016968446,0.0,0.0,0.0,0.0,0.0,0.0,0.0,0.03099892,0.0,0.0,nan,0.0,0.0,0.0,0.0,-0.013193846,0.0028324923,-0.00053063035,0.0026505888,0.0068221893,0.012601316,8.058548e-05,0.0,0.0,0.0,0.0,0.0,0.0
4924000,4844000,-0.018168094,-0.009033622,0.025336668,0.00012806935,-0.0073213726,-0.0016968446,0.0,0.0,0.0,0.0,0.0,0.0,0.0,0.03099892,0.0,0.0,nan,0.0,0.0,0.0,0.0,-0.013193846,0.0028324923,-0.00053063035,0.0026505888,-0.019527145,-0.00088347495,0.0003838539,0.0,0.0,0.0,0.0,0.0,0.0
4932000,4852000,-0.018168094,-0.009033622,0.025336668,0.00012806935,-0.0073213726,-0.0016968446,0.0,0.0,0.0,0.0,0.0,0.0,0.0,0.03099892,0.0,0.0,nan,0.0,0.0,0.0,0.0,-0.013193846,0.0028324923,-0.00053063035,0.0026505888,-0.010473341,-0.015971422,-9.6321106e-05,0.0,0.0,0.0,0.0,0.0,0.0
4940000,4860000,-0.018168094,-0.009033622,0.025336668,0.00012806935,-0.0073213726,-0.0016968446,0.0,0.0,0.0,0.0,0.0,0.0,0.0,0.03099892,0.0,0.0,nan,0.0,0.0,0.0,0.0,-0.013193846,0.0028324923,-0.00053063035,0.0026505888,-0.009108918,0.004720494,0.00027942657,0.0,0.0,0.0,0.0,0.0,0.0
4948000,4868000,-0.018168094,-0.009033622,0.025336668,0.00012806935,-0.0073213726,-0.0016968446,0.0,0.0,0.0,0.0,0.0,0.0,0.0,0.03099892,0.0,0.0,nan,0.0,0.0,0.0,0.0,-0.013193846,0.0028324923,-0.00053063035,0.0026505888,-0.0005361624,0.007351294,0.00014686584,0.0,0.0,0.0,0.0,0.0,0.0
4956000,4876000,-0.018168094,-0.009033622,0.025336668,0.00012806935,-0.0073213726,-0.0016968446,0.0,0.0,0.0,0.0,0.0,0.0,0.0,-0.017500907,0.0,0.0,nan,0.0,0.0,0.0,0.0,-0.013193846,0.0028324923,-0.00053063035,0.0026505888,0.0077733975,0.027444735,0.00030946732,0.0,0.0,0.0,0.0,0.0,0.0
4964000,4884000,-0.018168094,-0.009033622,0.025336668,0.00012806935,-0.0073213726,-0.0016968446,0.0,0.0,0.0,0.0,0.0,0.0,0.0,-0.017500907,0.0,0.0,nan,0.0,0.0,0.0,0.0,-0.013193846,0.0028324923,-0.00053063035,0.0026505888,0.0042815004,0.011202365,0.00011014938,0.0,0.0,0.0,0.0,0.0,0.0
4972000,4892000,-0.018168094,-0.009033622,0.025336668,0.00012806935,-0.0073213726,-0.0016968446,0.0,0.0,0.0,0.0,0.0,0.0,0.0,-0.017500907,0.0,0.0,nan,0.0,0.0,0.0,0.0,-0.013193846,0.0028324923,-0.00053063035,0.0026505888,-0.009446325,0.0038896352,0.000269413,0.0,0.0,0.0,0.0,0.0,0.0
4980000,4900000,-0.018168094,-0.009033622,0.025336668,0.00012806935,-0.0073213726,-0.0016968446,0.0,0.0,0.0,0.0,0.0,0.0,0.0,-0.017500907,0.0,0.0,nan,0.0,0.0,0.0,0.0,-0.0019137859,0.00045023765,-0.0021538585,0.0025633574,0.021636238,-0.0127675235,-0.00073862076,0.0,0.0,0.0,0.0,0.0,0.0
4988000,4908000,-0.018168094,-0.009033622,0.025336668,0.00012806935,-0.0073213726,-0.0016968446,0.0,0.0,0.0,0.0,0.0,0.0,0.0,-0.017500907,0.0,0.0,nan,0.0,0.0,0.0,0.0,-0.0019137859,0.00045023765,-0.0021538585,0.0025633574,-0.0010876209,0.005204439,0.00011968613,0.0,0.0,0.0,0.0,0.0,0.0
4996000,4916000,-0.018168094,-0.009033622,0.025336668,0.00012806935,-0.0073213726,-0.0016968446,0.0,0.0,0.0,0.0,0.0,0.0,0.0,-0.017500907,0.0,0.0,nan,0.0,0.0,0.0,0.0,-0.0019137859,0.00045023765,-0.0021538585,0.0025633574,-0.009129781,-0.00055882335,0.00018167496,0.0,0.0,0.0,0.0,0.0,0.0
5004000,4924000,-0.018168094,-0.009033622,0.025336668,0.00012806935,-0.0073213726,-0.0016968446,0.0,0.0,0.0,0.0,0.0,0.0,0.0,-0.017500907,0.0,0.0,nan,0.0,0.0,0.0,0.0,-0.0019137859,0.00045023765,-0.0021538585,0.0025633574,-0.03056619,-0.011640295,0.00038576126,0.0,0.0,0.0,0.0,0.0,0.0
