timestamp,timestamp_sample,lat,lon,alt,alt_ellipsoid,delta_alt,eph,epv,terrain_alt,lat_lon_reset_counter,alt_reset_counter,terrain_alt_valid,dead_reckoning
3228000,0,47.3977508,8.5456074,488.104,0.0,0.0,0.0,0.0,0.0,0,0,0,0
3232000,0,47.3977508,8.5456074,488.104,0.0,0.0,0.0,0.0,0.0,0,0,0,0
3328000,0,47.3977508,8.5456074,488.104,0.0,0.0,0.0,0.0,0.0,0,0,0,0
3428000,0,47.3977508,8.5456074,488.104,0.0,0.0,0.0,0.0,0.0,0,0,0,0
3528000,0,47.3977508,8.5456074,488.104,0.0,0.0,0.0,0.0,0.0,0,0,0,0
3628000,0,47.3977508,8.5456074,488.104,0.0,0.0,0.0,0.0,0.0,0,0,0,0
3728000,0,47.3977508,8.5456074,488.104,0.0,0.0,0.0,0.0,0.0,0,0,0,0
3828000,0,47.3977508,8.5456074,488.104,0.0,0.0,0.0,0.0,0.0,0,0,0,0
3928000,0,47.3977508,8.5456074,488.104,0.0,0.0,0.0,0.0,0.0,0,0,0,0
4028000,0,47.3977508,8.5456074,488.104,0.0,0.0,0.0,0.0,0.0,0,0,0,0
4128000,0,47.3977508,8.5456074,488.104,0.0,0.0,0.0,0.0,0.0,0,0,0,0
4228000,0,47.3977508,8.5456074,488.104,0.0,0.0,0.0,0.0,0.0,0,0,0,0
4328000,0,47.3977508,8.5456074,488.104,0.0,0.0,0.0,0.0,0.0,0,0,0,0
4428000,0,47.3977508,8.5456074,488.104,0.0,0.0,0.0,0.0,0.0,0,0,0,0
4528000,0,47.3977508,8.5456074,488.104,0.0,0.0,0.0,0.0,0.0,0,0,0,0
4628000,0,47.3977508,8.5456074,488.104,0.0,0.0,0.0,0.0,0.0,0,0,0,0
4728000,0,47.3977508,8.5456074,488.104,0.0,0.0,0.0,0.0,0.0,0,0,0,0
4828000,0,47.3977508,8.5456074,488.104,0.0,0.0,0.0,0.0,0.0,0,0,0,0
4928000,0,47.3977508,8.5456074,488.104,0.0,0.0,0.0,0.0,0.0,0,0,0,0
5028000,0,47.3977508,8.5456074,488.104,0.0,0.0,0.0,0.0,0.0,0,0,0,0
5128000,0,47.3977508,8.5456074,488.104,0.0,0.0,0.0,0.0,0.0,0,0,0,0
5228000,0,47.3977508,8.5456074,488.104,0.0,0.0,0.0,0.0,0.0,0,0,0,0
5328000,0,47.3977508,8.5456074,488.104,0.0,0.0,0.0,0.0,0.0,0,0,0,0
5428000,0,47.3977508,8.5456074,488.104,0.0,0.0,0.0,0.0,0.0,0,0,0,0
5528000,0,47.3977508,8.5456074,488.104,0.0,0.0,0.0,0.0,0.0,0,0,0,0
5628000,0,47.3977508,8.5456074,488.104,0.0,0.0,0.0,0.0,0.0,0,0,0,0
5728000,0,47.3977508,8.5456074,488.104,0.0,0.0,0.0,0.0,0.0,0,0,0,0
5828000,0,47.3977508,8.5456074,488.104,0.0,0.0,0.0,0.0,0.0,0,0,0,0
5928000,0,47.3977508,8.5456074,488.104,0.0,0.0,0.0,0.0,0.0,0,0,0,0
6028000,0,47.3977508,8.5456074,488.104,0.0,0.0,0.0,0.0,0.0,0,0,0,0
6128000,0,47.3977508,8.5456074,488.104,0.0,0.0,0.0,0.0,0.0,0,0,0,0
6228000,0,47.3977508,8.5456074,488.104,0.0,0.0,0.0,0.0,0.0,0,0,0,0
6328000,0,47.3977508,8.5456074,488.104,0.0,0.0,0.0,0.0,0.0,0,0,0,0
6428000,0,47.3977508,8.5456074,488.104,0.0,0.0,0.0,0.0,0.0,0,0,0,0
6528000,0,47.3977508,8.5456074,488.104,0.0,0.0,0.0,0.0,0.0,0,0,0,0
6628000,0,47.3977508,8.5456074,488.104,0.0,0.0,0.0,0.0,0.0,0,0,0,0
6728000,0,47.3977508,8.5456074,488.104,0.0,0.0,0.0,0.0,0.0,0,0,0,0
6828000,0,47.3977508,8.5456074,488.104,0.0,0.0,0.0,0.0,0.0,0,0,0,0
6928000,0,47.3977508,8.5456074,488.104,0.0,0.0,0.0,0.0,0.0,0,0,0,0
7028000,0,47.3977508,8.5456074,488.104,0.0,0.0,0.0,0.0,0.0,0,0,0,0
7128000,0,47.3977508,8.5456074,488.104,0.0,0.0,0.0,0.0,0.0,0,0,0,0
7228000,0,47.3977508,8.5456074,488.104,0.0,0.0,0.0,0.0,0.0,0,0,0,0
7328000,0,47.3977508,8.5456074,488.104,0.0,0.0,0.0,0.0,0.0,0,0,0,0
7428000,0,47.3977508,8.5456074,488.104,0.0,0.0,0.0,0.0,0.0,0,0,0,0
7528000,0,47.3977508,8.5456074,488.104,0.0,0.0,0.0,0.0,0.0,0,0,0,0
7628000,0,47.3977508,8.5456074,488.104,0.0,0.0,0.0,0.0,0.0,0,0,0,0
7728000,0,47.3977508,8.5456074,488.104,0.0,0.0,0.0,0.0,0.0,0,0,0,0
7828000,0,47.3977508,8.5456074,488.104,0.0,0.0,0.0,0.0,0.0,0,0,0,0
7928000,0,47.3977508,8.5456074,488.104,0.0,0.0,0.0,0.0,0.0,0,0,0,0
8028000,0,47.3977508,8.5456074,488.104,0.0,0.0,0.0,0.0,0.0,0,0,0,0
8128000,0,47.3977508,8.5456074,488.104,0.0,0.0,0.0,0.0,0.0,0,0,0,0
8228000,0,47.3977508,8.5456074,488.104,0.0,0.0,0.0,0.0,0.0,0,0,0,0
8328000,0,47.3977508,8.5456074,488.104,0.0,0.0,0.0,0.0,0.0,0,0,0,0
8428000,0,47.3977508,8.5456074,488.104,0.0,0.0,0.0,0.0,0.0,0,0,0,0
8528000,0,47.3977508,8.5456074,488.104,0.0,0.0,0.0,0.0,0.0,0,0,0,0
8628000,0,47.3977508,8.5456074,488.104,0.0,0.0,0.0,0.0,0.0,0,0,0,0
8728000,0,47.3977508,8.5456074,488.104,0.0,0.0,0.0,0.0,0.0,0,0,0,0
8828000,0,47.3977508,8.5456074,488.104,0.0,0.0,0.0,0.0,0.0,0,0,0,0
8928000,0,47.3977508,8.5456074,488.104,0.0,0.0,0.0,0.0,0.0,0,0,0,0
9028000,0,47.3977508,8.5456074,488.104,0.0,0.0,0.0,0.0,0.0,0,0,0,0
9128000,0,47.3977508,8.5456074,488.104,0.0,0.0,0.0,0.0,0.0,0,0,0,0
9228000,0,47.3977508,8.5456074,488.104,0.0,0.0,0.0,0.0,0.0,0,0,0,0
9328000,0,47.3977508,8.5456074,488.104,0.0,0.0,0.0,0.0,0.0,0,0,0,0
9428000,0,47.3977508,8.5456074,488.104,0.0,0.0,0.0,0.0,0.0,0,0,0,0
9528000,0,47.3977508,8.5456074,488.104,0.0,0.0,0.0,0.0,0.0,0,0,0,0
9628000,0,47.3977508,8.5456074,488.104,0.0,0.0,0.0,0.0,0.0,0,0,0,0
9728000,0,47.3977508,8.5456074,488.104,0.0,0.0,0.0,0.0,0.0,0,0,0,0
9828000,0,47.3977508,8.5456074,488.104,0.0,0.0,0.0,0.0,0.0,0,0,0,0
9928000,0,47.3977508,8.5456074,488.104,0.0,0.0,0.0,0.0,0.0,0,0,0,0
10028000,0,47.3977508,8.5456074,488.104,0.0,0.0,0.0,0.0,0.0,0,0,0,0
10128000,0,47.3977508,8.5456074,488.104,0.0,0.0,0.0,0.0,0.0,0,0,0,0
10228000,0,47.3977508,8.5456074,488.104,0.0,0.0,0.0,0.0,0.0,0,0,0,0
10328000,0,47.3977508,8.5456074,488.104,0.0,0.0,0.0,0.0,0.0,0,0,0,0
10428000,0,47.3977508,8.5456074,488.104,0.0,0.0,0.0,0.0,0.0,0,0,0,0
10528000,0,47.3977508,8.5456074,488.104,0.0,0.0,0.0,0.0,0.0,0,0,0,0
10628000,0,47.3977508,8.5456074,488.104,0.0,0.0,0.0,0.0,0.0,0,0,0,0
10728000,0,47.3977508,8.5456074,488.104,0.0,0.0,0.0,0.0,0.0,0,0,0,0
10828000,0,47.3977508,8.5456074,488.104,0.0,0.0,0.0,0.0,0.0,0,0,0,0
10928000,0,47.3977508,8.5456074,488.104,0.0,0.0,0.0,0.0,0.0,0,0,0,0
11028000,0,47.3977508,8.5456074,488.104,0.0,0.0,0.0,0.0,0.0,0,0,0,0
11128000,0,47.3977508,8.5456074,488.104,0.0,0.0,0.0,0.0,0.0,0,0,0,0
11228000,0,47.3977508,8.5456074,488.104,0.0,0.0,0.0,0.0,0.0,0,0,0,0
11328000,0,47.3977508,8.5456074,488.104,0.0,0.0,0.0,0.0,0.0,0,0,0,0
11428000,0,47.3977508,8.5456074,488.104,0.0,0.0,0.0,0.0,0.0,0,0,0,0
11528000,0,47.3977508,8.5456074,488.104,0.0,0.0,0.0,0.0,0.0,0,0,0,0
11628000,0,47.3977508,8.5456074,488.104,0.0,0.0,0.0,0.0,0.0,0,0,0,0
11728000,0,47.3977508,8.5456074,488.104,0.0,0.0,0.0,0.0,0.0,0,0,0,0
11828000,0,47.3977508,8.5456074,488.104,0.0,0.0,0.0,0.0,0.0,0,0,0,0
11928000,0,47.3977508,8.5456074,488.104,0.0,0.0,0.0,0.0,0.0,0,0,0,0
12028000,0,47.3977508,8.5456074,488.104,0.0,0.0,0.0,0.0,0.0,0,0,0,0
12128000,0,47.3977508,8.5456074,488.104,0.0,0.0,0.0,0.0,0.0,0,0,0,0
12228000,0,47.3977508,8.5456074,488.104,0.0,0.0,0.0,0.0,0.0,0,0,0,0
12328000,0,47.3977508,8.5456074,488.104,0.0,0.0,0.0,0.0,0.0,0,0,0,0
12428000,0,47.3977508,8.5456074,488.104,0.0,0.0,0.0,0.0,0.0,0,0,0,0
12528000,0,47.3977508,8.5456074,488.104,0.0,0.0,0.0,0.0,0.0,0,0,0,0
12628000,0,47.3977508,8.5456074,488.104,0.0,0.0,0.0,0.0,0.0,0,0,0,0
12728000,0,47.3977508,8.5456074,488.104,0.0,0.0,0.0,0.0,0.0,0,0,0,0
12828000,0,47.3977508,8.5456074,488.104,0.0,0.0,0.0,0.0,0.0,0,0,0,0
12928000,0,47.3977508,8.5456074,488.104,0.0,0.0,0.0,0.0,0.0,0,0,0,0
13028000,0,47.3977508,8.5456074,488.104,0.0,0.0,0.0,0.0,0.0,0,0,0,0
13128000,0,47.3977508,8.5456074,488.104,0.0,0.0,0.0,0.0,0.0,0,0,0,0
13228000,0,47.3977508,8.5456074,488.104,0.0,0.0,0.0,0.0,0.0,0,0,0,0
13328000,0,47.3977508,8.5456074,488.104,0.0,0.0,0.0,0.0,0.0,0,0,0,0
13428000,0,47.3977508,8.5456074,488.104,0.0,0.0,0.0,0.0,0.0,0,0,0,0
13528000,0,47.3977508,8.5456074,488.104,0.0,0.0,0.0,0.0,0.0,0,0,0,0
13628000,0,47.3977508,8.5456074,488.104,0.0,0.0,0.0,0.0,0.0,0,0,0,0
13728000,0,47.3977508,8.5456074,488.104,0.0,0.0,0.0,0.0,0.0,0,0,0,0
13828000,0,47.3977508,8.5456074,488.104,0.0,0.0,0.0,0.0,0.0,0,0,0,0
13928000,0,47.3977508,8.5456074,488.104,0.0,0.0,0.0,0.0,0.0,0,0,0,0
14028000,0,47.3977508,8.5456074,488.104,0.0,0.0,0.0,0.0,0.0,0,0,0,0
14128000,0,47.3977508,8.5456074,488.104,0.0,0.0,0.0,0.0,0.0,0,0,0,0
14228000,0,47.3977508,8.5456074,488.104,0.0,0.0,0.0,0.0,0.0,0,0,0,0
14328000,0,47.3977508,8.5456074,488.104,0.0,0.0,0.0,0.0,0.0,0,0,0,0
14428000,0,47.3977508,8.5456074,488.104,0.0,0.0,0.0,0.0,0.0,0,0,0,0
14528000,0,47.3977508,8.5456074,488.104,0.0,0.0,0.0,0.0,0.0,0,0,0,0
14628000,0,47.3977508,8.5456074,488.104,0.0,0.0,0.0,0.0,0.0,0,0,0,0
14728000,0,47.3977508,8.5456074,488.104,0.0,0.0,0.0,0.0,0.0,0,0,0,0
14828000,0,47.3977508,8.5456074,488.104,0.0,0.0,0.0,0.0,0.0,0,0,0,0
14928000,0,47.3977508,8.5456074,488.104,0.0,0.0,0.0,0.0,0.0,0,0,0,0
15028000,0,47.3977508,8.5456074,488.104,0.0,0.0,0.0,0.0,0.0,0,0,0,0
15128000,0,47.3977508,8.5456074,488.104,0.0,0.0,0.0,0.0,0.0,0,0,0,0
15228000,0,47.3977508,8.5456074,488.104,0.0,0.0,0.0,0.0,0.0,0,0,0,0
15328000,0,47.3977508,8.5456074,488.104,0.0,0.0,0.0,0.0,0.0,0,0,0,0
15428000,0,47.3977508,8.5456074,488.104,0.0,0.0,0.0,0.0,0.0,0,0,0,0
15528000,0,47.3977508,8.5456074,488.104,0.0,0.0,0.0,0.0,0.0,0,0,0,0
15628000,0,47.3977508,8.5456074,488.104,0.0,0.0,0.0,0.0,0.0,0,0,0,0
15728000,0,47.3977508,8.5456074,488.104,0.0,0.0,0.0,0.0,0.0,0,0,0,0
15828000,0,47.3977508,8.5456074,488.104,0.0,0.0,0.0,0.0,0.0,0,0,0,0
15928000,0,47.3977508,8.5456074,488.104,0.0,0.0,0.0,0.0,0.0,0,0,0,0
16028000,0,47.3977508,8.5456074,488.104,0.0,0.0,0.0,0.0,0.0,0,0,0,0
16128000,0,47.3977508,8.5456074,488.104,0.0,0.0,0.0,0.0,0.0,0,0,0,0
16228000,0,47.3977508,8.5456074,488.104,0.0,0.0,0.0,0.0,0.0,0,0,0,0
16328000,0,47.3977508,8.5456074,488.104,0.0,0.0,0.0,0.0,0.0,0,0,0,0
16428000,0,47.3977508,8.5456074,488.104,0.0,0.0,0.0,0.0,0.0,0,0,0,0
16528000,0,47.3977508,8.5456074,488.104,0.0,0.0,0.0,0.0,0.0,0,0,0,0
16628000,0,47.3977508,8.5456074,488.104,0.0,0.0,0.0,0.0,0.0,0,0,0,0
16728000,0,47.3977508,8.5456074,488.104,0.0,0.0,0.0,0.0,0.0,0,0,0,0
16828000,0,47.3977508,8.5456074,488.104,0.0,0.0,0.0,0.0,0.0,0,0,0,0
16928000,0,47.3977508,8.5456074,488.104,0.0,0.0,0.0,0.0,0.0,0,0,0,0
17028000,0,47.3977508,8.5456074,488.104,0.0,0.0,0.0,0.0,0.0,0,0,0,0
17128000,0,47.3977508,8.5456074,488.104,0.0,0.0,0.0,0.0,0.0,0,0,0,0
17228000,0,47.3977508,8.5456074,488.104,0.0,0.0,0.0,0.0,0.0,0,0,0,0
17328000,0,47.3977508,8.5456074,488.104,0.0,0.0,0.0,0.0,0.0,0,0,0,0
17428000,0,47.3977508,8.5456074,488.104,0.0,0.0,0.0,0.0,0.0,0,0,0,0
17528000,0,47.3977508,8.5456074,488.104,0.0,0.0,0.0,0.0,0.0,0,0,0,0
17628000,0,47.3977508,8.5456074,488.105,0.0,0.0,0.0,0.0,0.0,0,0,0,0
17728000,0,47.3977508,8.5456074,488.109,0.0,0.0,0.0,0.0,0.0,0,0,0,0
17828000,0,47.3977508,8.5456074,488.117,0.0,0.0,0.0,0.0,0.0,0,0,0,0
17928000,0,47.397750699999996,8.5456074,488.129,0.0,0.0,0.0,0.0,0.0,0,0,0,0
18028000,0,47.397750599999995,8.5456073,488.148,0.0,0.0,0.0,0.0,0.0,0,0,0,0
18128000,0,47.3977505,8.5456071,488.173,0.0,0.0,0.0,0.0,0.0,0,0,0,0
18228000,0,47.3977503,8.5456069,488.207,0.0,0.0,0.0,0.0,0.0,0,0,0,0
18328000,0,47.397750099999996,8.5456066,488.25,0.0,0.0,0.0,0.0,0.0,0,0,0,0
18428000,0,47.3977499,8.5456064,488.302,0.0,0.0,0.0,0.0,0.0,0,0,0,0
18528000,0,47.3977497,8.5456062,488.359,0.0,0.0,0.0,0.0,0.0,0,0,0,0
18628000,0,47.3977496,8.5456059,488.424,0.0,0.0,0.0,0.0,0.0,0,0,0,0
18728000,0,47.397749399999995,8.5456057,488.482,0.0,0.0,0.0,0.0,0.0,0,0,0,0
18828000,0,47.3977493,8.545605499999999,488.545,0.0,0.0,0.0,0.0,0.0,0,0,0,0
18928000,0,47.3977491,8.5456054,488.607,0.0,0.0,0.0,0.0,0.0,0,0,0,0
19028000,0,47.397749,8.545605199999999,488.669,0.0,0.0,0.0,0.0,0.0,0,0,0,0
19128000,0,47.397749,8.5456051,488.737,0.0,0.0,0.0,0.0,0.0,0,0,0,0
19228000,0,47.397748899999996,8.545605,488.803,0.0,0.0,0.0,0.0,0.0,0,0,0,0
19328000,0,47.397748899999996,8.545605,488.871,0.0,0.0,0.0,0.0,0.0,0,0,0,0
19428000,0,47.397748799999995,8.545604899999999,488.939,0.0,0.0,0.0,0.0,0.0,0,0,0,0
19528000,0,47.397748899999996,8.545604899999999,489.006,0.0,0.0,0.0,0.0,0.0,0,0,0,0
19628000,0,47.397748899999996,8.545604899999999,489.077,0.0,0.0,0.0,0.0,0.0,0,0,0,0
19728000,0,47.397748899999996,8.545605,489.147,0.0,0.0,0.0,0.0,0.0,0,0,0,0
19828000,0,47.397749,8.545605,489.216,0.0,0.0,0.0,0.0,0.0,0,0,0,0
19928000,0,47.397749,8.5456051,489.284,0.0,0.0,0.0,0.0,0.0,0,0,0,0
20028000,0,47.3977491,8.5456051,489.353,0.0,0.0,0.0,0.0,0.0,0,0,0,0
20128000,0,47.3977492,8.545605199999999,489.421,0.0,0.0,0.0,0.0,0.0,0,0,0,0
20228000,0,47.3977492,8.5456053,489.49,0.0,0.0,0.0,0.0,0.0,0,0,0,0
20328000,0,47.397749399999995,8.5456053,489.569,0.0,0.0,0.0,0.0,0.0,0,0,0,0
20428000,0,47.397749499999996,8.5456053,489.655,0.0,0.0,0.0,0.0,0.0,0,0,0,0
20528000,0,47.3977498,8.545605199999999,489.753,0.0,0.0,0.0,0.0,0.0,0,0,0,0
20628000,0,47.397750099999996,8.545605,489.854,0.0,0.0,0.0,0.0,0.0,0,0,0,0
20728000,0,47.3977504,8.5456047,489.963,0.0,0.0,0.0,0.0,0.0,0,0,0,0
20828000,0,47.3977509,8.545604299999999,490.078,0.0,0.0,0.0,0.0,0.0,0,0,0,0
20928000,0,47.3977514,8.5456038,490.197,0.0,0.0,0.0,0.0,0.0,0,0,0,0
21028000,0,47.397751899999996,8.5456033,490.32,0.0,0.0,0.0,0.0,0.0,0,0,0,0
21128000,0,47.397752499999996,8.5456027,490.438,0.0,0.0,0.0,0.0,0.0,0,0,0,0
21228000,0,47.3977532,8.545601999999999,490.56,0.0,0.0,0.0,0.0,0.0,0,0,0,0
21328000,0,47.3977539,8.5456012,490.668,0.0,0.0,0.0,0.0,0.0,0,0,0,0
21428000,0,47.3977546,8.545600499999999,490.767,0.0,0.0,0.0,0.0,0.0,0,0,0,0
21528000,0,47.3977553,8.5455997,490.874,0.0,0.0,0.0,0.0,0.0,0,0,0,0
21628000,0,47.397756,8.5455989,490.974,0.0,0.0,0.0,0.0,0.0,0,0,0,0
21728000,0,47.3977566,8.545598199999999,491.08,0.0,0.0,0.0,0.0,0.0,0,0,0,0
21828000,0,47.397757299999995,8.5455974,491.193,0.0,0.0,0.0,0.0,0.0,0,0,0,0
21928000,0,47.3977578,8.5455968,491.304,0.0,0.0,0.0,0.0,0.0,0,0,0,0
22028000,0,47.3977582,8.5455963,491.412,0.0,0.0,0.0,0.0,0.0,0,0,0,0
22128000,0,47.397758499999995,8.545596,491.516,0.0,0.0,0.0,0.0,0.0,0,0,0,0
22228000,0,47.3977587,8.5455957,491.612,0.0,0.0,0.0,0.0,0.0,0,0,0,0
22328000,0,47.3977588,8.5455957,491.711,0.0,0.0,0.0,0.0,0.0,0,0,0,0
22428000,0,47.3977587,8.5455958,491.799,0.0,0.0,0.0,0.0,0.0,0,0,0,0
22528000,0,47.397758599999996,8.545596,491.875,0.0,0.0,0.0,0.0,0.0,0,0,0,0
22628000,0,47.3977583,8.5455965,491.948,0.0,0.0,0.0,0.0,0.0,0,0,0,0
22728000,0,47.3977578,8.5455971,492.011,0.0,0.0,0.0,0.0,0.0,0,0,0,0
22828000,0,47.397757299999995,8.5455978,492.061,0.0,0.0,0.0,0.0,0.0,0,0,0,0
22928000,0,47.3977566,8.5455987,492.103,0.0,0.0,0.0,0.0,0.0,0,0,0,0
23028000,0,47.3977559,8.5455997,492.133,0.0,0.0,0.0,0.0,0.0,0,0,0,0
23128000,0,47.3977551,8.545600799999999,492.153,0.0,0.0,0.0,0.0,0.0,0,0,0,0
23228000,0,47.3977541,8.545601999999999,492.163,0.0,0.0,0.0,0.0,0.0,0,0,0,0
23328000,0,47.3977532,8.5456033,492.159,0.0,0.0,0.0,0.0,0.0,0,0,0,0
23428000,0,47.3977522,8.5456047,492.146,0.0,0.0,0.0,0.0,0.0,0,0,0,0
23528000,0,47.3977511,8.545606099999999,492.123,0.0,0.0,0.0,0.0,0.0,0,0,0,0
23628000,0,47.397750099999996,8.5456076,492.088,0.0,0.0,0.0,0.0,0.0,0,0,0,0
23728000,0,47.397748899999996,8.5456091,492.04,0.0,0.0,0.0,0.0,0.0,0,0,0,0
23828000,0,47.3977478,8.5456107,491.98,0.0,0.0,0.0,0.0,0.0,0,0,0,0
23928000,0,47.3977467,8.5456121,491.915,0.0,0.0,0.0,0.0,0.0,0,0,0,0
24028000,0,47.3977456,8.545613699999999,491.835,0.0,0.0,0.0,0.0,0.0,0,0,0,0
24128000,0,47.397744499999995,8.5456152,491.748,0.0,0.0,0.0,0.0,0.0,0,0,0,0
24228000,0,47.3977435,8.5456167,491.653,0.0,0.0,0.0,0.0,0.0,0,0,0,0
24328000,0,47.3977425,8.5456181,491.554,0.0,0.0,0.0,0.0,0.0,0,0,0,0
24428000,0,47.3977414,8.5456196,491.44,0.0,0.0,0.0,0.0,0.0,0,0,0,0
24528000,0,47.3977405,8.5456209,491.323,0.0,0.0,0.0,0.0,0.0,0,0,0,0
24628000,0,47.3977396,8.5456222,491.204,0.0,0.0,0.0,0.0,0.0,0,0,0,0
24728000,0,47.3977387,8.545623599999999,491.068,0.0,0.0,0.0,0.0,0.0,0,0,0,0
24828000,0,47.397737899999996,8.545624799999999,490.934,0.0,0.0,0.0,0.0,0.0,0,0,0,0
24928000,0,47.397737199999995,8.5456259,490.801,0.0,0.0,0.0,0.0,0.0,0,0,0,0
25028000,0,47.3977365,8.545627099999999,490.652,0.0,0.0,0.0,0.0,0.0,0,0,0,0
25128000,0,47.3977358,8.5456281,490.504,0.0,0.0,0.0,0.0,0.0,0,0,0,0
25228000,0,47.3977352,8.5456291,490.355,0.0,0.0,0.0,0.0,0.0,0,0,0,0
25328000,0,47.3977347,8.5456301,490.204,0.0,0.0,0.0,0.0,0.0,0,0,0,0
25428000,0,47.397734199999995,8.545630899999999,490.055,0.0,0.0,0.0,0.0,0.0,0,0,0,0
25528000,0,47.3977338,8.5456317,489.898,0.0,0.0,0.0,0.0,0.0,0,0,0,0
25628000,0,47.3977334,8.5456325,489.734,0.0,0.0,0.0,0.0,0.0,0,0,0,0
25728000,0,47.397733099999996,8.5456332,489.579,0.0,0.0,0.0,0.0,0.0,0,0,0,0
25828000,0,47.3977328,8.5456338,489.422,0.0,0.0,0.0,0.0,0.0,0,0,0,0
25928000,0,47.3977326,8.545634399999999,489.261,0.0,0.0,0.0,0.0,0.0,0,0,0,0
26028000,0,47.397732399999995,8.5456349,489.102,0.0,0.0,0.0,0.0,0.0,0,0,0,0
26128000,0,47.3977323,8.545635299999999,488.952,0.0,0.0,0.0,0.0,0.0,0,0,0,0
26228000,0,47.3977322,8.545635599999999,488.795,0.0,0.0,0.0,0.0,0.0,0,0,0,0
26328000,0,47.3977322,8.545635899999999,488.63,0.0,0.0,0.0,0.0,0.0,0,0,0,0
26428000,0,47.3977323,8.545636199999999,488.475,0.0,0.0,0.0,0.0,0.0,0,0,0,0
26528000,0,47.397732399999995,8.5456363,488.326,0.0,0.0,0.0,0.0,0.0,0,0,0,0
26628000,0,47.3977326,8.5456364,488.179,0.0,0.0,0.0,0.0,0.0,0,0,0,0
26728000,0,47.3977327,8.545636499999999,488.104,0.0,0.0,0.0,0.0,0.0,0,0,0,0
26828000,0,47.3977327,8.545636499999999,488.104,0.0,0.0,0.0,0.0,0.0,0,0,0,0
26928000,0,47.3977327,8.545636499999999,488.104,0.0,0.0,0.0,0.0,0.0,0,0,0,0
27028000,0,47.3977327,8.545636499999999,488.104,0.0,0.0,0.0,0.0,0.0,0,0,0,0
27128000,0,47.3977327,8.545636499999999,488.104,0.0,0.0,0.0,0.0,0.0,0,0,0,0
27228000,0,47.3977327,8.545636499999999,488.104,0.0,0.0,0.0,0.0,0.0,0,0,0,0
27328000,0,47.3977327,8.545636499999999,488.104,0.0,0.0,0.0,0.0,0.0,0,0,0,0
27428000,0,47.3977327,8.545636499999999,488.104,0.0,0.0,0.0,0.0,0.0,0,0,0,0
27528000,0,47.3977327,8.545636499999999,488.104,0.0,0.0,0.0,0.0,0.0,0,0,0,0
27628000,0,47.3977327,8.545636499999999,488.104,0.0,0.0,0.0,0.0,0.0,0,0,0,0
27728000,0,47.3977327,8.545636499999999,488.104,0.0,0.0,0.0,0.0,0.0,0,0,0,0
27828000,0,47.3977327,8.545636499999999,488.104,0.0,0.0,0.0,0.0,0.0,0,0,0,0
27928000,0,47.3977327,8.545636499999999,488.104,0.0,0.0,0.0,0.0,0.0,0,0,0,0
28028000,0,47.3977327,8.545636499999999,488.104,0.0,0.0,0.0,0.0,0.0,0,0,0,0
28128000,0,47.3977327,8.545636499999999,488.104,0.0,0.0,0.0,0.0,0.0,0,0,0,0
28228000,0,47.3977327,8.545636499999999,488.104,0.0,0.0,0.0,0.0,0.0,0,0,0,0
28328000,0,47.3977327,8.545636499999999,488.104,0.0,0.0,0.0,0.0,0.0,0,0,0,0
28428000,0,47.3977327,8.545636499999999,488.104,0.0,0.0,0.0,0.0,0.0,0,0,0,0
28528000,0,47.3977327,8.545636499999999,488.104,0.0,0.0,0.0,0.0,0.0,0,0,0,0
28628000,0,47.3977327,8.545636499999999,488.104,0.0,0.0,0.0,0.0,0.0,0,0,0,0
28728000,0,47.3977327,8.545636499999999,488.104,0.0,0.0,0.0,0.0,0.0,0,0,0,0
28828000,0,47.3977327,8.545636499999999,488.104,0.0,0.0,0.0,0.0,0.0,0,0,0,0
28928000,0,47.3977327,8.545636499999999,488.104,0.0,0.0,0.0,0.0,0.0,0,0,0,0
29028000,0,47.3977327,8.545636499999999,488.104,0.0,0.0,0.0,0.0,0.0,0,0,0,0
29128000,0,47.3977327,8.545636499999999,488.104,0.0,0.0,0.0,0.0,0.0,0,0,0,0
29228000,0,47.3977327,8.545636499999999,488.104,0.0,0.0,0.0,0.0,0.0,0,0,0,0
29328000,0,47.3977327,8.545636499999999,488.104,0.0,0.0,0.0,0.0,0.0,0,0,0,0
29428000,0,47.3977327,8.545636499999999,488.104,0.0,0.0,0.0,0.0,0.0,0,0,0,0
29528000,0,47.3977327,8.545636499999999,488.104,0.0,0.0,0.0,0.0,0.0,0,0,0,0
29628000,0,47.3977327,8.545636499999999,488.104,0.0,0.0,0.0,0.0,0.0,0,0,0,0
29728000,0,47.3977327,8.545636499999999,488.104,0.0,0.0,0.0,0.0,0.0,0,0,0,0
29828000,0,47.3977327,8.545636499999999,488.104,0.0,0.0,0.0,0.0,0.0,0,0,0,0
29928000,0,47.3977327,8.545636499999999,488.105,0.0,0.0,0.0,0.0,0.0,0,0,0,0
30028000,0,47.3977327,8.545636499999999,488.107,0.0,0.0,0.0,0.0,0.0,0,0,0,0
30128000,0,47.3977327,8.545636499999999,488.112,0.0,0.0,0.0,0.0,0.0,0,0,0,0
30228000,0,47.3977327,8.545636499999999,488.119,0.0,0.0,0.0,0.0,0.0,0,0,0,0
30328000,0,47.3977327,8.5456364,488.128,0.0,0.0,0.0,0.0,0.0,0,0,0,0
30428000,0,47.3977327,8.5456364,488.141,0.0,0.0,0.0,0.0,0.0,0,0,0,0
30528000,0,47.3977328,8.5456363,488.159,0.0,0.0,0.0,0.0,0.0,0,0,0,0
30628000,0,47.3977328,8.5456361,488.181,0.0,0.0,0.0,0.0,0.0,0,0,0,0
30728000,0,47.397732999999995,8.5456357,488.22,0.0,0.0,0.0,0.0,0.0,0,0,0,0
30828000,0,47.3977335,8.5456348,488.268,0.0,0.0,0.0,0.0,0.0,0,0,0,0
30928000,0,47.3977345,8.5456336,488.321,0.0,0.0,0.0,0.0,0.0,0,0,0,0
31028000,0,47.3977359,8.545632,488.38,0.0,0.0,0.0,0.0,0.0,0,0,0,0
31128000,0,47.3977376,8.5456299,488.447,0.0,0.0,0.0,0.0,0.0,0,0,0,0
31228000,0,47.3977395,8.5456273,488.545,0.0,0.0,0.0,0.0,0.0,0,0,0,0
31328000,0,47.397741499999995,8.5456246,488.68,0.0,0.0,0.0,0.0,0.0,0,0,0,0
31428000,0,47.3977435,8.5456217,488.841,0.0,0.0,0.0,0.0,0.0,0,0,0,0
31528000,0,47.3977455,8.5456189,489.009,0.0,0.0,0.0,0.0,0.0,0,0,0,0
31628000,0,47.3977472,8.545616299999999,489.16,0.0,0.0,0.0,0.0,0.0,0,0,0,0
31728000,0,47.397748899999996,8.545613699999999,489.314,0.0,0.0,0.0,0.0,0.0,0,0,0,0
31828000,0,47.3977504,8.5456113,489.455,0.0,0.0,0.0,0.0,0.0,0,0,0,0
31928000,0,47.397751799999995,8.5456091,489.588,0.0,0.0,0.0,0.0,0.0,0,0,0,0
32028000,0,47.3977529,8.5456071,489.709,0.0,0.0,0.0,0.0,0.0,0,0,0,0
32128000,0,47.397754,8.5456051,489.832,0.0,0.0,0.0,0.0,0.0,0,0,0,0
32228000,0,47.397754899999995,8.5456035,489.939,0.0,0.0,0.0,0.0,0.0,0,0,0,0
32328000,0,47.397755599999996,8.545601999999999,490.049,0.0,0.0,0.0,0.0,0.0,0,0,0,0
32428000,0,47.397756199999996,8.5456007,490.149,0.0,0.0,0.0,0.0,0.0,0,0,0,0
32528000,0,47.397756699999995,8.5455996,490.242,0.0,0.0,0.0,0.0,0.0,0,0,0,0
32628000,0,47.397757,8.5455987,490.33,0.0,0.0,0.0,0.0,0.0,0,0,0,0
32728000,0,47.3977572,8.545598,490.41,0.0,0.0,0.0,0.0,0.0,0,0,0,0
32828000,0,47.397757299999995,8.5455975,490.488,0.0,0.0,0.0,0.0,0.0,0,0,0,0
32928000,0,47.397757399999996,8.5455971,490.564,0.0,0.0,0.0,0.0,0.0,0,0,0,0
33028000,0,47.397757299999995,8.5455969,490.63,0.0,0.0,0.0,0.0,0.0,0,0,0,0
33128000,0,47.3977572,8.5455968,490.696,0.0,0.0,0.0,0.0,0.0,0,0,0,0
33228000,0,47.397757,8.5455968,490.756,0.0,0.0,0.0,0.0,0.0,0,0,0,0
33328000,0,47.397756799999996,8.545596999999999,490.81,0.0,0.0,0.0,0.0,0.0,0,0,0,0
33428000,0,47.3977565,8.5455972,490.861,0.0,0.0,0.0,0.0,0.0,0,0,0,0
33528000,0,47.397756099999995,8.545597599999999,490.909,0.0,0.0,0.0,0.0,0.0,0,0,0,0
33628000,0,47.3977558,8.545598,490.951,0.0,0.0,0.0,0.0,0.0,0,0,0,0
33728000,0,47.3977554,8.545598499999999,490.992,0.0,0.0,0.0,0.0,0.0,0,0,0,0
33828000,0,47.397755,8.5455991,491.031,0.0,0.0,0.0,0.0,0.0,0,0,0,0
33928000,0,47.3977546,8.5455996,491.066,0.0,0.0,0.0,0.0,0.0,0,0,0,0
34028000,0,47.3977542,8.545600199999999,491.098,0.0,0.0,0.0,0.0,0.0,0,0,0,0
34128000,0,47.3977538,8.5456009,491.127,0.0,0.0,0.0,0.0,0.0,0,0,0,0
34228000,0,47.3977534,8.5456016,491.155,0.0,0.0,0.0,0.0,0.0,0,0,0,0
34328000,0,47.397752999999994,8.5456022,491.181,0.0,0.0,0.0,0.0,0.0,0,0,0,0
34428000,0,47.3977526,8.5456029,491.205,0.0,0.0,0.0,0.0,0.0,0,0,0,0
34528000,0,47.3977522,8.5456036,491.227,0.0,0.0,0.0,0.0,0.0,0,0,0,0
34628000,0,47.397751899999996,8.545604299999999,491.247,0.0,0.0,0.0,0.0,0.0,0,0,0,0
34728000,0,47.3977515,8.545604899999999,491.265,0.0,0.0,0.0,0.0,0.0,0,0,0,0
34828000,0,47.397751199999995,8.545605499999999,491.281,0.0,0.0,0.0,0.0,0.0,0,0,0,0
34928000,0,47.3977509,8.545606099999999,491.295,0.0,0.0,0.0,0.0,0.0,0,0,0,0
35028000,0,47.397750699999996,8.5456066,491.308,0.0,0.0,0.0,0.0,0.0,0,0,0,0
35128000,0,47.3977504,8.5456072,491.32,0.0,0.0,0.0,0.0,0.0,0,0,0,0
35228000,0,47.3977502,8.5456077,491.33,0.0,0.0,0.0,0.0,0.0,0,0,0,0
35328000,0,47.397749999999995,8.545608099999999,491.338,0.0,0.0,0.0,0.0,0.0,0,0,0,0
35428000,0,47.3977499,8.5456085,491.345,0.0,0.0,0.0,0.0,0.0,0,0,0,0
35528000,0,47.3977497,8.5456089,491.352,0.0,0.0,0.0,0.0,0.0,0,0,0,0
35628000,0,47.3977496,8.5456092,491.357,0.0,0.0,0.0,0.0,0.0,0,0,0,0
35728000,0,47.397749499999996,8.5456095,491.361,0.0,0.0,0.0,0.0,0.0,0,0,0,0
35828000,0,47.397749399999995,8.5456098,491.363,0.0,0.0,0.0,0.0,0.0,0,0,0,0
35928000,0,47.3977493,8.54561,491.366,0.0,0.0,0.0,0.0,0.0,0,0,0,0
36028000,0,47.3977493,8.5456102,491.367,0.0,0.0,0.0,0.0,0.0,0,0,0,0
36128000,0,47.3977493,8.5456104,491.366,0.0,0.0,0.0,0.0,0.0,0,0,0,0
36228000,0,47.3977492,8.5456105,491.365,0.0,0.0,0.0,0.0,0.0,0,0,0,0
36328000,0,47.3977492,8.5456106,491.364,0.0,0.0,0.0,0.0,0.0,0,0,0,0
36428000,0,47.3977493,8.5456107,491.361,0.0,0.0,0.0,0.0,0.0,0,0,0,0
36528000,0,47.3977493,8.5456108,491.356,0.0,0.0,0.0,0.0,0.0,0,0,0,0
36628000,0,47.3977493,8.5456108,491.351,0.0,0.0,0.0,0.0,0.0,0,0,0,0
36728000,0,47.397749399999995,8.5456108,491.345,0.0,0.0,0.0,0.0,0.0,0,0,0,0
36828000,0,47.397749399999995,8.5456108,491.338,0.0,0.0,0.0,0.0,0.0,0,0,0,0
36928000,0,47.397749499999996,8.5456108,491.33,0.0,0.0,0.0,0.0,0.0,0,0,0,0
37028000,0,47.397749499999996,8.5456107,491.321,0.0,0.0,0.0,0.0,0.0,0,0,0,0
37128000,0,47.3977496,8.5456107,491.312,0.0,0.0,0.0,0.0,0.0,0,0,0,0
37228000,0,47.3977497,8.5456106,491.303,0.0,0.0,0.0,0.0,0.0,0,0,0,0
37328000,0,47.3977498,8.5456105,491.291,0.0,0.0,0.0,0.0,0.0,0,0,0,0
37428000,0,47.3977498,8.5456104,491.281,0.0,0.0,0.0,0.0,0.0,0,0,0,0
37528000,0,47.3977499,8.5456103,491.27,0.0,0.0,0.0,0.0,0.0,0,0,0,0
37628000,0,47.397749999999995,8.5456103,491.259,0.0,0.0,0.0,0.0,0.0,0,0,0,0
37728000,0,47.397750099999996,8.5456102,491.246,0.0,0.0,0.0,0.0,0.0,0,0,0,0
37828000,0,47.3977502,8.5456101,491.234,0.0,0.0,0.0,0.0,0.0,0,0,0,0
37928000,0,47.3977502,8.54561,491.222,0.0,0.0,0.0,0.0,0.0,0,0,0,0
38028000,0,47.3977503,8.545609899999999,491.209,0.0,0.0,0.0,0.0,0.0,0,0,0,0
38128000,0,47.3977504,8.5456098,491.195,0.0,0.0,0.0,0.0,0.0,0,0,0,0
38228000,0,47.3977505,8.5456097,491.182,0.0,0.0,0.0,0.0,0.0,0,0,0,0
38328000,0,47.397750599999995,8.545609599999999,491.169,0.0,0.0,0.0,0.0,0.0,0,0,0,0
38428000,0,47.397750699999996,8.545609599999999,491.156,0.0,0.0,0.0,0.0,0.0,0,0,0,0
38528000,0,47.397750699999996,8.5456095,491.143,0.0,0.0,0.0,0.0,0.0,0,0,0,0
38628000,0,47.3977508,8.5456094,491.129,0.0,0.0,0.0,0.0,0.0,0,0,0,0
38728000,0,47.3977509,8.545609299999999,491.117,0.0,0.0,0.0,0.0,0.0,0,0,0,0
38828000,0,47.397751,8.545609299999999,491.103,0.0,0.0,0.0,0.0,0.0,0,0,0,0
38928000,0,47.397751,8.5456092,491.091,0.0,0.0,0.0,0.0,0.0,0,0,0,0
39028000,0,47.3977511,8.5456091,491.078,0.0,0.0,0.0,0.0,0.0,0,0,0,0
39128000,0,47.397751199999995,8.5456091,491.066,0.0,0.0,0.0,0.0,0.0,0,0,0,0
39228000,0,47.397751199999995,8.545608999999999,491.054,0.0,0.0,0.0,0.0,0.0,0,0,0,0
39328000,0,47.397751299999996,8.5456089,491.042,0.0,0.0,0.0,0.0,0.0,0,0,0,0
39428000,0,47.3977514,8.5456089,491.028,0.0,0.0,0.0,0.0,0.0,0,0,0,0
39528000,0,47.3977514,8.5456089,491.016,0.0,0.0,0.0,0.0,0.0,0,0,0,0
39628000,0,47.3977515,8.5456088,491.004,0.0,0.0,0.0,0.0,0.0,0,0,0,0
39728000,0,47.3977515,8.5456088,490.992,0.0,0.0,0.0,0.0,0.0,0,0,0,0
39828000,0,47.3977516,8.545608699999999,490.979,0.0,0.0,0.0,0.0,0.0,0,0,0,0
39928000,0,47.3977516,8.545608699999999,490.968,0.0,0.0,0.0,0.0,0.0,0,0,0,0
40028000,0,47.3977517,8.545608699999999,490.956,0.0,0.0,0.0,0.0,0.0,0,0,0,0
40128000,0,47.3977517,8.5456086,490.945,0.0,0.0,0.0,0.0,0.0,0,0,0,0
40228000,0,47.397751799999995,8.5456086,490.934,0.0,0.0,0.0,0.0,0.0,0,0,0,0
40328000,0,47.397751799999995,8.5456085,490.923,0.0,0.0,0.0,0.0,0.0,0,0,0,0
40428000,0,47.397751899999996,8.5456085,490.913,0.0,0.0,0.0,0.0,0.0,0,0,0,0
40528000,0,47.397751899999996,8.5456085,490.903,0.0,0.0,0.0,0.0,0.0,0,0,0,0
40628000,0,47.397752,8.545608399999999,490.894,0.0,0.0,0.0,0.0,0.0,0,0,0,0
40728000,0,47.397752,8.545608399999999,490.885,0.0,0.0,0.0,0.0,0.0,0,0,0,0
40828000,0,47.3977521,8.5456083,490.876,0.0,0.0,0.0,0.0,0.0,0,0,0,0
40928000,0,47.3977521,8.5456083,490.867,0.0,0.0,0.0,0.0,0.0,0,0,0,0
41028000,0,47.3977522,8.5456083,490.859,0.0,0.0,0.0,0.0,0.0,0,0,0,0
41128000,0,47.3977522,8.5456082,490.852,0.0,0.0,0.0,0.0,0.0,0,0,0,0
41228000,0,47.3977523,8.5456082,490.845,0.0,0.0,0.0,0.0,0.0,0,0,0,0
41328000,0,47.3977523,8.545608099999999,490.837,0.0,0.0,0.0,0.0,0.0,0,0,0,0
41428000,0,47.397752399999995,8.545608099999999,490.831,0.0,0.0,0.0,0.0,0.0,0,0,0,0
41528000,0,47.397752399999995,8.545608099999999,490.824,0.0,0.0,0.0,0.0,0.0,0,0,0,0
41628000,0,47.397752499999996,8.545608,490.818,0.0,0.0,0.0,0.0,0.0,0,0,0,0
41728000,0,47.397752499999996,8.545608,490.811,0.0,0.0,0.0,0.0,0.0,0,0,0,0
41828000,0,47.3977526,8.545608,490.806,0.0,0.0,0.0,0.0,0.0,0,0,0,0
41928000,0,47.3977526,8.5456079,490.8,0.0,0.0,0.0,0.0,0.0,0,0,0,0
42028000,0,47.3977527,8.5456079,490.795,0.0,0.0,0.0,0.0,0.0,0,0,0,0
42128000,0,47.3977527,8.5456079,490.79,0.0,0.0,0.0,0.0,0.0,0,0,0,0
42228000,0,47.3977528,8.545607799999999,490.785,0.0,0.0,0.0,0.0,0.0,0,0,0,0
42328000,0,47.3977528,8.545607799999999,490.78,0.0,0.0,0.0,0.0,0.0,0,0,0,0
42428000,0,47.3977528,8.545607799999999,490.775,0.0,0.0,0.0,0.0,0.0,0,0,0,0
42528000,0,47.3977529,8.545607799999999,490.771,0.0,0.0,0.0,0.0,0.0,0,0,0,0
42628000,0,47.3977529,8.545607799999999,490.766,0.0,0.0,0.0,0.0,0.0,0,0,0,0
42728000,0,47.3977529,8.5456077,490.761,0.0,0.0,0.0,0.0,0.0,0,0,0,0
42828000,0,47.397752999999994,8.5456077,490.757,0.0,0.0,0.0,0.0,0.0,0,0,0,0
42928000,0,47.397752999999994,8.5456077,490.753,0.0,0.0,0.0,0.0,0.0,0,0,0,0
43028000,0,47.397752999999994,8.5456077,490.749,0.0,0.0,0.0,0.0,0.0,0,0,0,0
43128000,0,47.397753099999996,8.5456077,490.745,0.0,0.0,0.0,0.0,0.0,0,0,0,0
43228000,0,47.397753099999996,8.5456077,490.741,0.0,0.0,0.0,0.0,0.0,0,0,0,0
43328000,0,47.397753099999996,8.5456077,490.738,0.0,0.0,0.0,0.0,0.0,0,0,0,0
43428000,0,47.397753099999996,8.5456077,490.734,0.0,0.0,0.0,0.0,0.0,0,0,0,0
43528000,0,47.397753099999996,8.5456077,490.731,0.0,0.0,0.0,0.0,0.0,0,0,0,0
43628000,0,47.3977532,8.5456076,490.728,0.0,0.0,0.0,0.0,0.0,0,0,0,0
43728000,0,47.3977532,8.5456076,490.724,0.0,0.0,0.0,0.0,0.0,0,0,0,0
43828000,0,47.3977532,8.5456076,490.721,0.0,0.0,0.0,0.0,0.0,0,0,0,0
43928000,0,47.3977532,8.5456076,490.718,0.0,0.0,0.0,0.0,0.0,0,0,0,0
44028000,0,47.3977532,8.5456076,490.715,0.0,0.0,0.0,0.0,0.0,0,0,0,0
44128000,0,47.3977532,8.5456076,490.712,0.0,0.0,0.0,0.0,0.0,0,0,0,0
44228000,0,47.3977532,8.5456076,490.71,0.0,0.0,0.0,0.0,0.0,0,0,0,0
44328000,0,47.3977532,8.5456076,490.708,0.0,0.0,0.0,0.0,0.0,0,0,0,0
44428000,0,47.3977532,8.5456076,490.706,0.0,0.0,0.0,0.0,0.0,0,0,0,0
44528000,0,47.3977532,8.5456076,490.704,0.0,0.0,0.0,0.0,0.0,0,0,0,0
44628000,0,47.3977532,8.5456076,490.703,0.0,0.0,0.0,0.0,0.0,0,0,0,0
44728000,0,47.3977532,8.5456075,490.701,0.0,0.0,0.0,0.0,0.0,0,0,0,0
44828000,0,47.3977532,8.5456075,490.7,0.0,0.0,0.0,0.0,0.0,0,0,0,0
44928000,0,47.3977532,8.5456075,490.698,0.0,0.0,0.0,0.0,0.0,0,0,0,0
45028000,0,47.3977532,8.5456075,490.697,0.0,0.0,0.0,0.0,0.0,0,0,0,0
45128000,0,47.3977532,8.5456075,490.695,0.0,0.0,0.0,0.0,0.0,0,0,0,0
45228000,0,47.397753099999996,8.5456075,490.694,0.0,0.0,0.0,0.0,0.0,0,0,0,0
45328000,0,47.397753099999996,8.5456074,490.693,0.0,0.0,0.0,0.0,0.0,0,0,0,0
45428000,0,47.397753099999996,8.5456074,490.692,0.0,0.0,0.0,0.0,0.0,0,0,0,0
45528000,0,47.397753099999996,8.5456074,490.691,0.0,0.0,0.0,0.0,0.0,0,0,0,0
45628000,0,47.397753099999996,8.5456074,490.69,0.0,0.0,0.0,0.0,0.0,0,0,0,0
45728000,0,47.397752999999994,8.5456074,490.688,0.0,0.0,0.0,0.0,0.0,0,0,0,0
45828000,0,47.397752999999994,8.5456074,490.687,0.0,0.0,0.0,0.0,0.0,0,0,0,0
45928000,0,47.397752999999994,8.5456073,490.687,0.0,0.0,0.0,0.0,0.0,0,0,0,0
46028000,0,47.397752999999994,8.5456073,490.686,0.0,0.0,0.0,0.0,0.0,0,0,0,0
46128000,0,47.3977529,8.5456073,490.685,0.0,0.0,0.0,0.0,0.0,0,0,0,0
46228000,0,47.3977529,8.5456073,490.684,0.0,0.0,0.0,0.0,0.0,0,0,0,0
46328000,0,47.3977529,8.5456073,490.683,0.0,0.0,0.0,0.0,0.0,0,0,0,0
46428000,0,47.3977528,8.5456073,490.683,0.0,0.0,0.0,0.0,0.0,0,0,0,0
46528000,0,47.3977528,8.5456073,490.682,0.0,0.0,0.0,0.0,0.0,0,0,0,0
46628000,0,47.3977528,8.5456073,490.682,0.0,0.0,0.0,0.0,0.0,0,0,0,0
46728000,0,47.3977528,8.5456072,490.682,0.0,0.0,0.0,0.0,0.0,0,0,0,0
46828000,0,47.3977527,8.5456072,490.682,0.0,0.0,0.0,0.0,0.0,0,0,0,0
46928000,0,47.3977527,8.5456072,490.682,0.0,0.0,0.0,0.0,0.0,0,0,0,0
47028000,0,47.3977527,8.5456072,490.681,0.0,0.0,0.0,0.0,0.0,0,0,0,0
47128000,0,47.3977527,8.5456072,490.68,0.0,0.0,0.0,0.0,0.0,0,0,0,0
47228000,0,47.3977527,8.5456072,490.68,0.0,0.0,0.0,0.0,0.0,0,0,0,0
47328000,0,47.3977526,8.5456072,490.679,0.0,0.0,0.0,0.0,0.0,0,0,0,0
47428000,0,47.3977526,8.5456072,490.678,0.0,0.0,0.0,0.0,0.0,0,0,0,0
47528000,0,47.3977526,8.5456072,490.678,0.0,0.0,0.0,0.0,0.0,0,0,0,0
47628000,0,47.3977526,8.5456072,490.678,0.0,0.0,0.0,0.0,0.0,0,0,0,0
47728000,0,47.3977526,8.5456072,490.678,0.0,0.0,0.0,0.0,0.0,0,0,0,0
47828000,0,47.3977526,8.5456072,490.678,0.0,0.0,0.0,0.0,0.0,0,0,0,0
47928000,0,47.3977526,8.5456072,490.678,0.0,0.0,0.0,0.0,0.0,0,0,0,0
48028000,0,47.397752499999996,8.5456072,490.678,0.0,0.0,0.0,0.0,0.0,0,0,0,0
48128000,0,47.397752499999996,8.5456072,490.679,0.0,0.0,0.0,0.0,0.0,0,0,0,0
48228000,0,47.397752499999996,8.5456072,490.679,0.0,0.0,0.0,0.0,0.0,0,0,0,0
48328000,0,47.397752499999996,8.5456072,490.679,0.0,0.0,0.0,0.0,0.0,0,0,0,0
48428000,0,47.397752499999996,8.5456072,490.68,0.0,0.0,0.0,0.0,0.0,0,0,0,0
48528000,0,47.397752499999996,8.5456072,490.68,0.0,0.0,0.0,0.0,0.0,0,0,0,0
48628000,0,47.397752499999996,8.5456072,490.681,0.0,0.0,0.0,0.0,0.0,0,0,0,0
48728000,0,47.397752499999996,8.5456072,490.682,0.0,0.0,0.0,0.0,0.0,0,0,0,0
48828000,0,47.397752499999996,8.5456072,490.684,0.0,0.0,0.0,0.0,0.0,0,0,0,0
48928000,0,47.397752499999996,8.5456072,490.685,0.0,0.0,0.0,0.0,0.0,0,0,0,0
49028000,0,47.397752499999996,8.5456072,490.687,0.0,0.0,0.0,0.0,0.0,0,0,0,0
49128000,0,47.397752499999996,8.5456072,490.689,0.0,0.0,0.0,0.0,0.0,0,0,0,0
49228000,0,47.397752399999995,8.5456072,490.692,0.0,0.0,0.0,0.0,0.0,0,0,0,0
49328000,0,47.397752399999995,8.5456072,490.694,0.0,0.0,0.0,0.0,0.0,0,0,0,0
49428000,0,47.397752399999995,8.5456072,490.696,0.0,0.0,0.0,0.0,0.0,0,0,0,0
49528000,0,47.397752399999995,8.5456072,490.699,0.0,0.0,0.0,0.0,0.0,0,0,0,0
49628000,0,47.397752399999995,8.5456072,490.702,0.0,0.0,0.0,0.0,0.0,0,0,0,0
49728000,0,47.397752399999995,8.5456072,490.705,0.0,0.0,0.0,0.0,0.0,0,0,0,0
49828000,0,47.397752399999995,8.5456072,490.708,0.0,0.0,0.0,0.0,0.0,0,0,0,0
49928000,0,47.3977523,8.5456072,490.711,0.0,0.0,0.0,0.0,0.0,0,0,0,0
50028000,0,47.3977523,8.5456072,490.714,0.0,0.0,0.0,0.0,0.0,0,0,0,0
50128000,0,47.3977523,8.5456072,490.719,0.0,0.0,0.0,0.0,0.0,0,0,0,0
50228000,0,47.3977523,8.5456072,490.73,0.0,0.0,0.0,0.0,0.0,0,0,0,0
50328000,0,47.3977522,8.5456072,490.749,0.0,0.0,0.0,0.0,0.0,0,0,0,0
50428000,0,47.397752,8.5456071,490.778,0.0,0.0,0.0,0.0,0.0,0,0,0,0
50528000,0,47.397751799999995,8.5456071,490.817,0.0,0.0,0.0,0.0,0.0,0,0,0,0
50628000,0,47.3977515,8.5456071,490.867,0.0,0.0,0.0,0.0,0.0,0,0,0,0
50728000,0,47.3977511,8.5456071,490.922,0.0,0.0,0.0,0.0,0.0,0,0,0,0
50828000,0,47.397750599999995,8.5456071,490.985,0.0,0.0,0.0,0.0,0.0,0,0,0,0
50928000,0,47.397749999999995,8.5456071,491.057,0.0,0.0,0.0,0.0,0.0,0,0,0,0
51028000,0,47.3977493,8.5456071,491.132,0.0,0.0,0.0,0.0,0.0,0,0,0,0
51128000,0,47.3977485,8.545607,491.209,0.0,0.0,0.0,0.0,0.0,0,0,0,0
51228000,0,47.397747599999995,8.545607,491.295,0.0,0.0,0.0,0.0,0.0,0,0,0,0
51328000,0,47.3977467,8.545607,491.379,0.0,0.0,0.0,0.0,0.0,0,0,0,0
51428000,0,47.397745799999996,8.545607,491.462,0.0,0.0,0.0,0.0,0.0,0,0,0,0
51528000,0,47.3977448,8.545607,491.556,0.0,0.0,0.0,0.0,0.0,0,0,0,0
51628000,0,47.3977438,8.5456071,491.642,0.0,0.0,0.0,0.0,0.0,0,0,0,0
51728000,0,47.397742799999996,8.5456071,491.733,0.0,0.0,0.0,0.0,0.0,0,0,0,0
51828000,0,47.3977418,8.5456071,491.821,0.0,0.0,0.0,0.0,0.0,0,0,0,0
51928000,0,47.3977408,8.5456071,491.905,0.0,0.0,0.0,0.0,0.0,0,0,0,0
52028000,0,47.3977398,8.5456071,491.992,0.0,0.0,0.0,0.0,0.0,0,0,0,0
52128000,0,47.397739,8.5456072,492.072,0.0,0.0,0.0,0.0,0.0,0,0,0,0
52228000,0,47.3977381,8.5456072,492.148,0.0,0.0,0.0,0.0,0.0,0,0,0,0
52328000,0,47.3977374,8.5456072,492.221,0.0,0.0,0.0,0.0,0.0,0,0,0,0
52428000,0,47.3977368,8.5456073,492.286,0.0,0.0,0.0,0.0,0.0,0,0,0,0
52528000,0,47.3977362,8.5456073,492.347,0.0,0.0,0.0,0.0,0.0,0,0,0,0
52628000,0,47.3977357,8.5456073,492.4,0.0,0.0,0.0,0.0,0.0,0,0,0,0
52728000,0,47.397735399999995,8.5456074,492.448,0.0,0.0,0.0,0.0,0.0,0,0,0,0
52828000,0,47.3977351,8.5456074,492.486,0.0,0.0,0.0,0.0,0.0,0,0,0,0
52928000,0,47.397735,8.5456074,492.514,0.0,0.0,0.0,0.0,0.0,0,0,0,0
53028000,0,47.397735,8.5456075,492.534,0.0,0.0,0.0,0.0,0.0,0,0,0,0
53128000,0,47.3977351,8.5456075,492.547,0.0,0.0,0.0,0.0,0.0,0,0,0,0
53228000,0,47.397735399999995,8.5456075,492.549,0.0,0.0,0.0,0.0,0.0,0,0,0,0
53328000,0,47.3977357,8.5456075,492.539,0.0,0.0,0.0,0.0,0.0,0,0,0,0
53428000,0,47.3977362,8.5456075,492.519,0.0,0.0,0.0,0.0,0.0,0,0,0,0
53528000,0,47.3977368,8.5456076,492.488,0.0,0.0,0.0,0.0,0.0,0,0,0,0
53628000,0,47.3977375,8.5456076,492.446,0.0,0.0,0.0,0.0,0.0,0,0,0,0
53728000,0,47.3977383,8.5456076,492.39,0.0,0.0,0.0,0.0,0.0,0,0,0,0
53828000,0,47.3977392,8.5456076,492.323,0.0,0.0,0.0,0.0,0.0,0,0,0,0
53928000,0,47.3977402,8.5456075,492.245,0.0,0.0,0.0,0.0,0.0,0,0,0,0
54028000,0,47.3977413,8.5456075,492.159,0.0,0.0,0.0,0.0,0.0,0,0,0,0
54128000,0,47.3977425,8.5456075,492.054,0.0,0.0,0.0,0.0,0.0,0,0,0,0
54228000,0,47.3977437,8.5456075,491.947,0.0,0.0,0.0,0.0,0.0,0,0,0,0
54328000,0,47.397745199999996,8.5456074,491.821,0.0,0.0,0.0,0.0,0.0,0,0,0,0
54428000,0,47.3977466,8.5456074,491.691,0.0,0.0,0.0,0.0,0.0,0,0,0,0
54528000,0,47.397748,8.5456073,491.556,0.0,0.0,0.0,0.0,0.0,0,0,0,0
54628000,0,47.397749499999996,8.5456073,491.408,0.0,0.0,0.0,0.0,0.0,0,0,0,0
54728000,0,47.3977511,8.5456072,491.251,0.0,0.0,0.0,0.0,0.0,0,0,0,0
54828000,0,47.3977528,8.5456072,491.081,0.0,0.0,0.0,0.0,0.0,0,0,0,0
54928000,0,47.3977545,8.5456071,490.911,0.0,0.0,0.0,0.0,0.0,0,0,0,0
55028000,0,47.397756099999995,8.545607,490.735,0.0,0.0,0.0,0.0,0.0,0,0,0,0
55128000,0,47.3977578,8.5456069,490.553,0.0,0.0,0.0,0.0,0.0,0,0,0,0
55228000,0,47.3977595,8.5456068,490.364,0.0,0.0,0.0,0.0,0.0,0,0,0,0
55328000,0,47.3977613,8.5456067,490.167,0.0,0.0,0.0,0.0,0.0,0,0,0,0
55428000,0,47.397763,8.5456066,489.971,0.0,0.0,0.0,0.0,0.0,0,0,0,0
55528000,0,47.3977649,8.5456065,489.758,0.0,0.0,0.0,0.0,0.0,0,0,0,0
55628000,0,47.3977668,8.5456064,489.538,0.0,0.0,0.0,0.0,0.0,0,0,0,0
55728000,0,47.397768899999996,8.5456063,489.301,0.0,0.0,0.0,0.0,0.0,0,0,0,0
55828000,0,47.397771,8.5456062,489.066,0.0,0.0,0.0,0.0,0.0,0,0,0,0
55928000,0,47.397773099999995,8.545606099999999,488.836,0.0,0.0,0.0,0.0,0.0,0,0,0,0
56028000,0,47.3977753,8.5456059,488.603,0.0,0.0,0.0,0.0,0.0,0,0,0,0
56128000,0,47.3977776,8.545605799999999,488.381,0.0,0.0,0.0,0.0,0.0,0,0,0,0
56228000,0,47.39778,8.5456057,488.205,0.0,0.0,0.0,0.0,0.0,0,0,0,0
56328000,0,47.3977818,8.545605499999999,488.131,0.0,0.0,0.0,0.0,0.0,0,0,0,0
56428000,0,47.3977831,8.545605799999999,488.111,0.0,0.0,0.0,0.0,0.0,0,0,0,0
56528000,0,47.397783999999994,8.5456059,488.111,0.0,0.0,0.0,0.0,0.0,0,0,0,0
56628000,0,47.3977846,8.545606,488.116,0.0,0.0,0.0,0.0,0.0,0,0,0,0
56728000,0,47.3977848,8.545606,488.122,0.0,0.0,0.0,0.0,0.0,0,0,0,0
56828000,0,47.3977848,8.545606,488.128,0.0,0.0,0.0,0.0,0.0,0,0,0,0
56928000,0,47.3977848,8.5456059,488.13,0.0,0.0,0.0,0.0,0.0,0,0,0,0
57028000,0,47.3977848,8.545605799999999,488.131,0.0,0.0,0.0,0.0,0.0,0,0,0,0
57128000,0,47.3977848,8.545605799999999,488.116,0.0,0.0,0.0,0.0,0.0,0,0,0,0
57228000,0,47.3977848,8.545605799999999,488.104,0.0,0.0,0.0,0.0,0.0,0,0,0,0
57328000,0,47.3977848,8.545605799999999,488.104,0.0,0.0,0.0,0.0,0.0,0,0,0,0
57428000,0,47.3977848,8.545605799999999,488.104,0.0,0.0,0.0,0.0,0.0,0,0,0,0
57528000,0,47.3977848,8.545605799999999,488.104,0.0,0.0,0.0,0.0,0.0,0,0,0,0
57628000,0,47.3977848,8.545605799999999,488.104,0.0,0.0,0.0,0.0,0.0,0,0,0,0
57728000,0,47.3977848,8.545605799999999,488.104,0.0,0.0,0.0,0.0,0.0,0,0,0,0
57828000,0,47.3977848,8.545605799999999,488.104,0.0,0.0,0.0,0.0,0.0,0,0,0,0
57928000,0,47.3977848,8.545605799999999,488.104,0.0,0.0,0.0,0.0,0.0,0,0,0,0
58028000,0,47.3977848,8.545605799999999,488.104,0.0,0.0,0.0,0.0,0.0,0,0,0,0
58128000,0,47.3977848,8.545605799999999,488.104,0.0,0.0,0.0,0.0,0.0,0,0,0,0
58228000,0,47.3977848,8.545605799999999,488.104,0.0,0.0,0.0,0.0,0.0,0,0,0,0
58328000,0,47.3977848,8.545605799999999,488.104,0.0,0.0,0.0,0.0,0.0,0,0,0,0
58428000,0,47.3977848,8.545605799999999,488.104,0.0,0.0,0.0,0.0,0.0,0,0,0,0
58528000,0,47.3977848,8.545605799999999,488.104,0.0,0.0,0.0,0.0,0.0,0,0,0,0
58628000,0,47.3977848,8.545605799999999,488.104,0.0,0.0,0.0,0.0,0.0,0,0,0,0
58728000,0,47.3977848,8.545605799999999,488.104,0.0,0.0,0.0,0.0,0.0,0,0,0,0
58828000,0,47.3977848,8.545605799999999,488.104,0.0,0.0,0.0,0.0,0.0,0,0,0,0
58928000,0,47.3977848,8.545605799999999,488.104,0.0,0.0,0.0,0.0,0.0,0,0,0,0
59028000,0,47.3977848,8.545605799999999,488.104,0.0,0.0,0.0,0.0,0.0,0,0,0,0
59128000,0,47.3977848,8.545605799999999,488.104,0.0,0.0,0.0,0.0,0.0,0,0,0,0
59228000,0,47.3977848,8.545605799999999,488.104,0.0,0.0,0.0,0.0,0.0,0,0,0,0
59328000,0,47.3977848,8.545605799999999,488.104,0.0,0.0,0.0,0.0,0.0,0,0,0,0
59428000,0,47.3977848,8.545605799999999,488.104,0.0,0.0,0.0,0.0,0.0,0,0,0,0
59528000,0,47.3977848,8.545605799999999,488.104,0.0,0.0,0.0,0.0,0.0,0,0,0,0
59628000,0,47.3977848,8.545605799999999,488.104,0.0,0.0,0.0,0.0,0.0,0,0,0,0
59728000,0,47.3977848,8.545605799999999,488.104,0.0,0.0,0.0,0.0,0.0,0,0,0,0
59828000,0,47.3977848,8.545605799999999,488.104,0.0,0.0,0.0,0.0,0.0,0,0,0,0
59928000,0,47.3977848,8.545605799999999,488.104,0.0,0.0,0.0,0.0,0.0,0,0,0,0
60028000,0,47.3977848,8.545605799999999,488.104,0.0,0.0,0.0,0.0,0.0,0,0,0,0
60128000,0,47.3977848,8.545605799999999,488.104,0.0,0.0,0.0,0.0,0.0,0,0,0,0
60228000,0,47.3977848,8.545605799999999,488.104,0.0,0.0,0.0,0.0,0.0,0,0,0,0
60328000,0,47.3977848,8.545605799999999,488.104,0.0,0.0,0.0,0.0,0.0,0,0,0,0
60428000,0,47.3977848,8.545605799999999,488.104,0.0,0.0,0.0,0.0,0.0,0,0,0,0
60528000,0,47.3977848,8.545605799999999,488.104,0.0,0.0,0.0,0.0,0.0,0,0,0,0
60628000,0,47.3977848,8.545605799999999,488.104,0.0,0.0,0.0,0.0,0.0,0,0,0,0
60728000,0,47.3977848,8.545605799999999,488.104,0.0,0.0,0.0,0.0,0.0,0,0,0,0
60828000,0,47.3977848,8.545605799999999,488.104,0.0,0.0,0.0,0.0,0.0,0,0,0,0
60928000,0,47.3977848,8.545605799999999,488.105,0.0,0.0,0.0,0.0,0.0,0,0,0,0
61028000,0,47.3977848,8.545605799999999,488.107,0.0,0.0,0.0,0.0,0.0,0,0,0,0
61128000,0,47.3977848,8.545605799999999,488.109,0.0,0.0,0.0,0.0,0.0,0,0,0,0
61228000,0,47.3977848,8.545605799999999,488.112,0.0,0.0,0.0,0.0,0.0,0,0,0,0
61328000,0,47.3977848,8.5456059,488.117,0.0,0.0,0.0,0.0,0.0,0,0,0,0
61428000,0,47.3977848,8.5456059,488.122,0.0,0.0,0.0,0.0,0.0,0,0,0,0
61528000,0,47.3977848,8.5456059,488.124,0.0,0.0,0.0,0.0,0.0,0,0,0,0
61628000,0,47.3977848,8.5456059,488.128,0.0,0.0,0.0,0.0,0.0,0,0,0,0
61728000,0,47.3977848,8.5456059,488.132,0.0,0.0,0.0,0.0,0.0,0,0,0,0
61828000,0,47.3977848,8.5456059,488.135,0.0,0.0,0.0,0.0,0.0,0,0,0,0
61928000,0,47.3977848,8.5456059,488.136,0.0,0.0,0.0,0.0,0.0,0,0,0,0
62028000,0,47.3977848,8.5456059,488.137,0.0,0.0,0.0,0.0,0.0,0,0,0,0
62128000,0,47.3977849,8.5456059,488.139,0.0,0.0,0.0,0.0,0.0,0,0,0,0
62228000,0,47.3977849,8.5456059,488.14,0.0,0.0,0.0,0.0,0.0,0,0,0,0
62328000,0,47.397785,8.545606,488.139,0.0,0.0,0.0,0.0,0.0,0,0,0,0
62428000,0,47.3977852,8.545606099999999,488.138,0.0,0.0,0.0,0.0,0.0,0,0,0,0
62528000,0,47.397785299999995,8.5456063,488.139,0.0,0.0,0.0,0.0,0.0,0,0,0,0
62628000,0,47.3977856,8.5456066,488.139,0.0,0.0,0.0,0.0,0.0,0,0,0,0
62728000,0,47.3977858,8.5456071,488.138,0.0,0.0,0.0,0.0,0.0,0,0,0,0
62828000,0,47.3977861,8.5456076,488.138,0.0,0.0,0.0,0.0,0.0,0,0,0,0
62928000,0,47.397786499999995,8.5456083,488.139,0.0,0.0,0.0,0.0,0.0,0,0,0,0
63028000,0,47.3977868,8.5456091,488.141,0.0,0.0,0.0,0.0,0.0,0,0,0,0
63128000,0,47.397787199999996,8.54561,488.138,0.0,0.0,0.0,0.0,0.0,0,0,0,0
63228000,0,47.3977875,8.5456108,488.109,0.0,0.0,0.0,0.0,0.0,0,0,0,0
63328000,0,47.3977875,8.5456108,488.104,0.0,0.0,0.0,0.0,0.0,0,0,0,0
63428000,0,47.3977875,8.5456108,488.104,0.0,0.0,0.0,0.0,0.0,0,0,0,0
63528000,0,47.3977875,8.5456108,488.104,0.0,0.0,0.0,0.0,0.0,0,0,0,0
63628000,0,47.3977875,8.5456108,488.104,0.0,0.0,0.0,0.0,0.0,0,0,0,0
63728000,0,47.3977875,8.5456108,488.104,0.0,0.0,0.0,0.0,0.0,0,0,0,0
63828000,0,47.3977875,8.5456108,488.104,0.0,0.0,0.0,0.0,0.0,0,0,0,0
63928000,0,47.3977875,8.5456108,488.104,0.0,0.0,0.0,0.0,0.0,0,0,0,0
64028000,0,47.3977875,8.5456108,488.104,0.0,0.0,0.0,0.0,0.0,0,0,0,0
64128000,0,47.3977875,8.5456108,488.104,0.0,0.0,0.0,0.0,0.0,0,0,0,0
64228000,0,47.3977875,8.5456108,488.104,0.0,0.0,0.0,0.0,0.0,0,0,0,0
64328000,0,47.3977875,8.5456108,488.104,0.0,0.0,0.0,0.0,0.0,0,0,0,0
64428000,0,47.3977875,8.5456108,488.104,0.0,0.0,0.0,0.0,0.0,0,0,0,0
64528000,0,47.3977875,8.5456108,488.104,0.0,0.0,0.0,0.0,0.0,0,0,0,0
64628000,0,47.3977875,8.5456108,488.104,0.0,0.0,0.0,0.0,0.0,0,0,0,0
64728000,0,47.3977875,8.5456108,488.104,0.0,0.0,0.0,0.0,0.0,0,0,0,0
64828000,0,47.3977875,8.5456108,488.105,0.0,0.0,0.0,0.0,0.0,0,0,0,0
64928000,0,47.3977875,8.5456108,488.11,0.0,0.0,0.0,0.0,0.0,0,0,0,0
65028000,0,47.3977875,8.5456108,488.116,0.0,0.0,0.0,0.0,0.0,0,0,0,0
65128000,0,47.3977875,8.5456109,488.119,0.0,0.0,0.0,0.0,0.0,0,0,0,0
65228000,0,47.3977875,8.5456109,488.118,0.0,0.0,0.0,0.0,0.0,0,0,0,0
65328000,0,47.3977875,8.5456108,488.115,0.0,0.0,0.0,0.0,0.0,0,0,0,0
65428000,0,47.3977875,8.5456108,488.11,0.0,0.0,0.0,0.0,0.0,0,0,0,0
65528000,0,47.3977875,8.5456108,488.104,0.0,0.0,0.0,0.0,0.0,0,0,0,0
65628000,0,47.3977875,8.5456108,488.104,0.0,0.0,0.0,0.0,0.0,0,0,0,0
65728000,0,47.3977875,8.5456108,488.104,0.0,0.0,0.0,0.0,0.0,0,0,0,0
65828000,0,47.3977875,8.5456108,488.104,0.0,0.0,0.0,0.0,0.0,0,0,0,0
65928000,0,47.3977875,8.5456108,488.104,0.0,0.0,0.0,0.0,0.0,0,0,0,0
66028000,0,47.3977875,8.5456108,488.104,0.0,0.0,0.0,0.0,0.0,0,0,0,0
66128000,0,47.3977875,8.5456108,488.104,0.0,0.0,0.0,0.0,0.0,0,0,0,0
66228000,0,47.3977875,8.5456108,488.104,0.0,0.0,0.0,0.0,0.0,0,0,0,0
66328000,0,47.3977875,8.5456108,488.104,0.0,0.0,0.0,0.0,0.0,0,0,0,0
66428000,0,47.3977875,8.5456108,488.104,0.0,0.0,0.0,0.0,0.0,0,0,0,0
66528000,0,47.3977875,8.5456108,488.104,0.0,0.0,0.0,0.0,0.0,0,0,0,0
66628000,0,47.3977875,8.5456108,488.104,0.0,0.0,0.0,0.0,0.0,0,0,0,0
66728000,0,47.3977875,8.5456108,488.104,0.0,0.0,0.0,0.0,0.0,0,0,0,0
66828000,0,47.3977875,8.5456108,488.104,0.0,0.0,0.0,0.0,0.0,0,0,0,0
66928000,0,47.3977875,8.5456108,488.104,0.0,0.0,0.0,0.0,0.0,0,0,0,0
67028000,0,47.3977875,8.5456108,488.104,0.0,0.0,0.0,0.0,0.0,0,0,0,0
67128000,0,47.3977875,8.5456108,488.104,0.0,0.0,0.0,0.0,0.0,0,0,0,0
67228000,0,47.3977875,8.5456108,488.104,0.0,0.0,0.0,0.0,0.0,0,0,0,0
67328000,0,47.3977875,8.5456108,488.104,0.0,0.0,0.0,0.0,0.0,0,0,0,0
67428000,0,47.3977875,8.5456108,488.104,0.0,0.0,0.0,0.0,0.0,0,0,0,0
67528000,0,47.3977875,8.5456108,488.104,0.0,0.0,0.0,0.0,0.0,0,0,0,0
67628000,0,47.3977875,8.5456108,488.104,0.0,0.0,0.0,0.0,0.0,0,0,0,0
67728000,0,47.3977875,8.5456108,488.104,0.0,0.0,0.0,0.0,0.0,0,0,0,0
67828000,0,47.3977875,8.5456108,488.104,0.0,0.0,0.0,0.0,0.0,0,0,0,0
67928000,0,47.3977875,8.5456108,488.104,0.0,0.0,0.0,0.0,0.0,0,0,0,0
68028000,0,47.3977875,8.5456108,488.104,0.0,0.0,0.0,0.0,0.0,0,0,0,0
68128000,0,47.3977875,8.5456108,488.104,0.0,0.0,0.0,0.0,0.0,0,0,0,0
68228000,0,47.3977875,8.5456108,488.104,0.0,0.0,0.0,0.0,0.0,0,0,0,0
68328000,0,47.3977875,8.5456108,488.104,0.0,0.0,0.0,0.0,0.0,0,0,0,0
68428000,0,47.3977875,8.5456108,488.104,0.0,0.0,0.0,0.0,0.0,0,0,0,0
68528000,0,47.3977875,8.5456108,488.104,0.0,0.0,0.0,0.0,0.0,0,0,0,0
68628000,0,47.3977875,8.5456108,488.104,0.0,0.0,0.0,0.0,0.0,0,0,0,0
68728000,0,47.3977875,8.5456108,488.104,0.0,0.0,0.0,0.0,0.0,0,0,0,0
68828000,0,47.3977875,8.5456108,488.104,0.0,0.0,0.0,0.0,0.0,0,0,0,0
68928000,0,47.3977875,8.5456108,488.104,0.0,0.0,0.0,0.0,0.0,0,0,0,0
69028000,0,47.3977875,8.5456108,488.104,0.0,0.0,0.0,0.0,0.0,0,0,0,0
69128000,0,47.3977875,8.5456108,488.104,0.0,0.0,0.0,0.0,0.0,0,0,0,0
69228000,0,47.3977875,8.5456108,488.104,0.0,0.0,0.0,0.0,0.0,0,0,0,0
69328000,0,47.3977875,8.5456108,488.104,0.0,0.0,0.0,0.0,0.0,0,0,0,0
69428000,0,47.3977875,8.5456108,488.104,0.0,0.0,0.0,0.0,0.0,0,0,0,0
69528000,0,47.3977875,8.5456108,488.104,0.0,0.0,0.0,0.0,0.0,0,0,0,0
69628000,0,47.3977875,8.5456108,488.104,0.0,0.0,0.0,0.0,0.0,0,0,0,0
69728000,0,47.3977875,8.5456108,488.104,0.0,0.0,0.0,0.0,0.0,0,0,0,0
69828000,0,47.3977875,8.5456108,488.104,0.0,0.0,0.0,0.0,0.0,0,0,0,0
69928000,0,47.3977875,8.5456108,488.104,0.0,0.0,0.0,0.0,0.0,0,0,0,0
70028000,0,47.3977875,8.5456108,488.104,0.0,0.0,0.0,0.0,0.0,0,0,0,0
70128000,0,47.3977875,8.5456108,488.104,0.0,0.0,0.0,0.0,0.0,0,0,0,0
70228000,0,47.3977875,8.5456108,488.104,0.0,0.0,0.0,0.0,0.0,0,0,0,0
70328000,0,47.3977875,8.5456108,488.104,0.0,0.0,0.0,0.0,0.0,0,0,0,0
70428000,0,47.3977875,8.5456108,488.104,0.0,0.0,0.0,0.0,0.0,0,0,0,0
70528000,0,47.3977875,8.5456108,488.104,0.0,0.0,0.0,0.0,0.0,0,0,0,0
70628000,0,47.3977875,8.5456108,488.104,0.0,0.0,0.0,0.0,0.0,0,0,0,0
70728000,0,47.3977875,8.5456108,488.104,0.0,0.0,0.0,0.0,0.0,0,0,0,0
70828000,0,47.3977875,8.5456108,488.104,0.0,0.0,0.0,0.0,0.0,0,0,0,0
70928000,0,47.3977875,8.5456108,488.104,0.0,0.0,0.0,0.0,0.0,0,0,0,0
71028000,0,47.3977875,8.5456108,488.104,0.0,0.0,0.0,0.0,0.0,0,0,0,0
71128000,0,47.3977875,8.5456108,488.104,0.0,0.0,0.0,0.0,0.0,0,0,0,0
71228000,0,47.3977875,8.5456108,488.104,0.0,0.0,0.0,0.0,0.0,0,0,0,0
71328000,0,47.3977875,8.5456108,488.104,0.0,0.0,0.0,0.0,0.0,0,0,0,0
71428000,0,47.3977875,8.5456108,488.104,0.0,0.0,0.0,0.0,0.0,0,0,0,0
71528000,0,47.3977875,8.5456108,488.104,0.0,0.0,0.0,0.0,0.0,0,0,0,0
71628000,0,47.3977875,8.5456108,488.104,0.0,0.0,0.0,0.0,0.0,0,0,0,0
71728000,0,47.3977875,8.5456108,488.104,0.0,0.0,0.0,0.0,0.0,0,0,0,0
71828000,0,47.3977875,8.5456108,488.104,0.0,0.0,0.0,0.0,0.0,0,0,0,0
71928000,0,47.3977875,8.5456108,488.104,0.0,0.0,0.0,0.0,0.0,0,0,0,0
72028000,0,47.3977875,8.5456108,488.104,0.0,0.0,0.0,0.0,0.0,0,0,0,0
72128000,0,47.3977875,8.5456108,488.104,0.0,0.0,0.0,0.0,0.0,0,0,0,0
72228000,0,47.3977875,8.5456108,488.104,0.0,0.0,0.0,0.0,0.0,0,0,0,0
72328000,0,47.3977875,8.5456108,488.104,0.0,0.0,0.0,0.0,0.0,0,0,0,0
72428000,0,47.3977875,8.5456108,488.104,0.0,0.0,0.0,0.0,0.0,0,0,0,0
72528000,0,47.3977875,8.5456108,488.104,0.0,0.0,0.0,0.0,0.0,0,0,0,0
72628000,0,47.3977875,8.5456108,488.104,0.0,0.0,0.0,0.0,0.0,0,0,0,0
72728000,0,47.3977875,8.5456108,488.104,0.0,0.0,0.0,0.0,0.0,0,0,0,0
72828000,0,47.3977875,8.5456108,488.104,0.0,0.0,0.0,0.0,0.0,0,0,0,0
72928000,0,47.3977875,8.5456108,488.104,0.0,0.0,0.0,0.0,0.0,0,0,0,0
73028000,0,47.3977875,8.5456108,488.104,0.0,0.0,0.0,0.0,0.0,0,0,0,0
73128000,0,47.3977875,8.5456108,488.104,0.0,0.0,0.0,0.0,0.0,0,0,0,0
73228000,0,47.3977875,8.5456108,488.104,0.0,0.0,0.0,0.0,0.0,0,0,0,0
73328000,0,47.3977875,8.5456108,488.104,0.0,0.0,0.0,0.0,0.0,0,0,0,0
73428000,0,47.3977875,8.5456108,488.104,0.0,0.0,0.0,0.0,0.0,0,0,0,0
73528000,0,47.3977875,8.5456108,488.104,0.0,0.0,0.0,0.0,0.0,0,0,0,0
73628000,0,47.3977875,8.5456108,488.104,0.0,0.0,0.0,0.0,0.0,0,0,0,0
73728000,0,47.3977875,8.5456108,488.104,0.0,0.0,0.0,0.0,0.0,0,0,0,0
73828000,0,47.3977875,8.5456108,488.104,0.0,0.0,0.0,0.0,0.0,0,0,0,0
73928000,0,47.3977875,8.5456108,488.104,0.0,0.0,0.0,0.0,0.0,0,0,0,0
74028000,0,47.3977875,8.5456108,488.104,0.0,0.0,0.0,0.0,0.0,0,0,0,0
74128000,0,47.3977875,8.5456108,488.104,0.0,0.0,0.0,0.0,0.0,0,0,0,0
74228000,0,47.3977875,8.5456108,488.104,0.0,0.0,0.0,0.0,0.0,0,0,0,0
74328000,0,47.3977875,8.5456108,488.104,0.0,0.0,0.0,0.0,0.0,0,0,0,0
74428000,0,47.3977875,8.5456108,488.104,0.0,0.0,0.0,0.0,0.0,0,0,0,0
74528000,0,47.3977875,8.5456108,488.104,0.0,0.0,0.0,0.0,0.0,0,0,0,0
74628000,0,47.3977875,8.5456108,488.104,0.0,0.0,0.0,0.0,0.0,0,0,0,0
74728000,0,47.3977875,8.5456108,488.104,0.0,0.0,0.0,0.0,0.0,0,0,0,0
74828000,0,47.3977875,8.5456108,488.104,0.0,0.0,0.0,0.0,0.0,0,0,0,0
74928000,0,47.3977875,8.5456108,488.104,0.0,0.0,0.0,0.0,0.0,0,0,0,0
75028000,0,47.3977875,8.5456108,488.104,0.0,0.0,0.0,0.0,0.0,0,0,0,0
75128000,0,47.3977875,8.5456108,488.104,0.0,0.0,0.0,0.0,0.0,0,0,0,0
75228000,0,47.3977875,8.5456108,488.104,0.0,0.0,0.0,0.0,0.0,0,0,0,0
75328000,0,47.3977875,8.5456108,488.104,0.0,0.0,0.0,0.0,0.0,0,0,0,0
75428000,0,47.3977875,8.5456108,488.104,0.0,0.0,0.0,0.0,0.0,0,0,0,0
75528000,0,47.3977875,8.5456108,488.104,0.0,0.0,0.0,0.0,0.0,0,0,0,0
75628000,0,47.3977875,8.5456108,488.104,0.0,0.0,0.0,0.0,0.0,0,0,0,0
75728000,0,47.3977875,8.5456108,488.104,0.0,0.0,0.0,0.0,0.0,0,0,0,0
75828000,0,47.3977875,8.5456108,488.104,0.0,0.0,0.0,0.0,0.0,0,0,0,0
75928000,0,47.3977875,8.5456108,488.104,0.0,0.0,0.0,0.0,0.0,0,0,0,0
76028000,0,47.3977875,8.5456108,488.104,0.0,0.0,0.0,0.0,0.0,0,0,0,0
76128000,0,47.3977875,8.5456108,488.104,0.0,0.0,0.0,0.0,0.0,0,0,0,0
76228000,0,47.3977875,8.5456108,488.104,0.0,0.0,0.0,0.0,0.0,0,0,0,0
76328000,0,47.3977875,8.5456108,488.104,0.0,0.0,0.0,0.0,0.0,0,0,0,0
76428000,0,47.3977875,8.5456108,488.104,0.0,0.0,0.0,0.0,0.0,0,0,0,0
76528000,0,47.3977875,8.5456108,488.104,0.0,0.0,0.0,0.0,0.0,0,0,0,0
76628000,0,47.3977875,8.5456108,488.104,0.0,0.0,0.0,0.0,0.0,0,0,0,0
76728000,0,47.3977875,8.5456108,488.104,0.0,0.0,0.0,0.0,0.0,0,0,0,0
76828000,0,47.3977875,8.5456108,488.104,0.0,0.0,0.0,0.0,0.0,0,0,0,0
76928000,0,47.3977875,8.5456108,488.104,0.0,0.0,0.0,0.0,0.0,0,0,0,0
77028000,0,47.3977875,8.5456108,488.104,0.0,0.0,0.0,0.0,0.0,0,0,0,0
77128000,0,47.3977875,8.5456108,488.104,0.0,0.0,0.0,0.0,0.0,0,0,0,0
77228000,0,47.3977875,8.5456108,488.104,0.0,0.0,0.0,0.0,0.0,0,0,0,0
77328000,0,47.3977875,8.5456108,488.104,0.0,0.0,0.0,0.0,0.0,0,0,0,0
77428000,0,47.3977875,8.5456108,488.104,0.0,0.0,0.0,0.0,0.0,0,0,0,0
77528000,0,47.3977875,8.5456108,488.104,0.0,0.0,0.0,0.0,0.0,0,0,0,0
77628000,0,47.3977875,8.5456108,488.104,0.0,0.0,0.0,0.0,0.0,0,0,0,0
77728000,0,47.3977875,8.5456108,488.104,0.0,0.0,0.0,0.0,0.0,0,0,0,0
77828000,0,47.3977875,8.5456108,488.104,0.0,0.0,0.0,0.0,0.0,0,0,0,0
77928000,0,47.3977875,8.5456108,488.104,0.0,0.0,0.0,0.0,0.0,0,0,0,0
78028000,0,47.3977875,8.5456108,488.104,0.0,0.0,0.0,0.0,0.0,0,0,0,0
78128000,0,47.3977875,8.5456108,488.104,0.0,0.0,0.0,0.0,0.0,0,0,0,0
78228000,0,47.3977875,8.5456108,488.104,0.0,0.0,0.0,0.0,0.0,0,0,0,0
78328000,0,47.3977875,8.5456108,488.104,0.0,0.0,0.0,0.0,0.0,0,0,0,0
78428000,0,47.3977875,8.5456108,488.104,0.0,0.0,0.0,0.0,0.0,0,0,0,0
78528000,0,47.3977875,8.5456108,488.104,0.0,0.0,0.0,0.0,0.0,0,0,0,0
78628000,0,47.3977875,8.5456108,488.104,0.0,0.0,0.0,0.0,0.0,0,0,0,0
78728000,0,47.3977875,8.5456108,488.104,0.0,0.0,0.0,0.0,0.0,0,0,0,0
78828000,0,47.3977875,8.5456108,488.104,0.0,0.0,0.0,0.0,0.0,0,0,0,0
78928000,0,47.3977875,8.5456108,488.104,0.0,0.0,0.0,0.0,0.0,0,0,0,0
79028000,0,47.3977875,8.5456108,488.104,0.0,0.0,0.0,0.0,0.0,0,0,0,0
79128000,0,47.3977875,8.5456108,488.104,0.0,0.0,0.0,0.0,0.0,0,0,0,0
79228000,0,47.3977875,8.5456108,488.104,0.0,0.0,0.0,0.0,0.0,0,0,0,0
79328000,0,47.3977875,8.5456108,488.104,0.0,0.0,0.0,0.0,0.0,0,0,0,0
79428000,0,47.3977875,8.5456108,488.104,0.0,0.0,0.0,0.0,0.0,0,0,0,0
79528000,0,47.3977875,8.5456108,488.104,0.0,0.0,0.0,0.0,0.0,0,0,0,0
79628000,0,47.3977875,8.5456108,488.104,0.0,0.0,0.0,0.0,0.0,0,0,0,0
79728000,0,47.3977875,8.5456108,488.104,0.0,0.0,0.0,0.0,0.0,0,0,0,0
79828000,0,47.3977875,8.5456108,488.104,0.0,0.0,0.0,0.0,0.0,0,0,0,0
79928000,0,47.3977875,8.5456108,488.104,0.0,0.0,0.0,0.0,0.0,0,0,0,0
80028000,0,47.3977875,8.5456108,488.104,0.0,0.0,0.0,0.0,0.0,0,0,0,0
80128000,0,47.3977875,8.5456108,488.104,0.0,0.0,0.0,0.0,0.0,0,0,0,0
80228000,0,47.3977875,8.5456108,488.104,0.0,0.0,0.0,0.0,0.0,0,0,0,0
80328000,0,47.3977875,8.5456108,488.104,0.0,0.0,0.0,0.0,0.0,0,0,0,0
80428000,0,47.3977875,8.5456108,488.104,0.0,0.0,0.0,0.0,0.0,0,0,0,0
80528000,0,47.3977875,8.5456108,488.104,0.0,0.0,0.0,0.0,0.0,0,0,0,0
80628000,0,47.3977875,8.5456108,488.104,0.0,0.0,0.0,0.0,0.0,0,0,0,0
80728000,0,47.3977875,8.5456108,488.104,0.0,0.0,0.0,0.0,0.0,0,0,0,0
80828000,0,47.3977875,8.5456108,488.104,0.0,0.0,0.0,0.0,0.0,0,0,0,0
80928000,0,47.3977875,8.5456108,488.106,0.0,0.0,0.0,0.0,0.0,0,0,0,0
81028000,0,47.3977875,8.5456108,488.117,0.0,0.0,0.0,0.0,0.0,0,0,0,0
81128000,0,47.3977874,8.5456109,488.138,0.0,0.0,0.0,0.0,0.0,0,0,0,0
81228000,0,47.3977873,8.545611,488.163,0.0,0.0,0.0,0.0,0.0,0,0,0,0
81328000,0,47.397787199999996,8.5456113,488.188,0.0,0.0,0.0,0.0,0.0,0,0,0,0
81428000,0,47.397787,8.545611899999999,488.218,0.0,0.0,0.0,0.0,0.0,0,0,0,0
81528000,0,47.397786499999995,8.5456126,488.246,0.0,0.0,0.0,0.0,0.0,0,0,0,0
81628000,0,47.397785899999995,8.5456133,488.264,0.0,0.0,0.0,0.0,0.0,0,0,0,0
81728000,0,47.397785,8.5456138,488.269,0.0,0.0,0.0,0.0,0.0,0,0,0,0
81828000,0,47.3977838,8.5456138,488.281,0.0,0.0,0.0,0.0,0.0,0,0,0,0
81928000,0,47.3977825,8.5456136,488.289,0.0,0.0,0.0,0.0,0.0,0,0,0,0
82028000,0,47.397780999999995,8.5456132,488.289,0.0,0.0,0.0,0.0,0.0,0,0,0,0
82128000,0,47.397779299999996,8.5456126,488.288,0.0,0.0,0.0,0.0,0.0,0,0,0,0
82228000,0,47.397777399999995,8.5456117,488.291,0.0,0.0,0.0,0.0,0.0,0,0,0,0
82328000,0,47.397775599999996,8.5456107,488.225,0.0,0.0,0.0,0.0,0.0,0,0,0,0
82428000,0,47.397774299999995,8.5456102,488.104,0.0,0.0,0.0,0.0,0.0,0,0,0,0
82528000,0,47.397774299999995,8.5456102,488.104,0.0,0.0,0.0,0.0,0.0,0,0,0,0
82628000,0,47.397774299999995,8.5456102,488.104,0.0,0.0,0.0,0.0,0.0,0,0,0,0
82728000,0,47.397774299999995,8.5456102,488.104,0.0,0.0,0.0,0.0,0.0,0,0,0,0
82828000,0,47.397774299999995,8.5456102,488.104,0.0,0.0,0.0,0.0,0.0,0,0,0,0
82928000,0,47.397774299999995,8.5456102,488.104,0.0,0.0,0.0,0.0,0.0,0,0,0,0
83028000,0,47.397774299999995,8.5456102,488.104,0.0,0.0,0.0,0.0,0.0,0,0,0,0
83128000,0,47.397774299999995,8.5456102,488.104,0.0,0.0,0.0,0.0,0.0,0,0,0,0
83228000,0,47.397774299999995,8.5456102,488.104,0.0,0.0,0.0,0.0,0.0,0,0,0,0
83328000,0,47.397774299999995,8.5456102,488.104,0.0,0.0,0.0,0.0,0.0,0,0,0,0
83428000,0,47.397774299999995,8.5456102,488.104,0.0,0.0,0.0,0.0,0.0,0,0,0,0
83528000,0,47.397774299999995,8.5456102,488.104,0.0,0.0,0.0,0.0,0.0,0,0,0,0
83628000,0,47.397774299999995,8.5456102,488.104,0.0,0.0,0.0,0.0,0.0,0,0,0,0
83728000,0,47.397774299999995,8.5456102,488.104,0.0,0.0,0.0,0.0,0.0,0,0,0,0
83828000,0,47.397774299999995,8.5456102,488.104,0.0,0.0,0.0,0.0,0.0,0,0,0,0
83928000,0,47.397774299999995,8.5456102,488.104,0.0,0.0,0.0,0.0,0.0,0,0,0,0
84028000,0,47.397774299999995,8.5456102,488.104,0.0,0.0,0.0,0.0,0.0,0,0,0,0
84128000,0,47.397774299999995,8.5456102,488.104,0.0,0.0,0.0,0.0,0.0,0,0,0,0
84228000,0,47.397774299999995,8.5456102,488.104,0.0,0.0,0.0,0.0,0.0,0,0,0,0
84328000,0,47.397774299999995,8.5456102,488.104,0.0,0.0,0.0,0.0,0.0,0,0,0,0
84428000,0,47.397774299999995,8.5456102,488.104,0.0,0.0,0.0,0.0,0.0,0,0,0,0
84528000,0,47.397774299999995,8.5456102,488.104,0.0,0.0,0.0,0.0,0.0,0,0,0,0
84628000,0,47.397774299999995,8.5456102,488.104,0.0,0.0,0.0,0.0,0.0,0,0,0,0
84728000,0,47.397774299999995,8.5456102,488.104,0.0,0.0,0.0,0.0,0.0,0,0,0,0
84828000,0,47.397774299999995,8.5456102,488.104,0.0,0.0,0.0,0.0,0.0,0,0,0,0
84928000,0,47.397774299999995,8.5456102,488.104,0.0,0.0,0.0,0.0,0.0,0,0,0,0
85028000,0,47.397774299999995,8.5456102,488.104,0.0,0.0,0.0,0.0,0.0,0,0,0,0
85128000,0,47.397774299999995,8.5456102,488.104,0.0,0.0,0.0,0.0,0.0,0,0,0,0
85228000,0,47.397774299999995,8.5456102,488.104,0.0,0.0,0.0,0.0,0.0,0,0,0,0
85328000,0,47.397774299999995,8.5456102,488.104,0.0,0.0,0.0,0.0,0.0,0,0,0,0
85428000,0,47.397774299999995,8.5456102,488.104,0.0,0.0,0.0,0.0,0.0,0,0,0,0
85528000,0,47.397774299999995,8.5456102,488.104,0.0,0.0,0.0,0.0,0.0,0,0,0,0
85628000,0,47.397774299999995,8.5456102,488.104,0.0,0.0,0.0,0.0,0.0,0,0,0,0
85728000,0,47.397774299999995,8.5456102,488.104,0.0,0.0,0.0,0.0,0.0,0,0,0,0
85828000,0,47.397774299999995,8.5456102,488.104,0.0,0.0,0.0,0.0,0.0,0,0,0,0
85928000,0,47.397774299999995,8.5456102,488.104,0.0,0.0,0.0,0.0,0.0,0,0,0,0
86028000,0,47.397774299999995,8.5456102,488.104,0.0,0.0,0.0,0.0,0.0,0,0,0,0
86128000,0,47.397774299999995,8.5456102,488.104,0.0,0.0,0.0,0.0,0.0,0,0,0,0
86228000,0,47.397774299999995,8.5456102,488.104,0.0,0.0,0.0,0.0,0.0,0,0,0,0
86328000,0,47.397774299999995,8.5456102,488.104,0.0,0.0,0.0,0.0,0.0,0,0,0,0
86428000,0,47.397774299999995,8.5456102,488.104,0.0,0.0,0.0,0.0,0.0,0,0,0,0
86528000,0,47.397774299999995,8.5456102,488.104,0.0,0.0,0.0,0.0,0.0,0,0,0,0
86628000,0,47.397774299999995,8.5456102,488.104,0.0,0.0,0.0,0.0,0.0,0,0,0,0
86728000,0,47.397774299999995,8.5456102,488.104,0.0,0.0,0.0,0.0,0.0,0,0,0,0
86828000,0,47.397774299999995,8.5456102,488.104,0.0,0.0,0.0,0.0,0.0,0,0,0,0
86928000,0,47.397774299999995,8.5456102,488.104,0.0,0.0,0.0,0.0,0.0,0,0,0,0
87028000,0,47.397774299999995,8.5456102,488.104,0.0,0.0,0.0,0.0,0.0,0,0,0,0
87128000,0,47.397774299999995,8.5456102,488.104,0.0,0.0,0.0,0.0,0.0,0,0,0,0
87228000,0,47.397774299999995,8.5456102,488.104,0.0,0.0,0.0,0.0,0.0,0,0,0,0
87328000,0,47.397774299999995,8.5456102,488.104,0.0,0.0,0.0,0.0,0.0,0,0,0,0
87428000,0,47.397774299999995,8.5456102,488.104,0.0,0.0,0.0,0.0,0.0,0,0,0,0
