timestamp,timestamp_sample,time_utc_usec,device_id,lat,lon,alt,alt_ellipsoid,s_variance_m_s,c_variance_rad,eph,epv,hdop,vdop,noise_per_ms,jamming_indicator,vel_m_s,vel_n_m_s,vel_e_m_s,vel_d_m_s,cog_rad,timestamp_time_relative,heading,heading_offset,heading_accuracy,rtcm_injection_rate,automatic_gain_control,fix_type,jamming_state,vel_ned_valid,satellites_used,selected_rtcm_instance
3404000,0,1698223808675346,11468804,473977508,85456074,488104,488104,0.25,0.5,1.0,1.0,0.0,0.0,0,0,0.0,0.0,0.0,0.02,3.021863,0,nan,nan,0.0,0.0,0,3,0,1,10,0
3804000,0,1698223809071345,0,473977508,85456074,488111,488111,0.25,0.5,1.0,1.0,0.0,0.0,0,0,0.0,0.0,0.0,-0.02,0.84648466,0,nan,nan,0.0,0.0,0,3,0,1,10,0
4204000,0,1698223809475345,0,473977508,85456073,488101,488101,0.25,0.5,1.0,1.0,0.0,0.0,0,0,0.0,0.0,0.01,0.01,1.6543976,0,nan,nan,0.0,0.0,0,3,0,1,10,0
4604000,0,1698223809871345,0,473977508,85456074,488102,488102,0.25,0.5,1.0,1.0,0.0,0.0,0,0,0.0,0.02,0.01,-0.04,0.5337217,0,nan,nan,0.0,0.0,0,3,0,1,10,0
5004000,0,1698223810275345,0,473977508,85456074,488102,488102,0.25,0.5,1.0,1.0,0.0,0.0,0,0,0.0,0.0,0.0,-0.01,1.7941984,0,nan,nan,0.0,0.0,0,3,0,1,10,0
5404000,0,1698223810675346,0,473977508,85456074,488097,488097,0.25,0.5,1.0,1.0,0.0,0.0,0,0,0.0,-0.01,0.01,0.03,2.3841195,0,nan,nan,0.0,0.0,0,3,0,1,10,0
5804000,0,1698223811071345,0,473977508,85456074,488103,488103,0.25,0.5,1.0,1.0,0.0,0.0,0,0,0.0,0.0,0.01,-0.02,2.0909042,0,nan,nan,0.0,0.0,0,3,0,1,10,0
6204000,0,1698223811471346,0,473977508,85456074,488098,488098,0.25,0.5,1.0,1.0,0.0,0.0,0,0,0.0,0.0,0.0,0.0,2.433338,0,nan,nan,0.0,0.0,0,3,0,1,10,0
6604000,0,1698223811871345,0,473977508,85456074,488109,488109,0.25,0.5,1.0,1.0,0.0,0.0,0,0,0.0,-0.01,-0.01,-0.01,3.7323864,0,nan,nan,0.0,0.0,0,3,0,1,10,0
7004000,0,1698223812275345,0,473977508,85456074,488110,488110,0.25,0.5,1.0,1.0,0.0,0.0,0,0,0.0,-0.01,-0.01,-0.01,3.9240239,0,nan,nan,0.0,0.0,0,3,0,1,10,0
7404000,0,1698223812675346,0,473977508,85456074,488104,488104,0.25,0.5,1.0,1.0,0.0,0.0,0,0,0.0,0.01,0.0,0.049999997,0.583289,0,nan,nan,0.0,0.0,0,3,0,1,10,0
7804000,0,1698223813071345,0,473977508,85456074,488102,488102,0.25,0.5,1.0,1.0,0.0,0.0,0,0,0.0,0.01,0.0,0.02,6.1915555,0,nan,nan,0.0,0.0,0,3,0,1,10,0
8204000,0,1698223813475345,0,473977508,85456074,488103,488103,0.25,0.5,1.0,1.0,0.0,0.0,0,0,0.0,0.02,0.0,0.0,0.26529005,0,nan,nan,0.0,0.0,0,3,0,1,10,0
8604000,0,1698223813871345,0,473977508,85456074,488103,488103,0.25,0.5,1.0,1.0,0.0,0.0,0,0,0.0,-0.02,0.0,0.049999997,3.0592132,0,nan,nan,0.0,0.0,0,3,0,1,10,0
9004000,0,1698223814275345,0,473977508,85456074,488106,488106,0.25,0.5,1.0,1.0,0.0,0.0,0,0,0.0,0.0,0.0,-0.01,5.972691,0,nan,nan,0.0,0.0,0,3,0,1,10,0
9404000,0,1698223814671345,0,473977508,85456074,488101,488101,0.25,0.5,1.0,1.0,0.0,0.0,0,0,0.0,0.0,-0.02,0.0,5.0076985,0,nan,nan,0.0,0.0,0,3,0,1,10,0
9804000,0,1698223815071345,0,473977508,85456074,488092,488092,0.25,0.5,1.0,1.0,0.0,0.0,0,0,0.0,-0.02,0.01,-0.03,2.5197318,0,nan,nan,0.0,0.0,0,3,0,1,10,0
10204000,0,1698223815475345,0,473977508,85456075,488091,488091,0.25,0.5,1.0,1.0,0.0,0.0,0,0,0.0,0.02,0.01,0.0,0.49514988,0,nan,nan,0.0,0.0,0,3,0,1,10,0
10608000,0,1698223815871345,0,473977508,85456074,488096,488096,0.25,0.5,1.0,1.0,0.0,0.0,0,0,0.0,0.0,0.0,0.02,2.4808109,0,nan,nan,0.0,0.0,0,3,0,1,10,0
11004000,0,1698223816275345,0,473977508,85456074,488097,488097,0.25,0.5,1.0,1.0,0.0,0.0,0,0,0.0,0.01,-0.02,0.01,5.4747486,0,nan,nan,0.0,0.0,0,3,0,1,10,0
11404000,0,1698223816671345,0,473977508,85456074,488113,488113,0.25,0.5,1.0,1.0,0.0,0.0,0,0,0.0,0.01,0.0,0.02,0.23980823,0,nan,nan,0.0,0.0,0,3,0,1,10,0
11804000,0,1698223817071345,0,473977507,85456074,488110,488110,0.25,0.5,1.0,1.0,0.0,0.0,0,0,0.0,0.0,0.0,0.0,2.5560346,0,nan,nan,0.0,0.0,0,3,0,1,10,0
12204000,0,1698223817475345,0,473977508,85456074,488101,488101,0.25,0.5,1.0,1.0,0.0,0.0,0,0,0.0,0.0,0.0,0.0,0.87249005,0,nan,nan,0.0,0.0,0,3,0,1,10,0
12604000,0,1698223817871345,0,473977508,85456074,488103,488103,0.25,0.5,1.0,1.0,0.0,0.0,0,0,0.0,-0.01,0.01,-0.03,2.3366466,0,nan,nan,0.0,0.0,0,3,0,1,10,0
13004000,0,1698223818275345,0,473977508,85456074,488105,488105,0.25,0.5,1.0,1.0,0.0,0.0,0,0,0.0,0.01,0.0,0.01,0.1436406,0,nan,nan,0.0,0.0,0,3,0,1,10,0
13404000,0,1698223818671345,0,473977508,85456074,488109,488109,0.25,0.5,1.0,1.0,0.0,0.0,0,0,0.0,-0.03,0.0,-0.02,3.249803,0,nan,nan,0.0,0.0,0,3,0,1,10,0
13804000,0,1698223819071345,0,473977508,85456075,488110,488110,0.25,0.5,1.0,1.0,0.0,0.0,0,0,0.0,-0.01,0.0,-0.01,2.7277749,0,nan,nan,0.0,0.0,0,3,0,1,10,0
14204000,0,1698223819475345,0,473977508,85456073,488112,488112,0.25,0.5,1.0,1.0,0.0,0.0,0,0,0.0,0.01,0.0,-0.01,0.14468779,0,nan,nan,0.0,0.0,0,3,0,1,10,0
14604000,0,1698223819871345,0,473977508,85456074,488107,488107,0.25,0.5,1.0,1.0,0.0,0.0,0,0,0.0,0.01,-0.01,0.0,5.3831186,0,nan,nan,0.0,0.0,0,3,0,1,10,0
15004000,0,1698223820275345,0,473977508,85456074,488108,488108,0.25,0.5,1.0,1.0,0.0,0.0,0,0,0.0,0.02,0.0,-0.02,0.1940806,0,nan,nan,0.0,0.0,0,3,0,1,10,0
15404000,0,1698223820671345,0,473977508,85456074,488116,488116,0.25,0.5,1.0,1.0,0.0,0.0,0,0,0.0,-0.01,-0.01,0.0,4.0959387,0,nan,nan,0.0,0.0,0,3,0,1,10,0
15804000,0,1698223821071345,0,473977508,85456073,488099,488099,0.25,0.5,1.0,1.0,0.0,0.0,0,0,0.0,0.0,0.0,-0.01,0.9061749,0,nan,nan,0.0,0.0,0,3,0,1,10,0
16204000,0,1698223821475345,0,473977508,85456073,488104,488104,0.25,0.5,1.0,1.0,0.0,0.0,0,0,0.0,0.0,0.01,-0.01,1.0934488,0,nan,nan,0.0,0.0,0,3,0,1,10,0
16604000,0,1698223821875345,0,473977508,85456074,488099,488099,0.25,0.5,1.0,1.0,0.0,0.0,0,0,0.0,0.0,0.0,-0.01,5.1710615,0,nan,nan,0.0,0.0,0,3,0,1,10,0
17004000,0,1698223822271345,0,473977508,85456074,488100,488100,0.25,0.5,1.0,1.0,0.0,0.0,0,0,0.0,0.0,0.0,0.0,2.0381954,0,nan,nan,0.0,0.0,0,3,0,1,10,0
17404000,0,1698223822671345,0,473977508,85456074,488106,488106,0.25,0.5,1.0,1.0,0.0,0.0,0,0,0.0,0.0,0.0,0.01,4.131194,0,nan,nan,0.0,0.0,0,3,0,1,10,0
17804000,0,1698223823071345,0,473977508,85456074,488107,488107,0.25,0.5,1.0,1.0,0.0,0.0,0,0,0.0,-0.02,-0.01,-0.089999996,3.6737432,0,nan,nan,0.0,0.0,0,3,0,1,10,0
18204000,0,1698223823475345,0,473977506,85456072,488161,488161,0.25,0.5,1.0,1.0,0.0,0.0,0,0,0.21,-0.16,-0.13,-0.25,3.8152895,0,nan,nan,0.0,0.0,0,3,0,1,10,0
18604000,0,1698223823875345,0,473977498,85456061,488330,488330,0.25,0.5,1.0,1.0,0.0,0.0,0,0,0.26,-0.19,-0.17,-0.61,3.8695693,0,nan,nan,0.0,0.0,0,3,0,1,10,0
19008000,0,1698223824271345,0,473977492,85456054,488576,488576,0.25,0.5,1.0,1.0,0.0,0.0,0,0,0.17999999,-0.14999999,-0.13,-0.62,3.852116,0,nan,nan,0.0,0.0,0,3,0,1,10,0
19404000,0,1698223824671345,0,473977489,85456050,488840,488840,0.25,0.5,1.0,1.0,0.0,0.0,0,0,0.06,-0.02,-0.04,-0.66999996,4.295255,0,nan,nan,0.0,0.0,0,3,0,1,10,0
19804000,0,1698223825071345,0,473977489,85456049,489110,489110,0.25,0.5,1.0,1.0,0.0,0.0,0,0,0.04,0.06,0.01,-0.71999997,0.16528267,0,nan,nan,0.0,0.0,0,3,0,1,10,0
20204000,0,1698223825475345,0,473977491,85456052,489402,489402,0.25,0.5,1.0,1.0,0.0,0.0,0,0,0.099999994,0.06,0.06,-0.69,0.75712377,0,nan,nan,0.0,0.0,0,3,0,1,10,0
20604000,0,1698223825875345,0,473977497,85456053,489710,489710,0.25,0.5,1.0,1.0,0.0,0.0,0,0,0.26999998,0.26999998,-0.089999996,-0.96999997,5.9362135,0,nan,nan,0.0,0.0,0,3,0,1,10,0
21004000,0,1698223826271345,0,473977511,85456041,490147,490147,0.25,0.5,1.0,1.0,0.0,0.0,0,0,0.65999997,0.56,-0.35,-1.22,5.7176986,0,nan,nan,0.0,0.0,0,3,0,1,10,0
21404000,0,1698223826671345,0,473977536,85456016,490629,490629,0.25,0.5,1.0,1.0,0.0,0.0,0,0,0.94,0.75,-0.55,-1.0699999,5.6456165,0,nan,nan,0.0,0.0,0,3,0,1,10,0
21804000,0,1698223827071345,0,473977564,85455985,491033,491033,0.25,0.5,1.0,1.0,0.0,0.0,0,0,0.91999996,0.71999997,-0.57,-1.0699999,5.610535,0,nan,nan,0.0,0.0,0,3,0,1,10,0
22204000,0,1698223827475345,0,473977584,85455960,491468,491468,0.25,0.5,1.0,1.0,0.0,0.0,0,0,0.44,0.34,-0.26999998,-1.02,5.6093135,0,nan,nan,0.0,0.0,0,3,0,1,10,0
22604000,0,1698223827875345,0,473977587,85455959,491839,491839,0.25,0.5,1.0,1.0,0.0,0.0,0,0,0.29,-0.21,0.22,-0.71999997,2.3251276,0,nan,nan,0.0,0.0,0,3,0,1,10,0
23004000,0,1698223828271345,0,473977569,85455983,492091,492091,0.25,0.5,1.0,1.0,0.0,0.0,0,0,0.97999996,-0.69,0.68,-0.39999998,2.368586,0,nan,nan,0.0,0.0,0,3,0,1,10,0
23404000,0,1698223828671345,0,473977536,85456027,492163,492163,0.25,0.5,1.0,1.0,0.0,0.0,0,0,1.4499999,-1.06,1.0,0.04,2.385516,0,nan,nan,0.0,0.0,0,3,0,1,10,0
23804000,0,1698223829071345,0,473977494,85456084,492062,492062,0.25,0.5,1.0,1.0,0.0,0.0,0,0,1.67,-1.1999999,1.15,0.47,2.3771384,0,nan,nan,0.0,0.0,0,3,0,1,10,0
24204000,0,1698223829475345,0,473977449,85456146,491785,491785,0.25,0.5,1.0,1.0,0.0,0.0,0,0,1.64,-1.2099999,1.12,0.82,2.396337,0,nan,nan,0.0,0.0,0,3,0,1,10,0
24604000,0,1698223829875345,0,473977409,85456204,491368,491368,0.25,0.5,1.0,1.0,0.0,0.0,0,0,1.4699999,-1.05,1.02,1.18,2.3710296,0,nan,nan,0.0,0.0,0,3,0,1,10,0
25004000,0,1698223830271345,0,473977375,85456254,490848,490848,0.25,0.5,1.0,1.0,0.0,0.0,0,0,1.2099999,-0.82,0.87,1.42,2.3308873,0,nan,nan,0.0,0.0,0,3,0,1,10,0
25404000,0,1698223830671345,0,473977349,85456297,490270,490270,0.25,0.5,1.0,1.0,0.0,0.0,0,0,0.91999996,-0.59999996,0.71,1.52,2.2675316,0,nan,nan,0.0,0.0,0,3,0,1,10,0
25804000,0,1698223831071345,0,473977332,85456329,489650,489650,0.25,0.5,1.0,1.0,0.0,0.0,0,0,0.64,-0.37,0.51,1.52,2.1978931,0,nan,nan,0.0,0.0,0,3,0,1,10,0
26204000,0,1698223831475345,0,473977323,85456351,489001,489001,0.25,0.5,1.0,1.0,0.0,0.0,0,0,0.32999998,-0.099999994,0.29999998,1.53,1.9052013,0,nan,nan,0.0,0.0,0,3,0,1,10,0
26600000,0,1698223831875345,0,473977324,85456363,488387,488387,0.25,0.5,1.0,1.0,0.0,0.0,0,0,0.19,0.13,0.14999999,1.4599999,0.83775806,0,nan,nan,0.0,0.0,0,3,0,1,10,0
27004000,0,1698223832271345,0,473977327,85456366,488105,488105,0.25,0.5,1.0,1.0,0.0,0.0,0,0,0.0,0.0,0.0,0.04,4.772952,0,nan,nan,0.0,0.0,0,3,0,1,10,0
27400000,0,1698223832671345,0,473977327,85456365,488097,488097,0.25,0.5,1.0,1.0,0.0,0.0,0,0,0.0,0.0,0.01,0.0,1.229759,0,nan,nan,0.0,0.0,0,3,0,1,10,0
27804000,0,1698223833071345,0,473977327,85456365,488092,488092,0.25,0.5,1.0,1.0,0.0,0.0,0,0,0.0,0.0,0.02,0.01,1.2444197,0,nan,nan,0.0,0.0,0,3,0,1,10,0
28204000,0,1698223833475345,0,473977327,85456365,488110,488110,0.25,0.5,1.0,1.0,0.0,0.0,0,0,0.0,-0.01,-0.01,-0.02,3.9095376,0,nan,nan,0.0,0.0,0,3,0,1,10,0
28604000,0,1698223833875345,0,473977327,85456365,488098,488098,0.25,0.5,1.0,1.0,0.0,0.0,0,0,0.0,0.01,0.0,-0.01,0.42917645,0,nan,nan,0.0,0.0,0,3,0,1,10,0
29004000,0,1698223834271345,0,473977326,85456366,488107,488107,0.25,0.5,1.0,1.0,0.0,0.0,0,0,0.0,0.0,0.0,-0.04,4.9549894,0,nan,nan,0.0,0.0,0,3,0,1,10,0
29404000,0,1698223834671345,0,473977327,85456365,488113,488113,0.25,0.5,1.0,1.0,0.0,0.0,0,0,0.0,-0.02,0.0,0.07,2.947512,0,nan,nan,0.0,0.0,0,3,0,1,10,0
29804000,0,1698223835071345,0,473977327,85456365,488100,488100,0.25,0.5,1.0,1.0,0.0,0.0,0,0,0.0,0.0,0.0,0.01,6.065019,0,nan,nan,0.0,0.0,0,3,0,1,10,0
30204000,0,1698223835475345,0,473977326,85456364,488106,488106,0.25,0.5,1.0,1.0,0.0,0.0,0,0,0.01,0.0,0.01,-0.04,1.1817625,0,nan,nan,0.0,0.0,0,3,0,1,10,0
30604000,0,1698223835875345,0,473977328,85456363,488144,488144,0.25,0.5,1.0,1.0,0.0,0.0,0,0,0.08,0.03,-0.07,-0.17999999,5.152386,0,nan,nan,0.0,0.0,0,3,0,1,10,0
31004000,0,1698223836271345,0,473977341,85456342,488302,488302,0.25,0.5,1.0,1.0,0.0,0.0,0,0,1.41,1.0699999,-0.90999997,-0.45,5.5770245,0,nan,nan,0.0,0.0,0,3,0,1,10,0
31404000,0,1698223836671345,0,473977406,85456257,488619,488619,0.25,0.5,1.0,1.0,0.0,0.0,0,0,3.11,2.24,-2.1499999,-1.41,5.5178585,0,nan,nan,0.0,0.0,0,3,0,1,10,0
31804000,0,1698223837071345,0,473977482,85456148,489248,489248,0.25,0.5,1.0,1.0,0.0,0.0,0,0,2.62,1.8299999,-1.86,-1.4499999,5.4892344,0,nan,nan,0.0,0.0,0,3,0,1,10,0
32204000,0,1698223837475345,0,473977536,85456059,489787,489787,0.25,0.5,1.0,1.0,0.0,0.0,0,0,1.8,1.13,-1.4,-1.15,5.389402,0,nan,nan,0.0,0.0,0,3,0,1,10,0
32604000,0,1698223837871345,0,473977564,85456000,490201,490201,0.25,0.5,1.0,1.0,0.0,0.0,0,0,0.95,0.51,-0.79999995,-0.93,5.2790976,0,nan,nan,0.0,0.0,0,3,0,1,10,0
33008000,0,1698223838275345,0,473977574,85455972,490525,490525,0.25,0.5,1.0,1.0,0.0,0.0,0,0,0.26999998,0.01,-0.26,-0.76,4.774523,0,nan,nan,0.0,0.0,0,3,0,1,10,0
33404000,0,1698223838671345,0,473977569,85455969,490775,490775,0.25,0.5,1.0,1.0,0.0,0.0,0,0,0.29,-0.26999998,0.12,-0.52,2.722539,0,nan,nan,0.0,0.0,0,3,0,1,10,0
33804000,0,1698223839075345,0,473977556,85455983,490963,490963,0.25,0.5,1.0,1.0,0.0,0.0,0,0,0.56,-0.39999998,0.35,-0.38,2.4178045,0,nan,nan,0.0,0.0,0,3,0,1,10,0
34204000,0,1698223839475345,0,473977540,85456007,491121,491121,0.25,0.5,1.0,1.0,0.0,0.0,0,0,0.65999997,-0.45,0.48999998,-0.29,2.3073251,0,nan,nan,0.0,0.0,0,3,0,1,10,0
34604000,0,1698223839871345,0,473977524,85456033,491219,491219,0.25,0.5,1.0,1.0,0.0,0.0,0,0,0.64,-0.38,0.48999998,-0.21,2.2408283,0,nan,nan,0.0,0.0,0,3,0,1,10,0
35004000,0,1698223840275345,0,473977511,85456059,491283,491283,0.25,0.5,1.0,1.0,0.0,0.0,0,0,0.53,-0.29999998,0.42999998,-0.12,2.171713,0,nan,nan,0.0,0.0,0,3,0,1,10,0
35404000,0,1698223840671345,0,473977501,85456079,491329,491329,0.25,0.5,1.0,1.0,0.0,0.0,0,0,0.39,-0.21,0.32,-0.049999997,2.1430898,0,nan,nan,0.0,0.0,0,3,0,1,10,0
35804000,0,1698223841075345,0,473977495,85456094,491356,491356,0.25,0.5,1.0,1.0,0.0,0.0,0,0,0.25,-0.11,0.24,0.0,2.003987,0,nan,nan,0.0,0.0,0,3,0,1,10,0
36204000,0,1698223841475345,0,473977493,85456103,491376,491376,0.25,0.5,1.0,1.0,0.0,0.0,0,0,0.12,-0.01,0.14,0.0,1.6441001,0,nan,nan,0.0,0.0,0,3,0,1,10,0
36604000,0,1698223841871345,0,473977493,85456107,491358,491358,0.25,0.5,1.0,1.0,0.0,0.0,0,0,0.04,0.02,0.03,0.06,0.89866996,0,nan,nan,0.0,0.0,0,3,0,1,10,0
37004000,0,1698223842275345,0,473977494,85456107,491331,491331,0.25,0.5,1.0,1.0,0.0,0.0,0,0,0.06,0.06,-0.03,0.11,5.7901297,0,nan,nan,0.0,0.0,0,3,0,1,10,0
37404000,0,1698223842671345,0,473977497,85456106,491293,491293,0.25,0.5,1.0,1.0,0.0,0.0,0,0,0.099999994,0.06,-0.049999997,0.089999996,5.6112337,0,nan,nan,0.0,0.0,0,3,0,1,10,0
37804000,0,1698223843075345,0,473977501,85456102,491247,491247,0.25,0.5,1.0,1.0,0.0,0.0,0,0,0.11,0.089999996,-0.06,0.12,5.658008,0,nan,nan,0.0,0.0,0,3,0,1,10,0
38204000,0,1698223843475345,0,473977504,85456099,491206,491206,0.25,0.5,1.0,1.0,0.0,0.0,0,0,0.11,0.089999996,-0.049999997,0.12,5.771455,0,nan,nan,0.0,0.0,0,3,0,1,10,0
38604000,0,1698223843871345,0,473977507,85456095,491147,491147,0.25,0.5,1.0,1.0,0.0,0.0,0,0,0.099999994,0.089999996,-0.049999997,0.16,5.803045,0,nan,nan,0.0,0.0,0,3,0,1,10,0
39004000,0,1698223844275345,0,473977510,85456093,491105,491105,0.25,0.5,1.0,1.0,0.0,0.0,0,0,0.089999996,0.07,-0.06,0.049999997,5.5497975,0,nan,nan,0.0,0.0,0,3,0,1,10,0
39404000,0,1698223844671345,0,473977513,85456090,491053,491053,0.25,0.5,1.0,1.0,0.0,0.0,0,0,0.08,0.07,0.0,0.12,6.155078,0,nan,nan,0.0,0.0,0,3,0,1,10,0
39804000,0,1698223845075345,0,473977515,85456088,491001,491001,0.25,0.5,1.0,1.0,0.0,0.0,0,0,0.06,0.049999997,-0.01,0.099999994,5.9269633,0,nan,nan,0.0,0.0,0,3,0,1,10,0
40204000,0,1698223845475345,0,473977517,85456086,490955,490955,0.25,0.5,1.0,1.0,0.0,0.0,0,0,0.06,0.04,-0.03,0.12,5.6548667,0,nan,nan,0.0,0.0,0,3,0,1,10,0
40604000,0,1698223845871345,0,473977519,85456085,490905,490905,0.25,0.5,1.0,1.0,0.0,0.0,0,0,0.06,0.06,-0.01,0.089999996,5.9788,0,nan,nan,0.0,0.0,0,3,0,1,10,0
41004000,0,1698223846275345,0,473977521,85456084,490864,490864,0.25,0.5,1.0,1.0,0.0,0.0,0,0,0.06,0.03,-0.03,0.049999997,5.6244974,0,nan,nan,0.0,0.0,0,3,0,1,10,0
41404000,0,1698223846671345,0,473977523,85456082,490836,490836,0.25,0.5,1.0,1.0,0.0,0.0,0,0,0.06,0.04,-0.04,0.089999996,5.5464816,0,nan,nan,0.0,0.0,0,3,0,1,10,0
41804000,0,1698223847075345,0,473977525,85456080,490822,490822,0.25,0.5,1.0,1.0,0.0,0.0,0,0,0.06,0.04,-0.02,0.049999997,5.8402205,0,nan,nan,0.0,0.0,0,3,0,1,10,0
42204000,0,1698223847475345,0,473977527,85456078,490793,490793,0.25,0.5,1.0,1.0,0.0,0.0,0,0,0.049999997,0.04,-0.03,0.04,5.5754538,0,nan,nan,0.0,0.0,0,3,0,1,10,0
42604000,0,1698223847871345,0,473977528,85456078,490765,490765,0.25,0.5,1.0,1.0,0.0,0.0,0,0,0.04,0.03,-0.01,0.04,5.7704077,0,nan,nan,0.0,0.0,0,3,0,1,10,0
43004000,0,1698223848275345,0,473977530,85456077,490761,490761,0.25,0.5,1.0,1.0,0.0,0.0,0,0,0.03,0.01,0.0,0.03,6.002362,0,nan,nan,0.0,0.0,0,3,0,1,10,0
43404000,0,1698223848671345,0,473977531,85456077,490736,490736,0.25,0.5,1.0,1.0,0.0,0.0,0,0,0.02,0.03,0.0,0.0,6.1831775,0,nan,nan,0.0,0.0,0,3,0,1,10,0
43804000,0,1698223849075345,0,473977531,85456077,490719,490719,0.25,0.5,1.0,1.0,0.0,0.0,0,0,0.01,0.01,-0.01,0.04,5.533566,0,nan,nan,0.0,0.0,0,3,0,1,10,0
44204000,0,1698223849475345,0,473977532,85456076,490707,490707,0.25,0.5,1.0,1.0,0.0,0.0,0,0,0.0,0.01,0.0,0.01,0.10751228,0,nan,nan,0.0,0.0,0,3,0,1,10,0
44604000,0,1698223849871345,0,473977532,85456076,490701,490701,0.25,0.5,1.0,1.0,0.0,0.0,0,0,0.0,0.01,0.0,0.01,5.8283525,0,nan,nan,0.0,0.0,0,3,0,1,10,0
45004000,0,1698223850275345,0,473977532,85456075,490692,490692,0.25,0.5,1.0,1.0,0.0,0.0,0,0,0.01,0.0,-0.02,0.0,4.869119,0,nan,nan,0.0,0.0,0,3,0,1,10,0
45404000,0,1698223850671345,0,473977531,85456075,490689,490689,0.25,0.5,1.0,1.0,0.0,0.0,0,0,0.02,0.0,-0.01,0.02,4.6067963,0,nan,nan,0.0,0.0,0,3,0,1,10,0
45804000,0,1698223851075345,0,473977531,85456074,490681,490681,0.25,0.5,1.0,1.0,0.0,0.0,0,0,0.02,-0.01,0.0,-0.01,3.1134927,0,nan,nan,0.0,0.0,0,3,0,1,10,0
46204000,0,1698223851475345,0,473977529,85456073,490681,490681,0.25,0.5,1.0,1.0,0.0,0.0,0,0,0.03,-0.02,-0.02,0.02,3.8378046,0,nan,nan,0.0,0.0,0,3,0,1,10,0
46604000,0,1698223851871345,0,473977528,85456073,490683,490683,0.25,0.5,1.0,1.0,0.0,0.0,0,0,0.03,-0.02,0.01,-0.01,2.6841416,0,nan,nan,0.0,0.0,0,3,0,1,10,0
47004000,0,1698223852275345,0,473977527,85456073,490674,490674,0.25,0.5,1.0,1.0,0.0,0.0,0,0,0.02,-0.03,-0.01,0.0,3.6262703,0,nan,nan,0.0,0.0,0,3,0,1,10,0
47404000,0,1698223852671345,0,473977526,85456072,490682,490682,0.25,0.5,1.0,1.0,0.0,0.0,0,0,0.02,0.0,0.01,0.02,1.4650292,0,nan,nan,0.0,0.0,0,3,0,1,10,0
47804000,0,1698223853075345,0,473977526,85456072,490683,490683,0.25,0.5,1.0,1.0,0.0,0.0,0,0,0.01,-0.02,-0.04,-0.02,4.2936845,0,nan,nan,0.0,0.0,0,3,0,1,10,0
48204000,0,1698223853475345,0,473977526,85456072,490684,490684,0.25,0.5,1.0,1.0,0.0,0.0,0,0,0.01,0.02,0.0,0.02,0.11397,0,nan,nan,0.0,0.0,0,3,0,1,10,0
48604000,0,1698223853871345,0,473977525,85456072,490668,490668,0.25,0.5,1.0,1.0,0.0,0.0,0,0,0.0,0.0,-0.03,0.03,4.92113,0,nan,nan,0.0,0.0,0,3,0,1,10,0
49004000,0,1698223854275345,0,473977525,85456072,490678,490678,0.25,0.5,1.0,1.0,0.0,0.0,0,0,0.0,0.0,0.01,-0.01,0.946492,0,nan,nan,0.0,0.0,0,3,0,1,10,0
49404000,0,1698223854671345,0,473977524,85456072,490693,490693,0.25,0.5,1.0,1.0,0.0,0.0,0,0,0.01,-0.01,0.01,0.0,2.590243,0,nan,nan,0.0,0.0,0,3,0,1,10,0
49804000,0,1698223855075345,0,473977523,85456073,490704,490704,0.25,0.5,1.0,1.0,0.0,0.0,0,0,0.01,-0.01,0.0,-0.01,2.5884976,0,nan,nan,0.0,0.0,0,3,0,1,10,0
50204000,0,1698223855475345,0,473977523,85456072,490719,490719,0.25,0.5,1.0,1.0,0.0,0.0,0,0,0.02,-0.03,0.01,-0.049999997,2.8612928,0,nan,nan,0.0,0.0,0,3,0,1,10,0
50604000,0,1698223855871345,0,473977519,85456071,490803,490803,0.25,0.5,1.0,1.0,0.0,0.0,0,0,0.25,-0.24,-0.02,-0.39,3.2299063,0,nan,nan,0.0,0.0,0,3,0,1,10,0
51004000,0,1698223856275345,0,473977502,85456071,491027,491027,0.25,0.5,1.0,1.0,0.0,0.0,0,0,0.68,-0.68,-0.03,-0.68,3.1901128,0,nan,nan,0.0,0.0,0,3,0,1,10,0
51404000,0,1698223856671345,0,473977472,85456071,491346,491346,0.25,0.5,1.0,1.0,0.0,0.0,0,0,1.01,-1.02,0.0,-0.84999996,3.151192,0,nan,nan,0.0,0.0,0,3,0,1,10,0
51804000,0,1698223857075345,0,473977432,85456071,491709,491709,0.25,0.5,1.0,1.0,0.0,0.0,0,0,1.12,-1.11,0.01,-0.87,3.1272807,0,nan,nan,0.0,0.0,0,3,0,1,10,0
52204000,0,1698223857475345,0,473977393,85456072,492041,492041,0.25,0.5,1.0,1.0,0.0,0.0,0,0,0.96999997,-0.97999996,0.01,-0.83,3.1230922,0,nan,nan,0.0,0.0,0,3,0,1,10,0
52608000,0,1698223857871345,0,473977364,85456073,492332,492332,0.25,0.5,1.0,1.0,0.0,0.0,0,0,0.62,-0.62,0.01,-0.59,3.1201248,0,nan,nan,0.0,0.0,0,3,0,1,10,0
53004000,0,1698223858275345,0,473977350,85456074,492513,492513,0.25,0.5,1.0,1.0,0.0,0.0,0,0,0.12,-0.099999994,0.03,-0.28,2.8300512,0,nan,nan,0.0,0.0,0,3,0,1,10,0
53404000,0,1698223858671345,0,473977356,85456075,492556,492556,0.25,0.5,1.0,1.0,0.0,0.0,0,0,0.39999998,0.39,0.02,0.089999996,0.06632251,0,nan,nan,0.0,0.0,0,3,0,1,10,0
53804000,0,1698223859075345,0,473977380,85456076,492417,492417,0.25,0.5,1.0,1.0,0.0,0.0,0,0,0.9,0.87,0.0,0.55,6.2812653,0,nan,nan,0.0,0.0,0,3,0,1,10,0
54208000,0,1698223859475345,0,473977421,85456075,492101,492101,0.25,0.5,1.0,1.0,0.0,0.0,0,0,1.3199999,1.3199999,0.01,1.01,0.00837758,0,nan,nan,0.0,0.0,0,3,0,1,10,0
54604000,0,1698223859871345,0,473977474,85456073,491616,491616,0.25,0.5,1.0,1.0,0.0,0.0,0,0,1.64,1.63,-0.02,1.42,6.267128,0,nan,nan,0.0,0.0,0,3,0,1,10,0
55004000,0,1698223860275345,0,473977538,85456071,490983,490983,0.25,0.5,1.0,1.0,0.0,0.0,0,0,1.8299999,1.8199999,-0.06,1.6999999,6.2501984,0,nan,nan,0.0,0.0,0,3,0,1,10,0
55404000,0,1698223860671345,0,473977605,85456068,490262,490262,0.25,0.5,1.0,1.0,0.0,0.0,0,0,1.9399999,1.92,-0.089999996,1.99,6.234316,0,nan,nan,0.0,0.0,0,3,0,1,10,0
55804000,0,1698223861075345,0,473977681,85456063,489399,489399,0.25,0.5,1.0,1.0,0.0,0.0,0,0,2.23,2.22,-0.06,2.27,6.2543874,0,nan,nan,0.0,0.0,0,3,0,1,10,0
56204000,0,1698223861475345,0,473977767,85456059,488469,488469,0.25,0.5,1.0,1.0,0.0,0.0,0,0,2.49,2.49,-0.099999994,2.12,6.2428684,0,nan,nan,0.0,0.0,0,3,0,1,10,0
56604000,0,1698223861871345,0,473977837,85456058,488105,488105,0.25,0.5,1.0,1.0,0.0,0.0,0,0,1.0,0.98999995,0.13,-0.01,0.13404128,0,nan,nan,0.0,0.0,0,3,0,1,10,0
57004000,0,1698223862275345,0,473977848,85456059,488127,488127,0.25,0.5,1.0,1.0,0.0,0.0,0,0,0.06,0.0,-0.049999997,0.0,4.850619,0,nan,nan,0.0,0.0,0,3,0,1,10,0
57404000,0,1698223862671345,0,473977848,85456058,488099,488099,0.25,0.5,1.0,1.0,0.0,0.0,0,0,0.0,0.02,0.0,0.0,5.984385,0,nan,nan,0.0,0.0,0,3,0,1,10,0
57804000,0,1698223863075345,0,473977848,85456058,488098,488098,0.25,0.5,1.0,1.0,0.0,0.0,0,0,0.0,0.01,0.0,-0.01,0.42533672,0,nan,nan,0.0,0.0,0,3,0,1,10,0
58200000,0,1698223863475345,0,473977848,85456058,488100,488100,0.25,0.5,1.0,1.0,0.0,0.0,0,0,0.0,0.0,0.01,0.01,1.1185814,0,nan,nan,0.0,0.0,0,3,0,1,10,0
58604000,0,1698223863871345,0,473977847,85456058,488105,488105,0.25,0.5,1.0,1.0,0.0,0.0,0,0,0.0,-0.01,0.02,0.049999997,2.0781636,0,nan,nan,0.0,0.0,0,3,0,1,10,0
59004000,0,1698223864275345,0,473977848,85456058,488106,488106,0.25,0.5,1.0,1.0,0.0,0.0,0,0,0.0,-0.01,0.0,0.0,3.30513,0,nan,nan,0.0,0.0,0,3,0,1,10,0
59404000,0,1698223864671345,0,473977848,85456059,488099,488099,0.25,0.5,1.0,1.0,0.0,0.0,0,0,0.0,0.02,-0.01,-0.01,5.8571506,0,nan,nan,0.0,0.0,0,3,0,1,10,0
59804000,0,1698223865075345,0,473977848,85456058,488107,488107,0.25,0.5,1.0,1.0,0.0,0.0,0,0,0.0,0.01,0.0,0.02,6.0550704,0,nan,nan,0.0,0.0,0,3,0,1,10,0
60200000,0,1698223865475345,0,473977848,85456058,488118,488118,0.25,0.5,1.0,1.0,0.0,0.0,0,0,0.0,0.0,-0.02,0.01,4.850619,0,nan,nan,0.0,0.0,0,3,0,1,10,0
60604000,0,1698223865871345,0,473977848,85456058,488112,488112,0.25,0.5,1.0,1.0,0.0,0.0,0,0,0.0,0.02,0.0,-0.01,0.28187066,0,nan,nan,0.0,0.0,0,3,0,1,10,0
61004000,0,1698223866275345,0,473977848,85456059,488109,488109,0.25,0.5,1.0,1.0,0.0,0.0,0,0,0.0,0.0,0.0,-0.01,0.96865773,0,nan,nan,0.0,0.0,0,3,0,1,10,0
61404000,0,1698223866671345,0,473977848,85456059,488117,488117,0.25,0.5,1.0,1.0,0.0,0.0,0,0,0.01,0.0,0.01,-0.04,1.1177088,0,nan,nan,0.0,0.0,0,3,0,1,10,0
61804000,0,1698223867075345,0,473977848,85456059,488126,488126,0.25,0.5,1.0,1.0,0.0,0.0,0,0,0.01,0.0,0.01,-0.01,1.7477727,0,nan,nan,0.0,0.0,0,3,0,1,10,0
62200000,0,1698223867475345,0,473977849,85456060,488137,488137,0.25,0.5,1.0,1.0,0.0,0.0,0,0,0.03,0.04,0.0,-0.02,6.0929446,0,nan,nan,0.0,0.0,0,3,0,1,10,0
62604000,0,1698223867871345,0,473977853,85456062,488137,488137,0.25,0.5,1.0,1.0,0.0,0.0,0,0,0.26999998,0.19999999,0.14999999,-0.03,0.6473426,0,nan,nan,0.0,0.0,0,3,0,1,10,0
63004000,0,1698223868275345,0,473977863,85456080,488136,488136,0.25,0.5,1.0,1.0,0.0,0.0,0,0,0.63,0.37,0.5,-0.02,0.93654364,0,nan,nan,0.0,0.0,0,3,0,1,10,0
63404000,0,1698223868671345,0,473977875,85456108,488102,488102,0.25,0.5,1.0,1.0,0.0,0.0,0,0,0.0,0.01,0.0,-0.01,5.9637895,0,nan,nan,0.0,0.0,0,3,0,1,10,0
63804000,0,1698223869075345,0,473977875,85456108,488114,488114,0.25,0.5,1.0,1.0,0.0,0.0,0,0,0.0,0.0,0.0,-0.02,5.01852,0,nan,nan,0.0,0.0,0,3,0,1,10,0
64204000,0,1698223869475345,0,473977875,85456108,488109,488109,0.25,0.5,1.0,1.0,0.0,0.0,0,0,0.0,0.0,-0.01,0.01,4.3196898,0,nan,nan,0.0,0.0,0,3,0,1,10,0
64604000,0,1698223869871345,0,473977875,85456109,488107,488107,0.25,0.5,1.0,1.0,0.0,0.0,0,0,0.0,-0.03,-0.03,0.04,3.9404297,0,nan,nan,0.0,0.0,0,3,0,1,10,0
65004000,0,1698223870271345,0,473977875,85456108,488109,488109,0.25,0.5,1.0,1.0,0.0,0.0,0,0,0.01,0.0,0.0,-0.03,2.1258109,0,nan,nan,0.0,0.0,0,3,0,1,10,0
65404000,0,1698223870675346,0,473977875,85456109,488114,488114,0.25,0.5,1.0,1.0,0.0,0.0,0,0,0.01,0.0,-0.02,0.02,4.491954,0,nan,nan,0.0,0.0,0,3,0,1,10,0
65804000,0,1698223871075345,0,473977875,85456108,488100,488100,0.25,0.5,1.0,1.0,0.0,0.0,0,0,0.0,0.0,-0.01,0.01,4.886922,0,nan,nan,0.0,0.0,0,3,0,1,10,0
66204000,0,1698223871475345,0,473977875,85456108,488099,488099,0.25,0.5,1.0,1.0,0.0,0.0,0,0,0.0,0.01,0.0,-0.01,0.1394518,0,nan,nan,0.0,0.0,0,3,0,1,10,0
66604000,0,1698223871871345,0,473977875,85456108,488105,488105,0.25,0.5,1.0,1.0,0.0,0.0,0,0,0.0,0.01,0.0,-0.03,5.6328754,0,nan,nan,0.0,0.0,0,3,0,1,10,0
67004000,0,1698223872271345,0,473977875,85456108,488100,488100,0.25,0.5,1.0,1.0,0.0,0.0,0,0,0.0,0.0,0.0,0.0,0.35796702,0,nan,nan,0.0,0.0,0,3,0,1,10,0
67404000,0,1698223872675346,0,473977875,85456109,488098,488098,0.25,0.5,1.0,1.0,0.0,0.0,0,0,0.0,0.0,0.01,0.0,0.8918632,0,nan,nan,0.0,0.0,0,3,0,1,10,0
67804000,0,1698223873075345,0,473977875,85456109,488096,488096,0.25,0.5,1.0,1.0,0.0,0.0,0,0,0.0,0.0,0.0,-0.01,1.1623893,0,nan,nan,0.0,0.0,0,3,0,1,10,0
68204000,0,1698223873475345,0,473977875,85456108,488111,488111,0.25,0.5,1.0,1.0,0.0,0.0,0,0,0.0,0.0,0.0,0.03,1.5419984,0,nan,nan,0.0,0.0,0,3,0,1,10,0
68604000,0,1698223873871345,0,473977875,85456108,488101,488101,0.25,0.5,1.0,1.0,0.0,0.0,0,0,0.0,-0.01,-0.01,-0.01,3.7254052,0,nan,nan,0.0,0.0,0,3,0,1,10,0
69004000,0,1698223874271345,0,473977875,85456107,488100,488100,0.25,0.5,1.0,1.0,0.0,0.0,0,0,0.0,-0.02,0.01,0.01,2.530902,0,nan,nan,0.0,0.0,0,3,0,1,10,0
69408000,0,1698223874675346,0,473977875,85456108,488109,488109,0.25,0.5,1.0,1.0,0.0,0.0,0,0,0.0,0.0,-0.01,-0.04,4.28234,0,nan,nan,0.0,0.0,0,3,0,1,10,0
69804000,0,1698223875075345,0,473977875,85456108,488106,488106,0.25,0.5,1.0,1.0,0.0,0.0,0,0,0.0,0.0,0.01,0.0,1.8338175,0,nan,nan,0.0,0.0,0,3,0,1,10,0
70204000,0,1698223875475345,0,473977875,85456108,488106,488106,0.25,0.5,1.0,1.0,0.0,0.0,0,0,0.0,-0.01,-0.01,-0.01,4.1022215,0,nan,nan,0.0,0.0,0,3,0,1,10,0
70604000,0,1698223875871345,0,473977875,85456108,488099,488099,0.25,0.5,1.0,1.0,0.0,0.0,0,0,0.0,0.0,-0.01,-0.01,4.2010074,0,nan,nan,0.0,0.0,0,3,0,1,10,0
71004000,0,1698223876271345,0,473977875,85456108,488113,488113,0.25,0.5,1.0,1.0,0.0,0.0,0,0,0.0,0.0,-0.02,0.0,4.374493,0,nan,nan,0.0,0.0,0,3,0,1,10,0
71404000,0,1698223876675346,0,473977875,85456108,488106,488106,0.25,0.5,1.0,1.0,0.0,0.0,0,0,0.0,0.03,0.01,0.0,0.4813618,0,nan,nan,0.0,0.0,0,3,0,1,10,0
71804000,0,1698223877075345,0,473977875,85456108,488114,488114,0.25,0.5,1.0,1.0,0.0,0.0,0,0,0.0,0.02,-0.01,-0.01,5.8850756,0,nan,nan,0.0,0.0,0,3,0,1,10,0
72204000,0,1698223877475345,0,473977875,85456108,488101,488101,0.25,0.5,1.0,1.0,0.0,0.0,0,0,0.0,0.0,0.0,-0.01,2.9434977,0,nan,nan,0.0,0.0,0,3,0,1,10,0
72604000,0,1698223877871345,0,473977875,85456108,488099,488099,0.25,0.5,1.0,1.0,0.0,0.0,0,0,0.0,0.01,0.0,0.0,6.270968,0,nan,nan,0.0,0.0,0,3,0,1,10,0
73004000,0,1698223878271345,0,473977875,85456108,488109,488109,0.25,0.5,1.0,1.0,0.0,0.0,0,0,0.0,0.0,0.0,0.01,3.8398988,0,nan,nan,0.0,0.0,0,3,0,1,10,0
73404000,0,1698223878675346,0,473977875,85456108,488103,488103,0.25,0.5,1.0,1.0,0.0,0.0,0,0,0.0,0.0,0.0,0.02,5.9018307,0,nan,nan,0.0,0.0,0,3,0,1,10,0
73804000,0,1698223879075345,0,473977875,85456108,488110,488110,0.25,0.5,1.0,1.0,0.0,0.0,0,0,0.0,0.02,0.01,-0.01,0.4087561,0,nan,nan,0.0,0.0,0,3,0,1,10,0
74204000,0,1698223879475345,0,473977875,85456109,488102,488102,0.25,0.5,1.0,1.0,0.0,0.0,0,0,0.0,-0.01,0.0,0.0,2.8621652,0,nan,nan,0.0,0.0,0,3,0,1,10,0
74604000,0,1698223879871345,0,473977875,85456108,488100,488100,0.25,0.5,1.0,1.0,0.0,0.0,0,0,0.0,-0.01,0.0,-0.04,2.601762,0,nan,nan,0.0,0.0,0,3,0,1,10,0
75004000,0,1698223880271345,0,473977875,85456108,488107,488107,0.25,0.5,1.0,1.0,0.0,0.0,0,0,0.0,0.0,-0.01,-0.04,4.6987753,0,nan,nan,0.0,0.0,0,3,0,1,10,0
75404000,0,1698223880675346,0,473977875,85456108,488106,488106,0.25,0.5,1.0,1.0,0.0,0.0,0,0,0.0,0.0,0.0,-0.01,5.103517,0,nan,nan,0.0,0.0,0,3,0,1,10,0
75804000,0,1698223881075345,0,473977875,85456109,488100,488100,0.25,0.5,1.0,1.0,0.0,0.0,0,0,0.0,0.0,-0.01,-0.02,4.804193,0,nan,nan,0.0,0.0,0,3,0,1,10,0
76204000,0,1698223881475345,0,473977875,85456109,488102,488102,0.25,0.5,1.0,1.0,0.0,0.0,0,0,0.0,0.02,0.0,0.0,0.092327915,0,nan,nan,0.0,0.0,0,3,0,1,10,0
76604000,0,1698223881871345,0,473977875,85456109,488100,488100,0.25,0.5,1.0,1.0,0.0,0.0,0,0,0.0,0.02,0.0,0.04,6.1505404,0,nan,nan,0.0,0.0,0,3,0,1,10,0
77004000,0,1698223882271345,0,473977875,85456108,488103,488103,0.25,0.5,1.0,1.0,0.0,0.0,0,0,0.0,0.0,0.0,0.0,1.7779669,0,nan,nan,0.0,0.0,0,3,0,1,10,0
77404000,0,1698223882675346,0,473977875,85456108,488104,488104,0.25,0.5,1.0,1.0,0.0,0.0,0,0,0.0,-0.02,0.0,0.01,3.4222417,0,nan,nan,0.0,0.0,0,3,0,1,10,0
77804000,0,1698223883075345,0,473977875,85456108,488105,488105,0.25,0.5,1.0,1.0,0.0,0.0,0,0,0.0,0.01,-0.01,-0.02,5.475272,0,nan,nan,0.0,0.0,0,3,0,1,10,0
78204000,0,1698223883475345,0,473977875,85456108,488104,488104,0.25,0.5,1.0,1.0,0.0,0.0,0,0,0.0,-0.02,-0.01,-0.01,3.6016614,0,nan,nan,0.0,0.0,0,3,0,1,10,0
78604000,0,1698223883871345,0,473977875,85456108,488108,488108,0.25,0.5,1.0,1.0,0.0,0.0,0,0,0.0,0.0,0.01,0.02,1.876578,0,nan,nan,0.0,0.0,0,3,0,1,10,0
79004000,0,1698223884271345,0,473977876,85456108,488103,488103,0.25,0.5,1.0,1.0,0.0,0.0,0,0,0.0,0.0,0.0,0.0,3.6596062,0,nan,nan,0.0,0.0,0,3,0,1,10,0
79404000,0,1698223884675346,0,473977875,85456108,488096,488096,0.25,0.5,1.0,1.0,0.0,0.0,0,0,0.0,0.0,0.01,-0.04,1.3177236,0,nan,nan,0.0,0.0,0,3,0,1,10,0
79804000,0,1698223885075345,0,473977875,85456108,488104,488104,0.25,0.5,1.0,1.0,0.0,0.0,0,0,0.0,-0.01,0.01,0.03,2.538232,0,nan,nan,0.0,0.0,0,3,0,1,10,0
80204000,0,1698223885475345,0,473977875,85456108,488117,488117,0.25,0.5,1.0,1.0,0.0,0.0,0,0,0.0,0.0,0.0,0.0,5.1019464,0,nan,nan,0.0,0.0,0,3,0,1,10,0
80604000,0,1698223885871345,0,473977875,85456108,488107,488107,0.25,0.5,1.0,1.0,0.0,0.0,0,0,0.0,0.0,0.01,-0.01,1.065698,0,nan,nan,0.0,0.0,0,3,0,1,10,0
81004000,0,1698223886271345,0,473977875,85456109,488092,488092,0.25,0.5,1.0,1.0,0.0,0.0,0,0,0.0,0.0,0.02,-0.02,1.2906709,0,nan,nan,0.0,0.0,0,3,0,1,10,0
81404000,0,1698223886675346,0,473977873,85456112,488176,488176,0.25,0.5,1.0,1.0,0.0,0.0,0,0,0.29,-0.14,0.25,-0.26,2.078338,0,nan,nan,0.0,0.0,0,3,0,1,10,0
81800000,0,1698223887075345,0,473977854,85456136,488272,488272,0.25,0.5,1.0,1.0,0.0,0.0,0,0,1.16,-1.12,0.35999998,-0.01,2.82499,0,nan,nan,0.0,0.0,0,3,0,1,10,0
82204000,0,1698223887475345,0,473977799,85456129,488283,488283,0.25,0.5,1.0,1.0,0.0,0.0,0,0,1.9699999,-1.92,-0.42,0.02,3.3592353,0,nan,nan,0.0,0.0,0,3,0,1,10,0
82604000,0,1698223887871345,0,473977743,85456102,488106,488106,0.25,0.5,1.0,1.0,0.0,0.0,0,0,0.0,0.0,0.0,-0.01,0.70581114,0,nan,nan,0.0,0.0,0,3,0,1,10,0
83004000,0,1698223888271345,0,473977743,85456102,488107,488107,0.25,0.5,1.0,1.0,0.0,0.0,0,0,0.0,0.0,0.0,-0.02,6.1330867,0,nan,nan,0.0,0.0,0,3,0,1,10,0
83404000,0,1698223888675346,0,473977743,85456102,488103,488103,0.25,0.5,1.0,1.0,0.0,0.0,0,0,0.0,0.02,0.0,0.01,5.870939,0,nan,nan,0.0,0.0,0,3,0,1,10,0
83804000,0,1698223889075345,0,473977743,85456101,488096,488096,0.25,0.5,1.0,1.0,0.0,0.0,0,0,0.0,0.0,0.0,-0.01,2.314481,0,nan,nan,0.0,0.0,0,3,0,1,10,0
84204000,0,1698223889475345,0,473977743,85456102,488105,488105,0.25,0.5,1.0,1.0,0.0,0.0,0,0,0.0,0.0,0.01,0.0,0.92101026,0,nan,nan,0.0,0.0,0,3,0,1,10,0
84604000,0,1698223889871345,0,473977743,85456101,488090,488090,0.25,0.5,1.0,1.0,0.0,0.0,0,0,0.0,0.0,0.0,-0.03,0.43860123,0,nan,nan,0.0,0.0,0,3,0,1,10,0
85004000,0,1698223890271345,0,473977743,85456102,488097,488097,0.25,0.5,1.0,1.0,0.0,0.0,0,0,0.0,0.0,0.0,0.02,2.6548202,0,nan,nan,0.0,0.0,0,3,0,1,10,0
85404000,0,1698223890675346,0,473977743,85456102,488107,488107,0.25,0.5,1.0,1.0,0.0,0.0,0,0,0.0,0.0,0.01,0.0,1.3372712,0,nan,nan,0.0,0.0,0,3,0,1,10,0
85804000,0,1698223891075345,0,473977743,85456102,488095,488095,0.25,0.5,1.0,1.0,0.0,0.0,0,0,0.0,0.01,0.01,0.0,0.8981464,0,nan,nan,0.0,0.0,0,3,0,1,10,0
86204000,0,1698223891475345,0,473977743,85456102,488103,488103,0.25,0.5,1.0,1.0,0.0,0.0,0,0,0.0,0.0,0.0,0.02,5.6871552,0,nan,nan,0.0,0.0,0,3,0,1,10,0
86604000,0,1698223891871345,0,473977743,85456101,488105,488105,0.25,0.5,1.0,1.0,0.0,0.0,0,0,0.0,-0.01,0.0,0.02,3.0529299,0,nan,nan,0.0,0.0,0,3,0,1,10,0
87004000,0,1698223892271345,0,473977743,85456101,488091,488091,0.25,0.5,1.0,1.0,0.0,0.0,0,0,0.0,0.0,0.0,-0.01,0.27262044,0,nan,nan,0.0,0.0,0,3,0,1,10,0
87404000,0,1698223892675346,0,473977743,85456102,488109,488109,0.25,0.5,1.0,1.0,0.0,0.0,0,0,0.0,0.0,0.0,0.0,3.9076176,0,nan,nan,0.0,0.0,0,3,0,1,10,0
87804000,0,1698223893075345,0,473977742,85456102,488102,488102,0.25,0.5,1.0,1.0,0.0,0.0,0,0,0.0,0.0,0.01,0.0,1.4693925,0,nan,nan,0.0,0.0,0,3,0,1,10,0
88204000,0,1698223893475345,0,473977743,85456102,488101,488101,0.25,0.5,1.0,1.0,0.0,0.0,0,0,0.0,0.02,0.0,0.0,0.3796091,0,nan,nan,0.0,0.0,0,3,0,1,10,0
88604000,0,1698223893871345,0,473977743,85456102,488103,488103,0.25,0.5,1.0,1.0,0.0,0.0,0,0,0.0,0.01,0.01,0.03,0.99117243,0,nan,nan,0.0,0.0,0,3,0,1,10,0
89008000,0,1698223894271345,0,473977743,85456102,488106,488106,0.25,0.5,1.0,1.0,0.0,0.0,0,0,0.0,-0.02,0.01,-0.01,2.6021113,0,nan,nan,0.0,0.0,0,3,0,1,10,0
89404000,0,1698223894675346,0,473977743,85456102,488101,488101,0.25,0.5,1.0,1.0,0.0,0.0,0,0,0.0,0.0,0.0,0.0,3.7578683,0,nan,nan,0.0,0.0,0,3,0,1,10,0
89804000,0,1698223895075345,0,473977743,85456102,488091,488091,0.25,0.5,1.0,1.0,0.0,0.0,0,0,0.0,0.0,-0.01,0.01,4.256509,0,nan,nan,0.0,0.0,0,3,0,1,10,0
90204000,0,1698223895475345,0,473977743,85456102,488097,488097,0.25,0.5,1.0,1.0,0.0,0.0,0,0,0.0,0.0,0.0,0.0,4.042706,0,nan,nan,0.0,0.0,0,3,0,1,10,0
90604000,0,1698223895871345,0,473977743,85456102,488102,488102,0.25,0.5,1.0,1.0,0.0,0.0,0,0,0.0,0.01,0.0,-0.02,6.1725316,0,nan,nan,0.0,0.0,0,3,0,1,10,0
91004000,0,1698223896271345,0,473977742,85456102,488107,488107,0.25,0.5,1.0,1.0,0.0,0.0,0,0,0.0,0.0,0.0,0.01,6.0454717,0,nan,nan,0.0,0.0,0,3,0,1,10,0
91404000,0,1698223896675346,0,473977743,85456102,488106,488106,0.25,0.5,1.0,1.0,0.0,0.0,0,0,0.0,0.0,0.0,-0.04,3.7601373,0,nan,nan,0.0,0.0,0,3,0,1,10,0
91804000,0,1698223897075345,0,473977743,85456102,488097,488097,0.25,0.5,1.0,1.0,0.0,0.0,0,0,0.0,0.0,0.0,0.0,3.6276667,0,nan,nan,0.0,0.0,0,3,0,1,10,0
92204000,0,1698223897475345,0,473977743,85456101,488107,488107,0.25,0.5,1.0,1.0,0.0,0.0,0,0,0.0,0.0,0.0,0.0,3.7032394,0,nan,nan,0.0,0.0,0,3,0,1,10,0
92604000,0,1698223897871345,0,473977743,85456101,488106,488106,0.25,0.5,1.0,1.0,0.0,0.0,0,0,0.0,0.02,-0.01,-0.04,5.6691785,0,nan,nan,0.0,0.0,0,3,0,1,10,0
93004000,0,1698223898271345,0,473977743,85456102,488104,488104,0.25,0.5,1.0,1.0,0.0,0.0,0,0,0.0,0.01,0.0,0.02,5.720491,0,nan,nan,0.0,0.0,0,3,0,1,10,0
93404000,0,1698223898675346,0,473977743,85456102,488105,488105,0.25,0.5,1.0,1.0,0.0,0.0,0,0,0.0,-0.01,-0.02,0.0,4.2764053,0,nan,nan,0.0,0.0,0,3,0,1,10,0
93804000,0,1698223899075345,0,473977743,85456102,488094,488094,0.25,0.5,1.0,1.0,0.0,0.0,0,0,0.0,0.0,0.0,-0.02,0.48694685,0,nan,nan,0.0,0.0,0,3,0,1,10,0
94204000,0,1698223899475345,0,473977743,85456102,488109,488109,0.25,0.5,1.0,1.0,0.0,0.0,0,0,0.0,0.01,0.0,0.03,0.45884705,0,nan,nan,0.0,0.0,0,3,0,1,10,0
94604000,0,1698223899871345,0,473977743,85456101,488116,488116,0.25,0.5,1.0,1.0,0.0,0.0,0,0,0.0,-0.03,0.0,-0.03,2.8647833,0,nan,nan,0.0,0.0,0,3,0,1,10,0
95004000,0,1698223900271345,0,473977743,85456101,488100,488100,0.25,0.5,1.0,1.0,0.0,0.0,0,0,0.0,0.0,0.0,0.0,0.9728465,0,nan,nan,0.0,0.0,0,3,0,1,10,0
95404000,0,1698223900675346,0,473977743,85456101,488106,488106,0.25,0.5,1.0,1.0,0.0,0.0,0,0,0.0,-0.01,0.0,-0.01,2.9724703,0,nan,nan,0.0,0.0,0,3,0,1,10,0
95804000,0,1698223901075345,0,473977743,85456102,488107,488107,0.25,0.5,1.0,1.0,0.0,0.0,0,0,0.0,-0.01,0.0,0.01,3.3941417,0,nan,nan,0.0,0.0,0,3,0,1,10,0
96204000,0,1698223901475345,0,473977742,85456102,488111,488111,0.25,0.5,1.0,1.0,0.0,0.0,0,0,0.0,0.0,0.0,0.01,5.1508155,0,nan,nan,0.0,0.0,0,3,0,1,10,0
96604000,0,1698223901871345,0,473977743,85456102,488112,488112,0.25,0.5,1.0,1.0,0.0,0.0,0,0,0.0,0.0,-0.01,0.0,4.9780283,0,nan,nan,0.0,0.0,0,3,0,1,10,0
97004000,0,1698223902271345,0,473977743,85456102,488105,488105,0.25,0.5,1.0,1.0,0.0,0.0,0,0,0.0,0.02,0.0,0.01,0.14852752,0,nan,nan,0.0,0.0,0,3,0,1,10,0
97404000,0,1698223902675346,0,473977743,85456102,488107,488107,0.25,0.5,1.0,1.0,0.0,0.0,0,0,0.0,0.02,0.0,0.0,0.03351032,0,nan,nan,0.0,0.0,0,3,0,1,10,0
97804000,0,1698223903075345,0,473977743,85456101,488103,488103,0.25,0.5,1.0,1.0,0.0,0.0,0,0,0.0,0.0,0.02,0.01,1.4159856,0,nan,nan,0.0,0.0,0,3,0,1,10,0
98204000,0,1698223903475345,0,473977743,85456102,488106,488106,0.25,0.5,1.0,1.0,0.0,0.0,0,0,0.0,0.01,0.01,0.03,0.9416051,0,nan,nan,0.0,0.0,0,3,0,1,10,0
98604000,0,1698223903871345,0,473977743,85456102,488102,488102,0.25,0.5,1.0,1.0,0.0,0.0,0,0,0.0,-0.01,-0.01,0.0,4.037994,0,nan,nan,0.0,0.0,0,3,0,1,10,0
99004000,0,1698223904271345,0,473977743,85456102,488105,488105,0.25,0.5,1.0,1.0,0.0,0.0,0,0,0.0,-0.01,0.0,0.03,2.719223,0,nan,nan,0.0,0.0,0,3,0,1,10,0
99404000,0,1698223904675346,0,473977743,85456101,488096,488096,0.25,0.5,1.0,1.0,0.0,0.0,0,0,0.0,0.01,-0.01,-0.03,5.498834,0,nan,nan,0.0,0.0,0,3,0,1,10,0
