timestamp,timestamp_sample,gps_hvel[0],gps_hvel[1],gps_vvel,gps_hpos[0],gps_hpos[1],gps_vpos,ev_hvel[0],ev_hvel[1],ev_vvel,ev_hpos[0],ev_hpos[1],ev_vpos,rng_vpos,baro_vpos,aux_hvel[0],aux_hvel[1],aux_vvel,flow[0],flow[1],terr_flow[0],terr_flow[1],heading,mag_field[0],mag_field[1],mag_field[2],gravity[0],gravity[1],gravity[2],drag[0],drag[1],airspeed,beta,hagl,hagl_rate
3508000,3428000,0.12461375,0.12461975,0.20468381,101.000175,101.000175,101.00001,0.0,0.0,0.0,0.0,0.0,0.0,0.0,0.0,0.0,0.0,nan,0.0,0.0,0.0,0.0,0.0,0.0,0.0,0.0,1.1117151,1.1117423,1.0000995,0.0,0.0,0.0,0.0,0.0,0.0
4004000,3924000,0.10503356,0.10503672,0.20378059,1.000374,1.0003741,34.333336,0.0,0.0,0.0,0.0,0.0,0.0,0.0,0.0,0.0,0.0,nan,0.0,0.0,0.0,0.0,0.0,0.0,0.0,0.0,1.2219545,1.2219958,1.000214,0.0,0.0,0.0,0.0,0.0,0.0
4508000,4428000,0.09766483,0.09766495,0.20647657,1.0003806,1.0003808,21.000443,0.0,0.0,0.0,0.0,0.0,0.0,0.0,26.536657,0.0,0.0,nan,0.0,0.0,0.0,0.0,0.0,0.0,0.0,0.0,1.0843908,1.0843978,1.0000824,0.0,0.0,0.0,0.0,0.0,0.0
5012000,4932000,0.09292999,0.09292992,0.21072891,1.0001872,1.0001872,5.111334,0.0,0.0,0.0,0.0,0.0,0.0,0.0,16.36137,0.0,0.0,nan,0.0,0.0,0.0,0.0,0.0,0.0,0.0,0.0,1.0746096,1.074617,1.0000712,0.0,0.0,0.0,0.0,0.0,0.0
5508000,5428000,0.09199623,0.09199621,0.2110325,1.0001472,1.0001472,2.2283068,0.0,0.0,0.0,0.0,0.0,0.0,0.0,13.366817,0.0,0.0,nan,0.0,0.0,0.0,0.0,0.0,0.0,0.0,0.0,1.0647281,1.0647365,1.0000601,0.0,0.0,0.0,0.0,0.0,0.0
6004000,5924000,0.09152923,0.0915292,0.21076848,1.0001266,1.0001266,1.7231262,0.0,0.0,0.0,0.0,0.0,0.0,0.0,12.897489,0.0,0.0,nan,0.0,0.0,0.0,0.0,0.0,0.0,0.0,0.0,1.0631744,1.0631815,1.0000577,0.0,0.0,0.0,0.0,0.0,0.0
6508000,6428000,0.09123116,0.09123112,0.21021488,1.0001079,1.0001079,1.5134746,0.0,0.0,0.0,0.0,0.0,0.0,0.0,12.691463,0.0,0.0,nan,0.0,0.0,0.0,0.0,0.0,0.0,0.0,0.0,1.0623367,1.0623446,1.000056,0.0,0.0,0.0,0.0,0.0,0.0
7004000,6924000,0.0908927,0.09089266,0.2090662,1.0000811,1.0000811,1.3360825,0.0,0.0,0.0,0.0,0.0,0.0,0.0,12.595845,0.0,0.0,nan,0.0,0.0,0.0,0.0,0.0,0.0,0.0,0.0,1.0610435,1.0610521,1.0000539,0.0,0.0,0.0,0.0,0.0,0.0
7508000,7428000,0.09082032,0.09082028,0.20863363,1.0000762,1.0000762,1.2844431,0.0,0.0,0.0,0.0,0.0,0.0,0.0,12.52903,0.0,0.0,nan,0.0,0.0,0.0,0.0,0.0,0.0,0.0,0.0,1.0608687,1.0608767,1.0000533,0.0,0.0,0.0,0.0,0.0,0.0
8012000,7932000,0.09075996,0.09075995,0.20920655,1.0000701,1.0000701,1.248201,0.0,0.0,0.0,0.0,0.0,0.0,0.0,12.489667,0.0,0.0,nan,0.0,0.0,0.0,0.0,0.0,0.0,0.0,0.0,1.0603697,1.0603764,1.0000526,0.0,0.0,0.0,0.0,0.0,0.0
8508000,8428000,0.09069801,0.090698026,0.20880279,1.0000643,1.0000643,1.2242211,0.0,0.0,0.0,0.0,0.0,0.0,0.0,12.459942,0.0,0.0,nan,0.0,0.0,0.0,0.0,0.0,0.0,0.0,0.0,1.0602764,1.0602826,1.000051,0.0,0.0,0.0,0.0,0.0,0.0
9012000,8932000,0.091052204,0.0910523,0.20827316,1.0001401,1.0001401,1.6369674,0.0,0.0,0.0,0.0,0.0,0.0,0.0,12.928309,0.0,0.0,nan,0.0,0.0,0.0,0.0,0.0,0.0,0.0,0.0,1.0602133,1.0602188,1.0000501,0.0,0.0,0.0,0.0,0.0,0.0
9508000,9428000,0.0909656,0.09096566,0.20807554,1.0001239,1.0001239,1.3194466,0.0,0.0,0.0,0.0,0.0,0.0,0.0,12.506775,0.0,0.0,nan,0.0,0.0,0.0,0.0,0.0,0.0,0.0,0.0,1.0599376,1.0599424,1.0000492,0.0,0.0,0.0,0.0,0.0,0.0
10012000,9932000,0.09090736,0.09090739,0.20793825,1.0001138,1.0001138,1.2180662,0.0,0.0,0.0,0.0,0.0,0.0,0.0,12.445502,0.0,0.0,nan,0.0,0.0,0.0,0.0,0.0,0.0,0.0,0.0,1.0599251,1.0599293,1.0000478,0.0,0.0,0.0,0.0,0.0,0.0
10508000,10428000,0.09085578,0.09085578,0.20782389,1.000105,1.000105,1.164375,0.0,0.0,0.0,0.0,0.0,0.0,0.0,12.416961,0.0,0.0,nan,0.0,0.0,0.0,0.0,0.0,0.0,0.0,0.0,1.0597641,1.0597681,1.0000476,0.0,0.0,0.0,0.0,0.0,0.0
11012000,10932000,0.090767406,0.0907674,0.20764136,1.0000898,1.0000898,1.112287,0.0,0.0,0.0,0.0,0.0,0.0,0.0,12.402134,0.0,0.0,nan,0.0,0.0,0.0,0.0,0.0,0.0,0.0,0.0,1.0597732,1.0597776,1.0000463,0.0,0.0,0.0,0.0,0.0,0.0
11508000,11428000,0.09072857,0.09072853,0.20756376,1.0000832,1.0000832,1.0987549,0.0,0.0,0.0,0.0,0.0,0.0,0.0,12.38581,0.0,0.0,nan,0.0,0.0,0.0,0.0,0.0,0.0,0.0,0.0,1.0597942,1.0597984,1.0000458,0.0,0.0,0.0,0.0,0.0,0.0
12004000,11924000,0.09070684,0.090706736,0.20751789,1.00008,1.00008,1.0882295,0.0,0.0,0.0,0.0,0.0,0.0,0.0,12.383826,0.0,0.0,nan,0.0,0.0,0.0,0.0,0.0,0.0,0.0,0.0,1.0597082,1.0597123,1.000045,0.0,0.0,0.0,0.0,0.0,0.0
12508000,12428000,0.09065896,0.09065883,0.2074252,1.0000719,1.0000719,1.0801303,0.0,0.0,0.0,0.0,0.0,0.0,0.0,12.383927,0.0,0.0,nan,0.0,0.0,0.0,0.0,0.0,0.0,0.0,0.0,1.0597275,1.0597324,1.0000445,0.0,0.0,0.0,0.0,0.0,0.0
13012000,12932000,0.090605944,0.09060584,0.20796573,1.0000628,1.0000628,1.0704843,0.0,0.0,0.0,0.0,0.0,0.0,0.0,12.3851795,0.0,0.0,nan,0.0,0.0,0.0,0.0,0.0,0.0,0.0,0.0,1.0596272,1.0596322,1.0000443,0.0,0.0,0.0,0.0,0.0,0.0
13508000,13428000,0.09093937,0.09093921,0.2079017,1.0001416,1.0001415,1.066548,0.0,0.0,0.0,0.0,0.0,0.0,0.0,12.382654,0.0,0.0,nan,0.0,0.0,0.0,0.0,0.0,0.0,0.0,0.0,1.0596296,1.0596339,1.0000437,0.0,0.0,0.0,0.0,0.0,0.0
14012000,13932000,0.0909175,0.09091737,0.20786725,1.0001364,1.0001364,1.0634518,0.0,0.0,0.0,0.0,0.0,0.0,0.0,12.385326,0.0,0.0,nan,0.0,0.0,0.0,0.0,0.0,0.0,0.0,0.0,1.0596349,1.0596392,1.0000437,0.0,0.0,0.0,0.0,0.0,0.0
14508000,14428000,0.09086643,0.090866245,0.2077844,1.0001229,1.0001229,1.0609783,0.0,0.0,0.0,0.0,0.0,0.0,0.0,12.388173,0.0,0.0,nan,0.0,0.0,0.0,0.0,0.0,0.0,0.0,0.0,1.059535,1.059539,1.0000426,0.0,0.0,0.0,0.0,0.0,0.0
15004000,14924000,0.09083246,0.090832226,0.20772693,1.0001146,1.0001146,1.0587438,0.0,0.0,0.0,0.0,0.0,0.0,0.0,12.390642,0.0,0.0,nan,0.0,0.0,0.0,0.0,0.0,0.0,0.0,0.0,1.0595347,1.0595388,1.0000417,0.0,0.0,0.0,0.0,0.0,0.0
15508000,15428000,0.102457896,0.1024592,0.20906653,1.0009701,1.0009701,1.0586529,0.0,0.0,0.0,0.0,0.0,0.0,0.0,12.393364,0.0,0.0,nan,0.0,0.0,0.0,0.0,0.0,0.0,0.0,0.0,1.0597365,1.0597402,1.0000404,0.0,0.0,0.0,0.0,0.0,0.0
16004000,15924000,0.13234113,0.1323465,0.2105833,1.0080009,1.0080014,1.0619761,0.0,0.0,0.0,0.0,0.0,0.0,0.0,12.401717,0.0,0.0,nan,0.0,0.0,0.0,0.0,0.0,0.0,0.0,0.0,1.0599426,1.0599452,1.0000393,0.0,0.0,0.0,0.0,0.0,0.0
16508000,16428000,0.18178083,0.18179253,0.21225551,1.0357022,1.0357062,1.0668516,0.0,0.0,0.0,0.0,0.0,0.0,0.0,12.412048,0.0,0.0,nan,0.0,0.0,0.0,0.0,0.0,0.0,0.0,0.0,1.0601324,1.0601344,1.0000389,0.0,0.0,0.0,0.0,0.0,0.0
17004000,16924000,0.2517506,0.25177094,0.21403542,1.1095434,1.1095572,1.0737057,0.0,0.0,0.0,0.0,0.0,0.0,0.0,12.427439,0.0,0.0,nan,0.0,0.0,0.0,0.0,0.0,0.0,0.0,0.0,1.0601081,1.0601107,1.000039,0.0,0.0,0.0,0.0,0.0,0.0
17508000,17428000,0.4409747,0.4410328,0.21736014,1.517393,1.5174834,1.0913275,0.0,0.0,0.0,0.0,0.0,0.0,0.0,12.434811,0.0,0.0,nan,0.0,0.0,0.0,0.0,0.0,0.0,0.0,0.0,1.05988,1.0598865,1.0000386,0.0,0.0,0.0,0.0,0.0,0.0
18004000,17924000,0.5606925,0.5608043,0.21877329,1.9352067,1.9354181,1.1014073,0.0,0.0,0.0,0.0,0.0,0.0,0.0,12.4496355,0.0,0.0,nan,0.0,0.0,0.0,0.0,0.0,0.0,0.0,0.0,1.0585289,1.0584801,1.0001336,0.0,0.0,0.0,0.0,0.0,0.0
18508000,18428000,0.6951357,0.69538116,0.21986932,2.546348,2.5468273,1.1115248,0.0,0.0,0.0,0.0,0.0,0.0,0.0,12.465853,0.0,0.0,nan,0.0,0.0,0.0,0.0,0.0,0.0,0.0,0.0,1.0568577,1.0568725,1.0000392,0.0,0.0,0.0,0.0,0.0,0.0
19004000,18924000,0.85247064,0.8528483,0.22059904,3.4304852,3.4315524,1.1211069,0.0,0.0,0.0,0.0,0.0,0.0,0.0,12.483395,0.0,0.0,nan,0.0,0.0,0.0,0.0,0.0,0.0,0.0,0.0,1.0541884,1.0541937,1.00013,0.0,0.0,0.0,0.0,0.0,0.0
19508000,19428000,1.0899423,1.0904903,0.22177747,5.8068185,5.809813,1.139102,0.0,0.0,0.0,0.0,0.0,0.0,0.0,12.480063,0.0,0.0,nan,0.0,0.0,0.0,0.0,0.0,0.0,0.0,0.0,1.0482224,1.048231,1.0001335,0.0,0.0,0.0,0.0,0.0,0.0
20012000,19932000,1.1581575,1.1587552,0.22184102,7.1000495,7.1041665,1.1442043,0.0,0.0,0.0,0.0,0.0,0.0,0.0,12.490858,0.0,0.0,nan,0.0,0.0,0.0,0.0,0.0,0.0,0.0,0.0,1.0433376,1.0433576,1.0000793,0.0,0.0,0.0,0.0,0.0,0.0
20508000,20428000,1.187118,1.1879578,0.22181976,8.42245,8.427595,1.1492316,0.0,0.0,0.0,0.0,0.0,0.0,0.0,12.502557,0.0,0.0,nan,0.0,0.0,0.0,0.0,0.0,0.0,0.0,0.0,1.0351404,1.034945,1.0003077,0.0,0.0,0.0,0.0,0.0,0.0
21004000,20924000,1.1303288,1.1314297,0.2214787,10.356902,10.365494,1.1549487,0.0,0.0,0.0,0.0,0.0,0.0,0.0,12.509755,0.0,0.0,nan,0.0,0.0,0.0,0.0,0.0,0.0,0.0,0.0,1.0298758,1.0296627,1.0003599,0.0,0.0,0.0,0.0,0.0,0.0
21508000,21428000,1.0563729,1.0577134,0.2212675,11.010888,11.022938,1.1565742,0.0,0.0,0.0,0.0,0.0,0.0,0.0,12.497442,0.0,0.0,nan,0.0,0.0,0.0,0.0,0.0,0.0,0.0,0.0,1.0251651,1.0251468,1.0000718,0.0,0.0,0.0,0.0,0.0,0.0
22004000,21924000,0.9745468,0.9763181,0.22103645,11.311684,11.327701,1.1560104,0.0,0.0,0.0,0.0,0.0,0.0,0.0,12.501541,0.0,0.0,nan,0.0,0.0,0.0,0.0,0.0,0.0,0.0,0.0,1.0190096,1.0190945,1.0001504,0.0,0.0,0.0,0.0,0.0,0.0
22508000,22428000,0.8924277,0.89469707,0.22106515,11.458598,11.479123,1.1557932,0.0,0.0,0.0,0.0,0.0,0.0,0.0,12.510572,0.0,0.0,nan,0.0,0.0,0.0,0.0,0.0,0.0,0.0,0.0,1.0156447,1.0157633,1.0006465,0.0,0.0,0.0,0.0,0.0,0.0
23012000,22932000,0.73699343,0.739277,0.22137682,11.31798,11.347866,1.1565865,0.0,0.0,0.0,0.0,0.0,0.0,0.0,12.51391,0.0,0.0,nan,0.0,0.0,0.0,0.0,0.0,0.0,0.0,0.0,1.0120664,1.0121872,1.0004619,0.0,0.0,0.0,0.0,0.0,0.0
23508000,23428000,0.6698692,0.6719308,0.2211863,11.113622,11.147345,1.1558568,0.0,0.0,0.0,0.0,0.0,0.0,0.0,12.500771,0.0,0.0,nan,0.0,0.0,0.0,0.0,0.0,0.0,0.0,0.0,1.010497,1.0105926,1.0001851,0.0,0.0,0.0,0.0,0.0,0.0
24004000,23924000,0.6650212,0.6674576,0.22106476,11.943734,11.98709,1.1550866,0.0,0.0,0.0,0.0,0.0,0.0,0.0,12.50518,0.0,0.0,nan,0.0,0.0,0.0,0.0,0.0,0.0,0.0,0.0,1.0092618,1.0093249,1.0000479,0.0,0.0,0.0,0.0,0.0,0.0
24508000,24428000,0.6065532,0.6089542,0.22077423,11.652088,11.695512,1.1547568,0.0,0.0,0.0,0.0,0.0,0.0,0.0,12.507705,0.0,0.0,nan,0.0,0.0,0.0,0.0,0.0,0.0,0.0,0.0,1.0077457,1.0077633,1.0000107,0.0,0.0,0.0,0.0,0.0,0.0
25004000,24924000,0.5146993,0.5160978,0.22062013,10.940681,10.978103,1.1538959,0.0,0.0,0.0,0.0,0.0,0.0,0.0,12.5155735,0.0,0.0,nan,0.0,0.0,0.0,0.0,0.0,0.0,0.0,0.0,1.0071068,1.0070908,1.0000353,0.0,0.0,0.0,0.0,0.0,0.0
25508000,25428000,0.4838349,0.48386094,0.2210599,10.645522,10.678255,1.153714,0.0,0.0,0.0,0.0,0.0,0.0,0.0,12.498738,0.0,0.0,nan,0.0,0.0,0.0,0.0,0.0,0.0,0.0,0.0,1.0063058,1.0062908,1.000032,0.0,0.0,0.0,0.0,0.0,0.0
26012000,25932000,0.4590986,0.45744693,0.22132538,10.3055525,10.332724,1.1542382,0.0,0.0,0.0,0.0,0.0,0.0,0.0,12.506001,0.0,0.0,nan,0.0,0.0,0.0,0.0,0.0,0.0,0.0,0.0,1.0060618,1.006034,1.0000278,0.0,0.0,0.0,0.0,0.0,0.0
26508000,26428000,0.44076926,0.43902016,0.22172906,10.040978,10.061948,1.1545396,0.0,0.0,0.0,0.0,0.0,0.0,0.0,12.510789,0.0,0.0,nan,0.0,0.0,0.0,0.0,0.0,0.0,0.0,0.0,1.0058646,1.0058168,1.0000685,0.0,0.0,0.0,0.0,0.0,0.0
27012000,26932000,0.41509053,0.42054042,0.22070709,9.497926,9.508236,1.1551578,0.0,0.0,0.0,0.0,0.0,0.0,0.0,12.514885,0.0,0.0,nan,0.0,0.0,0.0,0.0,0.0,0.0,0.0,0.0,1.0055084,1.0055043,1.0000039,0.0,0.0,0.0,0.0,0.0,0.0
27508000,27428000,0.39812902,0.40469825,0.21865094,9.271669,9.280391,1.1535101,0.0,0.0,0.0,0.0,0.0,0.0,0.0,12.498381,0.0,0.0,nan,0.0,0.0,0.0,0.0,0.0,0.0,0.0,0.0,1.0054213,1.0054153,1.0000038,0.0,0.0,0.0,0.0,0.0,0.0
28004000,27924000,0.38382408,0.38926005,0.2169903,9.078106,9.087132,1.1513456,0.0,0.0,0.0,0.0,0.0,0.0,0.0,12.499376,0.0,0.0,nan,0.0,0.0,0.0,0.0,0.0,0.0,0.0,0.0,1.0052378,1.0052308,1.0000039,0.0,0.0,0.0,0.0,0.0,0.0
28508000,28428000,0.37102762,0.3733563,0.21579385,8.871943,8.88137,1.1476911,0.0,0.0,0.0,0.0,0.0,0.0,0.0,12.502687,0.0,0.0,nan,0.0,0.0,0.0,0.0,0.0,0.0,0.0,0.0,1.0052735,1.0052625,1.000004,0.0,0.0,0.0,0.0,0.0,0.0
29012000,28932000,0.36664253,0.3603728,0.21481009,9.077917,9.082617,1.140971,0.0,0.0,0.0,0.0,0.0,0.0,0.0,12.502648,0.0,0.0,nan,0.0,0.0,0.0,0.0,0.0,0.0,0.0,0.0,1.0052242,1.0052086,1.0000039,0.0,0.0,0.0,0.0,0.0,0.0
29508000,29428000,0.3580016,0.3482691,0.21486807,8.881939,8.877523,1.1374377,0.0,0.0,0.0,0.0,0.0,0.0,0.0,12.485777,0.0,0.0,nan,0.0,0.0,0.0,0.0,0.0,0.0,0.0,0.0,1.0053338,1.0053164,1.0000043,0.0,0.0,0.0,0.0,0.0,0.0
30012000,29932000,0.35149238,0.34036255,0.21529832,8.719823,8.702155,1.1350584,0.0,0.0,0.0,0.0,0.0,0.0,0.0,12.486356,0.0,0.0,nan,0.0,0.0,0.0,0.0,0.0,0.0,0.0,0.0,1.0054764,1.0054584,1.0000048,0.0,0.0,0.0,0.0,0.0,0.0
30508000,30428000,0.3465791,0.33644083,0.21596928,8.532636,8.500505,1.1323979,0.0,0.0,0.0,0.0,0.0,0.0,0.0,12.490382,0.0,0.0,nan,0.0,0.0,0.0,0.0,0.0,0.0,0.0,0.0,1.0055312,1.0053723,1.0001484,0.0,0.0,0.0,0.0,0.0,0.0
31012000,30932000,0.36353415,0.33895242,0.21607958,8.2523365,8.197069,1.1317865,0.0,0.0,0.0,0.0,0.0,0.0,0.0,12.493301,0.0,0.0,nan,0.0,0.0,0.0,0.0,0.0,0.0,0.0,0.0,1.005466,1.0044342,1.0015478,0.0,0.0,0.0,0.0,0.0,0.0
31508000,31428000,0.39169312,0.35248885,0.2155872,8.158083,8.081581,1.1310263,0.0,0.0,0.0,0.0,0.0,0.0,0.0,12.482008,0.0,0.0,nan,0.0,0.0,0.0,0.0,0.0,0.0,0.0,0.0,1.0057019,1.0057278,1.0000017,0.0,0.0,0.0,0.0,0.0,0.0
32012000,31932000,0.37976396,0.35019326,0.2146623,8.082727,7.985049,1.131415,0.0,0.0,0.0,0.0,0.0,0.0,0.0,12.483887,0.0,0.0,nan,0.0,0.0,0.0,0.0,0.0,0.0,0.0,0.0,1.0054206,1.005541,1.0000964,0.0,0.0,0.0,0.0,0.0,0.0
32508000,32428000,0.36489952,0.3478254,0.21406922,8.004339,7.894285,1.1300501,0.0,0.0,0.0,0.0,0.0,0.0,0.0,12.486008,0.0,0.0,nan,0.0,0.0,0.0,0.0,0.0,0.0,0.0,0.0,1.0051686,1.0053241,1.0001514,0.0,0.0,0.0,0.0,0.0,0.0
33004000,32924000,0.35546923,0.349625,0.21390603,7.9214892,7.808864,1.1285052,0.0,0.0,0.0,0.0,0.0,0.0,0.0,12.486232,0.0,0.0,nan,0.0,0.0,0.0,0.0,0.0,0.0,0.0,0.0,1.0049535,1.0050421,1.0001131,0.0,0.0,0.0,0.0,0.0,0.0
33508000,33428000,0.3496975,0.36317977,0.2146375,7.7739897,7.679609,1.1250759,0.0,0.0,0.0,0.0,0.0,0.0,0.0,12.4749,0.0,0.0,nan,0.0,0.0,0.0,0.0,0.0,0.0,0.0,0.0,1.0048889,1.0048934,1.0000505,0.0,0.0,0.0,0.0,0.0,0.0
34004000,33924000,0.34882113,0.3691027,0.21527752,7.6818657,7.6056347,1.1252884,0.0,0.0,0.0,0.0,0.0,0.0,0.0,12.47981,0.0,0.0,nan,0.0,0.0,0.0,0.0,0.0,0.0,0.0,0.0,1.0047338,1.0046914,1.0000153,0.0,0.0,0.0,0.0,0.0,0.0
34508000,34428000,0.3492632,0.3743557,0.21611992,7.6309094,7.576552,1.1257833,0.0,0.0,0.0,0.0,0.0,0.0,0.0,12.483724,0.0,0.0,nan,0.0,0.0,0.0,0.0,0.0,0.0,0.0,0.0,1.004673,1.0046132,1.0000058,0.0,0.0,0.0,0.0,0.0,0.0
35012000,34932000,0.3606438,0.38964856,0.2179201,7.97368,7.967085,1.1277529,0.0,0.0,0.0,0.0,0.0,0.0,0.0,12.4896965,0.0,0.0,nan,0.0,0.0,0.0,0.0,0.0,0.0,0.0,0.0,1.0046284,1.0045625,1.0000052,0.0,0.0,0.0,0.0,0.0,0.0
35508000,35428000,0.36010244,0.3888472,0.21892723,7.9198327,7.940404,1.1310065,0.0,0.0,0.0,0.0,0.0,0.0,0.0,12.480455,0.0,0.0,nan,0.0,0.0,0.0,0.0,0.0,0.0,0.0,0.0,1.0045217,1.0044521,1.000007,0.0,0.0,0.0,0.0,0.0,0.0
36004000,35924000,0.35933122,0.3873175,0.21980962,7.8703666,7.9162817,1.1333826,0.0,0.0,0.0,0.0,0.0,0.0,0.0,12.48675,0.0,0.0,nan,0.0,0.0,0.0,0.0,0.0,0.0,0.0,0.0,1.0045266,1.004451,1.000008,0.0,0.0,0.0,0.0,0.0,0.0
36508000,36428000,0.3583093,0.38552704,0.22061354,7.824158,7.893014,1.1360666,0.0,0.0,0.0,0.0,0.0,0.0,0.0,12.496451,0.0,0.0,nan,0.0,0.0,0.0,0.0,0.0,0.0,0.0,0.0,1.0044767,1.0043945,1.0000085,0.0,0.0,0.0,0.0,0.0,0.0
37004000,36924000,0.3565927,0.3832099,0.22137788,7.7628827,7.8512483,1.1398634,0.0,0.0,0.0,0.0,0.0,0.0,0.0,12.503496,0.0,0.0,nan,0.0,0.0,0.0,0.0,0.0,0.0,0.0,0.0,1.0045282,1.0044388,1.0000091,0.0,0.0,0.0,0.0,0.0,0.0
37508000,37428000,0.3541324,0.3806267,0.22246268,7.696446,7.819809,1.1463954,0.0,0.0,0.0,0.0,0.0,0.0,0.0,12.49455,0.0,0.0,nan,0.0,0.0,0.0,0.0,0.0,0.0,0.0,0.0,1.0046028,1.0045054,1.0000112,0.0,0.0,0.0,0.0,0.0,0.0
38004000,37924000,0.35268703,0.37955964,0.22276019,7.655795,7.793582,1.1489991,0.0,0.0,0.0,0.0,0.0,0.0,0.0,12.501689,0.0,0.0,nan,0.0,0.0,0.0,0.0,0.0,0.0,0.0,0.0,1.0046133,1.0045087,1.0000148,0.0,0.0,0.0,0.0,0.0,0.0
38508000,38428000,0.35136485,0.378618,0.22292103,7.6157727,7.7665186,1.1512308,0.0,0.0,0.0,0.0,0.0,0.0,0.0,12.511048,0.0,0.0,nan,0.0,0.0,0.0,0.0,0.0,0.0,0.0,0.0,1.0047259,1.004615,1.0000172,0.0,0.0,0.0,0.0,0.0,0.0
39012000,38932000,0.3488939,0.37631217,0.2230309,7.520832,7.6920905,1.155729,0.0,0.0,0.0,0.0,0.0,0.0,0.0,12.518022,0.0,0.0,nan,0.0,0.0,0.0,0.0,0.0,0.0,0.0,0.0,1.0047739,1.0046563,1.0000212,0.0,0.0,0.0,0.0,0.0,0.0
39508000,39428000,0.35990947,0.38874593,0.22292292,7.932314,8.138369,1.1568419,0.0,0.0,0.0,0.0,0.0,0.0,0.0,12.503305,0.0,0.0,nan,0.0,0.0,0.0,0.0,0.0,0.0,0.0,0.0,1.0049125,1.0047885,1.0000247,0.0,0.0,0.0,0.0,0.0,0.0
40004000,39924000,0.36000916,0.38852748,0.22281174,7.9101005,8.125678,1.1582315,0.0,0.0,0.0,0.0,0.0,0.0,0.0,12.508063,0.0,0.0,nan,0.0,0.0,0.0,0.0,0.0,0.0,0.0,0.0,1.0050647,1.0049348,1.0000272,0.0,0.0,0.0,0.0,0.0,0.0
40508000,40428000,0.36004514,0.38768512,0.22260305,7.871332,8.093182,1.1584411,0.0,0.0,0.0,0.0,0.0,0.0,0.0,12.5156975,0.0,0.0,nan,0.0,0.0,0.0,0.0,0.0,0.0,0.0,0.0,1.0051495,1.0050135,1.0000325,0.0,0.0,0.0,0.0,0.0,0.0
41004000,40924000,0.36082155,0.3861877,0.22228879,7.7811303,8.008097,1.1594278,0.0,0.0,0.0,0.0,0.0,0.0,0.0,12.520926,0.0,0.0,nan,0.0,0.0,0.0,0.0,0.0,0.0,0.0,0.0,1.005322,1.0051805,1.0000368,0.0,0.0,0.0,0.0,0.0,0.0
41508000,41428000,0.3620146,0.3859619,0.22208725,7.747699,7.9749713,1.158978,0.0,0.0,0.0,0.0,0.0,0.0,0.0,12.505558,0.0,0.0,nan,0.0,0.0,0.0,0.0,0.0,0.0,0.0,0.0,1.0054209,1.0052735,1.000044,0.0,0.0,0.0,0.0,0.0,0.0
42004000,41924000,0.3636296,0.38609624,0.22206268,7.7164574,7.9421754,1.1583302,0.0,0.0,0.0,0.0,0.0,0.0,0.0,12.510074,0.0,0.0,nan,0.0,0.0,0.0,0.0,0.0,0.0,0.0,0.0,1.0056083,1.0054555,1.00005,0.0,0.0,0.0,0.0,0.0,0.0
42508000,42428000,0.36565793,0.38648063,0.22188736,7.6876087,7.91005,1.1595896,0.0,0.0,0.0,0.0,0.0,0.0,0.0,12.514465,0.0,0.0,nan,0.0,0.0,0.0,0.0,0.0,0.0,0.0,0.0,1.0058079,1.0056502,1.0000563,0.0,0.0,0.0,0.0,0.0,0.0
43004000,42924000,0.3686701,0.3876522,0.22178479,7.678733,7.897255,1.1594096,0.0,0.0,0.0,0.0,0.0,0.0,0.0,12.520826,0.0,0.0,nan,0.0,0.0,0.0,0.0,0.0,0.0,0.0,0.0,1.0059078,1.005746,1.0000666,0.0,0.0,0.0,0.0,0.0,0.0
43508000,43428000,0.37485564,0.38945183,0.22154453,7.6345277,7.83787,1.1575505,0.0,0.0,0.0,0.0,0.0,0.0,0.0,12.503562,0.0,0.0,nan,0.0,0.0,0.0,0.0,0.0,0.0,0.0,0.0,1.0061129,1.0059468,1.0000744,0.0,0.0,0.0,0.0,0.0,0.0
44004000,43924000,0.37843457,0.3905546,0.22162522,7.616776,7.8099046,1.1567374,0.0,0.0,0.0,0.0,0.0,0.0,0.0,12.507074,0.0,0.0,nan,0.0,0.0,0.0,0.0,0.0,0.0,0.0,0.0,1.0062062,1.0060369,1.0000876,0.0,0.0,0.0,0.0,0.0,0.0
44508000,44428000,0.3823957,0.39194953,0.221567,7.6019535,7.783229,1.1579881,0.0,0.0,0.0,0.0,0.0,0.0,0.0,12.511502,0.0,0.0,nan,0.0,0.0,0.0,0.0,0.0,0.0,0.0,0.0,1.0064094,1.0062374,1.0000982,0.0,0.0,0.0,0.0,0.0,0.0
45012000,44932000,0.4045667,0.4095932,0.22150394,8.046072,8.221763,1.15673,0.0,0.0,0.0,0.0,0.0,0.0,0.0,12.518228,0.0,0.0,nan,0.0,0.0,0.0,0.0,0.0,0.0,0.0,0.0,1.0066113,1.0064378,1.0001106,0.0,0.0,0.0,0.0,0.0,0.0
45508000,45428000,0.40878657,0.4108859,0.22143325,8.022301,8.179031,1.1554962,0.0,0.0,0.0,0.0,0.0,0.0,0.0,12.501813,0.0,0.0,nan,0.0,0.0,0.0,0.0,0.0,0.0,0.0,0.0,1.0066805,1.0065085,1.00013,0.0,0.0,0.0,0.0,0.0,0.0
46004000,45924000,0.41388535,0.41309282,0.22158769,8.020456,8.157653,1.1551027,0.0,0.0,0.0,0.0,0.0,0.0,0.0,12.506453,0.0,0.0,nan,0.0,0.0,0.0,0.0,0.0,0.0,0.0,0.0,1.0068661,1.0066932,1.0001436,0.0,0.0,0.0,0.0,0.0,0.0
46508000,46428000,0.41966334,0.41595653,0.22163434,8.040699,8.157588,1.1573623,0.0,0.0,0.0,0.0,0.0,0.0,0.0,12.511032,0.0,0.0,nan,0.0,0.0,0.0,0.0,0.0,0.0,0.0,0.0,1.0069163,1.0067477,1.0001684,0.0,0.0,0.0,0.0,0.0,0.0
47004000,46924000,0.42898372,0.42001554,0.22169282,8.028809,8.10248,1.1556547,0.0,0.0,0.0,0.0,0.0,0.0,0.0,12.519508,0.0,0.0,nan,0.0,0.0,0.0,0.0,0.0,0.0,0.0,0.0,1.0070835,1.0069176,1.0001876,0.0,0.0,0.0,0.0,0.0,0.0
47508000,47428000,0.4343341,0.42302307,0.22172053,8.054764,8.106543,1.1578665,0.0,0.0,0.0,0.0,0.0,0.0,0.0,12.502405,0.0,0.0,nan,0.0,0.0,0.0,0.0,0.0,0.0,0.0,0.0,1.0072522,1.0070889,1.0002077,0.0,0.0,0.0,0.0,0.0,0.0
48004000,47924000,0.43884262,0.42546356,0.22167735,8.061607,8.091808,1.1572638,0.0,0.0,0.0,0.0,0.0,0.0,0.0,12.506818,0.0,0.0,nan,0.0,0.0,0.0,0.0,0.0,0.0,0.0,0.0,1.0072489,1.0070935,1.0002412,0.0,0.0,0.0,0.0,0.0,0.0
48508000,48428000,0.4431712,0.42778674,0.2216301,8.068817,8.0779085,1.1566463,0.0,0.0,0.0,0.0,0.0,0.0,0.0,12.514171,0.0,0.0,nan,0.0,0.0,0.0,0.0,0.0,0.0,0.0,0.0,1.0073922,1.0072445,1.0002675,0.0,0.0,0.0,0.0,0.0,0.0
49004000,48924000,0.45024145,0.43171868,0.22163528,8.061903,8.032,1.1566925,0.0,0.0,0.0,0.0,0.0,0.0,0.0,12.518702,0.0,0.0,nan,0.0,0.0,0.0,0.0,0.0,0.0,0.0,0.0,1.0073481,1.0072151,1.0003105,0.0,0.0,0.0,0.0,0.0,0.0
49508000,49428000,0.4543803,0.43450803,0.22165018,8.088251,8.03973,1.1568874,0.0,0.0,0.0,0.0,0.0,0.0,0.0,12.502841,0.0,0.0,nan,0.0,0.0,0.0,0.0,0.0,0.0,0.0,0.0,1.0074674,1.0073432,1.0003413,0.0,0.0,0.0,0.0,0.0,0.0
50012000,49932000,0.4747262,0.45289704,0.22155821,8.609906,8.535285,1.155692,0.0,0.0,0.0,0.0,0.0,0.0,0.0,12.507449,0.0,0.0,nan,0.0,0.0,0.0,0.0,0.0,0.0,0.0,0.0,1.0075773,1.0074619,1.0003734,0.0,0.0,0.0,0.0,0.0,0.0
50508000,50428000,0.472185,0.45470273,0.2217175,8.63759,8.545538,1.157952,0.0,0.0,0.0,0.0,0.0,0.0,0.0,12.514057,0.0,0.0,nan,0.0,0.0,0.0,0.0,0.0,0.0,0.0,0.0,1.0074049,1.0073202,1.0005639,0.0,0.0,0.0,0.0,0.0,0.0
51004000,50924000,0.46602744,0.45753095,0.22154118,8.595448,8.498154,1.1562299,0.0,0.0,0.0,0.0,0.0,0.0,0.0,12.517129,0.0,0.0,nan,0.0,0.0,0.0,0.0,0.0,0.0,0.0,0.0,1.0074354,1.0073872,1.0006626,0.0,0.0,0.0,0.0,0.0,0.0
51508000,51428000,0.46462384,0.45868778,0.22155772,8.600778,8.505844,1.1565748,0.0,0.0,0.0,0.0,0.0,0.0,0.0,12.502385,0.0,0.0,nan,0.0,0.0,0.0,0.0,0.0,0.0,0.0,0.0,1.0073433,1.0073453,1.0006294,0.0,0.0,0.0,0.0,0.0,0.0
52012000,51932000,0.45986572,0.45748904,0.22161978,8.555257,8.467854,1.1553645,0.0,0.0,0.0,0.0,0.0,0.0,0.0,12.50698,0.0,0.0,nan,0.0,0.0,0.0,0.0,0.0,0.0,0.0,0.0,1.0074502,1.0074837,1.0005608,0.0,0.0,0.0,0.0,0.0,0.0
52508000,52428000,0.45602185,0.45698524,0.22166066,8.545654,8.470777,1.1576084,0.0,0.0,0.0,0.0,0.0,0.0,0.0,12.511501,0.0,0.0,nan,0.0,0.0,0.0,0.0,0.0,0.0,0.0,0.0,1.0075182,1.0075649,1.0005527,0.0,0.0,0.0,0.0,0.0,0.0
53012000,52932000,0.45415178,0.4535928,0.22163951,8.461115,8.424265,1.1564472,0.0,0.0,0.0,0.0,0.0,0.0,0.0,12.519825,0.0,0.0,nan,0.0,0.0,0.0,0.0,0.0,0.0,0.0,0.0,1.0073572,1.0073942,1.0006211,0.0,0.0,0.0,0.0,0.0,0.0
53508000,53428000,0.4563603,0.452065,0.22177191,8.415672,8.397053,1.1558886,0.0,0.0,0.0,0.0,0.0,0.0,0.0,12.501097,0.0,0.0,nan,0.0,0.0,0.0,0.0,0.0,0.0,0.0,0.0,1.0073954,1.0073975,1.0006582,0.0,0.0,0.0,0.0,0.0,0.0
54004000,53924000,0.45647854,0.45009655,0.22165987,8.352061,8.346338,1.1566483,0.0,0.0,0.0,0.0,0.0,0.0,0.0,12.505633,0.0,0.0,nan,0.0,0.0,0.0,0.0,0.0,0.0,0.0,0.0,1.0072438,1.0072054,1.0006613,0.0,0.0,0.0,0.0,0.0,0.0
54508000,54428000,0.4555097,0.45046332,0.22162664,8.335686,8.337289,1.1568851,0.0,0.0,0.0,0.0,0.0,0.0,0.0,12.513766,0.0,0.0,nan,0.0,0.0,0.0,0.0,0.0,0.0,0.0,0.0,1.0073109,1.0072258,1.0006267,0.0,0.0,0.0,0.0,0.0,0.0
55004000,54924000,0.46597287,0.47140148,0.2215213,8.81675,8.823863,1.1569515,0.0,0.0,0.0,0.0,0.0,0.0,0.0,12.518329,0.0,0.0,nan,0.0,0.0,0.0,0.0,0.0,0.0,0.0,0.0,1.007365,1.007244,1.0005826,0.0,0.0,0.0,0.0,0.0,0.0
55508000,55428000,0.46648157,0.47404513,0.22153758,8.807998,8.818504,1.1570963,0.0,0.0,0.0,0.0,0.0,0.0,0.0,12.501651,0.0,0.0,nan,0.0,0.0,0.0,0.0,0.0,0.0,0.0,0.0,1.007175,1.007028,1.000634,0.0,0.0,0.0,0.0,0.0,0.0
56012000,55932000,0.46742523,0.4744729,0.22145192,8.753367,8.7684,1.1557868,0.0,0.0,0.0,0.0,0.0,0.0,0.0,12.506124,0.0,0.0,nan,0.0,0.0,0.0,0.0,0.0,0.0,0.0,0.0,1.0072373,1.0070249,1.0006336,0.0,0.0,0.0,0.0,0.0,0.0
56508000,56428000,0.4753376,0.48027703,0.22159822,8.723396,8.743399,1.1552749,0.0,0.0,0.0,0.0,0.0,0.0,0.0,12.512491,0.0,0.0,nan,0.0,0.0,0.0,0.0,0.0,0.0,0.0,0.0,1.007096,1.0068517,1.0006174,0.0,0.0,0.0,0.0,0.0,0.0
57004000,56924000,0.66127956,0.50968593,0.21897678,8.747371,8.739872,1.153945,0.0,0.0,0.0,0.0,0.0,0.0,0.0,12.515222,0.0,0.0,nan,0.0,0.0,0.0,0.0,0.0,0.0,0.0,0.0,1.0070399,1.0068544,1.0006474,0.0,0.0,0.0,0.0,0.0,0.0
57508000,57428000,0.67489624,0.50696516,0.21736793,8.803047,8.734318,1.1509075,0.0,0.0,0.0,0.0,0.0,0.0,0.0,12.496335,0.0,0.0,nan,0.0,0.0,0.0,0.0,0.0,0.0,0.0,0.0,1.0068213,1.0066528,1.0006537,0.0,0.0,0.0,0.0,0.0,0.0
58012000,57932000,0.6728116,0.50367033,0.2159538,8.871292,8.721304,1.1490549,0.0,0.0,0.0,0.0,0.0,0.0,0.0,12.499829,0.0,0.0,nan,0.0,0.0,0.0,0.0,0.0,0.0,0.0,0.0,1.0067849,1.0066446,1.0006555,0.0,0.0,0.0,0.0,0.0,0.0
58508000,58428000,0.65313447,0.4983965,0.21474093,8.935143,8.698702,1.1449459,0.0,0.0,0.0,0.0,0.0,0.0,0.0,12.499627,0.0,0.0,nan,0.0,0.0,0.0,0.0,0.0,0.0,0.0,0.0,1.0067385,1.0066271,1.0006492,0.0,0.0,0.0,0.0,0.0,0.0
59012000,58932000,0.5771332,0.48375893,0.21359244,9.015202,8.648876,1.1369476,0.0,0.0,0.0,0.0,0.0,0.0,0.0,12.500705,0.0,0.0,nan,0.0,0.0,0.0,0.0,0.0,0.0,0.0,0.0,1.0064867,1.0064178,1.0005856,0.0,0.0,0.0,0.0,0.0,0.0
59508000,59428000,0.5326327,0.47389188,0.21350236,8.960455,8.576644,1.1340045,0.0,0.0,0.0,0.0,0.0,0.0,0.0,12.483807,0.0,0.0,nan,0.0,0.0,0.0,0.0,0.0,0.0,0.0,0.0,1.0064541,1.0064054,1.0005682,0.0,0.0,0.0,0.0,0.0,0.0
60004000,59924000,0.49214962,0.46444374,0.21377729,8.892294,8.520941,1.1306475,0.0,0.0,0.0,0.0,0.0,0.0,0.0,12.483626,0.0,0.0,nan,0.0,0.0,0.0,0.0,0.0,0.0,0.0,0.0,1.0062429,1.006213,1.0005872,0.0,0.0,0.0,0.0,0.0,0.0
60508000,60428000,0.48957095,0.4771151,0.21443096,9.450962,9.062744,1.1281009,0.0,0.0,0.0,0.0,0.0,0.0,0.0,12.486595,0.0,0.0,nan,0.0,0.0,0.0,0.0,0.0,0.0,0.0,0.0,1.0062394,1.006217,1.0005836,0.0,0.0,0.0,0.0,0.0,0.0
61004000,60924000,0.48309168,0.47290173,0.21529908,9.359025,9.019065,1.1282136,0.0,0.0,0.0,0.0,0.0,0.0,0.0,12.489091,0.0,0.0,nan,0.0,0.0,0.0,0.0,0.0,0.0,0.0,0.0,1.0062388,1.0062249,1.0005809,0.0,0.0,0.0,0.0,0.0,0.0
61508000,61428000,0.46965063,0.46335587,0.21727441,9.143477,8.886886,1.1277187,0.0,0.0,0.0,0.0,0.0,0.0,0.0,12.478157,0.0,0.0,nan,0.0,0.0,0.0,0.0,0.0,0.0,0.0,0.0,1.0060763,1.0060871,1.0005505,0.0,0.0,0.0,0.0,0.0,0.0
62004000,61924000,0.46331504,0.45842773,0.21840154,9.043627,8.821873,1.1301914,0.0,0.0,0.0,0.0,0.0,0.0,0.0,12.485833,0.0,0.0,nan,0.0,0.0,0.0,0.0,0.0,0.0,0.0,0.0,1.0060848,1.0060779,1.0005908,0.0,0.0,0.0,0.0,0.0,0.0
62508000,62428000,0.45548218,0.45276225,0.21935351,8.924876,8.734394,1.1315348,0.0,0.0,0.0,0.0,0.0,0.0,0.0,12.492066,0.0,0.0,nan,0.0,0.0,0.0,0.0,0.0,0.0,0.0,0.0,1.005927,1.0059346,1.0006456,0.0,0.0,0.0,0.0,0.0,0.0
63004000,62924000,0.445963,0.44317254,0.22031136,8.851561,8.690041,1.1346022,0.0,0.0,0.0,0.0,0.0,0.0,0.0,12.499164,0.0,0.0,nan,0.0,0.0,0.0,0.0,0.0,0.0,0.0,0.0,1.0059384,1.0059745,1.0006567,0.0,0.0,0.0,0.0,0.0,0.0
63508000,63428000,0.44137406,0.44061607,0.22139055,8.663354,8.541184,1.1419135,0.0,0.0,0.0,0.0,0.0,0.0,0.0,12.491627,0.0,0.0,nan,0.0,0.0,0.0,0.0,0.0,0.0,0.0,0.0,1.0059683,1.005978,1.0007033,0.0,0.0,0.0,0.0,0.0,0.0
64012000,63932000,0.4365458,0.43705449,0.2195982,8.586271,8.4823265,1.1437778,0.0,0.0,0.0,0.0,0.0,0.0,0.0,12.496462,0.0,0.0,nan,0.0,0.0,0.0,0.0,0.0,0.0,0.0,0.0,1.0058407,1.0058485,1.0007687,0.0,0.0,0.0,0.0,0.0,0.0
64508000,64428000,0.43184653,0.43350783,0.21817479,8.511217,8.4241085,1.1440821,0.0,0.0,0.0,0.0,0.0,0.0,0.0,12.502101,0.0,0.0,nan,0.0,0.0,0.0,0.0,0.0,0.0,0.0,0.0,1.0058717,1.005876,1.000815,0.0,0.0,0.0,0.0,0.0,0.0
65012000,64932000,0.4237865,0.42682475,0.2162744,8.366896,8.309437,1.1430336,0.0,0.0,0.0,0.0,0.0,0.0,0.0,12.503223,0.0,0.0,nan,0.0,0.0,0.0,0.0,0.0,0.0,0.0,0.0,1.005766,1.0057577,1.0008767,0.0,0.0,0.0,0.0,0.0,0.0
65508000,65428000,0.41824788,0.42294672,0.21589136,8.297453,8.2529545,1.1408035,0.0,0.0,0.0,0.0,0.0,0.0,0.0,12.489977,0.0,0.0,nan,0.0,0.0,0.0,0.0,0.0,0.0,0.0,0.0,1.0058087,1.0057968,1.0009277,0.0,0.0,0.0,0.0,0.0,0.0
66004000,65924000,0.4319074,0.43673807,0.21588871,8.77253,8.734701,1.137963,0.0,0.0,0.0,0.0,0.0,0.0,0.0,12.490473,0.0,0.0,nan,0.0,0.0,0.0,0.0,0.0,0.0,0.0,0.0,1.0058446,1.0058326,1.0009869,0.0,0.0,0.0,0.0,0.0,0.0
66508000,66428000,0.42781037,0.4330998,0.21610606,8.699436,8.673763,1.1374809,0.0,0.0,0.0,0.0,0.0,0.0,0.0,12.493916,0.0,0.0,nan,0.0,0.0,0.0,0.0,0.0,0.0,0.0,0.0,1.0057513,1.0057263,1.0010602,0.0,0.0,0.0,0.0,0.0,0.0
67004000,66924000,0.4244816,0.4302299,0.21658719,8.649599,8.634954,1.1364089,0.0,0.0,0.0,0.0,0.0,0.0,0.0,12.496587,0.0,0.0,nan,0.0,0.0,0.0,0.0,0.0,0.0,0.0,0.0,1.0058029,1.0057659,1.0011119,0.0,0.0,0.0,0.0,0.0,0.0
67508000,67428000,0.4164825,0.42263678,0.21795912,8.490797,8.494372,1.1343827,0.0,0.0,0.0,0.0,0.0,0.0,0.0,12.483758,0.0,0.0,nan,0.0,0.0,0.0,0.0,0.0,0.0,0.0,0.0,1.0057205,1.0056666,1.0011847,0.0,0.0,0.0,0.0,0.0,0.0
68004000,67924000,0.41374078,0.4199611,0.2188003,8.445425,8.456668,1.1366979,0.0,0.0,0.0,0.0,0.0,0.0,0.0,12.490918,0.0,0.0,nan,0.0,0.0,0.0,0.0,0.0,0.0,0.0,0.0,1.0057782,1.0057095,1.0012347,0.0,0.0,0.0,0.0,0.0,0.0
68508000,68428000,0.41057107,0.41675264,0.21959947,8.380873,8.398547,1.1375356,0.0,0.0,0.0,0.0,0.0,0.0,0.0,12.4962,0.0,0.0,nan,0.0,0.0,0.0,0.0,0.0,0.0,0.0,0.0,1.0058446,1.0057594,1.0012817,0.0,0.0,0.0,0.0,0.0,0.0
69004000,68924000,0.40441552,0.41012147,0.22113678,8.237022,8.264332,1.1416924,0.0,0.0,0.0,0.0,0.0,0.0,0.0,12.502405,0.0,0.0,nan,0.0,0.0,0.0,0.0,0.0,0.0,0.0,0.0,1.0057677,1.0056618,1.0013471,0.0,0.0,0.0,0.0,0.0,0.0
69508000,69428000,0.40259114,0.40786582,0.22180258,8.198022,8.228931,1.1444174,0.0,0.0,0.0,0.0,0.0,0.0,0.0,12.493457,0.0,0.0,nan,0.0,0.0,0.0,0.0,0.0,0.0,0.0,0.0,1.0058383,1.005714,1.0013896,0.0,0.0,0.0,0.0,0.0,0.0
70004000,69924000,0.40040123,0.40509838,0.22228888,8.140813,8.174053,1.1465843,0.0,0.0,0.0,0.0,0.0,0.0,0.0,12.4999485,0.0,0.0,nan,0.0,0.0,0.0,0.0,0.0,0.0,0.0,0.0,1.0057682,1.005621,1.0014462,0.0,0.0,0.0,0.0,0.0,0.0
70508000,70428000,0.39783868,0.40184307,0.22260332,8.065969,8.100227,1.1481397,0.0,0.0,0.0,0.0,0.0,0.0,0.0,12.5070505,0.0,0.0,nan,0.0,0.0,0.0,0.0,0.0,0.0,0.0,0.0,1.0058422,1.005675,1.0014836,0.0,0.0,0.0,0.0,0.0,0.0
71012000,70932000,0.41068718,0.4135946,0.22317737,8.505753,8.545289,1.154556,0.0,0.0,0.0,0.0,0.0,0.0,0.0,12.514055,0.0,0.0,nan,0.0,0.0,0.0,0.0,0.0,0.0,0.0,0.0,1.0059174,1.0057294,1.0015204,0.0,0.0,0.0,0.0,0.0,0.0
71508000,71428000,0.40856618,0.41068694,0.2231205,8.430664,8.468512,1.1551924,0.0,0.0,0.0,0.0,0.0,0.0,0.0,12.503303,0.0,0.0,nan,0.0,0.0,0.0,0.0,0.0,0.0,0.0,0.0,1.0058508,1.0056396,1.0015694,0.0,0.0,0.0,0.0,0.0,0.0
72004000,71924000,0.40722197,0.4085445,0.22321308,8.378239,8.413763,1.15624,0.0,0.0,0.0,0.0,0.0,0.0,0.0,12.50926,0.0,0.0,nan,0.0,0.0,0.0,0.0,0.0,0.0,0.0,0.0,1.005922,1.00569,1.001601,0.0,0.0,0.0,0.0,0.0,0.0
72508000,72428000,0.4060223,0.4065712,0.22307055,8.327742,8.3602,1.1589427,0.0,0.0,0.0,0.0,0.0,0.0,0.0,12.513349,0.0,0.0,nan,0.0,0.0,0.0,0.0,0.0,0.0,0.0,0.0,1.0058607,1.0056068,1.001646,0.0,0.0,0.0,0.0,0.0,0.0
73012000,72932000,0.4040932,0.40325573,0.22265862,8.23226,8.256966,1.1592479,0.0,0.0,0.0,0.0,0.0,0.0,0.0,12.5209675,0.0,0.0,nan,0.0,0.0,0.0,0.0,0.0,0.0,0.0,0.0,1.0059363,1.0056623,1.0016754,0.0,0.0,0.0,0.0,0.0,0.0
73508000,73428000,0.4032761,0.40187344,0.22243978,8.187101,8.20742,1.1590613,0.0,0.0,0.0,0.0,0.0,0.0,0.0,12.505872,0.0,0.0,nan,0.0,0.0,0.0,0.0,0.0,0.0,0.0,0.0,1.006006,1.0057131,1.0017043,0.0,0.0,0.0,0.0,0.0,0.0
74004000,73924000,0.40255612,0.4006636,0.22239037,8.143532,8.159286,1.1607078,0.0,0.0,0.0,0.0,0.0,0.0,0.0,12.510577,0.0,0.0,nan,0.0,0.0,0.0,0.0,0.0,0.0,0.0,0.0,1.0059348,1.0056247,1.0017446,0.0,0.0,0.0,0.0,0.0,0.0
74508000,74428000,0.40189585,0.39961743,0.22217855,8.101425,8.112581,1.1600974,0.0,0.0,0.0,0.0,0.0,0.0,0.0,12.514359,0.0,0.0,nan,0.0,0.0,0.0,0.0,0.0,0.0,0.0,0.0,1.0060077,1.0056804,1.0017698,0.0,0.0,0.0,0.0,0.0,0.0
75004000,74924000,0.40064684,0.39797515,0.22181135,8.021154,8.023503,1.1585484,0.0,0.0,0.0,0.0,0.0,0.0,0.0,12.520952,0.0,0.0,nan,0.0,0.0,0.0,0.0,0.0,0.0,0.0,0.0,1.0059317,1.0055921,1.0018042,0.0,0.0,0.0,0.0,0.0,0.0
75508000,75428000,0.40003395,0.39732185,0.2216719,7.9826837,7.98106,1.1577748,0.0,0.0,0.0,0.0,0.0,0.0,0.0,12.50169,0.0,0.0,nan,0.0,0.0,0.0,0.0,0.0,0.0,0.0,0.0,1.0060004,1.0056475,1.0018256,0.0,0.0,0.0,0.0,0.0,0.0
76004000,75924000,0.41507185,0.41222873,0.22171652,8.463498,8.457494,1.1569965,0.0,0.0,0.0,0.0,0.0,0.0,0.0,12.508085,0.0,0.0,nan,0.0,0.0,0.0,0.0,0.0,0.0,0.0,0.0,1.0060617,1.005698,1.0018442,0.0,0.0,0.0,0.0,0.0,0.0
76508000,76428000,0.4151462,0.41242772,0.22167522,8.444837,8.435094,1.1589565,0.0,0.0,0.0,0.0,0.0,0.0,0.0,12.513657,0.0,0.0,nan,0.0,0.0,0.0,0.0,0.0,0.0,0.0,0.0,1.0059813,1.0056145,1.0018665,0.0,0.0,0.0,0.0,0.0,0.0
77004000,76924000,0.41351518,0.4113153,0.22149801,8.348087,8.333005,1.1568716,0.0,0.0,0.0,0.0,0.0,0.0,0.0,12.516663,0.0,0.0,nan,0.0,0.0,0.0,0.0,0.0,0.0,0.0,0.0,1.0060377,1.0056646,1.0018803,0.0,0.0,0.0,0.0,0.0,0.0
77508000,77428000,0.41301516,0.4112784,0.22147231,8.3110695,8.294238,1.1563821,0.0,0.0,0.0,0.0,0.0,0.0,0.0,12.50188,0.0,0.0,nan,0.0,0.0,0.0,0.0,0.0,0.0,0.0,0.0,1.0059502,1.0055808,1.0018926,0.0,0.0,0.0,0.0,0.0,0.0
78004000,77924000,0.41317618,0.41196522,0.22149947,8.294935,8.276939,1.1565537,0.0,0.0,0.0,0.0,0.0,0.0,0.0,12.50556,0.0,0.0,nan,0.0,0.0,0.0,0.0,0.0,0.0,0.0,0.0,1.006001,1.0056303,1.001897,0.0,0.0,0.0,0.0,0.0,0.0
78508000,78428000,0.4126575,0.41207632,0.221472,8.258938,8.240616,1.1559908,0.0,0.0,0.0,0.0,0.0,0.0,0.0,12.51301,0.0,0.0,nan,0.0,0.0,0.0,0.0,0.0,0.0,0.0,0.0,1.0060548,1.0056853,1.0018982,0.0,0.0,0.0,0.0,0.0,0.0
79004000,78924000,0.4115125,0.41150665,0.22154725,8.203211,8.185358,1.1567,0.0,0.0,0.0,0.0,0.0,0.0,0.0,12.517734,0.0,0.0,nan,0.0,0.0,0.0,0.0,0.0,0.0,0.0,0.0,1.0059512,1.0055959,1.0018888,0.0,0.0,0.0,0.0,0.0,0.0
79508000,79428000,0.4103667,0.41166794,0.22165143,8.133156,8.117886,1.1556185,0.0,0.0,0.0,0.0,0.0,0.0,0.0,12.500758,0.0,0.0,nan,0.0,0.0,0.0,0.0,0.0,0.0,0.0,0.0,1.0060002,1.0056505,1.0018789,0.0,0.0,0.0,0.0,0.0,0.0
80004000,79924000,0.41038316,0.41233027,0.22168638,8.118413,8.105211,1.1558666,0.0,0.0,0.0,0.0,0.0,0.0,0.0,12.507283,0.0,0.0,nan,0.0,0.0,0.0,0.0,0.0,0.0,0.0,0.0,1.0058906,1.0055615,1.0018519,0.0,0.0,0.0,0.0,0.0,0.0
80508000,80428000,0.41353363,0.4118727,0.22160664,8.0644245,8.053381,1.156623,0.0,0.0,0.0,0.0,0.0,0.0,0.0,12.511199,0.0,0.0,nan,0.0,0.0,0.0,0.0,0.0,0.0,0.0,0.0,1.0059345,1.0056158,1.0018302,0.0,0.0,0.0,0.0,0.0,0.0
81012000,80932000,0.46155164,0.41578823,0.22170423,8.042831,8.008962,1.1564741,0.0,0.0,0.0,0.0,0.0,0.0,0.0,12.517993,0.0,0.0,nan,0.0,0.0,0.0,0.0,0.0,0.0,0.0,0.0,1.0058382,1.0055321,1.0017769,0.0,0.0,0.0,0.0,0.0,0.0
81508000,81428000,0.49484396,0.44885218,0.22131336,8.576524,8.5069475,1.156074,0.0,0.0,0.0,0.0,0.0,0.0,0.0,12.499597,0.0,0.0,nan,0.0,0.0,0.0,0.0,0.0,0.0,0.0,0.0,1.0056926,1.0055646,1.0019913,0.0,0.0,0.0,0.0,0.0,0.0
82004000,81924000,0.4393252,0.44537714,0.21925817,8.547197,8.4691925,1.1559067,0.0,0.0,0.0,0.0,0.0,0.0,0.0,12.506115,0.0,0.0,nan,0.0,0.0,0.0,0.0,0.0,0.0,0.0,0.0,1.00234,1.006156,1.0049794,0.0,0.0,0.0,0.0,0.0,0.0
82508000,82428000,0.41188267,0.41050637,0.21753547,8.501824,8.427845,1.1531682,0.0,0.0,0.0,0.0,0.0,0.0,0.0,12.50745,0.0,0.0,nan,0.0,0.0,0.0,0.0,0.0,0.0,0.0,0.0,1.005486,1.0063257,1.0018172,0.0,0.0,0.0,0.0,0.0,0.0
83004000,82924000,0.43709174,0.39335713,0.21719913,8.398741,8.298875,1.1474632,0.0,0.0,0.0,0.0,0.0,0.0,0.0,12.507808,0.0,0.0,nan,0.0,0.0,0.0,0.0,0.0,0.0,0.0,0.0,1.0054202,1.0059804,1.0022649,0.0,0.0,0.0,0.0,0.0,0.0
83508000,83428000,0.4512419,0.38869178,0.22110015,8.367956,8.234614,1.1443156,0.0,0.0,0.0,0.0,0.0,0.0,0.0,12.492404,0.0,0.0,nan,0.0,0.0,0.0,0.0,0.0,0.0,0.0,0.0,1.0052363,1.0055093,1.0040065,0.0,0.0,0.0,0.0,0.0,0.0
84004000,83924000,0.47593257,0.38367075,0.23067911,8.351235,8.169233,1.1437156,0.0,0.0,0.0,0.0,0.0,0.0,0.0,12.497978,0.0,0.0,nan,0.0,0.0,0.0,0.0,0.0,0.0,0.0,0.0,1.0051666,1.0052202,1.0099468,0.0,0.0,0.0,0.0,0.0,0.0
84508000,84428000,0.5891363,0.45523378,0.32945466,8.356001,8.105665,1.1546612,0.0,0.0,0.0,0.0,0.0,0.0,0.0,12.528699,0.0,0.0,nan,0.0,0.0,0.0,0.0,0.0,0.0,0.0,0.0,1.0050652,1.0049708,1.0279858,0.0,0.0,0.0,0.0,0.0,0.0
85004000,84924000,0.84683657,0.59468913,0.43293864,8.506645,8.047083,1.6558888,0.0,0.0,0.0,0.0,0.0,0.0,0.0,13.054184,0.0,0.0,nan,0.0,0.0,0.0,0.0,0.0,0.0,0.0,0.0,1.0049173,1.0046433,1.0304564,0.0,0.0,0.0,0.0,0.0,0.0
85508000,85428000,0.9799781,0.6594465,0.5486896,8.681261,8.070927,1.3793509,0.0,0.0,0.0,0.0,0.0,0.0,0.0,12.649606,0.0,0.0,nan,0.0,0.0,0.0,0.0,0.0,0.0,0.0,0.0,1.0049136,1.0044739,1.0299848,0.0,0.0,0.0,0.0,0.0,0.0
86012000,85932000,1.0978864,0.7194005,0.66598225,8.906801,8.128955,1.3610044,0.0,0.0,0.0,0.0,0.0,0.0,0.0,12.686683,0.0,0.0,nan,0.0,0.0,0.0,0.0,0.0,0.0,0.0,0.0,1.004817,1.0042255,1.0285821,0.0,0.0,0.0,0.0,0.0,0.0
86508000,86428000,1.1842989,0.77576435,0.75492764,9.179099,8.240767,1.4157342,0.0,0.0,0.0,0.0,0.0,0.0,0.0,12.772402,0.0,0.0,nan,0.0,0.0,0.0,0.0,0.0,0.0,0.0,0.0,1.0048246,1.0041246,1.0294105,0.0,0.0,0.0,0.0,0.0,0.0
87004000,86924000,1.2694252,0.8489429,0.7871845,10.116999,8.913244,1.4683071,0.0,0.0,0.0,0.0,0.0,0.0,0.0,12.857997,0.0,0.0,nan,0.0,0.0,0.0,0.0,0.0,0.0,0.0,0.0,1.0048413,1.004065,1.0300406,0.0,0.0,0.0,0.0,0.0,0.0
87508000,87428000,1.2292144,0.93147004,0.79032266,10.419534,9.238329,1.5335053,0.0,0.0,0.0,0.0,0.0,0.0,0.0,12.754739,0.0,0.0,nan,0.0,0.0,0.0,0.0,0.0,0.0,0.0,0.0,1.0047303,1.004022,1.0346762,0.0,0.0,0.0,0.0,0.0,0.0
88004000,87924000,1.1751429,0.9623381,0.7818283,10.463416,9.409183,1.5318184,0.0,0.0,0.0,0.0,0.0,0.0,0.0,12.7839985,0.0,0.0,nan,0.0,0.0,0.0,0.0,0.0,0.0,0.0,0.0,1.0048072,1.0040349,1.0311103,0.0,0.0,0.0,0.0,0.0,0.0
88508000,88428000,1.11813,0.9865569,0.7764213,10.450181,9.572515,1.5271096,0.0,0.0,0.0,0.0,0.0,0.0,0.0,12.858449,0.0,0.0,nan,0.0,0.0,0.0,0.0,0.0,0.0,0.0,0.0,1.0048563,1.0040098,1.0258658,0.0,0.0,0.0,0.0,0.0,0.0
89004000,88924000,1.0695254,1.0067122,0.78913903,10.43819,9.753447,1.551105,0.0,0.0,0.0,0.0,0.0,0.0,0.0,12.897713,0.0,0.0,nan,0.0,0.0,0.0,0.0,0.0,0.0,0.0,0.0,1.0049989,1.0040683,1.0216602,0.0,0.0,0.0,0.0,0.0,0.0
89508000,89428000,1.0036695,1.0275916,0.7542825,10.253277,9.982616,1.5300722,0.0,0.0,0.0,0.0,0.0,0.0,0.0,12.757162,0.0,0.0,nan,0.0,0.0,0.0,0.0,0.0,0.0,0.0,0.0,1.0051509,1.0041673,1.0174567,0.0,0.0,0.0,0.0,0.0,0.0
90004000,89924000,0.98858297,1.030074,0.7414553,10.130547,10.023786,1.5121903,0.0,0.0,0.0,0.0,0.0,0.0,0.0,12.792182,0.0,0.0,nan,0.0,0.0,0.0,0.0,0.0,0.0,0.0,0.0,1.0053042,1.0042152,1.0139234,0.0,0.0,0.0,0.0,0.0,0.0
90508000,90428000,0.9843645,1.0310363,0.71276987,10.047043,10.073247,1.5223978,0.0,0.0,0.0,0.0,0.0,0.0,0.0,12.822995,0.0,0.0,nan,0.0,0.0,0.0,0.0,0.0,0.0,0.0,0.0,1.005535,1.0043246,1.0111988,0.0,0.0,0.0,0.0,0.0,0.0
91012000,90932000,0.9828954,1.0272412,0.64922976,9.959584,10.132641,1.4915833,0.0,0.0,0.0,0.0,0.0,0.0,0.0,12.868939,0.0,0.0,nan,0.0,0.0,0.0,0.0,0.0,0.0,0.0,0.0,1.0057336,1.0044334,1.0086892,0.0,0.0,0.0,0.0,0.0,0.0
91508000,91428000,1.0235076,1.071603,0.6321049,10.74258,10.987564,1.4860657,0.0,0.0,0.0,0.0,0.0,0.0,0.0,12.721725,0.0,0.0,nan,0.0,0.0,0.0,0.0,0.0,0.0,0.0,0.0,1.005986,1.0045853,1.0075184,0.0,0.0,0.0,0.0,0.0,0.0
92012000,91932000,1.0215187,1.0679051,0.6128305,10.689135,10.955447,1.4703311,0.0,0.0,0.0,0.0,0.0,0.0,0.0,12.745409,0.0,0.0,nan,0.0,0.0,0.0,0.0,0.0,0.0,0.0,0.0,1.0062522,1.0047613,1.006687,0.0,0.0,0.0,0.0,0.0,0.0
92508000,92428000,1.0196418,1.064572,0.6063904,10.633765,10.909396,1.4561439,0.0,0.0,0.0,0.0,0.0,0.0,0.0,12.784427,0.0,0.0,nan,0.0,0.0,0.0,0.0,0.0,0.0,0.0,0.0,1.0064919,1.0049287,1.006024,0.0,0.0,0.0,0.0,0.0,0.0
93004000,92924000,1.0167545,1.0597848,0.58629537,10.515353,10.790109,1.4526242,0.0,0.0,0.0,0.0,0.0,0.0,0.0,12.806302,0.0,0.0,nan,0.0,0.0,0.0,0.0,0.0,0.0,0.0,0.0,1.006765,1.0051439,1.0055327,0.0,0.0,0.0,0.0,0.0,0.0
93508000,93428000,1.0159217,1.0585964,0.5789917,10.453587,10.722937,1.4441843,0.0,0.0,0.0,0.0,0.0,0.0,0.0,12.706374,0.0,0.0,nan,0.0,0.0,0.0,0.0,0.0,0.0,0.0,0.0,1.0070325,1.0053475,1.0051821,0.0,0.0,0.0,0.0,0.0,0.0
94004000,93924000,1.0155504,1.0582403,0.58027804,10.391198,10.653878,1.435965,0.0,0.0,0.0,0.0,0.0,0.0,0.0,12.727771,0.0,0.0,nan,0.0,0.0,0.0,0.0,0.0,0.0,0.0,0.0,1.0073346,1.0055798,1.0049176,0.0,0.0,0.0,0.0,0.0,0.0
94508000,94428000,1.0173981,1.0606463,0.57763946,10.362712,10.620157,1.4345139,0.0,0.0,0.0,0.0,0.0,0.0,0.0,12.768477,0.0,0.0,nan,0.0,0.0,0.0,0.0,0.0,0.0,0.0,0.0,1.007652,1.005828,1.0046726,0.0,0.0,0.0,0.0,0.0,0.0
95004000,94924000,0.94238734,0.98699915,0.49545795,10.204192,10.446807,1.4324379,0.0,0.0,0.0,0.0,0.0,0.0,0.0,12.786764,0.0,0.0,nan,0.0,0.0,0.0,0.0,0.0,0.0,0.0,0.0,1.0079287,1.0060701,1.0044463,0.0,0.0,0.0,0.0,0.0,0.0
95508000,95428000,0.8700137,0.91588247,0.42909816,10.126142,10.363532,1.4138473,0.0,0.0,0.0,0.0,0.0,0.0,0.0,12.681079,0.0,0.0,nan,0.0,0.0,0.0,0.0,0.0,0.0,0.0,0.0,1.0082611,1.0063387,1.0042562,0.0,0.0,0.0,0.0,0.0,0.0
96004000,95924000,0.8022704,0.8497846,0.38151133,10.025554,10.259102,1.3877017,0.0,0.0,0.0,0.0,0.0,0.0,0.0,12.684604,0.0,0.0,nan,0.0,0.0,0.0,0.0,0.0,0.0,0.0,0.0,1.0085493,1.0065932,1.0041152,0.0,0.0,0.0,0.0,0.0,0.0
96508000,96428000,0.74035525,0.78992057,0.35389334,9.901158,10.132615,1.3714362,0.0,0.0,0.0,0.0,0.0,0.0,0.0,12.683505,0.0,0.0,nan,0.0,0.0,0.0,0.0,0.0,0.0,0.0,0.0,1.0088861,1.0068837,1.0039645,0.0,0.0,0.0,0.0,0.0,0.0
97004000,96924000,0.685253,0.73750687,0.33546746,9.784492,10.017655,1.3490423,0.0,0.0,0.0,0.0,0.0,0.0,0.0,12.525356,0.0,0.0,nan,0.0,0.0,0.0,0.0,0.0,0.0,0.0,0.0,1.0071633,1.0058414,1.002147,0.0,0.0,0.0,0.0,0.0,0.0
97508000,97428000,0.098331325,0.09852011,0.21760607,1.0003614,1.0003684,1.1182312,0.0,0.0,0.0,0.0,0.0,0.0,0.0,12.465832,0.0,0.0,nan,0.0,0.0,0.0,0.0,0.0,0.0,0.0,0.0,1.006642,1.0055444,1.0013658,0.0,0.0,0.0,0.0,0.0,0.0
98012000,97932000,0.09423877,0.09432786,0.21388844,1.0002762,1.0002784,1.1023359,0.0,0.0,0.0,0.0,0.0,0.0,0.0,12.454725,0.0,0.0,nan,0.0,0.0,0.0,0.0,0.0,0.0,0.0,0.0,1.0068158,1.0057293,1.0010878,0.0,0.0,0.0,0.0,0.0,0.0
98508000,98428000,0.09183177,0.09187366,0.21230642,1.0001696,1.0001712,1.0906533,0.0,0.0,0.0,0.0,0.0,0.0,0.0,12.445047,0.0,0.0,nan,0.0,0.0,0.0,0.0,0.0,0.0,0.0,0.0,1.0071057,1.0060003,1.0007948,0.0,0.0,0.0,0.0,0.0,0.0
99012000,98932000,0.090863146,0.09086882,0.21086189,1.0001034,1.0001037,1.0750877,0.0,0.0,0.0,0.0,0.0,0.0,0.0,12.437662,0.0,0.0,nan,0.0,0.0,0.0,0.0,0.0,0.0,0.0,0.0,1.007433,1.0062995,1.0006543,0.0,0.0,0.0,0.0,0.0,0.0
99508000,99428000,0.09075558,0.09075673,0.21033943,1.0000907,1.0000908,1.0696913,0.0,0.0,0.0,0.0,0.0,0.0,0.0,12.427848,0.0,0.0,nan,0.0,0.0,0.0,0.0,0.0,0.0,0.0,0.0,1.0077454,1.0065873,1.0005524,0.0,0.0,0.0,0.0,0.0,0.0
