timestamp,unallocated_torque[0],unallocated_torque[1],unallocated_torque[2],unallocated_thrust[0],unallocated_thrust[1],unallocated_thrust[2],handled_motor_failure_mask,torque_setpoint_achieved,thrust_setpoint_achieved,actuator_saturation[0],actuator_saturation[1],actuator_saturation[2],actuator_saturation[3],actuator_saturation[4],actuator_saturation[5],actuator_saturation[6],actuator_saturation[7],actuator_saturation[8],actuator_saturation[9],actuator_saturation[10],actuator_saturation[11],actuator_saturation[12],actuator_saturation[13],actuator_saturation[14],actuator_saturation[15]
3228000,0.0008579367,0.0010218772,0.00038851248,0.0,0.0,0.0,0,0,1,-2,-2,-2,-2,2,2,2,2,2,2,2,2,2,2,2,2
3236000,0.0006740596,0.00059171114,0.00014466389,0.0,0.0,2.910383e-11,0,1,1,-2,-2,-2,-2,2,2,2,2,2,2,2,2,2,2,2,2
3420000,0.00057194463,2.870796e-05,0.00040667458,0.0,0.0,0.0,0,1,1,-2,-2,-2,-2,2,2,2,2,2,2,2,2,2,2,2,2
3628000,0.01869792,0.02249351,0.00043662894,0.0,0.0,1.1641532e-10,0,0,1,0,-2,0,-2,2,2,2,2,2,2,2,2,2,2,2,2
3820000,0.020474346,0.022568163,0.00073864456,0.0,0.0,1.1641532e-10,0,0,1,0,-2,0,-2,2,2,2,2,2,2,2,2,2,2,2,2
4020000,0.019713018,0.02213543,9.046226e-05,0.0,0.0,1.1641532e-10,0,0,1,0,-2,0,-2,2,2,2,2,2,2,2,2,2,2,2,2
4228000,0.018986419,0.02194991,-2.9743837e-06,0.0,0.0,1.0477379e-09,0,0,1,0,-2,0,-2,2,2,2,2,2,2,2,2,2,2,2,2
4420000,0.019303208,0.021334765,-0.00032918004,0.0,0.0,5.820766e-10,0,0,1,0,-2,0,-2,2,2,2,2,2,2,2,2,2,2,2,2
4620000,0.019428363,0.020548584,2.2444676e-05,0.0,0.0,5.820766e-10,0,0,1,0,-2,0,-2,2,2,2,2,2,2,2,2,2,2,2,2
4828000,0.019153295,0.019313231,0.0009912802,0.0,0.0,1.1641532e-10,0,0,1,0,-2,0,-2,2,2,2,2,2,2,2,2,2,2,2,2
5028000,0.018307382,0.018688064,-0.00010851193,0.0,0.0,4.656613e-10,0,0,1,0,-2,0,-2,2,2,2,2,2,2,2,2,2,2,2,2
5228000,0.017265439,0.02003608,0.00034830646,0.0,0.0,-2.3283064e-10,0,0,1,0,-2,0,-2,2,2,2,2,2,2,2,2,2,2,2,2
5428000,0.017489854,0.01941114,0.00061069895,0.0,0.0,5.820766e-10,0,0,1,0,-2,0,-2,2,2,2,2,2,2,2,2,2,2,2,2
5620000,0.017090175,0.019457955,0.0011414441,0.0,0.0,4.656613e-10,0,0,1,0,-2,0,-2,2,2,2,2,2,2,2,2,2,2,2,2
5820000,0.018235136,0.018555872,0.00068607746,0.0,0.0,1.0477379e-09,0,0,1,0,-2,0,-2,2,2,2,2,2,2,2,2,2,2,2,2
6020000,0.017308729,0.019115278,0.00011116605,0.0,0.0,1.0477379e-09,0,0,1,0,-2,0,-2,2,2,2,2,2,2,2,2,2,2,2,2
6228000,0.017671201,0.01808086,0.00014346858,0.0,0.0,1.1641532e-10,0,0,1,0,-2,0,-2,2,2,2,2,2,2,2,2,2,2,2,2
6428000,0.017419487,0.01849331,0.00048791533,0.0,0.0,1.0477379e-09,0,0,1,0,-2,0,-2,2,2,2,2,2,2,2,2,2,2,2,2
6628000,0.016297586,0.019859776,-1.868146e-05,0.0,0.0,-3.4924597e-10,0,0,1,0,-2,0,-2,2,2,2,2,2,2,2,2,2,2,2,2
6828000,0.017162066,0.019713262,0.0006726593,0.0,0.0,1.0477379e-09,0,0,1,0,-2,0,-2,2,2,2,2,2,2,2,2,2,2,2,2
7028000,0.017040811,0.019932695,0.00034414383,0.0,0.0,3.4924597e-10,0,0,1,0,-2,0,-2,2,2,2,2,2,2,2,2,2,2,2,2
7220000,0.017955255,0.019307734,0.00061216013,0.0,0.0,1.1641532e-10,0,0,1,0,-2,0,-2,2,2,2,2,2,2,2,2,2,2,2,2
7420000,0.018239582,0.020054948,0.00058567064,0.0,0.0,1.1641532e-10,0,0,1,0,-2,0,-2,2,2,2,2,2,2,2,2,2,2,2,2
7628000,0.018209834,0.018697318,0.00074517506,0.0,0.0,2.3283064e-10,0,0,1,0,-2,0,-2,2,2,2,2,2,2,2,2,2,2,2,2
7828000,0.018653443,0.0185952,0.00022015258,0.0,0.0,1.1641532e-10,0,0,1,0,-2,0,-2,2,2,2,2,2,2,2,2,2,2,2,2
8028000,0.017532948,0.018785587,0.00079999777,0.0,0.0,5.820766e-10,0,0,1,0,-2,0,-2,2,2,2,2,2,2,2,2,2,2,2,2
8228000,0.01793138,0.018276399,0.0006303909,0.0,0.0,1.1641532e-10,0,0,1,0,-2,0,-2,2,2,2,2,2,2,2,2,2,2,2,2
8428000,0.017417448,0.019581053,0.0011315079,0.0,0.0,5.820766e-10,0,0,1,0,-2,0,-2,2,2,2,2,2,2,2,2,2,2,2,2
8628000,0.017736,0.019381214,0.00053232716,0.0,0.0,-1.1641532e-10,0,0,1,0,-2,0,-2,2,2,2,2,2,2,2,2,2,2,2,2
8828000,0.017065518,0.019609604,0.0007913714,0.0,0.0,1.1641532e-10,0,0,1,0,-2,0,-2,2,2,2,2,2,2,2,2,2,2,2,2
9028000,0.018245745,0.018828755,0.0006716818,0.0,0.0,-2.3283064e-10,0,0,1,0,-2,0,-2,2,2,2,2,2,2,2,2,2,2,2,2
9228000,0.01754667,0.017950268,0.0013795637,0.0,0.0,1.1641532e-10,0,0,1,0,-2,0,-2,2,2,2,2,2,2,2,2,2,2,2,2
9428000,0.017119324,0.017397774,-2.7679933e-05,0.0,0.0,1.1641532e-10,0,0,1,0,-2,0,-2,2,2,2,2,2,2,2,2,2,2,2,2
9628000,0.016947852,0.017524937,0.00076618994,0.0,0.0,1.1641532e-10,0,0,1,0,-2,0,-2,2,2,2,2,2,2,2,2,2,2,2,2
9820000,0.017470092,0.017321149,0.0007672584,0.0,0.0,1.1641532e-10,0,0,1,0,-2,0,-2,2,2,2,2,2,2,2,2,2,2,2,2
10020000,0.017674372,0.018154265,0.00022654062,0.0,0.0,1.1641532e-10,0,0,1,0,-2,0,-2,2,2,2,2,2,2,2,2,2,2,2,2
10220000,0.017173901,0.018523699,0.00038787938,0.0,0.0,1.1641532e-10,0,0,1,0,-2,0,-2,2,2,2,2,2,2,2,2,2,2,2,2
10428000,0.01708065,0.01840638,0.0003298248,0.0,0.0,1.1641532e-10,0,0,1,0,-2,0,-2,2,2,2,2,2,2,2,2,2,2,2,2
10620000,0.016104719,0.017906038,0.0003080051,0.0,0.0,1.1641532e-10,0,0,1,0,-2,0,-2,2,2,2,2,2,2,2,2,2,2,2,2
10828000,0.016261263,0.019273667,0.0003493613,0.0,0.0,1.1641532e-10,0,0,1,0,-2,0,-2,2,2,2,2,2,2,2,2,2,2,2,2
11020000,0.016968418,0.016652578,-9.154805e-05,0.0,0.0,1.1641532e-10,0,0,1,0,-2,0,-2,2,2,2,2,2,2,2,2,2,2,2,2
11228000,0.016528236,0.01781833,0.0006666402,0.0,0.0,-2.3283064e-10,0,0,1,0,-2,0,-2,2,2,2,2,2,2,2,2,2,2,2,2
11420000,0.016944358,0.01725796,0.00015929868,0.0,0.0,-2.3283064e-10,0,0,1,0,-2,0,-2,2,2,2,2,2,2,2,2,2,2,2,2
11628000,0.0154351685,0.016724775,-9.610372e-05,0.0,0.0,-2.3283064e-10,0,0,1,0,-2,0,-2,2,2,2,2,2,2,2,2,2,2,2,2
11820000,0.01668142,0.018329687,9.18916e-05,0.0,0.0,1.1641532e-10,0,0,1,0,-2,0,-2,2,2,2,2,2,2,2,2,2,2,2,2
12028000,0.016130067,0.018246427,0.0001869689,0.0,0.0,1.1641532e-10,0,0,1,0,-2,0,-2,2,2,2,2,2,2,2,2,2,2,2,2
12228000,0.015825167,0.018271254,0.00054532295,0.0,0.0,5.820766e-10,0,0,1,0,-2,0,-2,2,2,2,2,2,2,2,2,2,2,2,2
12428000,0.01698588,0.01705374,0.0010928779,0.0,0.0,1.1641532e-10,0,0,1,0,-2,0,-2,2,2,2,2,2,2,2,2,2,2,2,2
12628000,0.016354533,0.01605809,0.00062455185,0.0,0.0,1.1641532e-10,0,0,1,0,-2,0,-2,2,2,2,2,2,2,2,2,2,2,2,2
12828000,0.016292693,0.016151734,0.00067232887,0.0,0.0,-2.3283064e-10,0,0,1,0,-2,0,-2,2,2,2,2,2,2,2,2,2,2,2,2
13028000,0.016687904,0.018306622,-8.878847e-05,0.0,0.0,-2.3283064e-10,0,0,1,0,-2,0,-2,2,2,2,2,2,2,2,2,2,2,2,2
13228000,0.017270021,0.01753541,0.000450837,0.0,0.0,-2.3283064e-10,0,0,1,0,-2,0,-2,2,2,2,2,2,2,2,2,2,2,2,2
13428000,0.01747792,0.018015344,0.000624305,0.0,0.0,3.4924597e-10,0,0,1,0,-2,0,-2,2,2,2,2,2,2,2,2,2,2,2,2
13628000,0.01580944,0.01721482,0.000367029,0.0,0.0,4.656613e-10,0,0,1,0,-2,0,-2,2,2,2,2,2,2,2,2,2,2,2,2
13828000,0.01596093,0.018340394,0.0001456176,0.0,0.0,5.820766e-10,0,0,1,0,-2,0,-2,2,2,2,2,2,2,2,2,2,2,2,2
14028000,0.016345693,0.017051125,-0.00012747654,0.0,0.0,1.1641532e-10,0,0,1,0,-2,0,-2,2,2,2,2,2,2,2,2,2,2,2,2
14228000,-3.7252903e-09,0.0,-7.566996e-10,0.0,0.0,0.0,0,1,1,0,0,0,0,2,2,2,2,2,2,2,2,2,2,2,2
14428000,3.7252903e-09,1.8626451e-09,-1.7898856e-09,0.0,0.0,-3.7252903e-09,0,1,1,0,0,0,0,2,2,2,2,2,2,2,2,2,2,2,2
14628000,-5.5879354e-09,5.5879354e-09,-2.7066562e-09,0.0,0.0,-7.450581e-09,0,1,1,0,0,0,0,2,2,2,2,2,2,2,2,2,2,2,2
14820000,-1.8626451e-09,3.7252903e-09,-5.340553e-09,0.0,0.0,0.0,0,1,1,0,0,0,0,2,2,2,2,2,2,2,2,2,2,2,2
15020000,1.3038516e-08,0.0,2.9813236e-09,0.0,0.0,-1.4901161e-08,0,1,1,0,0,0,0,2,2,2,2,2,2,2,2,2,2,2,2
15228000,-3.7252903e-09,-1.4901161e-08,-8.6729415e-09,0.0,0.0,0.0,0,1,1,0,0,0,0,2,2,2,2,2,2,2,2,2,2,2,2
15428000,-5.5879354e-09,9.313226e-09,-1.0273652e-08,0.0,0.0,-2.9802322e-08,0,1,1,0,0,0,0,2,2,2,2,2,2,2,2,2,2,2,2
15628000,-2.6077032e-08,3.7252903e-09,2.1536835e-09,0.0,0.0,0.0,0,1,1,0,0,0,0,2,2,2,2,2,2,2,2,2,2,2,2
15828000,7.450581e-09,7.450581e-09,1.0695658e-09,0.0,0.0,-2.9802322e-08,0,1,1,0,0,0,0,2,2,2,2,2,2,2,2,2,2,2,2
16028000,-2.6077032e-08,-3.7252903e-09,1.6152626e-09,0.0,0.0,-2.9802322e-08,0,1,1,0,0,0,0,2,2,2,2,2,2,2,2,2,2,2,2
16220000,-1.1175871e-08,-3.7252903e-09,2.3341272e-08,0.0,0.0,0.0,0,1,1,0,0,0,0,2,2,2,2,2,2,2,2,2,2,2,2
16428000,2.2351742e-08,1.1175871e-08,6.591904e-09,0.0,0.0,-2.9802322e-08,0,1,1,0,0,0,0,2,2,2,2,2,2,2,2,2,2,2,2
16620000,-3.7252903e-09,-3.3527613e-08,1.02154445e-08,0.0,0.0,0.0,0,1,1,0,0,0,0,2,2,2,2,2,2,2,2,2,2,2,2
16828000,-2.9802322e-08,1.1175871e-08,2.8288923e-08,0.0,0.0,0.0,0,1,1,0,0,0,0,2,2,2,2,2,2,2,2,2,2,2,2
17028000,-2.9802322e-08,1.4901161e-08,1.9354047e-08,0.0,0.0,-5.9604645e-08,0,1,1,0,0,0,0,2,2,2,2,2,2,2,2,2,2,2,2
17220000,-5.2154064e-08,2.2351742e-08,3.1141099e-09,0.0,0.0,-5.9604645e-08,0,1,1,0,0,0,0,2,2,2,2,2,2,2,2,2,2,2,2
17428000,-3.7252903e-08,-2.9802322e-08,2.3981556e-08,0.0,0.0,0.0,0,1,1,0,0,0,0,2,2,2,2,2,2,2,2,2,2,2,2
17628000,-4.4703484e-08,0.0,-2.7066562e-09,0.0,0.0,0.0,0,1,1,0,0,0,0,2,2,2,2,2,2,2,2,2,2,2,2
17828000,4.4703484e-08,2.6077032e-08,1.3969839e-09,0.0,0.0,-5.9604645e-08,0,1,1,0,0,0,0,2,2,2,2,2,2,2,2,2,2,2,2
18028000,-2.7939677e-08,3.7252903e-09,-1.6472768e-08,0.0,0.0,0.0,0,1,1,0,0,0,0,2,2,2,2,2,2,2,2,2,2,2,2
18228000,7.636845e-08,-2.7939677e-09,-9.313226e-10,0.0,0.0,-5.9604645e-08,0,1,1,0,0,0,0,2,2,2,2,2,2,2,2,2,2,2,2
18428000,-1.3969839e-09,3.3527613e-08,1.4406396e-08,0.0,0.0,-5.9604645e-08,0,1,1,0,0,0,0,2,2,2,2,2,2,2,2,2,2,2,2
18628000,4.109461e-08,-4.656613e-09,2.2118911e-08,0.0,0.0,0.0,0,1,1,0,0,0,0,2,2,2,2,2,2,2,2,2,2,2,2
18828000,-1.7462298e-09,-3.7252903e-08,-5.2386895e-09,0.0,0.0,0.0,0,1,1,0,0,0,0,2,2,2,2,2,2,2,2,2,2,2,2
19028000,7.5175194e-08,-1.7695129e-08,1.15833245e-08,0.0,0.0,-5.9604645e-08,0,1,1,0,0,0,0,2,2,2,2,2,2,2,2,2,2,2,2
19228000,-5.098991e-08,1.3969839e-08,-1.3562385e-08,0.0,0.0,-5.9604645e-08,0,1,1,0,0,0,0,2,2,2,2,2,2,2,2,2,2,2,2
19428000,-7.566996e-09,-3.259629e-09,-1.1046268e-08,0.0,0.0,-5.9604645e-08,0,1,1,0,0,0,0,2,2,2,2,2,2,2,2,2,2,2,2
19628000,6.798655e-08,2.4214387e-08,-7.872586e-09,0.0,0.0,0.0,0,1,1,0,0,0,0,2,2,2,2,2,2,2,2,2,2,2,2
19828000,2.1536835e-08,-5.122274e-09,2.0605512e-08,0.0,0.0,-5.9604645e-08,0,1,1,0,0,0,0,2,2,2,2,2,2,2,2,2,2,2,2
20020000,1.8626451e-08,-1.1175871e-08,5.5879354e-09,0.0,0.0,0.0,0,1,1,0,0,0,0,2,2,2,2,2,2,2,2,2,2,2,2
20228000,3.1432137e-08,2.561137e-09,2.775323e-09,0.0,0.0,-5.9604645e-08,0,1,1,0,0,0,0,2,2,2,2,2,2,2,2,2,2,2,2
20428000,-7.811468e-08,-1.6705599e-08,2.2584572e-08,0.0,0.0,-5.9604645e-08,0,1,1,0,0,0,0,2,2,2,2,2,2,2,2,2,2,2,2
20620000,9.19681e-09,-2.863817e-08,1.6880222e-09,0.0,0.0,0.0,0,1,1,0,0,0,0,2,2,2,2,2,2,2,2,2,2,2,2
20828000,-6.495975e-08,-3.7252903e-09,9.313226e-10,0.0,0.0,0.0,0,1,1,0,0,0,0,2,2,2,2,2,2,2,2,2,2,2,2
21028000,1.816079e-08,1.6065314e-08,-1.46683306e-08,0.0,0.0,0.0,0,1,1,0,0,0,0,2,2,2,2,2,2,2,2,2,2,2,2
21228000,6.519258e-09,0.0,-8.993084e-09,0.0,0.0,0.0,0,1,1,0,0,0,0,2,2,2,2,2,2,2,2,2,2,2,2
21428000,-5.820766e-08,3.5506673e-09,1.8742867e-08,0.0,0.0,-5.9604645e-08,0,1,1,0,0,0,0,2,2,2,2,2,2,2,2,2,2,2,2
21628000,-5.5413693e-08,-3.5390258e-08,1.2369128e-08,0.0,0.0,-5.9604645e-08,0,1,1,0,0,0,0,2,2,2,2,2,2,2,2,2,2,2,2
21828000,-2.7939677e-09,-2.7939677e-09,1.2340024e-08,0.0,0.0,0.0,0,1,1,0,0,0,0,2,2,2,2,2,2,2,2,2,2,2,2
22020000,-5.797483e-08,2.7474016e-08,2.2118911e-09,0.0,0.0,-5.9604645e-08,0,1,1,0,0,0,0,2,2,2,2,2,2,2,2,2,2,2,2
22228000,8.381903e-09,-1.7695129e-08,2.4447218e-08,0.0,0.0,-5.9604645e-08,0,1,1,0,0,0,0,2,2,2,2,2,2,2,2,2,2,2,2
22428000,1.6065314e-08,6.519258e-09,-8.731149e-10,0.0,0.0,0.0,0,1,1,0,0,0,0,2,2,2,2,2,2,2,2,2,2,2,2
22628000,-4.0512532e-08,1.0244548e-08,1.6298145e-09,0.0,0.0,5.9604645e-08,0,1,1,0,0,0,0,2,2,2,2,2,2,2,2,2,2,2,2
22828000,-5.750917e-08,-7.21775e-09,1.5308615e-08,0.0,0.0,-5.9604645e-08,0,1,1,0,0,0,0,2,2,2,2,2,2,2,2,2,2,2,2
23028000,1.3504177e-08,-2.142042e-08,-3.8187864e-08,0.0,0.0,0.0,0,1,1,0,0,0,0,2,2,2,2,2,2,2,2,2,2,2,2
23228000,-5.9604645e-08,8.381903e-09,1.7113052e-08,0.0,0.0,0.0,0,1,1,0,0,0,0,2,2,2,2,2,2,2,2,2,2,2,2
23428000,-2.142042e-08,-1.1175871e-08,3.3614924e-09,0.0,0.0,0.0,0,1,1,0,0,0,0,2,2,2,2,2,2,2,2,2,2,2,2
23628000,4.0978193e-08,-1.8626451e-09,1.5366822e-08,0.0,0.0,-5.9604645e-08,0,1,1,0,0,0,0,2,2,2,2,2,2,2,2,2,2,2,2
23828000,4.1909516e-08,-7.450581e-09,-9.720679e-09,0.0,0.0,0.0,0,1,1,0,0,0,0,2,2,2,2,2,2,2,2,2,2,2,2
24028000,-4.656613e-08,3.259629e-08,-6.519258e-09,0.0,0.0,0.0,0,1,1,0,0,0,0,2,2,2,2,2,2,2,2,2,2,2,2
24228000,3.8184226e-08,3.8417056e-09,9.546056e-09,0.0,0.0,0.0,0,1,1,0,0,0,0,2,2,2,2,2,2,2,2,2,2,2,2
24428000,-1.6763806e-08,1.7229468e-08,-2.9685907e-09,0.0,0.0,0.0,0,1,1,0,0,0,0,2,2,2,2,2,2,2,2,2,2,2,2
24628000,-5.6810677e-08,-8.381903e-09,-2.4505425e-08,0.0,0.0,0.0,0,1,1,0,0,0,0,2,2,2,2,2,2,2,2,2,2,2,2
24828000,3.7252903e-08,3.259629e-08,1.9383151e-08,0.0,0.0,-5.9604645e-08,0,1,1,0,0,0,0,2,2,2,2,2,2,2,2,2,2,2,2
25028000,-7.450581e-09,3.9115548e-08,-2.438901e-08,0.0,0.0,0.0,0,1,1,0,0,0,0,2,2,2,2,2,2,2,2,2,2,2,2
25228000,-5.5879354e-09,1.21071935e-08,2.339948e-08,0.0,0.0,0.0,0,1,1,0,0,0,0,2,2,2,2,2,2,2,2,2,2,2,2
25428000,-3.9115548e-08,-2.6542693e-08,3.1432137e-09,0.0,0.0,-5.9604645e-08,0,1,1,0,0,0,0,2,2,2,2,2,2,2,2,2,2,2,2
25620000,-7.450581e-09,2.4214387e-08,1.4901161e-08,0.0,0.0,0.0,0,1,1,0,0,0,0,2,2,2,2,2,2,2,2,2,2,2,2
25828000,5.5879354e-09,-1.5832484e-08,-7.450581e-09,0.0,0.0,5.9604645e-08,0,1,1,0,0,0,0,2,2,2,2,2,2,2,2,2,2,2,2
26028000,-3.3527613e-08,2.2118911e-08,2.9802322e-08,0.0,0.0,-5.9604645e-08,0,1,1,0,0,0,0,2,2,2,2,2,2,2,2,2,2,2,2
26228000,-6.519258e-09,1.1175871e-08,3.7252903e-09,0.0,0.0,-5.9604645e-08,0,1,1,0,0,0,0,2,2,2,2,2,2,2,2,2,2,2,2
26428000,-9.126961e-08,8.8475645e-09,1.3038516e-08,0.0,0.0,-5.9604645e-08,0,1,1,0,0,0,0,2,2,2,2,2,2,2,2,2,2,2,2
26620000,4.656613e-08,3.8649887e-08,-3.7252903e-09,0.0,0.0,5.9604645e-08,0,1,1,0,0,0,0,2,2,2,2,2,2,2,2,2,2,2,2
26828000,4.4703484e-08,0.0,-0.011946112,0.0,0.0,-2.9802322e-08,0,0,1,0,-2,0,0,2,2,2,2,2,2,2,2,2,2,2,2
27028000,-0.09951764,-1.4901161e-08,-0.18027155,0.0,0.0,-1.4901161e-08,0,0,1,0,-2,0,0,2,2,2,2,2,2,2,2,2,2,2,2
27228000,-0.3242159,0.0,-0.39281437,0.0,0.0,0.0,0,0,1,-2,0,0,0,2,2,2,2,2,2,2,2,2,2,2,2
27420000,-0.37277862,1.4901161e-08,-0.48600188,0.0,0.0,-1.4901161e-08,0,0,1,-2,0,0,0,2,2,2,2,2,2,2,2,2,2,2,2
27628000,-0.45774475,-0.0014959574,-0.6225572,0.0,0.0,0.0,0,0,1,-2,0,-2,0,2,2,2,2,2,2,2,2,2,2,2,2
27820000,-0.4822336,-0.00052826107,-0.6807893,0.0,0.0,-7.450581e-09,0,0,1,-2,0,-2,0,2,2,2,2,2,2,2,2,2,2,2,2
28028000,-0.53876746,-0.0041798204,-0.72369283,0.0,0.0,0.0,0,0,1,-2,0,-2,0,2,2,2,2,2,2,2,2,2,2,2,2
28228000,-0.56205213,2.9802322e-08,-0.7121084,0.0,0.0,-1.4901161e-08,0,0,1,-2,0,0,0,2,2,2,2,2,2,2,2,2,2,2,2
28428000,-0.5388405,0.0,-0.6472869,0.0,0.0,1.4901161e-08,0,0,1,-2,0,0,0,2,2,2,2,2,2,2,2,2,2,2,2
28628000,-0.53442436,-2.9802322e-08,-0.6009713,0.0,0.0,-1.4901161e-08,0,0,1,-2,0,0,0,2,2,2,2,2,2,2,2,2,2,2,2
28828000,-0.38139465,-0.0010778904,-0.3899708,0.0,0.0,-0.0015244186,0,0,0,-2,0,0,2,2,2,2,2,2,2,2,2,2,2,2,2
29028000,-0.21563792,0.0,-0.43455005,0.0,0.0,-0.13257653,0,0,0,0,-2,0,2,2,2,2,2,2,2,2,2,2,2,2,2
29228000,-0.08772451,-0.0124465525,-0.57358885,0.0,0.0,-0.20424703,0,0,0,0,0,-2,2,2,2,2,2,2,2,2,2,2,2,2,2
29428000,-0.08502191,-0.012446493,-0.57402414,0.0,0.0,-0.35605255,0,0,0,0,0,-2,2,2,2,2,2,2,2,2,2,2,2,2,2
29628000,-0.09790045,-0.012446493,-0.57382864,0.0,0.0,-0.5560595,0,0,0,0,0,-2,2,2,2,2,2,2,2,2,2,2,2,2,2
29820000,-0.015452862,-0.010826111,-0.574373,0.0,0.0,-0.6323979,0,0,0,0,0,-2,2,2,2,2,2,2,2,2,2,2,2,2,2
30028000,0.0,5.9604645e-08,-0.5739991,0.0,0.0,-0.5294592,0,0,0,0,0,0,2,2,2,2,2,2,2,2,2,2,2,2,2
30228000,2.9802322e-08,-2.9802322e-08,-0.5738424,0.0,0.0,-0.5234473,0,0,0,0,0,0,2,2,2,2,2,2,2,2,2,2,2,2,2
30428000,5.9604645e-08,-5.9604645e-08,-0.573936,0.0,0.0,-0.46955246,0,0,0,0,0,0,2,2,2,2,2,2,2,2,2,2,2,2,2
30628000,3.7252903e-09,-1.4901161e-08,-0.6255228,0.0,0.0,-0.26609635,0,0,0,0,0,0,2,2,2,2,2,2,2,2,2,2,2,2,2
30828000,2.7939677e-09,-7.450581e-09,-0.43017098,0.0,0.0,-0.2165221,0,0,0,0,0,2,0,2,2,2,2,2,2,2,2,2,2,2,2
31028000,-7.450581e-09,0.0,-0.12572223,0.0,0.0,-0.20383728,0,0,0,0,0,2,0,2,2,2,2,2,2,2,2,2,2,2,2
31228000,-1.4901161e-08,-7.450581e-09,-2.2351742e-08,0.0,0.0,-5.9604645e-08,0,1,1,0,0,0,0,2,2,2,2,2,2,2,2,2,2,2,2
31428000,8.195639e-08,-3.7252903e-09,-7.450581e-09,0.0,0.0,-5.9604645e-08,0,1,1,0,0,0,0,2,2,2,2,2,2,2,2,2,2,2,2
31628000,7.497147e-08,2.142042e-08,1.4901161e-08,0.0,0.0,0.0,0,1,1,0,0,0,0,2,2,2,2,2,2,2,2,2,2,2,2
31828000,1.5832484e-08,1.839362e-08,2.2351742e-08,0.0,0.0,0.0,0,1,1,0,0,0,0,2,2,2,2,2,2,2,2,2,2,2,2
32028000,-3.5157427e-08,-2.0489097e-08,3.8184226e-08,0.0,0.0,0.0,0,1,1,0,0,0,0,2,2,2,2,2,2,2,2,2,2,2,2
32228000,2.9744115e-08,2.8376235e-10,-6.0535967e-09,0.0,0.0,-5.9604645e-08,0,1,1,0,0,0,0,2,2,2,2,2,2,2,2,2,2,2,2
32428000,-6.3795596e-08,-5.5879354e-09,-8.20728e-09,0.0,0.0,0.0,0,1,1,0,0,0,0,2,2,2,2,2,2,2,2,2,2,2,2
32628000,1.9324943e-08,5.9299055e-09,-2.4796464e-08,0.0,0.0,-5.9604645e-08,0,1,1,0,0,0,0,2,2,2,2,2,2,2,2,2,2,2,2
32828000,3.306195e-08,-5.122274e-09,-4.278263e-09,0.0,0.0,-5.9604645e-08,0,1,1,0,0,0,0,2,2,2,2,2,2,2,2,2,2,2,2
33028000,1.0237272e-08,1.1874363e-08,-2.0809239e-08,0.0,0.0,-5.9604645e-08,0,1,1,0,0,0,0,2,2,2,2,2,2,2,2,2,2,2,2
33228000,5.3201802e-08,-5.355105e-09,8.818461e-09,0.0,0.0,0.0,0,1,1,0,0,0,0,2,2,2,2,2,2,2,2,2,2,2,2
33428000,-1.792796e-08,3.8184226e-08,1.7113052e-08,0.0,0.0,0.0,0,1,1,0,0,0,0,2,2,2,2,2,2,2,2,2,2,2,2
33620000,2.4301698e-08,3.585592e-08,2.6251655e-08,0.0,0.0,0.0,0,1,1,0,0,0,0,2,2,2,2,2,2,2,2,2,2,2,2
33828000,-2.6018824e-08,3.3993274e-08,1.3656972e-08,0.0,0.0,0.0,0,1,1,0,0,0,0,2,2,2,2,2,2,2,2,2,2,2,2
34028000,-1.3154931e-08,1.44355e-08,1.0477379e-08,0.0,0.0,-5.9604645e-08,0,1,1,0,0,0,0,2,2,2,2,2,2,2,2,2,2,2,2
34228000,9.924406e-09,2.8871e-08,2.3719622e-08,0.0,0.0,-5.9604645e-08,0,1,1,0,0,0,0,2,2,2,2,2,2,2,2,2,2,2,2
34428000,-1.6239937e-08,2.7939677e-08,-4.947651e-10,0.0,0.0,-5.9604645e-08,0,1,1,0,0,0,0,2,2,2,2,2,2,2,2,2,2,2,2
34628000,3.3527613e-08,-1.3969839e-09,2.3283064e-09,0.0,0.0,-5.9604645e-08,0,1,1,0,0,0,0,2,2,2,2,2,2,2,2,2,2,2,2
34828000,-2.8405339e-08,-1.3504177e-08,-5.9080776e-09,0.0,0.0,0.0,0,1,1,0,0,0,0,2,2,2,2,2,2,2,2,2,2,2,2
35028000,-1.7462298e-08,2.7939677e-08,2.2555469e-09,0.0,0.0,-5.9604645e-08,0,1,1,0,0,0,0,2,2,2,2,2,2,2,2,2,2,2,2
35220000,1.7345883e-08,-4.656613e-10,-1.5090336e-08,0.0,0.0,-5.9604645e-08,0,1,1,0,0,0,0,2,2,2,2,2,2,2,2,2,2,2,2
35428000,5.095717e-08,-3.306195e-08,1.5511432e-09,0.0,0.0,5.9604645e-08,0,1,1,0,0,0,0,2,2,2,2,2,2,2,2,2,2,2,2
35628000,4.749745e-08,3.259629e-08,1.0477379e-08,0.0,0.0,0.0,0,1,1,0,0,0,0,2,2,2,2,2,2,2,2,2,2,2,2
35820000,-5.3900294e-08,4.656613e-09,-1.513763e-08,0.0,0.0,-5.9604645e-08,0,1,1,0,0,0,0,2,2,2,2,2,2,2,2,2,2,2,2
36020000,7.675044e-08,-2.4680048e-08,1.0433723e-08,0.0,0.0,-5.9604645e-08,0,1,1,0,0,0,0,2,2,2,2,2,2,2,2,2,2,2,2
36220000,-3.3702236e-08,9.313226e-09,1.5861588e-09,0.0,0.0,-1.1920929e-07,0,1,1,0,0,0,0,2,2,2,2,2,2,2,2,2,2,2,2
36420000,-2.6077032e-08,-3.1664968e-08,1.7695129e-08,0.0,0.0,0.0,0,1,1,0,0,0,0,2,2,2,2,2,2,2,2,2,2,2,2
36620000,-8.061761e-09,-1.6065314e-08,1.1350494e-08,0.0,0.0,-5.9604645e-08,0,1,1,0,0,0,0,2,2,2,2,2,2,2,2,2,2,2,2
36828000,9.13642e-08,-2.0023435e-08,3.8999133e-09,0.0,0.0,0.0,0,1,1,0,0,0,0,2,2,2,2,2,2,2,2,2,2,2,2
37028000,6.4028427e-09,-1.2572855e-08,1.5017577e-08,0.0,0.0,0.0,0,1,1,0,0,0,0,2,2,2,2,2,2,2,2,2,2,2,2
37228000,2.4578185e-08,-4.7963113e-08,-1.7374987e-08,0.0,0.0,0.0,0,1,1,0,0,0,0,2,2,2,2,2,2,2,2,2,2,2,2
37428000,-2.537854e-08,-3.4691766e-08,2.30757e-08,0.0,0.0,0.0,0,1,1,0,0,0,0,2,2,2,2,2,2,2,2,2,2,2,2
37620000,-4.749745e-08,4.8894435e-09,1.2860255e-08,0.0,0.0,-5.9604645e-08,0,1,1,0,0,0,0,2,2,2,2,2,2,2,2,2,2,2,2
37820000,2.7008355e-08,-2.0721927e-08,-3.616151e-08,0.0,0.0,0.0,0,1,1,0,0,0,0,2,2,2,2,2,2,2,2,2,2,2,2
38028000,-9.313226e-10,-1.792796e-08,-3.632158e-08,0.0,0.0,0.0,0,1,1,0,0,0,0,2,2,2,2,2,2,2,2,2,2,2,2
38228000,2.0372681e-09,1.1175871e-08,-2.3035682e-08,0.0,0.0,0.0,0,1,1,0,0,0,0,2,2,2,2,2,2,2,2,2,2,2,2
38428000,3.2305252e-08,6.9849193e-10,-5.0786184e-09,0.0,0.0,-5.9604645e-08,0,1,1,0,0,0,0,2,2,2,2,2,2,2,2,2,2,2,2
38628000,-5.1688403e-08,-4.656613e-09,3.610785e-08,0.0,0.0,-1.1920929e-07,0,1,1,0,0,0,0,2,2,2,2,2,2,2,2,2,2,2,2
38828000,1.169974e-08,1.9557774e-08,3.442983e-08,0.0,0.0,-5.9604645e-08,0,1,1,0,0,0,0,2,2,2,2,2,2,2,2,2,2,2,2
39020000,2.339948e-08,4.4936314e-08,-1.3780664e-08,0.0,0.0,-5.9604645e-08,0,1,1,0,0,0,0,2,2,2,2,2,2,2,2,2,2,2,2
39228000,-4.650792e-08,-1.816079e-08,-1.8218998e-08,0.0,0.0,-5.9604645e-08,0,1,1,0,0,0,0,2,2,2,2,2,2,2,2,2,2,2,2
39428000,-7.514609e-08,2.863817e-08,2.8987415e-08,0.0,0.0,0.0,0,1,1,0,0,0,0,2,2,2,2,2,2,2,2,2,2,2,2
39628000,1.306762e-08,5.820766e-09,-1.071021e-08,0.0,0.0,-5.9604645e-08,0,1,1,0,0,0,0,2,2,2,2,2,2,2,2,2,2,2,2
39828000,-6.7055225e-08,1.816079e-08,9.618816e-09,0.0,0.0,-5.9604645e-08,0,1,1,0,0,0,0,2,2,2,2,2,2,2,2,2,2,2,2
40020000,5.989568e-08,-1.3969839e-09,6.2718755e-09,0.0,0.0,-5.9604645e-08,0,1,1,0,0,0,0,2,2,2,2,2,2,2,2,2,2,2,2
40220000,-5.2532414e-08,-1.5366822e-08,1.2019882e-08,0.0,0.0,-5.9604645e-08,0,1,1,0,0,0,0,2,2,2,2,2,2,2,2,2,2,2,2
40428000,-3.2247044e-08,9.778887e-09,-3.1024683e-08,0.0,0.0,0.0,0,1,1,0,0,0,0,2,2,2,2,2,2,2,2,2,2,2,2
40628000,-2.5844201e-08,-2.6309863e-08,1.542503e-08,0.0,0.0,-5.9604645e-08,0,1,1,0,0,0,0,2,2,2,2,2,2,2,2,2,2,2,2
40828000,1.6647391e-08,-4.8894435e-09,-2.0925654e-08,0.0,0.0,0.0,0,1,1,0,0,0,0,2,2,2,2,2,2,2,2,2,2,2,2
41028000,2.0801963e-08,1.816079e-08,1.1787051e-08,0.0,0.0,0.0,0,1,1,0,0,0,0,2,2,2,2,2,2,2,2,2,2,2,2
41228000,-2.6557245e-08,-1.792796e-08,-4.6857167e-09,0.0,0.0,0.0,0,1,1,0,0,0,0,2,2,2,2,2,2,2,2,2,2,2,2
41428000,-3.5273843e-08,-3.632158e-08,-1.2048986e-08,0.0,0.0,0.0,0,1,1,0,0,0,0,2,2,2,2,2,2,2,2,2,2,2,2
41628000,2.863817e-08,-3.4924597e-09,2.4505425e-08,0.0,0.0,-5.9604645e-08,0,1,1,0,0,0,0,2,2,2,2,2,2,2,2,2,2,2,2
41828000,1.990702e-08,3.958121e-08,-5.0640665e-09,0.0,0.0,0.0,0,1,1,0,0,0,0,2,2,2,2,2,2,2,2,2,2,2,2
42028000,5.8753358e-08,8.8475645e-09,5.0640665e-09,0.0,0.0,0.0,0,1,1,0,0,0,0,2,2,2,2,2,2,2,2,2,2,2,2
42228000,-4.7111826e-08,-1.071021e-08,1.9383151e-08,0.0,0.0,0.0,0,1,1,0,0,0,0,2,2,2,2,2,2,2,2,2,2,2,2
42428000,-2.165325e-08,-8.381903e-09,1.306762e-08,0.0,0.0,0.0,0,1,1,0,0,0,0,2,2,2,2,2,2,2,2,2,2,2,2
42628000,-5.296897e-08,-2.9802322e-08,2.7212081e-09,0.0,0.0,-5.9604645e-08,0,1,1,0,0,0,0,2,2,2,2,2,2,2,2,2,2,2,2
42828000,-6.018672e-08,1.5832484e-08,1.5337719e-08,0.0,0.0,-5.9604645e-08,0,1,1,0,0,0,0,2,2,2,2,2,2,2,2,2,2,2,2
43020000,-7.916242e-09,-2.5844201e-08,9.895302e-10,0.0,0.0,0.0,0,1,1,0,0,0,0,2,2,2,2,2,2,2,2,2,2,2,2
43228000,-3.5448465e-08,-1.3504177e-08,-4.489266e-09,0.0,0.0,0.0,0,1,1,0,0,0,0,2,2,2,2,2,2,2,2,2,2,2,2
43428000,-3.122841e-08,-4.656613e-09,-3.7514837e-08,0.0,0.0,0.0,0,1,1,0,0,0,0,2,2,2,2,2,2,2,2,2,2,2,2
43628000,2.3166649e-08,-1.9092113e-08,-1.792796e-08,0.0,0.0,0.0,0,1,1,0,0,0,0,2,2,2,2,2,2,2,2,2,2,2,2
43820000,1.0593794e-08,-3.7252903e-09,-1.9994332e-08,0.0,0.0,-5.9604645e-08,0,1,1,0,0,0,0,2,2,2,2,2,2,2,2,2,2,2,2
44028000,1.0477379e-08,-2.0954758e-09,3.6634447e-08,0.0,0.0,-5.9604645e-08,0,1,1,0,0,0,0,2,2,2,2,2,2,2,2,2,2,2,2
44220000,1.3969839e-09,1.3038516e-08,-2.7001079e-08,0.0,0.0,5.9604645e-08,0,1,1,0,0,0,0,2,2,2,2,2,2,2,2,2,2,2,2
44420000,2.561137e-09,5.6810677e-08,-1.6909325e-08,0.0,0.0,-5.9604645e-08,0,1,1,0,0,0,0,2,2,2,2,2,2,2,2,2,2,2,2
44628000,1.03143975e-07,-7.916242e-09,6.2573235e-09,0.0,0.0,-5.9604645e-08,0,1,1,0,0,0,0,2,2,2,2,2,2,2,2,2,2,2,2
44828000,-5.486072e-08,-2.3748726e-08,3.5070116e-09,0.0,0.0,-5.9604645e-08,0,1,1,0,0,0,0,2,2,2,2,2,2,2,2,2,2,2,2
45028000,4.0163286e-09,2.9802322e-08,-8.440111e-10,0.0,0.0,-5.9604645e-08,0,1,1,0,0,0,0,2,2,2,2,2,2,2,2,2,2,2,2
45228000,-4.201138e-08,1.6298145e-08,1.6727427e-08,0.0,0.0,0.0,0,1,1,0,0,0,0,2,2,2,2,2,2,2,2,2,2,2,2
45428000,2.1769665e-08,-5.122274e-09,4.193862e-08,0.0,0.0,-5.9604645e-08,0,1,1,0,0,0,0,2,2,2,2,2,2,2,2,2,2,2,2
45628000,-1.843e-08,-2.2584572e-08,1.6443664e-08,0.0,0.0,0.0,0,1,1,0,0,0,0,2,2,2,2,2,2,2,2,2,2,2,2
45828000,8.2480256e-08,-3.8649887e-08,6.024493e-09,0.0,0.0,-5.9604645e-08,0,1,1,0,0,0,0,2,2,2,2,2,2,2,2,2,2,2,2
46028000,-4.749745e-08,-6.9849193e-09,2.6600901e-08,0.0,0.0,0.0,0,1,1,0,0,0,0,2,2,2,2,2,2,2,2,2,2,2,2
46220000,6.5600034e-08,-1.7229468e-08,-1.7083948e-08,0.0,0.0,-5.9604645e-08,0,1,1,0,0,0,0,2,2,2,2,2,2,2,2,2,2,2,2
46420000,-2.4971087e-08,2.6542693e-08,5.3842086e-09,0.0,0.0,-5.9604645e-08,0,1,1,0,0,0,0,2,2,2,2,2,2,2,2,2,2,2,2
46628000,-1.990702e-08,1.21071935e-08,1.3387762e-09,0.0,0.0,0.0,0,1,1,0,0,0,0,2,2,2,2,2,2,2,2,2,2,2,2
46828000,3.585592e-08,2.8405339e-08,-3.0733645e-08,0.0,0.0,-5.9604645e-08,0,1,1,0,0,0,0,2,2,2,2,2,2,2,2,2,2,2,2
47028000,4.9825758e-08,-1.5366822e-08,-2.082379e-08,0.0,0.0,0.0,0,1,1,0,0,0,0,2,2,2,2,2,2,2,2,2,2,2,2
47228000,-4.9629307e-08,2.2817403e-08,-3.7049176e-08,0.0,0.0,0.0,0,1,1,0,0,0,0,2,2,2,2,2,2,2,2,2,2,2,2
47428000,7.9977326e-08,8.381903e-09,-4.831236e-09,0.0,0.0,-5.9604645e-08,0,1,1,0,0,0,0,2,2,2,2,2,2,2,2,2,2,2,2
47628000,4.109461e-08,-2.7939677e-09,1.1103111e-08,0.0,0.0,-5.9604645e-08,0,1,1,0,0,0,0,2,2,2,2,2,2,2,2,2,2,2,2
47828000,6.047776e-08,2.3748726e-08,2.5844201e-08,0.0,0.0,-5.9604645e-08,0,1,1,0,0,0,0,2,2,2,2,2,2,2,2,2,2,2,2
48028000,-4.458707e-08,3.0267984e-08,-9.022187e-09,0.0,0.0,0.0,0,1,1,0,0,0,0,2,2,2,2,2,2,2,2,2,2,2,2
48228000,3.958121e-09,-2.9802322e-08,2.2555469e-08,0.0,0.0,0.0,0,1,1,0,0,0,0,2,2,2,2,2,2,2,2,2,2,2,2
48428000,5.646143e-09,-1.3737008e-08,-2.7677743e-08,0.0,0.0,0.0,0,1,1,0,0,0,0,2,2,2,2,2,2,2,2,2,2,2,2
48628000,7.8522135e-08,-1.071021e-08,6.7520887e-09,0.0,0.0,-5.9604645e-08,0,1,1,0,0,0,0,2,2,2,2,2,2,2,2,2,2,2,2
48828000,6.8102963e-09,1.21071935e-08,2.2497261e-08,0.0,0.0,-5.9604645e-08,0,1,1,0,0,0,0,2,2,2,2,2,2,2,2,2,2,2,2
49028000,1.7986167e-08,8.381903e-09,1.6880222e-09,0.0,0.0,0.0,0,1,1,0,0,0,0,2,2,2,2,2,2,2,2,2,2,2,2
49228000,-1.8626451e-09,1.071021e-08,4.962203e-09,0.0,0.0,0.0,0,1,1,0,0,0,0,2,2,2,2,2,2,2,2,2,2,2,2
49428000,-1.14087015e-08,2.7939677e-08,3.7485734e-08,0.0,0.0,0.0,0,1,1,0,0,0,0,2,2,2,2,2,2,2,2,2,2,2,2
49620000,1.1059456e-08,1.4202669e-08,-2.4971087e-08,0.0,0.0,0.0,0,1,1,0,0,0,0,2,2,2,2,2,2,2,2,2,2,2,2
49828000,-7.665949e-08,-2.2351742e-08,-2.0845619e-09,0.0,0.0,0.0,0,1,1,0,0,0,0,2,2,2,2,2,2,2,2,2,2,2,2
50028000,-6.519258e-09,1.8626451e-09,-2.4323526e-08,0.0,0.0,-5.9604645e-08,0,1,1,0,0,0,0,2,2,2,2,2,2,2,2,2,2,2,2
50228000,1.0186341e-09,-2.188608e-08,8.905772e-09,0.0,0.0,0.0,0,1,1,0,0,0,0,2,2,2,2,2,2,2,2,2,2,2,2
50428000,1.0477379e-09,2.7008355e-08,-4.3655746e-10,0.0,0.0,-5.9604645e-08,0,1,1,0,0,0,0,2,2,2,2,2,2,2,2,2,2,2,2
50628000,-8.8475645e-09,-2.8871e-08,2.325396e-08,0.0,0.0,0.0,0,1,1,0,0,0,0,2,2,2,2,2,2,2,2,2,2,2,2
50828000,1.071021e-08,4.5169145e-08,-1.1117663e-08,0.0,0.0,0.0,0,1,1,0,0,0,0,2,2,2,2,2,2,2,2,2,2,2,2
51028000,-3.7252903e-08,-1.1117663e-08,-1.2019882e-08,0.0,0.0,0.0,0,1,1,0,0,0,0,2,2,2,2,2,2,2,2,2,2,2,2
51228000,3.8184226e-08,1.8626451e-09,-2.8754584e-08,0.0,0.0,0.0,0,1,1,0,0,0,0,2,2,2,2,2,2,2,2,2,2,2,2
51420000,3.213063e-08,3.0267984e-08,-2.3515895e-08,0.0,0.0,-5.9604645e-08,0,1,1,0,0,0,0,2,2,2,2,2,2,2,2,2,2,2,2
51620000,1.21071935e-08,-1.3969839e-08,2.5363988e-08,0.0,0.0,0.0,0,1,1,0,0,0,0,2,2,2,2,2,2,2,2,2,2,2,2
51828000,3.655441e-08,-5.5879354e-09,-2.0256266e-08,0.0,0.0,0.0,0,1,1,0,0,0,0,2,2,2,2,2,2,2,2,2,2,2,2
52028000,-8.8475645e-09,1.5832484e-08,-1.9819709e-08,0.0,0.0,-5.9604645e-08,0,1,1,0,0,0,0,2,2,2,2,2,2,2,2,2,2,2,2
52220000,-1.0244548e-08,1.4901161e-08,-7.9744495e-09,0.0,0.0,0.0,0,1,1,0,0,0,0,2,2,2,2,2,2,2,2,2,2,2,2
52428000,-1.7229468e-08,1.9557774e-08,2.1071173e-08,0.0,0.0,0.0,0,1,1,0,0,0,0,2,2,2,2,2,2,2,2,2,2,2,2
52628000,3.8620783e-08,3.259629e-09,2.0954758e-08,0.0,0.0,-1.1920929e-07,0,1,1,0,0,0,0,2,2,2,2,2,2,2,2,2,2,2,2
52820000,3.0267984e-09,2.4214387e-08,-1.2980308e-08,0.0,0.0,0.0,0,1,1,0,0,0,0,2,2,2,2,2,2,2,2,2,2,2,2
53028000,5.3085387e-08,1.3969839e-09,-4.2491592e-09,0.0,0.0,0.0,0,1,1,0,0,0,0,2,2,2,2,2,2,2,2,2,2,2,2
53228000,4.924368e-08,-3.632158e-08,1.891749e-08,0.0,0.0,0.0,0,1,1,0,0,0,0,2,2,2,2,2,2,2,2,2,2,2,2
53428000,4.6973582e-08,-4.9825758e-08,2.0751031e-08,0.0,0.0,0.0,0,1,1,0,0,0,0,2,2,2,2,2,2,2,2,2,2,2,2
53628000,1.3737008e-08,-4.40632e-08,-2.287561e-08,0.0,0.0,0.0,0,1,1,0,0,0,0,2,2,2,2,2,2,2,2,2,2,2,2
53820000,-1.7884304e-08,-4.284084e-08,-2.3726898e-08,0.0,0.0,-5.9604645e-08,0,1,1,0,0,0,0,2,2,2,2,2,2,2,2,2,2,2,2
54028000,8.800998e-08,-2.363231e-08,1.2732926e-09,0.0,0.0,-5.9604645e-08,0,1,1,0,0,0,0,2,2,2,2,2,2,2,2,2,2,2,2
54220000,9.080395e-09,-1.1379598e-08,1.4551915e-08,0.0,0.0,-5.9604645e-08,0,1,1,0,0,0,0,2,2,2,2,2,2,2,2,2,2,2,2
54428000,-1.071021e-08,3.1897798e-08,-1.1874363e-08,0.0,0.0,-5.9604645e-08,0,1,1,0,0,0,0,2,2,2,2,2,2,2,2,2,2,2,2
54628000,4.6333298e-08,-6.9849193e-09,-1.990702e-08,0.0,0.0,-5.9604645e-08,0,1,1,0,0,0,0,2,2,2,2,2,2,2,2,2,2,2,2
54828000,-7.4505806e-08,-7.916242e-09,-3.3760443e-09,0.0,0.0,0.0,0,1,1,0,0,0,0,2,2,2,2,2,2,2,2,2,2,2,2
55020000,4.1909516e-08,-2.7939677e-09,1.5428668e-08,0.0,0.0,0.0,0,1,1,0,0,0,0,2,2,2,2,2,2,2,2,2,2,2,2
55228000,-3.259629e-09,3.8475264e-08,3.274181e-09,0.0,0.0,-5.9604645e-08,0,1,1,0,0,0,0,2,2,2,2,2,2,2,2,2,2,2,2
55428000,-1.094304e-08,-9.080395e-09,-6.693881e-09,0.0,0.0,0.0,0,1,1,0,0,0,0,2,2,2,2,2,2,2,2,2,2,2,2
55628000,-1.6298145e-08,2.2118911e-08,-1.6298145e-09,0.0,0.0,0.0,0,1,1,0,0,0,0,2,2,2,2,2,2,2,2,2,2,2,2
55820000,7.846393e-08,3.1664968e-08,-0.36421058,0.0,0.0,-0.15000004,0,0,0,0,0,0,2,2,2,2,2,2,2,2,2,2,2,2,2
56028000,0.0,-2.9802322e-08,0.0,0.0,0.0,-0.10662305,0,1,0,0,2,0,0,2,2,2,2,2,2,2,2,2,2,2,2
56228000,4.4703484e-08,1.4901161e-08,2.2351742e-08,0.0,0.0,-0.19146752,0,1,0,2,0,0,0,2,2,2,2,2,2,2,2,2,2,2,2
56428000,0.15053475,-0.038645208,0.24046883,0.0,0.0,-0.5953474,0,0,0,0,2,-2,0,2,2,2,2,2,2,2,2,2,2,2,2
56620000,0.17855002,-0.020579755,0.1725766,0.0,0.0,-0.5517061,0,0,0,-2,2,-2,0,2,2,2,2,2,2,2,2,2,2,2,2
56828000,0.19294792,-0.018102407,0.13608049,0.0,0.0,-0.47679526,0,0,0,-2,2,-2,0,2,2,2,2,2,2,2,2,2,2,2,2
57028000,0.19123816,-0.023491085,0.10300203,0.0,0.0,-0.4613275,0,0,0,-2,2,-2,0,2,2,2,2,2,2,2,2,2,2,2,2
57220000,-7.450581e-09,2.910383e-09,4.656613e-09,0.0,0.0,-7.450581e-09,0,1,1,0,0,0,0,2,2,2,2,2,2,2,2,2,2,2,2
57428000,-1.4901161e-08,-9.487849e-09,8.381903e-09,0.0,0.0,-7.450581e-09,0,1,1,0,0,0,0,2,2,2,2,2,2,2,2,2,2,2,2
57628000,-1.4901161e-08,-9.313226e-10,6.519258e-09,0.0,0.0,0.0,0,1,1,0,0,0,0,2,2,2,2,2,2,2,2,2,2,2,2
57828000,-2.2351742e-08,-3.4924597e-09,7.450581e-09,0.0,0.0,0.0,0,1,1,0,0,0,0,2,2,2,2,2,2,2,2,2,2,2,2
58028000,-1.4901161e-08,9.313226e-10,1.1175871e-08,0.0,0.0,-7.450581e-09,0,1,1,0,0,0,0,2,2,2,2,2,2,2,2,2,2,2,2
58228000,-1.4901161e-08,1.8626451e-09,3.7252903e-09,0.0,0.0,-7.450581e-09,0,1,1,0,0,0,0,2,2,2,2,2,2,2,2,2,2,2,2
58428000,-2.9802322e-08,-1.3969839e-08,1.3038516e-08,0.0,0.0,-1.4901161e-08,0,1,1,0,0,0,0,2,2,2,2,2,2,2,2,2,2,2,2
58628000,-1.4901161e-08,1.1175871e-08,9.313226e-10,0.0,0.0,0.0,0,1,1,0,0,0,0,2,2,2,2,2,2,2,2,2,2,2,2
58820000,-2.9802322e-08,2.7939677e-09,1.0244548e-08,0.0,0.0,0.0,0,1,1,0,0,0,0,2,2,2,2,2,2,2,2,2,2,2,2
59028000,-2.9802322e-08,3.7252903e-09,1.8626451e-09,0.0,0.0,-1.4901161e-08,0,1,1,0,0,0,0,2,2,2,2,2,2,2,2,2,2,2,2
59228000,-2.9802322e-08,1.1175871e-08,3.7252903e-09,0.0,0.0,0.0,0,1,1,0,0,0,0,2,2,2,2,2,2,2,2,2,2,2,2
59428000,-5.9604645e-08,7.450581e-09,-4.656613e-09,0.0,0.0,0.0,0,1,1,0,0,0,0,2,2,2,2,2,2,2,2,2,2,2,2
59628000,-2.9802322e-08,-3.7252903e-09,7.450581e-09,0.0,0.0,-2.9802322e-08,0,1,1,0,0,0,0,2,2,2,2,2,2,2,2,2,2,2,2
59828000,-2.9802322e-08,-1.8626451e-09,1.21071935e-08,0.0,0.0,-2.9802322e-08,0,1,1,0,0,0,0,2,2,2,2,2,2,2,2,2,2,2,2
60028000,-4.4703484e-08,3.7252903e-08,0.0,0.0,0.0,-5.9604645e-08,0,1,1,0,0,0,0,2,2,2,2,2,2,2,2,2,2,2,2
60228000,0.0,3.1664968e-08,-7.450581e-09,0.0,0.0,-5.9604645e-08,0,1,1,0,0,0,0,2,2,2,2,2,2,2,2,2,2,2,2
60428000,-2.9802322e-08,1.6763806e-08,3.7252903e-08,0.0,0.0,-5.9604645e-08,0,1,1,0,0,0,0,2,2,2,2,2,2,2,2,2,2,2,2
60628000,-8.940697e-08,-1.4901161e-08,7.450581e-09,0.0,0.0,-5.9604645e-08,0,1,1,0,0,0,0,2,2,2,2,2,2,2,2,2,2,2,2
60820000,-5.9604645e-08,2.6077032e-08,-6.0535967e-09,0.0,0.0,-5.9604645e-08,0,1,1,0,0,0,0,2,2,2,2,2,2,2,2,2,2,2,2
61028000,-5.9604645e-08,-1.1175871e-08,2.7939677e-09,0.0,0.0,-5.9604645e-08,0,1,1,0,0,0,0,2,2,2,2,2,2,2,2,2,2,2,2
61220000,-2.9802322e-08,0.0,-2.188608e-08,0.0,0.0,-5.9604645e-08,0,1,1,0,0,0,0,2,2,2,2,2,2,2,2,2,2,2,2
61420000,1.4901161e-08,-3.3527613e-08,-1.8626451e-09,0.0,0.0,-5.9604645e-08,0,1,1,0,0,0,0,2,2,2,2,2,2,2,2,2,2,2,2
61620000,-7.4505806e-08,-2.2351742e-08,2.561137e-09,0.0,0.0,-1.1920929e-07,0,1,1,0,0,0,0,2,2,2,2,2,2,2,2,2,2,2,2
61828000,-7.450581e-09,2.2351742e-08,-1.7695129e-08,0.0,0.0,-5.9604645e-08,0,1,1,0,0,0,0,2,2,2,2,2,2,2,2,2,2,2,2
62028000,-9.685755e-08,-7.450581e-09,-1.3969839e-08,0.0,0.0,-5.9604645e-08,0,1,1,0,0,0,0,2,2,2,2,2,2,2,2,2,2,2,2
62220000,1.1175871e-08,-2.2351742e-08,-2.2351742e-08,0.0,0.0,0.0,0,1,1,0,0,0,0,2,2,2,2,2,2,2,2,2,2,2,2
62428000,-3.9115548e-08,2.4214387e-08,-2.9802322e-08,0.0,0.0,-5.9604645e-08,0,1,1,0,0,0,0,2,2,2,2,2,2,2,2,2,2,2,2
62620000,-1.8626451e-09,-4.5634806e-08,-1.4901161e-08,0.0,0.0,0.0,0,1,1,0,0,0,0,2,2,2,2,2,2,2,2,2,2,2,2
62828000,6.426126e-08,-6.7520887e-09,-2.6077032e-08,0.0,0.0,0.0,0,1,1,0,0,0,0,2,2,2,2,2,2,2,2,2,2,2,2
63020000,4.8661605e-08,-1.0477379e-08,-1.3038516e-08,0.0,0.0,0.0,0,1,1,0,0,0,0,2,2,2,2,2,2,2,2,2,2,2,2
63228000,-2.9802322e-08,-2.9802322e-08,0.15359716,0.0,0.0,-2.9802322e-08,0,0,1,0,0,0,-2,2,2,2,2,2,2,2,2,2,2,2,2
63428000,0.0,7.450581e-09,0.32624024,0.0,0.0,-2.9802322e-08,0,0,1,0,0,0,-2,2,2,2,2,2,2,2,2,2,2,2,2
63628000,-1.4901161e-08,0.0,0.38342577,0.0,0.0,0.0,0,0,1,0,0,0,-2,2,2,2,2,2,2,2,2,2,2,2,2
63828000,-2.2351742e-08,7.450581e-09,0.41973108,0.0,0.0,-1.4901161e-08,0,0,1,0,0,0,-2,2,2,2,2,2,2,2,2,2,2,2,2
64028000,2.2351742e-08,7.450581e-09,0.46996012,0.0,0.0,-1.4901161e-08,0,0,1,0,0,0,-2,2,2,2,2,2,2,2,2,2,2,2,2
64220000,-1.4901161e-08,1.4901161e-08,0.28272077,0.0,0.0,0.0,0,0,1,0,0,0,-2,2,2,2,2,2,2,2,2,2,2,2,2
64420000,0.0,-2.9802322e-08,0.15536185,0.0,0.0,0.0,0,0,1,0,0,0,-2,2,2,2,2,2,2,2,2,2,2,2,2
64620000,0.08149091,0.0,-1.8626451e-09,0.0,0.0,-1.4901161e-08,0,0,1,0,0,0,0,2,2,2,2,2,2,2,2,2,2,2,2
64820000,3.7252903e-09,0.0,2.9802322e-08,0.0,0.0,0.0,0,1,1,0,0,0,0,2,2,2,2,2,2,2,2,2,2,2,2
65020000,1.8626451e-09,1.4901161e-08,-2.3748726e-08,0.0,0.0,0.0,0,1,1,0,0,0,0,2,2,2,2,2,2,2,2,2,2,2,2
65228000,1.8626451e-08,-1.4901161e-08,-3.7252903e-08,0.0,0.0,-5.9604645e-08,0,1,1,0,0,0,0,2,2,2,2,2,2,2,2,2,2,2,2
65428000,-7.450581e-09,0.0,-2.9802322e-08,0.0,0.0,-5.9604645e-08,0,1,1,0,0,0,0,2,2,2,2,2,2,2,2,2,2,2,2
65628000,2.9802322e-08,-1.4901161e-08,-7.450581e-09,0.0,0.0,-5.9604645e-08,0,1,1,0,0,0,0,2,2,2,2,2,2,2,2,2,2,2,2
65828000,0.0,0.0,-1.4901161e-08,0.0,0.0,-2.9802322e-08,0,1,1,0,0,0,0,2,2,2,2,2,2,2,2,2,2,2,2
66020000,5.9604645e-08,-2.9802322e-08,-1.8626451e-08,0.0,0.0,0.0,0,1,1,0,0,0,0,2,2,2,2,2,2,2,2,2,2,2,2
66228000,2.9802322e-08,-2.9802322e-08,0.0,0.0,0.0,-5.9604645e-08,0,1,1,0,0,0,0,2,2,2,2,2,2,2,2,2,2,2,2
66428000,8.940697e-08,0.0,-0.04143176,0.0,0.0,0.0,0,0,1,0,-2,0,0,2,2,2,2,2,2,2,2,2,2,2,2
66628000,-0.06147334,-2.9802322e-08,-0.04773755,0.0,0.0,0.0,0,0,1,0,-2,0,0,2,2,2,2,2,2,2,2,2,2,2,2
66828000,-0.13318735,2.9802322e-08,-0.049390607,0.0,0.0,-2.9802322e-08,0,0,1,0,-2,0,0,2,2,2,2,2,2,2,2,2,2,2,2
67028000,-0.20302248,-5.9604645e-08,-0.049480114,0.0,0.0,0.0,0,0,1,0,-2,0,0,2,2,2,2,2,2,2,2,2,2,2,2
67220000,-0.26698261,0.0,-0.050254676,0.0,0.0,-1.4901161e-08,0,0,1,0,-2,0,0,2,2,2,2,2,2,2,2,2,2,2,2
67428000,-0.3424955,-1.4901161e-08,-0.05028593,0.0,0.0,-1.4901161e-08,0,0,1,0,-2,0,0,2,2,2,2,2,2,2,2,2,2,2,2
67628000,-0.3943727,0.012064159,-0.051944643,0.0,0.0,0.0,0,0,1,0,-2,0,-2,2,2,2,2,2,2,2,2,2,2,2,2
67828000,-0.38641518,0.051561505,-0.051280353,0.0,0.0,0.0,0,0,1,0,-2,0,-2,2,2,2,2,2,2,2,2,2,2,2,2
68028000,-0.38091418,0.042611793,-0.05231993,0.0,0.0,-1.4901161e-08,0,0,1,0,-2,0,-2,2,2,2,2,2,2,2,2,2,2,2,2
68228000,-0.37498835,0.03599724,-0.05269263,0.0,0.0,-1.4901161e-08,0,0,1,0,-2,0,-2,2,2,2,2,2,2,2,2,2,2,2,2
68428000,-0.36944947,0.02594325,-0.052912917,0.0,0.0,-7.450581e-09,0,0,1,0,-2,0,-2,2,2,2,2,2,2,2,2,2,2,2,2
68628000,-0.36427468,0.017469361,-0.053278573,0.0,0.0,0.0,0,0,1,0,-2,0,-2,2,2,2,2,2,2,2,2,2,2,2,2
68828000,-0.35811174,0.0066872537,-0.05354592,0.0,0.0,-7.450581e-09,0,0,1,0,-2,0,-2,2,2,2,2,2,2,2,2,2,2,2,2
69028000,-0.35350847,1.4901161e-08,-0.05333845,0.0,0.0,-7.450581e-09,0,0,1,0,-2,0,0,2,2,2,2,2,2,2,2,2,2,2,2
69228000,-0.3329854,0.0,-0.054260515,0.0,0.0,-7.450581e-09,0,0,1,0,-2,0,0,2,2,2,2,2,2,2,2,2,2,2,2
69428000,-0.3206352,0.0,-0.054050975,0.0,0.0,7.450581e-09,0,0,1,0,-2,0,0,2,2,2,2,2,2,2,2,2,2,2,2
69628000,-0.2977712,0.0,-0.054337647,0.0,0.0,0.0,0,0,1,0,-2,0,0,2,2,2,2,2,2,2,2,2,2,2,2
69828000,-0.27844435,-1.4901161e-08,-0.05465678,0.0,0.0,0.0,0,0,1,0,-2,0,0,2,2,2,2,2,2,2,2,2,2,2,2
70028000,-0.25889835,7.450581e-09,-0.0545028,0.0,0.0,-1.4901161e-08,0,0,1,0,-2,0,0,2,2,2,2,2,2,2,2,2,2,2,2
70228000,-0.24137646,0.0,-0.054392457,0.0,0.0,0.0,0,0,1,0,-2,0,0,2,2,2,2,2,2,2,2,2,2,2,2
70428000,-0.21776327,0.0,-0.054691125,0.0,0.0,-1.4901161e-08,0,0,1,0,-2,0,0,2,2,2,2,2,2,2,2,2,2,2,2
70628000,-0.19998239,0.0,-0.054202575,0.0,0.0,-7.450581e-09,0,0,1,0,-2,0,0,2,2,2,2,2,2,2,2,2,2,2,2
70828000,-0.17884451,-7.450581e-09,-0.054856982,0.0,0.0,0.0,0,0,1,0,-2,0,0,2,2,2,2,2,2,2,2,2,2,2,2
71020000,-0.15896744,-1.1175871e-08,-0.05508759,0.0,0.0,-7.450581e-09,0,0,1,0,-2,0,0,2,2,2,2,2,2,2,2,2,2,2,2
71228000,-0.1363376,-7.450581e-09,-0.054897483,0.0,0.0,-1.4901161e-08,0,0,1,0,-2,0,0,2,2,2,2,2,2,2,2,2,2,2,2
71420000,-0.114671454,-7.450581e-09,-0.05524606,0.0,0.0,0.0,0,0,1,0,-2,0,0,2,2,2,2,2,2,2,2,2,2,2,2
71628000,-0.08808546,-3.259629e-09,-0.055553302,0.0,0.0,-1.4901161e-08,0,0,1,0,-2,0,0,2,2,2,2,2,2,2,2,2,2,2,2
71820000,-0.08995058,-1.4901161e-08,-0.041550595,0.0,0.0,0.0,0,0,1,0,-2,0,0,2,2,2,2,2,2,2,2,2,2,2,2
72028000,-0.11697735,-7.450581e-09,-0.014903665,0.0,0.0,-7.450581e-09,0,0,1,0,-2,0,0,2,2,2,2,2,2,2,2,2,2,2,2
72228000,-0.14291261,-7.450581e-09,-1.8626451e-08,0.0,0.0,-7.450581e-09,0,0,1,0,0,0,0,2,2,2,2,2,2,2,2,2,2,2,2
72420000,-0.16611026,1.4901161e-08,-7.450581e-09,0.0,0.0,0.0,0,0,1,0,0,0,0,2,2,2,2,2,2,2,2,2,2,2,2
72620000,-0.19140193,0.0,-1.1175871e-08,0.0,0.0,0.0,0,0,1,0,0,0,0,2,2,2,2,2,2,2,2,2,2,2,2
72828000,-0.16120905,0.0,-0.05488342,0.0,0.0,1.4901161e-08,0,0,1,0,-2,0,0,2,2,2,2,2,2,2,2,2,2,2,2
73028000,-0.28766683,0.06928171,-0.049564708,0.0,0.0,0.0,0,0,1,0,-2,0,-2,2,2,2,2,2,2,2,2,2,2,2,2
73228000,-0.32957277,0.194688,-0.0414199,0.0,0.0,0.0,0,0,1,0,-2,0,-2,2,2,2,2,2,2,2,2,2,2,2,2
73428000,-0.36559445,0.31127012,-0.03003945,0.0,0.0,0.0,0,0,1,0,-2,0,-2,2,2,2,2,2,2,2,2,2,2,2,2
73628000,-0.3958517,0.37206644,-0.019793179,0.0,0.0,-1.4901161e-08,0,0,1,0,-2,0,-2,2,2,2,2,2,2,2,2,2,2,2,2
73828000,-0.41632253,0.4195879,-0.010071754,0.0,0.0,1.4901161e-08,0,0,1,0,-2,0,-2,2,2,2,2,2,2,2,2,2,2,2,2
74020000,-0.43178102,0.4199384,-0.0019047594,0.0,0.0,1.4901161e-08,0,0,1,0,-2,0,-2,2,2,2,2,2,2,2,2,2,2,2,2
74228000,-0.4465247,0.42170274,0.002820735,0.0,0.0,2.2351742e-08,0,0,1,0,-2,0,-2,2,2,2,2,2,2,2,2,2,2,2,2
74428000,-0.4556842,0.420993,0.004227305,0.0,0.0,2.2351742e-08,0,0,1,0,-2,0,-2,2,2,2,2,2,2,2,2,2,2,2,2
74628000,-0.46142036,0.4216457,0.005162034,0.0,0.0,1.4901161e-08,0,0,1,0,-2,0,-2,2,2,2,2,2,2,2,2,2,2,2,2
74828000,-0.46474308,0.4164539,0.005240592,0.0,0.0,2.9802322e-08,0,0,1,0,-2,0,-2,2,2,2,2,2,2,2,2,2,2,2,2
75028000,-0.46613818,0.41572747,0.004632162,0.0,0.0,-2.2351742e-08,0,0,1,0,-2,0,-2,2,2,2,2,2,2,2,2,2,2,2,2
75228000,-0.46710312,0.4092708,0.004735891,0.0,0.0,1.4901161e-08,0,0,1,0,-2,0,-2,2,2,2,2,2,2,2,2,2,2,2,2
75428000,-0.4670885,0.40079042,0.0034329807,0.0,0.0,0.0,0,0,1,0,-2,0,-2,2,2,2,2,2,2,2,2,2,2,2,2
75628000,-0.46462798,0.38668445,0.0027502722,0.0,0.0,0.0,0,0,1,0,-2,0,-2,2,2,2,2,2,2,2,2,2,2,2,2
75828000,-0.46017167,0.3802279,0.0013174406,0.0,0.0,1.4901161e-08,0,0,1,0,-2,0,-2,2,2,2,2,2,2,2,2,2,2,2,2
76020000,-0.45743147,0.36997062,0.00026670843,0.0,0.0,1.4901161e-08,0,0,1,0,-2,0,-2,2,2,2,2,2,2,2,2,2,2,2,2
76228000,-0.45514983,0.36138266,0.00084473565,0.0,0.0,-1.4901161e-08,0,0,1,0,-2,0,-2,2,2,2,2,2,2,2,2,2,2,2,2
76428000,-0.4521041,0.35334346,0.0009627687,0.0,0.0,-2.9802322e-08,0,0,1,0,-2,0,-2,2,2,2,2,2,2,2,2,2,2,2,2
76628000,-0.4492714,0.3464591,0.00019395724,0.0,0.0,-1.4901161e-08,0,0,1,0,-2,0,-2,2,2,2,2,2,2,2,2,2,2,2,2
76828000,-0.44721004,0.3364315,0.0006695679,0.0,0.0,1.4901161e-08,0,0,1,0,-2,0,-2,2,2,2,2,2,2,2,2,2,2,2,2
77028000,-0.44576412,0.33074465,7.314975e-05,0.0,0.0,-2.9802322e-08,0,0,1,0,-2,0,-2,2,2,2,2,2,2,2,2,2,2,2,2
77228000,-0.44408435,0.3276726,0.00021006928,0.0,0.0,0.0,0,0,1,0,-2,0,-2,2,2,2,2,2,2,2,2,2,2,2,2
77428000,-0.44232094,0.32436234,0.0006929534,0.0,0.0,0.0,0,0,1,0,-2,0,-2,2,2,2,2,2,2,2,2,2,2,2,2
77620000,-0.44186583,0.32432744,0.0010040719,0.0,0.0,0.0,0,0,1,0,-2,0,-2,2,2,2,2,2,2,2,2,2,2,2,2
77820000,-0.4404598,0.31896174,-8.21696e-05,0.0,0.0,1.4901161e-08,0,0,1,0,-2,0,-2,2,2,2,2,2,2,2,2,2,2,2,2
78020000,-0.44052905,0.3196505,0.0001654336,0.0,0.0,-2.9802322e-08,0,0,1,0,-2,0,-2,2,2,2,2,2,2,2,2,2,2,2,2
78220000,-0.4402511,0.31991577,0.0005728343,0.0,0.0,0.0,0,0,1,0,-2,0,-2,2,2,2,2,2,2,2,2,2,2,2,2
78428000,-0.43911594,0.3214746,-0.00011747799,0.0,0.0,-2.9802322e-08,0,0,1,0,-2,0,-2,2,2,2,2,2,2,2,2,2,2,2,2
78620000,-0.43850228,0.3215521,-0.000115064,0.0,0.0,-1.4901161e-08,0,0,1,0,-2,0,-2,2,2,2,2,2,2,2,2,2,2,2,2
78828000,-0.43568322,0.31991553,4.5558438e-05,0.0,0.0,0.0,0,0,1,0,-2,0,-2,2,2,2,2,2,2,2,2,2,2,2,2
79028000,-0.4356619,0.31990913,0.0006429535,0.0,0.0,0.0,0,0,1,0,-2,0,-2,2,2,2,2,2,2,2,2,2,2,2,2
79228000,-0.43372282,0.31938046,0.00013562937,0.0,0.0,-4.4703484e-08,0,0,1,0,-2,0,-2,2,2,2,2,2,2,2,2,2,2,2,2
79428000,-0.4326588,0.32091382,0.0007621918,0.0,0.0,7.450581e-09,0,0,1,0,-2,0,-2,2,2,2,2,2,2,2,2,2,2,2,2
79620000,-0.4313032,0.32529658,0.0009546002,0.0,0.0,7.450581e-09,0,0,1,0,-2,0,-2,2,2,2,2,2,2,2,2,2,2,2,2
79828000,-0.42961913,0.32251596,8.171712e-05,0.0,0.0,1.4901161e-08,0,0,1,0,-2,0,-2,2,2,2,2,2,2,2,2,2,2,2,2
80028000,-0.43748754,0.3248638,0.0016043503,0.0,0.0,-1.4901161e-08,0,0,1,0,-2,0,-2,2,2,2,2,2,2,2,2,2,2,2,2
80228000,-0.46926287,0.27824676,0.010055035,0.0,0.0,0.0,0,0,1,0,-2,0,-2,2,2,2,2,2,2,2,2,2,2,2,2
80428000,-0.4943629,0.210572,0.017348941,0.0,0.0,2.9802322e-08,0,0,1,0,-2,0,-2,2,2,2,2,2,2,2,2,2,2,2,2
80628000,-0.5196481,0.11419585,0.024184428,0.0,0.0,-2.9802322e-08,0,0,1,0,-2,0,-2,2,2,2,2,2,2,2,2,2,2,2,2
80828000,-0.5332104,-5.9604645e-08,0.029988041,0.0,0.0,0.0,0,0,1,0,0,0,-2,2,2,2,2,2,2,2,2,2,2,2,2
81020000,-0.40949124,0.0,7.450581e-09,0.0,0.0,-2.9802322e-08,0,0,1,0,0,0,0,2,2,2,2,2,2,2,2,2,2,2,2
81228000,-0.11760685,5.9604645e-08,1.6880222e-08,0.0,0.0,-2.9802322e-08,0,0,1,0,0,0,0,2,2,2,2,2,2,2,2,2,2,2,2
81420000,5.9604645e-08,0.0,-0.17758393,0.0,0.0,-5.9604645e-08,0,0,1,0,-2,0,0,2,2,2,2,2,2,2,2,2,2,2,2
81620000,-0.037724726,-1.1175871e-08,-0.13488728,0.0,0.0,-0.04310745,0,0,0,0,-2,0,2,2,2,2,2,2,2,2,2,2,2,2,2
81828000,-8.940697e-08,0.0,-0.12679371,0.0,0.0,0.0,0,0,1,-2,0,0,0,2,2,2,2,2,2,2,2,2,2,2,2
82028000,0.42706648,0.0,-0.32390314,0.0,0.0,-0.15714127,0,0,0,-2,0,0,0,2,2,2,2,2,2,2,2,2,2,2,2
82228000,0.5944313,-1.1757959,-0.14501604,0.0,0.0,-0.27470952,0,0,0,-2,2,0,2,2,2,2,2,2,2,2,2,2,2,2,2
82428000,-8.940697e-08,-4.284084e-08,6.7055225e-08,0.0,0.0,-0.3359,0,1,0,0,2,0,0,2,2,2,2,2,2,2,2,2,2,2,2
82628000,0.1568164,-0.012446493,0.055825636,0.0,0.0,-0.6323979,0,0,0,-2,2,0,0,2,2,2,2,2,2,2,2,2,2,2,2
82828000,0.15754122,-0.012446523,0.054424226,0.0,0.0,-0.6323979,0,0,0,-2,2,0,0,2,2,2,2,2,2,2,2,2,2,2,2
83020000,0.1563243,-0.012446493,0.019104764,0.0,0.0,-0.6323979,0,0,0,-2,2,0,0,2,2,2,2,2,2,2,2,2,2,2,2
83228000,0.15686896,-0.012446523,0.03243573,0.0,0.0,-0.6323979,0,0,0,-2,2,0,0,2,2,2,2,2,2,2,2,2,2,2,2
83428000,0.156019,-0.0124465525,0.020522505,0.0,0.0,-0.6323979,0,0,0,-2,2,0,0,2,2,2,2,2,2,2,2,2,2,2,2
83628000,0.15717196,-0.0124465525,0.013684437,0.0,0.0,-0.632398,0,0,0,-2,2,0,0,2,2,2,2,2,2,2,2,2,2,2,2
83828000,0.15805623,-0.012446582,0.006576583,0.0,0.0,-0.6323979,0,0,0,-2,2,0,0,2,2,2,2,2,2,2,2,2,2,2,2
84020000,0.15196097,-0.010599405,1.4901161e-08,0.0,0.0,-0.6127498,0,0,0,-2,2,0,0,2,2,2,2,2,2,2,2,2,2,2,2
84228000,0.15882158,-0.012037337,2.9802322e-08,0.0,0.0,-0.62804484,0,0,0,-2,2,0,0,2,2,2,2,2,2,2,2,2,2,2,2
84428000,0.15575567,-0.011705011,7.4505806e-08,0.0,0.0,-0.62451035,0,0,0,-2,2,0,0,2,2,2,2,2,2,2,2,2,2,2,2
84620000,0.15312234,-0.009769499,4.4703484e-08,0.0,0.0,-0.60392106,0,0,0,-2,2,0,0,2,2,2,2,2,2,2,2,2,2,2,2
84828000,0.15388024,-0.010960668,2.9802322e-08,0.0,0.0,-0.6165923,0,0,0,-2,2,0,0,2,2,2,2,2,2,2,2,2,2,2,2
85028000,0.15436399,-0.010644853,-2.9802322e-08,0.0,0.0,-0.6132333,0,0,0,-2,2,0,0,2,2,2,2,2,2,2,2,2,2,2,2
85228000,0.14288116,-0.0037261546,7.450581e-09,0.0,0.0,-0.5396365,0,0,0,-2,2,0,0,2,2,2,2,2,2,2,2,2,2,2,2
85428000,0.16000244,0.0,-0.0017632956,0.0,0.0,-0.5,0,0,0,-2,2,0,0,2,2,2,2,2,2,2,2,2,2,2,2
85628000,0.31305152,5.9604645e-08,-0.028004926,0.0,0.0,-0.5,0,0,0,-2,2,0,0,2,2,2,2,2,2,2,2,2,2,2,2
85828000,0.45370334,-0.0065305233,-0.022925038,0.0,0.0,-0.5,0,0,0,-2,2,0,2,2,2,2,2,2,2,2,2,2,2,2,2
86020000,0.4530455,-0.0068433285,-0.050612535,0.0,0.0,-0.5,0,0,0,-2,2,0,2,2,2,2,2,2,2,2,2,2,2,2,2
86220000,0.45434195,-0.006934762,-0.024529986,0.0,0.0,-0.5,0,0,0,-2,2,-2,2,2,2,2,2,2,2,2,2,2,2,2,2
86428000,0.4548229,-0.007019162,-0.041943263,0.0,0.0,-0.5,0,0,0,-2,2,0,2,2,2,2,2,2,2,2,2,2,2,2,2
86628000,0.45321253,-0.0072313547,-0.022664566,0.0,0.0,-0.5,0,0,0,-2,2,-2,0,2,2,2,2,2,2,2,2,2,2,2,2
86828000,0.45338428,-0.007297814,-0.04083151,0.0,0.0,-0.5,0,0,0,-2,2,-2,2,2,2,2,2,2,2,2,2,2,2,2,2
87028000,0.4539,-0.006738901,-0.02084019,0.0,0.0,-0.5,0,0,0,-2,2,-2,2,2,2,2,2,2,2,2,2,2,2,2,2
87220000,0.45317358,-0.0057629347,-0.051088944,0.0,0.0,-0.5,0,0,0,-2,2,-2,2,2,2,2,2,2,2,2,2,2,2,2,2
87428000,0.45383045,-0.0066434145,-0.042410333,0.0,0.0,-0.50000006,0,0,0,-2,2,-2,0,2,2,2,2,2,2,2,2,2,2,2,2
87620000,0.4532195,-0.005790055,-0.08768491,0.0,0.0,-0.5,0,0,0,-2,0,-2,2,2,2,2,2,2,2,2,2,2,2,2,2
87820000,0.45357788,-0.0062033534,-0.09133283,0.0,0.0,-0.5,0,0,0,-2,2,-2,2,2,2,2,2,2,2,2,2,2,2,2,2
88028000,0.4536673,-0.0063169003,-0.13980107,0.0,0.0,-0.5,0,0,0,-2,0,-2,2,2,2,2,2,2,2,2,2,2,2,2,2
88220000,0.45350465,-0.0068121552,-0.15643592,0.0,0.0,-0.5,0,0,0,-2,2,0,2,2,2,2,2,2,2,2,2,2,2,2,2
88420000,0.454959,-0.0063759685,-0.19657436,0.0,0.0,-0.48298192,0,0,0,-2,2,-2,2,2,2,2,2,2,2,2,2,2,2,2,2
88620000,0.45336786,-0.0067626834,-0.17521903,0.0,0.0,-0.40388167,0,0,0,-2,2,-2,2,2,2,2,2,2,2,2,2,2,2,2,2
88820000,0.45272273,-0.006819248,-0.17581952,0.0,0.0,-0.31384188,0,0,0,-2,2,0,2,2,2,2,2,2,2,2,2,2,2,2,2
89028000,0.45314676,-0.005269468,-0.14130004,0.0,0.0,-0.19848233,0,0,0,-2,0,0,2,2,2,2,2,2,2,2,2,2,2,2,2
89228000,0.44807726,0.0,-0.08784677,0.0,0.0,-0.05766034,0,0,0,-2,2,0,0,2,2,2,2,2,2,2,2,2,2,2,2
89428000,0.45449713,-0.0009521246,-0.014746662,0.0,0.0,-5.9604645e-08,0,0,1,-2,0,-2,0,2,2,2,2,2,2,2,2,2,2,2,2
89620000,0.06048894,0.0,3.7252903e-08,0.0,0.0,0.0,0,0,1,0,0,0,0,2,2,2,2,2,2,2,2,2,2,2,2
89828000,0.46174535,0.15996994,0.16117738,0.0,0.0,-1.4901161e-08,0,0,1,0,-2,0,-2,2,2,2,2,2,2,2,2,2,2,2,2
90028000,0.46046868,0.17633174,0.2801389,0.0,0.0,1.4901161e-08,0,0,1,0,-2,0,-2,2,2,2,2,2,2,2,2,2,2,2,2
90228000,-0.6916489,0.1773132,-0.2435117,0.0,0.0,-1.4901161e-08,0,0,1,0,-2,0,-2,2,2,2,2,2,2,2,2,2,2,2,2
90428000,-0.69177693,0.17748967,-0.2644105,0.0,0.0,2.2351742e-08,0,0,1,0,-2,0,-2,2,2,2,2,2,2,2,2,2,2,2,2
90620000,-0.691297,0.1779456,-0.30103648,0.0,0.0,-7.450581e-09,0,0,1,0,-2,0,-2,2,2,2,2,2,2,2,2,2,2,2,2
90828000,-0.6922863,0.17685373,-0.30793285,0.0,0.0,-7.450581e-09,0,0,1,0,-2,0,-2,2,2,2,2,2,2,2,2,2,2,2,2
91028000,-0.691679,0.1773976,-0.35236704,0.0,0.0,1.4901161e-08,0,0,1,0,-2,0,-2,2,2,2,2,2,2,2,2,2,2,2,2
91228000,-0.6917838,0.1773461,-0.41181648,0.0,0.0,-7.450581e-09,0,0,1,0,-2,0,-2,2,2,2,2,2,2,2,2,2,2,2,2
91428000,-0.6917009,0.17758575,-0.44383642,0.0,0.0,-1.4901161e-08,0,0,1,0,-2,0,-2,2,2,2,2,2,2,2,2,2,2,2,2
91628000,-0.69225127,0.17754214,-0.43708864,0.0,0.0,0.0,0,0,1,0,-2,0,-2,2,2,2,2,2,2,2,2,2,2,2,2
91828000,-0.6925282,0.17789574,-0.43114355,0.0,0.0,1.4901161e-08,0,0,1,0,-2,0,-2,2,2,2,2,2,2,2,2,2,2,2,2
92028000,-0.69182044,0.17738743,-0.42763558,0.0,0.0,-7.450581e-09,0,0,1,0,-2,0,-2,2,2,2,2,2,2,2,2,2,2,2,2
92220000,-0.69282335,0.17730598,-0.4275618,0.0,0.0,-1.4901161e-08,0,0,1,0,-2,0,-2,2,2,2,2,2,2,2,2,2,2,2,2
92420000,-0.69089836,0.17760096,-0.4273925,0.0,0.0,2.2351742e-08,0,0,1,0,-2,0,-2,2,2,2,2,2,2,2,2,2,2,2,2
92628000,-0.6919444,0.17761101,-0.42721763,0.0,0.0,2.2351742e-08,0,0,1,0,-2,0,-2,2,2,2,2,2,2,2,2,2,2,2,2
92828000,-0.69164014,0.17761354,-0.42816493,0.0,0.0,2.2351742e-08,0,0,1,0,-2,0,-2,2,2,2,2,2,2,2,2,2,2,2,2
93028000,-0.6923164,0.17849098,-0.4281198,0.0,0.0,-1.4901161e-08,0,0,1,0,-2,0,-2,2,2,2,2,2,2,2,2,2,2,2,2
93228000,-0.6919828,0.17914003,-0.42855164,0.0,0.0,-7.450581e-09,0,0,1,0,-2,0,-2,2,2,2,2,2,2,2,2,2,2,2,2
93428000,-0.6910063,0.17687221,-0.43224302,0.0,0.0,-1.4901161e-08,0,0,1,0,-2,0,-2,2,2,2,2,2,2,2,2,2,2,2,2
93628000,-0.6919877,0.17789929,-0.43100107,0.0,0.0,-7.450581e-09,0,0,1,0,-2,0,-2,2,2,2,2,2,2,2,2,2,2,2,2
93828000,-0.69118977,0.1776143,-0.43106195,0.0,0.0,7.450581e-09,0,0,1,0,-2,0,-2,2,2,2,2,2,2,2,2,2,2,2,2
94028000,-0.6913113,0.17463575,-0.43084604,0.0,0.0,7.450581e-09,0,0,1,0,-2,0,-2,2,2,2,2,2,2,2,2,2,2,2,2
94220000,-0.6923393,0.1578979,-0.43142453,0.0,0.0,0.0,0,0,1,0,-2,0,-2,2,2,2,2,2,2,2,2,2,2,2,2
94428000,-0.6920107,0.13918501,-0.4312864,0.0,0.0,-1.4901161e-08,0,0,1,0,-2,0,-2,2,2,2,2,2,2,2,2,2,2,2,2
94628000,-0.6918732,0.121985346,-0.43264282,0.0,0.0,0.0,0,0,1,0,-2,0,-2,2,2,2,2,2,2,2,2,2,2,2,2
94828000,-0.69221824,0.10981774,-0.43297067,0.0,0.0,1.4901161e-08,0,0,1,0,-2,0,-2,2,2,2,2,2,2,2,2,2,2,2,2
95028000,-0.6912497,0.10927048,-0.43365446,0.0,0.0,0.0,0,0,1,0,-2,0,-2,2,2,2,2,2,2,2,2,2,2,2,2
95228000,-0.69218236,0.109417096,-0.43434384,0.0,0.0,-1.4901161e-08,0,0,1,0,-2,0,-2,2,2,2,2,2,2,2,2,2,2,2,2
95428000,-0.6923689,0.107453674,-0.43471256,0.0,0.0,-2.9802322e-08,0,0,1,0,-2,0,-2,2,2,2,2,2,2,2,2,2,2,2,2
95620000,-0.301238,2.9802322e-08,-0.022227157,0.0,0.0,-2.9802322e-08,0,0,1,0,-2,0,0,2,2,2,2,2,2,2,2,2,2,2,2
95828000,0.36292112,0.0,0.084411114,0.0,0.0,-5.9604645e-08,0,0,1,0,0,0,-2,2,2,2,2,2,2,2,2,2,2,2,2
96020000,0.4644265,0.029938847,0.08430868,0.0,0.0,0.0,0,0,1,0,-2,0,-2,2,2,2,2,2,2,2,2,2,2,2,2
96220000,0.46346337,0.3319881,0.08447321,0.0,0.0,1.4901161e-08,0,0,1,0,-2,0,-2,2,2,2,2,2,2,2,2,2,2,2,2
96428000,0.46393818,0.33262706,0.08450206,0.0,0.0,0.0,0,0,1,0,-2,0,-2,2,2,2,2,2,2,2,2,2,2,2,2
96628000,0.46361375,0.3321646,0.08475991,0.0,0.0,1.4901161e-08,0,0,1,0,-2,0,-2,2,2,2,2,2,2,2,2,2,2,2,2
96828000,0.46381012,0.50063926,0.0833781,0.0,0.0,-1.2922101e-08,0,0,1,0,-2,0,-2,2,2,2,2,2,2,2,2,2,2,2,2
97028000,0.46327165,0.50049174,0.07578968,0.0,0.0,-1.2922101e-08,0,0,1,0,-2,0,-2,2,2,2,2,2,2,2,2,2,2,2,2
97220000,0.4647159,0.50113326,0.07533969,0.0,0.0,-1.2922101e-08,0,0,1,0,-2,0,-2,2,2,2,2,2,2,2,2,2,2,2,2
97428000,0.4643386,0.5009271,0.07524281,0.0,0.0,1.6880222e-08,0,0,1,0,-2,0,-2,2,2,2,2,2,2,2,2,2,2,2,2
97628000,0.4628159,0.50089633,0.075082935,0.0,0.0,-1.2922101e-08,0,0,1,0,-2,0,-2,2,2,2,2,2,2,2,2,2,2,2,2
97820000,0.4633069,0.50151825,0.07533557,0.0,0.0,-1.2922101e-08,0,0,1,0,-2,0,-2,2,2,2,2,2,2,2,2,2,2,2,2
98028000,0.46333224,0.5008466,0.07506113,0.0,0.0,1.9790605e-09,0,0,1,0,-2,0,-2,2,2,2,2,2,2,2,2,2,2,2,2
98228000,-0.68601024,0.5004167,-0.027857395,0.0,0.0,-5.47152e-09,0,0,1,0,-2,0,-2,2,2,2,2,2,2,2,2,2,2,2,2
98428000,-0.68689394,0.49950758,-0.027665535,0.0,0.0,-1.2922101e-08,0,0,1,0,-2,0,-2,2,2,2,2,2,2,2,2,2,2,2,2
98628000,-0.6882836,0.49955782,-0.027676458,0.0,0.0,-1.2922101e-08,0,0,1,0,-2,0,-2,2,2,2,2,2,2,2,2,2,2,2,2
98828000,-0.5754618,0.57422745,-0.07985256,0.0,0.0,-1.3853423e-08,0,0,1,0,-2,0,-2,2,2,2,2,2,2,2,2,2,2,2,2
99028000,-0.57558864,0.5741665,-0.08039572,0.0,0.0,2.910383e-09,0,0,1,0,-2,0,-2,2,2,2,2,2,2,2,2,2,2,2,2
99228000,-0.5752536,0.57357687,-0.07868025,0.0,0.0,-1.2922101e-08,0,0,1,0,-2,0,-2,2,2,2,2,2,2,2,2,2,2,2,2
99428000,-0.5751409,0.5729589,-0.07877751,0.0,0.0,-5.47152e-09,0,0,1,0,-2,0,-2,2,2,2,2,2,2,2,2,2,2,2,2
99620000,-0.57612014,0.57333785,-0.076231755,0.0,0.0,-1.2922101e-08,0,0,1,0,-2,0,-2,2,2,2,2,2,2,2,2,2,2,2,2
