timestamp,timestamp_sample,gyro_device_id,gyro_bias[0],gyro_bias[1],gyro_bias[2],gyro_bias_limit,gyro_bias_variance[0],gyro_bias_variance[1],gyro_bias_variance[2],accel_device_id,accel_bias[0],accel_bias[1],accel_bias[2],accel_bias_limit,accel_bias_variance[0],accel_bias_variance[1],accel_bias_variance[2],mag_device_id,mag_bias[0],mag_bias[1],mag_bias[2],mag_bias_limit,mag_bias_variance[0],mag_bias_variance[1],mag_bias_variance[2],gyro_bias_valid,gyro_bias_stable,accel_bias_valid,accel_bias_stable,mag_bias_valid,mag_bias_stable
3132000,3132000,1310988,0.0,0.0,0.0,0.15,0.010040122,0.010040122,0.010040039,1310988,0.0,0.0,0.0,0.4,0.04016049,0.04016049,0.04016049,0,0.0,0.0,0.0,0.0,0.0,0.0,0.0,1,0,1,0,0,0
3444000,3364000,1310988,9.884373e-05,-0.0005072033,-2.2171305e-06,0.15,0.010758456,0.010762234,0.003946468,1310988,-0.001192006,0.0021797165,-0.10258019,0.4,0.043309566,0.043312818,0.004501312,0,0.0,0.0,0.0,0.0,0.0,0.0,0.0,1,0,1,0,0,0
3500000,3420000,1310988,9.9801655e-05,-0.0005121888,-2.9103285e-06,0.15,0.010970983,0.01097485,0.0039911354,1310988,-0.0012037253,0.0022011364,-0.10358851,0.4,0.044165183,0.0441685,0.0045902464,0,0.0,0.0,0.0,0.0,0.0,0.0,0.0,1,0,1,0,0,0
3564000,3484000,1310988,0.00010085242,-0.0005175814,-2.9409698e-06,0.15,0.011203216,0.011207165,0.0040756203,1310988,-0.0012163988,0.002224311,-0.10467914,0.4,0.04510007,0.045103457,0.0046874187,0,0.0,0.0,0.0,0.0,0.0,0.0,0.0,1,0,1,0,0,0
3628000,3548000,1310988,6.5725406e-05,-0.0006537186,-3.0186372e-06,0.15,0.010750919,0.010754843,0.004155606,1310988,-0.0012381353,0.0022488488,-0.105705865,0.4,0.045985546,0.04598899,0.0047798436,0,0.0,0.0,0.0,0.0,0.0,0.0,0.0,1,0,1,0,0,0
3692000,3612000,1310988,3.0350684e-05,-0.0008536703,1.1462444e-06,0.15,0.010328265,0.010332248,0.00399722,1310988,-0.0012697849,0.0022753575,-0.10680878,0.4,0.04682475,0.046828255,0.004835933,0,0.0,0.0,0.0,0.0,0.0,0.0,0.0,1,0,1,0,0,0
3764000,3684000,1310988,3.0639807e-05,-0.0008618025,1.1571636e-06,0.15,0.01052598,0.010530039,0.00407374,1310988,-0.001281881,0.0022970329,-0.107826255,0.4,0.047721118,0.047724694,0.004928514,0,0.0,0.0,0.0,0.0,0.0,0.0,0.0,1,0,1,0,0,0
3836000,3756000,1310988,-5.848156e-05,-0.002420305,-6.6573843e-06,0.15,0.0037020247,0.0037037844,0.0041417545,1310988,-0.0014379022,0.0023255856,-0.10877015,0.4,0.04850156,0.04850514,0.0050153835,0,0.0,0.0,0.0,0.0,0.0,0.0,0.0,1,0,1,0,0,0
3884000,3804000,1310988,-5.6201723e-05,-0.00259356,-2.0472029e-05,0.15,0.0033655183,0.0033672526,0.0036541598,1310988,-0.001476425,0.0023473245,-0.10978276,0.4,0.049026493,0.049030125,0.004943937,0,0.0,0.0,0.0,0.0,0.0,0.0,0.0,1,0,1,0,0,0
3972000,3892000,1310988,-5.672284e-05,-0.002617608,-2.0661852e-05,0.15,0.0034282203,0.0034299868,0.003722239,1310988,-0.0014901147,0.0023690895,-0.1108007,0.4,0.049939886,0.04994359,0.0050360523,0,0.0,0.0,0.0,0.0,0.0,0.0,0.0,1,0,1,0,0,0
4044000,3964000,1310988,-0.0002324864,-0.0036280216,-2.2395821e-05,0.15,0.0011327227,0.0011331841,0.0037726325,1310988,-0.001624593,0.0024074349,-0.111563295,0.4,0.050595447,0.050599203,0.005105835,0,0.0,0.0,0.0,0.0,0.0,0.0,0.0,1,0,1,0,0,0
4068000,3988000,1310988,-0.0002542154,-0.0036971872,-2.2326252e-05,0.15,0.0010745244,0.0010749479,0.0037890063,1310988,-0.0016638659,0.0024356316,-0.11262626,0.4,0.050811827,0.05081565,0.004861628,0,0.0,0.0,0.0,0.0,0.0,0.0,0.0,1,0,1,0,0,0
4180000,4100000,1310988,-0.0002566212,-0.0037319255,-2.3308334e-05,0.15,0.0010944853,0.001095021,0.003105656,1310988,-0.0016795051,0.0024585233,-0.1136849,0.4,0.051771548,0.051775433,0.0049534612,0,0.0,0.0,0.0,0.0,0.0,0.0,0.0,1,0,1,0,0,0
4276000,4196000,1310988,-0.0004018655,-0.0041752453,-2.2236525e-05,0.15,0.0005290098,0.000529151,0.003149732,1310988,-0.0018210218,0.0025353674,-0.115675464,0.4,0.05248001,0.05248405,0.0046108817,0,0.0,0.0,0.0,0.0,0.0,0.0,0.0,1,0,1,0,0,0
4412000,4332000,1310988,-0.00040552302,-0.0042118793,-2.8184986e-05,0.15,0.0005380177,0.0005382448,0.0024318558,1310988,-0.0018370418,0.0025576642,-0.11669334,0.4,0.05340767,0.05341178,0.004692396,0,0.0,0.0,0.0,0.0,0.0,0.0,0.0,1,0,1,0,0,0
4484000,4404000,1310988,-0.0005487948,-0.0045973444,-2.652201e-05,0.15,0.00029574177,0.000295786,0.0024517227,1310988,-0.0020246753,0.0026560181,-0.11860955,0.4,0.05381065,0.05381493,0.004209273,0,0.0,0.0,0.0,0.0,0.0,0.0,0.0,1,0,1,0,0,0
4660000,4580000,1310988,-0.0005538233,-0.0046369517,-3.964919e-05,0.15,0.00030060185,0.00030070677,0.001839106,1310988,-0.0020422083,0.0026790178,-0.11963764,0.4,0.05474755,0.054751903,0.0042825737,0,0.0,0.0,0.0,0.0,0.0,0.0,0.0,1,0,1,0,0,0
4692000,4612000,1310988,-0.00083596667,-0.0049446276,-3.3527886e-05,0.15,0.00016929547,0.00016928153,0.0018441296,1310988,-0.0022442439,0.0028640444,-0.12129157,0.4,0.05486164,0.054866243,0.0037274498,0,0.0,0.0,0.0,0.0,0.0,0.0,0.0,1,0,1,0,0,0
4900000,4820000,1310988,-0.0012327837,-0.0051331813,9.305897e-06,0.15,9.9399134e-05,9.934414e-05,0.0013736291,1310988,-0.002397972,0.0031690206,-0.12358318,0.4,0.055689756,0.055694785,0.0032325778,0,0.0,0.0,0.0,0.0,0.0,0.0,0.0,1,0,1,0,0,0
5108000,5028000,1310988,-0.0014999602,-0.0052284887,4.3031057e-05,0.15,6.108086e-05,6.1015427e-05,0.0010281737,1310988,-0.0024968646,0.0034111033,-0.12555213,0.4,0.056341134,0.05634651,0.0027708733,0,0.0,0.0,0.0,0.0,0.0,0.0,0.0,1,0,1,0,0,0
5316000,5236000,1310988,-0.0016463527,-0.0053391675,5.516737e-05,0.15,3.9641258e-05,3.9584076e-05,0.00077901036,1310988,-0.0026150062,0.003568934,-0.12721598,0.4,0.05685145,0.056857094,0.0023648741,0,0.0,0.0,0.0,0.0,0.0,0.0,0.0,1,0,1,0,0,0
5524000,5444000,1310988,-0.0016316175,-0.0054060994,4.9739498e-05,0.15,2.712054e-05,2.7077289e-05,0.00059918273,1310988,-0.0026989996,0.003575509,-0.1287082,0.4,0.05724987,0.05725572,0.0020204207,0,0.0,0.0,0.0,0.0,0.0,0.0,0.0,1,0,1,0,0,0
5732000,5652000,1310988,-0.0015775894,-0.005460794,5.6773322e-05,0.15,1.941959e-05,1.938815e-05,0.00046814818,1310988,-0.002773032,0.0035297533,-0.12997682,0.4,0.057559498,0.057565488,0.0017336843,0,0.0,0.0,0.0,0.0,0.0,0.0,0.0,1,0,1,0,0,0
5940000,5860000,1310988,-0.0015572009,-0.005501712,6.340156e-05,0.15,1.4441507e-05,1.4417314e-05,0.00037136712,1310988,-0.0028330581,0.0035146782,-0.13106795,0.4,0.0577995,0.0578056,0.0014974416,0,0.0,0.0,0.0,0.0,0.0,0.0,0.0,1,0,1,0,0,0
6196000,6116000,1310988,-0.0015604018,-0.005538266,6.8988316e-05,0.15,1.1060209e-05,1.1046084e-05,0.00024313401,1310988,-0.0028886008,0.003528031,-0.13207081,0.4,0.05802281,0.058028996,0.0013038181,0,0.0,0.0,0.0,0.0,0.0,0.0,0.0,1,0,1,0,0,0
6564000,6484000,1310988,-0.0015751686,-0.005507323,7.330581e-05,0.15,7.0142532e-06,6.999254e-06,0.00020097297,1310988,-0.0028528543,0.0035567957,-0.13335104,0.4,0.05823928,0.058245637,0.001011236,0,0.0,0.0,0.0,0.0,0.0,0.0,0.0,1,0,1,0,0,0
7188000,7108000,1310988,-0.0014759456,-0.0054025506,8.616506e-05,0.15,4.0366263e-06,4.0274613e-06,0.000120002194,1310988,-0.0027040173,0.003416957,-0.13437454,0.4,0.058442786,0.05844924,0.0007788922,0,0.0,0.0,0.0,0.0,0.0,0.0,0.0,1,0,1,0,0,0
8188000,8108000,1310988,-0.0012648575,-0.005431343,4.9094455e-05,0.15,2.2796721e-06,2.2774846e-06,5.941513e-05,1310988,-0.0027622054,0.0030936645,-0.13476779,0.4,0.058565218,0.058571607,0.0007805835,0,0.0,0.0,0.0,0.0,0.0,0.0,0.0,1,0,1,0,0,0
9188000,9108000,1310988,-0.0012145856,-0.005416092,-7.014196e-06,0.15,1.3337765e-06,1.3323242e-06,3.3714754e-05,1310988,-0.0027482747,0.0029435868,-0.13504168,0.4,0.058594003,0.0586003,0.0007810649,0,0.0,0.0,0.0,0.0,0.0,0.0,0.0,1,0,1,0,0,0
10188000,10108000,1310988,-0.0011425277,-0.00550417,-3.845993e-05,0.15,8.8965567e-07,8.890907e-07,2.1021822e-05,1310988,-0.0030573276,0.0028049673,-0.1348844,0.4,0.058599986,0.05860664,0.00078120094,0,0.0,0.0,0.0,0.0,0.0,0.0,0.0,1,0,1,0,0,0
11188000,11108000,1310988,-0.0011675087,-0.005499593,-6.800741e-05,0.15,6.499349e-07,6.49163e-07,1.4039286e-05,1310988,-0.003109304,0.0029228895,-0.13397135,0.4,0.05860058,0.058607433,0.0007812387,0,0.0,0.0,0.0,0.0,0.0,0.0,0.0,1,0,1,0,0,0
11764000,11684000,1310988,-0.0012071945,-0.005478533,-7.758433e-05,0.15,5.562994e-07,5.553217e-07,1.2131727e-05,1310988,-0.003165841,0.003066046,-0.13283966,0.4,0.05860047,0.058606904,0.00078124576,0,0.0,0.0,0.0,0.0,0.0,0.0,0.0,1,0,1,0,0,0
12388000,12308000,1310988,-0.0012260805,-0.0054463684,-9.0353e-05,0.15,4.8532604e-07,4.8437084e-07,9.880326e-06,1310988,-0.003154721,0.0032287177,-0.13168664,0.4,0.058599234,0.05860498,0.00078124576,0,0.0,0.0,0.0,0.0,0.0,0.0,0.0,1,0,1,0,0,0
13012000,12932000,1310988,-0.0012131754,-0.0054373313,-0.00010092642,0.15,4.3023047e-07,4.2949904e-07,8.166424e-06,1310988,-0.003193579,0.00326049,-0.13052054,0.4,0.058596592,0.05860204,0.00078124576,0,0.0,0.0,0.0,0.0,0.0,0.0,0.0,1,0,1,0,0,0
13636000,13556000,1310988,-0.0011838754,-0.005444896,-0.000109668144,0.15,3.8668446e-07,3.8621323e-07,6.8378436e-06,1310988,-0.0033277778,0.0031555777,-0.12945266,0.4,0.058593694,0.058599148,0.00078124576,0,0.0,0.0,0.0,0.0,0.0,0.0,0.0,1,0,1,0,0,0
14468000,14388000,1310988,-0.0011778371,-0.0054640183,-0.00011775171,0.15,3.4156014e-07,3.412885e-07,5.492473e-06,1310988,-0.0035977508,0.0031964306,-0.12827238,0.4,0.058588967,0.05859467,0.00078124576,0,0.0,0.0,0.0,0.0,0.0,0.0,0.0,1,0,1,0,0,0
15468000,15388000,1310988,-0.0011836581,-0.0054733604,-0.00012351629,0.15,3.2775975e-07,3.2757097e-07,4.7180115e-06,1310988,-0.0037442578,0.0032788657,-0.12770568,0.4,0.058586292,0.05859239,0.00078124576,0,0.0,0.0,0.0,0.0,0.0,0.0,0.0,1,0,1,0,0,0
16468000,16388000,1310988,-0.0011836827,-0.005473389,-0.00012351887,0.15,3.357528e-07,3.3556393e-07,4.7260114e-06,1310988,-0.0037442578,0.0032788657,-0.1275509,0.4,0.058586292,0.05859239,0.00078124634,0,0.0,0.0,0.0,0.0,0.0,0.0,0.0,1,0,1,0,0,0
17468000,17388000,1310988,-0.0011837737,-0.0054734848,-0.00012353473,0.15,3.4368688e-07,3.4349833e-07,4.7340113e-06,1310988,-0.0037442578,0.0032788657,-0.12707253,0.4,0.058586292,0.05859239,0.0007812492,0,0.0,0.0,0.0,0.0,0.0,0.0,0.0,1,0,1,0,0,0
18468000,18388000,1310988,-0.001183838,-0.0054735565,-0.00012355146,0.15,3.5139828e-07,3.5121116e-07,4.742007e-06,1310988,-0.0037442578,0.0032788657,-0.12652417,0.4,0.058586292,0.05859239,0.0007812492,0,0.0,0.0,0.0,0.0,0.0,0.0,0.0,1,0,1,0,0,0
19468000,19388000,1310988,-0.0011831769,-0.0054729986,-0.00012346233,0.15,3.586365e-07,3.584532e-07,4.7499934e-06,1310988,-0.0037442578,0.0032788657,-0.12576348,0.4,0.058586292,0.05859239,0.00078124803,0,0.0,0.0,0.0,0.0,0.0,0.0,0.0,1,0,1,0,0,0
20324000,20244000,1310988,-0.0011827929,-0.0054725558,-0.00012342421,0.15,3.6451243e-07,3.6433377e-07,4.7568287e-06,1310988,-0.0037442578,0.0032788657,-0.12475537,0.4,0.058586292,0.05859239,0.00078124576,0,0.0,0.0,0.0,0.0,0.0,0.0,0.0,1,0,1,0,0,0
20612000,20532000,1310988,-0.0011827438,-0.005472706,-0.00012345827,0.15,3.6654464e-07,3.6636746e-07,4.759127e-06,1310988,-0.0037442578,0.0032788657,-0.12351538,0.4,0.058586292,0.05859239,0.00078124576,0,0.0,0.0,0.0,0.0,0.0,0.0,0.0,1,0,1,0,0,0
21004000,20924000,1310988,-0.0011823127,-0.0054734666,-0.0001234979,0.15,3.691277e-07,3.6895528e-07,4.762237e-06,1310988,-0.0037442578,0.0032788657,-0.120947,0.4,0.058586292,0.05859239,0.00078124576,0,0.0,0.0,0.0,0.0,0.0,0.0,0.0,1,0,1,0,0,0
21308000,21228000,1310988,-0.0011815766,-0.0054746117,-0.00012344448,0.15,3.7101424e-07,3.7084956e-07,4.7646176e-06,1310988,-0.0037442578,0.0032788657,-0.119817466,0.4,0.058586292,0.05859239,0.00078124576,0,0.0,0.0,0.0,0.0,0.0,0.0,0.0,1,0,1,0,0,0
21412000,21332000,1310988,-0.0011812006,-0.005474979,-0.00012350552,0.15,3.7184594e-07,3.7168127e-07,4.7654494e-06,1310988,-0.0037442578,0.0032788657,-0.11627247,0.4,0.058586292,0.05859239,0.00078124576,0,0.0,0.0,0.0,0.0,0.0,0.0,0.0,1,0,1,0,0,0
21596000,21516000,1310988,-0.0011805724,-0.005475745,-0.00012343808,0.15,3.7305358e-07,3.7289408e-07,4.7668823e-06,1310988,-0.0037442578,0.0032788657,-0.11521065,0.4,0.058586292,0.05859239,0.00078124576,0,0.0,0.0,0.0,0.0,0.0,0.0,0.0,1,0,1,0,0,0
21780000,21700000,1310988,-0.0011797947,-0.005476659,-0.00012334145,0.15,3.742686e-07,3.7411505e-07,4.768302e-06,1310988,-0.0037442578,0.0032788657,-0.114183605,0.4,0.058586292,0.05859239,0.00078124576,0,0.0,0.0,0.0,0.0,0.0,0.0,0.0,1,0,1,0,0,0
21804000,21724000,1310988,-0.0011789371,-0.0054771984,-0.0001233514,0.15,3.7445972e-07,3.7430667e-07,4.7684944e-06,1310988,-0.0037442578,0.0032788657,-0.10964981,0.4,0.058586292,0.05859239,0.00078124576,0,0.0,0.0,0.0,0.0,0.0,0.0,0.0,1,0,1,0,0,0
22020000,21940000,1310988,-0.0011778419,-0.005478236,-0.00012317432,0.15,3.7593824e-07,3.7579244e-07,4.7701524e-06,1310988,-0.0037442578,0.0032788657,-0.108275756,0.4,0.058586292,0.05859239,0.00078124576,0,0.0,0.0,0.0,0.0,0.0,0.0,0.0,1,0,1,0,0,0
22196000,22116000,1310988,-0.0011764689,-0.005479505,-0.00012293692,0.15,3.7710421e-07,3.7696697e-07,4.7714634e-06,1310988,-0.0037442578,0.0032788657,-0.106901534,0.4,0.058586292,0.05859239,0.00078124576,0,0.0,0.0,0.0,0.0,0.0,0.0,0.0,1,0,1,0,0,0
22204000,22124000,1310988,-0.0011746767,-0.0054804604,-0.00012283011,0.15,3.7716595e-07,3.7703035e-07,4.771527e-06,1310988,-0.0037442578,0.0032788657,-0.10110863,0.4,0.058586292,0.05859239,0.00078124576,0,0.0,0.0,0.0,0.0,0.0,0.0,0.0,1,0,1,0,0,0
22380000,22300000,1310988,-0.0011729887,-0.005481854,-0.00012245281,0.15,3.78339e-07,3.7821368e-07,4.7727963e-06,1310988,-0.0037442578,0.0032788657,-0.099869706,0.4,0.058586292,0.05859239,0.00078124576,0,0.0,0.0,0.0,0.0,0.0,0.0,0.0,1,0,1,0,0,0
22500000,22420000,1310988,-0.0011725549,-0.0054820934,-0.00012241992,0.15,3.7929829e-07,3.7917346e-07,4.7737567e-06,1310988,-0.0037442578,0.0032788657,-0.09883533,0.4,0.058586292,0.05859239,0.00078124576,0,0.0,0.0,0.0,0.0,0.0,0.0,0.0,1,0,1,0,0,0
22604000,22524000,1310988,-0.0011705221,-0.005483791,-0.00012194093,0.15,3.7990165e-07,3.797891e-07,4.774389e-06,1310988,-0.0037442578,0.0032788657,-0.0977652,0.4,0.058586292,0.05859239,0.00078124576,0,0.0,0.0,0.0,0.0,0.0,0.0,0.0,1,0,1,0,0,0
22612000,22532000,1310988,-0.0011672137,-0.00548557,-0.000121624915,0.15,3.7996023e-07,3.798515e-07,4.774453e-06,1310988,-0.0037442578,0.0032788657,-0.09089696,0.4,0.058586292,0.05859239,0.00078124576,0,0.0,0.0,0.0,0.0,0.0,0.0,0.0,1,0,1,0,0,0
22788000,22708000,1310988,-0.0011646051,-0.005487559,-0.00012091898,0.15,3.8114473e-07,3.8105085e-07,4.7755793e-06,1310988,-0.0037442578,0.0032788657,-0.089495674,0.4,0.058586292,0.05859239,0.00078124576,0,0.0,0.0,0.0,0.0,0.0,0.0,0.0,1,0,1,0,0,0
22908000,22828000,1310988,-0.0011639223,-0.005487946,-0.00012084986,0.15,3.8210322e-07,3.8201037e-07,4.7765393e-06,1310988,-0.0037442578,0.0032788657,-0.08838661,0.4,0.058586292,0.05859239,0.00078124576,0,0.0,0.0,0.0,0.0,0.0,0.0,0.0,1,0,1,0,0,0
23004000,22924000,1310988,-0.0011561877,-0.0054929433,-0.00011945693,0.15,3.8264267e-07,3.825734e-07,4.7769217e-06,1310988,-0.0037442578,0.0032788657,-0.080150895,0.4,0.058586292,0.05859239,0.00078124576,0,0.0,0.0,0.0,0.0,0.0,0.0,0.0,1,0,1,0,0,0
23148000,23068000,1310988,-0.0011551665,-0.0054935333,-0.00011934488,0.15,3.8379196e-07,3.8372448e-07,4.7780736e-06,1310988,-0.0037442578,0.0032788657,-0.07873549,0.4,0.058586292,0.05859239,0.00078124576,0,0.0,0.0,0.0,0.0,0.0,0.0,0.0,1,0,1,0,0,0
23324000,23244000,1310988,-0.0011514592,-0.005496267,-0.00011820972,0.15,3.8498294e-07,3.8493596e-07,4.7789754e-06,1310988,-0.0037442578,0.0032788657,-0.07721036,0.4,0.058586292,0.05859239,0.00078124576,0,0.0,0.0,0.0,0.0,0.0,0.0,0.0,1,0,1,0,0,0
23404000,23324000,1310988,-0.0011415444,-0.0055026943,-0.000116177944,0.15,3.853943e-07,3.853792e-07,4.778979e-06,1310988,-0.0037442578,0.0032788657,-0.06889962,0.4,0.058586292,0.05859239,0.00078124576,0,0.0,0.0,0.0,0.0,0.0,0.0,0.0,1,0,1,0,0,0
23564000,23484000,1310988,-0.0011403527,-0.005503395,-0.00011602858,0.15,3.866701e-07,3.8665772e-07,4.7802587e-06,1310988,-0.0037442578,0.0032788657,-0.067577645,0.4,0.058586292,0.05859239,0.00078124576,0,0.0,0.0,0.0,0.0,0.0,0.0,0.0,1,0,1,0,0,0
23748000,23668000,1310988,-0.0011360538,-0.00550656,-0.00011454497,0.15,3.879282e-07,3.8794093e-07,4.7809694e-06,1310988,-0.0037442578,0.0032788657,-0.06623033,0.4,0.058586292,0.05859239,0.00078124576,0,0.0,0.0,0.0,0.0,0.0,0.0,0.0,1,0,1,0,0,0
23804000,23724000,1310988,-0.0011251948,-0.005513571,-0.000112060174,0.15,3.881449e-07,3.8819604e-07,4.7805484e-06,1310988,-0.0037442578,0.0032788657,-0.058435895,0.4,0.058586292,0.05859239,0.00078124576,0,0.0,0.0,0.0,0.0,0.0,0.0,0.0,1,0,1,0,0,0
23988000,23908000,1310988,-0.0011241471,-0.0055141775,-0.000111910325,0.15,3.8961173e-07,3.8966633e-07,4.782021e-06,1310988,-0.0037442578,0.0032788657,-0.05738947,0.4,0.058586292,0.05859239,0.00078124576,0,0.0,0.0,0.0,0.0,0.0,0.0,0.0,1,0,1,0,0,0
24212000,24132000,1310988,-0.0011129181,-0.005521278,-0.00010921328,0.15,3.9116503e-07,3.9126422e-07,4.78287e-06,1310988,-0.0037442578,0.0032788657,-0.049555864,0.4,0.058586292,0.05859239,0.00078124576,0,0.0,0.0,0.0,0.0,0.0,0.0,0.0,1,0,1,0,0,0
24516000,24436000,1310988,-0.0011051311,-0.005527131,-0.00010602831,0.15,3.9316734e-07,3.9332042e-07,4.7833746e-06,1310988,-0.0037442578,0.0032788657,-0.04849255,0.4,0.058586292,0.05859239,0.00078124576,0,0.0,0.0,0.0,0.0,0.0,0.0,0.0,1,0,1,0,0,0
24604000,24524000,1310988,-0.0011004437,-0.0055294703,-0.000105120576,0.15,3.938511e-07,3.9401937e-07,4.7840776e-06,1310988,-0.0037442578,0.0032788657,-0.04333049,0.4,0.058586292,0.05859239,0.00078124576,0,0.0,0.0,0.0,0.0,0.0,0.0,0.0,1,0,1,0,0,0
25004000,24924000,1310988,-0.0010915834,-0.005535412,-0.000101866535,0.15,3.9659568e-07,3.9682442e-07,4.7856206e-06,1310988,-0.0037442578,0.0032788657,-0.03990814,0.4,0.058586292,0.05859239,0.00078124576,0,0.0,0.0,0.0,0.0,0.0,0.0,0.0,1,0,1,0,0,0
25804000,25724000,1310988,-0.001082017,-0.005543503,-9.9264435e-05,0.15,4.0202602e-07,4.023152e-07,4.7904973e-06,1310988,-0.0037442578,0.0032788657,-0.04148791,0.4,0.058586292,0.05859239,0.00078124576,0,0.0,0.0,0.0,0.0,0.0,0.0,0.0,1,0,1,0,0,0
26212000,26132000,1310988,-0.0010780796,-0.0055487077,-0.0001001215,0.15,4.0473253e-07,4.0501072e-07,4.79371e-06,1310988,-0.0037442578,0.0032788657,-0.046630472,0.4,0.058586292,0.05859239,0.00078124576,0,0.0,0.0,0.0,0.0,0.0,0.0,0.0,1,0,1,0,0,0
26604000,26524000,1310988,-0.0010724101,-0.0055569373,-0.0001022219,0.15,4.0722963e-07,4.0746312e-07,4.79665e-06,1310988,-0.0037442578,0.0032788657,-0.054747146,0.4,0.058586292,0.05859239,0.00078124576,0,0.0,0.0,0.0,0.0,0.0,0.0,0.0,1,0,1,0,0,0
27604000,27524000,1310988,-0.0010460286,-0.0055974317,-0.00011055426,0.15,4.131475e-07,4.130893e-07,4.7995536e-06,1310988,-0.0037442578,0.0032788657,-0.054722328,0.4,0.058586292,0.05859239,0.00078126474,0,0.0,0.0,0.0,0.0,0.0,0.0,0.0,1,0,1,0,0,0
28212000,28132000,1310988,-0.0010046172,-0.005659695,-0.00011752713,0.15,4.1629673e-07,4.159018e-07,4.7968715e-06,1310988,-0.0037442578,0.0032788657,-0.055974867,0.4,0.058586292,0.05859239,0.00078124576,0,0.0,0.0,0.0,0.0,0.0,0.0,0.0,1,0,1,0,0,0
28604000,28524000,1310988,-0.000989735,-0.0056846165,-0.000120545345,0.15,4.181111e-07,4.1748586e-07,4.7933427e-06,1310988,-0.0037442578,0.0032788657,-0.057981335,0.4,0.058586292,0.05859239,0.00078124576,0,0.0,0.0,0.0,0.0,0.0,0.0,0.0,1,0,1,0,0,0
29004000,28924000,1310988,-0.0009794262,-0.0057036616,-0.00012322933,0.15,4.19807e-07,4.1894842e-07,4.7890476e-06,1310988,-0.0037442578,0.0032788657,-0.06132086,0.4,0.058586292,0.05859239,0.00078124576,0,0.0,0.0,0.0,0.0,0.0,0.0,0.0,1,0,1,0,0,0
29324000,29244000,1310988,-0.000985022,-0.0057004956,-0.00012390585,0.15,4.215596e-07,4.205947e-07,4.7877065e-06,1310988,-0.0037442578,0.0032788657,-0.062359653,0.4,0.058586292,0.05859239,0.00078124576,0,0.0,0.0,0.0,0.0,0.0,0.0,0.0,1,0,1,0,0,0
29404000,29324000,1310988,-0.00096255844,-0.0057253395,-0.00012545398,0.15,4.2214103e-07,4.2116304e-07,4.788346e-06,1310988,-0.0037442578,0.0032788657,-0.06582674,0.4,0.058586292,0.05859239,0.00078124576,0,0.0,0.0,0.0,0.0,0.0,0.0,0.0,1,0,1,0,0,0
29660000,29580000,1310988,-0.0009880227,-0.005704867,-0.00012636426,0.15,4.224447e-07,4.212682e-07,4.782598e-06,1310988,-0.0037442578,0.0032788657,-0.06683413,0.4,0.058586292,0.05859239,0.00078124576,0,0.0,0.0,0.0,0.0,0.0,0.0,0.0,1,0,1,0,0,0
29812000,29732000,1310988,-0.0009684911,-0.005722587,-0.00012743888,0.15,4.236066e-07,4.224395e-07,4.783814e-06,1310988,-0.0037442578,0.0032788657,-0.071219444,0.4,0.058586292,0.05859239,0.00078124576,0,0.0,0.0,0.0,0.0,0.0,0.0,0.0,1,0,1,0,0,0
30084000,30004000,1310988,-0.0009997329,-0.005700771,-0.00012916094,0.15,4.2380066e-07,4.2244216e-07,4.7785393e-06,1310988,-0.0037442578,0.0032788657,-0.07222258,0.4,0.058586292,0.05859239,0.00078124576,0,0.0,0.0,0.0,0.0,0.0,0.0,0.0,1,0,1,0,0,0
30204000,30124000,1310988,-0.0009855959,-0.005709669,-0.00012956033,0.15,4.2471794e-07,4.233851e-07,4.7794992e-06,1310988,-0.0037442578,0.0032788657,-0.0767287,0.4,0.058586292,0.05859239,0.00078124576,0,0.0,0.0,0.0,0.0,0.0,0.0,0.0,1,0,1,0,0,0
30564000,30484000,1310988,-0.0010217176,-0.0056890873,-0.00013246934,0.15,4.2534856e-07,4.2383908e-07,4.775453e-06,1310988,-0.0037442578,0.0032788657,-0.07774251,0.4,0.058586292,0.05859239,0.00078124576,0,0.0,0.0,0.0,0.0,0.0,0.0,0.0,1,0,1,0,0,0
30612000,30532000,1310988,-0.0010124531,-0.0056918836,-0.00013231736,0.15,4.2570446e-07,4.2422056e-07,4.7758367e-06,1310988,-0.0037442578,0.0032788657,-0.081892915,0.4,0.058586292,0.05859239,0.00078124576,0,0.0,0.0,0.0,0.0,0.0,0.0,0.0,1,0,1,0,0,0
31612000,31532000,1310988,-0.001113566,-0.0056474614,-0.00014249778,0.15,4.26634e-07,4.248232e-07,4.7647873e-06,1310988,-0.0037442578,0.0032788657,-0.08200868,0.4,0.058586292,0.05859239,0.0007812681,0,0.0,0.0,0.0,0.0,0.0,0.0,0.0,1,0,1,0,0,0
32612000,32532000,1310988,-0.0012658193,-0.005606768,-0.00015379427,0.15,4.2507767e-07,4.2315003e-07,4.743672e-06,1310988,-0.0037442578,0.0032788657,-0.08233912,0.4,0.058586292,0.05859239,0.00078124576,0,0.0,0.0,0.0,0.0,0.0,0.0,0.0,1,0,1,0,0,0
33612000,33532000,1310988,-0.0014417258,-0.0056042722,-0.00017421307,0.15,4.2136662e-07,4.193124e-07,4.7287067e-06,1310988,-0.0037442578,0.0032788657,-0.08183198,0.4,0.058586292,0.05859239,0.0007812475,0,0.0,0.0,0.0,0.0,0.0,0.0,0.0,1,0,1,0,0,0
34124000,34044000,1310988,-0.0015046676,-0.0056213206,-0.00018839391,0.15,4.2014898e-07,4.1811893e-07,4.7263125e-06,1310988,-0.0037442578,0.0032788657,-0.080816686,0.4,0.058586292,0.05859239,0.00078124576,0,0.0,0.0,0.0,0.0,0.0,0.0,0.0,1,0,1,0,0,0
34484000,34404000,1310988,-0.0015602689,-0.0056483536,-0.00020587115,0.15,4.1737368e-07,4.1543714e-07,4.7233316e-06,1310988,-0.0037442578,0.0032788657,-0.07964393,0.4,0.058586292,0.05859239,0.00078124576,0,0.0,0.0,0.0,0.0,0.0,0.0,0.0,1,0,1,0,0,0
34716000,34636000,1310988,-0.001584801,-0.0056668185,-0.00021681379,0.15,4.162777e-07,4.1439588e-07,4.722252e-06,1310988,-0.0037442578,0.0032788657,-0.07846822,0.4,0.058586292,0.05859239,0.00078124576,0,0.0,0.0,0.0,0.0,0.0,0.0,0.0,1,0,1,0,0,0
35004000,34924000,1310988,-0.0016074483,-0.0056872466,-0.00022827985,0.15,4.1556103e-07,4.1377925e-07,4.721541e-06,1310988,-0.0037442578,0.0032788657,-0.077364266,0.4,0.058586292,0.05859239,0.00078124576,0,0.0,0.0,0.0,0.0,0.0,0.0,0.0,1,0,1,0,0,0
35124000,35044000,1310988,-0.0016282892,-0.005709855,-0.00024046423,0.15,4.1342443e-07,4.1173737e-07,4.719306e-06,1310988,-0.0037442578,0.0032788657,-0.076216,0.4,0.058586292,0.05859239,0.00078124576,0,0.0,0.0,0.0,0.0,0.0,0.0,0.0,1,0,1,0,0,0
35364000,35284000,1310988,-0.0016475852,-0.0057341144,-0.0002529431,0.15,4.1220065e-07,4.1064368e-07,4.717846e-06,1310988,-0.0037442578,0.0032788657,-0.07520453,0.4,0.058586292,0.05859239,0.00078124576,0,0.0,0.0,0.0,0.0,0.0,0.0,0.0,1,0,1,0,0,0
35412000,35332000,1310988,-0.0016460561,-0.0057362462,-0.00025475523,0.15,4.1255993e-07,4.1097968e-07,4.718195e-06,1310988,-0.0037442578,0.0032788657,-0.07418381,0.4,0.058586292,0.05859239,0.00078124576,0,0.0,0.0,0.0,0.0,0.0,0.0,0.0,1,0,1,0,0,0
35660000,35580000,1310988,-0.0016809248,-0.0057885963,-0.00027982346,0.15,4.0811818e-07,4.068341e-07,4.7126837e-06,1310988,-0.0037442578,0.0032788657,-0.07292458,0.4,0.058586292,0.05859239,0.00078124576,0,0.0,0.0,0.0,0.0,0.0,0.0,0.0,1,0,1,0,0,0
35812000,35732000,1310988,-0.0016780846,-0.0057921256,-0.00028298222,0.15,4.0929652e-07,4.079921e-07,4.7138533e-06,1310988,-0.0037442578,0.0032788657,-0.07107344,0.4,0.058586292,0.05859239,0.00078124576,0,0.0,0.0,0.0,0.0,0.0,0.0,0.0,1,0,1,0,0,0
36020000,35940000,1310988,-0.0016924781,-0.0058215675,-0.00029688794,0.15,4.076862e-07,4.065386e-07,4.7113576e-06,1310988,-0.0037442578,0.0032788657,-0.069983274,0.4,0.058586292,0.05859239,0.00078124576,0,0.0,0.0,0.0,0.0,0.0,0.0,0.0,1,0,1,0,0,0
36212000,36132000,1310988,-0.0017033997,-0.005854702,-0.0003131636,0.15,4.0588392e-07,4.048847e-07,4.708414e-06,1310988,-0.0037442578,0.0032788657,-0.06759198,0.4,0.058586292,0.05859239,0.00078124576,0,0.0,0.0,0.0,0.0,0.0,0.0,0.0,1,0,1,0,0,0
36444000,36364000,1310988,-0.0017148143,-0.005886826,-0.0003275824,0.15,4.0441557e-07,4.0357904e-07,4.705552e-06,1310988,-0.0037442578,0.0032788657,-0.06650995,0.4,0.058586292,0.05859239,0.00078124576,0,0.0,0.0,0.0,0.0,0.0,0.0,0.0,1,0,1,0,0,0
36604000,36524000,1310988,-0.0017231514,-0.005921887,-0.000343857,0.15,4.0232337e-07,4.0164218e-07,4.701804e-06,1310988,-0.0037442578,0.0032788657,-0.0643134,0.4,0.058586292,0.05859239,0.00078124576,0,0.0,0.0,0.0,0.0,0.0,0.0,0.0,1,0,1,0,0,0
36788000,36708000,1310988,-0.0017316231,-0.0059562214,-0.00035860532,0.15,4.0045018e-07,3.999303e-07,4.6980226e-06,1310988,-0.0037442578,0.0032788657,-0.06323204,0.4,0.058586292,0.05859239,0.00078124576,0,0.0,0.0,0.0,0.0,0.0,0.0,0.0,1,0,1,0,0,0
37012000,36932000,1310988,-0.0017366654,-0.005993531,-0.00037546194,0.15,3.9885902e-07,3.9849314e-07,4.694269e-06,1310988,-0.0037442578,0.0032788657,-0.060701337,0.4,0.058586292,0.05859239,0.00078124576,0,0.0,0.0,0.0,0.0,0.0,0.0,0.0,1,0,1,0,0,0
37260000,37180000,1310988,-0.0017419488,-0.0060298014,-0.00039059576,0.15,3.9749955e-07,3.9728772e-07,4.6905047e-06,1310988,-0.0037442578,0.0032788657,-0.059429344,0.4,0.058586292,0.05859239,0.00078124576,0,0.0,0.0,0.0,0.0,0.0,0.0,0.0,1,0,1,0,0,0
37412000,37332000,1310988,-0.0017446995,-0.006067783,-0.00040679646,0.15,3.953544e-07,3.9529112e-07,4.685713e-06,1310988,-0.0037442578,0.0032788657,-0.05733063,0.4,0.058586292,0.05859239,0.00078124576,0,0.0,0.0,0.0,0.0,0.0,0.0,0.0,1,0,1,0,0,0
37676000,37596000,1310988,-0.0017470717,-0.006105188,-0.0004218461,0.15,3.9415147e-07,3.942311e-07,4.681627e-06,1310988,-0.0037442578,0.0032788657,-0.056122653,0.4,0.058586292,0.05859239,0.00078124576,0,0.0,0.0,0.0,0.0,0.0,0.0,0.0,1,0,1,0,0,0
37812000,37732000,1310988,-0.0017469636,-0.0061439425,-0.00043780866,0.15,3.919193e-07,3.9213793e-07,4.6762793e-06,1310988,-0.0037442578,0.0032788657,-0.0541151,0.4,0.058586292,0.05859239,0.00078124576,0,0.0,0.0,0.0,0.0,0.0,0.0,0.0,1,0,1,0,0,0
38092000,38012000,1310988,-0.0017463423,-0.0061820624,-0.00045270193,0.15,3.908928e-07,3.9124046e-07,4.6719074e-06,1310988,-0.0037442578,0.0032788657,-0.052979708,0.4,0.058586292,0.05859239,0.00078124576,0,0.0,0.0,0.0,0.0,0.0,0.0,0.0,1,0,1,0,0,0
38212000,38132000,1310988,-0.0017434101,-0.0062210816,-0.00046826267,0.15,3.885922e-07,3.8906703e-07,4.666037e-06,1310988,-0.0037442578,0.0032788657,-0.051187813,0.4,0.058586292,0.05859239,0.00078124576,0,0.0,0.0,0.0,0.0,0.0,0.0,0.0,1,0,1,0,0,0
38508000,38428000,1310988,-0.0017397276,-0.006259523,-0.0004829723,0.15,3.87759e-07,3.8834733e-07,4.6614077e-06,1310988,-0.0037442578,0.0032788657,-0.05014468,0.4,0.058586292,0.05859239,0.00078124576,0,0.0,0.0,0.0,0.0,0.0,0.0,0.0,1,0,1,0,0,0
38604000,38524000,1310988,-0.0017341359,-0.006298256,-0.00049790944,0.15,3.8534307e-07,3.860446e-07,4.6549794e-06,1310988,-0.0037442578,0.0032788657,-0.04882096,0.4,0.058586292,0.05859239,0.00078124576,0,0.0,0.0,0.0,0.0,0.0,0.0,0.0,1,0,1,0,0,0
38924000,38844000,1310988,-0.001727221,-0.0063367034,-0.0005125276,0.15,3.8477796e-07,3.8557818e-07,4.650186e-06,1310988,-0.0037442578,0.0032788657,-0.047777843,0.4,0.058586292,0.05859239,0.00078124576,0,0.0,0.0,0.0,0.0,0.0,0.0,0.0,1,0,1,0,0,0
39004000,38924000,1310988,-0.0017185584,-0.0063750735,-0.0005272041,0.15,3.8231934e-07,3.832195e-07,4.6432942e-06,1310988,-0.0037442578,0.0032788657,-0.046617847,0.4,0.058586292,0.05859239,0.00078124576,0,0.0,0.0,0.0,0.0,0.0,0.0,0.0,1,0,1,0,0,0
39380000,39300000,1310988,-0.0017084001,-0.006413084,-0.00054172333,0.15,3.8228802e-07,3.832737e-07,4.638626e-06,1310988,-0.0037442578,0.0032788657,-0.045590013,0.4,0.058586292,0.05859239,0.00078124576,0,0.0,0.0,0.0,0.0,0.0,0.0,0.0,1,0,1,0,0,0
39500000,39420000,1310988,-0.0016965135,-0.0064507844,-0.0005562927,0.15,3.8024112e-07,3.813152e-07,4.631751e-06,1310988,-0.0037442578,0.0032788657,-0.04445621,0.4,0.058586292,0.05859239,0.00078124576,0,0.0,0.0,0.0,0.0,0.0,0.0,0.0,1,0,1,0,0,0
39812000,39732000,1310988,-0.0016827311,-0.006488093,-0.00057100767,0.15,3.7977225e-07,3.8093552e-07,4.62627e-06,1310988,-0.0037442578,0.0032788657,-0.04301835,0.4,0.058586292,0.05859239,0.00078124576,0,0.0,0.0,0.0,0.0,0.0,0.0,0.0,1,0,1,0,0,0
40212000,40132000,1310988,-0.0016518343,-0.0065602744,-0.00059934,0.15,3.7721844e-07,3.785217e-07,4.6131454e-06,1310988,-0.0037442578,0.0032788657,-0.041694336,0.4,0.058586292,0.05859239,0.00078124576,0,0.0,0.0,0.0,0.0,0.0,0.0,0.0,1,0,1,0,0,0
41004000,40924000,1310988,-0.0015726475,-0.0066949446,-0.0006556873,0.15,3.7261893e-07,3.7416754e-07,4.5855795e-06,1310988,-0.0037442578,0.0032788657,-0.040237315,0.4,0.058586292,0.05859239,0.00078124576,0,0.0,0.0,0.0,0.0,0.0,0.0,0.0,1,0,1,0,0,0
41804000,41724000,1310988,-0.0014713282,-0.006812561,-0.0007130159,0.15,3.687714e-07,3.7058464e-07,4.5569213e-06,1310988,-0.0037442578,0.0032788657,-0.039178915,0.4,0.058586292,0.05859239,0.00078124576,0,0.0,0.0,0.0,0.0,0.0,0.0,0.0,1,0,1,0,0,0
42804000,42724000,1310988,-0.0013189332,-0.0069289426,-0.00078727567,0.15,3.647095e-07,3.669905e-07,4.5202723e-06,1310988,-0.0037442578,0.0032788657,-0.038755618,0.4,0.058586292,0.05859239,0.0007812487,0,0.0,0.0,0.0,0.0,0.0,0.0,0.0,1,0,1,0,0,0
43804000,43724000,1310988,-0.0011448662,-0.0070048147,-0.0008662033,0.15,3.6110643e-07,3.6412393e-07,4.483478e-06,1310988,-0.0037442578,0.0032788657,-0.038585573,0.4,0.058586292,0.05859239,0.0007812481,0,0.0,0.0,0.0,0.0,0.0,0.0,0.0,1,0,1,0,0,0
44804000,44724000,1310988,-0.0009961325,-0.007032869,-0.00093365693,0.15,3.598663e-07,3.6367018e-07,4.456101e-06,1310988,-0.0037442578,0.0032788657,-0.038059656,0.4,0.058586292,0.05859239,0.00078124576,0,0.0,0.0,0.0,0.0,0.0,0.0,0.0,1,0,1,0,0,0
45804000,45724000,1310988,-0.0008076578,-0.0070264284,-0.0010237892,0.15,3.5607766e-07,3.6106584e-07,4.421045e-06,1310988,-0.0037442578,0.0032788657,-0.03765361,0.4,0.058586292,0.05859239,0.00078124576,0,0.0,0.0,0.0,0.0,0.0,0.0,0.0,1,1,1,0,0,0
46804000,46724000,1310988,-0.00062609534,-0.0069754487,-0.0011204026,0.15,3.5173989e-07,3.5800824e-07,4.387695e-06,1310988,-0.0037442578,0.0032788657,-0.037343808,0.4,0.058586292,0.05859239,0.0007812487,0,0.0,0.0,0.0,0.0,0.0,0.0,0.0,1,1,1,0,0,0
47804000,47724000,1310988,-0.0004611665,-0.006884783,-0.0012226418,0.15,3.466709e-07,3.5405625e-07,4.3562995e-06,1310988,-0.0037442578,0.0032788657,-0.037016727,0.4,0.058586292,0.05859239,0.0007812475,0,0.0,0.0,0.0,0.0,0.0,0.0,0.0,1,1,1,0,0,0
48620000,48540000,1310988,-0.00034664807,-0.006788078,-0.0013077132,0.15,3.4218033e-07,3.5013724e-07,4.332832e-06,1310988,-0.0037442578,0.0032788657,-0.035963833,0.4,0.058586292,0.05859239,0.00078124576,0,0.0,0.0,0.0,0.0,0.0,0.0,0.0,1,1,1,0,0,0
49620000,49540000,1310988,-0.00023025415,-0.0066463123,-0.0014158203,0.15,3.3574358e-07,3.4394475e-07,4.3051414e-06,1310988,-0.0037442578,0.0032788657,-0.03517998,0.4,0.058586292,0.05859239,0.00078124576,0,0.0,0.0,0.0,0.0,0.0,0.0,0.0,1,1,1,0,0,0
50212000,50132000,1310988,-0.00019294946,-0.0065838806,-0.0014599462,0.15,3.3452122e-07,3.4260174e-07,4.296076e-06,1310988,-0.0037442578,0.0032788657,-0.03380933,0.4,0.058586292,0.05859239,0.00078124576,0,0.0,0.0,0.0,0.0,0.0,0.0,0.0,1,1,1,0,0,0
50612000,50532000,1310988,-0.00016074766,-0.0065203677,-0.001503486,0.15,3.3167495e-07,3.3955885e-07,4.2859842e-06,1310988,-0.0037442578,0.0032788657,-0.032404553,0.4,0.058586292,0.05859239,0.00078124576,0,0.0,0.0,0.0,0.0,0.0,0.0,0.0,1,1,1,0,0,0
51004000,50924000,1310988,-0.00013303832,-0.0064568436,-0.0015455702,0.15,3.2868218e-07,3.3628882e-07,4.2769725e-06,1310988,-0.0037442578,0.0032788657,-0.0297471,0.4,0.058586292,0.05859239,0.00078124576,0,0.0,0.0,0.0,0.0,0.0,0.0,0.0,1,1,1,0,0,0
51380000,51300000,1310988,-0.000109105444,-0.006396092,-0.0015847733,0.15,3.2548442e-07,3.327498e-07,4.2691354e-06,1310988,-0.0037442578,0.0032788657,-0.028551579,0.4,0.058586292,0.05859239,0.00078124576,0,0.0,0.0,0.0,0.0,0.0,0.0,0.0,1,1,1,0,0,0
51412000,51332000,1310988,-0.00010938051,-0.006394144,-0.0015858226,0.15,3.2574027e-07,3.3299827e-07,4.2693896e-06,1310988,-0.0037442578,0.0032788657,-0.025082672,0.4,0.058586292,0.05859239,0.00078124576,0,0.0,0.0,0.0,0.0,0.0,0.0,0.0,1,1,1,0,0,0
51684000,51604000,1310988,-8.896401e-05,-0.006335932,-0.0016224713,0.15,3.2164237e-07,3.285016e-07,4.2620795e-06,1310988,-0.0037442578,0.0032788657,-0.023908889,0.4,0.058586292,0.05859239,0.00078124576,0,0.0,0.0,0.0,0.0,0.0,0.0,0.0,1,1,1,0,0,0
51804000,51724000,1310988,-8.908869e-05,-0.0063335034,-0.0016235292,0.15,3.2260238e-07,3.294565e-07,4.263039e-06,1310988,-0.0037442578,0.0032788657,-0.01822118,0.4,0.058586292,0.05859239,0.00078124576,0,0.0,0.0,0.0,0.0,0.0,0.0,0.0,1,1,1,0,0,0
52044000,51964000,1310988,-7.994357e-05,-0.006305393,-0.0016407832,0.15,3.2136276e-07,3.2800247e-07,4.2607744e-06,1310988,-0.0037442578,0.0032788657,-0.016828164,0.4,0.058586292,0.05859239,0.00078124576,0,0.0,0.0,0.0,0.0,0.0,0.0,0.0,1,1,1,0,0,0
52212000,52132000,1310988,-7.093056e-05,-0.00627689,-0.0016571311,0.15,3.1953306e-07,3.2595253e-07,4.258351e-06,1310988,-0.0037442578,0.0032788657,-0.009778377,0.4,0.058586292,0.05859239,0.00078124576,0,0.0,0.0,0.0,0.0,0.0,0.0,0.0,1,1,1,0,0,0
52340000,52260000,1310988,-6.273847e-05,-0.006251163,-0.001672293,0.15,3.1737028e-07,3.235707e-07,4.256057e-06,1310988,-0.0037442578,0.0032788657,-0.008649614,0.4,0.058586292,0.05859239,0.00078124576,0,0.0,0.0,0.0,0.0,0.0,0.0,0.0,1,1,1,0,0,0
52524000,52444000,1310988,-5.4753255e-05,-0.006226801,-0.0016861481,0.15,3.1564255e-07,3.2162842e-07,4.2546894e-06,1310988,-0.0037442578,0.0032788657,-0.007248319,0.4,0.058586292,0.05859239,0.00078124576,0,0.0,0.0,0.0,0.0,0.0,0.0,0.0,1,1,1,0,0,0
52612000,52532000,1310988,-5.3185726e-05,-0.006226177,-0.001684525,0.15,3.1634553e-07,3.2233226e-07,4.2553925e-06,1310988,-0.0037442578,0.0032788657,0.0007595356,0.4,0.058586292,0.05859239,0.00078124576,0,0.0,0.0,0.0,0.0,0.0,0.0,0.0,1,1,1,0,0,0
52764000,52684000,1310988,-4.5290057e-05,-0.00620342,-0.0016969161,0.15,3.1434936e-07,3.2013065e-07,4.254259e-06,1310988,-0.0037442578,0.0032788657,0.0020118735,0.4,0.058586292,0.05859239,0.00078124576,0,0.0,0.0,0.0,0.0,0.0,0.0,0.0,1,1,1,0,0,0
52884000,52804000,1310988,-4.496897e-05,-0.0062034773,-0.0016965087,0.15,3.1530902e-07,3.2109065e-07,4.255218e-06,1310988,-0.0037442578,0.0032788657,0.0031153779,0.4,0.058586292,0.05859239,0.00078124576,0,0.0,0.0,0.0,0.0,0.0,0.0,0.0,1,1,1,0,0,0
53004000,52924000,1310988,-3.700027e-05,-0.006182477,-0.0017072884,0.15,3.1304467e-07,3.1863416e-07,4.2543134e-06,1310988,-0.0037442578,0.0032788657,0.004269432,0.4,0.058586292,0.05859239,0.00078124576,0,0.0,0.0,0.0,0.0,0.0,0.0,0.0,1,1,1,0,0,0
53012000,52932000,1310988,-3.4139248e-05,-0.006183538,-0.0017033912,0.15,3.1310572e-07,3.1869777e-07,4.254372e-06,1310988,-0.0037442578,0.0032788657,0.012437215,0.4,0.058586292,0.05859239,0.00078124576,0,0.0,0.0,0.0,0.0,0.0,0.0,0.0,1,1,1,0,0,0
53180000,53100000,1310988,-2.5954592e-05,-0.006164293,-0.0017124016,0.15,3.1121363e-07,3.1663066e-07,4.254308e-06,1310988,-0.0037442578,0.0032788657,0.013820998,0.4,0.058586292,0.05859239,0.00078124576,0,0.0,0.0,0.0,0.0,0.0,0.0,0.0,1,1,1,0,0,0
53292000,53212000,1310988,-2.5437354e-05,-0.0061645983,-0.001711645,0.15,3.1210877e-07,3.1752637e-07,4.255202e-06,1310988,-0.0037442578,0.0032788657,0.014949825,0.4,0.058586292,0.05859239,0.00078124576,0,0.0,0.0,0.0,0.0,0.0,0.0,0.0,1,1,1,0,0,0
53412000,53332000,1310988,-1.2802502e-05,-0.0061500003,-0.0017125817,0.15,3.0981533e-07,3.1508122e-07,4.2551483e-06,1310988,-0.0037442578,0.0032788657,0.024438223,0.4,0.058586292,0.05859239,0.00078124576,0,0.0,0.0,0.0,0.0,0.0,0.0,0.0,1,1,1,0,0,0
53588000,53508000,1310988,-4.06682e-06,-0.0061344197,-0.0017180815,0.15,3.0796573e-07,3.1309833e-07,4.2558963e-06,1310988,-0.0037442578,0.0032788657,0.02578483,0.4,0.058586292,0.05859239,0.00078124576,0,0.0,0.0,0.0,0.0,0.0,0.0,0.0,1,1,1,0,0,0
53708000,53628000,1310988,-3.4408558e-06,-0.0061349007,-0.0017170947,0.15,3.0892426e-07,3.1405744e-07,4.2568527e-06,1310988,-0.0037442578,0.0032788657,0.026815454,0.4,0.058586292,0.05859239,0.00078124576,0,0.0,0.0,0.0,0.0,0.0,0.0,0.0,1,1,1,0,0,0
53804000,53724000,1310988,1.0233839e-05,-0.0061248406,-0.0017134536,0.15,3.0641695e-07,3.114424e-07,4.2572015e-06,1310988,-0.0037442578,0.0032788657,0.035331957,0.4,0.058586292,0.05859239,0.00078124576,0,0.0,0.0,0.0,0.0,0.0,0.0,0.0,1,1,1,0,0,0
53948000,53868000,1310988,1.0999733e-05,-0.006125472,-0.0017122088,0.15,3.075666e-07,3.125928e-07,4.2583474e-06,1310988,-0.0037442578,0.0032788657,0.036484465,0.4,0.058586292,0.05859239,0.00078124576,0,0.0,0.0,0.0,0.0,0.0,0.0,0.0,1,1,1,0,0,0
54132000,54052000,1310988,2.0208965e-05,-0.0061133173,-0.0017145559,0.15,3.057643e-07,3.1070164e-07,4.259603e-06,1310988,-0.0037442578,0.0032788657,0.037638817,0.4,0.058586292,0.05859239,0.00078124576,0,0.0,0.0,0.0,0.0,0.0,0.0,0.0,1,1,1,0,0,0
54212000,54132000,1310988,3.4087894e-05,-0.006106706,-0.0017078993,0.15,3.0311438e-07,3.0798557e-07,4.2601023e-06,1310988,-0.0037442578,0.0032788657,0.0450462,0.4,0.058586292,0.05859239,0.00078124576,0,0.0,0.0,0.0,0.0,0.0,0.0,0.0,1,1,1,0,0,0
54428000,54348000,1310988,4.3439333e-05,-0.0060973777,-0.0017078975,0.15,3.0155923e-07,3.063801e-07,4.2617594e-06,1310988,-0.0037442578,0.0032788657,0.04608552,0.4,0.058586292,0.05859239,0.00078124576,0,0.0,0.0,0.0,0.0,0.0,0.0,0.0,1,1,1,0,0,0
54604000,54524000,1310988,5.6136338e-05,-0.006092528,-0.001700784,0.15,2.9967268e-07,3.0445844e-07,4.2630522e-06,1310988,-0.0037442578,0.0032788657,0.051877867,0.4,0.058586292,0.05859239,0.00078124576,0,0.0,0.0,0.0,0.0,0.0,0.0,0.0,1,1,1,0,0,0
55004000,54924000,1310988,7.462348e-05,-0.0060798796,-0.0016956674,0.15,2.9630516e-07,3.0104286e-07,4.2659253e-06,1310988,-0.0037442578,0.0032788657,0.055347346,0.4,0.058586292,0.05859239,0.00078124576,0,0.0,0.0,0.0,0.0,0.0,0.0,0.0,1,1,1,0,0,0
55484000,55404000,1310988,8.811748e-05,-0.0060665286,-0.0016959046,0.15,2.936119e-07,2.9829636e-07,4.269219e-06,1310988,-0.0037442578,0.0032788657,0.05427865,0.4,0.058586292,0.05859239,0.00078124576,0,0.0,0.0,0.0,0.0,0.0,0.0,0.0,1,1,1,0,0,0
55668000,55588000,1310988,9.351615e-05,-0.0060600024,-0.001696975,0.15,2.9183735e-07,2.9648356e-07,4.2703427e-06,1310988,-0.0037442578,0.0032788657,0.053170938,0.4,0.058586292,0.05859239,0.00078124576,0,0.0,0.0,0.0,0.0,0.0,0.0,0.0,1,1,1,0,0,0
55804000,55724000,1310988,9.282355e-05,-0.0060587614,-0.0016998249,0.15,2.9292428e-07,2.9756808e-07,4.271412e-06,1310988,-0.0037442578,0.0032788657,0.04967643,0.4,0.058586292,0.05859239,0.00078124576,0,0.0,0.0,0.0,0.0,0.0,0.0,0.0,1,1,1,0,0,0
55964000,55884000,1310988,9.742723e-05,-0.006052406,-0.0017013889,0.15,2.909712e-07,2.9556546e-07,4.2722704e-06,1310988,-0.0037442578,0.0032788657,0.048232935,0.4,0.058586292,0.05859239,0.00078124576,0,0.0,0.0,0.0,0.0,0.0,0.0,0.0,1,1,1,0,0,0
56084000,56004000,1310988,0.0001011711,-0.006046232,-0.001703206,0.15,2.887122e-07,2.932445e-07,4.2727183e-06,1310988,-0.0037442578,0.0032788657,0.04697347,0.4,0.058586292,0.05859239,0.00078124576,0,0.0,0.0,0.0,0.0,0.0,0.0,0.0,1,1,1,0,0,0
56204000,56124000,1310988,0.00010144328,-0.0060449545,-0.0017068721,0.15,2.896722e-07,2.942036e-07,4.273671e-06,1310988,-0.0037442578,0.0032788657,0.03989287,0.4,0.058586292,0.05859239,0.00078124576,0,0.0,0.0,0.0,0.0,0.0,0.0,0.0,1,1,1,0,0,0
57204000,57124000,1310988,0.00011589032,-0.0060154004,-0.0017203197,0.15,2.8173932e-07,2.8547913e-07,4.2734214e-06,1310988,-0.0037442578,0.0032788657,0.039874945,0.4,0.058586292,0.05859239,0.0007812648,0,0.0,0.0,0.0,0.0,0.0,0.0,0.0,1,1,1,0,0,0
58204000,58124000,1310988,0.00012331002,-0.0059916,-0.001704826,0.15,2.741646e-07,2.759333e-07,4.2338656e-06,1310988,-0.0037442578,0.0032788657,0.039538387,0.4,0.058586292,0.05859239,0.00078129495,0,0.0,0.0,0.0,0.0,0.0,0.0,0.0,1,1,1,0,0,0
58604000,58524000,1310988,0.00011480223,-0.0059769414,-0.0016962743,0.15,2.7136429e-07,2.7216322e-07,4.2029014e-06,1310988,-0.0037442578,0.0032788657,0.038430955,0.4,0.058586292,0.05859239,0.00078124576,0,0.0,0.0,0.0,0.0,0.0,0.0,0.0,1,1,1,0,0,0
59012000,58932000,1310988,9.97101e-05,-0.0059591923,-0.0016866265,0.15,2.687951e-07,2.6862259e-07,4.1654575e-06,1310988,-0.0037442578,0.0032788657,0.036124144,0.4,0.058586292,0.05859239,0.00078124576,0,0.0,0.0,0.0,0.0,0.0,0.0,0.0,1,1,1,0,0,0
59404000,59324000,1310988,7.648562e-05,-0.005937306,-0.0016782949,0.15,2.6629112e-07,2.6519618e-07,4.1242793e-06,1310988,-0.0037442578,0.0032788657,0.032422267,0.4,0.058586292,0.05859239,0.00078124576,0,0.0,0.0,0.0,0.0,0.0,0.0,0.0,1,1,1,0,0,0
59804000,59724000,1310988,4.4079778e-05,-0.0059106876,-0.001673683,0.15,2.640254e-07,2.6211254e-07,4.082763e-06,1310988,-0.0037442578,0.0032788657,0.027292414,0.4,0.058586292,0.05859239,0.00078124576,0,0.0,0.0,0.0,0.0,0.0,0.0,0.0,1,1,1,0,0,0
60204000,60124000,1310988,2.8761376e-06,-0.0058799293,-0.0016741565,0.15,2.619327e-07,2.5932982e-07,4.0437285e-06,1310988,-0.0037442578,0.0032788657,0.020939881,0.4,0.058586292,0.05859239,0.00078124576,0,0.0,0.0,0.0,0.0,0.0,0.0,0.0,1,1,1,0,0,0
60612000,60532000,1310988,-5.833174e-06,-0.0058707125,-0.0016557598,0.15,2.625624e-07,2.5969968e-07,4.02708e-06,1310988,-0.0037442578,0.0032788657,0.013489932,0.4,0.058586292,0.05859239,0.00078124576,0,0.0,0.0,0.0,0.0,0.0,0.0,0.0,1,1,1,0,0,0
61012000,60932000,1310988,-5.840439e-05,-0.005835298,-0.0016651872,0.15,2.6070072e-07,2.5733826e-07,3.9929478e-06,1310988,-0.0037442578,0.0032788657,0.005218908,0.4,0.058586292,0.05859239,0.00078124576,0,0.0,0.0,0.0,0.0,0.0,0.0,0.0,1,1,1,0,0,0
61412000,61332000,1310988,-0.00011451992,-0.0058000726,-0.0016782942,0.15,2.589635e-07,2.552199e-07,3.9615466e-06,1310988,-0.0037442578,0.0032788657,-0.0035302094,0.4,0.058586292,0.05859239,0.00078124576,0,0.0,0.0,0.0,0.0,0.0,0.0,0.0,1,1,1,0,0,0
61812000,61732000,1310988,-0.00017292191,-0.00576583,-0.0016943698,0.15,2.5734127e-07,2.533232e-07,3.9325487e-06,1310988,-0.0037442578,0.0032788657,-0.012505216,0.4,0.058586292,0.05859239,0.00078124576,0,0.0,0.0,0.0,0.0,0.0,0.0,0.0,1,1,1,0,0,0
62204000,62124000,1310988,-0.00023303878,-0.005733022,-0.0017133154,0.15,2.5575602e-07,2.5156547e-07,3.9055726e-06,1310988,-0.0037442578,0.0032788657,-0.02118007,0.4,0.058586292,0.05859239,0.00078124576,0,0.0,0.0,0.0,0.0,0.0,0.0,0.0,1,1,1,0,0,0
62612000,62532000,1310988,-0.0002942127,-0.005702059,-0.001734478,0.15,2.543959e-07,2.50123e-07,3.8807243e-06,1310988,-0.0037442578,0.0032788657,-0.029302595,0.4,0.058586292,0.05859239,0.00078124576,0,0.0,0.0,0.0,0.0,0.0,0.0,0.0,1,1,1,0,0,0
63012000,62932000,1310988,-0.0003555326,-0.0056732236,-0.0017572516,0.15,2.5306937e-07,2.4878508e-07,3.858426e-06,1310988,-0.0037442578,0.0032788657,-0.036365125,0.4,0.058586292,0.05859239,0.00078124576,0,0.0,0.0,0.0,0.0,0.0,0.0,0.0,1,1,1,0,0,0
64012000,63932000,1310988,-0.00050562853,-0.0056090388,-0.0018205725,0.15,2.5014532e-07,2.460719e-07,3.8128092e-06,1310988,-0.0037442578,0.0032788657,-0.035779327,0.4,0.058586292,0.05859239,0.000781267,0,0.0,0.0,0.0,0.0,0.0,0.0,0.0,1,1,1,0,0,0
65012000,64932000,1310988,-0.00065024523,-0.0055587855,-0.0018831447,0.15,2.476265e-07,2.4416534e-07,3.7718216e-06,1310988,-0.0037442578,0.0032788657,-0.035770003,0.4,0.058586292,0.05859239,0.00078124576,0,0.0,0.0,0.0,0.0,0.0,0.0,0.0,1,1,1,0,0,0
65804000,65724000,1310988,-0.00073691044,-0.00553437,-0.0019224837,0.15,2.478151e-07,2.4488713e-07,3.7507007e-06,1310988,-0.0037442578,0.0032788657,-0.034681972,0.4,0.058586292,0.05859239,0.00078124576,0,0.0,0.0,0.0,0.0,0.0,0.0,0.0,1,1,1,0,0,0
66204000,66124000,1310988,-0.0007924201,-0.0055201887,-0.0019463892,0.15,2.4698755e-07,2.4446447e-07,3.7364625e-06,1310988,-0.0037442578,0.0032788657,-0.03357402,0.4,0.058586292,0.05859239,0.00078124576,0,0.0,0.0,0.0,0.0,0.0,0.0,0.0,1,1,1,0,0,0
66500000,66420000,1310988,-0.0008458924,-0.005507464,-0.001968484,0.15,2.4538767e-07,2.4329574e-07,3.7221287e-06,1310988,-0.0037442578,0.0032788657,-0.032406732,0.4,0.058586292,0.05859239,0.00078124576,0,0.0,0.0,0.0,0.0,0.0,0.0,0.0,1,1,1,0,0,0
66684000,66604000,1310988,-0.0008728523,-0.005501562,-0.0019798565,0.15,2.448804e-07,2.4302898e-07,3.7155241e-06,1310988,-0.0037442578,0.0032788657,-0.031270646,0.4,0.058586292,0.05859239,0.00078124576,0,0.0,0.0,0.0,0.0,0.0,0.0,0.0,1,1,1,0,0,0
66924000,66844000,1310988,-0.00089903135,-0.005495976,-0.0019905244,0.15,2.4484262e-07,2.4322858e-07,3.7095763e-06,1310988,-0.0037442578,0.0032788657,-0.030231899,0.4,0.058586292,0.05859239,0.00078124576,0,0.0,0.0,0.0,0.0,0.0,0.0,0.0,1,1,1,0,0,0
67012000,66932000,1310988,-0.00090067246,-0.0054958924,-0.001992005,0.15,2.4553333e-07,2.439326e-07,3.7102693e-06,1310988,-0.0037442578,0.0032788657,-0.029145826,0.4,0.058586292,0.05859239,0.00078124576,0,0.0,0.0,0.0,0.0,0.0,0.0,0.0,1,1,1,0,0,0
67220000,67140000,1310988,-0.0009263576,-0.005490593,-0.002002261,0.15,2.4525036e-07,2.438935e-07,3.7042707e-06,1310988,-0.0037442578,0.0032788657,-0.027999714,0.4,0.058586292,0.05859239,0.00078124576,0,0.0,0.0,0.0,0.0,0.0,0.0,0.0,1,1,1,0,0,0
67404000,67324000,1310988,-0.0009526949,-0.005485497,-0.0020130936,0.15,2.4477364e-07,2.4367864e-07,3.6982847e-06,1310988,-0.0037442578,0.0032788657,-0.025914084,0.4,0.058586292,0.05859239,0.00078124576,0,0.0,0.0,0.0,0.0,0.0,0.0,0.0,1,1,1,0,0,0
67644000,67564000,1310988,-0.0009775226,-0.0054807253,-0.0020227167,0.15,2.447661e-07,2.4392708e-07,3.6929755e-06,1310988,-0.0037442578,0.0032788657,-0.024570012,0.4,0.058586292,0.05859239,0.00078124576,0,0.0,0.0,0.0,0.0,0.0,0.0,0.0,1,1,1,0,0,0
67812000,67732000,1310988,-0.0010028116,-0.0054761316,-0.0020327317,0.15,2.4418125e-07,2.436137e-07,3.6873078e-06,1310988,-0.0037442578,0.0032788657,-0.022319905,0.4,0.058586292,0.05859239,0.00078124576,0,0.0,0.0,0.0,0.0,0.0,0.0,0.0,1,1,1,0,0,0
67940000,67860000,1310988,-0.0010263057,-0.005471876,-0.0020414188,0.15,2.4329677e-07,2.4299356e-07,3.681558e-06,1310988,-0.0037442578,0.0032788657,-0.021265281,0.4,0.058586292,0.05859239,0.00078124576,0,0.0,0.0,0.0,0.0,0.0,0.0,0.0,1,1,1,0,0,0
68124000,68044000,1310988,-0.0010494683,-0.0054678363,-0.0020499055,0.15,2.4286814e-07,2.4283364e-07,3.676491e-06,1310988,-0.0037442578,0.0032788657,-0.020074166,0.4,0.058586292,0.05859239,0.00078124576,0,0.0,0.0,0.0,0.0,0.0,0.0,0.0,1,1,1,0,0,0
68212000,68132000,1310988,-0.0010516888,-0.0054676495,-0.002051546,0.15,2.4355992e-07,2.4353756e-07,3.6771883e-06,1310988,-0.0037442578,0.0032788657,-0.017739452,0.4,0.058586292,0.05859239,0.00078124576,0,0.0,0.0,0.0,0.0,0.0,0.0,0.0,1,1,1,0,0,0
68364000,68284000,1310988,-0.0010743376,-0.005463829,-0.0020597216,0.15,2.4288397e-07,2.4313286e-07,3.6721046e-06,1310988,-0.0037442578,0.0032788657,-0.016524501,0.4,0.058586292,0.05859239,0.00078124576,0,0.0,0.0,0.0,0.0,0.0,0.0,0.0,1,1,1,0,0,0
68540000,68460000,1310988,-0.0010966281,-0.0054602064,-0.0020676951,0.15,2.424072e-07,2.4293035e-07,3.667457e-06,1310988,-0.0037442578,0.0032788657,-0.0151911,0.4,0.058586292,0.05859239,0.00078124576,0,0.0,0.0,0.0,0.0,0.0,0.0,0.0,1,1,1,0,0,0
68604000,68524000,1310988,-0.0010988015,-0.0054600053,-0.0020691992,0.15,2.4290793e-07,2.434423e-07,3.667964e-06,1310988,-0.0037442578,0.0032788657,-0.012589508,0.4,0.058586292,0.05859239,0.00078124576,0,0.0,0.0,0.0,0.0,0.0,0.0,0.0,1,1,1,0,0,0
68780000,68700000,1310988,-0.0011204832,-0.005456594,-0.002076818,0.15,2.4243917e-07,2.4324908e-07,3.6635622e-06,1310988,-0.0037442578,0.0032788657,-0.011359936,0.4,0.058586292,0.05859239,0.00078124576,0,0.0,0.0,0.0,0.0,0.0,0.0,0.0,1,1,1,0,0,0
68964000,68884000,1310988,-0.0011417809,-0.005453364,-0.0020842329,0.15,2.420409e-07,2.4312814e-07,3.6594734e-06,1310988,-0.0037442578,0.0032788657,-0.010048255,0.4,0.058586292,0.05859239,0.00078124576,0,0.0,0.0,0.0,0.0,0.0,0.0,0.0,1,1,1,0,0,0
69004000,68924000,1310988,-0.0011435586,-0.005453185,-0.0020853798,0.15,2.4235132e-07,2.4344803e-07,3.6597892e-06,1310988,-0.0037442578,0.0032788657,-0.0076403366,0.4,0.058586292,0.05859239,0.00078124576,0,0.0,0.0,0.0,0.0,0.0,0.0,0.0,1,1,1,0,0,0
69140000,69060000,1310988,-0.0011444788,-0.005453091,-0.0020859614,0.15,2.434372e-07,2.44536e-07,3.6608758e-06,1310988,-0.0037442578,0.0032788657,-0.00637487,0.4,0.058586292,0.05859239,0.00078124576,0,0.0,0.0,0.0,0.0,0.0,0.0,0.0,1,1,1,0,0,0
69324000,69244000,1310988,-0.0011652468,-0.0054500448,-0.0020930825,0.15,2.4304614e-07,2.4442247e-07,3.657037e-06,1310988,-0.0037442578,0.0032788657,-0.005048472,0.4,0.058586292,0.05859239,0.00078124576,0,0.0,0.0,0.0,0.0,0.0,0.0,0.0,1,1,1,0,0,0
69412000,69332000,1310988,-0.0011867187,-0.005447044,-0.0021006693,0.15,2.4188614e-07,2.435472e-07,3.6526799e-06,1310988,-0.0037442578,0.0032788657,-0.0019905858,0.4,0.058586292,0.05859239,0.00078124576,0,0.0,0.0,0.0,0.0,0.0,0.0,0.0,1,1,1,0,0,0
69548000,69468000,1310988,-0.0011874691,-0.0054469616,-0.0021011056,0.15,2.4297225e-07,2.446352e-07,3.6537679e-06,1310988,-0.0037442578,0.0032788657,-0.0008255583,0.4,0.058586292,0.05859239,0.00078124576,0,0.0,0.0,0.0,0.0,0.0,0.0,0.0,1,1,1,0,0,0
69716000,69636000,1310988,-0.0012073372,-0.0054442454,-0.0021077862,0.15,2.4246583e-07,2.4440556e-07,3.6503068e-06,1310988,-0.0037442578,0.0032788657,0.00053615705,0.4,0.058586292,0.05859239,0.00078124576,0,0.0,0.0,0.0,0.0,0.0,0.0,0.0,1,1,1,0,0,0
69812000,69732000,1310988,-0.0012277679,-0.0054415655,-0.0021148133,0.15,2.413829e-07,2.4360435e-07,3.6465208e-06,1310988,-0.0037442578,0.0032788657,0.0035967156,0.4,0.058586292,0.05859239,0.00078124576,0,0.0,0.0,0.0,0.0,0.0,0.0,0.0,1,1,1,0,0,0
69948000,69868000,1310988,-0.0012284683,-0.0054414836,-0.0021151863,0.15,2.4246927e-07,2.4469233e-07,3.6476083e-06,1310988,-0.0037442578,0.0032788657,0.004818584,0.4,0.058586292,0.05859239,0.00078124576,0,0.0,0.0,0.0,0.0,0.0,0.0,0.0,1,1,1,0,0,0
70124000,70044000,1310988,-0.0012473774,-0.0054390687,-0.0021214238,0.15,2.4203842e-07,2.445349e-07,3.644718e-06,1310988,-0.0037442578,0.0032788657,0.006087383,0.4,0.058586292,0.05859239,0.00078124576,0,0.0,0.0,0.0,0.0,0.0,0.0,0.0,1,1,1,0,0,0
70204000,70124000,1310988,-0.0012667609,-0.005436672,-0.0021279235,0.15,2.4083954e-07,2.436121e-07,3.6413123e-06,1310988,-0.0037442578,0.0032788657,0.009084989,0.4,0.058586292,0.05859239,0.00078124576,0,0.0,0.0,0.0,0.0,0.0,0.0,0.0,1,1,1,0,0,0
70364000,70284000,1310988,-0.0012673246,-0.005436601,-0.0021281897,0.15,2.4211812e-07,2.448921e-07,3.642592e-06,1310988,-0.0037442578,0.0032788657,0.01019739,0.4,0.058586292,0.05859239,0.00078124576,0,0.0,0.0,0.0,0.0,0.0,0.0,0.0,1,1,1,0,0,0
70548000,70468000,1310988,-0.0012852564,-0.0054344526,-0.002134006,0.15,2.417618e-07,2.4480323e-07,3.6402714e-06,1310988,-0.0037442578,0.0032788657,0.011285689,0.4,0.058586292,0.05859239,0.00078124576,0,0.0,0.0,0.0,0.0,0.0,0.0,0.0,1,1,1,0,0,0
70612000,70532000,1310988,-0.0013036019,-0.005432307,-0.002140015,0.15,2.4044584e-07,2.437552e-07,3.6372398e-06,1310988,-0.0037442578,0.0032788657,0.014177531,0.4,0.058586292,0.05859239,0.00078124576,0,0.0,0.0,0.0,0.0,0.0,0.0,0.0,1,1,1,0,0,0
70788000,70708000,1310988,-0.0013041005,-0.0054322393,-0.002140216,0.15,2.4185266e-07,2.451632e-07,3.6386477e-06,1310988,-0.0037442578,0.0032788657,0.015295693,0.4,0.058586292,0.05859239,0.00078124576,0,0.0,0.0,0.0,0.0,0.0,0.0,0.0,1,1,1,0,0,0
70964000,70884000,1310988,-0.0013211493,-0.005430315,-0.0021456839,0.15,2.414418e-07,2.4501142e-07,3.63676e-06,1310988,-0.0037442578,0.0032788657,0.016349718,0.4,0.058586292,0.05859239,0.00078124576,0,0.0,0.0,0.0,0.0,0.0,0.0,0.0,1,1,1,0,0,0
71012000,70932000,1310988,-0.0013221676,-0.00543017,-0.0021460433,0.15,2.418214e-07,2.4539534e-07,3.6371434e-06,1310988,-0.0037442578,0.0032788657,0.018824153,0.4,0.058586292,0.05859239,0.00078124576,0,0.0,0.0,0.0,0.0,0.0,0.0,0.0,1,1,1,0,0,0
71204000,71124000,1310988,-0.0013388577,-0.005428338,-0.0021513738,0.15,2.4154284e-07,2.4537087e-07,3.6356264e-06,1310988,-0.0037442578,0.0032788657,0.020081524,0.4,0.058586292,0.05859239,0.00078124576,0,0.0,0.0,0.0,0.0,0.0,0.0,0.0,1,1,1,0,0,0
71404000,71324000,1310988,-0.001355821,-0.005426494,-0.0021567382,0.15,2.4132905e-07,2.454088e-07,3.6344095e-06,1310988,-0.0037442578,0.0032788657,0.023265522,0.4,0.058586292,0.05859239,0.00078124576,0,0.0,0.0,0.0,0.0,0.0,0.0,0.0,1,1,1,0,0,0
71628000,71548000,1310988,-0.0013716101,-0.005424853,-0.002161747,0.15,2.4131458e-07,2.456366e-07,3.6336164e-06,1310988,-0.0037442578,0.0032788657,0.024391465,0.4,0.058586292,0.05859239,0.00078124576,0,0.0,0.0,0.0,0.0,0.0,0.0,0.0,1,1,1,0,0,0
71804000,71724000,1310988,-0.00138751,-0.0054232064,-0.0021667036,0.15,2.4091733e-07,2.4547737e-07,3.6326633e-06,1310988,-0.0037442578,0.0032788657,0.027192827,0.4,0.058586292,0.05859239,0.00078124576,0,0.0,0.0,0.0,0.0,0.0,0.0,0.0,1,1,1,0,0,0
72092000,72012000,1310988,-0.0014167054,-0.00542035,-0.0021759868,0.15,2.3962687e-07,2.4463526e-07,3.6308866e-06,1310988,-0.0037442578,0.0032788657,0.028366912,0.4,0.058586292,0.05859239,0.00078124576,0,0.0,0.0,0.0,0.0,0.0,0.0,0.0,1,1,1,0,0,0
72204000,72124000,1310988,-0.0014172501,-0.0054202527,-0.0021760168,0.15,2.4052073e-07,2.455312e-07,3.6317826e-06,1310988,-0.0037442578,0.0032788657,0.030373193,0.4,0.058586292,0.05859239,0.00078124576,0,0.0,0.0,0.0,0.0,0.0,0.0,0.0,1,1,1,0,0,0
72452000,72372000,1310988,-0.001431374,-0.0054188897,-0.002180462,0.15,2.4071218e-07,2.4593498e-07,3.6320303e-06,1310988,-0.0037442578,0.0032788657,0.03147658,0.4,0.058586292,0.05859239,0.00078124576,0,0.0,0.0,0.0,0.0,0.0,0.0,0.0,1,1,1,0,0,0
72612000,72532000,1310988,-0.0014452875,-0.0054175355,-0.0021847477,0.15,2.4020164e-07,2.4562908e-07,3.6317638e-06,1310988,-0.0037442578,0.0032788657,0.033441436,0.4,0.058586292,0.05859239,0.00078124576,0,0.0,0.0,0.0,0.0,0.0,0.0,0.0,1,1,1,0,0,0
72924000,72844000,1310988,-0.001471291,-0.005415084,-0.0021930134,0.15,2.39128e-07,2.449341e-07,3.6316956e-06,1310988,-0.0037442578,0.0032788657,0.034576207,0.4,0.058586292,0.05859239,0.00078124576,0,0.0,0.0,0.0,0.0,0.0,0.0,0.0,1,1,1,0,0,0
73004000,72924000,1310988,-0.0014715663,-0.0054150205,-0.0021929317,0.15,2.3976693e-07,2.4557406e-07,3.6323356e-06,1310988,-0.0037442578,0.0032788657,0.03599112,0.4,0.058586292,0.05859239,0.00078124576,0,0.0,0.0,0.0,0.0,0.0,0.0,0.0,1,1,1,0,0,0
73404000,73324000,1310988,-0.0014961284,-0.0054126675,-0.0022006163,0.15,2.3940746e-07,2.4555374e-07,3.6336016e-06,1310988,-0.0037442578,0.0032788657,0.03792891,0.4,0.058586292,0.05859239,0.00078124576,0,0.0,0.0,0.0,0.0,0.0,0.0,0.0,1,1,1,0,0,0
73804000,73724000,1310988,-0.0015190656,-0.0054104133,-0.0022078052,0.15,2.3905804e-07,2.4550027e-07,3.6354013e-06,1310988,-0.0037442578,0.0032788657,0.039444577,0.4,0.058586292,0.05859239,0.00078124576,0,0.0,0.0,0.0,0.0,0.0,0.0,0.0,1,1,1,0,0,0
74204000,74124000,1310988,-0.0015404447,-0.005408209,-0.0022144895,0.15,2.38718e-07,2.454106e-07,3.6376318e-06,1310988,-0.0037442578,0.0032788657,0.040670514,0.4,0.058586292,0.05859239,0.00078124576,0,0.0,0.0,0.0,0.0,0.0,0.0,0.0,1,1,1,0,0,0
74820000,74740000,1310988,-0.0015696547,-0.005404914,-0.0022235713,0.15,2.383519e-07,2.453303e-07,3.64168e-06,1310988,-0.0037442578,0.0032788657,0.041728865,0.4,0.058586292,0.05859239,0.00078124576,0,0.0,0.0,0.0,0.0,0.0,0.0,0.0,1,1,1,0,0,0
75820000,75740000,1310988,-0.0016111368,-0.0053990814,-0.0022358056,0.15,2.3756701e-07,2.4477367e-07,3.648841e-06,1310988,-0.0037442578,0.0032788657,0.042354394,0.4,0.058586292,0.05859239,0.0007812469,0,0.0,0.0,0.0,0.0,0.0,0.0,0.0,1,1,1,0,0,0
76820000,76740000,1310988,-0.0016380856,-0.005393867,-0.0022426778,0.15,2.3857044e-07,2.4573325e-07,3.6557662e-06,1310988,-0.0037442578,0.0032788657,0.041734513,0.4,0.058586292,0.05859239,0.0007812481,0,0.0,0.0,0.0,0.0,0.0,0.0,0.0,1,1,1,0,0,0
77404000,77324000,1310988,-0.0016547495,-0.005389554,-0.0022459393,0.15,2.3801138e-07,2.450112e-07,3.6588394e-06,1310988,-0.0037442578,0.0032788657,0.040573604,0.4,0.058586292,0.05859239,0.00078124576,0,0.0,0.0,0.0,0.0,0.0,0.0,0.0,1,1,1,0,0,0
78212000,78132000,1310988,-0.0016722586,-0.0053831534,-0.0022472735,0.15,2.3752101e-07,2.441375e-07,3.6614583e-06,1310988,-0.0037442578,0.0032788657,0.038865585,0.4,0.058586292,0.05859239,0.00078124576,0,0.0,0.0,0.0,0.0,0.0,0.0,0.0,1,1,1,0,0,0
78860000,78780000,1310988,-0.0016818419,-0.0053778207,-0.0022457286,0.15,2.3750333e-07,2.4371695e-07,3.6620543e-06,1310988,-0.0037442578,0.0032788657,0.03785566,0.4,0.058586292,0.05859239,0.00078124576,0,0.0,0.0,0.0,0.0,0.0,0.0,0.0,1,1,1,0,0,0
79404000,79324000,1310988,-0.0016885354,-0.005372123,-0.0022422427,0.15,2.366646e-07,2.423881e-07,3.6600406e-06,1310988,-0.0037442578,0.0032788657,0.036054645,0.4,0.058586292,0.05859239,0.00078124576,0,0.0,0.0,0.0,0.0,0.0,0.0,0.0,1,1,1,0,0,0
79868000,79788000,1310988,-0.0016913688,-0.0053681065,-0.0022386627,0.15,2.3692176e-07,2.4227657e-07,3.6584108e-06,1310988,-0.0037442578,0.0032788657,0.035039682,0.4,0.058586292,0.05859239,0.00078124576,0,0.0,0.0,0.0,0.0,0.0,0.0,0.0,1,1,1,0,0,0
80612000,80532000,1310988,-0.0016924858,-0.005360246,-0.0022289366,0.15,2.3596843e-07,2.405001e-07,3.6502556e-06,1310988,-0.0037442578,0.0032788657,0.0340174,0.4,0.058586292,0.05859239,0.00078124576,0,0.0,0.0,0.0,0.0,0.0,0.0,0.0,1,1,1,0,0,0
81012000,80932000,1310988,-0.0016886251,-0.005358283,-0.002224,0.15,2.3569622e-07,2.3977063e-07,3.6428428e-06,1310988,-0.0037442578,0.0032788657,0.035405263,0.4,0.058586292,0.05859239,0.00078124576,0,0.0,0.0,0.0,0.0,0.0,0.0,0.0,1,1,1,0,0,0
81332000,81252000,1310988,-0.0016851253,-0.005358258,-0.0022218968,0.15,2.36511e-07,2.4034432e-07,3.638613e-06,1310988,-0.0037442578,0.0032788657,0.03644156,0.4,0.058586292,0.05859239,0.00078124576,0,0.0,0.0,0.0,0.0,0.0,0.0,0.0,1,1,1,0,0,0
82332000,82252000,1310988,-0.0016483574,-0.0053649875,-0.002212649,0.15,2.3574555e-07,2.3827901e-07,3.5976227e-06,1310988,-0.0037442578,0.0032788657,0.03644156,0.4,0.058586292,0.05859239,0.00078124576,0,0.0,0.0,0.0,0.0,0.0,0.0,0.0,1,1,1,0,0,0
83332000,83252000,1310988,-0.001607408,-0.005385444,-0.0023588187,0.15,2.3515095e-07,2.3655146e-07,3.5485875e-06,1310988,-0.0037442578,0.0032788657,0.03642717,0.4,0.058586292,0.05859239,0.00078126753,0,0.0,0.0,0.0,0.0,0.0,0.0,0.0,1,1,1,0,0,0
83804000,83724000,1310988,-0.0015977463,-0.0054377774,-0.0032390049,0.15,2.3552857e-07,2.3648798e-07,3.5015319e-06,1310988,-0.0037442578,0.0032788657,0.035241533,0.4,0.058586292,0.05859239,0.00078124856,0,0.0,0.0,0.0,0.0,0.0,0.0,0.0,1,0,1,0,0,0
84204000,84124000,1310988,-0.0015981899,-0.005496375,-0.0044298708,0.15,2.3533667e-07,2.35884e-07,3.4218244e-06,1310988,-0.0037442578,0.0032788657,0.035241533,0.4,0.058586292,0.05859239,0.00078124856,0,0.0,0.0,0.0,0.0,0.0,0.0,0.0,1,0,1,0,0,0
85204000,85124000,1310988,-0.0015521143,-0.0055389213,-0.0049152877,0.15,2.3499206e-07,2.3493793e-07,3.29806e-06,1310988,-0.0037442578,0.0032788657,0.035241533,0.4,0.058586292,0.05859239,0.00078124856,0,0.0,0.0,0.0,0.0,0.0,0.0,0.0,1,0,1,0,0,0
86204000,86124000,1310988,-0.0014811342,-0.005596605,-0.0048372494,0.15,2.3516955e-07,2.3468968e-07,3.0307904e-06,1310988,-0.0037442578,0.0032788657,0.035241533,0.4,0.058586292,0.05859239,0.00078124856,0,0.0,0.0,0.0,0.0,0.0,0.0,0.0,1,0,1,0,0,0
86604000,86524000,1310988,-0.001472988,-0.0056325463,-0.005941804,0.15,2.3692462e-07,2.3628597e-07,2.6790815e-06,1310988,-0.0037442578,0.0032788657,0.035241533,0.4,0.058586292,0.05859239,0.00078124856,0,0.0,0.0,0.0,0.0,0.0,0.0,0.0,1,0,1,0,0,0
87604000,87524000,1310988,-0.001376647,-0.0057324357,-0.006496942,0.15,2.3875555e-07,2.3758219e-07,2.064524e-06,1310988,-0.0037442578,0.0032788657,0.035241533,0.4,0.058586292,0.05859239,0.00078124856,0,0.0,0.0,0.0,0.0,0.0,0.0,0.0,1,0,1,0,0,0
88604000,88524000,1310988,-0.0012777128,-0.005841121,-0.0066270963,0.15,2.4223252e-07,2.4032607e-07,1.5652395e-06,1310988,-0.0037442578,0.0032788657,0.035241533,0.4,0.058586292,0.05859239,0.00078124856,0,0.0,0.0,0.0,0.0,0.0,0.0,0.0,1,0,1,0,0,0
