timestamp,timestamp_sample,time_last_fuse,device_id,observation[0],observation[1],observation[2],observation_variance[0],observation_variance[1],observation_variance[2],innovation[0],innovation[1],innovation[2],innovation_variance[0],innovation_variance[1],innovation_variance[2],test_ratio[0],test_ratio[1],test_ratio[2],estimator_instance,fusion_enabled,innovation_rejected,fused
3412000,3289141,0,0,0.0,0.0,0.02,0.09,0.09,0.20250002,0.0052985065,0.0028497993,-0.043634,0.122307636,0.12225962,0.20470233,9.1814945e-06,2.6570856e-06,0.00037203796,0,1,0,0
3812000,3689481,0,0,0.0,0.0,-0.02,0.09,0.09,0.20250002,-0.000108997076,0.003004972,0.011700194,0.107842736,0.10784347,0.20385902,4.406551e-09,3.3492454e-06,2.686063e-05,0,1,0,0
4204000,4089683,0,0,0.0,0.01,0.01,0.09,0.09,0.20250002,0.00015692296,-0.0068546548,-0.02367925,0.10706151,0.10706113,0.20669356,9.2002495e-09,1.7554941e-05,0.000108509805,0,1,0,0
4604000,4489808,0,0,0.02,0.01,-0.04,0.09,0.09,0.20250002,-0.018168094,-0.009033622,0.025336668,0.10026401,0.100265086,0.2095126,0.0001316842,3.2556232e-05,0.00012256001,0,1,0,0
5012000,4889885,0,0,0.0,0.0,-0.01,0.09,0.09,0.20250002,0.001640436,-0.00074709556,-0.003244659,0.09464109,0.094642445,0.21105902,1.1373622e-06,2.3589914e-07,1.9952356e-06,0,1,0,0
5404000,5289930,0,0,-0.01,0.01,0.03,0.09,0.09,0.20250002,0.007343746,-0.009914217,-0.04133208,0.092522874,0.09252376,0.2112023,2.3315575e-05,4.2493597e-05,0.00032354592,0,1,0,0
5812000,5689958,0,0,0.0,0.01,-0.02,0.09,0.09,0.20250002,-0.0012928252,-0.0100459745,0.009473812,0.09178367,0.09178424,0.21088104,7.284071e-07,4.398211e-05,1.7024406e-05,0,1,0,0
6212000,6089975,0,0,0.0,0.0,0.0,0.09,0.09,0.20250002,8.490988e-06,6.9276255e-05,-0.009013854,0.09137553,0.09137589,0.21028958,3.156069e-11,2.1008606e-09,1.5454796e-05,0,1,0,0
6612000,6489985,0,0,-0.01,-0.01,-0.01,0.09,0.09,0.20250002,0.009661697,0.0067753303,0.0036311466,0.09113661,0.091136806,0.20968685,4.097075e-05,2.0147776e-05,2.5152221e-06,0,1,0,0
7012000,6889991,0,0,-0.01,-0.01,-0.01,0.09,0.09,0.20250002,0.0058469474,0.008232096,0.0059522334,0.09097999,0.09098014,0.20914003,1.5030466e-05,2.9794375e-05,6.7761453e-06,0,1,0,0
7412000,7289995,0,0,0.01,0.0,0.049999997,0.09,0.09,0.20250002,-0.015029428,0.0007422241,-0.051784493,0.09086824,0.09086833,0.20866238,9.94335e-05,2.4250326e-07,0.0005140618,0,1,0,0
7812000,7689997,0,0,0.01,0.0,0.02,0.09,0.09,0.20250002,-0.011217185,-6.202923e-05,-0.02029774,0.09079892,0.09079898,0.20923974,5.5430282e-05,1.695008e-09,7.8761e-05,0,1,0,0
8212000,8089998,0,0,0.02,0.0,0.0,0.09,0.09,0.20250002,-0.020680308,-0.0018330113,-0.001985684,0.09072974,0.090729795,0.20883298,0.00018854903,1.4812907e-06,7.5523343e-07,0,1,0,0
8612000,8489999,8532000,0,-0.02,0.0,0.049999997,0.09,0.09,0.20250002,0.018960947,-0.000738604,-0.050390683,0.091181464,0.091181576,0.20851842,0.00015771517,2.3931847e-07,0.0004870977,0,1,0,0
9012000,8890000,8932000,0,0.0,0.0,-0.01,0.09,0.09,0.20250002,-0.022548197,0.0021158447,0.060304895,0.18068743,0.18068749,0.4045466,0.00011255264,9.91059e-07,0.00035958088,0,1,0,1
9412000,9290000,9332000,0,0.0,-0.02,0.0,0.09,0.09,0.20250002,-0.013915667,0.023124868,0.020357642,0.13610485,0.13610494,0.3027268,5.6910772e-05,0.00015716095,5.476008e-05,0,1,0,1
9812000,9690000,9732000,0,-0.02,0.01,-0.03,0.09,0.09,0.20250002,0.007351474,-0.0112867,0.04688164,0.12190969,0.12190982,0.26869845,1.7732526e-05,4.179798e-05,0.00032719027,0,1,0,1
10212000,10090000,10132000,0,0.02,0.01,0.0,0.09,0.09,0.20250002,-0.03565166,-0.008414242,0.00912471,0.11563355,0.11563405,0.2514397,0.000439679,2.4490875e-05,1.3245378e-05,0,1,0,1
10612000,10494000,10532000,0,0.0,0.0,0.02,0.09,0.09,0.20250002,-0.007668398,0.0038994746,-0.0110454075,0.11281471,0.112815745,0.24107064,2.0849879e-05,5.3914114e-06,2.0243198e-05,0,1,0,1
11012000,10890000,10932000,0,0.01,-0.02,0.01,0.09,0.09,0.20250002,-0.014827822,0.025298243,0.0060068015,0.11193341,0.11193509,0.2342024,7.856968e-05,0.00022870436,6.162475e-06,0,1,0,1
11412000,11290000,11332000,0,0.01,0.0,0.02,0.09,0.09,0.20250002,-0.00961417,-0.0012491492,0.00071693584,0.11225694,0.11225962,0.22951362,3.2935965e-05,5.559876e-07,8.9580226e-08,0,1,0,1
11812000,11690000,11732000,0,0.0,0.0,0.0,0.09,0.09,0.20250002,0.004161083,-0.0027163695,0.02725567,0.11328772,0.113291256,0.22602803,6.1135006e-06,2.6052014e-06,0.00013146538,0,1,0,1
12204000,12090000,12124000,0,0.0,0.0,0.0,0.09,0.09,0.20250002,0.0032015876,-0.0036826339,0.025995065,0.11448151,0.11448545,0.2234395,3.5814217e-06,4.738346e-06,0.000120971155,0,1,0,1
12612000,12490000,12532000,0,-0.01,0.01,-0.03,0.09,0.09,0.20250002,0.01149662,-0.012314548,0.05692167,0.115994126,0.11599808,0.22168593,4.5578956e-05,5.2293308e-05,0.00058462465,0,1,0,1
13004000,12890000,12924000,0,0.01,0.0,0.01,0.09,0.09,0.20250002,-0.015259288,0.00048828102,0.01571695,0.11687471,0.11687821,0.22025044,7.969076e-05,8.159548e-08,4.4862118e-05,0,1,0,1
13412000,13290000,13332000,0,-0.03,0.0,-0.02,0.09,0.09,0.20250002,0.026635036,0.0017476965,0.04876252,0.117769465,0.117772564,0.2192816,0.00024095386,1.037404e-06,0.00043374058,0,1,0,1
13812000,13690000,13732000,0,-0.01,0.0,-0.01,0.09,0.09,0.20250002,-0.0017801914,0.00408319,0.0359485,0.118040785,0.11804325,0.21855567,1.0738938e-06,5.6496046e-06,0.00023651542,0,1,0,1
14212000,14090000,14132000,0,0.01,0.0,-0.01,0.09,0.09,0.20250002,-0.020935155,0.0039987583,0.03664419,0.11795943,0.1179615,0.21812929,0.00014862083,5.422131e-06,0.0002462387,0,1,0,1
14604000,14490000,14524000,0,0.01,-0.01,0.0,0.09,0.09,0.20250002,-0.016726797,0.015418067,0.02727399,0.117452875,0.117454425,0.21775256,9.528442e-05,8.095626e-05,0.00013664512,0,1,0,1
15012000,14890000,14932000,0,0.02,0.0,-0.02,0.09,0.09,0.20250002,-0.023822524,0.0035319123,0.04548862,0.11711361,0.11711477,0.21759325,0.0001938332,4.2605748e-06,0.0003803821,0,1,0,1
15412000,15290000,15332000,0,-0.01,-0.01,0.0,0.09,0.09,0.20250002,0.012469286,0.014174721,0.025357783,0.11642845,0.11642937,0.21747346,5.341756e-05,6.902819e-05,0.00011827046,0,1,0,1
15804000,15690000,15724000,0,0.0,0.0,-0.01,0.09,0.09,0.20250002,0.00028816692,0.0009259605,0.0374052,0.115549,0.115549855,0.21744804,2.8746307e-08,2.9680794e-07,0.00025737623,0,1,0,1
16212000,16090000,16132000,0,0.0,0.01,-0.01,0.09,0.09,0.20250002,0.0022596256,-0.0074634096,0.038129665,0.11495439,0.1149552,0.217494,1.7766727e-06,1.9382327e-05,0.00026738603,0,1,0,1
16612000,16490000,16532000,0,0.0,0.0,-0.01,0.09,0.09,0.20250002,0.0053249653,0.004961753,0.041558415,0.114180595,0.114181474,0.21750456,9.933477e-06,8.624514e-06,0.00031762128,0,1,0,1
17012000,16890000,16932000,0,0.0,0.0,0.0,0.09,0.09,0.20250002,0.0069705704,0.0041892594,0.033744603,0.113440104,0.11344097,0.21751936,1.7132867e-05,6.188203e-06,0.00020939714,0,1,0,1
17404000,17290000,17324000,0,0.0,0.0,0.01,0.09,0.09,0.20250002,0.009305739,0.0028086049,0.025505064,0.1126359,0.11263677,0.21755996,3.0752813e-05,2.8013096e-06,0.00011960073,0,1,0,1
17804000,17690000,17724000,0,-0.02,-0.01,-0.089999996,0.09,0.09,0.20250002,0.016564941,0.009971946,0.067731366,0.11210008,0.11210025,0.21757178,9.7911536e-05,3.548242e-05,0.00084340683,0,1,0,1
18212000,18090000,18132000,0,-0.16,-0.13,-0.25,0.09,0.09,0.20250002,0.003586024,-0.01730606,-0.0029994845,0.11194317,0.11194463,0.21761498,4.5950346e-06,0.000107017084,1.6537294e-06,0,1,0,1
18604000,18490000,18524000,0,-0.19,-0.17,-0.61,0.09,0.09,0.20250002,0.0221885,0.0111435205,0.039075255,0.11164178,0.11163951,0.21755409,0.00017639616,4.4492514e-05,0.00028073488,0,1,0,1
19012000,18894000,18932000,0,-0.14999999,-0.13,-0.62,0.09,0.09,0.20250002,0.05790586,0.029622719,0.03357309,0.111047074,0.111046255,0.21758392,0.0012078079,0.00031608646,0.00020721245,0,1,0,1
19412000,19290000,19332000,0,-0.02,-0.04,-0.66999996,0.09,0.09,0.20250002,0.010012081,0.020577278,0.03551805,0.11049277,0.11049861,0.21762487,3.6288984e-05,0.00015327772,0.00023187273,0,1,0,1
19812000,19690000,19732000,0,0.06,0.01,-0.71999997,0.09,0.09,0.20250002,0.005794827,0.03574472,0.07424337,0.10996652,0.10997579,0.21757193,1.2214634e-05,0.00046471495,0.0010133802,0,1,0,1
20212000,20090000,20132000,0,0.06,0.06,-0.69,0.09,0.09,0.20250002,-0.095749676,0.14626515,0.17283428,0.10943382,0.109300986,0.21752645,0.0033510667,0.007829205,0.0054929755,0,1,0,1
20612000,20490000,20532000,0,0.26999998,-0.089999996,-0.96999997,0.09,0.09,0.20250002,-0.50847816,0.4939975,0.5130621,0.10920765,0.108906835,0.21774197,0.094700344,0.08963021,0.048356824,0,1,0,1
21012000,20890000,20932000,0,0.56,-0.35,-1.22,0.09,0.09,0.20250002,-0.7832843,0.75977373,0.7899345,0.11390783,0.11367239,0.21796599,0.2154494,0.20312977,0.11451265,0,1,0,1
21412000,21290000,21332000,0,0.75,-0.55,-1.0699999,0.09,0.09,0.20250002,-0.8885322,0.86864555,1.000449,0.13242593,0.13232003,0.21822488,0.23846975,0.228097,0.18346177,0,1,0,1
21812000,21690000,21732000,0,0.71999997,-0.57,-1.0699999,0.09,0.09,0.20250002,-0.68790376,0.6858604,1.1164447,0.14998078,0.15002823,0.2182408,0.12620592,0.12541759,0.22845384,0,1,0,1
22204000,22090000,22124000,0,0.34,-0.26999998,-1.02,0.09,0.09,0.20250002,-0.2744471,0.3038264,1.1354524,0.15425895,0.15442519,0.21790917,0.019531112,0.02391073,0.23665863,0,1,0,1
22612000,22490000,22532000,0,-0.21,0.22,-0.71999997,0.09,0.09,0.20250002,0.08548613,-0.057742953,0.973422,0.15112111,0.15135129,0.21764079,0.0019343103,0.00088119466,0.17414941,0,1,0,1
23012000,22890000,22932000,0,-0.69,0.68,-0.39999998,0.09,0.09,0.20250002,0.37031,-0.36166874,0.7925308,0.1441416,0.14427003,0.2174379,0.03805411,0.036266513,0.11554656,0,1,0,1
23404000,23290000,23324000,0,-1.06,1.0,0.04,0.09,0.09,0.20250002,0.6637121,-0.62397265,0.45866254,0.13724679,0.13720474,0.21718775,0.12838587,0.11350683,0.038744602,0,1,0,1
23804000,23690000,23724000,0,-1.1999999,1.15,0.47,0.09,0.09,0.20250002,0.88636154,-0.8702014,0.10761967,0.13238113,0.13214105,0.21725653,0.23738635,0.22922489,0.0021324088,0,1,0,1
24212000,24090000,24132000,0,-1.2099999,1.12,0.82,0.09,0.09,0.20250002,1.1532583,-1.0816712,-0.23588848,0.12941039,0.12900162,0.21756722,0.41109678,0.36279008,0.0102301035,0,1,0,1
24604000,24490000,24524000,0,-1.05,1.02,1.18,0.09,0.09,0.20250002,1.2917023,-1.2775438,-0.6824689,0.12712541,0.12664193,0.2180154,0.5249917,0.5155064,0.08545521,0,1,0,1
25004000,24890000,24924000,0,-0.82,0.87,1.42,0.09,0.09,0.20250002,1.4326351,-1.4649745,-1.0724657,0.12589139,0.12549226,0.21867147,0.65213144,0.68407416,0.21039464,0,1,0,1
25412000,25290000,25332000,0,-0.59999996,0.71,1.52,0.09,0.09,0.20250002,1.5719709,-1.6278014,-1.3835399,0.12473887,0.1244734,0.2194579,0.792405,0.8515032,0.34889293,0,1,0,1
25804000,25690000,25724000,0,-0.37,0.51,1.52,0.09,0.09,0.20250002,1.5890276,-1.6532953,-1.625644,0.12230852,0.12232262,0.21976241,0.8257835,0.8938283,0.4810137,0,1,0,1
26212000,26090000,26132000,0,-0.099999994,0.29999998,1.53,0.09,0.09,0.20250002,1.4464108,-1.7049645,-1.8367422,0.12012772,0.11995958,0.21986172,0.6966266,0.96929455,0.61377156,0,1,0,1
26604000,26486000,26524000,0,0.13,0.14999999,1.4599999,0.09,0.09,0.20250002,1.2390267,-1.6325091,-1.973351,0.11835989,0.11860147,0.21975923,0.51882005,0.8988374,0.70879656,0,1,0,1
27004000,26890000,26924000,0,0.0,0.0,0.04,0.09,0.09,0.20250002,0.98229206,-1.2583835,-2.0746903,0.12024813,0.121593796,0.2180115,0.3209689,0.52092427,0.7897455,0,1,0,1
27404000,27286000,27324000,0,0.0,0.01,0.0,0.09,0.09,0.20250002,0.750376,-0.8348026,-1.9595834,0.12127596,0.12346511,0.21574685,0.18571335,0.22577891,0.7119394,0,1,0,1
27812000,27690000,27732000,0,0.0,0.02,0.01,0.09,0.09,0.20250002,0.5684237,-0.33767733,-1.7781094,0.12639369,0.12825382,0.21403846,0.102253675,0.035562597,0.5908607,0,1,0,1
28212000,28090000,28132000,0,-0.01,-0.01,-0.02,0.09,0.09,0.20250002,0.4103108,0.22395466,-1.4521103,0.13239038,0.13277355,0.21296342,0.05086622,0.015110145,0.3960538,0,1,0,1
28612000,28490000,28532000,0,0.01,0.0,-0.01,0.09,0.09,0.20250002,0.22982565,0.6839399,-1.0871897,0.13614807,0.13481161,0.21250081,0.015518348,0.13879332,0.22248979,0,1,0,1
29004000,28890000,28924000,0,0.0,0.0,-0.04,0.09,0.09,0.20250002,0.12450979,1.0509909,-0.6232609,0.13644284,0.13394158,0.21238314,0.004544815,0.32986978,0.07316102,0,1,0,1
29404000,29290000,29324000,0,-0.02,0.0,0.07,0.09,0.09,0.20250002,0.06082609,1.3332767,-0.27185395,0.13510023,0.1320233,0.21260536,0.0010954275,0.5385797,0.013904555,0,1,0,1
29812000,29690000,29732000,0,0.0,0.0,0.01,0.09,0.09,0.20250002,-0.024217388,1.5294957,0.26587114,0.13275254,0.12960808,0.21309258,0.00017671433,0.7219788,0.013268874,0,1,0,1
30204000,30090000,30124000,0,0.0,0.01,-0.04,0.09,0.09,0.20250002,-0.080587886,1.4083855,0.5637924,0.12869966,0.12658988,0.21366176,0.0020184692,0.62676406,0.05950749,0,1,0,1
30612000,30490000,30532000,0,0.03,-0.07,-0.17999999,0.09,0.09,0.20250002,-0.17184375,0.9466727,0.5750098,0.124813326,0.124358125,0.21431236,0.009463822,0.28826073,0.0617111,0,1,0,1
31004000,30890000,30924000,0,1.0699999,-0.90999997,-0.45,0.09,0.09,0.20250002,-0.11526358,0.48321348,0.49213207,0.12219316,0.12251148,0.21487059,0.004349079,0.07623621,0.04508648,0,1,0,1
31412000,31290000,31332000,0,2.24,-2.1499999,-1.41,0.09,0.09,0.20250002,-0.35408378,0.41429353,0.45270872,0.12205978,0.12123673,0.21480796,0.041086532,0.05662942,0.038163427,0,1,0,1
31804000,31690000,31724000,0,1.8299999,-1.86,-1.4499999,0.09,0.09,0.20250002,-0.41786563,0.4162593,0.58845854,0.11701575,0.1166717,0.21400405,0.059688266,0.05940491,0.064724654,0,1,0,1
32204000,32090000,32124000,0,1.13,-1.4,-1.15,0.09,0.09,0.20250002,-0.36981314,0.45444435,0.5919659,0.117886215,0.11758055,0.2136855,0.046404663,0.070256405,0.06559615,0,1,0,1
32612000,32490000,32532000,0,0.51,-0.79999995,-0.93,0.09,0.09,0.20250002,-0.32909587,0.434261,0.6155338,0.12188086,0.120895304,0.21378523,0.03554425,0.06239535,0.070890196,0,1,0,1
33012000,32894000,32932000,0,0.01,-0.26,-0.76,0.09,0.09,0.20250002,-0.21124083,0.3616174,0.6300072,0.1252027,0.12334339,0.2139922,0.014256141,0.042407505,0.07419132,0,1,0,1
33412000,33290000,33332000,0,-0.26999998,0.12,-0.52,0.09,0.09,0.20250002,-0.16867116,0.30222735,0.537089,0.12646008,0.12433006,0.21420655,0.008998875,0.029386736,0.05386662,0,1,0,1
33812000,33690000,33732000,0,-0.39999998,0.35,-0.38,0.09,0.09,0.20250002,-0.1270873,0.2378203,0.5076219,0.12579404,0.12400434,0.21441756,0.0051357537,0.018244036,0.048070684,0,1,0,1
34212000,34090000,34132000,0,-0.45,0.48999998,-0.29,0.09,0.09,0.20250002,-0.066082,0.1399292,0.4876457,0.12413767,0.12299931,0.21466835,0.0014070929,0.006367575,0.0443099,0,1,0,1
34604000,34490000,34524000,0,-0.38,0.48999998,-0.21,0.09,0.09,0.20250002,-0.07196945,0.10613796,0.4573102,0.122006044,0.12149553,0.21499518,0.001698146,0.0037088662,0.038909268,0,1,0,1
35012000,34890000,34932000,0,-0.29999998,0.42999998,-0.12,0.09,0.09,0.20250002,-0.041447043,0.06716466,0.40429533,0.12036687,0.12032332,0.21536922,0.00057087385,0.0014996565,0.030358044,0,1,0,1
35412000,35290000,35332000,0,-0.21,0.32,-0.049999997,0.09,0.09,0.20250002,-0.027813777,0.05110827,0.35820782,0.11868122,0.118873015,0.21583661,0.00026073414,0.0008789397,0.023779623,0,1,0,1
35812000,35690000,35732000,0,-0.11,0.24,0.0,0.09,0.09,0.20250002,-0.034102872,0.00043277442,0.3187338,0.11718661,0.117443345,0.21625027,0.00039697567,6.379032e-08,0.01879142,0,1,0,1
36212000,36090000,36132000,0,-0.01,0.14,0.0,0.09,0.09,0.20250002,-0.057995677,-0.0061492026,0.32324296,0.1158249,0.11604662,0.21663238,0.0011615804,1.3033622e-05,0.019292777,0,1,0,1
36612000,36490000,36532000,0,0.02,0.03,0.06,0.09,0.09,0.20250002,-0.029234704,0.018436221,0.26757783,0.11455272,0.114705764,0.21702763,0.00029843653,0.00011852736,0.013196089,0,1,0,1
37012000,36890000,36932000,0,0.06,-0.03,0.11,0.09,0.09,0.20250002,-0.046346933,0.0085714795,0.21901594,0.11336534,0.11341004,0.2172986,0.0007579171,2.5913141e-05,0.008829874,0,1,0,1
37412000,37290000,37332000,0,0.06,-0.049999997,0.089999996,0.09,0.09,0.20250002,-0.034998678,-0.011224449,0.22878817,0.11227448,0.112259805,0.21750228,0.00043639744,4.4891665e-05,0.009626386,0,1,0,1
37812000,37690000,37732000,0,0.089999996,-0.06,0.12,0.09,0.09,0.20250002,-0.06989868,-0.015098054,0.18431774,0.111303896,0.111262664,0.21763974,0.0017558506,8.195066e-05,0.006243901,0,1,0,1
38212000,38090000,38132000,0,0.089999996,-0.049999997,0.12,0.09,0.09,0.20250002,-0.07150096,-0.027462393,0.16709358,0.11047883,0.11043084,0.21771616,0.0018509923,0.00027317845,0.005129663,0,1,0,1
38612000,38490000,38532000,0,0.089999996,-0.049999997,0.16,0.09,0.09,0.20250002,-0.08701971,-0.023511797,0.10741049,0.10979156,0.10973607,0.21782254,0.0027588387,0.00020150334,0.002118608,0,1,0,1
39004000,38890000,38924000,0,0.07,-0.06,0.049999997,0.09,0.09,0.20250002,-0.085015856,-0.008974653,0.19554858,0.109158665,0.10910139,0.21775997,0.00264851,2.9530107e-05,0.00702411,0,1,0,1
39412000,39290000,39332000,0,0.07,0.0,0.12,0.09,0.09,0.20250002,-0.10742492,-0.06661379,0.10244004,0.108817436,0.10876368,0.21777932,0.004242009,0.0016319411,0.0019274486,0,1,0,1
39812000,39690000,39732000,0,0.049999997,-0.01,0.099999994,0.09,0.09,0.20250002,-0.10045871,-0.041176304,0.10570684,0.10847068,0.108426884,0.21771605,0.0037215415,0.0006254862,0.0020529376,0,1,0,1
40212000,40090000,40132000,0,0.04,-0.03,0.12,0.09,0.09,0.20250002,-0.10766812,-0.020795228,0.06198073,0.10822277,0.10818529,0.21764244,0.0042846524,0.00015988921,0.0007060408,0,1,0,1
40604000,40490000,40524000,0,0.06,-0.01,0.089999996,0.09,0.09,0.20250002,-0.14222282,-0.04369667,0.07269957,0.107972175,0.107943416,0.21759991,0.007493535,0.00070755556,0.00097154954,0,1,0,1
41004000,40890000,40924000,0,0.03,-0.03,0.049999997,0.09,0.09,0.20250002,-0.12068251,-0.015231548,0.08724181,0.10788055,0.107862845,0.21752678,0.005400146,8.603521e-05,0.0013995764,0,1,0,1
41412000,41290000,41332000,0,0.04,-0.04,0.089999996,0.09,0.09,0.20250002,-0.14372858,-0.004830137,0.031100377,0.10790295,0.107894756,0.21750274,0.0076579577,8.649252e-06,0.00017787977,0,1,0,1
41812000,41690000,41732000,0,0.04,-0.02,0.049999997,0.09,0.09,0.20250002,-0.1485295,-0.021657143,0.05520399,0.107865386,0.10786582,0.21742243,0.008180942,0.00017393159,0.00056065613,0,1,0,1
42204000,42090000,42124000,0,0.04,-0.03,0.04,0.09,0.09,0.20250002,-0.15373662,-0.003902832,0.051714063,0.10777554,0.10778324,0.21738276,0.008771916,5.6528634e-06,0.0004920987,0,1,0,1
42612000,42490000,42532000,0,0.03,-0.01,0.04,0.09,0.09,0.20250002,-0.15562955,-0.018277818,0.042900942,0.1078779,0.10789314,0.21736948,0.00898073,0.00012385538,0.00033868433,0,1,0,1
43012000,42890000,42932000,0,0.01,0.0,0.03,0.09,0.09,0.20250002,-0.14583017,-0.020826027,0.04400517,0.10789018,0.10791132,0.21730827,0.007884476,0.0001607703,0.00035644387,0,1,0,1
43412000,43290000,43332000,0,0.03,0.0,0.0,0.09,0.09,0.20250002,-0.17659615,-0.017010959,0.065774925,0.10790688,0.10793233,0.21726242,0.011560413,0.000107242275,0.0007965189,0,1,0,1
43812000,43690000,43732000,0,0.01,-0.01,0.04,0.09,0.09,0.20250002,-0.15893674,-0.006190859,0.021250699,0.107918754,0.107946955,0.21730489,0.009362927,1.4202061e-05,8.312601e-05,0,1,0,1
44212000,44090000,44132000,0,0.01,0.0,0.01,0.09,0.09,0.20250002,-0.16696826,-0.013957078,0.046687193,0.107929386,0.10796013,0.21727294,0.010332088,7.21748e-05,0.0004012822,0,1,0,1
44612000,44490000,44532000,0,0.01,0.0,0.01,0.09,0.09,0.20250002,-0.17353694,-0.013344807,0.03706623,0.10793551,0.10796811,0.21724464,0.011160393,6.597647e-05,0.00025296924,0,1,0,1
45012000,44890000,44932000,0,0.0,-0.02,0.0,0.09,0.09,0.20250002,-0.16784921,0.008232315,0.044009857,0.10792516,0.10795879,0.21722266,0.010441814,2.5109955e-05,0.0003566603,0,1,0,1
45404000,45290000,45324000,0,0.0,-0.01,0.02,0.09,0.09,0.20250002,-0.16908273,-0.006177256,0.022144902,0.107825145,0.107857734,0.21716067,0.010605678,1.4151416e-05,9.0328824e-05,0,1,0,1
45812000,45690000,45732000,0,-0.01,0.0,-0.01,0.09,0.09,0.20250002,-0.1649789,-0.01063115,0.04902426,0.10789357,0.10792598,0.21720238,0.010090699,4.1888467e-05,0.00044260625,0,1,0,1
46212000,46090000,46132000,0,-0.02,-0.02,0.02,0.09,0.09,0.20250002,-0.15597995,0.011009393,0.016432062,0.10784706,0.10787781,0.21726438,0.009023795,4.494223e-05,4.971135e-05,0,1,0,1
46604000,46490000,46524000,0,-0.02,0.01,-0.01,0.09,0.09,0.20250002,-0.15556493,-0.020605888,0.044709206,0.10771615,0.10774418,0.2171977,0.008986749,0.00015763362,0.00036812783,0,1,0,1
47004000,46890000,46924000,0,-0.03,-0.01,0.0,0.09,0.09,0.20250002,-0.14358248,0.0069386056,0.032343403,0.107673645,0.107698895,0.21726483,0.007658672,1.7881055e-05,0.00019259367,0,1,0,1
47412000,47290000,47332000,0,0.0,0.01,0.02,0.09,0.09,0.20250002,-0.16724269,-0.013805993,0.015960678,0.10769114,0.10771288,0.21729599,0.010389014,7.0782786e-05,4.689332e-05,0,1,0,1
47812000,47690000,47732000,0,-0.02,-0.04,-0.02,0.09,0.09,0.20250002,-0.13602832,0.043171536,0.053627633,0.10761224,0.10763098,0.21726826,0.006877918,0.0006926561,0.0005294695,0,1,0,1
48212000,48090000,48132000,0,0.02,0.0,0.02,0.09,0.09,0.20250002,-0.17440628,-0.004345735,0.011691276,0.10752761,0.10754501,0.21723971,0.011315251,7.0241895e-06,2.5167763e-05,0,1,0,1
48612000,48490000,48532000,0,0.0,-0.03,0.03,0.09,0.09,0.20250002,-0.14611253,0.036885217,0.0036277752,0.10744254,0.10745814,0.21729223,0.007948014,0.0005064369,2.4226827e-06,0,1,0,1
49004000,48890000,48924000,0,0.0,0.01,-0.01,0.09,0.09,0.20250002,-0.14437184,-0.0021257186,0.039310485,0.1072903,0.10730481,0.21721761,0.0077707786,1.6844276e-06,0.00028456518,0,1,0,1
49412000,49290000,49332000,0,-0.01,0.01,0.0,0.09,0.09,0.20250002,-0.13584113,0.0051431153,0.030656278,0.10729579,0.107309744,0.2172475,0.0068792314,9.859919e-06,0.00017303902,0,1,0,1
49812000,49690000,49732000,0,-0.01,0.0,-0.01,0.09,0.09,0.20250002,-0.13270459,0.019767357,0.041443273,0.10720792,0.10722056,0.21722777,0.0065705995,0.00014577368,0.00031626617,0,1,0,1
50212000,50090000,50132000,0,-0.03,0.01,-0.049999997,0.09,0.09,0.20250002,0.079823405,0.00018758792,0.18813328,0.10702466,0.107042104,0.21728893,0.0023814235,1.3149679e-08,0.0065155886,0,1,0,1
50612000,50490000,50532000,0,-0.24,-0.02,-0.39,0.09,0.09,0.20250002,0.5739434,0.0200552,0.5147258,0.106966525,0.107111804,0.21729365,0.12318284,0.00015020234,0.048771355,0,1,0,1
51004000,50890000,50924000,0,-0.68,-0.03,-0.68,0.09,0.09,0.20250002,1.0119447,0.023733402,0.7977984,0.106820665,0.107001424,0.21726702,0.38345838,0.00021056707,0.11717974,0,1,0,1
51412000,51290000,51332000,0,-1.02,0.0,-0.84999996,0.09,0.09,0.20250002,1.2827522,-0.0024904935,1.030778,0.10676178,0.10698093,0.217358,0.6164952,2.3191267e-06,0.19553058,0,1,0,1
51812000,51690000,51732000,0,-1.11,0.01,-0.87,0.09,0.09,0.20250002,1.3419482,0.0020731948,1.1459144,0.10657309,0.106903605,0.21738844,0.6759023,1.608229e-06,0.24161725,0,1,0,1
52212000,52090000,52132000,0,-0.97999996,0.01,-0.83,0.09,0.09,0.20250002,1.2671244,0.013235675,1.2266514,0.10637097,0.10692138,0.21747684,0.6037753,6.553716e-05,0.27675107,0,1,0,1
52612000,52494000,52532000,0,-0.62,0.01,-0.59,0.09,0.09,0.20250002,1.0202012,0.0168336,1.101884,0.10620134,0.10701554,0.21744184,0.39201406,0.00010591736,0.22335137,0,1,0,1
53012000,52890000,52932000,0,-0.099999994,0.03,-0.28,0.09,0.09,0.20250002,0.63232756,0.001558261,0.8912591,0.10610099,0.10709746,0.21736193,0.15073872,9.069038e-07,0.14617883,0,1,0,1
53412000,53290000,53332000,0,0.39,0.02,0.089999996,0.09,0.09,0.20250002,0.24007088,0.015844304,0.5899681,0.10608529,0.10702202,0.21733922,0.021731203,9.382817e-05,0.06405882,0,1,0,1
53804000,53690000,53724000,0,0.87,0.0,0.55,0.09,0.09,0.20250002,-0.23302156,0.034503076,0.1755802,0.1060595,0.10668382,0.21719788,0.02047871,0.0004463516,0.0056774784,0,1,0,1
54212000,54094000,54132000,0,1.3199999,0.01,1.01,0.09,0.09,0.20250002,-0.7645427,0.018228637,-0.30092436,0.10626152,0.10647439,0.21719542,0.22003281,0.00012483122,0.016677234,0,1,0,1
54604000,54490000,54524000,0,1.63,-0.02,1.42,0.09,0.09,0.20250002,-1.232879,0.049100935,-0.80744696,0.106367685,0.106321104,0.21723157,0.57159865,0.00090702664,0.12005079,0,1,0,1
55012000,54890000,54524000,0,1.8199999,-0.06,1.6999999,0.09,0.09,0.20250002,-1.6921345,0.08209917,-1.261107,0.1066681,0.10675107,0.21736525,1.0737302,0.002525604,0.292667,0,1,1,0
55412000,55290000,54524000,0,1.92,-0.089999996,1.99,0.09,0.09,0.20250002,-2.3085997,0.11941771,-1.7584984,0.10968935,0.11043557,0.21847217,1.943537,0.005165216,0.5661712,0,1,1,0
55812000,55690000,55732000,0,2.22,-0.06,2.27,0.09,0.09,0.20250002,-2.8652558,0.086511865,-2.1947887,0.112941466,0.114378124,0.21953362,2.9075916,0.0026173894,0.8776965,0,1,1,0
56204000,56090000,56124000,0,2.49,-0.099999994,2.12,0.09,0.09,0.20250002,-0.016290665,0.16907836,-0.5264641,0.18309322,0.18303233,0.40462205,5.797828e-05,0.0062475284,0.027399838,0,1,0,1
56612000,56490000,56124000,0,0.98999995,0.13,-0.01,0.09,0.09,0.20250002,3.4599636,0.8324728,-0.47542343,0.16656348,0.17367432,0.3015617,2.8749034,0.15961163,0.029980918,0,1,1,0
57004000,56890000,56124000,0,0.0,-0.049999997,0.0,0.09,0.09,0.20250002,5.4007463,1.769794,-0.5638913,0.20436615,0.21840505,0.29434752,5.7089806,0.57364434,0.043210603,0,1,1,0
57404000,57290000,56124000,0,0.02,0.0,0.0,0.09,0.09,0.20250002,5.5351133,1.791195,-0.585954,0.21923167,0.2340301,0.28263667,5.5899734,0.5483705,0.0485913,0,1,1,0
57804000,57690000,56124000,0,0.01,0.0,-0.01,0.09,0.09,0.20250002,5.382979,1.8136086,-0.5074836,0.22575398,0.23951164,0.26985744,5.1341662,0.5493138,0.03817417,0,1,1,0
58204000,58086000,56124000,0,0.0,0.01,0.01,0.09,0.09,0.20250002,4.8984494,1.703732,-0.3643737,0.22437537,0.23433799,0.25692126,4.277619,0.49547288,0.020670645,0,1,1,0
58612000,58490000,56124000,0,-0.01,0.02,0.049999997,0.09,0.09,0.20250002,4.12399,1.4616807,-0.15575191,0.21708317,0.22197403,0.24617587,3.133784,0.38500187,0.0039416794,0,1,1,0
59012000,58890000,56124000,0,-0.01,0.0,0.0,0.09,0.09,0.20250002,3.8831146,1.3452934,0.2070621,0.22778465,0.22998211,0.23834927,2.6478655,0.3147748,0.007195275,0,1,1,0
59412000,59290000,56124000,0,0.02,-0.01,-0.01,0.09,0.09,0.20250002,3.5409286,1.1752555,0.57578075,0.23996678,0.23966274,0.23217185,2.0899854,0.2305282,0.057116915,0,1,1,0
59812000,59690000,56124000,0,0.01,0.0,0.02,0.09,0.09,0.20250002,3.1895633,0.9555001,0.921729,0.254623,0.25257993,0.22781754,1.5981768,0.1445848,0.14916927,0,1,1,0
60204000,60086000,56124000,0,0.0,-0.02,0.01,0.09,0.09,0.20250002,2.9788058,0.8569201,1.1649836,0.2755944,0.27315658,0.22505629,1.2878758,0.10752984,0.24121733,0,1,1,0
60612000,60490000,56124000,0,0.02,0.0,-0.01,0.09,0.09,0.20250002,3.0607471,0.93038696,1.1335655,0.30829364,0.30631363,0.22309157,1.215487,0.11303707,0.23039345,0,1,1,0
61012000,60890000,56124000,0,0.0,0.0,-0.01,0.09,0.09,0.20250002,3.180602,1.0155505,1.0444139,0.3440165,0.34263143,0.2218241,1.1762494,0.120402604,0.19669648,0,1,1,0
61412000,61290000,56124000,0,0.0,0.01,-0.04,0.09,0.09,0.20250002,3.2871537,1.0891645,0.9638091,0.38357094,0.38320422,0.22110525,1.1268195,0.12382737,0.16805172,0,1,1,0
61812000,61690000,56124000,0,0.0,0.01,-0.01,0.09,0.09,0.20250002,3.3986602,1.1851023,0.8709763,0.4267439,0.42826203,0.22092459,1.0827,0.13117835,0.13735,0,1,1,0
62204000,62086000,56124000,0,0.04,0.0,-0.02,0.09,0.09,0.20250002,3.4414833,1.2739762,0.81506157,0.47205412,0.47631675,0.22083074,1.0035974,0.13629715,0.12033204,0,1,1,0
62612000,62490000,62532000,0,0.19999999,0.14999999,-0.03,0.09,0.09,0.20250002,3.3530247,0.95960796,0.7364375,0.5190581,0.52840483,0.22104737,0.86639816,0.06970772,0.09814009,0,1,0,1
63012000,62890000,62932000,0,0.37,0.5,-0.02,0.09,0.09,0.20250002,0.4420635,-0.45641428,0.5705834,0.17410704,0.17458029,0.2200846,0.044896554,0.0477291,0.05917096,0,1,0,1
63412000,63290000,63332000,0,0.01,0.0,-0.01,0.09,0.09,0.20250002,0.5367818,1.0001374,0.47530642,0.14107166,0.14062713,0.21895339,0.08169881,0.28451833,0.041272018,0,1,0,1
63812000,63690000,63732000,0,0.0,0.0,-0.02,0.09,0.09,0.20250002,0.2961774,0.7039041,0.37959823,0.12651902,0.12616646,0.216629,0.027733708,0.15708803,0.026606746,0,1,0,1
64212000,64090000,64132000,0,0.0,-0.01,0.01,0.09,0.09,0.20250002,0.15043986,0.5631704,0.2604759,0.120424,0.12020766,0.21504992,0.0075174887,0.10553765,0.012619898,0,1,0,1
64612000,64490000,64532000,0,-0.03,-0.03,0.04,0.09,0.09,0.20250002,0.08077765,0.48317778,0.15369266,0.117992796,0.11793223,0.21399005,0.0022120094,0.07918472,0.004415427,0,1,0,1
65012000,64890000,64932000,0,0.0,0.0,-0.03,0.09,0.09,0.20250002,-0.012925165,0.3671109,0.092406616,0.11729779,0.11737946,0.21339554,5.696949e-05,0.04592641,0.0016005925,0,1,0,1
65412000,65290000,65332000,0,0.0,-0.02,0.02,0.09,0.09,0.20250002,-0.09124045,0.32377863,0.09684262,0.11728017,0.117399156,0.2131603,0.002839293,0.035718348,0.0017598948,0,1,0,1
65804000,65690000,65724000,0,0.0,-0.01,0.01,0.09,0.09,0.20250002,-0.10914471,0.2510892,0.007339267,0.1173747,0.117555246,0.21322219,0.004059671,0.021452306,1.0104922e-05,0,1,0,1
66204000,66090000,66124000,0,0.01,0.0,-0.01,0.09,0.09,0.20250002,-0.13736573,0.18838267,-0.019995606,0.11752427,0.11776863,0.21347798,0.00642228,0.012053475,7.491624e-05,0,1,0,1
66612000,66490000,66532000,0,0.01,0.0,-0.03,0.09,0.09,0.20250002,-0.14721479,0.14592735,-0.047333725,0.11765018,0.11791416,0.21392053,0.00736835,0.0072238287,0.00041893715,0,1,0,1
67012000,66890000,66932000,0,0.0,0.0,0.0,0.09,0.09,0.20250002,-0.13865992,0.10760024,-0.120551206,0.11738882,0.11763419,0.21441808,0.006551416,0.003936887,0.002711076,0,1,0,1
67412000,67290000,67332000,0,0.0,0.01,0.0,0.09,0.09,0.20250002,-0.13566016,0.06563023,-0.15668896,0.116958566,0.11716324,0.2149603,0.0062940842,0.0014705387,0.004568551,0,1,0,1
67812000,67690000,67732000,0,0.0,0.0,-0.01,0.09,0.09,0.20250002,-0.13014254,0.05385518,-0.18364187,0.116409,0.11656745,0.21555942,0.005819853,0.0009952625,0.0062580113,0,1,0,1
68212000,68090000,68132000,0,0.0,0.0,0.03,0.09,0.09,0.20250002,-0.12265943,0.03525835,-0.2523906,0.11577715,0.11589177,0.21607967,0.0051980326,0.00042907314,0.011792134,0,1,0,1
68604000,68490000,68524000,0,-0.01,-0.01,-0.01,0.09,0.09,0.20250002,-0.10319805,0.03163784,-0.23653243,0.115001544,0.11507883,0.21655753,0.0037042415,0.00034791903,0.010333992,0,1,0,1
69012000,68890000,68932000,0,-0.02,0.01,0.01,0.09,0.09,0.20250002,-0.08206642,-0.001348502,-0.28229842,0.114471674,0.11451802,0.21700999,0.0023533846,6.3516916e-07,0.014689166,0,1,0,1
69412000,69294000,69332000,0,0.0,-0.01,-0.04,0.09,0.09,0.20250002,-0.091160715,0.0134201385,-0.25138456,0.11382019,0.11384469,0.21732491,0.0029204928,6.3279236e-05,0.011631284,0,1,0,1
69812000,69690000,69732000,0,0.0,0.01,0.0,0.09,0.09,0.20250002,-0.073893316,-0.017814318,-0.31087282,0.113213055,0.11322188,0.21756257,0.0019291847,0.00011211611,0.017768113,0,1,0,1
70212000,70090000,70132000,0,-0.01,-0.01,-0.01,0.09,0.09,0.20250002,-0.044647686,-0.0033767018,-0.31056786,0.11265272,0.11265352,0.21773073,0.00070780923,4.0485606e-06,0.017719574,0,1,0,1
70612000,70490000,70532000,0,0.0,-0.01,-0.01,0.09,0.09,0.20250002,-0.040262744,-0.01111152,-0.31771797,0.11214364,0.112143315,0.21782565,0.00057821866,4.4038607e-05,0.01853679,0,1,0,1
71012000,70890000,70932000,0,0.0,-0.02,0.0,0.09,0.09,0.20250002,-0.02650463,-0.004321467,-0.32975027,0.11168275,0.111687556,0.21793804,0.0002516039,6.6883294e-06,0.019957092,0,1,0,1
71404000,71290000,71324000,0,0.03,0.01,0.0,0.09,0.09,0.20250002,-0.03986966,-0.038637273,-0.32438496,0.111193456,0.111207925,0.21787533,0.0005718285,0.00053695415,0.019318497,0,1,0,1
71812000,71690000,71732000,0,0.02,-0.01,-0.01,0.09,0.09,0.20250002,-0.0039968733,-0.014767554,-0.30568433,0.11093843,0.11096945,0.21788144,5.75995e-06,7.860926e-05,0.017154818,0,1,0,1
72204000,72090000,72124000,0,0.0,0.0,-0.01,0.09,0.09,0.20250002,0.038325418,-0.024923967,-0.29304937,0.110551804,0.110601276,0.21783945,0.0005314568,0.00022466437,0.015769033,0,1,0,1
72612000,72490000,72532000,0,0.01,0.0,0.0,0.09,0.09,0.20250002,0.04394506,-0.020744897,-0.29093587,0.110386744,0.11045624,0.21780755,0.0006997827,0.0001558448,0.015544674,0,1,0,1
73012000,72890000,72932000,0,0.0,0.0,0.01,0.09,0.09,0.20250002,0.03300416,0.00023250078,-0.029097768,0.18065974,0.18066564,0.40434343,0.00024117707,1.19683214e-08,8.375851e-05,0,1,0,1
73404000,73290000,73324000,0,0.0,0.0,0.02,0.09,0.09,0.20250002,0.046808973,0.002711359,-0.029180821,0.13594018,0.13595726,0.30086154,0.0006447189,2.162876e-06,0.00011321093,0,1,0,1
73812000,73690000,73732000,0,0.02,0.01,-0.01,0.09,0.09,0.20250002,0.042617735,-0.004797667,0.006709354,0.12153077,0.12156445,0.2656736,0.00059779803,7.5737958e-06,6.777554e-06,0,1,0,1
74212000,74090000,74132000,0,-0.01,0.0,0.0,0.09,0.09,0.20250002,0.09663506,0.010849339,-0.009541176,0.11478272,0.11483997,0.24741554,0.0032542646,4.099902e-05,1.4717595e-05,0,1,0,1
74612000,74490000,74532000,0,-0.01,0.0,-0.04,0.09,0.09,0.20250002,0.1140114,0.015818814,0.024371184,0.11124254,0.111331366,0.23644897,0.004673967,8.990634e-05,0.00010047912,0,1,0,1
75012000,74890000,74932000,0,0.0,-0.01,-0.04,0.09,0.09,0.20250002,0.12291234,0.031272054,0.018039726,0.10938703,0.10951339,0.22929958,0.0055244,0.00035719518,5.67697e-05,0,1,0,1
75404000,75290000,75324000,0,0.0,0.0,-0.01,0.09,0.09,0.20250002,0.14111844,0.023097754,-0.01639801,0.108466744,0.108628504,0.2244438,0.0073439702,0.00019645166,4.7921978e-05,0,1,0,1
75804000,75690000,75724000,0,0.0,-0.01,-0.02,0.09,0.09,0.20250002,0.15629254,0.032781996,-0.010993805,0.10825025,0.10844232,0.22125313,0.0090262545,0.00039639848,2.1850763e-05,0,1,0,1
76212000,76090000,76132000,0,0.02,0.0,0.0,0.09,0.09,0.20250002,0.15013526,0.021773128,-0.03805788,0.10849551,0.108713925,0.2189712,0.008310242,0.0001744281,0.00026458316,0,1,0,1
76604000,76490000,76524000,0,0.02,0.0,0.04,0.09,0.09,0.20250002,0.16072953,0.01977546,-0.08302644,0.10875832,0.10898464,0.21738227,0.0095014265,0.00014353171,0.0012684364,0,1,0,1
77004000,76890000,76924000,0,0.0,0.0,0.0,0.09,0.09,0.20250002,0.18924862,0.0166782,-0.044038802,0.10919367,0.109420195,0.21639237,0.013119823,0.000101685924,0.00035849994,0,1,0,1
77412000,77290000,77332000,0,-0.02,0.0,0.01,0.09,0.09,0.20250002,0.21252625,0.012056397,-0.0622025,0.10970283,0.10992272,0.21585123,0.016469002,5.2894145e-05,0.00071700325,0,1,0,1
77812000,77690000,77732000,0,0.01,-0.01,-0.02,0.09,0.09,0.20250002,0.1758734,0.01565855,-0.03736784,0.11000733,0.11020493,0.21557277,0.011247051,8.899428e-05,0.0002590968,0,1,0,1
78212000,78090000,78132000,0,-0.02,-0.01,-0.01,0.09,0.09,0.20250002,0.20448655,0.009181501,-0.05450557,0.11019969,0.110372126,0.21552166,0.01517781,3.055118e-05,0.0005513798,0,1,0,1
78604000,78490000,78524000,0,0.0,0.01,0.02,0.09,0.09,0.20250002,0.17139095,-0.014828749,-0.086548865,0.11017467,0.11031454,0.21564998,0.010664832,7.973266e-05,0.0013894193,0,1,0,1
79012000,78890000,78932000,0,0.0,0.0,0.0,0.09,0.09,0.20250002,0.16514431,-0.004788564,-0.06665275,0.11025473,0.11036733,0.21590382,0.009894413,8.310556e-06,0.00082306826,0,1,0,1
79412000,79290000,79332000,0,0.0,0.01,-0.04,0.09,0.09,0.20250002,0.15581426,-0.014597956,-0.029733092,0.110119626,0.11020498,0.21616493,0.008818803,7.734689e-05,0.0001635893,0,1,0,1
79812000,79690000,79732000,0,-0.01,0.01,0.03,0.09,0.09,0.20250002,0.1574209,-0.010430803,-0.11064074,0.10992198,0.10998604,0.21651693,0.0090177925,3.9569255e-05,0.0022615087,0,1,0,1
80204000,80090000,80124000,0,0.0,0.0,0.0,0.09,0.09,0.20250002,0.00527196,-0.11164444,0.047238275,0.10952699,0.10949489,0.21675564,1.0150397e-05,0.0045534475,0.00041179179,0,1,0,1
80612000,80490000,80532000,0,0.0,0.01,-0.01,0.09,0.09,0.20250002,-0.39660317,-0.46187142,0.4469117,0.11037436,0.11075233,0.21709178,0.05700384,0.07704586,0.036801036,0,1,0,1
81012000,80890000,80932000,0,0.0,0.02,-0.02,0.09,0.09,0.20250002,-0.66184187,-0.69814605,0.7194407,0.11177665,0.11293732,0.2173447,0.15675355,0.17262954,0.095257886,0,1,0,1
81412000,81290000,81332000,0,-0.14,0.25,-0.26,0.09,0.09,0.20250002,-0.3871997,-1.1763058,0.91253453,0.11418779,0.112771966,0.21753748,0.05251826,0.49079403,0.15311739,0,1,0,1
81804000,81686000,81724000,0,-1.12,0.35999998,-0.01,0.09,0.09,0.20250002,1.3632379,-0.7115897,0.95601416,0.110547155,0.108890414,0.21743943,0.6724434,0.18600714,0.16813199,0,1,0,1
82212000,82090000,81724000,0,-1.92,-0.42,0.02,0.09,0.09,0.20250002,2.141245,1.2377434,0.8423655,0.1226689,0.108708575,0.21745896,1.4950585,0.5637122,0.13052204,0,1,1,0
82604000,82490000,81724000,0,0.0,0.0,-0.01,0.09,0.09,0.20250002,-0.47876826,0.2746866,3.3407178,0.12328982,0.110290445,0.22100332,0.074367546,0.027365102,2.0199506,0,1,1,0
83004000,82890000,81724000,0,0.0,0.0,-0.02,0.09,0.09,0.20250002,-0.6200004,0.36893526,3.3664467,0.12747797,0.115211934,0.27223116,0.120617084,0.04725664,1.6651971,0,1,1,0
83412000,83290000,81724000,0,0.02,0.0,0.01,0.09,0.09,0.20250002,-0.9379515,0.42583248,3.3065596,0.13208756,0.1221497,0.37042147,0.26641512,0.05938068,1.1806374,0,1,1,0
83804000,83690000,83724000,0,0.0,0.0,-0.01,0.09,0.09,0.20250002,-1.3531599,0.445342,3.0523386,0.1361886,0.13118085,0.48115584,0.5377959,0.060475137,0.77453244,0,1,0,1
84212000,84090000,84132000,0,0.0,0.01,0.0,0.09,0.09,0.20250002,-1.5029918,0.32290086,1.9187676,0.123687334,0.12762102,0.3824587,0.7305467,0.032679558,0.38505274,0,1,0,1
84612000,84490000,84532000,0,0.0,0.0,-0.03,0.09,0.09,0.20250002,-1.5477871,0.23461568,1.3948978,0.11920154,0.1254467,0.3318027,0.80389726,0.017551523,0.23456588,0,1,0,1
85004000,84890000,84924000,0,0.0,0.0,0.02,0.09,0.09,0.20250002,-1.559821,0.1412131,1.0836998,0.11672477,0.12358177,0.3028026,0.83377045,0.006454395,0.15513808,0,1,0,1
85412000,85290000,85332000,0,0.0,0.01,0.0,0.09,0.09,0.20250002,-1.5481509,0.05266492,1.0364782,0.11538115,0.12195351,0.28531247,0.8309056,0.0009097217,0.15061198,0,1,0,1
85804000,85690000,85724000,0,0.01,0.01,0.0,0.09,0.09,0.20250002,-1.473707,0.0046797357,0.99807,0.114126906,0.11947097,0.27251032,0.7611921,7.332301e-06,0.14621739,0,1,0,1
86212000,86090000,86132000,0,0.0,0.0,0.02,0.09,0.09,0.20250002,-1.310959,0.00038267317,0.9652644,0.113332115,0.1169507,0.2633973,0.60657597,5.0085635e-08,0.14149503,0,1,0,1
86604000,86490000,86524000,0,-0.01,0.0,0.02,0.09,0.09,0.20250002,-1.059848,0.021932283,0.92410654,0.11238205,0.11412589,0.2557755,0.3998068,0.00016859455,0.13355038,0,1,0,1
87012000,86890000,86932000,0,0.0,0.0,-0.01,0.09,0.09,0.20250002,-0.74054205,0.08371915,0.8965848,0.111760266,0.11192662,0.25079364,0.19627818,0.0025048181,0.12821127,0,1,0,1
87404000,87290000,87324000,0,0.0,0.0,0.0,0.09,0.09,0.20250002,-0.3353343,0.18013993,0.76791257,0.11102708,0.11054841,0.24610811,0.040512312,0.011741605,0.09584239,0,1,0,1
87804000,87690000,87724000,0,0.0,0.01,0.0,0.09,0.09,0.20250002,0.14649837,0.30292904,0.6165784,0.110585034,0.110878825,0.24266906,0.007762993,0.03310497,0.06266458,0,1,0,1
88204000,88090000,88124000,0,0.02,0.0,0.0,0.09,0.09,0.20250002,0.65181446,0.4730878,0.4241966,0.1103522,0.11317816,0.23989403,0.15400222,0.079100795,0.030003708,0,1,0,1
88612000,88490000,88532000,0,0.01,0.01,0.03,0.09,0.09,0.20250002,1.2325394,0.63796884,0.15759763,0.1104234,0.11745776,0.23783778,0.55030125,0.13860446,0.0041771354,0,1,0,1
89012000,88894000,88532000,0,-0.02,0.01,-0.01,0.09,0.09,0.20250002,1.815338,0.7995267,-0.06088808,0.11044845,0.12210508,0.2352915,1.1934806,0.2094075,0.000630258,0,1,1,0
89412000,89290000,88532000,0,0.0,0.0,0.0,0.09,0.09,0.20250002,2.6532648,1.1212267,-0.36532167,0.11499125,0.13844287,0.23752823,2.4488175,0.3632254,0.02247479,0,1,1,0
89812000,89690000,88532000,0,0.0,-0.01,0.01,0.09,0.09,0.20250002,3.5411315,1.446605,-0.6910009,0.12009055,0.15947005,0.2389611,4.1767187,0.524905,0.07992635,0,1,1,0
90212000,90090000,88532000,0,0.0,0.0,0.0,0.09,0.09,0.20250002,4.2119274,1.6643989,-0.880169,0.12478107,0.17788774,0.23958528,5.6868663,0.622915,0.12933974,0,1,1,0
90612000,90490000,88532000,0,0.01,0.0,-0.02,0.09,0.09,0.20250002,4.4190784,1.7225021,-0.806171,0.12783611,0.18369475,0.23841856,6.1104026,0.6460748,0.1090371,0,1,1,0
91012000,90890000,88532000,0,0.0,0.0,0.01,0.09,0.09,0.20250002,4.556754,1.7327209,-0.7556318,0.1300759,0.1846426,0.23640263,6.385197,0.6504071,0.09661135,0,1,1,0
91412000,91290000,88532000,0,0.0,0.0,-0.04,0.09,0.09,0.20250002,4.9263096,1.8660748,-0.6182752,0.13721377,0.20001408,0.23468332,7.074662,0.696398,0.06515405,0,1,1,0
91812000,91690000,88532000,0,0.0,0.0,0.0,0.09,0.09,0.20250002,5.3059373,1.9977248,-0.55845636,0.14521153,0.21680544,0.23236322,7.7550235,0.7363107,0.053687237,0,1,1,0
92204000,92090000,88532000,0,0.0,0.0,0.0,0.09,0.09,0.20250002,5.6789165,2.1307034,-0.46581408,0.15396506,0.23461565,0.23024662,8.378549,0.77401435,0.037695713,0,1,1,0
92604000,92490000,88532000,0,0.02,-0.01,-0.04,0.09,0.09,0.20250002,6.0457196,2.2727861,-0.3302415,0.1638325,0.25433576,0.22795196,8.923925,0.8123996,0.019137267,0,1,1,0
93012000,92890000,88532000,0,0.01,0.0,0.02,0.09,0.09,0.20250002,6.4547005,2.405333,-0.3005969,0.17502087,0.27622703,0.22587688,9.5218725,0.8378075,0.01600137,0,1,1,0
93412000,93290000,88532000,0,-0.01,-0.02,0.0,0.09,0.09,0.20250002,6.868973,2.568169,-0.20096979,0.18713973,0.29948062,0.22392772,10.085039,0.88092417,0.0072146235,0,1,1,0
93804000,93690000,88532000,0,0.0,0.0,-0.02,0.09,0.09,0.20250002,7.2497044,2.6980913,-0.11160712,0.2002407,0.32425785,0.22237726,10.499006,0.8980133,0.0022405437,0,1,1,0
94212000,94090000,88532000,0,0.01,0.0,0.03,0.09,0.09,0.20250002,7.650738,2.8585126,-0.094967715,0.21519758,0.35222176,0.22093995,10.880009,0.9279489,0.0016328179,0,1,1,0
94604000,94490000,88532000,0,-0.03,0.0,-0.03,0.09,0.09,0.20250002,8.088461,3.0176132,0.02389226,0.23091292,0.38127363,0.21965072,11.332965,0.95532334,0.000103954146,0,1,1,0
95012000,94890000,88532000,0,0.0,0.0,0.0,0.09,0.09,0.20250002,8.475167,3.1900399,0.050075483,0.24879313,0.41398567,0.2186598,11.548304,0.9832567,0.00045871327,0,1,1,0
95404000,95290000,88532000,0,-0.01,0.0,-0.01,0.09,0.09,0.20250002,8.889996,3.358989,0.1099583,0.2674985,0.44793445,0.21777505,11.817939,1.007541,0.0022207922,0,1,1,0
95804000,95690000,88532000,0,-0.01,0.0,0.01,0.09,0.09,0.20250002,9.30465,3.5389035,0.13763034,0.28827164,0.4851609,0.21709256,12.0131855,1.0325513,0.003490145,0,1,1,0
96212000,96090000,88532000,0,0.0,0.0,0.01,0.09,0.09,0.20250002,9.72127,3.7254703,0.1799487,0.311302,0.52602303,0.21668941,12.142945,1.0554008,0.005977502,0,1,1,0
96612000,96490000,88532000,0,0.0,-0.01,0.0,0.09,0.09,0.20250002,10.144254,3.9224873,0.22820562,0.3357885,0.56902146,0.21623138,12.258417,1.0815696,0.009633718,0,1,1,0
97012000,96890000,88532000,0,0.02,0.0,0.01,0.09,0.09,0.20250002,10.554294,4.102538,0.25315687,0.3590637,0.571949,0.21578404,12.4092865,1.1770853,0.011880102,0,1,1,0
97404000,97290000,88532000,0,0.02,0.0,0.0,0.09,0.09,0.20250002,10.975902,4.288701,0.29617706,0.38259357,0.56011736,0.21539703,12.595132,1.3135073,0.016290076,0,1,1,0
97812000,97690000,97732000,0,0.0,0.02,0.01,0.09,0.09,0.20250002,11.443629,4.465979,0.31549233,0.41074318,0.5699899,0.21502854,12.753141,1.3996717,0.018515758,0,1,1,0
98204000,98090000,98124000,0,0.01,0.01,0.03,0.09,0.09,0.20250002,0.4282337,0.20586663,0.018681204,0.18128602,0.18149233,0.40426874,0.04046293,0.009340576,3.4530236e-05,0,1,0,1
98604000,98490000,98524000,0,-0.01,-0.01,0.0,0.09,0.09,0.20250002,0.68034077,0.3253686,0.06656483,0.13746345,0.13789491,0.30124256,0.13468702,0.030708814,0.0005883467,0,1,0,1
99004000,98890000,98924000,0,-0.01,0.0,0.03,0.09,0.09,0.20250002,0.8903776,0.40684587,0.041943267,0.12417753,0.124873005,0.26530573,0.25536737,0.053021405,0.0002652393,0,1,0,1
99404000,99290000,99324000,0,0.01,-0.01,-0.03,0.09,0.09,0.20250002,1.0580461,0.50788647,0.11954198,0.11882507,0.1197801,0.24740438,0.37684354,0.08614074,0.0023104337,0,1,0,1
