timestamp,timestamp_sample,control[0],control[1],control[2],control[3],control[4],control[5],control[6],control[7],control[8],control[9],control[10],control[11],reversible_flags
3228000,3228000,0.0,0.0,0.0,0.0,nan,nan,nan,nan,nan,nan,nan,nan,0
3232000,3232000,5.5683354e-11,0.0,0.0,7.2759576e-11,nan,nan,nan,nan,nan,nan,nan,nan,0
3328000,3328000,1.36424205e-11,0.0,0.0,1.0428863e-12,nan,nan,nan,nan,nan,nan,nan,nan,0
3424000,3424000,0.0,0.0,1.1641532e-10,0.0,nan,nan,nan,nan,nan,nan,nan,nan,0
3528000,3528000,0.0020000003,0.0,0.0020000003,0.0,nan,nan,nan,nan,nan,nan,nan,nan,0
3628000,3628000,0.0020000003,0.0,0.0020000003,0.0,nan,nan,nan,nan,nan,nan,nan,nan,0
3728000,3728000,0.0020000031,0.0,0.0020000031,0.0,nan,nan,nan,nan,nan,nan,nan,nan,0
3824000,3824000,0.0020000008,1.8626451e-09,0.001999998,0.0,nan,nan,nan,nan,nan,nan,nan,nan,0
3924000,3924000,0.0020000022,0.0,0.0020000003,0.0,nan,nan,nan,nan,nan,nan,nan,nan,0
4024000,4024000,0.0020000003,0.0,0.0020000003,0.0,nan,nan,nan,nan,nan,nan,nan,nan,0
4124000,4124000,0.0019999994,0.0,0.0019999994,0.0,nan,nan,nan,nan,nan,nan,nan,nan,0
4228000,4228000,0.0020000022,0.0,0.0020000003,1.8626451e-09,nan,nan,nan,nan,nan,nan,nan,nan,0
4328000,4328000,0.0020000013,0.0,0.0019999975,0.0,nan,nan,nan,nan,nan,nan,nan,nan,0
4424000,4424000,0.0020000008,0.0,0.0020000008,0.0,nan,nan,nan,nan,nan,nan,nan,nan,0
4528000,4528000,0.001999997,0.0,0.0019999999,1.8626451e-09,nan,nan,nan,nan,nan,nan,nan,nan,0
4624000,4624000,0.0020000022,0.0,0.0020000022,0.0,nan,nan,nan,nan,nan,nan,nan,nan,0
4728000,4728000,0.0019999952,0.0,0.0019999999,3.7252903e-09,nan,nan,nan,nan,nan,nan,nan,nan,0
4828000,4828000,0.0020000013,0.0,0.0019999994,0.0,nan,nan,nan,nan,nan,nan,nan,nan,0
4928000,4928000,0.0020000003,0.0,0.0020000003,0.0,nan,nan,nan,nan,nan,nan,nan,nan,0
5028000,5028000,0.0020000017,0.0,0.0019999999,0.0,nan,nan,nan,nan,nan,nan,nan,nan,0
5128000,5128000,0.0020000015,3.7252903e-09,0.0019999954,0.0,nan,nan,nan,nan,nan,nan,nan,nan,0
5228000,5228000,0.0019999994,0.0,0.0019999994,0.0,nan,nan,nan,nan,nan,nan,nan,nan,0
5328000,5328000,0.0020000003,0.0,0.0020000003,0.0,nan,nan,nan,nan,nan,nan,nan,nan,0
5428000,5428000,0.0019999992,3.7252903e-09,0.0019999996,0.0,nan,nan,nan,nan,nan,nan,nan,nan,0
5524000,5524000,0.0020000031,0.0,0.0019999985,9.313226e-10,nan,nan,nan,nan,nan,nan,nan,nan,0
5624000,5624000,0.001999999,3.7252903e-09,0.0019999996,0.0,nan,nan,nan,nan,nan,nan,nan,nan,0
5724000,5724000,0.0019999975,1.8626451e-09,0.0019999994,0.0,nan,nan,nan,nan,nan,nan,nan,nan,0
5824000,5824000,0.0020000003,0.0,0.0020000003,0.0,nan,nan,nan,nan,nan,nan,nan,nan,0
5928000,5928000,0.0020000017,1.8626451e-09,0.001999997,0.0,nan,nan,nan,nan,nan,nan,nan,nan,0
6024000,6024000,0.002000001,1.8626451e-09,0.001999998,0.0,nan,nan,nan,nan,nan,nan,nan,nan,0
6128000,6128000,0.0019999994,0.0,0.0020000013,0.0,nan,nan,nan,nan,nan,nan,nan,nan,0
6228000,6228000,0.0019999994,0.0,0.0020000013,0.0,nan,nan,nan,nan,nan,nan,nan,nan,0
6328000,6328000,0.0019999994,0.0,0.0020000013,0.0,nan,nan,nan,nan,nan,nan,nan,nan,0
6428000,6428000,0.0020000036,1.8626451e-09,0.001999999,0.0,nan,nan,nan,nan,nan,nan,nan,nan,0
6528000,6528000,0.0019999994,0.0,0.0020000013,0.0,nan,nan,nan,nan,nan,nan,nan,nan,0
6628000,6628000,0.0019999968,0.0,0.002000001,9.313226e-10,nan,nan,nan,nan,nan,nan,nan,nan,0
6728000,6728000,0.0019999975,9.313226e-10,0.0020000022,0.0,nan,nan,nan,nan,nan,nan,nan,nan,0
6828000,6828000,0.0020000045,9.313226e-10,0.001999999,0.0,nan,nan,nan,nan,nan,nan,nan,nan,0
6928000,6928000,0.0019999985,1.8626451e-09,0.0019999985,0.0,nan,nan,nan,nan,nan,nan,nan,nan,0
7028000,7028000,0.0020000027,0.0,0.001999999,0.0,nan,nan,nan,nan,nan,nan,nan,nan,0
7128000,7128000,0.002000002,1.8626451e-09,0.0019999968,0.0,nan,nan,nan,nan,nan,nan,nan,nan,0
7224000,7224000,0.0019999994,0.0,0.0020000013,0.0,nan,nan,nan,nan,nan,nan,nan,nan,0
7328000,7328000,0.0019999975,1.8626451e-09,0.0019999994,0.0,nan,nan,nan,nan,nan,nan,nan,nan,0
7424000,7424000,0.0020000013,0.0,0.0019999994,0.0,nan,nan,nan,nan,nan,nan,nan,nan,0
7528000,7528000,0.002000002,0.0,0.0019999999,0.0,nan,nan,nan,nan,nan,nan,nan,nan,0
7628000,7628000,0.0019999994,1.8626451e-09,0.0019999996,0.0,nan,nan,nan,nan,nan,nan,nan,nan,0
7728000,7728000,0.0020000008,1.8626451e-09,0.0019999978,0.0,nan,nan,nan,nan,nan,nan,nan,nan,0
7828000,7828000,0.0019999992,1.8626451e-09,0.0019999996,0.0,nan,nan,nan,nan,nan,nan,nan,nan,0
7928000,7928000,0.0019999999,0.0,0.0020000017,0.0,nan,nan,nan,nan,nan,nan,nan,nan,0
8028000,8028000,0.0019999994,1.8626451e-09,0.0020000013,0.0,nan,nan,nan,nan,nan,nan,nan,nan,0
8124000,8124000,0.0019999994,0.0,0.0020000013,0.0,nan,nan,nan,nan,nan,nan,nan,nan,0
8228000,8228000,0.0019999994,0.0,0.0020000013,0.0,nan,nan,nan,nan,nan,nan,nan,nan,0
8328000,8328000,0.0019999994,0.0,0.0020000013,0.0,nan,nan,nan,nan,nan,nan,nan,nan,0
8428000,8428000,0.0020000013,0.0,0.0020000013,0.0,nan,nan,nan,nan,nan,nan,nan,nan,0
8528000,8528000,0.0019999994,0.0,0.0019999994,0.0,nan,nan,nan,nan,nan,nan,nan,nan,0
8628000,8628000,0.002000001,0.0,0.0019999987,0.0,nan,nan,nan,nan,nan,nan,nan,nan,0
8728000,8728000,0.0020000022,0.0,0.0020000003,0.0,nan,nan,nan,nan,nan,nan,nan,nan,0
8828000,8828000,0.0020000022,0.0,0.0019999985,0.0,nan,nan,nan,nan,nan,nan,nan,nan,0
8928000,8928000,0.0020000013,0.0,0.0019999994,0.0,nan,nan,nan,nan,nan,nan,nan,nan,0
9028000,9028000,0.0019999994,1.8626451e-09,0.0019999978,0.0,nan,nan,nan,nan,nan,nan,nan,nan,0
9128000,9128000,0.0019999994,0.0,0.0019999994,0.0,nan,nan,nan,nan,nan,nan,nan,nan,0
9228000,9228000,0.0019999994,0.0,0.0020000013,0.0,nan,nan,nan,nan,nan,nan,nan,nan,0
9328000,9328000,0.0019999994,0.0,0.0020000013,0.0,nan,nan,nan,nan,nan,nan,nan,nan,0
9428000,9428000,0.0019999994,0.0,0.0020000013,0.0,nan,nan,nan,nan,nan,nan,nan,nan,0
9528000,9528000,0.0019999999,0.0,0.0020000017,0.0,nan,nan,nan,nan,nan,nan,nan,nan,0
9628000,9628000,0.002000001,1.8626451e-09,0.0019999978,0.0,nan,nan,nan,nan,nan,nan,nan,nan,0
9728000,9728000,0.0019999992,1.8626451e-09,0.0019999996,0.0,nan,nan,nan,nan,nan,nan,nan,nan,0
9824000,9824000,0.0020000013,0.0,0.0019999994,0.0,nan,nan,nan,nan,nan,nan,nan,nan,0
9924000,9924000,0.0019999985,0.0,0.0020000022,0.0,nan,nan,nan,nan,nan,nan,nan,nan,0
10024000,10024000,0.0020000027,1.8626451e-09,0.001999998,0.0,nan,nan,nan,nan,nan,nan,nan,nan,0
10128000,10128000,0.0019999992,1.8626451e-09,0.0019999996,0.0,nan,nan,nan,nan,nan,nan,nan,nan,0
10224000,10224000,0.0020000013,0.0,0.0019999994,0.0,nan,nan,nan,nan,nan,nan,nan,nan,0
10328000,10328000,0.0020000031,0.0,0.0019999975,0.0,nan,nan,nan,nan,nan,nan,nan,nan,0
10428000,10428000,0.0020000013,0.0,0.0019999994,0.0,nan,nan,nan,nan,nan,nan,nan,nan,0
10524000,10524000,0.002,0.0,0.0020000017,0.0,nan,nan,nan,nan,nan,nan,nan,nan,0
10624000,10624000,0.0020000013,0.0,0.0020000013,0.0,nan,nan,nan,nan,nan,nan,nan,nan,0
10728000,10728000,0.0019999978,9.313226e-10,0.0020000003,0.0,nan,nan,nan,nan,nan,nan,nan,nan,0
10828000,10828000,0.0020000003,0.0,0.0020000003,0.0,nan,nan,nan,nan,nan,nan,nan,nan,0
10928000,10928000,0.0019999973,3.7252903e-09,0.0019999978,0.0,nan,nan,nan,nan,nan,nan,nan,nan,0
11024000,11024000,0.0019999992,1.8626451e-09,0.0019999978,0.0,nan,nan,nan,nan,nan,nan,nan,nan,0
11124000,11124000,0.0020000027,1.8626451e-09,0.0019999961,0.0,nan,nan,nan,nan,nan,nan,nan,nan,0
11228000,11228000,0.0019999994,0.0,0.0019999994,0.0,nan,nan,nan,nan,nan,nan,nan,nan,0
11328000,11328000,0.0020000036,3.7252903e-09,0.0019999973,0.0,nan,nan,nan,nan,nan,nan,nan,nan,0
11424000,11424000,0.0019999996,0.0,0.0019999992,1.8626451e-09,nan,nan,nan,nan,nan,nan,nan,nan,0
11528000,11528000,0.0020000013,0.0,0.0019999994,0.0,nan,nan,nan,nan,nan,nan,nan,nan,0
11628000,11628000,0.0020000003,0.0,0.0019999985,0.0,nan,nan,nan,nan,nan,nan,nan,nan,0
11724000,11724000,0.0020000017,0.0,0.0019999996,0.0,nan,nan,nan,nan,nan,nan,nan,nan,0
11824000,11824000,0.0019999994,0.0,0.0020000013,0.0,nan,nan,nan,nan,nan,nan,nan,nan,0
11924000,11924000,0.0020000017,0.0,0.0019999999,0.0,nan,nan,nan,nan,nan,nan,nan,nan,0
12028000,12028000,0.0019999994,0.0,0.0020000013,0.0,nan,nan,nan,nan,nan,nan,nan,nan,0
12128000,12128000,0.0019999999,0.0,0.0020000015,0.0,nan,nan,nan,nan,nan,nan,nan,nan,0
12228000,12228000,0.0020000027,1.8626451e-09,0.001999998,0.0,nan,nan,nan,nan,nan,nan,nan,nan,0
12328000,12328000,0.001999999,0.0,0.001999999,0.0,nan,nan,nan,nan,nan,nan,nan,nan,0
12428000,12428000,0.0019999994,0.0,0.0020000013,0.0,nan,nan,nan,nan,nan,nan,nan,nan,0
12528000,12528000,0.0019999996,0.0,0.002000002,0.0,nan,nan,nan,nan,nan,nan,nan,nan,0
12628000,12628000,0.0020000013,0.0,0.0019999994,0.0,nan,nan,nan,nan,nan,nan,nan,nan,0
12724000,12724000,0.0019999992,1.8626451e-09,0.0019999996,0.0,nan,nan,nan,nan,nan,nan,nan,nan,0
12828000,12828000,0.0019999994,0.0,0.0019999994,0.0,nan,nan,nan,nan,nan,nan,nan,nan,0
12924000,12924000,0.0019999994,0.0,0.0020000013,0.0,nan,nan,nan,nan,nan,nan,nan,nan,0
13028000,13028000,0.0019999961,0.0,0.0020000008,1.8626451e-09,nan,nan,nan,nan,nan,nan,nan,nan,0
13124000,13124000,0.0020000015,0.0,0.0019999999,0.0,nan,nan,nan,nan,nan,nan,nan,nan,0
13228000,13228000,0.0020000008,3.7252903e-09,0.0019999945,0.0,nan,nan,nan,nan,nan,nan,nan,nan,0
13328000,13328000,0.0019999994,0.0,0.0020000013,0.0,nan,nan,nan,nan,nan,nan,nan,nan,0
13428000,13428000,0.0020000017,0.0,0.0019999996,0.0,nan,nan,nan,nan,nan,nan,nan,nan,0
13528000,13528000,0.002000001,1.8626451e-09,0.0019999978,0.0,nan,nan,nan,nan,nan,nan,nan,nan,0
13628000,13628000,0.0020000017,0.0,0.0019999999,0.0,nan,nan,nan,nan,nan,nan,nan,nan,0
13724000,13724000,0.0019999994,0.0,0.0020000013,0.0,nan,nan,nan,nan,nan,nan,nan,nan,0
13828000,13828000,0.0020000027,1.8626451e-09,0.001999998,0.0,nan,nan,nan,nan,nan,nan,nan,nan,0
13924000,13924000,0.0019999999,0.0,0.0020000017,0.0,nan,nan,nan,nan,nan,nan,nan,nan,0
14028000,14028000,0.0019999996,0.0,0.0019999992,1.8626451e-09,nan,nan,nan,nan,nan,nan,nan,nan,0
14128000,14128000,0.0020000013,0.0,0.0019999994,0.0,nan,nan,nan,nan,nan,nan,nan,nan,0
14228000,14228000,0.030984154,0.017688684,0.0449448,0.0028656153,nan,nan,nan,nan,nan,nan,nan,nan,0
14328000,14328000,0.045052316,0.032807138,0.059728067,0.01701167,nan,nan,nan,nan,nan,nan,nan,nan,0
14428000,14428000,0.063665986,0.04944427,0.07798124,0.034285225,nan,nan,nan,nan,nan,nan,nan,nan,0
14524000,14524000,0.08029025,0.069632895,0.0952218,0.05350547,nan,nan,nan,nan,nan,nan,nan,nan,0
14628000,14628000,0.102642685,0.09026465,0.11814936,0.073394604,nan,nan,nan,nan,nan,nan,nan,nan,0
14728000,14728000,0.124780476,0.11200095,0.13762918,0.096488744,nan,nan,nan,nan,nan,nan,nan,nan,0
14824000,14824000,0.14655833,0.13515967,0.16258128,0.11971671,nan,nan,nan,nan,nan,nan,nan,nan,0
14924000,14924000,0.17342278,0.16327262,0.18890141,0.14785609,nan,nan,nan,nan,nan,nan,nan,nan,0
15028000,15028000,0.20324284,0.19285616,0.22285606,0.17223318,nan,nan,nan,nan,nan,nan,nan,nan,0
15128000,15128000,0.23233543,0.22142507,0.25435284,0.1986043,nan,nan,nan,nan,nan,nan,nan,nan,0
15228000,15228000,0.26538658,0.2546972,0.29151508,0.2275553,nan,nan,nan,nan,nan,nan,nan,nan,0
15324000,15324000,0.2986348,0.28578597,0.32657674,0.25791383,nan,nan,nan,nan,nan,nan,nan,nan,0
15428000,15428000,0.3347687,0.3213488,0.3656193,0.29141265,nan,nan,nan,nan,nan,nan,nan,nan,0
15524000,15524000,0.34246254,0.33064568,0.37455916,0.29697168,nan,nan,nan,nan,nan,nan,nan,nan,0
15628000,15628000,0.353544,0.34443483,0.39082715,0.3078514,nan,nan,nan,nan,nan,nan,nan,nan,0
15728000,15728000,0.36549175,0.35172558,0.40308776,0.31261942,nan,nan,nan,nan,nan,nan,nan,nan,0
15828000,15828000,0.37852082,0.3650925,0.41891116,0.3244852,nan,nan,nan,nan,nan,nan,nan,nan,0
15928000,15928000,0.38928065,0.37408245,0.4319552,0.33150595,nan,nan,nan,nan,nan,nan,nan,nan,0
16028000,16028000,0.4039613,0.38968745,0.44922188,0.3446192,nan,nan,nan,nan,nan,nan,nan,nan,0
16124000,16124000,0.41564867,0.40086555,0.46237472,0.35270596,nan,nan,nan,nan,nan,nan,nan,nan,0
16224000,16224000,0.43220717,0.41698632,0.4816387,0.3651878,nan,nan,nan,nan,nan,nan,nan,nan,0
16328000,16328000,0.44407493,0.42875853,0.4955758,0.3752369,nan,nan,nan,nan,nan,nan,nan,nan,0
16428000,16428000,0.46137315,0.44516343,0.5177388,0.3887932,nan,nan,nan,nan,nan,nan,nan,nan,0
16528000,16528000,0.47479728,0.45829663,0.53374255,0.39974487,nan,nan,nan,nan,nan,nan,nan,nan,0
16624000,16624000,0.49455544,0.47635362,0.5550002,0.41417328,nan,nan,nan,nan,nan,nan,nan,nan,0
16724000,16724000,0.5096209,0.48920617,0.5718443,0.42531806,nan,nan,nan,nan,nan,nan,nan,nan,0
16828000,16828000,0.5281166,0.5090156,0.5929669,0.4438579,nan,nan,nan,nan,nan,nan,nan,nan,0
16924000,16924000,0.5431633,0.5243906,0.6114815,0.45554408,nan,nan,nan,nan,nan,nan,nan,nan,0
17028000,17028000,0.5648248,0.543899,0.63629955,0.47154844,nan,nan,nan,nan,nan,nan,nan,nan,0
17124000,17124000,0.581529,0.5595045,0.6537842,0.4857592,nan,nan,nan,nan,nan,nan,nan,nan,0
17224000,17224000,0.6266256,0.60627323,0.70424205,0.5273529,nan,nan,nan,nan,nan,nan,nan,nan,0
17328000,17328000,0.6466419,0.62273026,0.72591656,0.54237306,nan,nan,nan,nan,nan,nan,nan,nan,0
17428000,17428000,0.6686993,0.6457173,0.7492432,0.56400234,nan,nan,nan,nan,nan,nan,nan,nan,0
17528000,17528000,0.6869168,0.66339606,0.77116835,0.57740945,nan,nan,nan,nan,nan,nan,nan,nan,0
17628000,17628000,0.71727,0.6724377,0.7829064,0.6053099,nan,nan,nan,nan,nan,nan,nan,nan,0
17728000,17728000,0.724978,0.68344337,0.7686764,0.64673877,nan,nan,nan,nan,nan,nan,nan,nan,0
17828000,17828000,0.7251874,0.70242757,0.7437106,0.7104081,nan,nan,nan,nan,nan,nan,nan,nan,0
17928000,17928000,0.72629195,0.7322318,0.7072435,0.75963587,nan,nan,nan,nan,nan,nan,nan,nan,0
18028000,18028000,0.7369564,0.7495769,0.7280857,0.7616333,nan,nan,nan,nan,nan,nan,nan,nan,0
18124000,18124000,0.7471147,0.746078,0.7497268,0.7456872,nan,nan,nan,nan,nan,nan,nan,nan,0
18228000,18228000,0.75846136,0.74448854,0.7648466,0.73992395,nan,nan,nan,nan,nan,nan,nan,nan,0
18328000,18328000,0.7583203,0.7406634,0.7618121,0.7386642,nan,nan,nan,nan,nan,nan,nan,nan,0
18428000,18428000,0.7430607,0.73301876,0.74563617,0.7318004,nan,nan,nan,nan,nan,nan,nan,nan,0
18528000,18528000,0.7212561,0.7178147,0.7242547,0.7165995,nan,nan,nan,nan,nan,nan,nan,nan,0
18628000,18628000,0.7107693,0.70535594,0.7121317,0.7061714,nan,nan,nan,nan,nan,nan,nan,nan,0
18728000,18728000,0.7199881,0.71434927,0.7227598,0.71267337,nan,nan,nan,nan,nan,nan,nan,nan,0
18828000,18828000,0.72748923,0.7192094,0.7276055,0.7173039,nan,nan,nan,nan,nan,nan,nan,nan,0
18928000,18928000,0.7261184,0.71847576,0.7273644,0.7163743,nan,nan,nan,nan,nan,nan,nan,nan,0
19028000,19028000,0.7270027,0.7192321,0.7266362,0.7176878,nan,nan,nan,nan,nan,nan,nan,nan,0
19128000,19128000,0.72387385,0.7174416,0.72245187,0.71651864,nan,nan,nan,nan,nan,nan,nan,nan,0
19228000,19228000,0.723937,0.7186807,0.72407365,0.7158413,nan,nan,nan,nan,nan,nan,nan,nan,0
19328000,19328000,0.72220606,0.71486986,0.7238544,0.7140203,nan,nan,nan,nan,nan,nan,nan,nan,0
19428000,19428000,0.7213763,0.7171186,0.7227813,0.7156998,nan,nan,nan,nan,nan,nan,nan,nan,0
19528000,19528000,0.71868575,0.7147498,0.71962565,0.713525,nan,nan,nan,nan,nan,nan,nan,nan,0
19628000,19628000,0.72051096,0.7145828,0.7195173,0.71481925,nan,nan,nan,nan,nan,nan,nan,nan,0
19728000,19728000,0.71857625,0.7119746,0.71800774,0.7139733,nan,nan,nan,nan,nan,nan,nan,nan,0
19828000,19828000,0.7201394,0.71255654,0.7181178,0.7137493,nan,nan,nan,nan,nan,nan,nan,nan,0
19924000,19924000,0.7159556,0.7108598,0.7153613,0.7108874,nan,nan,nan,nan,nan,nan,nan,nan,0
20024000,20024000,0.737726,0.7007576,0.72145045,0.7139838,nan,nan,nan,nan,nan,nan,nan,nan,0
20128000,20128000,0.75066507,0.7222292,0.7411416,0.73144567,nan,nan,nan,nan,nan,nan,nan,nan,0
20228000,20228000,0.75047433,0.7492778,0.7517716,0.74795604,nan,nan,nan,nan,nan,nan,nan,nan,0
20328000,20328000,0.74981177,0.76089346,0.7550801,0.7563602,nan,nan,nan,nan,nan,nan,nan,nan,0
20428000,20428000,0.7541794,0.75389254,0.75594103,0.754602,nan,nan,nan,nan,nan,nan,nan,nan,0
20528000,20528000,0.75962555,0.7509873,0.7589115,0.7528238,nan,nan,nan,nan,nan,nan,nan,nan,0
20624000,20624000,0.75598747,0.7571105,0.75912356,0.7543662,nan,nan,nan,nan,nan,nan,nan,nan,0
20728000,20728000,0.7362369,0.7556809,0.7376184,0.75162303,nan,nan,nan,nan,nan,nan,nan,nan,0
20828000,20828000,0.75595826,0.7373927,0.751252,0.73463196,nan,nan,nan,nan,nan,nan,nan,nan,0
20928000,20928000,0.76138455,0.73291737,0.7537314,0.7361824,nan,nan,nan,nan,nan,nan,nan,nan,0
21028000,21028000,0.72310996,0.7226478,0.7265307,0.71713376,nan,nan,nan,nan,nan,nan,nan,nan,0
21128000,21128000,0.68011045,0.70992357,0.6949516,0.7003714,nan,nan,nan,nan,nan,nan,nan,nan,0
21228000,21228000,0.6946731,0.6787526,0.68736726,0.6876227,nan,nan,nan,nan,nan,nan,nan,nan,0
21328000,21328000,0.7281449,0.69317883,0.71461576,0.701898,nan,nan,nan,nan,nan,nan,nan,nan,0
21428000,21428000,0.7261046,0.7322888,0.7300994,0.72345304,nan,nan,nan,nan,nan,nan,nan,nan,0
21528000,21528000,0.7045707,0.74652815,0.7259309,0.7302099,nan,nan,nan,nan,nan,nan,nan,nan,0
21628000,21628000,0.74657303,0.7235171,0.7396912,0.73137814,nan,nan,nan,nan,nan,nan,nan,nan,0
21728000,21728000,0.7640463,0.70816195,0.74384785,0.72595423,nan,nan,nan,nan,nan,nan,nan,nan,0
21828000,21828000,0.73596096,0.72738457,0.73544323,0.72503054,nan,nan,nan,nan,nan,nan,nan,nan,0
21928000,21928000,0.6948078,0.7272348,0.7079379,0.7122615,nan,nan,nan,nan,nan,nan,nan,nan,0
22024000,22024000,0.71715766,0.7009978,0.71049,0.70433277,nan,nan,nan,nan,nan,nan,nan,nan,0
22128000,22128000,0.7369215,0.6883453,0.720466,0.7029925,nan,nan,nan,nan,nan,nan,nan,nan,0
22228000,22228000,0.719813,0.704035,0.7134735,0.7030804,nan,nan,nan,nan,nan,nan,nan,nan,0
22328000,22328000,0.68671477,0.6935851,0.6906287,0.68916035,nan,nan,nan,nan,nan,nan,nan,nan,0
22428000,22428000,0.69341695,0.68557256,0.6898932,0.68754196,nan,nan,nan,nan,nan,nan,nan,nan,0
22528000,22528000,0.7043605,0.684938,0.69975686,0.68976897,nan,nan,nan,nan,nan,nan,nan,nan,0
22628000,22628000,0.7052089,0.6852488,0.70099664,0.69035,nan,nan,nan,nan,nan,nan,nan,nan,0
22728000,22728000,0.67598593,0.6688319,0.67530817,0.67000926,nan,nan,nan,nan,nan,nan,nan,nan,0
22828000,22828000,0.667708,0.674385,0.6721662,0.6713346,nan,nan,nan,nan,nan,nan,nan,nan,0
22928000,22928000,0.673341,0.68231624,0.678777,0.6777357,nan,nan,nan,nan,nan,nan,nan,nan,0
23028000,23028000,0.6850522,0.6730087,0.68194854,0.67623335,nan,nan,nan,nan,nan,nan,nan,nan,0
23128000,23128000,0.6668552,0.64773905,0.6637291,0.6544267,nan,nan,nan,nan,nan,nan,nan,nan,0
23228000,23228000,0.6494183,0.66581416,0.6598184,0.65891224,nan,nan,nan,nan,nan,nan,nan,nan,0
23328000,23328000,0.65201074,0.6783177,0.6660845,0.666419,nan,nan,nan,nan,nan,nan,nan,nan,0
23428000,23428000,0.67580456,0.6565063,0.6683712,0.66468173,nan,nan,nan,nan,nan,nan,nan,nan,0
23528000,23528000,0.6631677,0.6415272,0.6592755,0.64919454,nan,nan,nan,nan,nan,nan,nan,nan,0
23628000,23628000,0.64400285,0.6707846,0.66151863,0.65646493,nan,nan,nan,nan,nan,nan,nan,nan,0
23724000,23724000,0.647391,0.6890794,0.6671619,0.6709485,nan,nan,nan,nan,nan,nan,nan,nan,0
23828000,23828000,0.6855593,0.66588354,0.6784046,0.6748509,nan,nan,nan,nan,nan,nan,nan,nan,0
23928000,23928000,0.6868594,0.65620786,0.6783256,0.6671464,nan,nan,nan,nan,nan,nan,nan,nan,0
24028000,24028000,0.65959257,0.6897169,0.6819413,0.6748359,nan,nan,nan,nan,nan,nan,nan,nan,0
24124000,24124000,0.6575241,0.7097131,0.6818411,0.6893112,nan,nan,nan,nan,nan,nan,nan,nan,0
24228000,24228000,0.6951538,0.68780863,0.69164133,0.69493324,nan,nan,nan,nan,nan,nan,nan,nan,0
24324000,24324000,0.716795,0.66834056,0.69955045,0.68569374,nan,nan,nan,nan,nan,nan,nan,nan,0
24428000,24428000,0.67975545,0.7068008,0.698583,0.6910093,nan,nan,nan,nan,nan,nan,nan,nan,0
24524000,24524000,0.6662359,0.7250735,0.69600374,0.7025289,nan,nan,nan,nan,nan,nan,nan,nan,0
24628000,24628000,0.71828634,0.69072133,0.70578456,0.70502365,nan,nan,nan,nan,nan,nan,nan,nan,0
24724000,24724000,0.73525447,0.6881603,0.7187658,0.7053906,nan,nan,nan,nan,nan,nan,nan,nan,0
24828000,24828000,0.69529504,0.7264665,0.7150252,0.70982766,nan,nan,nan,nan,nan,nan,nan,nan,0
24928000,24928000,0.6817384,0.73536706,0.7080096,0.7168735,nan,nan,nan,nan,nan,nan,nan,nan,0
25028000,25028000,0.7328181,0.6982645,0.7175464,0.71581715,nan,nan,nan,nan,nan,nan,nan,nan,0
25124000,25124000,0.7519134,0.70141673,0.73592526,0.71955186,nan,nan,nan,nan,nan,nan,nan,nan,0
25228000,25228000,0.7071729,0.73672605,0.72763246,0.7230883,nan,nan,nan,nan,nan,nan,nan,nan,0
25328000,25328000,0.68829906,0.7440499,0.7156135,0.7239834,nan,nan,nan,nan,nan,nan,nan,nan,0
25428000,25428000,0.7272386,0.7088421,0.7197832,0.72072375,nan,nan,nan,nan,nan,nan,nan,nan,0
25528000,25528000,0.7040536,0.61403716,0.8168525,0.81039953,nan,nan,nan,nan,nan,nan,nan,nan,0
25628000,25628000,0.611448,0.61644626,0.8449471,0.84049106,nan,nan,nan,nan,nan,nan,nan,nan,0
25724000,25724000,0.60533583,0.6590747,0.79909486,0.7993753,nan,nan,nan,nan,nan,nan,nan,nan,0
25828000,25828000,0.6792469,0.6428461,0.7697227,0.78180075,nan,nan,nan,nan,nan,nan,nan,nan,0
25928000,25928000,0.7449907,0.6897503,0.7637684,0.7706881,nan,nan,nan,nan,nan,nan,nan,nan,0
26028000,26028000,0.7135869,0.7242484,0.7619642,0.7574096,nan,nan,nan,nan,nan,nan,nan,nan,0
26128000,26128000,0.70502687,0.73546225,0.74240893,0.72858,nan,nan,nan,nan,nan,nan,nan,nan,0
26228000,26228000,0.7256759,0.6969501,0.7397767,0.73899055,nan,nan,nan,nan,nan,nan,nan,nan,0
26324000,26324000,0.7728103,0.7198192,0.7622487,0.76917326,nan,nan,nan,nan,nan,nan,nan,nan,0
26428000,26428000,0.72909695,0.7398606,0.7786675,0.7606662,nan,nan,nan,nan,nan,nan,nan,nan,0
26528000,26528000,0.71472555,0.73990303,0.756263,0.7340229,nan,nan,nan,nan,nan,nan,nan,nan,0
26624000,26624000,0.74237907,0.72935206,0.72444844,0.7326854,nan,nan,nan,nan,nan,nan,nan,nan,0
26728000,26728000,0.16446456,0.15379414,0.34822518,0.6937796,nan,nan,nan,nan,nan,nan,nan,nan,0
26828000,26828000,0.14289258,0.0,0.30584058,0.73958635,nan,nan,nan,nan,nan,nan,nan,nan,0
26924000,26924000,0.14207423,0.0,0.17978343,0.6402663,nan,nan,nan,nan,nan,nan,nan,nan,0
27028000,27028000,0.055567056,0.0,0.13569671,0.5458844,nan,nan,nan,nan,nan,nan,nan,nan,0
27128000,27128000,0.0,0.016012058,0.13456327,0.5022339,nan,nan,nan,nan,nan,nan,nan,nan,0
27228000,27228000,0.0,0.1491552,0.042007625,0.30094272,nan,nan,nan,nan,nan,nan,nan,nan,0
27328000,27328000,0.0,0.18119216,0.025494725,0.27331308,nan,nan,nan,nan,nan,nan,nan,nan,0
27424000,27424000,0.0,0.20074552,0.017017841,0.2622366,nan,nan,nan,nan,nan,nan,nan,nan,0
27528000,27528000,0.0,0.23817566,0.00079089403,0.24103338,nan,nan,nan,nan,nan,nan,nan,nan,0
27628000,27628000,0.0,0.23999998,0.0,0.24000001,nan,nan,nan,nan,nan,nan,nan,nan,0
27728000,27728000,0.0,0.23999998,0.0,0.24000001,nan,nan,nan,nan,nan,nan,nan,nan,0
27824000,27824000,0.0,0.23999998,0.0,0.24000001,nan,nan,nan,nan,nan,nan,nan,nan,0
27924000,27924000,0.0,0.24447149,0.013627231,0.29371113,nan,nan,nan,nan,nan,nan,nan,nan,0
28028000,28028000,0.0,0.27403295,0.0,0.27403295,nan,nan,nan,nan,nan,nan,nan,nan,0
28128000,28128000,0.0,0.27207255,0.0,0.2720725,nan,nan,nan,nan,nan,nan,nan,nan,0
28228000,28228000,0.0,0.2682765,0.0086070895,0.2993769,nan,nan,nan,nan,nan,nan,nan,nan,0
28328000,28328000,0.0,0.26740366,0.038538396,0.40665567,nan,nan,nan,nan,nan,nan,nan,nan,0
28428000,28428000,0.0,0.2655641,0.058622137,0.47738537,nan,nan,nan,nan,nan,nan,nan,nan,0
28528000,28528000,2.9802322e-08,0.26543427,0.069739014,0.5174246,nan,nan,nan,nan,nan,nan,nan,nan,0
28628000,28628000,0.0,0.24568027,0.0940699,0.58558613,nan,nan,nan,nan,nan,nan,nan,nan,0
28724000,28724000,0.0,0.16822657,0.17456853,0.79900086,nan,nan,nan,nan,nan,nan,nan,nan,0
28828000,28828000,0.0,0.077786356,0.2541227,1.0,nan,nan,nan,nan,nan,nan,nan,nan,0
28928000,28928000,0.0,0.0,0.22963974,1.0,nan,nan,nan,nan,nan,nan,nan,nan,0
29028000,29028000,0.07390709,0.0,0.09667538,1.0,nan,nan,nan,nan,nan,nan,nan,nan,0
29124000,29124000,0.30073577,0.14647856,0.0,1.0,nan,nan,nan,nan,nan,nan,nan,nan,0
29228000,29228000,0.31861258,0.15179588,0.0,1.0,nan,nan,nan,nan,nan,nan,nan,nan,0
29324000,29324000,0.32275522,0.14765291,0.0,1.0,nan,nan,nan,nan,nan,nan,nan,nan,0
29428000,29428000,0.32068163,0.14972651,0.0,1.0,nan,nan,nan,nan,nan,nan,nan,nan,0
29528000,29528000,0.30750132,0.16290681,0.0,1.0,nan,nan,nan,nan,nan,nan,nan,nan,0
29628000,29628000,0.30789283,0.16251549,0.0,1.0,nan,nan,nan,nan,nan,nan,nan,nan,0
29728000,29728000,0.32293522,0.14747308,0.0,1.0,nan,nan,nan,nan,nan,nan,nan,nan,0
29824000,29824000,0.34415773,0.12625054,0.0,1.0,nan,nan,nan,nan,nan,nan,nan,nan,0
29924000,29924000,0.35832995,0.2601456,0.14806724,1.0,nan,nan,nan,nan,nan,nan,nan,nan,0
30028000,30028000,0.36604542,0.31024045,0.20587748,1.0,nan,nan,nan,nan,nan,nan,nan,nan,0
30128000,30128000,0.35999417,0.31328487,0.20287085,1.0,nan,nan,nan,nan,nan,nan,nan,nan,0
30228000,30228000,0.35627127,0.3320384,0.21790135,1.0,nan,nan,nan,nan,nan,nan,nan,nan,0
30324000,30324000,0.3460924,0.37245047,0.24813461,1.0,nan,nan,nan,nan,nan,nan,nan,nan,0
30428000,30428000,0.3527969,0.4433022,0.32569095,1.0,nan,nan,nan,nan,nan,nan,nan,nan,0
30528000,30528000,0.3732953,0.55695355,0.45984042,1.0,nan,nan,nan,nan,nan,nan,nan,nan,0
30628000,30628000,0.5133432,0.68966806,0.7326031,1.0,nan,nan,nan,nan,nan,nan,nan,nan,0
30724000,30724000,0.6235963,0.5536981,1.0,0.8692943,nan,nan,nan,nan,nan,nan,nan,nan,0
30828000,30828000,0.68533957,0.53561616,1.0,0.91295564,nan,nan,nan,nan,nan,nan,nan,nan,0
30928000,30928000,0.69477767,0.5727901,1.0,0.9595678,nan,nan,nan,nan,nan,nan,nan,nan,0
31028000,31028000,0.62972116,0.61660427,1.0,0.93832517,nan,nan,nan,nan,nan,nan,nan,nan,0
31128000,31128000,0.84046185,0.849431,1.0,0.9762256,nan,nan,nan,nan,nan,nan,nan,nan,0
31228000,31228000,0.96690184,0.9162959,0.8360925,0.82060224,nan,nan,nan,nan,nan,nan,nan,nan,0
31328000,31328000,0.86942375,0.844433,0.6223755,0.74868125,nan,nan,nan,nan,nan,nan,nan,nan,0
31428000,31428000,0.7880112,0.81278193,0.5715144,0.68909925,nan,nan,nan,nan,nan,nan,nan,nan,0
31528000,31528000,0.76031506,0.79338366,0.6042948,0.63751537,nan,nan,nan,nan,nan,nan,nan,nan,0
31628000,31628000,0.7453133,0.7725166,0.6310465,0.63235337,nan,nan,nan,nan,nan,nan,nan,nan,0
31728000,31728000,0.73206127,0.75584006,0.64838034,0.6496332,nan,nan,nan,nan,nan,nan,nan,nan,0
31828000,31828000,0.7281847,0.7316355,0.67124873,0.6655395,nan,nan,nan,nan,nan,nan,nan,nan,0
31928000,31928000,0.71808815,0.7197188,0.6796648,0.6820027,nan,nan,nan,nan,nan,nan,nan,nan,0
32028000,32028000,0.70128393,0.7216409,0.6812309,0.70082,nan,nan,nan,nan,nan,nan,nan,nan,0
32128000,32128000,0.696682,0.719963,0.6859836,0.7106651,nan,nan,nan,nan,nan,nan,nan,nan,0
32228000,32228000,0.70788556,0.7077808,0.7030715,0.70297205,nan,nan,nan,nan,nan,nan,nan,nan,0
32328000,32328000,0.70893013,0.6984777,0.7060239,0.69929504,nan,nan,nan,nan,nan,nan,nan,nan,0
32428000,32428000,0.6991442,0.7070549,0.69846004,0.70880646,nan,nan,nan,nan,nan,nan,nan,nan,0
32528000,32528000,0.69831693,0.70993924,0.69817334,0.7130013,nan,nan,nan,nan,nan,nan,nan,nan,0
32628000,32628000,0.7068741,0.704511,0.7064009,0.7084627,nan,nan,nan,nan,nan,nan,nan,nan,0
32728000,32728000,0.7092416,0.6938145,0.7094647,0.69421583,nan,nan,nan,nan,nan,nan,nan,nan,0
32828000,32828000,0.70110446,0.7022429,0.7002875,0.70198697,nan,nan,nan,nan,nan,nan,nan,nan,0
32928000,32928000,0.70023483,0.7074369,0.700049,0.70748246,nan,nan,nan,nan,nan,nan,nan,nan,0
33028000,33028000,0.7060867,0.7047568,0.7056777,0.70411676,nan,nan,nan,nan,nan,nan,nan,nan,0
33124000,33124000,0.7083202,0.69055116,0.70824283,0.68769944,nan,nan,nan,nan,nan,nan,nan,nan,0
33228000,33228000,0.70168346,0.69652605,0.6995732,0.69745886,nan,nan,nan,nan,nan,nan,nan,nan,0
33328000,33328000,0.7041225,0.7014864,0.70071536,0.7026774,nan,nan,nan,nan,nan,nan,nan,nan,0
33428000,33428000,0.7084359,0.700313,0.707442,0.7022503,nan,nan,nan,nan,nan,nan,nan,nan,0
33528000,33528000,0.7083005,0.68914145,0.70716834,0.68877167,nan,nan,nan,nan,nan,nan,nan,nan,0
33624000,33624000,0.7033502,0.6952292,0.703531,0.6938124,nan,nan,nan,nan,nan,nan,nan,nan,0
33728000,33728000,0.70565283,0.7024091,0.7037536,0.70294064,nan,nan,nan,nan,nan,nan,nan,nan,0
33828000,33828000,0.71117395,0.7013247,0.7103125,0.7019257,nan,nan,nan,nan,nan,nan,nan,nan,0
33928000,33928000,0.70751846,0.6911973,0.7078056,0.6900371,nan,nan,nan,nan,nan,nan,nan,nan,0
34028000,34028000,0.7048152,0.6964469,0.7050401,0.6944764,nan,nan,nan,nan,nan,nan,nan,nan,0
34128000,34128000,0.7076972,0.70112956,0.7059016,0.70137554,nan,nan,nan,nan,nan,nan,nan,nan,0
34228000,34228000,0.7114611,0.70021725,0.71166444,0.70112103,nan,nan,nan,nan,nan,nan,nan,nan,0
34324000,34324000,0.70713866,0.6912491,0.70802283,0.68960476,nan,nan,nan,nan,nan,nan,nan,nan,0
34428000,34428000,0.70488685,0.69610447,0.7053515,0.69463587,nan,nan,nan,nan,nan,nan,nan,nan,0
34528000,34528000,0.70853883,0.7001216,0.7086386,0.6998585,nan,nan,nan,nan,nan,nan,nan,nan,0
34628000,34628000,0.7100287,0.7009664,0.7112102,0.6988861,nan,nan,nan,nan,nan,nan,nan,nan,0
34728000,34728000,0.7056558,0.69168013,0.7055769,0.69167525,nan,nan,nan,nan,nan,nan,nan,nan,0
34828000,34828000,0.70316976,0.6963915,0.7048556,0.6958255,nan,nan,nan,nan,nan,nan,nan,nan,0
34924000,34924000,0.70735145,0.70216024,0.7082243,0.7003149,nan,nan,nan,nan,nan,nan,nan,nan,0
35028000,35028000,0.71166515,0.7008827,0.7126188,0.70050263,nan,nan,nan,nan,nan,nan,nan,nan,0
35124000,35124000,0.7051443,0.69620776,0.7058535,0.6925159,nan,nan,nan,nan,nan,nan,nan,nan,0
35224000,35224000,0.7052698,0.695404,0.7046121,0.6966486,nan,nan,nan,nan,nan,nan,nan,nan,0
35328000,35328000,0.709504,0.700912,0.70911217,0.70108306,nan,nan,nan,nan,nan,nan,nan,nan,0
35428000,35428000,0.71203446,0.7014658,0.71199524,0.7014889,nan,nan,nan,nan,nan,nan,nan,nan,0
35528000,35528000,0.70379335,0.6957742,0.7056291,0.6949468,nan,nan,nan,nan,nan,nan,nan,nan,0
35628000,35628000,0.70426166,0.69936085,0.7036158,0.69738865,nan,nan,nan,nan,nan,nan,nan,nan,0
35728000,35728000,0.70904267,0.70125425,0.70828414,0.7019267,nan,nan,nan,nan,nan,nan,nan,nan,0
35824000,35824000,0.7103519,0.70272523,0.7104124,0.70228064,nan,nan,nan,nan,nan,nan,nan,nan,0
35924000,35924000,0.7034196,0.6970399,0.7041612,0.6969995,nan,nan,nan,nan,nan,nan,nan,nan,0
36024000,36024000,0.7039185,0.69851136,0.7044206,0.6975776,nan,nan,nan,nan,nan,nan,nan,nan,0
36128000,36128000,0.707572,0.70196193,0.70797443,0.7023049,nan,nan,nan,nan,nan,nan,nan,nan,0
36224000,36224000,0.71087146,0.7035244,0.71042156,0.7053258,nan,nan,nan,nan,nan,nan,nan,nan,0
36328000,36328000,0.70421934,0.6957931,0.70401984,0.69642186,nan,nan,nan,nan,nan,nan,nan,nan,0
36424000,36424000,0.7026874,0.6979507,0.70517296,0.6991094,nan,nan,nan,nan,nan,nan,nan,nan,0
36528000,36528000,0.7065319,0.70260876,0.70876485,0.70221174,nan,nan,nan,nan,nan,nan,nan,nan,0
36624000,36624000,0.7118012,0.7052148,0.71100557,0.70406264,nan,nan,nan,nan,nan,nan,nan,nan,0
36728000,36728000,0.70412374,0.69843835,0.7047036,0.69833064,nan,nan,nan,nan,nan,nan,nan,nan,0
36828000,36828000,0.70483,0.6996737,0.7058997,0.70086634,nan,nan,nan,nan,nan,nan,nan,nan,0
36924000,36924000,0.70828444,0.70520616,0.71019375,0.7040592,nan,nan,nan,nan,nan,nan,nan,nan,0
37028000,37028000,0.711877,0.7057615,0.71130204,0.7068847,nan,nan,nan,nan,nan,nan,nan,nan,0
37128000,37128000,0.70768815,0.7005311,0.7059968,0.69993925,nan,nan,nan,nan,nan,nan,nan,nan,0
37228000,37228000,0.70669895,0.70242864,0.70700014,0.70292044,nan,nan,nan,nan,nan,nan,nan,nan,0
37324000,37324000,0.7093245,0.706603,0.71010214,0.70674074,nan,nan,nan,nan,nan,nan,nan,nan,0
37428000,37428000,0.71327657,0.70691216,0.71194047,0.70805717,nan,nan,nan,nan,nan,nan,nan,nan,0
37528000,37528000,0.70783705,0.70202905,0.7069831,0.70231247,nan,nan,nan,nan,nan,nan,nan,nan,0
37628000,37628000,0.7084944,0.7022556,0.7093851,0.70239776,nan,nan,nan,nan,nan,nan,nan,nan,0
37728000,37728000,0.7112957,0.7065734,0.7115831,0.70659137,nan,nan,nan,nan,nan,nan,nan,nan,0
37824000,37824000,0.7138147,0.70730984,0.7123336,0.708936,nan,nan,nan,nan,nan,nan,nan,nan,0
37928000,37928000,0.70951337,0.700848,0.70890725,0.7031761,nan,nan,nan,nan,nan,nan,nan,nan,0
38028000,38028000,0.70931643,0.7038287,0.70952547,0.7047501,nan,nan,nan,nan,nan,nan,nan,nan,0
38128000,38128000,0.7127813,0.7062902,0.7130848,0.70780784,nan,nan,nan,nan,nan,nan,nan,nan,0
38228000,38228000,0.7136794,0.70902425,0.71399266,0.7078858,nan,nan,nan,nan,nan,nan,nan,nan,0
38328000,38328000,0.7102416,0.7022792,0.7099098,0.70383066,nan,nan,nan,nan,nan,nan,nan,nan,0
38428000,38428000,0.70912194,0.70509785,0.70962965,0.7050156,nan,nan,nan,nan,nan,nan,nan,nan,0
38528000,38528000,0.71256804,0.7080454,0.7118909,0.7070874,nan,nan,nan,nan,nan,nan,nan,nan,0
38628000,38628000,0.71465427,0.7083963,0.71591544,0.7070895,nan,nan,nan,nan,nan,nan,nan,nan,0
38724000,38724000,0.71141535,0.70386136,0.7118567,0.70489377,nan,nan,nan,nan,nan,nan,nan,nan,0
38828000,38828000,0.7121858,0.7063704,0.71286356,0.7059494,nan,nan,nan,nan,nan,nan,nan,nan,0
38924000,38924000,0.712697,0.7106635,0.7133233,0.7097744,nan,nan,nan,nan,nan,nan,nan,nan,0
39024000,39024000,0.71387887,0.7101521,0.7149594,0.70978457,nan,nan,nan,nan,nan,nan,nan,nan,0
39124000,39124000,0.7097078,0.7032592,0.708984,0.7047427,nan,nan,nan,nan,nan,nan,nan,nan,0
39228000,39228000,0.70969474,0.70552397,0.7097587,0.70363253,nan,nan,nan,nan,nan,nan,nan,nan,0
39324000,39324000,0.7115103,0.7081412,0.71111923,0.7067806,nan,nan,nan,nan,nan,nan,nan,nan,0
39428000,39428000,0.7133222,0.7090832,0.7132073,0.7082813,nan,nan,nan,nan,nan,nan,nan,nan,0
39528000,39528000,0.7123814,0.7032022,0.70933837,0.7058194,nan,nan,nan,nan,nan,nan,nan,nan,0
39628000,39628000,0.7107915,0.7060905,0.7118905,0.7068259,nan,nan,nan,nan,nan,nan,nan,nan,0
39724000,39724000,0.7117198,0.7090752,0.71407926,0.7074464,nan,nan,nan,nan,nan,nan,nan,nan,0
39828000,39828000,0.7149793,0.70801586,0.71484274,0.70885324,nan,nan,nan,nan,nan,nan,nan,nan,0
39928000,39928000,0.7132144,0.70459217,0.71043944,0.706127,nan,nan,nan,nan,nan,nan,nan,nan,0
40024000,40024000,0.71108353,0.7070357,0.71068245,0.7063583,nan,nan,nan,nan,nan,nan,nan,nan,0
40128000,40128000,0.712978,0.7079862,0.7139597,0.70680743,nan,nan,nan,nan,nan,nan,nan,nan,0
40224000,40224000,0.7154536,0.7085718,0.7150318,0.7070932,nan,nan,nan,nan,nan,nan,nan,nan,0
40328000,40328000,0.7125858,0.70431066,0.7125379,0.7056625,nan,nan,nan,nan,nan,nan,nan,nan,0
40428000,40428000,0.7125724,0.7051953,0.7141371,0.7054878,nan,nan,nan,nan,nan,nan,nan,nan,0
40528000,40528000,0.71228534,0.7096625,0.7135704,0.7086552,nan,nan,nan,nan,nan,nan,nan,nan,0
40628000,40628000,0.71631324,0.7081011,0.7124579,0.70968753,nan,nan,nan,nan,nan,nan,nan,nan,0
40728000,40728000,0.7127201,0.7054316,0.7108554,0.70690084,nan,nan,nan,nan,nan,nan,nan,nan,0
40828000,40828000,0.709894,0.70756817,0.71217746,0.70651436,nan,nan,nan,nan,nan,nan,nan,nan,0
40928000,40928000,0.7120146,0.70780927,0.7132931,0.70761585,nan,nan,nan,nan,nan,nan,nan,nan,0
41028000,41028000,0.7135166,0.70743865,0.7128566,0.7068497,nan,nan,nan,nan,nan,nan,nan,nan,0
41128000,41128000,0.712886,0.70201504,0.71154714,0.7049823,nan,nan,nan,nan,nan,nan,nan,nan,0
41228000,41228000,0.71055436,0.7062903,0.7109773,0.7067997,nan,nan,nan,nan,nan,nan,nan,nan,0
41328000,41328000,0.71130264,0.7085604,0.7124128,0.7066927,nan,nan,nan,nan,nan,nan,nan,nan,0
41428000,41428000,0.71429634,0.7064506,0.71287477,0.70713687,nan,nan,nan,nan,nan,nan,nan,nan,0
41528000,41528000,0.71278334,0.70414126,0.71221495,0.70504725,nan,nan,nan,nan,nan,nan,nan,nan,0
41628000,41628000,0.71015364,0.70756984,0.7112334,0.7057647,nan,nan,nan,nan,nan,nan,nan,nan,0
41728000,41728000,0.71145284,0.7076576,0.713008,0.706384,nan,nan,nan,nan,nan,nan,nan,nan,0
41828000,41828000,0.713513,0.70570135,0.713376,0.7076084,nan,nan,nan,nan,nan,nan,nan,nan,0
41928000,41928000,0.71095246,0.7041418,0.7102847,0.7049526,nan,nan,nan,nan,nan,nan,nan,nan,0
42028000,42028000,0.71060145,0.7045041,0.7106985,0.704838,nan,nan,nan,nan,nan,nan,nan,nan,0
42124000,42124000,0.7104833,0.70703006,0.71205926,0.70503426,nan,nan,nan,nan,nan,nan,nan,nan,0
42228000,42228000,0.71189344,0.7045247,0.71313083,0.7060481,nan,nan,nan,nan,nan,nan,nan,nan,0
42328000,42328000,0.7121202,0.70200855,0.710248,0.70399266,nan,nan,nan,nan,nan,nan,nan,nan,0
42428000,42428000,0.7091193,0.70496154,0.711728,0.7039596,nan,nan,nan,nan,nan,nan,nan,nan,0
42528000,42528000,0.7096776,0.70751154,0.7108989,0.7061269,nan,nan,nan,nan,nan,nan,nan,nan,0
42628000,42628000,0.7139132,0.7048825,0.71305853,0.7050386,nan,nan,nan,nan,nan,nan,nan,nan,0
42724000,42724000,0.7124403,0.70254,0.70924544,0.7058886,nan,nan,nan,nan,nan,nan,nan,nan,0
42828000,42828000,0.70964235,0.7057866,0.7102404,0.7040564,nan,nan,nan,nan,nan,nan,nan,nan,0
42928000,42928000,0.70981485,0.70680624,0.7122491,0.7054115,nan,nan,nan,nan,nan,nan,nan,nan,0
43024000,43024000,0.7116131,0.7067649,0.7123478,0.7071045,nan,nan,nan,nan,nan,nan,nan,nan,0
43128000,43128000,0.7115751,0.7030481,0.71115756,0.7049547,nan,nan,nan,nan,nan,nan,nan,nan,0
43228000,43228000,0.7101746,0.7053121,0.7112217,0.70466435,nan,nan,nan,nan,nan,nan,nan,nan,0
43324000,43324000,0.71025366,0.70774144,0.7113073,0.70438397,nan,nan,nan,nan,nan,nan,nan,nan,0
43428000,43428000,0.71224725,0.70603096,0.71106565,0.7055701,nan,nan,nan,nan,nan,nan,nan,nan,0
43528000,43528000,0.7122764,0.70227706,0.70978284,0.70356816,nan,nan,nan,nan,nan,nan,nan,nan,0
43628000,43628000,0.7088525,0.7063447,0.70901823,0.7035066,nan,nan,nan,nan,nan,nan,nan,nan,0
43728000,43728000,0.70798403,0.70678735,0.71086645,0.70532674,nan,nan,nan,nan,nan,nan,nan,nan,0
43824000,43824000,0.71036035,0.7059625,0.7124647,0.70545244,nan,nan,nan,nan,nan,nan,nan,nan,0
43924000,43924000,0.7121617,0.7040548,0.7109744,0.7050647,nan,nan,nan,nan,nan,nan,nan,nan,0
44028000,44028000,0.70992243,0.7068849,0.7124496,0.70461655,nan,nan,nan,nan,nan,nan,nan,nan,0
44128000,44128000,0.7106551,0.7078733,0.71151626,0.70699817,nan,nan,nan,nan,nan,nan,nan,nan,0
44224000,44224000,0.7114768,0.7064357,0.7119858,0.7057407,nan,nan,nan,nan,nan,nan,nan,nan,0
44324000,44324000,0.71247464,0.7016952,0.7113769,0.703479,nan,nan,nan,nan,nan,nan,nan,nan,0
44424000,44424000,0.7092025,0.7058547,0.7100329,0.70475817,nan,nan,nan,nan,nan,nan,nan,nan,0
44528000,44528000,0.70883316,0.7055875,0.7107587,0.70553845,nan,nan,nan,nan,nan,nan,nan,nan,0
44628000,44628000,0.7113614,0.70466423,0.7117051,0.70368874,nan,nan,nan,nan,nan,nan,nan,nan,0
44724000,44724000,0.7118166,0.70128417,0.7105082,0.70369893,nan,nan,nan,nan,nan,nan,nan,nan,0
44828000,44828000,0.71068454,0.7037334,0.71094954,0.7030465,nan,nan,nan,nan,nan,nan,nan,nan,0
44928000,44928000,0.7089472,0.70676565,0.7104413,0.70490676,nan,nan,nan,nan,nan,nan,nan,nan,0
45028000,45028000,0.71147287,0.70511436,0.7107585,0.70497495,nan,nan,nan,nan,nan,nan,nan,nan,0
45128000,45128000,0.71160704,0.70112354,0.70982593,0.7046427,nan,nan,nan,nan,nan,nan,nan,nan,0
45228000,45228000,0.71029735,0.70401156,0.7099913,0.7040275,nan,nan,nan,nan,nan,nan,nan,nan,0
45328000,45328000,0.70797145,0.7077561,0.7092574,0.70638204,nan,nan,nan,nan,nan,nan,nan,nan,0
45428000,45428000,0.7111383,0.70496404,0.70922077,0.70577425,nan,nan,nan,nan,nan,nan,nan,nan,0
45528000,45528000,0.7128083,0.7007777,0.71066517,0.7033283,nan,nan,nan,nan,nan,nan,nan,nan,0
45628000,45628000,0.70989203,0.7045612,0.7093959,0.7041655,nan,nan,nan,nan,nan,nan,nan,nan,0
45728000,45728000,0.70879364,0.70577955,0.71086806,0.70446044,nan,nan,nan,nan,nan,nan,nan,nan,0
45828000,45828000,0.71200264,0.70428616,0.71127146,0.70510924,nan,nan,nan,nan,nan,nan,nan,nan,0
45924000,45924000,0.71142536,0.7013976,0.7100329,0.7034858,nan,nan,nan,nan,nan,nan,nan,nan,0
46028000,46028000,0.7091224,0.7039993,0.7104484,0.703267,nan,nan,nan,nan,nan,nan,nan,nan,0
46124000,46124000,0.70850265,0.70665675,0.7104427,0.7036129,nan,nan,nan,nan,nan,nan,nan,nan,0
46224000,46224000,0.7107194,0.7057222,0.7109805,0.70527244,nan,nan,nan,nan,nan,nan,nan,nan,0
46328000,46328000,0.7120903,0.7025138,0.71114296,0.7047392,nan,nan,nan,nan,nan,nan,nan,nan,0
46424000,46424000,0.71075,0.70434713,0.71073097,0.705074,nan,nan,nan,nan,nan,nan,nan,nan,0
46528000,46528000,0.7083013,0.7062833,0.71123344,0.7056165,nan,nan,nan,nan,nan,nan,nan,nan,0
46628000,46628000,0.7121161,0.7039785,0.710762,0.704272,nan,nan,nan,nan,nan,nan,nan,nan,0
46728000,46728000,0.711098,0.7009827,0.70955104,0.70386827,nan,nan,nan,nan,nan,nan,nan,nan,0
46828000,46828000,0.70852906,0.70371664,0.7093762,0.7021887,nan,nan,nan,nan,nan,nan,nan,nan,0
46924000,46924000,0.70736945,0.7055137,0.7090273,0.7038752,nan,nan,nan,nan,nan,nan,nan,nan,0
47028000,47028000,0.71212643,0.70224106,0.7106561,0.7035186,nan,nan,nan,nan,nan,nan,nan,nan,0
47128000,47128000,0.71067685,0.701795,0.71069974,0.7025399,nan,nan,nan,nan,nan,nan,nan,nan,0
47228000,47228000,0.7094365,0.7051707,0.7088962,0.70422775,nan,nan,nan,nan,nan,nan,nan,nan,0
47328000,47328000,0.7098169,0.7064917,0.70972234,0.7051275,nan,nan,nan,nan,nan,nan,nan,nan,0
47428000,47428000,0.71192336,0.7055727,0.71028507,0.70525765,nan,nan,nan,nan,nan,nan,nan,nan,0
47524000,47524000,0.71225417,0.7016134,0.7095587,0.7047428,nan,nan,nan,nan,nan,nan,nan,nan,0
47628000,47628000,0.7096087,0.705251,0.71073914,0.7048756,nan,nan,nan,nan,nan,nan,nan,nan,0
47728000,47728000,0.7100563,0.70588076,0.7121274,0.7043335,nan,nan,nan,nan,nan,nan,nan,nan,0
47828000,47828000,0.7114539,0.70437753,0.7123416,0.7039471,nan,nan,nan,nan,nan,nan,nan,nan,0
47928000,47928000,0.71189946,0.7022089,0.7105839,0.7030453,nan,nan,nan,nan,nan,nan,nan,nan,0
48028000,48028000,0.7110171,0.7029458,0.70848984,0.70397544,nan,nan,nan,nan,nan,nan,nan,nan,0
48128000,48128000,0.7088036,0.70603466,0.7101534,0.7041137,nan,nan,nan,nan,nan,nan,nan,nan,0
48228000,48228000,0.71165776,0.7040385,0.7096004,0.7058231,nan,nan,nan,nan,nan,nan,nan,nan,0
48328000,48328000,0.71218735,0.70207745,0.709156,0.7046086,nan,nan,nan,nan,nan,nan,nan,nan,0
48428000,48428000,0.70949966,0.705162,0.71079475,0.704781,nan,nan,nan,nan,nan,nan,nan,nan,0
48528000,48528000,0.71049535,0.7053199,0.7113393,0.7056394,nan,nan,nan,nan,nan,nan,nan,nan,0
48628000,48628000,0.7115599,0.7043485,0.7129608,0.7049855,nan,nan,nan,nan,nan,nan,nan,nan,0
48728000,48728000,0.7143941,0.7021722,0.7122471,0.7038764,nan,nan,nan,nan,nan,nan,nan,nan,0
48828000,48828000,0.7103385,0.7054949,0.7115626,0.70558375,nan,nan,nan,nan,nan,nan,nan,nan,0
48928000,48928000,0.7106137,0.7055861,0.7106284,0.70644,nan,nan,nan,nan,nan,nan,nan,nan,0
49028000,49028000,0.7118333,0.70385945,0.71175593,0.7052363,nan,nan,nan,nan,nan,nan,nan,nan,0
49124000,49124000,0.7117855,0.70299804,0.7106122,0.70379144,nan,nan,nan,nan,nan,nan,nan,nan,0
49228000,49228000,0.7103931,0.705263,0.7109683,0.7041659,nan,nan,nan,nan,nan,nan,nan,nan,0
49328000,49328000,0.71045816,0.7065112,0.7109639,0.70611477,nan,nan,nan,nan,nan,nan,nan,nan,0
49428000,49428000,0.7119097,0.70548964,0.7106521,0.7063108,nan,nan,nan,nan,nan,nan,nan,nan,0
49524000,49524000,0.7126072,0.70282954,0.71105015,0.70359075,nan,nan,nan,nan,nan,nan,nan,nan,0
49624000,49624000,0.7097613,0.7059484,0.7107532,0.7041333,nan,nan,nan,nan,nan,nan,nan,nan,0
49724000,49724000,0.7097177,0.70741004,0.71046644,0.70561224,nan,nan,nan,nan,nan,nan,nan,nan,0
49828000,49828000,0.71160036,0.70508593,0.71253127,0.70407134,nan,nan,nan,nan,nan,nan,nan,nan,0
49928000,49928000,0.7112608,0.7018671,0.70918113,0.7051143,nan,nan,nan,nan,nan,nan,nan,nan,0
50028000,50028000,0.73151624,0.6957136,0.7188037,0.7081764,nan,nan,nan,nan,nan,nan,nan,nan,0
50124000,50124000,0.75269836,0.72520167,0.74467456,0.73290384,nan,nan,nan,nan,nan,nan,nan,nan,0
50228000,50228000,0.75348145,0.74965817,0.7530778,0.7480872,nan,nan,nan,nan,nan,nan,nan,nan,0
50324000,50324000,0.7465885,0.75368875,0.7534117,0.7509921,nan,nan,nan,nan,nan,nan,nan,nan,0
50428000,50428000,0.75227183,0.75209963,0.7542742,0.7514633,nan,nan,nan,nan,nan,nan,nan,nan,0
50528000,50528000,0.75904065,0.7498702,0.75833565,0.7505584,nan,nan,nan,nan,nan,nan,nan,nan,0
50628000,50628000,0.7526791,0.7540207,0.757423,0.7504749,nan,nan,nan,nan,nan,nan,nan,nan,0
50728000,50728000,0.7402944,0.7439985,0.7452618,0.74175423,nan,nan,nan,nan,nan,nan,nan,nan,0
50828000,50828000,0.74875927,0.73588324,0.7467493,0.7401942,nan,nan,nan,nan,nan,nan,nan,nan,0
50928000,50928000,0.75547105,0.73800284,0.74990577,0.7436368,nan,nan,nan,nan,nan,nan,nan,nan,0
51028000,51028000,0.7400291,0.74643236,0.7472031,0.7403247,nan,nan,nan,nan,nan,nan,nan,nan,0
51128000,51128000,0.7228992,0.7327573,0.73001575,0.7273951,nan,nan,nan,nan,nan,nan,nan,nan,0
51228000,51228000,0.7391357,0.71823174,0.7348451,0.72360355,nan,nan,nan,nan,nan,nan,nan,nan,0
51328000,51328000,0.7488221,0.72161317,0.7392254,0.73094594,nan,nan,nan,nan,nan,nan,nan,nan,0
51424000,51424000,0.7439279,0.73144656,0.7428868,0.73279047,nan,nan,nan,nan,nan,nan,nan,nan,0
51528000,51528000,0.70495236,0.7225955,0.7151545,0.7149462,nan,nan,nan,nan,nan,nan,nan,nan,0
51624000,51624000,0.7228301,0.7052573,0.7179653,0.7094363,nan,nan,nan,nan,nan,nan,nan,nan,0
51724000,51724000,0.7385818,0.7030089,0.7279602,0.7133362,nan,nan,nan,nan,nan,nan,nan,nan,0
51828000,51828000,0.72528267,0.71961737,0.7267042,0.7165353,nan,nan,nan,nan,nan,nan,nan,nan,0
51928000,51928000,0.6911965,0.7087091,0.7000044,0.70098877,nan,nan,nan,nan,nan,nan,nan,nan,0
52028000,52028000,0.7099407,0.6885192,0.704284,0.6951456,nan,nan,nan,nan,nan,nan,nan,nan,0
52128000,52128000,0.7242875,0.69062716,0.7129569,0.70062774,nan,nan,nan,nan,nan,nan,nan,nan,0
52228000,52228000,0.71376324,0.7052904,0.7125752,0.70481914,nan,nan,nan,nan,nan,nan,nan,nan,0
52328000,52328000,0.6780774,0.6949769,0.68565094,0.6842118,nan,nan,nan,nan,nan,nan,nan,nan,0
52428000,52428000,0.69327414,0.6772545,0.6881343,0.6795313,nan,nan,nan,nan,nan,nan,nan,nan,0
52528000,52528000,0.70865875,0.6772789,0.6975082,0.6862857,nan,nan,nan,nan,nan,nan,nan,nan,0
52628000,52628000,0.69998217,0.6907609,0.69962436,0.68955004,nan,nan,nan,nan,nan,nan,nan,nan,0
52728000,52728000,0.66646886,0.6813622,0.67395973,0.67322797,nan,nan,nan,nan,nan,nan,nan,nan,0
52824000,52824000,0.677118,0.6665248,0.67567235,0.66819817,nan,nan,nan,nan,nan,nan,nan,nan,0
52928000,52928000,0.6912067,0.66889036,0.68367815,0.67716706,nan,nan,nan,nan,nan,nan,nan,nan,0
53028000,53028000,0.686361,0.6769749,0.6859987,0.67865604,nan,nan,nan,nan,nan,nan,nan,nan,0
53128000,53128000,0.6569392,0.66809684,0.66455704,0.6608967,nan,nan,nan,nan,nan,nan,nan,nan,0
53228000,53228000,0.6645724,0.6576022,0.6646404,0.6588723,nan,nan,nan,nan,nan,nan,nan,nan,0
53328000,53328000,0.6762997,0.66100043,0.67187506,0.66348946,nan,nan,nan,nan,nan,nan,nan,nan,0
53428000,53428000,0.67573076,0.66824025,0.67639655,0.6683777,nan,nan,nan,nan,nan,nan,nan,nan,0
53528000,53528000,0.65429854,0.6619423,0.660911,0.65601707,nan,nan,nan,nan,nan,nan,nan,nan,0
53628000,53628000,0.6596389,0.6612674,0.662705,0.6591783,nan,nan,nan,nan,nan,nan,nan,nan,0
53728000,53728000,0.6710163,0.6683382,0.6727737,0.6668274,nan,nan,nan,nan,nan,nan,nan,nan,0
53824000,53824000,0.67836803,0.6707599,0.67876816,0.67094594,nan,nan,nan,nan,nan,nan,nan,nan,0
53928000,53928000,0.66775155,0.6662703,0.6695573,0.6654899,nan,nan,nan,nan,nan,nan,nan,nan,0
54028000,54028000,0.66737634,0.67556584,0.6730935,0.670215,nan,nan,nan,nan,nan,nan,nan,nan,0
54128000,54128000,0.6728788,0.68329245,0.68071944,0.6771515,nan,nan,nan,nan,nan,nan,nan,nan,0
54224000,54224000,0.6852294,0.68188775,0.6860374,0.6809455,nan,nan,nan,nan,nan,nan,nan,nan,0
54328000,54328000,0.6859688,0.6771581,0.6864202,0.6794222,nan,nan,nan,nan,nan,nan,nan,nan,0
54428000,54428000,0.6796048,0.6906306,0.68715703,0.6845075,nan,nan,nan,nan,nan,nan,nan,nan,0
54528000,54528000,0.6771619,0.7014315,0.6910384,0.6908431,nan,nan,nan,nan,nan,nan,nan,nan,0
54628000,54628000,0.69991297,0.689212,0.69730306,0.69271076,nan,nan,nan,nan,nan,nan,nan,nan,0
54728000,54728000,0.70762646,0.691911,0.7052605,0.6977807,nan,nan,nan,nan,nan,nan,nan,nan,0
54828000,54828000,0.6933416,0.71283644,0.70677805,0.7024626,nan,nan,nan,nan,nan,nan,nan,nan,0
54928000,54928000,0.6868251,0.72291654,0.7047983,0.706202,nan,nan,nan,nan,nan,nan,nan,nan,0
55024000,55024000,0.69226664,0.71950924,0.7042299,0.70671946,nan,nan,nan,nan,nan,nan,nan,nan,0
55128000,55128000,0.69885176,0.70780146,0.7036745,0.7012191,nan,nan,nan,nan,nan,nan,nan,nan,0
55228000,55228000,0.6987874,0.703259,0.7018756,0.6994022,nan,nan,nan,nan,nan,nan,nan,nan,0
55328000,55328000,0.6977213,0.7026633,0.70031464,0.69958013,nan,nan,nan,nan,nan,nan,nan,nan,0
55428000,55428000,0.69826376,0.7034937,0.7006386,0.69887155,nan,nan,nan,nan,nan,nan,nan,nan,0
55524000,55524000,0.7033687,0.7035805,0.70353985,0.7031136,nan,nan,nan,nan,nan,nan,nan,nan,0
55628000,55628000,0.69876266,0.7097531,0.7060331,0.70373756,nan,nan,nan,nan,nan,nan,nan,nan,0
55728000,55728000,0.6965551,0.71434194,0.704684,0.7036376,nan,nan,nan,nan,nan,nan,nan,nan,0
55828000,55828000,0.9360023,0.46096358,0.7931407,0.5767376,nan,nan,nan,nan,nan,nan,nan,nan,0
55928000,55928000,0.6863994,0.8771128,0.71821,0.7917553,nan,nan,nan,nan,nan,nan,nan,nan,0
56028000,56028000,0.7554979,1.0,0.62882036,0.7441863,nan,nan,nan,nan,nan,nan,nan,nan,0
56128000,56128000,0.9880427,1.0,0.8023974,0.8275285,nan,nan,nan,nan,nan,nan,nan,nan,0
56228000,56228000,1.0,0.75393844,0.84310836,0.6370829,nan,nan,nan,nan,nan,nan,nan,nan,0
56324000,56324000,1.1920929e-07,1.0,0.0,0.99999964,nan,nan,nan,nan,nan,nan,nan,nan,0
56428000,56428000,0.019448578,1.0,0.0,0.59916174,nan,nan,nan,nan,nan,nan,nan,nan,0
56528000,56528000,0.0,1.0,0.0,0.5324212,nan,nan,nan,nan,nan,nan,nan,nan,0
56624000,56624000,0.0,1.0,0.0,0.50209624,nan,nan,nan,nan,nan,nan,nan,nan,0
56724000,56724000,0.0,1.0,0.0,0.4785381,nan,nan,nan,nan,nan,nan,nan,nan,0
56828000,56828000,0.0,1.0,0.0,0.48640564,nan,nan,nan,nan,nan,nan,nan,nan,0
56928000,56928000,0.0,1.0,0.0,0.50753367,nan,nan,nan,nan,nan,nan,nan,nan,0
57028000,57028000,0.0,1.0,0.0,0.5289202,nan,nan,nan,nan,nan,nan,nan,nan,0
57128000,57128000,0.0,0.23999996,0.0,0.23999996,nan,nan,nan,nan,nan,nan,nan,nan,0
57224000,57224000,0.09593549,0.16374275,0.14094283,0.07937887,nan,nan,nan,nan,nan,nan,nan,nan,0
57328000,57328000,0.09282534,0.16627926,0.14547674,0.075418636,nan,nan,nan,nan,nan,nan,nan,nan,0
57428000,57428000,0.09111329,0.1672284,0.14944604,0.07221223,nan,nan,nan,nan,nan,nan,nan,nan,0
57524000,57524000,0.08810688,0.17067194,0.15341008,0.06781107,nan,nan,nan,nan,nan,nan,nan,nan,0
57628000,57628000,0.08574979,0.17261834,0.15589163,0.0657402,nan,nan,nan,nan,nan,nan,nan,nan,0
57728000,57728000,0.08209758,0.1756207,0.16157727,0.0607044,nan,nan,nan,nan,nan,nan,nan,nan,0
57828000,57828000,0.080325745,0.17793848,0.16427842,0.057457324,nan,nan,nan,nan,nan,nan,nan,nan,0
57924000,57924000,0.07908423,0.17988232,0.16811964,0.052913763,nan,nan,nan,nan,nan,nan,nan,nan,0
58028000,58028000,0.07565256,0.18176633,0.172419,0.05016207,nan,nan,nan,nan,nan,nan,nan,nan,0
58124000,58124000,0.072413065,0.18454017,0.1756214,0.047425337,nan,nan,nan,nan,nan,nan,nan,nan,0
58228000,58228000,0.06989422,0.18695195,0.17905593,0.04409787,nan,nan,nan,nan,nan,nan,nan,nan,0
58328000,58328000,0.07769521,0.20000203,0.19352727,0.049554568,nan,nan,nan,nan,nan,nan,nan,nan,0
58428000,58428000,0.08138565,0.20721702,0.20242792,0.05151967,nan,nan,nan,nan,nan,nan,nan,nan,0
58528000,58528000,0.068739235,0.20141025,0.19849142,0.04040799,nan,nan,nan,nan,nan,nan,nan,nan,0
58628000,58628000,0.07422678,0.2099232,0.20987712,0.04331445,nan,nan,nan,nan,nan,nan,nan,nan,0
58728000,58728000,0.10954454,0.25117537,0.25099328,0.0756184,nan,nan,nan,nan,nan,nan,nan,nan,0
58824000,58824000,0.12386642,0.2690199,0.27113852,0.08779231,nan,nan,nan,nan,nan,nan,nan,nan,0
58928000,58928000,0.122485,0.27243903,0.2763841,0.08732999,nan,nan,nan,nan,nan,nan,nan,nan,0
59028000,59028000,0.12416935,0.27824685,0.2850281,0.08841095,nan,nan,nan,nan,nan,nan,nan,nan,0
59128000,59128000,0.17001519,0.33152363,0.3362445,0.13377427,nan,nan,nan,nan,nan,nan,nan,nan,0
59228000,59228000,0.19648533,0.36150408,0.3690879,0.1565556,nan,nan,nan,nan,nan,nan,nan,nan,0
59328000,59328000,0.20575018,0.37394866,0.38473552,0.16410773,nan,nan,nan,nan,nan,nan,nan,nan,0
59428000,59428000,0.22318272,0.3957864,0.40862286,0.18065858,nan,nan,nan,nan,nan,nan,nan,nan,0
59528000,59528000,0.27418914,0.45428157,0.46587288,0.2311662,nan,nan,nan,nan,nan,nan,nan,nan,0
59628000,59628000,0.30760434,0.4909676,0.5056731,0.26136437,nan,nan,nan,nan,nan,nan,nan,nan,0
59724000,59724000,0.32240874,0.5093683,0.52666426,0.27703997,nan,nan,nan,nan,nan,nan,nan,nan,0
59828000,59828000,0.34570962,0.5396539,0.5572768,0.2989868,nan,nan,nan,nan,nan,nan,nan,nan,0
59928000,59928000,0.40203187,0.59845394,0.6185199,0.3534179,nan,nan,nan,nan,nan,nan,nan,nan,0
60028000,60028000,0.43277672,0.6357831,0.6552227,0.38244423,nan,nan,nan,nan,nan,nan,nan,nan,0
60128000,60128000,0.42671776,0.6329165,0.65491647,0.37538692,nan,nan,nan,nan,nan,nan,nan,nan,0
60228000,60228000,0.42390117,0.6344338,0.6596267,0.37345344,nan,nan,nan,nan,nan,nan,nan,nan,0
60328000,60328000,0.45250565,0.6656843,0.6937655,0.39724135,nan,nan,nan,nan,nan,nan,nan,nan,0
60428000,60428000,0.46035612,0.6788821,0.7081868,0.40307605,nan,nan,nan,nan,nan,nan,nan,nan,0
60528000,60528000,0.45363975,0.67540777,0.70654356,0.39675212,nan,nan,nan,nan,nan,nan,nan,nan,0
60628000,60628000,0.44719276,0.6717572,0.7060789,0.38860303,nan,nan,nan,nan,nan,nan,nan,nan,0
60728000,60728000,0.47407535,0.7020066,0.7385779,0.41130677,nan,nan,nan,nan,nan,nan,nan,nan,0
60824000,60824000,0.48279893,0.71000654,0.7462811,0.4209417,nan,nan,nan,nan,nan,nan,nan,nan,0
60928000,60928000,0.48071012,0.69506073,0.7366809,0.41672203,nan,nan,nan,nan,nan,nan,nan,nan,0
61028000,61028000,0.47690457,0.69137716,0.7348196,0.41381228,nan,nan,nan,nan,nan,nan,nan,nan,0
61124000,61124000,0.5090135,0.7111081,0.75731915,0.44242585,nan,nan,nan,nan,nan,nan,nan,nan,0
61224000,61224000,0.52467906,0.696791,0.74486774,0.45921886,nan,nan,nan,nan,nan,nan,nan,nan,0
61328000,61328000,0.53410643,0.67297024,0.726079,0.4653774,nan,nan,nan,nan,nan,nan,nan,nan,0
61424000,61424000,0.54195666,0.6667812,0.72167635,0.47264746,nan,nan,nan,nan,nan,nan,nan,nan,0
61528000,61528000,0.57781404,0.68557215,0.74240214,0.5066015,nan,nan,nan,nan,nan,nan,nan,nan,0
61624000,61624000,0.5985081,0.6748559,0.7335924,0.5263779,nan,nan,nan,nan,nan,nan,nan,nan,0
61728000,61728000,0.6106432,0.6546611,0.71784943,0.5368117,nan,nan,nan,nan,nan,nan,nan,nan,0
61828000,61828000,0.6191948,0.64960384,0.71507734,0.54551625,nan,nan,nan,nan,nan,nan,nan,nan,0
61924000,61924000,0.6528548,0.6675496,0.7368905,0.5777094,nan,nan,nan,nan,nan,nan,nan,nan,0
62028000,62028000,0.6698452,0.6540338,0.7321487,0.6025247,nan,nan,nan,nan,nan,nan,nan,nan,0
62128000,62128000,0.65840966,0.61895806,0.7388966,0.63797486,nan,nan,nan,nan,nan,nan,nan,nan,0
62228000,62228000,0.6338494,0.5847648,0.7734104,0.6886109,nan,nan,nan,nan,nan,nan,nan,nan,0
62328000,62328000,0.6217788,0.56026536,0.82278943,0.763876,nan,nan,nan,nan,nan,nan,nan,nan,0
62428000,62428000,0.6039847,0.55235624,0.8262487,0.7976046,nan,nan,nan,nan,nan,nan,nan,nan,0
62524000,62524000,0.6110046,0.58090866,0.79506385,0.77838326,nan,nan,nan,nan,nan,nan,nan,nan,0
62624000,62624000,0.62836903,0.60840905,0.7717691,0.7515348,nan,nan,nan,nan,nan,nan,nan,nan,0
62728000,62728000,0.6663834,0.64880633,0.77641565,0.75710255,nan,nan,nan,nan,nan,nan,nan,nan,0
62828000,62828000,0.692453,0.6878073,0.7401066,0.7353629,nan,nan,nan,nan,nan,nan,nan,nan,0
62928000,62928000,0.7105552,0.7120379,0.7055865,0.70612687,nan,nan,nan,nan,nan,nan,nan,nan,0
63024000,63024000,0.7175396,0.7175989,0.6948566,0.6892917,nan,nan,nan,nan,nan,nan,nan,nan,0
63124000,63124000,0.67676336,0.6896393,0.10323468,0.0,nan,nan,nan,nan,nan,nan,nan,nan,0
63228000,63228000,0.48092592,0.76015306,0.44819024,0.0,nan,nan,nan,nan,nan,nan,nan,nan,0
63328000,63328000,0.4778555,0.5373602,0.22474442,0.0,nan,nan,nan,nan,nan,nan,nan,nan,0
63428000,63428000,0.44453204,0.49534577,0.23055129,0.0,nan,nan,nan,nan,nan,nan,nan,nan,0
63528000,63528000,0.3885861,0.42618752,0.23080018,0.0,nan,nan,nan,nan,nan,nan,nan,nan,0
63628000,63628000,0.3485293,0.3765153,0.23073,0.0,nan,nan,nan,nan,nan,nan,nan,nan,0
63724000,63724000,0.32094923,0.34171402,0.23564786,0.0,nan,nan,nan,nan,nan,nan,nan,nan,0
63828000,63828000,0.29369953,0.30819786,0.237878,0.0,nan,nan,nan,nan,nan,nan,nan,nan,0
63924000,63924000,0.24609128,0.24962014,0.23800048,0.0,nan,nan,nan,nan,nan,nan,nan,nan,0
64028000,64028000,0.21095881,0.20537218,0.23847505,0.0,nan,nan,nan,nan,nan,nan,nan,nan,0
64128000,64128000,0.18443817,0.17577529,0.24238709,0.0,nan,nan,nan,nan,nan,nan,nan,nan,0
64224000,64224000,0.4785205,0.4636805,0.3892104,0.0,nan,nan,nan,nan,nan,nan,nan,nan,0
64328000,64328000,0.49058577,0.40140396,0.39926487,0.0,nan,nan,nan,nan,nan,nan,nan,nan,0
64424000,64424000,0.52072966,0.38489127,0.41363838,0.0,nan,nan,nan,nan,nan,nan,nan,nan,0
64528000,64528000,0.5565683,0.38702357,0.43032962,0.0,nan,nan,nan,nan,nan,nan,nan,nan,0
64624000,64624000,0.19363557,0.017880965,0.2523483,0.016135123,nan,nan,nan,nan,nan,nan,nan,nan,0
64724000,64724000,0.19691008,0.014766995,0.25227872,0.01604418,nan,nan,nan,nan,nan,nan,nan,nan,0
64824000,64824000,0.85263276,0.626167,0.7431314,0.40027076,nan,nan,nan,nan,nan,nan,nan,nan,0
64928000,64928000,0.75178766,0.5578249,0.7292037,0.47273698,nan,nan,nan,nan,nan,nan,nan,nan,0
65024000,65024000,0.6970707,0.50075793,0.75277174,0.5200863,nan,nan,nan,nan,nan,nan,nan,nan,0
65128000,65128000,0.6718746,0.43664128,0.7708991,0.54507285,nan,nan,nan,nan,nan,nan,nan,nan,0
65228000,65228000,0.6515,0.34295985,0.8105277,0.5897941,nan,nan,nan,nan,nan,nan,nan,nan,0
65324000,65324000,0.6514827,0.2591699,0.84284914,0.61505806,nan,nan,nan,nan,nan,nan,nan,nan,0
65428000,65428000,0.6649797,0.18327196,0.8437506,0.6215756,nan,nan,nan,nan,nan,nan,nan,nan,0
65528000,65528000,0.725986,0.15730311,0.79900825,0.55579454,nan,nan,nan,nan,nan,nan,nan,nan,0
65628000,65628000,0.7030476,0.16009787,0.67027485,0.5255402,nan,nan,nan,nan,nan,nan,nan,nan,0
65728000,65728000,0.70925754,0.13590132,0.6235732,0.4954583,nan,nan,nan,nan,nan,nan,nan,nan,0
65828000,65828000,0.7252477,0.1277977,0.5931505,0.482274,nan,nan,nan,nan,nan,nan,nan,nan,0
65928000,65928000,0.7365062,0.10778347,0.5567205,0.47084343,nan,nan,nan,nan,nan,nan,nan,nan,0
66024000,66024000,0.735968,0.07766555,0.52900106,0.4715068,nan,nan,nan,nan,nan,nan,nan,nan,0
66124000,66124000,0.73842746,0.050881647,0.5019206,0.46568352,nan,nan,nan,nan,nan,nan,nan,nan,0
66228000,66228000,0.7389596,0.022854596,0.472555,0.4595056,nan,nan,nan,nan,nan,nan,nan,nan,0
66328000,66328000,0.7414621,0.0,0.43167502,0.44707638,nan,nan,nan,nan,nan,nan,nan,nan,0
66428000,66428000,0.7600655,0.0,0.37582138,0.4112025,nan,nan,nan,nan,nan,nan,nan,nan,0
66528000,66528000,0.7412546,0.0,0.36188322,0.3793713,nan,nan,nan,nan,nan,nan,nan,nan,0
66628000,66628000,0.70747143,0.0,0.3629253,0.34454605,nan,nan,nan,nan,nan,nan,nan,nan,0
66728000,66728000,0.6677435,0.0,0.35663915,0.31110433,nan,nan,nan,nan,nan,nan,nan,nan,0
66828000,66828000,0.6273787,0.0,0.35373163,0.27364704,nan,nan,nan,nan,nan,nan,nan,nan,0
66924000,66924000,0.5916263,0.0,0.35283,0.2387962,nan,nan,nan,nan,nan,nan,nan,nan,0
67028000,67028000,0.5531453,0.0,0.350308,0.20283721,nan,nan,nan,nan,nan,nan,nan,nan,0
67128000,67128000,0.51363677,0.0,0.3420382,0.17159852,nan,nan,nan,nan,nan,nan,nan,nan,0
67224000,67224000,0.47193372,0.0,0.33816278,0.13377091,nan,nan,nan,nan,nan,nan,nan,nan,0
67324000,67324000,0.43348658,0.0,0.33616632,0.09732023,nan,nan,nan,nan,nan,nan,nan,nan,0
67428000,67428000,0.39074725,0.0,0.33504608,0.05570112,nan,nan,nan,nan,nan,nan,nan,nan,0
67524000,67524000,0.3499209,0.0,0.32472235,0.025198612,nan,nan,nan,nan,nan,nan,nan,nan,0
67628000,67628000,0.30487764,0.0,0.3048777,0.0,nan,nan,nan,nan,nan,nan,nan,nan,0
67728000,67728000,0.2629968,0.0,0.2629967,0.0,nan,nan,nan,nan,nan,nan,nan,nan,0
67828000,67828000,0.24,0.0,0.23999998,0.0,nan,nan,nan,nan,nan,nan,nan,nan,0
67928000,67928000,0.23999998,0.0,0.23999994,0.0,nan,nan,nan,nan,nan,nan,nan,nan,0
68028000,68028000,0.23999995,0.0,0.23999998,0.0,nan,nan,nan,nan,nan,nan,nan,nan,0
68128000,68128000,0.23999998,0.0,0.23999996,0.0,nan,nan,nan,nan,nan,nan,nan,nan,0
68228000,68228000,0.23999995,0.0,0.23999995,0.0,nan,nan,nan,nan,nan,nan,nan,nan,0
68324000,68324000,0.23999998,0.0,0.23999995,0.0,nan,nan,nan,nan,nan,nan,nan,nan,0
68428000,68428000,0.23999998,0.0,0.23999996,0.0,nan,nan,nan,nan,nan,nan,nan,nan,0
